{"last_updated":1706432850,"ttl":30,"version":"2.2","data":{"bikes":[{"bike_id":"11bbb38f-2a8a-435c-a72b-1587cac4755b","system_id":"levelo_inurba_marseille","lat":43.312239,"lon":5.368562,"is_reserved":false,"is_disabled":false,"rental_uris":{"android":"levelo://app?vid=11bbb38f-2a8a-435c-a72b-1587cac4755b","ios":"levelo://app?vid=11bbb38f-2a8a-435c-a72b-1587cac4755b"},"vehicle_type_id":"4","last_reported":1706432850,"current_range_meters":26400,"station_id":"ce4bgl92rcd13ifvqbq0","pricing_plan_id":"free"},{"bike_id":"5fc57ca2-f1a6-4bb9-89c8-156190f0c212","system_id":"levelo_inurba_marseille","lat":43.309133,"lon":5.36844,"is_reserved":false,"is_disabled":false,"rental_uris":{"android":"levelo://app?vid=5fc57ca2-f1a6-4bb9-89c8-156190f0c212","ios":"levelo://app?vid=5fc57ca2-f1a6-4bb9-89c8-156190f0c212"},"vehicle_type_id":"4","last_reported":1706432850,"current_range_meters":25200,"station_id":"ce4bgn92rcd13ifvqbvg","pricing_plan_id":"free"},{"bike_id":"66cd4499-f625-4e57-99dc-474b013d0767","system_id":"levelo_inurba_marseille","lat":43.309076,"lon":5.368465,"is_reserved":false,"is_disabled":false,"rental_uris":{"android":"levelo://app?vid=66cd4499-f625-4e57-99dc-474b013d0767","ios":"levelo://app?vid=66cd4499-f625-4e57-99dc-474b013d0767"},"vehicle_type_id":"4","last_reported":1706432850,"current_range_meters":26800,"station_id":"ce4bgn92rcd13ifvqbvg","pricing_plan_id":"free"},{"bike_id":"be0a28db-dfa5-4db2-9442-7b4ef8682a46","system_id":"levelo_inurba_marseille","lat":43.30908,"lon":5.36853,"is_reserved":false,"is_disabled":false,"rental_uris":{"android":"levelo://app?vid=be0a28db-dfa5-4db2-9442-7b4ef8682a46","ios":"levelo://app?vid=be0a28db-dfa5-4db2-9442-7b4ef8682a46"},"vehicle_type_id":"4","last_reported":1706432850,"current_range_meters":29200,"station_id":"ce4bgn92rcd13ifvqbvg","pricing_plan_id":"free"},{"bike_id":"912f9e70-5841-422d-a830-629990968328","system_id":"levelo_inurba_marseille","lat":43.30906,"lon":5.36851,"is_reserved":false,"is_disabled":false,"rental_uris":{"android":"levelo://app?vid=912f9e70-5841-422d-a830-629990968328","ios":"levelo://app?vid=912f9e70-5841-422d-a830-629990968328"},"vehicle_type_id":"4","last_reported":1706432850,"current_range_meters":12000,"station_id":"","pricing_plan_id":"free"},{"bike_id":"c5070563-51ee-452b-a1d8-1f9664cbb6b9","system_id":"levelo_inurba_marseille","lat":43.314811,"lon":5.373103,"is_reserved":false,"is_disabled":false,"rental_uris":{"android":"levelo://app?vid=c5070563-51ee-452b-a1d8-1f9664cbb6b9","ios":"levelo://app?vid=c5070563-51ee-452b-a1d8-1f9664cbb6b9"},"vehicle_type_id":"4","last_reported":1706432850,"current_range_meters":31600,"station_id":"ce4bgt12rcd13ifvqcd0","pricing_plan_id":"free"},{"bike_id":"a8ab23e8-1be9-448a-90f7-58b9fadc1511","system_id":"levelo_inurba_marseille","lat":43.314811,"lon":5.373103,"is_reserved":false,"is_disabled":false,"rental_uris":{"android":"levelo://app?vid=a8ab23e8-1be9-448a-90f7-58b9fadc1511","ios":"levelo://app?vid=a8ab23e8-1be9-448a-90f7-58b9fadc1511"},"vehicle_type_id":"4","last_reported":1706432850,"current_range_meters":29200,"station_id":"ce4bgt12rcd13ifvqcd0","pricing_plan_id":"free"},{"bike_id":"eca7a80f-655d-4c33-8615-296c2e0d6569","system_id":"levelo_inurba_marseille","lat":43.314811,"lon":5.373103,"is_reserved":false,"is_disabled":false,"rental_uris":{"android":"levelo://app?vid=eca7a80f-655d-4c33-8615-296c2e0d6569","ios":"levelo://app?vid=eca7a80f-655d-4c33-8615-296c2e0d6569"},"vehicle_type_id":"4","last_reported":1706432850,"current_range_meters":29600,"station_id":"ce4bgt12rcd13ifvqcd0","pricing_plan_id":"free"},{"bike_id":"0c879c7c-b478-4341-b557-d8fa9e7ce411","system_id":"levelo_inurba_marseille","lat":43.314811,"lon":5.373104,"is_reserved":false,"is_disabled":false,"rental_uris":{"android":"levelo://app?vid=0c879c7c-b478-4341-b557-d8fa9e7ce411","ios":"levelo://app?vid=0c879c7c-b478-4341-b557-d8fa9e7ce411"},"vehicle_type_id":"4","last_reported":1706432850,"current_range_meters":31200,"station_id":"ce4bgt12rcd13ifvqcd0","pricing_plan_id":"free"},{"bike_id":"9fbd1394-f62b-4f2a-b775-769726bec851","system_id":"levelo_inurba_marseille","lat":43.314811,"lon":5.373103,"is_reserved":false,"is_disabled":false,"rental_uris":{"android":"levelo://app?vid=9fbd1394-f62b-4f2a-b775-769726bec851","ios":"levelo://app?vid=9fbd1394-f62b-4f2a-b775-769726bec851"},"vehicle_type_id":"4","last_reported":1706432850,"current_range_meters":31600,"station_id":"ce4bgt12rcd13ifvqcd0","pricing_plan_id":"free"},{"bike_id":"1fd7416d-c3b3-42e9-b7a4-b5f0dc62d6ad","system_id":"levelo_inurba_marseille","lat":43.314811,"lon":5.373103,"is_reserved":false,"is_disabled":false,"rental_uris":{"android":"levelo://app?vid=1fd7416d-c3b3-42e9-b7a4-b5f0dc62d6ad","ios":"levelo://app?vid=1fd7416d-c3b3-42e9-b7a4-b5f0dc62d6ad"},"vehicle_type_id":"4","last_reported":1706432850,"current_range_meters":25200,"station_id":"ce4bgt12rcd13ifvqcd0","pricing_plan_id":"free"},{"bike_id":"8ced2901-be8f-47eb-92cd-d368d32b4755","system_id":"levelo_inurba_marseille","lat":43.314811,"lon":5.373103,"is_reserved":false,"is_disabled":false,"rental_uris":{"android":"levelo://app?vid=8ced2901-be8f-47eb-92cd-d368d32b4755","ios":"levelo://app?vid=8ced2901-be8f-47eb-92cd-d368d32b4755"},"vehicle_type_id":"4","last_reported":1706432850,"current_range_meters":31600,"station_id":"ce4bgt12rcd13ifvqcd0","pricing_plan_id":"free"},{"bike_id":"0bff1dd7-d588-44f6-9d74-e9040ba27bb7","system_id":"levelo_inurba_marseille","lat":43.314811,"lon":5.373103,"is_reserved":false,"is_disabled":false,"rental_uris":{"android":"levelo://app?vid=0bff1dd7-d588-44f6-9d74-e9040ba27bb7","ios":"levelo://app?vid=0bff1dd7-d588-44f6-9d74-e9040ba27bb7"},"vehicle_type_id":"4","last_reported":1706432850,"current_range_meters":28000,"station_id":"ce4bgt12rcd13ifvqcd0","pricing_plan_id":"free"},{"bike_id":"1a3d829b-da0a-440e-bd77-4996fdba56bf","system_id":"levelo_inurba_marseille","lat":43.314811,"lon":5.373104,"is_reserved":false,"is_disabled":false,"rental_uris":{"android":"levelo://app?vid=1a3d829b-da0a-440e-bd77-4996fdba56bf","ios":"levelo://app?vid=1a3d829b-da0a-440e-bd77-4996fdba56bf"},"vehicle_type_id":"4","last_reported":1706432850,"current_range_meters":28000,"station_id":"ce4bgt12rcd13ifvqcd0","pricing_plan_id":"free"},{"bike_id":"84ff5566-0b44-4fbe-ab9a-c039da629c34","system_id":"levelo_inurba_marseille","lat":43.309039,"lon":5.371797,"is_reserved":false,"is_disabled":false,"rental_uris":{"android":"levelo://app?vid=84ff5566-0b44-4fbe-ab9a-c039da629c34","ios":"levelo://app?vid=84ff5566-0b44-4fbe-ab9a-c039da629c34"},"vehicle_type_id":"4","last_reported":1706432850,"current_range_meters":26400,"station_id":"ce4bguh2rcd13ifvqckg","pricing_plan_id":"free"},{"bike_id":"902e4842-a3da-4259-9236-60f9110ec0f6","system_id":"levelo_inurba_marseille","lat":43.309034,"lon":5.371783,"is_reserved":false,"is_disabled":false,"rental_uris":{"android":"levelo://app?vid=902e4842-a3da-4259-9236-60f9110ec0f6","ios":"levelo://app?vid=902e4842-a3da-4259-9236-60f9110ec0f6"},"vehicle_type_id":"4","last_reported":1706432850,"current_range_meters":13600,"station_id":"ce4bguh2rcd13ifvqckg","pricing_plan_id":"free"},{"bike_id":"ff6c1c25-8287-4f32-9d54-133fa7cb156b","system_id":"levelo_inurba_marseille","lat":43.309039,"lon":5.371797,"is_reserved":false,"is_disabled":false,"rental_uris":{"android":"levelo://app?vid=ff6c1c25-8287-4f32-9d54-133fa7cb156b","ios":"levelo://app?vid=ff6c1c25-8287-4f32-9d54-133fa7cb156b"},"vehicle_type_id":"4","last_reported":1706432850,"current_range_meters":28400,"station_id":"ce4bguh2rcd13ifvqckg","pricing_plan_id":"free"},{"bike_id":"210c7657-c99e-4bcb-83da-afdb8db58bf1","system_id":"levelo_inurba_marseille","lat":43.309034,"lon":5.371783,"is_reserved":false,"is_disabled":false,"rental_uris":{"android":"levelo://app?vid=210c7657-c99e-4bcb-83da-afdb8db58bf1","ios":"levelo://app?vid=210c7657-c99e-4bcb-83da-afdb8db58bf1"},"vehicle_type_id":"4","last_reported":1706432850,"current_range_meters":30400,"station_id":"ce4bguh2rcd13ifvqckg","pricing_plan_id":"free"},{"bike_id":"9825f1df-ca63-43c9-9853-a03d6ad2aeee","system_id":"levelo_inurba_marseille","lat":43.305712,"lon":5.365641,"is_reserved":false,"is_disabled":false,"rental_uris":{"android":"levelo://app?vid=9825f1df-ca63-43c9-9853-a03d6ad2aeee","ios":"levelo://app?vid=9825f1df-ca63-43c9-9853-a03d6ad2aeee"},"vehicle_type_id":"4","last_reported":1706432850,"current_range_meters":18400,"station_id":"ce4bgs12rcd13ifvqcag","pricing_plan_id":"free"},{"bike_id":"6869a885-283d-4ad3-a964-3f0f60ceba45","system_id":"levelo_inurba_marseille","lat":43.305368,"lon":5.367343,"is_reserved":false,"is_disabled":false,"rental_uris":{"android":"levelo://app?vid=6869a885-283d-4ad3-a964-3f0f60ceba45","ios":"levelo://app?vid=6869a885-283d-4ad3-a964-3f0f60ceba45"},"vehicle_type_id":"4","last_reported":1706432850,"current_range_meters":31200,"station_id":"ce4bgrp2rcd13ifvqc9g","pricing_plan_id":"free"},{"bike_id":"4abfa67d-bc6f-4d21-bde3-e401b502e6a1","system_id":"levelo_inurba_marseille","lat":43.305706,"lon":5.365654,"is_reserved":false,"is_disabled":false,"rental_uris":{"android":"levelo://app?vid=4abfa67d-bc6f-4d21-bde3-e401b502e6a1","ios":"levelo://app?vid=4abfa67d-bc6f-4d21-bde3-e401b502e6a1"},"vehicle_type_id":"4","last_reported":1706432850,"current_range_meters":22800,"station_id":"ce4bgs12rcd13ifvqcag","pricing_plan_id":"free"},{"bike_id":"e9452944-f418-4d6d-a4a2-5e507e92935c","system_id":"levelo_inurba_marseille","lat":43.305714,"lon":5.365633,"is_reserved":false,"is_disabled":false,"rental_uris":{"android":"levelo://app?vid=e9452944-f418-4d6d-a4a2-5e507e92935c","ios":"levelo://app?vid=e9452944-f418-4d6d-a4a2-5e507e92935c"},"vehicle_type_id":"4","last_reported":1706432850,"current_range_meters":30400,"station_id":"ce4bgs12rcd13ifvqcag","pricing_plan_id":"free"},{"bike_id":"b7118661-5d81-4dc7-9071-4a747e8c70cb","system_id":"levelo_inurba_marseille","lat":43.305331,"lon":5.367206,"is_reserved":false,"is_disabled":false,"rental_uris":{"android":"levelo://app?vid=b7118661-5d81-4dc7-9071-4a747e8c70cb","ios":"levelo://app?vid=b7118661-5d81-4dc7-9071-4a747e8c70cb"},"vehicle_type_id":"4","last_reported":1706432850,"current_range_meters":21600,"station_id":"ce4bgrp2rcd13ifvqc9g","pricing_plan_id":"free"},{"bike_id":"ecf52026-d81b-43b9-83dd-0ad8d4c8da0c","system_id":"levelo_inurba_marseille","lat":43.3054,"lon":5.36543,"is_reserved":false,"is_disabled":false,"rental_uris":{"android":"levelo://app?vid=ecf52026-d81b-43b9-83dd-0ad8d4c8da0c","ios":"levelo://app?vid=ecf52026-d81b-43b9-83dd-0ad8d4c8da0c"},"vehicle_type_id":"4","last_reported":1706432850,"current_range_meters":27200,"station_id":"ce4bgs12rcd13ifvqcag","pricing_plan_id":"free"},{"bike_id":"243c1b02-09a9-44e1-9a43-15cd5253e535","system_id":"levelo_inurba_marseille","lat":43.30529,"lon":5.36698,"is_reserved":false,"is_disabled":false,"rental_uris":{"android":"levelo://app?vid=243c1b02-09a9-44e1-9a43-15cd5253e535","ios":"levelo://app?vid=243c1b02-09a9-44e1-9a43-15cd5253e535"},"vehicle_type_id":"4","last_reported":1706432850,"current_range_meters":22400,"station_id":"ce4bgrp2rcd13ifvqc9g","pricing_plan_id":"free"},{"bike_id":"1b2455f2-4d0c-498a-a6bb-9b578a5f77f6","system_id":"levelo_inurba_marseille","lat":43.305706,"lon":5.365654,"is_reserved":false,"is_disabled":false,"rental_uris":{"android":"levelo://app?vid=1b2455f2-4d0c-498a-a6bb-9b578a5f77f6","ios":"levelo://app?vid=1b2455f2-4d0c-498a-a6bb-9b578a5f77f6"},"vehicle_type_id":"4","last_reported":1706432850,"current_range_meters":18400,"station_id":"ce4bgs12rcd13ifvqcag","pricing_plan_id":"free"},{"bike_id":"fc6c7c9d-e8bf-4d3a-ba5c-8de9e9947928","system_id":"levelo_inurba_marseille","lat":43.305989,"lon":5.37225,"is_reserved":false,"is_disabled":false,"rental_uris":{"android":"levelo://app?vid=fc6c7c9d-e8bf-4d3a-ba5c-8de9e9947928","ios":"levelo://app?vid=fc6c7c9d-e8bf-4d3a-ba5c-8de9e9947928"},"vehicle_type_id":"4","last_reported":1706432850,"current_range_meters":30000,"station_id":"ce4bgqh2rcd13ifvqc4g","pricing_plan_id":"free"},{"bike_id":"7b924316-778c-48a2-bfe2-255ff3b52ac0","system_id":"levelo_inurba_marseille","lat":43.311125,"lon":5.377624,"is_reserved":false,"is_disabled":false,"rental_uris":{"android":"levelo://app?vid=7b924316-778c-48a2-bfe2-255ff3b52ac0","ios":"levelo://app?vid=7b924316-778c-48a2-bfe2-255ff3b52ac0"},"vehicle_type_id":"4","last_reported":1706432850,"current_range_meters":2000,"station_id":"ce4bgt92rcd13ifvqcg0","pricing_plan_id":"free"},{"bike_id":"da184317-2c21-476e-b578-c9a40d3883c2","system_id":"levelo_inurba_marseille","lat":43.311188,"lon":5.377648,"is_reserved":false,"is_disabled":false,"rental_uris":{"android":"levelo://app?vid=da184317-2c21-476e-b578-c9a40d3883c2","ios":"levelo://app?vid=da184317-2c21-476e-b578-c9a40d3883c2"},"vehicle_type_id":"4","last_reported":1706432850,"current_range_meters":0,"station_id":"ce4bgt92rcd13ifvqcg0","pricing_plan_id":"free"},{"bike_id":"f9a95911-3d3c-4470-a975-7971158cc078","system_id":"levelo_inurba_marseille","lat":43.30787,"lon":5.37645,"is_reserved":false,"is_disabled":false,"rental_uris":{"android":"levelo://app?vid=f9a95911-3d3c-4470-a975-7971158cc078","ios":"levelo://app?vid=f9a95911-3d3c-4470-a975-7971158cc078"},"vehicle_type_id":"4","last_reported":1706432850,"current_range_meters":20400,"station_id":"ce4bgv92rcd13ifvqcq0","pricing_plan_id":"free"},{"bike_id":"bff2f768-032b-40b3-bc87-f4d05864a143","system_id":"levelo_inurba_marseille","lat":43.307945,"lon":5.376487,"is_reserved":false,"is_disabled":false,"rental_uris":{"android":"levelo://app?vid=bff2f768-032b-40b3-bc87-f4d05864a143","ios":"levelo://app?vid=bff2f768-032b-40b3-bc87-f4d05864a143"},"vehicle_type_id":"4","last_reported":1706432850,"current_range_meters":24400,"station_id":"ce4bgv92rcd13ifvqcq0","pricing_plan_id":"free"},{"bike_id":"386f9084-6bdf-4086-9339-59c7928794bf","system_id":"levelo_inurba_marseille","lat":43.307945,"lon":5.376487,"is_reserved":false,"is_disabled":false,"rental_uris":{"android":"levelo://app?vid=386f9084-6bdf-4086-9339-59c7928794bf","ios":"levelo://app?vid=386f9084-6bdf-4086-9339-59c7928794bf"},"vehicle_type_id":"4","last_reported":1706432850,"current_range_meters":14800,"station_id":"ce4bgv92rcd13ifvqcq0","pricing_plan_id":"free"},{"bike_id":"73645f36-08d9-44f6-8b3c-dd0fe7df04dc","system_id":"levelo_inurba_marseille","lat":43.307945,"lon":5.376487,"is_reserved":false,"is_disabled":false,"rental_uris":{"android":"levelo://app?vid=73645f36-08d9-44f6-8b3c-dd0fe7df04dc","ios":"levelo://app?vid=73645f36-08d9-44f6-8b3c-dd0fe7df04dc"},"vehicle_type_id":"4","last_reported":1706432850,"current_range_meters":29600,"station_id":"ce4bgv92rcd13ifvqcq0","pricing_plan_id":"free"},{"bike_id":"b642d500-d3b2-4731-83ea-2f2dc0895fe9","system_id":"levelo_inurba_marseille","lat":43.307835,"lon":5.376535,"is_reserved":false,"is_disabled":false,"rental_uris":{"android":"levelo://app?vid=b642d500-d3b2-4731-83ea-2f2dc0895fe9","ios":"levelo://app?vid=b642d500-d3b2-4731-83ea-2f2dc0895fe9"},"vehicle_type_id":"4","last_reported":1706432850,"current_range_meters":31200,"station_id":"ce4bgv92rcd13ifvqcq0","pricing_plan_id":"free"},{"bike_id":"d3314d46-374b-47d7-a330-fbb85ff3b132","system_id":"levelo_inurba_marseille","lat":43.307945,"lon":5.376487,"is_reserved":false,"is_disabled":false,"rental_uris":{"android":"levelo://app?vid=d3314d46-374b-47d7-a330-fbb85ff3b132","ios":"levelo://app?vid=d3314d46-374b-47d7-a330-fbb85ff3b132"},"vehicle_type_id":"4","last_reported":1706432850,"current_range_meters":31200,"station_id":"ce4bgv92rcd13ifvqcq0","pricing_plan_id":"free"},{"bike_id":"0f0ff0b5-1e1e-41d9-80e9-4096a5c8b7e9","system_id":"levelo_inurba_marseille","lat":43.317075,"lon":5.377367,"is_reserved":false,"is_disabled":false,"rental_uris":{"android":"levelo://app?vid=0f0ff0b5-1e1e-41d9-80e9-4096a5c8b7e9","ios":"levelo://app?vid=0f0ff0b5-1e1e-41d9-80e9-4096a5c8b7e9"},"vehicle_type_id":"4","last_reported":1706432850,"current_range_meters":10000,"station_id":"ce4bgth2rcd13ifvqch0","pricing_plan_id":"free"},{"bike_id":"f0c31732-301a-4d0f-9fd3-25ad0ecb4b3c","system_id":"levelo_inurba_marseille","lat":43.317075,"lon":5.377367,"is_reserved":false,"is_disabled":false,"rental_uris":{"android":"levelo://app?vid=f0c31732-301a-4d0f-9fd3-25ad0ecb4b3c","ios":"levelo://app?vid=f0c31732-301a-4d0f-9fd3-25ad0ecb4b3c"},"vehicle_type_id":"4","last_reported":1706432850,"current_range_meters":10000,"station_id":"ce4bgth2rcd13ifvqch0","pricing_plan_id":"free"},{"bike_id":"bf70306f-e475-47ca-8724-a7e42b25d923","system_id":"levelo_inurba_marseille","lat":43.317075,"lon":5.377367,"is_reserved":false,"is_disabled":false,"rental_uris":{"android":"levelo://app?vid=bf70306f-e475-47ca-8724-a7e42b25d923","ios":"levelo://app?vid=bf70306f-e475-47ca-8724-a7e42b25d923"},"vehicle_type_id":"4","last_reported":1706432850,"current_range_meters":30800,"station_id":"ce4bgth2rcd13ifvqch0","pricing_plan_id":"free"},{"bike_id":"e6c874a7-4c53-46c7-b3b9-101410bd4b5b","system_id":"levelo_inurba_marseille","lat":43.317075,"lon":5.377367,"is_reserved":false,"is_disabled":false,"rental_uris":{"android":"levelo://app?vid=e6c874a7-4c53-46c7-b3b9-101410bd4b5b","ios":"levelo://app?vid=e6c874a7-4c53-46c7-b3b9-101410bd4b5b"},"vehicle_type_id":"4","last_reported":1706432850,"current_range_meters":26800,"station_id":"ce4bgth2rcd13ifvqch0","pricing_plan_id":"free"},{"bike_id":"6fff0b7d-2514-4e0c-a138-b6e9cb85be95","system_id":"levelo_inurba_marseille","lat":43.317075,"lon":5.377367,"is_reserved":false,"is_disabled":false,"rental_uris":{"android":"levelo://app?vid=6fff0b7d-2514-4e0c-a138-b6e9cb85be95","ios":"levelo://app?vid=6fff0b7d-2514-4e0c-a138-b6e9cb85be95"},"vehicle_type_id":"4","last_reported":1706432850,"current_range_meters":31200,"station_id":"ce4bgth2rcd13ifvqch0","pricing_plan_id":"free"},{"bike_id":"b83daeb9-a39c-4884-86e2-16a37c651f7f","system_id":"levelo_inurba_marseille","lat":43.320059,"lon":5.376211,"is_reserved":false,"is_disabled":false,"rental_uris":{"android":"levelo://app?vid=b83daeb9-a39c-4884-86e2-16a37c651f7f","ios":"levelo://app?vid=b83daeb9-a39c-4884-86e2-16a37c651f7f"},"vehicle_type_id":"4","last_reported":1706432850,"current_range_meters":6800,"station_id":"","pricing_plan_id":"free"},{"bike_id":"f5e871ed-66ae-4b57-bace-c432be7616bf","system_id":"levelo_inurba_marseille","lat":43.308012,"lon":5.381511,"is_reserved":false,"is_disabled":false,"rental_uris":{"android":"levelo://app?vid=f5e871ed-66ae-4b57-bace-c432be7616bf","ios":"levelo://app?vid=f5e871ed-66ae-4b57-bace-c432be7616bf"},"vehicle_type_id":"4","last_reported":1706432850,"current_range_meters":2400,"station_id":"ce4bgt12rcd13ifvqce0","pricing_plan_id":"free"},{"bike_id":"aa352b78-54c0-47dc-9f4f-44a863055744","system_id":"levelo_inurba_marseille","lat":43.304606,"lon":5.379026,"is_reserved":false,"is_disabled":false,"rental_uris":{"android":"levelo://app?vid=aa352b78-54c0-47dc-9f4f-44a863055744","ios":"levelo://app?vid=aa352b78-54c0-47dc-9f4f-44a863055744"},"vehicle_type_id":"4","last_reported":1706432850,"current_range_meters":31200,"station_id":"ce4bgup2rcd13ifvqcn0","pricing_plan_id":"free"},{"bike_id":"3205b3a8-8a8e-48a9-b08c-c8635c523e24","system_id":"levelo_inurba_marseille","lat":43.304606,"lon":5.379026,"is_reserved":false,"is_disabled":false,"rental_uris":{"android":"levelo://app?vid=3205b3a8-8a8e-48a9-b08c-c8635c523e24","ios":"levelo://app?vid=3205b3a8-8a8e-48a9-b08c-c8635c523e24"},"vehicle_type_id":"4","last_reported":1706432850,"current_range_meters":30000,"station_id":"ce4bgup2rcd13ifvqcn0","pricing_plan_id":"free"},{"bike_id":"2590b3da-ae4e-43f5-b4ed-e7d80b82268e","system_id":"levelo_inurba_marseille","lat":43.304606,"lon":5.379026,"is_reserved":false,"is_disabled":false,"rental_uris":{"android":"levelo://app?vid=2590b3da-ae4e-43f5-b4ed-e7d80b82268e","ios":"levelo://app?vid=2590b3da-ae4e-43f5-b4ed-e7d80b82268e"},"vehicle_type_id":"4","last_reported":1706432850,"current_range_meters":31200,"station_id":"ce4bgup2rcd13ifvqcn0","pricing_plan_id":"free"},{"bike_id":"000b989e-589d-4428-ae9e-c9431c15a250","system_id":"levelo_inurba_marseille","lat":43.304606,"lon":5.379026,"is_reserved":false,"is_disabled":false,"rental_uris":{"android":"levelo://app?vid=000b989e-589d-4428-ae9e-c9431c15a250","ios":"levelo://app?vid=000b989e-589d-4428-ae9e-c9431c15a250"},"vehicle_type_id":"4","last_reported":1706432850,"current_range_meters":21600,"station_id":"ce4bgup2rcd13ifvqcn0","pricing_plan_id":"free"},{"bike_id":"c369994b-e1bc-4c6e-b09e-ebf96ab78898","system_id":"levelo_inurba_marseille","lat":43.304606,"lon":5.379026,"is_reserved":false,"is_disabled":false,"rental_uris":{"android":"levelo://app?vid=c369994b-e1bc-4c6e-b09e-ebf96ab78898","ios":"levelo://app?vid=c369994b-e1bc-4c6e-b09e-ebf96ab78898"},"vehicle_type_id":"4","last_reported":1706432850,"current_range_meters":24000,"station_id":"ce4bgup2rcd13ifvqcn0","pricing_plan_id":"free"},{"bike_id":"b7a5f1e3-d531-4c89-a5c4-ceab573de39f","system_id":"levelo_inurba_marseille","lat":43.304606,"lon":5.379026,"is_reserved":false,"is_disabled":false,"rental_uris":{"android":"levelo://app?vid=b7a5f1e3-d531-4c89-a5c4-ceab573de39f","ios":"levelo://app?vid=b7a5f1e3-d531-4c89-a5c4-ceab573de39f"},"vehicle_type_id":"4","last_reported":1706432850,"current_range_meters":22000,"station_id":"ce4bgup2rcd13ifvqcn0","pricing_plan_id":"free"},{"bike_id":"9a36931a-84ae-49f2-bfeb-bdb7581f69df","system_id":"levelo_inurba_marseille","lat":43.304606,"lon":5.379026,"is_reserved":false,"is_disabled":false,"rental_uris":{"android":"levelo://app?vid=9a36931a-84ae-49f2-bfeb-bdb7581f69df","ios":"levelo://app?vid=9a36931a-84ae-49f2-bfeb-bdb7581f69df"},"vehicle_type_id":"4","last_reported":1706432850,"current_range_meters":29200,"station_id":"ce4bgup2rcd13ifvqcn0","pricing_plan_id":"free"},{"bike_id":"4a5fd81e-70dd-444c-a270-78d5673d43b0","system_id":"levelo_inurba_marseille","lat":43.304606,"lon":5.379026,"is_reserved":false,"is_disabled":false,"rental_uris":{"android":"levelo://app?vid=4a5fd81e-70dd-444c-a270-78d5673d43b0","ios":"levelo://app?vid=4a5fd81e-70dd-444c-a270-78d5673d43b0"},"vehicle_type_id":"4","last_reported":1706432850,"current_range_meters":10800,"station_id":"ce4bgup2rcd13ifvqcn0","pricing_plan_id":"free"},{"bike_id":"c5da1934-16ac-4a21-a42c-9a0373e4bfe7","system_id":"levelo_inurba_marseille","lat":43.304606,"lon":5.379026,"is_reserved":false,"is_disabled":false,"rental_uris":{"android":"levelo://app?vid=c5da1934-16ac-4a21-a42c-9a0373e4bfe7","ios":"levelo://app?vid=c5da1934-16ac-4a21-a42c-9a0373e4bfe7"},"vehicle_type_id":"4","last_reported":1706432850,"current_range_meters":11200,"station_id":"ce4bgup2rcd13ifvqcn0","pricing_plan_id":"free"},{"bike_id":"1fddb1e0-d210-44e3-b5ba-29f93bcd6296","system_id":"levelo_inurba_marseille","lat":43.304606,"lon":5.379026,"is_reserved":false,"is_disabled":false,"rental_uris":{"android":"levelo://app?vid=1fddb1e0-d210-44e3-b5ba-29f93bcd6296","ios":"levelo://app?vid=1fddb1e0-d210-44e3-b5ba-29f93bcd6296"},"vehicle_type_id":"4","last_reported":1706432850,"current_range_meters":20400,"station_id":"ce4bgup2rcd13ifvqcn0","pricing_plan_id":"free"},{"bike_id":"b0a641ac-7cab-4a4d-8b1c-193feb608c4d","system_id":"levelo_inurba_marseille","lat":43.304606,"lon":5.379026,"is_reserved":false,"is_disabled":false,"rental_uris":{"android":"levelo://app?vid=b0a641ac-7cab-4a4d-8b1c-193feb608c4d","ios":"levelo://app?vid=b0a641ac-7cab-4a4d-8b1c-193feb608c4d"},"vehicle_type_id":"4","last_reported":1706432850,"current_range_meters":19600,"station_id":"ce4bgup2rcd13ifvqcn0","pricing_plan_id":"free"},{"bike_id":"1f01e8ed-dc7c-442a-b3e6-bed3102a4802","system_id":"levelo_inurba_marseille","lat":43.304606,"lon":5.379026,"is_reserved":false,"is_disabled":false,"rental_uris":{"android":"levelo://app?vid=1f01e8ed-dc7c-442a-b3e6-bed3102a4802","ios":"levelo://app?vid=1f01e8ed-dc7c-442a-b3e6-bed3102a4802"},"vehicle_type_id":"4","last_reported":1706432850,"current_range_meters":24400,"station_id":"ce4bgup2rcd13ifvqcn0","pricing_plan_id":"free"},{"bike_id":"eef0fa69-f4ee-455b-804a-51bc0adf1f0e","system_id":"levelo_inurba_marseille","lat":43.304606,"lon":5.379026,"is_reserved":false,"is_disabled":false,"rental_uris":{"android":"levelo://app?vid=eef0fa69-f4ee-455b-804a-51bc0adf1f0e","ios":"levelo://app?vid=eef0fa69-f4ee-455b-804a-51bc0adf1f0e"},"vehicle_type_id":"4","last_reported":1706432850,"current_range_meters":1200,"station_id":"ce4bgup2rcd13ifvqcn0","pricing_plan_id":"free"},{"bike_id":"50a05534-3e17-4371-ab59-16e5e8718f5d","system_id":"levelo_inurba_marseille","lat":43.324771,"lon":5.36557,"is_reserved":false,"is_disabled":false,"rental_uris":{"android":"levelo://app?vid=50a05534-3e17-4371-ab59-16e5e8718f5d","ios":"levelo://app?vid=50a05534-3e17-4371-ab59-16e5e8718f5d"},"vehicle_type_id":"4","last_reported":1706432850,"current_range_meters":29600,"station_id":"ce4bhs12rcd13ifvqhvg","pricing_plan_id":"free"},{"bike_id":"dc00bdf8-dc57-4b02-8d44-8ea4906debe3","system_id":"levelo_inurba_marseille","lat":43.324771,"lon":5.36557,"is_reserved":false,"is_disabled":false,"rental_uris":{"android":"levelo://app?vid=dc00bdf8-dc57-4b02-8d44-8ea4906debe3","ios":"levelo://app?vid=dc00bdf8-dc57-4b02-8d44-8ea4906debe3"},"vehicle_type_id":"4","last_reported":1706432850,"current_range_meters":18400,"station_id":"ce4bhs12rcd13ifvqhvg","pricing_plan_id":"free"},{"bike_id":"c2c2cbc0-8eca-4dea-88e3-e6303f53b394","system_id":"levelo_inurba_marseille","lat":43.324771,"lon":5.36557,"is_reserved":false,"is_disabled":false,"rental_uris":{"android":"levelo://app?vid=c2c2cbc0-8eca-4dea-88e3-e6303f53b394","ios":"levelo://app?vid=c2c2cbc0-8eca-4dea-88e3-e6303f53b394"},"vehicle_type_id":"4","last_reported":1706432850,"current_range_meters":27200,"station_id":"ce4bhs12rcd13ifvqhvg","pricing_plan_id":"free"},{"bike_id":"087206d0-416b-43dd-a271-4d1d50efa995","system_id":"levelo_inurba_marseille","lat":43.302784,"lon":5.377158,"is_reserved":false,"is_disabled":false,"rental_uris":{"android":"levelo://app?vid=087206d0-416b-43dd-a271-4d1d50efa995","ios":"levelo://app?vid=087206d0-416b-43dd-a271-4d1d50efa995"},"vehicle_type_id":"4","last_reported":1706432850,"current_range_meters":31200,"station_id":"ce4bguh2rcd13ifvqcj0","pricing_plan_id":"free"},{"bike_id":"30a02579-630f-400c-86e8-710edbd1d15a","system_id":"levelo_inurba_marseille","lat":43.302784,"lon":5.377158,"is_reserved":false,"is_disabled":false,"rental_uris":{"android":"levelo://app?vid=30a02579-630f-400c-86e8-710edbd1d15a","ios":"levelo://app?vid=30a02579-630f-400c-86e8-710edbd1d15a"},"vehicle_type_id":"4","last_reported":1706432850,"current_range_meters":20000,"station_id":"ce4bguh2rcd13ifvqcj0","pricing_plan_id":"free"},{"bike_id":"b8efdc1d-d057-4584-93f1-69a0ae0722c7","system_id":"levelo_inurba_marseille","lat":43.302784,"lon":5.377158,"is_reserved":false,"is_disabled":false,"rental_uris":{"android":"levelo://app?vid=b8efdc1d-d057-4584-93f1-69a0ae0722c7","ios":"levelo://app?vid=b8efdc1d-d057-4584-93f1-69a0ae0722c7"},"vehicle_type_id":"4","last_reported":1706432850,"current_range_meters":29200,"station_id":"ce4bguh2rcd13ifvqcj0","pricing_plan_id":"free"},{"bike_id":"d1379e4f-9f76-496d-aef7-4d8e0817a0bd","system_id":"levelo_inurba_marseille","lat":43.302784,"lon":5.377158,"is_reserved":false,"is_disabled":false,"rental_uris":{"android":"levelo://app?vid=d1379e4f-9f76-496d-aef7-4d8e0817a0bd","ios":"levelo://app?vid=d1379e4f-9f76-496d-aef7-4d8e0817a0bd"},"vehicle_type_id":"4","last_reported":1706432850,"current_range_meters":21600,"station_id":"ce4bguh2rcd13ifvqcj0","pricing_plan_id":"free"},{"bike_id":"b0f8ebc1-9e0b-45b4-bac3-f82562e31a7b","system_id":"levelo_inurba_marseille","lat":43.302784,"lon":5.377158,"is_reserved":false,"is_disabled":false,"rental_uris":{"android":"levelo://app?vid=b0f8ebc1-9e0b-45b4-bac3-f82562e31a7b","ios":"levelo://app?vid=b0f8ebc1-9e0b-45b4-bac3-f82562e31a7b"},"vehicle_type_id":"4","last_reported":1706432850,"current_range_meters":29200,"station_id":"ce4bguh2rcd13ifvqcj0","pricing_plan_id":"free"},{"bike_id":"58d76f54-546c-45b2-8ea3-9d6f736e7bb6","system_id":"levelo_inurba_marseille","lat":43.302784,"lon":5.377158,"is_reserved":false,"is_disabled":false,"rental_uris":{"android":"levelo://app?vid=58d76f54-546c-45b2-8ea3-9d6f736e7bb6","ios":"levelo://app?vid=58d76f54-546c-45b2-8ea3-9d6f736e7bb6"},"vehicle_type_id":"4","last_reported":1706432850,"current_range_meters":29600,"station_id":"ce4bguh2rcd13ifvqcj0","pricing_plan_id":"free"},{"bike_id":"fa6b04e7-0b3f-4c0a-b3d7-b7294e70d0ab","system_id":"levelo_inurba_marseille","lat":43.301429,"lon":5.37413,"is_reserved":false,"is_disabled":false,"rental_uris":{"android":"levelo://app?vid=fa6b04e7-0b3f-4c0a-b3d7-b7294e70d0ab","ios":"levelo://app?vid=fa6b04e7-0b3f-4c0a-b3d7-b7294e70d0ab"},"vehicle_type_id":"4","last_reported":1706432850,"current_range_meters":28400,"station_id":"ce4bgs92rcd13ifvqcc0","pricing_plan_id":"free"},{"bike_id":"e859e84d-5fda-4353-abb0-4fb6d836be6c","system_id":"levelo_inurba_marseille","lat":43.301429,"lon":5.37413,"is_reserved":false,"is_disabled":false,"rental_uris":{"android":"levelo://app?vid=e859e84d-5fda-4353-abb0-4fb6d836be6c","ios":"levelo://app?vid=e859e84d-5fda-4353-abb0-4fb6d836be6c"},"vehicle_type_id":"4","last_reported":1706432850,"current_range_meters":30400,"station_id":"ce4bgs92rcd13ifvqcc0","pricing_plan_id":"free"},{"bike_id":"6c121b79-46d9-4eb0-b3b6-ae9fe8e5830e","system_id":"levelo_inurba_marseille","lat":43.319935,"lon":5.381699,"is_reserved":false,"is_disabled":false,"rental_uris":{"android":"levelo://app?vid=6c121b79-46d9-4eb0-b3b6-ae9fe8e5830e","ios":"levelo://app?vid=6c121b79-46d9-4eb0-b3b6-ae9fe8e5830e"},"vehicle_type_id":"4","last_reported":1706432850,"current_range_meters":5200,"station_id":"ce4bhr12rcd13ifvqhpg","pricing_plan_id":"free"},{"bike_id":"618200f9-95a2-4439-b0cd-aa4af36250a8","system_id":"levelo_inurba_marseille","lat":43.313571,"lon":5.384829,"is_reserved":false,"is_disabled":false,"rental_uris":{"android":"levelo://app?vid=618200f9-95a2-4439-b0cd-aa4af36250a8","ios":"levelo://app?vid=618200f9-95a2-4439-b0cd-aa4af36250a8"},"vehicle_type_id":"4","last_reported":1706432850,"current_range_meters":30400,"station_id":"ce4bgt92rcd13ifvqcf0","pricing_plan_id":"free"},{"bike_id":"7c89e1f1-cfcb-4119-b10c-9c436f38d2b7","system_id":"levelo_inurba_marseille","lat":43.305364,"lon":5.384119,"is_reserved":false,"is_disabled":false,"rental_uris":{"android":"levelo://app?vid=7c89e1f1-cfcb-4119-b10c-9c436f38d2b7","ios":"levelo://app?vid=7c89e1f1-cfcb-4119-b10c-9c436f38d2b7"},"vehicle_type_id":"4","last_reported":1706432850,"current_range_meters":23200,"station_id":"ce4bgg92rcd13ifvqb30","pricing_plan_id":"free"},{"bike_id":"26d4a7dc-3f4a-4d62-9954-0be903a400ec","system_id":"levelo_inurba_marseille","lat":43.298433,"lon":5.362774,"is_reserved":false,"is_disabled":false,"rental_uris":{"android":"levelo://app?vid=26d4a7dc-3f4a-4d62-9954-0be903a400ec","ios":"levelo://app?vid=26d4a7dc-3f4a-4d62-9954-0be903a400ec"},"vehicle_type_id":"4","last_reported":1706432850,"current_range_meters":31600,"station_id":"ce4bgpp2rcd13ifvqc3g","pricing_plan_id":"free"},{"bike_id":"a37567aa-3bd4-48d6-aa38-55d036320489","system_id":"levelo_inurba_marseille","lat":43.298433,"lon":5.362774,"is_reserved":false,"is_disabled":false,"rental_uris":{"android":"levelo://app?vid=a37567aa-3bd4-48d6-aa38-55d036320489","ios":"levelo://app?vid=a37567aa-3bd4-48d6-aa38-55d036320489"},"vehicle_type_id":"4","last_reported":1706432850,"current_range_meters":12400,"station_id":"ce4bgpp2rcd13ifvqc3g","pricing_plan_id":"free"},{"bike_id":"6a7d6e8e-f0e7-4b0b-aa05-042e71359131","system_id":"levelo_inurba_marseille","lat":43.298433,"lon":5.362774,"is_reserved":false,"is_disabled":false,"rental_uris":{"android":"levelo://app?vid=6a7d6e8e-f0e7-4b0b-aa05-042e71359131","ios":"levelo://app?vid=6a7d6e8e-f0e7-4b0b-aa05-042e71359131"},"vehicle_type_id":"4","last_reported":1706432850,"current_range_meters":23200,"station_id":"ce4bgpp2rcd13ifvqc3g","pricing_plan_id":"free"},{"bike_id":"45d8139c-3a0b-4c48-bf39-ffa7bef44533","system_id":"levelo_inurba_marseille","lat":43.298433,"lon":5.362774,"is_reserved":false,"is_disabled":false,"rental_uris":{"android":"levelo://app?vid=45d8139c-3a0b-4c48-bf39-ffa7bef44533","ios":"levelo://app?vid=45d8139c-3a0b-4c48-bf39-ffa7bef44533"},"vehicle_type_id":"4","last_reported":1706432850,"current_range_meters":31200,"station_id":"ce4bgpp2rcd13ifvqc3g","pricing_plan_id":"free"},{"bike_id":"733e04b3-288c-4394-b5ac-ff194b371f86","system_id":"levelo_inurba_marseille","lat":43.297774,"lon":5.370875,"is_reserved":false,"is_disabled":false,"rental_uris":{"android":"levelo://app?vid=733e04b3-288c-4394-b5ac-ff194b371f86","ios":"levelo://app?vid=733e04b3-288c-4394-b5ac-ff194b371f86"},"vehicle_type_id":"4","last_reported":1706432850,"current_range_meters":26800,"station_id":"ce4bgop2rcd13ifvqc1g","pricing_plan_id":"free"},{"bike_id":"751d8025-1066-46e9-860a-c4e354e4163b","system_id":"levelo_inurba_marseille","lat":43.297794,"lon":5.370888,"is_reserved":false,"is_disabled":false,"rental_uris":{"android":"levelo://app?vid=751d8025-1066-46e9-860a-c4e354e4163b","ios":"levelo://app?vid=751d8025-1066-46e9-860a-c4e354e4163b"},"vehicle_type_id":"4","last_reported":1706432850,"current_range_meters":26800,"station_id":"ce4bgop2rcd13ifvqc1g","pricing_plan_id":"free"},{"bike_id":"a3b74381-0d58-448f-9a1c-2f1261e3769d","system_id":"levelo_inurba_marseille","lat":43.322872,"lon":5.382756,"is_reserved":false,"is_disabled":false,"rental_uris":{"android":"levelo://app?vid=a3b74381-0d58-448f-9a1c-2f1261e3769d","ios":"levelo://app?vid=a3b74381-0d58-448f-9a1c-2f1261e3769d"},"vehicle_type_id":"4","last_reported":1706432850,"current_range_meters":31200,"station_id":"ce4bhr12rcd13ifvqhqg","pricing_plan_id":"free"},{"bike_id":"965a5dab-e227-4efc-b518-9780186a9de9","system_id":"levelo_inurba_marseille","lat":43.322872,"lon":5.382756,"is_reserved":false,"is_disabled":false,"rental_uris":{"android":"levelo://app?vid=965a5dab-e227-4efc-b518-9780186a9de9","ios":"levelo://app?vid=965a5dab-e227-4efc-b518-9780186a9de9"},"vehicle_type_id":"4","last_reported":1706432850,"current_range_meters":27200,"station_id":"ce4bhr12rcd13ifvqhqg","pricing_plan_id":"free"},{"bike_id":"ab98e573-92e3-4c87-b938-e8306447ae15","system_id":"levelo_inurba_marseille","lat":43.322872,"lon":5.382756,"is_reserved":false,"is_disabled":false,"rental_uris":{"android":"levelo://app?vid=ab98e573-92e3-4c87-b938-e8306447ae15","ios":"levelo://app?vid=ab98e573-92e3-4c87-b938-e8306447ae15"},"vehicle_type_id":"4","last_reported":1706432850,"current_range_meters":30800,"station_id":"ce4bhr12rcd13ifvqhqg","pricing_plan_id":"free"},{"bike_id":"9c4d9993-7f7a-4f86-9392-50f8b41cf1ca","system_id":"levelo_inurba_marseille","lat":43.322872,"lon":5.382756,"is_reserved":false,"is_disabled":false,"rental_uris":{"android":"levelo://app?vid=9c4d9993-7f7a-4f86-9392-50f8b41cf1ca","ios":"levelo://app?vid=9c4d9993-7f7a-4f86-9392-50f8b41cf1ca"},"vehicle_type_id":"4","last_reported":1706432850,"current_range_meters":28000,"station_id":"ce4bhr12rcd13ifvqhqg","pricing_plan_id":"free"},{"bike_id":"0f7b98a3-6434-4866-adac-ccd99f91e009","system_id":"levelo_inurba_marseille","lat":43.32826,"lon":5.36686,"is_reserved":false,"is_disabled":false,"rental_uris":{"android":"levelo://app?vid=0f7b98a3-6434-4866-adac-ccd99f91e009","ios":"levelo://app?vid=0f7b98a3-6434-4866-adac-ccd99f91e009"},"vehicle_type_id":"4","last_reported":1706432850,"current_range_meters":0,"station_id":"ce4bhs92rcd13ifvqi0g","pricing_plan_id":"free"},{"bike_id":"12edd8fe-ac42-424b-86a0-ddbc64b4f114","system_id":"levelo_inurba_marseille","lat":43.328371,"lon":5.366909,"is_reserved":false,"is_disabled":false,"rental_uris":{"android":"levelo://app?vid=12edd8fe-ac42-424b-86a0-ddbc64b4f114","ios":"levelo://app?vid=12edd8fe-ac42-424b-86a0-ddbc64b4f114"},"vehicle_type_id":"4","last_reported":1706432850,"current_range_meters":14800,"station_id":"ce4bhs92rcd13ifvqi0g","pricing_plan_id":"free"},{"bike_id":"af1c8fc0-8183-4d68-848c-9159b1d2bf45","system_id":"levelo_inurba_marseille","lat":43.328371,"lon":5.366909,"is_reserved":false,"is_disabled":false,"rental_uris":{"android":"levelo://app?vid=af1c8fc0-8183-4d68-848c-9159b1d2bf45","ios":"levelo://app?vid=af1c8fc0-8183-4d68-848c-9159b1d2bf45"},"vehicle_type_id":"4","last_reported":1706432850,"current_range_meters":11200,"station_id":"ce4bhs92rcd13ifvqi0g","pricing_plan_id":"free"},{"bike_id":"64149341-6702-402a-bc03-19305c80a15e","system_id":"levelo_inurba_marseille","lat":43.297163,"lon":5.365866,"is_reserved":false,"is_disabled":false,"rental_uris":{"android":"levelo://app?vid=64149341-6702-402a-bc03-19305c80a15e","ios":"levelo://app?vid=64149341-6702-402a-bc03-19305c80a15e"},"vehicle_type_id":"4","last_reported":1706432850,"current_range_meters":2800,"station_id":"ce4bgn12rcd13ifvqbt0","pricing_plan_id":"free"},{"bike_id":"1c4183c7-10bc-439c-9e04-581e02f73eaf","system_id":"levelo_inurba_marseille","lat":43.297163,"lon":5.365866,"is_reserved":false,"is_disabled":false,"rental_uris":{"android":"levelo://app?vid=1c4183c7-10bc-439c-9e04-581e02f73eaf","ios":"levelo://app?vid=1c4183c7-10bc-439c-9e04-581e02f73eaf"},"vehicle_type_id":"4","last_reported":1706432850,"current_range_meters":23200,"station_id":"ce4bgn12rcd13ifvqbt0","pricing_plan_id":"free"},{"bike_id":"4fdf265e-63df-422c-8bda-5f2cbd4c70f6","system_id":"levelo_inurba_marseille","lat":43.297163,"lon":5.365866,"is_reserved":false,"is_disabled":false,"rental_uris":{"android":"levelo://app?vid=4fdf265e-63df-422c-8bda-5f2cbd4c70f6","ios":"levelo://app?vid=4fdf265e-63df-422c-8bda-5f2cbd4c70f6"},"vehicle_type_id":"4","last_reported":1706432850,"current_range_meters":22000,"station_id":"ce4bgn12rcd13ifvqbt0","pricing_plan_id":"free"},{"bike_id":"6357d08b-4852-45a6-8953-65d92c379ab0","system_id":"levelo_inurba_marseille","lat":43.29589,"lon":5.36748,"is_reserved":false,"is_disabled":false,"rental_uris":{"android":"levelo://app?vid=6357d08b-4852-45a6-8953-65d92c379ab0","ios":"levelo://app?vid=6357d08b-4852-45a6-8953-65d92c379ab0"},"vehicle_type_id":"4","last_reported":1706432850,"current_range_meters":18800,"station_id":"ce4bgph2rcd13ifvqc2g","pricing_plan_id":"free"},{"bike_id":"b32c8bc6-eccc-4555-a1e6-e5fc0ccae34e","system_id":"levelo_inurba_marseille","lat":43.296129,"lon":5.370777,"is_reserved":false,"is_disabled":false,"rental_uris":{"android":"levelo://app?vid=b32c8bc6-eccc-4555-a1e6-e5fc0ccae34e","ios":"levelo://app?vid=b32c8bc6-eccc-4555-a1e6-e5fc0ccae34e"},"vehicle_type_id":"4","last_reported":1706432850,"current_range_meters":29200,"station_id":"ce4bgnh2rcd13ifvqc0g","pricing_plan_id":"free"},{"bike_id":"a9c08e94-d589-4d91-a046-5b95231b92c7","system_id":"levelo_inurba_marseille","lat":43.295842,"lon":5.367386,"is_reserved":false,"is_disabled":false,"rental_uris":{"android":"levelo://app?vid=a9c08e94-d589-4d91-a046-5b95231b92c7","ios":"levelo://app?vid=a9c08e94-d589-4d91-a046-5b95231b92c7"},"vehicle_type_id":"4","last_reported":1706432850,"current_range_meters":25600,"station_id":"","pricing_plan_id":"free"},{"bike_id":"b8dcb3c3-8789-4b6e-a7eb-279a73985bae","system_id":"levelo_inurba_marseille","lat":43.29573,"lon":5.367355,"is_reserved":false,"is_disabled":false,"rental_uris":{"android":"levelo://app?vid=b8dcb3c3-8789-4b6e-a7eb-279a73985bae","ios":"levelo://app?vid=b8dcb3c3-8789-4b6e-a7eb-279a73985bae"},"vehicle_type_id":"4","last_reported":1706432850,"current_range_meters":23200,"station_id":"ce4bgph2rcd13ifvqc2g","pricing_plan_id":"free"},{"bike_id":"a3aa563c-ecd8-4fc4-aaaa-ae7ced45e1ac","system_id":"levelo_inurba_marseille","lat":43.296129,"lon":5.370777,"is_reserved":false,"is_disabled":false,"rental_uris":{"android":"levelo://app?vid=a3aa563c-ecd8-4fc4-aaaa-ae7ced45e1ac","ios":"levelo://app?vid=a3aa563c-ecd8-4fc4-aaaa-ae7ced45e1ac"},"vehicle_type_id":"4","last_reported":1706432850,"current_range_meters":28800,"station_id":"ce4bgnh2rcd13ifvqc0g","pricing_plan_id":"free"},{"bike_id":"ae168aef-a751-40cf-a214-41da4d6a12d3","system_id":"levelo_inurba_marseille","lat":43.299028,"lon":5.381509,"is_reserved":false,"is_disabled":false,"rental_uris":{"android":"levelo://app?vid=ae168aef-a751-40cf-a214-41da4d6a12d3","ios":"levelo://app?vid=ae168aef-a751-40cf-a214-41da4d6a12d3"},"vehicle_type_id":"4","last_reported":1706432850,"current_range_meters":8000,"station_id":"ce4bgj12rcd13ifvqbc0","pricing_plan_id":"free"},{"bike_id":"9d6e93d9-33a6-414f-8f86-b10426802c4b","system_id":"levelo_inurba_marseille","lat":43.309589,"lon":5.390258,"is_reserved":false,"is_disabled":false,"rental_uris":{"android":"levelo://app?vid=9d6e93d9-33a6-414f-8f86-b10426802c4b","ios":"levelo://app?vid=9d6e93d9-33a6-414f-8f86-b10426802c4b"},"vehicle_type_id":"4","last_reported":1706432850,"current_range_meters":31200,"station_id":"ce4bgup2rcd13ifvqco0","pricing_plan_id":"free"},{"bike_id":"739ed3c4-05d1-42ab-b7c7-8fac59bc5554","system_id":"levelo_inurba_marseille","lat":43.309589,"lon":5.390258,"is_reserved":false,"is_disabled":false,"rental_uris":{"android":"levelo://app?vid=739ed3c4-05d1-42ab-b7c7-8fac59bc5554","ios":"levelo://app?vid=739ed3c4-05d1-42ab-b7c7-8fac59bc5554"},"vehicle_type_id":"4","last_reported":1706432850,"current_range_meters":12000,"station_id":"ce4bgup2rcd13ifvqco0","pricing_plan_id":"free"},{"bike_id":"c402d80f-abbd-4ca5-a14e-55ff6c836670","system_id":"levelo_inurba_marseille","lat":43.309589,"lon":5.390258,"is_reserved":false,"is_disabled":false,"rental_uris":{"android":"levelo://app?vid=c402d80f-abbd-4ca5-a14e-55ff6c836670","ios":"levelo://app?vid=c402d80f-abbd-4ca5-a14e-55ff6c836670"},"vehicle_type_id":"4","last_reported":1706432850,"current_range_meters":24000,"station_id":"ce4bgup2rcd13ifvqco0","pricing_plan_id":"free"},{"bike_id":"12d41c1a-5a93-4e14-bb5f-a4cc7703d96b","system_id":"levelo_inurba_marseille","lat":43.309589,"lon":5.390258,"is_reserved":false,"is_disabled":false,"rental_uris":{"android":"levelo://app?vid=12d41c1a-5a93-4e14-bb5f-a4cc7703d96b","ios":"levelo://app?vid=12d41c1a-5a93-4e14-bb5f-a4cc7703d96b"},"vehicle_type_id":"4","last_reported":1706432850,"current_range_meters":27200,"station_id":"ce4bgup2rcd13ifvqco0","pricing_plan_id":"free"},{"bike_id":"ea347f58-d9f1-491b-86ae-f4efd937fdd3","system_id":"levelo_inurba_marseille","lat":43.309589,"lon":5.390258,"is_reserved":false,"is_disabled":false,"rental_uris":{"android":"levelo://app?vid=ea347f58-d9f1-491b-86ae-f4efd937fdd3","ios":"levelo://app?vid=ea347f58-d9f1-491b-86ae-f4efd937fdd3"},"vehicle_type_id":"4","last_reported":1706432850,"current_range_meters":26000,"station_id":"ce4bgup2rcd13ifvqco0","pricing_plan_id":"free"},{"bike_id":"9d8dbe5f-5de2-489c-8c7d-5973c5afcfda","system_id":"levelo_inurba_marseille","lat":43.309589,"lon":5.390258,"is_reserved":false,"is_disabled":false,"rental_uris":{"android":"levelo://app?vid=9d8dbe5f-5de2-489c-8c7d-5973c5afcfda","ios":"levelo://app?vid=9d8dbe5f-5de2-489c-8c7d-5973c5afcfda"},"vehicle_type_id":"4","last_reported":1706432850,"current_range_meters":24400,"station_id":"ce4bgup2rcd13ifvqco0","pricing_plan_id":"free"},{"bike_id":"af3b809f-a562-45d1-923f-898b1bd99001","system_id":"levelo_inurba_marseille","lat":43.317557,"lon":5.390173,"is_reserved":false,"is_disabled":false,"rental_uris":{"android":"levelo://app?vid=af3b809f-a562-45d1-923f-898b1bd99001","ios":"levelo://app?vid=af3b809f-a562-45d1-923f-898b1bd99001"},"vehicle_type_id":"4","last_reported":1706432850,"current_range_meters":25600,"station_id":"ce4bhqp2rcd13ifvqhng","pricing_plan_id":"free"},{"bike_id":"4ac0d675-613c-46d9-a312-3fa822003d04","system_id":"levelo_inurba_marseille","lat":43.295752,"lon":5.375034,"is_reserved":false,"is_disabled":false,"rental_uris":{"android":"levelo://app?vid=4ac0d675-613c-46d9-a312-3fa822003d04","ios":"levelo://app?vid=4ac0d675-613c-46d9-a312-3fa822003d04"},"vehicle_type_id":"4","last_reported":1706432850,"current_range_meters":26000,"station_id":"ce4bgh92rcd13ifvqb50","pricing_plan_id":"free"},{"bike_id":"87f765a3-7a77-4751-be49-64b3a4a4bd4e","system_id":"levelo_inurba_marseille","lat":43.295752,"lon":5.375056,"is_reserved":false,"is_disabled":false,"rental_uris":{"android":"levelo://app?vid=87f765a3-7a77-4751-be49-64b3a4a4bd4e","ios":"levelo://app?vid=87f765a3-7a77-4751-be49-64b3a4a4bd4e"},"vehicle_type_id":"4","last_reported":1706432850,"current_range_meters":26800,"station_id":"ce4bgh92rcd13ifvqb50","pricing_plan_id":"free"},{"bike_id":"46151e91-5dbb-43c7-a01b-8b711f395145","system_id":"levelo_inurba_marseille","lat":43.295712,"lon":5.375006,"is_reserved":false,"is_disabled":false,"rental_uris":{"android":"levelo://app?vid=46151e91-5dbb-43c7-a01b-8b711f395145","ios":"levelo://app?vid=46151e91-5dbb-43c7-a01b-8b711f395145"},"vehicle_type_id":"4","last_reported":1706432850,"current_range_meters":31600,"station_id":"ce4bgh92rcd13ifvqb50","pricing_plan_id":"free"},{"bike_id":"753d58e3-d2b7-4cc1-9add-99189ec3fb22","system_id":"levelo_inurba_marseille","lat":43.304274,"lon":5.388873,"is_reserved":false,"is_disabled":false,"rental_uris":{"android":"levelo://app?vid=753d58e3-d2b7-4cc1-9add-99189ec3fb22","ios":"levelo://app?vid=753d58e3-d2b7-4cc1-9add-99189ec3fb22"},"vehicle_type_id":"4","last_reported":1706432850,"current_range_meters":24400,"station_id":"ce4bgk12rcd13ifvqbi0","pricing_plan_id":"free"},{"bike_id":"6c1704b0-3d7d-4e78-a97a-6bea60c060a8","system_id":"levelo_inurba_marseille","lat":43.304278,"lon":5.388868,"is_reserved":false,"is_disabled":false,"rental_uris":{"android":"levelo://app?vid=6c1704b0-3d7d-4e78-a97a-6bea60c060a8","ios":"levelo://app?vid=6c1704b0-3d7d-4e78-a97a-6bea60c060a8"},"vehicle_type_id":"4","last_reported":1706432850,"current_range_meters":19200,"station_id":"ce4bgk12rcd13ifvqbi0","pricing_plan_id":"free"},{"bike_id":"a47d1ee8-390c-4563-a09c-7f3d9d28a45e","system_id":"levelo_inurba_marseille","lat":43.304278,"lon":5.388868,"is_reserved":false,"is_disabled":false,"rental_uris":{"android":"levelo://app?vid=a47d1ee8-390c-4563-a09c-7f3d9d28a45e","ios":"levelo://app?vid=a47d1ee8-390c-4563-a09c-7f3d9d28a45e"},"vehicle_type_id":"4","last_reported":1706432850,"current_range_meters":24400,"station_id":"ce4bgk12rcd13ifvqbi0","pricing_plan_id":"free"},{"bike_id":"d29ee825-69e9-4255-ba65-3c9b44df2e13","system_id":"levelo_inurba_marseille","lat":43.30432,"lon":5.38891,"is_reserved":false,"is_disabled":false,"rental_uris":{"android":"levelo://app?vid=d29ee825-69e9-4255-ba65-3c9b44df2e13","ios":"levelo://app?vid=d29ee825-69e9-4255-ba65-3c9b44df2e13"},"vehicle_type_id":"4","last_reported":1706432850,"current_range_meters":30000,"station_id":"ce4bgk12rcd13ifvqbi0","pricing_plan_id":"free"},{"bike_id":"e0c037e6-80af-4c67-89c3-86642ddeb18c","system_id":"levelo_inurba_marseille","lat":43.295748,"lon":5.37522,"is_reserved":false,"is_disabled":false,"rental_uris":{"android":"levelo://app?vid=e0c037e6-80af-4c67-89c3-86642ddeb18c","ios":"levelo://app?vid=e0c037e6-80af-4c67-89c3-86642ddeb18c"},"vehicle_type_id":"4","last_reported":1706432850,"current_range_meters":24800,"station_id":"ce4bgh92rcd13ifvqb50","pricing_plan_id":"free"},{"bike_id":"b6e5ba7a-f6ec-4be8-85ec-396f6469c44a","system_id":"levelo_inurba_marseille","lat":43.295748,"lon":5.37522,"is_reserved":false,"is_disabled":false,"rental_uris":{"android":"levelo://app?vid=b6e5ba7a-f6ec-4be8-85ec-396f6469c44a","ios":"levelo://app?vid=b6e5ba7a-f6ec-4be8-85ec-396f6469c44a"},"vehicle_type_id":"4","last_reported":1706432850,"current_range_meters":8800,"station_id":"ce4bgh92rcd13ifvqb50","pricing_plan_id":"free"},{"bike_id":"7bfc50ac-4177-446a-81b0-158a8fb99d5a","system_id":"levelo_inurba_marseille","lat":43.295748,"lon":5.37522,"is_reserved":false,"is_disabled":false,"rental_uris":{"android":"levelo://app?vid=7bfc50ac-4177-446a-81b0-158a8fb99d5a","ios":"levelo://app?vid=7bfc50ac-4177-446a-81b0-158a8fb99d5a"},"vehicle_type_id":"4","last_reported":1706432850,"current_range_meters":30000,"station_id":"ce4bgh92rcd13ifvqb50","pricing_plan_id":"free"},{"bike_id":"14e90e8e-c79d-4fde-ba43-4e1489f796ed","system_id":"levelo_inurba_marseille","lat":43.295748,"lon":5.37522,"is_reserved":false,"is_disabled":false,"rental_uris":{"android":"levelo://app?vid=14e90e8e-c79d-4fde-ba43-4e1489f796ed","ios":"levelo://app?vid=14e90e8e-c79d-4fde-ba43-4e1489f796ed"},"vehicle_type_id":"4","last_reported":1706432850,"current_range_meters":19200,"station_id":"ce4bgh92rcd13ifvqb50","pricing_plan_id":"free"},{"bike_id":"531ef67c-b97c-4f17-a1a5-371c8627fd87","system_id":"levelo_inurba_marseille","lat":43.29532,"lon":5.37496,"is_reserved":false,"is_disabled":false,"rental_uris":{"android":"levelo://app?vid=531ef67c-b97c-4f17-a1a5-371c8627fd87","ios":"levelo://app?vid=531ef67c-b97c-4f17-a1a5-371c8627fd87"},"vehicle_type_id":"4","last_reported":1706432850,"current_range_meters":28000,"station_id":"ce4bgkp2rcd13ifvqbmg","pricing_plan_id":"free"},{"bike_id":"553de4b6-bfc8-4874-840a-6d67d95f163a","system_id":"levelo_inurba_marseille","lat":43.29527,"lon":5.37501,"is_reserved":false,"is_disabled":false,"rental_uris":{"android":"levelo://app?vid=553de4b6-bfc8-4874-840a-6d67d95f163a","ios":"levelo://app?vid=553de4b6-bfc8-4874-840a-6d67d95f163a"},"vehicle_type_id":"4","last_reported":1706432850,"current_range_meters":28400,"station_id":"ce4bgkp2rcd13ifvqbmg","pricing_plan_id":"free"},{"bike_id":"8cf8a036-0936-4f78-aa41-42eef8fa5528","system_id":"levelo_inurba_marseille","lat":43.299717,"lon":5.384845,"is_reserved":false,"is_disabled":false,"rental_uris":{"android":"levelo://app?vid=8cf8a036-0936-4f78-aa41-42eef8fa5528","ios":"levelo://app?vid=8cf8a036-0936-4f78-aa41-42eef8fa5528"},"vehicle_type_id":"4","last_reported":1706432850,"current_range_meters":24400,"station_id":"ce4bgj92rcd13ifvqbd0","pricing_plan_id":"free"},{"bike_id":"311f2bb5-da85-44fc-915b-153e21fa0c75","system_id":"levelo_inurba_marseille","lat":43.32367,"lon":5.388836,"is_reserved":false,"is_disabled":false,"rental_uris":{"android":"levelo://app?vid=311f2bb5-da85-44fc-915b-153e21fa0c75","ios":"levelo://app?vid=311f2bb5-da85-44fc-915b-153e21fa0c75"},"vehicle_type_id":"4","last_reported":1706432850,"current_range_meters":400,"station_id":"ce4bhqp2rcd13ifvqhog","pricing_plan_id":"free"},{"bike_id":"36fdf3a9-6637-4abe-9106-b80fdb7b6025","system_id":"levelo_inurba_marseille","lat":43.32367,"lon":5.388836,"is_reserved":false,"is_disabled":false,"rental_uris":{"android":"levelo://app?vid=36fdf3a9-6637-4abe-9106-b80fdb7b6025","ios":"levelo://app?vid=36fdf3a9-6637-4abe-9106-b80fdb7b6025"},"vehicle_type_id":"4","last_reported":1706432850,"current_range_meters":14000,"station_id":"ce4bhqp2rcd13ifvqhog","pricing_plan_id":"free"},{"bike_id":"8a33758a-88df-484d-be96-917dfb2f5d96","system_id":"levelo_inurba_marseille","lat":43.32368,"lon":5.3889,"is_reserved":false,"is_disabled":false,"rental_uris":{"android":"levelo://app?vid=8a33758a-88df-484d-be96-917dfb2f5d96","ios":"levelo://app?vid=8a33758a-88df-484d-be96-917dfb2f5d96"},"vehicle_type_id":"4","last_reported":1706432850,"current_range_meters":22800,"station_id":"ce4bhqp2rcd13ifvqhog","pricing_plan_id":"free"},{"bike_id":"8c23b747-6a71-4e96-96ac-9ad65828dbe9","system_id":"levelo_inurba_marseille","lat":43.29602,"lon":5.381084,"is_reserved":false,"is_disabled":false,"rental_uris":{"android":"levelo://app?vid=8c23b747-6a71-4e96-96ac-9ad65828dbe9","ios":"levelo://app?vid=8c23b747-6a71-4e96-96ac-9ad65828dbe9"},"vehicle_type_id":"4","last_reported":1706432850,"current_range_meters":29600,"station_id":"ce4bgl12rcd13ifvqbo0","pricing_plan_id":"free"},{"bike_id":"c8ae1907-f9a0-4719-be8d-94c701f5c7e9","system_id":"levelo_inurba_marseille","lat":43.29585,"lon":5.38108,"is_reserved":false,"is_disabled":false,"rental_uris":{"android":"levelo://app?vid=c8ae1907-f9a0-4719-be8d-94c701f5c7e9","ios":"levelo://app?vid=c8ae1907-f9a0-4719-be8d-94c701f5c7e9"},"vehicle_type_id":"4","last_reported":1706432850,"current_range_meters":30800,"station_id":"ce4bgl12rcd13ifvqbo0","pricing_plan_id":"free"},{"bike_id":"59ee600b-5041-4f04-a3bd-1eb24adca31c","system_id":"levelo_inurba_marseille","lat":43.293259,"lon":5.371586,"is_reserved":false,"is_disabled":false,"rental_uris":{"android":"levelo://app?vid=59ee600b-5041-4f04-a3bd-1eb24adca31c","ios":"levelo://app?vid=59ee600b-5041-4f04-a3bd-1eb24adca31c"},"vehicle_type_id":"4","last_reported":1706432850,"current_range_meters":31600,"station_id":"ce4bgh92rcd13ifvqb40","pricing_plan_id":"free"},{"bike_id":"83b178b2-6a2e-402c-b789-02d6d850e177","system_id":"levelo_inurba_marseille","lat":43.292749,"lon":5.368402,"is_reserved":false,"is_disabled":false,"rental_uris":{"android":"levelo://app?vid=83b178b2-6a2e-402c-b789-02d6d850e177","ios":"levelo://app?vid=83b178b2-6a2e-402c-b789-02d6d850e177"},"vehicle_type_id":"4","last_reported":1706432850,"current_range_meters":22000,"station_id":"ce4bhbp2rcd13ifvqesg","pricing_plan_id":"free"},{"bike_id":"0ac52db8-a3b6-4597-b7a5-33ec0686005e","system_id":"levelo_inurba_marseille","lat":43.293259,"lon":5.371586,"is_reserved":false,"is_disabled":false,"rental_uris":{"android":"levelo://app?vid=0ac52db8-a3b6-4597-b7a5-33ec0686005e","ios":"levelo://app?vid=0ac52db8-a3b6-4597-b7a5-33ec0686005e"},"vehicle_type_id":"4","last_reported":1706432850,"current_range_meters":27200,"station_id":"ce4bgh92rcd13ifvqb40","pricing_plan_id":"free"},{"bike_id":"d247ad4d-c07f-4bc3-b269-2af154aca9d4","system_id":"levelo_inurba_marseille","lat":43.293259,"lon":5.371586,"is_reserved":false,"is_disabled":false,"rental_uris":{"android":"levelo://app?vid=d247ad4d-c07f-4bc3-b269-2af154aca9d4","ios":"levelo://app?vid=d247ad4d-c07f-4bc3-b269-2af154aca9d4"},"vehicle_type_id":"4","last_reported":1706432850,"current_range_meters":0,"station_id":"ce4bgh92rcd13ifvqb40","pricing_plan_id":"free"},{"bike_id":"36472371-0268-414b-9cb8-b1ef3e138908","system_id":"levelo_inurba_marseille","lat":43.292749,"lon":5.368402,"is_reserved":false,"is_disabled":false,"rental_uris":{"android":"levelo://app?vid=36472371-0268-414b-9cb8-b1ef3e138908","ios":"levelo://app?vid=36472371-0268-414b-9cb8-b1ef3e138908"},"vehicle_type_id":"4","last_reported":1706432850,"current_range_meters":10400,"station_id":"ce4bhbp2rcd13ifvqesg","pricing_plan_id":"free"},{"bike_id":"a3377912-dc89-42ab-9b7d-708b626b9334","system_id":"levelo_inurba_marseille","lat":43.293046,"lon":5.371821,"is_reserved":false,"is_disabled":false,"rental_uris":{"android":"levelo://app?vid=a3377912-dc89-42ab-9b7d-708b626b9334","ios":"levelo://app?vid=a3377912-dc89-42ab-9b7d-708b626b9334"},"vehicle_type_id":"4","last_reported":1706432850,"current_range_meters":31600,"station_id":"ce4bgh92rcd13ifvqb40","pricing_plan_id":"free"},{"bike_id":"d5f4b731-261b-4935-b6d6-3fd7bf4195ec","system_id":"levelo_inurba_marseille","lat":43.292749,"lon":5.368402,"is_reserved":false,"is_disabled":false,"rental_uris":{"android":"levelo://app?vid=d5f4b731-261b-4935-b6d6-3fd7bf4195ec","ios":"levelo://app?vid=d5f4b731-261b-4935-b6d6-3fd7bf4195ec"},"vehicle_type_id":"4","last_reported":1706432850,"current_range_meters":13200,"station_id":"ce4bhbp2rcd13ifvqesg","pricing_plan_id":"free"},{"bike_id":"66e06646-18dc-444c-8a40-ae3c3c21b6ce","system_id":"levelo_inurba_marseille","lat":43.29274,"lon":5.36853,"is_reserved":false,"is_disabled":false,"rental_uris":{"android":"levelo://app?vid=66e06646-18dc-444c-8a40-ae3c3c21b6ce","ios":"levelo://app?vid=66e06646-18dc-444c-8a40-ae3c3c21b6ce"},"vehicle_type_id":"4","last_reported":1706432850,"current_range_meters":28400,"station_id":"ce4bhbp2rcd13ifvqesg","pricing_plan_id":"free"},{"bike_id":"b5464451-4d67-4d10-9fee-5d8424e84241","system_id":"levelo_inurba_marseille","lat":43.292749,"lon":5.368402,"is_reserved":false,"is_disabled":false,"rental_uris":{"android":"levelo://app?vid=b5464451-4d67-4d10-9fee-5d8424e84241","ios":"levelo://app?vid=b5464451-4d67-4d10-9fee-5d8424e84241"},"vehicle_type_id":"4","last_reported":1706432850,"current_range_meters":26000,"station_id":"ce4bhbp2rcd13ifvqesg","pricing_plan_id":"free"},{"bike_id":"80906e2a-12d7-4d68-9425-b5f85c940c89","system_id":"levelo_inurba_marseille","lat":43.292749,"lon":5.368402,"is_reserved":false,"is_disabled":false,"rental_uris":{"android":"levelo://app?vid=80906e2a-12d7-4d68-9425-b5f85c940c89","ios":"levelo://app?vid=80906e2a-12d7-4d68-9425-b5f85c940c89"},"vehicle_type_id":"4","last_reported":1706432850,"current_range_meters":22800,"station_id":"ce4bhbp2rcd13ifvqesg","pricing_plan_id":"free"},{"bike_id":"300d4519-8afc-41dd-b28f-64ec9e44c8cf","system_id":"levelo_inurba_marseille","lat":43.305994,"lon":5.393687,"is_reserved":false,"is_disabled":false,"rental_uris":{"android":"levelo://app?vid=300d4519-8afc-41dd-b28f-64ec9e44c8cf","ios":"levelo://app?vid=300d4519-8afc-41dd-b28f-64ec9e44c8cf"},"vehicle_type_id":"4","last_reported":1706432850,"current_range_meters":26800,"station_id":"ce4bh0p2rcd13ifvqd80","pricing_plan_id":"free"},{"bike_id":"b37713de-dae2-4de4-94c0-bf7cadc0af5d","system_id":"levelo_inurba_marseille","lat":43.302992,"lon":5.392136,"is_reserved":false,"is_disabled":false,"rental_uris":{"android":"levelo://app?vid=b37713de-dae2-4de4-94c0-bf7cadc0af5d","ios":"levelo://app?vid=b37713de-dae2-4de4-94c0-bf7cadc0af5d"},"vehicle_type_id":"4","last_reported":1706432850,"current_range_meters":25600,"station_id":"ce4bgkh2rcd13ifvqbk0","pricing_plan_id":"free"},{"bike_id":"58fdaf7f-f194-4a6e-adad-6fbb359797bc","system_id":"levelo_inurba_marseille","lat":43.29378,"lon":5.37847,"is_reserved":false,"is_disabled":false,"rental_uris":{"android":"levelo://app?vid=58fdaf7f-f194-4a6e-adad-6fbb359797bc","ios":"levelo://app?vid=58fdaf7f-f194-4a6e-adad-6fbb359797bc"},"vehicle_type_id":"4","last_reported":1706432850,"current_range_meters":0,"station_id":"ce4bgjh2rcd13ifvqbf0","pricing_plan_id":"free"},{"bike_id":"1385a6bb-ae6f-4907-a31f-937c766c566f","system_id":"levelo_inurba_marseille","lat":43.302992,"lon":5.392136,"is_reserved":false,"is_disabled":false,"rental_uris":{"android":"levelo://app?vid=1385a6bb-ae6f-4907-a31f-937c766c566f","ios":"levelo://app?vid=1385a6bb-ae6f-4907-a31f-937c766c566f"},"vehicle_type_id":"4","last_reported":1706432850,"current_range_meters":28400,"station_id":"ce4bgkh2rcd13ifvqbk0","pricing_plan_id":"free"},{"bike_id":"8cc70635-7b78-4cdf-87a8-f8a6d0f92be6","system_id":"levelo_inurba_marseille","lat":43.300852,"lon":5.390859,"is_reserved":false,"is_disabled":false,"rental_uris":{"android":"levelo://app?vid=8cc70635-7b78-4cdf-87a8-f8a6d0f92be6","ios":"levelo://app?vid=8cc70635-7b78-4cdf-87a8-f8a6d0f92be6"},"vehicle_type_id":"4","last_reported":1706432850,"current_range_meters":29200,"station_id":"ce4bh192rcd13ifvqdb0","pricing_plan_id":"free"},{"bike_id":"b7104123-ea31-44a3-aec1-a030c06649ac","system_id":"levelo_inurba_marseille","lat":43.292311,"lon":5.360731,"is_reserved":false,"is_disabled":false,"rental_uris":{"android":"levelo://app?vid=b7104123-ea31-44a3-aec1-a030c06649ac","ios":"levelo://app?vid=b7104123-ea31-44a3-aec1-a030c06649ac"},"vehicle_type_id":"4","last_reported":1706432850,"current_range_meters":4400,"station_id":"ce4bhbh2rcd13ifvqeqg","pricing_plan_id":"free"},{"bike_id":"014dd7df-1cf7-4e4d-bd9e-ac3666fa5c08","system_id":"levelo_inurba_marseille","lat":43.292311,"lon":5.360731,"is_reserved":false,"is_disabled":false,"rental_uris":{"android":"levelo://app?vid=014dd7df-1cf7-4e4d-bd9e-ac3666fa5c08","ios":"levelo://app?vid=014dd7df-1cf7-4e4d-bd9e-ac3666fa5c08"},"vehicle_type_id":"4","last_reported":1706432850,"current_range_meters":31200,"station_id":"ce4bhbh2rcd13ifvqeqg","pricing_plan_id":"free"},{"bike_id":"209317a6-aa9e-4020-9178-28279516f9fd","system_id":"levelo_inurba_marseille","lat":43.292311,"lon":5.360731,"is_reserved":false,"is_disabled":false,"rental_uris":{"android":"levelo://app?vid=209317a6-aa9e-4020-9178-28279516f9fd","ios":"levelo://app?vid=209317a6-aa9e-4020-9178-28279516f9fd"},"vehicle_type_id":"4","last_reported":1706432850,"current_range_meters":29200,"station_id":"ce4bhbh2rcd13ifvqeqg","pricing_plan_id":"free"},{"bike_id":"0a2dadc7-d8a0-4054-a632-6a5267874e41","system_id":"levelo_inurba_marseille","lat":43.292311,"lon":5.360731,"is_reserved":false,"is_disabled":false,"rental_uris":{"android":"levelo://app?vid=0a2dadc7-d8a0-4054-a632-6a5267874e41","ios":"levelo://app?vid=0a2dadc7-d8a0-4054-a632-6a5267874e41"},"vehicle_type_id":"4","last_reported":1706432850,"current_range_meters":29600,"station_id":"ce4bhbh2rcd13ifvqeqg","pricing_plan_id":"free"},{"bike_id":"1cdd6182-45bf-4868-82e2-d52aa7a5ea6f","system_id":"levelo_inurba_marseille","lat":43.292311,"lon":5.360731,"is_reserved":false,"is_disabled":false,"rental_uris":{"android":"levelo://app?vid=1cdd6182-45bf-4868-82e2-d52aa7a5ea6f","ios":"levelo://app?vid=1cdd6182-45bf-4868-82e2-d52aa7a5ea6f"},"vehicle_type_id":"4","last_reported":1706432850,"current_range_meters":3200,"station_id":"ce4bhbh2rcd13ifvqeqg","pricing_plan_id":"free"},{"bike_id":"8e967eb1-cdc3-4cbf-8d3a-18684bae0171","system_id":"levelo_inurba_marseille","lat":43.292203,"lon":5.36052,"is_reserved":false,"is_disabled":false,"rental_uris":{"android":"levelo://app?vid=8e967eb1-cdc3-4cbf-8d3a-18684bae0171","ios":"levelo://app?vid=8e967eb1-cdc3-4cbf-8d3a-18684bae0171"},"vehicle_type_id":"4","last_reported":1706432850,"current_range_meters":4000,"station_id":"ce4bhbh2rcd13ifvqeqg","pricing_plan_id":"free"},{"bike_id":"956242f7-7675-4d47-bb87-7e5ccfe47901","system_id":"levelo_inurba_marseille","lat":43.292311,"lon":5.360731,"is_reserved":false,"is_disabled":false,"rental_uris":{"android":"levelo://app?vid=956242f7-7675-4d47-bb87-7e5ccfe47901","ios":"levelo://app?vid=956242f7-7675-4d47-bb87-7e5ccfe47901"},"vehicle_type_id":"4","last_reported":1706432850,"current_range_meters":26000,"station_id":"ce4bhbh2rcd13ifvqeqg","pricing_plan_id":"free"},{"bike_id":"2375ae9f-20ab-4fc5-ac2d-c8ce4f62587f","system_id":"levelo_inurba_marseille","lat":43.291671,"lon":5.371575,"is_reserved":false,"is_disabled":false,"rental_uris":{"android":"levelo://app?vid=2375ae9f-20ab-4fc5-ac2d-c8ce4f62587f","ios":"levelo://app?vid=2375ae9f-20ab-4fc5-ac2d-c8ce4f62587f"},"vehicle_type_id":"4","last_reported":1706432850,"current_range_meters":25600,"station_id":"ce4bha92rcd13ifvqeh0","pricing_plan_id":"free"},{"bike_id":"841a47e1-89ae-4544-a907-6b7c3ab89792","system_id":"levelo_inurba_marseille","lat":43.309047,"lon":5.396551,"is_reserved":false,"is_disabled":false,"rental_uris":{"android":"levelo://app?vid=841a47e1-89ae-4544-a907-6b7c3ab89792","ios":"levelo://app?vid=841a47e1-89ae-4544-a907-6b7c3ab89792"},"vehicle_type_id":"4","last_reported":1706432850,"current_range_meters":31200,"station_id":"ce4bh012rcd13ifvqcv0","pricing_plan_id":"free"},{"bike_id":"88c710e9-540e-4977-a5d6-7fe4c3904e0b","system_id":"levelo_inurba_marseille","lat":43.291994,"lon":5.357886,"is_reserved":false,"is_disabled":false,"rental_uris":{"android":"levelo://app?vid=88c710e9-540e-4977-a5d6-7fe4c3904e0b","ios":"levelo://app?vid=88c710e9-540e-4977-a5d6-7fe4c3904e0b"},"vehicle_type_id":"4","last_reported":1706432850,"current_range_meters":29200,"station_id":"ce4bhb12rcd13ifvqel0","pricing_plan_id":"free"},{"bike_id":"8a5ef749-d5e1-4777-9ec6-e172c7840457","system_id":"levelo_inurba_marseille","lat":43.313291,"lon":5.396838,"is_reserved":false,"is_disabled":false,"rental_uris":{"android":"levelo://app?vid=8a5ef749-d5e1-4777-9ec6-e172c7840457","ios":"levelo://app?vid=8a5ef749-d5e1-4777-9ec6-e172c7840457"},"vehicle_type_id":"4","last_reported":1706432850,"current_range_meters":31600,"station_id":"ce4bgvp2rcd13ifvqcu0","pricing_plan_id":"free"},{"bike_id":"1c2f4dfb-e9af-4d96-9753-6f479653e589","system_id":"levelo_inurba_marseille","lat":43.313291,"lon":5.396838,"is_reserved":false,"is_disabled":false,"rental_uris":{"android":"levelo://app?vid=1c2f4dfb-e9af-4d96-9753-6f479653e589","ios":"levelo://app?vid=1c2f4dfb-e9af-4d96-9753-6f479653e589"},"vehicle_type_id":"4","last_reported":1706432850,"current_range_meters":31200,"station_id":"ce4bgvp2rcd13ifvqcu0","pricing_plan_id":"free"},{"bike_id":"a88689e1-95a0-4eb8-b251-c12990de72d3","system_id":"levelo_inurba_marseille","lat":43.309038,"lon":5.396546,"is_reserved":false,"is_disabled":false,"rental_uris":{"android":"levelo://app?vid=a88689e1-95a0-4eb8-b251-c12990de72d3","ios":"levelo://app?vid=a88689e1-95a0-4eb8-b251-c12990de72d3"},"vehicle_type_id":"4","last_reported":1706432850,"current_range_meters":15200,"station_id":"ce4bh012rcd13ifvqcv0","pricing_plan_id":"free"},{"bike_id":"b28e11c3-f4fb-4688-9428-99a3a01b5406","system_id":"levelo_inurba_marseille","lat":43.309038,"lon":5.396546,"is_reserved":false,"is_disabled":false,"rental_uris":{"android":"levelo://app?vid=b28e11c3-f4fb-4688-9428-99a3a01b5406","ios":"levelo://app?vid=b28e11c3-f4fb-4688-9428-99a3a01b5406"},"vehicle_type_id":"4","last_reported":1706432850,"current_range_meters":31200,"station_id":"ce4bh012rcd13ifvqcv0","pricing_plan_id":"free"},{"bike_id":"350b1c12-f01b-4e76-b7e5-c2b800e68838","system_id":"levelo_inurba_marseille","lat":43.313291,"lon":5.396838,"is_reserved":false,"is_disabled":false,"rental_uris":{"android":"levelo://app?vid=350b1c12-f01b-4e76-b7e5-c2b800e68838","ios":"levelo://app?vid=350b1c12-f01b-4e76-b7e5-c2b800e68838"},"vehicle_type_id":"4","last_reported":1706432850,"current_range_meters":26800,"station_id":"ce4bgvp2rcd13ifvqcu0","pricing_plan_id":"free"},{"bike_id":"f7ee8f29-f6e4-4ae8-8aa5-c5379c233935","system_id":"levelo_inurba_marseille","lat":43.290631,"lon":5.359244,"is_reserved":false,"is_disabled":false,"rental_uris":{"android":"levelo://app?vid=f7ee8f29-f6e4-4ae8-8aa5-c5379c233935","ios":"levelo://app?vid=f7ee8f29-f6e4-4ae8-8aa5-c5379c233935"},"vehicle_type_id":"4","last_reported":1706432850,"current_range_meters":30400,"station_id":"ce4bha92rcd13ifvqeg0","pricing_plan_id":"free"},{"bike_id":"a7d85f0f-61ee-4761-a65e-c26e4b7cb4e7","system_id":"levelo_inurba_marseille","lat":43.290441,"lon":5.359123,"is_reserved":false,"is_disabled":false,"rental_uris":{"android":"levelo://app?vid=a7d85f0f-61ee-4761-a65e-c26e4b7cb4e7","ios":"levelo://app?vid=a7d85f0f-61ee-4761-a65e-c26e4b7cb4e7"},"vehicle_type_id":"4","last_reported":1706432850,"current_range_meters":26400,"station_id":"","pricing_plan_id":"free"},{"bike_id":"041228cb-39af-4b9a-8b65-9a7be346f52a","system_id":"levelo_inurba_marseille","lat":43.290631,"lon":5.359244,"is_reserved":false,"is_disabled":false,"rental_uris":{"android":"levelo://app?vid=041228cb-39af-4b9a-8b65-9a7be346f52a","ios":"levelo://app?vid=041228cb-39af-4b9a-8b65-9a7be346f52a"},"vehicle_type_id":"4","last_reported":1706432850,"current_range_meters":26400,"station_id":"ce4bha92rcd13ifvqeg0","pricing_plan_id":"free"},{"bike_id":"3099bec3-a101-4f47-90f2-771652ca548d","system_id":"levelo_inurba_marseille","lat":43.294153,"lon":5.386305,"is_reserved":false,"is_disabled":false,"rental_uris":{"android":"levelo://app?vid=3099bec3-a101-4f47-90f2-771652ca548d","ios":"levelo://app?vid=3099bec3-a101-4f47-90f2-771652ca548d"},"vehicle_type_id":"4","last_reported":1706432850,"current_range_meters":27600,"station_id":"ce4bh2h2rcd13ifvqdh0","pricing_plan_id":"free"},{"bike_id":"7fc1e170-74e7-4596-a8ae-98fb48a530e2","system_id":"levelo_inurba_marseille","lat":43.294162,"lon":5.386292,"is_reserved":false,"is_disabled":false,"rental_uris":{"android":"levelo://app?vid=7fc1e170-74e7-4596-a8ae-98fb48a530e2","ios":"levelo://app?vid=7fc1e170-74e7-4596-a8ae-98fb48a530e2"},"vehicle_type_id":"4","last_reported":1706432850,"current_range_meters":19600,"station_id":"ce4bh2h2rcd13ifvqdh0","pricing_plan_id":"free"},{"bike_id":"5e618167-d08b-447a-814d-ad0c8955891e","system_id":"levelo_inurba_marseille","lat":43.289184,"lon":5.366408,"is_reserved":false,"is_disabled":false,"rental_uris":{"android":"levelo://app?vid=5e618167-d08b-447a-814d-ad0c8955891e","ios":"levelo://app?vid=5e618167-d08b-447a-814d-ad0c8955891e"},"vehicle_type_id":"4","last_reported":1706432850,"current_range_meters":28400,"station_id":"ce4bhap2rcd13ifvqek0","pricing_plan_id":"free"},{"bike_id":"ed3a1a60-f821-4625-9ad9-9ab7bccb09f4","system_id":"levelo_inurba_marseille","lat":43.292642,"lon":5.384254,"is_reserved":false,"is_disabled":false,"rental_uris":{"android":"levelo://app?vid=ed3a1a60-f821-4625-9ad9-9ab7bccb09f4","ios":"levelo://app?vid=ed3a1a60-f821-4625-9ad9-9ab7bccb09f4"},"vehicle_type_id":"4","last_reported":1706432850,"current_range_meters":30400,"station_id":"ce4bh692rcd13ifvqea0","pricing_plan_id":"free"},{"bike_id":"96e20b6b-ebc4-4acc-b45f-63a3f63a8e00","system_id":"levelo_inurba_marseille","lat":43.304296,"lon":5.397513,"is_reserved":false,"is_disabled":false,"rental_uris":{"android":"levelo://app?vid=96e20b6b-ebc4-4acc-b45f-63a3f63a8e00","ios":"levelo://app?vid=96e20b6b-ebc4-4acc-b45f-63a3f63a8e00"},"vehicle_type_id":"4","last_reported":1706432850,"current_range_meters":30000,"station_id":"ce4bh092rcd13ifvqd20","pricing_plan_id":"free"},{"bike_id":"32ddb1dc-c6db-439a-a881-7cf897cea8bd","system_id":"levelo_inurba_marseille","lat":43.290103,"lon":5.356114,"is_reserved":false,"is_disabled":false,"rental_uris":{"android":"levelo://app?vid=32ddb1dc-c6db-439a-a881-7cf897cea8bd","ios":"levelo://app?vid=32ddb1dc-c6db-439a-a881-7cf897cea8bd"},"vehicle_type_id":"4","last_reported":1706432850,"current_range_meters":15200,"station_id":"ce4bhb92rcd13ifvqen0","pricing_plan_id":"free"},{"bike_id":"2fdb353e-40df-4a5c-8eaa-14ba82101a45","system_id":"levelo_inurba_marseille","lat":43.290103,"lon":5.356114,"is_reserved":false,"is_disabled":false,"rental_uris":{"android":"levelo://app?vid=2fdb353e-40df-4a5c-8eaa-14ba82101a45","ios":"levelo://app?vid=2fdb353e-40df-4a5c-8eaa-14ba82101a45"},"vehicle_type_id":"4","last_reported":1706432850,"current_range_meters":27600,"station_id":"ce4bhb92rcd13ifvqen0","pricing_plan_id":"free"},{"bike_id":"7edecc66-5288-4c6f-a504-2a1f755b2879","system_id":"levelo_inurba_marseille","lat":43.290104,"lon":5.356111,"is_reserved":false,"is_disabled":false,"rental_uris":{"android":"levelo://app?vid=7edecc66-5288-4c6f-a504-2a1f755b2879","ios":"levelo://app?vid=7edecc66-5288-4c6f-a504-2a1f755b2879"},"vehicle_type_id":"4","last_reported":1706432850,"current_range_meters":8000,"station_id":"ce4bhb92rcd13ifvqen0","pricing_plan_id":"free"},{"bike_id":"d80f9b19-c5df-4ce1-b640-7a24d0929168","system_id":"levelo_inurba_marseille","lat":43.290104,"lon":5.356111,"is_reserved":false,"is_disabled":false,"rental_uris":{"android":"levelo://app?vid=d80f9b19-c5df-4ce1-b640-7a24d0929168","ios":"levelo://app?vid=d80f9b19-c5df-4ce1-b640-7a24d0929168"},"vehicle_type_id":"4","last_reported":1706432850,"current_range_meters":0,"station_id":"ce4bhb92rcd13ifvqen0","pricing_plan_id":"free"},{"bike_id":"4955a50f-1824-4d7b-8593-eb099284f676","system_id":"levelo_inurba_marseille","lat":43.313291,"lon":5.396838,"is_reserved":false,"is_disabled":false,"rental_uris":{"android":"levelo://app?vid=4955a50f-1824-4d7b-8593-eb099284f676","ios":"levelo://app?vid=4955a50f-1824-4d7b-8593-eb099284f676"},"vehicle_type_id":"4","last_reported":1706432850,"current_range_meters":20800,"station_id":"ce4bgvp2rcd13ifvqcu0","pricing_plan_id":"free"},{"bike_id":"11c8248a-3cb6-4dd0-b765-6cf16513f782","system_id":"levelo_inurba_marseille","lat":43.289741,"lon":5.378306,"is_reserved":false,"is_disabled":false,"rental_uris":{"android":"levelo://app?vid=11c8248a-3cb6-4dd0-b765-6cf16513f782","ios":"levelo://app?vid=11c8248a-3cb6-4dd0-b765-6cf16513f782"},"vehicle_type_id":"4","last_reported":1706432850,"current_range_meters":28000,"station_id":"ce4bh9p2rcd13ifvqed0","pricing_plan_id":"free"},{"bike_id":"a32a9b40-a799-4a43-bf36-b079ad1de03a","system_id":"levelo_inurba_marseille","lat":43.295169,"lon":5.390426,"is_reserved":false,"is_disabled":false,"rental_uris":{"android":"levelo://app?vid=a32a9b40-a799-4a43-bf36-b079ad1de03a","ios":"levelo://app?vid=a32a9b40-a799-4a43-bf36-b079ad1de03a"},"vehicle_type_id":"4","last_reported":1706432850,"current_range_meters":18800,"station_id":"ce4bh3p2rcd13ifvqdp0","pricing_plan_id":"free"},{"bike_id":"1f004bc9-8145-41f4-a9a4-3f70faee6854","system_id":"levelo_inurba_marseille","lat":43.330442,"lon":5.389148,"is_reserved":false,"is_disabled":false,"rental_uris":{"android":"levelo://app?vid=1f004bc9-8145-41f4-a9a4-3f70faee6854","ios":"levelo://app?vid=1f004bc9-8145-41f4-a9a4-3f70faee6854"},"vehicle_type_id":"4","last_reported":1706432850,"current_range_meters":14000,"station_id":"ce4bhr92rcd13ifvqhrg","pricing_plan_id":"free"},{"bike_id":"481dad6f-9967-4f6f-97c2-139abd002c75","system_id":"levelo_inurba_marseille","lat":43.330442,"lon":5.389148,"is_reserved":false,"is_disabled":false,"rental_uris":{"android":"levelo://app?vid=481dad6f-9967-4f6f-97c2-139abd002c75","ios":"levelo://app?vid=481dad6f-9967-4f6f-97c2-139abd002c75"},"vehicle_type_id":"4","last_reported":1706432850,"current_range_meters":2800,"station_id":"ce4bhr92rcd13ifvqhrg","pricing_plan_id":"free"},{"bike_id":"67306246-5866-4ee8-bda6-adfc9d414fc1","system_id":"levelo_inurba_marseille","lat":43.28856,"lon":5.358371,"is_reserved":false,"is_disabled":false,"rental_uris":{"android":"levelo://app?vid=67306246-5866-4ee8-bda6-adfc9d414fc1","ios":"levelo://app?vid=67306246-5866-4ee8-bda6-adfc9d414fc1"},"vehicle_type_id":"4","last_reported":1706432850,"current_range_meters":23200,"station_id":"ce4bhb12rcd13ifvqem0","pricing_plan_id":"free"},{"bike_id":"2e58af76-978d-4a1c-936d-9743c89965a6","system_id":"levelo_inurba_marseille","lat":43.28856,"lon":5.358371,"is_reserved":false,"is_disabled":false,"rental_uris":{"android":"levelo://app?vid=2e58af76-978d-4a1c-936d-9743c89965a6","ios":"levelo://app?vid=2e58af76-978d-4a1c-936d-9743c89965a6"},"vehicle_type_id":"4","last_reported":1706432850,"current_range_meters":4400,"station_id":"ce4bhb12rcd13ifvqem0","pricing_plan_id":"free"},{"bike_id":"f9e1d5d6-f09d-43cc-907a-98a9c3157e0d","system_id":"levelo_inurba_marseille","lat":43.28856,"lon":5.358371,"is_reserved":false,"is_disabled":false,"rental_uris":{"android":"levelo://app?vid=f9e1d5d6-f09d-43cc-907a-98a9c3157e0d","ios":"levelo://app?vid=f9e1d5d6-f09d-43cc-907a-98a9c3157e0d"},"vehicle_type_id":"4","last_reported":1706432850,"current_range_meters":26000,"station_id":"ce4bhb12rcd13ifvqem0","pricing_plan_id":"free"},{"bike_id":"a563cdbf-78b8-441c-8dce-8da1c3325b92","system_id":"levelo_inurba_marseille","lat":43.33756,"lon":5.374544,"is_reserved":false,"is_disabled":false,"rental_uris":{"android":"levelo://app?vid=a563cdbf-78b8-441c-8dce-8da1c3325b92","ios":"levelo://app?vid=a563cdbf-78b8-441c-8dce-8da1c3325b92"},"vehicle_type_id":"4","last_reported":1706432850,"current_range_meters":20800,"station_id":"","pricing_plan_id":"free"},{"bike_id":"b7f12eab-e0a6-499e-87ec-2b4381c4602a","system_id":"levelo_inurba_marseille","lat":43.337598,"lon":5.374545,"is_reserved":false,"is_disabled":false,"rental_uris":{"android":"levelo://app?vid=b7f12eab-e0a6-499e-87ec-2b4381c4602a","ios":"levelo://app?vid=b7f12eab-e0a6-499e-87ec-2b4381c4602a"},"vehicle_type_id":"4","last_reported":1706432850,"current_range_meters":24000,"station_id":"","pricing_plan_id":"free"},{"bike_id":"2fe24097-b1c2-4583-ba1f-cf8501171a4c","system_id":"levelo_inurba_marseille","lat":43.337561,"lon":5.374886,"is_reserved":false,"is_disabled":false,"rental_uris":{"android":"levelo://app?vid=2fe24097-b1c2-4583-ba1f-cf8501171a4c","ios":"levelo://app?vid=2fe24097-b1c2-4583-ba1f-cf8501171a4c"},"vehicle_type_id":"4","last_reported":1706432850,"current_range_meters":12400,"station_id":"","pricing_plan_id":"free"},{"bike_id":"b7d3b81d-d85a-44b5-a0c7-8f9c9f74639e","system_id":"levelo_inurba_marseille","lat":43.33765,"lon":5.374672,"is_reserved":false,"is_disabled":false,"rental_uris":{"android":"levelo://app?vid=b7d3b81d-d85a-44b5-a0c7-8f9c9f74639e","ios":"levelo://app?vid=b7d3b81d-d85a-44b5-a0c7-8f9c9f74639e"},"vehicle_type_id":"4","last_reported":1706432850,"current_range_meters":27600,"station_id":"","pricing_plan_id":"free"},{"bike_id":"1facbbf3-baac-42f8-85eb-cb1e36f3e4b9","system_id":"levelo_inurba_marseille","lat":43.337621,"lon":5.374892,"is_reserved":false,"is_disabled":false,"rental_uris":{"android":"levelo://app?vid=1facbbf3-baac-42f8-85eb-cb1e36f3e4b9","ios":"levelo://app?vid=1facbbf3-baac-42f8-85eb-cb1e36f3e4b9"},"vehicle_type_id":"4","last_reported":1706432850,"current_range_meters":15200,"station_id":"","pricing_plan_id":"free"},{"bike_id":"1cb2cfcc-7ff7-4072-b23a-412bb3b04bd9","system_id":"levelo_inurba_marseille","lat":43.337729,"lon":5.374292,"is_reserved":false,"is_disabled":false,"rental_uris":{"android":"levelo://app?vid=1cb2cfcc-7ff7-4072-b23a-412bb3b04bd9","ios":"levelo://app?vid=1cb2cfcc-7ff7-4072-b23a-412bb3b04bd9"},"vehicle_type_id":"4","last_reported":1706432850,"current_range_meters":15200,"station_id":"","pricing_plan_id":"free"},{"bike_id":"d09654af-8e4f-4921-bab5-c8e3ca7490aa","system_id":"levelo_inurba_marseille","lat":43.298681,"lon":5.397225,"is_reserved":false,"is_disabled":false,"rental_uris":{"android":"levelo://app?vid=d09654af-8e4f-4921-bab5-c8e3ca7490aa","ios":"levelo://app?vid=d09654af-8e4f-4921-bab5-c8e3ca7490aa"},"vehicle_type_id":"4","last_reported":1706432850,"current_range_meters":29200,"station_id":"ce4bh0h2rcd13ifvqd50","pricing_plan_id":"free"},{"bike_id":"2c32b177-8f00-4e76-b35b-731e427d935f","system_id":"levelo_inurba_marseille","lat":43.286961,"lon":5.373785,"is_reserved":false,"is_disabled":false,"rental_uris":{"android":"levelo://app?vid=2c32b177-8f00-4e76-b35b-731e427d935f","ios":"levelo://app?vid=2c32b177-8f00-4e76-b35b-731e427d935f"},"vehicle_type_id":"4","last_reported":1706432850,"current_range_meters":31200,"station_id":"ce4bh3p2rcd13ifvqdq0","pricing_plan_id":"free"},{"bike_id":"97c0898b-d792-44a1-8bef-e74bb7153787","system_id":"levelo_inurba_marseille","lat":43.286593,"lon":5.363346,"is_reserved":false,"is_disabled":false,"rental_uris":{"android":"levelo://app?vid=97c0898b-d792-44a1-8bef-e74bb7153787","ios":"levelo://app?vid=97c0898b-d792-44a1-8bef-e74bb7153787"},"vehicle_type_id":"4","last_reported":1706432850,"current_range_meters":26400,"station_id":"ce4bhah2rcd13ifvqej0","pricing_plan_id":"free"},{"bike_id":"b6b84edb-32bc-4f25-82c1-fabdd20a440d","system_id":"levelo_inurba_marseille","lat":43.289307,"lon":5.38406,"is_reserved":false,"is_disabled":false,"rental_uris":{"android":"levelo://app?vid=b6b84edb-32bc-4f25-82c1-fabdd20a440d","ios":"levelo://app?vid=b6b84edb-32bc-4f25-82c1-fabdd20a440d"},"vehicle_type_id":"4","last_reported":1706432850,"current_range_meters":25200,"station_id":"ce4bh612rcd13ifvqe6g","pricing_plan_id":"free"},{"bike_id":"0893d792-5717-478e-88fa-96d13d940c5c","system_id":"levelo_inurba_marseille","lat":43.289307,"lon":5.38406,"is_reserved":false,"is_disabled":false,"rental_uris":{"android":"levelo://app?vid=0893d792-5717-478e-88fa-96d13d940c5c","ios":"levelo://app?vid=0893d792-5717-478e-88fa-96d13d940c5c"},"vehicle_type_id":"4","last_reported":1706432850,"current_range_meters":26800,"station_id":"ce4bh612rcd13ifvqe6g","pricing_plan_id":"free"},{"bike_id":"b02dc5c1-1957-4331-98e2-dc19375a15a3","system_id":"levelo_inurba_marseille","lat":43.290336,"lon":5.386425,"is_reserved":false,"is_disabled":false,"rental_uris":{"android":"levelo://app?vid=b02dc5c1-1957-4331-98e2-dc19375a15a3","ios":"levelo://app?vid=b02dc5c1-1957-4331-98e2-dc19375a15a3"},"vehicle_type_id":"4","last_reported":1706432850,"current_range_meters":30000,"station_id":"ce4bh4p2rcd13ifvqe0g","pricing_plan_id":"free"},{"bike_id":"183bb1c1-398f-466c-b05d-327ac4efc436","system_id":"levelo_inurba_marseille","lat":43.302511,"lon":5.400653,"is_reserved":false,"is_disabled":false,"rental_uris":{"android":"levelo://app?vid=183bb1c1-398f-466c-b05d-327ac4efc436","ios":"levelo://app?vid=183bb1c1-398f-466c-b05d-327ac4efc436"},"vehicle_type_id":"4","last_reported":1706432850,"current_range_meters":11600,"station_id":"ce4bgth2rcd13ifvqch0","pricing_plan_id":"free"},{"bike_id":"12ee282b-e723-420c-9d99-f498554156d9","system_id":"levelo_inurba_marseille","lat":43.290336,"lon":5.386425,"is_reserved":false,"is_disabled":false,"rental_uris":{"android":"levelo://app?vid=12ee282b-e723-420c-9d99-f498554156d9","ios":"levelo://app?vid=12ee282b-e723-420c-9d99-f498554156d9"},"vehicle_type_id":"4","last_reported":1706432850,"current_range_meters":19200,"station_id":"ce4bh4p2rcd13ifvqe0g","pricing_plan_id":"free"},{"bike_id":"741f2370-511b-4f2f-bf70-7b9873c1aa16","system_id":"levelo_inurba_marseille","lat":43.302759,"lon":5.400793,"is_reserved":false,"is_disabled":false,"rental_uris":{"android":"levelo://app?vid=741f2370-511b-4f2f-bf70-7b9873c1aa16","ios":"levelo://app?vid=741f2370-511b-4f2f-bf70-7b9873c1aa16"},"vehicle_type_id":"4","last_reported":1706432850,"current_range_meters":16000,"station_id":"ce4bgvh2rcd13ifvqcs0","pricing_plan_id":"free"},{"bike_id":"03447749-0c25-43f9-b101-2dd420e40b4a","system_id":"levelo_inurba_marseille","lat":43.286039,"lon":5.370681,"is_reserved":false,"is_disabled":false,"rental_uris":{"android":"levelo://app?vid=03447749-0c25-43f9-b101-2dd420e40b4a","ios":"levelo://app?vid=03447749-0c25-43f9-b101-2dd420e40b4a"},"vehicle_type_id":"4","last_reported":1706432850,"current_range_meters":6800,"station_id":"ce4bht12rcd13ifvqi60","pricing_plan_id":"free"},{"bike_id":"7a20cc91-dfa1-4a3e-bfd2-02427b5eaca0","system_id":"levelo_inurba_marseille","lat":43.29192,"lon":5.39315,"is_reserved":false,"is_disabled":false,"rental_uris":{"android":"levelo://app?vid=7a20cc91-dfa1-4a3e-bfd2-02427b5eaca0","ios":"levelo://app?vid=7a20cc91-dfa1-4a3e-bfd2-02427b5eaca0"},"vehicle_type_id":"4","last_reported":1706432850,"current_range_meters":31200,"station_id":"ce4bh192rcd13ifvqdd0","pricing_plan_id":"free"},{"bike_id":"5bf6295b-4225-468b-9dae-72e8651e1f68","system_id":"levelo_inurba_marseille","lat":43.28469,"lon":5.35885,"is_reserved":false,"is_disabled":false,"rental_uris":{"android":"levelo://app?vid=5bf6295b-4225-468b-9dae-72e8651e1f68","ios":"levelo://app?vid=5bf6295b-4225-468b-9dae-72e8651e1f68"},"vehicle_type_id":"4","last_reported":1706432850,"current_range_meters":26000,"station_id":"ce4bhah2rcd13ifvqei0","pricing_plan_id":"free"},{"bike_id":"27996df4-75f0-4517-9d89-5bc095adec08","system_id":"levelo_inurba_marseille","lat":43.284538,"lon":5.358657,"is_reserved":false,"is_disabled":false,"rental_uris":{"android":"levelo://app?vid=27996df4-75f0-4517-9d89-5bc095adec08","ios":"levelo://app?vid=27996df4-75f0-4517-9d89-5bc095adec08"},"vehicle_type_id":"4","last_reported":1706432850,"current_range_meters":26000,"station_id":"ce4bhah2rcd13ifvqei0","pricing_plan_id":"free"},{"bike_id":"84939456-6752-47ce-b628-fed93bcd290d","system_id":"levelo_inurba_marseille","lat":43.285856,"lon":5.350771,"is_reserved":false,"is_disabled":false,"rental_uris":{"android":"levelo://app?vid=84939456-6752-47ce-b628-fed93bcd290d","ios":"levelo://app?vid=84939456-6752-47ce-b628-fed93bcd290d"},"vehicle_type_id":"4","last_reported":1706432850,"current_range_meters":28400,"station_id":"ce4bhch2rcd13ifvqeug","pricing_plan_id":"free"},{"bike_id":"78b04be9-ed77-4351-90cc-031c63acfb01","system_id":"levelo_inurba_marseille","lat":43.285856,"lon":5.350771,"is_reserved":false,"is_disabled":false,"rental_uris":{"android":"levelo://app?vid=78b04be9-ed77-4351-90cc-031c63acfb01","ios":"levelo://app?vid=78b04be9-ed77-4351-90cc-031c63acfb01"},"vehicle_type_id":"4","last_reported":1706432850,"current_range_meters":19200,"station_id":"ce4bhch2rcd13ifvqeug","pricing_plan_id":"free"},{"bike_id":"a63d3ab1-184c-4e05-a46e-41f61f0ae852","system_id":"levelo_inurba_marseille","lat":43.286595,"lon":5.386795,"is_reserved":false,"is_disabled":false,"rental_uris":{"android":"levelo://app?vid=a63d3ab1-184c-4e05-a46e-41f61f0ae852","ios":"levelo://app?vid=a63d3ab1-184c-4e05-a46e-41f61f0ae852"},"vehicle_type_id":"4","last_reported":1706432850,"current_range_meters":28400,"station_id":"ce4bh492rcd13ifvqdug","pricing_plan_id":"free"},{"bike_id":"b29b4b3a-7a43-4939-bb05-5f4f2fe881f9","system_id":"levelo_inurba_marseille","lat":43.319179,"lon":5.407725,"is_reserved":false,"is_disabled":false,"rental_uris":{"android":"levelo://app?vid=b29b4b3a-7a43-4939-bb05-5f4f2fe881f9","ios":"levelo://app?vid=b29b4b3a-7a43-4939-bb05-5f4f2fe881f9"},"vehicle_type_id":"4","last_reported":1706432850,"current_range_meters":31200,"station_id":"ce4bhq12rcd13ifvqhig","pricing_plan_id":"free"},{"bike_id":"77308e31-fc80-4c42-923c-57fc362eb70a","system_id":"levelo_inurba_marseille","lat":43.319179,"lon":5.407725,"is_reserved":false,"is_disabled":false,"rental_uris":{"android":"levelo://app?vid=77308e31-fc80-4c42-923c-57fc362eb70a","ios":"levelo://app?vid=77308e31-fc80-4c42-923c-57fc362eb70a"},"vehicle_type_id":"4","last_reported":1706432850,"current_range_meters":28400,"station_id":"ce4bhq12rcd13ifvqhig","pricing_plan_id":"free"},{"bike_id":"40975b42-2dae-4c78-9990-d091247266be","system_id":"levelo_inurba_marseille","lat":43.319179,"lon":5.407725,"is_reserved":false,"is_disabled":false,"rental_uris":{"android":"levelo://app?vid=40975b42-2dae-4c78-9990-d091247266be","ios":"levelo://app?vid=40975b42-2dae-4c78-9990-d091247266be"},"vehicle_type_id":"4","last_reported":1706432850,"current_range_meters":24400,"station_id":"ce4bhq12rcd13ifvqhig","pricing_plan_id":"free"},{"bike_id":"e63b7e05-da47-404b-a3ca-035d8af322bb","system_id":"levelo_inurba_marseille","lat":43.319179,"lon":5.407725,"is_reserved":false,"is_disabled":false,"rental_uris":{"android":"levelo://app?vid=e63b7e05-da47-404b-a3ca-035d8af322bb","ios":"levelo://app?vid=e63b7e05-da47-404b-a3ca-035d8af322bb"},"vehicle_type_id":"4","last_reported":1706432850,"current_range_meters":31200,"station_id":"ce4bhq12rcd13ifvqhig","pricing_plan_id":"free"},{"bike_id":"2b5f4982-548b-4158-a72b-a9e801ba15e5","system_id":"levelo_inurba_marseille","lat":43.323464,"lon":5.406297,"is_reserved":false,"is_disabled":false,"rental_uris":{"android":"levelo://app?vid=2b5f4982-548b-4158-a72b-a9e801ba15e5","ios":"levelo://app?vid=2b5f4982-548b-4158-a72b-a9e801ba15e5"},"vehicle_type_id":"4","last_reported":1706432850,"current_range_meters":31200,"station_id":"ce4bhq92rcd13ifvqhjg","pricing_plan_id":"free"},{"bike_id":"3c982f92-c162-4958-96ed-bd3ab8ee1412","system_id":"levelo_inurba_marseille","lat":43.323464,"lon":5.406297,"is_reserved":false,"is_disabled":false,"rental_uris":{"android":"levelo://app?vid=3c982f92-c162-4958-96ed-bd3ab8ee1412","ios":"levelo://app?vid=3c982f92-c162-4958-96ed-bd3ab8ee1412"},"vehicle_type_id":"4","last_reported":1706432850,"current_range_meters":25200,"station_id":"ce4bhq92rcd13ifvqhjg","pricing_plan_id":"free"},{"bike_id":"49927298-0456-42e8-8955-c51541c9e6dc","system_id":"levelo_inurba_marseille","lat":43.323464,"lon":5.406297,"is_reserved":false,"is_disabled":false,"rental_uris":{"android":"levelo://app?vid=49927298-0456-42e8-8955-c51541c9e6dc","ios":"levelo://app?vid=49927298-0456-42e8-8955-c51541c9e6dc"},"vehicle_type_id":"4","last_reported":1706432850,"current_range_meters":23600,"station_id":"ce4bhq92rcd13ifvqhjg","pricing_plan_id":"free"},{"bike_id":"df72a7f0-8fbf-4666-93bf-0f42441a4270","system_id":"levelo_inurba_marseille","lat":43.284793,"lon":5.384113,"is_reserved":false,"is_disabled":false,"rental_uris":{"android":"levelo://app?vid=df72a7f0-8fbf-4666-93bf-0f42441a4270","ios":"levelo://app?vid=df72a7f0-8fbf-4666-93bf-0f42441a4270"},"vehicle_type_id":"4","last_reported":1706432850,"current_range_meters":25600,"station_id":"ce4bh512rcd13ifvqe3g","pricing_plan_id":"free"},{"bike_id":"5ff604b5-5ce2-4ff1-bc6b-a6787cfc4bc4","system_id":"levelo_inurba_marseille","lat":43.284787,"lon":5.384116,"is_reserved":false,"is_disabled":false,"rental_uris":{"android":"levelo://app?vid=5ff604b5-5ce2-4ff1-bc6b-a6787cfc4bc4","ios":"levelo://app?vid=5ff604b5-5ce2-4ff1-bc6b-a6787cfc4bc4"},"vehicle_type_id":"4","last_reported":1706432850,"current_range_meters":28800,"station_id":"ce4bh512rcd13ifvqe3g","pricing_plan_id":"free"},{"bike_id":"82b6a408-6185-4f0c-b2ef-9dd0d3886e17","system_id":"levelo_inurba_marseille","lat":43.284793,"lon":5.384119,"is_reserved":false,"is_disabled":false,"rental_uris":{"android":"levelo://app?vid=82b6a408-6185-4f0c-b2ef-9dd0d3886e17","ios":"levelo://app?vid=82b6a408-6185-4f0c-b2ef-9dd0d3886e17"},"vehicle_type_id":"4","last_reported":1706432850,"current_range_meters":29600,"station_id":"ce4bh512rcd13ifvqe3g","pricing_plan_id":"free"},{"bike_id":"6c3e2ba4-c932-4ab0-93b1-dd946c04eda9","system_id":"levelo_inurba_marseille","lat":43.298,"lon":5.40401,"is_reserved":false,"is_disabled":false,"rental_uris":{"android":"levelo://app?vid=6c3e2ba4-c932-4ab0-93b1-dd946c04eda9","ios":"levelo://app?vid=6c3e2ba4-c932-4ab0-93b1-dd946c04eda9"},"vehicle_type_id":"4","last_reported":1706432850,"current_range_meters":25200,"station_id":"ce4bh112rcd13ifvqd90","pricing_plan_id":"free"},{"bike_id":"5bfa4ac2-9603-4ea9-bd8f-9e9f40018fbe","system_id":"levelo_inurba_marseille","lat":43.284217,"lon":5.349697,"is_reserved":false,"is_disabled":false,"rental_uris":{"android":"levelo://app?vid=5bfa4ac2-9603-4ea9-bd8f-9e9f40018fbe","ios":"levelo://app?vid=5bfa4ac2-9603-4ea9-bd8f-9e9f40018fbe"},"vehicle_type_id":"4","last_reported":1706432850,"current_range_meters":20000,"station_id":"ce4bhbh2rcd13ifvqepg","pricing_plan_id":"free"},{"bike_id":"f82cc590-3ee6-4cb1-bf7d-59c3bf76943b","system_id":"levelo_inurba_marseille","lat":43.284219,"lon":5.3497,"is_reserved":false,"is_disabled":false,"rental_uris":{"android":"levelo://app?vid=f82cc590-3ee6-4cb1-bf7d-59c3bf76943b","ios":"levelo://app?vid=f82cc590-3ee6-4cb1-bf7d-59c3bf76943b"},"vehicle_type_id":"4","last_reported":1706432850,"current_range_meters":29200,"station_id":"ce4bhbh2rcd13ifvqepg","pricing_plan_id":"free"},{"bike_id":"b2780e63-292f-4a6e-9c5d-a5b7fcd70da5","system_id":"levelo_inurba_marseille","lat":43.284219,"lon":5.3497,"is_reserved":false,"is_disabled":false,"rental_uris":{"android":"levelo://app?vid=b2780e63-292f-4a6e-9c5d-a5b7fcd70da5","ios":"levelo://app?vid=b2780e63-292f-4a6e-9c5d-a5b7fcd70da5"},"vehicle_type_id":"4","last_reported":1706432850,"current_range_meters":28400,"station_id":"ce4bhbh2rcd13ifvqepg","pricing_plan_id":"free"},{"bike_id":"190f043b-27ef-4c26-adf1-e87975c28a49","system_id":"levelo_inurba_marseille","lat":43.284217,"lon":5.349697,"is_reserved":false,"is_disabled":false,"rental_uris":{"android":"levelo://app?vid=190f043b-27ef-4c26-adf1-e87975c28a49","ios":"levelo://app?vid=190f043b-27ef-4c26-adf1-e87975c28a49"},"vehicle_type_id":"4","last_reported":1706432850,"current_range_meters":29600,"station_id":"ce4bhbh2rcd13ifvqepg","pricing_plan_id":"free"},{"bike_id":"4dcaa2fc-de68-4983-b019-4ee8826950e5","system_id":"levelo_inurba_marseille","lat":43.284217,"lon":5.349697,"is_reserved":false,"is_disabled":false,"rental_uris":{"android":"levelo://app?vid=4dcaa2fc-de68-4983-b019-4ee8826950e5","ios":"levelo://app?vid=4dcaa2fc-de68-4983-b019-4ee8826950e5"},"vehicle_type_id":"4","last_reported":1706432850,"current_range_meters":21200,"station_id":"ce4bhbh2rcd13ifvqepg","pricing_plan_id":"free"},{"bike_id":"fa291e11-4502-45a5-b417-e773c0916823","system_id":"levelo_inurba_marseille","lat":43.289389,"lon":5.396278,"is_reserved":false,"is_disabled":false,"rental_uris":{"android":"levelo://app?vid=fa291e11-4502-45a5-b417-e773c0916823","ios":"levelo://app?vid=fa291e11-4502-45a5-b417-e773c0916823"},"vehicle_type_id":"4","last_reported":1706432850,"current_range_meters":30000,"station_id":"ce4bh3h2rcd13ifvqdn0","pricing_plan_id":"free"},{"bike_id":"b41bcd76-cb12-4b33-95cd-9444d1e23578","system_id":"levelo_inurba_marseille","lat":43.293556,"lon":5.401561,"is_reserved":false,"is_disabled":false,"rental_uris":{"android":"levelo://app?vid=b41bcd76-cb12-4b33-95cd-9444d1e23578","ios":"levelo://app?vid=b41bcd76-cb12-4b33-95cd-9444d1e23578"},"vehicle_type_id":"4","last_reported":1706432850,"current_range_meters":6800,"station_id":"","pricing_plan_id":"free"},{"bike_id":"8260046f-2529-4645-b9a6-53220628a170","system_id":"levelo_inurba_marseille","lat":43.282736,"lon":5.350725,"is_reserved":false,"is_disabled":false,"rental_uris":{"android":"levelo://app?vid=8260046f-2529-4645-b9a6-53220628a170","ios":"levelo://app?vid=8260046f-2529-4645-b9a6-53220628a170"},"vehicle_type_id":"4","last_reported":1706432850,"current_range_meters":31200,"station_id":"ce4bhbp2rcd13ifvqerg","pricing_plan_id":"free"},{"bike_id":"cb7fd5f1-c72b-4c81-a870-c56a0d2db6bc","system_id":"levelo_inurba_marseille","lat":43.282766,"lon":5.350597,"is_reserved":false,"is_disabled":false,"rental_uris":{"android":"levelo://app?vid=cb7fd5f1-c72b-4c81-a870-c56a0d2db6bc","ios":"levelo://app?vid=cb7fd5f1-c72b-4c81-a870-c56a0d2db6bc"},"vehicle_type_id":"4","last_reported":1706432850,"current_range_meters":2800,"station_id":"ce4bhbp2rcd13ifvqerg","pricing_plan_id":"free"},{"bike_id":"a943c6f2-e628-41f0-aff9-258cc2a68e1a","system_id":"levelo_inurba_marseille","lat":43.28272,"lon":5.35073,"is_reserved":false,"is_disabled":false,"rental_uris":{"android":"levelo://app?vid=a943c6f2-e628-41f0-aff9-258cc2a68e1a","ios":"levelo://app?vid=a943c6f2-e628-41f0-aff9-258cc2a68e1a"},"vehicle_type_id":"4","last_reported":1706432850,"current_range_meters":23600,"station_id":"ce4bhbp2rcd13ifvqerg","pricing_plan_id":"free"},{"bike_id":"8dd1be73-8e71-4300-86a4-d1e4a4ec10db","system_id":"levelo_inurba_marseille","lat":43.28269,"lon":5.35074,"is_reserved":false,"is_disabled":false,"rental_uris":{"android":"levelo://app?vid=8dd1be73-8e71-4300-86a4-d1e4a4ec10db","ios":"levelo://app?vid=8dd1be73-8e71-4300-86a4-d1e4a4ec10db"},"vehicle_type_id":"4","last_reported":1706432850,"current_range_meters":0,"station_id":"ce4bhbp2rcd13ifvqerg","pricing_plan_id":"free"},{"bike_id":"e7f2d7ab-e4f7-4dee-9a01-d6aec2a14127","system_id":"levelo_inurba_marseille","lat":43.2827,"lon":5.35068,"is_reserved":false,"is_disabled":false,"rental_uris":{"android":"levelo://app?vid=e7f2d7ab-e4f7-4dee-9a01-d6aec2a14127","ios":"levelo://app?vid=e7f2d7ab-e4f7-4dee-9a01-d6aec2a14127"},"vehicle_type_id":"4","last_reported":1706432850,"current_range_meters":28000,"station_id":"ce4bhbp2rcd13ifvqerg","pricing_plan_id":"free"},{"bike_id":"dbcbdc85-7314-434b-b401-5af51a5aaa59","system_id":"levelo_inurba_marseille","lat":43.2827,"lon":5.35055,"is_reserved":false,"is_disabled":false,"rental_uris":{"android":"levelo://app?vid=dbcbdc85-7314-434b-b401-5af51a5aaa59","ios":"levelo://app?vid=dbcbdc85-7314-434b-b401-5af51a5aaa59"},"vehicle_type_id":"4","last_reported":1706432850,"current_range_meters":26400,"station_id":"ce4bhbp2rcd13ifvqerg","pricing_plan_id":"free"},{"bike_id":"4fd5e65d-c0d2-473d-81e1-bbc459a3557a","system_id":"levelo_inurba_marseille","lat":43.283502,"lon":5.386471,"is_reserved":false,"is_disabled":false,"rental_uris":{"android":"levelo://app?vid=4fd5e65d-c0d2-473d-81e1-bbc459a3557a","ios":"levelo://app?vid=4fd5e65d-c0d2-473d-81e1-bbc459a3557a"},"vehicle_type_id":"4","last_reported":1706432850,"current_range_meters":26000,"station_id":"ce4bh492rcd13ifvqdvg","pricing_plan_id":"free"},{"bike_id":"7d2ceae5-44cb-4d40-bf09-209268de9a57","system_id":"levelo_inurba_marseille","lat":43.28039,"lon":5.369297,"is_reserved":false,"is_disabled":false,"rental_uris":{"android":"levelo://app?vid=7d2ceae5-44cb-4d40-bf09-209268de9a57","ios":"levelo://app?vid=7d2ceae5-44cb-4d40-bf09-209268de9a57"},"vehicle_type_id":"4","last_reported":1706432850,"current_range_meters":27600,"station_id":"ce4bha12rcd13ifvqef0","pricing_plan_id":"free"},{"bike_id":"a4dee076-d77d-4907-b73b-8abb8cf21261","system_id":"levelo_inurba_marseille","lat":43.28039,"lon":5.369297,"is_reserved":false,"is_disabled":false,"rental_uris":{"android":"levelo://app?vid=a4dee076-d77d-4907-b73b-8abb8cf21261","ios":"levelo://app?vid=a4dee076-d77d-4907-b73b-8abb8cf21261"},"vehicle_type_id":"4","last_reported":1706432850,"current_range_meters":25200,"station_id":"ce4bha12rcd13ifvqef0","pricing_plan_id":"free"},{"bike_id":"bc67ee0f-4d62-4144-bff2-7c5d1defffb7","system_id":"levelo_inurba_marseille","lat":43.283502,"lon":5.386471,"is_reserved":false,"is_disabled":false,"rental_uris":{"android":"levelo://app?vid=bc67ee0f-4d62-4144-bff2-7c5d1defffb7","ios":"levelo://app?vid=bc67ee0f-4d62-4144-bff2-7c5d1defffb7"},"vehicle_type_id":"4","last_reported":1706432850,"current_range_meters":23200,"station_id":"ce4bh492rcd13ifvqdvg","pricing_plan_id":"free"},{"bike_id":"5c91d4cd-cacb-4112-8e26-9288e7567cdc","system_id":"levelo_inurba_marseille","lat":43.28039,"lon":5.369297,"is_reserved":false,"is_disabled":false,"rental_uris":{"android":"levelo://app?vid=5c91d4cd-cacb-4112-8e26-9288e7567cdc","ios":"levelo://app?vid=5c91d4cd-cacb-4112-8e26-9288e7567cdc"},"vehicle_type_id":"4","last_reported":1706432850,"current_range_meters":30000,"station_id":"ce4bha12rcd13ifvqef0","pricing_plan_id":"free"},{"bike_id":"9b4a9518-965f-4ef4-bcae-b9ba5a2be020","system_id":"levelo_inurba_marseille","lat":43.280382,"lon":5.369291,"is_reserved":false,"is_disabled":false,"rental_uris":{"android":"levelo://app?vid=9b4a9518-965f-4ef4-bcae-b9ba5a2be020","ios":"levelo://app?vid=9b4a9518-965f-4ef4-bcae-b9ba5a2be020"},"vehicle_type_id":"4","last_reported":1706432850,"current_range_meters":29600,"station_id":"ce4bha12rcd13ifvqef0","pricing_plan_id":"free"},{"bike_id":"7d56b545-ea86-423c-9c7b-f611e297116c","system_id":"levelo_inurba_marseille","lat":43.280382,"lon":5.369291,"is_reserved":false,"is_disabled":false,"rental_uris":{"android":"levelo://app?vid=7d56b545-ea86-423c-9c7b-f611e297116c","ios":"levelo://app?vid=7d56b545-ea86-423c-9c7b-f611e297116c"},"vehicle_type_id":"4","last_reported":1706432850,"current_range_meters":31200,"station_id":"ce4bha12rcd13ifvqef0","pricing_plan_id":"free"},{"bike_id":"a2fd409c-99ce-4249-8d63-fdea0254a9c9","system_id":"levelo_inurba_marseille","lat":43.28039,"lon":5.369297,"is_reserved":false,"is_disabled":false,"rental_uris":{"android":"levelo://app?vid=a2fd409c-99ce-4249-8d63-fdea0254a9c9","ios":"levelo://app?vid=a2fd409c-99ce-4249-8d63-fdea0254a9c9"},"vehicle_type_id":"4","last_reported":1706432850,"current_range_meters":24800,"station_id":"ce4bha12rcd13ifvqef0","pricing_plan_id":"free"},{"bike_id":"2f77903c-3c7b-4ab8-9b84-d9a22be177c9","system_id":"levelo_inurba_marseille","lat":43.29041,"lon":5.399634,"is_reserved":false,"is_disabled":false,"rental_uris":{"android":"levelo://app?vid=2f77903c-3c7b-4ab8-9b84-d9a22be177c9","ios":"levelo://app?vid=2f77903c-3c7b-4ab8-9b84-d9a22be177c9"},"vehicle_type_id":"4","last_reported":1706432850,"current_range_meters":12800,"station_id":"ce4bh392rcd13ifvqdm0","pricing_plan_id":"free"},{"bike_id":"3e079e5c-07ae-4eb9-b21a-78e07156db2f","system_id":"levelo_inurba_marseille","lat":43.281044,"lon":5.378308,"is_reserved":false,"is_disabled":false,"rental_uris":{"android":"levelo://app?vid=3e079e5c-07ae-4eb9-b21a-78e07156db2f","ios":"levelo://app?vid=3e079e5c-07ae-4eb9-b21a-78e07156db2f"},"vehicle_type_id":"4","last_reported":1706432850,"current_range_meters":20800,"station_id":"ce4bha12rcd13ifvqee0","pricing_plan_id":"free"},{"bike_id":"85283570-766e-4f09-b6d7-924805593782","system_id":"levelo_inurba_marseille","lat":43.284462,"lon":5.392121,"is_reserved":false,"is_disabled":false,"rental_uris":{"android":"levelo://app?vid=85283570-766e-4f09-b6d7-924805593782","ios":"levelo://app?vid=85283570-766e-4f09-b6d7-924805593782"},"vehicle_type_id":"4","last_reported":1706432850,"current_range_meters":24800,"station_id":"ce4bhoh2rcd13ifvqh5g","pricing_plan_id":"free"},{"bike_id":"2949c624-3e4d-48fb-9fe2-b04af4201b45","system_id":"levelo_inurba_marseille","lat":43.284462,"lon":5.392121,"is_reserved":false,"is_disabled":false,"rental_uris":{"android":"levelo://app?vid=2949c624-3e4d-48fb-9fe2-b04af4201b45","ios":"levelo://app?vid=2949c624-3e4d-48fb-9fe2-b04af4201b45"},"vehicle_type_id":"4","last_reported":1706432850,"current_range_meters":19200,"station_id":"ce4bhoh2rcd13ifvqh5g","pricing_plan_id":"free"},{"bike_id":"ebd50005-3faa-4b4c-bc65-0c0a5a2afc4f","system_id":"levelo_inurba_marseille","lat":43.28573,"lon":5.394992,"is_reserved":false,"is_disabled":false,"rental_uris":{"android":"levelo://app?vid=ebd50005-3faa-4b4c-bc65-0c0a5a2afc4f","ios":"levelo://app?vid=ebd50005-3faa-4b4c-bc65-0c0a5a2afc4f"},"vehicle_type_id":"4","last_reported":1706432850,"current_range_meters":30400,"station_id":"ce4bh292rcd13ifvqdg0","pricing_plan_id":"free"},