{"last_updated":1729620731,"ttl":60,"version":"2.2","data":{"bikes":[{"bike_id":"ea7d3ab6-ee1e-4076-8da7-882f636f6010","system_id":"levelo_inurba_marseille","lat":43.28355,"lon":5.38641,"is_reserved":false,"is_disabled":false,"rental_uris":{"android":"levelo://app?vid=ea7d3ab6-ee1e-4076-8da7-882f636f6010","ios":"levelo://app?vid=ea7d3ab6-ee1e-4076-8da7-882f636f6010"},"vehicle_type_id":"4","last_reported":1729620731,"current_range_meters":37600,"station_id":"ce4bh492rcd13ifvqdvg","pricing_plan_id":"cebpf4jnsgd1na2vs0mg"},{"bike_id":"a1734ac5-bdd5-4f8f-af9b-24c96f810d8e","system_id":"levelo_inurba_marseille","lat":43.299,"lon":5.43667,"is_reserved":false,"is_disabled":false,"rental_uris":{"android":"levelo://app?vid=a1734ac5-bdd5-4f8f-af9b-24c96f810d8e","ios":"levelo://app?vid=a1734ac5-bdd5-4f8f-af9b-24c96f810d8e"},"vehicle_type_id":"4","last_reported":1729620731,"current_range_meters":24000,"station_id":"ce4bhpp2rcd13ifvqhfg","pricing_plan_id":"cebpf4jnsgd1na2vs0mg"},{"bike_id":"bc1ece14-7ba7-4f2a-b484-15718d3100cf","system_id":"levelo_inurba_marseille","lat":43.25577,"lon":5.38226,"is_reserved":false,"is_disabled":false,"rental_uris":{"android":"levelo://app?vid=bc1ece14-7ba7-4f2a-b484-15718d3100cf","ios":"levelo://app?vid=bc1ece14-7ba7-4f2a-b484-15718d3100cf"},"vehicle_type_id":"4","last_reported":1729620731,"current_range_meters":16400,"station_id":"ce4bhih2rcd13ifvqfs0","pricing_plan_id":"cebpf4jnsgd1na2vs0mg"},{"bike_id":"41ab3696-02ce-40e3-9010-f5bd25cf919e","system_id":"levelo_inurba_marseille","lat":43.29523,"lon":5.38546,"is_reserved":false,"is_disabled":false,"rental_uris":{"android":"levelo://app?vid=41ab3696-02ce-40e3-9010-f5bd25cf919e","ios":"levelo://app?vid=41ab3696-02ce-40e3-9010-f5bd25cf919e"},"vehicle_type_id":"4","last_reported":1729620731,"current_range_meters":4800,"station_id":"ce4bgih2rcd13ifvqba0","pricing_plan_id":"cebpf4jnsgd1na2vs0mg"},{"bike_id":"ce22f026-e7de-484f-85a5-36e5c4fc377f","system_id":"levelo_inurba_marseille","lat":43.24088,"lon":5.37752,"is_reserved":false,"is_disabled":false,"rental_uris":{"android":"levelo://app?vid=ce22f026-e7de-484f-85a5-36e5c4fc377f","ios":"levelo://app?vid=ce22f026-e7de-484f-85a5-36e5c4fc377f"},"vehicle_type_id":"4","last_reported":1729620731,"current_range_meters":24400,"station_id":"ce4bhnp2rcd13ifvqgvg","pricing_plan_id":"cebpf4jnsgd1na2vs0mg"},{"bike_id":"f959c94a-3644-4ed9-b7ed-65e914e837b3","system_id":"levelo_inurba_marseille","lat":43.3133,"lon":5.39701,"is_reserved":false,"is_disabled":false,"rental_uris":{"android":"levelo://app?vid=f959c94a-3644-4ed9-b7ed-65e914e837b3","ios":"levelo://app?vid=f959c94a-3644-4ed9-b7ed-65e914e837b3"},"vehicle_type_id":"4","last_reported":1729620731,"current_range_meters":20000,"station_id":"ce4bgvp2rcd13ifvqcu0","pricing_plan_id":"cebpf4jnsgd1na2vs0mg"},{"bike_id":"b03294c8-9cb7-4473-a06d-d3d5618a8319","system_id":"levelo_inurba_marseille","lat":43.28078,"lon":5.39664,"is_reserved":false,"is_disabled":false,"rental_uris":{"android":"levelo://app?vid=b03294c8-9cb7-4473-a06d-d3d5618a8319","ios":"levelo://app?vid=b03294c8-9cb7-4473-a06d-d3d5618a8319"},"vehicle_type_id":"4","last_reported":1729620731,"current_range_meters":1600,"station_id":"ce4bho12rcd13ifvqh2g","pricing_plan_id":"cebpf4jnsgd1na2vs0mg"},{"bike_id":"9accb39f-a387-4ec7-ac40-2bf58e9296ec","system_id":"levelo_inurba_marseille","lat":43.29303,"lon":5.37183,"is_reserved":false,"is_disabled":false,"rental_uris":{"android":"levelo://app?vid=9accb39f-a387-4ec7-ac40-2bf58e9296ec","ios":"levelo://app?vid=9accb39f-a387-4ec7-ac40-2bf58e9296ec"},"vehicle_type_id":"4","last_reported":1729620731,"current_range_meters":28800,"station_id":"ce4bgh92rcd13ifvqb40","pricing_plan_id":"cebpf4jnsgd1na2vs0mg"},{"bike_id":"3a8f12c4-9896-4bf0-a837-54e779b864cc","system_id":"levelo_inurba_marseille","lat":43.2958,"lon":5.37514,"is_reserved":false,"is_disabled":false,"rental_uris":{"android":"levelo://app?vid=3a8f12c4-9896-4bf0-a837-54e779b864cc","ios":"levelo://app?vid=3a8f12c4-9896-4bf0-a837-54e779b864cc"},"vehicle_type_id":"4","last_reported":1729620731,"current_range_meters":36400,"station_id":"ce4bgh92rcd13ifvqb50","pricing_plan_id":"cebpf4jnsgd1na2vs0mg"},{"bike_id":"9cd996da-b243-4383-b467-db15e71b34ab","system_id":"levelo_inurba_marseille","lat":43.278414,"lon":5.392168,"is_reserved":false,"is_disabled":false,"rental_uris":{"android":"levelo://app?vid=9cd996da-b243-4383-b467-db15e71b34ab","ios":"levelo://app?vid=9cd996da-b243-4383-b467-db15e71b34ab"},"vehicle_type_id":"4","last_reported":1729620731,"current_range_meters":33600,"station_id":"ce4bhjp2rcd13ifvqga0","pricing_plan_id":"cebpf4jnsgd1na2vs0mg"},{"bike_id":"b1b4c31d-76a2-4008-ada1-3c522f4fcc5c","system_id":"levelo_inurba_marseille","lat":43.29262,"lon":5.38448,"is_reserved":false,"is_disabled":false,"rental_uris":{"android":"levelo://app?vid=b1b4c31d-76a2-4008-ada1-3c522f4fcc5c","ios":"levelo://app?vid=b1b4c31d-76a2-4008-ada1-3c522f4fcc5c"},"vehicle_type_id":"4","last_reported":1729620731,"current_range_meters":38800,"station_id":"ce4bh692rcd13ifvqea0","pricing_plan_id":"cebpf4jnsgd1na2vs0mg"},{"bike_id":"a6b112fd-af0f-4f76-9899-9df4d9643a4c","system_id":"levelo_inurba_marseille","lat":43.29308,"lon":5.37179,"is_reserved":false,"is_disabled":false,"rental_uris":{"android":"levelo://app?vid=a6b112fd-af0f-4f76-9899-9df4d9643a4c","ios":"levelo://app?vid=a6b112fd-af0f-4f76-9899-9df4d9643a4c"},"vehicle_type_id":"4","last_reported":1729620731,"current_range_meters":4400,"station_id":"ce4bgh92rcd13ifvqb40","pricing_plan_id":"cebpf4jnsgd1na2vs0mg"},{"bike_id":"5c449356-4ac4-4d08-a405-c433fbe21a80","system_id":"levelo_inurba_marseille","lat":43.33737,"lon":5.37458,"is_reserved":false,"is_disabled":false,"rental_uris":{"android":"levelo://app?vid=5c449356-4ac4-4d08-a405-c433fbe21a80","ios":"levelo://app?vid=5c449356-4ac4-4d08-a405-c433fbe21a80"},"vehicle_type_id":"4","last_reported":1729620731,"current_range_meters":32800,"station_id":"","pricing_plan_id":"cebpf4jnsgd1na2vs0mg"},{"bike_id":"a08b6024-0290-4b92-96f5-3b7e78d8fb06","system_id":"levelo_inurba_marseille","lat":43.29519,"lon":5.37508,"is_reserved":false,"is_disabled":false,"rental_uris":{"android":"levelo://app?vid=a08b6024-0290-4b92-96f5-3b7e78d8fb06","ios":"levelo://app?vid=a08b6024-0290-4b92-96f5-3b7e78d8fb06"},"vehicle_type_id":"4","last_reported":1729620731,"current_range_meters":12800,"station_id":"ce4bgkp2rcd13ifvqbmg","pricing_plan_id":"cebpf4jnsgd1na2vs0mg"},{"bike_id":"d9008e40-da82-4c68-80dc-7d1e7ccee04d","system_id":"levelo_inurba_marseille","lat":43.30456,"lon":5.4018,"is_reserved":false,"is_disabled":false,"rental_uris":{"android":"levelo://app?vid=d9008e40-da82-4c68-80dc-7d1e7ccee04d","ios":"levelo://app?vid=d9008e40-da82-4c68-80dc-7d1e7ccee04d"},"vehicle_type_id":"4","last_reported":1729620731,"current_range_meters":10800,"station_id":"","pricing_plan_id":"cebpf4jnsgd1na2vs0mg"},{"bike_id":"37c20136-57a6-454b-9da1-97f877810c0b","system_id":"levelo_inurba_marseille","lat":43.28474,"lon":5.38419,"is_reserved":false,"is_disabled":false,"rental_uris":{"android":"levelo://app?vid=37c20136-57a6-454b-9da1-97f877810c0b","ios":"levelo://app?vid=37c20136-57a6-454b-9da1-97f877810c0b"},"vehicle_type_id":"4","last_reported":1729620731,"current_range_meters":26000,"station_id":"ce4bh512rcd13ifvqe3g","pricing_plan_id":"cebpf4jnsgd1na2vs0mg"},{"bike_id":"b68f664f-29f9-43b5-8660-d8e0c9731760","system_id":"levelo_inurba_marseille","lat":43.28936,"lon":5.36637,"is_reserved":false,"is_disabled":false,"rental_uris":{"android":"levelo://app?vid=b68f664f-29f9-43b5-8660-d8e0c9731760","ios":"levelo://app?vid=b68f664f-29f9-43b5-8660-d8e0c9731760"},"vehicle_type_id":"4","last_reported":1729620731,"current_range_meters":38800,"station_id":"ce4bhap2rcd13ifvqek0","pricing_plan_id":"cebpf4jnsgd1na2vs0mg"},{"bike_id":"80f01561-4f78-4d59-98de-f130f22341eb","system_id":"levelo_inurba_marseille","lat":43.28154,"lon":5.42641,"is_reserved":false,"is_disabled":false,"rental_uris":{"android":"levelo://app?vid=80f01561-4f78-4d59-98de-f130f22341eb","ios":"levelo://app?vid=80f01561-4f78-4d59-98de-f130f22341eb"},"vehicle_type_id":"4","last_reported":1729620731,"current_range_meters":8000,"station_id":"ce4bhnh2rcd13ifvqgug","pricing_plan_id":"cebpf4jnsgd1na2vs0mg"},{"bike_id":"0c6b11eb-50a7-4dc0-bff2-d8026011ec1d","system_id":"levelo_inurba_marseille","lat":43.24392,"lon":5.37057,"is_reserved":false,"is_disabled":false,"rental_uris":{"android":"levelo://app?vid=0c6b11eb-50a7-4dc0-bff2-d8026011ec1d","ios":"levelo://app?vid=0c6b11eb-50a7-4dc0-bff2-d8026011ec1d"},"vehicle_type_id":"4","last_reported":1729620731,"current_range_meters":39200,"station_id":"ce4bhhh2rcd13ifvqfk0","pricing_plan_id":"cebpf4jnsgd1na2vs0mg"},{"bike_id":"df217360-aff1-4e07-a318-80500917e1e2","system_id":"levelo_inurba_marseille","lat":43.29785,"lon":5.3933,"is_reserved":false,"is_disabled":false,"rental_uris":{"android":"levelo://app?vid=df217360-aff1-4e07-a318-80500917e1e2","ios":"levelo://app?vid=df217360-aff1-4e07-a318-80500917e1e2"},"vehicle_type_id":"4","last_reported":1729620731,"current_range_meters":33200,"station_id":"chh1huq6cuj3fo74tm60","pricing_plan_id":"cebpf4jnsgd1na2vs0mg"},{"bike_id":"4882a116-5452-4f97-bdbd-13df4cccb9d6","system_id":"levelo_inurba_marseille","lat":43.30603,"lon":5.37238,"is_reserved":false,"is_disabled":false,"rental_uris":{"android":"levelo://app?vid=4882a116-5452-4f97-bdbd-13df4cccb9d6","ios":"levelo://app?vid=4882a116-5452-4f97-bdbd-13df4cccb9d6"},"vehicle_type_id":"4","last_reported":1729620731,"current_range_meters":34000,"station_id":"ce4bgqh2rcd13ifvqc4g","pricing_plan_id":"cebpf4jnsgd1na2vs0mg"},{"bike_id":"b62830e9-b932-4821-91c5-d8fd325c5f38","system_id":"levelo_inurba_marseille","lat":43.25521,"lon":5.40953,"is_reserved":false,"is_disabled":false,"rental_uris":{"android":"levelo://app?vid=b62830e9-b932-4821-91c5-d8fd325c5f38","ios":"levelo://app?vid=b62830e9-b932-4821-91c5-d8fd325c5f38"},"vehicle_type_id":"4","last_reported":1729620731,"current_range_meters":18800,"station_id":"","pricing_plan_id":"cebpf4jnsgd1na2vs0mg"},{"bike_id":"42af39e4-49cc-43dd-9e90-2297b5b89f01","system_id":"levelo_inurba_marseille","lat":43.29581,"lon":5.3751,"is_reserved":false,"is_disabled":false,"rental_uris":{"android":"levelo://app?vid=42af39e4-49cc-43dd-9e90-2297b5b89f01","ios":"levelo://app?vid=42af39e4-49cc-43dd-9e90-2297b5b89f01"},"vehicle_type_id":"4","last_reported":1729620731,"current_range_meters":8000,"station_id":"ce4bgh92rcd13ifvqb50","pricing_plan_id":"cebpf4jnsgd1na2vs0mg"},{"bike_id":"78deca94-3259-4829-bb24-b65d3a8108a4","system_id":"levelo_inurba_marseille","lat":43.29261,"lon":5.38446,"is_reserved":false,"is_disabled":false,"rental_uris":{"android":"levelo://app?vid=78deca94-3259-4829-bb24-b65d3a8108a4","ios":"levelo://app?vid=78deca94-3259-4829-bb24-b65d3a8108a4"},"vehicle_type_id":"4","last_reported":1729620731,"current_range_meters":14400,"station_id":"ce4bh692rcd13ifvqea0","pricing_plan_id":"cebpf4jnsgd1na2vs0mg"},{"bike_id":"4fdb422b-a068-401b-aa60-d39d7f9e21cf","system_id":"levelo_inurba_marseille","lat":43.29424,"lon":5.38625,"is_reserved":false,"is_disabled":false,"rental_uris":{"android":"levelo://app?vid=4fdb422b-a068-401b-aa60-d39d7f9e21cf","ios":"levelo://app?vid=4fdb422b-a068-401b-aa60-d39d7f9e21cf"},"vehicle_type_id":"4","last_reported":1729620731,"current_range_meters":7200,"station_id":"ce4bh2h2rcd13ifvqdh0","pricing_plan_id":"cebpf4jnsgd1na2vs0mg"},{"bike_id":"0be98b3b-4dfc-439c-bee5-521b8885b256","system_id":"levelo_inurba_marseille","lat":43.2897,"lon":5.37827,"is_reserved":false,"is_disabled":false,"rental_uris":{"android":"levelo://app?vid=0be98b3b-4dfc-439c-bee5-521b8885b256","ios":"levelo://app?vid=0be98b3b-4dfc-439c-bee5-521b8885b256"},"vehicle_type_id":"4","last_reported":1729620731,"current_range_meters":27200,"station_id":"ce4bh9p2rcd13ifvqed0","pricing_plan_id":"cebpf4jnsgd1na2vs0mg"},{"bike_id":"d8a2a477-36fb-429a-832e-57112c8d7a6b","system_id":"levelo_inurba_marseille","lat":43.289917,"lon":5.356194,"is_reserved":false,"is_disabled":false,"rental_uris":{"android":"levelo://app?vid=d8a2a477-36fb-429a-832e-57112c8d7a6b","ios":"levelo://app?vid=d8a2a477-36fb-429a-832e-57112c8d7a6b"},"vehicle_type_id":"4","last_reported":1729620731,"current_range_meters":28400,"station_id":"ce4bhb92rcd13ifvqen0","pricing_plan_id":"cebpf4jnsgd1na2vs0mg"},{"bike_id":"0a87700c-9238-4849-9be3-2acbb250ebc9","system_id":"levelo_inurba_marseille","lat":43.31626,"lon":5.40541,"is_reserved":false,"is_disabled":false,"rental_uris":{"android":"levelo://app?vid=0a87700c-9238-4849-9be3-2acbb250ebc9","ios":"levelo://app?vid=0a87700c-9238-4849-9be3-2acbb250ebc9"},"vehicle_type_id":"4","last_reported":1729620731,"current_range_meters":24400,"station_id":"ce4bh092rcd13ifvqd30","pricing_plan_id":"cebpf4jnsgd1na2vs0mg"},{"bike_id":"5dc81759-774b-41d4-bff8-151ec303c7a2","system_id":"levelo_inurba_marseille","lat":43.29789,"lon":5.3811,"is_reserved":false,"is_disabled":false,"rental_uris":{"android":"levelo://app?vid=5dc81759-774b-41d4-bff8-151ec303c7a2","ios":"levelo://app?vid=5dc81759-774b-41d4-bff8-151ec303c7a2"},"vehicle_type_id":"4","last_reported":1729620731,"current_range_meters":16000,"station_id":"ce4bgip2rcd13ifvqbb0","pricing_plan_id":"cebpf4jnsgd1na2vs0mg"},{"bike_id":"c0448bf2-1647-4239-a9a6-fdce44bf982a","system_id":"levelo_inurba_marseille","lat":43.29308,"lon":5.37185,"is_reserved":false,"is_disabled":false,"rental_uris":{"android":"levelo://app?vid=c0448bf2-1647-4239-a9a6-fdce44bf982a","ios":"levelo://app?vid=c0448bf2-1647-4239-a9a6-fdce44bf982a"},"vehicle_type_id":"4","last_reported":1729620731,"current_range_meters":17200,"station_id":"ce4bgh92rcd13ifvqb40","pricing_plan_id":"cebpf4jnsgd1na2vs0mg"},{"bike_id":"2de5bb43-7f92-4d89-b9c7-6f5aedd59c2e","system_id":"levelo_inurba_marseille","lat":43.27071,"lon":5.42284,"is_reserved":false,"is_disabled":false,"rental_uris":{"android":"levelo://app?vid=2de5bb43-7f92-4d89-b9c7-6f5aedd59c2e","ios":"levelo://app?vid=2de5bb43-7f92-4d89-b9c7-6f5aedd59c2e"},"vehicle_type_id":"4","last_reported":1729620731,"current_range_meters":19600,"station_id":"ce4bh0h2rcd13ifvqd40","pricing_plan_id":"cebpf4jnsgd1na2vs0mg"},{"bike_id":"1773ba4f-51f7-4bdf-a365-34d0e76a4386","system_id":"levelo_inurba_marseille","lat":43.27946,"lon":5.41052,"is_reserved":false,"is_disabled":false,"rental_uris":{"android":"levelo://app?vid=1773ba4f-51f7-4bdf-a365-34d0e76a4386","ios":"levelo://app?vid=1773ba4f-51f7-4bdf-a365-34d0e76a4386"},"vehicle_type_id":"4","last_reported":1729620731,"current_range_meters":36400,"station_id":"ce4bhnp2rcd13ifvqh0g","pricing_plan_id":"cebpf4jnsgd1na2vs0mg"},{"bike_id":"d8bd7326-7ef0-4a5e-8d83-02034cf48a30","system_id":"levelo_inurba_marseille","lat":43.32345,"lon":5.40624,"is_reserved":false,"is_disabled":false,"rental_uris":{"android":"levelo://app?vid=d8bd7326-7ef0-4a5e-8d83-02034cf48a30","ios":"levelo://app?vid=d8bd7326-7ef0-4a5e-8d83-02034cf48a30"},"vehicle_type_id":"4","last_reported":1729620731,"current_range_meters":22800,"station_id":"ce4bhq92rcd13ifvqhjg","pricing_plan_id":"cebpf4jnsgd1na2vs0mg"},{"bike_id":"f4f4cedb-ee30-4d0e-addd-0835963f6da5","system_id":"levelo_inurba_marseille","lat":43.29474,"lon":5.44385,"is_reserved":false,"is_disabled":false,"rental_uris":{"android":"levelo://app?vid=f4f4cedb-ee30-4d0e-addd-0835963f6da5","ios":"levelo://app?vid=f4f4cedb-ee30-4d0e-addd-0835963f6da5"},"vehicle_type_id":"4","last_reported":1729620731,"current_range_meters":5600,"station_id":"","pricing_plan_id":"cebpf4jnsgd1na2vs0mg"},{"bike_id":"32a75bd1-c4b8-46ca-8823-6515251cad46","system_id":"levelo_inurba_marseille","lat":43.2928,"lon":5.36846,"is_reserved":false,"is_disabled":false,"rental_uris":{"android":"levelo://app?vid=32a75bd1-c4b8-46ca-8823-6515251cad46","ios":"levelo://app?vid=32a75bd1-c4b8-46ca-8823-6515251cad46"},"vehicle_type_id":"4","last_reported":1729620731,"current_range_meters":32400,"station_id":"ce4bhbp2rcd13ifvqesg","pricing_plan_id":"cebpf4jnsgd1na2vs0mg"},{"bike_id":"0205ccf9-04fa-45d3-b20e-7fea88301cfa","system_id":"levelo_inurba_marseille","lat":43.30101,"lon":5.39068,"is_reserved":false,"is_disabled":false,"rental_uris":{"android":"levelo://app?vid=0205ccf9-04fa-45d3-b20e-7fea88301cfa","ios":"levelo://app?vid=0205ccf9-04fa-45d3-b20e-7fea88301cfa"},"vehicle_type_id":"4","last_reported":1729620731,"current_range_meters":31200,"station_id":"ce4bh192rcd13ifvqdb0","pricing_plan_id":"cebpf4jnsgd1na2vs0mg"},{"bike_id":"81db9c70-bce4-4764-86a6-8d25b1c25e6d","system_id":"levelo_inurba_marseille","lat":43.24647,"lon":5.38887,"is_reserved":false,"is_disabled":false,"rental_uris":{"android":"levelo://app?vid=81db9c70-bce4-4764-86a6-8d25b1c25e6d","ios":"levelo://app?vid=81db9c70-bce4-4764-86a6-8d25b1c25e6d"},"vehicle_type_id":"4","last_reported":1729620731,"current_range_meters":19600,"station_id":"ce4bhg12rcd13ifvqf60","pricing_plan_id":"cebpf4jnsgd1na2vs0mg"},{"bike_id":"36f29174-278d-4a36-8d64-2c490ae15868","system_id":"levelo_inurba_marseille","lat":43.27497,"lon":5.42459,"is_reserved":false,"is_disabled":false,"rental_uris":{"android":"levelo://app?vid=36f29174-278d-4a36-8d64-2c490ae15868","ios":"levelo://app?vid=36f29174-278d-4a36-8d64-2c490ae15868"},"vehicle_type_id":"4","last_reported":1729620731,"current_range_meters":34800,"station_id":"ce4bhn92rcd13ifvqgrg","pricing_plan_id":"cebpf4jnsgd1na2vs0mg"},{"bike_id":"12d3abd6-c991-4967-87d7-01a6b0bfe89e","system_id":"levelo_inurba_marseille","lat":43.29423,"lon":5.38634,"is_reserved":false,"is_disabled":false,"rental_uris":{"android":"levelo://app?vid=12d3abd6-c991-4967-87d7-01a6b0bfe89e","ios":"levelo://app?vid=12d3abd6-c991-4967-87d7-01a6b0bfe89e"},"vehicle_type_id":"4","last_reported":1729620731,"current_range_meters":24400,"station_id":"ce4bh2h2rcd13ifvqdh0","pricing_plan_id":"cebpf4jnsgd1na2vs0mg"},{"bike_id":"ec015156-dee0-4c32-bc4d-7c9dc92fa5f3","system_id":"levelo_inurba_marseille","lat":43.31125,"lon":5.37763,"is_reserved":false,"is_disabled":false,"rental_uris":{"android":"levelo://app?vid=ec015156-dee0-4c32-bc4d-7c9dc92fa5f3","ios":"levelo://app?vid=ec015156-dee0-4c32-bc4d-7c9dc92fa5f3"},"vehicle_type_id":"4","last_reported":1729620731,"current_range_meters":23200,"station_id":"ce4bgt92rcd13ifvqcg0","pricing_plan_id":"cebpf4jnsgd1na2vs0mg"},{"bike_id":"df1adf92-82d9-4e75-bc32-4124f31632aa","system_id":"levelo_inurba_marseille","lat":43.30134,"lon":5.39866,"is_reserved":false,"is_disabled":false,"rental_uris":{"android":"levelo://app?vid=df1adf92-82d9-4e75-bc32-4124f31632aa","ios":"levelo://app?vid=df1adf92-82d9-4e75-bc32-4124f31632aa"},"vehicle_type_id":"4","last_reported":1729620731,"current_range_meters":25600,"station_id":"ce4bh0h2rcd13ifvqd40","pricing_plan_id":"cebpf4jnsgd1na2vs0mg"},{"bike_id":"11256fd2-b537-43fb-8f2f-2312433c9979","system_id":"levelo_inurba_marseille","lat":43.28104,"lon":5.37839,"is_reserved":false,"is_disabled":false,"rental_uris":{"android":"levelo://app?vid=11256fd2-b537-43fb-8f2f-2312433c9979","ios":"levelo://app?vid=11256fd2-b537-43fb-8f2f-2312433c9979"},"vehicle_type_id":"4","last_reported":1729620731,"current_range_meters":8400,"station_id":"ce4bha12rcd13ifvqee0","pricing_plan_id":"cebpf4jnsgd1na2vs0mg"},{"bike_id":"e60493c1-8ff4-4e9a-be59-eb2b2abd0020","system_id":"levelo_inurba_marseille","lat":43.2882,"lon":5.39293,"is_reserved":false,"is_disabled":false,"rental_uris":{"android":"levelo://app?vid=e60493c1-8ff4-4e9a-be59-eb2b2abd0020","ios":"levelo://app?vid=e60493c1-8ff4-4e9a-be59-eb2b2abd0020"},"vehicle_type_id":"4","last_reported":1729620731,"current_range_meters":38000,"station_id":"ce4bh2p2rcd13ifvqdi0","pricing_plan_id":"cebpf4jnsgd1na2vs0mg"},{"bike_id":"449ba1b9-c5bc-48b5-b44c-56e6fafa9e3d","system_id":"levelo_inurba_marseille","lat":43.31079,"lon":5.38357,"is_reserved":false,"is_disabled":false,"rental_uris":{"android":"levelo://app?vid=449ba1b9-c5bc-48b5-b44c-56e6fafa9e3d","ios":"levelo://app?vid=449ba1b9-c5bc-48b5-b44c-56e6fafa9e3d"},"vehicle_type_id":"4","last_reported":1729620731,"current_range_meters":18800,"station_id":"ce4bgv92rcd13ifvqcr0","pricing_plan_id":"cebpf4jnsgd1na2vs0mg"},{"bike_id":"ab29697d-cd9a-40f6-9efc-bb3323c4f101","system_id":"levelo_inurba_marseille","lat":43.27069,"lon":5.42282,"is_reserved":false,"is_disabled":false,"rental_uris":{"android":"levelo://app?vid=ab29697d-cd9a-40f6-9efc-bb3323c4f101","ios":"levelo://app?vid=ab29697d-cd9a-40f6-9efc-bb3323c4f101"},"vehicle_type_id":"4","last_reported":1729620731,"current_range_meters":17600,"station_id":"ce4bhk92rcd13ifvqgb0","pricing_plan_id":"cebpf4jnsgd1na2vs0mg"},{"bike_id":"864575c1-85b8-4008-92ba-391073d4ed51","system_id":"levelo_inurba_marseille","lat":43.23194,"lon":5.35553,"is_reserved":false,"is_disabled":false,"rental_uris":{"android":"levelo://app?vid=864575c1-85b8-4008-92ba-391073d4ed51","ios":"levelo://app?vid=864575c1-85b8-4008-92ba-391073d4ed51"},"vehicle_type_id":"4","last_reported":1729620731,"current_range_meters":23200,"station_id":"ce4bhu92rcd13ifvqi70","pricing_plan_id":"cebpf4jnsgd1na2vs0mg"},{"bike_id":"9c8101e1-58b9-4d30-8973-c47d6ceec291","system_id":"levelo_inurba_marseille","lat":43.26557,"lon":5.37286,"is_reserved":false,"is_disabled":false,"rental_uris":{"android":"levelo://app?vid=9c8101e1-58b9-4d30-8973-c47d6ceec291","ios":"levelo://app?vid=9c8101e1-58b9-4d30-8973-c47d6ceec291"},"vehicle_type_id":"4","last_reported":1729620731,"current_range_meters":4400,"station_id":"ce4bhg12rcd13ifvqf70","pricing_plan_id":"cebpf4jnsgd1na2vs0mg"},{"bike_id":"165e2b4a-6250-4ca2-8940-b70ce327ae6e","system_id":"levelo_inurba_marseille","lat":43.31086,"lon":5.42434,"is_reserved":false,"is_disabled":false,"rental_uris":{"android":"levelo://app?vid=165e2b4a-6250-4ca2-8940-b70ce327ae6e","ios":"levelo://app?vid=165e2b4a-6250-4ca2-8940-b70ce327ae6e"},"vehicle_type_id":"4","last_reported":1729620731,"current_range_meters":26800,"station_id":"ce4bhp92rcd13ifvqhag","pricing_plan_id":"cebpf4jnsgd1na2vs0mg"},{"bike_id":"0718a262-5908-47c3-8825-184a9038edc9","system_id":"levelo_inurba_marseille","lat":43.29297,"lon":5.37461,"is_reserved":false,"is_disabled":false,"rental_uris":{"android":"levelo://app?vid=0718a262-5908-47c3-8825-184a9038edc9","ios":"levelo://app?vid=0718a262-5908-47c3-8825-184a9038edc9"},"vehicle_type_id":"4","last_reported":1729620731,"current_range_meters":38000,"station_id":"ce4bgi12rcd13ifvqb70","pricing_plan_id":"cebpf4jnsgd1na2vs0mg"},{"bike_id":"72c0408e-ac05-479b-b779-89845e6df54c","system_id":"levelo_inurba_marseille","lat":43.266042,"lon":5.389924,"is_reserved":false,"is_disabled":false,"rental_uris":{"android":"levelo://app?vid=72c0408e-ac05-479b-b779-89845e6df54c","ios":"levelo://app?vid=72c0408e-ac05-479b-b779-89845e6df54c"},"vehicle_type_id":"4","last_reported":1729620731,"current_range_meters":6800,"station_id":"ce4bhe12rcd13ifvqf30","pricing_plan_id":"cebpf4jnsgd1na2vs0mg"},{"bike_id":"a849ca51-f9a5-4085-be1c-c7016fd8a9fd","system_id":"levelo_inurba_marseille","lat":43.31122,"lon":5.37796,"is_reserved":false,"is_disabled":false,"rental_uris":{"android":"levelo://app?vid=a849ca51-f9a5-4085-be1c-c7016fd8a9fd","ios":"levelo://app?vid=a849ca51-f9a5-4085-be1c-c7016fd8a9fd"},"vehicle_type_id":"4","last_reported":1729620731,"current_range_meters":36400,"station_id":"ce4bgt92rcd13ifvqcg0","pricing_plan_id":"cebpf4jnsgd1na2vs0mg"},{"bike_id":"747d76d1-2ad6-4664-830e-1bdfd82de986","system_id":"levelo_inurba_marseille","lat":43.29263,"lon":5.38448,"is_reserved":false,"is_disabled":false,"rental_uris":{"android":"levelo://app?vid=747d76d1-2ad6-4664-830e-1bdfd82de986","ios":"levelo://app?vid=747d76d1-2ad6-4664-830e-1bdfd82de986"},"vehicle_type_id":"4","last_reported":1729620731,"current_range_meters":14400,"station_id":"ce4bh692rcd13ifvqea0","pricing_plan_id":"cebpf4jnsgd1na2vs0mg"},{"bike_id":"b8a7cd27-2f8a-4f73-96e6-f36dc021d5d3","system_id":"levelo_inurba_marseille","lat":43.29447,"lon":5.37497,"is_reserved":false,"is_disabled":false,"rental_uris":{"android":"levelo://app?vid=b8a7cd27-2f8a-4f73-96e6-f36dc021d5d3","ios":"levelo://app?vid=b8a7cd27-2f8a-4f73-96e6-f36dc021d5d3"},"vehicle_type_id":"4","last_reported":1729620731,"current_range_meters":8400,"station_id":"ce4bhah2rcd13ifvqej0","pricing_plan_id":"cebpf4jnsgd1na2vs0mg"},{"bike_id":"79a1e020-318b-42a1-a8c0-a424b1daf69e","system_id":"levelo_inurba_marseille","lat":43.296,"lon":5.36142,"is_reserved":false,"is_disabled":false,"rental_uris":{"android":"levelo://app?vid=79a1e020-318b-42a1-a8c0-a424b1daf69e","ios":"levelo://app?vid=79a1e020-318b-42a1-a8c0-a424b1daf69e"},"vehicle_type_id":"4","last_reported":1729620731,"current_range_meters":4800,"station_id":"","pricing_plan_id":"cebpf4jnsgd1na2vs0mg"},{"bike_id":"86b04bb0-88c0-4f4c-a786-b257c7eae309","system_id":"levelo_inurba_marseille","lat":43.26565,"lon":5.390031,"is_reserved":false,"is_disabled":false,"rental_uris":{"android":"levelo://app?vid=86b04bb0-88c0-4f4c-a786-b257c7eae309","ios":"levelo://app?vid=86b04bb0-88c0-4f4c-a786-b257c7eae309"},"vehicle_type_id":"4","last_reported":1729620731,"current_range_meters":12800,"station_id":"","pricing_plan_id":"cebpf4jnsgd1na2vs0mg"},{"bike_id":"6f066a87-564d-4506-8093-4a05fd3f1574","system_id":"levelo_inurba_marseille","lat":43.28945,"lon":5.36643,"is_reserved":false,"is_disabled":false,"rental_uris":{"android":"levelo://app?vid=6f066a87-564d-4506-8093-4a05fd3f1574","ios":"levelo://app?vid=6f066a87-564d-4506-8093-4a05fd3f1574"},"vehicle_type_id":"4","last_reported":1729620731,"current_range_meters":25200,"station_id":"ce4bhap2rcd13ifvqek0","pricing_plan_id":"cebpf4jnsgd1na2vs0mg"},{"bike_id":"24754141-5905-4aae-b824-6f3628ae7a4a","system_id":"levelo_inurba_marseille","lat":43.32656,"lon":5.40994,"is_reserved":false,"is_disabled":false,"rental_uris":{"android":"levelo://app?vid=24754141-5905-4aae-b824-6f3628ae7a4a","ios":"levelo://app?vid=24754141-5905-4aae-b824-6f3628ae7a4a"},"vehicle_type_id":"4","last_reported":1729620731,"current_range_meters":4800,"station_id":"ce4bhpp2rcd13ifvqhgg","pricing_plan_id":"cebpf4jnsgd1na2vs0mg"},{"bike_id":"08784a66-f7f5-4d5a-9f2d-3039edfe55e2","system_id":"levelo_inurba_marseille","lat":43.29418,"lon":5.38632,"is_reserved":false,"is_disabled":false,"rental_uris":{"android":"levelo://app?vid=08784a66-f7f5-4d5a-9f2d-3039edfe55e2","ios":"levelo://app?vid=08784a66-f7f5-4d5a-9f2d-3039edfe55e2"},"vehicle_type_id":"4","last_reported":1729620731,"current_range_meters":38800,"station_id":"ce4bh2h2rcd13ifvqdh0","pricing_plan_id":"cebpf4jnsgd1na2vs0mg"},{"bike_id":"7adf842b-4b8c-4356-a23f-1be0cbaf4d21","system_id":"levelo_inurba_marseille","lat":43.23199,"lon":5.35551,"is_reserved":false,"is_disabled":false,"rental_uris":{"android":"levelo://app?vid=7adf842b-4b8c-4356-a23f-1be0cbaf4d21","ios":"levelo://app?vid=7adf842b-4b8c-4356-a23f-1be0cbaf4d21"},"vehicle_type_id":"4","last_reported":1729620731,"current_range_meters":8400,"station_id":"ce4bhu92rcd13ifvqi70","pricing_plan_id":"cebpf4jnsgd1na2vs0mg"},{"bike_id":"a244b76f-1912-413a-834e-22d8520d55c3","system_id":"levelo_inurba_marseille","lat":43.295327,"lon":5.385448,"is_reserved":false,"is_disabled":false,"rental_uris":{"android":"levelo://app?vid=a244b76f-1912-413a-834e-22d8520d55c3","ios":"levelo://app?vid=a244b76f-1912-413a-834e-22d8520d55c3"},"vehicle_type_id":"4","last_reported":1729620731,"current_range_meters":6800,"station_id":"ce4bgih2rcd13ifvqba0","pricing_plan_id":"cebpf4jnsgd1na2vs0mg"},{"bike_id":"8d66234d-ed10-4a56-b9bf-7024ed1a6c9c","system_id":"levelo_inurba_marseille","lat":43.32164,"lon":5.38545,"is_reserved":false,"is_disabled":false,"rental_uris":{"android":"levelo://app?vid=8d66234d-ed10-4a56-b9bf-7024ed1a6c9c","ios":"levelo://app?vid=8d66234d-ed10-4a56-b9bf-7024ed1a6c9c"},"vehicle_type_id":"4","last_reported":1729620731,"current_range_meters":6000,"station_id":"","pricing_plan_id":"cebpf4jnsgd1na2vs0mg"},{"bike_id":"09d42858-71b6-419f-afa0-01c380c7ac27","system_id":"levelo_inurba_marseille","lat":43.28443,"lon":5.39196,"is_reserved":false,"is_disabled":false,"rental_uris":{"android":"levelo://app?vid=09d42858-71b6-419f-afa0-01c380c7ac27","ios":"levelo://app?vid=09d42858-71b6-419f-afa0-01c380c7ac27"},"vehicle_type_id":"4","last_reported":1729620731,"current_range_meters":4400,"station_id":"ce4bhoh2rcd13ifvqh5g","pricing_plan_id":"cebpf4jnsgd1na2vs0mg"},{"bike_id":"3a3cb03e-ab16-43cb-a59e-838424eba58c","system_id":"levelo_inurba_marseille","lat":43.262817,"lon":5.375814,"is_reserved":false,"is_disabled":false,"rental_uris":{"android":"levelo://app?vid=3a3cb03e-ab16-43cb-a59e-838424eba58c","ios":"levelo://app?vid=3a3cb03e-ab16-43cb-a59e-838424eba58c"},"vehicle_type_id":"4","last_reported":1729620731,"current_range_meters":14400,"station_id":"ce4bh4p2rcd13ifvqe0g","pricing_plan_id":"cebpf4jnsgd1na2vs0mg"},{"bike_id":"b30f815a-8c6e-433a-9660-4c4cd93ed5eb","system_id":"levelo_inurba_marseille","lat":43.26574,"lon":5.39,"is_reserved":false,"is_disabled":false,"rental_uris":{"android":"levelo://app?vid=b30f815a-8c6e-433a-9660-4c4cd93ed5eb","ios":"levelo://app?vid=b30f815a-8c6e-433a-9660-4c4cd93ed5eb"},"vehicle_type_id":"4","last_reported":1729620731,"current_range_meters":4400,"station_id":"ce4bhe12rcd13ifvqf30","pricing_plan_id":"cebpf4jnsgd1na2vs0mg"},{"bike_id":"34be8e3a-eefe-496b-810d-162ce65754e0","system_id":"levelo_inurba_marseille","lat":43.23198,"lon":5.35556,"is_reserved":false,"is_disabled":false,"rental_uris":{"android":"levelo://app?vid=34be8e3a-eefe-496b-810d-162ce65754e0","ios":"levelo://app?vid=34be8e3a-eefe-496b-810d-162ce65754e0"},"vehicle_type_id":"4","last_reported":1729620731,"current_range_meters":4000,"station_id":"ce4bhu92rcd13ifvqi70","pricing_plan_id":"cebpf4jnsgd1na2vs0mg"},{"bike_id":"98d96986-b02d-491b-a3b3-ff2c6412d6c1","system_id":"levelo_inurba_marseille","lat":43.29783,"lon":5.39353,"is_reserved":false,"is_disabled":false,"rental_uris":{"android":"levelo://app?vid=98d96986-b02d-491b-a3b3-ff2c6412d6c1","ios":"levelo://app?vid=98d96986-b02d-491b-a3b3-ff2c6412d6c1"},"vehicle_type_id":"4","last_reported":1729620731,"current_range_meters":9200,"station_id":"chh1huq6cuj3fo74tm60","pricing_plan_id":"cebpf4jnsgd1na2vs0mg"},{"bike_id":"a174f9e4-743e-4436-a856-9940f2d79c9a","system_id":"levelo_inurba_marseille","lat":43.31124,"lon":5.37767,"is_reserved":false,"is_disabled":false,"rental_uris":{"android":"levelo://app?vid=a174f9e4-743e-4436-a856-9940f2d79c9a","ios":"levelo://app?vid=a174f9e4-743e-4436-a856-9940f2d79c9a"},"vehicle_type_id":"4","last_reported":1729620731,"current_range_meters":8000,"station_id":"ce4bgt92rcd13ifvqcg0","pricing_plan_id":"cebpf4jnsgd1na2vs0mg"},{"bike_id":"7f944d82-eb42-4c2b-9ff3-3111c1a4cbe1","system_id":"levelo_inurba_marseille","lat":43.29372,"lon":5.3786,"is_reserved":false,"is_disabled":false,"rental_uris":{"android":"levelo://app?vid=7f944d82-eb42-4c2b-9ff3-3111c1a4cbe1","ios":"levelo://app?vid=7f944d82-eb42-4c2b-9ff3-3111c1a4cbe1"},"vehicle_type_id":"4","last_reported":1729620731,"current_range_meters":37600,"station_id":"ce4bh192rcd13ifvqdb0","pricing_plan_id":"cebpf4jnsgd1na2vs0mg"},{"bike_id":"b7182379-c05b-4a19-99bb-f049c1dea678","system_id":"levelo_inurba_marseille","lat":43.23184,"lon":5.39988,"is_reserved":false,"is_disabled":false,"rental_uris":{"android":"levelo://app?vid=b7182379-c05b-4a19-99bb-f049c1dea678","ios":"levelo://app?vid=b7182379-c05b-4a19-99bb-f049c1dea678"},"vehicle_type_id":"4","last_reported":1729620731,"current_range_meters":24000,"station_id":"ce4bhn12rcd13ifvqgqg","pricing_plan_id":"cebpf4jnsgd1na2vs0mg"},{"bike_id":"a8fd90e1-0f06-42a3-906b-c91cb727d214","system_id":"levelo_inurba_marseille","lat":43.26817,"lon":5.41106,"is_reserved":false,"is_disabled":false,"rental_uris":{"android":"levelo://app?vid=a8fd90e1-0f06-42a3-906b-c91cb727d214","ios":"levelo://app?vid=a8fd90e1-0f06-42a3-906b-c91cb727d214"},"vehicle_type_id":"4","last_reported":1729620731,"current_range_meters":12400,"station_id":"","pricing_plan_id":"cebpf4jnsgd1na2vs0mg"},{"bike_id":"6e5448de-1aee-4a75-8060-f1476711a218","system_id":"levelo_inurba_marseille","lat":43.26961,"lon":5.38637,"is_reserved":false,"is_disabled":false,"rental_uris":{"android":"levelo://app?vid=6e5448de-1aee-4a75-8060-f1476711a218","ios":"levelo://app?vid=6e5448de-1aee-4a75-8060-f1476711a218"},"vehicle_type_id":"4","last_reported":1729620731,"current_range_meters":8000,"station_id":"ce4bhh92rcd13ifvqfh0","pricing_plan_id":"cebpf4jnsgd1na2vs0mg"},{"bike_id":"1e4f408a-7823-4f21-aceb-d6709974f1c5","system_id":"levelo_inurba_marseille","lat":43.23199,"lon":5.35552,"is_reserved":false,"is_disabled":false,"rental_uris":{"android":"levelo://app?vid=1e4f408a-7823-4f21-aceb-d6709974f1c5","ios":"levelo://app?vid=1e4f408a-7823-4f21-aceb-d6709974f1c5"},"vehicle_type_id":"4","last_reported":1729620731,"current_range_meters":24800,"station_id":"ce4bhu92rcd13ifvqi70","pricing_plan_id":"cebpf4jnsgd1na2vs0mg"},{"bike_id":"8b061439-56e5-4c70-b6af-9ad15387378f","system_id":"levelo_inurba_marseille","lat":43.24809,"lon":5.37461,"is_reserved":false,"is_disabled":false,"rental_uris":{"android":"levelo://app?vid=8b061439-56e5-4c70-b6af-9ad15387378f","ios":"levelo://app?vid=8b061439-56e5-4c70-b6af-9ad15387378f"},"vehicle_type_id":"4","last_reported":1729620731,"current_range_meters":12800,"station_id":"ce4bhgh2rcd13ifvqfb0","pricing_plan_id":"cebpf4jnsgd1na2vs0mg"},{"bike_id":"f6256bc8-686b-4bb8-a61a-bddb806b0f3b","system_id":"levelo_inurba_marseille","lat":43.30308,"lon":5.39217,"is_reserved":false,"is_disabled":false,"rental_uris":{"android":"levelo://app?vid=f6256bc8-686b-4bb8-a61a-bddb806b0f3b","ios":"levelo://app?vid=f6256bc8-686b-4bb8-a61a-bddb806b0f3b"},"vehicle_type_id":"4","last_reported":1729620731,"current_range_meters":3600,"station_id":"ce4bgkh2rcd13ifvqbk0","pricing_plan_id":"cebpf4jnsgd1na2vs0mg"},{"bike_id":"3e55960b-5628-4ae0-b805-40daeffc4f54","system_id":"levelo_inurba_marseille","lat":43.293,"lon":5.37462,"is_reserved":false,"is_disabled":false,"rental_uris":{"android":"levelo://app?vid=3e55960b-5628-4ae0-b805-40daeffc4f54","ios":"levelo://app?vid=3e55960b-5628-4ae0-b805-40daeffc4f54"},"vehicle_type_id":"4","last_reported":1729620731,"current_range_meters":22400,"station_id":"ce4bgi12rcd13ifvqb70","pricing_plan_id":"cebpf4jnsgd1na2vs0mg"},{"bike_id":"4976c966-e23c-4bfe-b5eb-d73704f281fd","system_id":"levelo_inurba_marseille","lat":43.32335,"lon":5.40623,"is_reserved":false,"is_disabled":false,"rental_uris":{"android":"levelo://app?vid=4976c966-e23c-4bfe-b5eb-d73704f281fd","ios":"levelo://app?vid=4976c966-e23c-4bfe-b5eb-d73704f281fd"},"vehicle_type_id":"4","last_reported":1729620731,"current_range_meters":25600,"station_id":"ce4bhq92rcd13ifvqhjg","pricing_plan_id":"cebpf4jnsgd1na2vs0mg"},{"bike_id":"69e51d91-258f-470f-a797-2641c709aae7","system_id":"levelo_inurba_marseille","lat":43.24391,"lon":5.37062,"is_reserved":false,"is_disabled":false,"rental_uris":{"android":"levelo://app?vid=69e51d91-258f-470f-a797-2641c709aae7","ios":"levelo://app?vid=69e51d91-258f-470f-a797-2641c709aae7"},"vehicle_type_id":"4","last_reported":1729620731,"current_range_meters":13600,"station_id":"ce4bhhh2rcd13ifvqfk0","pricing_plan_id":"cebpf4jnsgd1na2vs0mg"},{"bike_id":"c3945b60-e38d-4106-8f18-92c7f436cc4f","system_id":"levelo_inurba_marseille","lat":43.33757,"lon":5.37448,"is_reserved":false,"is_disabled":false,"rental_uris":{"android":"levelo://app?vid=c3945b60-e38d-4106-8f18-92c7f436cc4f","ios":"levelo://app?vid=c3945b60-e38d-4106-8f18-92c7f436cc4f"},"vehicle_type_id":"4","last_reported":1729620731,"current_range_meters":30800,"station_id":"","pricing_plan_id":"cebpf4jnsgd1na2vs0mg"},{"bike_id":"eaa8fd9f-b7a3-402a-9f40-a96eb652eff8","system_id":"levelo_inurba_marseille","lat":43.29423,"lon":5.38633,"is_reserved":false,"is_disabled":false,"rental_uris":{"android":"levelo://app?vid=eaa8fd9f-b7a3-402a-9f40-a96eb652eff8","ios":"levelo://app?vid=eaa8fd9f-b7a3-402a-9f40-a96eb652eff8"},"vehicle_type_id":"4","last_reported":1729620731,"current_range_meters":28400,"station_id":"ce4bh2h2rcd13ifvqdh0","pricing_plan_id":"cebpf4jnsgd1na2vs0mg"},{"bike_id":"662a7a7a-b92a-4ab5-bc85-d07041cce312","system_id":"levelo_inurba_marseille","lat":43.284607,"lon":5.358868,"is_reserved":false,"is_disabled":false,"rental_uris":{"android":"levelo://app?vid=662a7a7a-b92a-4ab5-bc85-d07041cce312","ios":"levelo://app?vid=662a7a7a-b92a-4ab5-bc85-d07041cce312"},"vehicle_type_id":"4","last_reported":1729620731,"current_range_meters":12400,"station_id":"ce4bhah2rcd13ifvqei0","pricing_plan_id":"cebpf4jnsgd1na2vs0mg"},{"bike_id":"89d13260-1033-43ed-ae6f-54c7a1c3d5bd","system_id":"levelo_inurba_marseille","lat":43.26068,"lon":5.39399,"is_reserved":false,"is_disabled":false,"rental_uris":{"android":"levelo://app?vid=89d13260-1033-43ed-ae6f-54c7a1c3d5bd","ios":"levelo://app?vid=89d13260-1033-43ed-ae6f-54c7a1c3d5bd"},"vehicle_type_id":"4","last_reported":1729620731,"current_range_meters":25600,"station_id":"ce4bhh92rcd13ifvqfj0","pricing_plan_id":"cebpf4jnsgd1na2vs0mg"},{"bike_id":"ae668d7d-115f-4269-9399-b91cc328a836","system_id":"levelo_inurba_marseille","lat":43.2917,"lon":5.37163,"is_reserved":false,"is_disabled":false,"rental_uris":{"android":"levelo://app?vid=ae668d7d-115f-4269-9399-b91cc328a836","ios":"levelo://app?vid=ae668d7d-115f-4269-9399-b91cc328a836"},"vehicle_type_id":"4","last_reported":1729620731,"current_range_meters":2800,"station_id":"ce4bha92rcd13ifvqeh0","pricing_plan_id":"cebpf4jnsgd1na2vs0mg"},{"bike_id":"d96d5e84-6ce0-4484-9912-1a4dda793a2f","system_id":"levelo_inurba_marseille","lat":43.29306,"lon":5.37178,"is_reserved":false,"is_disabled":false,"rental_uris":{"android":"levelo://app?vid=d96d5e84-6ce0-4484-9912-1a4dda793a2f","ios":"levelo://app?vid=d96d5e84-6ce0-4484-9912-1a4dda793a2f"},"vehicle_type_id":"4","last_reported":1729620731,"current_range_meters":8000,"station_id":"ce4bgh92rcd13ifvqb40","pricing_plan_id":"cebpf4jnsgd1na2vs0mg"},{"bike_id":"060acfb2-302f-491f-af18-6be070f41394","system_id":"levelo_inurba_marseille","lat":43.30585,"lon":5.3935,"is_reserved":false,"is_disabled":false,"rental_uris":{"android":"levelo://app?vid=060acfb2-302f-491f-af18-6be070f41394","ios":"levelo://app?vid=060acfb2-302f-491f-af18-6be070f41394"},"vehicle_type_id":"4","last_reported":1729620731,"current_range_meters":18000,"station_id":"ce4bh0p2rcd13ifvqd80","pricing_plan_id":"cebpf4jnsgd1na2vs0mg"},{"bike_id":"d9c41d26-7067-460f-b942-dfbae5e70bf8","system_id":"levelo_inurba_marseille","lat":43.28721,"lon":5.37779,"is_reserved":false,"is_disabled":false,"rental_uris":{"android":"levelo://app?vid=d9c41d26-7067-460f-b942-dfbae5e70bf8","ios":"levelo://app?vid=d9c41d26-7067-460f-b942-dfbae5e70bf8"},"vehicle_type_id":"4","last_reported":1729620731,"current_range_meters":2800,"station_id":"ce4bh9p2rcd13ifvqec0","pricing_plan_id":"cebpf4jnsgd1na2vs0mg"},{"bike_id":"bc82be10-a8f2-43db-aaef-765eab5e6bcf","system_id":"levelo_inurba_marseille","lat":43.29,"lon":5.35617,"is_reserved":false,"is_disabled":false,"rental_uris":{"android":"levelo://app?vid=bc82be10-a8f2-43db-aaef-765eab5e6bcf","ios":"levelo://app?vid=bc82be10-a8f2-43db-aaef-765eab5e6bcf"},"vehicle_type_id":"4","last_reported":1729620731,"current_range_meters":3600,"station_id":"ce4bhb92rcd13ifvqen0","pricing_plan_id":"cebpf4jnsgd1na2vs0mg"},{"bike_id":"0680767f-e110-45fb-a42a-11c8659b7297","system_id":"levelo_inurba_marseille","lat":43.33728,"lon":5.39182,"is_reserved":false,"is_disabled":false,"rental_uris":{"android":"levelo://app?vid=0680767f-e110-45fb-a42a-11c8659b7297","ios":"levelo://app?vid=0680767f-e110-45fb-a42a-11c8659b7297"},"vehicle_type_id":"4","last_reported":1729620731,"current_range_meters":8800,"station_id":"ce4bhr92rcd13ifvqhsg","pricing_plan_id":"cebpf4jnsgd1na2vs0mg"},{"bike_id":"72c50839-00c5-491b-b2fa-f0e94cd720a4","system_id":"levelo_inurba_marseille","lat":43.29265,"lon":5.38441,"is_reserved":false,"is_disabled":false,"rental_uris":{"android":"levelo://app?vid=72c50839-00c5-491b-b2fa-f0e94cd720a4","ios":"levelo://app?vid=72c50839-00c5-491b-b2fa-f0e94cd720a4"},"vehicle_type_id":"4","last_reported":1729620731,"current_range_meters":17200,"station_id":"ce4bh692rcd13ifvqea0","pricing_plan_id":"cebpf4jnsgd1na2vs0mg"},{"bike_id":"925ca311-ea73-44f3-ae5e-35ca777de1cd","system_id":"levelo_inurba_marseille","lat":43.25574,"lon":5.38227,"is_reserved":false,"is_disabled":false,"rental_uris":{"android":"levelo://app?vid=925ca311-ea73-44f3-ae5e-35ca777de1cd","ios":"levelo://app?vid=925ca311-ea73-44f3-ae5e-35ca777de1cd"},"vehicle_type_id":"4","last_reported":1729620731,"current_range_meters":19600,"station_id":"ce4bhih2rcd13ifvqfs0","pricing_plan_id":"cebpf4jnsgd1na2vs0mg"},{"bike_id":"d8d30b00-c51f-42c1-a4bc-5be916aaba37","system_id":"levelo_inurba_marseille","lat":43.2959,"lon":5.37369,"is_reserved":false,"is_disabled":false,"rental_uris":{"android":"levelo://app?vid=d8d30b00-c51f-42c1-a4bc-5be916aaba37","ios":"levelo://app?vid=d8d30b00-c51f-42c1-a4bc-5be916aaba37"},"vehicle_type_id":"4","last_reported":1729620731,"current_range_meters":28400,"station_id":"","pricing_plan_id":"cebpf4jnsgd1na2vs0mg"},{"bike_id":"0b75fa63-636f-42d4-af26-0d40f32aade2","system_id":"levelo_inurba_marseille","lat":43.29908,"lon":5.37476,"is_reserved":false,"is_disabled":false,"rental_uris":{"android":"levelo://app?vid=0b75fa63-636f-42d4-af26-0d40f32aade2","ios":"levelo://app?vid=0b75fa63-636f-42d4-af26-0d40f32aade2"},"vehicle_type_id":"4","last_reported":1729620731,"current_range_meters":21600,"station_id":"ce4bgjh2rcd13ifvqbg0","pricing_plan_id":"cebpf4jnsgd1na2vs0mg"},{"bike_id":"6f3c99f6-25c2-4dd4-ba80-ca7e8e0ba65e","system_id":"levelo_inurba_marseille","lat":43.28155,"lon":5.42645,"is_reserved":false,"is_disabled":false,"rental_uris":{"android":"levelo://app?vid=6f3c99f6-25c2-4dd4-ba80-ca7e8e0ba65e","ios":"levelo://app?vid=6f3c99f6-25c2-4dd4-ba80-ca7e8e0ba65e"},"vehicle_type_id":"4","last_reported":1729620731,"current_range_meters":9600,"station_id":"ce4bhnh2rcd13ifvqgug","pricing_plan_id":"cebpf4jnsgd1na2vs0mg"},{"bike_id":"eecaa874-8534-437e-8009-9d3c8b6c67f6","system_id":"levelo_inurba_marseille","lat":43.31117,"lon":5.37759,"is_reserved":false,"is_disabled":false,"rental_uris":{"android":"levelo://app?vid=eecaa874-8534-437e-8009-9d3c8b6c67f6","ios":"levelo://app?vid=eecaa874-8534-437e-8009-9d3c8b6c67f6"},"vehicle_type_id":"4","last_reported":1729620731,"current_range_meters":8000,"station_id":"ce4bgt92rcd13ifvqcg0","pricing_plan_id":"cebpf4jnsgd1na2vs0mg"},{"bike_id":"0bc0331c-d93a-4ee5-8e49-d711ae5edad9","system_id":"levelo_inurba_marseille","lat":43.27536,"lon":5.41801,"is_reserved":false,"is_disabled":false,"rental_uris":{"android":"levelo://app?vid=0bc0331c-d93a-4ee5-8e49-d711ae5edad9","ios":"levelo://app?vid=0bc0331c-d93a-4ee5-8e49-d711ae5edad9"},"vehicle_type_id":"4","last_reported":1729620731,"current_range_meters":20800,"station_id":"","pricing_plan_id":"cebpf4jnsgd1na2vs0mg"},{"bike_id":"b3bf5309-3ee9-47cc-bc67-f29b3c677d43","system_id":"levelo_inurba_marseille","lat":43.29559,"lon":5.42283,"is_reserved":false,"is_disabled":false,"rental_uris":{"android":"levelo://app?vid=b3bf5309-3ee9-47cc-bc67-f29b3c677d43","ios":"levelo://app?vid=b3bf5309-3ee9-47cc-bc67-f29b3c677d43"},"vehicle_type_id":"4","last_reported":1729620731,"current_range_meters":9600,"station_id":"ce4bhph2rcd13ifvqhdg","pricing_plan_id":"cebpf4jnsgd1na2vs0mg"},{"bike_id":"94af667b-6e72-412b-b663-d504c81b400a","system_id":"levelo_inurba_marseille","lat":43.31366,"lon":5.384927,"is_reserved":false,"is_disabled":false,"rental_uris":{"android":"levelo://app?vid=94af667b-6e72-412b-b663-d504c81b400a","ios":"levelo://app?vid=94af667b-6e72-412b-b663-d504c81b400a"},"vehicle_type_id":"4","last_reported":1729620731,"current_range_meters":37600,"station_id":"ce4bgt92rcd13ifvqcf0","pricing_plan_id":"cebpf4jnsgd1na2vs0mg"},{"bike_id":"3dee495a-7a37-40c3-9d5a-0edc49499f73","system_id":"levelo_inurba_marseille","lat":43.27913,"lon":5.38006,"is_reserved":false,"is_disabled":false,"rental_uris":{"android":"levelo://app?vid=3dee495a-7a37-40c3-9d5a-0edc49499f73","ios":"levelo://app?vid=3dee495a-7a37-40c3-9d5a-0edc49499f73"},"vehicle_type_id":"4","last_reported":1729620731,"current_range_meters":29600,"station_id":"ce4bhf92rcd13ifvqf50","pricing_plan_id":"cebpf4jnsgd1na2vs0mg"},{"bike_id":"e68074ff-f5e2-424b-ac9b-aa2b95174368","system_id":"levelo_inurba_marseille","lat":43.28154,"lon":5.42652,"is_reserved":false,"is_disabled":false,"rental_uris":{"android":"levelo://app?vid=e68074ff-f5e2-424b-ac9b-aa2b95174368","ios":"levelo://app?vid=e68074ff-f5e2-424b-ac9b-aa2b95174368"},"vehicle_type_id":"4","last_reported":1729620731,"current_range_meters":29600,"station_id":"ce4bhnh2rcd13ifvqgug","pricing_plan_id":"cebpf4jnsgd1na2vs0mg"},{"bike_id":"815dd284-1bd2-4bb9-992a-b2116e2485bc","system_id":"levelo_inurba_marseille","lat":43.329727,"lon":5.365421,"is_reserved":false,"is_disabled":false,"rental_uris":{"android":"levelo://app?vid=815dd284-1bd2-4bb9-992a-b2116e2485bc","ios":"levelo://app?vid=815dd284-1bd2-4bb9-992a-b2116e2485bc"},"vehicle_type_id":"4","last_reported":1729620731,"current_range_meters":32400,"station_id":"","pricing_plan_id":"cebpf4jnsgd1na2vs0mg"},{"bike_id":"99215d8b-563b-41c6-a1e7-8a27b227e021","system_id":"levelo_inurba_marseille","lat":43.24809,"lon":5.37453,"is_reserved":false,"is_disabled":false,"rental_uris":{"android":"levelo://app?vid=99215d8b-563b-41c6-a1e7-8a27b227e021","ios":"levelo://app?vid=99215d8b-563b-41c6-a1e7-8a27b227e021"},"vehicle_type_id":"4","last_reported":1729620731,"current_range_meters":26000,"station_id":"ce4bhgh2rcd13ifvqfb0","pricing_plan_id":"cebpf4jnsgd1na2vs0mg"},{"bike_id":"70fe9a53-29f8-48ef-9deb-3a10f91733fb","system_id":"levelo_inurba_marseille","lat":43.2871,"lon":5.39988,"is_reserved":false,"is_disabled":false,"rental_uris":{"android":"levelo://app?vid=70fe9a53-29f8-48ef-9deb-3a10f91733fb","ios":"levelo://app?vid=70fe9a53-29f8-48ef-9deb-3a10f91733fb"},"vehicle_type_id":"4","last_reported":1729620731,"current_range_meters":9600,"station_id":"ce4bho92rcd13ifvqh3g","pricing_plan_id":"cebpf4jnsgd1na2vs0mg"},{"bike_id":"83579147-232b-49bf-8579-cdde6ac1792c","system_id":"levelo_inurba_marseille","lat":43.29167,"lon":5.37159,"is_reserved":false,"is_disabled":false,"rental_uris":{"android":"levelo://app?vid=83579147-232b-49bf-8579-cdde6ac1792c","ios":"levelo://app?vid=83579147-232b-49bf-8579-cdde6ac1792c"},"vehicle_type_id":"4","last_reported":1729620731,"current_range_meters":17600,"station_id":"ce4bha92rcd13ifvqeh0","pricing_plan_id":"cebpf4jnsgd1na2vs0mg"},{"bike_id":"169c2bdb-ede0-49e9-942b-b77fc0048e6f","system_id":"levelo_inurba_marseille","lat":43.28151,"lon":5.4265,"is_reserved":false,"is_disabled":false,"rental_uris":{"android":"levelo://app?vid=169c2bdb-ede0-49e9-942b-b77fc0048e6f","ios":"levelo://app?vid=169c2bdb-ede0-49e9-942b-b77fc0048e6f"},"vehicle_type_id":"4","last_reported":1729620731,"current_range_meters":30400,"station_id":"ce4bhnh2rcd13ifvqgug","pricing_plan_id":"cebpf4jnsgd1na2vs0mg"},{"bike_id":"eff0d8a3-53e6-4aa1-ac1b-092cc0573fb9","system_id":"levelo_inurba_marseille","lat":43.27904,"lon":5.38006,"is_reserved":false,"is_disabled":false,"rental_uris":{"android":"levelo://app?vid=eff0d8a3-53e6-4aa1-ac1b-092cc0573fb9","ios":"levelo://app?vid=eff0d8a3-53e6-4aa1-ac1b-092cc0573fb9"},"vehicle_type_id":"4","last_reported":1729620731,"current_range_meters":10800,"station_id":"ce4bhf92rcd13ifvqf50","pricing_plan_id":"cebpf4jnsgd1na2vs0mg"},{"bike_id":"58ed00c3-0e80-4e08-9443-d06e33268d3e","system_id":"levelo_inurba_marseille","lat":43.29907,"lon":5.38151,"is_reserved":false,"is_disabled":false,"rental_uris":{"android":"levelo://app?vid=58ed00c3-0e80-4e08-9443-d06e33268d3e","ios":"levelo://app?vid=58ed00c3-0e80-4e08-9443-d06e33268d3e"},"vehicle_type_id":"4","last_reported":1729620731,"current_range_meters":12800,"station_id":"ce4bgj12rcd13ifvqbc0","pricing_plan_id":"cebpf4jnsgd1na2vs0mg"},{"bike_id":"70f5c988-d736-45a0-9b49-4ca642435bb6","system_id":"levelo_inurba_marseille","lat":43.24165,"lon":5.36397,"is_reserved":false,"is_disabled":false,"rental_uris":{"android":"levelo://app?vid=70f5c988-d736-45a0-9b49-4ca642435bb6","ios":"levelo://app?vid=70f5c988-d736-45a0-9b49-4ca642435bb6"},"vehicle_type_id":"4","last_reported":1729620731,"current_range_meters":17200,"station_id":"cpo36qri1sfpv3e86is0","pricing_plan_id":"cebpf4jnsgd1na2vs0mg"},{"bike_id":"ca38473b-e924-4100-be54-a23eb421524e","system_id":"levelo_inurba_marseille","lat":43.336023,"lon":5.41033,"is_reserved":false,"is_disabled":false,"rental_uris":{"android":"levelo://app?vid=ca38473b-e924-4100-be54-a23eb421524e","ios":"levelo://app?vid=ca38473b-e924-4100-be54-a23eb421524e"},"vehicle_type_id":"4","last_reported":1729620731,"current_range_meters":5600,"station_id":"ce4bhqh2rcd13ifvqhmg","pricing_plan_id":"cebpf4jnsgd1na2vs0mg"},{"bike_id":"863017eb-e622-4782-a2f9-74d888731b4c","system_id":"levelo_inurba_marseille","lat":43.3015,"lon":5.38078,"is_reserved":false,"is_disabled":false,"rental_uris":{"android":"levelo://app?vid=863017eb-e622-4782-a2f9-74d888731b4c","ios":"levelo://app?vid=863017eb-e622-4782-a2f9-74d888731b4c"},"vehicle_type_id":"4","last_reported":1729620731,"current_range_meters":3600,"station_id":"ce4bgjp2rcd13ifvqbh0","pricing_plan_id":"cebpf4jnsgd1na2vs0mg"},{"bike_id":"cb4bec8b-fb72-42dd-8fc2-805b56b81d01","system_id":"levelo_inurba_marseille","lat":43.29263,"lon":5.38439,"is_reserved":false,"is_disabled":false,"rental_uris":{"android":"levelo://app?vid=cb4bec8b-fb72-42dd-8fc2-805b56b81d01","ios":"levelo://app?vid=cb4bec8b-fb72-42dd-8fc2-805b56b81d01"},"vehicle_type_id":"4","last_reported":1729620731,"current_range_meters":36800,"station_id":"ce4bh692rcd13ifvqea0","pricing_plan_id":"cebpf4jnsgd1na2vs0mg"},{"bike_id":"0c427b1f-d951-41d4-8dea-368f97ed13b5","system_id":"levelo_inurba_marseille","lat":43.29956,"lon":5.41323,"is_reserved":false,"is_disabled":false,"rental_uris":{"android":"levelo://app?vid=0c427b1f-d951-41d4-8dea-368f97ed13b5","ios":"levelo://app?vid=0c427b1f-d951-41d4-8dea-368f97ed13b5"},"vehicle_type_id":"4","last_reported":1729620731,"current_range_meters":8000,"station_id":"ce4bhp12rcd13ifvqh9g","pricing_plan_id":"cebpf4jnsgd1na2vs0mg"},{"bike_id":"ec538caa-c134-4d12-9e8f-92d3459d6e68","system_id":"levelo_inurba_marseille","lat":43.29419,"lon":5.38629,"is_reserved":false,"is_disabled":false,"rental_uris":{"android":"levelo://app?vid=ec538caa-c134-4d12-9e8f-92d3459d6e68","ios":"levelo://app?vid=ec538caa-c134-4d12-9e8f-92d3459d6e68"},"vehicle_type_id":"4","last_reported":1729620731,"current_range_meters":6400,"station_id":"ce4bh2h2rcd13ifvqdh0","pricing_plan_id":"cebpf4jnsgd1na2vs0mg"},{"bike_id":"772d9d0b-bc7c-4b14-8650-9322e0524a5d","system_id":"levelo_inurba_marseille","lat":43.28924,"lon":5.38392,"is_reserved":false,"is_disabled":false,"rental_uris":{"android":"levelo://app?vid=772d9d0b-bc7c-4b14-8650-9322e0524a5d","ios":"levelo://app?vid=772d9d0b-bc7c-4b14-8650-9322e0524a5d"},"vehicle_type_id":"4","last_reported":1729620731,"current_range_meters":34000,"station_id":"ce4bh612rcd13ifvqe6g","pricing_plan_id":"cebpf4jnsgd1na2vs0mg"},{"bike_id":"b194a025-c111-4cbd-8919-60473f0f4eba","system_id":"levelo_inurba_marseille","lat":43.27989,"lon":5.41664,"is_reserved":false,"is_disabled":false,"rental_uris":{"android":"levelo://app?vid=b194a025-c111-4cbd-8919-60473f0f4eba","ios":"levelo://app?vid=b194a025-c111-4cbd-8919-60473f0f4eba"},"vehicle_type_id":"4","last_reported":1729620731,"current_range_meters":3200,"station_id":"ce4bho12rcd13ifvqh1g","pricing_plan_id":"cebpf4jnsgd1na2vs0mg"},{"bike_id":"4d6f57f0-cb27-4b18-a146-a674b923878f","system_id":"levelo_inurba_marseille","lat":43.31117,"lon":5.3776,"is_reserved":false,"is_disabled":false,"rental_uris":{"android":"levelo://app?vid=4d6f57f0-cb27-4b18-a146-a674b923878f","ios":"levelo://app?vid=4d6f57f0-cb27-4b18-a146-a674b923878f"},"vehicle_type_id":"4","last_reported":1729620731,"current_range_meters":8400,"station_id":"ce4bgt92rcd13ifvqcg0","pricing_plan_id":"cebpf4jnsgd1na2vs0mg"},{"bike_id":"0290ab5a-42d3-4476-9fc4-3caaf6899b72","system_id":"levelo_inurba_marseille","lat":43.29877,"lon":5.39745,"is_reserved":false,"is_disabled":false,"rental_uris":{"android":"levelo://app?vid=0290ab5a-42d3-4476-9fc4-3caaf6899b72","ios":"levelo://app?vid=0290ab5a-42d3-4476-9fc4-3caaf6899b72"},"vehicle_type_id":"4","last_reported":1729620731,"current_range_meters":31200,"station_id":"ce4bh0h2rcd13ifvqd50","pricing_plan_id":"cebpf4jnsgd1na2vs0mg"},{"bike_id":"f801a972-c648-424a-a7e1-9d8a4bf001b1","system_id":"levelo_inurba_marseille","lat":43.28042,"lon":5.3695,"is_reserved":false,"is_disabled":false,"rental_uris":{"android":"levelo://app?vid=f801a972-c648-424a-a7e1-9d8a4bf001b1","ios":"levelo://app?vid=f801a972-c648-424a-a7e1-9d8a4bf001b1"},"vehicle_type_id":"4","last_reported":1729620731,"current_range_meters":38000,"station_id":"ce4bha12rcd13ifvqef0","pricing_plan_id":"cebpf4jnsgd1na2vs0mg"},{"bike_id":"2cdf5722-0992-422b-b8c9-f0bdbeea1331","system_id":"levelo_inurba_marseille","lat":43.27069,"lon":5.42283,"is_reserved":false,"is_disabled":false,"rental_uris":{"android":"levelo://app?vid=2cdf5722-0992-422b-b8c9-f0bdbeea1331","ios":"levelo://app?vid=2cdf5722-0992-422b-b8c9-f0bdbeea1331"},"vehicle_type_id":"4","last_reported":1729620731,"current_range_meters":4000,"station_id":"ce4bhk92rcd13ifvqgb0","pricing_plan_id":"cebpf4jnsgd1na2vs0mg"},{"bike_id":"9febc00a-ea6f-477a-9463-51a3bc001aff","system_id":"levelo_inurba_marseille","lat":43.28157,"lon":5.42641,"is_reserved":false,"is_disabled":false,"rental_uris":{"android":"levelo://app?vid=9febc00a-ea6f-477a-9463-51a3bc001aff","ios":"levelo://app?vid=9febc00a-ea6f-477a-9463-51a3bc001aff"},"vehicle_type_id":"4","last_reported":1729620731,"current_range_meters":5600,"station_id":"ce4bhnh2rcd13ifvqgug","pricing_plan_id":"cebpf4jnsgd1na2vs0mg"},{"bike_id":"ae51ebe9-0706-4fe6-aa54-c166ab3659c0","system_id":"levelo_inurba_marseille","lat":43.24806,"lon":5.37458,"is_reserved":false,"is_disabled":false,"rental_uris":{"android":"levelo://app?vid=ae51ebe9-0706-4fe6-aa54-c166ab3659c0","ios":"levelo://app?vid=ae51ebe9-0706-4fe6-aa54-c166ab3659c0"},"vehicle_type_id":"4","last_reported":1729620731,"current_range_meters":10000,"station_id":"ce4bhgh2rcd13ifvqfb0","pricing_plan_id":"cebpf4jnsgd1na2vs0mg"},{"bike_id":"055664ee-2a53-4dc6-918b-2cc3b66463ad","system_id":"levelo_inurba_marseille","lat":43.31489,"lon":5.37309,"is_reserved":false,"is_disabled":false,"rental_uris":{"android":"levelo://app?vid=055664ee-2a53-4dc6-918b-2cc3b66463ad","ios":"levelo://app?vid=055664ee-2a53-4dc6-918b-2cc3b66463ad"},"vehicle_type_id":"4","last_reported":1729620731,"current_range_meters":18800,"station_id":"ce4bgt12rcd13ifvqcd0","pricing_plan_id":"cebpf4jnsgd1na2vs0mg"},{"bike_id":"8421729f-2262-4a58-a0a3-ecafe28b31c4","system_id":"levelo_inurba_marseille","lat":43.27901,"lon":5.37996,"is_reserved":false,"is_disabled":false,"rental_uris":{"android":"levelo://app?vid=8421729f-2262-4a58-a0a3-ecafe28b31c4","ios":"levelo://app?vid=8421729f-2262-4a58-a0a3-ecafe28b31c4"},"vehicle_type_id":"4","last_reported":1729620731,"current_range_meters":7200,"station_id":"ce4bhf92rcd13ifvqf50","pricing_plan_id":"cebpf4jnsgd1na2vs0mg"},{"bike_id":"efcfe299-aff8-44b3-af8e-1773f04c3f56","system_id":"levelo_inurba_marseille","lat":43.30439,"lon":5.38898,"is_reserved":false,"is_disabled":false,"rental_uris":{"android":"levelo://app?vid=efcfe299-aff8-44b3-af8e-1773f04c3f56","ios":"levelo://app?vid=efcfe299-aff8-44b3-af8e-1773f04c3f56"},"vehicle_type_id":"4","last_reported":1729620731,"current_range_meters":38800,"station_id":"ce4bgk12rcd13ifvqbi0","pricing_plan_id":"cebpf4jnsgd1na2vs0mg"},{"bike_id":"89591d12-e9f7-401a-a759-2b5fcccd3819","system_id":"levelo_inurba_marseille","lat":43.24804,"lon":5.3746,"is_reserved":false,"is_disabled":false,"rental_uris":{"android":"levelo://app?vid=89591d12-e9f7-401a-a759-2b5fcccd3819","ios":"levelo://app?vid=89591d12-e9f7-401a-a759-2b5fcccd3819"},"vehicle_type_id":"4","last_reported":1729620731,"current_range_meters":2800,"station_id":"ce4bhgh2rcd13ifvqfb0","pricing_plan_id":"cebpf4jnsgd1na2vs0mg"},{"bike_id":"ca26cea3-2c0f-4b4a-bb73-3e0db2b82791","system_id":"levelo_inurba_marseille","lat":43.25738,"lon":5.41108,"is_reserved":false,"is_disabled":false,"rental_uris":{"android":"levelo://app?vid=ca26cea3-2c0f-4b4a-bb73-3e0db2b82791","ios":"levelo://app?vid=ca26cea3-2c0f-4b4a-bb73-3e0db2b82791"},"vehicle_type_id":"4","last_reported":1729620731,"current_range_meters":28400,"station_id":"ce4bhkp2rcd13ifvqgd0","pricing_plan_id":"cebpf4jnsgd1na2vs0mg"},{"bike_id":"0edbcd7b-4021-4551-8106-f5f81ab47f5e","system_id":"levelo_inurba_marseille","lat":43.31163,"lon":5.3872,"is_reserved":false,"is_disabled":false,"rental_uris":{"android":"levelo://app?vid=0edbcd7b-4021-4551-8106-f5f81ab47f5e","ios":"levelo://app?vid=0edbcd7b-4021-4551-8106-f5f81ab47f5e"},"vehicle_type_id":"4","last_reported":1729620731,"current_range_meters":9200,"station_id":"ce4bgv12rcd13ifvqcp0","pricing_plan_id":"cebpf4jnsgd1na2vs0mg"},{"bike_id":"2b80f943-bf35-49c7-9584-ea1845fd1d05","system_id":"levelo_inurba_marseille","lat":43.23191,"lon":5.35548,"is_reserved":false,"is_disabled":false,"rental_uris":{"android":"levelo://app?vid=2b80f943-bf35-49c7-9584-ea1845fd1d05","ios":"levelo://app?vid=2b80f943-bf35-49c7-9584-ea1845fd1d05"},"vehicle_type_id":"4","last_reported":1729620731,"current_range_meters":8800,"station_id":"ce4bhu92rcd13ifvqi70","pricing_plan_id":"cebpf4jnsgd1na2vs0mg"},{"bike_id":"c2f3b74d-79f4-45ea-8f16-6800d04d44f4","system_id":"levelo_inurba_marseille","lat":43.28153,"lon":5.42648,"is_reserved":false,"is_disabled":false,"rental_uris":{"android":"levelo://app?vid=c2f3b74d-79f4-45ea-8f16-6800d04d44f4","ios":"levelo://app?vid=c2f3b74d-79f4-45ea-8f16-6800d04d44f4"},"vehicle_type_id":"4","last_reported":1729620731,"current_range_meters":32000,"station_id":"ce4bhnh2rcd13ifvqgug","pricing_plan_id":"cebpf4jnsgd1na2vs0mg"},{"bike_id":"250ac974-4810-406d-9164-349ff4ee0953","system_id":"levelo_inurba_marseille","lat":43.25866,"lon":5.39899,"is_reserved":false,"is_disabled":false,"rental_uris":{"android":"levelo://app?vid=250ac974-4810-406d-9164-349ff4ee0953","ios":"levelo://app?vid=250ac974-4810-406d-9164-349ff4ee0953"},"vehicle_type_id":"4","last_reported":1729620731,"current_range_meters":4400,"station_id":"ce4bhl92rcd13ifvqghg","pricing_plan_id":"cebpf4jnsgd1na2vs0mg"},{"bike_id":"3beb28ab-a80a-45eb-886b-3f20e30bbb00","system_id":"levelo_inurba_marseille","lat":43.29198,"lon":5.39315,"is_reserved":false,"is_disabled":false,"rental_uris":{"android":"levelo://app?vid=3beb28ab-a80a-45eb-886b-3f20e30bbb00","ios":"levelo://app?vid=3beb28ab-a80a-45eb-886b-3f20e30bbb00"},"vehicle_type_id":"4","last_reported":1729620731,"current_range_meters":16400,"station_id":"ce4bh192rcd13ifvqdd0","pricing_plan_id":"cebpf4jnsgd1na2vs0mg"},{"bike_id":"669bf473-ea4a-4c7d-acc6-14a612b65c49","system_id":"levelo_inurba_marseille","lat":43.30886,"lon":5.39651,"is_reserved":false,"is_disabled":false,"rental_uris":{"android":"levelo://app?vid=669bf473-ea4a-4c7d-acc6-14a612b65c49","ios":"levelo://app?vid=669bf473-ea4a-4c7d-acc6-14a612b65c49"},"vehicle_type_id":"4","last_reported":1729620731,"current_range_meters":25600,"station_id":"ce4bh012rcd13ifvqcv0","pricing_plan_id":"cebpf4jnsgd1na2vs0mg"},{"bike_id":"8b3fb690-85c6-4703-86e3-f27a8f80559c","system_id":"levelo_inurba_marseille","lat":43.27374,"lon":5.36264,"is_reserved":false,"is_disabled":false,"rental_uris":{"android":"levelo://app?vid=8b3fb690-85c6-4703-86e3-f27a8f80559c","ios":"levelo://app?vid=8b3fb690-85c6-4703-86e3-f27a8f80559c"},"vehicle_type_id":"4","last_reported":1729620731,"current_range_meters":3600,"station_id":"ce4bhbh2rcd13ifvqeo0","pricing_plan_id":"cebpf4jnsgd1na2vs0mg"},{"bike_id":"5184e1da-16f7-4d8d-847d-c914e8825fed","system_id":"levelo_inurba_marseille","lat":43.28471,"lon":5.35888,"is_reserved":false,"is_disabled":false,"rental_uris":{"android":"levelo://app?vid=5184e1da-16f7-4d8d-847d-c914e8825fed","ios":"levelo://app?vid=5184e1da-16f7-4d8d-847d-c914e8825fed"},"vehicle_type_id":"4","last_reported":1729620731,"current_range_meters":17200,"station_id":"ce4bhah2rcd13ifvqei0","pricing_plan_id":"cebpf4jnsgd1na2vs0mg"},{"bike_id":"627c6540-d7df-46a3-8354-a24156ff4b61","system_id":"levelo_inurba_marseille","lat":43.30121,"lon":5.39861,"is_reserved":false,"is_disabled":false,"rental_uris":{"android":"levelo://app?vid=627c6540-d7df-46a3-8354-a24156ff4b61","ios":"levelo://app?vid=627c6540-d7df-46a3-8354-a24156ff4b61"},"vehicle_type_id":"4","last_reported":1729620731,"current_range_meters":38800,"station_id":"ce4bh0h2rcd13ifvqd40","pricing_plan_id":"cebpf4jnsgd1na2vs0mg"},{"bike_id":"afea8f68-5061-45dc-9eed-ba2c96ecb9b6","system_id":"levelo_inurba_marseille","lat":43.28108,"lon":5.37842,"is_reserved":false,"is_disabled":false,"rental_uris":{"android":"levelo://app?vid=afea8f68-5061-45dc-9eed-ba2c96ecb9b6","ios":"levelo://app?vid=afea8f68-5061-45dc-9eed-ba2c96ecb9b6"},"vehicle_type_id":"4","last_reported":1729620731,"current_range_meters":16800,"station_id":"ce4bha12rcd13ifvqee0","pricing_plan_id":"cebpf4jnsgd1na2vs0mg"},{"bike_id":"9d4c98b6-ee4b-4c5d-9b13-2d2c9f017ba9","system_id":"levelo_inurba_marseille","lat":43.29262,"lon":5.38449,"is_reserved":false,"is_disabled":false,"rental_uris":{"android":"levelo://app?vid=9d4c98b6-ee4b-4c5d-9b13-2d2c9f017ba9","ios":"levelo://app?vid=9d4c98b6-ee4b-4c5d-9b13-2d2c9f017ba9"},"vehicle_type_id":"4","last_reported":1729620731,"current_range_meters":38800,"station_id":"ce4bh692rcd13ifvqea0","pricing_plan_id":"cebpf4jnsgd1na2vs0mg"},{"bike_id":"bc93dc15-d67c-44ef-b04b-f903f19919c7","system_id":"levelo_inurba_marseille","lat":43.29257,"lon":5.40909,"is_reserved":false,"is_disabled":false,"rental_uris":{"android":"levelo://app?vid=bc93dc15-d67c-44ef-b04b-f903f19919c7","ios":"levelo://app?vid=bc93dc15-d67c-44ef-b04b-f903f19919c7"},"vehicle_type_id":"4","last_reported":1729620731,"current_range_meters":3200,"station_id":"ce4bh192rcd13ifvqdc0","pricing_plan_id":"cebpf4jnsgd1na2vs0mg"},{"bike_id":"c5663626-e9c4-42b0-bc01-21aefc4402f1","system_id":"levelo_inurba_marseille","lat":43.29253,"lon":5.40912,"is_reserved":false,"is_disabled":false,"rental_uris":{"android":"levelo://app?vid=c5663626-e9c4-42b0-bc01-21aefc4402f1","ios":"levelo://app?vid=c5663626-e9c4-42b0-bc01-21aefc4402f1"},"vehicle_type_id":"4","last_reported":1729620731,"current_range_meters":18800,"station_id":"ce4bh192rcd13ifvqdc0","pricing_plan_id":"cebpf4jnsgd1na2vs0mg"},{"bike_id":"da1afc70-6e78-4084-8d44-edec2a6d1275","system_id":"levelo_inurba_marseille","lat":43.28934,"lon":5.38389,"is_reserved":false,"is_disabled":false,"rental_uris":{"android":"levelo://app?vid=da1afc70-6e78-4084-8d44-edec2a6d1275","ios":"levelo://app?vid=da1afc70-6e78-4084-8d44-edec2a6d1275"},"vehicle_type_id":"4","last_reported":1729620731,"current_range_meters":18000,"station_id":"ce4bh612rcd13ifvqe6g","pricing_plan_id":"cebpf4jnsgd1na2vs0mg"},{"bike_id":"1a8f1575-e4fa-4996-b5a3-1af123a8edae","system_id":"levelo_inurba_marseille","lat":43.23969,"lon":5.36633,"is_reserved":false,"is_disabled":false,"rental_uris":{"android":"levelo://app?vid=1a8f1575-e4fa-4996-b5a3-1af123a8edae","ios":"levelo://app?vid=1a8f1575-e4fa-4996-b5a3-1af123a8edae"},"vehicle_type_id":"4","last_reported":1729620731,"current_range_meters":8800,"station_id":"ce4bhi12rcd13ifvqfp0","pricing_plan_id":"cebpf4jnsgd1na2vs0mg"},{"bike_id":"f677f8b2-f42c-4eea-837b-195a15132d93","system_id":"levelo_inurba_marseille","lat":43.31754,"lon":5.39019,"is_reserved":false,"is_disabled":false,"rental_uris":{"android":"levelo://app?vid=f677f8b2-f42c-4eea-837b-195a15132d93","ios":"levelo://app?vid=f677f8b2-f42c-4eea-837b-195a15132d93"},"vehicle_type_id":"4","last_reported":1729620731,"current_range_meters":4800,"station_id":"ce4bhqp2rcd13ifvqhng","pricing_plan_id":"cebpf4jnsgd1na2vs0mg"},{"bike_id":"1b7ba1e7-ccf8-46ac-abba-ab5c1e695760","system_id":"levelo_inurba_marseille","lat":43.28564,"lon":5.39492,"is_reserved":false,"is_disabled":false,"rental_uris":{"android":"levelo://app?vid=1b7ba1e7-ccf8-46ac-abba-ab5c1e695760","ios":"levelo://app?vid=1b7ba1e7-ccf8-46ac-abba-ab5c1e695760"},"vehicle_type_id":"4","last_reported":1729620731,"current_range_meters":36400,"station_id":"ce4bh292rcd13ifvqdg0","pricing_plan_id":"cebpf4jnsgd1na2vs0mg"},{"bike_id":"f1720f56-fc53-460f-9452-3135857c1f39","system_id":"levelo_inurba_marseille","lat":43.28656,"lon":5.363537,"is_reserved":false,"is_disabled":false,"rental_uris":{"android":"levelo://app?vid=f1720f56-fc53-460f-9452-3135857c1f39","ios":"levelo://app?vid=f1720f56-fc53-460f-9452-3135857c1f39"},"vehicle_type_id":"4","last_reported":1729620731,"current_range_meters":18000,"station_id":"ce4bhah2rcd13ifvqej0","pricing_plan_id":"cebpf4jnsgd1na2vs0mg"},{"bike_id":"c2632a56-eb49-4576-89f2-24ffcb35cebd","system_id":"levelo_inurba_marseille","lat":43.26998,"lon":5.3657,"is_reserved":false,"is_disabled":false,"rental_uris":{"android":"levelo://app?vid=c2632a56-eb49-4576-89f2-24ffcb35cebd","ios":"levelo://app?vid=c2632a56-eb49-4576-89f2-24ffcb35cebd"},"vehicle_type_id":"4","last_reported":1729620731,"current_range_meters":30400,"station_id":"","pricing_plan_id":"cebpf4jnsgd1na2vs0mg"},{"bike_id":"1b2938f5-6022-42e3-8759-190207d01f72","system_id":"levelo_inurba_marseille","lat":43.28099,"lon":5.37844,"is_reserved":false,"is_disabled":false,"rental_uris":{"android":"levelo://app?vid=1b2938f5-6022-42e3-8759-190207d01f72","ios":"levelo://app?vid=1b2938f5-6022-42e3-8759-190207d01f72"},"vehicle_type_id":"4","last_reported":1729620731,"current_range_meters":36400,"station_id":"ce4bha12rcd13ifvqee0","pricing_plan_id":"cebpf4jnsgd1na2vs0mg"},{"bike_id":"0732cff4-793f-4c38-af72-354e844464f5","system_id":"levelo_inurba_marseille","lat":43.31227,"lon":5.36838,"is_reserved":false,"is_disabled":false,"rental_uris":{"android":"levelo://app?vid=0732cff4-793f-4c38-af72-354e844464f5","ios":"levelo://app?vid=0732cff4-793f-4c38-af72-354e844464f5"},"vehicle_type_id":"4","last_reported":1729620731,"current_range_meters":18800,"station_id":"ce4bgl92rcd13ifvqbq0","pricing_plan_id":"cebpf4jnsgd1na2vs0mg"},{"bike_id":"426a2702-bd23-4b8b-a787-7db02aa188e9","system_id":"levelo_inurba_marseille","lat":43.31221,"lon":5.36846,"is_reserved":false,"is_disabled":false,"rental_uris":{"android":"levelo://app?vid=426a2702-bd23-4b8b-a787-7db02aa188e9","ios":"levelo://app?vid=426a2702-bd23-4b8b-a787-7db02aa188e9"},"vehicle_type_id":"4","last_reported":1729620731,"current_range_meters":15200,"station_id":"ce4bgl92rcd13ifvqbq0","pricing_plan_id":"cebpf4jnsgd1na2vs0mg"},{"bike_id":"a7d17c5e-fa4e-4389-8c32-1b0d87b0877a","system_id":"levelo_inurba_marseille","lat":43.28106,"lon":5.40635,"is_reserved":false,"is_disabled":false,"rental_uris":{"android":"levelo://app?vid=a7d17c5e-fa4e-4389-8c32-1b0d87b0877a","ios":"levelo://app?vid=a7d17c5e-fa4e-4389-8c32-1b0d87b0877a"},"vehicle_type_id":"4","last_reported":1729620731,"current_range_meters":9200,"station_id":"","pricing_plan_id":"cebpf4jnsgd1na2vs0mg"},{"bike_id":"c29c7500-092e-4a09-b971-2d07e4120689","system_id":"levelo_inurba_marseille","lat":43.306509,"lon":5.401042,"is_reserved":false,"is_disabled":false,"rental_uris":{"android":"levelo://app?vid=c29c7500-092e-4a09-b971-2d07e4120689","ios":"levelo://app?vid=c29c7500-092e-4a09-b971-2d07e4120689"},"vehicle_type_id":"4","last_reported":1729620731,"current_range_meters":22000,"station_id":"ce4bh112rcd13ifvqda0","pricing_plan_id":"cebpf4jnsgd1na2vs0mg"},{"bike_id":"41e8ce53-b215-4b48-b8b6-b81e96735f26","system_id":"levelo_inurba_marseille","lat":43.29529,"lon":5.37497,"is_reserved":false,"is_disabled":false,"rental_uris":{"android":"levelo://app?vid=41e8ce53-b215-4b48-b8b6-b81e96735f26","ios":"levelo://app?vid=41e8ce53-b215-4b48-b8b6-b81e96735f26"},"vehicle_type_id":"4","last_reported":1729620731,"current_range_meters":32000,"station_id":"ce4bgkp2rcd13ifvqbmg","pricing_plan_id":"cebpf4jnsgd1na2vs0mg"},{"bike_id":"84c4a38e-8266-4dc7-999d-415d5d15a119","system_id":"levelo_inurba_marseille","lat":43.30094,"lon":5.39079,"is_reserved":false,"is_disabled":false,"rental_uris":{"android":"levelo://app?vid=84c4a38e-8266-4dc7-999d-415d5d15a119","ios":"levelo://app?vid=84c4a38e-8266-4dc7-999d-415d5d15a119"},"vehicle_type_id":"4","last_reported":1729620731,"current_range_meters":28400,"station_id":"ce4bh192rcd13ifvqdb0","pricing_plan_id":"cebpf4jnsgd1na2vs0mg"},{"bike_id":"3ababb4a-b447-4071-9470-f52fd7baf114","system_id":"levelo_inurba_marseille","lat":43.289368,"lon":5.363799,"is_reserved":false,"is_disabled":false,"rental_uris":{"android":"levelo://app?vid=3ababb4a-b447-4071-9470-f52fd7baf114","ios":"levelo://app?vid=3ababb4a-b447-4071-9470-f52fd7baf114"},"vehicle_type_id":"4","last_reported":1729620731,"current_range_meters":2800,"station_id":"ce4bhc92rcd13ifvqetg","pricing_plan_id":"cebpf4jnsgd1na2vs0mg"},{"bike_id":"d361d7e9-81c1-4f49-a222-69e7a95eb3e8","system_id":"levelo_inurba_marseille","lat":43.29614,"lon":5.38111,"is_reserved":false,"is_disabled":false,"rental_uris":{"android":"levelo://app?vid=d361d7e9-81c1-4f49-a222-69e7a95eb3e8","ios":"levelo://app?vid=d361d7e9-81c1-4f49-a222-69e7a95eb3e8"},"vehicle_type_id":"4","last_reported":1729620731,"current_range_meters":13600,"station_id":"ce4bgl12rcd13ifvqbo0","pricing_plan_id":"cebpf4jnsgd1na2vs0mg"},{"bike_id":"9003ce40-8541-41f2-868d-25ada64e249c","system_id":"levelo_inurba_marseille","lat":43.29966,"lon":5.38493,"is_reserved":false,"is_disabled":false,"rental_uris":{"android":"levelo://app?vid=9003ce40-8541-41f2-868d-25ada64e249c","ios":"levelo://app?vid=9003ce40-8541-41f2-868d-25ada64e249c"},"vehicle_type_id":"4","last_reported":1729620731,"current_range_meters":29600,"station_id":"ce4bgj92rcd13ifvqbd0","pricing_plan_id":"cebpf4jnsgd1na2vs0mg"},{"bike_id":"fd48b4a5-21e0-4357-af2d-13f8a366950c","system_id":"levelo_inurba_marseille","lat":43.28105,"lon":5.37841,"is_reserved":false,"is_disabled":false,"rental_uris":{"android":"levelo://app?vid=fd48b4a5-21e0-4357-af2d-13f8a366950c","ios":"levelo://app?vid=fd48b4a5-21e0-4357-af2d-13f8a366950c"},"vehicle_type_id":"4","last_reported":1729620731,"current_range_meters":6400,"station_id":"ce4bha12rcd13ifvqee0","pricing_plan_id":"cebpf4jnsgd1na2vs0mg"},{"bike_id":"08775e97-5aa4-47c6-a12c-2b61fdae9036","system_id":"levelo_inurba_marseille","lat":43.28616,"lon":5.3706,"is_reserved":false,"is_disabled":false,"rental_uris":{"android":"levelo://app?vid=08775e97-5aa4-47c6-a12c-2b61fdae9036","ios":"levelo://app?vid=08775e97-5aa4-47c6-a12c-2b61fdae9036"},"vehicle_type_id":"4","last_reported":1729620731,"current_range_meters":28400,"station_id":"ce4bht12rcd13ifvqi60","pricing_plan_id":"cebpf4jnsgd1na2vs0mg"},{"bike_id":"e4e6bf87-6cc5-497c-9b2a-cea1a8226966","system_id":"levelo_inurba_marseille","lat":43.3176,"lon":5.39019,"is_reserved":false,"is_disabled":false,"rental_uris":{"android":"levelo://app?vid=e4e6bf87-6cc5-497c-9b2a-cea1a8226966","ios":"levelo://app?vid=e4e6bf87-6cc5-497c-9b2a-cea1a8226966"},"vehicle_type_id":"4","last_reported":1729620731,"current_range_meters":9600,"station_id":"ce4bhqp2rcd13ifvqhng","pricing_plan_id":"cebpf4jnsgd1na2vs0mg"},{"bike_id":"4cef6e59-78ba-494a-a132-09a7b148a4f8","system_id":"levelo_inurba_marseille","lat":43.2796,"lon":5.38742,"is_reserved":false,"is_disabled":false,"rental_uris":{"android":"levelo://app?vid=4cef6e59-78ba-494a-a132-09a7b148a4f8","ios":"levelo://app?vid=4cef6e59-78ba-494a-a132-09a7b148a4f8"},"vehicle_type_id":"4","last_reported":1729620731,"current_range_meters":0,"station_id":"ce4bhg12rcd13ifvqf80","pricing_plan_id":"cebpf4jnsgd1na2vs0mg"},{"bike_id":"6ec530b6-b592-47be-aa1d-1fb2aef77d3f","system_id":"levelo_inurba_marseille","lat":43.2439,"lon":5.37062,"is_reserved":false,"is_disabled":false,"rental_uris":{"android":"levelo://app?vid=6ec530b6-b592-47be-aa1d-1fb2aef77d3f","ios":"levelo://app?vid=6ec530b6-b592-47be-aa1d-1fb2aef77d3f"},"vehicle_type_id":"4","last_reported":1729620731,"current_range_meters":36800,"station_id":"ce4bhhh2rcd13ifvqfk0","pricing_plan_id":"cebpf4jnsgd1na2vs0mg"},{"bike_id":"eff815ca-4329-42bd-81a4-421ff010cb8d","system_id":"levelo_inurba_marseille","lat":43.24811,"lon":5.37458,"is_reserved":false,"is_disabled":false,"rental_uris":{"android":"levelo://app?vid=eff815ca-4329-42bd-81a4-421ff010cb8d","ios":"levelo://app?vid=eff815ca-4329-42bd-81a4-421ff010cb8d"},"vehicle_type_id":"4","last_reported":1729620731,"current_range_meters":9600,"station_id":"ce4bhgh2rcd13ifvqfb0","pricing_plan_id":"cebpf4jnsgd1na2vs0mg"},{"bike_id":"175cd287-f166-4416-a201-9eead2fc53fd","system_id":"levelo_inurba_marseille","lat":43.28152,"lon":5.42655,"is_reserved":false,"is_disabled":false,"rental_uris":{"android":"levelo://app?vid=175cd287-f166-4416-a201-9eead2fc53fd","ios":"levelo://app?vid=175cd287-f166-4416-a201-9eead2fc53fd"},"vehicle_type_id":"4","last_reported":1729620731,"current_range_meters":28800,"station_id":"ce4bhnh2rcd13ifvqgug","pricing_plan_id":"cebpf4jnsgd1na2vs0mg"},{"bike_id":"b67674f6-6e60-458a-9be5-a809030eab44","system_id":"levelo_inurba_marseille","lat":43.29625,"lon":5.3717,"is_reserved":false,"is_disabled":false,"rental_uris":{"android":"levelo://app?vid=b67674f6-6e60-458a-9be5-a809030eab44","ios":"levelo://app?vid=b67674f6-6e60-458a-9be5-a809030eab44"},"vehicle_type_id":"4","last_reported":1729620731,"current_range_meters":11600,"station_id":"ce4bgnh2rcd13ifvqc0g","pricing_plan_id":"cebpf4jnsgd1na2vs0mg"},{"bike_id":"81f7ac0f-b290-4d12-8d40-508c0880b34a","system_id":"levelo_inurba_marseille","lat":43.30244,"lon":5.40054,"is_reserved":false,"is_disabled":false,"rental_uris":{"android":"levelo://app?vid=81f7ac0f-b290-4d12-8d40-508c0880b34a","ios":"levelo://app?vid=81f7ac0f-b290-4d12-8d40-508c0880b34a"},"vehicle_type_id":"4","last_reported":1729620731,"current_range_meters":8000,"station_id":"ce4bgvh2rcd13ifvqcs0","pricing_plan_id":"cebpf4jnsgd1na2vs0mg"},{"bike_id":"39a1597f-3942-4598-bffa-4d701263bb19","system_id":"levelo_inurba_marseille","lat":43.29029,"lon":5.38647,"is_reserved":false,"is_disabled":false,"rental_uris":{"android":"levelo://app?vid=39a1597f-3942-4598-bffa-4d701263bb19","ios":"levelo://app?vid=39a1597f-3942-4598-bffa-4d701263bb19"},"vehicle_type_id":"4","last_reported":1729620731,"current_range_meters":22800,"station_id":"ce4bh4p2rcd13ifvqe0g","pricing_plan_id":"cebpf4jnsgd1na2vs0mg"},{"bike_id":"52198d72-048a-43f1-b100-eb071bc11f1d","system_id":"levelo_inurba_marseille","lat":43.29258,"lon":5.38439,"is_reserved":false,"is_disabled":false,"rental_uris":{"android":"levelo://app?vid=52198d72-048a-43f1-b100-eb071bc11f1d","ios":"levelo://app?vid=52198d72-048a-43f1-b100-eb071bc11f1d"},"vehicle_type_id":"4","last_reported":1729620731,"current_range_meters":38800,"station_id":"ce4bh692rcd13ifvqea0","pricing_plan_id":"cebpf4jnsgd1na2vs0mg"},{"bike_id":"36156996-45e5-46cb-8a8d-381e1f24a4b5","system_id":"levelo_inurba_marseille","lat":43.28151,"lon":5.4264,"is_reserved":false,"is_disabled":false,"rental_uris":{"android":"levelo://app?vid=36156996-45e5-46cb-8a8d-381e1f24a4b5","ios":"levelo://app?vid=36156996-45e5-46cb-8a8d-381e1f24a4b5"},"vehicle_type_id":"4","last_reported":1729620731,"current_range_meters":15200,"station_id":"ce4bhnh2rcd13ifvqgug","pricing_plan_id":"cebpf4jnsgd1na2vs0mg"},{"bike_id":"391367c2-b9d4-4b16-8c89-a719040d0d0a","system_id":"levelo_inurba_marseille","lat":43.3127,"lon":5.40174,"is_reserved":false,"is_disabled":false,"rental_uris":{"android":"levelo://app?vid=391367c2-b9d4-4b16-8c89-a719040d0d0a","ios":"levelo://app?vid=391367c2-b9d4-4b16-8c89-a719040d0d0a"},"vehicle_type_id":"4","last_reported":1729620731,"current_range_meters":16400,"station_id":"ce4bh092rcd13ifvqd30","pricing_plan_id":"cebpf4jnsgd1na2vs0mg"},{"bike_id":"8ced0503-969e-4675-bcc1-af0436616bdf","system_id":"levelo_inurba_marseille","lat":43.32655,"lon":5.40995,"is_reserved":false,"is_disabled":false,"rental_uris":{"android":"levelo://app?vid=8ced0503-969e-4675-bcc1-af0436616bdf","ios":"levelo://app?vid=8ced0503-969e-4675-bcc1-af0436616bdf"},"vehicle_type_id":"4","last_reported":1729620731,"current_range_meters":23200,"station_id":"ce4bhpp2rcd13ifvqhgg","pricing_plan_id":"cebpf4jnsgd1na2vs0mg"},{"bike_id":"a50f4a0a-4f3b-43d5-b4ee-873cef30dcb2","system_id":"levelo_inurba_marseille","lat":43.30783,"lon":5.37657,"is_reserved":false,"is_disabled":false,"rental_uris":{"android":"levelo://app?vid=a50f4a0a-4f3b-43d5-b4ee-873cef30dcb2","ios":"levelo://app?vid=a50f4a0a-4f3b-43d5-b4ee-873cef30dcb2"},"vehicle_type_id":"4","last_reported":1729620731,"current_range_meters":6400,"station_id":"ce4bgv92rcd13ifvqcq0","pricing_plan_id":"cebpf4jnsgd1na2vs0mg"},{"bike_id":"a8a685a2-ef15-4f21-a5dc-e3c5b66a8e3d","system_id":"levelo_inurba_marseille","lat":43.2977,"lon":5.38063,"is_reserved":false,"is_disabled":false,"rental_uris":{"android":"levelo://app?vid=a8a685a2-ef15-4f21-a5dc-e3c5b66a8e3d","ios":"levelo://app?vid=a8a685a2-ef15-4f21-a5dc-e3c5b66a8e3d"},"vehicle_type_id":"4","last_reported":1729620731,"current_range_meters":38800,"station_id":"ce4bgip2rcd13ifvqbb0","pricing_plan_id":"cebpf4jnsgd1na2vs0mg"},{"bike_id":"a3300d86-d6d3-4946-a53a-4211b49d72a2","system_id":"levelo_inurba_marseille","lat":43.30095,"lon":5.39075,"is_reserved":false,"is_disabled":false,"rental_uris":{"android":"levelo://app?vid=a3300d86-d6d3-4946-a53a-4211b49d72a2","ios":"levelo://app?vid=a3300d86-d6d3-4946-a53a-4211b49d72a2"},"vehicle_type_id":"4","last_reported":1729620731,"current_range_meters":18800,"station_id":"ce4bh192rcd13ifvqdb0","pricing_plan_id":"cebpf4jnsgd1na2vs0mg"},{"bike_id":"0d9ef5a3-2381-4d60-bff4-852d2062eb52","system_id":"levelo_inurba_marseille","lat":43.28102,"lon":5.37833,"is_reserved":false,"is_disabled":false,"rental_uris":{"android":"levelo://app?vid=0d9ef5a3-2381-4d60-bff4-852d2062eb52","ios":"levelo://app?vid=0d9ef5a3-2381-4d60-bff4-852d2062eb52"},"vehicle_type_id":"4","last_reported":1729620731,"current_range_meters":5600,"station_id":"ce4bha12rcd13ifvqee0","pricing_plan_id":"cebpf4jnsgd1na2vs0mg"},{"bike_id":"c76af8c3-f685-4d18-b51d-576f84ea933d","system_id":"levelo_inurba_marseille","lat":43.23969,"lon":5.3663,"is_reserved":false,"is_disabled":false,"rental_uris":{"android":"levelo://app?vid=c76af8c3-f685-4d18-b51d-576f84ea933d","ios":"levelo://app?vid=c76af8c3-f685-4d18-b51d-576f84ea933d"},"vehicle_type_id":"4","last_reported":1729620731,"current_range_meters":8400,"station_id":"ce4bhi12rcd13ifvqfp0","pricing_plan_id":"cebpf4jnsgd1na2vs0mg"},{"bike_id":"06bf2dd3-3037-4e83-9461-909dbb8d5863","system_id":"levelo_inurba_marseille","lat":43.30589,"lon":5.3936,"is_reserved":false,"is_disabled":false,"rental_uris":{"android":"levelo://app?vid=06bf2dd3-3037-4e83-9461-909dbb8d5863","ios":"levelo://app?vid=06bf2dd3-3037-4e83-9461-909dbb8d5863"},"vehicle_type_id":"4","last_reported":1729620731,"current_range_meters":13600,"station_id":"ce4bh0p2rcd13ifvqd80","pricing_plan_id":"cebpf4jnsgd1na2vs0mg"},{"bike_id":"9221c06a-75f5-49e2-bb8c-153ff475ac43","system_id":"levelo_inurba_marseille","lat":43.23196,"lon":5.35556,"is_reserved":false,"is_disabled":false,"rental_uris":{"android":"levelo://app?vid=9221c06a-75f5-49e2-bb8c-153ff475ac43","ios":"levelo://app?vid=9221c06a-75f5-49e2-bb8c-153ff475ac43"},"vehicle_type_id":"4","last_reported":1729620731,"current_range_meters":11200,"station_id":"ce4bhu92rcd13ifvqi70","pricing_plan_id":"cebpf4jnsgd1na2vs0mg"},{"bike_id":"8bbc986d-cf6e-4a3d-b7ad-084efd1ff273","system_id":"levelo_inurba_marseille","lat":43.28084,"lon":5.39663,"is_reserved":false,"is_disabled":false,"rental_uris":{"android":"levelo://app?vid=8bbc986d-cf6e-4a3d-b7ad-084efd1ff273","ios":"levelo://app?vid=8bbc986d-cf6e-4a3d-b7ad-084efd1ff273"},"vehicle_type_id":"4","last_reported":1729620731,"current_range_meters":36000,"station_id":"ce4bho12rcd13ifvqh2g","pricing_plan_id":"cebpf4jnsgd1na2vs0mg"},{"bike_id":"19779980-256b-4fc2-a6d3-df10336e6243","system_id":"levelo_inurba_marseille","lat":43.27998,"lon":5.40013,"is_reserved":false,"is_disabled":false,"rental_uris":{"android":"levelo://app?vid=19779980-256b-4fc2-a6d3-df10336e6243","ios":"levelo://app?vid=19779980-256b-4fc2-a6d3-df10336e6243"},"vehicle_type_id":"4","last_reported":1729620731,"current_range_meters":17200,"station_id":"ce4bho92rcd13ifvqh4g","pricing_plan_id":"cebpf4jnsgd1na2vs0mg"},{"bike_id":"3d82193e-6fe6-45d1-a634-5b75893f9570","system_id":"levelo_inurba_marseille","lat":43.27977,"lon":5.387348,"is_reserved":false,"is_disabled":false,"rental_uris":{"android":"levelo://app?vid=3d82193e-6fe6-45d1-a634-5b75893f9570","ios":"levelo://app?vid=3d82193e-6fe6-45d1-a634-5b75893f9570"},"vehicle_type_id":"4","last_reported":1729620731,"current_range_meters":14400,"station_id":"ce4bhg12rcd13ifvqf80","pricing_plan_id":"cebpf4jnsgd1na2vs0mg"},{"bike_id":"3adb0c86-e4a4-47b1-bf5d-dfcb693dea13","system_id":"levelo_inurba_marseille","lat":43.2848,"lon":5.38415,"is_reserved":false,"is_disabled":false,"rental_uris":{"android":"levelo://app?vid=3adb0c86-e4a4-47b1-bf5d-dfcb693dea13","ios":"levelo://app?vid=3adb0c86-e4a4-47b1-bf5d-dfcb693dea13"},"vehicle_type_id":"4","last_reported":1729620731,"current_range_meters":9600,"station_id":"ce4bh512rcd13ifvqe3g","pricing_plan_id":"cebpf4jnsgd1na2vs0mg"},{"bike_id":"9032783a-e7a7-484d-9c93-b95617f6e250","system_id":"levelo_inurba_marseille","lat":43.2558,"lon":5.38233,"is_reserved":false,"is_disabled":false,"rental_uris":{"android":"levelo://app?vid=9032783a-e7a7-484d-9c93-b95617f6e250","ios":"levelo://app?vid=9032783a-e7a7-484d-9c93-b95617f6e250"},"vehicle_type_id":"4","last_reported":1729620731,"current_range_meters":2000,"station_id":"ce4bhih2rcd13ifvqfs0","pricing_plan_id":"cebpf4jnsgd1na2vs0mg"},{"bike_id":"37340957-2c5d-42c1-b501-e5c4310850dd","system_id":"levelo_inurba_marseille","lat":43.32369,"lon":5.38887,"is_reserved":false,"is_disabled":false,"rental_uris":{"android":"levelo://app?vid=37340957-2c5d-42c1-b501-e5c4310850dd","ios":"levelo://app?vid=37340957-2c5d-42c1-b501-e5c4310850dd"},"vehicle_type_id":"4","last_reported":1729620731,"current_range_meters":16400,"station_id":"ce4bhqp2rcd13ifvqhog","pricing_plan_id":"cebpf4jnsgd1na2vs0mg"},{"bike_id":"e3a5be37-fa47-4379-ae30-8a48a4048b7b","system_id":"levelo_inurba_marseille","lat":43.2926,"lon":5.38439,"is_reserved":false,"is_disabled":false,"rental_uris":{"android":"levelo://app?vid=e3a5be37-fa47-4379-ae30-8a48a4048b7b","ios":"levelo://app?vid=e3a5be37-fa47-4379-ae30-8a48a4048b7b"},"vehicle_type_id":"4","last_reported":1729620731,"current_range_meters":11200,"station_id":"ce4bh692rcd13ifvqea0","pricing_plan_id":"cebpf4jnsgd1na2vs0mg"},{"bike_id":"0eadc3ec-9be0-4a31-8ba5-16ab6f1cbfa8","system_id":"levelo_inurba_marseille","lat":43.25004,"lon":5.38928,"is_reserved":false,"is_disabled":false,"rental_uris":{"android":"levelo://app?vid=0eadc3ec-9be0-4a31-8ba5-16ab6f1cbfa8","ios":"levelo://app?vid=0eadc3ec-9be0-4a31-8ba5-16ab6f1cbfa8"},"vehicle_type_id":"4","last_reported":1729620731,"current_range_meters":24400,"station_id":"ce4bhgp2rcd13ifvqfd0","pricing_plan_id":"cebpf4jnsgd1na2vs0mg"},{"bike_id":"98ba2f1c-54fa-4432-9940-88aed2c62625","system_id":"levelo_inurba_marseille","lat":43.29866,"lon":5.39734,"is_reserved":false,"is_disabled":false,"rental_uris":{"android":"levelo://app?vid=98ba2f1c-54fa-4432-9940-88aed2c62625","ios":"levelo://app?vid=98ba2f1c-54fa-4432-9940-88aed2c62625"},"vehicle_type_id":"4","last_reported":1729620731,"current_range_meters":8000,"station_id":"ce4bh0h2rcd13ifvqd50","pricing_plan_id":"cebpf4jnsgd1na2vs0mg"},{"bike_id":"7ac1a788-3dd8-4ec5-978a-5de36181bffe","system_id":"levelo_inurba_marseille","lat":43.2781,"lon":5.40714,"is_reserved":false,"is_disabled":false,"rental_uris":{"android":"levelo://app?vid=7ac1a788-3dd8-4ec5-978a-5de36181bffe","ios":"levelo://app?vid=7ac1a788-3dd8-4ec5-978a-5de36181bffe"},"vehicle_type_id":"4","last_reported":1729620731,"current_range_meters":3600,"station_id":"ce4bhnh2rcd13ifvqgtg","pricing_plan_id":"cebpf4jnsgd1na2vs0mg"},{"bike_id":"0109d152-d199-40e0-b6bd-321510cfc821","system_id":"levelo_inurba_marseille","lat":43.287,"lon":5.37394,"is_reserved":false,"is_disabled":false,"rental_uris":{"android":"levelo://app?vid=0109d152-d199-40e0-b6bd-321510cfc821","ios":"levelo://app?vid=0109d152-d199-40e0-b6bd-321510cfc821"},"vehicle_type_id":"4","last_reported":1729620731,"current_range_meters":11200,"station_id":"ce4bh3p2rcd13ifvqdq0","pricing_plan_id":"cebpf4jnsgd1na2vs0mg"},{"bike_id":"7ba0e81f-3687-49c6-a712-bd3a117b22b1","system_id":"levelo_inurba_marseille","lat":43.3079,"lon":5.38158,"is_reserved":false,"is_disabled":false,"rental_uris":{"android":"levelo://app?vid=7ba0e81f-3687-49c6-a712-bd3a117b22b1","ios":"levelo://app?vid=7ba0e81f-3687-49c6-a712-bd3a117b22b1"},"vehicle_type_id":"4","last_reported":1729620731,"current_range_meters":3600,"station_id":"ce4bgt12rcd13ifvqce0","pricing_plan_id":"cebpf4jnsgd1na2vs0mg"},{"bike_id":"e0a4af1e-706d-4cfa-89df-ea235b99aa80","system_id":"levelo_inurba_marseille","lat":43.23966,"lon":5.36636,"is_reserved":false,"is_disabled":false,"rental_uris":{"android":"levelo://app?vid=e0a4af1e-706d-4cfa-89df-ea235b99aa80","ios":"levelo://app?vid=e0a4af1e-706d-4cfa-89df-ea235b99aa80"},"vehicle_type_id":"4","last_reported":1729620731,"current_range_meters":4000,"station_id":"ce4bhi12rcd13ifvqfp0","pricing_plan_id":"cebpf4jnsgd1na2vs0mg"},{"bike_id":"b58ed50b-3e42-4c56-a79f-51bfc9025870","system_id":"levelo_inurba_marseille","lat":43.29252,"lon":5.38436,"is_reserved":false,"is_disabled":false,"rental_uris":{"android":"levelo://app?vid=b58ed50b-3e42-4c56-a79f-51bfc9025870","ios":"levelo://app?vid=b58ed50b-3e42-4c56-a79f-51bfc9025870"},"vehicle_type_id":"4","last_reported":1729620731,"current_range_meters":8800,"station_id":"ce4bh692rcd13ifvqea0","pricing_plan_id":"cebpf4jnsgd1na2vs0mg"},{"bike_id":"5c2f1429-5d80-4b89-8f6a-1a812a1dfce9","system_id":"levelo_inurba_marseille","lat":43.25724,"lon":5.41109,"is_reserved":false,"is_disabled":false,"rental_uris":{"android":"levelo://app?vid=5c2f1429-5d80-4b89-8f6a-1a812a1dfce9","ios":"levelo://app?vid=5c2f1429-5d80-4b89-8f6a-1a812a1dfce9"},"vehicle_type_id":"4","last_reported":1729620731,"current_range_meters":10800,"station_id":"ce4bhkp2rcd13ifvqgd0","pricing_plan_id":"cebpf4jnsgd1na2vs0mg"},{"bike_id":"5144e368-ae5f-45f4-adcd-29bd97514d97","system_id":"levelo_inurba_marseille","lat":43.28949,"lon":5.366473,"is_reserved":false,"is_disabled":false,"rental_uris":{"android":"levelo://app?vid=5144e368-ae5f-45f4-adcd-29bd97514d97","ios":"levelo://app?vid=5144e368-ae5f-45f4-adcd-29bd97514d97"},"vehicle_type_id":"4","last_reported":1729620731,"current_range_meters":8000,"station_id":"ce4bhap2rcd13ifvqek0","pricing_plan_id":"cebpf4jnsgd1na2vs0mg"},{"bike_id":"9b566306-69a5-49dc-9a6c-b06ff221288e","system_id":"levelo_inurba_marseille","lat":43.29556,"lon":5.42298,"is_reserved":false,"is_disabled":false,"rental_uris":{"android":"levelo://app?vid=9b566306-69a5-49dc-9a6c-b06ff221288e","ios":"levelo://app?vid=9b566306-69a5-49dc-9a6c-b06ff221288e"},"vehicle_type_id":"4","last_reported":1729620731,"current_range_meters":4800,"station_id":"ce4bhph2rcd13ifvqhdg","pricing_plan_id":"cebpf4jnsgd1na2vs0mg"},{"bike_id":"4b2f7e23-d0ae-48be-9039-62a327003daa","system_id":"levelo_inurba_marseille","lat":43.31756,"lon":5.39017,"is_reserved":false,"is_disabled":false,"rental_uris":{"android":"levelo://app?vid=4b2f7e23-d0ae-48be-9039-62a327003daa","ios":"levelo://app?vid=4b2f7e23-d0ae-48be-9039-62a327003daa"},"vehicle_type_id":"4","last_reported":1729620731,"current_range_meters":37600,"station_id":"ce4bhqp2rcd13ifvqhng","pricing_plan_id":"cebpf4jnsgd1na2vs0mg"},{"bike_id":"6975a176-2e77-4805-8b8c-59661728b146","system_id":"levelo_inurba_marseille","lat":43.3236,"lon":5.36755,"is_reserved":false,"is_disabled":false,"rental_uris":{"android":"levelo://app?vid=6975a176-2e77-4805-8b8c-59661728b146","ios":"levelo://app?vid=6975a176-2e77-4805-8b8c-59661728b146"},"vehicle_type_id":"4","last_reported":1729620731,"current_range_meters":30400,"station_id":"","pricing_plan_id":"cebpf4jnsgd1na2vs0mg"},{"bike_id":"aa8e0f70-dc44-43d7-930c-4221eb7fe69d","system_id":"levelo_inurba_marseille","lat":43.30256,"lon":5.40085,"is_reserved":false,"is_disabled":false,"rental_uris":{"android":"levelo://app?vid=aa8e0f70-dc44-43d7-930c-4221eb7fe69d","ios":"levelo://app?vid=aa8e0f70-dc44-43d7-930c-4221eb7fe69d"},"vehicle_type_id":"4","last_reported":1729620731,"current_range_meters":8000,"station_id":"ce4bgvh2rcd13ifvqcs0","pricing_plan_id":"cebpf4jnsgd1na2vs0mg"},{"bike_id":"ebe750c3-1f97-40d1-9da5-66de5a25439e","system_id":"levelo_inurba_marseille","lat":43.30137,"lon":5.3878,"is_reserved":false,"is_disabled":false,"rental_uris":{"android":"levelo://app?vid=ebe750c3-1f97-40d1-9da5-66de5a25439e","ios":"levelo://app?vid=ebe750c3-1f97-40d1-9da5-66de5a25439e"},"vehicle_type_id":"4","last_reported":1729620731,"current_range_meters":4400,"station_id":"ce4bghh2rcd13ifvqb60","pricing_plan_id":"cebpf4jnsgd1na2vs0mg"},{"bike_id":"8be45489-9cce-403e-8d2d-af9698cf11df","system_id":"levelo_inurba_marseille","lat":43.31364,"lon":5.38496,"is_reserved":false,"is_disabled":false,"rental_uris":{"android":"levelo://app?vid=8be45489-9cce-403e-8d2d-af9698cf11df","ios":"levelo://app?vid=8be45489-9cce-403e-8d2d-af9698cf11df"},"vehicle_type_id":"4","last_reported":1729620731,"current_range_meters":8000,"station_id":"ce4bgt92rcd13ifvqcf0","pricing_plan_id":"cebpf4jnsgd1na2vs0mg"},{"bike_id":"5363559f-82d3-43f6-a4f5-f7f1dc47874a","system_id":"levelo_inurba_marseille","lat":43.26503,"lon":5.39542,"is_reserved":false,"is_disabled":false,"rental_uris":{"android":"levelo://app?vid=5363559f-82d3-43f6-a4f5-f7f1dc47874a","ios":"levelo://app?vid=5363559f-82d3-43f6-a4f5-f7f1dc47874a"},"vehicle_type_id":"4","last_reported":1729620731,"current_range_meters":8400,"station_id":"ce4bhi12rcd13ifvqfq0","pricing_plan_id":"cebpf4jnsgd1na2vs0mg"},{"bike_id":"dd482170-0c9e-4baa-84d3-9402d2c1ed70","system_id":"levelo_inurba_marseille","lat":43.32113,"lon":5.36776,"is_reserved":false,"is_disabled":false,"rental_uris":{"android":"levelo://app?vid=dd482170-0c9e-4baa-84d3-9402d2c1ed70","ios":"levelo://app?vid=dd482170-0c9e-4baa-84d3-9402d2c1ed70"},"vehicle_type_id":"4","last_reported":1729620731,"current_range_meters":38800,"station_id":"ce4bhrh2rcd13ifvqhug","pricing_plan_id":"cebpf4jnsgd1na2vs0mg"},{"bike_id":"07789225-8b1d-46fb-b546-a59e196fd0b3","system_id":"levelo_inurba_marseille","lat":43.29425,"lon":5.38631,"is_reserved":false,"is_disabled":false,"rental_uris":{"android":"levelo://app?vid=07789225-8b1d-46fb-b546-a59e196fd0b3","ios":"levelo://app?vid=07789225-8b1d-46fb-b546-a59e196fd0b3"},"vehicle_type_id":"4","last_reported":1729620731,"current_range_meters":22800,"station_id":"ce4bh2h2rcd13ifvqdh0","pricing_plan_id":"cebpf4jnsgd1na2vs0mg"},{"bike_id":"36ce5f93-8bde-43d7-a70c-db8ca19de040","system_id":"levelo_inurba_marseille","lat":43.23194,"lon":5.35558,"is_reserved":false,"is_disabled":false,"rental_uris":{"android":"levelo://app?vid=36ce5f93-8bde-43d7-a70c-db8ca19de040","ios":"levelo://app?vid=36ce5f93-8bde-43d7-a70c-db8ca19de040"},"vehicle_type_id":"4","last_reported":1729620731,"current_range_meters":12000,"station_id":"ce4bhu92rcd13ifvqi70","pricing_plan_id":"cebpf4jnsgd1na2vs0mg"},{"bike_id":"d39ec6c6-17d5-4c0f-91c3-b223c4a58a56","system_id":"levelo_inurba_marseille","lat":43.28105,"lon":5.37839,"is_reserved":false,"is_disabled":false,"rental_uris":{"android":"levelo://app?vid=d39ec6c6-17d5-4c0f-91c3-b223c4a58a56","ios":"levelo://app?vid=d39ec6c6-17d5-4c0f-91c3-b223c4a58a56"},"vehicle_type_id":"4","last_reported":1729620731,"current_range_meters":20400,"station_id":"ce4bha12rcd13ifvqee0","pricing_plan_id":"cebpf4jnsgd1na2vs0mg"},{"bike_id":"85632a10-e270-4c50-b603-ef7810a44336","system_id":"levelo_inurba_marseille","lat":43.28103,"lon":5.37848,"is_reserved":false,"is_disabled":false,"rental_uris":{"android":"levelo://app?vid=85632a10-e270-4c50-b603-ef7810a44336","ios":"levelo://app?vid=85632a10-e270-4c50-b603-ef7810a44336"},"vehicle_type_id":"4","last_reported":1729620731,"current_range_meters":4000,"station_id":"ce4bha12rcd13ifvqee0","pricing_plan_id":"cebpf4jnsgd1na2vs0mg"},{"bike_id":"a2f943d5-c8c0-47a0-a358-6827990bb221","system_id":"levelo_inurba_marseille","lat":43.296412,"lon":5.382013,"is_reserved":false,"is_disabled":false,"rental_uris":{"android":"levelo://app?vid=a2f943d5-c8c0-47a0-a358-6827990bb221","ios":"levelo://app?vid=a2f943d5-c8c0-47a0-a358-6827990bb221"},"vehicle_type_id":"4","last_reported":1729620731,"current_range_meters":8400,"station_id":"ce4bgl12rcd13ifvqbo0","pricing_plan_id":"cebpf4jnsgd1na2vs0mg"},{"bike_id":"97e75128-7db1-4034-a5c5-c1d111fc921e","system_id":"levelo_inurba_marseille","lat":43.27904,"lon":5.38015,"is_reserved":false,"is_disabled":false,"rental_uris":{"android":"levelo://app?vid=97e75128-7db1-4034-a5c5-c1d111fc921e","ios":"levelo://app?vid=97e75128-7db1-4034-a5c5-c1d111fc921e"},"vehicle_type_id":"4","last_reported":1729620731,"current_range_meters":28000,"station_id":"ce4bhf92rcd13ifvqf50","pricing_plan_id":"cebpf4jnsgd1na2vs0mg"},{"bike_id":"9dc80545-b974-440f-ab6c-26bf92240189","system_id":"levelo_inurba_marseille","lat":43.284885,"lon":5.385594,"is_reserved":false,"is_disabled":false,"rental_uris":{"android":"levelo://app?vid=9dc80545-b974-440f-ab6c-26bf92240189","ios":"levelo://app?vid=9dc80545-b974-440f-ab6c-26bf92240189"},"vehicle_type_id":"4","last_reported":1729620731,"current_range_meters":10800,"station_id":"ce4bh8p2rcd13ifvqeb0","pricing_plan_id":"cebpf4jnsgd1na2vs0mg"},{"bike_id":"830f4dec-b35c-43ce-85d5-b48bf1f3f591","system_id":"levelo_inurba_marseille","lat":43.27532,"lon":5.40934,"is_reserved":false,"is_disabled":false,"rental_uris":{"android":"levelo://app?vid=830f4dec-b35c-43ce-85d5-b48bf1f3f591","ios":"levelo://app?vid=830f4dec-b35c-43ce-85d5-b48bf1f3f591"},"vehicle_type_id":"4","last_reported":1729620731,"current_range_meters":3600,"station_id":"ce4bhkp2rcd13ifvqgd0","pricing_plan_id":"cebpf4jnsgd1na2vs0mg"},{"bike_id":"20af833f-c0ed-416a-b95b-db769dbb6011","system_id":"levelo_inurba_marseille","lat":43.29252,"lon":5.38437,"is_reserved":false,"is_disabled":false,"rental_uris":{"android":"levelo://app?vid=20af833f-c0ed-416a-b95b-db769dbb6011","ios":"levelo://app?vid=20af833f-c0ed-416a-b95b-db769dbb6011"},"vehicle_type_id":"4","last_reported":1729620731,"current_range_meters":38800,"station_id":"ce4bh692rcd13ifvqea0","pricing_plan_id":"cebpf4jnsgd1na2vs0mg"},{"bike_id":"881d9f56-03ba-41d7-851d-c53599738d42","system_id":"levelo_inurba_marseille","lat":43.31009,"lon":5.3831,"is_reserved":false,"is_disabled":false,"rental_uris":{"android":"levelo://app?vid=881d9f56-03ba-41d7-851d-c53599738d42","ios":"levelo://app?vid=881d9f56-03ba-41d7-851d-c53599738d42"},"vehicle_type_id":"4","last_reported":1729620731,"current_range_meters":20000,"station_id":"","pricing_plan_id":"cebpf4jnsgd1na2vs0mg"},{"bike_id":"e2e3fcb8-f421-4c15-a594-41b0acb8c4be","system_id":"levelo_inurba_marseille","lat":43.25581,"lon":5.38228,"is_reserved":false,"is_disabled":false,"rental_uris":{"android":"levelo://app?vid=e2e3fcb8-f421-4c15-a594-41b0acb8c4be","ios":"levelo://app?vid=e2e3fcb8-f421-4c15-a594-41b0acb8c4be"},"vehicle_type_id":"4","last_reported":1729620731,"current_range_meters":8400,"station_id":"ce4bhih2rcd13ifvqfs0","pricing_plan_id":"cebpf4jnsgd1na2vs0mg"},{"bike_id":"8f921518-8f48-41d4-ba09-ed1df2d94c72","system_id":"levelo_inurba_marseille","lat":43.31714,"lon":5.37397,"is_reserved":false,"is_disabled":false,"rental_uris":{"android":"levelo://app?vid=8f921518-8f48-41d4-ba09-ed1df2d94c72","ios":"levelo://app?vid=8f921518-8f48-41d4-ba09-ed1df2d94c72"},"vehicle_type_id":"4","last_reported":1729620731,"current_range_meters":11600,"station_id":"","pricing_plan_id":"cebpf4jnsgd1na2vs0mg"},{"bike_id":"0290e71e-6b1e-4655-9276-6d47b2f39717","system_id":"levelo_inurba_marseille","lat":43.29111,"lon":5.41747,"is_reserved":false,"is_disabled":false,"rental_uris":{"android":"levelo://app?vid=0290e71e-6b1e-4655-9276-6d47b2f39717","ios":"levelo://app?vid=0290e71e-6b1e-4655-9276-6d47b2f39717"},"vehicle_type_id":"4","last_reported":1729620731,"current_range_meters":22000,"station_id":"ce4bh192rcd13ifvqdc0","pricing_plan_id":"cebpf4jnsgd1na2vs0mg"},{"bike_id":"70dda9eb-22c4-4d67-b7f4-c9afb4a58799","system_id":"levelo_inurba_marseille","lat":43.255855,"lon":5.382373,"is_reserved":false,"is_disabled":false,"rental_uris":{"android":"levelo://app?vid=70dda9eb-22c4-4d67-b7f4-c9afb4a58799","ios":"levelo://app?vid=70dda9eb-22c4-4d67-b7f4-c9afb4a58799"},"vehicle_type_id":"4","last_reported":1729620731,"current_range_meters":22000,"station_id":"ce4bhih2rcd13ifvqfs0","pricing_plan_id":"cebpf4jnsgd1na2vs0mg"},{"bike_id":"908b410f-5c5c-48bf-a695-0e4c3dc40d68","system_id":"levelo_inurba_marseille","lat":43.29907,"lon":5.3747,"is_reserved":false,"is_disabled":false,"rental_uris":{"android":"levelo://app?vid=908b410f-5c5c-48bf-a695-0e4c3dc40d68","ios":"levelo://app?vid=908b410f-5c5c-48bf-a695-0e4c3dc40d68"},"vehicle_type_id":"4","last_reported":1729620731,"current_range_meters":6800,"station_id":"ce4bgjh2rcd13ifvqbg0","pricing_plan_id":"cebpf4jnsgd1na2vs0mg"},{"bike_id":"1703cae2-85dd-4d2f-b250-7e240ed3c33d","system_id":"levelo_inurba_marseille","lat":43.28157,"lon":5.42639,"is_reserved":false,"is_disabled":false,"rental_uris":{"android":"levelo://app?vid=1703cae2-85dd-4d2f-b250-7e240ed3c33d","ios":"levelo://app?vid=1703cae2-85dd-4d2f-b250-7e240ed3c33d"},"vehicle_type_id":"4","last_reported":1729620731,"current_range_meters":26800,"station_id":"ce4bhnh2rcd13ifvqgug","pricing_plan_id":"cebpf4jnsgd1na2vs0mg"},{"bike_id":"df6eaf4c-4fb1-462f-9bfd-8b58789ed614","system_id":"levelo_inurba_marseille","lat":43.29304,"lon":5.37177,"is_reserved":false,"is_disabled":false,"rental_uris":{"android":"levelo://app?vid=df6eaf4c-4fb1-462f-9bfd-8b58789ed614","ios":"levelo://app?vid=df6eaf4c-4fb1-462f-9bfd-8b58789ed614"},"vehicle_type_id":"4","last_reported":1729620731,"current_range_meters":3200,"station_id":"ce4bgh92rcd13ifvqb40","pricing_plan_id":"cebpf4jnsgd1na2vs0mg"},{"bike_id":"57a4d301-e11d-4c1f-9186-2f44dbef1a7c","system_id":"levelo_inurba_marseille","lat":43.33766,"lon":5.37435,"is_reserved":false,"is_disabled":false,"rental_uris":{"android":"levelo://app?vid=57a4d301-e11d-4c1f-9186-2f44dbef1a7c","ios":"levelo://app?vid=57a4d301-e11d-4c1f-9186-2f44dbef1a7c"},"vehicle_type_id":"4","last_reported":1729620731,"current_range_meters":33200,"station_id":"","pricing_plan_id":"cebpf4jnsgd1na2vs0mg"},{"bike_id":"0c8de3a3-b2a5-4708-ac84-cdfe6e652538","system_id":"levelo_inurba_marseille","lat":43.31118,"lon":5.37778,"is_reserved":false,"is_disabled":false,"rental_uris":{"android":"levelo://app?vid=0c8de3a3-b2a5-4708-ac84-cdfe6e652538","ios":"levelo://app?vid=0c8de3a3-b2a5-4708-ac84-cdfe6e652538"},"vehicle_type_id":"4","last_reported":1729620731,"current_range_meters":4800,"station_id":"ce4bgt92rcd13ifvqcg0","pricing_plan_id":"cebpf4jnsgd1na2vs0mg"},{"bike_id":"7aaada07-4d9b-41bd-be00-efbbe068690b","system_id":"levelo_inurba_marseille","lat":43.28657,"lon":5.3635,"is_reserved":false,"is_disabled":false,"rental_uris":{"android":"levelo://app?vid=7aaada07-4d9b-41bd-be00-efbbe068690b","ios":"levelo://app?vid=7aaada07-4d9b-41bd-be00-efbbe068690b"},"vehicle_type_id":"4","last_reported":1729620731,"current_range_meters":8400,"station_id":"ce4bhah2rcd13ifvqej0","pricing_plan_id":"cebpf4jnsgd1na2vs0mg"},{"bike_id":"7cb6dc2c-edda-4755-beaf-bd24e05830e7","system_id":"levelo_inurba_marseille","lat":43.31892,"lon":5.40744,"is_reserved":false,"is_disabled":false,"rental_uris":{"android":"levelo://app?vid=7cb6dc2c-edda-4755-beaf-bd24e05830e7","ios":"levelo://app?vid=7cb6dc2c-edda-4755-beaf-bd24e05830e7"},"vehicle_type_id":"4","last_reported":1729620731,"current_range_meters":28000,"station_id":"ce4bhq12rcd13ifvqhig","pricing_plan_id":"cebpf4jnsgd1na2vs0mg"},{"bike_id":"52758fe5-cd3a-41ab-bc91-8912b1462889","system_id":"levelo_inurba_marseille","lat":43.30301,"lon":5.39211,"is_reserved":false,"is_disabled":false,"rental_uris":{"android":"levelo://app?vid=52758fe5-cd3a-41ab-bc91-8912b1462889","ios":"levelo://app?vid=52758fe5-cd3a-41ab-bc91-8912b1462889"},