{"last_updated":1745075307,"ttl":60,"version":"2.2","data":{"bikes":[{"bike_id":"2b463c67-c22a-4cb2-a2b6-584afbd84062","system_id":"levelo_inurba_marseille","lat":43.30554,"lon":5.36521,"is_reserved":false,"is_disabled":false,"rental_uris":{"android":"levelo://app?vid=2b463c67-c22a-4cb2-a2b6-584afbd84062","ios":"levelo://app?vid=2b463c67-c22a-4cb2-a2b6-584afbd84062"},"vehicle_type_id":"4","last_reported":1745075307,"current_range_meters":2800,"station_id":"ce4bgs12rcd13ifvqcag","pricing_plan_id":"cebpf4jnsgd1na2vs0mg"},{"bike_id":"0ec687f6-0209-42d2-9c7e-559fb76a7712","system_id":"levelo_inurba_marseille","lat":43.27057,"lon":5.4026,"is_reserved":false,"is_disabled":false,"rental_uris":{"android":"levelo://app?vid=0ec687f6-0209-42d2-9c7e-559fb76a7712","ios":"levelo://app?vid=0ec687f6-0209-42d2-9c7e-559fb76a7712"},"vehicle_type_id":"4","last_reported":1745075307,"current_range_meters":2800,"station_id":"ce4bhk92rcd13ifvqgc0","pricing_plan_id":"cebpf4jnsgd1na2vs0mg"},{"bike_id":"b78c4177-2682-4435-a531-290338368e29","system_id":"levelo_inurba_marseille","lat":43.29279,"lon":5.40116,"is_reserved":false,"is_disabled":false,"rental_uris":{"android":"levelo://app?vid=b78c4177-2682-4435-a531-290338368e29","ios":"levelo://app?vid=b78c4177-2682-4435-a531-290338368e29"},"vehicle_type_id":"4","last_reported":1745075307,"current_range_meters":2000,"station_id":"ce4bh312rcd13ifvqdk0","pricing_plan_id":"cebpf4jnsgd1na2vs0mg"},{"bike_id":"fc666ef2-1ef5-45dc-b78c-fb6eee3a808c","system_id":"levelo_inurba_marseille","lat":43.30954,"lon":5.39021,"is_reserved":false,"is_disabled":false,"rental_uris":{"android":"levelo://app?vid=fc666ef2-1ef5-45dc-b78c-fb6eee3a808c","ios":"levelo://app?vid=fc666ef2-1ef5-45dc-b78c-fb6eee3a808c"},"vehicle_type_id":"4","last_reported":1745075307,"current_range_meters":2800,"station_id":"ce4bgup2rcd13ifvqco0","pricing_plan_id":"cebpf4jnsgd1na2vs0mg"},{"bike_id":"1b4882d0-e7ae-4677-aa02-a8a3dd573213","system_id":"levelo_inurba_marseille","lat":43.26545,"lon":5.37286,"is_reserved":false,"is_disabled":false,"rental_uris":{"android":"levelo://app?vid=1b4882d0-e7ae-4677-aa02-a8a3dd573213","ios":"levelo://app?vid=1b4882d0-e7ae-4677-aa02-a8a3dd573213"},"vehicle_type_id":"4","last_reported":1745075307,"current_range_meters":2800,"station_id":"ce4bhg12rcd13ifvqf70","pricing_plan_id":"cebpf4jnsgd1na2vs0mg"},{"bike_id":"f6b12822-acea-4412-a19c-3269265e8acf","system_id":"levelo_inurba_marseille","lat":43.21191,"lon":5.35069,"is_reserved":false,"is_disabled":false,"rental_uris":{"android":"levelo://app?vid=f6b12822-acea-4412-a19c-3269265e8acf","ios":"levelo://app?vid=f6b12822-acea-4412-a19c-3269265e8acf"},"vehicle_type_id":"4","last_reported":1745075307,"current_range_meters":2800,"station_id":"st_cvj6sg6p6f1abm77japg","pricing_plan_id":"cebpf4jnsgd1na2vs0mg"},{"bike_id":"9103412a-1b5c-4fc9-b553-6bc80b328465","system_id":"levelo_inurba_marseille","lat":43.24663,"lon":5.38166,"is_reserved":false,"is_disabled":false,"rental_uris":{"android":"levelo://app?vid=9103412a-1b5c-4fc9-b553-6bc80b328465","ios":"levelo://app?vid=9103412a-1b5c-4fc9-b553-6bc80b328465"},"vehicle_type_id":"4","last_reported":1745075307,"current_range_meters":3200,"station_id":"ce4bhih2rcd13ifvqfr0","pricing_plan_id":"cebpf4jnsgd1na2vs0mg"},{"bike_id":"8d631b8f-dc43-4c98-8c7c-d74303be860a","system_id":"levelo_inurba_marseille","lat":43.28848,"lon":5.35849,"is_reserved":false,"is_disabled":false,"rental_uris":{"android":"levelo://app?vid=8d631b8f-dc43-4c98-8c7c-d74303be860a","ios":"levelo://app?vid=8d631b8f-dc43-4c98-8c7c-d74303be860a"},"vehicle_type_id":"4","last_reported":1745075307,"current_range_meters":3600,"station_id":"ce4bhb12rcd13ifvqem0","pricing_plan_id":"cebpf4jnsgd1na2vs0mg"},{"bike_id":"8cd76a41-319d-417c-857d-743e2c71bd4f","system_id":"levelo_inurba_marseille","lat":43.28267,"lon":5.35057,"is_reserved":false,"is_disabled":false,"rental_uris":{"android":"levelo://app?vid=8cd76a41-319d-417c-857d-743e2c71bd4f","ios":"levelo://app?vid=8cd76a41-319d-417c-857d-743e2c71bd4f"},"vehicle_type_id":"4","last_reported":1745075307,"current_range_meters":3600,"station_id":"ce4bhbp2rcd13ifvqerg","pricing_plan_id":"cebpf4jnsgd1na2vs0mg"},{"bike_id":"5adfd0fb-f679-4bcc-aa22-8db4d94bb97f","system_id":"levelo_inurba_marseille","lat":43.270752,"lon":5.422734,"is_reserved":false,"is_disabled":false,"rental_uris":{"android":"levelo://app?vid=5adfd0fb-f679-4bcc-aa22-8db4d94bb97f","ios":"levelo://app?vid=5adfd0fb-f679-4bcc-aa22-8db4d94bb97f"},"vehicle_type_id":"4","last_reported":1745075307,"current_range_meters":3600,"station_id":"","pricing_plan_id":"cebpf4jnsgd1na2vs0mg"},{"bike_id":"8e287cb8-ebc1-4ce3-9aa5-c913a7bb3d28","system_id":"levelo_inurba_marseille","lat":43.30256,"lon":5.40062,"is_reserved":false,"is_disabled":false,"rental_uris":{"android":"levelo://app?vid=8e287cb8-ebc1-4ce3-9aa5-c913a7bb3d28","ios":"levelo://app?vid=8e287cb8-ebc1-4ce3-9aa5-c913a7bb3d28"},"vehicle_type_id":"4","last_reported":1745075307,"current_range_meters":3600,"station_id":"ce4bgvh2rcd13ifvqcs0","pricing_plan_id":"cebpf4jnsgd1na2vs0mg"},{"bike_id":"abd70e71-c44f-4ef5-962a-28e629079420","system_id":"levelo_inurba_marseille","lat":43.26694,"lon":5.38259,"is_reserved":false,"is_disabled":false,"rental_uris":{"android":"levelo://app?vid=abd70e71-c44f-4ef5-962a-28e629079420","ios":"levelo://app?vid=abd70e71-c44f-4ef5-962a-28e629079420"},"vehicle_type_id":"4","last_reported":1745075307,"current_range_meters":4000,"station_id":"ce4bhg92rcd13ifvqf90","pricing_plan_id":"cebpf4jnsgd1na2vs0mg"},{"bike_id":"39783330-5b8c-4efa-a51f-b0c977415a28","system_id":"levelo_inurba_marseille","lat":43.29301,"lon":5.37453,"is_reserved":false,"is_disabled":true,"rental_uris":{"android":"levelo://app?vid=39783330-5b8c-4efa-a51f-b0c977415a28","ios":"levelo://app?vid=39783330-5b8c-4efa-a51f-b0c977415a28"},"vehicle_type_id":"4","last_reported":1745075307,"current_range_meters":4000,"station_id":"ce4bgi12rcd13ifvqb70","pricing_plan_id":"cebpf4jnsgd1na2vs0mg"},{"bike_id":"1eb21cf7-f56d-466f-8411-3931d2290de7","system_id":"levelo_inurba_marseille","lat":43.24817,"lon":5.37471,"is_reserved":false,"is_disabled":false,"rental_uris":{"android":"levelo://app?vid=1eb21cf7-f56d-466f-8411-3931d2290de7","ios":"levelo://app?vid=1eb21cf7-f56d-466f-8411-3931d2290de7"},"vehicle_type_id":"4","last_reported":1745075307,"current_range_meters":4000,"station_id":"ce4bhgh2rcd13ifvqfb0","pricing_plan_id":"cebpf4jnsgd1na2vs0mg"},{"bike_id":"06c856e3-9e35-462d-9ce5-5ea291f397d0","system_id":"levelo_inurba_marseille","lat":43.241791,"lon":5.397357,"is_reserved":false,"is_disabled":false,"rental_uris":{"android":"levelo://app?vid=06c856e3-9e35-462d-9ce5-5ea291f397d0","ios":"levelo://app?vid=06c856e3-9e35-462d-9ce5-5ea291f397d0"},"vehicle_type_id":"4","last_reported":1745075307,"current_range_meters":4000,"station_id":"ce4bh0h2rcd13ifvqd40","pricing_plan_id":"cebpf4jnsgd1na2vs0mg"},{"bike_id":"8e2493df-0115-43ad-8501-8d1e9aa4d87e","system_id":"levelo_inurba_marseille","lat":43.29009,"lon":5.35615,"is_reserved":false,"is_disabled":false,"rental_uris":{"android":"levelo://app?vid=8e2493df-0115-43ad-8501-8d1e9aa4d87e","ios":"levelo://app?vid=8e2493df-0115-43ad-8501-8d1e9aa4d87e"},"vehicle_type_id":"4","last_reported":1745075307,"current_range_meters":4400,"station_id":"ce4bhb92rcd13ifvqen0","pricing_plan_id":"cebpf4jnsgd1na2vs0mg"},{"bike_id":"4bd2db3d-d407-4d8b-b124-cf323eaccf7d","system_id":"levelo_inurba_marseille","lat":43.31353,"lon":5.36728,"is_reserved":false,"is_disabled":false,"rental_uris":{"android":"levelo://app?vid=4bd2db3d-d407-4d8b-b124-cf323eaccf7d","ios":"levelo://app?vid=4bd2db3d-d407-4d8b-b124-cf323eaccf7d"},"vehicle_type_id":"4","last_reported":1745075307,"current_range_meters":4400,"station_id":"ce4bgr92rcd13ifvqc6g","pricing_plan_id":"cebpf4jnsgd1na2vs0mg"},{"bike_id":"c2352be1-0b52-4370-856c-ece9e65773ae","system_id":"levelo_inurba_marseille","lat":43.28364,"lon":5.38621,"is_reserved":false,"is_disabled":false,"rental_uris":{"android":"levelo://app?vid=c2352be1-0b52-4370-856c-ece9e65773ae","ios":"levelo://app?vid=c2352be1-0b52-4370-856c-ece9e65773ae"},"vehicle_type_id":"4","last_reported":1745075307,"current_range_meters":4400,"station_id":"ce4bh492rcd13ifvqdvg","pricing_plan_id":"cebpf4jnsgd1na2vs0mg"},{"bike_id":"aaafad92-d28a-4d17-a0fb-3ff3c58bebc6","system_id":"levelo_inurba_marseille","lat":43.2816,"lon":5.42646,"is_reserved":false,"is_disabled":false,"rental_uris":{"android":"levelo://app?vid=aaafad92-d28a-4d17-a0fb-3ff3c58bebc6","ios":"levelo://app?vid=aaafad92-d28a-4d17-a0fb-3ff3c58bebc6"},"vehicle_type_id":"4","last_reported":1745075307,"current_range_meters":4400,"station_id":"ce4bhnh2rcd13ifvqgug","pricing_plan_id":"cebpf4jnsgd1na2vs0mg"},{"bike_id":"93fe2cef-f6f6-4a83-b74a-a81b5f4d8309","system_id":"levelo_inurba_marseille","lat":43.26554,"lon":5.37287,"is_reserved":false,"is_disabled":false,"rental_uris":{"android":"levelo://app?vid=93fe2cef-f6f6-4a83-b74a-a81b5f4d8309","ios":"levelo://app?vid=93fe2cef-f6f6-4a83-b74a-a81b5f4d8309"},"vehicle_type_id":"4","last_reported":1745075307,"current_range_meters":4400,"station_id":"ce4bhg12rcd13ifvqf70","pricing_plan_id":"cebpf4jnsgd1na2vs0mg"},{"bike_id":"d8b09634-a769-4be2-af00-2abae62aec71","system_id":"levelo_inurba_marseille","lat":43.22933,"lon":5.35375,"is_reserved":false,"is_disabled":false,"rental_uris":{"android":"levelo://app?vid=d8b09634-a769-4be2-af00-2abae62aec71","ios":"levelo://app?vid=d8b09634-a769-4be2-af00-2abae62aec71"},"vehicle_type_id":"4","last_reported":1745075307,"current_range_meters":4400,"station_id":"cpo3532slgdg3j2ikp40","pricing_plan_id":"cebpf4jnsgd1na2vs0mg"},{"bike_id":"be1a0b8d-c4fd-43d1-a907-f6b80cb5ffba","system_id":"levelo_inurba_marseille","lat":43.29891,"lon":5.38932,"is_reserved":false,"is_disabled":false,"rental_uris":{"android":"levelo://app?vid=be1a0b8d-c4fd-43d1-a907-f6b80cb5ffba","ios":"levelo://app?vid=be1a0b8d-c4fd-43d1-a907-f6b80cb5ffba"},"vehicle_type_id":"4","last_reported":1745075307,"current_range_meters":4400,"station_id":"ce4bh392rcd13ifvqdl0","pricing_plan_id":"cebpf4jnsgd1na2vs0mg"},{"bike_id":"b40cc585-c4c8-42ac-9a26-08c3637f96f5","system_id":"levelo_inurba_marseille","lat":43.28272,"lon":5.35082,"is_reserved":false,"is_disabled":false,"rental_uris":{"android":"levelo://app?vid=b40cc585-c4c8-42ac-9a26-08c3637f96f5","ios":"levelo://app?vid=b40cc585-c4c8-42ac-9a26-08c3637f96f5"},"vehicle_type_id":"4","last_reported":1745075307,"current_range_meters":4800,"station_id":"ce4bhbp2rcd13ifvqerg","pricing_plan_id":"cebpf4jnsgd1na2vs0mg"},{"bike_id":"83470270-9a25-491b-ae57-74dcbe67a149","system_id":"levelo_inurba_marseille","lat":43.253535,"lon":5.384979,"is_reserved":false,"is_disabled":false,"rental_uris":{"android":"levelo://app?vid=83470270-9a25-491b-ae57-74dcbe67a149","ios":"levelo://app?vid=83470270-9a25-491b-ae57-74dcbe67a149"},"vehicle_type_id":"4","last_reported":1745075307,"current_range_meters":4800,"station_id":"ce4bhgp2rcd13ifvqfd0","pricing_plan_id":"cebpf4jnsgd1na2vs0mg"},{"bike_id":"0b358314-fb5c-4b98-9491-7d1733bdc371","system_id":"levelo_inurba_marseille","lat":43.29713,"lon":5.36614,"is_reserved":false,"is_disabled":false,"rental_uris":{"android":"levelo://app?vid=0b358314-fb5c-4b98-9491-7d1733bdc371","ios":"levelo://app?vid=0b358314-fb5c-4b98-9491-7d1733bdc371"},"vehicle_type_id":"4","last_reported":1745075307,"current_range_meters":4800,"station_id":"ce4bgn12rcd13ifvqbt0","pricing_plan_id":"cebpf4jnsgd1na2vs0mg"},{"bike_id":"40cf7771-7bb3-48d5-838e-856dd72c19fd","system_id":"levelo_inurba_marseille","lat":43.21786,"lon":5.34601,"is_reserved":false,"is_disabled":false,"rental_uris":{"android":"levelo://app?vid=40cf7771-7bb3-48d5-838e-856dd72c19fd","ios":"levelo://app?vid=40cf7771-7bb3-48d5-838e-856dd72c19fd"},"vehicle_type_id":"4","last_reported":1745075307,"current_range_meters":4800,"station_id":"","pricing_plan_id":"cebpf4jnsgd1na2vs0mg"},{"bike_id":"6987c513-b50c-45b1-80e3-356055d982d5","system_id":"levelo_inurba_marseille","lat":43.29964,"lon":5.3777,"is_reserved":false,"is_disabled":true,"rental_uris":{"android":"levelo://app?vid=6987c513-b50c-45b1-80e3-356055d982d5","ios":"levelo://app?vid=6987c513-b50c-45b1-80e3-356055d982d5"},"vehicle_type_id":"4","last_reported":1745075307,"current_range_meters":5600,"station_id":"","pricing_plan_id":"cebpf4jnsgd1na2vs0mg"},{"bike_id":"0ea790f3-79ef-4002-a541-f67a691aae21","system_id":"levelo_inurba_marseille","lat":43.23194,"lon":5.35553,"is_reserved":false,"is_disabled":false,"rental_uris":{"android":"levelo://app?vid=0ea790f3-79ef-4002-a541-f67a691aae21","ios":"levelo://app?vid=0ea790f3-79ef-4002-a541-f67a691aae21"},"vehicle_type_id":"4","last_reported":1745075307,"current_range_meters":4800,"station_id":"ce4bhu92rcd13ifvqi70","pricing_plan_id":"cebpf4jnsgd1na2vs0mg"},{"bike_id":"8ff3876f-4e58-4cb7-b3a3-e264a04fd0b6","system_id":"levelo_inurba_marseille","lat":43.26687,"lon":5.38282,"is_reserved":false,"is_disabled":true,"rental_uris":{"android":"levelo://app?vid=8ff3876f-4e58-4cb7-b3a3-e264a04fd0b6","ios":"levelo://app?vid=8ff3876f-4e58-4cb7-b3a3-e264a04fd0b6"},"vehicle_type_id":"4","last_reported":1745075307,"current_range_meters":5600,"station_id":"ce4bhg92rcd13ifvqf90","pricing_plan_id":"cebpf4jnsgd1na2vs0mg"},{"bike_id":"61befb3f-c9d8-46af-8293-1029bb87122a","system_id":"levelo_inurba_marseille","lat":43.29007,"lon":5.35614,"is_reserved":false,"is_disabled":false,"rental_uris":{"android":"levelo://app?vid=61befb3f-c9d8-46af-8293-1029bb87122a","ios":"levelo://app?vid=61befb3f-c9d8-46af-8293-1029bb87122a"},"vehicle_type_id":"4","last_reported":1745075307,"current_range_meters":5600,"station_id":"ce4bhb92rcd13ifvqen0","pricing_plan_id":"cebpf4jnsgd1na2vs0mg"},{"bike_id":"bce39c91-2b36-4f82-8b8d-af8fa6710be7","system_id":"levelo_inurba_marseille","lat":43.292674,"lon":5.38408,"is_reserved":false,"is_disabled":false,"rental_uris":{"android":"levelo://app?vid=bce39c91-2b36-4f82-8b8d-af8fa6710be7","ios":"levelo://app?vid=bce39c91-2b36-4f82-8b8d-af8fa6710be7"},"vehicle_type_id":"4","last_reported":1745075307,"current_range_meters":5600,"station_id":"ce4bh692rcd13ifvqea0","pricing_plan_id":"cebpf4jnsgd1na2vs0mg"},{"bike_id":"a968bc14-c848-422a-b8e8-61f50cb7032f","system_id":"levelo_inurba_marseille","lat":43.30795,"lon":5.4352,"is_reserved":false,"is_disabled":false,"rental_uris":{"android":"levelo://app?vid=a968bc14-c848-422a-b8e8-61f50cb7032f","ios":"levelo://app?vid=a968bc14-c848-422a-b8e8-61f50cb7032f"},"vehicle_type_id":"4","last_reported":1745075307,"current_range_meters":5600,"station_id":"ce4bhph2rcd13ifvqheg","pricing_plan_id":"cebpf4jnsgd1na2vs0mg"},{"bike_id":"6b541bda-a156-4f2f-a627-148ede068197","system_id":"levelo_inurba_marseille","lat":43.25824,"lon":5.39435,"is_reserved":false,"is_disabled":false,"rental_uris":{"android":"levelo://app?vid=6b541bda-a156-4f2f-a627-148ede068197","ios":"levelo://app?vid=6b541bda-a156-4f2f-a627-148ede068197"},"vehicle_type_id":"4","last_reported":1745075307,"current_range_meters":6000,"station_id":"ce4bhip2rcd13ifvqft0","pricing_plan_id":"cebpf4jnsgd1na2vs0mg"},{"bike_id":"a4ee9808-c56f-429a-bd9e-2837e81985cb","system_id":"levelo_inurba_marseille","lat":43.2799,"lon":5.41653,"is_reserved":false,"is_disabled":true,"rental_uris":{"android":"levelo://app?vid=a4ee9808-c56f-429a-bd9e-2837e81985cb","ios":"levelo://app?vid=a4ee9808-c56f-429a-bd9e-2837e81985cb"},"vehicle_type_id":"4","last_reported":1745075307,"current_range_meters":6000,"station_id":"ce4bho12rcd13ifvqh1g","pricing_plan_id":"cebpf4jnsgd1na2vs0mg"},{"bike_id":"d30d5ae1-faea-49a3-bf5a-06be5dba3756","system_id":"levelo_inurba_marseille","lat":43.25496,"lon":5.37652,"is_reserved":false,"is_disabled":false,"rental_uris":{"android":"levelo://app?vid=d30d5ae1-faea-49a3-bf5a-06be5dba3756","ios":"levelo://app?vid=d30d5ae1-faea-49a3-bf5a-06be5dba3756"},"vehicle_type_id":"4","last_reported":1745075307,"current_range_meters":6000,"station_id":"ce4bhh12rcd13ifvqff0","pricing_plan_id":"cebpf4jnsgd1na2vs0mg"},{"bike_id":"d528d731-34dd-47af-a8c0-be46d8c01d83","system_id":"levelo_inurba_marseille","lat":43.306884,"lon":5.374952,"is_reserved":false,"is_disabled":false,"rental_uris":{"android":"levelo://app?vid=d528d731-34dd-47af-a8c0-be46d8c01d83","ios":"levelo://app?vid=d528d731-34dd-47af-a8c0-be46d8c01d83"},"vehicle_type_id":"4","last_reported":1745075307,"current_range_meters":6000,"station_id":"ce4bgv92rcd13ifvqcq0","pricing_plan_id":"cebpf4jnsgd1na2vs0mg"},{"bike_id":"6e272663-9a5f-4fc3-9071-d487cdda4631","system_id":"levelo_inurba_marseille","lat":43.25874,"lon":5.39908,"is_reserved":false,"is_disabled":false,"rental_uris":{"android":"levelo://app?vid=6e272663-9a5f-4fc3-9071-d487cdda4631","ios":"levelo://app?vid=6e272663-9a5f-4fc3-9071-d487cdda4631"},"vehicle_type_id":"4","last_reported":1745075307,"current_range_meters":6000,"station_id":"ce4bhl92rcd13ifvqghg","pricing_plan_id":"cebpf4jnsgd1na2vs0mg"},{"bike_id":"2f45fecb-2ddd-401e-92d1-aae83f81f079","system_id":"levelo_inurba_marseille","lat":43.31179,"lon":5.40115,"is_reserved":false,"is_disabled":false,"rental_uris":{"android":"levelo://app?vid=2f45fecb-2ddd-401e-92d1-aae83f81f079","ios":"levelo://app?vid=2f45fecb-2ddd-401e-92d1-aae83f81f079"},"vehicle_type_id":"4","last_reported":1745075307,"current_range_meters":6000,"station_id":"ce4bh092rcd13ifvqd30","pricing_plan_id":"cebpf4jnsgd1na2vs0mg"},{"bike_id":"1210dc72-37b8-49f7-b249-6faa54daba28","system_id":"levelo_inurba_marseille","lat":43.32377,"lon":5.3678,"is_reserved":false,"is_disabled":false,"rental_uris":{"android":"levelo://app?vid=1210dc72-37b8-49f7-b249-6faa54daba28","ios":"levelo://app?vid=1210dc72-37b8-49f7-b249-6faa54daba28"},"vehicle_type_id":"4","last_reported":1745075307,"current_range_meters":6400,"station_id":"ce4bhsh2rcd13ifvqi2g","pricing_plan_id":"cebpf4jnsgd1na2vs0mg"},{"bike_id":"5188f424-2ee2-4b37-a9b4-54e9f217590f","system_id":"levelo_inurba_marseille","lat":43.28293,"lon":5.35074,"is_reserved":false,"is_disabled":false,"rental_uris":{"android":"levelo://app?vid=5188f424-2ee2-4b37-a9b4-54e9f217590f","ios":"levelo://app?vid=5188f424-2ee2-4b37-a9b4-54e9f217590f"},"vehicle_type_id":"4","last_reported":1745075307,"current_range_meters":6400,"station_id":"ce4bhbp2rcd13ifvqerg","pricing_plan_id":"cebpf4jnsgd1na2vs0mg"},{"bike_id":"a84a4ed1-61d4-4e87-af14-bb5992317dd9","system_id":"levelo_inurba_marseille","lat":43.26557,"lon":5.37289,"is_reserved":false,"is_disabled":false,"rental_uris":{"android":"levelo://app?vid=a84a4ed1-61d4-4e87-af14-bb5992317dd9","ios":"levelo://app?vid=a84a4ed1-61d4-4e87-af14-bb5992317dd9"},"vehicle_type_id":"4","last_reported":1745075307,"current_range_meters":6800,"station_id":"ce4bhg12rcd13ifvqf70","pricing_plan_id":"cebpf4jnsgd1na2vs0mg"},{"bike_id":"ee7dcd15-fecb-46b9-9f77-c99722f169b5","system_id":"levelo_inurba_marseille","lat":43.24665,"lon":5.38177,"is_reserved":false,"is_disabled":false,"rental_uris":{"android":"levelo://app?vid=ee7dcd15-fecb-46b9-9f77-c99722f169b5","ios":"levelo://app?vid=ee7dcd15-fecb-46b9-9f77-c99722f169b5"},"vehicle_type_id":"4","last_reported":1745075307,"current_range_meters":6400,"station_id":"ce4bhih2rcd13ifvqfr0","pricing_plan_id":"cebpf4jnsgd1na2vs0mg"},{"bike_id":"cb705af3-7ebe-4273-8ac8-8e5e33274c4a","system_id":"levelo_inurba_marseille","lat":43.22505,"lon":5.3478,"is_reserved":false,"is_disabled":false,"rental_uris":{"android":"levelo://app?vid=cb705af3-7ebe-4273-8ac8-8e5e33274c4a","ios":"levelo://app?vid=cb705af3-7ebe-4273-8ac8-8e5e33274c4a"},"vehicle_type_id":"4","last_reported":1745075307,"current_range_meters":6400,"station_id":"st_cvj5dfep6f1abm77gieg","pricing_plan_id":"cebpf4jnsgd1na2vs0mg"},{"bike_id":"bf96f298-8b3e-4e95-b316-6250a4882d35","system_id":"levelo_inurba_marseille","lat":43.3079,"lon":5.37643,"is_reserved":false,"is_disabled":false,"rental_uris":{"android":"levelo://app?vid=bf96f298-8b3e-4e95-b316-6250a4882d35","ios":"levelo://app?vid=bf96f298-8b3e-4e95-b316-6250a4882d35"},"vehicle_type_id":"4","last_reported":1745075307,"current_range_meters":6400,"station_id":"ce4bgv92rcd13ifvqcq0","pricing_plan_id":"cebpf4jnsgd1na2vs0mg"},{"bike_id":"cf8b73bb-bde9-468e-b2b7-36cc249c47f8","system_id":"levelo_inurba_marseille","lat":43.265076,"lon":5.395465,"is_reserved":false,"is_disabled":false,"rental_uris":{"android":"levelo://app?vid=cf8b73bb-bde9-468e-b2b7-36cc249c47f8","ios":"levelo://app?vid=cf8b73bb-bde9-468e-b2b7-36cc249c47f8"},"vehicle_type_id":"4","last_reported":1745075307,"current_range_meters":6400,"station_id":"ce4bh392rcd13ifvqdl0","pricing_plan_id":"cebpf4jnsgd1na2vs0mg"},{"bike_id":"709c5515-4e73-41f4-a094-b1cb2d9405da","system_id":"levelo_inurba_marseille","lat":43.24165,"lon":5.36393,"is_reserved":false,"is_disabled":false,"rental_uris":{"android":"levelo://app?vid=709c5515-4e73-41f4-a094-b1cb2d9405da","ios":"levelo://app?vid=709c5515-4e73-41f4-a094-b1cb2d9405da"},"vehicle_type_id":"4","last_reported":1745075307,"current_range_meters":6400,"station_id":"cpo36qri1sfpv3e86is0","pricing_plan_id":"cebpf4jnsgd1na2vs0mg"},{"bike_id":"38d71541-39fa-44bc-b9fa-dad7cbdc7434","system_id":"levelo_inurba_marseille","lat":43.28754,"lon":5.38635,"is_reserved":false,"is_disabled":false,"rental_uris":{"android":"levelo://app?vid=38d71541-39fa-44bc-b9fa-dad7cbdc7434","ios":"levelo://app?vid=38d71541-39fa-44bc-b9fa-dad7cbdc7434"},"vehicle_type_id":"4","last_reported":1745075307,"current_range_meters":6400,"station_id":"","pricing_plan_id":"cebpf4jnsgd1na2vs0mg"},{"bike_id":"4669d2e6-ce5e-42c8-b71f-dd936e40ad94","system_id":"levelo_inurba_marseille","lat":43.28417,"lon":5.34982,"is_reserved":false,"is_disabled":false,"rental_uris":{"android":"levelo://app?vid=4669d2e6-ce5e-42c8-b71f-dd936e40ad94","ios":"levelo://app?vid=4669d2e6-ce5e-42c8-b71f-dd936e40ad94"},"vehicle_type_id":"4","last_reported":1745075307,"current_range_meters":6800,"station_id":"ce4bhbh2rcd13ifvqepg","pricing_plan_id":"cebpf4jnsgd1na2vs0mg"},{"bike_id":"baf8adb2-437c-40fa-9e31-fbeb67edb265","system_id":"levelo_inurba_marseille","lat":43.25091,"lon":5.39519,"is_reserved":false,"is_disabled":false,"rental_uris":{"android":"levelo://app?vid=baf8adb2-437c-40fa-9e31-fbeb67edb265","ios":"levelo://app?vid=baf8adb2-437c-40fa-9e31-fbeb67edb265"},"vehicle_type_id":"4","last_reported":1745075307,"current_range_meters":6800,"station_id":"ce4bhm12rcd13ifvqgkg","pricing_plan_id":"cebpf4jnsgd1na2vs0mg"},{"bike_id":"2dca1e92-d06f-40cc-b97c-bc3af398c361","system_id":"levelo_inurba_marseille","lat":43.23049,"lon":5.35497,"is_reserved":false,"is_disabled":false,"rental_uris":{"android":"levelo://app?vid=2dca1e92-d06f-40cc-b97c-bc3af398c361","ios":"levelo://app?vid=2dca1e92-d06f-40cc-b97c-bc3af398c361"},"vehicle_type_id":"4","last_reported":1745075307,"current_range_meters":6800,"station_id":"cpo3342slgdg3j2ifvpg","pricing_plan_id":"cebpf4jnsgd1na2vs0mg"},{"bike_id":"fb9348a2-712c-4d71-8a95-79bcdf699ff6","system_id":"levelo_inurba_marseille","lat":43.26196,"lon":5.3745,"is_reserved":false,"is_disabled":false,"rental_uris":{"android":"levelo://app?vid=fb9348a2-712c-4d71-8a95-79bcdf699ff6","ios":"levelo://app?vid=fb9348a2-712c-4d71-8a95-79bcdf699ff6"},"vehicle_type_id":"4","last_reported":1745075307,"current_range_meters":6800,"station_id":"ce4bhgp2rcd13ifvqfc0","pricing_plan_id":"cebpf4jnsgd1na2vs0mg"},{"bike_id":"32108104-3caf-4f98-b136-31cc23a88b4c","system_id":"levelo_inurba_marseille","lat":43.23965,"lon":5.36645,"is_reserved":false,"is_disabled":false,"rental_uris":{"android":"levelo://app?vid=32108104-3caf-4f98-b136-31cc23a88b4c","ios":"levelo://app?vid=32108104-3caf-4f98-b136-31cc23a88b4c"},"vehicle_type_id":"4","last_reported":1745075307,"current_range_meters":6800,"station_id":"ce4bhi12rcd13ifvqfp0","pricing_plan_id":"cebpf4jnsgd1na2vs0mg"},{"bike_id":"09b16839-7957-432c-a2e6-98291101971e","system_id":"levelo_inurba_marseille","lat":43.29633,"lon":5.3717,"is_reserved":false,"is_disabled":false,"rental_uris":{"android":"levelo://app?vid=09b16839-7957-432c-a2e6-98291101971e","ios":"levelo://app?vid=09b16839-7957-432c-a2e6-98291101971e"},"vehicle_type_id":"4","last_reported":1745075307,"current_range_meters":6800,"station_id":"ce4bgnh2rcd13ifvqc0g","pricing_plan_id":"cebpf4jnsgd1na2vs0mg"},{"bike_id":"334cc048-20ec-40eb-b223-568816be7b97","system_id":"levelo_inurba_marseille","lat":43.25577,"lon":5.38227,"is_reserved":false,"is_disabled":false,"rental_uris":{"android":"levelo://app?vid=334cc048-20ec-40eb-b223-568816be7b97","ios":"levelo://app?vid=334cc048-20ec-40eb-b223-568816be7b97"},"vehicle_type_id":"4","last_reported":1745075307,"current_range_meters":6800,"station_id":"ce4bhih2rcd13ifvqfs0","pricing_plan_id":"cebpf4jnsgd1na2vs0mg"},{"bike_id":"276d94a9-b91a-47b5-b4e8-19ed1fdcca68","system_id":"levelo_inurba_marseille","lat":43.29535,"lon":5.42258,"is_reserved":false,"is_disabled":true,"rental_uris":{"android":"levelo://app?vid=276d94a9-b91a-47b5-b4e8-19ed1fdcca68","ios":"levelo://app?vid=276d94a9-b91a-47b5-b4e8-19ed1fdcca68"},"vehicle_type_id":"4","last_reported":1745075307,"current_range_meters":7200,"station_id":"ce4bhph2rcd13ifvqhdg","pricing_plan_id":"cebpf4jnsgd1na2vs0mg"},{"bike_id":"e34ad17a-ec55-46c4-832b-ee1db5cf5b93","system_id":"levelo_inurba_marseille","lat":43.282646,"lon":5.350637,"is_reserved":false,"is_disabled":false,"rental_uris":{"android":"levelo://app?vid=e34ad17a-ec55-46c4-832b-ee1db5cf5b93","ios":"levelo://app?vid=e34ad17a-ec55-46c4-832b-ee1db5cf5b93"},"vehicle_type_id":"4","last_reported":1745075307,"current_range_meters":7200,"station_id":"ce4bhbp2rcd13ifvqerg","pricing_plan_id":"cebpf4jnsgd1na2vs0mg"},{"bike_id":"68bbebc3-3bc1-43ae-bd54-980b6d4bfe29","system_id":"levelo_inurba_marseille","lat":43.29786,"lon":5.37067,"is_reserved":false,"is_disabled":false,"rental_uris":{"android":"levelo://app?vid=68bbebc3-3bc1-43ae-bd54-980b6d4bfe29","ios":"levelo://app?vid=68bbebc3-3bc1-43ae-bd54-980b6d4bfe29"},"vehicle_type_id":"4","last_reported":1745075307,"current_range_meters":7200,"station_id":"ce4bgop2rcd13ifvqc1g","pricing_plan_id":"cebpf4jnsgd1na2vs0mg"},{"bike_id":"e0d5b9ca-261d-46c1-88c9-0899604def1a","system_id":"levelo_inurba_marseille","lat":43.27915,"lon":5.39583,"is_reserved":false,"is_disabled":false,"rental_uris":{"android":"levelo://app?vid=e0d5b9ca-261d-46c1-88c9-0899604def1a","ios":"levelo://app?vid=e0d5b9ca-261d-46c1-88c9-0899604def1a"},"vehicle_type_id":"4","last_reported":1745075307,"current_range_meters":7200,"station_id":"ce4bhf92rcd13ifvqf40","pricing_plan_id":"cebpf4jnsgd1na2vs0mg"},{"bike_id":"ee2c42d9-062e-486d-94e5-a8bebc2f1c3b","system_id":"levelo_inurba_marseille","lat":43.25199,"lon":5.37581,"is_reserved":false,"is_disabled":true,"rental_uris":{"android":"levelo://app?vid=ee2c42d9-062e-486d-94e5-a8bebc2f1c3b","ios":"levelo://app?vid=ee2c42d9-062e-486d-94e5-a8bebc2f1c3b"},"vehicle_type_id":"4","last_reported":1745075307,"current_range_meters":7200,"station_id":"","pricing_plan_id":"cebpf4jnsgd1na2vs0mg"},{"bike_id":"3abcd8a1-bc4b-4780-96f7-c41259227a65","system_id":"levelo_inurba_marseille","lat":43.29898,"lon":5.38432,"is_reserved":false,"is_disabled":false,"rental_uris":{"android":"levelo://app?vid=3abcd8a1-bc4b-4780-96f7-c41259227a65","ios":"levelo://app?vid=3abcd8a1-bc4b-4780-96f7-c41259227a65"},"vehicle_type_id":"4","last_reported":1745075307,"current_range_meters":8000,"station_id":"","pricing_plan_id":"cebpf4jnsgd1na2vs0mg"},{"bike_id":"eb789697-8952-47b7-a2df-d37b78a3ee47","system_id":"levelo_inurba_marseille","lat":43.265523,"lon":5.372837,"is_reserved":false,"is_disabled":false,"rental_uris":{"android":"levelo://app?vid=eb789697-8952-47b7-a2df-d37b78a3ee47","ios":"levelo://app?vid=eb789697-8952-47b7-a2df-d37b78a3ee47"},"vehicle_type_id":"4","last_reported":1745075307,"current_range_meters":8000,"station_id":"ce4bhg12rcd13ifvqf70","pricing_plan_id":"cebpf4jnsgd1na2vs0mg"},{"bike_id":"54b4dbf4-2f86-4fea-858a-fa43a7e2c930","system_id":"levelo_inurba_marseille","lat":43.295245,"lon":5.385863,"is_reserved":false,"is_disabled":false,"rental_uris":{"android":"levelo://app?vid=54b4dbf4-2f86-4fea-858a-fa43a7e2c930","ios":"levelo://app?vid=54b4dbf4-2f86-4fea-858a-fa43a7e2c930"},"vehicle_type_id":"4","last_reported":1745075307,"current_range_meters":8000,"station_id":"","pricing_plan_id":"cebpf4jnsgd1na2vs0mg"},{"bike_id":"c42c97dc-851b-476d-ba23-67d0582febc0","system_id":"levelo_inurba_marseille","lat":43.30317,"lon":5.40447,"is_reserved":false,"is_disabled":true,"rental_uris":{"android":"levelo://app?vid=c42c97dc-851b-476d-ba23-67d0582febc0","ios":"levelo://app?vid=c42c97dc-851b-476d-ba23-67d0582febc0"},"vehicle_type_id":"4","last_reported":1745075307,"current_range_meters":8000,"station_id":"ce4bh012rcd13ifvqd10","pricing_plan_id":"cebpf4jnsgd1na2vs0mg"},{"bike_id":"6e39409a-9ae0-4129-ba89-d6e28047162c","system_id":"levelo_inurba_marseille","lat":43.2827,"lon":5.35076,"is_reserved":false,"is_disabled":false,"rental_uris":{"android":"levelo://app?vid=6e39409a-9ae0-4129-ba89-d6e28047162c","ios":"levelo://app?vid=6e39409a-9ae0-4129-ba89-d6e28047162c"},"vehicle_type_id":"4","last_reported":1745075307,"current_range_meters":8000,"station_id":"ce4bhbp2rcd13ifvqerg","pricing_plan_id":"cebpf4jnsgd1na2vs0mg"},{"bike_id":"8b583ba3-ff37-476c-bd32-2af099e75c38","system_id":"levelo_inurba_marseille","lat":43.308827,"lon":5.380696,"is_reserved":false,"is_disabled":false,"rental_uris":{"android":"levelo://app?vid=8b583ba3-ff37-476c-bd32-2af099e75c38","ios":"levelo://app?vid=8b583ba3-ff37-476c-bd32-2af099e75c38"},"vehicle_type_id":"4","last_reported":1745075307,"current_range_meters":8000,"station_id":"ce4bgv92rcd13ifvqcq0","pricing_plan_id":"cebpf4jnsgd1na2vs0mg"},{"bike_id":"df1df40f-fd9c-4585-bc36-bdce6918b7d5","system_id":"levelo_inurba_marseille","lat":43.23193,"lon":5.35556,"is_reserved":false,"is_disabled":false,"rental_uris":{"android":"levelo://app?vid=df1df40f-fd9c-4585-bc36-bdce6918b7d5","ios":"levelo://app?vid=df1df40f-fd9c-4585-bc36-bdce6918b7d5"},"vehicle_type_id":"4","last_reported":1745075307,"current_range_meters":8000,"station_id":"ce4bhu92rcd13ifvqi70","pricing_plan_id":"cebpf4jnsgd1na2vs0mg"},{"bike_id":"934a8fc0-98f8-4aaf-a145-d485dee937c7","system_id":"levelo_inurba_marseille","lat":43.32376,"lon":5.36778,"is_reserved":false,"is_disabled":false,"rental_uris":{"android":"levelo://app?vid=934a8fc0-98f8-4aaf-a145-d485dee937c7","ios":"levelo://app?vid=934a8fc0-98f8-4aaf-a145-d485dee937c7"},"vehicle_type_id":"4","last_reported":1745075307,"current_range_meters":8000,"station_id":"ce4bhsh2rcd13ifvqi2g","pricing_plan_id":"cebpf4jnsgd1na2vs0mg"},{"bike_id":"9fe8c14c-2d24-41b2-9662-956cdf9f075c","system_id":"levelo_inurba_marseille","lat":43.24472,"lon":5.36913,"is_reserved":false,"is_disabled":false,"rental_uris":{"android":"levelo://app?vid=9fe8c14c-2d24-41b2-9662-956cdf9f075c","ios":"levelo://app?vid=9fe8c14c-2d24-41b2-9662-956cdf9f075c"},"vehicle_type_id":"4","last_reported":1745075307,"current_range_meters":8400,"station_id":"","pricing_plan_id":"cebpf4jnsgd1na2vs0mg"},{"bike_id":"f3db6b84-95ea-47eb-b4cd-d586544348cb","system_id":"levelo_inurba_marseille","lat":43.24167,"lon":5.36401,"is_reserved":false,"is_disabled":false,"rental_uris":{"android":"levelo://app?vid=f3db6b84-95ea-47eb-b4cd-d586544348cb","ios":"levelo://app?vid=f3db6b84-95ea-47eb-b4cd-d586544348cb"},"vehicle_type_id":"4","last_reported":1745075307,"current_range_meters":8400,"station_id":"cpo36qri1sfpv3e86is0","pricing_plan_id":"cebpf4jnsgd1na2vs0mg"},{"bike_id":"4a86d0f8-ff65-4446-9521-1002867a3da0","system_id":"levelo_inurba_marseille","lat":43.24527,"lon":5.39522,"is_reserved":false,"is_disabled":true,"rental_uris":{"android":"levelo://app?vid=4a86d0f8-ff65-4446-9521-1002867a3da0","ios":"levelo://app?vid=4a86d0f8-ff65-4446-9521-1002867a3da0"},"vehicle_type_id":"4","last_reported":1745075307,"current_range_meters":8400,"station_id":"ce4bhlp2rcd13ifvqgjg","pricing_plan_id":"cebpf4jnsgd1na2vs0mg"},{"bike_id":"d42c650f-a34c-43a5-beb8-ac44e3648a73","system_id":"levelo_inurba_marseille","lat":43.28279,"lon":5.35082,"is_reserved":false,"is_disabled":false,"rental_uris":{"android":"levelo://app?vid=d42c650f-a34c-43a5-beb8-ac44e3648a73","ios":"levelo://app?vid=d42c650f-a34c-43a5-beb8-ac44e3648a73"},"vehicle_type_id":"4","last_reported":1745075307,"current_range_meters":8400,"station_id":"ce4bhbp2rcd13ifvqerg","pricing_plan_id":"cebpf4jnsgd1na2vs0mg"},{"bike_id":"48b69211-25f5-43b4-b1d0-1160af671c43","system_id":"levelo_inurba_marseille","lat":43.24182,"lon":5.3972,"is_reserved":false,"is_disabled":false,"rental_uris":{"android":"levelo://app?vid=48b69211-25f5-43b4-b1d0-1160af671c43","ios":"levelo://app?vid=48b69211-25f5-43b4-b1d0-1160af671c43"},"vehicle_type_id":"4","last_reported":1745075307,"current_range_meters":8400,"station_id":"ce4bhn12rcd13ifvqgpg","pricing_plan_id":"cebpf4jnsgd1na2vs0mg"},{"bike_id":"aabb899b-3210-445d-b2f5-7db6b909c871","system_id":"levelo_inurba_marseille","lat":43.29618,"lon":5.3772,"is_reserved":false,"is_disabled":false,"rental_uris":{"android":"levelo://app?vid=aabb899b-3210-445d-b2f5-7db6b909c871","ios":"levelo://app?vid=aabb899b-3210-445d-b2f5-7db6b909c871"},"vehicle_type_id":"4","last_reported":1745075307,"current_range_meters":8400,"station_id":"ce4bgi92rcd13ifvqb90","pricing_plan_id":"cebpf4jnsgd1na2vs0mg"},{"bike_id":"3e4cafcc-0ced-48a0-b384-3e89be69d483","system_id":"levelo_inurba_marseille","lat":43.26209,"lon":5.37442,"is_reserved":false,"is_disabled":false,"rental_uris":{"android":"levelo://app?vid=3e4cafcc-0ced-48a0-b384-3e89be69d483","ios":"levelo://app?vid=3e4cafcc-0ced-48a0-b384-3e89be69d483"},"vehicle_type_id":"4","last_reported":1745075307,"current_range_meters":8400,"station_id":"ce4bhgp2rcd13ifvqfc0","pricing_plan_id":"cebpf4jnsgd1na2vs0mg"},{"bike_id":"d27d2a9d-fb1a-4a85-be16-aecab76c5f49","system_id":"levelo_inurba_marseille","lat":43.26551,"lon":5.37287,"is_reserved":false,"is_disabled":false,"rental_uris":{"android":"levelo://app?vid=d27d2a9d-fb1a-4a85-be16-aecab76c5f49","ios":"levelo://app?vid=d27d2a9d-fb1a-4a85-be16-aecab76c5f49"},"vehicle_type_id":"4","last_reported":1745075307,"current_range_meters":8400,"station_id":"ce4bhg12rcd13ifvqf70","pricing_plan_id":"cebpf4jnsgd1na2vs0mg"},{"bike_id":"a0ddb0a5-f7f0-4281-aa27-9e82747cc573","system_id":"levelo_inurba_marseille","lat":43.33754,"lon":5.37491,"is_reserved":false,"is_disabled":false,"rental_uris":{"android":"levelo://app?vid=a0ddb0a5-f7f0-4281-aa27-9e82747cc573","ios":"levelo://app?vid=a0ddb0a5-f7f0-4281-aa27-9e82747cc573"},"vehicle_type_id":"4","last_reported":1745075307,"current_range_meters":8400,"station_id":"","pricing_plan_id":"cebpf4jnsgd1na2vs0mg"},{"bike_id":"c76dd66f-29b3-4a9f-9a70-c34fc13db86f","system_id":"levelo_inurba_marseille","lat":43.28415,"lon":5.37522,"is_reserved":false,"is_disabled":false,"rental_uris":{"android":"levelo://app?vid=c76dd66f-29b3-4a9f-9a70-c34fc13db86f","ios":"levelo://app?vid=c76dd66f-29b3-4a9f-9a70-c34fc13db86f"},"vehicle_type_id":"4","last_reported":1745075307,"current_range_meters":8800,"station_id":"ce4bh412rcd13ifvqds0","pricing_plan_id":"cebpf4jnsgd1na2vs0mg"},{"bike_id":"f6ba2129-4c99-433a-9ce5-8a3893340f52","system_id":"levelo_inurba_marseille","lat":43.241658,"lon":5.363946,"is_reserved":false,"is_disabled":false,"rental_uris":{"android":"levelo://app?vid=f6ba2129-4c99-433a-9ce5-8a3893340f52","ios":"levelo://app?vid=f6ba2129-4c99-433a-9ce5-8a3893340f52"},"vehicle_type_id":"4","last_reported":1745075307,"current_range_meters":8800,"station_id":"cpo36qri1sfpv3e86is0","pricing_plan_id":"cebpf4jnsgd1na2vs0mg"},{"bike_id":"32f15b16-b793-4f67-ad85-c8205ab477b9","system_id":"levelo_inurba_marseille","lat":43.28695,"lon":5.37383,"is_reserved":false,"is_disabled":false,"rental_uris":{"android":"levelo://app?vid=32f15b16-b793-4f67-ad85-c8205ab477b9","ios":"levelo://app?vid=32f15b16-b793-4f67-ad85-c8205ab477b9"},"vehicle_type_id":"4","last_reported":1745075307,"current_range_meters":8800,"station_id":"ce4bh3p2rcd13ifvqdq0","pricing_plan_id":"cebpf4jnsgd1na2vs0mg"},{"bike_id":"f2d4e09d-5627-4f9e-a42f-f7be8b02dfc7","system_id":"levelo_inurba_marseille","lat":43.2842,"lon":5.35006,"is_reserved":false,"is_disabled":false,"rental_uris":{"android":"levelo://app?vid=f2d4e09d-5627-4f9e-a42f-f7be8b02dfc7","ios":"levelo://app?vid=f2d4e09d-5627-4f9e-a42f-f7be8b02dfc7"},"vehicle_type_id":"4","last_reported":1745075307,"current_range_meters":8800,"station_id":"ce4bhbh2rcd13ifvqepg","pricing_plan_id":"cebpf4jnsgd1na2vs0mg"},{"bike_id":"013c45da-6f0a-40e7-a3de-4a6fbfafd3f6","system_id":"levelo_inurba_marseille","lat":43.31085,"lon":5.42437,"is_reserved":false,"is_disabled":false,"rental_uris":{"android":"levelo://app?vid=013c45da-6f0a-40e7-a3de-4a6fbfafd3f6","ios":"levelo://app?vid=013c45da-6f0a-40e7-a3de-4a6fbfafd3f6"},"vehicle_type_id":"4","last_reported":1745075307,"current_range_meters":8800,"station_id":"ce4bhp92rcd13ifvqhag","pricing_plan_id":"cebpf4jnsgd1na2vs0mg"},{"bike_id":"f6167cba-1c2f-4ded-ba79-b2d70fdda07f","system_id":"levelo_inurba_marseille","lat":43.28274,"lon":5.35059,"is_reserved":false,"is_disabled":false,"rental_uris":{"android":"levelo://app?vid=f6167cba-1c2f-4ded-ba79-b2d70fdda07f","ios":"levelo://app?vid=f6167cba-1c2f-4ded-ba79-b2d70fdda07f"},"vehicle_type_id":"4","last_reported":1745075307,"current_range_meters":9200,"station_id":"ce4bhbp2rcd13ifvqerg","pricing_plan_id":"cebpf4jnsgd1na2vs0mg"},{"bike_id":"0f1893a8-a23b-4ca2-8c98-0d8f78b63199","system_id":"levelo_inurba_marseille","lat":43.28398,"lon":5.34989,"is_reserved":false,"is_disabled":false,"rental_uris":{"android":"levelo://app?vid=0f1893a8-a23b-4ca2-8c98-0d8f78b63199","ios":"levelo://app?vid=0f1893a8-a23b-4ca2-8c98-0d8f78b63199"},"vehicle_type_id":"4","last_reported":1745075307,"current_range_meters":9200,"station_id":"ce4bhbh2rcd13ifvqepg","pricing_plan_id":"cebpf4jnsgd1na2vs0mg"},{"bike_id":"aa86e69e-1478-46c0-bfc7-10e67c2f91a9","system_id":"levelo_inurba_marseille","lat":43.28611,"lon":5.35114,"is_reserved":false,"is_disabled":false,"rental_uris":{"android":"levelo://app?vid=aa86e69e-1478-46c0-bfc7-10e67c2f91a9","ios":"levelo://app?vid=aa86e69e-1478-46c0-bfc7-10e67c2f91a9"},"vehicle_type_id":"4","last_reported":1745075307,"current_range_meters":9200,"station_id":"ce4bhch2rcd13ifvqeug","pricing_plan_id":"cebpf4jnsgd1na2vs0mg"},{"bike_id":"0966d505-ebf7-4aa9-81dc-e5a0f92c56d0","system_id":"levelo_inurba_marseille","lat":43.2397,"lon":5.36624,"is_reserved":false,"is_disabled":false,"rental_uris":{"android":"levelo://app?vid=0966d505-ebf7-4aa9-81dc-e5a0f92c56d0","ios":"levelo://app?vid=0966d505-ebf7-4aa9-81dc-e5a0f92c56d0"},"vehicle_type_id":"4","last_reported":1745075307,"current_range_meters":9200,"station_id":"ce4bhi12rcd13ifvqfp0","pricing_plan_id":"cebpf4jnsgd1na2vs0mg"},{"bike_id":"c1259094-016f-44b3-b827-752127a3213b","system_id":"levelo_inurba_marseille","lat":43.2293,"lon":5.3538,"is_reserved":false,"is_disabled":false,"rental_uris":{"android":"levelo://app?vid=c1259094-016f-44b3-b827-752127a3213b","ios":"levelo://app?vid=c1259094-016f-44b3-b827-752127a3213b"},"vehicle_type_id":"4","last_reported":1745075307,"current_range_meters":9200,"station_id":"cpo3532slgdg3j2ikp40","pricing_plan_id":"cebpf4jnsgd1na2vs0mg"},{"bike_id":"47f61380-525c-4579-bd6a-f53078658c39","system_id":"levelo_inurba_marseille","lat":43.26561,"lon":5.37284,"is_reserved":false,"is_disabled":false,"rental_uris":{"android":"levelo://app?vid=47f61380-525c-4579-bd6a-f53078658c39","ios":"levelo://app?vid=47f61380-525c-4579-bd6a-f53078658c39"},"vehicle_type_id":"4","last_reported":1745075307,"current_range_meters":9600,"station_id":"ce4bhg12rcd13ifvqf70","pricing_plan_id":"cebpf4jnsgd1na2vs0mg"},{"bike_id":"97608968-192f-401a-bb03-2f393f53d9a4","system_id":"levelo_inurba_marseille","lat":43.281586,"lon":5.426566,"is_reserved":false,"is_disabled":false,"rental_uris":{"android":"levelo://app?vid=97608968-192f-401a-bb03-2f393f53d9a4","ios":"levelo://app?vid=97608968-192f-401a-bb03-2f393f53d9a4"},"vehicle_type_id":"4","last_reported":1745075307,"current_range_meters":9600,"station_id":"ce4bhnh2rcd13ifvqgug","pricing_plan_id":"cebpf4jnsgd1na2vs0mg"},{"bike_id":"dc60b59e-2cde-4797-9ef0-927df3e98644","system_id":"levelo_inurba_marseille","lat":43.30876,"lon":5.38935,"is_reserved":false,"is_disabled":false,"rental_uris":{"android":"levelo://app?vid=dc60b59e-2cde-4797-9ef0-927df3e98644","ios":"levelo://app?vid=dc60b59e-2cde-4797-9ef0-927df3e98644"},"vehicle_type_id":"4","last_reported":1745075307,"current_range_meters":9600,"station_id":"","pricing_plan_id":"cebpf4jnsgd1na2vs0mg"},{"bike_id":"f8569836-d100-4df2-be18-6cf3d99d3773","system_id":"levelo_inurba_marseille","lat":43.26202,"lon":5.37934,"is_reserved":false,"is_disabled":false,"rental_uris":{"android":"levelo://app?vid=f8569836-d100-4df2-be18-6cf3d99d3773","ios":"levelo://app?vid=f8569836-d100-4df2-be18-6cf3d99d3773"},"vehicle_type_id":"4","last_reported":1745075307,"current_range_meters":9600,"station_id":"ce4bhjp2rcd13ifvqg90","pricing_plan_id":"cebpf4jnsgd1na2vs0mg"},{"bike_id":"0ec9ef63-e506-4d7b-ad73-04bbdc049f9c","system_id":"levelo_inurba_marseille","lat":43.28854,"lon":5.35851,"is_reserved":false,"is_disabled":false,"rental_uris":{"android":"levelo://app?vid=0ec9ef63-e506-4d7b-ad73-04bbdc049f9c","ios":"levelo://app?vid=0ec9ef63-e506-4d7b-ad73-04bbdc049f9c"},"vehicle_type_id":"4","last_reported":1745075307,"current_range_meters":10000,"station_id":"ce4bhb12rcd13ifvqem0","pricing_plan_id":"cebpf4jnsgd1na2vs0mg"},{"bike_id":"37e774e2-ab0c-4955-867d-f3e8cc3b1e4e","system_id":"levelo_inurba_marseille","lat":43.28269,"lon":5.35076,"is_reserved":false,"is_disabled":false,"rental_uris":{"android":"levelo://app?vid=37e774e2-ab0c-4955-867d-f3e8cc3b1e4e","ios":"levelo://app?vid=37e774e2-ab0c-4955-867d-f3e8cc3b1e4e"},"vehicle_type_id":"4","last_reported":1745075307,"current_range_meters":10000,"station_id":"ce4bhbp2rcd13ifvqerg","pricing_plan_id":"cebpf4jnsgd1na2vs0mg"},{"bike_id":"171c12f6-8c6d-47b0-b962-51749c89f39d","system_id":"levelo_inurba_marseille","lat":43.28266,"lon":5.35068,"is_reserved":false,"is_disabled":false,"rental_uris":{"android":"levelo://app?vid=171c12f6-8c6d-47b0-b962-51749c89f39d","ios":"levelo://app?vid=171c12f6-8c6d-47b0-b962-51749c89f39d"},"vehicle_type_id":"4","last_reported":1745075307,"current_range_meters":10000,"station_id":"ce4bhbp2rcd13ifvqerg","pricing_plan_id":"cebpf4jnsgd1na2vs0mg"},{"bike_id":"1eaca8f5-0017-418a-9bfc-52185bf67513","system_id":"levelo_inurba_marseille","lat":43.337276,"lon":5.391873,"is_reserved":false,"is_disabled":false,"rental_uris":{"android":"levelo://app?vid=1eaca8f5-0017-418a-9bfc-52185bf67513","ios":"levelo://app?vid=1eaca8f5-0017-418a-9bfc-52185bf67513"},"vehicle_type_id":"4","last_reported":1745075307,"current_range_meters":10000,"station_id":"ce4bhr92rcd13ifvqhsg","pricing_plan_id":"cebpf4jnsgd1na2vs0mg"},{"bike_id":"b4d76035-c89a-45a0-ae72-f24d79c5de21","system_id":"levelo_inurba_marseille","lat":43.28247,"lon":5.35072,"is_reserved":false,"is_disabled":false,"rental_uris":{"android":"levelo://app?vid=b4d76035-c89a-45a0-ae72-f24d79c5de21","ios":"levelo://app?vid=b4d76035-c89a-45a0-ae72-f24d79c5de21"},"vehicle_type_id":"4","last_reported":1745075307,"current_range_meters":10000,"station_id":"ce4bhbp2rcd13ifvqerg","pricing_plan_id":"cebpf4jnsgd1na2vs0mg"},{"bike_id":"1965f819-3778-4654-96e5-aaaf9c36cc08","system_id":"levelo_inurba_marseille","lat":43.30385,"lon":5.42468,"is_reserved":false,"is_disabled":false,"rental_uris":{"android":"levelo://app?vid=1965f819-3778-4654-96e5-aaaf9c36cc08","ios":"levelo://app?vid=1965f819-3778-4654-96e5-aaaf9c36cc08"},"vehicle_type_id":"4","last_reported":1745075307,"current_range_meters":10000,"station_id":"ce4bhoh2rcd13ifvqh6g","pricing_plan_id":"cebpf4jnsgd1na2vs0mg"},{"bike_id":"186380b9-3dab-457b-b648-71d123fa0368","system_id":"levelo_inurba_marseille","lat":43.25107,"lon":5.40328,"is_reserved":false,"is_disabled":true,"rental_uris":{"android":"levelo://app?vid=186380b9-3dab-457b-b648-71d123fa0368","ios":"levelo://app?vid=186380b9-3dab-457b-b648-71d123fa0368"},"vehicle_type_id":"4","last_reported":1745075307,"current_range_meters":10000,"station_id":"ce4bhlh2rcd13ifvqgig","pricing_plan_id":"cebpf4jnsgd1na2vs0mg"},{"bike_id":"e5b03e72-128f-4f45-be55-b9d0729cf35c","system_id":"levelo_inurba_marseille","lat":43.24808,"lon":5.37457,"is_reserved":false,"is_disabled":false,"rental_uris":{"android":"levelo://app?vid=e5b03e72-128f-4f45-be55-b9d0729cf35c","ios":"levelo://app?vid=e5b03e72-128f-4f45-be55-b9d0729cf35c"},"vehicle_type_id":"4","last_reported":1745075307,"current_range_meters":10000,"station_id":"ce4bhgh2rcd13ifvqfb0","pricing_plan_id":"cebpf4jnsgd1na2vs0mg"},{"bike_id":"b9068075-f68c-4ca0-a0e7-e526aaf4122f","system_id":"levelo_inurba_marseille","lat":43.28438,"lon":5.3499,"is_reserved":false,"is_disabled":false,"rental_uris":{"android":"levelo://app?vid=b9068075-f68c-4ca0-a0e7-e526aaf4122f","ios":"levelo://app?vid=b9068075-f68c-4ca0-a0e7-e526aaf4122f"},"vehicle_type_id":"4","last_reported":1745075307,"current_range_meters":10800,"station_id":"ce4bhbh2rcd13ifvqepg","pricing_plan_id":"cebpf4jnsgd1na2vs0mg"},{"bike_id":"c157f597-becc-4b85-b5dc-bfcaa8281822","system_id":"levelo_inurba_marseille","lat":43.273483,"lon":5.389211,"is_reserved":false,"is_disabled":false,"rental_uris":{"android":"levelo://app?vid=c157f597-becc-4b85-b5dc-bfcaa8281822","ios":"levelo://app?vid=c157f597-becc-4b85-b5dc-bfcaa8281822"},"vehicle_type_id":"4","last_reported":1745075307,"current_range_meters":10800,"station_id":"ce4bhgp2rcd13ifvqfe0","pricing_plan_id":"cebpf4jnsgd1na2vs0mg"},{"bike_id":"22583896-a653-48d4-8b37-6cfca0e7be93","system_id":"levelo_inurba_marseille","lat":43.21183,"lon":5.3508,"is_reserved":false,"is_disabled":false,"rental_uris":{"android":"levelo://app?vid=22583896-a653-48d4-8b37-6cfca0e7be93","ios":"levelo://app?vid=22583896-a653-48d4-8b37-6cfca0e7be93"},"vehicle_type_id":"4","last_reported":1745075307,"current_range_meters":10800,"station_id":"st_cvj6sg6p6f1abm77japg","pricing_plan_id":"cebpf4jnsgd1na2vs0mg"},{"bike_id":"210d3669-e710-4cfb-bac4-2059f4fa7eea","system_id":"levelo_inurba_marseille","lat":43.26593,"lon":5.38129,"is_reserved":false,"is_disabled":false,"rental_uris":{"android":"levelo://app?vid=210d3669-e710-4cfb-bac4-2059f4fa7eea","ios":"levelo://app?vid=210d3669-e710-4cfb-bac4-2059f4fa7eea"},"vehicle_type_id":"4","last_reported":1745075307,"current_range_meters":10800,"station_id":"ce4bh2h2rcd13ifvqdh0","pricing_plan_id":"cebpf4jnsgd1na2vs0mg"},{"bike_id":"106c5265-7c1a-45be-9031-3c55f8880986","system_id":"levelo_inurba_marseille","lat":43.26207,"lon":5.37927,"is_reserved":false,"is_disabled":false,"rental_uris":{"android":"levelo://app?vid=106c5265-7c1a-45be-9031-3c55f8880986","ios":"levelo://app?vid=106c5265-7c1a-45be-9031-3c55f8880986"},"vehicle_type_id":"4","last_reported":1745075307,"current_range_meters":11200,"station_id":"ce4bhjp2rcd13ifvqg90","pricing_plan_id":"cebpf4jnsgd1na2vs0mg"},{"bike_id":"4500bcf7-bacd-47ce-8256-01f941bfb534","system_id":"levelo_inurba_marseille","lat":43.29529,"lon":5.37498,"is_reserved":false,"is_disabled":true,"rental_uris":{"android":"levelo://app?vid=4500bcf7-bacd-47ce-8256-01f941bfb534","ios":"levelo://app?vid=4500bcf7-bacd-47ce-8256-01f941bfb534"},"vehicle_type_id":"4","last_reported":1745075307,"current_range_meters":11200,"station_id":"ce4bgkp2rcd13ifvqbmg","pricing_plan_id":"cebpf4jnsgd1na2vs0mg"},{"bike_id":"8d769071-3680-452d-b24e-c18962ccce57","system_id":"levelo_inurba_marseille","lat":43.3303,"lon":5.39051,"is_reserved":false,"is_disabled":false,"rental_uris":{"android":"levelo://app?vid=8d769071-3680-452d-b24e-c18962ccce57","ios":"levelo://app?vid=8d769071-3680-452d-b24e-c18962ccce57"},"vehicle_type_id":"4","last_reported":1745075307,"current_range_meters":11200,"station_id":"ce4bhr92rcd13ifvqhrg","pricing_plan_id":"cebpf4jnsgd1na2vs0mg"},{"bike_id":"172d366e-c939-4e98-91f4-f7c27c51ed39","system_id":"levelo_inurba_marseille","lat":43.29703,"lon":5.36597,"is_reserved":false,"is_disabled":false,"rental_uris":{"android":"levelo://app?vid=172d366e-c939-4e98-91f4-f7c27c51ed39","ios":"levelo://app?vid=172d366e-c939-4e98-91f4-f7c27c51ed39"},"vehicle_type_id":"4","last_reported":1745075307,"current_range_meters":11200,"station_id":"ce4bgn12rcd13ifvqbt0","pricing_plan_id":"cebpf4jnsgd1na2vs0mg"},{"bike_id":"6b2a2f68-fd74-4a24-a495-23dd8d3467f4","system_id":"levelo_inurba_marseille","lat":43.21194,"lon":5.3507,"is_reserved":false,"is_disabled":false,"rental_uris":{"android":"levelo://app?vid=6b2a2f68-fd74-4a24-a495-23dd8d3467f4","ios":"levelo://app?vid=6b2a2f68-fd74-4a24-a495-23dd8d3467f4"},"vehicle_type_id":"4","last_reported":1745075307,"current_range_meters":11200,"station_id":"st_cvj6sg6p6f1abm77japg","pricing_plan_id":"cebpf4jnsgd1na2vs0mg"},{"bike_id":"904fb01d-7241-46ce-a67c-332bfceba3ad","system_id":"levelo_inurba_marseille","lat":43.28425,"lon":5.34981,"is_reserved":false,"is_disabled":false,"rental_uris":{"android":"levelo://app?vid=904fb01d-7241-46ce-a67c-332bfceba3ad","ios":"levelo://app?vid=904fb01d-7241-46ce-a67c-332bfceba3ad"},"vehicle_type_id":"4","last_reported":1745075307,"current_range_meters":11200,"station_id":"ce4bhbh2rcd13ifvqepg","pricing_plan_id":"cebpf4jnsgd1na2vs0mg"},{"bike_id":"5ba77e2f-f7fb-48be-b718-275fc93d3e39","system_id":"levelo_inurba_marseille","lat":43.28722,"lon":5.37936,"is_reserved":false,"is_disabled":false,"rental_uris":{"android":"levelo://app?vid=5ba77e2f-f7fb-48be-b718-275fc93d3e39","ios":"levelo://app?vid=5ba77e2f-f7fb-48be-b718-275fc93d3e39"},"vehicle_type_id":"4","last_reported":1745075307,"current_range_meters":11200,"station_id":"ce4bh9p2rcd13ifvqec0","pricing_plan_id":"cebpf4jnsgd1na2vs0mg"},{"bike_id":"bf302e3a-bdda-4560-93f1-d5233a8434bd","system_id":"levelo_inurba_marseille","lat":43.28729,"lon":5.37934,"is_reserved":false,"is_disabled":false,"rental_uris":{"android":"levelo://app?vid=bf302e3a-bdda-4560-93f1-d5233a8434bd","ios":"levelo://app?vid=bf302e3a-bdda-4560-93f1-d5233a8434bd"},"vehicle_type_id":"4","last_reported":1745075307,"current_range_meters":10800,"station_id":"ce4bh9p2rcd13ifvqec0","pricing_plan_id":"cebpf4jnsgd1na2vs0mg"},{"bike_id":"25bc0b29-0b49-4d04-8525-d4b566c71eb5","system_id":"levelo_inurba_marseille","lat":43.27912,"lon":5.39577,"is_reserved":false,"is_disabled":false,"rental_uris":{"android":"levelo://app?vid=25bc0b29-0b49-4d04-8525-d4b566c71eb5","ios":"levelo://app?vid=25bc0b29-0b49-4d04-8525-d4b566c71eb5"},"vehicle_type_id":"4","last_reported":1745075307,"current_range_meters":11200,"station_id":"ce4bhf92rcd13ifvqf40","pricing_plan_id":"cebpf4jnsgd1na2vs0mg"},{"bike_id":"97e50bb0-9a70-481b-b370-e509345e710a","system_id":"levelo_inurba_marseille","lat":43.28025,"lon":5.36934,"is_reserved":false,"is_disabled":true,"rental_uris":{"android":"levelo://app?vid=97e50bb0-9a70-481b-b370-e509345e710a","ios":"levelo://app?vid=97e50bb0-9a70-481b-b370-e509345e710a"},"vehicle_type_id":"4","last_reported":1745075307,"current_range_meters":11600,"station_id":"ce4bha12rcd13ifvqef0","pricing_plan_id":"cebpf4jnsgd1na2vs0mg"},{"bike_id":"d65d57e5-0863-457c-aa67-b5745db575e6","system_id":"levelo_inurba_marseille","lat":43.30552,"lon":5.36537,"is_reserved":false,"is_disabled":false,"rental_uris":{"android":"levelo://app?vid=d65d57e5-0863-457c-aa67-b5745db575e6","ios":"levelo://app?vid=d65d57e5-0863-457c-aa67-b5745db575e6"},"vehicle_type_id":"4","last_reported":1745075307,"current_range_meters":11600,"station_id":"ce4bgs12rcd13ifvqcag","pricing_plan_id":"cebpf4jnsgd1na2vs0mg"},{"bike_id":"5f316488-d1cb-44bd-9f06-21e1793dc107","system_id":"levelo_inurba_marseille","lat":43.23151,"lon":5.43721,"is_reserved":false,"is_disabled":false,"rental_uris":{"android":"levelo://app?vid=5f316488-d1cb-44bd-9f06-21e1793dc107","ios":"levelo://app?vid=5f316488-d1cb-44bd-9f06-21e1793dc107"},"vehicle_type_id":"4","last_reported":1745075307,"current_range_meters":11600,"station_id":"ce4bhmp2rcd13ifvqgog","pricing_plan_id":"cebpf4jnsgd1na2vs0mg"},{"bike_id":"d499e37a-e281-4ece-a706-904555c6ec4f","system_id":"levelo_inurba_marseille","lat":43.28272,"lon":5.35065,"is_reserved":false,"is_disabled":false,"rental_uris":{"android":"levelo://app?vid=d499e37a-e281-4ece-a706-904555c6ec4f","ios":"levelo://app?vid=d499e37a-e281-4ece-a706-904555c6ec4f"},"vehicle_type_id":"4","last_reported":1745075307,"current_range_meters":11600,"station_id":"ce4bhbp2rcd13ifvqerg","pricing_plan_id":"cebpf4jnsgd1na2vs0mg"},{"bike_id":"ad1a8349-b36c-472b-ac5e-a0d639ec72ea","system_id":"levelo_inurba_marseille","lat":43.26565,"lon":5.39002,"is_reserved":false,"is_disabled":false,"rental_uris":{"android":"levelo://app?vid=ad1a8349-b36c-472b-ac5e-a0d639ec72ea","ios":"levelo://app?vid=ad1a8349-b36c-472b-ac5e-a0d639ec72ea"},"vehicle_type_id":"4","last_reported":1745075307,"current_range_meters":11600,"station_id":"ce4bhe12rcd13ifvqf30","pricing_plan_id":"cebpf4jnsgd1na2vs0mg"},{"bike_id":"723f1930-f851-4e85-87ae-3ba023e823d0","system_id":"levelo_inurba_marseille","lat":43.29002,"lon":5.35604,"is_reserved":false,"is_disabled":false,"rental_uris":{"android":"levelo://app?vid=723f1930-f851-4e85-87ae-3ba023e823d0","ios":"levelo://app?vid=723f1930-f851-4e85-87ae-3ba023e823d0"},"vehicle_type_id":"4","last_reported":1745075307,"current_range_meters":12000,"station_id":"ce4bhb92rcd13ifvqen0","pricing_plan_id":"cebpf4jnsgd1na2vs0mg"},{"bike_id":"066f1a3f-2f55-42ac-aa57-b561bb82f13e","system_id":"levelo_inurba_marseille","lat":43.3081,"lon":5.37353,"is_reserved":false,"is_disabled":false,"rental_uris":{"android":"levelo://app?vid=066f1a3f-2f55-42ac-aa57-b561bb82f13e","ios":"levelo://app?vid=066f1a3f-2f55-42ac-aa57-b561bb82f13e"},"vehicle_type_id":"4","last_reported":1745075307,"current_range_meters":12000,"station_id":"","pricing_plan_id":"cebpf4jnsgd1na2vs0mg"},{"bike_id":"e2d28bca-700e-4b06-81d5-d4f7f8a18912","system_id":"levelo_inurba_marseille","lat":43.28718,"lon":5.37941,"is_reserved":false,"is_disabled":false,"rental_uris":{"android":"levelo://app?vid=e2d28bca-700e-4b06-81d5-d4f7f8a18912","ios":"levelo://app?vid=e2d28bca-700e-4b06-81d5-d4f7f8a18912"},"vehicle_type_id":"4","last_reported":1745075307,"current_range_meters":12000,"station_id":"ce4bh9p2rcd13ifvqec0","pricing_plan_id":"cebpf4jnsgd1na2vs0mg"},{"bike_id":"f0b6af0d-1cbf-47a3-af07-dab09fabbbf0","system_id":"levelo_inurba_marseille","lat":43.23193,"lon":5.35564,"is_reserved":false,"is_disabled":false,"rental_uris":{"android":"levelo://app?vid=f0b6af0d-1cbf-47a3-af07-dab09fabbbf0","ios":"levelo://app?vid=f0b6af0d-1cbf-47a3-af07-dab09fabbbf0"},"vehicle_type_id":"4","last_reported":1745075307,"current_range_meters":12000,"station_id":"ce4bhu92rcd13ifvqi70","pricing_plan_id":"cebpf4jnsgd1na2vs0mg"},{"bike_id":"0b06c5f0-5b12-4554-a10d-8ccec5df638e","system_id":"levelo_inurba_marseille","lat":43.29603,"lon":5.38111,"is_reserved":false,"is_disabled":false,"rental_uris":{"android":"levelo://app?vid=0b06c5f0-5b12-4554-a10d-8ccec5df638e","ios":"levelo://app?vid=0b06c5f0-5b12-4554-a10d-8ccec5df638e"},"vehicle_type_id":"4","last_reported":1745075307,"current_range_meters":12000,"station_id":"ce4bgl12rcd13ifvqbo0","pricing_plan_id":"cebpf4jnsgd1na2vs0mg"},{"bike_id":"f72baed3-5b2c-445d-932a-606875dcbfa0","system_id":"levelo_inurba_marseille","lat":43.26564,"lon":5.37322,"is_reserved":false,"is_disabled":false,"rental_uris":{"android":"levelo://app?vid=f72baed3-5b2c-445d-932a-606875dcbfa0","ios":"levelo://app?vid=f72baed3-5b2c-445d-932a-606875dcbfa0"},"vehicle_type_id":"4","last_reported":1745075307,"current_range_meters":12400,"station_id":"ce4bhg12rcd13ifvqf70","pricing_plan_id":"cebpf4jnsgd1na2vs0mg"},{"bike_id":"3db9b740-1927-4290-9244-5c92e45d7491","system_id":"levelo_inurba_marseille","lat":43.25867,"lon":5.39901,"is_reserved":false,"is_disabled":false,"rental_uris":{"android":"levelo://app?vid=3db9b740-1927-4290-9244-5c92e45d7491","ios":"levelo://app?vid=3db9b740-1927-4290-9244-5c92e45d7491"},"vehicle_type_id":"4","last_reported":1745075307,"current_range_meters":12400,"station_id":"ce4bhl92rcd13ifvqghg","pricing_plan_id":"cebpf4jnsgd1na2vs0mg"},{"bike_id":"9ac5ea5a-2c73-4c17-bdd8-861ba7d0b02e","system_id":"levelo_inurba_marseille","lat":43.3015,"lon":5.37426,"is_reserved":false,"is_disabled":false,"rental_uris":{"android":"levelo://app?vid=9ac5ea5a-2c73-4c17-bdd8-861ba7d0b02e","ios":"levelo://app?vid=9ac5ea5a-2c73-4c17-bdd8-861ba7d0b02e"},"vehicle_type_id":"4","last_reported":1745075307,"current_range_meters":12000,"station_id":"ce4bgs92rcd13ifvqcc0","pricing_plan_id":"cebpf4jnsgd1na2vs0mg"},{"bike_id":"168604a2-3777-4b44-bb20-f65aba8c14c1","system_id":"levelo_inurba_marseille","lat":43.29517,"lon":5.39044,"is_reserved":false,"is_disabled":false,"rental_uris":{"android":"levelo://app?vid=168604a2-3777-4b44-bb20-f65aba8c14c1","ios":"levelo://app?vid=168604a2-3777-4b44-bb20-f65aba8c14c1"},"vehicle_type_id":"4","last_reported":1745075307,"current_range_meters":12400,"station_id":"ce4bh3p2rcd13ifvqdp0","pricing_plan_id":"cebpf4jnsgd1na2vs0mg"},{"bike_id":"4b426ce4-ee08-4a5e-a0a4-85af852ad32e","system_id":"levelo_inurba_marseille","lat":43.29627,"lon":5.37167,"is_reserved":false,"is_disabled":false,"rental_uris":{"android":"levelo://app?vid=4b426ce4-ee08-4a5e-a0a4-85af852ad32e","ios":"levelo://app?vid=4b426ce4-ee08-4a5e-a0a4-85af852ad32e"},"vehicle_type_id":"4","last_reported":1745075307,"current_range_meters":12400,"station_id":"ce4bgnh2rcd13ifvqc0g","pricing_plan_id":"cebpf4jnsgd1na2vs0mg"},{"bike_id":"a827af81-901c-418e-9cc3-237c30e51e4b","system_id":"levelo_inurba_marseille","lat":43.23971,"lon":5.36637,"is_reserved":false,"is_disabled":false,"rental_uris":{"android":"levelo://app?vid=a827af81-901c-418e-9cc3-237c30e51e4b","ios":"levelo://app?vid=a827af81-901c-418e-9cc3-237c30e51e4b"},"vehicle_type_id":"4","last_reported":1745075307,"current_range_meters":12800,"station_id":"ce4bhi12rcd13ifvqfp0","pricing_plan_id":"cebpf4jnsgd1na2vs0mg"},{"bike_id":"889aa1aa-5ada-4b6f-abdd-bdb92aaec771","system_id":"levelo_inurba_marseille","lat":43.30538,"lon":5.36538,"is_reserved":false,"is_disabled":false,"rental_uris":{"android":"levelo://app?vid=889aa1aa-5ada-4b6f-abdd-bdb92aaec771","ios":"levelo://app?vid=889aa1aa-5ada-4b6f-abdd-bdb92aaec771"},"vehicle_type_id":"4","last_reported":1745075307,"current_range_meters":12800,"station_id":"ce4bgs12rcd13ifvqcag","pricing_plan_id":"cebpf4jnsgd1na2vs0mg"},{"bike_id":"c7bb974a-b514-4dd3-83b5-99edd87ec904","system_id":"levelo_inurba_marseille","lat":43.30127,"lon":5.398823,"is_reserved":false,"is_disabled":false,"rental_uris":{"android":"levelo://app?vid=c7bb974a-b514-4dd3-83b5-99edd87ec904","ios":"levelo://app?vid=c7bb974a-b514-4dd3-83b5-99edd87ec904"},"vehicle_type_id":"4","last_reported":1745075307,"current_range_meters":12800,"station_id":"ce4bh0h2rcd13ifvqd40","pricing_plan_id":"cebpf4jnsgd1na2vs0mg"},{"bike_id":"f8487843-2e9c-4e51-b9ba-8e2f14c34610","system_id":"levelo_inurba_marseille","lat":43.25001,"lon":5.3893,"is_reserved":false,"is_disabled":false,"rental_uris":{"android":"levelo://app?vid=f8487843-2e9c-4e51-b9ba-8e2f14c34610","ios":"levelo://app?vid=f8487843-2e9c-4e51-b9ba-8e2f14c34610"},"vehicle_type_id":"4","last_reported":1745075307,"current_range_meters":12400,"station_id":"ce4bhgp2rcd13ifvqfd0","pricing_plan_id":"cebpf4jnsgd1na2vs0mg"},{"bike_id":"2016a332-7060-4bbc-90e1-5b2d07ed3092","system_id":"levelo_inurba_marseille","lat":43.33594,"lon":5.40997,"is_reserved":false,"is_disabled":false,"rental_uris":{"android":"levelo://app?vid=2016a332-7060-4bbc-90e1-5b2d07ed3092","ios":"levelo://app?vid=2016a332-7060-4bbc-90e1-5b2d07ed3092"},"vehicle_type_id":"4","last_reported":1745075307,"current_range_meters":13600,"station_id":"ce4bhqh2rcd13ifvqhmg","pricing_plan_id":"cebpf4jnsgd1na2vs0mg"},{"bike_id":"24213b37-b766-4d9c-a174-f6bf34920497","system_id":"levelo_inurba_marseille","lat":43.28469,"lon":5.384178,"is_reserved":false,"is_disabled":false,"rental_uris":{"android":"levelo://app?vid=24213b37-b766-4d9c-a174-f6bf34920497","ios":"levelo://app?vid=24213b37-b766-4d9c-a174-f6bf34920497"},"vehicle_type_id":"4","last_reported":1745075307,"current_range_meters":13600,"station_id":"ce4bh512rcd13ifvqe3g","pricing_plan_id":"cebpf4jnsgd1na2vs0mg"},{"bike_id":"9bb88cf2-3651-44ea-a9d4-47fa809ac7a3","system_id":"levelo_inurba_marseille","lat":43.262167,"lon":5.374459,"is_reserved":false,"is_disabled":false,"rental_uris":{"android":"levelo://app?vid=9bb88cf2-3651-44ea-a9d4-47fa809ac7a3","ios":"levelo://app?vid=9bb88cf2-3651-44ea-a9d4-47fa809ac7a3"},"vehicle_type_id":"4","last_reported":1745075307,"current_range_meters":14000,"station_id":"ce4bht12rcd13ifvqi60","pricing_plan_id":"cebpf4jnsgd1na2vs0mg"},{"bike_id":"4e6892ef-dbe3-43e4-bc69-b2da5d802c90","system_id":"levelo_inurba_marseille","lat":43.27401,"lon":5.36277,"is_reserved":false,"is_disabled":true,"rental_uris":{"android":"levelo://app?vid=4e6892ef-dbe3-43e4-bc69-b2da5d802c90","ios":"levelo://app?vid=4e6892ef-dbe3-43e4-bc69-b2da5d802c90"},"vehicle_type_id":"4","last_reported":1745075307,"current_range_meters":14000,"station_id":"ce4bhbh2rcd13ifvqeo0","pricing_plan_id":"cebpf4jnsgd1na2vs0mg"},{"bike_id":"b4405499-681a-4838-91c6-d387a826461c","system_id":"levelo_inurba_marseille","lat":43.28616,"lon":5.35102,"is_reserved":false,"is_disabled":false,"rental_uris":{"android":"levelo://app?vid=b4405499-681a-4838-91c6-d387a826461c","ios":"levelo://app?vid=b4405499-681a-4838-91c6-d387a826461c"},"vehicle_type_id":"4","last_reported":1745075307,"current_range_meters":14000,"station_id":"ce4bhch2rcd13ifvqeug","pricing_plan_id":"cebpf4jnsgd1na2vs0mg"},{"bike_id":"7c6d1591-4a0b-47b5-a6d0-55585d4d6e47","system_id":"levelo_inurba_marseille","lat":43.23957,"lon":5.36672,"is_reserved":false,"is_disabled":false,"rental_uris":{"android":"levelo://app?vid=7c6d1591-4a0b-47b5-a6d0-55585d4d6e47","ios":"levelo://app?vid=7c6d1591-4a0b-47b5-a6d0-55585d4d6e47"},"vehicle_type_id":"4","last_reported":1745075307,"current_range_meters":14000,"station_id":"ce4bhi12rcd13ifvqfp0","pricing_plan_id":"cebpf4jnsgd1na2vs0mg"},{"bike_id":"947fea1e-41f5-47b3-bf9f-7f7989d89471","system_id":"levelo_inurba_marseille","lat":43.28266,"lon":5.35062,"is_reserved":false,"is_disabled":false,"rental_uris":{"android":"levelo://app?vid=947fea1e-41f5-47b3-bf9f-7f7989d89471","ios":"levelo://app?vid=947fea1e-41f5-47b3-bf9f-7f7989d89471"},"vehicle_type_id":"4","last_reported":1745075307,"current_range_meters":14000,"station_id":"ce4bh612rcd13ifvqe6g","pricing_plan_id":"cebpf4jnsgd1na2vs0mg"},{"bike_id":"840a8acf-69ff-4fab-9f5d-61527b12c571","system_id":"levelo_inurba_marseille","lat":43.29595,"lon":5.37502,"is_reserved":false,"is_disabled":false,"rental_uris":{"android":"levelo://app?vid=840a8acf-69ff-4fab-9f5d-61527b12c571","ios":"levelo://app?vid=840a8acf-69ff-4fab-9f5d-61527b12c571"},"vehicle_type_id":"4","last_reported":1745075307,"current_range_meters":14400,"station_id":"ce4bgh92rcd13ifvqb50","pricing_plan_id":"cebpf4jnsgd1na2vs0mg"},{"bike_id":"49a1d797-b941-4171-af94-57eb3416bda4","system_id":"levelo_inurba_marseille","lat":43.30801,"lon":5.43532,"is_reserved":false,"is_disabled":false,"rental_uris":{"android":"levelo://app?vid=49a1d797-b941-4171-af94-57eb3416bda4","ios":"levelo://app?vid=49a1d797-b941-4171-af94-57eb3416bda4"},"vehicle_type_id":"4","last_reported":1745075307,"current_range_meters":14400,"station_id":"ce4bhph2rcd13ifvqheg","pricing_plan_id":"cebpf4jnsgd1na2vs0mg"},{"bike_id":"44c2515b-ff63-4bac-a0f9-f4fef656ac10","system_id":"levelo_inurba_marseille","lat":43.28426,"lon":5.34979,"is_reserved":false,"is_disabled":false,"rental_uris":{"android":"levelo://app?vid=44c2515b-ff63-4bac-a0f9-f4fef656ac10","ios":"levelo://app?vid=44c2515b-ff63-4bac-a0f9-f4fef656ac10"},"vehicle_type_id":"4","last_reported":1745075307,"current_range_meters":14400,"station_id":"ce4bhbh2rcd13ifvqepg","pricing_plan_id":"cebpf4jnsgd1na2vs0mg"},{"bike_id":"e74946cf-d6ef-44fd-bb5f-5a224d43b22f","system_id":"levelo_inurba_marseille","lat":43.28393,"lon":5.37504,"is_reserved":false,"is_disabled":false,"rental_uris":{"android":"levelo://app?vid=e74946cf-d6ef-44fd-bb5f-5a224d43b22f","ios":"levelo://app?vid=e74946cf-d6ef-44fd-bb5f-5a224d43b22f"},"vehicle_type_id":"4","last_reported":1745075307,"current_range_meters":14400,"station_id":"ce4bh412rcd13ifvqds0","pricing_plan_id":"cebpf4jnsgd1na2vs0mg"},{"bike_id":"185b8ef9-e3f4-464d-982e-3420932c754f","system_id":"levelo_inurba_marseille","lat":43.29577,"lon":5.36737,"is_reserved":false,"is_disabled":false,"rental_uris":{"android":"levelo://app?vid=185b8ef9-e3f4-464d-982e-3420932c754f","ios":"levelo://app?vid=185b8ef9-e3f4-464d-982e-3420932c754f"},"vehicle_type_id":"4","last_reported":1745075307,"current_range_meters":14000,"station_id":"ce4bgph2rcd13ifvqc2g","pricing_plan_id":"cebpf4jnsgd1na2vs0mg"},{"bike_id":"7e7d6cd0-2bce-4380-a5ae-e3f326e7f0d0","system_id":"levelo_inurba_marseille","lat":43.2572,"lon":5.41113,"is_reserved":false,"is_disabled":false,"rental_uris":{"android":"levelo://app?vid=7e7d6cd0-2bce-4380-a5ae-e3f326e7f0d0","ios":"levelo://app?vid=7e7d6cd0-2bce-4380-a5ae-e3f326e7f0d0"},"vehicle_type_id":"4","last_reported":1745075307,"current_range_meters":14800,"station_id":"ce4bhkp2rcd13ifvqgd0","pricing_plan_id":"cebpf4jnsgd1na2vs0mg"},{"bike_id":"527fac75-0783-4b2c-bd4e-07f2f2fee902","system_id":"levelo_inurba_marseille","lat":43.31126,"lon":5.3781,"is_reserved":false,"is_disabled":true,"rental_uris":{"android":"levelo://app?vid=527fac75-0783-4b2c-bd4e-07f2f2fee902","ios":"levelo://app?vid=527fac75-0783-4b2c-bd4e-07f2f2fee902"},"vehicle_type_id":"4","last_reported":1745075307,"current_range_meters":14800,"station_id":"ce4bgt92rcd13ifvqcg0","pricing_plan_id":"cebpf4jnsgd1na2vs0mg"},{"bike_id":"585dc1bf-e962-4c0c-94d3-bda040b0293a","system_id":"levelo_inurba_marseille","lat":43.28417,"lon":5.34992,"is_reserved":false,"is_disabled":false,"rental_uris":{"android":"levelo://app?vid=585dc1bf-e962-4c0c-94d3-bda040b0293a","ios":"levelo://app?vid=585dc1bf-e962-4c0c-94d3-bda040b0293a"},"vehicle_type_id":"4","last_reported":1745075307,"current_range_meters":14800,"station_id":"ce4bhbh2rcd13ifvqepg","pricing_plan_id":"cebpf4jnsgd1na2vs0mg"},{"bike_id":"916d37e2-ab98-48b2-9ebd-0a731bc0f800","system_id":"levelo_inurba_marseille","lat":43.31333,"lon":5.39689,"is_reserved":false,"is_disabled":false,"rental_uris":{"android":"levelo://app?vid=916d37e2-ab98-48b2-9ebd-0a731bc0f800","ios":"levelo://app?vid=916d37e2-ab98-48b2-9ebd-0a731bc0f800"},"vehicle_type_id":"4","last_reported":1745075307,"current_range_meters":14800,"station_id":"ce4bgvp2rcd13ifvqcu0","pricing_plan_id":"cebpf4jnsgd1na2vs0mg"},{"bike_id":"5ad8dd6b-ee8a-4f3f-924e-6d10a631b0b3","system_id":"levelo_inurba_marseille","lat":43.26214,"lon":5.37946,"is_reserved":false,"is_disabled":true,"rental_uris":{"android":"levelo://app?vid=5ad8dd6b-ee8a-4f3f-924e-6d10a631b0b3","ios":"levelo://app?vid=5ad8dd6b-ee8a-4f3f-924e-6d10a631b0b3"},"vehicle_type_id":"4","last_reported":1745075307,"current_range_meters":14800,"station_id":"ce4bhjp2rcd13ifvqg90","pricing_plan_id":"cebpf4jnsgd1na2vs0mg"},{"bike_id":"e692ab30-0d51-4afa-bec0-2ef77bca0b0d","system_id":"levelo_inurba_marseille","lat":43.30216,"lon":5.39466,"is_reserved":false,"is_disabled":false,"rental_uris":{"android":"levelo://app?vid=e692ab30-0d51-4afa-bec0-2ef77bca0b0d","ios":"levelo://app?vid=e692ab30-0d51-4afa-bec0-2ef77bca0b0d"},"vehicle_type_id":"4","last_reported":1745075307,"current_range_meters":14800,"station_id":"ce4bh0p2rcd13ifvqd70","pricing_plan_id":"cebpf4jnsgd1na2vs0mg"},{"bike_id":"597236d8-ee38-4d6f-b6ab-d41b8c4bd7ed","system_id":"levelo_inurba_marseille","lat":43.29009,"lon":5.35612,"is_reserved":false,"is_disabled":false,"rental_uris":{"android":"levelo://app?vid=597236d8-ee38-4d6f-b6ab-d41b8c4bd7ed","ios":"levelo://app?vid=597236d8-ee38-4d6f-b6ab-d41b8c4bd7ed"},"vehicle_type_id":"4","last_reported":1745075307,"current_range_meters":14800,"station_id":"ce4bhb92rcd13ifvqen0","pricing_plan_id":"cebpf4jnsgd1na2vs0mg"},{"bike_id":"471324d5-1813-4f54-b6bd-1b892f4d4a6b","system_id":"levelo_inurba_marseille","lat":43.29715,"lon":5.366,"is_reserved":false,"is_disabled":false,"rental_uris":{"android":"levelo://app?vid=471324d5-1813-4f54-b6bd-1b892f4d4a6b","ios":"levelo://app?vid=471324d5-1813-4f54-b6bd-1b892f4d4a6b"},"vehicle_type_id":"4","last_reported":1745075307,"current_range_meters":15200,"station_id":"ce4bgn12rcd13ifvqbt0","pricing_plan_id":"cebpf4jnsgd1na2vs0mg"},{"bike_id":"12dbc118-d6b1-452b-aa9a-cafd0bdbfac3","system_id":"levelo_inurba_marseille","lat":43.24659,"lon":5.38908,"is_reserved":false,"is_disabled":false,"rental_uris":{"android":"levelo://app?vid=12dbc118-d6b1-452b-aa9a-cafd0bdbfac3","ios":"levelo://app?vid=12dbc118-d6b1-452b-aa9a-cafd0bdbfac3"},"vehicle_type_id":"4","last_reported":1745075307,"current_range_meters":15200,"station_id":"ce4bhg12rcd13ifvqf60","pricing_plan_id":"cebpf4jnsgd1na2vs0mg"},{"bike_id":"5e7e83d6-8284-48e9-9372-797b9c44861d","system_id":"levelo_inurba_marseille","lat":43.26215,"lon":5.37969,"is_reserved":false,"is_disabled":false,"rental_uris":{"android":"levelo://app?vid=5e7e83d6-8284-48e9-9372-797b9c44861d","ios":"levelo://app?vid=5e7e83d6-8284-48e9-9372-797b9c44861d"},"vehicle_type_id":"4","last_reported":1745075307,"current_range_meters":15200,"station_id":"ce4bhjp2rcd13ifvqg90","pricing_plan_id":"cebpf4jnsgd1na2vs0mg"},{"bike_id":"4e4a61ac-e03c-47e8-b40a-334ea1322be5","system_id":"levelo_inurba_marseille","lat":43.232,"lon":5.35548,"is_reserved":false,"is_disabled":false,"rental_uris":{"android":"levelo://app?vid=4e4a61ac-e03c-47e8-b40a-334ea1322be5","ios":"levelo://app?vid=4e4a61ac-e03c-47e8-b40a-334ea1322be5"},"vehicle_type_id":"4","last_reported":1745075307,"current_range_meters":15200,"station_id":"ce4bhu92rcd13ifvqi70","pricing_plan_id":"cebpf4jnsgd1na2vs0mg"},{"bike_id":"00879c1d-a962-4133-ba5d-8de0f524e6f5","system_id":"levelo_inurba_marseille","lat":43.27496,"lon":5.42446,"is_reserved":false,"is_disabled":false,"rental_uris":{"android":"levelo://app?vid=00879c1d-a962-4133-ba5d-8de0f524e6f5","ios":"levelo://app?vid=00879c1d-a962-4133-ba5d-8de0f524e6f5"},"vehicle_type_id":"4","last_reported":1745075307,"current_range_meters":15200,"station_id":"ce4bhn92rcd13ifvqgrg","pricing_plan_id":"cebpf4jnsgd1na2vs0mg"},{"bike_id":"1e60937b-2daf-49ec-875e-5ef1a91ea03d","system_id":"levelo_inurba_marseille","lat":43.29906,"lon":5.38129,"is_reserved":false,"is_disabled":false,"rental_uris":{"android":"levelo://app?vid=1e60937b-2daf-49ec-875e-5ef1a91ea03d","ios":"levelo://app?vid=1e60937b-2daf-49ec-875e-5ef1a91ea03d"},"vehicle_type_id":"4","last_reported":1745075307,"current_range_meters":16000,"station_id":"ce4bgj12rcd13ifvqbc0","pricing_plan_id":"cebpf4jnsgd1na2vs0mg"},{"bike_id":"15572984-94dd-404c-b34b-0eba775da91a","system_id":"levelo_inurba_marseille","lat":43.25004,"lon":5.3891,"is_reserved":false,"is_disabled":false,"rental_uris":{"android":"levelo://app?vid=15572984-94dd-404c-b34b-0eba775da91a","ios":"levelo://app?vid=15572984-94dd-404c-b34b-0eba775da91a"},"vehicle_type_id":"4","last_reported":1745075307,"current_range_meters":16000,"station_id":"ce4bhgp2rcd13ifvqfd0","pricing_plan_id":"cebpf4jnsgd1na2vs0mg"},{"bike_id":"6cddb575-9ea8-4b59-84bc-1e988babbe3d","system_id":"levelo_inurba_marseille","lat":43.25581,"lon":5.38234,"is_reserved":false,"is_disabled":false,"rental_uris":{"android":"levelo://app?vid=6cddb575-9ea8-4b59-84bc-1e988babbe3d","ios":"levelo://app?vid=6cddb575-9ea8-4b59-84bc-1e988babbe3d"},"vehicle_type_id":"4","last_reported":1745075307,"current_range_meters":16000,"station_id":"ce4bhih2rcd13ifvqfs0","pricing_plan_id":"cebpf4jnsgd1na2vs0mg"},{"bike_id":"0adb5513-68c4-46c9-ba13-6d229579eb21","system_id":"levelo_inurba_marseille","lat":43.29942,"lon":5.36545,"is_reserved":false,"is_disabled":false,"rental_uris":{"android":"levelo://app?vid=0adb5513-68c4-46c9-ba13-6d229579eb21","ios":"levelo://app?vid=0adb5513-68c4-46c9-ba13-6d229579eb21"},"vehicle_type_id":"4","last_reported":1745075307,"current_range_meters":16000,"station_id":"ce4bgm92rcd13ifvqbr0","pricing_plan_id":"cebpf4jnsgd1na2vs0mg"},{"bike_id":"33399c5a-7b71-4ae2-a964-55b2f2e618d0","system_id":"levelo_inurba_marseille","lat":43.30282,"lon":5.36567,"is_reserved":false,"is_disabled":true,"rental_uris":{"android":"levelo://app?vid=33399c5a-7b71-4ae2-a964-55b2f2e618d0","ios":"levelo://app?vid=33399c5a-7b71-4ae2-a964-55b2f2e618d0"},"vehicle_type_id":"4","last_reported":1745075307,"current_range_meters":16000,"station_id":"","pricing_plan_id":"cebpf4jnsgd1na2vs0mg"},{"bike_id":"9ebc7e6e-864c-4699-9dc4-4d6788ee2d44","system_id":"levelo_inurba_marseille","lat":43.27793,"lon":5.40661,"is_reserved":false,"is_disabled":false,"rental_uris":{"android":"levelo://app?vid=9ebc7e6e-864c-4699-9dc4-4d6788ee2d44","ios":"levelo://app?vid=9ebc7e6e-864c-4699-9dc4-4d6788ee2d44"},"vehicle_type_id":"4","last_reported":1745075307,"current_range_meters":15200,"station_id":"ce4bhnh2rcd13ifvqgtg","pricing_plan_id":"cebpf4jnsgd1na2vs0mg"},{"bike_id":"9c0493fd-4abb-4706-9263-7419b6655939","system_id":"levelo_inurba_marseille","lat":43.29795,"lon":5.40391,"is_reserved":false,"is_disabled":false,"rental_uris":{"android":"levelo://app?vid=9c0493fd-4abb-4706-9263-7419b6655939","ios":"levelo://app?vid=9c0493fd-4abb-4706-9263-7419b6655939"},"vehicle_type_id":"4","last_reported":1745075307,"current_range_meters":16000,"station_id":"ce4bh112rcd13ifvqd90","pricing_plan_id":"cebpf4jnsgd1na2vs0mg"},{"bike_id":"e4ebedad-6592-4874-ac84-098fd97b39ac","system_id":"levelo_inurba_marseille","lat":43.27062,"lon":5.40254,"is_reserved":false,"is_disabled":false,"rental_uris":{"android":"levelo://app?vid=e4ebedad-6592-4874-ac84-098fd97b39ac","ios":"levelo://app?vid=e4ebedad-6592-4874-ac84-098fd97b39ac"},"vehicle_type_id":"4","last_reported":1745075307,"current_range_meters":16000,"station_id":"ce4bhk92rcd13ifvqgc0","pricing_plan_id":"cebpf4jnsgd1na2vs0mg"},{"bike_id":"3a314526-3aad-410b-a5b7-c30391e6b4d1","system_id":"levelo_inurba_marseille","lat":43.28414,"lon":5.3498,"is_reserved":false,"is_disabled":false,"rental_uris":{"android":"levelo://app?vid=3a314526-3aad-410b-a5b7-c30391e6b4d1","ios":"levelo://app?vid=3a314526-3aad-410b-a5b7-c30391e6b4d1"},"vehicle_type_id":"4","last_reported":1745075307,"current_range_meters":16000,"station_id":"ce4bhbh2rcd13ifvqepg","pricing_plan_id":"cebpf4jnsgd1na2vs0mg"},{"bike_id":"2f70d957-db07-4b7c-a055-f35ca05b5e1b","system_id":"levelo_inurba_marseille","lat":43.23197,"lon":5.35551,"is_reserved":false,"is_disabled":false,"rental_uris":{"android":"levelo://app?vid=2f70d957-db07-4b7c-a055-f35ca05b5e1b","ios":"levelo://app?vid=2f70d957-db07-4b7c-a055-f35ca05b5e1b"},"vehicle_type_id":"4","last_reported":1745075307,"current_range_meters":16000,"station_id":"ce4bhu92rcd13ifvqi70","pricing_plan_id":"cebpf4jnsgd1na2vs0mg"},{"bike_id":"ae351816-dd57-44ea-87fb-9e5a22d4b129","system_id":"levelo_inurba_marseille","lat":43.28268,"lon":5.35074,"is_reserved":false,"is_disabled":false,"rental_uris":{"android":"levelo://app?vid=ae351816-dd57-44ea-87fb-9e5a22d4b129","ios":"levelo://app?vid=ae351816-dd57-44ea-87fb-9e5a22d4b129"},"vehicle_type_id":"4","last_reported":1745075307,"current_range_meters":16000,"station_id":"ce4bhbp2rcd13ifvqerg","pricing_plan_id":"cebpf4jnsgd1na2vs0mg"},{"bike_id":"f6302822-8453-482f-a9d5-656f7f73cf6d","system_id":"levelo_inurba_marseille","lat":43.25721,"lon":5.41115,"is_reserved":false,"is_disabled":false,"rental_uris":{"android":"levelo://app?vid=f6302822-8453-482f-a9d5-656f7f73cf6d","ios":"levelo://app?vid=f6302822-8453-482f-a9d5-656f7f73cf6d"},"vehicle_type_id":"4","last_reported":1745075307,"current_range_meters":16000,"station_id":"ce4bhkp2rcd13ifvqgd0","pricing_plan_id":"cebpf4jnsgd1na2vs0mg"},{"bike_id":"5cf6e499-8fae-43ef-b243-692569899e2c","system_id":"levelo_inurba_marseille","lat":43.29284,"lon":5.40114,"is_reserved":false,"is_disabled":false,"rental_uris":{"android":"levelo://app?vid=5cf6e499-8fae-43ef-b243-692569899e2c","ios":"levelo://app?vid=5cf6e499-8fae-43ef-b243-692569899e2c"},"vehicle_type_id":"4","last_reported":1745075307,"current_range_meters":16400,"station_id":"ce4bh312rcd13ifvqdk0","pricing_plan_id":"cebpf4jnsgd1na2vs0mg"},{"bike_id":"04774b32-6ed5-4eb4-8e68-3fe3792eaf1a","system_id":"levelo_inurba_marseille","lat":43.23967,"lon":5.36663,"is_reserved":false,"is_disabled":false,"rental_uris":{"android":"levelo://app?vid=04774b32-6ed5-4eb4-8e68-3fe3792eaf1a","ios":"levelo://app?vid=04774b32-6ed5-4eb4-8e68-3fe3792eaf1a"},"vehicle_type_id":"4","last_reported":1745075307,"current_range_meters":16400,"station_id":"ce4bhi12rcd13ifvqfp0","pricing_plan_id":"cebpf4jnsgd1na2vs0mg"},{"bike_id":"6c90b47c-6cba-48f9-be86-a44fa8530bd2","system_id":"levelo_inurba_marseille","lat":43.28153,"lon":5.42653,"is_reserved":false,"is_disabled":false,"rental_uris":{"android":"levelo://app?vid=6c90b47c-6cba-48f9-be86-a44fa8530bd2","ios":"levelo://app?vid=6c90b47c-6cba-48f9-be86-a44fa8530bd2"},"vehicle_type_id":"4","last_reported":1745075307,"current_range_meters":16400,"station_id":"ce4bhnh2rcd13ifvqgug","pricing_plan_id":"cebpf4jnsgd1na2vs0mg"},{"bike_id":"2d6f7e40-7200-40a9-a8b4-282fa7859eea","system_id":"levelo_inurba_marseille","lat":43.28404,"lon":5.37507,"is_reserved":false,"is_disabled":false,"rental_uris":{"android":"levelo://app?vid=2d6f7e40-7200-40a9-a8b4-282fa7859eea","ios":"levelo://app?vid=2d6f7e40-7200-40a9-a8b4-282fa7859eea"},"vehicle_type_id":"4","last_reported":1745075307,"current_range_meters":16400,"station_id":"ce4bh412rcd13ifvqds0","pricing_plan_id":"cebpf4jnsgd1na2vs0mg"},{"bike_id":"33d5fe89-db53-4ec2-aa40-53103fd8bd6c","system_id":"levelo_inurba_marseille","lat":43.30431,"lon":5.39759,"is_reserved":false,"is_disabled":false,"rental_uris":{"android":"levelo://app?vid=33d5fe89-db53-4ec2-aa40-53103fd8bd6c","ios":"levelo://app?vid=33d5fe89-db53-4ec2-aa40-53103fd8bd6c"},"vehicle_type_id":"4","last_reported":1745075307,"current_range_meters":16400,"station_id":"ce4bh092rcd13ifvqd20","pricing_plan_id":"cebpf4jnsgd1na2vs0mg"},{"bike_id":"4bd97418-6c68-4547-b588-cc586a7d224a","system_id":"levelo_inurba_marseille","lat":43.27318,"lon":5.39071,"is_reserved":false,"is_disabled":false,"rental_uris":{"android":"levelo://app?vid=4bd97418-6c68-4547-b588-cc586a7d224a","ios":"levelo://app?vid=4bd97418-6c68-4547-b588-cc586a7d224a"},"vehicle_type_id":"4","last_reported":1745075307,"current_range_meters":16400,"station_id":"ce4bhgp2rcd13ifvqfe0","pricing_plan_id":"cebpf4jnsgd1na2vs0mg"},{"bike_id":"fc8dedeb-2ba1-42a0-a75d-d12d0b71318a","system_id":"levelo_inurba_marseille","lat":43.22934,"lon":5.35379,"is_reserved":false,"is_disabled":false,"rental_uris":{"android":"levelo://app?vid=fc8dedeb-2ba1-42a0-a75d-d12d0b71318a","ios":"levelo://app?vid=fc8dedeb-2ba1-42a0-a75d-d12d0b71318a"},"vehicle_type_id":"4","last_reported":1745075307,"current_range_meters":16800,"station_id":"cpo3532slgdg3j2ikp40","pricing_plan_id":"cebpf4jnsgd1na2vs0mg"},{"bike_id":"a40db87b-fd7c-42cf-8278-44428097942a","system_id":"levelo_inurba_marseille","lat":43.255829,"lon":5.382288,"is_reserved":false,"is_disabled":false,"rental_uris":{"android":"levelo://app?vid=a40db87b-fd7c-42cf-8278-44428097942a","ios":"levelo://app?vid=a40db87b-fd7c-42cf-8278-44428097942a"},"vehicle_type_id":"4","last_reported":1745075307,"current_range_meters":16800,"station_id":"ce4bhih2rcd13ifvqfs0","pricing_plan_id":"cebpf4jnsgd1na2vs0mg"},{"bike_id":"72cdfd39-50a8-4e5e-8ff6-c5dc20433257","system_id":"levelo_inurba_marseille","lat":43.28268,"lon":5.35068,"is_reserved":false,"is_disabled":false,"rental_uris":{"android":"levelo://app?vid=72cdfd39-50a8-4e5e-8ff6-c5dc20433257","ios":"levelo://app?vid=72cdfd39-50a8-4e5e-8ff6-c5dc20433257"},"vehicle_type_id":"4","last_reported":1745075307,"current_range_meters":16800,"station_id":"ce4bhbp2rcd13ifvqerg","pricing_plan_id":"cebpf4jnsgd1na2vs0mg"},{"bike_id":"adef6aa8-ca8e-4f54-bd71-2f04891b657c","system_id":"levelo_inurba_marseille","lat":43.30118,"lon":5.38045,"is_reserved":false,"is_disabled":false,"rental_uris":{"android":"levelo://app?vid=adef6aa8-ca8e-4f54-bd71-2f04891b657c","ios":"levelo://app?vid=adef6aa8-ca8e-4f54-bd71-2f04891b657c"},"vehicle_type_id":"4","last_reported":1745075307,"current_range_meters":16800,"station_id":"ce4bgjp2rcd13ifvqbh0","pricing_plan_id":"cebpf4jnsgd1na2vs0mg"},{"bike_id":"3ce33f55-eaea-4767-9178-711f59e9f83b","system_id":"levelo_inurba_marseille","lat":43.2175,"lon":5.34598,"is_reserved":false,"is_disabled":false,"rental_uris":{"android":"levelo://app?vid=3ce33f55-eaea-4767-9178-711f59e9f83b","ios":"levelo://app?vid=3ce33f55-eaea-4767-9178-711f59e9f83b"},"vehicle_type_id":"4","last_reported":1745075307,"current_range_meters":16800,"station_id":"st_cvj6r9ubvosntc0bgbag","pricing_plan_id":"cebpf4jnsgd1na2vs0mg"},{"bike_id":"d1a906c5-f9bf-4b81-9c99-4306ed72880b","system_id":"levelo_inurba_marseille","lat":43.21198,"lon":5.35091,"is_reserved":false,"is_disabled":false,"rental_uris":{"android":"levelo://app?vid=d1a906c5-f9bf-4b81-9c99-4306ed72880b","ios":"levelo://app?vid=d1a906c5-f9bf-4b81-9c99-4306ed72880b"},"vehicle_type_id":"4","last_reported":1745075307,"current_range_meters":16800,"station_id":"st_cvj6sg6p6f1abm77japg","pricing_plan_id":"cebpf4jnsgd1na2vs0mg"},{"bike_id":"b8adf5ba-9520-4b92-8108-37f9b7c240aa","system_id":"levelo_inurba_marseille","lat":43.23056,"lon":5.35499,"is_reserved":false,"is_disabled":false,"rental_uris":{"android":"levelo://app?vid=b8adf5ba-9520-4b92-8108-37f9b7c240aa","ios":"levelo://app?vid=b8adf5ba-9520-4b92-8108-37f9b7c240aa"},"vehicle_type_id":"4","last_reported":1745075307,"current_range_meters":17200,"station_id":"cpo3342slgdg3j2ifvpg","pricing_plan_id":"cebpf4jnsgd1na2vs0mg"},{"bike_id":"1b046391-9d49-435a-8504-924fd0e14bbb","system_id":"levelo_inurba_marseille","lat":43.29536,"lon":5.38542,"is_reserved":false,"is_disabled":false,"rental_uris":{"android":"levelo://app?vid=1b046391-9d49-435a-8504-924fd0e14bbb","ios":"levelo://app?vid=1b046391-9d49-435a-8504-924fd0e14bbb"},"vehicle_type_id":"4","last_reported":1745075307,"current_range_meters":17200,"station_id":"ce4bgih2rcd13ifvqba0","pricing_plan_id":"cebpf4jnsgd1na2vs0mg"},{"bike_id":"2d20be7e-6735-4be6-81e2-7a0dc34eba95","system_id":"levelo_inurba_marseille","lat":43.32107,"lon":5.36758,"is_reserved":false,"is_disabled":false,"rental_uris":{"android":"levelo://app?vid=2d20be7e-6735-4be6-81e2-7a0dc34eba95","ios":"levelo://app?vid=2d20be7e-6735-4be6-81e2-7a0dc34eba95"},"vehicle_type_id":"4","last_reported":1745075307,"current_range_meters":17200,"station_id":"ce4bhrh2rcd13ifvqhug","pricing_plan_id":"cebpf4jnsgd1na2vs0mg"},{"bike_id":"1918c1f4-5b0c-4292-b6f0-ad44b4037e15","system_id":"levelo_inurba_marseille","lat":43.28262,"lon":5.35062,"is_reserved":false,"is_disabled":false,"rental_uris":{"android":"levelo://app?vid=1918c1f4-5b0c-4292-b6f0-ad44b4037e15","ios":"levelo://app?vid=1918c1f4-5b0c-4292-b6f0-ad44b4037e15"},"vehicle_type_id":"4","last_reported":1745075307,"current_range_meters":17200,"station_id":"ce4bhbp2rcd13ifvqerg","pricing_plan_id":"cebpf4jnsgd1na2vs0mg"},{"bike_id":"d35d0f85-f00c-4a65-b550-2fb004a0ef99","system_id":"levelo_inurba_marseille","lat":43.23961,"lon":5.36638,"is_reserved":false,"is_disabled":false,"rental_uris":{"android":"levelo://app?vid=d35d0f85-f00c-4a65-b550-2fb004a0ef99","ios":"levelo://app?vid=d35d0f85-f00c-4a65-b550-2fb004a0ef99"},"vehicle_type_id":"4","last_reported":1745075307,"current_range_meters":17200,"station_id":"ce4bhi12rcd13ifvqfp0","pricing_plan_id":"cebpf4jnsgd1na2vs0mg"},{"bike_id":"77aa1dbd-6da9-4842-a37b-7c3e9f693271","system_id":"levelo_inurba_marseille","lat":43.29254,"lon":5.37617,"is_reserved":false,"is_disabled":false,"rental_uris":{"android":"levelo://app?vid=77aa1dbd-6da9-4842-a37b-7c3e9f693271","ios":"levelo://app?vid=77aa1dbd-6da9-4842-a37b-7c3e9f693271"},"vehicle_type_id":"4","last_reported":1745075307,"current_range_meters":17600,"station_id":"ce4bgi12rcd13ifvqb80","pricing_plan_id":"cebpf4jnsgd1na2vs0mg"},{"bike_id":"bc13e988-5248-4aa1-83de-ba0e22e6793d","system_id":"levelo_inurba_marseille","lat":43.27476,"lon":5.42434,"is_reserved":false,"is_disabled":false,"rental_uris":{"android":"levelo://app?vid=bc13e988-5248-4aa1-83de-ba0e22e6793d","ios":"levelo://app?vid=bc13e988-5248-4aa1-83de-ba0e22e6793d"},"vehicle_type_id":"4","last_reported":1745075307,"current_range_meters":17600,"station_id":"ce4bhn92rcd13ifvqgrg","pricing_plan_id":"cebpf4jnsgd1na2vs0mg"},{"bike_id":"f96cca1c-4e16-4641-baf8-26559b52afae","system_id":"levelo_inurba_marseille","lat":43.21759,"lon":5.34607,"is_reserved":false,"is_disabled":false,"rental_uris":{"android":"levelo://app?vid=f96cca1c-4e16-4641-baf8-26559b52afae","ios":"levelo://app?vid=f96cca1c-4e16-4641-baf8-26559b52afae"},"vehicle_type_id":"4","last_reported":1745075307,"current_range_meters":17600,"station_id":"st_cvj6r9ubvosntc0bgbag","pricing_plan_id":"cebpf4jnsgd1na2vs0mg"},{"bike_id":"c3b901f2-eea1-4b1b-a587-da68796434ac","system_id":"levelo_inurba_marseille","lat":43.28266,"lon":5.35078,"is_reserved":false,"is_disabled":false,"rental_uris":{"android":"levelo://app?vid=c3b901f2-eea1-4b1b-a587-da68796434ac","ios":"levelo://app?vid=c3b901f2-eea1-4b1b-a587-da68796434ac"},"vehicle_type_id":"4","last_reported":1745075307,"current_range_meters":17600,"station_id":"ce4bhbp2rcd13ifvqerg","pricing_plan_id":"cebpf4jnsgd1na2vs0mg"},{"bike_id":"1f00d0e1-b276-4aa3-9a76-b0c2262473ce","system_id":"levelo_inurba_marseille","lat":43.2827,"lon":5.35071,"is_reserved":false,"is_disabled":false,"rental_uris":{"android":"levelo://app?vid=1f00d0e1-b276-4aa3-9a76-b0c2262473ce","ios":"levelo://app?vid=1f00d0e1-b276-4aa3-9a76-b0c2262473ce"},"vehicle_type_id":"4","last_reported":1745075307,"current_range_meters":17600,"station_id":"ce4bhbp2rcd13ifvqerg","pricing_plan_id":"cebpf4jnsgd1na2vs0mg"},{"bike_id":"1cf14f2c-9389-4ac4-9480-50442ed1bab2","system_id":"levelo_inurba_marseille","lat":43.29637,"lon":5.40596,"is_reserved":false,"is_disabled":false,"rental_uris":{"android":"levelo://app?vid=1cf14f2c-9389-4ac4-9480-50442ed1bab2","ios":"levelo://app?vid=1cf14f2c-9389-4ac4-9480-50442ed1bab2"},"vehicle_type_id":"4","last_reported":1745075307,"current_range_meters":17600,"station_id":"ce4bh0h2rcd13ifvqd60","pricing_plan_id":"cebpf4jnsgd1na2vs0mg"},{"bike_id":"6019390b-7088-4c04-b80b-2acf1cb29041","system_id":"levelo_inurba_marseille","lat":43.29417,"lon":5.41255,"is_reserved":false,"is_disabled":false,"rental_uris":{"android":"levelo://app?vid=6019390b-7088-4c04-b80b-2acf1cb29041","ios":"levelo://app?vid=6019390b-7088-4c04-b80b-2acf1cb29041"},"vehicle_type_id":"4","last_reported":1745075307,"current_range_meters":18000,"station_id":"","pricing_plan_id":"cebpf4jnsgd1na2vs0mg"},{"bike_id":"b38092aa-515f-4ed2-9d7e-27300b2de1d0","system_id":"levelo_inurba_marseille","lat":43.28631,"lon":5.35109,"is_reserved":false,"is_disabled":false,"rental_uris":{"android":"levelo://app?vid=b38092aa-515f-4ed2-9d7e-27300b2de1d0","ios":"levelo://app?vid=b38092aa-515f-4ed2-9d7e-27300b2de1d0"},"vehicle_type_id":"4","last_reported":1745075307,"current_range_meters":18000,"station_id":"ce4bhch2rcd13ifvqeug","pricing_plan_id":"cebpf4jnsgd1na2vs0mg"},{"bike_id":"c7602192-23fd-471d-aa7d-ff57d448fb0d","system_id":"levelo_inurba_marseille","lat":43.26231,"lon":5.37939,"is_reserved":false,"is_disabled":false,"rental_uris":{"android":"levelo://app?vid=c7602192-23fd-471d-aa7d-ff57d448fb0d","ios":"levelo://app?vid=c7602192-23fd-471d-aa7d-ff57d448fb0d"},"vehicle_type_id":"4","last_reported":1745075307,"current_range_meters":18000,"station_id":"ce4bhjp2rcd13ifvqg90","pricing_plan_id":"cebpf4jnsgd1na2vs0mg"},{"bike_id":"d5bf3e51-83b4-419b-b784-58ab0f4a9ad2","system_id":"levelo_inurba_marseille","lat":43.2121,"lon":5.35081,"is_reserved":false,"is_disabled":false,"rental_uris":{"android":"levelo://app?vid=d5bf3e51-83b4-419b-b784-58ab0f4a9ad2","ios":"levelo://app?vid=d5bf3e51-83b4-419b-b784-58ab0f4a9ad2"},"vehicle_type_id":"4","last_reported":1745075307,"current_range_meters":18000,"station_id":"st_cvj6sg6p6f1abm77japg","pricing_plan_id":"cebpf4jnsgd1na2vs0mg"},{"bike_id":"61c19874-3e66-446b-9461-be09cac8be18","system_id":"levelo_inurba_marseille","lat":43.26197,"lon":5.4044,"is_reserved":false,"is_disabled":false,"rental_uris":{"android":"levelo://app?vid=61c19874-3e66-446b-9461-be09cac8be18","ios":"levelo://app?vid=61c19874-3e66-446b-9461-be09cac8be18"},"vehicle_type_id":"4","last_reported":1745075307,"current_range_meters":18000,"station_id":"ce4bhmh2rcd13ifvqgmg","pricing_plan_id":"cebpf4jnsgd1na2vs0mg"},{"bike_id":"9603ff3b-07bc-4690-8653-8beb64818890","system_id":"levelo_inurba_marseille","lat":43.2827,"lon":5.35062,"is_reserved":false,"is_disabled":false,"rental_uris":{"android":"levelo://app?vid=9603ff3b-07bc-4690-8653-8beb64818890","ios":"levelo://app?vid=9603ff3b-07bc-4690-8653-8beb64818890"},"vehicle_type_id":"4","last_reported":1745075307,"current_range_meters":18000,"station_id":"ce4bhbp2rcd13ifvqerg","pricing_plan_id":"cebpf4jnsgd1na2vs0mg"},{"bike_id":"fb55fd7f-f98d-4b86-9d3a-f73341e6e905","system_id":"levelo_inurba_marseille","lat":43.26947,"lon":5.402529,"is_reserved":false,"is_disabled":false,"rental_uris":{"android":"levelo://app?vid=fb55fd7f-f98d-4b86-9d3a-f73341e6e905","ios":"levelo://app?vid=fb55fd7f-f98d-4b86-9d3a-f73341e6e905"},"vehicle_type_id":"4","last_reported":1745075307,"current_range_meters":18000,"station_id":"cjm6bp8fraef2m0cb0m0","pricing_plan_id":"cebpf4jnsgd1na2vs0mg"},{"bike_id":"354c0299-f5aa-4370-a4f1-4d9e54752dcf","system_id":"levelo_inurba_marseille","lat":43.28271,"lon":5.35068,"is_reserved":false,"is_disabled":false,"rental_uris":{"android":"levelo://app?vid=354c0299-f5aa-4370-a4f1-4d9e54752dcf","ios":"levelo://app?vid=354c0299-f5aa-4370-a4f1-4d9e54752dcf"},"vehicle_type_id":"4","last_reported":1745075307,"current_range_meters":18000,"station_id":"ce4bhbp2rcd13ifvqerg","pricing_plan_id":"cebpf4jnsgd1na2vs0mg"},{"bike_id":"8199e302-7b4f-49e5-a95f-f097de738c0e","system_id":"levelo_inurba_marseille","lat":43.21763,"lon":5.34608,"is_reserved":false,"is_disabled":false,"rental_uris":{"android":"levelo://app?vid=8199e302-7b4f-49e5-a95f-f097de738c0e","ios":"levelo://app?vid=8199e302-7b4f-49e5-a95f-f097de738c0e"},"vehicle_type_id":"4","last_reported":1745075307,"current_range_meters":18000,"station_id":"st_cvj6r9ubvosntc0bgbag","pricing_plan_id":"cebpf4jnsgd1na2vs0mg"},{"bike_id":"7a222d92-6e6f-4908-89c4-6b078d555926","system_id":"levelo_inurba_marseille","lat":43.28267,"lon":5.35063,"is_reserved":false,"is_disabled":false,"rental_uris":{"android":"levelo://app?vid=7a222d92-6e6f-4908-89c4-6b078d555926","ios":"levelo://app?vid=7a222d92-6e6f-4908-89c4-6b078d555926"},"vehicle_type_id":"4","last_reported":1745075307,"current_range_meters":18000,"station_id":"ce4bhbp2rcd13ifvqerg","pricing_plan_id":"cebpf4jnsgd1na2vs0mg"},{"bike_id":"c954a386-c510-42e9-932e-deb5aad8f1fb","system_id":"levelo_inurba_marseille","lat":43.32541,"lon":5.4145,"is_reserved":false,"is_disabled":false,"rental_uris":{"android":"levelo://app?vid=c954a386-c510-42e9-932e-deb5aad8f1fb","ios":"levelo://app?vid=c954a386-c510-42e9-932e-deb5aad8f1fb"},"vehicle_type_id":"4","last_reported":1745075307,"current_range_meters":18000,"station_id":"ce4bhq12rcd13ifvqhhg","pricing_plan_id":"cebpf4jnsgd1na2vs0mg"},{"bike_id":"a01bb721-cc12-4493-8b9c-f82903798be2","system_id":"levelo_inurba_marseille","lat":43.29195,"lon":5.35808,"is_reserved":false,"is_disabled":false,"rental_uris":{"android":"levelo://app?vid=a01bb721-cc12-4493-8b9c-f82903798be2","ios":"levelo://app?vid=a01bb721-cc12-4493-8b9c-f82903798be2"},"vehicle_type_id":"4","last_reported":1745075307,"current_range_meters":18800,"station_id":"ce4bhb12rcd13ifvqel0","pricing_plan_id":"cebpf4jnsgd1na2vs0mg"},{"bike_id":"d270a42e-c807-4c3c-a9d3-d1140f2657b3","system_id":"levelo_inurba_marseille","lat":43.284213,"lon":5.375193,"is_reserved":false,"is_disabled":false,"rental_uris":{"android":"levelo://app?vid=d270a42e-c807-4c3c-a9d3-d1140f2657b3","ios":"levelo://app?vid=d270a42e-c807-4c3c-a9d3-d1140f2657b3"},"vehicle_type_id":"4","last_reported":1745075307,"current_range_meters":18800,"station_id":"ce4bh412rcd13ifvqds0","pricing_plan_id":"cebpf4jnsgd1na2vs0mg"},{"bike_id":"c6f2129f-463b-483b-b586-45c539ecc014","system_id":"levelo_inurba_marseille","lat":43.27197,"lon":5.40992,"is_reserved":false,"is_disabled":false,"rental_uris":{"android":"levelo://app?vid=c6f2129f-463b-483b-b586-45c539ecc014","ios":"levelo://app?vid=c6f2129f-463b-483b-b586-45c539ecc014"},"vehicle_type_id":"4","last_reported":1745075307,"current_range_meters":18000,"station_id":"ce4bhl12rcd13ifvqgf0","pricing_plan_id":"cebpf4jnsgd1na2vs0mg"},{"bike_id":"b22951e8-1d1a-4bdb-977e-514a9157d761","system_id":"levelo_inurba_marseille","lat":43.301453,"lon":5.380817,"is_reserved":false,"is_disabled":false,"rental_uris":{"android":"levelo://app?vid=b22951e8-1d1a-4bdb-977e-514a9157d761","ios":"levelo://app?vid=b22951e8-1d1a-4bdb-977e-514a9157d761"},"vehicle_type_id":"4","last_reported":1745075307,"current_range_meters":18800,"station_id":"ce4bgjp2rcd13ifvqbh0","pricing_plan_id":"cebpf4jnsgd1na2vs0mg"},{"bike_id":"f7027e6a-48d2-4cae-b50c-97b01f670552","system_id":"levelo_inurba_marseille","lat":43.23966,"lon":5.36628,"is_reserved":false,"is_disabled":false,"rental_uris":{"android":"levelo://app?vid=f7027e6a-48d2-4cae-b50c-97b01f670552","ios":"levelo://app?vid=f7027e6a-48d2-4cae-b50c-97b01f670552"},"vehicle_type_id":"4","last_reported":1745075307,"current_range_meters":18800,"station_id":"ce4bhi12rcd13ifvqfp0","pricing_plan_id":"cebpf4jnsgd1na2vs0mg"},{"bike_id":"93e126b8-ee89-40c5-ba5c-ce2b65e91a69","system_id":"levelo_inurba_marseille","lat":43.28465,"lon":5.3589,"is_reserved":false,"is_disabled":false,"rental_uris":{"android":"levelo://app?vid=93e126b8-ee89-40c5-ba5c-ce2b65e91a69","ios":"levelo://app?vid=93e126b8-ee89-40c5-ba5c-ce2b65e91a69"},"vehicle_type_id":"4","last_reported":1745075307,"current_range_meters":18800,"station_id":"ce4bhah2rcd13ifvqei0","pricing_plan_id":"cebpf4jnsgd1na2vs0mg"},{"bike_id":"7d28bf23-bfe0-45d0-a2d7-4f2ce3bcb384","system_id":"levelo_inurba_marseille","lat":43.28292,"lon":5.35088,"is_reserved":false,"is_disabled":false,"rental_uris":{"android":"levelo://app?vid=7d28bf23-bfe0-45d0-a2d7-4f2ce3bcb384","ios":"levelo://app?vid=7d28bf23-bfe0-45d0-a2d7-4f2ce3bcb384"},"vehicle_type_id":"4","last_reported":1745075307,"current_range_meters":18800,"station_id":"ce4bhbp2rcd13ifvqerg","pricing_plan_id":"cebpf4jnsgd1na2vs0mg"},{"bike_id":"0cda20c8-2f2b-492b-9725-0d2e75c7c5c9","system_id":"levelo_inurba_marseille","lat":43.27614,"lon":5.36103,"is_reserved":false,"is_disabled":false,"rental_uris":{"android":"levelo://app?vid=0cda20c8-2f2b-492b-9725-0d2e75c7c5c9","ios":"levelo://app?vid=0cda20c8-2f2b-492b-9725-0d2e75c7c5c9"},"vehicle_type_id":"4","last_reported":1745075307,"current_range_meters":18800,"station_id":"ce4bgj92rcd13ifvqbe0","pricing_plan_id":"cebpf4jnsgd1na2vs0mg"},{"bike_id":"20e1c3b0-02eb-4fb1-95f0-a9b273b7cd01","system_id":"levelo_inurba_marseille","lat":43.2176,"lon":5.34602,"is_reserved":false,"is_disabled":false,"rental_uris":{"android":"levelo://app?vid=20e1c3b0-02eb-4fb1-95f0-a9b273b7cd01","ios":"levelo://app?vid=20e1c3b0-02eb-4fb1-95f0-a9b273b7cd01"},"vehicle_type_id":"4","last_reported":1745075307,"current_range_meters":18800,"station_id":"st_cvj6r9ubvosntc0bgbag","pricing_plan_id":"cebpf4jnsgd1na2vs0mg"},{"bike_id":"d53e964c-f934-484c-a259-3e8f23cdd819","system_id":"levelo_inurba_marseille","lat":43.3373,"lon":5.39202,"is_reserved":false,"is_disabled":false,"rental_uris":{"android":"levelo://app?vid=d53e964c-f934-484c-a259-3e8f23cdd819","ios":"levelo://app?vid=d53e964c-f934-484c-a259-3e8f23cdd819"},"vehicle_type_id":"4","last_reported":1745075307,"current_range_meters":19200,"station_id":"ce4bhr92rcd13ifvqhsg","pricing_plan_id":"cebpf4jnsgd1na2vs0mg"},{"bike_id":"b8cb3c1a-5336-434f-abdc-d972c10d64e2","system_id":"levelo_inurba_marseille","lat":43.27811,"lon":5.40714,"is_reserved":false,"is_disabled":false,"rental_uris":{"android":"levelo://app?vid=b8cb3c1a-5336-434f-abdc-d972c10d64e2","ios":"levelo://app?vid=b8cb3c1a-5336-434f-abdc-d972c10d64e2"},"vehicle_type_id":"4","last_reported":1745075307,"current_range_meters":19200,"station_id":"ce4bhnh2rcd13ifvqgtg","pricing_plan_id":"cebpf4jnsgd1na2vs0mg"},{"bike_id":"c18778a1-76a4-44f3-ba2a-f9d3b7b6ae3b","system_id":"levelo_inurba_marseille","lat":43.33687,"lon":5.39176,"is_reserved":false,"is_disabled":false,"rental_uris":{"android":"levelo://app?vid=c18778a1-76a4-44f3-ba2a-f9d3b7b6ae3b","ios":"levelo://app?vid=c18778a1-76a4-44f3-ba2a-f9d3b7b6ae3b"},"vehicle_type_id":"4","last_reported":1745075307,"current_range_meters":19200,"station_id":"ce4bhr92rcd13ifvqhsg","pricing_plan_id":"cebpf4jnsgd1na2vs0mg"},{"bike_id":"7d29063e-cc47-43de-9fe3-33b900004d65","system_id":"levelo_inurba_marseille","lat":43.21193,"lon":5.3511,"is_reserved":false,"is_disabled":false,"rental_uris":{"android":"levelo://app?vid=7d29063e-cc47-43de-9fe3-33b900004d65","ios":"levelo://app?vid=7d29063e-cc47-43de-9fe3-33b900004d65"},"vehicle_type_id":"4","last_reported":1745075307,"current_range_meters":19200,"station_id":"st_cvj6sg6p6f1abm77japg","pricing_plan_id":"cebpf4jnsgd1na2vs0mg"},{"bike_id":"b4ab11d9-122e-41c8-9f6b-cd521873cc1b","system_id":"levelo_inurba_marseille","lat":43.28618,"lon":5.35101,"is_reserved":false,"is_disabled":false,"rental_uris":{"android":"levelo://app?vid=b4ab11d9-122e-41c8-9f6b-cd521873cc1b","ios":"levelo://app?vid=b4ab11d9-122e-41c8-9f6b-cd521873cc1b"},"vehicle_type_id":"4","last_reported":1745075307,"current_range_meters":19200,"station_id":"ce4bhch2rcd13ifvqeug","pricing_plan_id":"cebpf4jnsgd1na2vs0mg"},{"bike_id":"0841b7fb-0d7a-4c49-978e-51bef02c4c8c","system_id":"levelo_inurba_marseille","lat":43.28412,"lon":5.34982,"is_reserved":false,"is_disabled":false,"rental_uris":{"android":"levelo://app?vid=0841b7fb-0d7a-4c49-978e-51bef02c4c8c","ios":"levelo://app?vid=0841b7fb-0d7a-4c49-978e-51bef02c4c8c"},"vehicle_type_id":"4","last_reported":1745075307,"current_range_meters":19200,"station_id":"ce4bhbh2rcd13ifvqepg","pricing_plan_id":"cebpf4jnsgd1na2vs0mg"},{"bike_id":"266b6712-c532-4ce7-8660-bd6cfe99f339","system_id":"levelo_inurba_marseille","lat":43.29197,"lon":5.35816,"is_reserved":false,"is_disabled":false,"rental_uris":{"android":"levelo://app?vid=266b6712-c532-4ce7-8660-bd6cfe99f339","ios":"levelo://app?vid=266b6712-c532-4ce7-8660-bd6cfe99f339"},"vehicle_type_id":"4","last_reported":1745075307,"current_range_meters":19600,"station_id":"ce4bhb12rcd13ifvqel0","pricing_plan_id":"cebpf4jnsgd1na2vs0mg"},{"bike_id":"ea59977c-78b6-403b-aa8e-1d094aedefb2","system_id":"levelo_inurba_marseille","lat":43.21749,"lon":5.34603,"is_reserved":false,"is_disabled":false,"rental_uris":{"android":"levelo://app?vid=ea59977c-78b6-403b-aa8e-1d094aedefb2","ios":"levelo://app?vid=ea59977c-78b6-403b-aa8e-1d094aedefb2"},"vehicle_type_id":"4","last_reported":1745075307,"current_range_meters":19600,"station_id":"","pricing_plan_id":"cebpf4jnsgd1na2vs0mg"},{"bike_id":"22fca1bd-ae7b-4165-9a28-dd4ca2d86ad0","system_id":"levelo_inurba_marseille","lat":43.21194,"lon":5.35066,"is_reserved":false,"is_disabled":false,"rental_uris":{"android":"levelo://app?vid=22fca1bd-ae7b-4165-9a28-dd4ca2d86ad0","ios":"levelo://app?vid=22fca1bd-ae7b-4165-9a28-dd4ca2d86ad0"},"vehicle_type_id":"4","last_reported":1745075307,"current_range_meters":19600,"station_id":"st_cvj6sg6p6f1abm77japg","pricing_plan_id":"cebpf4jnsgd1na2vs0mg"},{"bike_id":"b8808bd5-b66c-42b1-8122-616501d1d082","system_id":"levelo_inurba_marseille","lat":43.21775,"lon":5.34608,"is_reserved":false,"is_disabled":false,"rental_uris":{"android":"levelo://app?vid=b8808bd5-b66c-42b1-8122-616501d1d082","ios":"levelo://app?vid=b8808bd5-b66c-42b1-8122-616501d1d082"},"vehicle_type_id":"4","last_reported":1745075307,"current_range_meters":19600,"station_id":"st_cvj6r9ubvosntc0bgbag","pricing_plan_id":"cebpf4jnsgd1na2vs0mg"},