{"last_updated":1702336035,"ttl":30,"version":"2.2","data":{"bikes":[{"bike_id":"1a902f44-45c3-47ef-819d-3e0f67a515ca","system_id":"levelo_inurba_marseille","lat":43.309076,"lon":5.368465,"is_reserved":false,"is_disabled":false,"rental_uris":{"android":"levelo://app?vid=1a902f44-45c3-47ef-819d-3e0f67a515ca","ios":"levelo://app?vid=1a902f44-45c3-47ef-819d-3e0f67a515ca"},"vehicle_type_id":"4","last_reported":1702336035,"current_range_meters":24400,"station_id":"ce4bgn92rcd13ifvqbvg","pricing_plan_id":"free"},{"bike_id":"5d80aaae-25c0-4855-8980-90f82337c0dd","system_id":"levelo_inurba_marseille","lat":43.314811,"lon":5.373103,"is_reserved":false,"is_disabled":false,"rental_uris":{"android":"levelo://app?vid=5d80aaae-25c0-4855-8980-90f82337c0dd","ios":"levelo://app?vid=5d80aaae-25c0-4855-8980-90f82337c0dd"},"vehicle_type_id":"4","last_reported":1702336035,"current_range_meters":20000,"station_id":"ce4bgt12rcd13ifvqcd0","pricing_plan_id":"free"},{"bike_id":"89fce6f2-e1a8-40e9-8e37-2dbc347a9d0a","system_id":"levelo_inurba_marseille","lat":43.314811,"lon":5.373103,"is_reserved":false,"is_disabled":false,"rental_uris":{"android":"levelo://app?vid=89fce6f2-e1a8-40e9-8e37-2dbc347a9d0a","ios":"levelo://app?vid=89fce6f2-e1a8-40e9-8e37-2dbc347a9d0a"},"vehicle_type_id":"4","last_reported":1702336035,"current_range_meters":30400,"station_id":"ce4bgt12rcd13ifvqcd0","pricing_plan_id":"free"},{"bike_id":"d2967d96-b6c4-4805-9df6-994b727ea616","system_id":"levelo_inurba_marseille","lat":43.314811,"lon":5.373104,"is_reserved":false,"is_disabled":false,"rental_uris":{"android":"levelo://app?vid=d2967d96-b6c4-4805-9df6-994b727ea616","ios":"levelo://app?vid=d2967d96-b6c4-4805-9df6-994b727ea616"},"vehicle_type_id":"4","last_reported":1702336035,"current_range_meters":13200,"station_id":"ce4bgt12rcd13ifvqcd0","pricing_plan_id":"free"},{"bike_id":"5e9914f7-6cbc-4a45-8b28-8f6555ab9ae2","system_id":"levelo_inurba_marseille","lat":43.309039,"lon":5.371797,"is_reserved":false,"is_disabled":false,"rental_uris":{"android":"levelo://app?vid=5e9914f7-6cbc-4a45-8b28-8f6555ab9ae2","ios":"levelo://app?vid=5e9914f7-6cbc-4a45-8b28-8f6555ab9ae2"},"vehicle_type_id":"4","last_reported":1702336035,"current_range_meters":27200,"station_id":"ce4bguh2rcd13ifvqckg","pricing_plan_id":"free"},{"bike_id":"f8ccbd1b-ac6e-49ad-a19f-6141694a2ce0","system_id":"levelo_inurba_marseille","lat":43.305989,"lon":5.37225,"is_reserved":false,"is_disabled":false,"rental_uris":{"android":"levelo://app?vid=f8ccbd1b-ac6e-49ad-a19f-6141694a2ce0","ios":"levelo://app?vid=f8ccbd1b-ac6e-49ad-a19f-6141694a2ce0"},"vehicle_type_id":"4","last_reported":1702336035,"current_range_meters":26400,"station_id":"ce4bgqh2rcd13ifvqc4g","pricing_plan_id":"free"},{"bike_id":"a0608518-dfd7-4779-b1ae-683c98fcac32","system_id":"levelo_inurba_marseille","lat":43.311125,"lon":5.377624,"is_reserved":false,"is_disabled":false,"rental_uris":{"android":"levelo://app?vid=a0608518-dfd7-4779-b1ae-683c98fcac32","ios":"levelo://app?vid=a0608518-dfd7-4779-b1ae-683c98fcac32"},"vehicle_type_id":"4","last_reported":1702336035,"current_range_meters":22800,"station_id":"ce4bgt92rcd13ifvqcg0","pricing_plan_id":"free"},{"bike_id":"cd56c36b-c46a-4c79-8849-f952373aa79b","system_id":"levelo_inurba_marseille","lat":43.307945,"lon":5.376487,"is_reserved":false,"is_disabled":false,"rental_uris":{"android":"levelo://app?vid=cd56c36b-c46a-4c79-8849-f952373aa79b","ios":"levelo://app?vid=cd56c36b-c46a-4c79-8849-f952373aa79b"},"vehicle_type_id":"4","last_reported":1702336035,"current_range_meters":30800,"station_id":"ce4bgv92rcd13ifvqcq0","pricing_plan_id":"free"},{"bike_id":"01793230-e62c-4c90-94bf-38c2f6dbb101","system_id":"levelo_inurba_marseille","lat":43.307945,"lon":5.376487,"is_reserved":false,"is_disabled":false,"rental_uris":{"android":"levelo://app?vid=01793230-e62c-4c90-94bf-38c2f6dbb101","ios":"levelo://app?vid=01793230-e62c-4c90-94bf-38c2f6dbb101"},"vehicle_type_id":"4","last_reported":1702336035,"current_range_meters":12000,"station_id":"ce4bgv92rcd13ifvqcq0","pricing_plan_id":"free"},{"bike_id":"436f3dca-d029-4bd5-bce9-68363b4f344f","system_id":"levelo_inurba_marseille","lat":43.307945,"lon":5.376487,"is_reserved":false,"is_disabled":false,"rental_uris":{"android":"levelo://app?vid=436f3dca-d029-4bd5-bce9-68363b4f344f","ios":"levelo://app?vid=436f3dca-d029-4bd5-bce9-68363b4f344f"},"vehicle_type_id":"4","last_reported":1702336035,"current_range_meters":21600,"station_id":"ce4bgv92rcd13ifvqcq0","pricing_plan_id":"free"},{"bike_id":"1578c52f-7dac-4029-bce5-53e31d386aa5","system_id":"levelo_inurba_marseille","lat":43.317075,"lon":5.377367,"is_reserved":false,"is_disabled":false,"rental_uris":{"android":"levelo://app?vid=1578c52f-7dac-4029-bce5-53e31d386aa5","ios":"levelo://app?vid=1578c52f-7dac-4029-bce5-53e31d386aa5"},"vehicle_type_id":"4","last_reported":1702336035,"current_range_meters":29200,"station_id":"ce4bgth2rcd13ifvqch0","pricing_plan_id":"free"},{"bike_id":"a9e8efa3-e30a-4e32-aa72-dbca40cebdb6","system_id":"levelo_inurba_marseille","lat":43.317075,"lon":5.377367,"is_reserved":false,"is_disabled":false,"rental_uris":{"android":"levelo://app?vid=a9e8efa3-e30a-4e32-aa72-dbca40cebdb6","ios":"levelo://app?vid=a9e8efa3-e30a-4e32-aa72-dbca40cebdb6"},"vehicle_type_id":"4","last_reported":1702336035,"current_range_meters":31200,"station_id":"ce4bgth2rcd13ifvqch0","pricing_plan_id":"free"},{"bike_id":"fb92bdac-d369-4936-af8c-ffd52de7386f","system_id":"levelo_inurba_marseille","lat":43.309614,"lon":5.379796,"is_reserved":false,"is_disabled":false,"rental_uris":{"android":"levelo://app?vid=fb92bdac-d369-4936-af8c-ffd52de7386f","ios":"levelo://app?vid=fb92bdac-d369-4936-af8c-ffd52de7386f"},"vehicle_type_id":"4","last_reported":1702336035,"current_range_meters":7600,"station_id":"","pricing_plan_id":"free"},{"bike_id":"424a1dc8-1de9-4077-a305-b6270f6678f5","system_id":"levelo_inurba_marseille","lat":43.31524,"lon":5.38036,"is_reserved":false,"is_disabled":false,"rental_uris":{"android":"levelo://app?vid=424a1dc8-1de9-4077-a305-b6270f6678f5","ios":"levelo://app?vid=424a1dc8-1de9-4077-a305-b6270f6678f5"},"vehicle_type_id":"4","last_reported":1702336035,"current_range_meters":30800,"station_id":"ce4bhsp2rcd13ifvqi50","pricing_plan_id":"free"},{"bike_id":"bc33e73a-a9a8-4acf-86ab-2c2926fcf77b","system_id":"levelo_inurba_marseille","lat":43.301939,"lon":5.366286,"is_reserved":false,"is_disabled":false,"rental_uris":{"android":"levelo://app?vid=bc33e73a-a9a8-4acf-86ab-2c2926fcf77b","ios":"levelo://app?vid=bc33e73a-a9a8-4acf-86ab-2c2926fcf77b"},"vehicle_type_id":"4","last_reported":1702336035,"current_range_meters":16800,"station_id":"ce4bgrh2rcd13ifvqc8g","pricing_plan_id":"free"},{"bike_id":"872b2ecb-bc0b-43b8-ae42-a0174018d0d8","system_id":"levelo_inurba_marseille","lat":43.324771,"lon":5.36557,"is_reserved":false,"is_disabled":false,"rental_uris":{"android":"levelo://app?vid=872b2ecb-bc0b-43b8-ae42-a0174018d0d8","ios":"levelo://app?vid=872b2ecb-bc0b-43b8-ae42-a0174018d0d8"},"vehicle_type_id":"4","last_reported":1702336035,"current_range_meters":11600,"station_id":"ce4bhs12rcd13ifvqhvg","pricing_plan_id":"free"},{"bike_id":"a5589e38-f15a-46fe-9b37-27cf16ba9de2","system_id":"levelo_inurba_marseille","lat":43.31641,"lon":5.383135,"is_reserved":false,"is_disabled":false,"rental_uris":{"android":"levelo://app?vid=a5589e38-f15a-46fe-9b37-27cf16ba9de2","ios":"levelo://app?vid=a5589e38-f15a-46fe-9b37-27cf16ba9de2"},"vehicle_type_id":"4","last_reported":1702336035,"current_range_meters":22800,"station_id":"","pricing_plan_id":"free"},{"bike_id":"d047cbcd-40e8-4493-9700-a648cf295fe1","system_id":"levelo_inurba_marseille","lat":43.313571,"lon":5.384829,"is_reserved":false,"is_disabled":false,"rental_uris":{"android":"levelo://app?vid=d047cbcd-40e8-4493-9700-a648cf295fe1","ios":"levelo://app?vid=d047cbcd-40e8-4493-9700-a648cf295fe1"},"vehicle_type_id":"4","last_reported":1702336035,"current_range_meters":22800,"station_id":"ce4bgt92rcd13ifvqcf0","pricing_plan_id":"free"},{"bike_id":"e6219f3c-4588-456b-9afb-ba8f00b2488c","system_id":"levelo_inurba_marseille","lat":43.313571,"lon":5.384829,"is_reserved":false,"is_disabled":false,"rental_uris":{"android":"levelo://app?vid=e6219f3c-4588-456b-9afb-ba8f00b2488c","ios":"levelo://app?vid=e6219f3c-4588-456b-9afb-ba8f00b2488c"},"vehicle_type_id":"4","last_reported":1702336035,"current_range_meters":31600,"station_id":"ce4bgt92rcd13ifvqcf0","pricing_plan_id":"free"},{"bike_id":"79b2c816-063c-4c2f-a2b3-c83d9529ecc3","system_id":"levelo_inurba_marseille","lat":43.31356,"lon":5.38493,"is_reserved":false,"is_disabled":false,"rental_uris":{"android":"levelo://app?vid=79b2c816-063c-4c2f-a2b3-c83d9529ecc3","ios":"levelo://app?vid=79b2c816-063c-4c2f-a2b3-c83d9529ecc3"},"vehicle_type_id":"4","last_reported":1702336035,"current_range_meters":14800,"station_id":"ce4bgt92rcd13ifvqcf0","pricing_plan_id":"free"},{"bike_id":"64e486c9-9031-473b-827b-bc4a33617979","system_id":"levelo_inurba_marseille","lat":43.313571,"lon":5.384829,"is_reserved":false,"is_disabled":false,"rental_uris":{"android":"levelo://app?vid=64e486c9-9031-473b-827b-bc4a33617979","ios":"levelo://app?vid=64e486c9-9031-473b-827b-bc4a33617979"},"vehicle_type_id":"4","last_reported":1702336035,"current_range_meters":21600,"station_id":"ce4bgt92rcd13ifvqcf0","pricing_plan_id":"free"},{"bike_id":"a766b397-3b9d-448d-9c6b-30fb1d39a036","system_id":"levelo_inurba_marseille","lat":43.29933,"lon":5.36552,"is_reserved":false,"is_disabled":false,"rental_uris":{"android":"levelo://app?vid=a766b397-3b9d-448d-9c6b-30fb1d39a036","ios":"levelo://app?vid=a766b397-3b9d-448d-9c6b-30fb1d39a036"},"vehicle_type_id":"4","last_reported":1702336035,"current_range_meters":17600,"station_id":"ce4bgm92rcd13ifvqbr0","pricing_plan_id":"free"},{"bike_id":"ce089cca-4700-4776-b02a-3efb87f11a76","system_id":"levelo_inurba_marseille","lat":43.299724,"lon":5.371829,"is_reserved":false,"is_disabled":false,"rental_uris":{"android":"levelo://app?vid=ce089cca-4700-4776-b02a-3efb87f11a76","ios":"levelo://app?vid=ce089cca-4700-4776-b02a-3efb87f11a76"},"vehicle_type_id":"4","last_reported":1702336035,"current_range_meters":14400,"station_id":"ce4bgr92rcd13ifvqc7g","pricing_plan_id":"free"},{"bike_id":"66826c8d-0423-4a0e-9b40-4aff2db8ff7d","system_id":"levelo_inurba_marseille","lat":43.311722,"lon":5.387247,"is_reserved":false,"is_disabled":false,"rental_uris":{"android":"levelo://app?vid=66826c8d-0423-4a0e-9b40-4aff2db8ff7d","ios":"levelo://app?vid=66826c8d-0423-4a0e-9b40-4aff2db8ff7d"},"vehicle_type_id":"4","last_reported":1702336035,"current_range_meters":2000,"station_id":"ce4bgv12rcd13ifvqcp0","pricing_plan_id":"free"},{"bike_id":"39ee9a89-500c-428a-984f-632f4eb66c7b","system_id":"levelo_inurba_marseille","lat":43.32828,"lon":5.36673,"is_reserved":false,"is_disabled":false,"rental_uris":{"android":"levelo://app?vid=39ee9a89-500c-428a-984f-632f4eb66c7b","ios":"levelo://app?vid=39ee9a89-500c-428a-984f-632f4eb66c7b"},"vehicle_type_id":"4","last_reported":1702336035,"current_range_meters":18800,"station_id":"ce4bhs92rcd13ifvqi0g","pricing_plan_id":"free"},{"bike_id":"e943b487-c43c-4967-b791-c50dc3993506","system_id":"levelo_inurba_marseille","lat":43.29595,"lon":5.368,"is_reserved":false,"is_disabled":false,"rental_uris":{"android":"levelo://app?vid=e943b487-c43c-4967-b791-c50dc3993506","ios":"levelo://app?vid=e943b487-c43c-4967-b791-c50dc3993506"},"vehicle_type_id":"4","last_reported":1702336035,"current_range_meters":27200,"station_id":"","pricing_plan_id":"free"},{"bike_id":"c66d7ad2-1cb7-48cd-b397-09f0c1ed512f","system_id":"levelo_inurba_marseille","lat":43.317557,"lon":5.390173,"is_reserved":false,"is_disabled":false,"rental_uris":{"android":"levelo://app?vid=c66d7ad2-1cb7-48cd-b397-09f0c1ed512f","ios":"levelo://app?vid=c66d7ad2-1cb7-48cd-b397-09f0c1ed512f"},"vehicle_type_id":"4","last_reported":1702336035,"current_range_meters":12400,"station_id":"ce4bhqp2rcd13ifvqhng","pricing_plan_id":"free"},{"bike_id":"8d29c8b9-4f5e-4637-beaa-0cc6b2fd2a9f","system_id":"levelo_inurba_marseille","lat":43.317557,"lon":5.390173,"is_reserved":false,"is_disabled":false,"rental_uris":{"android":"levelo://app?vid=8d29c8b9-4f5e-4637-beaa-0cc6b2fd2a9f","ios":"levelo://app?vid=8d29c8b9-4f5e-4637-beaa-0cc6b2fd2a9f"},"vehicle_type_id":"4","last_reported":1702336035,"current_range_meters":28400,"station_id":"ce4bhqp2rcd13ifvqhng","pricing_plan_id":"free"},{"bike_id":"34dc0dc5-c3fc-43b0-a388-71797eb78856","system_id":"levelo_inurba_marseille","lat":43.317557,"lon":5.390173,"is_reserved":false,"is_disabled":false,"rental_uris":{"android":"levelo://app?vid=34dc0dc5-c3fc-43b0-a388-71797eb78856","ios":"levelo://app?vid=34dc0dc5-c3fc-43b0-a388-71797eb78856"},"vehicle_type_id":"4","last_reported":1702336035,"current_range_meters":28000,"station_id":"ce4bhqp2rcd13ifvqhng","pricing_plan_id":"free"},{"bike_id":"823bb91b-762a-4ec2-a01a-ad3bc229cdbd","system_id":"levelo_inurba_marseille","lat":43.317557,"lon":5.390173,"is_reserved":false,"is_disabled":false,"rental_uris":{"android":"levelo://app?vid=823bb91b-762a-4ec2-a01a-ad3bc229cdbd","ios":"levelo://app?vid=823bb91b-762a-4ec2-a01a-ad3bc229cdbd"},"vehicle_type_id":"4","last_reported":1702336035,"current_range_meters":5200,"station_id":"ce4bhqp2rcd13ifvqhng","pricing_plan_id":"free"},{"bike_id":"20d3374e-7777-4a3a-aac3-6bcbb3f05466","system_id":"levelo_inurba_marseille","lat":43.317557,"lon":5.390173,"is_reserved":false,"is_disabled":false,"rental_uris":{"android":"levelo://app?vid=20d3374e-7777-4a3a-aac3-6bcbb3f05466","ios":"levelo://app?vid=20d3374e-7777-4a3a-aac3-6bcbb3f05466"},"vehicle_type_id":"4","last_reported":1702336035,"current_range_meters":28400,"station_id":"ce4bhqp2rcd13ifvqhng","pricing_plan_id":"free"},{"bike_id":"bc6b7b73-a9dd-4809-8749-7637d667f747","system_id":"levelo_inurba_marseille","lat":43.304274,"lon":5.388873,"is_reserved":false,"is_disabled":false,"rental_uris":{"android":"levelo://app?vid=bc6b7b73-a9dd-4809-8749-7637d667f747","ios":"levelo://app?vid=bc6b7b73-a9dd-4809-8749-7637d667f747"},"vehicle_type_id":"4","last_reported":1702336035,"current_range_meters":27200,"station_id":"ce4bgk12rcd13ifvqbi0","pricing_plan_id":"free"},{"bike_id":"61a9d821-211d-4cd3-b66f-6a9b3fadd2d2","system_id":"levelo_inurba_marseille","lat":43.33071,"lon":5.37086,"is_reserved":false,"is_disabled":false,"rental_uris":{"android":"levelo://app?vid=61a9d821-211d-4cd3-b66f-6a9b3fadd2d2","ios":"levelo://app?vid=61a9d821-211d-4cd3-b66f-6a9b3fadd2d2"},"vehicle_type_id":"4","last_reported":1702336035,"current_range_meters":23600,"station_id":"","pricing_plan_id":"free"},{"bike_id":"52d8b7ba-7505-413c-b898-efb75f14c13c","system_id":"levelo_inurba_marseille","lat":43.33072,"lon":5.37124,"is_reserved":false,"is_disabled":false,"rental_uris":{"android":"levelo://app?vid=52d8b7ba-7505-413c-b898-efb75f14c13c","ios":"levelo://app?vid=52d8b7ba-7505-413c-b898-efb75f14c13c"},"vehicle_type_id":"4","last_reported":1702336035,"current_range_meters":19200,"station_id":"","pricing_plan_id":"free"},{"bike_id":"57c4e8e7-180f-4820-879d-ec3fad6193d0","system_id":"levelo_inurba_marseille","lat":43.32364,"lon":5.38891,"is_reserved":false,"is_disabled":false,"rental_uris":{"android":"levelo://app?vid=57c4e8e7-180f-4820-879d-ec3fad6193d0","ios":"levelo://app?vid=57c4e8e7-180f-4820-879d-ec3fad6193d0"},"vehicle_type_id":"4","last_reported":1702336035,"current_range_meters":23600,"station_id":"ce4bhqp2rcd13ifvqhog","pricing_plan_id":"free"},{"bike_id":"77a6c46d-d898-4e4f-8846-efa91689c7f0","system_id":"levelo_inurba_marseille","lat":43.295516,"lon":5.379294,"is_reserved":false,"is_disabled":false,"rental_uris":{"android":"levelo://app?vid=77a6c46d-d898-4e4f-8846-efa91689c7f0","ios":"levelo://app?vid=77a6c46d-d898-4e4f-8846-efa91689c7f0"},"vehicle_type_id":"4","last_reported":1702336035,"current_range_meters":0,"station_id":"","pricing_plan_id":"free"},{"bike_id":"e914990b-de8c-4998-aebe-f8f4e0f31134","system_id":"levelo_inurba_marseille","lat":43.305994,"lon":5.393687,"is_reserved":false,"is_disabled":false,"rental_uris":{"android":"levelo://app?vid=e914990b-de8c-4998-aebe-f8f4e0f31134","ios":"levelo://app?vid=e914990b-de8c-4998-aebe-f8f4e0f31134"},"vehicle_type_id":"4","last_reported":1702336035,"current_range_meters":16400,"station_id":"ce4bh0p2rcd13ifvqd80","pricing_plan_id":"free"},{"bike_id":"79f36a7a-c67e-49d9-8621-9a5e25641ac8","system_id":"levelo_inurba_marseille","lat":43.292311,"lon":5.360731,"is_reserved":false,"is_disabled":false,"rental_uris":{"android":"levelo://app?vid=79f36a7a-c67e-49d9-8621-9a5e25641ac8","ios":"levelo://app?vid=79f36a7a-c67e-49d9-8621-9a5e25641ac8"},"vehicle_type_id":"4","last_reported":1702336035,"current_range_meters":23200,"station_id":"ce4bhbh2rcd13ifvqeqg","pricing_plan_id":"free"},{"bike_id":"ca4e135c-886c-4148-ae09-abe9471e060c","system_id":"levelo_inurba_marseille","lat":43.292311,"lon":5.360731,"is_reserved":false,"is_disabled":false,"rental_uris":{"android":"levelo://app?vid=ca4e135c-886c-4148-ae09-abe9471e060c","ios":"levelo://app?vid=ca4e135c-886c-4148-ae09-abe9471e060c"},"vehicle_type_id":"4","last_reported":1702336035,"current_range_meters":30800,"station_id":"ce4bhbh2rcd13ifvqeqg","pricing_plan_id":"free"},{"bike_id":"e0faa393-c92d-4b64-8e12-1c27f1b99ac3","system_id":"levelo_inurba_marseille","lat":43.2987,"lon":5.38912,"is_reserved":false,"is_disabled":false,"rental_uris":{"android":"levelo://app?vid=e0faa393-c92d-4b64-8e12-1c27f1b99ac3","ios":"levelo://app?vid=e0faa393-c92d-4b64-8e12-1c27f1b99ac3"},"vehicle_type_id":"4","last_reported":1702336035,"current_range_meters":28800,"station_id":"","pricing_plan_id":"free"},{"bike_id":"85b278e9-66bb-4dbc-a71e-339a9e5967ff","system_id":"levelo_inurba_marseille","lat":43.291994,"lon":5.357886,"is_reserved":false,"is_disabled":false,"rental_uris":{"android":"levelo://app?vid=85b278e9-66bb-4dbc-a71e-339a9e5967ff","ios":"levelo://app?vid=85b278e9-66bb-4dbc-a71e-339a9e5967ff"},"vehicle_type_id":"4","last_reported":1702336035,"current_range_meters":26800,"station_id":"ce4bhb12rcd13ifvqel0","pricing_plan_id":"free"},{"bike_id":"f3975721-0e9e-4040-85c4-e9fc444094bb","system_id":"levelo_inurba_marseille","lat":43.313291,"lon":5.396838,"is_reserved":false,"is_disabled":false,"rental_uris":{"android":"levelo://app?vid=f3975721-0e9e-4040-85c4-e9fc444094bb","ios":"levelo://app?vid=f3975721-0e9e-4040-85c4-e9fc444094bb"},"vehicle_type_id":"4","last_reported":1702336035,"current_range_meters":28800,"station_id":"ce4bgvp2rcd13ifvqcu0","pricing_plan_id":"free"},{"bike_id":"c58fb81b-b58a-4c1c-8905-ff0b5c194be1","system_id":"levelo_inurba_marseille","lat":43.309038,"lon":5.396546,"is_reserved":false,"is_disabled":false,"rental_uris":{"android":"levelo://app?vid=c58fb81b-b58a-4c1c-8905-ff0b5c194be1","ios":"levelo://app?vid=c58fb81b-b58a-4c1c-8905-ff0b5c194be1"},"vehicle_type_id":"4","last_reported":1702336035,"current_range_meters":22400,"station_id":"ce4bh012rcd13ifvqcv0","pricing_plan_id":"free"},{"bike_id":"f71c9aef-bc48-4fa3-aabe-f8ce93331081","system_id":"levelo_inurba_marseille","lat":43.309047,"lon":5.396551,"is_reserved":false,"is_disabled":false,"rental_uris":{"android":"levelo://app?vid=f71c9aef-bc48-4fa3-aabe-f8ce93331081","ios":"levelo://app?vid=f71c9aef-bc48-4fa3-aabe-f8ce93331081"},"vehicle_type_id":"4","last_reported":1702336035,"current_range_meters":30800,"station_id":"ce4bh012rcd13ifvqcv0","pricing_plan_id":"free"},{"bike_id":"aaa0e085-86be-4e5d-bc46-3265a9a48be6","system_id":"levelo_inurba_marseille","lat":43.313291,"lon":5.396838,"is_reserved":false,"is_disabled":false,"rental_uris":{"android":"levelo://app?vid=aaa0e085-86be-4e5d-bc46-3265a9a48be6","ios":"levelo://app?vid=aaa0e085-86be-4e5d-bc46-3265a9a48be6"},"vehicle_type_id":"4","last_reported":1702336035,"current_range_meters":14400,"station_id":"ce4bgvp2rcd13ifvqcu0","pricing_plan_id":"free"},{"bike_id":"517c42ea-c77d-4036-adbe-a1bb83a96400","system_id":"levelo_inurba_marseille","lat":43.313291,"lon":5.396838,"is_reserved":false,"is_disabled":false,"rental_uris":{"android":"levelo://app?vid=517c42ea-c77d-4036-adbe-a1bb83a96400","ios":"levelo://app?vid=517c42ea-c77d-4036-adbe-a1bb83a96400"},"vehicle_type_id":"4","last_reported":1702336035,"current_range_meters":12400,"station_id":"ce4bgvp2rcd13ifvqcu0","pricing_plan_id":"free"},{"bike_id":"d0334272-ebb2-490e-8523-03b5804feaeb","system_id":"levelo_inurba_marseille","lat":43.313291,"lon":5.396838,"is_reserved":false,"is_disabled":false,"rental_uris":{"android":"levelo://app?vid=d0334272-ebb2-490e-8523-03b5804feaeb","ios":"levelo://app?vid=d0334272-ebb2-490e-8523-03b5804feaeb"},"vehicle_type_id":"4","last_reported":1702336035,"current_range_meters":21600,"station_id":"ce4bgvp2rcd13ifvqcu0","pricing_plan_id":"free"},{"bike_id":"236e90fe-0390-4322-aa62-124d371d9448","system_id":"levelo_inurba_marseille","lat":43.313291,"lon":5.396838,"is_reserved":false,"is_disabled":false,"rental_uris":{"android":"levelo://app?vid=236e90fe-0390-4322-aa62-124d371d9448","ios":"levelo://app?vid=236e90fe-0390-4322-aa62-124d371d9448"},"vehicle_type_id":"4","last_reported":1702336035,"current_range_meters":25600,"station_id":"ce4bgvp2rcd13ifvqcu0","pricing_plan_id":"free"},{"bike_id":"a1f74885-a7d3-41ca-9106-01aad1c6cac8","system_id":"levelo_inurba_marseille","lat":43.309047,"lon":5.396551,"is_reserved":false,"is_disabled":false,"rental_uris":{"android":"levelo://app?vid=a1f74885-a7d3-41ca-9106-01aad1c6cac8","ios":"levelo://app?vid=a1f74885-a7d3-41ca-9106-01aad1c6cac8"},"vehicle_type_id":"4","last_reported":1702336035,"current_range_meters":18400,"station_id":"ce4bh012rcd13ifvqcv0","pricing_plan_id":"free"},{"bike_id":"0c5243b5-d172-4750-813d-51d42e401efa","system_id":"levelo_inurba_marseille","lat":43.313291,"lon":5.396838,"is_reserved":false,"is_disabled":false,"rental_uris":{"android":"levelo://app?vid=0c5243b5-d172-4750-813d-51d42e401efa","ios":"levelo://app?vid=0c5243b5-d172-4750-813d-51d42e401efa"},"vehicle_type_id":"4","last_reported":1702336035,"current_range_meters":15200,"station_id":"ce4bgvp2rcd13ifvqcu0","pricing_plan_id":"free"},{"bike_id":"7fd0059d-7b17-42e1-b9f0-9e0fc1b1dc31","system_id":"levelo_inurba_marseille","lat":43.309038,"lon":5.396546,"is_reserved":false,"is_disabled":false,"rental_uris":{"android":"levelo://app?vid=7fd0059d-7b17-42e1-b9f0-9e0fc1b1dc31","ios":"levelo://app?vid=7fd0059d-7b17-42e1-b9f0-9e0fc1b1dc31"},"vehicle_type_id":"4","last_reported":1702336035,"current_range_meters":28800,"station_id":"ce4bh012rcd13ifvqcv0","pricing_plan_id":"free"},{"bike_id":"8a9ebd5e-84a5-42a2-8caf-d31d53bb6f24","system_id":"levelo_inurba_marseille","lat":43.309038,"lon":5.396546,"is_reserved":false,"is_disabled":false,"rental_uris":{"android":"levelo://app?vid=8a9ebd5e-84a5-42a2-8caf-d31d53bb6f24","ios":"levelo://app?vid=8a9ebd5e-84a5-42a2-8caf-d31d53bb6f24"},"vehicle_type_id":"4","last_reported":1702336035,"current_range_meters":20800,"station_id":"ce4bh012rcd13ifvqcv0","pricing_plan_id":"free"},{"bike_id":"cced7313-7677-4487-bbf4-cde5e079e57d","system_id":"levelo_inurba_marseille","lat":43.290631,"lon":5.359244,"is_reserved":false,"is_disabled":false,"rental_uris":{"android":"levelo://app?vid=cced7313-7677-4487-bbf4-cde5e079e57d","ios":"levelo://app?vid=cced7313-7677-4487-bbf4-cde5e079e57d"},"vehicle_type_id":"4","last_reported":1702336035,"current_range_meters":25600,"station_id":"ce4bha92rcd13ifvqeg0","pricing_plan_id":"free"},{"bike_id":"944348fd-bc6d-429c-b66d-3749dc3a4009","system_id":"levelo_inurba_marseille","lat":43.290631,"lon":5.359244,"is_reserved":false,"is_disabled":false,"rental_uris":{"android":"levelo://app?vid=944348fd-bc6d-429c-b66d-3749dc3a4009","ios":"levelo://app?vid=944348fd-bc6d-429c-b66d-3749dc3a4009"},"vehicle_type_id":"4","last_reported":1702336035,"current_range_meters":24400,"station_id":"ce4bha92rcd13ifvqeg0","pricing_plan_id":"free"},{"bike_id":"9df2f4f5-a6f9-488d-99bb-defbb0944b1e","system_id":"levelo_inurba_marseille","lat":43.290624,"lon":5.359245,"is_reserved":false,"is_disabled":false,"rental_uris":{"android":"levelo://app?vid=9df2f4f5-a6f9-488d-99bb-defbb0944b1e","ios":"levelo://app?vid=9df2f4f5-a6f9-488d-99bb-defbb0944b1e"},"vehicle_type_id":"4","last_reported":1702336035,"current_range_meters":27600,"station_id":"ce4bha92rcd13ifvqeg0","pricing_plan_id":"free"},{"bike_id":"b8ec5291-65d8-4953-9955-688a4d6cf410","system_id":"levelo_inurba_marseille","lat":43.290631,"lon":5.359244,"is_reserved":false,"is_disabled":false,"rental_uris":{"android":"levelo://app?vid=b8ec5291-65d8-4953-9955-688a4d6cf410","ios":"levelo://app?vid=b8ec5291-65d8-4953-9955-688a4d6cf410"},"vehicle_type_id":"4","last_reported":1702336035,"current_range_meters":29600,"station_id":"ce4bha92rcd13ifvqeg0","pricing_plan_id":"free"},{"bike_id":"a5c7723c-83d2-4f69-99da-542975f7084f","system_id":"levelo_inurba_marseille","lat":43.29044,"lon":5.37588,"is_reserved":false,"is_disabled":false,"rental_uris":{"android":"levelo://app?vid=a5c7723c-83d2-4f69-99da-542975f7084f","ios":"levelo://app?vid=a5c7723c-83d2-4f69-99da-542975f7084f"},"vehicle_type_id":"4","last_reported":1702336035,"current_range_meters":28400,"station_id":"","pricing_plan_id":"free"},{"bike_id":"de1b65e4-37d7-42ff-aac6-851b697b01bb","system_id":"levelo_inurba_marseille","lat":43.28952,"lon":5.364062,"is_reserved":false,"is_disabled":false,"rental_uris":{"android":"levelo://app?vid=de1b65e4-37d7-42ff-aac6-851b697b01bb","ios":"levelo://app?vid=de1b65e4-37d7-42ff-aac6-851b697b01bb"},"vehicle_type_id":"4","last_reported":1702336035,"current_range_meters":26000,"station_id":"ce4bhc92rcd13ifvqetg","pricing_plan_id":"free"},{"bike_id":"1a661d73-88ae-4138-aaea-c7718f1f0f3f","system_id":"levelo_inurba_marseille","lat":43.330442,"lon":5.389148,"is_reserved":false,"is_disabled":false,"rental_uris":{"android":"levelo://app?vid=1a661d73-88ae-4138-aaea-c7718f1f0f3f","ios":"levelo://app?vid=1a661d73-88ae-4138-aaea-c7718f1f0f3f"},"vehicle_type_id":"4","last_reported":1702336035,"current_range_meters":21600,"station_id":"ce4bhr92rcd13ifvqhrg","pricing_plan_id":"free"},{"bike_id":"f1896741-896e-40c9-aa4d-96fe134ed880","system_id":"levelo_inurba_marseille","lat":43.33046,"lon":5.38919,"is_reserved":false,"is_disabled":false,"rental_uris":{"android":"levelo://app?vid=f1896741-896e-40c9-aa4d-96fe134ed880","ios":"levelo://app?vid=f1896741-896e-40c9-aa4d-96fe134ed880"},"vehicle_type_id":"4","last_reported":1702336035,"current_range_meters":4000,"station_id":"ce4bhr92rcd13ifvqhrg","pricing_plan_id":"free"},{"bike_id":"4601da1a-2bc2-4be5-8fac-e44f32e20802","system_id":"levelo_inurba_marseille","lat":43.33043,"lon":5.38924,"is_reserved":false,"is_disabled":false,"rental_uris":{"android":"levelo://app?vid=4601da1a-2bc2-4be5-8fac-e44f32e20802","ios":"levelo://app?vid=4601da1a-2bc2-4be5-8fac-e44f32e20802"},"vehicle_type_id":"4","last_reported":1702336035,"current_range_meters":26400,"station_id":"ce4bhr92rcd13ifvqhrg","pricing_plan_id":"free"},{"bike_id":"533ab8ea-2bc7-468d-a492-34a782fe4afb","system_id":"levelo_inurba_marseille","lat":43.290104,"lon":5.356111,"is_reserved":false,"is_disabled":false,"rental_uris":{"android":"levelo://app?vid=533ab8ea-2bc7-468d-a492-34a782fe4afb","ios":"levelo://app?vid=533ab8ea-2bc7-468d-a492-34a782fe4afb"},"vehicle_type_id":"4","last_reported":1702336035,"current_range_meters":22800,"station_id":"ce4bhb92rcd13ifvqen0","pricing_plan_id":"free"},{"bike_id":"02248679-509f-4b57-97bb-e9d71f1470fa","system_id":"levelo_inurba_marseille","lat":43.29,"lon":5.35617,"is_reserved":false,"is_disabled":false,"rental_uris":{"android":"levelo://app?vid=02248679-509f-4b57-97bb-e9d71f1470fa","ios":"levelo://app?vid=02248679-509f-4b57-97bb-e9d71f1470fa"},"vehicle_type_id":"4","last_reported":1702336035,"current_range_meters":30400,"station_id":"ce4bhb92rcd13ifvqen0","pricing_plan_id":"free"},{"bike_id":"a226c129-cfbb-40a4-9f49-2331f8722bb4","system_id":"levelo_inurba_marseille","lat":43.297887,"lon":5.39333,"is_reserved":false,"is_disabled":false,"rental_uris":{"android":"levelo://app?vid=a226c129-cfbb-40a4-9f49-2331f8722bb4","ios":"levelo://app?vid=a226c129-cfbb-40a4-9f49-2331f8722bb4"},"vehicle_type_id":"4","last_reported":1702336035,"current_range_meters":20800,"station_id":"chh1huq6cuj3fo74tm60","pricing_plan_id":"free"},{"bike_id":"2013f4fe-5129-4b9e-ad20-8258f17a51f4","system_id":"levelo_inurba_marseille","lat":43.295169,"lon":5.390426,"is_reserved":false,"is_disabled":false,"rental_uris":{"android":"levelo://app?vid=2013f4fe-5129-4b9e-ad20-8258f17a51f4","ios":"levelo://app?vid=2013f4fe-5129-4b9e-ad20-8258f17a51f4"},"vehicle_type_id":"4","last_reported":1702336035,"current_range_meters":17200,"station_id":"ce4bh3p2rcd13ifvqdp0","pricing_plan_id":"free"},{"bike_id":"6684e0bc-4055-4232-b10e-9a5d2b90801d","system_id":"levelo_inurba_marseille","lat":43.288615,"lon":5.35849,"is_reserved":false,"is_disabled":false,"rental_uris":{"android":"levelo://app?vid=6684e0bc-4055-4232-b10e-9a5d2b90801d","ios":"levelo://app?vid=6684e0bc-4055-4232-b10e-9a5d2b90801d"},"vehicle_type_id":"4","last_reported":1702336035,"current_range_meters":13600,"station_id":"ce4bhb12rcd13ifvqem0","pricing_plan_id":"free"},{"bike_id":"351310e1-9732-4a9f-ae64-3f1caaaa9e09","system_id":"levelo_inurba_marseille","lat":43.288484,"lon":5.358596,"is_reserved":false,"is_disabled":false,"rental_uris":{"android":"levelo://app?vid=351310e1-9732-4a9f-ae64-3f1caaaa9e09","ios":"levelo://app?vid=351310e1-9732-4a9f-ae64-3f1caaaa9e09"},"vehicle_type_id":"4","last_reported":1702336035,"current_range_meters":5600,"station_id":"ce4bhb12rcd13ifvqem0","pricing_plan_id":"free"},{"bike_id":"c9523811-9a5b-46a2-b7f2-1136988f2d4e","system_id":"levelo_inurba_marseille","lat":43.312837,"lon":5.401683,"is_reserved":false,"is_disabled":false,"rental_uris":{"android":"levelo://app?vid=c9523811-9a5b-46a2-b7f2-1136988f2d4e","ios":"levelo://app?vid=c9523811-9a5b-46a2-b7f2-1136988f2d4e"},"vehicle_type_id":"4","last_reported":1702336035,"current_range_meters":0,"station_id":"ce4bh092rcd13ifvqd30","pricing_plan_id":"free"},{"bike_id":"1ffa6cab-2192-4490-9617-61044011c6b1","system_id":"levelo_inurba_marseille","lat":43.337417,"lon":5.374656,"is_reserved":false,"is_disabled":false,"rental_uris":{"android":"levelo://app?vid=1ffa6cab-2192-4490-9617-61044011c6b1","ios":"levelo://app?vid=1ffa6cab-2192-4490-9617-61044011c6b1"},"vehicle_type_id":"4","last_reported":1702336035,"current_range_meters":18800,"station_id":"","pricing_plan_id":"free"},{"bike_id":"e1115d16-a177-4b09-99f4-d84a7f0a9df4","system_id":"levelo_inurba_marseille","lat":43.337497,"lon":5.374693,"is_reserved":false,"is_disabled":false,"rental_uris":{"android":"levelo://app?vid=e1115d16-a177-4b09-99f4-d84a7f0a9df4","ios":"levelo://app?vid=e1115d16-a177-4b09-99f4-d84a7f0a9df4"},"vehicle_type_id":"4","last_reported":1702336035,"current_range_meters":27200,"station_id":"","pricing_plan_id":"free"},{"bike_id":"1a9123ca-1ac0-4cbb-b622-534f88bcae20","system_id":"levelo_inurba_marseille","lat":43.337513,"lon":5.374637,"is_reserved":false,"is_disabled":false,"rental_uris":{"android":"levelo://app?vid=1a9123ca-1ac0-4cbb-b622-534f88bcae20","ios":"levelo://app?vid=1a9123ca-1ac0-4cbb-b622-534f88bcae20"},"vehicle_type_id":"4","last_reported":1702336035,"current_range_meters":29200,"station_id":"","pricing_plan_id":"free"},{"bike_id":"9f812f77-2fb3-4e31-b498-deae707eef56","system_id":"levelo_inurba_marseille","lat":43.30642,"lon":5.401031,"is_reserved":false,"is_disabled":false,"rental_uris":{"android":"levelo://app?vid=9f812f77-2fb3-4e31-b498-deae707eef56","ios":"levelo://app?vid=9f812f77-2fb3-4e31-b498-deae707eef56"},"vehicle_type_id":"4","last_reported":1702336035,"current_range_meters":30800,"station_id":"ce4bh112rcd13ifvqda0","pricing_plan_id":"free"},{"bike_id":"6024c9df-3e15-4bc2-9cc0-aea805591fdc","system_id":"levelo_inurba_marseille","lat":43.286591,"lon":5.363346,"is_reserved":false,"is_disabled":false,"rental_uris":{"android":"levelo://app?vid=6024c9df-3e15-4bc2-9cc0-aea805591fdc","ios":"levelo://app?vid=6024c9df-3e15-4bc2-9cc0-aea805591fdc"},"vehicle_type_id":"4","last_reported":1702336035,"current_range_meters":26400,"station_id":"ce4bhah2rcd13ifvqej0","pricing_plan_id":"free"},{"bike_id":"642d349a-a739-4db6-bfb1-bf4090afb782","system_id":"levelo_inurba_marseille","lat":43.309371,"lon":5.401449,"is_reserved":false,"is_disabled":false,"rental_uris":{"android":"levelo://app?vid=642d349a-a739-4db6-bfb1-bf4090afb782","ios":"levelo://app?vid=642d349a-a739-4db6-bfb1-bf4090afb782"},"vehicle_type_id":"4","last_reported":1702336035,"current_range_meters":0,"station_id":"ce4bgvp2rcd13ifvqct0","pricing_plan_id":"free"},{"bike_id":"6a6b8721-b271-46c7-9a96-5842df48f0b3","system_id":"levelo_inurba_marseille","lat":43.306412,"lon":5.401035,"is_reserved":false,"is_disabled":false,"rental_uris":{"android":"levelo://app?vid=6a6b8721-b271-46c7-9a96-5842df48f0b3","ios":"levelo://app?vid=6a6b8721-b271-46c7-9a96-5842df48f0b3"},"vehicle_type_id":"4","last_reported":1702336035,"current_range_meters":28000,"station_id":"ce4bh112rcd13ifvqda0","pricing_plan_id":"free"},{"bike_id":"60f84eb0-2206-4e1b-94df-fd8c129930f0","system_id":"levelo_inurba_marseille","lat":43.337668,"lon":5.374343,"is_reserved":false,"is_disabled":false,"rental_uris":{"android":"levelo://app?vid=60f84eb0-2206-4e1b-94df-fd8c129930f0","ios":"levelo://app?vid=60f84eb0-2206-4e1b-94df-fd8c129930f0"},"vehicle_type_id":"4","last_reported":1702336035,"current_range_meters":14000,"station_id":"","pricing_plan_id":"free"},{"bike_id":"482b94cd-3634-4af6-87ac-b47c0a7e3fd3","system_id":"levelo_inurba_marseille","lat":43.30642,"lon":5.401031,"is_reserved":false,"is_disabled":false,"rental_uris":{"android":"levelo://app?vid=482b94cd-3634-4af6-87ac-b47c0a7e3fd3","ios":"levelo://app?vid=482b94cd-3634-4af6-87ac-b47c0a7e3fd3"},"vehicle_type_id":"4","last_reported":1702336035,"current_range_meters":22800,"station_id":"ce4bh112rcd13ifvqda0","pricing_plan_id":"free"},{"bike_id":"3718be7f-bfd9-4d4a-a2de-c4fd70ef54d6","system_id":"levelo_inurba_marseille","lat":43.28727,"lon":5.36078,"is_reserved":false,"is_disabled":false,"rental_uris":{"android":"levelo://app?vid=3718be7f-bfd9-4d4a-a2de-c4fd70ef54d6","ios":"levelo://app?vid=3718be7f-bfd9-4d4a-a2de-c4fd70ef54d6"},"vehicle_type_id":"4","last_reported":1702336035,"current_range_meters":25600,"station_id":"cki0cbj6b192h4jlfktg","pricing_plan_id":"free"},{"bike_id":"c7e30da2-6cfb-41b4-91b4-52b6d91c4b27","system_id":"levelo_inurba_marseille","lat":43.301117,"lon":5.398795,"is_reserved":false,"is_disabled":false,"rental_uris":{"android":"levelo://app?vid=c7e30da2-6cfb-41b4-91b4-52b6d91c4b27","ios":"levelo://app?vid=c7e30da2-6cfb-41b4-91b4-52b6d91c4b27"},"vehicle_type_id":"4","last_reported":1702336035,"current_range_meters":0,"station_id":"ce4bh0h2rcd13ifvqd40","pricing_plan_id":"free"},{"bike_id":"0b1bd042-7cf7-4527-aa17-3a1421b9a37a","system_id":"levelo_inurba_marseille","lat":43.28727,"lon":5.36078,"is_reserved":false,"is_disabled":false,"rental_uris":{"android":"levelo://app?vid=0b1bd042-7cf7-4527-aa17-3a1421b9a37a","ios":"levelo://app?vid=0b1bd042-7cf7-4527-aa17-3a1421b9a37a"},"vehicle_type_id":"4","last_reported":1702336035,"current_range_meters":24000,"station_id":"cki0cbj6b192h4jlfktg","pricing_plan_id":"free"},{"bike_id":"5cce6b8d-8bc9-4b26-be84-095a41dba0d2","system_id":"levelo_inurba_marseille","lat":43.286591,"lon":5.363346,"is_reserved":false,"is_disabled":false,"rental_uris":{"android":"levelo://app?vid=5cce6b8d-8bc9-4b26-be84-095a41dba0d2","ios":"levelo://app?vid=5cce6b8d-8bc9-4b26-be84-095a41dba0d2"},"vehicle_type_id":"4","last_reported":1702336035,"current_range_meters":5200,"station_id":"ce4bhah2rcd13ifvqej0","pricing_plan_id":"free"},{"bike_id":"32e3756b-fa7d-4982-9c57-36c8cfe1af1f","system_id":"levelo_inurba_marseille","lat":43.298681,"lon":5.397225,"is_reserved":false,"is_disabled":false,"rental_uris":{"android":"levelo://app?vid=32e3756b-fa7d-4982-9c57-36c8cfe1af1f","ios":"levelo://app?vid=32e3756b-fa7d-4982-9c57-36c8cfe1af1f"},"vehicle_type_id":"4","last_reported":1702336035,"current_range_meters":15600,"station_id":"ce4bh0h2rcd13ifvqd50","pricing_plan_id":"free"},{"bike_id":"e7f8f359-e2e0-48b2-8c70-60e891907dd4","system_id":"levelo_inurba_marseille","lat":43.286961,"lon":5.373785,"is_reserved":false,"is_disabled":false,"rental_uris":{"android":"levelo://app?vid=e7f8f359-e2e0-48b2-8c70-60e891907dd4","ios":"levelo://app?vid=e7f8f359-e2e0-48b2-8c70-60e891907dd4"},"vehicle_type_id":"4","last_reported":1702336035,"current_range_meters":16000,"station_id":"ce4bh3p2rcd13ifvqdq0","pricing_plan_id":"free"},{"bike_id":"bbc60203-db43-4321-9489-74be433481ce","system_id":"levelo_inurba_marseille","lat":43.286961,"lon":5.373785,"is_reserved":false,"is_disabled":false,"rental_uris":{"android":"levelo://app?vid=bbc60203-db43-4321-9489-74be433481ce","ios":"levelo://app?vid=bbc60203-db43-4321-9489-74be433481ce"},"vehicle_type_id":"4","last_reported":1702336035,"current_range_meters":23200,"station_id":"ce4bh3p2rcd13ifvqdq0","pricing_plan_id":"free"},{"bike_id":"7cb86f91-78d8-4d83-80a8-9a11bc1eb158","system_id":"levelo_inurba_marseille","lat":43.286961,"lon":5.373785,"is_reserved":false,"is_disabled":false,"rental_uris":{"android":"levelo://app?vid=7cb86f91-78d8-4d83-80a8-9a11bc1eb158","ios":"levelo://app?vid=7cb86f91-78d8-4d83-80a8-9a11bc1eb158"},"vehicle_type_id":"4","last_reported":1702336035,"current_range_meters":24400,"station_id":"ce4bh3p2rcd13ifvqdq0","pricing_plan_id":"free"},{"bike_id":"8934a177-baaf-4252-b740-ba57243cd9da","system_id":"levelo_inurba_marseille","lat":43.286591,"lon":5.363346,"is_reserved":false,"is_disabled":false,"rental_uris":{"android":"levelo://app?vid=8934a177-baaf-4252-b740-ba57243cd9da","ios":"levelo://app?vid=8934a177-baaf-4252-b740-ba57243cd9da"},"vehicle_type_id":"4","last_reported":1702336035,"current_range_meters":26400,"station_id":"ce4bhah2rcd13ifvqej0","pricing_plan_id":"free"},{"bike_id":"8ae7e8c6-0990-4375-8938-3d13d10f9c74","system_id":"levelo_inurba_marseille","lat":43.298681,"lon":5.397225,"is_reserved":false,"is_disabled":false,"rental_uris":{"android":"levelo://app?vid=8ae7e8c6-0990-4375-8938-3d13d10f9c74","ios":"levelo://app?vid=8ae7e8c6-0990-4375-8938-3d13d10f9c74"},"vehicle_type_id":"4","last_reported":1702336035,"current_range_meters":27200,"station_id":"ce4bh0h2rcd13ifvqd50","pricing_plan_id":"free"},{"bike_id":"22f680d7-de61-4ef2-898b-53eaaf4dfc4b","system_id":"levelo_inurba_marseille","lat":43.295194,"lon":5.39397,"is_reserved":false,"is_disabled":false,"rental_uris":{"android":"levelo://app?vid=22f680d7-de61-4ef2-898b-53eaaf4dfc4b","ios":"levelo://app?vid=22f680d7-de61-4ef2-898b-53eaaf4dfc4b"},"vehicle_type_id":"4","last_reported":1702336035,"current_range_meters":0,"station_id":"ce4bh292rcd13ifvqdf0","pricing_plan_id":"free"},{"bike_id":"b146f28b-23ce-4fda-a62a-6367035acb5b","system_id":"levelo_inurba_marseille","lat":43.2951,"lon":5.394095,"is_reserved":false,"is_disabled":false,"rental_uris":{"android":"levelo://app?vid=b146f28b-23ce-4fda-a62a-6367035acb5b","ios":"levelo://app?vid=b146f28b-23ce-4fda-a62a-6367035acb5b"},"vehicle_type_id":"4","last_reported":1702336035,"current_range_meters":0,"station_id":"ce4bh292rcd13ifvqdf0","pricing_plan_id":"free"},{"bike_id":"39e7ecc9-8abf-47eb-8ad0-61f72a12e157","system_id":"levelo_inurba_marseille","lat":43.302759,"lon":5.400793,"is_reserved":false,"is_disabled":false,"rental_uris":{"android":"levelo://app?vid=39e7ecc9-8abf-47eb-8ad0-61f72a12e157","ios":"levelo://app?vid=39e7ecc9-8abf-47eb-8ad0-61f72a12e157"},"vehicle_type_id":"4","last_reported":1702336035,"current_range_meters":26000,"station_id":"ce4bgvh2rcd13ifvqcs0","pricing_plan_id":"free"},{"bike_id":"5142ed7f-3426-469d-a9ea-646312bb6c4c","system_id":"levelo_inurba_marseille","lat":43.287184,"lon":5.37937,"is_reserved":false,"is_disabled":false,"rental_uris":{"android":"levelo://app?vid=5142ed7f-3426-469d-a9ea-646312bb6c4c","ios":"levelo://app?vid=5142ed7f-3426-469d-a9ea-646312bb6c4c"},"vehicle_type_id":"4","last_reported":1702336035,"current_range_meters":22400,"station_id":"ce4bh9p2rcd13ifvqec0","pricing_plan_id":"free"},{"bike_id":"700d514e-71b6-46bd-8e39-bf5d3dbf3cee","system_id":"levelo_inurba_marseille","lat":43.291994,"lon":5.392907,"is_reserved":false,"is_disabled":false,"rental_uris":{"android":"levelo://app?vid=700d514e-71b6-46bd-8e39-bf5d3dbf3cee","ios":"levelo://app?vid=700d514e-71b6-46bd-8e39-bf5d3dbf3cee"},"vehicle_type_id":"4","last_reported":1702336035,"current_range_meters":23200,"station_id":"ce4bh192rcd13ifvqdd0","pricing_plan_id":"free"},{"bike_id":"31b0cc3a-23f3-4e93-be88-d69c7ae5ec8d","system_id":"levelo_inurba_marseille","lat":43.291994,"lon":5.392907,"is_reserved":false,"is_disabled":false,"rental_uris":{"android":"levelo://app?vid=31b0cc3a-23f3-4e93-be88-d69c7ae5ec8d","ios":"levelo://app?vid=31b0cc3a-23f3-4e93-be88-d69c7ae5ec8d"},"vehicle_type_id":"4","last_reported":1702336035,"current_range_meters":18400,"station_id":"ce4bh192rcd13ifvqdd0","pricing_plan_id":"free"},{"bike_id":"bbc7c8a8-da93-4fcc-9064-a6f2c0fd0881","system_id":"levelo_inurba_marseille","lat":43.284724,"lon":5.358896,"is_reserved":false,"is_disabled":false,"rental_uris":{"android":"levelo://app?vid=bbc7c8a8-da93-4fcc-9064-a6f2c0fd0881","ios":"levelo://app?vid=bbc7c8a8-da93-4fcc-9064-a6f2c0fd0881"},"vehicle_type_id":"4","last_reported":1702336035,"current_range_meters":29600,"station_id":"ce4bhah2rcd13ifvqei0","pricing_plan_id":"free"},{"bike_id":"f602fdae-0bc9-44d7-bc2b-cea35bd73984","system_id":"levelo_inurba_marseille","lat":43.284538,"lon":5.358657,"is_reserved":false,"is_disabled":false,"rental_uris":{"android":"levelo://app?vid=f602fdae-0bc9-44d7-bc2b-cea35bd73984","ios":"levelo://app?vid=f602fdae-0bc9-44d7-bc2b-cea35bd73984"},"vehicle_type_id":"4","last_reported":1702336035,"current_range_meters":12800,"station_id":"ce4bhah2rcd13ifvqei0","pricing_plan_id":"free"},{"bike_id":"3bf8d79f-dc26-47e5-8596-b6bd08d47bb0","system_id":"levelo_inurba_marseille","lat":43.28466,"lon":5.35901,"is_reserved":false,"is_disabled":false,"rental_uris":{"android":"levelo://app?vid=3bf8d79f-dc26-47e5-8596-b6bd08d47bb0","ios":"levelo://app?vid=3bf8d79f-dc26-47e5-8596-b6bd08d47bb0"},"vehicle_type_id":"4","last_reported":1702336035,"current_range_meters":17200,"station_id":"ce4bhah2rcd13ifvqei0","pricing_plan_id":"free"},{"bike_id":"f41d6c41-374d-4fc3-8a16-8ec3508e96ff","system_id":"levelo_inurba_marseille","lat":43.284538,"lon":5.358657,"is_reserved":false,"is_disabled":false,"rental_uris":{"android":"levelo://app?vid=f41d6c41-374d-4fc3-8a16-8ec3508e96ff","ios":"levelo://app?vid=f41d6c41-374d-4fc3-8a16-8ec3508e96ff"},"vehicle_type_id":"4","last_reported":1702336035,"current_range_meters":25600,"station_id":"ce4bhah2rcd13ifvqei0","pricing_plan_id":"free"},{"bike_id":"4ad710f1-bb15-4faa-a3cf-10e9391e9e63","system_id":"levelo_inurba_marseille","lat":43.284538,"lon":5.358657,"is_reserved":false,"is_disabled":false,"rental_uris":{"android":"levelo://app?vid=4ad710f1-bb15-4faa-a3cf-10e9391e9e63","ios":"levelo://app?vid=4ad710f1-bb15-4faa-a3cf-10e9391e9e63"},"vehicle_type_id":"4","last_reported":1702336035,"current_range_meters":26000,"station_id":"ce4bhah2rcd13ifvqei0","pricing_plan_id":"free"},{"bike_id":"f1d5717b-05bd-4abb-bc8d-ea0a3935464c","system_id":"levelo_inurba_marseille","lat":43.284639,"lon":5.358955,"is_reserved":false,"is_disabled":false,"rental_uris":{"android":"levelo://app?vid=f1d5717b-05bd-4abb-bc8d-ea0a3935464c","ios":"levelo://app?vid=f1d5717b-05bd-4abb-bc8d-ea0a3935464c"},"vehicle_type_id":"4","last_reported":1702336035,"current_range_meters":30000,"station_id":"ce4bhah2rcd13ifvqei0","pricing_plan_id":"free"},{"bike_id":"84f594c0-837d-4c3e-b8c1-19a843f36106","system_id":"levelo_inurba_marseille","lat":43.284538,"lon":5.358657,"is_reserved":false,"is_disabled":false,"rental_uris":{"android":"levelo://app?vid=84f594c0-837d-4c3e-b8c1-19a843f36106","ios":"levelo://app?vid=84f594c0-837d-4c3e-b8c1-19a843f36106"},"vehicle_type_id":"4","last_reported":1702336035,"current_range_meters":31200,"station_id":"ce4bhah2rcd13ifvqei0","pricing_plan_id":"free"},{"bike_id":"845b3529-fd4b-44be-8e43-212a8a058843","system_id":"levelo_inurba_marseille","lat":43.2846,"lon":5.35897,"is_reserved":false,"is_disabled":false,"rental_uris":{"android":"levelo://app?vid=845b3529-fd4b-44be-8e43-212a8a058843","ios":"levelo://app?vid=845b3529-fd4b-44be-8e43-212a8a058843"},"vehicle_type_id":"4","last_reported":1702336035,"current_range_meters":18400,"station_id":"ce4bhah2rcd13ifvqei0","pricing_plan_id":"free"},{"bike_id":"724221d7-1785-45c6-ac88-169dd374ce36","system_id":"levelo_inurba_marseille","lat":43.284538,"lon":5.358657,"is_reserved":false,"is_disabled":false,"rental_uris":{"android":"levelo://app?vid=724221d7-1785-45c6-ac88-169dd374ce36","ios":"levelo://app?vid=724221d7-1785-45c6-ac88-169dd374ce36"},"vehicle_type_id":"4","last_reported":1702336035,"current_range_meters":3600,"station_id":"ce4bhah2rcd13ifvqei0","pricing_plan_id":"free"},{"bike_id":"15d55d0f-f08c-49b5-bbc4-736950b1131e","system_id":"levelo_inurba_marseille","lat":43.284538,"lon":5.358657,"is_reserved":false,"is_disabled":false,"rental_uris":{"android":"levelo://app?vid=15d55d0f-f08c-49b5-bbc4-736950b1131e","ios":"levelo://app?vid=15d55d0f-f08c-49b5-bbc4-736950b1131e"},"vehicle_type_id":"4","last_reported":1702336035,"current_range_meters":21600,"station_id":"ce4bhah2rcd13ifvqei0","pricing_plan_id":"free"},{"bike_id":"ff87e69a-80ac-4c6c-9a15-ae17ff91f198","system_id":"levelo_inurba_marseille","lat":43.285856,"lon":5.350771,"is_reserved":false,"is_disabled":false,"rental_uris":{"android":"levelo://app?vid=ff87e69a-80ac-4c6c-9a15-ae17ff91f198","ios":"levelo://app?vid=ff87e69a-80ac-4c6c-9a15-ae17ff91f198"},"vehicle_type_id":"4","last_reported":1702336035,"current_range_meters":27200,"station_id":"ce4bhch2rcd13ifvqeug","pricing_plan_id":"free"},{"bike_id":"6d1885bf-915b-4323-8d7f-0a1ba1e4c02e","system_id":"levelo_inurba_marseille","lat":43.28614,"lon":5.35102,"is_reserved":false,"is_disabled":false,"rental_uris":{"android":"levelo://app?vid=6d1885bf-915b-4323-8d7f-0a1ba1e4c02e","ios":"levelo://app?vid=6d1885bf-915b-4323-8d7f-0a1ba1e4c02e"},"vehicle_type_id":"4","last_reported":1702336035,"current_range_meters":31200,"station_id":"ce4bhch2rcd13ifvqeug","pricing_plan_id":"free"},{"bike_id":"97d8fcc7-4aef-45da-b019-c3d5381f038e","system_id":"levelo_inurba_marseille","lat":43.28615,"lon":5.35094,"is_reserved":false,"is_disabled":false,"rental_uris":{"android":"levelo://app?vid=97d8fcc7-4aef-45da-b019-c3d5381f038e","ios":"levelo://app?vid=97d8fcc7-4aef-45da-b019-c3d5381f038e"},"vehicle_type_id":"4","last_reported":1702336035,"current_range_meters":29600,"station_id":"ce4bhch2rcd13ifvqeug","pricing_plan_id":"free"},{"bike_id":"9448bc6a-b702-4d60-b4a5-061ae5b058aa","system_id":"levelo_inurba_marseille","lat":43.319179,"lon":5.407725,"is_reserved":false,"is_disabled":false,"rental_uris":{"android":"levelo://app?vid=9448bc6a-b702-4d60-b4a5-061ae5b058aa","ios":"levelo://app?vid=9448bc6a-b702-4d60-b4a5-061ae5b058aa"},"vehicle_type_id":"4","last_reported":1702336035,"current_range_meters":20000,"station_id":"ce4bhq12rcd13ifvqhig","pricing_plan_id":"free"},{"bike_id":"66cba741-1221-4d29-a72f-f4e0b2ba6a22","system_id":"levelo_inurba_marseille","lat":43.337168,"lon":5.391825,"is_reserved":false,"is_disabled":false,"rental_uris":{"android":"levelo://app?vid=66cba741-1221-4d29-a72f-f4e0b2ba6a22","ios":"levelo://app?vid=66cba741-1221-4d29-a72f-f4e0b2ba6a22"},"vehicle_type_id":"4","last_reported":1702336035,"current_range_meters":30000,"station_id":"ce4bhr92rcd13ifvqhsg","pricing_plan_id":"free"},{"bike_id":"d01d04a1-8264-49b2-b576-4ea9dbacab40","system_id":"levelo_inurba_marseille","lat":43.323464,"lon":5.406297,"is_reserved":false,"is_disabled":false,"rental_uris":{"android":"levelo://app?vid=d01d04a1-8264-49b2-b576-4ea9dbacab40","ios":"levelo://app?vid=d01d04a1-8264-49b2-b576-4ea9dbacab40"},"vehicle_type_id":"4","last_reported":1702336035,"current_range_meters":26800,"station_id":"ce4bhq92rcd13ifvqhjg","pricing_plan_id":"free"},{"bike_id":"ae580ee0-516c-41dd-85d9-7b4cf4de99e6","system_id":"levelo_inurba_marseille","lat":43.284214,"lon":5.349706,"is_reserved":false,"is_disabled":false,"rental_uris":{"android":"levelo://app?vid=ae580ee0-516c-41dd-85d9-7b4cf4de99e6","ios":"levelo://app?vid=ae580ee0-516c-41dd-85d9-7b4cf4de99e6"},"vehicle_type_id":"4","last_reported":1702336035,"current_range_meters":26400,"station_id":"ce4bhbh2rcd13ifvqepg","pricing_plan_id":"free"},{"bike_id":"f6574a55-166a-4329-bb6d-196c34dd8838","system_id":"levelo_inurba_marseille","lat":43.283498,"lon":5.380948,"is_reserved":false,"is_disabled":false,"rental_uris":{"android":"levelo://app?vid=f6574a55-166a-4329-bb6d-196c34dd8838","ios":"levelo://app?vid=f6574a55-166a-4329-bb6d-196c34dd8838"},"vehicle_type_id":"4","last_reported":1702336035,"current_range_meters":11200,"station_id":"ce4bh412rcd13ifvqdr0","pricing_plan_id":"free"},{"bike_id":"5d99bfdc-7aaf-4496-8807-4ad810f3a059","system_id":"levelo_inurba_marseille","lat":43.289363,"lon":5.396322,"is_reserved":false,"is_disabled":false,"rental_uris":{"android":"levelo://app?vid=5d99bfdc-7aaf-4496-8807-4ad810f3a059","ios":"levelo://app?vid=5d99bfdc-7aaf-4496-8807-4ad810f3a059"},"vehicle_type_id":"4","last_reported":1702336035,"current_range_meters":13600,"station_id":"ce4bh3h2rcd13ifvqdn0","pricing_plan_id":"free"},{"bike_id":"5f69a46f-fde0-46a8-bd05-66bb7d15ddb8","system_id":"levelo_inurba_marseille","lat":43.289363,"lon":5.396322,"is_reserved":false,"is_disabled":false,"rental_uris":{"android":"levelo://app?vid=5f69a46f-fde0-46a8-bd05-66bb7d15ddb8","ios":"levelo://app?vid=5f69a46f-fde0-46a8-bd05-66bb7d15ddb8"},"vehicle_type_id":"4","last_reported":1702336035,"current_range_meters":9200,"station_id":"ce4bh3h2rcd13ifvqdn0","pricing_plan_id":"free"},{"bike_id":"309b400e-d2d9-4664-b4b9-946a4b67c0a9","system_id":"levelo_inurba_marseille","lat":43.289363,"lon":5.396322,"is_reserved":false,"is_disabled":false,"rental_uris":{"android":"levelo://app?vid=309b400e-d2d9-4664-b4b9-946a4b67c0a9","ios":"levelo://app?vid=309b400e-d2d9-4664-b4b9-946a4b67c0a9"},"vehicle_type_id":"4","last_reported":1702336035,"current_range_meters":4800,"station_id":"ce4bh3h2rcd13ifvqdn0","pricing_plan_id":"free"},{"bike_id":"abb1e6da-a61f-491b-80a6-8320eb2b41ab","system_id":"levelo_inurba_marseille","lat":43.289363,"lon":5.396322,"is_reserved":false,"is_disabled":false,"rental_uris":{"android":"levelo://app?vid=abb1e6da-a61f-491b-80a6-8320eb2b41ab","ios":"levelo://app?vid=abb1e6da-a61f-491b-80a6-8320eb2b41ab"},"vehicle_type_id":"4","last_reported":1702336035,"current_range_meters":22800,"station_id":"ce4bh3h2rcd13ifvqdn0","pricing_plan_id":"free"},{"bike_id":"65ef7150-57b6-40d5-86ee-e28d8cba7227","system_id":"levelo_inurba_marseille","lat":43.292724,"lon":5.401131,"is_reserved":false,"is_disabled":false,"rental_uris":{"android":"levelo://app?vid=65ef7150-57b6-40d5-86ee-e28d8cba7227","ios":"levelo://app?vid=65ef7150-57b6-40d5-86ee-e28d8cba7227"},"vehicle_type_id":"4","last_reported":1702336035,"current_range_meters":3200,"station_id":"ce4bh312rcd13ifvqdk0","pricing_plan_id":"free"},{"bike_id":"9b19faad-5930-4f3f-946a-3252f1bcefc8","system_id":"levelo_inurba_marseille","lat":43.292724,"lon":5.401131,"is_reserved":false,"is_disabled":false,"rental_uris":{"android":"levelo://app?vid=9b19faad-5930-4f3f-946a-3252f1bcefc8","ios":"levelo://app?vid=9b19faad-5930-4f3f-946a-3252f1bcefc8"},"vehicle_type_id":"4","last_reported":1702336035,"current_range_meters":22400,"station_id":"ce4bh312rcd13ifvqdk0","pricing_plan_id":"free"},{"bike_id":"4f7e38fe-5f60-4585-a16d-18afc38aa6b5","system_id":"levelo_inurba_marseille","lat":43.282742,"lon":5.350707,"is_reserved":false,"is_disabled":false,"rental_uris":{"android":"levelo://app?vid=4f7e38fe-5f60-4585-a16d-18afc38aa6b5","ios":"levelo://app?vid=4f7e38fe-5f60-4585-a16d-18afc38aa6b5"},"vehicle_type_id":"4","last_reported":1702336035,"current_range_meters":29600,"station_id":"ce4bhbp2rcd13ifvqerg","pricing_plan_id":"free"},{"bike_id":"e5b512cb-e27d-4458-a743-793d6f8f663b","system_id":"levelo_inurba_marseille","lat":43.282744,"lon":5.350533,"is_reserved":false,"is_disabled":false,"rental_uris":{"android":"levelo://app?vid=e5b512cb-e27d-4458-a743-793d6f8f663b","ios":"levelo://app?vid=e5b512cb-e27d-4458-a743-793d6f8f663b"},"vehicle_type_id":"4","last_reported":1702336035,"current_range_meters":29600,"station_id":"ce4bhbp2rcd13ifvqerg","pricing_plan_id":"free"},{"bike_id":"a6293421-2f53-4d22-b3a9-1a774e17b5cb","system_id":"levelo_inurba_marseille","lat":43.282754,"lon":5.350519,"is_reserved":false,"is_disabled":false,"rental_uris":{"android":"levelo://app?vid=a6293421-2f53-4d22-b3a9-1a774e17b5cb","ios":"levelo://app?vid=a6293421-2f53-4d22-b3a9-1a774e17b5cb"},"vehicle_type_id":"4","last_reported":1702336035,"current_range_meters":30000,"station_id":"ce4bhbp2rcd13ifvqerg","pricing_plan_id":"free"},{"bike_id":"392ebbd4-e44e-4116-91c8-2550b13da290","system_id":"levelo_inurba_marseille","lat":43.282744,"lon":5.350533,"is_reserved":false,"is_disabled":false,"rental_uris":{"android":"levelo://app?vid=392ebbd4-e44e-4116-91c8-2550b13da290","ios":"levelo://app?vid=392ebbd4-e44e-4116-91c8-2550b13da290"},"vehicle_type_id":"4","last_reported":1702336035,"current_range_meters":26800,"station_id":"ce4bhbp2rcd13ifvqerg","pricing_plan_id":"free"},{"bike_id":"1b4f1150-045d-4d97-b30a-8a15d9a6a242","system_id":"levelo_inurba_marseille","lat":43.282744,"lon":5.350533,"is_reserved":false,"is_disabled":false,"rental_uris":{"android":"levelo://app?vid=1b4f1150-045d-4d97-b30a-8a15d9a6a242","ios":"levelo://app?vid=1b4f1150-045d-4d97-b30a-8a15d9a6a242"},"vehicle_type_id":"4","last_reported":1702336035,"current_range_meters":31200,"station_id":"ce4bhbp2rcd13ifvqerg","pricing_plan_id":"free"},{"bike_id":"1a755c5d-9b3c-4f8b-a5a3-2cb0e2abc85a","system_id":"levelo_inurba_marseille","lat":43.282754,"lon":5.350519,"is_reserved":false,"is_disabled":false,"rental_uris":{"android":"levelo://app?vid=1a755c5d-9b3c-4f8b-a5a3-2cb0e2abc85a","ios":"levelo://app?vid=1a755c5d-9b3c-4f8b-a5a3-2cb0e2abc85a"},"vehicle_type_id":"4","last_reported":1702336035,"current_range_meters":30400,"station_id":"ce4bhbp2rcd13ifvqerg","pricing_plan_id":"free"},{"bike_id":"3761c4b2-9870-4544-aced-d720a2c79b1c","system_id":"levelo_inurba_marseille","lat":43.282744,"lon":5.350533,"is_reserved":false,"is_disabled":false,"rental_uris":{"android":"levelo://app?vid=3761c4b2-9870-4544-aced-d720a2c79b1c","ios":"levelo://app?vid=3761c4b2-9870-4544-aced-d720a2c79b1c"},"vehicle_type_id":"4","last_reported":1702336035,"current_range_meters":24800,"station_id":"ce4bhbp2rcd13ifvqerg","pricing_plan_id":"free"},{"bike_id":"a9087632-d97b-4295-ac27-f172913e6205","system_id":"levelo_inurba_marseille","lat":43.280381,"lon":5.369468,"is_reserved":false,"is_disabled":false,"rental_uris":{"android":"levelo://app?vid=a9087632-d97b-4295-ac27-f172913e6205","ios":"levelo://app?vid=a9087632-d97b-4295-ac27-f172913e6205"},"vehicle_type_id":"4","last_reported":1702336035,"current_range_meters":28400,"station_id":"ce4bha12rcd13ifvqef0","pricing_plan_id":"free"},{"bike_id":"dbb32c68-89ea-42d5-9bbd-5de5751b5866","system_id":"levelo_inurba_marseille","lat":43.280382,"lon":5.369291,"is_reserved":false,"is_disabled":false,"rental_uris":{"android":"levelo://app?vid=dbb32c68-89ea-42d5-9bbd-5de5751b5866","ios":"levelo://app?vid=dbb32c68-89ea-42d5-9bbd-5de5751b5866"},"vehicle_type_id":"4","last_reported":1702336035,"current_range_meters":31200,"station_id":"ce4bha12rcd13ifvqef0","pricing_plan_id":"free"},{"bike_id":"4573ed2e-c755-4cfb-958a-78dda47a3e37","system_id":"levelo_inurba_marseille","lat":43.28039,"lon":5.369297,"is_reserved":false,"is_disabled":false,"rental_uris":{"android":"levelo://app?vid=4573ed2e-c755-4cfb-958a-78dda47a3e37","ios":"levelo://app?vid=4573ed2e-c755-4cfb-958a-78dda47a3e37"},"vehicle_type_id":"4","last_reported":1702336035,"current_range_meters":22000,"station_id":"ce4bha12rcd13ifvqef0","pricing_plan_id":"free"},{"bike_id":"4ee53fc3-95fe-4ec3-ae50-b9a8cd12442e","system_id":"levelo_inurba_marseille","lat":43.280382,"lon":5.369291,"is_reserved":false,"is_disabled":false,"rental_uris":{"android":"levelo://app?vid=4ee53fc3-95fe-4ec3-ae50-b9a8cd12442e","ios":"levelo://app?vid=4ee53fc3-95fe-4ec3-ae50-b9a8cd12442e"},"vehicle_type_id":"4","last_reported":1702336035,"current_range_meters":29600,"station_id":"ce4bha12rcd13ifvqef0","pricing_plan_id":"free"},{"bike_id":"07a01123-b2c1-4114-8136-93f2d1c77450","system_id":"levelo_inurba_marseille","lat":43.280382,"lon":5.369291,"is_reserved":false,"is_disabled":false,"rental_uris":{"android":"levelo://app?vid=07a01123-b2c1-4114-8136-93f2d1c77450","ios":"levelo://app?vid=07a01123-b2c1-4114-8136-93f2d1c77450"},"vehicle_type_id":"4","last_reported":1702336035,"current_range_meters":31200,"station_id":"ce4bha12rcd13ifvqef0","pricing_plan_id":"free"},{"bike_id":"48a99b63-f7d5-4782-a8c6-fa4d78f26f3c","system_id":"levelo_inurba_marseille","lat":43.281044,"lon":5.378308,"is_reserved":false,"is_disabled":false,"rental_uris":{"android":"levelo://app?vid=48a99b63-f7d5-4782-a8c6-fa4d78f26f3c","ios":"levelo://app?vid=48a99b63-f7d5-4782-a8c6-fa4d78f26f3c"},"vehicle_type_id":"4","last_reported":1702336035,"current_range_meters":26400,"station_id":"ce4bha12rcd13ifvqee0","pricing_plan_id":"free"},{"bike_id":"2a4eaad2-9e40-497d-bacc-35b57af0f0de","system_id":"levelo_inurba_marseille","lat":43.28103,"lon":5.37847,"is_reserved":false,"is_disabled":false,"rental_uris":{"android":"levelo://app?vid=2a4eaad2-9e40-497d-bacc-35b57af0f0de","ios":"levelo://app?vid=2a4eaad2-9e40-497d-bacc-35b57af0f0de"},"vehicle_type_id":"4","last_reported":1702336035,"current_range_meters":14800,"station_id":"ce4bha12rcd13ifvqee0","pricing_plan_id":"free"},{"bike_id":"fb8736e0-ef38-4ed5-bf00-6bc727576832","system_id":"levelo_inurba_marseille","lat":43.281044,"lon":5.378308,"is_reserved":false,"is_disabled":false,"rental_uris":{"android":"levelo://app?vid=fb8736e0-ef38-4ed5-bf00-6bc727576832","ios":"levelo://app?vid=fb8736e0-ef38-4ed5-bf00-6bc727576832"},"vehicle_type_id":"4","last_reported":1702336035,"current_range_meters":15600,"station_id":"ce4bha12rcd13ifvqee0","pricing_plan_id":"free"},{"bike_id":"62a0f8a1-9f18-4a0f-acb1-ec155a5a27e6","system_id":"levelo_inurba_marseille","lat":43.296263,"lon":5.40601,"is_reserved":false,"is_disabled":false,"rental_uris":{"android":"levelo://app?vid=62a0f8a1-9f18-4a0f-acb1-ec155a5a27e6","ios":"levelo://app?vid=62a0f8a1-9f18-4a0f-acb1-ec155a5a27e6"},"vehicle_type_id":"4","last_reported":1702336035,"current_range_meters":23600,"station_id":"ce4bh0h2rcd13ifvqd60","pricing_plan_id":"free"},{"bike_id":"aa4ac0c8-3251-4954-b70d-99187e5600ce","system_id":"levelo_inurba_marseille","lat":43.28096,"lon":5.378426,"is_reserved":false,"is_disabled":false,"rental_uris":{"android":"levelo://app?vid=aa4ac0c8-3251-4954-b70d-99187e5600ce","ios":"levelo://app?vid=aa4ac0c8-3251-4954-b70d-99187e5600ce"},"vehicle_type_id":"4","last_reported":1702336035,"current_range_meters":19200,"station_id":"ce4bha12rcd13ifvqee0","pricing_plan_id":"free"},{"bike_id":"160bd7e5-05f6-43a1-9bc7-4629c7a42466","system_id":"levelo_inurba_marseille","lat":43.31325,"lon":5.4128,"is_reserved":false,"is_disabled":false,"rental_uris":{"android":"levelo://app?vid=160bd7e5-05f6-43a1-9bc7-4629c7a42466","ios":"levelo://app?vid=160bd7e5-05f6-43a1-9bc7-4629c7a42466"},"vehicle_type_id":"4","last_reported":1702336035,"current_range_meters":0,"station_id":"","pricing_plan_id":"free"},{"bike_id":"0dd255ef-4b3d-47cf-a762-0dd0e9c0af2c","system_id":"levelo_inurba_marseille","lat":43.28568,"lon":5.39497,"is_reserved":false,"is_disabled":false,"rental_uris":{"android":"levelo://app?vid=0dd255ef-4b3d-47cf-a762-0dd0e9c0af2c","ios":"levelo://app?vid=0dd255ef-4b3d-47cf-a762-0dd0e9c0af2c"},"vehicle_type_id":"4","last_reported":1702336035,"current_range_meters":3200,"station_id":"ce4bh292rcd13ifvqdg0","pricing_plan_id":"free"},{"bike_id":"08a22758-971d-43d7-b06f-e03f69b8c19b","system_id":"levelo_inurba_marseille","lat":43.326605,"lon":5.409903,"is_reserved":false,"is_disabled":false,"rental_uris":{"android":"levelo://app?vid=08a22758-971d-43d7-b06f-e03f69b8c19b","ios":"levelo://app?vid=08a22758-971d-43d7-b06f-e03f69b8c19b"},"vehicle_type_id":"4","last_reported":1702336035,"current_range_meters":30400,"station_id":"ce4bhpp2rcd13ifvqhgg","pricing_plan_id":"free"},{"bike_id":"80ffd250-5d37-49a8-abc1-e8d034ca534a","system_id":"levelo_inurba_marseille","lat":43.326605,"lon":5.409903,"is_reserved":false,"is_disabled":false,"rental_uris":{"android":"levelo://app?vid=80ffd250-5d37-49a8-abc1-e8d034ca534a","ios":"levelo://app?vid=80ffd250-5d37-49a8-abc1-e8d034ca534a"},"vehicle_type_id":"4","last_reported":1702336035,"current_range_meters":24000,"station_id":"ce4bhpp2rcd13ifvqhgg","pricing_plan_id":"free"},{"bike_id":"a934d76b-8ba7-4197-bbf0-5f1568c9e6b9","system_id":"levelo_inurba_marseille","lat":43.304188,"lon":5.412904,"is_reserved":false,"is_disabled":false,"rental_uris":{"android":"levelo://app?vid=a934d76b-8ba7-4197-bbf0-5f1568c9e6b9","ios":"levelo://app?vid=a934d76b-8ba7-4197-bbf0-5f1568c9e6b9"},"vehicle_type_id":"4","last_reported":1702336035,"current_range_meters":29600,"station_id":"ce4bhop2rcd13ifvqh8g","pricing_plan_id":"free"},{"bike_id":"3a2cb343-3175-4ccf-9869-02132abfea43","system_id":"levelo_inurba_marseille","lat":43.287154,"lon":5.399979,"is_reserved":false,"is_disabled":false,"rental_uris":{"android":"levelo://app?vid=3a2cb343-3175-4ccf-9869-02132abfea43","ios":"levelo://app?vid=3a2cb343-3175-4ccf-9869-02132abfea43"},"vehicle_type_id":"4","last_reported":1702336035,"current_range_meters":20800,"station_id":"ce4bho92rcd13ifvqh3g","pricing_plan_id":"free"},{"bike_id":"05b7994a-2ac0-4d51-9178-7ed777dfcd52","system_id":"levelo_inurba_marseille","lat":43.279087,"lon":5.380114,"is_reserved":false,"is_disabled":false,"rental_uris":{"android":"levelo://app?vid=05b7994a-2ac0-4d51-9178-7ed777dfcd52","ios":"levelo://app?vid=05b7994a-2ac0-4d51-9178-7ed777dfcd52"},"vehicle_type_id":"4","last_reported":1702336035,"current_range_meters":28400,"station_id":"ce4bhf92rcd13ifvqf50","pricing_plan_id":"free"},{"bike_id":"ef1028cd-ebbe-49ad-9388-3915a9fa2e4e","system_id":"levelo_inurba_marseille","lat":43.287154,"lon":5.399979,"is_reserved":false,"is_disabled":false,"rental_uris":{"android":"levelo://app?vid=ef1028cd-ebbe-49ad-9388-3915a9fa2e4e","ios":"levelo://app?vid=ef1028cd-ebbe-49ad-9388-3915a9fa2e4e"},"vehicle_type_id":"4","last_reported":1702336035,"current_range_meters":27200,"station_id":"ce4bho92rcd13ifvqh3g","pricing_plan_id":"free"},{"bike_id":"fa4bb5fb-ad72-4f07-be70-d85fcf016197","system_id":"levelo_inurba_marseille","lat":43.287154,"lon":5.399979,"is_reserved":false,"is_disabled":false,"rental_uris":{"android":"levelo://app?vid=fa4bb5fb-ad72-4f07-be70-d85fcf016197","ios":"levelo://app?vid=fa4bb5fb-ad72-4f07-be70-d85fcf016197"},"vehicle_type_id":"4","last_reported":1702336035,"current_range_meters":31600,"station_id":"ce4bho92rcd13ifvqh3g","pricing_plan_id":"free"},{"bike_id":"7a5609ea-b2e3-4e98-9903-52802e3c7f03","system_id":"levelo_inurba_marseille","lat":43.287154,"lon":5.399979,"is_reserved":false,"is_disabled":false,"rental_uris":{"android":"levelo://app?vid=7a5609ea-b2e3-4e98-9903-52802e3c7f03","ios":"levelo://app?vid=7a5609ea-b2e3-4e98-9903-52802e3c7f03"},"vehicle_type_id":"4","last_reported":1702336035,"current_range_meters":24400,"station_id":"ce4bho92rcd13ifvqh3g","pricing_plan_id":"free"},{"bike_id":"739792a3-e148-4525-a252-99995a5dac4a","system_id":"levelo_inurba_marseille","lat":43.287154,"lon":5.399979,"is_reserved":false,"is_disabled":false,"rental_uris":{"android":"levelo://app?vid=739792a3-e148-4525-a252-99995a5dac4a","ios":"levelo://app?vid=739792a3-e148-4525-a252-99995a5dac4a"},"vehicle_type_id":"4","last_reported":1702336035,"current_range_meters":20800,"station_id":"ce4bho92rcd13ifvqh3g","pricing_plan_id":"free"},{"bike_id":"90694297-c58d-41af-84d8-ae5be0d535da","system_id":"levelo_inurba_marseille","lat":43.287154,"lon":5.399979,"is_reserved":false,"is_disabled":false,"rental_uris":{"android":"levelo://app?vid=90694297-c58d-41af-84d8-ae5be0d535da","ios":"levelo://app?vid=90694297-c58d-41af-84d8-ae5be0d535da"},"vehicle_type_id":"4","last_reported":1702336035,"current_range_meters":0,"station_id":"ce4bho92rcd13ifvqh3g","pricing_plan_id":"free"},{"bike_id":"0173838d-816d-45f6-b30b-9d918c306426","system_id":"levelo_inurba_marseille","lat":43.287154,"lon":5.399979,"is_reserved":false,"is_disabled":false,"rental_uris":{"android":"levelo://app?vid=0173838d-816d-45f6-b30b-9d918c306426","ios":"levelo://app?vid=0173838d-816d-45f6-b30b-9d918c306426"},"vehicle_type_id":"4","last_reported":1702336035,"current_range_meters":0,"station_id":"ce4bho92rcd13ifvqh3g","pricing_plan_id":"free"},{"bike_id":"047b17de-cf4e-43f4-aa5b-08bf606e91cd","system_id":"levelo_inurba_marseille","lat":43.287154,"lon":5.399979,"is_reserved":false,"is_disabled":false,"rental_uris":{"android":"levelo://app?vid=047b17de-cf4e-43f4-aa5b-08bf606e91cd","ios":"levelo://app?vid=047b17de-cf4e-43f4-aa5b-08bf606e91cd"},"vehicle_type_id":"4","last_reported":1702336035,"current_range_meters":21200,"station_id":"ce4bho92rcd13ifvqh3g","pricing_plan_id":"free"},{"bike_id":"4b4fea6b-03c8-4142-91e1-0d5cb090fb64","system_id":"levelo_inurba_marseille","lat":43.299579,"lon":5.413255,"is_reserved":false,"is_disabled":false,"rental_uris":{"android":"levelo://app?vid=4b4fea6b-03c8-4142-91e1-0d5cb090fb64","ios":"levelo://app?vid=4b4fea6b-03c8-4142-91e1-0d5cb090fb64"},"vehicle_type_id":"4","last_reported":1702336035,"current_range_meters":19200,"station_id":"ce4bhp12rcd13ifvqh9g","pricing_plan_id":"free"},{"bike_id":"2cfe6c24-55f5-4942-b934-2484d6740bd3","system_id":"levelo_inurba_marseille","lat":43.292569,"lon":5.409107,"is_reserved":false,"is_disabled":false,"rental_uris":{"android":"levelo://app?vid=2cfe6c24-55f5-4942-b934-2484d6740bd3","ios":"levelo://app?vid=2cfe6c24-55f5-4942-b934-2484d6740bd3"},"vehicle_type_id":"4","last_reported":1702336035,"current_range_meters":17200,"station_id":"ce4bh192rcd13ifvqdc0","pricing_plan_id":"free"},{"bike_id":"d2d1a980-81d0-4b43-a286-ebecc7be733a","system_id":"levelo_inurba_marseille","lat":43.276199,"lon":5.361164,"is_reserved":false,"is_disabled":false,"rental_uris":{"android":"levelo://app?vid=d2d1a980-81d0-4b43-a286-ebecc7be733a","ios":"levelo://app?vid=d2d1a980-81d0-4b43-a286-ebecc7be733a"},"vehicle_type_id":"4","last_reported":1702336035,"current_range_meters":24400,"station_id":"ce4bgj92rcd13ifvqbe0","pricing_plan_id":"free"},{"bike_id":"7cddd4cc-2c7d-4381-9bfa-f684cdc32fa0","system_id":"levelo_inurba_marseille","lat":43.28009,"lon":5.39022,"is_reserved":false,"is_disabled":false,"rental_uris":{"android":"levelo://app?vid=7cddd4cc-2c7d-4381-9bfa-f684cdc32fa0","ios":"levelo://app?vid=7cddd4cc-2c7d-4381-9bfa-f684cdc32fa0"},"vehicle_type_id":"4","last_reported":1702336035,"current_range_meters":17600,"station_id":"","pricing_plan_id":"free"},{"bike_id":"0affd34a-26a3-4b23-9979-f74eada3d752","system_id":"levelo_inurba_marseille","lat":43.276179,"lon":5.361009,"is_reserved":false,"is_disabled":false,"rental_uris":{"android":"levelo://app?vid=0affd34a-26a3-4b23-9979-f74eada3d752","ios":"levelo://app?vid=0affd34a-26a3-4b23-9979-f74eada3d752"},"vehicle_type_id":"4","last_reported":1702336035,"current_range_meters":15200,"station_id":"ce4bgj92rcd13ifvqbe0","pricing_plan_id":"free"},{"bike_id":"f1b5931d-d3b9-4483-b874-4227e70f363c","system_id":"levelo_inurba_marseille","lat":43.27616,"lon":5.36119,"is_reserved":false,"is_disabled":false,"rental_uris":{"android":"levelo://app?vid=f1b5931d-d3b9-4483-b874-4227e70f363c","ios":"levelo://app?vid=f1b5931d-d3b9-4483-b874-4227e70f363c"},"vehicle_type_id":"4","last_reported":1702336035,"current_range_meters":31200,"station_id":"ce4bgj92rcd13ifvqbe0","pricing_plan_id":"free"},{"bike_id":"2311aaf9-3908-4009-b838-0e5f77c6048a","system_id":"levelo_inurba_marseille","lat":43.27618,"lon":5.361009,"is_reserved":false,"is_disabled":false,"rental_uris":{"android":"levelo://app?vid=2311aaf9-3908-4009-b838-0e5f77c6048a","ios":"levelo://app?vid=2311aaf9-3908-4009-b838-0e5f77c6048a"},"vehicle_type_id":"4","last_reported":1702336035,"current_range_meters":30800,"station_id":"ce4bgj92rcd13ifvqbe0","pricing_plan_id":"free"},{"bike_id":"6fb7d017-b245-43a0-8373-a842d3457d15","system_id":"levelo_inurba_marseille","lat":43.286837,"lon":5.40597,"is_reserved":false,"is_disabled":false,"rental_uris":{"android":"levelo://app?vid=6fb7d017-b245-43a0-8373-a842d3457d15","ios":"levelo://app?vid=6fb7d017-b245-43a0-8373-a842d3457d15"},"vehicle_type_id":"4","last_reported":1702336035,"current_range_meters":6000,"station_id":"","pricing_plan_id":"free"},{"bike_id":"c9df4d72-4a3c-4a38-bf52-884fff4689d7","system_id":"levelo_inurba_marseille","lat":43.280784,"lon":5.396622,"is_reserved":false,"is_disabled":false,"rental_uris":{"android":"levelo://app?vid=c9df4d72-4a3c-4a38-bf52-884fff4689d7","ios":"levelo://app?vid=c9df4d72-4a3c-4a38-bf52-884fff4689d7"},"vehicle_type_id":"4","last_reported":1702336035,"current_range_meters":29600,"station_id":"ce4bho12rcd13ifvqh2g","pricing_plan_id":"free"},{"bike_id":"5ec0f610-67d6-4362-9fee-eee9426eb4cf","system_id":"levelo_inurba_marseille","lat":43.303837,"lon":5.418724,"is_reserved":false,"is_disabled":false,"rental_uris":{"android":"levelo://app?vid=5ec0f610-67d6-4362-9fee-eee9426eb4cf","ios":"levelo://app?vid=5ec0f610-67d6-4362-9fee-eee9426eb4cf"},"vehicle_type_id":"4","last_reported":1702336035,"current_range_meters":28000,"station_id":"ce4bhop2rcd13ifvqh7g","pricing_plan_id":"free"},{"bike_id":"36cbd5e5-ee8e-414a-82bf-6205e83d5f7a","system_id":"levelo_inurba_marseille","lat":43.278401,"lon":5.392152,"is_reserved":false,"is_disabled":false,"rental_uris":{"android":"levelo://app?vid=36cbd5e5-ee8e-414a-82bf-6205e83d5f7a","ios":"levelo://app?vid=36cbd5e5-ee8e-414a-82bf-6205e83d5f7a"},"vehicle_type_id":"4","last_reported":1702336035,"current_range_meters":16400,"station_id":"ce4bhjp2rcd13ifvqga0","pricing_plan_id":"free"},{"bike_id":"9ea10af0-3940-4224-a189-633a8d8b6409","system_id":"levelo_inurba_marseille","lat":43.273613,"lon":5.362705,"is_reserved":false,"is_disabled":false,"rental_uris":{"android":"levelo://app?vid=9ea10af0-3940-4224-a189-633a8d8b6409","ios":"levelo://app?vid=9ea10af0-3940-4224-a189-633a8d8b6409"},"vehicle_type_id":"4","last_reported":1702336035,"current_range_meters":30800,"station_id":"ce4bhbh2rcd13ifvqeo0","pricing_plan_id":"free"},{"bike_id":"b946a41a-8eab-464e-bb8b-f8525b522ed8","system_id":"levelo_inurba_marseille","lat":43.273613,"lon":5.362705,"is_reserved":false,"is_disabled":false,"rental_uris":{"android":"levelo://app?vid=b946a41a-8eab-464e-bb8b-f8525b522ed8","ios":"levelo://app?vid=b946a41a-8eab-464e-bb8b-f8525b522ed8"},"vehicle_type_id":"4","last_reported":1702336035,"current_range_meters":24400,"station_id":"ce4bhbh2rcd13ifvqeo0","pricing_plan_id":"free"},{"bike_id":"1b2a1c4d-b89b-4b63-adda-6e0455bb8429","system_id":"levelo_inurba_marseille","lat":43.275625,"lon":5.384392,"is_reserved":false,"is_disabled":false,"rental_uris":{"android":"levelo://app?vid=1b2a1c4d-b89b-4b63-adda-6e0455bb8429","ios":"levelo://app?vid=1b2a1c4d-b89b-4b63-adda-6e0455bb8429"},"vehicle_type_id":"4","last_reported":1702336035,"current_range_meters":28400,"station_id":"ce4bhh92rcd13ifvqfi0","pricing_plan_id":"free"},{"bike_id":"f763e54d-5215-4eb1-9294-2cf58722503f","system_id":"levelo_inurba_marseille","lat":43.273609,"lon":5.362708,"is_reserved":false,"is_disabled":false,"rental_uris":{"android":"levelo://app?vid=f763e54d-5215-4eb1-9294-2cf58722503f","ios":"levelo://app?vid=f763e54d-5215-4eb1-9294-2cf58722503f"},"vehicle_type_id":"4","last_reported":1702336035,"current_range_meters":27200,"station_id":"ce4bhbh2rcd13ifvqeo0","pricing_plan_id":"free"},{"bike_id":"5f02cedd-59b2-4010-ab39-29a4a9b3518b","system_id":"levelo_inurba_marseille","lat":43.336148,"lon":5.410349,"is_reserved":false,"is_disabled":false,"rental_uris":{"android":"levelo://app?vid=5f02cedd-59b2-4010-ab39-29a4a9b3518b","ios":"levelo://app?vid=5f02cedd-59b2-4010-ab39-29a4a9b3518b"},"vehicle_type_id":"4","last_reported":1702336035,"current_range_meters":15200,"station_id":"ce4bhqh2rcd13ifvqhmg","pricing_plan_id":"free"},{"bike_id":"b25b4313-cda6-48cb-95d4-7ce169cb4e6d","system_id":"levelo_inurba_marseille","lat":43.33608,"lon":5.41031,"is_reserved":false,"is_disabled":false,"rental_uris":{"android":"levelo://app?vid=b25b4313-cda6-48cb-95d4-7ce169cb4e6d","ios":"levelo://app?vid=b25b4313-cda6-48cb-95d4-7ce169cb4e6d"},"vehicle_type_id":"4","last_reported":1702336035,"current_range_meters":20400,"station_id":"ce4bhqh2rcd13ifvqhmg","pricing_plan_id":"free"},{"bike_id":"529981d7-04c1-4bf8-956a-dbc0a4e9060c","system_id":"levelo_inurba_marseille","lat":43.336148,"lon":5.410349,"is_reserved":false,"is_disabled":false,"rental_uris":{"android":"levelo://app?vid=529981d7-04c1-4bf8-956a-dbc0a4e9060c","ios":"levelo://app?vid=529981d7-04c1-4bf8-956a-dbc0a4e9060c"},"vehicle_type_id":"4","last_reported":1702336035,"current_range_meters":2400,"station_id":"ce4bhqh2rcd13ifvqhmg","pricing_plan_id":"free"},{"bike_id":"3c7233a6-8ef0-4bde-8852-3101005b5b26","system_id":"levelo_inurba_marseille","lat":43.279952,"lon":5.400085,"is_reserved":false,"is_disabled":false,"rental_uris":{"android":"levelo://app?vid=3c7233a6-8ef0-4bde-8852-3101005b5b26","ios":"levelo://app?vid=3c7233a6-8ef0-4bde-8852-3101005b5b26"},"vehicle_type_id":"4","last_reported":1702336035,"current_range_meters":27600,"station_id":"ce4bho92rcd13ifvqh4g","pricing_plan_id":"free"},{"bike_id":"00924fa7-3716-4457-a6b3-fe78139fdf14","system_id":"levelo_inurba_marseille","lat":43.317121,"lon":5.423936,"is_reserved":false,"is_disabled":false,"rental_uris":{"android":"levelo://app?vid=00924fa7-3716-4457-a6b3-fe78139fdf14","ios":"levelo://app?vid=00924fa7-3716-4457-a6b3-fe78139fdf14"},"vehicle_type_id":"4","last_reported":1702336035,"current_range_meters":5600,"station_id":"ce4bhp92rcd13ifvqhbg","pricing_plan_id":"free"},{"bike_id":"b1c028eb-0fe1-4afa-b35c-b9783a0e9537","system_id":"levelo_inurba_marseille","lat":43.31723,"lon":5.42405,"is_reserved":false,"is_disabled":false,"rental_uris":{"android":"levelo://app?vid=b1c028eb-0fe1-4afa-b35c-b9783a0e9537","ios":"levelo://app?vid=b1c028eb-0fe1-4afa-b35c-b9783a0e9537"},"vehicle_type_id":"4","last_reported":1702336035,"current_range_meters":8000,"station_id":"ce4bhp92rcd13ifvqhbg","pricing_plan_id":"free"},{"bike_id":"e9df7e80-cad7-4858-b9e9-3d5450f0e6c3","system_id":"levelo_inurba_marseille","lat":43.272124,"lon":5.391768,"is_reserved":false,"is_disabled":false,"rental_uris":{"android":"levelo://app?vid=e9df7e80-cad7-4858-b9e9-3d5450f0e6c3","ios":"levelo://app?vid=e9df7e80-cad7-4858-b9e9-3d5450f0e6c3"},"vehicle_type_id":"4","last_reported":1702336035,"current_range_meters":10800,"station_id":"ce4bhhp2rcd13ifvqfm0","pricing_plan_id":"free"},{"bike_id":"114ed9a0-f405-4e5a-8abc-a36515ad57b3","system_id":"levelo_inurba_marseille","lat":43.27214,"lon":5.392309,"is_reserved":false,"is_disabled":false,"rental_uris":{"android":"levelo://app?vid=114ed9a0-f405-4e5a-8abc-a36515ad57b3","ios":"levelo://app?vid=114ed9a0-f405-4e5a-8abc-a36515ad57b3"},"vehicle_type_id":"4","last_reported":1702336035,"current_range_meters":22000,"station_id":"ce4bhhp2rcd13ifvqfm0","pricing_plan_id":"free"},{"bike_id":"182f3f4a-f110-4521-b014-2fdf07d66152","system_id":"levelo_inurba_marseille","lat":43.27007,"lon":5.38781,"is_reserved":false,"is_disabled":false,"rental_uris":{"android":"levelo://app?vid=182f3f4a-f110-4521-b014-2fdf07d66152","ios":"levelo://app?vid=182f3f4a-f110-4521-b014-2fdf07d66152"},"vehicle_type_id":"4","last_reported":1702336035,"current_range_meters":0,"station_id":"","pricing_plan_id":"free"},{"bike_id":"1d64da37-e124-4ab4-a918-56a5f5287e92","system_id":"levelo_inurba_marseille","lat":43.278128,"lon":5.407195,"is_reserved":false,"is_disabled":false,"rental_uris":{"android":"levelo://app?vid=1d64da37-e124-4ab4-a918-56a5f5287e92","ios":"levelo://app?vid=1d64da37-e124-4ab4-a918-56a5f5287e92"},"vehicle_type_id":"4","last_reported":1702336035,"current_range_meters":25600,"station_id":"ce4bhnh2rcd13ifvqgtg","pricing_plan_id":"free"},{"bike_id":"075af69d-d29d-4e72-9efd-a651f1afe17c","system_id":"levelo_inurba_marseille","lat":43.278128,"lon":5.407195,"is_reserved":false,"is_disabled":false,"rental_uris":{"android":"levelo://app?vid=075af69d-d29d-4e72-9efd-a651f1afe17c","ios":"levelo://app?vid=075af69d-d29d-4e72-9efd-a651f1afe17c"},"vehicle_type_id":"4","last_reported":1702336035,"current_range_meters":24800,"station_id":"ce4bhnh2rcd13ifvqgtg","pricing_plan_id":"free"},{"bike_id":"629197af-30a4-4732-afe0-3c712ab8a4ce","system_id":"levelo_inurba_marseille","lat":43.27952,"lon":5.41042,"is_reserved":false,"is_disabled":false,"rental_uris":{"android":"levelo://app?vid=629197af-30a4-4732-afe0-3c712ab8a4ce","ios":"levelo://app?vid=629197af-30a4-4732-afe0-3c712ab8a4ce"},"vehicle_type_id":"4","last_reported":1702336035,"current_range_meters":28000,"station_id":"ce4bhnp2rcd13ifvqh0g","pricing_plan_id":"free"},{"bike_id":"e355444f-467d-4d19-965f-416ab15b4237","system_id":"levelo_inurba_marseille","lat":43.27947,"lon":5.41046,"is_reserved":false,"is_disabled":false,"rental_uris":{"android":"levelo://app?vid=e355444f-467d-4d19-965f-416ab15b4237","ios":"levelo://app?vid=e355444f-467d-4d19-965f-416ab15b4237"},"vehicle_type_id":"4","last_reported":1702336035,"current_range_meters":19200,"station_id":"ce4bhnp2rcd13ifvqh0g","pricing_plan_id":"free"},{"bike_id":"048a7c17-97c6-4e8b-b365-1d7721c101c5","system_id":"levelo_inurba_marseille","lat":43.27942,"lon":5.41042,"is_reserved":false,"is_disabled":false,"rental_uris":{"android":"levelo://app?vid=048a7c17-97c6-4e8b-b365-1d7721c101c5","ios":"levelo://app?vid=048a7c17-97c6-4e8b-b365-1d7721c101c5"},"vehicle_type_id":"4","last_reported":1702336035,"current_range_meters":7600,"station_id":"ce4bhnp2rcd13ifvqh0g","pricing_plan_id":"free"},{"bike_id":"afbe6453-4082-4cc7-a9ed-7f96e9609a56","system_id":"levelo_inurba_marseille","lat":43.26682,"lon":5.38264,"is_reserved":false,"is_disabled":false,"rental_uris":{"android":"levelo://app?vid=afbe6453-4082-4cc7-a9ed-7f96e9609a56","ios":"levelo://app?vid=afbe6453-4082-4cc7-a9ed-7f96e9609a56"},"vehicle_type_id":"4","last_reported":1702336035,"current_range_meters":29200,"station_id":"ce4bhg92rcd13ifvqf90","pricing_plan_id":"free"},{"bike_id":"c52108fc-c91d-4858-8909-1f5945a4c669","system_id":"levelo_inurba_marseille","lat":43.26681,"lon":5.382694,"is_reserved":false,"is_disabled":false,"rental_uris":{"android":"levelo://app?vid=c52108fc-c91d-4858-8909-1f5945a4c669","ios":"levelo://app?vid=c52108fc-c91d-4858-8909-1f5945a4c669"},"vehicle_type_id":"4","last_reported":1702336035,"current_range_meters":31200,"station_id":"ce4bhg92rcd13ifvqf90","pricing_plan_id":"free"},{"bike_id":"fa2c8774-c50e-4ee1-b2f0-6158142ea9f6","system_id":"levelo_inurba_marseille","lat":43.2668,"lon":5.38262,"is_reserved":false,"is_disabled":false,"rental_uris":{"android":"levelo://app?vid=fa2c8774-c50e-4ee1-b2f0-6158142ea9f6","ios":"levelo://app?vid=fa2c8774-c50e-4ee1-b2f0-6158142ea9f6"},"vehicle_type_id":"4","last_reported":1702336035,"current_range_meters":26400,"station_id":"ce4bhg92rcd13ifvqf90","pricing_plan_id":"free"},{"bike_id":"423e3098-a5a2-498b-9c3c-4341c381f5e8","system_id":"levelo_inurba_marseille","lat":43.26681,"lon":5.382694,"is_reserved":false,"is_disabled":false,"rental_uris":{"android":"levelo://app?vid=423e3098-a5a2-498b-9c3c-4341c381f5e8","ios":"levelo://app?vid=423e3098-a5a2-498b-9c3c-4341c381f5e8"},"vehicle_type_id":"4","last_reported":1702336035,"current_range_meters":27600,"station_id":"ce4bhg92rcd13ifvqf90","pricing_plan_id":"free"},{"bike_id":"95e85086-94f3-4d5d-828b-e5f9ce0e68b6","system_id":"levelo_inurba_marseille","lat":43.26681,"lon":5.382694,"is_reserved":false,"is_disabled":false,"rental_uris":{"android":"levelo://app?vid=95e85086-94f3-4d5d-828b-e5f9ce0e68b6","ios":"levelo://app?vid=95e85086-94f3-4d5d-828b-e5f9ce0e68b6"},"vehicle_type_id":"4","last_reported":1702336035,"current_range_meters":31200,"station_id":"ce4bhg92rcd13ifvqf90","pricing_plan_id":"free"},{"bike_id":"618ab94a-31d3-49d5-8238-c36f733e2f97","system_id":"levelo_inurba_marseille","lat":43.26678,"lon":5.38269,"is_reserved":false,"is_disabled":false,"rental_uris":{"android":"levelo://app?vid=618ab94a-31d3-49d5-8238-c36f733e2f97","ios":"levelo://app?vid=618ab94a-31d3-49d5-8238-c36f733e2f97"},"vehicle_type_id":"4","last_reported":1702336035,"current_range_meters":25600,"station_id":"ce4bhg92rcd13ifvqf90","pricing_plan_id":"free"},{"bike_id":"414d7b4a-a3e9-448e-903a-d08acf242b2b","system_id":"levelo_inurba_marseille","lat":43.26681,"lon":5.382694,"is_reserved":false,"is_disabled":false,"rental_uris":{"android":"levelo://app?vid=414d7b4a-a3e9-448e-903a-d08acf242b2b","ios":"levelo://app?vid=414d7b4a-a3e9-448e-903a-d08acf242b2b"},"vehicle_type_id":"4","last_reported":1702336035,"current_range_meters":29200,"station_id":"ce4bhg92rcd13ifvqf90","pricing_plan_id":"free"},{"bike_id":"89174b6c-7157-464f-821e-2b2484992d0c","system_id":"levelo_inurba_marseille","lat":43.27729,"lon":5.41138,"is_reserved":false,"is_disabled":false,"rental_uris":{"android":"levelo://app?vid=89174b6c-7157-464f-821e-2b2484992d0c","ios":"levelo://app?vid=89174b6c-7157-464f-821e-2b2484992d0c"},"vehicle_type_id":"4","last_reported":1702336035,"current_range_meters":18800,"station_id":"","pricing_plan_id":"free"},{"bike_id":"ee2e6f38-088a-4b0c-86a9-3e8b8b72101d","system_id":"levelo_inurba_marseille","lat":43.27996,"lon":5.416624,"is_reserved":false,"is_disabled":false,"rental_uris":{"android":"levelo://app?vid=ee2e6f38-088a-4b0c-86a9-3e8b8b72101d","ios":"levelo://app?vid=ee2e6f38-088a-4b0c-86a9-3e8b8b72101d"},"vehicle_type_id":"4","last_reported":1702336035,"current_range_meters":26000,"station_id":"ce4bho12rcd13ifvqh1g","pricing_plan_id":"free"},{"bike_id":"a4c2e866-1ad6-4353-a4f2-cb755e151f55","system_id":"levelo_inurba_marseille","lat":43.26324,"lon":5.37682,"is_reserved":false,"is_disabled":false,"rental_uris":{"android":"levelo://app?vid=a4c2e866-1ad6-4353-a4f2-cb755e151f55","ios":"levelo://app?vid=a4c2e866-1ad6-4353-a4f2-cb755e151f55"},"vehicle_type_id":"4","last_reported":1702336035,"current_range_meters":12800,"station_id":"","pricing_plan_id":"free"},{"bike_id":"daa35769-32ed-4c6f-8d37-d59a59c98d0b","system_id":"levelo_inurba_marseille","lat":43.258224,"lon":5.394369,"is_reserved":false,"is_disabled":false,"rental_uris":{"android":"levelo://app?vid=daa35769-32ed-4c6f-8d37-d59a59c98d0b","ios":"levelo://app?vid=daa35769-32ed-4c6f-8d37-d59a59c98d0b"},"vehicle_type_id":"4","last_reported":1702336035,"current_range_meters":18000,"station_id":"ce4bhip2rcd13ifvqft0","pricing_plan_id":"free"},{"bike_id":"cc588e65-3c67-418e-85ff-1f30e1451ab4","system_id":"levelo_inurba_marseille","lat":43.26941,"lon":5.40252,"is_reserved":false,"is_disabled":false,"rental_uris":{"android":"levelo://app?vid=cc588e65-3c67-418e-85ff-1f30e1451ab4","ios":"levelo://app?vid=cc588e65-3c67-418e-85ff-1f30e1451ab4"},"vehicle_type_id":"4","last_reported":1702336035,"current_range_meters":0,"station_id":"cjm6bp8fraef2m0cb0m0","pricing_plan_id":"free"},{"bike_id":"c4bc2362-da2d-43d2-8090-8d22918eeaf1","system_id":"levelo_inurba_marseille","lat":43.26937,"lon":5.40254,"is_reserved":false,"is_disabled":false,"rental_uris":{"android":"levelo://app?vid=c4bc2362-da2d-43d2-8090-8d22918eeaf1","ios":"levelo://app?vid=c4bc2362-da2d-43d2-8090-8d22918eeaf1"},"vehicle_type_id":"4","last_reported":1702336035,"current_range_meters":0,"station_id":"cjm6bp8fraef2m0cb0m0","pricing_plan_id":"free"},{"bike_id":"cdd036f6-7ea5-4424-b6f3-3af93ebb2fa0","system_id":"levelo_inurba_marseille","lat":43.317104,"lon":5.436818,"is_reserved":false,"is_disabled":false,"rental_uris":{"android":"levelo://app?vid=cdd036f6-7ea5-4424-b6f3-3af93ebb2fa0","ios":"levelo://app?vid=cdd036f6-7ea5-4424-b6f3-3af93ebb2fa0"},"vehicle_type_id":"4","last_reported":1702336035,"current_range_meters":31200,"station_id":"ce4bhp92rcd13ifvqhcg","pricing_plan_id":"free"},{"bike_id":"4ee2ebe4-ccab-47af-b669-1b687cc9fb82","system_id":"levelo_inurba_marseille","lat":43.317104,"lon":5.436818,"is_reserved":false,"is_disabled":false,"rental_uris":{"android":"levelo://app?vid=4ee2ebe4-ccab-47af-b669-1b687cc9fb82","ios":"levelo://app?vid=4ee2ebe4-ccab-47af-b669-1b687cc9fb82"},"vehicle_type_id":"4","last_reported":1702336035,"current_range_meters":29600,"station_id":"ce4bhp92rcd13ifvqhcg","pricing_plan_id":"free"},{"bike_id":"26028b8b-2fb7-4fce-9011-67b90fcace31","system_id":"levelo_inurba_marseille","lat":43.317104,"lon":5.436818,"is_reserved":false,"is_disabled":false,"rental_uris":{"android":"levelo://app?vid=26028b8b-2fb7-4fce-9011-67b90fcace31","ios":"levelo://app?vid=26028b8b-2fb7-4fce-9011-67b90fcace31"},"vehicle_type_id":"4","last_reported":1702336035,"current_range_meters":28800,"station_id":"ce4bhp92rcd13ifvqhcg","pricing_plan_id":"free"},{"bike_id":"37645cb8-5c24-41ba-b0d3-f9e32e3bff51","system_id":"levelo_inurba_marseille","lat":43.317104,"lon":5.436818,"is_reserved":false,"is_disabled":false,"rental_uris":{"android":"levelo://app?vid=37645cb8-5c24-41ba-b0d3-f9e32e3bff51","ios":"levelo://app?vid=37645cb8-5c24-41ba-b0d3-f9e32e3bff51"},"vehicle_type_id":"4","last_reported":1702336035,"current_range_meters":31200,"station_id":"ce4bhp92rcd13ifvqhcg","pricing_plan_id":"free"},{"bike_id":"1acf6805-7adc-4d3c-b52b-7b0895430b1f","system_id":"levelo_inurba_marseille","lat":43.26202,"lon":5.379299,"is_reserved":false,"is_disabled":false,"rental_uris":{"android":"levelo://app?vid=1acf6805-7adc-4d3c-b52b-7b0895430b1f","ios":"levelo://app?vid=1acf6805-7adc-4d3c-b52b-7b0895430b1f"},"vehicle_type_id":"4","last_reported":1702336035,"current_range_meters":26800,"station_id":"ce4bhjp2rcd13ifvqg90","pricing_plan_id":"free"},{"bike_id":"7ef0e874-4d14-4db6-97d3-23537a85b219","system_id":"levelo_inurba_marseille","lat":43.298768,"lon":5.43643,"is_reserved":false,"is_disabled":false,"rental_uris":{"android":"levelo://app?vid=7ef0e874-4d14-4db6-97d3-23537a85b219","ios":"levelo://app?vid=7ef0e874-4d14-4db6-97d3-23537a85b219"},"vehicle_type_id":"4","last_reported":1702336035,"current_range_meters":27600,"station_id":"ce4bhpp2rcd13ifvqhfg","pricing_plan_id":"free"},{"bike_id":"7785c293-f45a-41fa-bfc7-fc873f99b2b9","system_id":"levelo_inurba_marseille","lat":43.281548,"lon":5.42643,"is_reserved":false,"is_disabled":false,"rental_uris":{"android":"levelo://app?vid=7785c293-f45a-41fa-bfc7-fc873f99b2b9","ios":"levelo://app?vid=7785c293-f45a-41fa-bfc7-fc873f99b2b9"},"vehicle_type_id":"4","last_reported":1702336035,"current_range_meters":17600,"station_id":"ce4bhnh2rcd13ifvqgug","pricing_plan_id":"free"},{"bike_id":"180bf347-93f7-4d14-a727-4021a2dbeb7d","system_id":"levelo_inurba_marseille","lat":43.281405,"lon":5.429968,"is_reserved":false,"is_disabled":false,"rental_uris":{"android":"levelo://app?vid=180bf347-93f7-4d14-a727-4021a2dbeb7d","ios":"levelo://app?vid=180bf347-93f7-4d14-a727-4021a2dbeb7d"},"vehicle_type_id":"4","last_reported":1702336035,"current_range_meters":13600,"station_id":"","pricing_plan_id":"free"},{"bike_id":"2904fadb-7bd9-4958-ab41-36e416d618b9","system_id":"levelo_inurba_marseille","lat":43.275028,"lon":5.424534,"is_reserved":false,"is_disabled":false,"rental_uris":{"android":"levelo://app?vid=2904fadb-7bd9-4958-ab41-36e416d618b9","ios":"levelo://app?vid=2904fadb-7bd9-4958-ab41-36e416d618b9"},"vehicle_type_id":"4","last_reported":1702336035,"current_range_meters":28400,"station_id":"ce4bhn92rcd13ifvqgrg","pricing_plan_id":"free"},{"bike_id":"463668ea-b294-4421-824a-c4df85b1e87b","system_id":"levelo_inurba_marseille","lat":43.27069,"lon":5.42275,"is_reserved":false,"is_disabled":false,"rental_uris":{"android":"levelo://app?vid=463668ea-b294-4421-824a-c4df85b1e87b","ios":"levelo://app?vid=463668ea-b294-4421-824a-c4df85b1e87b"},"vehicle_type_id":"4","last_reported":1702336035,"current_range_meters":16000,"station_id":"ce4bhk92rcd13ifvqgb0","pricing_plan_id":"free"},{"bike_id":"cd1904e5-3f41-4572-8872-cc23fca0c4f1","system_id":"levelo_inurba_marseille","lat":43.270721,"lon":5.422764,"is_reserved":false,"is_disabled":false,"rental_uris":{"android":"levelo://app?vid=cd1904e5-3f41-4572-8872-cc23fca0c4f1","ios":"levelo://app?vid=cd1904e5-3f41-4572-8872-cc23fca0c4f1"},"vehicle_type_id":"4","last_reported":1702336035,"current_range_meters":10400,"station_id":"ce4bhk92rcd13ifvqgb0","pricing_plan_id":"free"},{"bike_id":"6a3975e8-cb2d-480d-a856-f906f0889e34","system_id":"levelo_inurba_marseille","lat":43.270721,"lon":5.422764,"is_reserved":false,"is_disabled":false,"rental_uris":{"android":"levelo://app?vid=6a3975e8-cb2d-480d-a856-f906f0889e34","ios":"levelo://app?vid=6a3975e8-cb2d-480d-a856-f906f0889e34"},"vehicle_type_id":"4","last_reported":1702336035,"current_range_meters":4800,"station_id":"ce4bhk92rcd13ifvqgb0","pricing_plan_id":"free"},{"bike_id":"92a72a23-e4b4-42a5-990e-2e6e8c169807","system_id":"levelo_inurba_marseille","lat":43.25722,"lon":5.41117,"is_reserved":false,"is_disabled":false,"rental_uris":{"android":"levelo://app?vid=92a72a23-e4b4-42a5-990e-2e6e8c169807","ios":"levelo://app?vid=92a72a23-e4b4-42a5-990e-2e6e8c169807"},"vehicle_type_id":"4","last_reported":1702336035,"current_range_meters":17200,"station_id":"ce4bhkp2rcd13ifvqgd0","pricing_plan_id":"free"},{"bike_id":"8bfba5f0-6d02-4058-854b-b88f3097ad8f","system_id":"levelo_inurba_marseille","lat":43.25709,"lon":5.41124,"is_reserved":false,"is_disabled":false,"rental_uris":{"android":"levelo://app?vid=8bfba5f0-6d02-4058-854b-b88f3097ad8f","ios":"levelo://app?vid=8bfba5f0-6d02-4058-854b-b88f3097ad8f"},"vehicle_type_id":"4","last_reported":1702336035,"current_range_meters":8000,"station_id":"ce4bhkp2rcd13ifvqgd0","pricing_plan_id":"free"},{"bike_id":"35c3f807-24e7-4171-8112-6d272f635dd8","system_id":"levelo_inurba_marseille","lat":43.250966,"lon":5.395186,"is_reserved":false,"is_disabled":false,"rental_uris":{"android":"levelo://app?vid=35c3f807-24e7-4171-8112-6d272f635dd8","ios":"levelo://app?vid=35c3f807-24e7-4171-8112-6d272f635dd8"},"vehicle_type_id":"4","last_reported":1702336035,"current_range_meters":18000,"station_id":"ce4bhm12rcd13ifvqgkg","pricing_plan_id":"free"},{"bike_id":"b608108c-9d88-4a97-9146-8b8b8edf505e","system_id":"levelo_inurba_marseille","lat":43.250023,"lon":5.38919,"is_reserved":false,"is_disabled":false,"rental_uris":{"android":"levelo://app?vid=b608108c-9d88-4a97-9146-8b8b8edf505e","ios":"levelo://app?vid=b608108c-9d88-4a97-9146-8b8b8edf505e"},"vehicle_type_id":"4","last_reported":1702336035,"current_range_meters":14000,"station_id":"ce4bhgp2rcd13ifvqfd0","pricing_plan_id":"free"},{"bike_id":"0f7fd2ef-e6a4-4938-875f-ee0fc362106e","system_id":"levelo_inurba_marseille","lat":43.24693,"lon":5.382096,"is_reserved":false,"is_disabled":false,"rental_uris":{"android":"levelo://app?vid=0f7fd2ef-e6a4-4938-875f-ee0fc362106e","ios":"levelo://app?vid=0f7fd2ef-e6a4-4938-875f-ee0fc362106e"},"vehicle_type_id":"4","last_reported":1702336035,"current_range_meters":25600,"station_id":"ce4bhih2rcd13ifvqfr0","pricing_plan_id":"free"},{"bike_id":"d0e907f7-7026-4fee-ae1b-2f3332fde590","system_id":"levelo_inurba_marseille","lat":43.24693,"lon":5.382096,"is_reserved":false,"is_disabled":false,"rental_uris":{"android":"levelo://app?vid=d0e907f7-7026-4fee-ae1b-2f3332fde590","ios":"levelo://app?vid=d0e907f7-7026-4fee-ae1b-2f3332fde590"},"vehicle_type_id":"4","last_reported":1702336035,"current_range_meters":17600,"station_id":"ce4bhih2rcd13ifvqfr0","pricing_plan_id":"free"},{"bike_id":"69fc94e6-d1dc-4eac-bba9-0be2d0c272a6","system_id":"levelo_inurba_marseille","lat":43.24693,"lon":5.382096,"is_reserved":false,"is_disabled":false,"rental_uris":{"android":"levelo://app?vid=69fc94e6-d1dc-4eac-bba9-0be2d0c272a6","ios":"levelo://app?vid=69fc94e6-d1dc-4eac-bba9-0be2d0c272a6"},"vehicle_type_id":"4","last_reported":1702336035,"current_range_meters":31200,"station_id":"ce4bhih2rcd13ifvqfr0","pricing_plan_id":"free"},{"bike_id":"671fd304-39cb-4a72-bcb4-29e963a5ecab","system_id":"levelo_inurba_marseille","lat":43.25117,"lon":5.40315,"is_reserved":false,"is_disabled":false,"rental_uris":{"android":"levelo://app?vid=671fd304-39cb-4a72-bcb4-29e963a5ecab","ios":"levelo://app?vid=671fd304-39cb-4a72-bcb4-29e963a5ecab"},"vehicle_type_id":"4","last_reported":1702336035,"current_range_meters":22400,"station_id":"ce4bhlh2rcd13ifvqgig","pricing_plan_id":"free"},{"bike_id":"fb6f1718-29f6-420f-b0f1-d655cd3993dd","system_id":"levelo_inurba_marseille","lat":43.25118,"lon":5.4032,"is_reserved":false,"is_disabled":false,"rental_uris":{"android":"levelo://app?vid=fb6f1718-29f6-420f-b0f1-d655cd3993dd","ios":"levelo://app?vid=fb6f1718-29f6-420f-b0f1-d655cd3993dd"},"vehicle_type_id":"4","last_reported":1702336035,"current_range_meters":30000,"station_id":"ce4bhlh2rcd13ifvqgig","pricing_plan_id":"free"},{"bike_id":"bfbd63b6-a516-45cb-9399-3f622db645ca","system_id":"levelo_inurba_marseille","lat":43.24693,"lon":5.382096,"is_reserved":false,"is_disabled":false,"rental_uris":{"android":"levelo://app?vid=bfbd63b6-a516-45cb-9399-3f622db645ca","ios":"levelo://app?vid=bfbd63b6-a516-45cb-9399-3f622db645ca"},"vehicle_type_id":"4","last_reported":1702336035,"current_range_meters":8800,"station_id":"ce4bhih2rcd13ifvqfr0","pricing_plan_id":"free"},{"bike_id":"b03db1f2-f2fa-439e-8d38-11ec73737c50","system_id":"levelo_inurba_marseille","lat":43.25115,"lon":5.40327,"is_reserved":false,"is_disabled":false,"rental_uris":{"android":"levelo://app?vid=b03db1f2-f2fa-439e-8d38-11ec73737c50","ios":"levelo://app?vid=b03db1f2-f2fa-439e-8d38-11ec73737c50"},"vehicle_type_id":"4","last_reported":1702336035,"current_range_meters":12800,"station_id":"ce4bhlh2rcd13ifvqgig","pricing_plan_id":"free"},{"bike_id":"ec1287da-3703-4e3c-80c6-e7986c9b87da","system_id":"levelo_inurba_marseille","lat":43.25113,"lon":5.40322,"is_reserved":false,"is_disabled":false,"rental_uris":{"android":"levelo://app?vid=ec1287da-3703-4e3c-80c6-e7986c9b87da","ios":"levelo://app?vid=ec1287da-3703-4e3c-80c6-e7986c9b87da"},"vehicle_type_id":"4","last_reported":1702336035,"current_range_meters":31200,"station_id":"ce4bhlh2rcd13ifvqgig","pricing_plan_id":"free"},{"bike_id":"6c07ffee-03e8-47dd-ab79-d055ac3cd3ce","system_id":"levelo_inurba_marseille","lat":43.246467,"lon":5.388984,"is_reserved":false,"is_disabled":false,"rental_uris":{"android":"levelo://app?vid=6c07ffee-03e8-47dd-ab79-d055ac3cd3ce","ios":"levelo://app?vid=6c07ffee-03e8-47dd-ab79-d055ac3cd3ce"},"vehicle_type_id":"4","last_reported":1702336035,"current_range_meters":26000,"station_id":"ce4bhg12rcd13ifvqf60","pricing_plan_id":"free"},{"bike_id":"5aa7b1d3-3cd1-4119-bb73-0b16d8180d87","system_id":"levelo_inurba_marseille","lat":43.243884,"lon":5.370736,"is_reserved":false,"is_disabled":false,"rental_uris":{"android":"levelo://app?vid=5aa7b1d3-3cd1-4119-bb73-0b16d8180d87","ios":"levelo://app?vid=5aa7b1d3-3cd1-4119-bb73-0b16d8180d87"},"vehicle_type_id":"4","last_reported":1702336035,"current_range_meters":30400,"station_id":"ce4bhhh2rcd13ifvqfk0","pricing_plan_id":"free"},{"bike_id":"846961d7-979a-4ad3-956d-a81bed603614","system_id":"levelo_inurba_marseille","lat":43.246387,"lon":5.396561,"is_reserved":false,"is_disabled":false,"rental_uris":{"android":"levelo://app?vid=846961d7-979a-4ad3-956d-a81bed603614","ios":"levelo://app?vid=846961d7-979a-4ad3-956d-a81bed603614"},"vehicle_type_id":"4","last_reported":1702336035,"current_range_meters":400,"station_id":"","pricing_plan_id":"free"},{"bike_id":"8adc57dc-5f99-4b7f-82a8-97089dc07b4b","system_id":"levelo_inurba_marseille","lat":43.240623,"lon":5.377642,"is_reserved":false,"is_disabled":false,"rental_uris":{"android":"levelo://app?vid=8adc57dc-5f99-4b7f-82a8-97089dc07b4b","ios":"levelo://app?vid=8adc57dc-5f99-4b7f-82a8-97089dc07b4b"},"vehicle_type_id":"4","last_reported":1702336035,"current_range_meters":26400,"station_id":"ce4bhnp2rcd13ifvqgvg","pricing_plan_id":"free"},{"bike_id":"7db74fb4-982a-4524-a259-e0c4b4eb5105","system_id":"levelo_inurba_marseille","lat":43.239588,"lon":5.366238,"is_reserved":false,"is_disabled":false,"rental_uris":{"android":"levelo://app?vid=7db74fb4-982a-4524-a259-e0c4b4eb5105","ios":"levelo://app?vid=7db74fb4-982a-4524-a259-e0c4b4eb5105"},"vehicle_type_id":"4","last_reported":1702336035,"current_range_meters":20800,"station_id":"ce4bhi12rcd13ifvqfp0","pricing_plan_id":"free"},{"bike_id":"8105e069-c222-4a6a-90d4-ca936027b7dd","system_id":"levelo_inurba_marseille","lat":43.239588,"lon":5.366238,"is_reserved":false,"is_disabled":false,"rental_uris":{"android":"levelo://app?vid=8105e069-c222-4a6a-90d4-ca936027b7dd","ios":"levelo://app?vid=8105e069-c222-4a6a-90d4-ca936027b7dd"},"vehicle_type_id":"4","last_reported":1702336035,"current_range_meters":30000,"station_id":"ce4bhi12rcd13ifvqfp0","pricing_plan_id":"free"},{"bike_id":"d04c4a42-99c3-4376-a5db-a7660c958c9c","system_id":"levelo_inurba_marseille","lat":43.241782,"lon":5.397261,"is_reserved":false,"is_disabled":false,"rental_uris":{"android":"levelo://app?vid=d04c4a42-99c3-4376-a5db-a7660c958c9c","ios":"levelo://app?vid=d04c4a42-99c3-4376-a5db-a7660c958c9c"},"vehicle_type_id":"4","last_reported":1702336035,"current_range_meters":20800,"station_id":"ce4bhn12rcd13ifvqgpg","pricing_plan_id":"free"},{"bike_id":"65a732be-a23e-4899-8cd3-be07a2e68d78","system_id":"levelo_inurba_marseille","lat":43.231793,"lon":5.400044,"is_reserved":false,"is_disabled":false,"rental_uris":{"android":"levelo://app?vid=65a732be-a23e-4899-8cd3-be07a2e68d78","ios":"levelo://app?vid=65a732be-a23e-4899-8cd3-be07a2e68d78"},"vehicle_type_id":"4","last_reported":1702336035,"current_range_meters":28800,"station_id":"ce4bhn12rcd13ifvqgqg","pricing_plan_id":"free"},{"bike_id":"e1137782-3e3d-499c-a61d-e2c68dc9df2e","system_id":"levelo_inurba_marseille","lat":43.231794,"lon":5.400052,"is_reserved":false,"is_disabled":false,"rental_uris":{"android":"levelo://app?vid=e1137782-3e3d-499c-a61d-e2c68dc9df2e","ios":"levelo://app?vid=e1137782-3e3d-499c-a61d-e2c68dc9df2e"},"vehicle_type_id":"4","last_reported":1702336035,"current_range_meters":24400,"station_id":"ce4bhn12rcd13ifvqgqg","pricing_plan_id":"free"},{"bike_id":"d4216b28-6573-4e3c-9c6e-b1f827f4d9da","system_id":"levelo_inurba_marseille","lat":43.231794,"lon":5.400052,"is_reserved":false,"is_disabled":false,"rental_uris":{"android":"levelo://app?vid=d4216b28-6573-4e3c-9c6e-b1f827f4d9da","ios":"levelo://app?vid=d4216b28-6573-4e3c-9c6e-b1f827f4d9da"},"vehicle_type_id":"4","last_reported":1702336035,"current_range_meters":29600,"station_id":"ce4bhn12rcd13ifvqgqg","pricing_plan_id":"free"},{"bike_id":"baec5ab2-8c78-4d0a-9686-1f92b4ce0853","system_id":"levelo_inurba_marseille","lat":43.231794,"lon":5.400052,"is_reserved":false,"is_disabled":false,"rental_uris":{"android":"levelo://app?vid=baec5ab2-8c78-4d0a-9686-1f92b4ce0853","ios":"levelo://app?vid=baec5ab2-8c78-4d0a-9686-1f92b4ce0853"},"vehicle_type_id":"4","last_reported":1702336035,"current_range_meters":8800,"station_id":"ce4bhn12rcd13ifvqgqg","pricing_plan_id":"free"},{"bike_id":"fe1c62d5-b8f6-41e6-a698-0df3bdc6e8ea","system_id":"levelo_inurba_marseille","lat":43.231562,"lon":5.436933,"is_reserved":false,"is_disabled":false,"rental_uris":{"android":"levelo://app?vid=fe1c62d5-b8f6-41e6-a698-0df3bdc6e8ea","ios":"levelo://app?vid=fe1c62d5-b8f6-41e6-a698-0df3bdc6e8ea"},"vehicle_type_id":"4","last_reported":1702336035,"current_range_meters":22000,"station_id":"ce4bhmp2rcd13ifvqgog","pricing_plan_id":"free"}]}}