{"last_updated":1753002625,"ttl":60,"version":"2.2","data":{"bikes":[{"bike_id":"53b742a7-31ae-4272-9bba-7740339e2a2f","system_id":"levelo_inurba_marseille","lat":43.33747,"lon":5.37463,"is_reserved":false,"is_disabled":false,"rental_uris":{"android":"levelo://app?vid=53b742a7-31ae-4272-9bba-7740339e2a2f","ios":"levelo://app?vid=53b742a7-31ae-4272-9bba-7740339e2a2f"},"vehicle_type_id":"1","last_reported":1753002626,"current_range_meters":11600,"station_id":"","pricing_plan_id":"cebpf4jnsgd1na2vs0mg"},{"bike_id":"12957499-c3c8-4e9e-9181-2a2087409d90","system_id":"levelo_inurba_marseille","lat":43.284856,"lon":5.384281,"is_reserved":false,"is_disabled":true,"rental_uris":{"android":"levelo://app?vid=12957499-c3c8-4e9e-9181-2a2087409d90","ios":"levelo://app?vid=12957499-c3c8-4e9e-9181-2a2087409d90"},"vehicle_type_id":"4","last_reported":1753002626,"current_range_meters":2800,"station_id":"","pricing_plan_id":"cebpf4jnsgd1na2vs0mg"},{"bike_id":"eb49a487-22e6-436d-8e19-4e4ec7c5b729","system_id":"levelo_inurba_marseille","lat":43.29557,"lon":5.4228,"is_reserved":false,"is_disabled":false,"rental_uris":{"android":"levelo://app?vid=eb49a487-22e6-436d-8e19-4e4ec7c5b729","ios":"levelo://app?vid=eb49a487-22e6-436d-8e19-4e4ec7c5b729"},"vehicle_type_id":"4","last_reported":1753002626,"current_range_meters":3200,"station_id":"ce4bhph2rcd13ifvqhdg","pricing_plan_id":"cebpf4jnsgd1na2vs0mg"},{"bike_id":"44b73254-6d5b-42ec-9e3a-52236fbf71fc","system_id":"levelo_inurba_marseille","lat":43.333514,"lon":5.398322,"is_reserved":false,"is_disabled":false,"rental_uris":{"android":"levelo://app?vid=44b73254-6d5b-42ec-9e3a-52236fbf71fc","ios":"levelo://app?vid=44b73254-6d5b-42ec-9e3a-52236fbf71fc"},"vehicle_type_id":"4","last_reported":1753002626,"current_range_meters":3200,"station_id":"","pricing_plan_id":"cebpf4jnsgd1na2vs0mg"},{"bike_id":"da891840-0cec-4ccc-961c-48903736c6fa","system_id":"levelo_inurba_marseille","lat":43.31139,"lon":5.37692,"is_reserved":false,"is_disabled":false,"rental_uris":{"android":"levelo://app?vid=da891840-0cec-4ccc-961c-48903736c6fa","ios":"levelo://app?vid=da891840-0cec-4ccc-961c-48903736c6fa"},"vehicle_type_id":"4","last_reported":1753002626,"current_range_meters":3200,"station_id":"","pricing_plan_id":"cebpf4jnsgd1na2vs0mg"},{"bike_id":"c090550e-4570-46fa-a4db-ccf7e16ae90b","system_id":"levelo_inurba_marseille","lat":43.26555,"lon":5.37277,"is_reserved":false,"is_disabled":true,"rental_uris":{"android":"levelo://app?vid=c090550e-4570-46fa-a4db-ccf7e16ae90b","ios":"levelo://app?vid=c090550e-4570-46fa-a4db-ccf7e16ae90b"},"vehicle_type_id":"4","last_reported":1753002626,"current_range_meters":3200,"station_id":"ce4bhg12rcd13ifvqf70","pricing_plan_id":"cebpf4jnsgd1na2vs0mg"},{"bike_id":"415ff839-3eb5-42b6-8141-99c745448c01","system_id":"levelo_inurba_marseille","lat":43.26588,"lon":5.38702,"is_reserved":false,"is_disabled":false,"rental_uris":{"android":"levelo://app?vid=415ff839-3eb5-42b6-8141-99c745448c01","ios":"levelo://app?vid=415ff839-3eb5-42b6-8141-99c745448c01"},"vehicle_type_id":"4","last_reported":1753002626,"current_range_meters":3200,"station_id":"","pricing_plan_id":"cebpf4jnsgd1na2vs0mg"},{"bike_id":"bebe1450-b301-4f53-95e4-f8eb9f50ffdf","system_id":"levelo_inurba_marseille","lat":43.33607,"lon":5.41009,"is_reserved":false,"is_disabled":false,"rental_uris":{"android":"levelo://app?vid=bebe1450-b301-4f53-95e4-f8eb9f50ffdf","ios":"levelo://app?vid=bebe1450-b301-4f53-95e4-f8eb9f50ffdf"},"vehicle_type_id":"4","last_reported":1753002626,"current_range_meters":3600,"station_id":"ce4bhqh2rcd13ifvqhmg","pricing_plan_id":"cebpf4jnsgd1na2vs0mg"},{"bike_id":"6883df58-6737-4f53-a438-d17fca741ba6","system_id":"levelo_inurba_marseille","lat":43.33026,"lon":5.3937,"is_reserved":false,"is_disabled":false,"rental_uris":{"android":"levelo://app?vid=6883df58-6737-4f53-a438-d17fca741ba6","ios":"levelo://app?vid=6883df58-6737-4f53-a438-d17fca741ba6"},"vehicle_type_id":"4","last_reported":1753002626,"current_range_meters":3600,"station_id":"","pricing_plan_id":"cebpf4jnsgd1na2vs0mg"},{"bike_id":"ce7bd25b-5213-4881-a28b-f582e6a1d712","system_id":"levelo_inurba_marseille","lat":43.313688,"lon":5.367085,"is_reserved":false,"is_disabled":true,"rental_uris":{"android":"levelo://app?vid=ce7bd25b-5213-4881-a28b-f582e6a1d712","ios":"levelo://app?vid=ce7bd25b-5213-4881-a28b-f582e6a1d712"},"vehicle_type_id":"4","last_reported":1753002626,"current_range_meters":4000,"station_id":"ce4bgr92rcd13ifvqc6g","pricing_plan_id":"cebpf4jnsgd1na2vs0mg"},{"bike_id":"8a8de0eb-d172-4378-9552-544c6cc04c48","system_id":"levelo_inurba_marseille","lat":43.24522,"lon":5.36934,"is_reserved":false,"is_disabled":false,"rental_uris":{"android":"levelo://app?vid=8a8de0eb-d172-4378-9552-544c6cc04c48","ios":"levelo://app?vid=8a8de0eb-d172-4378-9552-544c6cc04c48"},"vehicle_type_id":"4","last_reported":1753002626,"current_range_meters":4000,"station_id":"","pricing_plan_id":"cebpf4jnsgd1na2vs0mg"},{"bike_id":"b7572cc0-c242-4c86-9b0e-7cf84985a85f","system_id":"levelo_inurba_marseille","lat":43.24387,"lon":5.37059,"is_reserved":false,"is_disabled":false,"rental_uris":{"android":"levelo://app?vid=b7572cc0-c242-4c86-9b0e-7cf84985a85f","ios":"levelo://app?vid=b7572cc0-c242-4c86-9b0e-7cf84985a85f"},"vehicle_type_id":"4","last_reported":1753002626,"current_range_meters":4400,"station_id":"ce4bhhh2rcd13ifvqfk0","pricing_plan_id":"cebpf4jnsgd1na2vs0mg"},{"bike_id":"eaa1403c-51b6-4d7e-9479-5ac17de1c760","system_id":"levelo_inurba_marseille","lat":43.30638,"lon":5.40087,"is_reserved":false,"is_disabled":false,"rental_uris":{"android":"levelo://app?vid=eaa1403c-51b6-4d7e-9479-5ac17de1c760","ios":"levelo://app?vid=eaa1403c-51b6-4d7e-9479-5ac17de1c760"},"vehicle_type_id":"4","last_reported":1753002626,"current_range_meters":4400,"station_id":"ce4bh112rcd13ifvqda0","pricing_plan_id":"cebpf4jnsgd1na2vs0mg"},{"bike_id":"7a5f5fca-5ba6-48c3-b5fe-8c4f03383cba","system_id":"levelo_inurba_marseille","lat":43.229332,"lon":5.353759,"is_reserved":false,"is_disabled":false,"rental_uris":{"android":"levelo://app?vid=7a5f5fca-5ba6-48c3-b5fe-8c4f03383cba","ios":"levelo://app?vid=7a5f5fca-5ba6-48c3-b5fe-8c4f03383cba"},"vehicle_type_id":"4","last_reported":1753002626,"current_range_meters":4400,"station_id":"cpo3532slgdg3j2ikp40","pricing_plan_id":"cebpf4jnsgd1na2vs0mg"},{"bike_id":"eed2e13c-6519-4a15-931c-c57aa52fb312","system_id":"levelo_inurba_marseille","lat":43.31712,"lon":5.43706,"is_reserved":false,"is_disabled":false,"rental_uris":{"android":"levelo://app?vid=eed2e13c-6519-4a15-931c-c57aa52fb312","ios":"levelo://app?vid=eed2e13c-6519-4a15-931c-c57aa52fb312"},"vehicle_type_id":"4","last_reported":1753002626,"current_range_meters":5600,"station_id":"ce4bhp92rcd13ifvqhcg","pricing_plan_id":"cebpf4jnsgd1na2vs0mg"},{"bike_id":"c6db0f6a-96fe-4e1d-8ded-c2ef38c9bab4","system_id":"levelo_inurba_marseille","lat":43.305688,"lon":5.418387,"is_reserved":false,"is_disabled":true,"rental_uris":{"android":"levelo://app?vid=c6db0f6a-96fe-4e1d-8ded-c2ef38c9bab4","ios":"levelo://app?vid=c6db0f6a-96fe-4e1d-8ded-c2ef38c9bab4"},"vehicle_type_id":"4","last_reported":1753002626,"current_range_meters":5600,"station_id":"ce4bht12rcd13ifvqi60","pricing_plan_id":"cebpf4jnsgd1na2vs0mg"},{"bike_id":"2e532954-91d6-45d0-820d-bd93ef877e83","system_id":"levelo_inurba_marseille","lat":43.303243,"lon":5.394574,"is_reserved":false,"is_disabled":true,"rental_uris":{"android":"levelo://app?vid=2e532954-91d6-45d0-820d-bd93ef877e83","ios":"levelo://app?vid=2e532954-91d6-45d0-820d-bd93ef877e83"},"vehicle_type_id":"4","last_reported":1753002626,"current_range_meters":5600,"station_id":"","pricing_plan_id":"cebpf4jnsgd1na2vs0mg"},{"bike_id":"68de1490-3703-428a-87ac-e125e462fb93","system_id":"levelo_inurba_marseille","lat":43.29038,"lon":5.359099,"is_reserved":false,"is_disabled":false,"rental_uris":{"android":"levelo://app?vid=68de1490-3703-428a-87ac-e125e462fb93","ios":"levelo://app?vid=68de1490-3703-428a-87ac-e125e462fb93"},"vehicle_type_id":"4","last_reported":1753002626,"current_range_meters":6400,"station_id":"ce4bha92rcd13ifvqeg0","pricing_plan_id":"cebpf4jnsgd1na2vs0mg"},{"bike_id":"8a72aa45-18dd-420c-b780-4dbf83adff16","system_id":"levelo_inurba_marseille","lat":43.23197,"lon":5.3555,"is_reserved":false,"is_disabled":false,"rental_uris":{"android":"levelo://app?vid=8a72aa45-18dd-420c-b780-4dbf83adff16","ios":"levelo://app?vid=8a72aa45-18dd-420c-b780-4dbf83adff16"},"vehicle_type_id":"4","last_reported":1753002626,"current_range_meters":6000,"station_id":"ce4bhu92rcd13ifvqi70","pricing_plan_id":"cebpf4jnsgd1na2vs0mg"},{"bike_id":"05865dd6-0a9c-4a87-90b8-d3bded507939","system_id":"levelo_inurba_marseille","lat":43.30185,"lon":5.36634,"is_reserved":false,"is_disabled":false,"rental_uris":{"android":"levelo://app?vid=05865dd6-0a9c-4a87-90b8-d3bded507939","ios":"levelo://app?vid=05865dd6-0a9c-4a87-90b8-d3bded507939"},"vehicle_type_id":"4","last_reported":1753002626,"current_range_meters":6000,"station_id":"ce4bgrh2rcd13ifvqc8g","pricing_plan_id":"cebpf4jnsgd1na2vs0mg"},{"bike_id":"35cc0773-4238-4e04-a9ba-a1ff832c790d","system_id":"levelo_inurba_marseille","lat":43.26562,"lon":5.39012,"is_reserved":false,"is_disabled":false,"rental_uris":{"android":"levelo://app?vid=35cc0773-4238-4e04-a9ba-a1ff832c790d","ios":"levelo://app?vid=35cc0773-4238-4e04-a9ba-a1ff832c790d"},"vehicle_type_id":"4","last_reported":1753002626,"current_range_meters":6400,"station_id":"ce4bhe12rcd13ifvqf30","pricing_plan_id":"cebpf4jnsgd1na2vs0mg"},{"bike_id":"6919ffef-c495-4917-a554-896a3b3c492c","system_id":"levelo_inurba_marseille","lat":43.32358,"lon":5.36747,"is_reserved":false,"is_disabled":false,"rental_uris":{"android":"levelo://app?vid=6919ffef-c495-4917-a554-896a3b3c492c","ios":"levelo://app?vid=6919ffef-c495-4917-a554-896a3b3c492c"},"vehicle_type_id":"4","last_reported":1753002626,"current_range_meters":6800,"station_id":"ce4bhsh2rcd13ifvqi2g","pricing_plan_id":"cebpf4jnsgd1na2vs0mg"},{"bike_id":"aee76189-ab2c-4cbb-a955-c4d9c0b5b8fb","system_id":"levelo_inurba_marseille","lat":43.32725,"lon":5.4091,"is_reserved":false,"is_disabled":false,"rental_uris":{"android":"levelo://app?vid=aee76189-ab2c-4cbb-a955-c4d9c0b5b8fb","ios":"levelo://app?vid=aee76189-ab2c-4cbb-a955-c4d9c0b5b8fb"},"vehicle_type_id":"4","last_reported":1753002626,"current_range_meters":8000,"station_id":"","pricing_plan_id":"cebpf4jnsgd1na2vs0mg"},{"bike_id":"2d5426b7-c5ef-4761-9a4a-28e19dac621a","system_id":"levelo_inurba_marseille","lat":43.30442,"lon":5.41309,"is_reserved":false,"is_disabled":true,"rental_uris":{"android":"levelo://app?vid=2d5426b7-c5ef-4761-9a4a-28e19dac621a","ios":"levelo://app?vid=2d5426b7-c5ef-4761-9a4a-28e19dac621a"},"vehicle_type_id":"4","last_reported":1753002626,"current_range_meters":8000,"station_id":"ce4bhop2rcd13ifvqh8g","pricing_plan_id":"cebpf4jnsgd1na2vs0mg"},{"bike_id":"ec32d022-e872-49b5-bd4f-54d6f32b82ae","system_id":"levelo_inurba_marseille","lat":43.311174,"lon":5.377747,"is_reserved":false,"is_disabled":false,"rental_uris":{"android":"levelo://app?vid=ec32d022-e872-49b5-bd4f-54d6f32b82ae","ios":"levelo://app?vid=ec32d022-e872-49b5-bd4f-54d6f32b82ae"},"vehicle_type_id":"4","last_reported":1753002626,"current_range_meters":8000,"station_id":"","pricing_plan_id":"cebpf4jnsgd1na2vs0mg"},{"bike_id":"6acf6616-5bc2-413d-b8a9-de0cef45b2d4","system_id":"levelo_inurba_marseille","lat":43.2481,"lon":5.3746,"is_reserved":false,"is_disabled":true,"rental_uris":{"android":"levelo://app?vid=6acf6616-5bc2-413d-b8a9-de0cef45b2d4","ios":"levelo://app?vid=6acf6616-5bc2-413d-b8a9-de0cef45b2d4"},"vehicle_type_id":"4","last_reported":1753002626,"current_range_meters":8000,"station_id":"ce4bhgh2rcd13ifvqfb0","pricing_plan_id":"cebpf4jnsgd1na2vs0mg"},{"bike_id":"6f18ab1b-0c74-47b1-bed8-837677176207","system_id":"levelo_inurba_marseille","lat":43.32049,"lon":5.40884,"is_reserved":false,"is_disabled":false,"rental_uris":{"android":"levelo://app?vid=6f18ab1b-0c74-47b1-bed8-837677176207","ios":"levelo://app?vid=6f18ab1b-0c74-47b1-bed8-837677176207"},"vehicle_type_id":"4","last_reported":1753002626,"current_range_meters":8000,"station_id":"","pricing_plan_id":"cebpf4jnsgd1na2vs0mg"},{"bike_id":"475b9799-8c28-49d7-a2bd-b989a871d401","system_id":"levelo_inurba_marseille","lat":43.240742,"lon":5.377536,"is_reserved":false,"is_disabled":true,"rental_uris":{"android":"levelo://app?vid=475b9799-8c28-49d7-a2bd-b989a871d401","ios":"levelo://app?vid=475b9799-8c28-49d7-a2bd-b989a871d401"},"vehicle_type_id":"4","last_reported":1753002626,"current_range_meters":8400,"station_id":"ce4bhnp2rcd13ifvqgvg","pricing_plan_id":"cebpf4jnsgd1na2vs0mg"},{"bike_id":"8d590dba-9871-4ea4-bf5c-7a0545a88075","system_id":"levelo_inurba_marseille","lat":43.25935,"lon":5.40927,"is_reserved":false,"is_disabled":false,"rental_uris":{"android":"levelo://app?vid=8d590dba-9871-4ea4-bf5c-7a0545a88075","ios":"levelo://app?vid=8d590dba-9871-4ea4-bf5c-7a0545a88075"},"vehicle_type_id":"4","last_reported":1753002626,"current_range_meters":8400,"station_id":"ce4bhm92rcd13ifvqglg","pricing_plan_id":"cebpf4jnsgd1na2vs0mg"},{"bike_id":"80aade67-c699-4fd6-bf6b-e1b1430ef103","system_id":"levelo_inurba_marseille","lat":43.273785,"lon":5.362528,"is_reserved":false,"is_disabled":false,"rental_uris":{"android":"levelo://app?vid=80aade67-c699-4fd6-bf6b-e1b1430ef103","ios":"levelo://app?vid=80aade67-c699-4fd6-bf6b-e1b1430ef103"},"vehicle_type_id":"4","last_reported":1753002626,"current_range_meters":8800,"station_id":"ce4bhbh2rcd13ifvqeo0","pricing_plan_id":"cebpf4jnsgd1na2vs0mg"},{"bike_id":"169248a3-cde9-4071-9264-00cf9e30c46e","system_id":"levelo_inurba_marseille","lat":43.32914,"lon":5.37978,"is_reserved":false,"is_disabled":false,"rental_uris":{"android":"levelo://app?vid=169248a3-cde9-4071-9264-00cf9e30c46e","ios":"levelo://app?vid=169248a3-cde9-4071-9264-00cf9e30c46e"},"vehicle_type_id":"4","last_reported":1753002626,"current_range_meters":8800,"station_id":"","pricing_plan_id":"cebpf4jnsgd1na2vs0mg"},{"bike_id":"d9be5359-7b85-4bf3-b5e0-4aeb1baec441","system_id":"levelo_inurba_marseille","lat":43.25939,"lon":5.40905,"is_reserved":false,"is_disabled":false,"rental_uris":{"android":"levelo://app?vid=d9be5359-7b85-4bf3-b5e0-4aeb1baec441","ios":"levelo://app?vid=d9be5359-7b85-4bf3-b5e0-4aeb1baec441"},"vehicle_type_id":"4","last_reported":1753002626,"current_range_meters":8800,"station_id":"ce4bhm92rcd13ifvqglg","pricing_plan_id":"cebpf4jnsgd1na2vs0mg"},{"bike_id":"487025f4-cb7c-4167-8bf3-12ee74a74452","system_id":"levelo_inurba_marseille","lat":43.2784,"lon":5.39215,"is_reserved":false,"is_disabled":false,"rental_uris":{"android":"levelo://app?vid=487025f4-cb7c-4167-8bf3-12ee74a74452","ios":"levelo://app?vid=487025f4-cb7c-4167-8bf3-12ee74a74452"},"vehicle_type_id":"4","last_reported":1753002626,"current_range_meters":8400,"station_id":"ce4bhjp2rcd13ifvqga0","pricing_plan_id":"cebpf4jnsgd1na2vs0mg"},{"bike_id":"bb5fbe16-dabe-4ab0-a585-5067c1687587","system_id":"levelo_inurba_marseille","lat":43.31671,"lon":5.40472,"is_reserved":false,"is_disabled":false,"rental_uris":{"android":"levelo://app?vid=bb5fbe16-dabe-4ab0-a585-5067c1687587","ios":"levelo://app?vid=bb5fbe16-dabe-4ab0-a585-5067c1687587"},"vehicle_type_id":"4","last_reported":1753002626,"current_range_meters":8800,"station_id":"ce4bh012rcd13ifvqd00","pricing_plan_id":"cebpf4jnsgd1na2vs0mg"},{"bike_id":"4b0ce299-727c-48ce-b95a-b67cdf638733","system_id":"levelo_inurba_marseille","lat":43.229258,"lon":5.353799,"is_reserved":false,"is_disabled":false,"rental_uris":{"android":"levelo://app?vid=4b0ce299-727c-48ce-b95a-b67cdf638733","ios":"levelo://app?vid=4b0ce299-727c-48ce-b95a-b67cdf638733"},"vehicle_type_id":"4","last_reported":1753002626,"current_range_meters":9200,"station_id":"","pricing_plan_id":"cebpf4jnsgd1na2vs0mg"},{"bike_id":"9bcc75c8-ba52-4ca3-89cc-71e6c24420e4","system_id":"levelo_inurba_marseille","lat":43.32099,"lon":5.36798,"is_reserved":false,"is_disabled":false,"rental_uris":{"android":"levelo://app?vid=9bcc75c8-ba52-4ca3-89cc-71e6c24420e4","ios":"levelo://app?vid=9bcc75c8-ba52-4ca3-89cc-71e6c24420e4"},"vehicle_type_id":"4","last_reported":1753002626,"current_range_meters":9200,"station_id":"ce4bhrh2rcd13ifvqhug","pricing_plan_id":"cebpf4jnsgd1na2vs0mg"},{"bike_id":"21d64047-729c-4bda-a9e1-48c680fa91bf","system_id":"levelo_inurba_marseille","lat":43.306482,"lon":5.400865,"is_reserved":false,"is_disabled":false,"rental_uris":{"android":"levelo://app?vid=21d64047-729c-4bda-a9e1-48c680fa91bf","ios":"levelo://app?vid=21d64047-729c-4bda-a9e1-48c680fa91bf"},"vehicle_type_id":"4","last_reported":1753002626,"current_range_meters":9200,"station_id":"ce4bh112rcd13ifvqda0","pricing_plan_id":"cebpf4jnsgd1na2vs0mg"},{"bike_id":"ac233c0f-d849-4bff-8e23-279ecec2e4da","system_id":"levelo_inurba_marseille","lat":43.27374,"lon":5.36249,"is_reserved":false,"is_disabled":false,"rental_uris":{"android":"levelo://app?vid=ac233c0f-d849-4bff-8e23-279ecec2e4da","ios":"levelo://app?vid=ac233c0f-d849-4bff-8e23-279ecec2e4da"},"vehicle_type_id":"4","last_reported":1753002626,"current_range_meters":8800,"station_id":"ce4bhbh2rcd13ifvqeo0","pricing_plan_id":"cebpf4jnsgd1na2vs0mg"},{"bike_id":"98dffb83-3442-4354-acac-cfad41b661bd","system_id":"levelo_inurba_marseille","lat":43.31722,"lon":5.43733,"is_reserved":false,"is_disabled":false,"rental_uris":{"android":"levelo://app?vid=98dffb83-3442-4354-acac-cfad41b661bd","ios":"levelo://app?vid=98dffb83-3442-4354-acac-cfad41b661bd"},"vehicle_type_id":"4","last_reported":1753002626,"current_range_meters":9600,"station_id":"ce4bhp92rcd13ifvqhcg","pricing_plan_id":"cebpf4jnsgd1na2vs0mg"},{"bike_id":"d1e9c72e-7489-4052-b944-813b64bc55b4","system_id":"levelo_inurba_marseille","lat":43.31593,"lon":5.38946,"is_reserved":false,"is_disabled":false,"rental_uris":{"android":"levelo://app?vid=d1e9c72e-7489-4052-b944-813b64bc55b4","ios":"levelo://app?vid=d1e9c72e-7489-4052-b944-813b64bc55b4"},"vehicle_type_id":"4","last_reported":1753002626,"current_range_meters":9600,"station_id":"","pricing_plan_id":"cebpf4jnsgd1na2vs0mg"},{"bike_id":"94c07cb2-0943-4d24-99f2-97bdab47aa3f","system_id":"levelo_inurba_marseille","lat":43.337444,"lon":5.374475,"is_reserved":false,"is_disabled":false,"rental_uris":{"android":"levelo://app?vid=94c07cb2-0943-4d24-99f2-97bdab47aa3f","ios":"levelo://app?vid=94c07cb2-0943-4d24-99f2-97bdab47aa3f"},"vehicle_type_id":"4","last_reported":1753002626,"current_range_meters":9600,"station_id":"","pricing_plan_id":"cebpf4jnsgd1na2vs0mg"},{"bike_id":"79f9c85e-941f-48a2-86a9-be04690aac8d","system_id":"levelo_inurba_marseille","lat":43.30675,"lon":5.40053,"is_reserved":false,"is_disabled":false,"rental_uris":{"android":"levelo://app?vid=79f9c85e-941f-48a2-86a9-be04690aac8d","ios":"levelo://app?vid=79f9c85e-941f-48a2-86a9-be04690aac8d"},"vehicle_type_id":"4","last_reported":1753002626,"current_range_meters":10000,"station_id":"","pricing_plan_id":"cebpf4jnsgd1na2vs0mg"},{"bike_id":"cd128983-a454-4c13-94ae-fcd144bb2a06","system_id":"levelo_inurba_marseille","lat":43.32359,"lon":5.36745,"is_reserved":false,"is_disabled":false,"rental_uris":{"android":"levelo://app?vid=cd128983-a454-4c13-94ae-fcd144bb2a06","ios":"levelo://app?vid=cd128983-a454-4c13-94ae-fcd144bb2a06"},"vehicle_type_id":"4","last_reported":1753002626,"current_range_meters":10000,"station_id":"ce4bhsh2rcd13ifvqi2g","pricing_plan_id":"cebpf4jnsgd1na2vs0mg"},{"bike_id":"b9fced18-9d1a-4197-85f4-d3fcdf201017","system_id":"levelo_inurba_marseille","lat":43.29868,"lon":5.39734,"is_reserved":false,"is_disabled":false,"rental_uris":{"android":"levelo://app?vid=b9fced18-9d1a-4197-85f4-d3fcdf201017","ios":"levelo://app?vid=b9fced18-9d1a-4197-85f4-d3fcdf201017"},"vehicle_type_id":"4","last_reported":1753002626,"current_range_meters":10000,"station_id":"","pricing_plan_id":"cebpf4jnsgd1na2vs0mg"},{"bike_id":"dbe3f53f-5cf1-428e-b135-1e976ecdd9e1","system_id":"levelo_inurba_marseille","lat":43.229295,"lon":5.353761,"is_reserved":false,"is_disabled":true,"rental_uris":{"android":"levelo://app?vid=dbe3f53f-5cf1-428e-b135-1e976ecdd9e1","ios":"levelo://app?vid=dbe3f53f-5cf1-428e-b135-1e976ecdd9e1"},"vehicle_type_id":"4","last_reported":1753002626,"current_range_meters":10000,"station_id":"","pricing_plan_id":"cebpf4jnsgd1na2vs0mg"},{"bike_id":"aff5b30e-99dc-4ae1-bd58-54a311d8a1f5","system_id":"levelo_inurba_marseille","lat":43.299893,"lon":5.37182,"is_reserved":false,"is_disabled":true,"rental_uris":{"android":"levelo://app?vid=aff5b30e-99dc-4ae1-bd58-54a311d8a1f5","ios":"levelo://app?vid=aff5b30e-99dc-4ae1-bd58-54a311d8a1f5"},"vehicle_type_id":"4","last_reported":1753002626,"current_range_meters":10800,"station_id":"ce4bgr92rcd13ifvqc7g","pricing_plan_id":"cebpf4jnsgd1na2vs0mg"},{"bike_id":"7aa7d212-bfaa-41e7-a0f3-41240270c15f","system_id":"levelo_inurba_marseille","lat":43.295589,"lon":5.422845,"is_reserved":false,"is_disabled":false,"rental_uris":{"android":"levelo://app?vid=7aa7d212-bfaa-41e7-a0f3-41240270c15f","ios":"levelo://app?vid=7aa7d212-bfaa-41e7-a0f3-41240270c15f"},"vehicle_type_id":"4","last_reported":1753002626,"current_range_meters":10800,"station_id":"ce4bhph2rcd13ifvqhdg","pricing_plan_id":"cebpf4jnsgd1na2vs0mg"},{"bike_id":"9f96b854-e027-4c40-b573-f426a572ccbf","system_id":"levelo_inurba_marseille","lat":43.33002,"lon":5.39825,"is_reserved":false,"is_disabled":false,"rental_uris":{"android":"levelo://app?vid=9f96b854-e027-4c40-b573-f426a572ccbf","ios":"levelo://app?vid=9f96b854-e027-4c40-b573-f426a572ccbf"},"vehicle_type_id":"4","last_reported":1753002626,"current_range_meters":10800,"station_id":"","pricing_plan_id":"cebpf4jnsgd1na2vs0mg"},{"bike_id":"9ca3e00b-43dc-46fd-9037-6c83260b90ba","system_id":"levelo_inurba_marseille","lat":43.3112,"lon":5.37782,"is_reserved":false,"is_disabled":false,"rental_uris":{"android":"levelo://app?vid=9ca3e00b-43dc-46fd-9037-6c83260b90ba","ios":"levelo://app?vid=9ca3e00b-43dc-46fd-9037-6c83260b90ba"},"vehicle_type_id":"4","last_reported":1753002626,"current_range_meters":10800,"station_id":"ce4bgt92rcd13ifvqcg0","pricing_plan_id":"cebpf4jnsgd1na2vs0mg"},{"bike_id":"0fd02cf6-67fb-4589-807f-241dd50b7e1a","system_id":"levelo_inurba_marseille","lat":43.29915,"lon":5.43682,"is_reserved":false,"is_disabled":true,"rental_uris":{"android":"levelo://app?vid=0fd02cf6-67fb-4589-807f-241dd50b7e1a","ios":"levelo://app?vid=0fd02cf6-67fb-4589-807f-241dd50b7e1a"},"vehicle_type_id":"4","last_reported":1753002626,"current_range_meters":10800,"station_id":"ce4bhpp2rcd13ifvqhfg","pricing_plan_id":"cebpf4jnsgd1na2vs0mg"},{"bike_id":"df505bec-05da-4366-bd92-8ada640ac6cf","system_id":"levelo_inurba_marseille","lat":43.2795,"lon":5.41045,"is_reserved":false,"is_disabled":false,"rental_uris":{"android":"levelo://app?vid=df505bec-05da-4366-bd92-8ada640ac6cf","ios":"levelo://app?vid=df505bec-05da-4366-bd92-8ada640ac6cf"},"vehicle_type_id":"4","last_reported":1753002626,"current_range_meters":10800,"station_id":"ce4bhnp2rcd13ifvqh0g","pricing_plan_id":"cebpf4jnsgd1na2vs0mg"},{"bike_id":"646bd144-4ffa-49b8-a08d-6b47ca08200f","system_id":"levelo_inurba_marseille","lat":43.25504,"lon":5.37646,"is_reserved":false,"is_disabled":true,"rental_uris":{"android":"levelo://app?vid=646bd144-4ffa-49b8-a08d-6b47ca08200f","ios":"levelo://app?vid=646bd144-4ffa-49b8-a08d-6b47ca08200f"},"vehicle_type_id":"4","last_reported":1753002626,"current_range_meters":10800,"station_id":"ce4bhh12rcd13ifvqff0","pricing_plan_id":"cebpf4jnsgd1na2vs0mg"},{"bike_id":"849b0c0f-9c11-4674-b5e4-9df819f75199","system_id":"levelo_inurba_marseille","lat":43.28615,"lon":5.35105,"is_reserved":false,"is_disabled":false,"rental_uris":{"android":"levelo://app?vid=849b0c0f-9c11-4674-b5e4-9df819f75199","ios":"levelo://app?vid=849b0c0f-9c11-4674-b5e4-9df819f75199"},"vehicle_type_id":"4","last_reported":1753002626,"current_range_meters":10800,"station_id":"ce4bhch2rcd13ifvqeug","pricing_plan_id":"cebpf4jnsgd1na2vs0mg"},{"bike_id":"c9ffd04b-c3a5-49bc-9896-054acbb108c7","system_id":"levelo_inurba_marseille","lat":43.225006,"lon":5.347706,"is_reserved":false,"is_disabled":false,"rental_uris":{"android":"levelo://app?vid=c9ffd04b-c3a5-49bc-9896-054acbb108c7","ios":"levelo://app?vid=c9ffd04b-c3a5-49bc-9896-054acbb108c7"},"vehicle_type_id":"4","last_reported":1753002626,"current_range_meters":10800,"station_id":"st_cvj5dfep6f1abm77gieg","pricing_plan_id":"cebpf4jnsgd1na2vs0mg"},{"bike_id":"e1a27484-d933-49a5-adb5-ce1233dc02e0","system_id":"levelo_inurba_marseille","lat":43.24177,"lon":5.39729,"is_reserved":false,"is_disabled":false,"rental_uris":{"android":"levelo://app?vid=e1a27484-d933-49a5-adb5-ce1233dc02e0","ios":"levelo://app?vid=e1a27484-d933-49a5-adb5-ce1233dc02e0"},"vehicle_type_id":"4","last_reported":1753002626,"current_range_meters":11200,"station_id":"ce4bhn12rcd13ifvqgpg","pricing_plan_id":"cebpf4jnsgd1na2vs0mg"},{"bike_id":"64f40d21-11c6-4844-b393-aa62bbdc4667","system_id":"levelo_inurba_marseille","lat":43.28344,"lon":5.381043,"is_reserved":false,"is_disabled":false,"rental_uris":{"android":"levelo://app?vid=64f40d21-11c6-4844-b393-aa62bbdc4667","ios":"levelo://app?vid=64f40d21-11c6-4844-b393-aa62bbdc4667"},"vehicle_type_id":"4","last_reported":1753002626,"current_range_meters":11200,"station_id":"ce4bh412rcd13ifvqdr0","pricing_plan_id":"cebpf4jnsgd1na2vs0mg"},{"bike_id":"93301aca-c2c0-493e-a567-7195bb3fc61b","system_id":"levelo_inurba_marseille","lat":43.28268,"lon":5.35071,"is_reserved":false,"is_disabled":true,"rental_uris":{"android":"levelo://app?vid=93301aca-c2c0-493e-a567-7195bb3fc61b","ios":"levelo://app?vid=93301aca-c2c0-493e-a567-7195bb3fc61b"},"vehicle_type_id":"4","last_reported":1753002626,"current_range_meters":11200,"station_id":"ce4bhbp2rcd13ifvqerg","pricing_plan_id":"cebpf4jnsgd1na2vs0mg"},{"bike_id":"c9319e1c-ae3c-4acb-b55c-246e4908743c","system_id":"levelo_inurba_marseille","lat":43.298949,"lon":5.436639,"is_reserved":false,"is_disabled":false,"rental_uris":{"android":"levelo://app?vid=c9319e1c-ae3c-4acb-b55c-246e4908743c","ios":"levelo://app?vid=c9319e1c-ae3c-4acb-b55c-246e4908743c"},"vehicle_type_id":"4","last_reported":1753002626,"current_range_meters":11200,"station_id":"ce4bhpp2rcd13ifvqhfg","pricing_plan_id":"cebpf4jnsgd1na2vs0mg"},{"bike_id":"f49b299d-35c0-49c5-b7bc-03b5b182892b","system_id":"levelo_inurba_marseille","lat":43.31758,"lon":5.39028,"is_reserved":false,"is_disabled":false,"rental_uris":{"android":"levelo://app?vid=f49b299d-35c0-49c5-b7bc-03b5b182892b","ios":"levelo://app?vid=f49b299d-35c0-49c5-b7bc-03b5b182892b"},"vehicle_type_id":"4","last_reported":1753002626,"current_range_meters":11200,"station_id":"ce4bhqp2rcd13ifvqhng","pricing_plan_id":"cebpf4jnsgd1na2vs0mg"},{"bike_id":"d421927e-7ddd-40a0-904f-5b4ff0266a72","system_id":"levelo_inurba_marseille","lat":43.319222,"lon":5.401564,"is_reserved":false,"is_disabled":false,"rental_uris":{"android":"levelo://app?vid=d421927e-7ddd-40a0-904f-5b4ff0266a72","ios":"levelo://app?vid=d421927e-7ddd-40a0-904f-5b4ff0266a72"},"vehicle_type_id":"4","last_reported":1753002626,"current_range_meters":11600,"station_id":"","pricing_plan_id":"cebpf4jnsgd1na2vs0mg"},{"bike_id":"cf9f7b6f-b252-45aa-bd41-e7b8a5947e88","system_id":"levelo_inurba_marseille","lat":43.269416,"lon":5.402682,"is_reserved":false,"is_disabled":true,"rental_uris":{"android":"levelo://app?vid=cf9f7b6f-b252-45aa-bd41-e7b8a5947e88","ios":"levelo://app?vid=cf9f7b6f-b252-45aa-bd41-e7b8a5947e88"},"vehicle_type_id":"4","last_reported":1753002626,"current_range_meters":11600,"station_id":"cjm6bp8fraef2m0cb0m0","pricing_plan_id":"cebpf4jnsgd1na2vs0mg"},{"bike_id":"0ff9b298-32e2-4a22-a8be-d7f20e53bc11","system_id":"levelo_inurba_marseille","lat":43.23192,"lon":5.39993,"is_reserved":false,"is_disabled":false,"rental_uris":{"android":"levelo://app?vid=0ff9b298-32e2-4a22-a8be-d7f20e53bc11","ios":"levelo://app?vid=0ff9b298-32e2-4a22-a8be-d7f20e53bc11"},"vehicle_type_id":"4","last_reported":1753002626,"current_range_meters":11600,"station_id":"ce4bhn12rcd13ifvqgqg","pricing_plan_id":"cebpf4jnsgd1na2vs0mg"},{"bike_id":"ac141403-2eff-454e-8bd1-3d400d40ed2b","system_id":"levelo_inurba_marseille","lat":43.33128,"lon":5.40008,"is_reserved":false,"is_disabled":false,"rental_uris":{"android":"levelo://app?vid=ac141403-2eff-454e-8bd1-3d400d40ed2b","ios":"levelo://app?vid=ac141403-2eff-454e-8bd1-3d400d40ed2b"},"vehicle_type_id":"4","last_reported":1753002626,"current_range_meters":11600,"station_id":"","pricing_plan_id":"cebpf4jnsgd1na2vs0mg"},{"bike_id":"6a193f41-f336-48d3-a5d0-a6fca3bf067e","system_id":"levelo_inurba_marseille","lat":43.2467,"lon":5.38142,"is_reserved":false,"is_disabled":false,"rental_uris":{"android":"levelo://app?vid=6a193f41-f336-48d3-a5d0-a6fca3bf067e","ios":"levelo://app?vid=6a193f41-f336-48d3-a5d0-a6fca3bf067e"},"vehicle_type_id":"4","last_reported":1753002626,"current_range_meters":11600,"station_id":"ce4bhih2rcd13ifvqfr0","pricing_plan_id":"cebpf4jnsgd1na2vs0mg"},{"bike_id":"88c618f7-3926-48b3-91ec-dd8c85d16205","system_id":"levelo_inurba_marseille","lat":43.2622,"lon":5.40439,"is_reserved":false,"is_disabled":false,"rental_uris":{"android":"levelo://app?vid=88c618f7-3926-48b3-91ec-dd8c85d16205","ios":"levelo://app?vid=88c618f7-3926-48b3-91ec-dd8c85d16205"},"vehicle_type_id":"4","last_reported":1753002626,"current_range_meters":11600,"station_id":"ce4bhmh2rcd13ifvqgmg","pricing_plan_id":"cebpf4jnsgd1na2vs0mg"},{"bike_id":"cb2e0b33-843b-4357-9327-9b67f8c5eec5","system_id":"levelo_inurba_marseille","lat":43.30531,"lon":5.36529,"is_reserved":false,"is_disabled":false,"rental_uris":{"android":"levelo://app?vid=cb2e0b33-843b-4357-9327-9b67f8c5eec5","ios":"levelo://app?vid=cb2e0b33-843b-4357-9327-9b67f8c5eec5"},"vehicle_type_id":"4","last_reported":1753002626,"current_range_meters":37600,"station_id":"ce4bgs12rcd13ifvqcag","pricing_plan_id":"cebpf4jnsgd1na2vs0mg"},{"bike_id":"69d61426-a65f-40c9-a5b9-3c9b37e29a4f","system_id":"levelo_inurba_marseille","lat":43.22932,"lon":5.35391,"is_reserved":false,"is_disabled":false,"rental_uris":{"android":"levelo://app?vid=69d61426-a65f-40c9-a5b9-3c9b37e29a4f","ios":"levelo://app?vid=69d61426-a65f-40c9-a5b9-3c9b37e29a4f"},"vehicle_type_id":"4","last_reported":1753002626,"current_range_meters":12000,"station_id":"cpo3532slgdg3j2ikp40","pricing_plan_id":"cebpf4jnsgd1na2vs0mg"},{"bike_id":"cbd7089c-9d2d-42db-a268-faaaa69d7343","system_id":"levelo_inurba_marseille","lat":43.26245,"lon":5.37448,"is_reserved":false,"is_disabled":true,"rental_uris":{"android":"levelo://app?vid=cbd7089c-9d2d-42db-a268-faaaa69d7343","ios":"levelo://app?vid=cbd7089c-9d2d-42db-a268-faaaa69d7343"},"vehicle_type_id":"4","last_reported":1753002626,"current_range_meters":12000,"station_id":"","pricing_plan_id":"cebpf4jnsgd1na2vs0mg"},{"bike_id":"3581e735-186c-4f7c-a905-f7969175be88","system_id":"levelo_inurba_marseille","lat":43.32292,"lon":5.38267,"is_reserved":false,"is_disabled":false,"rental_uris":{"android":"levelo://app?vid=3581e735-186c-4f7c-a905-f7969175be88","ios":"levelo://app?vid=3581e735-186c-4f7c-a905-f7969175be88"},"vehicle_type_id":"4","last_reported":1753002626,"current_range_meters":12000,"station_id":"ce4bhr12rcd13ifvqhqg","pricing_plan_id":"cebpf4jnsgd1na2vs0mg"},{"bike_id":"892e06aa-05f6-415f-96f6-13455b0802de","system_id":"levelo_inurba_marseille","lat":43.29575,"lon":5.37492,"is_reserved":false,"is_disabled":true,"rental_uris":{"android":"levelo://app?vid=892e06aa-05f6-415f-96f6-13455b0802de","ios":"levelo://app?vid=892e06aa-05f6-415f-96f6-13455b0802de"},"vehicle_type_id":"4","last_reported":1753002626,"current_range_meters":12000,"station_id":"ce4bgh92rcd13ifvqb50","pricing_plan_id":"cebpf4jnsgd1na2vs0mg"},{"bike_id":"e307f4bf-a8af-4b77-8ebc-94bd83c9eba9","system_id":"levelo_inurba_marseille","lat":43.22929,"lon":5.35377,"is_reserved":false,"is_disabled":false,"rental_uris":{"android":"levelo://app?vid=e307f4bf-a8af-4b77-8ebc-94bd83c9eba9","ios":"levelo://app?vid=e307f4bf-a8af-4b77-8ebc-94bd83c9eba9"},"vehicle_type_id":"4","last_reported":1753002626,"current_range_meters":12000,"station_id":"cpo3532slgdg3j2ikp40","pricing_plan_id":"cebpf4jnsgd1na2vs0mg"},{"bike_id":"58c83dfe-a671-4b4f-9857-0dcbd0243261","system_id":"levelo_inurba_marseille","lat":43.25576,"lon":5.38249,"is_reserved":false,"is_disabled":false,"rental_uris":{"android":"levelo://app?vid=58c83dfe-a671-4b4f-9857-0dcbd0243261","ios":"levelo://app?vid=58c83dfe-a671-4b4f-9857-0dcbd0243261"},"vehicle_type_id":"4","last_reported":1753002626,"current_range_meters":12000,"station_id":"ce4bhih2rcd13ifvqfs0","pricing_plan_id":"cebpf4jnsgd1na2vs0mg"},{"bike_id":"7da69f3d-17ea-45bd-8065-f715d544d5a5","system_id":"levelo_inurba_marseille","lat":43.2706,"lon":5.42295,"is_reserved":false,"is_disabled":false,"rental_uris":{"android":"levelo://app?vid=7da69f3d-17ea-45bd-8065-f715d544d5a5","ios":"levelo://app?vid=7da69f3d-17ea-45bd-8065-f715d544d5a5"},"vehicle_type_id":"4","last_reported":1753002626,"current_range_meters":12400,"station_id":"ce4bhk92rcd13ifvqgb0","pricing_plan_id":"cebpf4jnsgd1na2vs0mg"},{"bike_id":"a6de290b-5c15-427b-bc37-8301607e1735","system_id":"levelo_inurba_marseille","lat":43.337444,"lon":5.374475,"is_reserved":false,"is_disabled":false,"rental_uris":{"android":"levelo://app?vid=a6de290b-5c15-427b-bc37-8301607e1735","ios":"levelo://app?vid=a6de290b-5c15-427b-bc37-8301607e1735"},"vehicle_type_id":"4","last_reported":1753002626,"current_range_meters":12400,"station_id":"","pricing_plan_id":"cebpf4jnsgd1na2vs0mg"},{"bike_id":"77e5d396-9f38-43c2-ae33-ac1f85df337d","system_id":"levelo_inurba_marseille","lat":43.29572,"lon":5.42299,"is_reserved":false,"is_disabled":false,"rental_uris":{"android":"levelo://app?vid=77e5d396-9f38-43c2-ae33-ac1f85df337d","ios":"levelo://app?vid=77e5d396-9f38-43c2-ae33-ac1f85df337d"},"vehicle_type_id":"4","last_reported":1753002626,"current_range_meters":12400,"station_id":"ce4bhph2rcd13ifvqhdg","pricing_plan_id":"cebpf4jnsgd1na2vs0mg"},{"bike_id":"53af69b5-5f85-4117-8255-f8c307b0f17d","system_id":"levelo_inurba_marseille","lat":43.28484,"lon":5.38413,"is_reserved":false,"is_disabled":false,"rental_uris":{"android":"levelo://app?vid=53af69b5-5f85-4117-8255-f8c307b0f17d","ios":"levelo://app?vid=53af69b5-5f85-4117-8255-f8c307b0f17d"},"vehicle_type_id":"4","last_reported":1753002626,"current_range_meters":12400,"station_id":"ce4bh512rcd13ifvqe3g","pricing_plan_id":"cebpf4jnsgd1na2vs0mg"},{"bike_id":"471dc3d5-ac0c-4fb1-b8ed-9304c84605d1","system_id":"levelo_inurba_marseille","lat":43.30154,"lon":5.39871,"is_reserved":false,"is_disabled":false,"rental_uris":{"android":"levelo://app?vid=471dc3d5-ac0c-4fb1-b8ed-9304c84605d1","ios":"levelo://app?vid=471dc3d5-ac0c-4fb1-b8ed-9304c84605d1"},"vehicle_type_id":"4","last_reported":1753002626,"current_range_meters":12400,"station_id":"ce4bh0h2rcd13ifvqd40","pricing_plan_id":"cebpf4jnsgd1na2vs0mg"},{"bike_id":"d916997f-1b3d-4d99-bec2-f22f10a49844","system_id":"levelo_inurba_marseille","lat":43.251149,"lon":5.403227,"is_reserved":false,"is_disabled":false,"rental_uris":{"android":"levelo://app?vid=d916997f-1b3d-4d99-bec2-f22f10a49844","ios":"levelo://app?vid=d916997f-1b3d-4d99-bec2-f22f10a49844"},"vehicle_type_id":"4","last_reported":1753002626,"current_range_meters":12400,"station_id":"ce4bhlh2rcd13ifvqgig","pricing_plan_id":"cebpf4jnsgd1na2vs0mg"},{"bike_id":"3f34cbef-2df9-4d33-b87e-ee079fd255a1","system_id":"levelo_inurba_marseille","lat":43.30803,"lon":5.43532,"is_reserved":false,"is_disabled":false,"rental_uris":{"android":"levelo://app?vid=3f34cbef-2df9-4d33-b87e-ee079fd255a1","ios":"levelo://app?vid=3f34cbef-2df9-4d33-b87e-ee079fd255a1"},"vehicle_type_id":"4","last_reported":1753002626,"current_range_meters":12800,"station_id":"ce4bhph2rcd13ifvqheg","pricing_plan_id":"cebpf4jnsgd1na2vs0mg"},{"bike_id":"b9246e48-e9f8-4924-bbb9-8c633997abe7","system_id":"levelo_inurba_marseille","lat":43.22933,"lon":5.35384,"is_reserved":false,"is_disabled":false,"rental_uris":{"android":"levelo://app?vid=b9246e48-e9f8-4924-bbb9-8c633997abe7","ios":"levelo://app?vid=b9246e48-e9f8-4924-bbb9-8c633997abe7"},"vehicle_type_id":"4","last_reported":1753002626,"current_range_meters":12800,"station_id":"cpo3532slgdg3j2ikp40","pricing_plan_id":"cebpf4jnsgd1na2vs0mg"},{"bike_id":"7a2e1cf8-de90-4b24-ade1-9d8b3a17f052","system_id":"levelo_inurba_marseille","lat":43.25139,"lon":5.37694,"is_reserved":false,"is_disabled":false,"rental_uris":{"android":"levelo://app?vid=7a2e1cf8-de90-4b24-ade1-9d8b3a17f052","ios":"levelo://app?vid=7a2e1cf8-de90-4b24-ade1-9d8b3a17f052"},"vehicle_type_id":"4","last_reported":1753002626,"current_range_meters":12800,"station_id":"","pricing_plan_id":"cebpf4jnsgd1na2vs0mg"},{"bike_id":"f11d5853-771f-43df-bd89-c14a78847538","system_id":"levelo_inurba_marseille","lat":43.311211,"lon":5.377681,"is_reserved":false,"is_disabled":false,"rental_uris":{"android":"levelo://app?vid=f11d5853-771f-43df-bd89-c14a78847538","ios":"levelo://app?vid=f11d5853-771f-43df-bd89-c14a78847538"},"vehicle_type_id":"4","last_reported":1753002626,"current_range_meters":12800,"station_id":"ce4bgt92rcd13ifvqcg0","pricing_plan_id":"cebpf4jnsgd1na2vs0mg"},{"bike_id":"7d91d34c-95ba-419a-8d0b-21d2aeaa83ad","system_id":"levelo_inurba_marseille","lat":43.25531,"lon":5.37625,"is_reserved":false,"is_disabled":true,"rental_uris":{"android":"levelo://app?vid=7d91d34c-95ba-419a-8d0b-21d2aeaa83ad","ios":"levelo://app?vid=7d91d34c-95ba-419a-8d0b-21d2aeaa83ad"},"vehicle_type_id":"4","last_reported":1753002626,"current_range_meters":12800,"station_id":"ce4bhh12rcd13ifvqff0","pricing_plan_id":"cebpf4jnsgd1na2vs0mg"},{"bike_id":"dd12eefc-9090-488f-8382-d877f7eeafe4","system_id":"levelo_inurba_marseille","lat":43.25404,"lon":5.41906,"is_reserved":false,"is_disabled":false,"rental_uris":{"android":"levelo://app?vid=dd12eefc-9090-488f-8382-d877f7eeafe4","ios":"levelo://app?vid=dd12eefc-9090-488f-8382-d877f7eeafe4"},"vehicle_type_id":"4","last_reported":1753002626,"current_range_meters":13600,"station_id":"","pricing_plan_id":"cebpf4jnsgd1na2vs0mg"},{"bike_id":"6fb131dd-8bae-4bc0-b0c0-17992306572f","system_id":"levelo_inurba_marseille","lat":43.29554,"lon":5.42286,"is_reserved":false,"is_disabled":false,"rental_uris":{"android":"levelo://app?vid=6fb131dd-8bae-4bc0-b0c0-17992306572f","ios":"levelo://app?vid=6fb131dd-8bae-4bc0-b0c0-17992306572f"},"vehicle_type_id":"4","last_reported":1753002626,"current_range_meters":13600,"station_id":"ce4bhph2rcd13ifvqhdg","pricing_plan_id":"cebpf4jnsgd1na2vs0mg"},{"bike_id":"e4c89c5d-526b-4575-a9c8-1237dab7d7b8","system_id":"levelo_inurba_marseille","lat":43.22931,"lon":5.35397,"is_reserved":false,"is_disabled":false,"rental_uris":{"android":"levelo://app?vid=e4c89c5d-526b-4575-a9c8-1237dab7d7b8","ios":"levelo://app?vid=e4c89c5d-526b-4575-a9c8-1237dab7d7b8"},"vehicle_type_id":"4","last_reported":1753002626,"current_range_meters":13600,"station_id":"cpo3532slgdg3j2ikp40","pricing_plan_id":"cebpf4jnsgd1na2vs0mg"},{"bike_id":"f7ae5413-50e1-47d8-8410-2c5bf65f9eed","system_id":"levelo_inurba_marseille","lat":43.26193,"lon":5.37451,"is_reserved":false,"is_disabled":false,"rental_uris":{"android":"levelo://app?vid=f7ae5413-50e1-47d8-8410-2c5bf65f9eed","ios":"levelo://app?vid=f7ae5413-50e1-47d8-8410-2c5bf65f9eed"},"vehicle_type_id":"4","last_reported":1753002626,"current_range_meters":13600,"station_id":"ce4bhgp2rcd13ifvqfc0","pricing_plan_id":"cebpf4jnsgd1na2vs0mg"},{"bike_id":"7023c9df-34ea-4be8-bb08-ef9e6e748e73","system_id":"levelo_inurba_marseille","lat":43.24181,"lon":5.39732,"is_reserved":false,"is_disabled":false,"rental_uris":{"android":"levelo://app?vid=7023c9df-34ea-4be8-bb08-ef9e6e748e73","ios":"levelo://app?vid=7023c9df-34ea-4be8-bb08-ef9e6e748e73"},"vehicle_type_id":"4","last_reported":1753002626,"current_range_meters":13600,"station_id":"ce4bhn12rcd13ifvqgpg","pricing_plan_id":"cebpf4jnsgd1na2vs0mg"},{"bike_id":"d25b3b74-1eb0-48d4-998a-10d14228da57","system_id":"levelo_inurba_marseille","lat":43.29697,"lon":5.36797,"is_reserved":false,"is_disabled":false,"rental_uris":{"android":"levelo://app?vid=d25b3b74-1eb0-48d4-998a-10d14228da57","ios":"levelo://app?vid=d25b3b74-1eb0-48d4-998a-10d14228da57"},"vehicle_type_id":"4","last_reported":1753002626,"current_range_meters":14000,"station_id":"","pricing_plan_id":"cebpf4jnsgd1na2vs0mg"},{"bike_id":"5032a8bb-e6e3-431e-b320-13195f3c8ae0","system_id":"levelo_inurba_marseille","lat":43.29961,"lon":5.41326,"is_reserved":false,"is_disabled":false,"rental_uris":{"android":"levelo://app?vid=5032a8bb-e6e3-431e-b320-13195f3c8ae0","ios":"levelo://app?vid=5032a8bb-e6e3-431e-b320-13195f3c8ae0"},"vehicle_type_id":"4","last_reported":1753002626,"current_range_meters":14000,"station_id":"ce4bhp12rcd13ifvqh9g","pricing_plan_id":"cebpf4jnsgd1na2vs0mg"},{"bike_id":"5f3c2d82-aa89-4640-8e4b-7048aefb28e4","system_id":"levelo_inurba_marseille","lat":43.30882,"lon":5.3719,"is_reserved":false,"is_disabled":false,"rental_uris":{"android":"levelo://app?vid=5f3c2d82-aa89-4640-8e4b-7048aefb28e4","ios":"levelo://app?vid=5f3c2d82-aa89-4640-8e4b-7048aefb28e4"},"vehicle_type_id":"4","last_reported":1753002626,"current_range_meters":14000,"station_id":"ce4bguh2rcd13ifvqckg","pricing_plan_id":"cebpf4jnsgd1na2vs0mg"},{"bike_id":"4268961c-8e3c-4bac-891f-a8846cba533f","system_id":"levelo_inurba_marseille","lat":43.32493,"lon":5.36569,"is_reserved":false,"is_disabled":false,"rental_uris":{"android":"levelo://app?vid=4268961c-8e3c-4bac-891f-a8846cba533f","ios":"levelo://app?vid=4268961c-8e3c-4bac-891f-a8846cba533f"},"vehicle_type_id":"4","last_reported":1753002626,"current_range_meters":14000,"station_id":"ce4bhs12rcd13ifvqhvg","pricing_plan_id":"cebpf4jnsgd1na2vs0mg"},{"bike_id":"95b5bcfa-54af-48c0-bd18-8f73f959ce2b","system_id":"levelo_inurba_marseille","lat":43.31935,"lon":5.37313,"is_reserved":false,"is_disabled":false,"rental_uris":{"android":"levelo://app?vid=95b5bcfa-54af-48c0-bd18-8f73f959ce2b","ios":"levelo://app?vid=95b5bcfa-54af-48c0-bd18-8f73f959ce2b"},"vehicle_type_id":"4","last_reported":1753002626,"current_range_meters":14000,"station_id":"","pricing_plan_id":"cebpf4jnsgd1na2vs0mg"},{"bike_id":"7eaefe95-a918-4dff-a447-29114f8d3c22","system_id":"levelo_inurba_marseille","lat":43.2872,"lon":5.40001,"is_reserved":false,"is_disabled":true,"rental_uris":{"android":"levelo://app?vid=7eaefe95-a918-4dff-a447-29114f8d3c22","ios":"levelo://app?vid=7eaefe95-a918-4dff-a447-29114f8d3c22"},"vehicle_type_id":"4","last_reported":1753002626,"current_range_meters":14400,"station_id":"ce4bho92rcd13ifvqh3g","pricing_plan_id":"cebpf4jnsgd1na2vs0mg"},{"bike_id":"beb14892-a851-4f8e-b873-cbd3d15ad0a9","system_id":"levelo_inurba_marseille","lat":43.23752,"lon":5.36183,"is_reserved":false,"is_disabled":false,"rental_uris":{"android":"levelo://app?vid=beb14892-a851-4f8e-b873-cbd3d15ad0a9","ios":"levelo://app?vid=beb14892-a851-4f8e-b873-cbd3d15ad0a9"},"vehicle_type_id":"4","last_reported":1753002626,"current_range_meters":14400,"station_id":"","pricing_plan_id":"cebpf4jnsgd1na2vs0mg"},{"bike_id":"3575feb2-51bd-4152-a21f-87e454fa7009","system_id":"levelo_inurba_marseille","lat":43.25493,"lon":5.37648,"is_reserved":false,"is_disabled":false,"rental_uris":{"android":"levelo://app?vid=3575feb2-51bd-4152-a21f-87e454fa7009","ios":"levelo://app?vid=3575feb2-51bd-4152-a21f-87e454fa7009"},"vehicle_type_id":"4","last_reported":1753002626,"current_range_meters":14400,"station_id":"ce4bhh12rcd13ifvqff0","pricing_plan_id":"cebpf4jnsgd1na2vs0mg"},{"bike_id":"e5d8ec38-908c-4053-8035-ad583b8d767c","system_id":"levelo_inurba_marseille","lat":43.23146,"lon":5.43708,"is_reserved":false,"is_disabled":false,"rental_uris":{"android":"levelo://app?vid=e5d8ec38-908c-4053-8035-ad583b8d767c","ios":"levelo://app?vid=e5d8ec38-908c-4053-8035-ad583b8d767c"},"vehicle_type_id":"4","last_reported":1753002626,"current_range_meters":14400,"station_id":"ce4bhmp2rcd13ifvqgog","pricing_plan_id":"cebpf4jnsgd1na2vs0mg"},{"bike_id":"e4d40cc6-06be-4413-a09d-0c3b322f384f","system_id":"levelo_inurba_marseille","lat":43.284371,"lon":5.391737,"is_reserved":false,"is_disabled":false,"rental_uris":{"android":"levelo://app?vid=e4d40cc6-06be-4413-a09d-0c3b322f384f","ios":"levelo://app?vid=e4d40cc6-06be-4413-a09d-0c3b322f384f"},"vehicle_type_id":"4","last_reported":1753002626,"current_range_meters":14800,"station_id":"ce4bhoh2rcd13ifvqh5g","pricing_plan_id":"cebpf4jnsgd1na2vs0mg"},{"bike_id":"e50ad253-cbd4-4a94-9b59-64dacc1f0adf","system_id":"levelo_inurba_marseille","lat":43.24074,"lon":5.37746,"is_reserved":false,"is_disabled":false,"rental_uris":{"android":"levelo://app?vid=e50ad253-cbd4-4a94-9b59-64dacc1f0adf","ios":"levelo://app?vid=e50ad253-cbd4-4a94-9b59-64dacc1f0adf"},"vehicle_type_id":"4","last_reported":1753002626,"current_range_meters":14800,"station_id":"ce4bhnp2rcd13ifvqgvg","pricing_plan_id":"cebpf4jnsgd1na2vs0mg"},{"bike_id":"299ec8a6-d5a7-41ea-8121-1c7f792257d2","system_id":"levelo_inurba_marseille","lat":43.2735,"lon":5.36226,"is_reserved":false,"is_disabled":true,"rental_uris":{"android":"levelo://app?vid=299ec8a6-d5a7-41ea-8121-1c7f792257d2","ios":"levelo://app?vid=299ec8a6-d5a7-41ea-8121-1c7f792257d2"},"vehicle_type_id":"4","last_reported":1753002626,"current_range_meters":15200,"station_id":"ce4bhbh2rcd13ifvqeo0","pricing_plan_id":"cebpf4jnsgd1na2vs0mg"},{"bike_id":"33fcb50a-a1a6-44ae-9108-ab197c22b879","system_id":"levelo_inurba_marseille","lat":43.23968,"lon":5.36627,"is_reserved":false,"is_disabled":false,"rental_uris":{"android":"levelo://app?vid=33fcb50a-a1a6-44ae-9108-ab197c22b879","ios":"levelo://app?vid=33fcb50a-a1a6-44ae-9108-ab197c22b879"},"vehicle_type_id":"4","last_reported":1753002626,"current_range_meters":15200,"station_id":"ce4bhi12rcd13ifvqfp0","pricing_plan_id":"cebpf4jnsgd1na2vs0mg"},{"bike_id":"d3aca52a-4e64-461a-8fd1-e9a035bafbdf","system_id":"levelo_inurba_marseille","lat":43.257213,"lon":5.411019,"is_reserved":false,"is_disabled":false,"rental_uris":{"android":"levelo://app?vid=d3aca52a-4e64-461a-8fd1-e9a035bafbdf","ios":"levelo://app?vid=d3aca52a-4e64-461a-8fd1-e9a035bafbdf"},"vehicle_type_id":"4","last_reported":1753002626,"current_range_meters":15200,"station_id":"","pricing_plan_id":"cebpf4jnsgd1na2vs0mg"},{"bike_id":"b3176209-c9b0-4949-926f-6c63990cfd9f","system_id":"levelo_inurba_marseille","lat":43.33624,"lon":5.41095,"is_reserved":false,"is_disabled":false,"rental_uris":{"android":"levelo://app?vid=b3176209-c9b0-4949-926f-6c63990cfd9f","ios":"levelo://app?vid=b3176209-c9b0-4949-926f-6c63990cfd9f"},"vehicle_type_id":"4","last_reported":1753002626,"current_range_meters":15200,"station_id":"","pricing_plan_id":"cebpf4jnsgd1na2vs0mg"},{"bike_id":"c9695da4-3048-4cfc-83f0-62c3fac1ccbe","system_id":"levelo_inurba_marseille","lat":43.230509,"lon":5.354905,"is_reserved":false,"is_disabled":true,"rental_uris":{"android":"levelo://app?vid=c9695da4-3048-4cfc-83f0-62c3fac1ccbe","ios":"levelo://app?vid=c9695da4-3048-4cfc-83f0-62c3fac1ccbe"},"vehicle_type_id":"4","last_reported":1753002626,"current_range_meters":16000,"station_id":"cpo3342slgdg3j2ifvpg","pricing_plan_id":"cebpf4jnsgd1na2vs0mg"},{"bike_id":"64c4e8fb-d681-4de2-854c-3b8c6a5bafd9","system_id":"levelo_inurba_marseille","lat":43.24089,"lon":5.37753,"is_reserved":false,"is_disabled":false,"rental_uris":{"android":"levelo://app?vid=64c4e8fb-d681-4de2-854c-3b8c6a5bafd9","ios":"levelo://app?vid=64c4e8fb-d681-4de2-854c-3b8c6a5bafd9"},"vehicle_type_id":"4","last_reported":1753002626,"current_range_meters":16000,"station_id":"ce4bhnp2rcd13ifvqgvg","pricing_plan_id":"cebpf4jnsgd1na2vs0mg"},{"bike_id":"2d204ae1-a432-454a-839c-4d383ae2825d","system_id":"levelo_inurba_marseille","lat":43.31084,"lon":5.40094,"is_reserved":false,"is_disabled":false,"rental_uris":{"android":"levelo://app?vid=2d204ae1-a432-454a-839c-4d383ae2825d","ios":"levelo://app?vid=2d204ae1-a432-454a-839c-4d383ae2825d"},"vehicle_type_id":"4","last_reported":1753002626,"current_range_meters":16000,"station_id":"","pricing_plan_id":"cebpf4jnsgd1na2vs0mg"},{"bike_id":"cd21aa1f-3bde-43e0-be6f-7b28a0ff225d","system_id":"levelo_inurba_marseille","lat":43.300164,"lon":5.400321,"is_reserved":false,"is_disabled":false,"rental_uris":{"android":"levelo://app?vid=cd21aa1f-3bde-43e0-be6f-7b28a0ff225d","ios":"levelo://app?vid=cd21aa1f-3bde-43e0-be6f-7b28a0ff225d"},"vehicle_type_id":"4","last_reported":1753002626,"current_range_meters":16000,"station_id":"ce4bh112rcd13ifvqd90","pricing_plan_id":"cebpf4jnsgd1na2vs0mg"},{"bike_id":"7988183c-a382-4df8-bfe0-44c34ab63148","system_id":"levelo_inurba_marseille","lat":43.24665,"lon":5.3816,"is_reserved":false,"is_disabled":false,"rental_uris":{"android":"levelo://app?vid=7988183c-a382-4df8-bfe0-44c34ab63148","ios":"levelo://app?vid=7988183c-a382-4df8-bfe0-44c34ab63148"},"vehicle_type_id":"4","last_reported":1753002626,"current_range_meters":16000,"station_id":"ce4bhih2rcd13ifvqfr0","pricing_plan_id":"cebpf4jnsgd1na2vs0mg"},{"bike_id":"20597f8e-6c1b-4a51-9e3f-8ecf88381375","system_id":"levelo_inurba_marseille","lat":43.303258,"lon":5.391931,"is_reserved":false,"is_disabled":true,"rental_uris":{"android":"levelo://app?vid=20597f8e-6c1b-4a51-9e3f-8ecf88381375","ios":"levelo://app?vid=20597f8e-6c1b-4a51-9e3f-8ecf88381375"},"vehicle_type_id":"4","last_reported":1753002626,"current_range_meters":16000,"station_id":"ce4bgkh2rcd13ifvqbk0","pricing_plan_id":"cebpf4jnsgd1na2vs0mg"},{"bike_id":"40346a21-69c2-488b-9905-02de6a5d18b3","system_id":"levelo_inurba_marseille","lat":43.255802,"lon":5.382305,"is_reserved":false,"is_disabled":false,"rental_uris":{"android":"levelo://app?vid=40346a21-69c2-488b-9905-02de6a5d18b3","ios":"levelo://app?vid=40346a21-69c2-488b-9905-02de6a5d18b3"},"vehicle_type_id":"4","last_reported":1753002626,"current_range_meters":16400,"station_id":"ce4bhih2rcd13ifvqfs0","pricing_plan_id":"cebpf4jnsgd1na2vs0mg"},{"bike_id":"f335eb8b-f2b0-48df-963c-2425602f9038","system_id":"levelo_inurba_marseille","lat":43.270071,"lon":5.401217,"is_reserved":false,"is_disabled":true,"rental_uris":{"android":"levelo://app?vid=f335eb8b-f2b0-48df-963c-2425602f9038","ios":"levelo://app?vid=f335eb8b-f2b0-48df-963c-2425602f9038"},"vehicle_type_id":"4","last_reported":1753002626,"current_range_meters":16400,"station_id":"","pricing_plan_id":"cebpf4jnsgd1na2vs0mg"},{"bike_id":"6f530211-2d31-4918-b78d-6fbc7b6302a4","system_id":"levelo_inurba_marseille","lat":43.23578,"lon":5.36136,"is_reserved":false,"is_disabled":false,"rental_uris":{"android":"levelo://app?vid=6f530211-2d31-4918-b78d-6fbc7b6302a4","ios":"levelo://app?vid=6f530211-2d31-4918-b78d-6fbc7b6302a4"},"vehicle_type_id":"4","last_reported":1753002626,"current_range_meters":16400,"station_id":"","pricing_plan_id":"cebpf4jnsgd1na2vs0mg"},{"bike_id":"7f98c65c-6593-4352-858e-be8fe24c31fc","system_id":"levelo_inurba_marseille","lat":43.225071,"lon":5.347844,"is_reserved":false,"is_disabled":false,"rental_uris":{"android":"levelo://app?vid=7f98c65c-6593-4352-858e-be8fe24c31fc","ios":"levelo://app?vid=7f98c65c-6593-4352-858e-be8fe24c31fc"},"vehicle_type_id":"4","last_reported":1753002626,"current_range_meters":16400,"station_id":"st_cvj5dfep6f1abm77gieg","pricing_plan_id":"cebpf4jnsgd1na2vs0mg"},{"bike_id":"96793585-b370-4499-97b5-55297e845c8f","system_id":"levelo_inurba_marseille","lat":43.217413,"lon":5.346016,"is_reserved":false,"is_disabled":true,"rental_uris":{"android":"levelo://app?vid=96793585-b370-4499-97b5-55297e845c8f","ios":"levelo://app?vid=96793585-b370-4499-97b5-55297e845c8f"},"vehicle_type_id":"4","last_reported":1753002626,"current_range_meters":16400,"station_id":"st_cvj6r9ubvosntc0bgbag","pricing_plan_id":"cebpf4jnsgd1na2vs0mg"},{"bike_id":"01896eec-d9cd-4516-a2db-08025cc470c1","system_id":"levelo_inurba_marseille","lat":43.23179,"lon":5.39988,"is_reserved":false,"is_disabled":false,"rental_uris":{"android":"levelo://app?vid=01896eec-d9cd-4516-a2db-08025cc470c1","ios":"levelo://app?vid=01896eec-d9cd-4516-a2db-08025cc470c1"},"vehicle_type_id":"4","last_reported":1753002626,"current_range_meters":16400,"station_id":"ce4bhn12rcd13ifvqgqg","pricing_plan_id":"cebpf4jnsgd1na2vs0mg"},{"bike_id":"7cb87117-19f1-4d48-84b2-bec6ac38464c","system_id":"levelo_inurba_marseille","lat":43.29544,"lon":5.42292,"is_reserved":false,"is_disabled":false,"rental_uris":{"android":"levelo://app?vid=7cb87117-19f1-4d48-84b2-bec6ac38464c","ios":"levelo://app?vid=7cb87117-19f1-4d48-84b2-bec6ac38464c"},"vehicle_type_id":"4","last_reported":1753002626,"current_range_meters":16400,"station_id":"ce4bhph2rcd13ifvqhdg","pricing_plan_id":"cebpf4jnsgd1na2vs0mg"},{"bike_id":"31383806-73b8-45d5-b8fb-dbd79698cbb3","system_id":"levelo_inurba_marseille","lat":43.3056,"lon":5.36535,"is_reserved":false,"is_disabled":false,"rental_uris":{"android":"levelo://app?vid=31383806-73b8-45d5-b8fb-dbd79698cbb3","ios":"levelo://app?vid=31383806-73b8-45d5-b8fb-dbd79698cbb3"},"vehicle_type_id":"4","last_reported":1753002626,"current_range_meters":16400,"station_id":"ce4bgs12rcd13ifvqcag","pricing_plan_id":"cebpf4jnsgd1na2vs0mg"},{"bike_id":"ae0d8c9f-8119-4312-b429-39e92d4e6ae7","system_id":"levelo_inurba_marseille","lat":43.23154,"lon":5.43715,"is_reserved":false,"is_disabled":false,"rental_uris":{"android":"levelo://app?vid=ae0d8c9f-8119-4312-b429-39e92d4e6ae7","ios":"levelo://app?vid=ae0d8c9f-8119-4312-b429-39e92d4e6ae7"},"vehicle_type_id":"4","last_reported":1753002626,"current_range_meters":16400,"station_id":"ce4bhmp2rcd13ifvqgog","pricing_plan_id":"cebpf4jnsgd1na2vs0mg"},{"bike_id":"27db1ad3-2947-41e8-8ab4-a42a02cc25df","system_id":"levelo_inurba_marseille","lat":43.28279,"lon":5.35081,"is_reserved":false,"is_disabled":false,"rental_uris":{"android":"levelo://app?vid=27db1ad3-2947-41e8-8ab4-a42a02cc25df","ios":"levelo://app?vid=27db1ad3-2947-41e8-8ab4-a42a02cc25df"},"vehicle_type_id":"4","last_reported":1753002626,"current_range_meters":16800,"station_id":"ce4bhbp2rcd13ifvqerg","pricing_plan_id":"cebpf4jnsgd1na2vs0mg"},{"bike_id":"284cf330-577a-4932-8f14-cf3cdaa65655","system_id":"levelo_inurba_marseille","lat":43.308004,"lon":5.435153,"is_reserved":false,"is_disabled":false,"rental_uris":{"android":"levelo://app?vid=284cf330-577a-4932-8f14-cf3cdaa65655","ios":"levelo://app?vid=284cf330-577a-4932-8f14-cf3cdaa65655"},"vehicle_type_id":"4","last_reported":1753002626,"current_range_meters":16800,"station_id":"ce4bhph2rcd13ifvqheg","pricing_plan_id":"cebpf4jnsgd1na2vs0mg"},{"bike_id":"8d0a7d48-821b-45fd-b0ae-14054183a777","system_id":"levelo_inurba_marseille","lat":43.2974,"lon":5.37716,"is_reserved":false,"is_disabled":false,"rental_uris":{"android":"levelo://app?vid=8d0a7d48-821b-45fd-b0ae-14054183a777","ios":"levelo://app?vid=8d0a7d48-821b-45fd-b0ae-14054183a777"},"vehicle_type_id":"4","last_reported":1753002626,"current_range_meters":16800,"station_id":"ce4bgkh2rcd13ifvqbl0","pricing_plan_id":"cebpf4jnsgd1na2vs0mg"},{"bike_id":"053762ef-2967-4c03-83aa-9c21c06b9aed","system_id":"levelo_inurba_marseille","lat":43.24073,"lon":5.37685,"is_reserved":false,"is_disabled":false,"rental_uris":{"android":"levelo://app?vid=053762ef-2967-4c03-83aa-9c21c06b9aed","ios":"levelo://app?vid=053762ef-2967-4c03-83aa-9c21c06b9aed"},"vehicle_type_id":"4","last_reported":1753002626,"current_range_meters":16800,"station_id":"ce4bhnp2rcd13ifvqgvg","pricing_plan_id":"cebpf4jnsgd1na2vs0mg"},{"bike_id":"dc654502-b68b-426b-b6bf-8516fdc04d31","system_id":"levelo_inurba_marseille","lat":43.28064,"lon":5.39671,"is_reserved":false,"is_disabled":false,"rental_uris":{"android":"levelo://app?vid=dc654502-b68b-426b-b6bf-8516fdc04d31","ios":"levelo://app?vid=dc654502-b68b-426b-b6bf-8516fdc04d31"},"vehicle_type_id":"4","last_reported":1753002626,"current_range_meters":16800,"station_id":"ce4bho12rcd13ifvqh2g","pricing_plan_id":"cebpf4jnsgd1na2vs0mg"},{"bike_id":"ff304561-c8ce-4ac1-9008-9c7fa7a2d85b","system_id":"levelo_inurba_marseille","lat":43.29252,"lon":5.3843,"is_reserved":false,"is_disabled":true,"rental_uris":{"android":"levelo://app?vid=ff304561-c8ce-4ac1-9008-9c7fa7a2d85b","ios":"levelo://app?vid=ff304561-c8ce-4ac1-9008-9c7fa7a2d85b"},"vehicle_type_id":"4","last_reported":1753002626,"current_range_meters":17200,"station_id":"ce4bh692rcd13ifvqea0","pricing_plan_id":"cebpf4jnsgd1na2vs0mg"},{"bike_id":"c1e6057c-ff5a-4477-a9f1-93444a633642","system_id":"levelo_inurba_marseille","lat":43.271696,"lon":5.390499,"is_reserved":false,"is_disabled":false,"rental_uris":{"android":"levelo://app?vid=c1e6057c-ff5a-4477-a9f1-93444a633642","ios":"levelo://app?vid=c1e6057c-ff5a-4477-a9f1-93444a633642"},"vehicle_type_id":"4","last_reported":1753002626,"current_range_meters":17200,"station_id":"","pricing_plan_id":"cebpf4jnsgd1na2vs0mg"},{"bike_id":"cb331a89-56a6-4651-9865-7241cd4ca587","system_id":"levelo_inurba_marseille","lat":43.32473,"lon":5.365986,"is_reserved":false,"is_disabled":false,"rental_uris":{"android":"levelo://app?vid=cb331a89-56a6-4651-9865-7241cd4ca587","ios":"levelo://app?vid=cb331a89-56a6-4651-9865-7241cd4ca587"},"vehicle_type_id":"4","last_reported":1753002626,"current_range_meters":17200,"station_id":"ce4bhs12rcd13ifvqhvg","pricing_plan_id":"cebpf4jnsgd1na2vs0mg"},{"bike_id":"2e1b3234-4ddb-4d40-b38e-313bbb703f4d","system_id":"levelo_inurba_marseille","lat":43.299,"lon":5.43673,"is_reserved":false,"is_disabled":false,"rental_uris":{"android":"levelo://app?vid=2e1b3234-4ddb-4d40-b38e-313bbb703f4d","ios":"levelo://app?vid=2e1b3234-4ddb-4d40-b38e-313bbb703f4d"},"vehicle_type_id":"4","last_reported":1753002626,"current_range_meters":17200,"station_id":"ce4bhpp2rcd13ifvqhfg","pricing_plan_id":"cebpf4jnsgd1na2vs0mg"},{"bike_id":"0f865e27-a5de-4ea4-a204-00f00c2fcde7","system_id":"levelo_inurba_marseille","lat":43.30638,"lon":5.40087,"is_reserved":false,"is_disabled":false,"rental_uris":{"android":"levelo://app?vid=0f865e27-a5de-4ea4-a204-00f00c2fcde7","ios":"levelo://app?vid=0f865e27-a5de-4ea4-a204-00f00c2fcde7"},"vehicle_type_id":"4","last_reported":1753002626,"current_range_meters":17200,"station_id":"ce4bh112rcd13ifvqda0","pricing_plan_id":"cebpf4jnsgd1na2vs0mg"},{"bike_id":"5ccf6fcb-646f-4acf-9fbc-c7f16de7c973","system_id":"levelo_inurba_marseille","lat":43.32659,"lon":5.42349,"is_reserved":false,"is_disabled":false,"rental_uris":{"android":"levelo://app?vid=5ccf6fcb-646f-4acf-9fbc-c7f16de7c973","ios":"levelo://app?vid=5ccf6fcb-646f-4acf-9fbc-c7f16de7c973"},"vehicle_type_id":"4","last_reported":1753002626,"current_range_meters":17200,"station_id":"","pricing_plan_id":"cebpf4jnsgd1na2vs0mg"},{"bike_id":"50f8d88d-d50c-4811-b545-597a88c8b60d","system_id":"levelo_inurba_marseille","lat":43.293013,"lon":5.36959,"is_reserved":false,"is_disabled":false,"rental_uris":{"android":"levelo://app?vid=50f8d88d-d50c-4811-b545-597a88c8b60d","ios":"levelo://app?vid=50f8d88d-d50c-4811-b545-597a88c8b60d"},"vehicle_type_id":"4","last_reported":1753002626,"current_range_meters":17200,"station_id":"","pricing_plan_id":"cebpf4jnsgd1na2vs0mg"},{"bike_id":"c0891025-8c5b-4eaa-a169-f1586fcfd554","system_id":"levelo_inurba_marseille","lat":43.278,"lon":5.40728,"is_reserved":false,"is_disabled":false,"rental_uris":{"android":"levelo://app?vid=c0891025-8c5b-4eaa-a169-f1586fcfd554","ios":"levelo://app?vid=c0891025-8c5b-4eaa-a169-f1586fcfd554"},"vehicle_type_id":"4","last_reported":1753002626,"current_range_meters":17200,"station_id":"ce4bhnh2rcd13ifvqgtg","pricing_plan_id":"cebpf4jnsgd1na2vs0mg"},{"bike_id":"8e49fe63-ad1b-4407-9b4f-77d4434f8cbe","system_id":"levelo_inurba_marseille","lat":43.30159,"lon":5.38082,"is_reserved":false,"is_disabled":false,"rental_uris":{"android":"levelo://app?vid=8e49fe63-ad1b-4407-9b4f-77d4434f8cbe","ios":"levelo://app?vid=8e49fe63-ad1b-4407-9b4f-77d4434f8cbe"},"vehicle_type_id":"4","last_reported":1753002626,"current_range_meters":17200,"station_id":"ce4bgjp2rcd13ifvqbh0","pricing_plan_id":"cebpf4jnsgd1na2vs0mg"},{"bike_id":"4355836e-ae99-4039-b85f-c4e239c9dca5","system_id":"levelo_inurba_marseille","lat":43.2991,"lon":5.43647,"is_reserved":false,"is_disabled":false,"rental_uris":{"android":"levelo://app?vid=4355836e-ae99-4039-b85f-c4e239c9dca5","ios":"levelo://app?vid=4355836e-ae99-4039-b85f-c4e239c9dca5"},"vehicle_type_id":"4","last_reported":1753002626,"current_range_meters":17600,"station_id":"ce4bhpp2rcd13ifvqhfg","pricing_plan_id":"cebpf4jnsgd1na2vs0mg"},{"bike_id":"16d832d8-5275-4ead-a5ea-40d543d8611a","system_id":"levelo_inurba_marseille","lat":43.29733,"lon":5.37714,"is_reserved":false,"is_disabled":false,"rental_uris":{"android":"levelo://app?vid=16d832d8-5275-4ead-a5ea-40d543d8611a","ios":"levelo://app?vid=16d832d8-5275-4ead-a5ea-40d543d8611a"},"vehicle_type_id":"4","last_reported":1753002626,"current_range_meters":17600,"station_id":"ce4bgkh2rcd13ifvqbl0","pricing_plan_id":"cebpf4jnsgd1na2vs0mg"},{"bike_id":"b862303e-1b88-4ff6-923a-6de878d2c4e1","system_id":"levelo_inurba_marseille","lat":43.27076,"lon":5.42293,"is_reserved":false,"is_disabled":false,"rental_uris":{"android":"levelo://app?vid=b862303e-1b88-4ff6-923a-6de878d2c4e1","ios":"levelo://app?vid=b862303e-1b88-4ff6-923a-6de878d2c4e1"},"vehicle_type_id":"4","last_reported":1753002626,"current_range_meters":17600,"station_id":"ce4bhk92rcd13ifvqgb0","pricing_plan_id":"cebpf4jnsgd1na2vs0mg"},{"bike_id":"4c8283f7-9214-4f90-b93f-b371d5ff3abb","system_id":"levelo_inurba_marseille","lat":43.211889,"lon":5.350612,"is_reserved":false,"is_disabled":false,"rental_uris":{"android":"levelo://app?vid=4c8283f7-9214-4f90-b93f-b371d5ff3abb","ios":"levelo://app?vid=4c8283f7-9214-4f90-b93f-b371d5ff3abb"},"vehicle_type_id":"4","last_reported":1753002626,"current_range_meters":17600,"station_id":"st_cvj6sg6p6f1abm77japg","pricing_plan_id":"cebpf4jnsgd1na2vs0mg"},{"bike_id":"f3f581c3-7fd6-46b6-b25c-df950de01306","system_id":"levelo_inurba_marseille","lat":43.287193,"lon":5.399853,"is_reserved":false,"is_disabled":true,"rental_uris":{"android":"levelo://app?vid=f3f581c3-7fd6-46b6-b25c-df950de01306","ios":"levelo://app?vid=f3f581c3-7fd6-46b6-b25c-df950de01306"},"vehicle_type_id":"4","last_reported":1753002626,"current_range_meters":17600,"station_id":"ce4bho92rcd13ifvqh3g","pricing_plan_id":"cebpf4jnsgd1na2vs0mg"},{"bike_id":"6da7ca7d-6633-429b-9803-313dc5de4c11","system_id":"levelo_inurba_marseille","lat":43.22497,"lon":5.34762,"is_reserved":false,"is_disabled":false,"rental_uris":{"android":"levelo://app?vid=6da7ca7d-6633-429b-9803-313dc5de4c11","ios":"levelo://app?vid=6da7ca7d-6633-429b-9803-313dc5de4c11"},"vehicle_type_id":"4","last_reported":1753002626,"current_range_meters":17600,"station_id":"st_cvj5dfep6f1abm77gieg","pricing_plan_id":"cebpf4jnsgd1na2vs0mg"},{"bike_id":"ebd2b1bf-0ea2-4316-b168-5f0a5f017e31","system_id":"levelo_inurba_marseille","lat":43.32354,"lon":5.40615,"is_reserved":false,"is_disabled":false,"rental_uris":{"android":"levelo://app?vid=ebd2b1bf-0ea2-4316-b168-5f0a5f017e31","ios":"levelo://app?vid=ebd2b1bf-0ea2-4316-b168-5f0a5f017e31"},"vehicle_type_id":"4","last_reported":1753002626,"current_range_meters":17600,"station_id":"ce4bhq92rcd13ifvqhjg","pricing_plan_id":"cebpf4jnsgd1na2vs0mg"},{"bike_id":"bdd5ea82-173d-4efc-b209-03a81f2ae840","system_id":"levelo_inurba_marseille","lat":43.24807,"lon":5.37456,"is_reserved":false,"is_disabled":false,"rental_uris":{"android":"levelo://app?vid=bdd5ea82-173d-4efc-b209-03a81f2ae840","ios":"levelo://app?vid=bdd5ea82-173d-4efc-b209-03a81f2ae840"},"vehicle_type_id":"4","last_reported":1753002626,"current_range_meters":17600,"station_id":"ce4bhgh2rcd13ifvqfb0","pricing_plan_id":"cebpf4jnsgd1na2vs0mg"},{"bike_id":"92ef1c6c-cbe6-4c33-8f5c-15685f5b6493","system_id":"levelo_inurba_marseille","lat":43.30651,"lon":5.40042,"is_reserved":false,"is_disabled":false,"rental_uris":{"android":"levelo://app?vid=92ef1c6c-cbe6-4c33-8f5c-15685f5b6493","ios":"levelo://app?vid=92ef1c6c-cbe6-4c33-8f5c-15685f5b6493"},"vehicle_type_id":"4","last_reported":1753002626,"current_range_meters":17600,"station_id":"","pricing_plan_id":"cebpf4jnsgd1na2vs0mg"},{"bike_id":"1eae29a5-206c-4e02-895b-bfbe2ce1e9f1","system_id":"levelo_inurba_marseille","lat":43.28845,"lon":5.35853,"is_reserved":false,"is_disabled":false,"rental_uris":{"android":"levelo://app?vid=1eae29a5-206c-4e02-895b-bfbe2ce1e9f1","ios":"levelo://app?vid=1eae29a5-206c-4e02-895b-bfbe2ce1e9f1"},"vehicle_type_id":"4","last_reported":1753002626,"current_range_meters":17600,"station_id":"ce4bhb12rcd13ifvqem0","pricing_plan_id":"cebpf4jnsgd1na2vs0mg"},{"bike_id":"53cb4f43-b1af-4efe-9f40-e0338804f4d4","system_id":"levelo_inurba_marseille","lat":43.31294,"lon":5.39052,"is_reserved":false,"is_disabled":false,"rental_uris":{"android":"levelo://app?vid=53cb4f43-b1af-4efe-9f40-e0338804f4d4","ios":"levelo://app?vid=53cb4f43-b1af-4efe-9f40-e0338804f4d4"},"vehicle_type_id":"4","last_reported":1753002626,"current_range_meters":17600,"station_id":"","pricing_plan_id":"cebpf4jnsgd1na2vs0mg"},{"bike_id":"6cfcf428-0ede-4c91-a5f6-8e11f1e8ae87","system_id":"levelo_inurba_marseille","lat":43.29897,"lon":5.43668,"is_reserved":false,"is_disabled":false,"rental_uris":{"android":"levelo://app?vid=6cfcf428-0ede-4c91-a5f6-8e11f1e8ae87","ios":"levelo://app?vid=6cfcf428-0ede-4c91-a5f6-8e11f1e8ae87"},"vehicle_type_id":"4","last_reported":1753002626,"current_range_meters":17600,"station_id":"ce4bhpp2rcd13ifvqhfg","pricing_plan_id":"cebpf4jnsgd1na2vs0mg"},{"bike_id":"47c42873-a005-478e-953d-7fdb4918ff42","system_id":"levelo_inurba_marseille","lat":43.279895,"lon":5.416618,"is_reserved":false,"is_disabled":false,"rental_uris":{"android":"levelo://app?vid=47c42873-a005-478e-953d-7fdb4918ff42","ios":"levelo://app?vid=47c42873-a005-478e-953d-7fdb4918ff42"},"vehicle_type_id":"4","last_reported":1753002626,"current_range_meters":17600,"station_id":"ce4bho12rcd13ifvqh1g","pricing_plan_id":"cebpf4jnsgd1na2vs0mg"},{"bike_id":"302bb4c0-dc1d-4f3f-af05-aa9b397ba02e","system_id":"levelo_inurba_marseille","lat":43.241783,"lon":5.397272,"is_reserved":false,"is_disabled":false,"rental_uris":{"android":"levelo://app?vid=302bb4c0-dc1d-4f3f-af05-aa9b397ba02e","ios":"levelo://app?vid=302bb4c0-dc1d-4f3f-af05-aa9b397ba02e"},"vehicle_type_id":"4","last_reported":1753002626,"current_range_meters":17600,"station_id":"ce4bhn12rcd13ifvqgpg","pricing_plan_id":"cebpf4jnsgd1na2vs0mg"},{"bike_id":"e1fc8003-5085-4a7f-a635-4b1964c67b70","system_id":"levelo_inurba_marseille","lat":43.2847,"lon":5.38422,"is_reserved":false,"is_disabled":false,"rental_uris":{"android":"levelo://app?vid=e1fc8003-5085-4a7f-a635-4b1964c67b70","ios":"levelo://app?vid=e1fc8003-5085-4a7f-a635-4b1964c67b70"},"vehicle_type_id":"4","last_reported":1753002626,"current_range_meters":17600,"station_id":"ce4bh512rcd13ifvqe3g","pricing_plan_id":"cebpf4jnsgd1na2vs0mg"},{"bike_id":"42752829-3ee2-4e84-849d-429017304915","system_id":"levelo_inurba_marseille","lat":43.28467,"lon":5.358951,"is_reserved":false,"is_disabled":true,"rental_uris":{"android":"levelo://app?vid=42752829-3ee2-4e84-849d-429017304915","ios":"levelo://app?vid=42752829-3ee2-4e84-849d-429017304915"},"vehicle_type_id":"4","last_reported":1753002626,"current_range_meters":17600,"station_id":"ce4bhah2rcd13ifvqei0","pricing_plan_id":"cebpf4jnsgd1na2vs0mg"},{"bike_id":"3a0ad0b3-730c-4b6f-afc8-d25401cb7d69","system_id":"levelo_inurba_marseille","lat":43.246728,"lon":5.381487,"is_reserved":false,"is_disabled":false,"rental_uris":{"android":"levelo://app?vid=3a0ad0b3-730c-4b6f-afc8-d25401cb7d69","ios":"levelo://app?vid=3a0ad0b3-730c-4b6f-afc8-d25401cb7d69"},"vehicle_type_id":"4","last_reported":1753002626,"current_range_meters":17600,"station_id":"ce4bhih2rcd13ifvqfr0","pricing_plan_id":"cebpf4jnsgd1na2vs0mg"},{"bike_id":"57f20548-4295-4a6c-8b6e-ed57eb793ca5","system_id":"levelo_inurba_marseille","lat":43.30731,"lon":5.42444,"is_reserved":false,"is_disabled":false,"rental_uris":{"android":"levelo://app?vid=57f20548-4295-4a6c-8b6e-ed57eb793ca5","ios":"levelo://app?vid=57f20548-4295-4a6c-8b6e-ed57eb793ca5"},"vehicle_type_id":"4","last_reported":1753002626,"current_range_meters":18000,"station_id":"st_cvj6ca6bvosntc0bfgr0","pricing_plan_id":"cebpf4jnsgd1na2vs0mg"},{"bike_id":"8979afbb-d831-492b-8bd1-2b5d774796f7","system_id":"levelo_inurba_marseille","lat":43.27064,"lon":5.42299,"is_reserved":false,"is_disabled":false,"rental_uris":{"android":"levelo://app?vid=8979afbb-d831-492b-8bd1-2b5d774796f7","ios":"levelo://app?vid=8979afbb-d831-492b-8bd1-2b5d774796f7"},"vehicle_type_id":"4","last_reported":1753002626,"current_range_meters":18000,"station_id":"ce4bhk92rcd13ifvqgb0","pricing_plan_id":"cebpf4jnsgd1na2vs0mg"},{"bike_id":"685f2120-221e-452d-95f5-ad6ef7024cb8","system_id":"levelo_inurba_marseille","lat":43.308021,"lon":5.435156,"is_reserved":false,"is_disabled":false,"rental_uris":{"android":"levelo://app?vid=685f2120-221e-452d-95f5-ad6ef7024cb8","ios":"levelo://app?vid=685f2120-221e-452d-95f5-ad6ef7024cb8"},"vehicle_type_id":"4","last_reported":1753002626,"current_range_meters":18000,"station_id":"ce4bhph2rcd13ifvqheg","pricing_plan_id":"cebpf4jnsgd1na2vs0mg"},{"bike_id":"ae2679a0-b2a2-4165-87f5-73851922f36f","system_id":"levelo_inurba_marseille","lat":43.24976,"lon":5.416446,"is_reserved":false,"is_disabled":false,"rental_uris":{"android":"levelo://app?vid=ae2679a0-b2a2-4165-87f5-73851922f36f","ios":"levelo://app?vid=ae2679a0-b2a2-4165-87f5-73851922f36f"},"vehicle_type_id":"4","last_reported":1753002626,"current_range_meters":18000,"station_id":"","pricing_plan_id":"cebpf4jnsgd1na2vs0mg"},{"bike_id":"e88f0305-2351-4f37-a6a2-061745afce45","system_id":"levelo_inurba_marseille","lat":43.24057,"lon":5.3769,"is_reserved":false,"is_disabled":false,"rental_uris":{"android":"levelo://app?vid=e88f0305-2351-4f37-a6a2-061745afce45","ios":"levelo://app?vid=e88f0305-2351-4f37-a6a2-061745afce45"},"vehicle_type_id":"4","last_reported":1753002626,"current_range_meters":18000,"station_id":"","pricing_plan_id":"cebpf4jnsgd1na2vs0mg"},{"bike_id":"de9a47b5-edea-465f-9387-34f73bc29d46","system_id":"levelo_inurba_marseille","lat":43.22931,"lon":5.354,"is_reserved":false,"is_disabled":false,"rental_uris":{"android":"levelo://app?vid=de9a47b5-edea-465f-9387-34f73bc29d46","ios":"levelo://app?vid=de9a47b5-edea-465f-9387-34f73bc29d46"},"vehicle_type_id":"4","last_reported":1753002626,"current_range_meters":18000,"station_id":"cpo3532slgdg3j2ikp40","pricing_plan_id":"cebpf4jnsgd1na2vs0mg"},{"bike_id":"fade89ac-dfd8-4bc7-84e6-72be9096a358","system_id":"levelo_inurba_marseille","lat":43.272806,"lon":5.385679,"is_reserved":false,"is_disabled":false,"rental_uris":{"android":"levelo://app?vid=fade89ac-dfd8-4bc7-84e6-72be9096a358","ios":"levelo://app?vid=fade89ac-dfd8-4bc7-84e6-72be9096a358"},"vehicle_type_id":"4","last_reported":1753002626,"current_range_meters":17600,"station_id":"ce4bhh92rcd13ifvqfi0","pricing_plan_id":"cebpf4jnsgd1na2vs0mg"},{"bike_id":"d007a63b-662c-4b54-b17f-51fadf0cd81e","system_id":"levelo_inurba_marseille","lat":43.22928,"lon":5.353798,"is_reserved":false,"is_disabled":false,"rental_uris":{"android":"levelo://app?vid=d007a63b-662c-4b54-b17f-51fadf0cd81e","ios":"levelo://app?vid=d007a63b-662c-4b54-b17f-51fadf0cd81e"},"vehicle_type_id":"4","last_reported":1753002626,"current_range_meters":18800,"station_id":"","pricing_plan_id":"cebpf4jnsgd1na2vs0mg"},{"bike_id":"01ef6f38-0cb9-4831-9c9a-0f76f326e484","system_id":"levelo_inurba_marseille","lat":43.28994,"lon":5.35613,"is_reserved":false,"is_disabled":true,"rental_uris":{"android":"levelo://app?vid=01ef6f38-0cb9-4831-9c9a-0f76f326e484","ios":"levelo://app?vid=01ef6f38-0cb9-4831-9c9a-0f76f326e484"},"vehicle_type_id":"4","last_reported":1753002626,"current_range_meters":18800,"station_id":"ce4bhb92rcd13ifvqen0","pricing_plan_id":"cebpf4jnsgd1na2vs0mg"},{"bike_id":"f7275b41-488d-46bf-b07c-fe7da4c8764a","system_id":"levelo_inurba_marseille","lat":43.24378,"lon":5.37046,"is_reserved":false,"is_disabled":false,"rental_uris":{"android":"levelo://app?vid=f7275b41-488d-46bf-b07c-fe7da4c8764a","ios":"levelo://app?vid=f7275b41-488d-46bf-b07c-fe7da4c8764a"},"vehicle_type_id":"4","last_reported":1753002626,"current_range_meters":18800,"station_id":"ce4bhhh2rcd13ifvqfk0","pricing_plan_id":"cebpf4jnsgd1na2vs0mg"},{"bike_id":"3d36c590-bfb3-4f3d-a821-3b0275041fa7","system_id":"levelo_inurba_marseille","lat":43.30416,"lon":5.41314,"is_reserved":false,"is_disabled":false,"rental_uris":{"android":"levelo://app?vid=3d36c590-bfb3-4f3d-a821-3b0275041fa7","ios":"levelo://app?vid=3d36c590-bfb3-4f3d-a821-3b0275041fa7"},"vehicle_type_id":"4","last_reported":1753002626,"current_range_meters":18800,"station_id":"ce4bhop2rcd13ifvqh8g","pricing_plan_id":"cebpf4jnsgd1na2vs0mg"},{"bike_id":"f4060b56-2254-4534-a1d5-8f84c31b85ec","system_id":"levelo_inurba_marseille","lat":43.28623,"lon":5.3822,"is_reserved":false,"is_disabled":false,"rental_uris":{"android":"levelo://app?vid=f4060b56-2254-4534-a1d5-8f84c31b85ec","ios":"levelo://app?vid=f4060b56-2254-4534-a1d5-8f84c31b85ec"},"vehicle_type_id":"4","last_reported":1753002626,"current_range_meters":18800,"station_id":"","pricing_plan_id":"cebpf4jnsgd1na2vs0mg"},{"bike_id":"054459cc-5be1-4b82-9260-a4f74104380f","system_id":"levelo_inurba_marseille","lat":43.29552,"lon":5.42298,"is_reserved":false,"is_disabled":false,"rental_uris":{"android":"levelo://app?vid=054459cc-5be1-4b82-9260-a4f74104380f","ios":"levelo://app?vid=054459cc-5be1-4b82-9260-a4f74104380f"},"vehicle_type_id":"4","last_reported":1753002626,"current_range_meters":18800,"station_id":"ce4bhph2rcd13ifvqhdg","pricing_plan_id":"cebpf4jnsgd1na2vs0mg"},{"bike_id":"1ae79cce-cbb3-4a40-8334-553d5c1b7165","system_id":"levelo_inurba_marseille","lat":43.28265,"lon":5.35061,"is_reserved":false,"is_disabled":false,"rental_uris":{"android":"levelo://app?vid=1ae79cce-cbb3-4a40-8334-553d5c1b7165","ios":"levelo://app?vid=1ae79cce-cbb3-4a40-8334-553d5c1b7165"},"vehicle_type_id":"4","last_reported":1753002626,"current_range_meters":18800,"station_id":"ce4bhbp2rcd13ifvqerg","pricing_plan_id":"cebpf4jnsgd1na2vs0mg"},{"bike_id":"c6f13c59-2793-4a1e-87aa-6f0d71252623","system_id":"levelo_inurba_marseille","lat":43.299,"lon":5.43657,"is_reserved":false,"is_disabled":false,"rental_uris":{"android":"levelo://app?vid=c6f13c59-2793-4a1e-87aa-6f0d71252623","ios":"levelo://app?vid=c6f13c59-2793-4a1e-87aa-6f0d71252623"},"vehicle_type_id":"4","last_reported":1753002626,"current_range_meters":19200,"station_id":"ce4bhpp2rcd13ifvqhfg","pricing_plan_id":"cebpf4jnsgd1na2vs0mg"},{"bike_id":"0281a9fa-a6a3-4d96-bbdb-496f4ad0d92c","system_id":"levelo_inurba_marseille","lat":43.23201,"lon":5.39983,"is_reserved":false,"is_disabled":false,"rental_uris":{"android":"levelo://app?vid=0281a9fa-a6a3-4d96-bbdb-496f4ad0d92c","ios":"levelo://app?vid=0281a9fa-a6a3-4d96-bbdb-496f4ad0d92c"},"vehicle_type_id":"4","last_reported":1753002626,"current_range_meters":19200,"station_id":"ce4bhn12rcd13ifvqgqg","pricing_plan_id":"cebpf4jnsgd1na2vs0mg"},{"bike_id":"d100812f-9e77-4b3a-a11b-18211b570584","system_id":"levelo_inurba_marseille","lat":43.324899,"lon":5.365647,"is_reserved":false,"is_disabled":false,"rental_uris":{"android":"levelo://app?vid=d100812f-9e77-4b3a-a11b-18211b570584","ios":"levelo://app?vid=d100812f-9e77-4b3a-a11b-18211b570584"},"vehicle_type_id":"4","last_reported":1753002626,"current_range_meters":19200,"station_id":"ce4bhs12rcd13ifvqhvg","pricing_plan_id":"cebpf4jnsgd1na2vs0mg"},{"bike_id":"3345bdb3-30c6-4479-942f-acbe3ea08c5c","system_id":"levelo_inurba_marseille","lat":43.2951,"lon":5.3905,"is_reserved":false,"is_disabled":false,"rental_uris":{"android":"levelo://app?vid=3345bdb3-30c6-4479-942f-acbe3ea08c5c","ios":"levelo://app?vid=3345bdb3-30c6-4479-942f-acbe3ea08c5c"},"vehicle_type_id":"4","last_reported":1753002626,"current_range_meters":18800,"station_id":"ce4bh3p2rcd13ifvqdp0","pricing_plan_id":"cebpf4jnsgd1na2vs0mg"},{"bike_id":"22291762-a456-4893-9651-61a760232c34","system_id":"levelo_inurba_marseille","lat":43.229361,"lon":5.353821,"is_reserved":false,"is_disabled":false,"rental_uris":{"android":"levelo://app?vid=22291762-a456-4893-9651-61a760232c34","ios":"levelo://app?vid=22291762-a456-4893-9651-61a760232c34"},"vehicle_type_id":"4","last_reported":1753002626,"current_range_meters":19200,"station_id":"cpo3532slgdg3j2ikp40","pricing_plan_id":"cebpf4jnsgd1na2vs0mg"},{"bike_id":"aacc1604-b351-47a4-8a14-228f69963db9","system_id":"levelo_inurba_marseille","lat":43.24674,"lon":5.3816,"is_reserved":false,"is_disabled":false,"rental_uris":{"android":"levelo://app?vid=aacc1604-b351-47a4-8a14-228f69963db9","ios":"levelo://app?vid=aacc1604-b351-47a4-8a14-228f69963db9"},"vehicle_type_id":"4","last_reported":1753002626,"current_range_meters":19200,"station_id":"ce4bhih2rcd13ifvqfr0","pricing_plan_id":"cebpf4jnsgd1na2vs0mg"},{"bike_id":"c47c4612-aa9a-40e0-9a78-5da247b20688","system_id":"levelo_inurba_marseille","lat":43.22509,"lon":5.34806,"is_reserved":false,"is_disabled":false,"rental_uris":{"android":"levelo://app?vid=c47c4612-aa9a-40e0-9a78-5da247b20688","ios":"levelo://app?vid=c47c4612-aa9a-40e0-9a78-5da247b20688"},"vehicle_type_id":"4","last_reported":1753002626,"current_range_meters":19200,"station_id":"st_cvj5dfep6f1abm77gieg","pricing_plan_id":"cebpf4jnsgd1na2vs0mg"},{"bike_id":"9bf2cdee-0ef5-45f5-8410-0b32c5469213","system_id":"levelo_inurba_marseille","lat":43.23187,"lon":5.39982,"is_reserved":false,"is_disabled":false,"rental_uris":{"android":"levelo://app?vid=9bf2cdee-0ef5-45f5-8410-0b32c5469213","ios":"levelo://app?vid=9bf2cdee-0ef5-45f5-8410-0b32c5469213"},"vehicle_type_id":"4","last_reported":1753002626,"current_range_meters":19200,"station_id":"ce4bhn12rcd13ifvqgqg","pricing_plan_id":"cebpf4jnsgd1na2vs0mg"},{"bike_id":"8ec28e78-3b13-48db-ae3d-be79d08f46d7","system_id":"levelo_inurba_marseille","lat":43.30663,"lon":5.40062,"is_reserved":false,"is_disabled":false,"rental_uris":{"android":"levelo://app?vid=8ec28e78-3b13-48db-ae3d-be79d08f46d7","ios":"levelo://app?vid=8ec28e78-3b13-48db-ae3d-be79d08f46d7"},"vehicle_type_id":"4","last_reported":1753002626,"current_range_meters":19600,"station_id":"ce4bh112rcd13ifvqda0","pricing_plan_id":"cebpf4jnsgd1na2vs0mg"},{"bike_id":"48695cfc-3392-4348-bcf7-3d072a2f0d82","system_id":"levelo_inurba_marseille","lat":43.308896,"lon":5.396278,"is_reserved":false,"is_disabled":false,"rental_uris":{"android":"levelo://app?vid=48695cfc-3392-4348-bcf7-3d072a2f0d82","ios":"levelo://app?vid=48695cfc-3392-4348-bcf7-3d072a2f0d82"},"vehicle_type_id":"4","last_reported":1753002626,"current_range_meters":19600,"station_id":"ce4bh012rcd13ifvqcv0","pricing_plan_id":"cebpf4jnsgd1na2vs0mg"},{"bike_id":"161aeac3-4d5a-4661-9bae-ad1814bc1661","system_id":"levelo_inurba_marseille","lat":43.225095,"lon":5.34775,"is_reserved":false,"is_disabled":false,"rental_uris":{"android":"levelo://app?vid=161aeac3-4d5a-4661-9bae-ad1814bc1661","ios":"levelo://app?vid=161aeac3-4d5a-4661-9bae-ad1814bc1661"},"vehicle_type_id":"4","last_reported":1753002626,"current_range_meters":19600,"station_id":"","pricing_plan_id":"cebpf4jnsgd1na2vs0mg"},{"bike_id":"9d8b9333-3053-4064-aa79-a8a019094711","system_id":"levelo_inurba_marseille","lat":43.23192,"lon":5.35555,"is_reserved":false,"is_disabled":false,"rental_uris":{"android":"levelo://app?vid=9d8b9333-3053-4064-aa79-a8a019094711","ios":"levelo://app?vid=9d8b9333-3053-4064-aa79-a8a019094711"},"vehicle_type_id":"4","last_reported":1753002626,"current_range_meters":19600,"station_id":"ce4bhu92rcd13ifvqi70","pricing_plan_id":"cebpf4jnsgd1na2vs0mg"},{"bike_id":"141c2bb5-ccf5-4459-ae02-ca4718282772","system_id":"levelo_inurba_marseille","lat":43.308033,"lon":5.435248,"is_reserved":false,"is_disabled":false,"rental_uris":{"android":"levelo://app?vid=141c2bb5-ccf5-4459-ae02-ca4718282772","ios":"levelo://app?vid=141c2bb5-ccf5-4459-ae02-ca4718282772"},"vehicle_type_id":"4","last_reported":1753002626,"current_range_meters":19600,"station_id":"ce4bhph2rcd13ifvqheg","pricing_plan_id":"cebpf4jnsgd1na2vs0mg"},{"bike_id":"39acaf0a-4d8a-42c7-8645-09614988b54d","system_id":"levelo_inurba_marseille","lat":43.21185,"lon":5.35078,"is_reserved":false,"is_disabled":false,"rental_uris":{"android":"levelo://app?vid=39acaf0a-4d8a-42c7-8645-09614988b54d","ios":"levelo://app?vid=39acaf0a-4d8a-42c7-8645-09614988b54d"},"vehicle_type_id":"4","last_reported":1753002626,"current_range_meters":20000,"station_id":"st_cvj6sg6p6f1abm77japg","pricing_plan_id":"cebpf4jnsgd1na2vs0mg"},{"bike_id":"6b3773c0-72c1-4ec1-bba7-196ae937a022","system_id":"levelo_inurba_marseille","lat":43.24041,"lon":5.37744,"is_reserved":false,"is_disabled":false,"rental_uris":{"android":"levelo://app?vid=6b3773c0-72c1-4ec1-bba7-196ae937a022","ios":"levelo://app?vid=6b3773c0-72c1-4ec1-bba7-196ae937a022"},"vehicle_type_id":"4","last_reported":1753002626,"current_range_meters":20000,"station_id":"ce4bhnp2rcd13ifvqgvg","pricing_plan_id":"cebpf4jnsgd1na2vs0mg"},{"bike_id":"5c7cfd38-807b-4bef-9c5d-c2f0c95ce8df","system_id":"levelo_inurba_marseille","lat":43.22506,"lon":5.34778,"is_reserved":false,"is_disabled":false,"rental_uris":{"android":"levelo://app?vid=5c7cfd38-807b-4bef-9c5d-c2f0c95ce8df","ios":"levelo://app?vid=5c7cfd38-807b-4bef-9c5d-c2f0c95ce8df"},"vehicle_type_id":"4","last_reported":1753002626,"current_range_meters":20000,"station_id":"st_cvj5dfep6f1abm77gieg","pricing_plan_id":"cebpf4jnsgd1na2vs0mg"},{"bike_id":"0c1abe6b-d980-405f-a710-1dae35510659","system_id":"levelo_inurba_marseille","lat":43.24746,"lon":5.41169,"is_reserved":false,"is_disabled":false,"rental_uris":{"android":"levelo://app?vid=0c1abe6b-d980-405f-a710-1dae35510659","ios":"levelo://app?vid=0c1abe6b-d980-405f-a710-1dae35510659"},"vehicle_type_id":"4","last_reported":1753002626,"current_range_meters":20000,"station_id":"","pricing_plan_id":"cebpf4jnsgd1na2vs0mg"},{"bike_id":"18f652e6-e011-49c0-bdd1-920a11960f9e","system_id":"levelo_inurba_marseille","lat":43.24085,"lon":5.37756,"is_reserved":false,"is_disabled":false,"rental_uris":{"android":"levelo://app?vid=18f652e6-e011-49c0-bdd1-920a11960f9e","ios":"levelo://app?vid=18f652e6-e011-49c0-bdd1-920a11960f9e"},"vehicle_type_id":"4","last_reported":1753002626,"current_range_meters":20000,"station_id":"ce4bhnp2rcd13ifvqgvg","pricing_plan_id":"cebpf4jnsgd1na2vs0mg"},{"bike_id":"09aa2053-b3ad-40d1-beee-5e97dc687ea0","system_id":"levelo_inurba_marseille","lat":43.289297,"lon":5.366344,"is_reserved":false,"is_disabled":false,"rental_uris":{"android":"levelo://app?vid=09aa2053-b3ad-40d1-beee-5e97dc687ea0","ios":"levelo://app?vid=09aa2053-b3ad-40d1-beee-5e97dc687ea0"},"vehicle_type_id":"4","last_reported":1753002626,"current_range_meters":20000,"station_id":"ce4bhap2rcd13ifvqek0","pricing_plan_id":"cebpf4jnsgd1na2vs0mg"},{"bike_id":"979e4989-96ec-4499-8946-57f9549c0932","system_id":"levelo_inurba_marseille","lat":43.27958,"lon":5.38698,"is_reserved":false,"is_disabled":false,"rental_uris":{"android":"levelo://app?vid=979e4989-96ec-4499-8946-57f9549c0932","ios":"levelo://app?vid=979e4989-96ec-4499-8946-57f9549c0932"},"vehicle_type_id":"4","last_reported":1753002626,"current_range_meters":20000,"station_id":"ce4bhg12rcd13ifvqf80","pricing_plan_id":"cebpf4jnsgd1na2vs0mg"},{"bike_id":"cf00868c-691d-4ef2-90d6-7c211f7372ff","system_id":"levelo_inurba_marseille","lat":43.31677,"lon":5.40483,"is_reserved":false,"is_disabled":false,"rental_uris":{"android":"levelo://app?vid=cf00868c-691d-4ef2-90d6-7c211f7372ff","ios":"levelo://app?vid=cf00868c-691d-4ef2-90d6-7c211f7372ff"},"vehicle_type_id":"4","last_reported":1753002626,"current_range_meters":20000,"station_id":"ce4bh012rcd13ifvqd00","pricing_plan_id":"cebpf4jnsgd1na2vs0mg"},{"bike_id":"585b5223-09fc-4d8e-9ebe-8ef539f3f7f6","system_id":"levelo_inurba_marseille","lat":43.24068,"lon":5.37766,"is_reserved":false,"is_disabled":false,"rental_uris":{"android":"levelo://app?vid=585b5223-09fc-4d8e-9ebe-8ef539f3f7f6","ios":"levelo://app?vid=585b5223-09fc-4d8e-9ebe-8ef539f3f7f6"},"vehicle_type_id":"4","last_reported":1753002626,"current_range_meters":20000,"station_id":"ce4bhnp2rcd13ifvqgvg","pricing_plan_id":"cebpf4jnsgd1na2vs0mg"},{"bike_id":"9730fae3-5668-4fa8-aa98-3189373117fb","system_id":"levelo_inurba_marseille","lat":43.22932,"lon":5.35377,"is_reserved":false,"is_disabled":false,"rental_uris":{"android":"levelo://app?vid=9730fae3-5668-4fa8-aa98-3189373117fb","ios":"levelo://app?vid=9730fae3-5668-4fa8-aa98-3189373117fb"},"vehicle_type_id":"4","last_reported":1753002626,"current_range_meters":20000,"station_id":"cpo3532slgdg3j2ikp40","pricing_plan_id":"cebpf4jnsgd1na2vs0mg"},{"bike_id":"78bcd778-8088-4038-a043-6c07672a1f85","system_id":"levelo_inurba_marseille","lat":43.24167,"lon":5.39717,"is_reserved":false,"is_disabled":false,"rental_uris":{"android":"levelo://app?vid=78bcd778-8088-4038-a043-6c07672a1f85","ios":"levelo://app?vid=78bcd778-8088-4038-a043-6c07672a1f85"},"vehicle_type_id":"4","last_reported":1753002626,"current_range_meters":20000,"station_id":"ce4bhn12rcd13ifvqgpg","pricing_plan_id":"cebpf4jnsgd1na2vs0mg"},{"bike_id":"ac49738a-4d4f-43d3-9c67-46980e61ae95","system_id":"levelo_inurba_marseille","lat":43.31702,"lon":5.37659,"is_reserved":false,"is_disabled":false,"rental_uris":{"android":"levelo://app?vid=ac49738a-4d4f-43d3-9c67-46980e61ae95","ios":"levelo://app?vid=ac49738a-4d4f-43d3-9c67-46980e61ae95"},"vehicle_type_id":"4","last_reported":1753002626,"current_range_meters":20000,"station_id":"","pricing_plan_id":"cebpf4jnsgd1na2vs0mg"},{"bike_id":"3b033fc4-210f-4d44-b732-51686e0c28a7","system_id":"levelo_inurba_marseille","lat":43.22926,"lon":5.35391,"is_reserved":false,"is_disabled":false,"rental_uris":{"android":"levelo://app?vid=3b033fc4-210f-4d44-b732-51686e0c28a7","ios":"levelo://app?vid=3b033fc4-210f-4d44-b732-51686e0c28a7"},"vehicle_type_id":"4","last_reported":1753002626,"current_range_meters":20000,"station_id":"cpo3532slgdg3j2ikp40","pricing_plan_id":"cebpf4jnsgd1na2vs0mg"},{"bike_id":"b649b339-1977-42cc-86a8-4235021ba156","system_id":"levelo_inurba_marseille","lat":43.211928,"lon":5.350697,"is_reserved":false,"is_disabled":false,"rental_uris":{"android":"levelo://app?vid=b649b339-1977-42cc-86a8-4235021ba156","ios":"levelo://app?vid=b649b339-1977-42cc-86a8-4235021ba156"},"vehicle_type_id":"4","last_reported":1753002626,"current_range_meters":20400,"station_id":"st_cvj6sg6p6f1abm77japg","pricing_plan_id":"cebpf4jnsgd1na2vs0mg"},{"bike_id":"19f55195-b08d-4358-8608-32549591a3e7","system_id":"levelo_inurba_marseille","lat":43.31687,"lon":5.4047,"is_reserved":false,"is_disabled":false,"rental_uris":{"android":"levelo://app?vid=19f55195-b08d-4358-8608-32549591a3e7","ios":"levelo://app?vid=19f55195-b08d-4358-8608-32549591a3e7"},"vehicle_type_id":"4","last_reported":1753002626,"current_range_meters":20400,"station_id":"ce4bh012rcd13ifvqd00","pricing_plan_id":"cebpf4jnsgd1na2vs0mg"},{"bike_id":"19665075-1169-45a7-af41-9f1c346d2c17","system_id":"levelo_inurba_marseille","lat":43.23961,"lon":5.36623,"is_reserved":false,"is_disabled":true,"rental_uris":{"android":"levelo://app?vid=19665075-1169-45a7-af41-9f1c346d2c17","ios":"levelo://app?vid=19665075-1169-45a7-af41-9f1c346d2c17"},"vehicle_type_id":"4","last_reported":1753002626,"current_range_meters":20400,"station_id":"ce4bhi12rcd13ifvqfp0","pricing_plan_id":"cebpf4jnsgd1na2vs0mg"},{"bike_id":"31c0d39e-aec8-410f-824d-3c0c877abe3b","system_id":"levelo_inurba_marseille","lat":43.292741,"lon":5.368459,"is_reserved":false,"is_disabled":false,"rental_uris":{"android":"levelo://app?vid=31c0d39e-aec8-410f-824d-3c0c877abe3b","ios":"levelo://app?vid=31c0d39e-aec8-410f-824d-3c0c877abe3b"},"vehicle_type_id":"4","last_reported":1753002626,"current_range_meters":20400,"station_id":"ce4bhbp2rcd13ifvqesg","pricing_plan_id":"cebpf4jnsgd1na2vs0mg"},{"bike_id":"d3a70e02-a2a5-45b6-9074-570f4f8cbfe7","system_id":"levelo_inurba_marseille","lat":43.28273,"lon":5.35077,"is_reserved":false,"is_disabled":false,"rental_uris":{"android":"levelo://app?vid=d3a70e02-a2a5-45b6-9074-570f4f8cbfe7","ios":"levelo://app?vid=d3a70e02-a2a5-45b6-9074-570f4f8cbfe7"},"vehicle_type_id":"4","last_reported":1753002626,"current_range_meters":20400,"station_id":"ce4bhbp2rcd13ifvqerg","pricing_plan_id":"cebpf4jnsgd1na2vs0mg"},{"bike_id":"3939c54d-98e8-4bfc-a281-6c6fdb771f30","system_id":"levelo_inurba_marseille","lat":43.24169,"lon":5.36394,"is_reserved":false,"is_disabled":false,"rental_uris":{"android":"levelo://app?vid=3939c54d-98e8-4bfc-a281-6c6fdb771f30","ios":"levelo://app?vid=3939c54d-98e8-4bfc-a281-6c6fdb771f30"},"vehicle_type_id":"4","last_reported":1753002626,"current_range_meters":20400,"station_id":"cpo36qri1sfpv3e86is0","pricing_plan_id":"cebpf4jnsgd1na2vs0mg"},{"bike_id":"e973e17e-6f49-4719-85f4-d681a7df9ff8","system_id":"levelo_inurba_marseille","lat":43.21751,"lon":5.34599,"is_reserved":false,"is_disabled":false,"rental_uris":{"android":"levelo://app?vid=e973e17e-6f49-4719-85f4-d681a7df9ff8","ios":"levelo://app?vid=e973e17e-6f49-4719-85f4-d681a7df9ff8"},"vehicle_type_id":"4","last_reported":1753002626,"current_range_meters":20400,"station_id":"st_cvj6r9ubvosntc0bgbag","pricing_plan_id":"cebpf4jnsgd1na2vs0mg"},{"bike_id":"2b47b056-c5ec-47ea-84d4-c5e4a02de71f","system_id":"levelo_inurba_marseille","lat":43.29464,"lon":5.42735,"is_reserved":false,"is_disabled":false,"rental_uris":{"android":"levelo://app?vid=2b47b056-c5ec-47ea-84d4-c5e4a02de71f","ios":"levelo://app?vid=2b47b056-c5ec-47ea-84d4-c5e4a02de71f"},"vehicle_type_id":"4","last_reported":1753002626,"current_range_meters":20400,"station_id":"","pricing_plan_id":"cebpf4jnsgd1na2vs0mg"},{"bike_id":"6a752830-1e67-4ee8-b0ef-010d91cf5355","system_id":"levelo_inurba_marseille","lat":43.241674,"lon":5.363891,"is_reserved":false,"is_disabled":false,"rental_uris":{"android":"levelo://app?vid=6a752830-1e67-4ee8-b0ef-010d91cf5355","ios":"levelo://app?vid=6a752830-1e67-4ee8-b0ef-010d91cf5355"},"vehicle_type_id":"4","last_reported":1753002626,"current_range_meters":20800,"station_id":"cpo36qri1sfpv3e86is0","pricing_plan_id":"cebpf4jnsgd1na2vs0mg"},{"bike_id":"d564b2f1-526a-4866-b302-4d3f6d762c99","system_id":"levelo_inurba_marseille","lat":43.301525,"lon":5.380769,"is_reserved":false,"is_disabled":false,"rental_uris":{"android":"levelo://app?vid=d564b2f1-526a-4866-b302-4d3f6d762c99","ios":"levelo://app?vid=d564b2f1-526a-4866-b302-4d3f6d762c99"},"vehicle_type_id":"4","last_reported":1753002626,"current_range_meters":20800,"station_id":"ce4bgjp2rcd13ifvqbh0","pricing_plan_id":"cebpf4jnsgd1na2vs0mg"},{"bike_id":"2202d4e1-43b2-495b-89e8-e4d9f8d5cf6b","system_id":"levelo_inurba_marseille","lat":43.211931,"lon":5.350696,"is_reserved":false,"is_disabled":false,"rental_uris":{"android":"levelo://app?vid=2202d4e1-43b2-495b-89e8-e4d9f8d5cf6b","ios":"levelo://app?vid=2202d4e1-43b2-495b-89e8-e4d9f8d5cf6b"},"vehicle_type_id":"4","last_reported":1753002626,"current_range_meters":20800,"station_id":"st_cvj6sg6p6f1abm77japg","pricing_plan_id":"cebpf4jnsgd1na2vs0mg"},{"bike_id":"f0dc9944-d864-4c73-8061-3ec1785125bb","system_id":"levelo_inurba_marseille","lat":43.323446,"lon":5.406105,"is_reserved":false,"is_disabled":false,"rental_uris":{"android":"levelo://app?vid=f0dc9944-d864-4c73-8061-3ec1785125bb","ios":"levelo://app?vid=f0dc9944-d864-4c73-8061-3ec1785125bb"},"vehicle_type_id":"4","last_reported":1753002626,"current_range_meters":20800,"station_id":"ce4bhq92rcd13ifvqhjg","pricing_plan_id":"cebpf4jnsgd1na2vs0mg"},{"bike_id":"a95607eb-463b-4cda-a224-f545762ec41b","system_id":"levelo_inurba_marseille","lat":43.29427,"lon":5.38589,"is_reserved":false,"is_disabled":true,"rental_uris":{"android":"levelo://app?vid=a95607eb-463b-4cda-a224-f545762ec41b","ios":"levelo://app?vid=a95607eb-463b-4cda-a224-f545762ec41b"},"vehicle_type_id":"4","last_reported":1753002626,"current_range_meters":20800,"station_id":"ce4bh2h2rcd13ifvqdh0","pricing_plan_id":"cebpf4jnsgd1na2vs0mg"},{"bike_id":"3bafcbf1-23ae-4876-976a-bbb29b3b6394","system_id":"levelo_inurba_marseille","lat":43.2893,"lon":5.36398,"is_reserved":false,"is_disabled":false,"rental_uris":{"android":"levelo://app?vid=3bafcbf1-23ae-4876-976a-bbb29b3b6394","ios":"levelo://app?vid=3bafcbf1-23ae-4876-976a-bbb29b3b6394"},"vehicle_type_id":"4","last_reported":1753002626,"current_range_meters":20800,"station_id":"ce4bhc92rcd13ifvqetg","pricing_plan_id":"cebpf4jnsgd1na2vs0mg"},{"bike_id":"8423e589-47bf-47a8-b90f-452fc938c46b","system_id":"levelo_inurba_marseille","lat":43.323511,"lon":5.367788,"is_reserved":false,"is_disabled":false,"rental_uris":{"android":"levelo://app?vid=8423e589-47bf-47a8-b90f-452fc938c46b","ios":"levelo://app?vid=8423e589-47bf-47a8-b90f-452fc938c46b"},"vehicle_type_id":"4","last_reported":1753002626,"current_range_meters":20800,"station_id":"ce4bhsh2rcd13ifvqi2g","pricing_plan_id":"cebpf4jnsgd1na2vs0mg"},{"bike_id":"95e829fc-d242-4a7a-b921-12c822482bea","system_id":"levelo_inurba_marseille","lat":43.29864,"lon":5.36301,"is_reserved":false,"is_disabled":false,"rental_uris":{"android":"levelo://app?vid=95e829fc-d242-4a7a-b921-12c822482bea","ios":"levelo://app?vid=95e829fc-d242-4a7a-b921-12c822482bea"},"vehicle_type_id":"4","last_reported":1753002626,"current_range_meters":20800,"station_id":"ce4bgpp2rcd13ifvqc3g","pricing_plan_id":"cebpf4jnsgd1na2vs0mg"},{"bike_id":"0b343eb9-ec02-4d4a-bf49-d5448805f008","system_id":"levelo_inurba_marseille","lat":43.25128,"lon":5.40326,"is_reserved":false,"is_disabled":false,"rental_uris":{"android":"levelo://app?vid=0b343eb9-ec02-4d4a-bf49-d5448805f008","ios":"levelo://app?vid=0b343eb9-ec02-4d4a-bf49-d5448805f008"},"vehicle_type_id":"4","last_reported":1753002626,"current_range_meters":20800,"station_id":"ce4bhlh2rcd13ifvqgig","pricing_plan_id":"cebpf4jnsgd1na2vs0mg"},{"bike_id":"e8a2a514-9ed2-4624-a106-b200e7289bec","system_id":"levelo_inurba_marseille","lat":43.246657,"lon":5.38159,"is_reserved":false,"is_disabled":false,"rental_uris":{"android":"levelo://app?vid=e8a2a514-9ed2-4624-a106-b200e7289bec","ios":"levelo://app?vid=e8a2a514-9ed2-4624-a106-b200e7289bec"},"vehicle_type_id":"4","last_reported":1753002626,"current_range_meters":20800,"station_id":"ce4bhih2rcd13ifvqfr0","pricing_plan_id":"cebpf4jnsgd1na2vs0mg"},{"bike_id":"d778a561-0abe-4676-9dca-d85a214615cb","system_id":"levelo_inurba_marseille","lat":43.337743,"lon":5.374289,"is_reserved":false,"is_disabled":false,"rental_uris":{"android":"levelo://app?vid=d778a561-0abe-4676-9dca-d85a214615cb","ios":"levelo://app?vid=d778a561-0abe-4676-9dca-d85a214615cb"},"vehicle_type_id":"4","last_reported":1753002626,"current_range_meters":21600,"station_id":"","pricing_plan_id":"cebpf4jnsgd1na2vs0mg"},{"bike_id":"65fea5e7-5e56-439a-abfb-83e2780325d0","system_id":"levelo_inurba_marseille","lat":43.29772,"lon":5.37118,"is_reserved":false,"is_disabled":false,"rental_uris":{"android":"levelo://app?vid=65fea5e7-5e56-439a-abfb-83e2780325d0","ios":"levelo://app?vid=65fea5e7-5e56-439a-abfb-83e2780325d0"},"vehicle_type_id":"4","last_reported":1753002626,"current_range_meters":21600,"station_id":"ce4bgop2rcd13ifvqc1g","pricing_plan_id":"cebpf4jnsgd1na2vs0mg"},{"bike_id":"f0007184-68c4-4217-adde-3ac88365d532","system_id":"levelo_inurba_marseille","lat":43.22932,"lon":5.35387,"is_reserved":false,"is_disabled":false,"rental_uris":{"android":"levelo://app?vid=f0007184-68c4-4217-adde-3ac88365d532","ios":"levelo://app?vid=f0007184-68c4-4217-adde-3ac88365d532"},"vehicle_type_id":"4","last_reported":1753002626,"current_range_meters":21600,"station_id":"cpo3532slgdg3j2ikp40","pricing_plan_id":"cebpf4jnsgd1na2vs0mg"},{"bike_id":"42c6daca-a04f-4385-b335-d79919ebfbf3","system_id":"levelo_inurba_marseille","lat":43.324812,"lon":5.365932,"is_reserved":false,"is_disabled":false,"rental_uris":{"android":"levelo://app?vid=42c6daca-a04f-4385-b335-d79919ebfbf3","ios":"levelo://app?vid=42c6daca-a04f-4385-b335-d79919ebfbf3"},"vehicle_type_id":"4","last_reported":1753002626,"current_range_meters":21600,"station_id":"ce4bhs12rcd13ifvqhvg","pricing_plan_id":"cebpf4jnsgd1na2vs0mg"},{"bike_id":"6d158a66-1b01-4783-967a-569089462695","system_id":"levelo_inurba_marseille","lat":43.31684,"lon":5.37816,"is_reserved":false,"is_disabled":false,"rental_uris":{"android":"levelo://app?vid=6d158a66-1b01-4783-967a-569089462695","ios":"levelo://app?vid=6d158a66-1b01-4783-967a-569089462695"},"vehicle_type_id":"4","last_reported":1753002626,"current_range_meters":21600,"station_id":"","pricing_plan_id":"cebpf4jnsgd1na2vs0mg"},{"bike_id":"2ebf2786-6d99-4d95-b070-8ef1d493a2e7","system_id":"levelo_inurba_marseille","lat":43.240679,"lon":5.377601,"is_reserved":false,"is_disabled":false,"rental_uris":{"android":"levelo://app?vid=2ebf2786-6d99-4d95-b070-8ef1d493a2e7","ios":"levelo://app?vid=2ebf2786-6d99-4d95-b070-8ef1d493a2e7"},"vehicle_type_id":"4","last_reported":1753002626,"current_range_meters":21600,"station_id":"ce4bhnp2rcd13ifvqgvg","pricing_plan_id":"cebpf4jnsgd1na2vs0mg"},{"bike_id":"9b3aacf5-1c8a-44ba-830c-34d695c8f727","system_id":"levelo_inurba_marseille","lat":43.26208,"lon":5.37502,"is_reserved":false,"is_disabled":true,"rental_uris":{"android":"levelo://app?vid=9b3aacf5-1c8a-44ba-830c-34d695c8f727","ios":"levelo://app?vid=9b3aacf5-1c8a-44ba-830c-34d695c8f727"},"vehicle_type_id":"4","last_reported":1753002626,"current_range_meters":22400,"station_id":"","pricing_plan_id":"cebpf4jnsgd1na2vs0mg"},{"bike_id":"70867b6d-372a-4cb2-8157-51e11a88a61f","system_id":"levelo_inurba_marseille","lat":43.29001,"lon":5.356,"is_reserved":false,"is_disabled":false,"rental_uris":{"android":"levelo://app?vid=70867b6d-372a-4cb2-8157-51e11a88a61f","ios":"levelo://app?vid=70867b6d-372a-4cb2-8157-51e11a88a61f"},"vehicle_type_id":"4","last_reported":1753002626,"current_range_meters":22000,"station_id":"ce4bhb92rcd13ifvqen0","pricing_plan_id":"cebpf4jnsgd1na2vs0mg"},{"bike_id":"8ce99795-91d5-4154-b8b8-3c64edca3528","system_id":"levelo_inurba_marseille","lat":43.21742,"lon":5.34604,"is_reserved":false,"is_disabled":false,"rental_uris":{"android":"levelo://app?vid=8ce99795-91d5-4154-b8b8-3c64edca3528","ios":"levelo://app?vid=8ce99795-91d5-4154-b8b8-3c64edca3528"},"vehicle_type_id":"4","last_reported":1753002626,"current_range_meters":22000,"station_id":"st_cvj6r9ubvosntc0bgbag","pricing_plan_id":"cebpf4jnsgd1na2vs0mg"},{"bike_id":"a1847f2c-f9f6-4732-b985-3765fda99b76","system_id":"levelo_inurba_marseille","lat":43.2956,"lon":5.42272,"is_reserved":false,"is_disabled":false,"rental_uris":{"android":"levelo://app?vid=a1847f2c-f9f6-4732-b985-3765fda99b76","ios":"levelo://app?vid=a1847f2c-f9f6-4732-b985-3765fda99b76"},"vehicle_type_id":"4","last_reported":1753002626,"current_range_meters":22000,"station_id":"ce4bhph2rcd13ifvqhdg","pricing_plan_id":"cebpf4jnsgd1na2vs0mg"},{"bike_id":"edfcf1a0-94b6-44c9-9fa4-0d8571a62f31","system_id":"levelo_inurba_marseille","lat":43.24166,"lon":5.36398,"is_reserved":false,"is_disabled":false,"rental_uris":{"android":"levelo://app?vid=edfcf1a0-94b6-44c9-9fa4-0d8571a62f31","ios":"levelo://app?vid=edfcf1a0-94b6-44c9-9fa4-0d8571a62f31"},"vehicle_type_id":"4","last_reported":1753002626,"current_range_meters":22000,"station_id":"cpo36qri1sfpv3e86is0","pricing_plan_id":"cebpf4jnsgd1na2vs0mg"},{"bike_id":"3798b733-a30f-4f60-8e70-53707a2a1afd","system_id":"levelo_inurba_marseille","lat":43.308907,"lon":5.371922,"is_reserved":false,"is_disabled":false,"rental_uris":{"android":"levelo://app?vid=3798b733-a30f-4f60-8e70-53707a2a1afd","ios":"levelo://app?vid=3798b733-a30f-4f60-8e70-53707a2a1afd"},"vehicle_type_id":"4","last_reported":1753002626,"current_range_meters":22000,"station_id":"ce4bguh2rcd13ifvqckg","pricing_plan_id":"cebpf4jnsgd1na2vs0mg"},{"bike_id":"88001bcb-ec2a-4905-a631-1a6b95d6cb3d","system_id":"levelo_inurba_marseille","lat":43.22927,"lon":5.35381,"is_reserved":false,"is_disabled":false,"rental_uris":{"android":"levelo://app?vid=88001bcb-ec2a-4905-a631-1a6b95d6cb3d","ios":"levelo://app?vid=88001bcb-ec2a-4905-a631-1a6b95d6cb3d"},"vehicle_type_id":"4","last_reported":1753002626,"current_range_meters":22000,"station_id":"cpo3532slgdg3j2ikp40","pricing_plan_id":"cebpf4jnsgd1na2vs0mg"},{"bike_id":"aa54430d-d9f0-4808-9a43-2a0bfe389dc7","system_id":"levelo_inurba_marseille","lat":43.21777,"lon":5.34594,"is_reserved":false,"is_disabled":false,"rental_uris":{"android":"levelo://app?vid=aa54430d-d9f0-4808-9a43-2a0bfe389dc7","ios":"levelo://app?vid=aa54430d-d9f0-4808-9a43-2a0bfe389dc7"},