{"last_updated":1714932503,"ttl":30,"version":"2.2","data":{"bikes":[{"bike_id":"4fe20826-a89a-4734-b923-0c79a65026c5","system_id":"levelo_inurba_marseille","lat":43.313391,"lon":5.36706,"is_reserved":false,"is_disabled":false,"rental_uris":{"android":"levelo://app?vid=4fe20826-a89a-4734-b923-0c79a65026c5","ios":"levelo://app?vid=4fe20826-a89a-4734-b923-0c79a65026c5"},"vehicle_type_id":"4","last_reported":1714932503,"current_range_meters":30400,"station_id":"ce4bgr92rcd13ifvqc6g","pricing_plan_id":"cebpf4jnsgd1na2vs0mg"},{"bike_id":"b1433d7b-d001-474f-b9cc-c4a563b7ea57","system_id":"levelo_inurba_marseille","lat":43.31341,"lon":5.367098,"is_reserved":false,"is_disabled":false,"rental_uris":{"android":"levelo://app?vid=b1433d7b-d001-474f-b9cc-c4a563b7ea57","ios":"levelo://app?vid=b1433d7b-d001-474f-b9cc-c4a563b7ea57"},"vehicle_type_id":"4","last_reported":1714932503,"current_range_meters":2800,"station_id":"ce4bgr92rcd13ifvqc6g","pricing_plan_id":"cebpf4jnsgd1na2vs0mg"},{"bike_id":"2f485833-2229-4373-a00c-f28f45fc757e","system_id":"levelo_inurba_marseille","lat":43.312239,"lon":5.368562,"is_reserved":false,"is_disabled":false,"rental_uris":{"android":"levelo://app?vid=2f485833-2229-4373-a00c-f28f45fc757e","ios":"levelo://app?vid=2f485833-2229-4373-a00c-f28f45fc757e"},"vehicle_type_id":"4","last_reported":1714932503,"current_range_meters":9600,"station_id":"ce4bgl92rcd13ifvqbq0","pricing_plan_id":"cebpf4jnsgd1na2vs0mg"},{"bike_id":"1d96088a-f487-47b0-a184-4cd17cd9d67c","system_id":"levelo_inurba_marseille","lat":43.312239,"lon":5.368562,"is_reserved":false,"is_disabled":false,"rental_uris":{"android":"levelo://app?vid=1d96088a-f487-47b0-a184-4cd17cd9d67c","ios":"levelo://app?vid=1d96088a-f487-47b0-a184-4cd17cd9d67c"},"vehicle_type_id":"4","last_reported":1714932503,"current_range_meters":0,"station_id":"ce4bgl92rcd13ifvqbq0","pricing_plan_id":"cebpf4jnsgd1na2vs0mg"},{"bike_id":"ae07a746-5225-47f2-8700-dfb00e7f7072","system_id":"levelo_inurba_marseille","lat":43.314811,"lon":5.373103,"is_reserved":false,"is_disabled":false,"rental_uris":{"android":"levelo://app?vid=ae07a746-5225-47f2-8700-dfb00e7f7072","ios":"levelo://app?vid=ae07a746-5225-47f2-8700-dfb00e7f7072"},"vehicle_type_id":"4","last_reported":1714932503,"current_range_meters":0,"station_id":"ce4bgt12rcd13ifvqcd0","pricing_plan_id":"cebpf4jnsgd1na2vs0mg"},{"bike_id":"8c7f2114-2a04-4193-8dee-cfe005064f30","system_id":"levelo_inurba_marseille","lat":43.309039,"lon":5.371797,"is_reserved":false,"is_disabled":false,"rental_uris":{"android":"levelo://app?vid=8c7f2114-2a04-4193-8dee-cfe005064f30","ios":"levelo://app?vid=8c7f2114-2a04-4193-8dee-cfe005064f30"},"vehicle_type_id":"4","last_reported":1714932503,"current_range_meters":15200,"station_id":"ce4bguh2rcd13ifvqckg","pricing_plan_id":"cebpf4jnsgd1na2vs0mg"},{"bike_id":"f9b81fa9-698b-483e-aea0-9b7576ec5348","system_id":"levelo_inurba_marseille","lat":43.309039,"lon":5.371797,"is_reserved":false,"is_disabled":false,"rental_uris":{"android":"levelo://app?vid=f9b81fa9-698b-483e-aea0-9b7576ec5348","ios":"levelo://app?vid=f9b81fa9-698b-483e-aea0-9b7576ec5348"},"vehicle_type_id":"4","last_reported":1714932503,"current_range_meters":23600,"station_id":"ce4bguh2rcd13ifvqckg","pricing_plan_id":"cebpf4jnsgd1na2vs0mg"},{"bike_id":"077f227b-77c9-4917-926a-d0110e852c99","system_id":"levelo_inurba_marseille","lat":43.30538,"lon":5.36546,"is_reserved":false,"is_disabled":false,"rental_uris":{"android":"levelo://app?vid=077f227b-77c9-4917-926a-d0110e852c99","ios":"levelo://app?vid=077f227b-77c9-4917-926a-d0110e852c99"},"vehicle_type_id":"4","last_reported":1714932503,"current_range_meters":0,"station_id":"ce4bgs12rcd13ifvqcag","pricing_plan_id":"cebpf4jnsgd1na2vs0mg"},{"bike_id":"19337f2f-88b9-45fa-905c-61280e214aa8","system_id":"levelo_inurba_marseille","lat":43.305706,"lon":5.365654,"is_reserved":false,"is_disabled":false,"rental_uris":{"android":"levelo://app?vid=19337f2f-88b9-45fa-905c-61280e214aa8","ios":"levelo://app?vid=19337f2f-88b9-45fa-905c-61280e214aa8"},"vehicle_type_id":"4","last_reported":1714932503,"current_range_meters":0,"station_id":"ce4bgs12rcd13ifvqcag","pricing_plan_id":"cebpf4jnsgd1na2vs0mg"},{"bike_id":"a3193dbc-33ce-4f5a-85f5-eedfe033df38","system_id":"levelo_inurba_marseille","lat":43.31107,"lon":5.37756,"is_reserved":false,"is_disabled":false,"rental_uris":{"android":"levelo://app?vid=a3193dbc-33ce-4f5a-85f5-eedfe033df38","ios":"levelo://app?vid=a3193dbc-33ce-4f5a-85f5-eedfe033df38"},"vehicle_type_id":"4","last_reported":1714932503,"current_range_meters":13600,"station_id":"ce4bgt92rcd13ifvqcg0","pricing_plan_id":"cebpf4jnsgd1na2vs0mg"},{"bike_id":"c4ad88fa-dbde-4b0f-bbd2-9425cefc8d18","system_id":"levelo_inurba_marseille","lat":43.31115,"lon":5.37769,"is_reserved":false,"is_disabled":false,"rental_uris":{"android":"levelo://app?vid=c4ad88fa-dbde-4b0f-bbd2-9425cefc8d18","ios":"levelo://app?vid=c4ad88fa-dbde-4b0f-bbd2-9425cefc8d18"},"vehicle_type_id":"4","last_reported":1714932503,"current_range_meters":0,"station_id":"ce4bgt92rcd13ifvqcg0","pricing_plan_id":"cebpf4jnsgd1na2vs0mg"},{"bike_id":"f06fff4e-07e7-4ba0-86d9-3b518f5b505f","system_id":"levelo_inurba_marseille","lat":43.31115,"lon":5.37772,"is_reserved":false,"is_disabled":false,"rental_uris":{"android":"levelo://app?vid=f06fff4e-07e7-4ba0-86d9-3b518f5b505f","ios":"levelo://app?vid=f06fff4e-07e7-4ba0-86d9-3b518f5b505f"},"vehicle_type_id":"4","last_reported":1714932503,"current_range_meters":12400,"station_id":"ce4bgt92rcd13ifvqcg0","pricing_plan_id":"cebpf4jnsgd1na2vs0mg"},{"bike_id":"48f5ab4f-694c-4f7f-884a-6e63771b6d0b","system_id":"levelo_inurba_marseille","lat":43.310585,"lon":5.378902,"is_reserved":false,"is_disabled":false,"rental_uris":{"android":"levelo://app?vid=48f5ab4f-694c-4f7f-884a-6e63771b6d0b","ios":"levelo://app?vid=48f5ab4f-694c-4f7f-884a-6e63771b6d0b"},"vehicle_type_id":"4","last_reported":1714932503,"current_range_meters":0,"station_id":"","pricing_plan_id":"cebpf4jnsgd1na2vs0mg"},{"bike_id":"4ab5672d-b6a8-4cf0-8451-386f2f7f2b6a","system_id":"levelo_inurba_marseille","lat":43.312489,"lon":5.379731,"is_reserved":false,"is_disabled":false,"rental_uris":{"android":"levelo://app?vid=4ab5672d-b6a8-4cf0-8451-386f2f7f2b6a","ios":"levelo://app?vid=4ab5672d-b6a8-4cf0-8451-386f2f7f2b6a"},"vehicle_type_id":"4","last_reported":1714932503,"current_range_meters":3200,"station_id":"","pricing_plan_id":"cebpf4jnsgd1na2vs0mg"},{"bike_id":"8889d630-2e26-4fd7-ac00-bdf9a09a6d4e","system_id":"levelo_inurba_marseille","lat":43.303258,"lon":5.36898,"is_reserved":false,"is_disabled":false,"rental_uris":{"android":"levelo://app?vid=8889d630-2e26-4fd7-ac00-bdf9a09a6d4e","ios":"levelo://app?vid=8889d630-2e26-4fd7-ac00-bdf9a09a6d4e"},"vehicle_type_id":"4","last_reported":1714932503,"current_range_meters":0,"station_id":"ce4bgqh2rcd13ifvqc5g","pricing_plan_id":"cebpf4jnsgd1na2vs0mg"},{"bike_id":"176892ac-49c3-4340-9466-8158d50b44e3","system_id":"levelo_inurba_marseille","lat":43.30312,"lon":5.368998,"is_reserved":false,"is_disabled":false,"rental_uris":{"android":"levelo://app?vid=176892ac-49c3-4340-9466-8158d50b44e3","ios":"levelo://app?vid=176892ac-49c3-4340-9466-8158d50b44e3"},"vehicle_type_id":"4","last_reported":1714932503,"current_range_meters":12000,"station_id":"ce4bgqh2rcd13ifvqc5g","pricing_plan_id":"cebpf4jnsgd1na2vs0mg"},{"bike_id":"104b7d33-3fb8-4612-a6eb-92b540e99da8","system_id":"levelo_inurba_marseille","lat":43.30309,"lon":5.36887,"is_reserved":false,"is_disabled":false,"rental_uris":{"android":"levelo://app?vid=104b7d33-3fb8-4612-a6eb-92b540e99da8","ios":"levelo://app?vid=104b7d33-3fb8-4612-a6eb-92b540e99da8"},"vehicle_type_id":"4","last_reported":1714932503,"current_range_meters":16000,"station_id":"ce4bgqh2rcd13ifvqc5g","pricing_plan_id":"cebpf4jnsgd1na2vs0mg"},{"bike_id":"4eac5519-5766-4d72-961b-11b100433ff2","system_id":"levelo_inurba_marseille","lat":43.301939,"lon":5.366286,"is_reserved":false,"is_disabled":false,"rental_uris":{"android":"levelo://app?vid=4eac5519-5766-4d72-961b-11b100433ff2","ios":"levelo://app?vid=4eac5519-5766-4d72-961b-11b100433ff2"},"vehicle_type_id":"4","last_reported":1714932503,"current_range_meters":0,"station_id":"ce4bgrh2rcd13ifvqc8g","pricing_plan_id":"cebpf4jnsgd1na2vs0mg"},{"bike_id":"6c66352b-b68d-4f91-ac87-cd94a06a4c8b","system_id":"levelo_inurba_marseille","lat":43.301939,"lon":5.366286,"is_reserved":false,"is_disabled":false,"rental_uris":{"android":"levelo://app?vid=6c66352b-b68d-4f91-ac87-cd94a06a4c8b","ios":"levelo://app?vid=6c66352b-b68d-4f91-ac87-cd94a06a4c8b"},"vehicle_type_id":"4","last_reported":1714932503,"current_range_meters":14400,"station_id":"ce4bgrh2rcd13ifvqc8g","pricing_plan_id":"cebpf4jnsgd1na2vs0mg"},{"bike_id":"f4cf1076-32b5-4c5e-b0f7-69af2bbcf2c3","system_id":"levelo_inurba_marseille","lat":43.301939,"lon":5.366286,"is_reserved":false,"is_disabled":false,"rental_uris":{"android":"levelo://app?vid=f4cf1076-32b5-4c5e-b0f7-69af2bbcf2c3","ios":"levelo://app?vid=f4cf1076-32b5-4c5e-b0f7-69af2bbcf2c3"},"vehicle_type_id":"4","last_reported":1714932503,"current_range_meters":3600,"station_id":"ce4bgrh2rcd13ifvqc8g","pricing_plan_id":"cebpf4jnsgd1na2vs0mg"},{"bike_id":"f7f793cf-bd75-411a-accd-b0f42aa56c57","system_id":"levelo_inurba_marseille","lat":43.308012,"lon":5.381511,"is_reserved":false,"is_disabled":false,"rental_uris":{"android":"levelo://app?vid=f7f793cf-bd75-411a-accd-b0f42aa56c57","ios":"levelo://app?vid=f7f793cf-bd75-411a-accd-b0f42aa56c57"},"vehicle_type_id":"4","last_reported":1714932503,"current_range_meters":14800,"station_id":"ce4bgt12rcd13ifvqce0","pricing_plan_id":"cebpf4jnsgd1na2vs0mg"},{"bike_id":"6fabde87-35d0-4e96-a5df-9756180f6669","system_id":"levelo_inurba_marseille","lat":43.308012,"lon":5.381511,"is_reserved":false,"is_disabled":false,"rental_uris":{"android":"levelo://app?vid=6fabde87-35d0-4e96-a5df-9756180f6669","ios":"levelo://app?vid=6fabde87-35d0-4e96-a5df-9756180f6669"},"vehicle_type_id":"4","last_reported":1714932503,"current_range_meters":4800,"station_id":"ce4bgt12rcd13ifvqce0","pricing_plan_id":"cebpf4jnsgd1na2vs0mg"},{"bike_id":"136d7fe9-406e-4952-a99f-68e71249e17b","system_id":"levelo_inurba_marseille","lat":43.308012,"lon":5.381511,"is_reserved":false,"is_disabled":false,"rental_uris":{"android":"levelo://app?vid=136d7fe9-406e-4952-a99f-68e71249e17b","ios":"levelo://app?vid=136d7fe9-406e-4952-a99f-68e71249e17b"},"vehicle_type_id":"4","last_reported":1714932503,"current_range_meters":12800,"station_id":"ce4bgt12rcd13ifvqce0","pricing_plan_id":"cebpf4jnsgd1na2vs0mg"},{"bike_id":"f0b7b6a6-2557-49fd-a063-455135e261c6","system_id":"levelo_inurba_marseille","lat":43.308012,"lon":5.381511,"is_reserved":false,"is_disabled":false,"rental_uris":{"android":"levelo://app?vid=f0b7b6a6-2557-49fd-a063-455135e261c6","ios":"levelo://app?vid=f0b7b6a6-2557-49fd-a063-455135e261c6"},"vehicle_type_id":"4","last_reported":1714932503,"current_range_meters":30400,"station_id":"ce4bgt12rcd13ifvqce0","pricing_plan_id":"cebpf4jnsgd1na2vs0mg"},{"bike_id":"679baab9-098a-45dc-a21c-89eed43a2d75","system_id":"levelo_inurba_marseille","lat":43.324723,"lon":5.365567,"is_reserved":false,"is_disabled":false,"rental_uris":{"android":"levelo://app?vid=679baab9-098a-45dc-a21c-89eed43a2d75","ios":"levelo://app?vid=679baab9-098a-45dc-a21c-89eed43a2d75"},"vehicle_type_id":"4","last_reported":1714932503,"current_range_meters":2400,"station_id":"ce4bhs12rcd13ifvqhvg","pricing_plan_id":"cebpf4jnsgd1na2vs0mg"},{"bike_id":"2984f4f4-446f-4d88-acf2-c645d48e3043","system_id":"levelo_inurba_marseille","lat":43.324771,"lon":5.36557,"is_reserved":false,"is_disabled":false,"rental_uris":{"android":"levelo://app?vid=2984f4f4-446f-4d88-acf2-c645d48e3043","ios":"levelo://app?vid=2984f4f4-446f-4d88-acf2-c645d48e3043"},"vehicle_type_id":"4","last_reported":1714932503,"current_range_meters":19600,"station_id":"ce4bhs12rcd13ifvqhvg","pricing_plan_id":"cebpf4jnsgd1na2vs0mg"},{"bike_id":"123b5665-717c-49a0-abc7-b23bec7a92d3","system_id":"levelo_inurba_marseille","lat":43.324771,"lon":5.36557,"is_reserved":false,"is_disabled":false,"rental_uris":{"android":"levelo://app?vid=123b5665-717c-49a0-abc7-b23bec7a92d3","ios":"levelo://app?vid=123b5665-717c-49a0-abc7-b23bec7a92d3"},"vehicle_type_id":"4","last_reported":1714932503,"current_range_meters":0,"station_id":"ce4bhs12rcd13ifvqhvg","pricing_plan_id":"cebpf4jnsgd1na2vs0mg"},{"bike_id":"b683b2a8-3032-45a7-9736-ae86c836b1d1","system_id":"levelo_inurba_marseille","lat":43.310804,"lon":5.38359,"is_reserved":false,"is_disabled":false,"rental_uris":{"android":"levelo://app?vid=b683b2a8-3032-45a7-9736-ae86c836b1d1","ios":"levelo://app?vid=b683b2a8-3032-45a7-9736-ae86c836b1d1"},"vehicle_type_id":"4","last_reported":1714932503,"current_range_meters":26000,"station_id":"ce4bgv92rcd13ifvqcr0","pricing_plan_id":"cebpf4jnsgd1na2vs0mg"},{"bike_id":"4f8af5b7-d90f-4f94-9fa3-808749a3691c","system_id":"levelo_inurba_marseille","lat":43.31068,"lon":5.38357,"is_reserved":false,"is_disabled":false,"rental_uris":{"android":"levelo://app?vid=4f8af5b7-d90f-4f94-9fa3-808749a3691c","ios":"levelo://app?vid=4f8af5b7-d90f-4f94-9fa3-808749a3691c"},"vehicle_type_id":"4","last_reported":1714932503,"current_range_meters":5200,"station_id":"ce4bgv92rcd13ifvqcr0","pricing_plan_id":"cebpf4jnsgd1na2vs0mg"},{"bike_id":"c7d9c234-42c6-4432-8a51-7c5780fa7b0c","system_id":"levelo_inurba_marseille","lat":43.302784,"lon":5.377158,"is_reserved":false,"is_disabled":false,"rental_uris":{"android":"levelo://app?vid=c7d9c234-42c6-4432-8a51-7c5780fa7b0c","ios":"levelo://app?vid=c7d9c234-42c6-4432-8a51-7c5780fa7b0c"},"vehicle_type_id":"4","last_reported":1714932503,"current_range_meters":15600,"station_id":"ce4bguh2rcd13ifvqcj0","pricing_plan_id":"cebpf4jnsgd1na2vs0mg"},{"bike_id":"ca39e5de-ba38-47ad-827b-5dccada72d5f","system_id":"levelo_inurba_marseille","lat":43.301429,"lon":5.37413,"is_reserved":false,"is_disabled":false,"rental_uris":{"android":"levelo://app?vid=ca39e5de-ba38-47ad-827b-5dccada72d5f","ios":"levelo://app?vid=ca39e5de-ba38-47ad-827b-5dccada72d5f"},"vehicle_type_id":"4","last_reported":1714932503,"current_range_meters":0,"station_id":"ce4bgs92rcd13ifvqcc0","pricing_plan_id":"cebpf4jnsgd1na2vs0mg"},{"bike_id":"4145a7cd-b041-449e-bb0c-2131fa359ca8","system_id":"levelo_inurba_marseille","lat":43.304274,"lon":5.388873,"is_reserved":false,"is_disabled":false,"rental_uris":{"android":"levelo://app?vid=4145a7cd-b041-449e-bb0c-2131fa359ca8","ios":"levelo://app?vid=4145a7cd-b041-449e-bb0c-2131fa359ca8"},"vehicle_type_id":"4","last_reported":1714932503,"current_range_meters":1200,"station_id":"ce4bgk12rcd13ifvqbi0","pricing_plan_id":"cebpf4jnsgd1na2vs0mg"},{"bike_id":"642ae997-340f-4304-ae54-88dbe45bb89c","system_id":"levelo_inurba_marseille","lat":43.30143,"lon":5.37413,"is_reserved":false,"is_disabled":false,"rental_uris":{"android":"levelo://app?vid=642ae997-340f-4304-ae54-88dbe45bb89c","ios":"levelo://app?vid=642ae997-340f-4304-ae54-88dbe45bb89c"},"vehicle_type_id":"4","last_reported":1714932503,"current_range_meters":26400,"station_id":"ce4bgs92rcd13ifvqcc0","pricing_plan_id":"cebpf4jnsgd1na2vs0mg"},{"bike_id":"5cd46c73-c81e-43a1-9c13-4f62e0c4f85f","system_id":"levelo_inurba_marseille","lat":43.319935,"lon":5.381699,"is_reserved":false,"is_disabled":false,"rental_uris":{"android":"levelo://app?vid=5cd46c73-c81e-43a1-9c13-4f62e0c4f85f","ios":"levelo://app?vid=5cd46c73-c81e-43a1-9c13-4f62e0c4f85f"},"vehicle_type_id":"4","last_reported":1714932503,"current_range_meters":5600,"station_id":"ce4bhr12rcd13ifvqhpg","pricing_plan_id":"cebpf4jnsgd1na2vs0mg"},{"bike_id":"971599e8-7632-40f9-87d7-d3078e01813a","system_id":"levelo_inurba_marseille","lat":43.319935,"lon":5.381699,"is_reserved":false,"is_disabled":false,"rental_uris":{"android":"levelo://app?vid=971599e8-7632-40f9-87d7-d3078e01813a","ios":"levelo://app?vid=971599e8-7632-40f9-87d7-d3078e01813a"},"vehicle_type_id":"4","last_reported":1714932503,"current_range_meters":4400,"station_id":"ce4bhr12rcd13ifvqhpg","pricing_plan_id":"cebpf4jnsgd1na2vs0mg"},{"bike_id":"e3e7e185-6f22-434f-a609-55ca226bcf65","system_id":"levelo_inurba_marseille","lat":43.319935,"lon":5.381699,"is_reserved":false,"is_disabled":false,"rental_uris":{"android":"levelo://app?vid=e3e7e185-6f22-434f-a609-55ca226bcf65","ios":"levelo://app?vid=e3e7e185-6f22-434f-a609-55ca226bcf65"},"vehicle_type_id":"4","last_reported":1714932503,"current_range_meters":17200,"station_id":"ce4bhr12rcd13ifvqhpg","pricing_plan_id":"cebpf4jnsgd1na2vs0mg"},{"bike_id":"e07befc2-9d87-484b-afe2-17bced68ff18","system_id":"levelo_inurba_marseille","lat":43.319935,"lon":5.381699,"is_reserved":false,"is_disabled":false,"rental_uris":{"android":"levelo://app?vid=e07befc2-9d87-484b-afe2-17bced68ff18","ios":"levelo://app?vid=e07befc2-9d87-484b-afe2-17bced68ff18"},"vehicle_type_id":"4","last_reported":1714932503,"current_range_meters":13200,"station_id":"ce4bhr12rcd13ifvqhpg","pricing_plan_id":"cebpf4jnsgd1na2vs0mg"},{"bike_id":"52d35c13-ce1a-416b-bc6b-25026281f9de","system_id":"levelo_inurba_marseille","lat":43.313571,"lon":5.384829,"is_reserved":false,"is_disabled":false,"rental_uris":{"android":"levelo://app?vid=52d35c13-ce1a-416b-bc6b-25026281f9de","ios":"levelo://app?vid=52d35c13-ce1a-416b-bc6b-25026281f9de"},"vehicle_type_id":"4","last_reported":1714932503,"current_range_meters":2800,"station_id":"ce4bgt92rcd13ifvqcf0","pricing_plan_id":"cebpf4jnsgd1na2vs0mg"},{"bike_id":"754e6b9a-64ef-4afc-b006-16e1c3513375","system_id":"levelo_inurba_marseille","lat":43.299397,"lon":5.365493,"is_reserved":false,"is_disabled":false,"rental_uris":{"android":"levelo://app?vid=754e6b9a-64ef-4afc-b006-16e1c3513375","ios":"levelo://app?vid=754e6b9a-64ef-4afc-b006-16e1c3513375"},"vehicle_type_id":"4","last_reported":1714932503,"current_range_meters":400,"station_id":"ce4bgm92rcd13ifvqbr0","pricing_plan_id":"cebpf4jnsgd1na2vs0mg"},{"bike_id":"393cb278-9663-4a9b-b0fc-bd87044a58dc","system_id":"levelo_inurba_marseille","lat":43.29982,"lon":5.37182,"is_reserved":false,"is_disabled":false,"rental_uris":{"android":"levelo://app?vid=393cb278-9663-4a9b-b0fc-bd87044a58dc","ios":"levelo://app?vid=393cb278-9663-4a9b-b0fc-bd87044a58dc"},"vehicle_type_id":"4","last_reported":1714932503,"current_range_meters":9200,"station_id":"ce4bgr92rcd13ifvqc7g","pricing_plan_id":"cebpf4jnsgd1na2vs0mg"},{"bike_id":"8be8d8b3-dbe0-492d-b7a0-8c2a00aaf88c","system_id":"levelo_inurba_marseille","lat":43.299352,"lon":5.365393,"is_reserved":false,"is_disabled":false,"rental_uris":{"android":"levelo://app?vid=8be8d8b3-dbe0-492d-b7a0-8c2a00aaf88c","ios":"levelo://app?vid=8be8d8b3-dbe0-492d-b7a0-8c2a00aaf88c"},"vehicle_type_id":"4","last_reported":1714932503,"current_range_meters":0,"station_id":"ce4bgm92rcd13ifvqbr0","pricing_plan_id":"cebpf4jnsgd1na2vs0mg"},{"bike_id":"1979eac4-d45e-49f3-9aa4-09809bbe574f","system_id":"levelo_inurba_marseille","lat":43.299724,"lon":5.371829,"is_reserved":false,"is_disabled":false,"rental_uris":{"android":"levelo://app?vid=1979eac4-d45e-49f3-9aa4-09809bbe574f","ios":"levelo://app?vid=1979eac4-d45e-49f3-9aa4-09809bbe574f"},"vehicle_type_id":"4","last_reported":1714932503,"current_range_meters":23600,"station_id":"ce4bgr92rcd13ifvqc7g","pricing_plan_id":"cebpf4jnsgd1na2vs0mg"},{"bike_id":"b7c74a19-312c-4ab2-9604-246f80b7735e","system_id":"levelo_inurba_marseille","lat":43.299291,"lon":5.365311,"is_reserved":false,"is_disabled":false,"rental_uris":{"android":"levelo://app?vid=b7c74a19-312c-4ab2-9604-246f80b7735e","ios":"levelo://app?vid=b7c74a19-312c-4ab2-9604-246f80b7735e"},"vehicle_type_id":"4","last_reported":1714932503,"current_range_meters":0,"station_id":"ce4bgm92rcd13ifvqbr0","pricing_plan_id":"cebpf4jnsgd1na2vs0mg"},{"bike_id":"8e1d3838-fb87-460e-854b-2f59bdc5c93d","system_id":"levelo_inurba_marseille","lat":43.29858,"lon":5.36282,"is_reserved":false,"is_disabled":false,"rental_uris":{"android":"levelo://app?vid=8e1d3838-fb87-460e-854b-2f59bdc5c93d","ios":"levelo://app?vid=8e1d3838-fb87-460e-854b-2f59bdc5c93d"},"vehicle_type_id":"4","last_reported":1714932503,"current_range_meters":0,"station_id":"ce4bgpp2rcd13ifvqc3g","pricing_plan_id":"cebpf4jnsgd1na2vs0mg"},{"bike_id":"f00b7882-811b-409b-a206-ea17c06c1bb8","system_id":"levelo_inurba_marseille","lat":43.29856,"lon":5.36284,"is_reserved":false,"is_disabled":false,"rental_uris":{"android":"levelo://app?vid=f00b7882-811b-409b-a206-ea17c06c1bb8","ios":"levelo://app?vid=f00b7882-811b-409b-a206-ea17c06c1bb8"},"vehicle_type_id":"4","last_reported":1714932503,"current_range_meters":0,"station_id":"ce4bgpp2rcd13ifvqc3g","pricing_plan_id":"cebpf4jnsgd1na2vs0mg"},{"bike_id":"2409c6cc-8b4e-4c3f-a082-a08fecec9a9c","system_id":"levelo_inurba_marseille","lat":43.298433,"lon":5.362774,"is_reserved":false,"is_disabled":false,"rental_uris":{"android":"levelo://app?vid=2409c6cc-8b4e-4c3f-a082-a08fecec9a9c","ios":"levelo://app?vid=2409c6cc-8b4e-4c3f-a082-a08fecec9a9c"},"vehicle_type_id":"4","last_reported":1714932503,"current_range_meters":8000,"station_id":"ce4bgpp2rcd13ifvqc3g","pricing_plan_id":"cebpf4jnsgd1na2vs0mg"},{"bike_id":"ff666ca4-8c7b-46b8-aed6-69a117e75ef3","system_id":"levelo_inurba_marseille","lat":43.298433,"lon":5.362774,"is_reserved":false,"is_disabled":false,"rental_uris":{"android":"levelo://app?vid=ff666ca4-8c7b-46b8-aed6-69a117e75ef3","ios":"levelo://app?vid=ff666ca4-8c7b-46b8-aed6-69a117e75ef3"},"vehicle_type_id":"4","last_reported":1714932503,"current_range_meters":1200,"station_id":"ce4bgpp2rcd13ifvqc3g","pricing_plan_id":"cebpf4jnsgd1na2vs0mg"},{"bike_id":"dc3e5ba4-7c11-4663-a45d-2c5871f27685","system_id":"levelo_inurba_marseille","lat":43.30549,"lon":5.38436,"is_reserved":false,"is_disabled":false,"rental_uris":{"android":"levelo://app?vid=dc3e5ba4-7c11-4663-a45d-2c5871f27685","ios":"levelo://app?vid=dc3e5ba4-7c11-4663-a45d-2c5871f27685"},"vehicle_type_id":"4","last_reported":1714932503,"current_range_meters":0,"station_id":"ce4bgg92rcd13ifvqb30","pricing_plan_id":"cebpf4jnsgd1na2vs0mg"},{"bike_id":"90115cc9-0d3b-4c75-88a6-ace44251bd31","system_id":"levelo_inurba_marseille","lat":43.298433,"lon":5.362774,"is_reserved":false,"is_disabled":false,"rental_uris":{"android":"levelo://app?vid=90115cc9-0d3b-4c75-88a6-ace44251bd31","ios":"levelo://app?vid=90115cc9-0d3b-4c75-88a6-ace44251bd31"},"vehicle_type_id":"4","last_reported":1714932503,"current_range_meters":16800,"station_id":"ce4bgpp2rcd13ifvqc3g","pricing_plan_id":"cebpf4jnsgd1na2vs0mg"},{"bike_id":"62bce26f-2f75-4f84-866b-7d9756e107c1","system_id":"levelo_inurba_marseille","lat":43.298433,"lon":5.362774,"is_reserved":false,"is_disabled":false,"rental_uris":{"android":"levelo://app?vid=62bce26f-2f75-4f84-866b-7d9756e107c1","ios":"levelo://app?vid=62bce26f-2f75-4f84-866b-7d9756e107c1"},"vehicle_type_id":"4","last_reported":1714932503,"current_range_meters":9200,"station_id":"ce4bgpp2rcd13ifvqc3g","pricing_plan_id":"cebpf4jnsgd1na2vs0mg"},{"bike_id":"d6f3502b-7b08-4662-9744-c7eebde304b6","system_id":"levelo_inurba_marseille","lat":43.299168,"lon":5.374787,"is_reserved":false,"is_disabled":false,"rental_uris":{"android":"levelo://app?vid=d6f3502b-7b08-4662-9744-c7eebde304b6","ios":"levelo://app?vid=d6f3502b-7b08-4662-9744-c7eebde304b6"},"vehicle_type_id":"4","last_reported":1714932503,"current_range_meters":0,"station_id":"ce4bgjh2rcd13ifvqbg0","pricing_plan_id":"cebpf4jnsgd1na2vs0mg"},{"bike_id":"6c071e9c-d55b-43c1-a9c7-bc063ec6c4e9","system_id":"levelo_inurba_marseille","lat":43.299243,"lon":5.374807,"is_reserved":false,"is_disabled":false,"rental_uris":{"android":"levelo://app?vid=6c071e9c-d55b-43c1-a9c7-bc063ec6c4e9","ios":"levelo://app?vid=6c071e9c-d55b-43c1-a9c7-bc063ec6c4e9"},"vehicle_type_id":"4","last_reported":1714932503,"current_range_meters":11600,"station_id":"ce4bgjh2rcd13ifvqbg0","pricing_plan_id":"cebpf4jnsgd1na2vs0mg"},{"bike_id":"62dfda0b-4d81-448d-b124-f703d5f5956a","system_id":"levelo_inurba_marseille","lat":43.299243,"lon":5.374807,"is_reserved":false,"is_disabled":false,"rental_uris":{"android":"levelo://app?vid=62dfda0b-4d81-448d-b124-f703d5f5956a","ios":"levelo://app?vid=62dfda0b-4d81-448d-b124-f703d5f5956a"},"vehicle_type_id":"4","last_reported":1714932503,"current_range_meters":15200,"station_id":"ce4bgjh2rcd13ifvqbg0","pricing_plan_id":"cebpf4jnsgd1na2vs0mg"},{"bike_id":"ae42631f-cede-45f2-b56c-4e233dacd568","system_id":"levelo_inurba_marseille","lat":43.30148,"lon":5.380507,"is_reserved":false,"is_disabled":false,"rental_uris":{"android":"levelo://app?vid=ae42631f-cede-45f2-b56c-4e233dacd568","ios":"levelo://app?vid=ae42631f-cede-45f2-b56c-4e233dacd568"},"vehicle_type_id":"4","last_reported":1714932503,"current_range_meters":22000,"station_id":"","pricing_plan_id":"cebpf4jnsgd1na2vs0mg"},{"bike_id":"2b2656d1-4185-4f6e-a6dd-1eb5d9af8463","system_id":"levelo_inurba_marseille","lat":43.297794,"lon":5.370888,"is_reserved":false,"is_disabled":false,"rental_uris":{"android":"levelo://app?vid=2b2656d1-4185-4f6e-a6dd-1eb5d9af8463","ios":"levelo://app?vid=2b2656d1-4185-4f6e-a6dd-1eb5d9af8463"},"vehicle_type_id":"4","last_reported":1714932503,"current_range_meters":11200,"station_id":"ce4bgop2rcd13ifvqc1g","pricing_plan_id":"cebpf4jnsgd1na2vs0mg"},{"bike_id":"119a523f-5f79-4f03-b821-ba2186c8315c","system_id":"levelo_inurba_marseille","lat":43.297774,"lon":5.370875,"is_reserved":false,"is_disabled":false,"rental_uris":{"android":"levelo://app?vid=119a523f-5f79-4f03-b821-ba2186c8315c","ios":"levelo://app?vid=119a523f-5f79-4f03-b821-ba2186c8315c"},"vehicle_type_id":"4","last_reported":1714932503,"current_range_meters":26000,"station_id":"ce4bgop2rcd13ifvqc1g","pricing_plan_id":"cebpf4jnsgd1na2vs0mg"},{"bike_id":"8149167e-bae3-4f4b-ad4c-b1807a257575","system_id":"levelo_inurba_marseille","lat":43.297794,"lon":5.370888,"is_reserved":false,"is_disabled":false,"rental_uris":{"android":"levelo://app?vid=8149167e-bae3-4f4b-ad4c-b1807a257575","ios":"levelo://app?vid=8149167e-bae3-4f4b-ad4c-b1807a257575"},"vehicle_type_id":"4","last_reported":1714932503,"current_range_meters":8400,"station_id":"ce4bgop2rcd13ifvqc1g","pricing_plan_id":"cebpf4jnsgd1na2vs0mg"},{"bike_id":"bc0290ec-33c6-4fa2-ab8d-0c16eb1ded03","system_id":"levelo_inurba_marseille","lat":43.322872,"lon":5.382756,"is_reserved":false,"is_disabled":false,"rental_uris":{"android":"levelo://app?vid=bc0290ec-33c6-4fa2-ab8d-0c16eb1ded03","ios":"levelo://app?vid=bc0290ec-33c6-4fa2-ab8d-0c16eb1ded03"},"vehicle_type_id":"4","last_reported":1714932503,"current_range_meters":18000,"station_id":"ce4bhr12rcd13ifvqhqg","pricing_plan_id":"cebpf4jnsgd1na2vs0mg"},{"bike_id":"e3c1db24-05ac-4250-9a46-35b6b5733a07","system_id":"levelo_inurba_marseille","lat":43.2968,"lon":5.37291,"is_reserved":false,"is_disabled":false,"rental_uris":{"android":"levelo://app?vid=e3c1db24-05ac-4250-9a46-35b6b5733a07","ios":"levelo://app?vid=e3c1db24-05ac-4250-9a46-35b6b5733a07"},"vehicle_type_id":"4","last_reported":1714932503,"current_range_meters":10800,"station_id":"ce4bgk12rcd13ifvqbj0","pricing_plan_id":"cebpf4jnsgd1na2vs0mg"},{"bike_id":"366dfaa8-54b3-45e6-8c45-4a3e501924ee","system_id":"levelo_inurba_marseille","lat":43.29573,"lon":5.367355,"is_reserved":false,"is_disabled":false,"rental_uris":{"android":"levelo://app?vid=366dfaa8-54b3-45e6-8c45-4a3e501924ee","ios":"levelo://app?vid=366dfaa8-54b3-45e6-8c45-4a3e501924ee"},"vehicle_type_id":"4","last_reported":1714932503,"current_range_meters":2400,"station_id":"ce4bgph2rcd13ifvqc2g","pricing_plan_id":"cebpf4jnsgd1na2vs0mg"},{"bike_id":"84815684-f1aa-4ec3-848f-af5f78ceb80d","system_id":"levelo_inurba_marseille","lat":43.29622,"lon":5.37155,"is_reserved":false,"is_disabled":false,"rental_uris":{"android":"levelo://app?vid=84815684-f1aa-4ec3-848f-af5f78ceb80d","ios":"levelo://app?vid=84815684-f1aa-4ec3-848f-af5f78ceb80d"},"vehicle_type_id":"4","last_reported":1714932503,"current_range_meters":8400,"station_id":"","pricing_plan_id":"cebpf4jnsgd1na2vs0mg"},{"bike_id":"350d496f-51dc-4546-935f-1b0cc10ce576","system_id":"levelo_inurba_marseille","lat":43.29573,"lon":5.367355,"is_reserved":false,"is_disabled":false,"rental_uris":{"android":"levelo://app?vid=350d496f-51dc-4546-935f-1b0cc10ce576","ios":"levelo://app?vid=350d496f-51dc-4546-935f-1b0cc10ce576"},"vehicle_type_id":"4","last_reported":1714932503,"current_range_meters":3200,"station_id":"ce4bgph2rcd13ifvqc2g","pricing_plan_id":"cebpf4jnsgd1na2vs0mg"},{"bike_id":"d0b9ef02-73de-4ffc-8b15-ddc4da3a11f8","system_id":"levelo_inurba_marseille","lat":43.2968,"lon":5.37291,"is_reserved":false,"is_disabled":false,"rental_uris":{"android":"levelo://app?vid=d0b9ef02-73de-4ffc-8b15-ddc4da3a11f8","ios":"levelo://app?vid=d0b9ef02-73de-4ffc-8b15-ddc4da3a11f8"},"vehicle_type_id":"4","last_reported":1714932503,"current_range_meters":8400,"station_id":"ce4bgk12rcd13ifvqbj0","pricing_plan_id":"cebpf4jnsgd1na2vs0mg"},{"bike_id":"4cfeebd1-7f8d-408d-9c20-46c2d8266b74","system_id":"levelo_inurba_marseille","lat":43.29581,"lon":5.36742,"is_reserved":false,"is_disabled":false,"rental_uris":{"android":"levelo://app?vid=4cfeebd1-7f8d-408d-9c20-46c2d8266b74","ios":"levelo://app?vid=4cfeebd1-7f8d-408d-9c20-46c2d8266b74"},"vehicle_type_id":"4","last_reported":1714932503,"current_range_meters":4800,"station_id":"ce4bgph2rcd13ifvqc2g","pricing_plan_id":"cebpf4jnsgd1na2vs0mg"},{"bike_id":"e21a996d-a4e2-42d1-b6d3-04a70c896b41","system_id":"levelo_inurba_marseille","lat":43.29573,"lon":5.367355,"is_reserved":false,"is_disabled":false,"rental_uris":{"android":"levelo://app?vid=e21a996d-a4e2-42d1-b6d3-04a70c896b41","ios":"levelo://app?vid=e21a996d-a4e2-42d1-b6d3-04a70c896b41"},"vehicle_type_id":"4","last_reported":1714932503,"current_range_meters":20000,"station_id":"ce4bgph2rcd13ifvqc2g","pricing_plan_id":"cebpf4jnsgd1na2vs0mg"},{"bike_id":"45aeb7df-47f7-4e01-8774-26b9a703e3d2","system_id":"levelo_inurba_marseille","lat":43.29573,"lon":5.367355,"is_reserved":false,"is_disabled":false,"rental_uris":{"android":"levelo://app?vid=45aeb7df-47f7-4e01-8774-26b9a703e3d2","ios":"levelo://app?vid=45aeb7df-47f7-4e01-8774-26b9a703e3d2"},"vehicle_type_id":"4","last_reported":1714932503,"current_range_meters":9600,"station_id":"ce4bgph2rcd13ifvqc2g","pricing_plan_id":"cebpf4jnsgd1na2vs0mg"},{"bike_id":"ecc5d18c-7b2f-4179-b268-fdcf5021d386","system_id":"levelo_inurba_marseille","lat":43.29573,"lon":5.367355,"is_reserved":false,"is_disabled":false,"rental_uris":{"android":"levelo://app?vid=ecc5d18c-7b2f-4179-b268-fdcf5021d386","ios":"levelo://app?vid=ecc5d18c-7b2f-4179-b268-fdcf5021d386"},"vehicle_type_id":"4","last_reported":1714932503,"current_range_meters":6400,"station_id":"ce4bgph2rcd13ifvqc2g","pricing_plan_id":"cebpf4jnsgd1na2vs0mg"},{"bike_id":"0ba241ee-a178-4669-a5c7-5c7c4a97c29e","system_id":"levelo_inurba_marseille","lat":43.296935,"lon":5.376544,"is_reserved":false,"is_disabled":false,"rental_uris":{"android":"levelo://app?vid=0ba241ee-a178-4669-a5c7-5c7c4a97c29e","ios":"levelo://app?vid=0ba241ee-a178-4669-a5c7-5c7c4a97c29e"},"vehicle_type_id":"4","last_reported":1714932503,"current_range_meters":12400,"station_id":"ce4bgkh2rcd13ifvqbl0","pricing_plan_id":"cebpf4jnsgd1na2vs0mg"},{"bike_id":"b69e3248-bfd6-4159-bef4-610a2258756d","system_id":"levelo_inurba_marseille","lat":43.299028,"lon":5.381509,"is_reserved":false,"is_disabled":false,"rental_uris":{"android":"levelo://app?vid=b69e3248-bfd6-4159-bef4-610a2258756d","ios":"levelo://app?vid=b69e3248-bfd6-4159-bef4-610a2258756d"},"vehicle_type_id":"4","last_reported":1714932503,"current_range_meters":18000,"station_id":"ce4bgj12rcd13ifvqbc0","pricing_plan_id":"cebpf4jnsgd1na2vs0mg"},{"bike_id":"143b9793-5a51-40d7-ba56-ffb8e0ce5f88","system_id":"levelo_inurba_marseille","lat":43.296921,"lon":5.376579,"is_reserved":false,"is_disabled":false,"rental_uris":{"android":"levelo://app?vid=143b9793-5a51-40d7-ba56-ffb8e0ce5f88","ios":"levelo://app?vid=143b9793-5a51-40d7-ba56-ffb8e0ce5f88"},"vehicle_type_id":"4","last_reported":1714932503,"current_range_meters":1200,"station_id":"ce4bgkh2rcd13ifvqbl0","pricing_plan_id":"cebpf4jnsgd1na2vs0mg"},{"bike_id":"7ac1d729-b4ee-4891-8cdc-be4dc2114f67","system_id":"levelo_inurba_marseille","lat":43.29708,"lon":5.37703,"is_reserved":false,"is_disabled":false,"rental_uris":{"android":"levelo://app?vid=7ac1d729-b4ee-4891-8cdc-be4dc2114f67","ios":"levelo://app?vid=7ac1d729-b4ee-4891-8cdc-be4dc2114f67"},"vehicle_type_id":"4","last_reported":1714932503,"current_range_meters":0,"station_id":"ce4bgkh2rcd13ifvqbl0","pricing_plan_id":"cebpf4jnsgd1na2vs0mg"},{"bike_id":"518732a3-e715-4088-bd9d-308da04fad83","system_id":"levelo_inurba_marseille","lat":43.309588,"lon":5.390318,"is_reserved":false,"is_disabled":false,"rental_uris":{"android":"levelo://app?vid=518732a3-e715-4088-bd9d-308da04fad83","ios":"levelo://app?vid=518732a3-e715-4088-bd9d-308da04fad83"},"vehicle_type_id":"4","last_reported":1714932503,"current_range_meters":0,"station_id":"ce4bgup2rcd13ifvqco0","pricing_plan_id":"cebpf4jnsgd1na2vs0mg"},{"bike_id":"b9be7c67-78b9-48a6-9894-40d7b9b60349","system_id":"levelo_inurba_marseille","lat":43.309508,"lon":5.390325,"is_reserved":false,"is_disabled":false,"rental_uris":{"android":"levelo://app?vid=b9be7c67-78b9-48a6-9894-40d7b9b60349","ios":"levelo://app?vid=b9be7c67-78b9-48a6-9894-40d7b9b60349"},"vehicle_type_id":"4","last_reported":1714932503,"current_range_meters":0,"station_id":"ce4bgup2rcd13ifvqco0","pricing_plan_id":"cebpf4jnsgd1na2vs0mg"},{"bike_id":"4d3c8f0f-83cd-4745-87d9-03791184f7df","system_id":"levelo_inurba_marseille","lat":43.296935,"lon":5.376544,"is_reserved":false,"is_disabled":false,"rental_uris":{"android":"levelo://app?vid=4d3c8f0f-83cd-4745-87d9-03791184f7df","ios":"levelo://app?vid=4d3c8f0f-83cd-4745-87d9-03791184f7df"},"vehicle_type_id":"4","last_reported":1714932503,"current_range_meters":800,"station_id":"ce4bgkh2rcd13ifvqbl0","pricing_plan_id":"cebpf4jnsgd1na2vs0mg"},{"bike_id":"b482f3f6-21bf-4f8a-b020-23c73a98cece","system_id":"levelo_inurba_marseille","lat":43.29699,"lon":5.37691,"is_reserved":false,"is_disabled":false,"rental_uris":{"android":"levelo://app?vid=b482f3f6-21bf-4f8a-b020-23c73a98cece","ios":"levelo://app?vid=b482f3f6-21bf-4f8a-b020-23c73a98cece"},"vehicle_type_id":"4","last_reported":1714932503,"current_range_meters":18400,"station_id":"ce4bgkh2rcd13ifvqbl0","pricing_plan_id":"cebpf4jnsgd1na2vs0mg"},{"bike_id":"35b70ffc-51ea-402e-93f7-932f466d751f","system_id":"levelo_inurba_marseille","lat":43.3175,"lon":5.3901,"is_reserved":false,"is_disabled":false,"rental_uris":{"android":"levelo://app?vid=35b70ffc-51ea-402e-93f7-932f466d751f","ios":"levelo://app?vid=35b70ffc-51ea-402e-93f7-932f466d751f"},"vehicle_type_id":"4","last_reported":1714932503,"current_range_meters":31200,"station_id":"ce4bhqp2rcd13ifvqhng","pricing_plan_id":"cebpf4jnsgd1na2vs0mg"},{"bike_id":"8f88f6f6-63f6-4d8b-a38a-0aaef2887c2e","system_id":"levelo_inurba_marseille","lat":43.304296,"lon":5.397513,"is_reserved":false,"is_disabled":false,"rental_uris":{"android":"levelo://app?vid=8f88f6f6-63f6-4d8b-a38a-0aaef2887c2e","ios":"levelo://app?vid=8f88f6f6-63f6-4d8b-a38a-0aaef2887c2e"},"vehicle_type_id":"4","last_reported":1714932503,"current_range_meters":19600,"station_id":"ce4bh092rcd13ifvqd20","pricing_plan_id":"cebpf4jnsgd1na2vs0mg"},{"bike_id":"1832cc4d-9340-4cb2-967a-e080ccc52e11","system_id":"levelo_inurba_marseille","lat":43.29581,"lon":5.37508,"is_reserved":false,"is_disabled":false,"rental_uris":{"android":"levelo://app?vid=1832cc4d-9340-4cb2-967a-e080ccc52e11","ios":"levelo://app?vid=1832cc4d-9340-4cb2-967a-e080ccc52e11"},"vehicle_type_id":"4","last_reported":1714932503,"current_range_meters":8800,"station_id":"ce4bgh92rcd13ifvqb50","pricing_plan_id":"cebpf4jnsgd1na2vs0mg"},{"bike_id":"bff30385-4f44-454b-a136-0d9067543934","system_id":"levelo_inurba_marseille","lat":43.29795,"lon":5.38092,"is_reserved":false,"is_disabled":false,"rental_uris":{"android":"levelo://app?vid=bff30385-4f44-454b-a136-0d9067543934","ios":"levelo://app?vid=bff30385-4f44-454b-a136-0d9067543934"},"vehicle_type_id":"4","last_reported":1714932503,"current_range_meters":0,"station_id":"ce4bgip2rcd13ifvqbb0","pricing_plan_id":"cebpf4jnsgd1na2vs0mg"},{"bike_id":"2b0490e6-e2e9-4fa2-abad-f63be4de755d","system_id":"levelo_inurba_marseille","lat":43.295748,"lon":5.37522,"is_reserved":false,"is_disabled":false,"rental_uris":{"android":"levelo://app?vid=2b0490e6-e2e9-4fa2-abad-f63be4de755d","ios":"levelo://app?vid=2b0490e6-e2e9-4fa2-abad-f63be4de755d"},"vehicle_type_id":"4","last_reported":1714932503,"current_range_meters":400,"station_id":"ce4bgh92rcd13ifvqb50","pricing_plan_id":"cebpf4jnsgd1na2vs0mg"},{"bike_id":"6cdb9a13-8958-4c04-a43d-52f5b5c80e24","system_id":"levelo_inurba_marseille","lat":43.298037,"lon":5.381066,"is_reserved":false,"is_disabled":false,"rental_uris":{"android":"levelo://app?vid=6cdb9a13-8958-4c04-a43d-52f5b5c80e24","ios":"levelo://app?vid=6cdb9a13-8958-4c04-a43d-52f5b5c80e24"},"vehicle_type_id":"4","last_reported":1714932503,"current_range_meters":9200,"station_id":"ce4bgip2rcd13ifvqbb0","pricing_plan_id":"cebpf4jnsgd1na2vs0mg"},{"bike_id":"02cc71ca-0648-493d-a894-89798fc75d13","system_id":"levelo_inurba_marseille","lat":43.297914,"lon":5.381204,"is_reserved":false,"is_disabled":false,"rental_uris":{"android":"levelo://app?vid=02cc71ca-0648-493d-a894-89798fc75d13","ios":"levelo://app?vid=02cc71ca-0648-493d-a894-89798fc75d13"},"vehicle_type_id":"4","last_reported":1714932503,"current_range_meters":0,"station_id":"ce4bgip2rcd13ifvqbb0","pricing_plan_id":"cebpf4jnsgd1na2vs0mg"},{"bike_id":"ce6bb2e5-ba67-4b8c-ab24-217c88962d19","system_id":"levelo_inurba_marseille","lat":43.295748,"lon":5.37522,"is_reserved":false,"is_disabled":false,"rental_uris":{"android":"levelo://app?vid=ce6bb2e5-ba67-4b8c-ab24-217c88962d19","ios":"levelo://app?vid=ce6bb2e5-ba67-4b8c-ab24-217c88962d19"},"vehicle_type_id":"4","last_reported":1714932503,"current_range_meters":13200,"station_id":"ce4bgh92rcd13ifvqb50","pricing_plan_id":"cebpf4jnsgd1na2vs0mg"},{"bike_id":"5ed89b21-a634-4c3d-9a99-ed880782cd61","system_id":"levelo_inurba_marseille","lat":43.296263,"lon":5.377094,"is_reserved":false,"is_disabled":false,"rental_uris":{"android":"levelo://app?vid=5ed89b21-a634-4c3d-9a99-ed880782cd61","ios":"levelo://app?vid=5ed89b21-a634-4c3d-9a99-ed880782cd61"},"vehicle_type_id":"4","last_reported":1714932503,"current_range_meters":2800,"station_id":"ce4bgi92rcd13ifvqb90","pricing_plan_id":"cebpf4jnsgd1na2vs0mg"},{"bike_id":"e01b59dc-85d7-4097-bb66-658ddb39fb96","system_id":"levelo_inurba_marseille","lat":43.29611,"lon":5.37741,"is_reserved":false,"is_disabled":false,"rental_uris":{"android":"levelo://app?vid=e01b59dc-85d7-4097-bb66-658ddb39fb96","ios":"levelo://app?vid=e01b59dc-85d7-4097-bb66-658ddb39fb96"},"vehicle_type_id":"4","last_reported":1714932503,"current_range_meters":2400,"station_id":"ce4bgi92rcd13ifvqb90","pricing_plan_id":"cebpf4jnsgd1na2vs0mg"},{"bike_id":"4ddd541f-a91c-4332-af75-af1d398e6841","system_id":"levelo_inurba_marseille","lat":43.296277,"lon":5.377108,"is_reserved":false,"is_disabled":false,"rental_uris":{"android":"levelo://app?vid=4ddd541f-a91c-4332-af75-af1d398e6841","ios":"levelo://app?vid=4ddd541f-a91c-4332-af75-af1d398e6841"},"vehicle_type_id":"4","last_reported":1714932503,"current_range_meters":0,"station_id":"ce4bgi92rcd13ifvqb90","pricing_plan_id":"cebpf4jnsgd1na2vs0mg"},{"bike_id":"4bf1367c-d047-43df-9487-8ab1f8fdbed2","system_id":"levelo_inurba_marseille","lat":43.296263,"lon":5.377094,"is_reserved":false,"is_disabled":false,"rental_uris":{"android":"levelo://app?vid=4bf1367c-d047-43df-9487-8ab1f8fdbed2","ios":"levelo://app?vid=4bf1367c-d047-43df-9487-8ab1f8fdbed2"},"vehicle_type_id":"4","last_reported":1714932503,"current_range_meters":2400,"station_id":"ce4bgi92rcd13ifvqb90","pricing_plan_id":"cebpf4jnsgd1na2vs0mg"},{"bike_id":"2aad623e-e919-40fc-a498-476ba1351358","system_id":"levelo_inurba_marseille","lat":43.29979,"lon":5.38482,"is_reserved":false,"is_disabled":false,"rental_uris":{"android":"levelo://app?vid=2aad623e-e919-40fc-a498-476ba1351358","ios":"levelo://app?vid=2aad623e-e919-40fc-a498-476ba1351358"},"vehicle_type_id":"4","last_reported":1714932503,"current_range_meters":0,"station_id":"ce4bgj92rcd13ifvqbd0","pricing_plan_id":"cebpf4jnsgd1na2vs0mg"},{"bike_id":"e52e44b0-856f-42c5-a4dc-75b5c396c2c3","system_id":"levelo_inurba_marseille","lat":43.299717,"lon":5.384845,"is_reserved":false,"is_disabled":false,"rental_uris":{"android":"levelo://app?vid=e52e44b0-856f-42c5-a4dc-75b5c396c2c3","ios":"levelo://app?vid=e52e44b0-856f-42c5-a4dc-75b5c396c2c3"},"vehicle_type_id":"4","last_reported":1714932503,"current_range_meters":0,"station_id":"ce4bgj92rcd13ifvqbd0","pricing_plan_id":"cebpf4jnsgd1na2vs0mg"},{"bike_id":"bd82215a-9095-409d-ac5f-e421d282b6fc","system_id":"levelo_inurba_marseille","lat":43.29966,"lon":5.38489,"is_reserved":false,"is_disabled":false,"rental_uris":{"android":"levelo://app?vid=bd82215a-9095-409d-ac5f-e421d282b6fc","ios":"levelo://app?vid=bd82215a-9095-409d-ac5f-e421d282b6fc"},"vehicle_type_id":"4","last_reported":1714932503,"current_range_meters":0,"station_id":"ce4bgj92rcd13ifvqbd0","pricing_plan_id":"cebpf4jnsgd1na2vs0mg"},{"bike_id":"ade79891-89f5-47e8-8f3d-4e867760f8e6","system_id":"levelo_inurba_marseille","lat":43.299717,"lon":5.384845,"is_reserved":false,"is_disabled":false,"rental_uris":{"android":"levelo://app?vid=ade79891-89f5-47e8-8f3d-4e867760f8e6","ios":"levelo://app?vid=ade79891-89f5-47e8-8f3d-4e867760f8e6"},"vehicle_type_id":"4","last_reported":1714932503,"current_range_meters":0,"station_id":"ce4bgj92rcd13ifvqbd0","pricing_plan_id":"cebpf4jnsgd1na2vs0mg"},{"bike_id":"c6266137-e58f-47e6-a89f-7d8f29e1b93b","system_id":"levelo_inurba_marseille","lat":43.29516,"lon":5.37502,"is_reserved":false,"is_disabled":false,"rental_uris":{"android":"levelo://app?vid=c6266137-e58f-47e6-a89f-7d8f29e1b93b","ios":"levelo://app?vid=c6266137-e58f-47e6-a89f-7d8f29e1b93b"},"vehicle_type_id":"4","last_reported":1714932503,"current_range_meters":0,"station_id":"ce4bgkp2rcd13ifvqbmg","pricing_plan_id":"cebpf4jnsgd1na2vs0mg"},{"bike_id":"1680aee8-6f41-4b74-a038-3664aea5aeb0","system_id":"levelo_inurba_marseille","lat":43.29953,"lon":5.38491,"is_reserved":false,"is_disabled":false,"rental_uris":{"android":"levelo://app?vid=1680aee8-6f41-4b74-a038-3664aea5aeb0","ios":"levelo://app?vid=1680aee8-6f41-4b74-a038-3664aea5aeb0"},"vehicle_type_id":"4","last_reported":1714932503,"current_range_meters":0,"station_id":"ce4bgj92rcd13ifvqbd0","pricing_plan_id":"cebpf4jnsgd1na2vs0mg"},{"bike_id":"b274a0f1-606e-47e7-884a-93425f45dcef","system_id":"levelo_inurba_marseille","lat":43.32367,"lon":5.388836,"is_reserved":false,"is_disabled":false,"rental_uris":{"android":"levelo://app?vid=b274a0f1-606e-47e7-884a-93425f45dcef","ios":"levelo://app?vid=b274a0f1-606e-47e7-884a-93425f45dcef"},"vehicle_type_id":"4","last_reported":1714932503,"current_range_meters":19200,"station_id":"ce4bhqp2rcd13ifvqhog","pricing_plan_id":"cebpf4jnsgd1na2vs0mg"},{"bike_id":"2ea73606-ba82-4619-919f-1d5025ae4d38","system_id":"levelo_inurba_marseille","lat":43.323637,"lon":5.388833,"is_reserved":false,"is_disabled":false,"rental_uris":{"android":"levelo://app?vid=2ea73606-ba82-4619-919f-1d5025ae4d38","ios":"levelo://app?vid=2ea73606-ba82-4619-919f-1d5025ae4d38"},"vehicle_type_id":"4","last_reported":1714932503,"current_range_meters":0,"station_id":"ce4bhqp2rcd13ifvqhog","pricing_plan_id":"cebpf4jnsgd1na2vs0mg"},{"bike_id":"4a39b302-b5a2-4539-b586-f66857dbb7c6","system_id":"levelo_inurba_marseille","lat":43.32367,"lon":5.38886,"is_reserved":false,"is_disabled":false,"rental_uris":{"android":"levelo://app?vid=4a39b302-b5a2-4539-b586-f66857dbb7c6","ios":"levelo://app?vid=4a39b302-b5a2-4539-b586-f66857dbb7c6"},"vehicle_type_id":"4","last_reported":1714932503,"current_range_meters":0,"station_id":"ce4bhqp2rcd13ifvqhog","pricing_plan_id":"cebpf4jnsgd1na2vs0mg"},{"bike_id":"15f020f4-65ae-4f97-81b1-bd7ee01c6161","system_id":"levelo_inurba_marseille","lat":43.29604,"lon":5.38104,"is_reserved":false,"is_disabled":false,"rental_uris":{"android":"levelo://app?vid=15f020f4-65ae-4f97-81b1-bd7ee01c6161","ios":"levelo://app?vid=15f020f4-65ae-4f97-81b1-bd7ee01c6161"},"vehicle_type_id":"4","last_reported":1714932503,"current_range_meters":9200,"station_id":"ce4bgl12rcd13ifvqbo0","pricing_plan_id":"cebpf4jnsgd1na2vs0mg"},{"bike_id":"ac399a7a-c3a8-4958-bba0-5b00baa0317d","system_id":"levelo_inurba_marseille","lat":43.29602,"lon":5.381084,"is_reserved":false,"is_disabled":false,"rental_uris":{"android":"levelo://app?vid=ac399a7a-c3a8-4958-bba0-5b00baa0317d","ios":"levelo://app?vid=ac399a7a-c3a8-4958-bba0-5b00baa0317d"},"vehicle_type_id":"4","last_reported":1714932503,"current_range_meters":400,"station_id":"ce4bgl12rcd13ifvqbo0","pricing_plan_id":"cebpf4jnsgd1na2vs0mg"},{"bike_id":"b98d1619-8109-4ebe-9407-847d2ba1a52b","system_id":"levelo_inurba_marseille","lat":43.29602,"lon":5.381084,"is_reserved":false,"is_disabled":false,"rental_uris":{"android":"levelo://app?vid=b98d1619-8109-4ebe-9407-847d2ba1a52b","ios":"levelo://app?vid=b98d1619-8109-4ebe-9407-847d2ba1a52b"},"vehicle_type_id":"4","last_reported":1714932503,"current_range_meters":4000,"station_id":"ce4bgl12rcd13ifvqbo0","pricing_plan_id":"cebpf4jnsgd1na2vs0mg"},{"bike_id":"f1613653-dabc-40e4-84aa-b53434f606cf","system_id":"levelo_inurba_marseille","lat":43.29602,"lon":5.381084,"is_reserved":false,"is_disabled":false,"rental_uris":{"android":"levelo://app?vid=f1613653-dabc-40e4-84aa-b53434f606cf","ios":"levelo://app?vid=f1613653-dabc-40e4-84aa-b53434f606cf"},"vehicle_type_id":"4","last_reported":1714932503,"current_range_meters":22800,"station_id":"ce4bgl12rcd13ifvqbo0","pricing_plan_id":"cebpf4jnsgd1na2vs0mg"},{"bike_id":"5b423be9-419e-4072-827e-13d9ac450a21","system_id":"levelo_inurba_marseille","lat":43.29602,"lon":5.381084,"is_reserved":false,"is_disabled":false,"rental_uris":{"android":"levelo://app?vid=5b423be9-419e-4072-827e-13d9ac450a21","ios":"levelo://app?vid=5b423be9-419e-4072-827e-13d9ac450a21"},"vehicle_type_id":"4","last_reported":1714932503,"current_range_meters":5600,"station_id":"ce4bgl12rcd13ifvqbo0","pricing_plan_id":"cebpf4jnsgd1na2vs0mg"},{"bike_id":"22f684e9-2597-4fed-8292-5082cd5a2155","system_id":"levelo_inurba_marseille","lat":43.306787,"lon":5.392943,"is_reserved":false,"is_disabled":false,"rental_uris":{"android":"levelo://app?vid=22f684e9-2597-4fed-8292-5082cd5a2155","ios":"levelo://app?vid=22f684e9-2597-4fed-8292-5082cd5a2155"},"vehicle_type_id":"4","last_reported":1714932503,"current_range_meters":0,"station_id":"","pricing_plan_id":"cebpf4jnsgd1na2vs0mg"},{"bike_id":"07d81044-dbcd-4c01-9fac-0f82b429be37","system_id":"levelo_inurba_marseille","lat":43.29277,"lon":5.36835,"is_reserved":false,"is_disabled":false,"rental_uris":{"android":"levelo://app?vid=07d81044-dbcd-4c01-9fac-0f82b429be37","ios":"levelo://app?vid=07d81044-dbcd-4c01-9fac-0f82b429be37"},"vehicle_type_id":"4","last_reported":1714932503,"current_range_meters":0,"station_id":"ce4bhbp2rcd13ifvqesg","pricing_plan_id":"cebpf4jnsgd1na2vs0mg"},{"bike_id":"95180a22-de3a-4661-81e3-17d1cf0e14a8","system_id":"levelo_inurba_marseille","lat":43.29274,"lon":5.36843,"is_reserved":false,"is_disabled":false,"rental_uris":{"android":"levelo://app?vid=95180a22-de3a-4661-81e3-17d1cf0e14a8","ios":"levelo://app?vid=95180a22-de3a-4661-81e3-17d1cf0e14a8"},"vehicle_type_id":"4","last_reported":1714932503,"current_range_meters":26400,"station_id":"ce4bhbp2rcd13ifvqesg","pricing_plan_id":"cebpf4jnsgd1na2vs0mg"},{"bike_id":"1e417815-de1c-4e06-94a2-e0723ace7e09","system_id":"levelo_inurba_marseille","lat":43.29273,"lon":5.36839,"is_reserved":false,"is_disabled":false,"rental_uris":{"android":"levelo://app?vid=1e417815-de1c-4e06-94a2-e0723ace7e09","ios":"levelo://app?vid=1e417815-de1c-4e06-94a2-e0723ace7e09"},"vehicle_type_id":"4","last_reported":1714932503,"current_range_meters":13200,"station_id":"ce4bhbp2rcd13ifvqesg","pricing_plan_id":"cebpf4jnsgd1na2vs0mg"},{"bike_id":"fc0372ce-475f-4095-beb0-1e4fefb91679","system_id":"levelo_inurba_marseille","lat":43.292749,"lon":5.368402,"is_reserved":false,"is_disabled":false,"rental_uris":{"android":"levelo://app?vid=fc0372ce-475f-4095-beb0-1e4fefb91679","ios":"levelo://app?vid=fc0372ce-475f-4095-beb0-1e4fefb91679"},"vehicle_type_id":"4","last_reported":1714932503,"current_range_meters":6000,"station_id":"ce4bhbp2rcd13ifvqesg","pricing_plan_id":"cebpf4jnsgd1na2vs0mg"},{"bike_id":"09f7cb5d-9edd-47d2-a04e-f1b90dc48fc4","system_id":"levelo_inurba_marseille","lat":43.292749,"lon":5.368402,"is_reserved":false,"is_disabled":false,"rental_uris":{"android":"levelo://app?vid=09f7cb5d-9edd-47d2-a04e-f1b90dc48fc4","ios":"levelo://app?vid=09f7cb5d-9edd-47d2-a04e-f1b90dc48fc4"},"vehicle_type_id":"4","last_reported":1714932503,"current_range_meters":20400,"station_id":"ce4bhbp2rcd13ifvqesg","pricing_plan_id":"cebpf4jnsgd1na2vs0mg"},{"bike_id":"0dd8e22c-f711-40a4-9cd3-3bead61c42e1","system_id":"levelo_inurba_marseille","lat":43.29268,"lon":5.3685,"is_reserved":false,"is_disabled":false,"rental_uris":{"android":"levelo://app?vid=0dd8e22c-f711-40a4-9cd3-3bead61c42e1","ios":"levelo://app?vid=0dd8e22c-f711-40a4-9cd3-3bead61c42e1"},"vehicle_type_id":"4","last_reported":1714932503,"current_range_meters":0,"station_id":"ce4bhbp2rcd13ifvqesg","pricing_plan_id":"cebpf4jnsgd1na2vs0mg"},{"bike_id":"12160324-8abf-4c73-be9a-23a44009d794","system_id":"levelo_inurba_marseille","lat":43.293009,"lon":5.374584,"is_reserved":false,"is_disabled":false,"rental_uris":{"android":"levelo://app?vid=12160324-8abf-4c73-be9a-23a44009d794","ios":"levelo://app?vid=12160324-8abf-4c73-be9a-23a44009d794"},"vehicle_type_id":"4","last_reported":1714932503,"current_range_meters":1200,"station_id":"ce4bgi12rcd13ifvqb70","pricing_plan_id":"cebpf4jnsgd1na2vs0mg"},{"bike_id":"af905aa2-3e73-44fb-8385-f496f8803d18","system_id":"levelo_inurba_marseille","lat":43.29302,"lon":5.374543,"is_reserved":false,"is_disabled":false,"rental_uris":{"android":"levelo://app?vid=af905aa2-3e73-44fb-8385-f496f8803d18","ios":"levelo://app?vid=af905aa2-3e73-44fb-8385-f496f8803d18"},"vehicle_type_id":"4","last_reported":1714932503,"current_range_meters":0,"station_id":"ce4bgi12rcd13ifvqb70","pricing_plan_id":"cebpf4jnsgd1na2vs0mg"},{"bike_id":"418d8cb9-65bf-4b97-a51a-10ce52a36fd4","system_id":"levelo_inurba_marseille","lat":43.293009,"lon":5.374584,"is_reserved":false,"is_disabled":false,"rental_uris":{"android":"levelo://app?vid=418d8cb9-65bf-4b97-a51a-10ce52a36fd4","ios":"levelo://app?vid=418d8cb9-65bf-4b97-a51a-10ce52a36fd4"},"vehicle_type_id":"4","last_reported":1714932503,"current_range_meters":12800,"station_id":"ce4bgi12rcd13ifvqb70","pricing_plan_id":"cebpf4jnsgd1na2vs0mg"},{"bike_id":"cd1d2595-cd89-474c-b993-6eee11f4c285","system_id":"levelo_inurba_marseille","lat":43.293009,"lon":5.374584,"is_reserved":false,"is_disabled":false,"rental_uris":{"android":"levelo://app?vid=cd1d2595-cd89-474c-b993-6eee11f4c285","ios":"levelo://app?vid=cd1d2595-cd89-474c-b993-6eee11f4c285"},"vehicle_type_id":"4","last_reported":1714932503,"current_range_meters":0,"station_id":"ce4bgi12rcd13ifvqb70","pricing_plan_id":"cebpf4jnsgd1na2vs0mg"},{"bike_id":"85b92c80-96e4-4b92-b186-6a65cabd7adf","system_id":"levelo_inurba_marseille","lat":43.293009,"lon":5.374584,"is_reserved":false,"is_disabled":false,"rental_uris":{"android":"levelo://app?vid=85b92c80-96e4-4b92-b186-6a65cabd7adf","ios":"levelo://app?vid=85b92c80-96e4-4b92-b186-6a65cabd7adf"},"vehicle_type_id":"4","last_reported":1714932503,"current_range_meters":4400,"station_id":"ce4bgi12rcd13ifvqb70","pricing_plan_id":"cebpf4jnsgd1na2vs0mg"},{"bike_id":"a08a5620-5ef5-4c95-bb16-b69441eaa9cb","system_id":"levelo_inurba_marseille","lat":43.305994,"lon":5.393687,"is_reserved":false,"is_disabled":false,"rental_uris":{"android":"levelo://app?vid=a08a5620-5ef5-4c95-bb16-b69441eaa9cb","ios":"levelo://app?vid=a08a5620-5ef5-4c95-bb16-b69441eaa9cb"},"vehicle_type_id":"4","last_reported":1714932503,"current_range_meters":11600,"station_id":"ce4bh0p2rcd13ifvqd80","pricing_plan_id":"cebpf4jnsgd1na2vs0mg"},{"bike_id":"9052ef1a-0531-42af-b1cf-1b86b4b0b721","system_id":"levelo_inurba_marseille","lat":43.293009,"lon":5.374584,"is_reserved":false,"is_disabled":false,"rental_uris":{"android":"levelo://app?vid=9052ef1a-0531-42af-b1cf-1b86b4b0b721","ios":"levelo://app?vid=9052ef1a-0531-42af-b1cf-1b86b4b0b721"},"vehicle_type_id":"4","last_reported":1714932503,"current_range_meters":20000,"station_id":"ce4bgi12rcd13ifvqb70","pricing_plan_id":"cebpf4jnsgd1na2vs0mg"},{"bike_id":"c3d882bd-f5d3-4236-8d64-ccbf163cf3b5","system_id":"levelo_inurba_marseille","lat":43.293009,"lon":5.374584,"is_reserved":false,"is_disabled":false,"rental_uris":{"android":"levelo://app?vid=c3d882bd-f5d3-4236-8d64-ccbf163cf3b5","ios":"levelo://app?vid=c3d882bd-f5d3-4236-8d64-ccbf163cf3b5"},"vehicle_type_id":"4","last_reported":1714932503,"current_range_meters":0,"station_id":"ce4bgi12rcd13ifvqb70","pricing_plan_id":"cebpf4jnsgd1na2vs0mg"},{"bike_id":"9bbd4915-e729-4878-99a1-042ae4638171","system_id":"levelo_inurba_marseille","lat":43.293009,"lon":5.374584,"is_reserved":false,"is_disabled":false,"rental_uris":{"android":"levelo://app?vid=9bbd4915-e729-4878-99a1-042ae4638171","ios":"levelo://app?vid=9bbd4915-e729-4878-99a1-042ae4638171"},"vehicle_type_id":"4","last_reported":1714932503,"current_range_meters":13200,"station_id":"ce4bgi12rcd13ifvqb70","pricing_plan_id":"cebpf4jnsgd1na2vs0mg"},{"bike_id":"58f8701a-dd7b-400c-9ae8-426866695d6e","system_id":"levelo_inurba_marseille","lat":43.293009,"lon":5.374584,"is_reserved":false,"is_disabled":false,"rental_uris":{"android":"levelo://app?vid=58f8701a-dd7b-400c-9ae8-426866695d6e","ios":"levelo://app?vid=58f8701a-dd7b-400c-9ae8-426866695d6e"},"vehicle_type_id":"4","last_reported":1714932503,"current_range_meters":4000,"station_id":"ce4bgi12rcd13ifvqb70","pricing_plan_id":"cebpf4jnsgd1na2vs0mg"},{"bike_id":"36cf3373-229b-47d9-a235-b02fc130c388","system_id":"levelo_inurba_marseille","lat":43.293009,"lon":5.374584,"is_reserved":false,"is_disabled":false,"rental_uris":{"android":"levelo://app?vid=36cf3373-229b-47d9-a235-b02fc130c388","ios":"levelo://app?vid=36cf3373-229b-47d9-a235-b02fc130c388"},"vehicle_type_id":"4","last_reported":1714932503,"current_range_meters":14400,"station_id":"ce4bgi12rcd13ifvqb70","pricing_plan_id":"cebpf4jnsgd1na2vs0mg"},{"bike_id":"c2ade845-705e-469f-91dc-f35571f05383","system_id":"levelo_inurba_marseille","lat":43.293009,"lon":5.374584,"is_reserved":false,"is_disabled":false,"rental_uris":{"android":"levelo://app?vid=c2ade845-705e-469f-91dc-f35571f05383","ios":"levelo://app?vid=c2ade845-705e-469f-91dc-f35571f05383"},"vehicle_type_id":"4","last_reported":1714932503,"current_range_meters":0,"station_id":"ce4bgi12rcd13ifvqb70","pricing_plan_id":"cebpf4jnsgd1na2vs0mg"},{"bike_id":"4e654e70-0b22-47d4-b8b5-29ebf527ec2b","system_id":"levelo_inurba_marseille","lat":43.293009,"lon":5.374584,"is_reserved":false,"is_disabled":false,"rental_uris":{"android":"levelo://app?vid=4e654e70-0b22-47d4-b8b5-29ebf527ec2b","ios":"levelo://app?vid=4e654e70-0b22-47d4-b8b5-29ebf527ec2b"},"vehicle_type_id":"4","last_reported":1714932503,"current_range_meters":3200,"station_id":"ce4bgi12rcd13ifvqb70","pricing_plan_id":"cebpf4jnsgd1na2vs0mg"},{"bike_id":"5754cdd6-5d3c-4860-8d2e-e2ebe926d821","system_id":"levelo_inurba_marseille","lat":43.303002,"lon":5.392142,"is_reserved":false,"is_disabled":false,"rental_uris":{"android":"levelo://app?vid=5754cdd6-5d3c-4860-8d2e-e2ebe926d821","ios":"levelo://app?vid=5754cdd6-5d3c-4860-8d2e-e2ebe926d821"},"vehicle_type_id":"4","last_reported":1714932503,"current_range_meters":10400,"station_id":"ce4bgkh2rcd13ifvqbk0","pricing_plan_id":"cebpf4jnsgd1na2vs0mg"},{"bike_id":"cd7bb72c-d975-45eb-8aaf-d93c9f20ff45","system_id":"levelo_inurba_marseille","lat":43.302992,"lon":5.392136,"is_reserved":false,"is_disabled":false,"rental_uris":{"android":"levelo://app?vid=cd7bb72c-d975-45eb-8aaf-d93c9f20ff45","ios":"levelo://app?vid=cd7bb72c-d975-45eb-8aaf-d93c9f20ff45"},"vehicle_type_id":"4","last_reported":1714932503,"current_range_meters":400,"station_id":"ce4bgkh2rcd13ifvqbk0","pricing_plan_id":"cebpf4jnsgd1na2vs0mg"},{"bike_id":"90bd3bf8-dfe9-4f10-9f6c-bb7214b31c2a","system_id":"levelo_inurba_marseille","lat":43.303002,"lon":5.392142,"is_reserved":false,"is_disabled":false,"rental_uris":{"android":"levelo://app?vid=90bd3bf8-dfe9-4f10-9f6c-bb7214b31c2a","ios":"levelo://app?vid=90bd3bf8-dfe9-4f10-9f6c-bb7214b31c2a"},"vehicle_type_id":"4","last_reported":1714932503,"current_range_meters":4800,"station_id":"ce4bgkh2rcd13ifvqbk0","pricing_plan_id":"cebpf4jnsgd1na2vs0mg"},{"bike_id":"0c66adba-04fc-4f1b-bebd-e4d00ce9e8e3","system_id":"levelo_inurba_marseille","lat":43.29377,"lon":5.37859,"is_reserved":false,"is_disabled":false,"rental_uris":{"android":"levelo://app?vid=0c66adba-04fc-4f1b-bebd-e4d00ce9e8e3","ios":"levelo://app?vid=0c66adba-04fc-4f1b-bebd-e4d00ce9e8e3"},"vehicle_type_id":"4","last_reported":1714932503,"current_range_meters":0,"station_id":"ce4bgjh2rcd13ifvqbf0","pricing_plan_id":"cebpf4jnsgd1na2vs0mg"},{"bike_id":"585f85ed-319e-4943-acf0-510d0ab87350","system_id":"levelo_inurba_marseille","lat":43.2936,"lon":5.37835,"is_reserved":false,"is_disabled":false,"rental_uris":{"android":"levelo://app?vid=585f85ed-319e-4943-acf0-510d0ab87350","ios":"levelo://app?vid=585f85ed-319e-4943-acf0-510d0ab87350"},"vehicle_type_id":"4","last_reported":1714932503,"current_range_meters":22400,"station_id":"ce4bgjh2rcd13ifvqbf0","pricing_plan_id":"cebpf4jnsgd1na2vs0mg"},{"bike_id":"c7c9d94d-82e7-4d3c-b45f-2690d00ee522","system_id":"levelo_inurba_marseille","lat":43.2936,"lon":5.37835,"is_reserved":false,"is_disabled":false,"rental_uris":{"android":"levelo://app?vid=c7c9d94d-82e7-4d3c-b45f-2690d00ee522","ios":"levelo://app?vid=c7c9d94d-82e7-4d3c-b45f-2690d00ee522"},"vehicle_type_id":"4","last_reported":1714932503,"current_range_meters":6000,"station_id":"ce4bgjh2rcd13ifvqbf0","pricing_plan_id":"cebpf4jnsgd1na2vs0mg"},{"bike_id":"cc0c76df-877a-4509-a1db-bd585126a16d","system_id":"levelo_inurba_marseille","lat":43.300852,"lon":5.390859,"is_reserved":false,"is_disabled":false,"rental_uris":{"android":"levelo://app?vid=cc0c76df-877a-4509-a1db-bd585126a16d","ios":"levelo://app?vid=cc0c76df-877a-4509-a1db-bd585126a16d"},"vehicle_type_id":"4","last_reported":1714932503,"current_range_meters":22000,"station_id":"ce4bh192rcd13ifvqdb0","pricing_plan_id":"cebpf4jnsgd1na2vs0mg"},{"bike_id":"b031ee42-b0d0-4cd4-a8e1-4d8e6f9d3b79","system_id":"levelo_inurba_marseille","lat":43.29227,"lon":5.3611,"is_reserved":false,"is_disabled":false,"rental_uris":{"android":"levelo://app?vid=b031ee42-b0d0-4cd4-a8e1-4d8e6f9d3b79","ios":"levelo://app?vid=b031ee42-b0d0-4cd4-a8e1-4d8e6f9d3b79"},"vehicle_type_id":"4","last_reported":1714932503,"current_range_meters":0,"station_id":"ce4bhbh2rcd13ifvqeqg","pricing_plan_id":"cebpf4jnsgd1na2vs0mg"},{"bike_id":"db60a873-7e5f-46c7-ac5b-f3d4672c624c","system_id":"levelo_inurba_marseille","lat":43.293009,"lon":5.374584,"is_reserved":false,"is_disabled":false,"rental_uris":{"android":"levelo://app?vid=db60a873-7e5f-46c7-ac5b-f3d4672c624c","ios":"levelo://app?vid=db60a873-7e5f-46c7-ac5b-f3d4672c624c"},"vehicle_type_id":"4","last_reported":1714932503,"current_range_meters":20000,"station_id":"ce4bgi12rcd13ifvqb70","pricing_plan_id":"cebpf4jnsgd1na2vs0mg"},{"bike_id":"dbd5a5c7-3dcf-4c2b-a130-7e7e6105e84f","system_id":"levelo_inurba_marseille","lat":43.2922,"lon":5.36049,"is_reserved":false,"is_disabled":false,"rental_uris":{"android":"levelo://app?vid=dbd5a5c7-3dcf-4c2b-a130-7e7e6105e84f","ios":"levelo://app?vid=dbd5a5c7-3dcf-4c2b-a130-7e7e6105e84f"},"vehicle_type_id":"4","last_reported":1714932503,"current_range_meters":0,"station_id":"ce4bhbh2rcd13ifvqeqg","pricing_plan_id":"cebpf4jnsgd1na2vs0mg"},{"bike_id":"f27ff229-0054-4fa3-81b3-1a9092c5dd19","system_id":"levelo_inurba_marseille","lat":43.29217,"lon":5.36054,"is_reserved":false,"is_disabled":false,"rental_uris":{"android":"levelo://app?vid=f27ff229-0054-4fa3-81b3-1a9092c5dd19","ios":"levelo://app?vid=f27ff229-0054-4fa3-81b3-1a9092c5dd19"},"vehicle_type_id":"4","last_reported":1714932503,"current_range_meters":0,"station_id":"ce4bhbh2rcd13ifvqeqg","pricing_plan_id":"cebpf4jnsgd1na2vs0mg"},{"bike_id":"45afe380-ccf6-468a-bfa3-110f82fd6dd8","system_id":"levelo_inurba_marseille","lat":43.298764,"lon":5.388973,"is_reserved":false,"is_disabled":false,"rental_uris":{"android":"levelo://app?vid=45afe380-ccf6-468a-bfa3-110f82fd6dd8","ios":"levelo://app?vid=45afe380-ccf6-468a-bfa3-110f82fd6dd8"},"vehicle_type_id":"4","last_reported":1714932503,"current_range_meters":14400,"station_id":"ce4bh392rcd13ifvqdl0","pricing_plan_id":"cebpf4jnsgd1na2vs0mg"},{"bike_id":"47089ff8-77be-4bea-9ec2-889322ec10ac","system_id":"levelo_inurba_marseille","lat":43.29878,"lon":5.38902,"is_reserved":false,"is_disabled":false,"rental_uris":{"android":"levelo://app?vid=47089ff8-77be-4bea-9ec2-889322ec10ac","ios":"levelo://app?vid=47089ff8-77be-4bea-9ec2-889322ec10ac"},"vehicle_type_id":"4","last_reported":1714932503,"current_range_meters":0,"station_id":"ce4bh392rcd13ifvqdl0","pricing_plan_id":"cebpf4jnsgd1na2vs0mg"},{"bike_id":"c983c83d-7868-42f2-8d28-00acb459aab4","system_id":"levelo_inurba_marseille","lat":43.298764,"lon":5.388973,"is_reserved":false,"is_disabled":false,"rental_uris":{"android":"levelo://app?vid=c983c83d-7868-42f2-8d28-00acb459aab4","ios":"levelo://app?vid=c983c83d-7868-42f2-8d28-00acb459aab4"},"vehicle_type_id":"4","last_reported":1714932503,"current_range_meters":0,"station_id":"ce4bh392rcd13ifvqdl0","pricing_plan_id":"cebpf4jnsgd1na2vs0mg"},{"bike_id":"a2e6b5ce-5719-451b-b9c3-7e6fcf1ed715","system_id":"levelo_inurba_marseille","lat":43.298764,"lon":5.388973,"is_reserved":false,"is_disabled":false,"rental_uris":{"android":"levelo://app?vid=a2e6b5ce-5719-451b-b9c3-7e6fcf1ed715","ios":"levelo://app?vid=a2e6b5ce-5719-451b-b9c3-7e6fcf1ed715"},"vehicle_type_id":"4","last_reported":1714932503,"current_range_meters":23600,"station_id":"ce4bh392rcd13ifvqdl0","pricing_plan_id":"cebpf4jnsgd1na2vs0mg"},{"bike_id":"a1cdc4f6-ac2f-4963-9791-843568c895cc","system_id":"levelo_inurba_marseille","lat":43.291671,"lon":5.371575,"is_reserved":false,"is_disabled":false,"rental_uris":{"android":"levelo://app?vid=a1cdc4f6-ac2f-4963-9791-843568c895cc","ios":"levelo://app?vid=a1cdc4f6-ac2f-4963-9791-843568c895cc"},"vehicle_type_id":"4","last_reported":1714932503,"current_range_meters":3200,"station_id":"ce4bha92rcd13ifvqeh0","pricing_plan_id":"cebpf4jnsgd1na2vs0mg"},{"bike_id":"ea180635-cbc8-44b8-98e2-d1485aed46fa","system_id":"levelo_inurba_marseille","lat":43.291994,"lon":5.357886,"is_reserved":false,"is_disabled":false,"rental_uris":{"android":"levelo://app?vid=ea180635-cbc8-44b8-98e2-d1485aed46fa","ios":"levelo://app?vid=ea180635-cbc8-44b8-98e2-d1485aed46fa"},"vehicle_type_id":"4","last_reported":1714932503,"current_range_meters":8400,"station_id":"ce4bhb12rcd13ifvqel0","pricing_plan_id":"cebpf4jnsgd1na2vs0mg"},{"bike_id":"aa062f21-c182-4725-9210-e417c9c06a00","system_id":"levelo_inurba_marseille","lat":43.313291,"lon":5.396838,"is_reserved":false,"is_disabled":false,"rental_uris":{"android":"levelo://app?vid=aa062f21-c182-4725-9210-e417c9c06a00","ios":"levelo://app?vid=aa062f21-c182-4725-9210-e417c9c06a00"},"vehicle_type_id":"4","last_reported":1714932503,"current_range_meters":6800,"station_id":"ce4bgvp2rcd13ifvqcu0","pricing_plan_id":"cebpf4jnsgd1na2vs0mg"},{"bike_id":"e7eb311d-6e9e-4921-80d5-dd3b324a7d13","system_id":"levelo_inurba_marseille","lat":43.313291,"lon":5.396838,"is_reserved":false,"is_disabled":false,"rental_uris":{"android":"levelo://app?vid=e7eb311d-6e9e-4921-80d5-dd3b324a7d13","ios":"levelo://app?vid=e7eb311d-6e9e-4921-80d5-dd3b324a7d13"},"vehicle_type_id":"4","last_reported":1714932503,"current_range_meters":28800,"station_id":"ce4bgvp2rcd13ifvqcu0","pricing_plan_id":"cebpf4jnsgd1na2vs0mg"},{"bike_id":"a4ea0228-be7e-4ad8-9da1-24576ee9b40d","system_id":"levelo_inurba_marseille","lat":43.313291,"lon":5.396838,"is_reserved":false,"is_disabled":false,"rental_uris":{"android":"levelo://app?vid=a4ea0228-be7e-4ad8-9da1-24576ee9b40d","ios":"levelo://app?vid=a4ea0228-be7e-4ad8-9da1-24576ee9b40d"},"vehicle_type_id":"4","last_reported":1714932503,"current_range_meters":4400,"station_id":"ce4bgvp2rcd13ifvqcu0","pricing_plan_id":"cebpf4jnsgd1na2vs0mg"},{"bike_id":"8756721d-6736-48cf-9a73-f8f0b669f5ca","system_id":"levelo_inurba_marseille","lat":43.29529,"lon":5.385581,"is_reserved":false,"is_disabled":false,"rental_uris":{"android":"levelo://app?vid=8756721d-6736-48cf-9a73-f8f0b669f5ca","ios":"levelo://app?vid=8756721d-6736-48cf-9a73-f8f0b669f5ca"},"vehicle_type_id":"4","last_reported":1714932503,"current_range_meters":3600,"station_id":"ce4bgih2rcd13ifvqba0","pricing_plan_id":"cebpf4jnsgd1na2vs0mg"},{"bike_id":"4a90d86b-4ffe-4194-b9c5-5509a5d98b04","system_id":"levelo_inurba_marseille","lat":43.295421,"lon":5.385572,"is_reserved":false,"is_disabled":false,"rental_uris":{"android":"levelo://app?vid=4a90d86b-4ffe-4194-b9c5-5509a5d98b04","ios":"levelo://app?vid=4a90d86b-4ffe-4194-b9c5-5509a5d98b04"},"vehicle_type_id":"4","last_reported":1714932503,"current_range_meters":0,"station_id":"ce4bgih2rcd13ifvqba0","pricing_plan_id":"cebpf4jnsgd1na2vs0mg"},{"bike_id":"2a9a3619-75c1-407d-bf5b-22be940bd124","system_id":"levelo_inurba_marseille","lat":43.29529,"lon":5.385581,"is_reserved":false,"is_disabled":false,"rental_uris":{"android":"levelo://app?vid=2a9a3619-75c1-407d-bf5b-22be940bd124","ios":"levelo://app?vid=2a9a3619-75c1-407d-bf5b-22be940bd124"},"vehicle_type_id":"4","last_reported":1714932503,"current_range_meters":1600,"station_id":"ce4bgih2rcd13ifvqba0","pricing_plan_id":"cebpf4jnsgd1na2vs0mg"},{"bike_id":"ffd4c2d1-ad6b-4eeb-a4bb-cb5e8d79f516","system_id":"levelo_inurba_marseille","lat":43.29529,"lon":5.385581,"is_reserved":false,"is_disabled":false,"rental_uris":{"android":"levelo://app?vid=ffd4c2d1-ad6b-4eeb-a4bb-cb5e8d79f516","ios":"levelo://app?vid=ffd4c2d1-ad6b-4eeb-a4bb-cb5e8d79f516"},"vehicle_type_id":"4","last_reported":1714932503,"current_range_meters":22400,"station_id":"ce4bgih2rcd13ifvqba0","pricing_plan_id":"cebpf4jnsgd1na2vs0mg"},{"bike_id":"03e798f5-34d4-4634-a91a-32de6b09af12","system_id":"levelo_inurba_marseille","lat":43.29529,"lon":5.385581,"is_reserved":false,"is_disabled":false,"rental_uris":{"android":"levelo://app?vid=03e798f5-34d4-4634-a91a-32de6b09af12","ios":"levelo://app?vid=03e798f5-34d4-4634-a91a-32de6b09af12"},"vehicle_type_id":"4","last_reported":1714932503,"current_range_meters":2800,"station_id":"ce4bgih2rcd13ifvqba0","pricing_plan_id":"cebpf4jnsgd1na2vs0mg"},{"bike_id":"c4b2861e-2844-452f-a717-ade942d292f7","system_id":"levelo_inurba_marseille","lat":43.2953,"lon":5.38547,"is_reserved":false,"is_disabled":false,"rental_uris":{"android":"levelo://app?vid=c4b2861e-2844-452f-a717-ade942d292f7","ios":"levelo://app?vid=c4b2861e-2844-452f-a717-ade942d292f7"},"vehicle_type_id":"4","last_reported":1714932503,"current_range_meters":26000,"station_id":"ce4bgih2rcd13ifvqba0","pricing_plan_id":"cebpf4jnsgd1na2vs0mg"},{"bike_id":"019e0b88-a58c-458e-b691-c571a80f3b1a","system_id":"levelo_inurba_marseille","lat":43.29529,"lon":5.385581,"is_reserved":false,"is_disabled":false,"rental_uris":{"android":"levelo://app?vid=019e0b88-a58c-458e-b691-c571a80f3b1a","ios":"levelo://app?vid=019e0b88-a58c-458e-b691-c571a80f3b1a"},"vehicle_type_id":"4","last_reported":1714932503,"current_range_meters":4000,"station_id":"ce4bgih2rcd13ifvqba0","pricing_plan_id":"cebpf4jnsgd1na2vs0mg"},{"bike_id":"2517f457-20aa-4b98-a3a1-8d31f4923d6f","system_id":"levelo_inurba_marseille","lat":43.29529,"lon":5.38554,"is_reserved":false,"is_disabled":false,"rental_uris":{"android":"levelo://app?vid=2517f457-20aa-4b98-a3a1-8d31f4923d6f","ios":"levelo://app?vid=2517f457-20aa-4b98-a3a1-8d31f4923d6f"},"vehicle_type_id":"4","last_reported":1714932503,"current_range_meters":0,"station_id":"ce4bgih2rcd13ifvqba0","pricing_plan_id":"cebpf4jnsgd1na2vs0mg"},{"bike_id":"0a71a5d2-f7dc-4637-9655-c894de0066ce","system_id":"levelo_inurba_marseille","lat":43.293009,"lon":5.374584,"is_reserved":false,"is_disabled":false,"rental_uris":{"android":"levelo://app?vid=0a71a5d2-f7dc-4637-9655-c894de0066ce","ios":"levelo://app?vid=0a71a5d2-f7dc-4637-9655-c894de0066ce"},"vehicle_type_id":"4","last_reported":1714932503,"current_range_meters":21600,"station_id":"ce4bgi12rcd13ifvqb70","pricing_plan_id":"cebpf4jnsgd1na2vs0mg"},{"bike_id":"20d3f57b-8608-4e23-9995-b48bc2429b40","system_id":"levelo_inurba_marseille","lat":43.290779,"lon":5.371482,"is_reserved":false,"is_disabled":false,"rental_uris":{"android":"levelo://app?vid=20d3f57b-8608-4e23-9995-b48bc2429b40","ios":"levelo://app?vid=20d3f57b-8608-4e23-9995-b48bc2429b40"},"vehicle_type_id":"4","last_reported":1714932503,"current_range_meters":21200,"station_id":"ce4bh5p2rcd13ifvqe4g","pricing_plan_id":"cebpf4jnsgd1na2vs0mg"},{"bike_id":"32d2f15e-570d-4835-82cb-3e133cb8492c","system_id":"levelo_inurba_marseille","lat":43.290779,"lon":5.371482,"is_reserved":false,"is_disabled":false,"rental_uris":{"android":"levelo://app?vid=32d2f15e-570d-4835-82cb-3e133cb8492c","ios":"levelo://app?vid=32d2f15e-570d-4835-82cb-3e133cb8492c"},"vehicle_type_id":"4","last_reported":1714932503,"current_range_meters":21600,"station_id":"ce4bh5p2rcd13ifvqe4g","pricing_plan_id":"cebpf4jnsgd1na2vs0mg"},{"bike_id":"f0846552-e4c6-4bf6-a817-8e16a915451e","system_id":"levelo_inurba_marseille","lat":43.290779,"lon":5.371482,"is_reserved":false,"is_disabled":false,"rental_uris":{"android":"levelo://app?vid=f0846552-e4c6-4bf6-a817-8e16a915451e","ios":"levelo://app?vid=f0846552-e4c6-4bf6-a817-8e16a915451e"},"vehicle_type_id":"4","last_reported":1714932503,"current_range_meters":0,"station_id":"ce4bh5p2rcd13ifvqe4g","pricing_plan_id":"cebpf4jnsgd1na2vs0mg"},{"bike_id":"47d67b70-f311-413a-ae03-d79a3c673672","system_id":"levelo_inurba_marseille","lat":43.302008,"lon":5.394694,"is_reserved":false,"is_disabled":false,"rental_uris":{"android":"levelo://app?vid=47d67b70-f311-413a-ae03-d79a3c673672","ios":"levelo://app?vid=47d67b70-f311-413a-ae03-d79a3c673672"},"vehicle_type_id":"4","last_reported":1714932503,"current_range_meters":3600,"station_id":"ce4bh0p2rcd13ifvqd70","pricing_plan_id":"cebpf4jnsgd1na2vs0mg"},{"bike_id":"81c1595b-ea42-4020-b59b-14a465dfbc59","system_id":"levelo_inurba_marseille","lat":43.302008,"lon":5.394694,"is_reserved":false,"is_disabled":false,"rental_uris":{"android":"levelo://app?vid=81c1595b-ea42-4020-b59b-14a465dfbc59","ios":"levelo://app?vid=81c1595b-ea42-4020-b59b-14a465dfbc59"},"vehicle_type_id":"4","last_reported":1714932503,"current_range_meters":14800,"station_id":"ce4bh0p2rcd13ifvqd70","pricing_plan_id":"cebpf4jnsgd1na2vs0mg"},{"bike_id":"9342307e-4796-4eba-88dc-76c935d5861e","system_id":"levelo_inurba_marseille","lat":43.302008,"lon":5.394694,"is_reserved":false,"is_disabled":false,"rental_uris":{"android":"levelo://app?vid=9342307e-4796-4eba-88dc-76c935d5861e","ios":"levelo://app?vid=9342307e-4796-4eba-88dc-76c935d5861e"},"vehicle_type_id":"4","last_reported":1714932503,"current_range_meters":10000,"station_id":"ce4bh0p2rcd13ifvqd70","pricing_plan_id":"cebpf4jnsgd1na2vs0mg"},{"bike_id":"700d5d13-0fd7-4634-8f10-dd2f199d305a","system_id":"levelo_inurba_marseille","lat":43.290624,"lon":5.359245,"is_reserved":false,"is_disabled":false,"rental_uris":{"android":"levelo://app?vid=700d5d13-0fd7-4634-8f10-dd2f199d305a","ios":"levelo://app?vid=700d5d13-0fd7-4634-8f10-dd2f199d305a"},"vehicle_type_id":"4","last_reported":1714932503,"current_range_meters":2800,"station_id":"ce4bha92rcd13ifvqeg0","pricing_plan_id":"cebpf4jnsgd1na2vs0mg"},{"bike_id":"412c2e58-815e-4f25-afcb-bd631547d79c","system_id":"levelo_inurba_marseille","lat":43.294153,"lon":5.386305,"is_reserved":false,"is_disabled":false,"rental_uris":{"android":"levelo://app?vid=412c2e58-815e-4f25-afcb-bd631547d79c","ios":"levelo://app?vid=412c2e58-815e-4f25-afcb-bd631547d79c"},"vehicle_type_id":"4","last_reported":1714932503,"current_range_meters":9600,"station_id":"ce4bh2h2rcd13ifvqdh0","pricing_plan_id":"cebpf4jnsgd1na2vs0mg"},{"bike_id":"1526ddfc-0bfd-4a7d-88a6-ad102e4c8520","system_id":"levelo_inurba_marseille","lat":43.290631,"lon":5.359244,"is_reserved":false,"is_disabled":false,"rental_uris":{"android":"levelo://app?vid=1526ddfc-0bfd-4a7d-88a6-ad102e4c8520","ios":"levelo://app?vid=1526ddfc-0bfd-4a7d-88a6-ad102e4c8520"},"vehicle_type_id":"4","last_reported":1714932503,"current_range_meters":15200,"station_id":"ce4bha92rcd13ifvqeg0","pricing_plan_id":"cebpf4jnsgd1na2vs0mg"},{"bike_id":"8f0a1a37-961b-43fa-9a97-297fcb2d8c2b","system_id":"levelo_inurba_marseille","lat":43.294153,"lon":5.386305,"is_reserved":false,"is_disabled":false,"rental_uris":{"android":"levelo://app?vid=8f0a1a37-961b-43fa-9a97-297fcb2d8c2b","ios":"levelo://app?vid=8f0a1a37-961b-43fa-9a97-297fcb2d8c2b"},"vehicle_type_id":"4","last_reported":1714932503,"current_range_meters":4000,"station_id":"ce4bh2h2rcd13ifvqdh0","pricing_plan_id":"cebpf4jnsgd1na2vs0mg"},{"bike_id":"c8cfa35b-434e-420d-a5c8-22d07e37e042","system_id":"levelo_inurba_marseille","lat":43.2942,"lon":5.38617,"is_reserved":false,"is_disabled":false,"rental_uris":{"android":"levelo://app?vid=c8cfa35b-434e-420d-a5c8-22d07e37e042","ios":"levelo://app?vid=c8cfa35b-434e-420d-a5c8-22d07e37e042"},"vehicle_type_id":"4","last_reported":1714932503,"current_range_meters":21600,"station_id":"ce4bh2h2rcd13ifvqdh0","pricing_plan_id":"cebpf4jnsgd1na2vs0mg"},{"bike_id":"45b1bdeb-5ff9-4f41-86b3-32e846ed3113","system_id":"levelo_inurba_marseille","lat":43.294162,"lon":5.386292,"is_reserved":false,"is_disabled":false,"rental_uris":{"android":"levelo://app?vid=45b1bdeb-5ff9-4f41-86b3-32e846ed3113","ios":"levelo://app?vid=45b1bdeb-5ff9-4f41-86b3-32e846ed3113"},"vehicle_type_id":"4","last_reported":1714932503,"current_range_meters":27200,"station_id":"ce4bh2h2rcd13ifvqdh0","pricing_plan_id":"cebpf4jnsgd1na2vs0mg"},{"bike_id":"8a55a741-556a-4ffd-8804-1014348dd3e6","system_id":"levelo_inurba_marseille","lat":43.29418,"lon":5.38619,"is_reserved":false,"is_disabled":false,"rental_uris":{"android":"levelo://app?vid=8a55a741-556a-4ffd-8804-1014348dd3e6","ios":"levelo://app?vid=8a55a741-556a-4ffd-8804-1014348dd3e6"},"vehicle_type_id":"4","last_reported":1714932503,"current_range_meters":4800,"station_id":"ce4bh2h2rcd13ifvqdh0","pricing_plan_id":"cebpf4jnsgd1na2vs0mg"},{"bike_id":"9244f192-20f6-4853-8085-ebfb7d3053cd","system_id":"levelo_inurba_marseille","lat":43.29417,"lon":5.386183,"is_reserved":false,"is_disabled":false,"rental_uris":{"android":"levelo://app?vid=9244f192-20f6-4853-8085-ebfb7d3053cd","ios":"levelo://app?vid=9244f192-20f6-4853-8085-ebfb7d3053cd"},"vehicle_type_id":"4","last_reported":1714932503,"current_range_meters":5200,"station_id":"ce4bh2h2rcd13ifvqdh0","pricing_plan_id":"cebpf4jnsgd1na2vs0mg"},{"bike_id":"4ee84967-7004-4321-82a5-43b53eb4e424","system_id":"levelo_inurba_marseille","lat":43.294205,"lon":5.38625,"is_reserved":false,"is_disabled":false,"rental_uris":{"android":"levelo://app?vid=4ee84967-7004-4321-82a5-43b53eb4e424","ios":"levelo://app?vid=4ee84967-7004-4321-82a5-43b53eb4e424"},"vehicle_type_id":"4","last_reported":1714932503,"current_range_meters":3200,"station_id":"ce4bh2h2rcd13ifvqdh0","pricing_plan_id":"cebpf4jnsgd1na2vs0mg"},{"bike_id":"c149dde7-f9fa-41c9-8fbe-ea090585cbbd","system_id":"levelo_inurba_marseille","lat":43.290319,"lon":5.375732,"is_reserved":false,"is_disabled":false,"rental_uris":{"android":"levelo://app?vid=c149dde7-f9fa-41c9-8fbe-ea090585cbbd","ios":"levelo://app?vid=c149dde7-f9fa-41c9-8fbe-ea090585cbbd"},"vehicle_type_id":"4","last_reported":1714932503,"current_range_meters":13600,"station_id":"ce4bh692rcd13ifvqe90","pricing_plan_id":"cebpf4jnsgd1na2vs0mg"},{"bike_id":"725a42da-9dec-467d-84c3-b343d627b8c6","system_id":"levelo_inurba_marseille","lat":43.29417,"lon":5.3862,"is_reserved":false,"is_disabled":false,"rental_uris":{"android":"levelo://app?vid=725a42da-9dec-467d-84c3-b343d627b8c6","ios":"levelo://app?vid=725a42da-9dec-467d-84c3-b343d627b8c6"},"vehicle_type_id":"4","last_reported":1714932503,"current_range_meters":24000,"station_id":"ce4bh2h2rcd13ifvqdh0","pricing_plan_id":"cebpf4jnsgd1na2vs0mg"},{"bike_id":"7c657053-7d30-432c-8c19-80931e6f4729","system_id":"levelo_inurba_marseille","lat":43.290319,"lon":5.375732,"is_reserved":false,"is_disabled":false,"rental_uris":{"android":"levelo://app?vid=7c657053-7d30-432c-8c19-80931e6f4729","ios":"levelo://app?vid=7c657053-7d30-432c-8c19-80931e6f4729"},"vehicle_type_id":"4","last_reported":1714932503,"current_range_meters":2400,"station_id":"ce4bh692rcd13ifvqe90","pricing_plan_id":"cebpf4jnsgd1na2vs0mg"},{"bike_id":"6e36210d-70b3-4125-8e43-a4f34f43304a","system_id":"levelo_inurba_marseille","lat":43.294162,"lon":5.386292,"is_reserved":false,"is_disabled":false,"rental_uris":{"android":"levelo://app?vid=6e36210d-70b3-4125-8e43-a4f34f43304a","ios":"levelo://app?vid=6e36210d-70b3-4125-8e43-a4f34f43304a"},"vehicle_type_id":"4","last_reported":1714932503,"current_range_meters":17600,"station_id":"ce4bh2h2rcd13ifvqdh0","pricing_plan_id":"cebpf4jnsgd1na2vs0mg"},{"bike_id":"fc17981a-d791-447e-8813-14664a7a24d7","system_id":"levelo_inurba_marseille","lat":43.294162,"lon":5.386292,"is_reserved":false,"is_disabled":false,"rental_uris":{"android":"levelo://app?vid=fc17981a-d791-447e-8813-14664a7a24d7","ios":"levelo://app?vid=fc17981a-d791-447e-8813-14664a7a24d7"},"vehicle_type_id":"4","last_reported":1714932503,"current_range_meters":20000,"station_id":"ce4bh2h2rcd13ifvqdh0","pricing_plan_id":"cebpf4jnsgd1na2vs0mg"},{"bike_id":"62046d0c-a720-4d83-a511-ee9c3094f8f7","system_id":"levelo_inurba_marseille","lat":43.294162,"lon":5.386292,"is_reserved":false,"is_disabled":false,"rental_uris":{"android":"levelo://app?vid=62046d0c-a720-4d83-a511-ee9c3094f8f7","ios":"levelo://app?vid=62046d0c-a720-4d83-a511-ee9c3094f8f7"},"vehicle_type_id":"4","last_reported":1714932503,"current_range_meters":7200,"station_id":"ce4bh2h2rcd13ifvqdh0","pricing_plan_id":"cebpf4jnsgd1na2vs0mg"},{"bike_id":"df817235-3b9f-421b-805a-065cdd64affd","system_id":"levelo_inurba_marseille","lat":43.29414,"lon":5.38618,"is_reserved":false,"is_disabled":false,"rental_uris":{"android":"levelo://app?vid=df817235-3b9f-421b-805a-065cdd64affd","ios":"levelo://app?vid=df817235-3b9f-421b-805a-065cdd64affd"},"vehicle_type_id":"4","last_reported":1714932503,"current_range_meters":23600,"station_id":"ce4bh2h2rcd13ifvqdh0","pricing_plan_id":"cebpf4jnsgd1na2vs0mg"},{"bike_id":"f0ed5725-608e-4600-9922-30cd8373a6f9","system_id":"levelo_inurba_marseille","lat":43.294178,"lon":5.386252,"is_reserved":false,"is_disabled":false,"rental_uris":{"android":"levelo://app?vid=f0ed5725-608e-4600-9922-30cd8373a6f9","ios":"levelo://app?vid=f0ed5725-608e-4600-9922-30cd8373a6f9"},"vehicle_type_id":"4","last_reported":1714932503,"current_range_meters":2400,"station_id":"ce4bh2h2rcd13ifvqdh0","pricing_plan_id":"cebpf4jnsgd1na2vs0mg"},{"bike_id":"a1dc0cad-f467-483c-8a8c-2f192b8141ae","system_id":"levelo_inurba_marseille","lat":43.294162,"lon":5.386292,"is_reserved":false,"is_disabled":false,"rental_uris":{"android":"levelo://app?vid=a1dc0cad-f467-483c-8a8c-2f192b8141ae","ios":"levelo://app?vid=a1dc0cad-f467-483c-8a8c-2f192b8141ae"},"vehicle_type_id":"4","last_reported":1714932503,"current_range_meters":25600,"station_id":"ce4bh2h2rcd13ifvqdh0","pricing_plan_id":"cebpf4jnsgd1na2vs0mg"},{"bike_id":"eed84951-1526-4e0d-923d-a28cd7bdba9e","system_id":"levelo_inurba_marseille","lat":43.28945,"lon":5.36634,"is_reserved":false,"is_disabled":false,"rental_uris":{"android":"levelo://app?vid=eed84951-1526-4e0d-923d-a28cd7bdba9e","ios":"levelo://app?vid=eed84951-1526-4e0d-923d-a28cd7bdba9e"},"vehicle_type_id":"4","last_reported":1714932503,"current_range_meters":3200,"station_id":"ce4bhap2rcd13ifvqek0","pricing_plan_id":"cebpf4jnsgd1na2vs0mg"},{"bike_id":"51934f20-555c-4ad4-916e-785a93423c9b","system_id":"levelo_inurba_marseille","lat":43.290327,"lon":5.375711,"is_reserved":false,"is_disabled":false,"rental_uris":{"android":"levelo://app?vid=51934f20-555c-4ad4-916e-785a93423c9b","ios":"levelo://app?vid=51934f20-555c-4ad4-916e-785a93423c9b"},"vehicle_type_id":"4","last_reported":1714932503,"current_range_meters":3200,"station_id":"ce4bh692rcd13ifvqe90","pricing_plan_id":"cebpf4jnsgd1na2vs0mg"},{"bike_id":"a1bb981f-cd58-4a9e-9206-c724d34eabbd","system_id":"levelo_inurba_marseille","lat":43.294162,"lon":5.386292,"is_reserved":false,"is_disabled":false,"rental_uris":{"android":"levelo://app?vid=a1bb981f-cd58-4a9e-9206-c724d34eabbd","ios":"levelo://app?vid=a1bb981f-cd58-4a9e-9206-c724d34eabbd"},"vehicle_type_id":"4","last_reported":1714932503,"current_range_meters":0,"station_id":"ce4bh2h2rcd13ifvqdh0","pricing_plan_id":"cebpf4jnsgd1na2vs0mg"},{"bike_id":"53dd913b-20e4-401d-b92c-936fe2f0b26f","system_id":"levelo_inurba_marseille","lat":43.294162,"lon":5.386292,"is_reserved":false,"is_disabled":false,"rental_uris":{"android":"levelo://app?vid=53dd913b-20e4-401d-b92c-936fe2f0b26f","ios":"levelo://app?vid=53dd913b-20e4-401d-b92c-936fe2f0b26f"},"vehicle_type_id":"4","last_reported":1714932503,"current_range_meters":22800,"station_id":"ce4bh2h2rcd13ifvqdh0","pricing_plan_id":"cebpf4jnsgd1na2vs0mg"},{"bike_id":"ab546f11-f35c-4a21-8d60-ab6269d71453","system_id":"levelo_inurba_marseille","lat":43.294162,"lon":5.386292,"is_reserved":false,"is_disabled":false,"rental_uris":{"android":"levelo://app?vid=ab546f11-f35c-4a21-8d60-ab6269d71453","ios":"levelo://app?vid=ab546f11-f35c-4a21-8d60-ab6269d71453"},"vehicle_type_id":"4","last_reported":1714932503,"current_range_meters":26400,"station_id":"ce4bh2h2rcd13ifvqdh0","pricing_plan_id":"cebpf4jnsgd1na2vs0mg"},{"bike_id":"be4ee3c7-971a-425c-a3fb-2db1b14ba321","system_id":"levelo_inurba_marseille","lat":43.28944,"lon":5.366297,"is_reserved":false,"is_disabled":false,"rental_uris":{"android":"levelo://app?vid=be4ee3c7-971a-425c-a3fb-2db1b14ba321","ios":"levelo://app?vid=be4ee3c7-971a-425c-a3fb-2db1b14ba321"},"vehicle_type_id":"4","last_reported":1714932503,"current_range_meters":26400,"station_id":"ce4bhap2rcd13ifvqek0","pricing_plan_id":"cebpf4jnsgd1na2vs0mg"},{"bike_id":"4aad27af-a401-4c77-90c9-10df54955c32","system_id":"levelo_inurba_marseille","lat":43.294162,"lon":5.386292,"is_reserved":false,"is_disabled":false,"rental_uris":{"android":"levelo://app?vid=4aad27af-a401-4c77-90c9-10df54955c32","ios":"levelo://app?vid=4aad27af-a401-4c77-90c9-10df54955c32"},"vehicle_type_id":"4","last_reported":1714932503,"current_range_meters":28000,"station_id":"ce4bh2h2rcd13ifvqdh0","pricing_plan_id":"cebpf4jnsgd1na2vs0mg"},{"bike_id":"21e707f8-4e93-44c5-81b6-26ba10f5bae3","system_id":"levelo_inurba_marseille","lat":43.294162,"lon":5.386292,"is_reserved":false,"is_disabled":false,"rental_uris":{"android":"levelo://app?vid=21e707f8-4e93-44c5-81b6-26ba10f5bae3","ios":"levelo://app?vid=21e707f8-4e93-44c5-81b6-26ba10f5bae3"},"vehicle_type_id":"4","last_reported":1714932503,"current_range_meters":22000,"station_id":"ce4bh2h2rcd13ifvqdh0","pricing_plan_id":"cebpf4jnsgd1na2vs0mg"},{"bike_id":"0e726a29-06d8-4192-be9d-f8d08a0b168b","system_id":"levelo_inurba_marseille","lat":43.294162,"lon":5.386292,"is_reserved":false,"is_disabled":false,"rental_uris":{"android":"levelo://app?vid=0e726a29-06d8-4192-be9d-f8d08a0b168b","ios":"levelo://app?vid=0e726a29-06d8-4192-be9d-f8d08a0b168b"},"vehicle_type_id":"4","last_reported":1714932503,"current_range_meters":23200,"station_id":"ce4bh2h2rcd13ifvqdh0","pricing_plan_id":"cebpf4jnsgd1na2vs0mg"},{"bike_id":"33ac5e03-231e-4c1f-a9a5-9fe51081fd06","system_id":"levelo_inurba_marseille","lat":43.290319,"lon":5.375732,"is_reserved":false,"is_disabled":false,"rental_uris":{"android":"levelo://app?vid=33ac5e03-231e-4c1f-a9a5-9fe51081fd06","ios":"levelo://app?vid=33ac5e03-231e-4c1f-a9a5-9fe51081fd06"},"vehicle_type_id":"4","last_reported":1714932503,"current_range_meters":25600,"station_id":"ce4bh692rcd13ifvqe90","pricing_plan_id":"cebpf4jnsgd1na2vs0mg"},{"bike_id":"d1349fad-7276-48d3-b0db-ec2ec4338a64","system_id":"levelo_inurba_marseille","lat":43.294153,"lon":5.386305,"is_reserved":false,"is_disabled":false,"rental_uris":{"android":"levelo://app?vid=d1349fad-7276-48d3-b0db-ec2ec4338a64","ios":"levelo://app?vid=d1349fad-7276-48d3-b0db-ec2ec4338a64"},"vehicle_type_id":"4","last_reported":1714932503,"current_range_meters":20000,"station_id":"ce4bh2h2rcd13ifvqdh0","pricing_plan_id":"cebpf4jnsgd1na2vs0mg"},{"bike_id":"f597240f-b10d-45dc-875a-b39bceaa634c","system_id":"levelo_inurba_marseille","lat":43.294162,"lon":5.386292,"is_reserved":false,"is_disabled":false,"rental_uris":{"android":"levelo://app?vid=f597240f-b10d-45dc-875a-b39bceaa634c","ios":"levelo://app?vid=f597240f-b10d-45dc-875a-b39bceaa634c"},"vehicle_type_id":"4","last_reported":1714932503,"current_range_meters":2800,"station_id":"ce4bh2h2rcd13ifvqdh0","pricing_plan_id":"cebpf4jnsgd1na2vs0mg"},{"bike_id":"01508361-da0c-4800-9d2f-8ce9917736c5","system_id":"levelo_inurba_marseille","lat":43.294162,"lon":5.386292,"is_reserved":false,"is_disabled":false,"rental_uris":{"android":"levelo://app?vid=01508361-da0c-4800-9d2f-8ce9917736c5","ios":"levelo://app?vid=01508361-da0c-4800-9d2f-8ce9917736c5"},"vehicle_type_id":"4","last_reported":1714932503,"current_range_meters":28000,"station_id":"ce4bh2h2rcd13ifvqdh0","pricing_plan_id":"cebpf4jnsgd1na2vs0mg"},{"bike_id":"c8b79ef6-649e-4f19-8d77-f15c6d561e8d","system_id":"levelo_inurba_marseille","lat":43.294162,"lon":5.386292,"is_reserved":false,"is_disabled":false,"rental_uris":{"android":"levelo://app?vid=c8b79ef6-649e-4f19-8d77-f15c6d561e8d","ios":"levelo://app?vid=c8b79ef6-649e-4f19-8d77-f15c6d561e8d"},"vehicle_type_id":"4","last_reported":1714932503,"current_range_meters":8400,"station_id":"ce4bh2h2rcd13ifvqdh0","pricing_plan_id":"cebpf4jnsgd1na2vs0mg"},{"bike_id":"51d4c113-5c80-41ee-97b7-24942fc2a645","system_id":"levelo_inurba_marseille","lat":43.289384,"lon":5.366312,"is_reserved":false,"is_disabled":false,"rental_uris":{"android":"levelo://app?vid=51d4c113-5c80-41ee-97b7-24942fc2a645","ios":"levelo://app?vid=51d4c113-5c80-41ee-97b7-24942fc2a645"},"vehicle_type_id":"4","last_reported":1714932503,"current_range_meters":0,"station_id":"ce4bhap2rcd13ifvqek0","pricing_plan_id":"cebpf4jnsgd1na2vs0mg"},{"bike_id":"9a552ee7-2f41-4cb8-8ade-4e347273b7a7","system_id":"levelo_inurba_marseille","lat":43.2936,"lon":5.37835,"is_reserved":false,"is_disabled":false,"rental_uris":{"android":"levelo://app?vid=9a552ee7-2f41-4cb8-8ade-4e347273b7a7","ios":"levelo://app?vid=9a552ee7-2f41-4cb8-8ade-4e347273b7a7"},"vehicle_type_id":"4","last_reported":1714932503,"current_range_meters":19600,"station_id":"ce4bgjh2rcd13ifvqbf0","pricing_plan_id":"cebpf4jnsgd1na2vs0mg"},{"bike_id":"18659ab3-07ec-48ef-859a-c4a77b78c50f","system_id":"levelo_inurba_marseille","lat":43.28939,"lon":5.363945,"is_reserved":false,"is_disabled":false,"rental_uris":{"android":"levelo://app?vid=18659ab3-07ec-48ef-859a-c4a77b78c50f","ios":"levelo://app?vid=18659ab3-07ec-48ef-859a-c4a77b78c50f"},"vehicle_type_id":"4","last_reported":1714932503,"current_range_meters":0,"station_id":"ce4bhc92rcd13ifvqetg","pricing_plan_id":"cebpf4jnsgd1na2vs0mg"},{"bike_id":"18b5370f-7e72-409c-9964-d228fefd444e","system_id":"levelo_inurba_marseille","lat":43.294162,"lon":5.386292,"is_reserved":false,"is_disabled":false,"rental_uris":{"android":"levelo://app?vid=18b5370f-7e72-409c-9964-d228fefd444e","ios":"levelo://app?vid=18b5370f-7e72-409c-9964-d228fefd444e"},"vehicle_type_id":"4","last_reported":1714932503,"current_range_meters":24400,"station_id":"ce4bh2h2rcd13ifvqdh0","pricing_plan_id":"cebpf4jnsgd1na2vs0mg"},{"bike_id":"1a1f54db-5f51-40b3-8c80-92216920020a","system_id":"levelo_inurba_marseille","lat":43.289468,"lon":5.363719,"is_reserved":false,"is_disabled":false,"rental_uris":{"android":"levelo://app?vid=1a1f54db-5f51-40b3-8c80-92216920020a","ios":"levelo://app?vid=1a1f54db-5f51-40b3-8c80-92216920020a"},"vehicle_type_id":"4","last_reported":1714932503,"current_range_meters":3200,"station_id":"ce4bhc92rcd13ifvqetg","pricing_plan_id":"cebpf4jnsgd1na2vs0mg"},{"bike_id":"4c8ed329-66a7-4627-b13c-10ba8fa81403","system_id":"levelo_inurba_marseille","lat":43.292642,"lon":5.384254,"is_reserved":false,"is_disabled":false,"rental_uris":{"android":"levelo://app?vid=4c8ed329-66a7-4627-b13c-10ba8fa81403","ios":"levelo://app?vid=4c8ed329-66a7-4627-b13c-10ba8fa81403"},"vehicle_type_id":"4","last_reported":1714932503,"current_range_meters":8400,"station_id":"ce4bh692rcd13ifvqea0","pricing_plan_id":"cebpf4jnsgd1na2vs0mg"},{"bike_id":"ee59f5ba-a98b-40a2-aae1-647d1b0784f7","system_id":"levelo_inurba_marseille","lat":43.292642,"lon":5.384254,"is_reserved":false,"is_disabled":false,"rental_uris":{"android":"levelo://app?vid=ee59f5ba-a98b-40a2-aae1-647d1b0784f7","ios":"levelo://app?vid=ee59f5ba-a98b-40a2-aae1-647d1b0784f7"},"vehicle_type_id":"4","last_reported":1714932503,"current_range_meters":8400,"station_id":"ce4bh692rcd13ifvqea0","pricing_plan_id":"cebpf4jnsgd1na2vs0mg"},{"bike_id":"29533c5e-40f1-4058-b222-6ca8b43fdd6c","system_id":"levelo_inurba_marseille","lat":43.292644,"lon":5.384257,"is_reserved":false,"is_disabled":false,"rental_uris":{"android":"levelo://app?vid=29533c5e-40f1-4058-b222-6ca8b43fdd6c","ios":"levelo://app?vid=29533c5e-40f1-4058-b222-6ca8b43fdd6c"},"vehicle_type_id":"4","last_reported":1714932503,"current_range_meters":18000,"station_id":"ce4bh692rcd13ifvqea0","pricing_plan_id":"cebpf4jnsgd1na2vs0mg"},{"bike_id":"ff9a06b6-be97-49be-b48f-d77f9072eb89","system_id":"levelo_inurba_marseille","lat":43.3042,"lon":5.39739,"is_reserved":false,"is_disabled":false,"rental_uris":{"android":"levelo://app?vid=ff9a06b6-be97-49be-b48f-d77f9072eb89","ios":"levelo://app?vid=ff9a06b6-be97-49be-b48f-d77f9072eb89"},"vehicle_type_id":"4","last_reported":1714932503,"current_range_meters":12800,"station_id":"ce4bh092rcd13ifvqd20","pricing_plan_id":"cebpf4jnsgd1na2vs0mg"},{"bike_id":"fe29f71d-4e42-4dd6-90af-62a51f72a476","system_id":"levelo_inurba_marseille","lat":43.292642,"lon":5.384254,"is_reserved":false,"is_disabled":false,"rental_uris":{"android":"levelo://app?vid=fe29f71d-4e42-4dd6-90af-62a51f72a476","ios":"levelo://app?vid=fe29f71d-4e42-4dd6-90af-62a51f72a476"},"vehicle_type_id":"4","last_reported":1714932503,"current_range_meters":15200,"station_id":"ce4bh692rcd13ifvqea0","pricing_plan_id":"cebpf4jnsgd1na2vs0mg"},{"bike_id":"73e0dcb7-b93a-4739-85fb-8e135d2f1937","system_id":"levelo_inurba_marseille","lat":43.30423,"lon":5.39742,"is_reserved":false,"is_disabled":false,"rental_uris":{"android":"levelo://app?vid=73e0dcb7-b93a-4739-85fb-8e135d2f1937","ios":"levelo://app?vid=73e0dcb7-b93a-4739-85fb-8e135d2f1937"},"vehicle_type_id":"4","last_reported":1714932503,"current_range_meters":2000,"station_id":"ce4bh092rcd13ifvqd20","pricing_plan_id":"cebpf4jnsgd1na2vs0mg"},{"bike_id":"98c1f602-d06d-4d72-b929-b1f57a7826ca","system_id":"levelo_inurba_marseille","lat":43.292644,"lon":5.384257,"is_reserved":false,"is_disabled":false,"rental_uris":{"android":"levelo://app?vid=98c1f602-d06d-4d72-b929-b1f57a7826ca","ios":"levelo://app?vid=98c1f602-d06d-4d72-b929-b1f57a7826ca"},"vehicle_type_id":"4","last_reported":1714932503,"current_range_meters":28000,"station_id":"ce4bh692rcd13ifvqea0","pricing_plan_id":"cebpf4jnsgd1na2vs0mg"},{"bike_id":"19231908-8d98-4944-b48f-493f0543fca2","system_id":"levelo_inurba_marseille","lat":43.292644,"lon":5.384257,"is_reserved":false,"is_disabled":false,"rental_uris":{"android":"levelo://app?vid=19231908-8d98-4944-b48f-493f0543fca2","ios":"levelo://app?vid=19231908-8d98-4944-b48f-493f0543fca2"},"vehicle_type_id":"4","last_reported":1714932503,"current_range_meters":24400,"station_id":"ce4bh692rcd13ifvqea0","pricing_plan_id":"cebpf4jnsgd1na2vs0mg"},{"bike_id":"a18751ad-f834-4200-a060-b1b215f08f4e","system_id":"levelo_inurba_marseille","lat":43.292642,"lon":5.384254,"is_reserved":false,"is_disabled":false,"rental_uris":{"android":"levelo://app?vid=a18751ad-f834-4200-a060-b1b215f08f4e","ios":"levelo://app?vid=a18751ad-f834-4200-a060-b1b215f08f4e"},"vehicle_type_id":"4","last_reported":1714932503,"current_range_meters":10800,"station_id":"ce4bh692rcd13ifvqea0","pricing_plan_id":"cebpf4jnsgd1na2vs0mg"},{"bike_id":"c3ccd080-f7a9-4a3f-9022-52153cbe28fd","system_id":"levelo_inurba_marseille","lat":43.292644,"lon":5.384257,"is_reserved":false,"is_disabled":false,"rental_uris":{"android":"levelo://app?vid=c3ccd080-f7a9-4a3f-9022-52153cbe28fd","ios":"levelo://app?vid=c3ccd080-f7a9-4a3f-9022-52153cbe28fd"},"vehicle_type_id":"4","last_reported":1714932503,"current_range_meters":27200,"station_id":"ce4bh692rcd13ifvqea0","pricing_plan_id":"cebpf4jnsgd1na2vs0mg"},{"bike_id":"a042b829-7636-43e7-b650-8a97d2cfb5ad","system_id":"levelo_inurba_marseille","lat":43.292644,"lon":5.384257,"is_reserved":false,"is_disabled":false,"rental_uris":{"android":"levelo://app?vid=a042b829-7636-43e7-b650-8a97d2cfb5ad","ios":"levelo://app?vid=a042b829-7636-43e7-b650-8a97d2cfb5ad"},"vehicle_type_id":"4","last_reported":1714932503,"current_range_meters":23600,"station_id":"ce4bh692rcd13ifvqea0","pricing_plan_id":"cebpf4jnsgd1na2vs0mg"},{"bike_id":"428c6d01-98e2-4406-a7fd-f2704889729a","system_id":"levelo_inurba_marseille","lat":43.292642,"lon":5.384254,"is_reserved":false,"is_disabled":false,"rental_uris":{"android":"levelo://app?vid=428c6d01-98e2-4406-a7fd-f2704889729a","ios":"levelo://app?vid=428c6d01-98e2-4406-a7fd-f2704889729a"},"vehicle_type_id":"4","last_reported":1714932503,"current_range_meters":28000,"station_id":"ce4bh692rcd13ifvqea0","pricing_plan_id":"cebpf4jnsgd1na2vs0mg"},{"bike_id":"b4b0838e-9d00-4db9-867e-12b71e89d436","system_id":"levelo_inurba_marseille","lat":43.292644,"lon":5.384257,"is_reserved":false,"is_disabled":false,"rental_uris":{"android":"levelo://app?vid=b4b0838e-9d00-4db9-867e-12b71e89d436","ios":"levelo://app?vid=b4b0838e-9d00-4db9-867e-12b71e89d436"},"vehicle_type_id":"4","last_reported":1714932503,"current_range_meters":23600,"station_id":"ce4bh692rcd13ifvqea0","pricing_plan_id":"cebpf4jnsgd1na2vs0mg"},{"bike_id":"d9d5e870-b567-42fe-bd31-9b713bb3a061","system_id":"levelo_inurba_marseille","lat":43.292642,"lon":5.384254,"is_reserved":false,"is_disabled":false,"rental_uris":{"android":"levelo://app?vid=d9d5e870-b567-42fe-bd31-9b713bb3a061","ios":"levelo://app?vid=d9d5e870-b567-42fe-bd31-9b713bb3a061"},"vehicle_type_id":"4","last_reported":1714932503,"current_range_meters":25600,"station_id":"ce4bh692rcd13ifvqea0","pricing_plan_id":"cebpf4jnsgd1na2vs0mg"},{"bike_id":"eb9ebe0d-4f21-4f4c-b59f-b3a5fc3aa7a4","system_id":"levelo_inurba_marseille","lat":43.292644,"lon":5.384257,"is_reserved":false,"is_disabled":false,"rental_uris":{"android":"levelo://app?vid=eb9ebe0d-4f21-4f4c-b59f-b3a5fc3aa7a4","ios":"levelo://app?vid=eb9ebe0d-4f21-4f4c-b59f-b3a5fc3aa7a4"},"vehicle_type_id":"4","last_reported":1714932503,"current_range_meters":16800,"station_id":"ce4bh692rcd13ifvqea0","pricing_plan_id":"cebpf4jnsgd1na2vs0mg"},{"bike_id":"a6265c21-b80a-487e-981a-a5239f941367","system_id":"levelo_inurba_marseille","lat":43.292644,"lon":5.384257,"is_reserved":false,"is_disabled":false,"rental_uris":{"android":"levelo://app?vid=a6265c21-b80a-487e-981a-a5239f941367","ios":"levelo://app?vid=a6265c21-b80a-487e-981a-a5239f941367"},"vehicle_type_id":"4","last_reported":1714932503,"current_range_meters":24800,"station_id":"ce4bh692rcd13ifvqea0","pricing_plan_id":"cebpf4jnsgd1na2vs0mg"},{"bike_id":"ba0699b4-4e7d-4459-903b-14a62543bd81","system_id":"levelo_inurba_marseille","lat":43.29261,"lon":5.38441,"is_reserved":false,"is_disabled":false,"rental_uris":{"android":"levelo://app?vid=ba0699b4-4e7d-4459-903b-14a62543bd81","ios":"levelo://app?vid=ba0699b4-4e7d-4459-903b-14a62543bd81"},"vehicle_type_id":"4","last_reported":1714932503,"current_range_meters":14400,"station_id":"ce4bh692rcd13ifvqea0","pricing_plan_id":"cebpf4jnsgd1na2vs0mg"},{"bike_id":"c7175545-5ba9-4781-bd4b-8e42b9d6048e","system_id":"levelo_inurba_marseille","lat":43.292644,"lon":5.384257,"is_reserved":false,"is_disabled":false,"rental_uris":{"android":"levelo://app?vid=c7175545-5ba9-4781-bd4b-8e42b9d6048e","ios":"levelo://app?vid=c7175545-5ba9-4781-bd4b-8e42b9d6048e"},"vehicle_type_id":"4","last_reported":1714932503,"current_range_meters":29200,"station_id":"ce4bh692rcd13ifvqea0","pricing_plan_id":"cebpf4jnsgd1na2vs0mg"},{"bike_id":"def960dd-adba-46e3-83f0-b0cf83495b82","system_id":"levelo_inurba_marseille","lat":43.292642,"lon":5.384254,"is_reserved":false,"is_disabled":false,"rental_uris":{"android":"levelo://app?vid=def960dd-adba-46e3-83f0-b0cf83495b82","ios":"levelo://app?vid=def960dd-adba-46e3-83f0-b0cf83495b82"},"vehicle_type_id":"4","last_reported":1714932503,"current_range_meters":28400,"station_id":"ce4bh692rcd13ifvqea0","pricing_plan_id":"cebpf4jnsgd1na2vs0mg"},{"bike_id":"17bf048b-36b2-464b-9c7a-9c5b1542ba4e","system_id":"levelo_inurba_marseille","lat":43.292644,"lon":5.384257,"is_reserved":false,"is_disabled":false,"rental_uris":{"android":"levelo://app?vid=17bf048b-36b2-464b-9c7a-9c5b1542ba4e","ios":"levelo://app?vid=17bf048b-36b2-464b-9c7a-9c5b1542ba4e"},"vehicle_type_id":"4","last_reported":1714932503,"current_range_meters":16000,"station_id":"ce4bh692rcd13ifvqea0","pricing_plan_id":"cebpf4jnsgd1na2vs0mg"},{"bike_id":"ab17d16a-b403-47fb-9787-12ac2a5eeb4a","system_id":"levelo_inurba_marseille","lat":43.292642,"lon":5.384254,"is_reserved":false,"is_disabled":false,"rental_uris":{"android":"levelo://app?vid=ab17d16a-b403-47fb-9787-12ac2a5eeb4a","ios":"levelo://app?vid=ab17d16a-b403-47fb-9787-12ac2a5eeb4a"},"vehicle_type_id":"4","last_reported":1714932503,"current_range_meters":28400,"station_id":"ce4bh692rcd13ifvqea0","pricing_plan_id":"cebpf4jnsgd1na2vs0mg"},{"bike_id":"0f5078e5-7573-478b-b32f-20721dd4abe0","system_id":"levelo_inurba_marseille","lat":43.292644,"lon":5.384257,"is_reserved":false,"is_disabled":false,"rental_uris":{"android":"levelo://app?vid=0f5078e5-7573-478b-b32f-20721dd4abe0","ios":"levelo://app?vid=0f5078e5-7573-478b-b32f-20721dd4abe0"},"vehicle_type_id":"4","last_reported":1714932503,"current_range_meters":13600,"station_id":"ce4bh692rcd13ifvqea0","pricing_plan_id":"cebpf4jnsgd1na2vs0mg"},{"bike_id":"5854900b-84c2-4226-a041-a82fcd0a0296","system_id":"levelo_inurba_marseille","lat":43.292642,"lon":5.384254,"is_reserved":false,"is_disabled":false,"rental_uris":{"android":"levelo://app?vid=5854900b-84c2-4226-a041-a82fcd0a0296","ios":"levelo://app?vid=5854900b-84c2-4226-a041-a82fcd0a0296"},"vehicle_type_id":"4","last_reported":1714932503,"current_range_meters":4000,"station_id":"ce4bh692rcd13ifvqea0","pricing_plan_id":"cebpf4jnsgd1na2vs0mg"},{"bike_id":"5665efa7-a0b1-4676-8748-19afef895e0a","system_id":"levelo_inurba_marseille","lat":43.292644,"lon":5.384257,"is_reserved":false,"is_disabled":false,"rental_uris":{"android":"levelo://app?vid=5665efa7-a0b1-4676-8748-19afef895e0a","ios":"levelo://app?vid=5665efa7-a0b1-4676-8748-19afef895e0a"},"vehicle_type_id":"4","last_reported":1714932503,"current_range_meters":30000,"station_id":"ce4bh692rcd13ifvqea0","pricing_plan_id":"cebpf4jnsgd1na2vs0mg"},{"bike_id":"c64426cc-cf17-4ff8-bc59-b36a046a131b","system_id":"levelo_inurba_marseille","lat":43.29263,"lon":5.38453,"is_reserved":false,"is_disabled":false,"rental_uris":{"android":"levelo://app?vid=c64426cc-cf17-4ff8-bc59-b36a046a131b","ios":"levelo://app?vid=c64426cc-cf17-4ff8-bc59-b36a046a131b"},"vehicle_type_id":"4","last_reported":1714932503,"current_range_meters":27600,"station_id":"ce4bh692rcd13ifvqea0","pricing_plan_id":"cebpf4jnsgd1na2vs0mg"},{"bike_id":"fe01a358-5627-464a-a7b2-5d44130cf629","system_id":"levelo_inurba_marseille","lat":43.292644,"lon":5.384257,"is_reserved":false,"is_disabled":false,"rental_uris":{"android":"levelo://app?vid=fe01a358-5627-464a-a7b2-5d44130cf629","ios":"levelo://app?vid=fe01a358-5627-464a-a7b2-5d44130cf629"},