{"last_updated":1717794562,"ttl":30,"version":"2.2","data":{"bikes":[{"bike_id":"64097840-17b0-479e-97fd-946313f9c44d","system_id":"levelo_inurba_marseille","lat":43.31341,"lon":5.367098,"is_reserved":false,"is_disabled":false,"rental_uris":{"android":"levelo://app?vid=64097840-17b0-479e-97fd-946313f9c44d","ios":"levelo://app?vid=64097840-17b0-479e-97fd-946313f9c44d"},"vehicle_type_id":"4","last_reported":1717794562,"current_range_meters":2800,"station_id":"ce4bgr92rcd13ifvqc6g","pricing_plan_id":"cebpf4jnsgd1na2vs0mg"},{"bike_id":"9b6f41d5-ca06-48f0-89c2-682296e1ee6d","system_id":"levelo_inurba_marseille","lat":43.31341,"lon":5.367098,"is_reserved":false,"is_disabled":false,"rental_uris":{"android":"levelo://app?vid=9b6f41d5-ca06-48f0-89c2-682296e1ee6d","ios":"levelo://app?vid=9b6f41d5-ca06-48f0-89c2-682296e1ee6d"},"vehicle_type_id":"4","last_reported":1717794562,"current_range_meters":20000,"station_id":"ce4bgr92rcd13ifvqc6g","pricing_plan_id":"cebpf4jnsgd1na2vs0mg"},{"bike_id":"e68caab9-c8d2-4d95-85cc-64f9bb04f224","system_id":"levelo_inurba_marseille","lat":43.31482,"lon":5.37304,"is_reserved":false,"is_disabled":false,"rental_uris":{"android":"levelo://app?vid=e68caab9-c8d2-4d95-85cc-64f9bb04f224","ios":"levelo://app?vid=e68caab9-c8d2-4d95-85cc-64f9bb04f224"},"vehicle_type_id":"4","last_reported":1717794562,"current_range_meters":10000,"station_id":"ce4bgt12rcd13ifvqcd0","pricing_plan_id":"cebpf4jnsgd1na2vs0mg"},{"bike_id":"15e2581a-4995-47c8-b5e0-487096192d4b","system_id":"levelo_inurba_marseille","lat":43.3149,"lon":5.37302,"is_reserved":false,"is_disabled":false,"rental_uris":{"android":"levelo://app?vid=15e2581a-4995-47c8-b5e0-487096192d4b","ios":"levelo://app?vid=15e2581a-4995-47c8-b5e0-487096192d4b"},"vehicle_type_id":"4","last_reported":1717794562,"current_range_meters":18000,"station_id":"ce4bgt12rcd13ifvqcd0","pricing_plan_id":"cebpf4jnsgd1na2vs0mg"},{"bike_id":"59eba157-a725-46c1-ba03-15d0207bd22f","system_id":"levelo_inurba_marseille","lat":43.314811,"lon":5.373103,"is_reserved":false,"is_disabled":false,"rental_uris":{"android":"levelo://app?vid=59eba157-a725-46c1-ba03-15d0207bd22f","ios":"levelo://app?vid=59eba157-a725-46c1-ba03-15d0207bd22f"},"vehicle_type_id":"4","last_reported":1717794562,"current_range_meters":29600,"station_id":"ce4bgt12rcd13ifvqcd0","pricing_plan_id":"cebpf4jnsgd1na2vs0mg"},{"bike_id":"4671a011-3735-4b45-beac-cdefcccf356d","system_id":"levelo_inurba_marseille","lat":43.314811,"lon":5.373103,"is_reserved":false,"is_disabled":false,"rental_uris":{"android":"levelo://app?vid=4671a011-3735-4b45-beac-cdefcccf356d","ios":"levelo://app?vid=4671a011-3735-4b45-beac-cdefcccf356d"},"vehicle_type_id":"4","last_reported":1717794562,"current_range_meters":6000,"station_id":"ce4bgt12rcd13ifvqcd0","pricing_plan_id":"cebpf4jnsgd1na2vs0mg"},{"bike_id":"657fb7f9-1ba9-4456-99d1-f07e79612ef0","system_id":"levelo_inurba_marseille","lat":43.314811,"lon":5.373103,"is_reserved":false,"is_disabled":false,"rental_uris":{"android":"levelo://app?vid=657fb7f9-1ba9-4456-99d1-f07e79612ef0","ios":"levelo://app?vid=657fb7f9-1ba9-4456-99d1-f07e79612ef0"},"vehicle_type_id":"4","last_reported":1717794562,"current_range_meters":7200,"station_id":"ce4bgt12rcd13ifvqcd0","pricing_plan_id":"cebpf4jnsgd1na2vs0mg"},{"bike_id":"982bf32a-1ac1-4f53-8110-2d80b8b42038","system_id":"levelo_inurba_marseille","lat":43.314811,"lon":5.373104,"is_reserved":false,"is_disabled":false,"rental_uris":{"android":"levelo://app?vid=982bf32a-1ac1-4f53-8110-2d80b8b42038","ios":"levelo://app?vid=982bf32a-1ac1-4f53-8110-2d80b8b42038"},"vehicle_type_id":"4","last_reported":1717794562,"current_range_meters":26800,"station_id":"ce4bgt12rcd13ifvqcd0","pricing_plan_id":"cebpf4jnsgd1na2vs0mg"},{"bike_id":"0eccfe1f-6e7c-496b-b354-c3453e7aa714","system_id":"levelo_inurba_marseille","lat":43.305714,"lon":5.365633,"is_reserved":false,"is_disabled":false,"rental_uris":{"android":"levelo://app?vid=0eccfe1f-6e7c-496b-b354-c3453e7aa714","ios":"levelo://app?vid=0eccfe1f-6e7c-496b-b354-c3453e7aa714"},"vehicle_type_id":"4","last_reported":1717794562,"current_range_meters":4800,"station_id":"ce4bgs12rcd13ifvqcag","pricing_plan_id":"cebpf4jnsgd1na2vs0mg"},{"bike_id":"6711a720-4be1-4766-9812-54d9f67bc267","system_id":"levelo_inurba_marseille","lat":43.31828,"lon":5.37338,"is_reserved":false,"is_disabled":false,"rental_uris":{"android":"levelo://app?vid=6711a720-4be1-4766-9812-54d9f67bc267","ios":"levelo://app?vid=6711a720-4be1-4766-9812-54d9f67bc267"},"vehicle_type_id":"4","last_reported":1717794562,"current_range_meters":14400,"station_id":"","pricing_plan_id":"cebpf4jnsgd1na2vs0mg"},{"bike_id":"1c72cba6-96e3-482f-b23b-d7df7f43c53c","system_id":"levelo_inurba_marseille","lat":43.305712,"lon":5.365641,"is_reserved":false,"is_disabled":false,"rental_uris":{"android":"levelo://app?vid=1c72cba6-96e3-482f-b23b-d7df7f43c53c","ios":"levelo://app?vid=1c72cba6-96e3-482f-b23b-d7df7f43c53c"},"vehicle_type_id":"4","last_reported":1717794562,"current_range_meters":23600,"station_id":"ce4bgs12rcd13ifvqcag","pricing_plan_id":"cebpf4jnsgd1na2vs0mg"},{"bike_id":"40240e92-4d2a-4fef-9cd6-51b93cab19eb","system_id":"levelo_inurba_marseille","lat":43.30537,"lon":5.367345,"is_reserved":false,"is_disabled":false,"rental_uris":{"android":"levelo://app?vid=40240e92-4d2a-4fef-9cd6-51b93cab19eb","ios":"levelo://app?vid=40240e92-4d2a-4fef-9cd6-51b93cab19eb"},"vehicle_type_id":"4","last_reported":1717794562,"current_range_meters":25200,"station_id":"ce4bgrp2rcd13ifvqc9g","pricing_plan_id":"cebpf4jnsgd1na2vs0mg"},{"bike_id":"53295028-3f58-42d0-84d8-686ed73f20d0","system_id":"levelo_inurba_marseille","lat":43.31186,"lon":5.37709,"is_reserved":false,"is_disabled":false,"rental_uris":{"android":"levelo://app?vid=53295028-3f58-42d0-84d8-686ed73f20d0","ios":"levelo://app?vid=53295028-3f58-42d0-84d8-686ed73f20d0"},"vehicle_type_id":"4","last_reported":1717794562,"current_range_meters":17600,"station_id":"","pricing_plan_id":"cebpf4jnsgd1na2vs0mg"},{"bike_id":"661047c1-3c69-462c-aab7-e44e66114406","system_id":"levelo_inurba_marseille","lat":43.311125,"lon":5.377624,"is_reserved":false,"is_disabled":false,"rental_uris":{"android":"levelo://app?vid=661047c1-3c69-462c-aab7-e44e66114406","ios":"levelo://app?vid=661047c1-3c69-462c-aab7-e44e66114406"},"vehicle_type_id":"4","last_reported":1717794562,"current_range_meters":23600,"station_id":"ce4bgt92rcd13ifvqcg0","pricing_plan_id":"cebpf4jnsgd1na2vs0mg"},{"bike_id":"3bf3a4b2-076a-4885-9bde-9f8dafbedacd","system_id":"levelo_inurba_marseille","lat":43.307945,"lon":5.376487,"is_reserved":false,"is_disabled":false,"rental_uris":{"android":"levelo://app?vid=3bf3a4b2-076a-4885-9bde-9f8dafbedacd","ios":"levelo://app?vid=3bf3a4b2-076a-4885-9bde-9f8dafbedacd"},"vehicle_type_id":"4","last_reported":1717794562,"current_range_meters":25200,"station_id":"ce4bgv92rcd13ifvqcq0","pricing_plan_id":"cebpf4jnsgd1na2vs0mg"},{"bike_id":"f1f04358-24f6-4eb2-9ac7-ced0f73bfb3c","system_id":"levelo_inurba_marseille","lat":43.307945,"lon":5.376487,"is_reserved":false,"is_disabled":false,"rental_uris":{"android":"levelo://app?vid=f1f04358-24f6-4eb2-9ac7-ced0f73bfb3c","ios":"levelo://app?vid=f1f04358-24f6-4eb2-9ac7-ced0f73bfb3c"},"vehicle_type_id":"4","last_reported":1717794562,"current_range_meters":24000,"station_id":"ce4bgv92rcd13ifvqcq0","pricing_plan_id":"cebpf4jnsgd1na2vs0mg"},{"bike_id":"026b2211-aa66-4c5e-b1c9-c0468e6da7b7","system_id":"levelo_inurba_marseille","lat":43.307945,"lon":5.376487,"is_reserved":false,"is_disabled":false,"rental_uris":{"android":"levelo://app?vid=026b2211-aa66-4c5e-b1c9-c0468e6da7b7","ios":"levelo://app?vid=026b2211-aa66-4c5e-b1c9-c0468e6da7b7"},"vehicle_type_id":"4","last_reported":1717794562,"current_range_meters":29600,"station_id":"ce4bgv92rcd13ifvqcq0","pricing_plan_id":"cebpf4jnsgd1na2vs0mg"},{"bike_id":"4b49bc93-1744-4510-a863-f87db719cb8e","system_id":"levelo_inurba_marseille","lat":43.317075,"lon":5.377367,"is_reserved":false,"is_disabled":false,"rental_uris":{"android":"levelo://app?vid=4b49bc93-1744-4510-a863-f87db719cb8e","ios":"levelo://app?vid=4b49bc93-1744-4510-a863-f87db719cb8e"},"vehicle_type_id":"4","last_reported":1717794562,"current_range_meters":10800,"station_id":"ce4bgth2rcd13ifvqch0","pricing_plan_id":"cebpf4jnsgd1na2vs0mg"},{"bike_id":"3daf2391-c108-4b7b-9104-a59602ea679b","system_id":"levelo_inurba_marseille","lat":43.315289,"lon":5.380349,"is_reserved":false,"is_disabled":false,"rental_uris":{"android":"levelo://app?vid=3daf2391-c108-4b7b-9104-a59602ea679b","ios":"levelo://app?vid=3daf2391-c108-4b7b-9104-a59602ea679b"},"vehicle_type_id":"4","last_reported":1717794562,"current_range_meters":10400,"station_id":"ce4bhsp2rcd13ifvqi50","pricing_plan_id":"cebpf4jnsgd1na2vs0mg"},{"bike_id":"102e5025-4551-43c2-bfcd-d56299a472a6","system_id":"levelo_inurba_marseille","lat":43.31536,"lon":5.3803,"is_reserved":false,"is_disabled":false,"rental_uris":{"android":"levelo://app?vid=102e5025-4551-43c2-bfcd-d56299a472a6","ios":"levelo://app?vid=102e5025-4551-43c2-bfcd-d56299a472a6"},"vehicle_type_id":"4","last_reported":1717794562,"current_range_meters":2400,"station_id":"ce4bhsp2rcd13ifvqi50","pricing_plan_id":"cebpf4jnsgd1na2vs0mg"},{"bike_id":"b49a2c84-a89f-4ffc-9565-c09659cdfeed","system_id":"levelo_inurba_marseille","lat":43.30221,"lon":5.36642,"is_reserved":false,"is_disabled":false,"rental_uris":{"android":"levelo://app?vid=b49a2c84-a89f-4ffc-9565-c09659cdfeed","ios":"levelo://app?vid=b49a2c84-a89f-4ffc-9565-c09659cdfeed"},"vehicle_type_id":"4","last_reported":1717794562,"current_range_meters":7200,"station_id":"ce4bgrh2rcd13ifvqc8g","pricing_plan_id":"cebpf4jnsgd1na2vs0mg"},{"bike_id":"bfe33d00-22be-4fcb-b412-bf8809def526","system_id":"levelo_inurba_marseille","lat":43.322425,"lon":5.374655,"is_reserved":false,"is_disabled":false,"rental_uris":{"android":"levelo://app?vid=bfe33d00-22be-4fcb-b412-bf8809def526","ios":"levelo://app?vid=bfe33d00-22be-4fcb-b412-bf8809def526"},"vehicle_type_id":"4","last_reported":1717794562,"current_range_meters":15600,"station_id":"","pricing_plan_id":"cebpf4jnsgd1na2vs0mg"},{"bike_id":"798013d6-8c33-46a3-a2c3-205b2bd3f926","system_id":"levelo_inurba_marseille","lat":43.308012,"lon":5.381511,"is_reserved":false,"is_disabled":false,"rental_uris":{"android":"levelo://app?vid=798013d6-8c33-46a3-a2c3-205b2bd3f926","ios":"levelo://app?vid=798013d6-8c33-46a3-a2c3-205b2bd3f926"},"vehicle_type_id":"4","last_reported":1717794562,"current_range_meters":6000,"station_id":"ce4bgt12rcd13ifvqce0","pricing_plan_id":"cebpf4jnsgd1na2vs0mg"},{"bike_id":"337bdc83-7d68-49b8-9ed9-c9c1639a0872","system_id":"levelo_inurba_marseille","lat":43.308012,"lon":5.381511,"is_reserved":false,"is_disabled":false,"rental_uris":{"android":"levelo://app?vid=337bdc83-7d68-49b8-9ed9-c9c1639a0872","ios":"levelo://app?vid=337bdc83-7d68-49b8-9ed9-c9c1639a0872"},"vehicle_type_id":"4","last_reported":1717794562,"current_range_meters":20800,"station_id":"ce4bgt12rcd13ifvqce0","pricing_plan_id":"cebpf4jnsgd1na2vs0mg"},{"bike_id":"4e4a80fd-dec9-4ae5-948d-50af638f0a95","system_id":"levelo_inurba_marseille","lat":43.308012,"lon":5.381511,"is_reserved":false,"is_disabled":false,"rental_uris":{"android":"levelo://app?vid=4e4a80fd-dec9-4ae5-948d-50af638f0a95","ios":"levelo://app?vid=4e4a80fd-dec9-4ae5-948d-50af638f0a95"},"vehicle_type_id":"4","last_reported":1717794562,"current_range_meters":8400,"station_id":"ce4bgt12rcd13ifvqce0","pricing_plan_id":"cebpf4jnsgd1na2vs0mg"},{"bike_id":"c967151c-848f-4259-910e-6362537d099d","system_id":"levelo_inurba_marseille","lat":43.308012,"lon":5.381511,"is_reserved":false,"is_disabled":false,"rental_uris":{"android":"levelo://app?vid=c967151c-848f-4259-910e-6362537d099d","ios":"levelo://app?vid=c967151c-848f-4259-910e-6362537d099d"},"vehicle_type_id":"4","last_reported":1717794562,"current_range_meters":16000,"station_id":"ce4bgt12rcd13ifvqce0","pricing_plan_id":"cebpf4jnsgd1na2vs0mg"},{"bike_id":"bbc2659f-964e-4395-93ed-acc7c85a0397","system_id":"levelo_inurba_marseille","lat":43.308012,"lon":5.381511,"is_reserved":false,"is_disabled":false,"rental_uris":{"android":"levelo://app?vid=bbc2659f-964e-4395-93ed-acc7c85a0397","ios":"levelo://app?vid=bbc2659f-964e-4395-93ed-acc7c85a0397"},"vehicle_type_id":"4","last_reported":1717794562,"current_range_meters":21200,"station_id":"ce4bgt12rcd13ifvqce0","pricing_plan_id":"cebpf4jnsgd1na2vs0mg"},{"bike_id":"374554b7-1a0a-42bf-b2b1-6207e4161bc3","system_id":"levelo_inurba_marseille","lat":43.308012,"lon":5.381511,"is_reserved":false,"is_disabled":false,"rental_uris":{"android":"levelo://app?vid=374554b7-1a0a-42bf-b2b1-6207e4161bc3","ios":"levelo://app?vid=374554b7-1a0a-42bf-b2b1-6207e4161bc3"},"vehicle_type_id":"4","last_reported":1717794562,"current_range_meters":13200,"station_id":"ce4bgt12rcd13ifvqce0","pricing_plan_id":"cebpf4jnsgd1na2vs0mg"},{"bike_id":"a51ae28d-56b8-4aab-b125-c981d73769a0","system_id":"levelo_inurba_marseille","lat":43.308012,"lon":5.381511,"is_reserved":false,"is_disabled":false,"rental_uris":{"android":"levelo://app?vid=a51ae28d-56b8-4aab-b125-c981d73769a0","ios":"levelo://app?vid=a51ae28d-56b8-4aab-b125-c981d73769a0"},"vehicle_type_id":"4","last_reported":1717794562,"current_range_meters":14000,"station_id":"ce4bgt12rcd13ifvqce0","pricing_plan_id":"cebpf4jnsgd1na2vs0mg"},{"bike_id":"38c8c3e7-8e73-486e-b7e1-c26165fdb211","system_id":"levelo_inurba_marseille","lat":43.324771,"lon":5.36557,"is_reserved":false,"is_disabled":false,"rental_uris":{"android":"levelo://app?vid=38c8c3e7-8e73-486e-b7e1-c26165fdb211","ios":"levelo://app?vid=38c8c3e7-8e73-486e-b7e1-c26165fdb211"},"vehicle_type_id":"4","last_reported":1717794562,"current_range_meters":18800,"station_id":"ce4bhs12rcd13ifvqhvg","pricing_plan_id":"cebpf4jnsgd1na2vs0mg"},{"bike_id":"deb4d2cc-bcf8-4c40-9b7c-53928f047508","system_id":"levelo_inurba_marseille","lat":43.324771,"lon":5.36557,"is_reserved":false,"is_disabled":false,"rental_uris":{"android":"levelo://app?vid=deb4d2cc-bcf8-4c40-9b7c-53928f047508","ios":"levelo://app?vid=deb4d2cc-bcf8-4c40-9b7c-53928f047508"},"vehicle_type_id":"4","last_reported":1717794562,"current_range_meters":6800,"station_id":"ce4bhs12rcd13ifvqhvg","pricing_plan_id":"cebpf4jnsgd1na2vs0mg"},{"bike_id":"d5eaaad4-9bc4-4e37-a8c8-92b738587a5b","system_id":"levelo_inurba_marseille","lat":43.324771,"lon":5.36557,"is_reserved":false,"is_disabled":false,"rental_uris":{"android":"levelo://app?vid=d5eaaad4-9bc4-4e37-a8c8-92b738587a5b","ios":"levelo://app?vid=d5eaaad4-9bc4-4e37-a8c8-92b738587a5b"},"vehicle_type_id":"4","last_reported":1717794562,"current_range_meters":21200,"station_id":"ce4bhs12rcd13ifvqhvg","pricing_plan_id":"cebpf4jnsgd1na2vs0mg"},{"bike_id":"90d494e1-1edf-4971-ae2b-fc1d3a0f77e1","system_id":"levelo_inurba_marseille","lat":43.324771,"lon":5.36557,"is_reserved":false,"is_disabled":false,"rental_uris":{"android":"levelo://app?vid=90d494e1-1edf-4971-ae2b-fc1d3a0f77e1","ios":"levelo://app?vid=90d494e1-1edf-4971-ae2b-fc1d3a0f77e1"},"vehicle_type_id":"4","last_reported":1717794562,"current_range_meters":2400,"station_id":"ce4bhs12rcd13ifvqhvg","pricing_plan_id":"cebpf4jnsgd1na2vs0mg"},{"bike_id":"b7ca7cc0-2c94-4c87-9ead-59eaad1158df","system_id":"levelo_inurba_marseille","lat":43.310804,"lon":5.38359,"is_reserved":false,"is_disabled":false,"rental_uris":{"android":"levelo://app?vid=b7ca7cc0-2c94-4c87-9ead-59eaad1158df","ios":"levelo://app?vid=b7ca7cc0-2c94-4c87-9ead-59eaad1158df"},"vehicle_type_id":"4","last_reported":1717794562,"current_range_meters":0,"station_id":"ce4bgv92rcd13ifvqcr0","pricing_plan_id":"cebpf4jnsgd1na2vs0mg"},{"bike_id":"36e5e9d6-cf93-4399-a06e-bccadb22619a","system_id":"levelo_inurba_marseille","lat":43.31071,"lon":5.3835,"is_reserved":false,"is_disabled":false,"rental_uris":{"android":"levelo://app?vid=36e5e9d6-cf93-4399-a06e-bccadb22619a","ios":"levelo://app?vid=36e5e9d6-cf93-4399-a06e-bccadb22619a"},"vehicle_type_id":"4","last_reported":1717794562,"current_range_meters":0,"station_id":"ce4bgv92rcd13ifvqcr0","pricing_plan_id":"cebpf4jnsgd1na2vs0mg"},{"bike_id":"89882134-1d24-43e4-9d1b-07b3a28e54d2","system_id":"levelo_inurba_marseille","lat":43.3107,"lon":5.383534,"is_reserved":false,"is_disabled":false,"rental_uris":{"android":"levelo://app?vid=89882134-1d24-43e4-9d1b-07b3a28e54d2","ios":"levelo://app?vid=89882134-1d24-43e4-9d1b-07b3a28e54d2"},"vehicle_type_id":"4","last_reported":1717794562,"current_range_meters":20000,"station_id":"ce4bgv92rcd13ifvqcr0","pricing_plan_id":"cebpf4jnsgd1na2vs0mg"},{"bike_id":"e8187182-4f0d-4f89-9164-9b108c14c1a1","system_id":"levelo_inurba_marseille","lat":43.31079,"lon":5.383565,"is_reserved":false,"is_disabled":false,"rental_uris":{"android":"levelo://app?vid=e8187182-4f0d-4f89-9164-9b108c14c1a1","ios":"levelo://app?vid=e8187182-4f0d-4f89-9164-9b108c14c1a1"},"vehicle_type_id":"4","last_reported":1717794562,"current_range_meters":0,"station_id":"ce4bgv92rcd13ifvqcr0","pricing_plan_id":"cebpf4jnsgd1na2vs0mg"},{"bike_id":"7328b4a1-1d1f-46dc-8de2-41ead49a469a","system_id":"levelo_inurba_marseille","lat":43.301429,"lon":5.37413,"is_reserved":false,"is_disabled":false,"rental_uris":{"android":"levelo://app?vid=7328b4a1-1d1f-46dc-8de2-41ead49a469a","ios":"levelo://app?vid=7328b4a1-1d1f-46dc-8de2-41ead49a469a"},"vehicle_type_id":"4","last_reported":1717794562,"current_range_meters":23200,"station_id":"ce4bgs92rcd13ifvqcc0","pricing_plan_id":"cebpf4jnsgd1na2vs0mg"},{"bike_id":"5751a80d-be37-45d9-8140-52aa1bbcf04c","system_id":"levelo_inurba_marseille","lat":43.302784,"lon":5.377158,"is_reserved":false,"is_disabled":false,"rental_uris":{"android":"levelo://app?vid=5751a80d-be37-45d9-8140-52aa1bbcf04c","ios":"levelo://app?vid=5751a80d-be37-45d9-8140-52aa1bbcf04c"},"vehicle_type_id":"4","last_reported":1717794562,"current_range_meters":2800,"station_id":"ce4bguh2rcd13ifvqcj0","pricing_plan_id":"cebpf4jnsgd1na2vs0mg"},{"bike_id":"74819e44-3116-4366-9b48-7f71c5fb5d41","system_id":"levelo_inurba_marseille","lat":43.302784,"lon":5.377158,"is_reserved":false,"is_disabled":false,"rental_uris":{"android":"levelo://app?vid=74819e44-3116-4366-9b48-7f71c5fb5d41","ios":"levelo://app?vid=74819e44-3116-4366-9b48-7f71c5fb5d41"},"vehicle_type_id":"4","last_reported":1717794562,"current_range_meters":2400,"station_id":"ce4bguh2rcd13ifvqcj0","pricing_plan_id":"cebpf4jnsgd1na2vs0mg"},{"bike_id":"383b7770-d91e-4f40-9075-cb54e1c6c325","system_id":"levelo_inurba_marseille","lat":43.302784,"lon":5.377158,"is_reserved":false,"is_disabled":false,"rental_uris":{"android":"levelo://app?vid=383b7770-d91e-4f40-9075-cb54e1c6c325","ios":"levelo://app?vid=383b7770-d91e-4f40-9075-cb54e1c6c325"},"vehicle_type_id":"4","last_reported":1717794562,"current_range_meters":4400,"station_id":"ce4bguh2rcd13ifvqcj0","pricing_plan_id":"cebpf4jnsgd1na2vs0mg"},{"bike_id":"c952498b-356d-4b34-9dc2-c22b47a5ae78","system_id":"levelo_inurba_marseille","lat":43.319935,"lon":5.381699,"is_reserved":false,"is_disabled":false,"rental_uris":{"android":"levelo://app?vid=c952498b-356d-4b34-9dc2-c22b47a5ae78","ios":"levelo://app?vid=c952498b-356d-4b34-9dc2-c22b47a5ae78"},"vehicle_type_id":"4","last_reported":1717794562,"current_range_meters":0,"station_id":"ce4bhr12rcd13ifvqhpg","pricing_plan_id":"cebpf4jnsgd1na2vs0mg"},{"bike_id":"6fc5a408-48a2-4180-aef5-42f9ea898789","system_id":"levelo_inurba_marseille","lat":43.319935,"lon":5.381699,"is_reserved":false,"is_disabled":false,"rental_uris":{"android":"levelo://app?vid=6fc5a408-48a2-4180-aef5-42f9ea898789","ios":"levelo://app?vid=6fc5a408-48a2-4180-aef5-42f9ea898789"},"vehicle_type_id":"4","last_reported":1717794562,"current_range_meters":0,"station_id":"ce4bhr12rcd13ifvqhpg","pricing_plan_id":"cebpf4jnsgd1na2vs0mg"},{"bike_id":"699c1570-326e-425c-bcac-af01ccfc73c6","system_id":"levelo_inurba_marseille","lat":43.319935,"lon":5.381699,"is_reserved":false,"is_disabled":false,"rental_uris":{"android":"levelo://app?vid=699c1570-326e-425c-bcac-af01ccfc73c6","ios":"levelo://app?vid=699c1570-326e-425c-bcac-af01ccfc73c6"},"vehicle_type_id":"4","last_reported":1717794562,"current_range_meters":7600,"station_id":"ce4bhr12rcd13ifvqhpg","pricing_plan_id":"cebpf4jnsgd1na2vs0mg"},{"bike_id":"d941d464-fcab-40eb-9a86-1ad5e3a0a8e7","system_id":"levelo_inurba_marseille","lat":43.32,"lon":5.381523,"is_reserved":false,"is_disabled":false,"rental_uris":{"android":"levelo://app?vid=d941d464-fcab-40eb-9a86-1ad5e3a0a8e7","ios":"levelo://app?vid=d941d464-fcab-40eb-9a86-1ad5e3a0a8e7"},"vehicle_type_id":"4","last_reported":1717794562,"current_range_meters":7200,"station_id":"ce4bhr12rcd13ifvqhpg","pricing_plan_id":"cebpf4jnsgd1na2vs0mg"},{"bike_id":"8509a297-1c96-4420-8ae1-8cb3f8537249","system_id":"levelo_inurba_marseille","lat":43.319935,"lon":5.381699,"is_reserved":false,"is_disabled":false,"rental_uris":{"android":"levelo://app?vid=8509a297-1c96-4420-8ae1-8cb3f8537249","ios":"levelo://app?vid=8509a297-1c96-4420-8ae1-8cb3f8537249"},"vehicle_type_id":"4","last_reported":1717794562,"current_range_meters":10800,"station_id":"ce4bhr12rcd13ifvqhpg","pricing_plan_id":"cebpf4jnsgd1na2vs0mg"},{"bike_id":"6098c9c6-12b0-4743-9fa7-9b1eed673a24","system_id":"levelo_inurba_marseille","lat":43.319935,"lon":5.381699,"is_reserved":false,"is_disabled":false,"rental_uris":{"android":"levelo://app?vid=6098c9c6-12b0-4743-9fa7-9b1eed673a24","ios":"levelo://app?vid=6098c9c6-12b0-4743-9fa7-9b1eed673a24"},"vehicle_type_id":"4","last_reported":1717794562,"current_range_meters":0,"station_id":"ce4bhr12rcd13ifvqhpg","pricing_plan_id":"cebpf4jnsgd1na2vs0mg"},{"bike_id":"df330f33-300d-4a5d-becb-69e06b5fdf0f","system_id":"levelo_inurba_marseille","lat":43.313571,"lon":5.384829,"is_reserved":false,"is_disabled":false,"rental_uris":{"android":"levelo://app?vid=df330f33-300d-4a5d-becb-69e06b5fdf0f","ios":"levelo://app?vid=df330f33-300d-4a5d-becb-69e06b5fdf0f"},"vehicle_type_id":"4","last_reported":1717794562,"current_range_meters":6800,"station_id":"ce4bgt92rcd13ifvqcf0","pricing_plan_id":"cebpf4jnsgd1na2vs0mg"},{"bike_id":"e7febe81-3cae-40ea-b4b6-689e1b2be94a","system_id":"levelo_inurba_marseille","lat":43.313571,"lon":5.384829,"is_reserved":false,"is_disabled":false,"rental_uris":{"android":"levelo://app?vid=e7febe81-3cae-40ea-b4b6-689e1b2be94a","ios":"levelo://app?vid=e7febe81-3cae-40ea-b4b6-689e1b2be94a"},"vehicle_type_id":"4","last_reported":1717794562,"current_range_meters":6000,"station_id":"ce4bgt92rcd13ifvqcf0","pricing_plan_id":"cebpf4jnsgd1na2vs0mg"},{"bike_id":"eed5ed25-fcff-48d8-a4b5-171027e48444","system_id":"levelo_inurba_marseille","lat":43.313571,"lon":5.384829,"is_reserved":false,"is_disabled":false,"rental_uris":{"android":"levelo://app?vid=eed5ed25-fcff-48d8-a4b5-171027e48444","ios":"levelo://app?vid=eed5ed25-fcff-48d8-a4b5-171027e48444"},"vehicle_type_id":"4","last_reported":1717794562,"current_range_meters":27600,"station_id":"ce4bgt92rcd13ifvqcf0","pricing_plan_id":"cebpf4jnsgd1na2vs0mg"},{"bike_id":"62284855-b43f-4b9a-aba5-11dd055bf0e2","system_id":"levelo_inurba_marseille","lat":43.313571,"lon":5.384829,"is_reserved":false,"is_disabled":false,"rental_uris":{"android":"levelo://app?vid=62284855-b43f-4b9a-aba5-11dd055bf0e2","ios":"levelo://app?vid=62284855-b43f-4b9a-aba5-11dd055bf0e2"},"vehicle_type_id":"4","last_reported":1717794562,"current_range_meters":15600,"station_id":"ce4bgt92rcd13ifvqcf0","pricing_plan_id":"cebpf4jnsgd1na2vs0mg"},{"bike_id":"5264552c-1199-437b-bb35-64e63a2d0162","system_id":"levelo_inurba_marseille","lat":43.313571,"lon":5.384829,"is_reserved":false,"is_disabled":false,"rental_uris":{"android":"levelo://app?vid=5264552c-1199-437b-bb35-64e63a2d0162","ios":"levelo://app?vid=5264552c-1199-437b-bb35-64e63a2d0162"},"vehicle_type_id":"4","last_reported":1717794562,"current_range_meters":20400,"station_id":"ce4bgt92rcd13ifvqcf0","pricing_plan_id":"cebpf4jnsgd1na2vs0mg"},{"bike_id":"9a43e607-0f0d-46e3-b5c1-a767628649e1","system_id":"levelo_inurba_marseille","lat":43.313571,"lon":5.384829,"is_reserved":false,"is_disabled":false,"rental_uris":{"android":"levelo://app?vid=9a43e607-0f0d-46e3-b5c1-a767628649e1","ios":"levelo://app?vid=9a43e607-0f0d-46e3-b5c1-a767628649e1"},"vehicle_type_id":"4","last_reported":1717794562,"current_range_meters":26000,"station_id":"ce4bgt92rcd13ifvqcf0","pricing_plan_id":"cebpf4jnsgd1na2vs0mg"},{"bike_id":"3ba7e8d0-7d94-4a17-8be2-26d9ab1b712e","system_id":"levelo_inurba_marseille","lat":43.313571,"lon":5.384829,"is_reserved":false,"is_disabled":false,"rental_uris":{"android":"levelo://app?vid=3ba7e8d0-7d94-4a17-8be2-26d9ab1b712e","ios":"levelo://app?vid=3ba7e8d0-7d94-4a17-8be2-26d9ab1b712e"},"vehicle_type_id":"4","last_reported":1717794562,"current_range_meters":7200,"station_id":"ce4bgt92rcd13ifvqcf0","pricing_plan_id":"cebpf4jnsgd1na2vs0mg"},{"bike_id":"2f6b85d6-73bf-4db0-859d-d1782e837974","system_id":"levelo_inurba_marseille","lat":43.313571,"lon":5.384829,"is_reserved":false,"is_disabled":false,"rental_uris":{"android":"levelo://app?vid=2f6b85d6-73bf-4db0-859d-d1782e837974","ios":"levelo://app?vid=2f6b85d6-73bf-4db0-859d-d1782e837974"},"vehicle_type_id":"4","last_reported":1717794562,"current_range_meters":22800,"station_id":"ce4bgt92rcd13ifvqcf0","pricing_plan_id":"cebpf4jnsgd1na2vs0mg"},{"bike_id":"5a9acf3c-1a46-4c91-958a-f34d547c5667","system_id":"levelo_inurba_marseille","lat":43.313571,"lon":5.384829,"is_reserved":false,"is_disabled":false,"rental_uris":{"android":"levelo://app?vid=5a9acf3c-1a46-4c91-958a-f34d547c5667","ios":"levelo://app?vid=5a9acf3c-1a46-4c91-958a-f34d547c5667"},"vehicle_type_id":"4","last_reported":1717794562,"current_range_meters":6400,"station_id":"ce4bgt92rcd13ifvqcf0","pricing_plan_id":"cebpf4jnsgd1na2vs0mg"},{"bike_id":"941433b2-07e5-48d3-968a-df41686bfb21","system_id":"levelo_inurba_marseille","lat":43.31351,"lon":5.38496,"is_reserved":false,"is_disabled":false,"rental_uris":{"android":"levelo://app?vid=941433b2-07e5-48d3-968a-df41686bfb21","ios":"levelo://app?vid=941433b2-07e5-48d3-968a-df41686bfb21"},"vehicle_type_id":"4","last_reported":1717794562,"current_range_meters":24400,"station_id":"ce4bgt92rcd13ifvqcf0","pricing_plan_id":"cebpf4jnsgd1na2vs0mg"},{"bike_id":"58dd92c7-6e8c-47fd-9b85-d356299ce35a","system_id":"levelo_inurba_marseille","lat":43.313571,"lon":5.384829,"is_reserved":false,"is_disabled":false,"rental_uris":{"android":"levelo://app?vid=58dd92c7-6e8c-47fd-9b85-d356299ce35a","ios":"levelo://app?vid=58dd92c7-6e8c-47fd-9b85-d356299ce35a"},"vehicle_type_id":"4","last_reported":1717794562,"current_range_meters":8800,"station_id":"ce4bgt92rcd13ifvqcf0","pricing_plan_id":"cebpf4jnsgd1na2vs0mg"},{"bike_id":"e2e03605-12c0-49f5-8d5a-1b938dcd90f5","system_id":"levelo_inurba_marseille","lat":43.313571,"lon":5.384829,"is_reserved":false,"is_disabled":false,"rental_uris":{"android":"levelo://app?vid=e2e03605-12c0-49f5-8d5a-1b938dcd90f5","ios":"levelo://app?vid=e2e03605-12c0-49f5-8d5a-1b938dcd90f5"},"vehicle_type_id":"4","last_reported":1717794562,"current_range_meters":31200,"station_id":"ce4bgt92rcd13ifvqcf0","pricing_plan_id":"cebpf4jnsgd1na2vs0mg"},{"bike_id":"27836bf2-95f5-47dd-823a-fe9e9208eb08","system_id":"levelo_inurba_marseille","lat":43.313571,"lon":5.384829,"is_reserved":false,"is_disabled":false,"rental_uris":{"android":"levelo://app?vid=27836bf2-95f5-47dd-823a-fe9e9208eb08","ios":"levelo://app?vid=27836bf2-95f5-47dd-823a-fe9e9208eb08"},"vehicle_type_id":"4","last_reported":1717794562,"current_range_meters":14800,"station_id":"ce4bgt92rcd13ifvqcf0","pricing_plan_id":"cebpf4jnsgd1na2vs0mg"},{"bike_id":"14c0b2a3-2a0a-4a3c-99bc-232708598e18","system_id":"levelo_inurba_marseille","lat":43.313571,"lon":5.384829,"is_reserved":false,"is_disabled":false,"rental_uris":{"android":"levelo://app?vid=14c0b2a3-2a0a-4a3c-99bc-232708598e18","ios":"levelo://app?vid=14c0b2a3-2a0a-4a3c-99bc-232708598e18"},"vehicle_type_id":"4","last_reported":1717794562,"current_range_meters":6800,"station_id":"ce4bgt92rcd13ifvqcf0","pricing_plan_id":"cebpf4jnsgd1na2vs0mg"},{"bike_id":"f7ada846-4547-446e-aef4-313164fe754b","system_id":"levelo_inurba_marseille","lat":43.299724,"lon":5.371829,"is_reserved":false,"is_disabled":false,"rental_uris":{"android":"levelo://app?vid=f7ada846-4547-446e-aef4-313164fe754b","ios":"levelo://app?vid=f7ada846-4547-446e-aef4-313164fe754b"},"vehicle_type_id":"4","last_reported":1717794562,"current_range_meters":4400,"station_id":"ce4bgr92rcd13ifvqc7g","pricing_plan_id":"cebpf4jnsgd1na2vs0mg"},{"bike_id":"3c9fe599-11ef-4904-ac9f-222bc966a693","system_id":"levelo_inurba_marseille","lat":43.305396,"lon":5.383601,"is_reserved":false,"is_disabled":false,"rental_uris":{"android":"levelo://app?vid=3c9fe599-11ef-4904-ac9f-222bc966a693","ios":"levelo://app?vid=3c9fe599-11ef-4904-ac9f-222bc966a693"},"vehicle_type_id":"4","last_reported":1717794562,"current_range_meters":5600,"station_id":"ce4bgg92rcd13ifvqb30","pricing_plan_id":"cebpf4jnsgd1na2vs0mg"},{"bike_id":"5a44954d-af03-4930-a6c2-cab02e127f82","system_id":"levelo_inurba_marseille","lat":43.29852,"lon":5.362827,"is_reserved":false,"is_disabled":false,"rental_uris":{"android":"levelo://app?vid=5a44954d-af03-4930-a6c2-cab02e127f82","ios":"levelo://app?vid=5a44954d-af03-4930-a6c2-cab02e127f82"},"vehicle_type_id":"4","last_reported":1717794562,"current_range_meters":0,"station_id":"ce4bgpp2rcd13ifvqc3g","pricing_plan_id":"cebpf4jnsgd1na2vs0mg"},{"bike_id":"9b559560-0073-4bec-a3f5-0b26adff0f7a","system_id":"levelo_inurba_marseille","lat":43.29849,"lon":5.36282,"is_reserved":false,"is_disabled":false,"rental_uris":{"android":"levelo://app?vid=9b559560-0073-4bec-a3f5-0b26adff0f7a","ios":"levelo://app?vid=9b559560-0073-4bec-a3f5-0b26adff0f7a"},"vehicle_type_id":"4","last_reported":1717794562,"current_range_meters":26400,"station_id":"ce4bgpp2rcd13ifvqc3g","pricing_plan_id":"cebpf4jnsgd1na2vs0mg"},{"bike_id":"960b6342-0b12-4b9e-9b21-cbc8191d437b","system_id":"levelo_inurba_marseille","lat":43.298469,"lon":5.362687,"is_reserved":false,"is_disabled":false,"rental_uris":{"android":"levelo://app?vid=960b6342-0b12-4b9e-9b21-cbc8191d437b","ios":"levelo://app?vid=960b6342-0b12-4b9e-9b21-cbc8191d437b"},"vehicle_type_id":"4","last_reported":1717794562,"current_range_meters":26800,"station_id":"ce4bgpp2rcd13ifvqc3g","pricing_plan_id":"cebpf4jnsgd1na2vs0mg"},{"bike_id":"1432cab6-88f9-448c-9411-c9c12db13040","system_id":"levelo_inurba_marseille","lat":43.299243,"lon":5.37481,"is_reserved":false,"is_disabled":false,"rental_uris":{"android":"levelo://app?vid=1432cab6-88f9-448c-9411-c9c12db13040","ios":"levelo://app?vid=1432cab6-88f9-448c-9411-c9c12db13040"},"vehicle_type_id":"4","last_reported":1717794562,"current_range_meters":21200,"station_id":"ce4bgjh2rcd13ifvqbg0","pricing_plan_id":"cebpf4jnsgd1na2vs0mg"},{"bike_id":"cb678008-8b94-44b9-9bc8-d00b8fcfd5be","system_id":"levelo_inurba_marseille","lat":43.311722,"lon":5.387247,"is_reserved":false,"is_disabled":false,"rental_uris":{"android":"levelo://app?vid=cb678008-8b94-44b9-9bc8-d00b8fcfd5be","ios":"levelo://app?vid=cb678008-8b94-44b9-9bc8-d00b8fcfd5be"},"vehicle_type_id":"4","last_reported":1717794562,"current_range_meters":31200,"station_id":"ce4bgv12rcd13ifvqcp0","pricing_plan_id":"cebpf4jnsgd1na2vs0mg"},{"bike_id":"e0c8421b-e81c-479b-a656-0f3ce892e937","system_id":"levelo_inurba_marseille","lat":43.311722,"lon":5.387247,"is_reserved":false,"is_disabled":false,"rental_uris":{"android":"levelo://app?vid=e0c8421b-e81c-479b-a656-0f3ce892e937","ios":"levelo://app?vid=e0c8421b-e81c-479b-a656-0f3ce892e937"},"vehicle_type_id":"4","last_reported":1717794562,"current_range_meters":8800,"station_id":"ce4bgv12rcd13ifvqcp0","pricing_plan_id":"cebpf4jnsgd1na2vs0mg"},{"bike_id":"04efc359-b96e-4f12-83d4-c96784901a7e","system_id":"levelo_inurba_marseille","lat":43.311722,"lon":5.387247,"is_reserved":false,"is_disabled":false,"rental_uris":{"android":"levelo://app?vid=04efc359-b96e-4f12-83d4-c96784901a7e","ios":"levelo://app?vid=04efc359-b96e-4f12-83d4-c96784901a7e"},"vehicle_type_id":"4","last_reported":1717794562,"current_range_meters":8800,"station_id":"ce4bgv12rcd13ifvqcp0","pricing_plan_id":"cebpf4jnsgd1na2vs0mg"},{"bike_id":"1b5c3840-0d1a-45a0-9c8c-3c38082318a3","system_id":"levelo_inurba_marseille","lat":43.311722,"lon":5.387247,"is_reserved":false,"is_disabled":false,"rental_uris":{"android":"levelo://app?vid=1b5c3840-0d1a-45a0-9c8c-3c38082318a3","ios":"levelo://app?vid=1b5c3840-0d1a-45a0-9c8c-3c38082318a3"},"vehicle_type_id":"4","last_reported":1717794562,"current_range_meters":22800,"station_id":"ce4bgv12rcd13ifvqcp0","pricing_plan_id":"cebpf4jnsgd1na2vs0mg"},{"bike_id":"f41f5e78-2496-4f7d-b100-abc0c85e091c","system_id":"levelo_inurba_marseille","lat":43.311722,"lon":5.387247,"is_reserved":false,"is_disabled":false,"rental_uris":{"android":"levelo://app?vid=f41f5e78-2496-4f7d-b100-abc0c85e091c","ios":"levelo://app?vid=f41f5e78-2496-4f7d-b100-abc0c85e091c"},"vehicle_type_id":"4","last_reported":1717794562,"current_range_meters":24400,"station_id":"ce4bgv12rcd13ifvqcp0","pricing_plan_id":"cebpf4jnsgd1na2vs0mg"},{"bike_id":"18010dec-a7dc-4024-9dd7-5bc40bc64c0f","system_id":"levelo_inurba_marseille","lat":43.297692,"lon":5.365733,"is_reserved":false,"is_disabled":false,"rental_uris":{"android":"levelo://app?vid=18010dec-a7dc-4024-9dd7-5bc40bc64c0f","ios":"levelo://app?vid=18010dec-a7dc-4024-9dd7-5bc40bc64c0f"},"vehicle_type_id":"4","last_reported":1717794562,"current_range_meters":10000,"station_id":"","pricing_plan_id":"cebpf4jnsgd1na2vs0mg"},{"bike_id":"6a769de5-002b-4278-aec2-17914b617d82","system_id":"levelo_inurba_marseille","lat":43.297794,"lon":5.370888,"is_reserved":false,"is_disabled":false,"rental_uris":{"android":"levelo://app?vid=6a769de5-002b-4278-aec2-17914b617d82","ios":"levelo://app?vid=6a769de5-002b-4278-aec2-17914b617d82"},"vehicle_type_id":"4","last_reported":1717794562,"current_range_meters":9600,"station_id":"ce4bgop2rcd13ifvqc1g","pricing_plan_id":"cebpf4jnsgd1na2vs0mg"},{"bike_id":"e415d7d7-6d12-4d58-ae1b-e29701efeef5","system_id":"levelo_inurba_marseille","lat":43.297794,"lon":5.370888,"is_reserved":false,"is_disabled":false,"rental_uris":{"android":"levelo://app?vid=e415d7d7-6d12-4d58-ae1b-e29701efeef5","ios":"levelo://app?vid=e415d7d7-6d12-4d58-ae1b-e29701efeef5"},"vehicle_type_id":"4","last_reported":1717794562,"current_range_meters":15200,"station_id":"ce4bgop2rcd13ifvqc1g","pricing_plan_id":"cebpf4jnsgd1na2vs0mg"},{"bike_id":"78e24f65-8640-48bf-b76c-9e82e0350dde","system_id":"levelo_inurba_marseille","lat":43.322874,"lon":5.382583,"is_reserved":false,"is_disabled":false,"rental_uris":{"android":"levelo://app?vid=78e24f65-8640-48bf-b76c-9e82e0350dde","ios":"levelo://app?vid=78e24f65-8640-48bf-b76c-9e82e0350dde"},"vehicle_type_id":"4","last_reported":1717794562,"current_range_meters":8400,"station_id":"ce4bhr12rcd13ifvqhqg","pricing_plan_id":"cebpf4jnsgd1na2vs0mg"},{"bike_id":"f9ae5b6c-e1c2-4c55-af5b-d380a842858f","system_id":"levelo_inurba_marseille","lat":43.297794,"lon":5.370888,"is_reserved":false,"is_disabled":false,"rental_uris":{"android":"levelo://app?vid=f9ae5b6c-e1c2-4c55-af5b-d380a842858f","ios":"levelo://app?vid=f9ae5b6c-e1c2-4c55-af5b-d380a842858f"},"vehicle_type_id":"4","last_reported":1717794562,"current_range_meters":5600,"station_id":"ce4bgop2rcd13ifvqc1g","pricing_plan_id":"cebpf4jnsgd1na2vs0mg"},{"bike_id":"5540a9ee-bf36-47d7-b4fa-9e44f79dfdd1","system_id":"levelo_inurba_marseille","lat":43.32286,"lon":5.3828,"is_reserved":false,"is_disabled":false,"rental_uris":{"android":"levelo://app?vid=5540a9ee-bf36-47d7-b4fa-9e44f79dfdd1","ios":"levelo://app?vid=5540a9ee-bf36-47d7-b4fa-9e44f79dfdd1"},"vehicle_type_id":"4","last_reported":1717794562,"current_range_meters":19200,"station_id":"ce4bhr12rcd13ifvqhqg","pricing_plan_id":"cebpf4jnsgd1na2vs0mg"},{"bike_id":"824fc295-378b-4555-a955-34760b9f52a1","system_id":"levelo_inurba_marseille","lat":43.297163,"lon":5.365866,"is_reserved":false,"is_disabled":false,"rental_uris":{"android":"levelo://app?vid=824fc295-378b-4555-a955-34760b9f52a1","ios":"levelo://app?vid=824fc295-378b-4555-a955-34760b9f52a1"},"vehicle_type_id":"4","last_reported":1717794562,"current_range_meters":30000,"station_id":"ce4bgn12rcd13ifvqbt0","pricing_plan_id":"cebpf4jnsgd1na2vs0mg"},{"bike_id":"7e1c6683-99cd-48b9-9d54-6bc164b06bab","system_id":"levelo_inurba_marseille","lat":43.297163,"lon":5.365866,"is_reserved":false,"is_disabled":false,"rental_uris":{"android":"levelo://app?vid=7e1c6683-99cd-48b9-9d54-6bc164b06bab","ios":"levelo://app?vid=7e1c6683-99cd-48b9-9d54-6bc164b06bab"},"vehicle_type_id":"4","last_reported":1717794562,"current_range_meters":18400,"station_id":"ce4bgn12rcd13ifvqbt0","pricing_plan_id":"cebpf4jnsgd1na2vs0mg"},{"bike_id":"90c63271-f42a-45b8-af99-9ad4932b3087","system_id":"levelo_inurba_marseille","lat":43.297163,"lon":5.365866,"is_reserved":false,"is_disabled":false,"rental_uris":{"android":"levelo://app?vid=90c63271-f42a-45b8-af99-9ad4932b3087","ios":"levelo://app?vid=90c63271-f42a-45b8-af99-9ad4932b3087"},"vehicle_type_id":"4","last_reported":1717794562,"current_range_meters":20400,"station_id":"ce4bgn12rcd13ifvqbt0","pricing_plan_id":"cebpf4jnsgd1na2vs0mg"},{"bike_id":"1f799194-1e32-44a4-9532-531d7bae77ca","system_id":"levelo_inurba_marseille","lat":43.297163,"lon":5.365866,"is_reserved":false,"is_disabled":false,"rental_uris":{"android":"levelo://app?vid=1f799194-1e32-44a4-9532-531d7bae77ca","ios":"levelo://app?vid=1f799194-1e32-44a4-9532-531d7bae77ca"},"vehicle_type_id":"4","last_reported":1717794562,"current_range_meters":17600,"station_id":"ce4bgn12rcd13ifvqbt0","pricing_plan_id":"cebpf4jnsgd1na2vs0mg"},{"bike_id":"0ae48925-a45a-4372-b61f-1c3a26de0674","system_id":"levelo_inurba_marseille","lat":43.2968,"lon":5.37291,"is_reserved":false,"is_disabled":false,"rental_uris":{"android":"levelo://app?vid=0ae48925-a45a-4372-b61f-1c3a26de0674","ios":"levelo://app?vid=0ae48925-a45a-4372-b61f-1c3a26de0674"},"vehicle_type_id":"4","last_reported":1717794562,"current_range_meters":6000,"station_id":"ce4bgk12rcd13ifvqbj0","pricing_plan_id":"cebpf4jnsgd1na2vs0mg"},{"bike_id":"0630808b-b6d9-4138-8f3d-e0a6375eb3c1","system_id":"levelo_inurba_marseille","lat":43.32147,"lon":5.38685,"is_reserved":false,"is_disabled":false,"rental_uris":{"android":"levelo://app?vid=0630808b-b6d9-4138-8f3d-e0a6375eb3c1","ios":"levelo://app?vid=0630808b-b6d9-4138-8f3d-e0a6375eb3c1"},"vehicle_type_id":"4","last_reported":1717794562,"current_range_meters":4800,"station_id":"","pricing_plan_id":"cebpf4jnsgd1na2vs0mg"},{"bike_id":"b2dbd20b-144c-432e-aaf4-a736fe968243","system_id":"levelo_inurba_marseille","lat":43.29573,"lon":5.367355,"is_reserved":false,"is_disabled":false,"rental_uris":{"android":"levelo://app?vid=b2dbd20b-144c-432e-aaf4-a736fe968243","ios":"levelo://app?vid=b2dbd20b-144c-432e-aaf4-a736fe968243"},"vehicle_type_id":"4","last_reported":1717794562,"current_range_meters":26000,"station_id":"ce4bgph2rcd13ifvqc2g","pricing_plan_id":"cebpf4jnsgd1na2vs0mg"},{"bike_id":"8207aded-bd06-4451-aebb-1111032c9005","system_id":"levelo_inurba_marseille","lat":43.296921,"lon":5.376579,"is_reserved":false,"is_disabled":false,"rental_uris":{"android":"levelo://app?vid=8207aded-bd06-4451-aebb-1111032c9005","ios":"levelo://app?vid=8207aded-bd06-4451-aebb-1111032c9005"},"vehicle_type_id":"4","last_reported":1717794562,"current_range_meters":21200,"station_id":"ce4bgkh2rcd13ifvqbl0","pricing_plan_id":"cebpf4jnsgd1na2vs0mg"},{"bike_id":"735000a9-673d-41ea-93a5-5647451adf8e","system_id":"levelo_inurba_marseille","lat":43.296921,"lon":5.376579,"is_reserved":false,"is_disabled":false,"rental_uris":{"android":"levelo://app?vid=735000a9-673d-41ea-93a5-5647451adf8e","ios":"levelo://app?vid=735000a9-673d-41ea-93a5-5647451adf8e"},"vehicle_type_id":"4","last_reported":1717794562,"current_range_meters":25600,"station_id":"ce4bgkh2rcd13ifvqbl0","pricing_plan_id":"cebpf4jnsgd1na2vs0mg"},{"bike_id":"5a5b351b-fdfc-42a9-9271-4bfa60f23927","system_id":"levelo_inurba_marseille","lat":43.299028,"lon":5.381509,"is_reserved":false,"is_disabled":false,"rental_uris":{"android":"levelo://app?vid=5a5b351b-fdfc-42a9-9271-4bfa60f23927","ios":"levelo://app?vid=5a5b351b-fdfc-42a9-9271-4bfa60f23927"},"vehicle_type_id":"4","last_reported":1717794562,"current_range_meters":14000,"station_id":"ce4bgj12rcd13ifvqbc0","pricing_plan_id":"cebpf4jnsgd1na2vs0mg"},{"bike_id":"e9dd918f-e9e9-4ea7-9a4f-764e3f593214","system_id":"levelo_inurba_marseille","lat":43.299028,"lon":5.381509,"is_reserved":false,"is_disabled":false,"rental_uris":{"android":"levelo://app?vid=e9dd918f-e9e9-4ea7-9a4f-764e3f593214","ios":"levelo://app?vid=e9dd918f-e9e9-4ea7-9a4f-764e3f593214"},"vehicle_type_id":"4","last_reported":1717794562,"current_range_meters":14400,"station_id":"ce4bgj12rcd13ifvqbc0","pricing_plan_id":"cebpf4jnsgd1na2vs0mg"},{"bike_id":"b62e7704-f272-4820-9b8e-ee6e96c8966e","system_id":"levelo_inurba_marseille","lat":43.299028,"lon":5.381509,"is_reserved":false,"is_disabled":false,"rental_uris":{"android":"levelo://app?vid=b62e7704-f272-4820-9b8e-ee6e96c8966e","ios":"levelo://app?vid=b62e7704-f272-4820-9b8e-ee6e96c8966e"},"vehicle_type_id":"4","last_reported":1717794562,"current_range_meters":27200,"station_id":"ce4bgj12rcd13ifvqbc0","pricing_plan_id":"cebpf4jnsgd1na2vs0mg"},{"bike_id":"eb87afa7-c273-4e7d-b418-14b9ee0c959c","system_id":"levelo_inurba_marseille","lat":43.299028,"lon":5.381509,"is_reserved":false,"is_disabled":false,"rental_uris":{"android":"levelo://app?vid=eb87afa7-c273-4e7d-b418-14b9ee0c959c","ios":"levelo://app?vid=eb87afa7-c273-4e7d-b418-14b9ee0c959c"},"vehicle_type_id":"4","last_reported":1717794562,"current_range_meters":4000,"station_id":"ce4bgj12rcd13ifvqbc0","pricing_plan_id":"cebpf4jnsgd1na2vs0mg"},{"bike_id":"14a73c23-cba6-4b7f-a40a-251f756265a4","system_id":"levelo_inurba_marseille","lat":43.30954,"lon":5.39026,"is_reserved":false,"is_disabled":false,"rental_uris":{"android":"levelo://app?vid=14a73c23-cba6-4b7f-a40a-251f756265a4","ios":"levelo://app?vid=14a73c23-cba6-4b7f-a40a-251f756265a4"},"vehicle_type_id":"4","last_reported":1717794562,"current_range_meters":0,"station_id":"ce4bgup2rcd13ifvqco0","pricing_plan_id":"cebpf4jnsgd1na2vs0mg"},{"bike_id":"06eed4ba-bbce-44f4-a1df-21f8b4241ba0","system_id":"levelo_inurba_marseille","lat":43.304274,"lon":5.388873,"is_reserved":false,"is_disabled":false,"rental_uris":{"android":"levelo://app?vid=06eed4ba-bbce-44f4-a1df-21f8b4241ba0","ios":"levelo://app?vid=06eed4ba-bbce-44f4-a1df-21f8b4241ba0"},"vehicle_type_id":"4","last_reported":1717794562,"current_range_meters":15200,"station_id":"ce4bgk12rcd13ifvqbi0","pricing_plan_id":"cebpf4jnsgd1na2vs0mg"},{"bike_id":"cdc4edea-19b6-4b02-bcfc-9a8d3974e653","system_id":"levelo_inurba_marseille","lat":43.30964,"lon":5.39035,"is_reserved":false,"is_disabled":false,"rental_uris":{"android":"levelo://app?vid=cdc4edea-19b6-4b02-bcfc-9a8d3974e653","ios":"levelo://app?vid=cdc4edea-19b6-4b02-bcfc-9a8d3974e653"},"vehicle_type_id":"4","last_reported":1717794562,"current_range_meters":0,"station_id":"ce4bgup2rcd13ifvqco0","pricing_plan_id":"cebpf4jnsgd1na2vs0mg"},{"bike_id":"370d063b-1bad-4ebd-add2-1782d09959f6","system_id":"levelo_inurba_marseille","lat":43.3095,"lon":5.39045,"is_reserved":false,"is_disabled":false,"rental_uris":{"android":"levelo://app?vid=370d063b-1bad-4ebd-add2-1782d09959f6","ios":"levelo://app?vid=370d063b-1bad-4ebd-add2-1782d09959f6"},"vehicle_type_id":"4","last_reported":1717794562,"current_range_meters":0,"station_id":"ce4bgup2rcd13ifvqco0","pricing_plan_id":"cebpf4jnsgd1na2vs0mg"},{"bike_id":"9bf06151-578d-48c0-b24d-4baaff1293a3","system_id":"levelo_inurba_marseille","lat":43.317557,"lon":5.390173,"is_reserved":false,"is_disabled":false,"rental_uris":{"android":"levelo://app?vid=9bf06151-578d-48c0-b24d-4baaff1293a3","ios":"levelo://app?vid=9bf06151-578d-48c0-b24d-4baaff1293a3"},"vehicle_type_id":"4","last_reported":1717794562,"current_range_meters":16800,"station_id":"ce4bhqp2rcd13ifvqhng","pricing_plan_id":"cebpf4jnsgd1na2vs0mg"},{"bike_id":"8fe73a13-5f57-4e22-9b12-57f03a305944","system_id":"levelo_inurba_marseille","lat":43.317557,"lon":5.390173,"is_reserved":false,"is_disabled":false,"rental_uris":{"android":"levelo://app?vid=8fe73a13-5f57-4e22-9b12-57f03a305944","ios":"levelo://app?vid=8fe73a13-5f57-4e22-9b12-57f03a305944"},"vehicle_type_id":"4","last_reported":1717794562,"current_range_meters":0,"station_id":"ce4bhqp2rcd13ifvqhng","pricing_plan_id":"cebpf4jnsgd1na2vs0mg"},{"bike_id":"d8e98145-915f-44c6-a9c7-1bf60f284baf","system_id":"levelo_inurba_marseille","lat":43.31757,"lon":5.390173,"is_reserved":false,"is_disabled":false,"rental_uris":{"android":"levelo://app?vid=d8e98145-915f-44c6-a9c7-1bf60f284baf","ios":"levelo://app?vid=d8e98145-915f-44c6-a9c7-1bf60f284baf"},"vehicle_type_id":"4","last_reported":1717794562,"current_range_meters":800,"station_id":"ce4bhqp2rcd13ifvqhng","pricing_plan_id":"cebpf4jnsgd1na2vs0mg"},{"bike_id":"17fe99b6-9c29-49b1-82c3-ddc9221959ff","system_id":"levelo_inurba_marseille","lat":43.31761,"lon":5.39018,"is_reserved":false,"is_disabled":false,"rental_uris":{"android":"levelo://app?vid=17fe99b6-9c29-49b1-82c3-ddc9221959ff","ios":"levelo://app?vid=17fe99b6-9c29-49b1-82c3-ddc9221959ff"},"vehicle_type_id":"4","last_reported":1717794562,"current_range_meters":29200,"station_id":"ce4bhqp2rcd13ifvqhng","pricing_plan_id":"cebpf4jnsgd1na2vs0mg"},{"bike_id":"4903a919-165c-4b7b-ba74-7186d8a1710d","system_id":"levelo_inurba_marseille","lat":43.298037,"lon":5.381066,"is_reserved":false,"is_disabled":false,"rental_uris":{"android":"levelo://app?vid=4903a919-165c-4b7b-ba74-7186d8a1710d","ios":"levelo://app?vid=4903a919-165c-4b7b-ba74-7186d8a1710d"},"vehicle_type_id":"4","last_reported":1717794562,"current_range_meters":3600,"station_id":"ce4bgip2rcd13ifvqbb0","pricing_plan_id":"cebpf4jnsgd1na2vs0mg"},{"bike_id":"04b2ef09-c42f-4437-81ef-a07022d4730d","system_id":"levelo_inurba_marseille","lat":43.298037,"lon":5.381066,"is_reserved":false,"is_disabled":false,"rental_uris":{"android":"levelo://app?vid=04b2ef09-c42f-4437-81ef-a07022d4730d","ios":"levelo://app?vid=04b2ef09-c42f-4437-81ef-a07022d4730d"},"vehicle_type_id":"4","last_reported":1717794562,"current_range_meters":1600,"station_id":"ce4bgip2rcd13ifvqbb0","pricing_plan_id":"cebpf4jnsgd1na2vs0mg"},{"bike_id":"ce031047-0bd6-43c1-a435-78e76eee61d4","system_id":"levelo_inurba_marseille","lat":43.298037,"lon":5.381066,"is_reserved":false,"is_disabled":false,"rental_uris":{"android":"levelo://app?vid=ce031047-0bd6-43c1-a435-78e76eee61d4","ios":"levelo://app?vid=ce031047-0bd6-43c1-a435-78e76eee61d4"},"vehicle_type_id":"4","last_reported":1717794562,"current_range_meters":26800,"station_id":"ce4bgip2rcd13ifvqbb0","pricing_plan_id":"cebpf4jnsgd1na2vs0mg"},{"bike_id":"2174d015-1621-4061-bff4-f6c64de12914","system_id":"levelo_inurba_marseille","lat":43.29789,"lon":5.38089,"is_reserved":false,"is_disabled":false,"rental_uris":{"android":"levelo://app?vid=2174d015-1621-4061-bff4-f6c64de12914","ios":"levelo://app?vid=2174d015-1621-4061-bff4-f6c64de12914"},"vehicle_type_id":"4","last_reported":1717794562,"current_range_meters":11200,"station_id":"ce4bgip2rcd13ifvqbb0","pricing_plan_id":"cebpf4jnsgd1na2vs0mg"},{"bike_id":"5e82a043-a177-4bd1-97be-f98f553008f5","system_id":"levelo_inurba_marseille","lat":43.298037,"lon":5.381066,"is_reserved":false,"is_disabled":false,"rental_uris":{"android":"levelo://app?vid=5e82a043-a177-4bd1-97be-f98f553008f5","ios":"levelo://app?vid=5e82a043-a177-4bd1-97be-f98f553008f5"},"vehicle_type_id":"4","last_reported":1717794562,"current_range_meters":26000,"station_id":"ce4bgip2rcd13ifvqbb0","pricing_plan_id":"cebpf4jnsgd1na2vs0mg"},{"bike_id":"db93c6ad-c061-4e5a-82b6-a8d45a999844","system_id":"levelo_inurba_marseille","lat":43.304274,"lon":5.388873,"is_reserved":false,"is_disabled":false,"rental_uris":{"android":"levelo://app?vid=db93c6ad-c061-4e5a-82b6-a8d45a999844","ios":"levelo://app?vid=db93c6ad-c061-4e5a-82b6-a8d45a999844"},"vehicle_type_id":"4","last_reported":1717794562,"current_range_meters":5200,"station_id":"ce4bgk12rcd13ifvqbi0","pricing_plan_id":"cebpf4jnsgd1na2vs0mg"},{"bike_id":"082977d8-1ea1-4c54-b4fd-2ba0cb529483","system_id":"levelo_inurba_marseille","lat":43.298037,"lon":5.381066,"is_reserved":false,"is_disabled":false,"rental_uris":{"android":"levelo://app?vid=082977d8-1ea1-4c54-b4fd-2ba0cb529483","ios":"levelo://app?vid=082977d8-1ea1-4c54-b4fd-2ba0cb529483"},"vehicle_type_id":"4","last_reported":1717794562,"current_range_meters":10800,"station_id":"ce4bgip2rcd13ifvqbb0","pricing_plan_id":"cebpf4jnsgd1na2vs0mg"},{"bike_id":"106bfcb1-1537-4fe8-858e-4e7301af537a","system_id":"levelo_inurba_marseille","lat":43.304274,"lon":5.388873,"is_reserved":false,"is_disabled":false,"rental_uris":{"android":"levelo://app?vid=106bfcb1-1537-4fe8-858e-4e7301af537a","ios":"levelo://app?vid=106bfcb1-1537-4fe8-858e-4e7301af537a"},"vehicle_type_id":"4","last_reported":1717794562,"current_range_meters":6400,"station_id":"ce4bgk12rcd13ifvqbi0","pricing_plan_id":"cebpf4jnsgd1na2vs0mg"},{"bike_id":"c10ccc4a-e29f-4972-984a-4d0b8f0df0db","system_id":"levelo_inurba_marseille","lat":43.30443,"lon":5.38894,"is_reserved":false,"is_disabled":false,"rental_uris":{"android":"levelo://app?vid=c10ccc4a-e29f-4972-984a-4d0b8f0df0db","ios":"levelo://app?vid=c10ccc4a-e29f-4972-984a-4d0b8f0df0db"},"vehicle_type_id":"4","last_reported":1717794562,"current_range_meters":20400,"station_id":"","pricing_plan_id":"cebpf4jnsgd1na2vs0mg"},{"bike_id":"f101152a-dd46-4eee-ade7-7ce3066270ca","system_id":"levelo_inurba_marseille","lat":43.295748,"lon":5.37522,"is_reserved":false,"is_disabled":false,"rental_uris":{"android":"levelo://app?vid=f101152a-dd46-4eee-ade7-7ce3066270ca","ios":"levelo://app?vid=f101152a-dd46-4eee-ade7-7ce3066270ca"},"vehicle_type_id":"4","last_reported":1717794562,"current_range_meters":27200,"station_id":"ce4bgh92rcd13ifvqb50","pricing_plan_id":"cebpf4jnsgd1na2vs0mg"},{"bike_id":"e413b630-a4b9-4f1d-959d-b15d6daff0b9","system_id":"levelo_inurba_marseille","lat":43.29626,"lon":5.3773,"is_reserved":false,"is_disabled":false,"rental_uris":{"android":"levelo://app?vid=e413b630-a4b9-4f1d-959d-b15d6daff0b9","ios":"levelo://app?vid=e413b630-a4b9-4f1d-959d-b15d6daff0b9"},"vehicle_type_id":"4","last_reported":1717794562,"current_range_meters":17200,"station_id":"ce4bgi92rcd13ifvqb90","pricing_plan_id":"cebpf4jnsgd1na2vs0mg"},{"bike_id":"fe09d4d0-fba0-4ca2-9fc2-c361bad51b6a","system_id":"levelo_inurba_marseille","lat":43.29603,"lon":5.37713,"is_reserved":false,"is_disabled":false,"rental_uris":{"android":"levelo://app?vid=fe09d4d0-fba0-4ca2-9fc2-c361bad51b6a","ios":"levelo://app?vid=fe09d4d0-fba0-4ca2-9fc2-c361bad51b6a"},"vehicle_type_id":"4","last_reported":1717794562,"current_range_meters":25200,"station_id":"ce4bgi92rcd13ifvqb90","pricing_plan_id":"cebpf4jnsgd1na2vs0mg"},{"bike_id":"8fc0c5b9-d555-47e4-b49a-d565549d7bb5","system_id":"levelo_inurba_marseille","lat":43.295279,"lon":5.375048,"is_reserved":false,"is_disabled":false,"rental_uris":{"android":"levelo://app?vid=8fc0c5b9-d555-47e4-b49a-d565549d7bb5","ios":"levelo://app?vid=8fc0c5b9-d555-47e4-b49a-d565549d7bb5"},"vehicle_type_id":"4","last_reported":1717794562,"current_range_meters":16400,"station_id":"ce4bgkp2rcd13ifvqbmg","pricing_plan_id":"cebpf4jnsgd1na2vs0mg"},{"bike_id":"0b832094-7a29-410c-966a-7c8d4152be2e","system_id":"levelo_inurba_marseille","lat":43.29975,"lon":5.38491,"is_reserved":false,"is_disabled":false,"rental_uris":{"android":"levelo://app?vid=0b832094-7a29-410c-966a-7c8d4152be2e","ios":"levelo://app?vid=0b832094-7a29-410c-966a-7c8d4152be2e"},"vehicle_type_id":"4","last_reported":1717794562,"current_range_meters":19200,"station_id":"ce4bgj92rcd13ifvqbd0","pricing_plan_id":"cebpf4jnsgd1na2vs0mg"},{"bike_id":"2e78bfd1-dc93-4359-81b6-cca55e276d32","system_id":"levelo_inurba_marseille","lat":43.299724,"lon":5.384848,"is_reserved":false,"is_disabled":false,"rental_uris":{"android":"levelo://app?vid=2e78bfd1-dc93-4359-81b6-cca55e276d32","ios":"levelo://app?vid=2e78bfd1-dc93-4359-81b6-cca55e276d32"},"vehicle_type_id":"4","last_reported":1717794562,"current_range_meters":12800,"station_id":"ce4bgj92rcd13ifvqbd0","pricing_plan_id":"cebpf4jnsgd1na2vs0mg"},{"bike_id":"65f40230-79d6-4fe9-9ade-05f2f3d9f4f0","system_id":"levelo_inurba_marseille","lat":43.299717,"lon":5.384845,"is_reserved":false,"is_disabled":false,"rental_uris":{"android":"levelo://app?vid=65f40230-79d6-4fe9-9ade-05f2f3d9f4f0","ios":"levelo://app?vid=65f40230-79d6-4fe9-9ade-05f2f3d9f4f0"},"vehicle_type_id":"4","last_reported":1717794562,"current_range_meters":0,"station_id":"ce4bgj92rcd13ifvqbd0","pricing_plan_id":"cebpf4jnsgd1na2vs0mg"},{"bike_id":"60a10db0-5d2f-48fa-82f7-f67c7d5a9872","system_id":"levelo_inurba_marseille","lat":43.32365,"lon":5.38869,"is_reserved":false,"is_disabled":false,"rental_uris":{"android":"levelo://app?vid=60a10db0-5d2f-48fa-82f7-f67c7d5a9872","ios":"levelo://app?vid=60a10db0-5d2f-48fa-82f7-f67c7d5a9872"},"vehicle_type_id":"4","last_reported":1717794562,"current_range_meters":3200,"station_id":"ce4bhqp2rcd13ifvqhog","pricing_plan_id":"cebpf4jnsgd1na2vs0mg"},{"bike_id":"74cdfff2-00f8-4bdc-9983-727faa1822b7","system_id":"levelo_inurba_marseille","lat":43.32375,"lon":5.38866,"is_reserved":false,"is_disabled":false,"rental_uris":{"android":"levelo://app?vid=74cdfff2-00f8-4bdc-9983-727faa1822b7","ios":"levelo://app?vid=74cdfff2-00f8-4bdc-9983-727faa1822b7"},"vehicle_type_id":"4","last_reported":1717794562,"current_range_meters":0,"station_id":"ce4bhqp2rcd13ifvqhog","pricing_plan_id":"cebpf4jnsgd1na2vs0mg"},{"bike_id":"02b4ba97-09e4-4e84-833c-94cab57d37fa","system_id":"levelo_inurba_marseille","lat":43.32362,"lon":5.3888,"is_reserved":false,"is_disabled":false,"rental_uris":{"android":"levelo://app?vid=02b4ba97-09e4-4e84-833c-94cab57d37fa","ios":"levelo://app?vid=02b4ba97-09e4-4e84-833c-94cab57d37fa"},"vehicle_type_id":"4","last_reported":1717794562,"current_range_meters":12400,"station_id":"ce4bhqp2rcd13ifvqhog","pricing_plan_id":"cebpf4jnsgd1na2vs0mg"},{"bike_id":"9244e8a6-2b12-427b-a3de-a88fbfc591b2","system_id":"levelo_inurba_marseille","lat":43.32367,"lon":5.388836,"is_reserved":false,"is_disabled":false,"rental_uris":{"android":"levelo://app?vid=9244e8a6-2b12-427b-a3de-a88fbfc591b2","ios":"levelo://app?vid=9244e8a6-2b12-427b-a3de-a88fbfc591b2"},"vehicle_type_id":"4","last_reported":1717794562,"current_range_meters":20800,"station_id":"ce4bhqp2rcd13ifvqhog","pricing_plan_id":"cebpf4jnsgd1na2vs0mg"},{"bike_id":"97029bd3-db37-4487-8eb8-0eef77ae5512","system_id":"levelo_inurba_marseille","lat":43.32368,"lon":5.38885,"is_reserved":false,"is_disabled":false,"rental_uris":{"android":"levelo://app?vid=97029bd3-db37-4487-8eb8-0eef77ae5512","ios":"levelo://app?vid=97029bd3-db37-4487-8eb8-0eef77ae5512"},"vehicle_type_id":"4","last_reported":1717794562,"current_range_meters":0,"station_id":"ce4bhqp2rcd13ifvqhog","pricing_plan_id":"cebpf4jnsgd1na2vs0mg"},{"bike_id":"a82d2e4b-7ed1-4124-a243-7927a09a8adf","system_id":"levelo_inurba_marseille","lat":43.292749,"lon":5.368398,"is_reserved":false,"is_disabled":false,"rental_uris":{"android":"levelo://app?vid=a82d2e4b-7ed1-4124-a243-7927a09a8adf","ios":"levelo://app?vid=a82d2e4b-7ed1-4124-a243-7927a09a8adf"},"vehicle_type_id":"4","last_reported":1717794562,"current_range_meters":17600,"station_id":"ce4bhbp2rcd13ifvqesg","pricing_plan_id":"cebpf4jnsgd1na2vs0mg"},{"bike_id":"60d4ad33-583b-46fd-87cf-23a605bace75","system_id":"levelo_inurba_marseille","lat":43.292749,"lon":5.368398,"is_reserved":false,"is_disabled":false,"rental_uris":{"android":"levelo://app?vid=60d4ad33-583b-46fd-87cf-23a605bace75","ios":"levelo://app?vid=60d4ad33-583b-46fd-87cf-23a605bace75"},"vehicle_type_id":"4","last_reported":1717794562,"current_range_meters":7200,"station_id":"ce4bhbp2rcd13ifvqesg","pricing_plan_id":"cebpf4jnsgd1na2vs0mg"},{"bike_id":"3fc18854-4615-41d5-9951-851d9347a5d2","system_id":"levelo_inurba_marseille","lat":43.292749,"lon":5.368398,"is_reserved":false,"is_disabled":false,"rental_uris":{"android":"levelo://app?vid=3fc18854-4615-41d5-9951-851d9347a5d2","ios":"levelo://app?vid=3fc18854-4615-41d5-9951-851d9347a5d2"},"vehicle_type_id":"4","last_reported":1717794562,"current_range_meters":9600,"station_id":"ce4bhbp2rcd13ifvqesg","pricing_plan_id":"cebpf4jnsgd1na2vs0mg"},{"bike_id":"5f14b7a2-bc1e-4a9e-a05b-2ea5d777b7ea","system_id":"levelo_inurba_marseille","lat":43.29271,"lon":5.36839,"is_reserved":false,"is_disabled":false,"rental_uris":{"android":"levelo://app?vid=5f14b7a2-bc1e-4a9e-a05b-2ea5d777b7ea","ios":"levelo://app?vid=5f14b7a2-bc1e-4a9e-a05b-2ea5d777b7ea"},"vehicle_type_id":"4","last_reported":1717794562,"current_range_meters":0,"station_id":"ce4bhbp2rcd13ifvqesg","pricing_plan_id":"cebpf4jnsgd1na2vs0mg"},{"bike_id":"31e4ab9b-f74b-4015-89cb-a2d6eff41527","system_id":"levelo_inurba_marseille","lat":43.293009,"lon":5.374584,"is_reserved":false,"is_disabled":false,"rental_uris":{"android":"levelo://app?vid=31e4ab9b-f74b-4015-89cb-a2d6eff41527","ios":"levelo://app?vid=31e4ab9b-f74b-4015-89cb-a2d6eff41527"},"vehicle_type_id":"4","last_reported":1717794562,"current_range_meters":29600,"station_id":"ce4bgi12rcd13ifvqb70","pricing_plan_id":"cebpf4jnsgd1na2vs0mg"},{"bike_id":"5891e7c9-1a8c-4d40-8bc4-74a1354a915c","system_id":"levelo_inurba_marseille","lat":43.30033,"lon":5.38957,"is_reserved":false,"is_disabled":false,"rental_uris":{"android":"levelo://app?vid=5891e7c9-1a8c-4d40-8bc4-74a1354a915c","ios":"levelo://app?vid=5891e7c9-1a8c-4d40-8bc4-74a1354a915c"},"vehicle_type_id":"4","last_reported":1717794562,"current_range_meters":5600,"station_id":"ce4bh2h2rcd13ifvqdh0","pricing_plan_id":"cebpf4jnsgd1na2vs0mg"},{"bike_id":"8699586d-2f5b-44a9-a2c3-ba3d6ecea0f8","system_id":"levelo_inurba_marseille","lat":43.30306,"lon":5.39201,"is_reserved":false,"is_disabled":false,"rental_uris":{"android":"levelo://app?vid=8699586d-2f5b-44a9-a2c3-ba3d6ecea0f8","ios":"levelo://app?vid=8699586d-2f5b-44a9-a2c3-ba3d6ecea0f8"},"vehicle_type_id":"4","last_reported":1717794562,"current_range_meters":26800,"station_id":"ce4bgkh2rcd13ifvqbk0","pricing_plan_id":"cebpf4jnsgd1na2vs0mg"},{"bike_id":"7ebc71af-42b8-4ec1-bc92-28f8b4dda636","system_id":"levelo_inurba_marseille","lat":43.30302,"lon":5.39199,"is_reserved":false,"is_disabled":false,"rental_uris":{"android":"levelo://app?vid=7ebc71af-42b8-4ec1-bc92-28f8b4dda636","ios":"levelo://app?vid=7ebc71af-42b8-4ec1-bc92-28f8b4dda636"},"vehicle_type_id":"4","last_reported":1717794562,"current_range_meters":30400,"station_id":"ce4bgkh2rcd13ifvqbk0","pricing_plan_id":"cebpf4jnsgd1na2vs0mg"},{"bike_id":"f667282e-b13d-4224-894e-b8cde81e919e","system_id":"levelo_inurba_marseille","lat":43.30304,"lon":5.39204,"is_reserved":false,"is_disabled":false,"rental_uris":{"android":"levelo://app?vid=f667282e-b13d-4224-894e-b8cde81e919e","ios":"levelo://app?vid=f667282e-b13d-4224-894e-b8cde81e919e"},"vehicle_type_id":"4","last_reported":1717794562,"current_range_meters":14000,"station_id":"ce4bgkh2rcd13ifvqbk0","pricing_plan_id":"cebpf4jnsgd1na2vs0mg"},{"bike_id":"4e661817-908a-4ffa-abbf-be032112646f","system_id":"levelo_inurba_marseille","lat":43.30306,"lon":5.39208,"is_reserved":false,"is_disabled":false,"rental_uris":{"android":"levelo://app?vid=4e661817-908a-4ffa-abbf-be032112646f","ios":"levelo://app?vid=4e661817-908a-4ffa-abbf-be032112646f"},"vehicle_type_id":"4","last_reported":1717794562,"current_range_meters":14400,"station_id":"ce4bgkh2rcd13ifvqbk0","pricing_plan_id":"cebpf4jnsgd1na2vs0mg"},{"bike_id":"e2e847ff-c567-4a13-bfb1-6b116a343468","system_id":"levelo_inurba_marseille","lat":43.302992,"lon":5.392136,"is_reserved":false,"is_disabled":false,"rental_uris":{"android":"levelo://app?vid=e2e847ff-c567-4a13-bfb1-6b116a343468","ios":"levelo://app?vid=e2e847ff-c567-4a13-bfb1-6b116a343468"},"vehicle_type_id":"4","last_reported":1717794562,"current_range_meters":20400,"station_id":"ce4bgkh2rcd13ifvqbk0","pricing_plan_id":"cebpf4jnsgd1na2vs0mg"},{"bike_id":"cc90f06e-e1a6-4d79-a62b-9c99044d5c91","system_id":"levelo_inurba_marseille","lat":43.30308,"lon":5.39217,"is_reserved":false,"is_disabled":false,"rental_uris":{"android":"levelo://app?vid=cc90f06e-e1a6-4d79-a62b-9c99044d5c91","ios":"levelo://app?vid=cc90f06e-e1a6-4d79-a62b-9c99044d5c91"},"vehicle_type_id":"4","last_reported":1717794562,"current_range_meters":12400,"station_id":"ce4bgkh2rcd13ifvqbk0","pricing_plan_id":"cebpf4jnsgd1na2vs0mg"},{"bike_id":"d29f079f-90de-4478-969c-7902ab09758b","system_id":"levelo_inurba_marseille","lat":43.302992,"lon":5.392136,"is_reserved":false,"is_disabled":false,"rental_uris":{"android":"levelo://app?vid=d29f079f-90de-4478-969c-7902ab09758b","ios":"levelo://app?vid=d29f079f-90de-4478-969c-7902ab09758b"},"vehicle_type_id":"4","last_reported":1717794562,"current_range_meters":26000,"station_id":"ce4bgkh2rcd13ifvqbk0","pricing_plan_id":"cebpf4jnsgd1na2vs0mg"},{"bike_id":"90ea0b2e-28a8-41c0-aa42-e0e236b030b5","system_id":"levelo_inurba_marseille","lat":43.2936,"lon":5.37835,"is_reserved":false,"is_disabled":false,"rental_uris":{"android":"levelo://app?vid=90ea0b2e-28a8-41c0-aa42-e0e236b030b5","ios":"levelo://app?vid=90ea0b2e-28a8-41c0-aa42-e0e236b030b5"},"vehicle_type_id":"4","last_reported":1717794562,"current_range_meters":10400,"station_id":"ce4bgjh2rcd13ifvqbf0","pricing_plan_id":"cebpf4jnsgd1na2vs0mg"},{"bike_id":"0b24ad13-d837-4079-8806-18a716f8ec6c","system_id":"levelo_inurba_marseille","lat":43.302992,"lon":5.392136,"is_reserved":false,"is_disabled":false,"rental_uris":{"android":"levelo://app?vid=0b24ad13-d837-4079-8806-18a716f8ec6c","ios":"levelo://app?vid=0b24ad13-d837-4079-8806-18a716f8ec6c"},"vehicle_type_id":"4","last_reported":1717794562,"current_range_meters":26000,"station_id":"ce4bgkh2rcd13ifvqbk0","pricing_plan_id":"cebpf4jnsgd1na2vs0mg"},{"bike_id":"045f58b8-17e1-4e00-8bee-c0357fbc00a4","system_id":"levelo_inurba_marseille","lat":43.2936,"lon":5.37835,"is_reserved":false,"is_disabled":false,"rental_uris":{"android":"levelo://app?vid=045f58b8-17e1-4e00-8bee-c0357fbc00a4","ios":"levelo://app?vid=045f58b8-17e1-4e00-8bee-c0357fbc00a4"},"vehicle_type_id":"4","last_reported":1717794562,"current_range_meters":29200,"station_id":"ce4bgjh2rcd13ifvqbf0","pricing_plan_id":"cebpf4jnsgd1na2vs0mg"},{"bike_id":"a0cac607-560d-44ae-9b03-3d57e2a6fe7a","system_id":"levelo_inurba_marseille","lat":43.2936,"lon":5.37835,"is_reserved":false,"is_disabled":false,"rental_uris":{"android":"levelo://app?vid=a0cac607-560d-44ae-9b03-3d57e2a6fe7a","ios":"levelo://app?vid=a0cac607-560d-44ae-9b03-3d57e2a6fe7a"},"vehicle_type_id":"4","last_reported":1717794562,"current_range_meters":21600,"station_id":"ce4bgjh2rcd13ifvqbf0","pricing_plan_id":"cebpf4jnsgd1na2vs0mg"},{"bike_id":"981ff44e-eed5-4754-a516-335ad517fbb7","system_id":"levelo_inurba_marseille","lat":43.2936,"lon":5.37835,"is_reserved":false,"is_disabled":false,"rental_uris":{"android":"levelo://app?vid=981ff44e-eed5-4754-a516-335ad517fbb7","ios":"levelo://app?vid=981ff44e-eed5-4754-a516-335ad517fbb7"},"vehicle_type_id":"4","last_reported":1717794562,"current_range_meters":31200,"station_id":"ce4bgjh2rcd13ifvqbf0","pricing_plan_id":"cebpf4jnsgd1na2vs0mg"},{"bike_id":"7d4f5631-09fc-42f9-a417-252abe3f3dad","system_id":"levelo_inurba_marseille","lat":43.30085,"lon":5.390856,"is_reserved":false,"is_disabled":false,"rental_uris":{"android":"levelo://app?vid=7d4f5631-09fc-42f9-a417-252abe3f3dad","ios":"levelo://app?vid=7d4f5631-09fc-42f9-a417-252abe3f3dad"},"vehicle_type_id":"4","last_reported":1717794562,"current_range_meters":22000,"station_id":"ce4bh192rcd13ifvqdb0","pricing_plan_id":"cebpf4jnsgd1na2vs0mg"},{"bike_id":"a0a612b6-ece5-4972-813c-86778e6810c3","system_id":"levelo_inurba_marseille","lat":43.30085,"lon":5.390856,"is_reserved":false,"is_disabled":false,"rental_uris":{"android":"levelo://app?vid=a0a612b6-ece5-4972-813c-86778e6810c3","ios":"levelo://app?vid=a0a612b6-ece5-4972-813c-86778e6810c3"},"vehicle_type_id":"4","last_reported":1717794562,"current_range_meters":14400,"station_id":"ce4bh192rcd13ifvqdb0","pricing_plan_id":"cebpf4jnsgd1na2vs0mg"},{"bike_id":"8d96189e-6d49-418e-89d7-1868b941a6a5","system_id":"levelo_inurba_marseille","lat":43.30085,"lon":5.390856,"is_reserved":false,"is_disabled":false,"rental_uris":{"android":"levelo://app?vid=8d96189e-6d49-418e-89d7-1868b941a6a5","ios":"levelo://app?vid=8d96189e-6d49-418e-89d7-1868b941a6a5"},"vehicle_type_id":"4","last_reported":1717794562,"current_range_meters":10800,"station_id":"ce4bh192rcd13ifvqdb0","pricing_plan_id":"cebpf4jnsgd1na2vs0mg"},{"bike_id":"86031c43-00a1-4118-bc8d-2d77c9b432fc","system_id":"levelo_inurba_marseille","lat":43.293009,"lon":5.374584,"is_reserved":false,"is_disabled":false,"rental_uris":{"android":"levelo://app?vid=86031c43-00a1-4118-bc8d-2d77c9b432fc","ios":"levelo://app?vid=86031c43-00a1-4118-bc8d-2d77c9b432fc"},"vehicle_type_id":"4","last_reported":1717794562,"current_range_meters":24400,"station_id":"ce4bgi12rcd13ifvqb70","pricing_plan_id":"cebpf4jnsgd1na2vs0mg"},{"bike_id":"1add293a-7f4c-4a68-9066-daca56a2eb83","system_id":"levelo_inurba_marseille","lat":43.291671,"lon":5.371575,"is_reserved":false,"is_disabled":false,"rental_uris":{"android":"levelo://app?vid=1add293a-7f4c-4a68-9066-daca56a2eb83","ios":"levelo://app?vid=1add293a-7f4c-4a68-9066-daca56a2eb83"},"vehicle_type_id":"4","last_reported":1717794562,"current_range_meters":30400,"station_id":"ce4bha92rcd13ifvqeh0","pricing_plan_id":"cebpf4jnsgd1na2vs0mg"},{"bike_id":"0b075c8c-e778-43e8-b961-f374e8b4a340","system_id":"levelo_inurba_marseille","lat":43.29175,"lon":5.37147,"is_reserved":false,"is_disabled":false,"rental_uris":{"android":"levelo://app?vid=0b075c8c-e778-43e8-b961-f374e8b4a340","ios":"levelo://app?vid=0b075c8c-e778-43e8-b961-f374e8b4a340"},"vehicle_type_id":"4","last_reported":1717794562,"current_range_meters":23200,"station_id":"","pricing_plan_id":"cebpf4jnsgd1na2vs0mg"},{"bike_id":"c60e2774-76f3-402b-82e8-7d7450ce4d4f","system_id":"levelo_inurba_marseille","lat":43.291671,"lon":5.371575,"is_reserved":false,"is_disabled":false,"rental_uris":{"android":"levelo://app?vid=c60e2774-76f3-402b-82e8-7d7450ce4d4f","ios":"levelo://app?vid=c60e2774-76f3-402b-82e8-7d7450ce4d4f"},"vehicle_type_id":"4","last_reported":1717794562,"current_range_meters":26400,"station_id":"ce4bha92rcd13ifvqeh0","pricing_plan_id":"cebpf4jnsgd1na2vs0mg"},{"bike_id":"ef6fd252-d7c0-4633-a19d-e5f71d90e699","system_id":"levelo_inurba_marseille","lat":43.298764,"lon":5.388973,"is_reserved":false,"is_disabled":false,"rental_uris":{"android":"levelo://app?vid=ef6fd252-d7c0-4633-a19d-e5f71d90e699","ios":"levelo://app?vid=ef6fd252-d7c0-4633-a19d-e5f71d90e699"},"vehicle_type_id":"4","last_reported":1717794562,"current_range_meters":25200,"station_id":"ce4bh392rcd13ifvqdl0","pricing_plan_id":"cebpf4jnsgd1na2vs0mg"},{"bike_id":"00f57937-517d-41db-be79-58822d4d170d","system_id":"levelo_inurba_marseille","lat":43.291671,"lon":5.371575,"is_reserved":false,"is_disabled":false,"rental_uris":{"android":"levelo://app?vid=00f57937-517d-41db-be79-58822d4d170d","ios":"levelo://app?vid=00f57937-517d-41db-be79-58822d4d170d"},"vehicle_type_id":"4","last_reported":1717794562,"current_range_meters":22000,"station_id":"ce4bha92rcd13ifvqeh0","pricing_plan_id":"cebpf4jnsgd1na2vs0mg"},{"bike_id":"c51d7be0-8eb0-48c1-8ec2-98d3f92ca4a8","system_id":"levelo_inurba_marseille","lat":43.298764,"lon":5.388973,"is_reserved":false,"is_disabled":false,"rental_uris":{"android":"levelo://app?vid=c51d7be0-8eb0-48c1-8ec2-98d3f92ca4a8","ios":"levelo://app?vid=c51d7be0-8eb0-48c1-8ec2-98d3f92ca4a8"},"vehicle_type_id":"4","last_reported":1717794562,"current_range_meters":28800,"station_id":"ce4bh392rcd13ifvqdl0","pricing_plan_id":"cebpf4jnsgd1na2vs0mg"},{"bike_id":"a2f21f5a-faad-4842-b4d3-2bc437f09e08","system_id":"levelo_inurba_marseille","lat":43.313291,"lon":5.396838,"is_reserved":false,"is_disabled":false,"rental_uris":{"android":"levelo://app?vid=a2f21f5a-faad-4842-b4d3-2bc437f09e08","ios":"levelo://app?vid=a2f21f5a-faad-4842-b4d3-2bc437f09e08"},"vehicle_type_id":"4","last_reported":1717794562,"current_range_meters":14800,"station_id":"ce4bgvp2rcd13ifvqcu0","pricing_plan_id":"cebpf4jnsgd1na2vs0mg"},{"bike_id":"a2b47cf1-a2e8-47cd-af20-e97256b41de5","system_id":"levelo_inurba_marseille","lat":43.309047,"lon":5.396551,"is_reserved":false,"is_disabled":false,"rental_uris":{"android":"levelo://app?vid=a2b47cf1-a2e8-47cd-af20-e97256b41de5","ios":"levelo://app?vid=a2b47cf1-a2e8-47cd-af20-e97256b41de5"},"vehicle_type_id":"4","last_reported":1717794562,"current_range_meters":13600,"station_id":"ce4bh012rcd13ifvqcv0","pricing_plan_id":"cebpf4jnsgd1na2vs0mg"},{"bike_id":"4d2e9ef3-aa2d-4863-98d6-c00cbebde660","system_id":"levelo_inurba_marseille","lat":43.313291,"lon":5.396838,"is_reserved":false,"is_disabled":false,"rental_uris":{"android":"levelo://app?vid=4d2e9ef3-aa2d-4863-98d6-c00cbebde660","ios":"levelo://app?vid=4d2e9ef3-aa2d-4863-98d6-c00cbebde660"},"vehicle_type_id":"4","last_reported":1717794562,"current_range_meters":17600,"station_id":"ce4bgvp2rcd13ifvqcu0","pricing_plan_id":"cebpf4jnsgd1na2vs0mg"},{"bike_id":"c4ec70fa-3df0-427a-948d-0f7632fdd852","system_id":"levelo_inurba_marseille","lat":43.313291,"lon":5.396838,"is_reserved":false,"is_disabled":false,"rental_uris":{"android":"levelo://app?vid=c4ec70fa-3df0-427a-948d-0f7632fdd852","ios":"levelo://app?vid=c4ec70fa-3df0-427a-948d-0f7632fdd852"},"vehicle_type_id":"4","last_reported":1717794562,"current_range_meters":16800,"station_id":"ce4bgvp2rcd13ifvqcu0","pricing_plan_id":"cebpf4jnsgd1na2vs0mg"},{"bike_id":"b2cae516-c4ef-446a-beb2-69e1bc040721","system_id":"levelo_inurba_marseille","lat":43.313291,"lon":5.396838,"is_reserved":false,"is_disabled":false,"rental_uris":{"android":"levelo://app?vid=b2cae516-c4ef-446a-beb2-69e1bc040721","ios":"levelo://app?vid=b2cae516-c4ef-446a-beb2-69e1bc040721"},"vehicle_type_id":"4","last_reported":1717794562,"current_range_meters":0,"station_id":"ce4bgvp2rcd13ifvqcu0","pricing_plan_id":"cebpf4jnsgd1na2vs0mg"},{"bike_id":"8ea66df7-ca3d-4e61-8cd1-be7cdff72bb9","system_id":"levelo_inurba_marseille","lat":43.313291,"lon":5.396838,"is_reserved":false,"is_disabled":false,"rental_uris":{"android":"levelo://app?vid=8ea66df7-ca3d-4e61-8cd1-be7cdff72bb9","ios":"levelo://app?vid=8ea66df7-ca3d-4e61-8cd1-be7cdff72bb9"},"vehicle_type_id":"4","last_reported":1717794562,"current_range_meters":22000,"station_id":"ce4bgvp2rcd13ifvqcu0","pricing_plan_id":"cebpf4jnsgd1na2vs0mg"},{"bike_id":"c24cda0e-e0de-4546-ae87-a891937d3131","system_id":"levelo_inurba_marseille","lat":43.313291,"lon":5.396838,"is_reserved":false,"is_disabled":false,"rental_uris":{"android":"levelo://app?vid=c24cda0e-e0de-4546-ae87-a891937d3131","ios":"levelo://app?vid=c24cda0e-e0de-4546-ae87-a891937d3131"},"vehicle_type_id":"4","last_reported":1717794562,"current_range_meters":26400,"station_id":"ce4bgvp2rcd13ifvqcu0","pricing_plan_id":"cebpf4jnsgd1na2vs0mg"},{"bike_id":"db1f9099-b37d-4c60-8610-8a1e457f1497","system_id":"levelo_inurba_marseille","lat":43.30888,"lon":5.39642,"is_reserved":false,"is_disabled":false,"rental_uris":{"android":"levelo://app?vid=db1f9099-b37d-4c60-8610-8a1e457f1497","ios":"levelo://app?vid=db1f9099-b37d-4c60-8610-8a1e457f1497"},"vehicle_type_id":"4","last_reported":1717794562,"current_range_meters":0,"station_id":"ce4bh012rcd13ifvqcv0","pricing_plan_id":"cebpf4jnsgd1na2vs0mg"},{"bike_id":"d097d347-0654-497b-96d6-a69275617c4b","system_id":"levelo_inurba_marseille","lat":43.3089,"lon":5.39643,"is_reserved":false,"is_disabled":false,"rental_uris":{"android":"levelo://app?vid=d097d347-0654-497b-96d6-a69275617c4b","ios":"levelo://app?vid=d097d347-0654-497b-96d6-a69275617c4b"},"vehicle_type_id":"4","last_reported":1717794562,"current_range_meters":0,"station_id":"ce4bh012rcd13ifvqcv0","pricing_plan_id":"cebpf4jnsgd1na2vs0mg"},{"bike_id":"d9b6e396-67b3-4d74-9eef-3829119260bb","system_id":"levelo_inurba_marseille","lat":43.309047,"lon":5.396551,"is_reserved":false,"is_disabled":false,"rental_uris":{"android":"levelo://app?vid=d9b6e396-67b3-4d74-9eef-3829119260bb","ios":"levelo://app?vid=d9b6e396-67b3-4d74-9eef-3829119260bb"},"vehicle_type_id":"4","last_reported":1717794562,"current_range_meters":24400,"station_id":"ce4bh012rcd13ifvqcv0","pricing_plan_id":"cebpf4jnsgd1na2vs0mg"},{"bike_id":"9e2dae3e-7577-49be-b838-bf7cfe9706f5","system_id":"levelo_inurba_marseille","lat":43.291994,"lon":5.357886,"is_reserved":false,"is_disabled":false,"rental_uris":{"android":"levelo://app?vid=9e2dae3e-7577-49be-b838-bf7cfe9706f5","ios":"levelo://app?vid=9e2dae3e-7577-49be-b838-bf7cfe9706f5"},"vehicle_type_id":"4","last_reported":1717794562,"current_range_meters":0,"station_id":"ce4bhb12rcd13ifvqel0","pricing_plan_id":"cebpf4jnsgd1na2vs0mg"},{"bike_id":"a718b6df-418d-46ae-a73d-67f2553da729","system_id":"levelo_inurba_marseille","lat":43.309038,"lon":5.396546,"is_reserved":false,"is_disabled":false,"rental_uris":{"android":"levelo://app?vid=a718b6df-418d-46ae-a73d-67f2553da729","ios":"levelo://app?vid=a718b6df-418d-46ae-a73d-67f2553da729"},"vehicle_type_id":"4","last_reported":1717794562,"current_range_meters":27200,"station_id":"ce4bh012rcd13ifvqcv0","pricing_plan_id":"cebpf4jnsgd1na2vs0mg"},{"bike_id":"702cb45c-61e5-4719-acbf-b8139a32eece","system_id":"levelo_inurba_marseille","lat":43.309038,"lon":5.396546,"is_reserved":false,"is_disabled":false,"rental_uris":{"android":"levelo://app?vid=702cb45c-61e5-4719-acbf-b8139a32eece","ios":"levelo://app?vid=702cb45c-61e5-4719-acbf-b8139a32eece"},"vehicle_type_id":"4","last_reported":1717794562,"current_range_meters":1600,"station_id":"ce4bh012rcd13ifvqcv0","pricing_plan_id":"cebpf4jnsgd1na2vs0mg"},{"bike_id":"c1f6cb03-6d92-4998-91dd-9b1be27e401f","system_id":"levelo_inurba_marseille","lat":43.29529,"lon":5.385581,"is_reserved":false,"is_disabled":false,"rental_uris":{"android":"levelo://app?vid=c1f6cb03-6d92-4998-91dd-9b1be27e401f","ios":"levelo://app?vid=c1f6cb03-6d92-4998-91dd-9b1be27e401f"},"vehicle_type_id":"4","last_reported":1717794562,"current_range_meters":9200,"station_id":"ce4bgih2rcd13ifvqba0","pricing_plan_id":"cebpf4jnsgd1na2vs0mg"},{"bike_id":"74f4d418-fa7e-4cd0-9e72-f40c5525a751","system_id":"levelo_inurba_marseille","lat":43.29544,"lon":5.38541,"is_reserved":false,"is_disabled":false,"rental_uris":{"android":"levelo://app?vid=74f4d418-fa7e-4cd0-9e72-f40c5525a751","ios":"levelo://app?vid=74f4d418-fa7e-4cd0-9e72-f40c5525a751"},"vehicle_type_id":"4","last_reported":1717794562,"current_range_meters":0,"station_id":"ce4bgih2rcd13ifvqba0","pricing_plan_id":"cebpf4jnsgd1na2vs0mg"},{"bike_id":"e7dd17cd-a634-4c0d-9b83-e29b38bcaf8b","system_id":"levelo_inurba_marseille","lat":43.29529,"lon":5.385581,"is_reserved":false,"is_disabled":false,"rental_uris":{"android":"levelo://app?vid=e7dd17cd-a634-4c0d-9b83-e29b38bcaf8b","ios":"levelo://app?vid=e7dd17cd-a634-4c0d-9b83-e29b38bcaf8b"},"vehicle_type_id":"4","last_reported":1717794562,"current_range_meters":10800,"station_id":"ce4bgih2rcd13ifvqba0","pricing_plan_id":"cebpf4jnsgd1na2vs0mg"},{"bike_id":"6d7b4b7e-0e3e-49b8-b5eb-c051a491135b","system_id":"levelo_inurba_marseille","lat":43.29539,"lon":5.38536,"is_reserved":false,"is_disabled":false,"rental_uris":{"android":"levelo://app?vid=6d7b4b7e-0e3e-49b8-b5eb-c051a491135b","ios":"levelo://app?vid=6d7b4b7e-0e3e-49b8-b5eb-c051a491135b"},"vehicle_type_id":"4","last_reported":1717794562,"current_range_meters":17200,"station_id":"ce4bgih2rcd13ifvqba0","pricing_plan_id":"cebpf4jnsgd1na2vs0mg"},{"bike_id":"5a5459bf-1d44-4bb0-a9ff-06e812ac5a53","system_id":"levelo_inurba_marseille","lat":43.29529,"lon":5.385581,"is_reserved":false,"is_disabled":false,"rental_uris":{"android":"levelo://app?vid=5a5459bf-1d44-4bb0-a9ff-06e812ac5a53","ios":"levelo://app?vid=5a5459bf-1d44-4bb0-a9ff-06e812ac5a53"},"vehicle_type_id":"4","last_reported":1717794562,"current_range_meters":17200,"station_id":"ce4bgih2rcd13ifvqba0","pricing_plan_id":"cebpf4jnsgd1na2vs0mg"},{"bike_id":"4aacb4b0-d94a-46f6-8809-93478aeddc9b","system_id":"levelo_inurba_marseille","lat":43.29529,"lon":5.385581,"is_reserved":false,"is_disabled":false,"rental_uris":{"android":"levelo://app?vid=4aacb4b0-d94a-46f6-8809-93478aeddc9b","ios":"levelo://app?vid=4aacb4b0-d94a-46f6-8809-93478aeddc9b"},"vehicle_type_id":"4","last_reported":1717794562,"current_range_meters":24000,"station_id":"ce4bgih2rcd13ifvqba0","pricing_plan_id":"cebpf4jnsgd1na2vs0mg"},{"bike_id":"cdb25544-240d-4b78-915b-a72b41e8b47b","system_id":"levelo_inurba_marseille","lat":43.29529,"lon":5.385581,"is_reserved":false,"is_disabled":false,"rental_uris":{"android":"levelo://app?vid=cdb25544-240d-4b78-915b-a72b41e8b47b","ios":"levelo://app?vid=cdb25544-240d-4b78-915b-a72b41e8b47b"},"vehicle_type_id":"4","last_reported":1717794562,"current_range_meters":8400,"station_id":"ce4bgih2rcd13ifvqba0","pricing_plan_id":"cebpf4jnsgd1na2vs0mg"},{"bike_id":"34ee787d-1f6d-450e-ac11-1448535532a8","system_id":"levelo_inurba_marseille","lat":43.309047,"lon":5.396551,"is_reserved":false,"is_disabled":false,"rental_uris":{"android":"levelo://app?vid=34ee787d-1f6d-450e-ac11-1448535532a8","ios":"levelo://app?vid=34ee787d-1f6d-450e-ac11-1448535532a8"},"vehicle_type_id":"4","last_reported":1717794562,"current_range_meters":25200,"station_id":"ce4bh012rcd13ifvqcv0","pricing_plan_id":"cebpf4jnsgd1na2vs0mg"},{"bike_id":"00c3d66e-1e51-47d5-840b-c3cdab8d6242","system_id":"levelo_inurba_marseille","lat":43.29529,"lon":5.385581,"is_reserved":false,"is_disabled":false,"rental_uris":{"android":"levelo://app?vid=00c3d66e-1e51-47d5-840b-c3cdab8d6242","ios":"levelo://app?vid=00c3d66e-1e51-47d5-840b-c3cdab8d6242"},"vehicle_type_id":"4","last_reported":1717794562,"current_range_meters":19600,"station_id":"ce4bgih2rcd13ifvqba0","pricing_plan_id":"cebpf4jnsgd1na2vs0mg"},{"bike_id":"7dd13fd5-02a4-441d-822d-a73ee591244d","system_id":"levelo_inurba_marseille","lat":43.29529,"lon":5.385581,"is_reserved":false,"is_disabled":false,"rental_uris":{"android":"levelo://app?vid=7dd13fd5-02a4-441d-822d-a73ee591244d","ios":"levelo://app?vid=7dd13fd5-02a4-441d-822d-a73ee591244d"},"vehicle_type_id":"4","last_reported":1717794562,"current_range_meters":25600,"station_id":"ce4bgih2rcd13ifvqba0","pricing_plan_id":"cebpf4jnsgd1na2vs0mg"},{"bike_id":"863381f2-33e2-40b4-ac95-84596b0e5c04","system_id":"levelo_inurba_marseille","lat":43.29529,"lon":5.385581,"is_reserved":false,"is_disabled":false,"rental_uris":{"android":"levelo://app?vid=863381f2-33e2-40b4-ac95-84596b0e5c04","ios":"levelo://app?vid=863381f2-33e2-40b4-ac95-84596b0e5c04"},"vehicle_type_id":"4","last_reported":1717794562,"current_range_meters":7200,"station_id":"ce4bgih2rcd13ifvqba0","pricing_plan_id":"cebpf4jnsgd1na2vs0mg"},{"bike_id":"9df26a98-508b-456c-a613-cbb54209a476","system_id":"levelo_inurba_marseille","lat":43.29529,"lon":5.385581,"is_reserved":false,"is_disabled":false,"rental_uris":{"android":"levelo://app?vid=9df26a98-508b-456c-a613-cbb54209a476","ios":"levelo://app?vid=9df26a98-508b-456c-a613-cbb54209a476"},"vehicle_type_id":"4","last_reported":1717794562,"current_range_meters":19600,"station_id":"ce4bgih2rcd13ifvqba0","pricing_plan_id":"cebpf4jnsgd1na2vs0mg"},{"bike_id":"054f69e1-3d32-4b15-80dd-ff9843bc1d7a","system_id":"levelo_inurba_marseille","lat":43.29529,"lon":5.385581,"is_reserved":false,"is_disabled":false,"rental_uris":{"android":"levelo://app?vid=054f69e1-3d32-4b15-80dd-ff9843bc1d7a","ios":"levelo://app?vid=054f69e1-3d32-4b15-80dd-ff9843bc1d7a"},"vehicle_type_id":"4","last_reported":1717794562,"current_range_meters":24800,"station_id":"ce4bgih2rcd13ifvqba0","pricing_plan_id":"cebpf4jnsgd1na2vs0mg"},{"bike_id":"c5370e6d-6bac-48d7-bda2-4d21dbdd7057","system_id":"levelo_inurba_marseille","lat":43.29534,"lon":5.38549,"is_reserved":false,"is_disabled":false,"rental_uris":{"android":"levelo://app?vid=c5370e6d-6bac-48d7-bda2-4d21dbdd7057","ios":"levelo://app?vid=c5370e6d-6bac-48d7-bda2-4d21dbdd7057"},"vehicle_type_id":"4","last_reported":1717794562,"current_range_meters":2800,"station_id":"ce4bgih2rcd13ifvqba0","pricing_plan_id":"cebpf4jnsgd1na2vs0mg"},{"bike_id":"261ad750-438c-4b55-92cf-e12019c10b14","system_id":"levelo_inurba_marseille","lat":43.29529,"lon":5.385581,"is_reserved":false,"is_disabled":false,"rental_uris":{"android":"levelo://app?vid=261ad750-438c-4b55-92cf-e12019c10b14","ios":"levelo://app?vid=261ad750-438c-4b55-92cf-e12019c10b14"},"vehicle_type_id":"4","last_reported":1717794562,"current_range_meters":22800,"station_id":"ce4bgih2rcd13ifvqba0","pricing_plan_id":"cebpf4jnsgd1na2vs0mg"},{"bike_id":"880cf812-2b75-4216-a058-5a8248ee2cb7","system_id":"levelo_inurba_marseille","lat":43.29527,"lon":5.38537,"is_reserved":false,"is_disabled":false,"rental_uris":{"android":"levelo://app?vid=880cf812-2b75-4216-a058-5a8248ee2cb7","ios":"levelo://app?vid=880cf812-2b75-4216-a058-5a8248ee2cb7"},"vehicle_type_id":"4","last_reported":1717794562,"current_range_meters":11600,"station_id":"","pricing_plan_id":"cebpf4jnsgd1na2vs0mg"},{"bike_id":"240687f7-552e-4603-97d9-11b417ca08f5","system_id":"levelo_inurba_marseille","lat":43.29529,"lon":5.385581,"is_reserved":false,"is_disabled":false,"rental_uris":{"android":"levelo://app?vid=240687f7-552e-4603-97d9-11b417ca08f5","ios":"levelo://app?vid=240687f7-552e-4603-97d9-11b417ca08f5"},"vehicle_type_id":"4","last_reported":1717794562,"current_range_meters":10000,"station_id":"ce4bgih2rcd13ifvqba0","pricing_plan_id":"cebpf4jnsgd1na2vs0mg"},{"bike_id":"7f331770-f114-42e9-96f1-dac67dbaa396","system_id":"levelo_inurba_marseille","lat":43.29529,"lon":5.385581,"is_reserved":false,"is_disabled":false,"rental_uris":{"android":"levelo://app?vid=7f331770-f114-42e9-96f1-dac67dbaa396","ios":"levelo://app?vid=7f331770-f114-42e9-96f1-dac67dbaa396"},"vehicle_type_id":"4","last_reported":1717794562,"current_range_meters":5200,"station_id":"ce4bgih2rcd13ifvqba0","pricing_plan_id":"cebpf4jnsgd1na2vs0mg"},{"bike_id":"2a4c19f6-63f1-49cf-99e7-a7bf732f35e1","system_id":"levelo_inurba_marseille","lat":43.2953,"lon":5.38581,"is_reserved":false,"is_disabled":false,"rental_uris":{"android":"levelo://app?vid=2a4c19f6-63f1-49cf-99e7-a7bf732f35e1","ios":"levelo://app?vid=2a4c19f6-63f1-49cf-99e7-a7bf732f35e1"},"vehicle_type_id":"4","last_reported":1717794562,"current_range_meters":0,"station_id":"","pricing_plan_id":"cebpf4jnsgd1na2vs0mg"},{"bike_id":"05074e6d-e82d-4c8d-b461-d734a159b9cc","system_id":"levelo_inurba_marseille","lat":43.302008,"lon":5.394694,"is_reserved":false,"is_disabled":false,"rental_uris":{"android":"levelo://app?vid=05074e6d-e82d-4c8d-b461-d734a159b9cc","ios":"levelo://app?vid=05074e6d-e82d-4c8d-b461-d734a159b9cc"},"vehicle_type_id":"4","last_reported":1717794562,"current_range_meters":10000,"station_id":"ce4bh0p2rcd13ifvqd70","pricing_plan_id":"cebpf4jnsgd1na2vs0mg"},{"bike_id":"f7589461-7c05-49f6-9c2f-9e9d5caca180","system_id":"levelo_inurba_marseille","lat":43.302008,"lon":5.394694,"is_reserved":false,"is_disabled":false,"rental_uris":{"android":"levelo://app?vid=f7589461-7c05-49f6-9c2f-9e9d5caca180","ios":"levelo://app?vid=f7589461-7c05-49f6-9c2f-9e9d5caca180"},"vehicle_type_id":"4","last_reported":1717794562,"current_range_meters":800,"station_id":"ce4bh0p2rcd13ifvqd70","pricing_plan_id":"cebpf4jnsgd1na2vs0mg"},{"bike_id":"449d1972-2f6c-4f3d-adfd-06ddc6e513be","system_id":"levelo_inurba_marseille","lat":43.302008,"lon":5.394694,"is_reserved":false,"is_disabled":false,"rental_uris":{"android":"levelo://app?vid=449d1972-2f6c-4f3d-adfd-06ddc6e513be","ios":"levelo://app?vid=449d1972-2f6c-4f3d-adfd-06ddc6e513be"},"vehicle_type_id":"4","last_reported":1717794562,"current_range_meters":8400,"station_id":"ce4bh0p2rcd13ifvqd70","pricing_plan_id":"cebpf4jnsgd1na2vs0mg"},{"bike_id":"fa4da0d1-ffe9-4551-9a7a-7ac9e12b24f1","system_id":"levelo_inurba_marseille","lat":43.290631,"lon":5.359244,"is_reserved":false,"is_disabled":false,"rental_uris":{"android":"levelo://app?vid=fa4da0d1-ffe9-4551-9a7a-7ac9e12b24f1","ios":"levelo://app?vid=fa4da0d1-ffe9-4551-9a7a-7ac9e12b24f1"},"vehicle_type_id":"4","last_reported":1717794562,"current_range_meters":11200,"station_id":"ce4bha92rcd13ifvqeg0","pricing_plan_id":"cebpf4jnsgd1na2vs0mg"},{"bike_id":"375bdd43-3bb5-4974-b734-c41923624f41","system_id":"levelo_inurba_marseille","lat":43.290631,"lon":5.359244,"is_reserved":false,"is_disabled":false,"rental_uris":{"android":"levelo://app?vid=375bdd43-3bb5-4974-b734-c41923624f41","ios":"levelo://app?vid=375bdd43-3bb5-4974-b734-c41923624f41"},"vehicle_type_id":"4","last_reported":1717794562,"current_range_meters":10000,"station_id":"ce4bha92rcd13ifvqeg0","pricing_plan_id":"cebpf4jnsgd1na2vs0mg"},{"bike_id":"d0b8fbec-85d6-461f-8baf-0221f73f902d","system_id":"levelo_inurba_marseille","lat":43.290631,"lon":5.359244,"is_reserved":false,"is_disabled":false,"rental_uris":{"android":"levelo://app?vid=d0b8fbec-85d6-461f-8baf-0221f73f902d","ios":"levelo://app?vid=d0b8fbec-85d6-461f-8baf-0221f73f902d"},"vehicle_type_id":"4","last_reported":1717794562,"current_range_meters":5600,"station_id":"ce4bha92rcd13ifvqeg0","pricing_plan_id":"cebpf4jnsgd1na2vs0mg"},{"bike_id":"04afa464-98f9-471d-9e34-ed67982ec2f2","system_id":"levelo_inurba_marseille","lat":43.290631,"lon":5.359244,"is_reserved":false,"is_disabled":false,"rental_uris":{"android":"levelo://app?vid=04afa464-98f9-471d-9e34-ed67982ec2f2","ios":"levelo://app?vid=04afa464-98f9-471d-9e34-ed67982ec2f2"},"vehicle_type_id":"4","last_reported":1717794562,"current_range_meters":24800,"station_id":"ce4bha92rcd13ifvqeg0","pricing_plan_id":"cebpf4jnsgd1na2vs0mg"},{"bike_id":"0efc43d8-2823-4091-b149-a7ccb88be352","system_id":"levelo_inurba_marseille","lat":43.29426,"lon":5.38617,"is_reserved":false,"is_disabled":false,"rental_uris":{"android":"levelo://app?vid=0efc43d8-2823-4091-b149-a7ccb88be352","ios":"levelo://app?vid=0efc43d8-2823-4091-b149-a7ccb88be352"},"vehicle_type_id":"4","last_reported":1717794562,"current_range_meters":31200,"station_id":"ce4bh2h2rcd13ifvqdh0","pricing_plan_id":"cebpf4jnsgd1na2vs0mg"},{"bike_id":"3604bc28-dfbf-4482-804d-badc8ce576c7","system_id":"levelo_inurba_marseille","lat":43.294153,"lon":5.386305,"is_reserved":false,"is_disabled":false,"rental_uris":{"android":"levelo://app?vid=3604bc28-dfbf-4482-804d-badc8ce576c7","ios":"levelo://app?vid=3604bc28-dfbf-4482-804d-badc8ce576c7"},"vehicle_type_id":"4","last_reported":1717794562,"current_range_meters":13200,"station_id":"ce4bh2h2rcd13ifvqdh0","pricing_plan_id":"cebpf4jnsgd1na2vs0mg"},{"bike_id":"b6fc6f68-3121-47f9-817d-144da2e89733","system_id":"levelo_inurba_marseille","lat":43.294153,"lon":5.386305,"is_reserved":false,"is_disabled":false,"rental_uris":{"android":"levelo://app?vid=b6fc6f68-3121-47f9-817d-144da2e89733","ios":"levelo://app?vid=b6fc6f68-3121-47f9-817d-144da2e89733"},"vehicle_type_id":"4","last_reported":1717794562,"current_range_meters":7200,"station_id":"ce4bh2h2rcd13ifvqdh0","pricing_plan_id":"cebpf4jnsgd1na2vs0mg"},{"bike_id":"83230905-243e-448a-98af-9e3789de1b89","system_id":"levelo_inurba_marseille","lat":43.29421,"lon":5.38622,"is_reserved":false,"is_disabled":false,"rental_uris":{"android":"levelo://app?vid=83230905-243e-448a-98af-9e3789de1b89","ios":"levelo://app?vid=83230905-243e-448a-98af-9e3789de1b89"},"vehicle_type_id":"4","last_reported":1717794562,"current_range_meters":4000,"station_id":"ce4bh2h2rcd13ifvqdh0","pricing_plan_id":"cebpf4jnsgd1na2vs0mg"},{"bike_id":"4a8f489e-2201-4da2-be92-c7e7df25db35","system_id":"levelo_inurba_marseille","lat":43.292642,"lon":5.384254,"is_reserved":false,"is_disabled":false,"rental_uris":{"android":"levelo://app?vid=4a8f489e-2201-4da2-be92-c7e7df25db35","ios":"levelo://app?vid=4a8f489e-2201-4da2-be92-c7e7df25db35"},"vehicle_type_id":"4","last_reported":1717794562,"current_range_meters":2800,"station_id":"ce4bh692rcd13ifvqea0","pricing_plan_id":"cebpf4jnsgd1na2vs0mg"},{"bike_id":"7860f57f-30bd-4f78-8b54-45ebe15399c6","system_id":"levelo_inurba_marseille","lat":43.29421,"lon":5.38625,"is_reserved":false,"is_disabled":false,"rental_uris":{"android":"levelo://app?vid=7860f57f-30bd-4f78-8b54-45ebe15399c6","ios":"levelo://app?vid=7860f57f-30bd-4f78-8b54-45ebe15399c6"},"vehicle_type_id":"4","last_reported":1717794562,"current_range_meters":24800,"station_id":"ce4bh2h2rcd13ifvqdh0","pricing_plan_id":"cebpf4jnsgd1na2vs0mg"},{"bike_id":"786fc820-40eb-4ef2-8324-7348eedd114e","system_id":"levelo_inurba_marseille","lat":43.294162,"lon":5.386292,"is_reserved":false,"is_disabled":false,"rental_uris":{"android":"levelo://app?vid=786fc820-40eb-4ef2-8324-7348eedd114e","ios":"levelo://app?vid=786fc820-40eb-4ef2-8324-7348eedd114e"},"vehicle_type_id":"4","last_reported":1717794562,"current_range_meters":8000,"station_id":"ce4bh2h2rcd13ifvqdh0","pricing_plan_id":"cebpf4jnsgd1na2vs0mg"},{"bike_id":"29ee03ee-e4dc-4200-a168-8f28474b11b0","system_id":"levelo_inurba_marseille","lat":43.29419,"lon":5.38624,"is_reserved":false,"is_disabled":false,"rental_uris":{"android":"levelo://app?vid=29ee03ee-e4dc-4200-a168-8f28474b11b0","ios":"levelo://app?vid=29ee03ee-e4dc-4200-a168-8f28474b11b0"},"vehicle_type_id":"4","last_reported":1717794562,"current_range_meters":28800,"station_id":"ce4bh2h2rcd13ifvqdh0","pricing_plan_id":"cebpf4jnsgd1na2vs0mg"},{"bike_id":"3f93505d-f9d9-4d58-ac95-07a2866b9f41","system_id":"levelo_inurba_marseille","lat":43.29414,"lon":5.38616,"is_reserved":false,"is_disabled":false,"rental_uris":{"android":"levelo://app?vid=3f93505d-f9d9-4d58-ac95-07a2866b9f41","ios":"levelo://app?vid=3f93505d-f9d9-4d58-ac95-07a2866b9f41"},"vehicle_type_id":"4","last_reported":1717794562,"current_range_meters":31200,"station_id":"ce4bh2h2rcd13ifvqdh0","pricing_plan_id":"cebpf4jnsgd1na2vs0mg"},{"bike_id":"417d8863-f16d-4033-99e7-6d655bd2449b","system_id":"levelo_inurba_marseille","lat":43.28946,"lon":5.36636,"is_reserved":false,"is_disabled":false,"rental_uris":{"android":"levelo://app?vid=417d8863-f16d-4033-99e7-6d655bd2449b","ios":"levelo://app?vid=417d8863-f16d-4033-99e7-6d655bd2449b"},"vehicle_type_id":"4","last_reported":1717794562,"current_range_meters":18800,"station_id":"","pricing_plan_id":"cebpf4jnsgd1na2vs0mg"},{"bike_id":"ababfa0b-132e-4e37-83c9-cc81f5ad65b6","system_id":"levelo_inurba_marseille","lat":43.29416,"lon":5.38622,"is_reserved":false,"is_disabled":false,"rental_uris":{"android":"levelo://app?vid=ababfa0b-132e-4e37-83c9-cc81f5ad65b6","ios":"levelo://app?vid=ababfa0b-132e-4e37-83c9-cc81f5ad65b6"},"vehicle_type_id":"4","last_reported":1717794562,"current_range_meters":23600,"station_id":"ce4bh2h2rcd13ifvqdh0","pricing_plan_id":"cebpf4jnsgd1na2vs0mg"},{"bike_id":"f559e1ed-2095-4a7d-9cf0-4860c6343a86","system_id":"levelo_inurba_marseille","lat":43.29414,"lon":5.38619,"is_reserved":false,"is_disabled":false,"rental_uris":{"android":"levelo://app?vid=f559e1ed-2095-4a7d-9cf0-4860c6343a86","ios":"levelo://app?vid=f559e1ed-2095-4a7d-9cf0-4860c6343a86"},"vehicle_type_id":"4","last_reported":1717794562,"current_range_meters":0,"station_id":"ce4bh2h2rcd13ifvqdh0","pricing_plan_id":"cebpf4jnsgd1na2vs0mg"},{"bike_id":"72da276a-b436-46f3-a91c-785852d9847e","system_id":"levelo_inurba_marseille","lat":43.29418,"lon":5.38627,"is_reserved":false,"is_disabled":false,"rental_uris":{"android":"levelo://app?vid=72da276a-b436-46f3-a91c-785852d9847e","ios":"levelo://app?vid=72da276a-b436-46f3-a91c-785852d9847e"},"vehicle_type_id":"4","last_reported":1717794562,"current_range_meters":22000,"station_id":"ce4bh2h2rcd13ifvqdh0","pricing_plan_id":"cebpf4jnsgd1na2vs0mg"},{"bike_id":"142cb8fa-885a-4a8d-89d6-d6721a10fe55","system_id":"levelo_inurba_marseille","lat":43.29418,"lon":5.38629,"is_reserved":false,"is_disabled":false,"rental_uris":{"android":"levelo://app?vid=142cb8fa-885a-4a8d-89d6-d6721a10fe55","ios":"levelo://app?vid=142cb8fa-885a-4a8d-89d6-d6721a10fe55"},"vehicle_type_id":"4","last_reported":1717794562,"current_range_meters":21200,"station_id":"ce4bh2h2rcd13ifvqdh0","pricing_plan_id":"cebpf4jnsgd1na2vs0mg"},{"bike_id":"8f910db7-503e-4475-b3fe-b61566166f96","system_id":"levelo_inurba_marseille","lat":43.290319,"lon":5.375732,"is_reserved":false,"is_disabled":false,"rental_uris":{"android":"levelo://app?vid=8f910db7-503e-4475-b3fe-b61566166f96","ios":"levelo://app?vid=8f910db7-503e-4475-b3fe-b61566166f96"},"vehicle_type_id":"4","last_reported":1717794562,"current_range_meters":21600,"station_id":"ce4bh692rcd13ifvqe90","pricing_plan_id":"cebpf4jnsgd1na2vs0mg"},{"bike_id":"72dd962f-d5fc-4b94-93ef-4a226ec0a04d","system_id":"levelo_inurba_marseille","lat":43.294162,"lon":5.386292,"is_reserved":false,"is_disabled":false,"rental_uris":{"android":"levelo://app?vid=72dd962f-d5fc-4b94-93ef-4a226ec0a04d","ios":"levelo://app?vid=72dd962f-d5fc-4b94-93ef-4a226ec0a04d"},"vehicle_type_id":"4","last_reported":1717794562,"current_range_meters":26000,"station_id":"ce4bh2h2rcd13ifvqdh0","pricing_plan_id":"cebpf4jnsgd1na2vs0mg"},{"bike_id":"54f4d9b0-4275-4792-9f14-cfbb40d9060f","system_id":"levelo_inurba_marseille","lat":43.2941,"lon":5.38622,"is_reserved":false,"is_disabled":false,"rental_uris":{"android":"levelo://app?vid=54f4d9b0-4275-4792-9f14-cfbb40d9060f","ios":"levelo://app?vid=54f4d9b0-4275-4792-9f14-cfbb40d9060f"},"vehicle_type_id":"4","last_reported":1717794562,"current_range_meters":4000,"station_id":"ce4bh2h2rcd13ifvqdh0","pricing_plan_id":"cebpf4jnsgd1na2vs0mg"},{"bike_id":"2bc07352-5e11-47f6-a193-5605c147da31","system_id":"levelo_inurba_marseille","lat":43.294162,"lon":5.386292,"is_reserved":false,"is_disabled":false,"rental_uris":{"android":"levelo://app?vid=2bc07352-5e11-47f6-a193-5605c147da31","ios":"levelo://app?vid=2bc07352-5e11-47f6-a193-5605c147da31"},"vehicle_type_id":"4","last_reported":1717794562,"current_range_meters":10000,"station_id":"ce4bh2h2rcd13ifvqdh0","pricing_plan_id":"cebpf4jnsgd1na2vs0mg"},{"bike_id":"e1dd3d8f-edc5-4f74-819b-480c1dfe5fe9","system_id":"levelo_inurba_marseille","lat":43.294162,"lon":5.386292,"is_reserved":false,"is_disabled":false,"rental_uris":{"android":"levelo://app?vid=e1dd3d8f-edc5-4f74-819b-480c1dfe5fe9","ios":"levelo://app?vid=e1dd3d8f-edc5-4f74-819b-480c1dfe5fe9"},"vehicle_type_id":"4","last_reported":1717794562,"current_range_meters":22800,"station_id":"ce4bh2h2rcd13ifvqdh0","pricing_plan_id":"cebpf4jnsgd1na2vs0mg"},{"bike_id":"d21c6c53-d2d4-4aa4-bb7b-8915a464e20b","system_id":"levelo_inurba_marseille","lat":43.294162,"lon":5.386292,"is_reserved":false,"is_disabled":false,"rental_uris":{"android":"levelo://app?vid=d21c6c53-d2d4-4aa4-bb7b-8915a464e20b","ios":"levelo://app?vid=d21c6c53-d2d4-4aa4-bb7b-8915a464e20b"},"vehicle_type_id":"4","last_reported":1717794562,"current_range_meters":25600,"station_id":"ce4bh2h2rcd13ifvqdh0","pricing_plan_id":"cebpf4jnsgd1na2vs0mg"},{"bike_id":"73fa5e87-db0e-4831-8701-e5245159a0b0","system_id":"levelo_inurba_marseille","lat":43.294162,"lon":5.386292,"is_reserved":false,"is_disabled":false,"rental_uris":{"android":"levelo://app?vid=73fa5e87-db0e-4831-8701-e5245159a0b0","ios":"levelo://app?vid=73fa5e87-db0e-4831-8701-e5245159a0b0"},"vehicle_type_id":"4","last_reported":1717794562,"current_range_meters":23200,"station_id":"ce4bh2h2rcd13ifvqdh0","pricing_plan_id":"cebpf4jnsgd1na2vs0mg"},{"bike_id":"ba76f817-4582-4f3e-8bd2-2261809d120d","system_id":"levelo_inurba_marseille","lat":43.294162,"lon":5.386292,"is_reserved":false,"is_disabled":false,"rental_uris":{"android":"levelo://app?vid=ba76f817-4582-4f3e-8bd2-2261809d120d","ios":"levelo://app?vid=ba76f817-4582-4f3e-8bd2-2261809d120d"},"vehicle_type_id":"4","last_reported":1717794562,"current_range_meters":22400,"station_id":"ce4bh2h2rcd13ifvqdh0","pricing_plan_id":"cebpf4jnsgd1na2vs0mg"},{"bike_id":"890ab831-50fa-4d4f-b907-06054e889d95","system_id":"levelo_inurba_marseille","lat":43.28938,"lon":5.36642,"is_reserved":false,"is_disabled":false,"rental_uris":{"android":"levelo://app?vid=890ab831-50fa-4d4f-b907-06054e889d95","ios":"levelo://app?vid=890ab831-50fa-4d4f-b907-06054e889d95"},"vehicle_type_id":"4","last_reported":1717794562,"current_range_meters":30800,"station_id":"ce4bhap2rcd13ifvqek0","pricing_plan_id":"cebpf4jnsgd1na2vs0mg"},{"bike_id":"cc9123e6-a288-4ffe-8ae5-2568331a630e","system_id":"levelo_inurba_marseille","lat":43.29413,"lon":5.38634,"is_reserved":false,"is_disabled":false,"rental_uris":{"android":"levelo://app?vid=cc9123e6-a288-4ffe-8ae5-2568331a630e","ios":"levelo://app?vid=cc9123e6-a288-4ffe-8ae5-2568331a630e"},"vehicle_type_id":"4","last_reported":1717794562,"current_range_meters":10800,"station_id":"ce4bh2h2rcd13ifvqdh0","pricing_plan_id":"cebpf4jnsgd1na2vs0mg"},{"bike_id":"4442f625-a65b-48c3-8fb3-62ec6d812815","system_id":"levelo_inurba_marseille","lat":43.294162,"lon":5.386292,"is_reserved":false,"is_disabled":false,"rental_uris":{"android":"levelo://app?vid=4442f625-a65b-48c3-8fb3-62ec6d812815","ios":"levelo://app?vid=4442f625-a65b-48c3-8fb3-62ec6d812815"},"vehicle_type_id":"4","last_reported":1717794562,"current_range_meters":26000,"station_id":"ce4bh2h2rcd13ifvqdh0","pricing_plan_id":"cebpf4jnsgd1na2vs0mg"},{"bike_id":"bae8f681-657c-4f8b-9b58-e57a30e28658","system_id":"levelo_inurba_marseille","lat":43.29434,"lon":5.38674,"is_reserved":false,"is_disabled":false,"rental_uris":{"android":"levelo://app?vid=bae8f681-657c-4f8b-9b58-e57a30e28658","ios":"levelo://app?vid=bae8f681-657c-4f8b-9b58-e57a30e28658"},"vehicle_type_id":"4","last_reported":1717794562,"current_range_meters":13600,"station_id":"ce4bh2h2rcd13ifvqdh0","pricing_plan_id":"cebpf4jnsgd1na2vs0mg"},{"bike_id":"5569f17c-de0c-49fb-9aaa-61ba6fac3047","system_id":"levelo_inurba_marseille","lat":43.294162,"lon":5.386292,"is_reserved":false,"is_disabled":false,"rental_uris":{"android":"levelo://app?vid=5569f17c-de0c-49fb-9aaa-61ba6fac3047","ios":"levelo://app?vid=5569f17c-de0c-49fb-9aaa-61ba6fac3047"},"vehicle_type_id":"4","last_reported":1717794562,"current_range_meters":24000,"station_id":"ce4bh2h2rcd13ifvqdh0","pricing_plan_id":"cebpf4jnsgd1na2vs0mg"},{"bike_id":"fde1b149-be6b-4138-aa44-c354d03cbf14","system_id":"levelo_inurba_marseille","lat":43.290327,"lon":5.375711,"is_reserved":false,"is_disabled":false,"rental_uris":{"android":"levelo://app?vid=fde1b149-be6b-4138-aa44-c354d03cbf14","ios":"levelo://app?vid=fde1b149-be6b-4138-aa44-c354d03cbf14"},"vehicle_type_id":"4","last_reported":1717794562,"current_range_meters":3600,"station_id":"ce4bh692rcd13ifvqe90","pricing_plan_id":"cebpf4jnsgd1na2vs0mg"},{"bike_id":"cb84e1a9-8df1-4e2e-aac6-2f21e166b5a6","system_id":"levelo_inurba_marseille","lat":43.292642,"lon":5.384254,"is_reserved":false,"is_disabled":false,"rental_uris":{"android":"levelo://app?vid=cb84e1a9-8df1-4e2e-aac6-2f21e166b5a6","ios":"levelo://app?vid=cb84e1a9-8df1-4e2e-aac6-2f21e166b5a6"},"vehicle_type_id":"4","last_reported":1717794562,"current_range_meters":10800,"station_id":"ce4bh692rcd13ifvqea0","pricing_plan_id":"cebpf4jnsgd1na2vs0mg"},{"bike_id":"87a2c023-6c1f-4355-af70-674bff669100","system_id":"levelo_inurba_marseille","lat":43.292642,"lon":5.384254,"is_reserved":false,"is_disabled":false,"rental_uris":{"android":"levelo://app?vid=87a2c023-6c1f-4355-af70-674bff669100","ios":"levelo://app?vid=87a2c023-6c1f-4355-af70-674bff669100"},"vehicle_type_id":"4","last_reported":1717794562,"current_range_meters":26800,"station_id":"ce4bh692rcd13ifvqea0","pricing_plan_id":"cebpf4jnsgd1na2vs0mg"},{"bike_id":"091c2399-bf21-4d54-8325-f2918bbd1151","system_id":"levelo_inurba_marseille","lat":43.29267,"lon":5.3844,"is_reserved":false,"is_disabled":false,"rental_uris":{"android":"levelo://app?vid=091c2399-bf21-4d54-8325-f2918bbd1151","ios":"levelo://app?vid=091c2399-bf21-4d54-8325-f2918bbd1151"},"vehicle_type_id":"4","last_reported":1717794562,"current_range_meters":30400,"station_id":"ce4bh692rcd13ifvqea0","pricing_plan_id":"cebpf4jnsgd1na2vs0mg"},{"bike_id":"90827800-a56c-4bd2-8b59-80dfde28620c","system_id":"levelo_inurba_marseille","lat":43.292644,"lon":5.384257,"is_reserved":false,"is_disabled":false,"rental_uris":{"android":"levelo://app?vid=90827800-a56c-4bd2-8b59-80dfde28620c","ios":"levelo://app?vid=90827800-a56c-4bd2-8b59-80dfde28620c"},