{"last_updated":1684699612,"ttl":30,"version":"2.2","data":{"bikes":[{"bike_id":"072cb109-d689-4513-a2c2-f4f6a95b5e89","system_id":"levelo_inurba_marseille","lat":43.312239,"lon":5.368562,"is_reserved":false,"is_disabled":false,"rental_uris":{"android":"levelo://app?vid=072cb109-d689-4513-a2c2-f4f6a95b5e89","ios":"levelo://app?vid=072cb109-d689-4513-a2c2-f4f6a95b5e89"},"vehicle_type_id":"4","last_reported":1684699612,"current_range_meters":7200,"station_id":"ce4bgl92rcd13ifvqbq0","pricing_plan_id":"free"},{"bike_id":"72e2d9e9-3c95-44f2-9509-3b80ee789e45","system_id":"levelo_inurba_marseille","lat":43.312239,"lon":5.368562,"is_reserved":false,"is_disabled":false,"rental_uris":{"android":"levelo://app?vid=72e2d9e9-3c95-44f2-9509-3b80ee789e45","ios":"levelo://app?vid=72e2d9e9-3c95-44f2-9509-3b80ee789e45"},"vehicle_type_id":"4","last_reported":1684699612,"current_range_meters":10000,"station_id":"ce4bgl92rcd13ifvqbq0","pricing_plan_id":"free"},{"bike_id":"8432f87e-1fa6-4426-ac78-ed941c42e7c6","system_id":"levelo_inurba_marseille","lat":43.312239,"lon":5.368562,"is_reserved":false,"is_disabled":false,"rental_uris":{"android":"levelo://app?vid=8432f87e-1fa6-4426-ac78-ed941c42e7c6","ios":"levelo://app?vid=8432f87e-1fa6-4426-ac78-ed941c42e7c6"},"vehicle_type_id":"4","last_reported":1684699612,"current_range_meters":11600,"station_id":"ce4bgl92rcd13ifvqbq0","pricing_plan_id":"free"},{"bike_id":"e06ac8db-221f-41cf-abf6-6cf35441b009","system_id":"levelo_inurba_marseille","lat":43.312239,"lon":5.368562,"is_reserved":false,"is_disabled":false,"rental_uris":{"android":"levelo://app?vid=e06ac8db-221f-41cf-abf6-6cf35441b009","ios":"levelo://app?vid=e06ac8db-221f-41cf-abf6-6cf35441b009"},"vehicle_type_id":"4","last_reported":1684699612,"current_range_meters":3200,"station_id":"ce4bgl92rcd13ifvqbq0","pricing_plan_id":"free"},{"bike_id":"afd87318-3235-43de-9695-930cfe6a3143","system_id":"levelo_inurba_marseille","lat":43.312239,"lon":5.368562,"is_reserved":false,"is_disabled":false,"rental_uris":{"android":"levelo://app?vid=afd87318-3235-43de-9695-930cfe6a3143","ios":"levelo://app?vid=afd87318-3235-43de-9695-930cfe6a3143"},"vehicle_type_id":"4","last_reported":1684699612,"current_range_meters":3600,"station_id":"ce4bgl92rcd13ifvqbq0","pricing_plan_id":"free"},{"bike_id":"e987aa97-e510-42b9-95db-f3f5dd208269","system_id":"levelo_inurba_marseille","lat":43.312239,"lon":5.368562,"is_reserved":false,"is_disabled":false,"rental_uris":{"android":"levelo://app?vid=e987aa97-e510-42b9-95db-f3f5dd208269","ios":"levelo://app?vid=e987aa97-e510-42b9-95db-f3f5dd208269"},"vehicle_type_id":"4","last_reported":1684699612,"current_range_meters":10000,"station_id":"ce4bgl92rcd13ifvqbq0","pricing_plan_id":"free"},{"bike_id":"b53e878f-0b59-4b5e-ac4e-608d9d406e21","system_id":"levelo_inurba_marseille","lat":43.312303,"lon":5.368766,"is_reserved":false,"is_disabled":false,"rental_uris":{"android":"levelo://app?vid=b53e878f-0b59-4b5e-ac4e-608d9d406e21","ios":"levelo://app?vid=b53e878f-0b59-4b5e-ac4e-608d9d406e21"},"vehicle_type_id":"4","last_reported":1684699612,"current_range_meters":23200,"station_id":"ce4bgl92rcd13ifvqbq0","pricing_plan_id":"free"},{"bike_id":"c21c77fe-c75b-4869-9911-b663d4deece1","system_id":"levelo_inurba_marseille","lat":43.312239,"lon":5.368562,"is_reserved":false,"is_disabled":false,"rental_uris":{"android":"levelo://app?vid=c21c77fe-c75b-4869-9911-b663d4deece1","ios":"levelo://app?vid=c21c77fe-c75b-4869-9911-b663d4deece1"},"vehicle_type_id":"4","last_reported":1684699612,"current_range_meters":29200,"station_id":"ce4bgl92rcd13ifvqbq0","pricing_plan_id":"free"},{"bike_id":"7583070c-7503-48ee-b0e9-a121346637ed","system_id":"levelo_inurba_marseille","lat":43.309076,"lon":5.368465,"is_reserved":false,"is_disabled":false,"rental_uris":{"android":"levelo://app?vid=7583070c-7503-48ee-b0e9-a121346637ed","ios":"levelo://app?vid=7583070c-7503-48ee-b0e9-a121346637ed"},"vehicle_type_id":"4","last_reported":1684699612,"current_range_meters":25600,"station_id":"ce4bgn92rcd13ifvqbvg","pricing_plan_id":"free"},{"bike_id":"0d407662-fd3f-4cf4-896a-f86ee8067100","system_id":"levelo_inurba_marseille","lat":43.309076,"lon":5.368465,"is_reserved":false,"is_disabled":false,"rental_uris":{"android":"levelo://app?vid=0d407662-fd3f-4cf4-896a-f86ee8067100","ios":"levelo://app?vid=0d407662-fd3f-4cf4-896a-f86ee8067100"},"vehicle_type_id":"4","last_reported":1684699612,"current_range_meters":10400,"station_id":"ce4bgn92rcd13ifvqbvg","pricing_plan_id":"free"},{"bike_id":"555b86d2-c3f8-40d2-8d7b-c413c5a5bf3a","system_id":"levelo_inurba_marseille","lat":43.309076,"lon":5.368465,"is_reserved":false,"is_disabled":false,"rental_uris":{"android":"levelo://app?vid=555b86d2-c3f8-40d2-8d7b-c413c5a5bf3a","ios":"levelo://app?vid=555b86d2-c3f8-40d2-8d7b-c413c5a5bf3a"},"vehicle_type_id":"4","last_reported":1684699612,"current_range_meters":18400,"station_id":"ce4bgn92rcd13ifvqbvg","pricing_plan_id":"free"},{"bike_id":"c2662780-3c9b-422f-b8f7-6b46c01f62b2","system_id":"levelo_inurba_marseille","lat":43.314811,"lon":5.373104,"is_reserved":false,"is_disabled":false,"rental_uris":{"android":"levelo://app?vid=c2662780-3c9b-422f-b8f7-6b46c01f62b2","ios":"levelo://app?vid=c2662780-3c9b-422f-b8f7-6b46c01f62b2"},"vehicle_type_id":"4","last_reported":1684699612,"current_range_meters":9600,"station_id":"ce4bgt12rcd13ifvqcd0","pricing_plan_id":"free"},{"bike_id":"89377698-26f6-4ec0-9e67-f3b074263ead","system_id":"levelo_inurba_marseille","lat":43.308614,"lon":5.372098,"is_reserved":false,"is_disabled":false,"rental_uris":{"android":"levelo://app?vid=89377698-26f6-4ec0-9e67-f3b074263ead","ios":"levelo://app?vid=89377698-26f6-4ec0-9e67-f3b074263ead"},"vehicle_type_id":"4","last_reported":1684699612,"current_range_meters":3200,"station_id":"ce4bguh2rcd13ifvqckg","pricing_plan_id":"free"},{"bike_id":"356cf0db-1a57-476d-9a35-1fd349653ab5","system_id":"levelo_inurba_marseille","lat":43.309,"lon":5.3722,"is_reserved":false,"is_disabled":false,"rental_uris":{"android":"levelo://app?vid=356cf0db-1a57-476d-9a35-1fd349653ab5","ios":"levelo://app?vid=356cf0db-1a57-476d-9a35-1fd349653ab5"},"vehicle_type_id":"4","last_reported":1684699612,"current_range_meters":7600,"station_id":"","pricing_plan_id":"free"},{"bike_id":"b0887695-9295-47b4-930a-0b10d8844754","system_id":"levelo_inurba_marseille","lat":43.305368,"lon":5.367343,"is_reserved":false,"is_disabled":false,"rental_uris":{"android":"levelo://app?vid=b0887695-9295-47b4-930a-0b10d8844754","ios":"levelo://app?vid=b0887695-9295-47b4-930a-0b10d8844754"},"vehicle_type_id":"4","last_reported":1684699612,"current_range_meters":19600,"station_id":"ce4bgrp2rcd13ifvqc9g","pricing_plan_id":"free"},{"bike_id":"e5a60e48-f0e8-483f-a640-46e3b319eb8e","system_id":"levelo_inurba_marseille","lat":43.305368,"lon":5.367343,"is_reserved":false,"is_disabled":false,"rental_uris":{"android":"levelo://app?vid=e5a60e48-f0e8-483f-a640-46e3b319eb8e","ios":"levelo://app?vid=e5a60e48-f0e8-483f-a640-46e3b319eb8e"},"vehicle_type_id":"4","last_reported":1684699612,"current_range_meters":4000,"station_id":"ce4bgrp2rcd13ifvqc9g","pricing_plan_id":"free"},{"bike_id":"e35b61de-340b-4229-b621-c1f35afbf319","system_id":"levelo_inurba_marseille","lat":43.30606,"lon":5.3724,"is_reserved":false,"is_disabled":false,"rental_uris":{"android":"levelo://app?vid=e35b61de-340b-4229-b621-c1f35afbf319","ios":"levelo://app?vid=e35b61de-340b-4229-b621-c1f35afbf319"},"vehicle_type_id":"4","last_reported":1684699612,"current_range_meters":14800,"station_id":"ce4bgqh2rcd13ifvqc4g","pricing_plan_id":"free"},{"bike_id":"e58fedb9-a57d-4be1-8ab0-757e8b5b800f","system_id":"levelo_inurba_marseille","lat":43.31708,"lon":5.37647,"is_reserved":false,"is_disabled":false,"rental_uris":{"android":"levelo://app?vid=e58fedb9-a57d-4be1-8ab0-757e8b5b800f","ios":"levelo://app?vid=e58fedb9-a57d-4be1-8ab0-757e8b5b800f"},"vehicle_type_id":"4","last_reported":1684699612,"current_range_meters":0,"station_id":"","pricing_plan_id":"free"},{"bike_id":"764a8ad9-d1d7-4195-8dc4-426a45679f54","system_id":"levelo_inurba_marseille","lat":43.317075,"lon":5.377367,"is_reserved":false,"is_disabled":false,"rental_uris":{"android":"levelo://app?vid=764a8ad9-d1d7-4195-8dc4-426a45679f54","ios":"levelo://app?vid=764a8ad9-d1d7-4195-8dc4-426a45679f54"},"vehicle_type_id":"4","last_reported":1684699612,"current_range_meters":29600,"station_id":"ce4bgth2rcd13ifvqch0","pricing_plan_id":"free"},{"bike_id":"4e0203a2-427e-4b5e-9064-c09161b27c61","system_id":"levelo_inurba_marseille","lat":43.317075,"lon":5.377367,"is_reserved":false,"is_disabled":false,"rental_uris":{"android":"levelo://app?vid=4e0203a2-427e-4b5e-9064-c09161b27c61","ios":"levelo://app?vid=4e0203a2-427e-4b5e-9064-c09161b27c61"},"vehicle_type_id":"4","last_reported":1684699612,"current_range_meters":22800,"station_id":"ce4bgth2rcd13ifvqch0","pricing_plan_id":"free"},{"bike_id":"30ce27af-910a-466e-abca-e49c84c9a066","system_id":"levelo_inurba_marseille","lat":43.317075,"lon":5.377367,"is_reserved":false,"is_disabled":false,"rental_uris":{"android":"levelo://app?vid=30ce27af-910a-466e-abca-e49c84c9a066","ios":"levelo://app?vid=30ce27af-910a-466e-abca-e49c84c9a066"},"vehicle_type_id":"4","last_reported":1684699612,"current_range_meters":28000,"station_id":"ce4bgth2rcd13ifvqch0","pricing_plan_id":"free"},{"bike_id":"c27523af-0050-40ba-86ce-6f147ab29d86","system_id":"levelo_inurba_marseille","lat":43.3171,"lon":5.37742,"is_reserved":false,"is_disabled":false,"rental_uris":{"android":"levelo://app?vid=c27523af-0050-40ba-86ce-6f147ab29d86","ios":"levelo://app?vid=c27523af-0050-40ba-86ce-6f147ab29d86"},"vehicle_type_id":"4","last_reported":1684699612,"current_range_meters":12000,"station_id":"ce4bgth2rcd13ifvqch0","pricing_plan_id":"free"},{"bike_id":"82afe0fe-0e6b-41d0-b990-7d8d8a7b0baa","system_id":"levelo_inurba_marseille","lat":43.317075,"lon":5.377367,"is_reserved":false,"is_disabled":false,"rental_uris":{"android":"levelo://app?vid=82afe0fe-0e6b-41d0-b990-7d8d8a7b0baa","ios":"levelo://app?vid=82afe0fe-0e6b-41d0-b990-7d8d8a7b0baa"},"vehicle_type_id":"4","last_reported":1684699612,"current_range_meters":26800,"station_id":"ce4bgth2rcd13ifvqch0","pricing_plan_id":"free"},{"bike_id":"180d3ee6-f13a-4a95-aa61-f778cb99b28a","system_id":"levelo_inurba_marseille","lat":43.30304,"lon":5.368987,"is_reserved":false,"is_disabled":false,"rental_uris":{"android":"levelo://app?vid=180d3ee6-f13a-4a95-aa61-f778cb99b28a","ios":"levelo://app?vid=180d3ee6-f13a-4a95-aa61-f778cb99b28a"},"vehicle_type_id":"4","last_reported":1684699612,"current_range_meters":20000,"station_id":"ce4bgqh2rcd13ifvqc5g","pricing_plan_id":"free"},{"bike_id":"74ce93af-61ea-47f5-8833-500d6b11fbf2","system_id":"levelo_inurba_marseille","lat":43.315293,"lon":5.380349,"is_reserved":false,"is_disabled":false,"rental_uris":{"android":"levelo://app?vid=74ce93af-61ea-47f5-8833-500d6b11fbf2","ios":"levelo://app?vid=74ce93af-61ea-47f5-8833-500d6b11fbf2"},"vehicle_type_id":"4","last_reported":1684699612,"current_range_meters":27600,"station_id":"ce4bhsp2rcd13ifvqi50","pricing_plan_id":"free"},{"bike_id":"6dbaa175-44a9-4427-af6a-67abbd67f31a","system_id":"levelo_inurba_marseille","lat":43.308012,"lon":5.381511,"is_reserved":false,"is_disabled":false,"rental_uris":{"android":"levelo://app?vid=6dbaa175-44a9-4427-af6a-67abbd67f31a","ios":"levelo://app?vid=6dbaa175-44a9-4427-af6a-67abbd67f31a"},"vehicle_type_id":"4","last_reported":1684699612,"current_range_meters":0,"station_id":"ce4bgt12rcd13ifvqce0","pricing_plan_id":"free"},{"bike_id":"742dd3cb-6816-4a66-81fd-c8f6af396b26","system_id":"levelo_inurba_marseille","lat":43.304606,"lon":5.379026,"is_reserved":false,"is_disabled":false,"rental_uris":{"android":"levelo://app?vid=742dd3cb-6816-4a66-81fd-c8f6af396b26","ios":"levelo://app?vid=742dd3cb-6816-4a66-81fd-c8f6af396b26"},"vehicle_type_id":"4","last_reported":1684699612,"current_range_meters":14400,"station_id":"ce4bgup2rcd13ifvqcn0","pricing_plan_id":"free"},{"bike_id":"56c93b58-80fb-4140-9e20-c35a824d17ea","system_id":"levelo_inurba_marseille","lat":43.319935,"lon":5.381699,"is_reserved":false,"is_disabled":false,"rental_uris":{"android":"levelo://app?vid=56c93b58-80fb-4140-9e20-c35a824d17ea","ios":"levelo://app?vid=56c93b58-80fb-4140-9e20-c35a824d17ea"},"vehicle_type_id":"4","last_reported":1684699612,"current_range_meters":21200,"station_id":"ce4bhr12rcd13ifvqhpg","pricing_plan_id":"free"},{"bike_id":"cd173530-4374-4ee9-b203-9ec424b90fdf","system_id":"levelo_inurba_marseille","lat":43.319935,"lon":5.381699,"is_reserved":false,"is_disabled":false,"rental_uris":{"android":"levelo://app?vid=cd173530-4374-4ee9-b203-9ec424b90fdf","ios":"levelo://app?vid=cd173530-4374-4ee9-b203-9ec424b90fdf"},"vehicle_type_id":"4","last_reported":1684699612,"current_range_meters":1200,"station_id":"ce4bhr12rcd13ifvqhpg","pricing_plan_id":"free"},{"bike_id":"9bb6c568-1b70-4c4f-a855-2042d5d6e5da","system_id":"levelo_inurba_marseille","lat":43.319935,"lon":5.381699,"is_reserved":false,"is_disabled":false,"rental_uris":{"android":"levelo://app?vid=9bb6c568-1b70-4c4f-a855-2042d5d6e5da","ios":"levelo://app?vid=9bb6c568-1b70-4c4f-a855-2042d5d6e5da"},"vehicle_type_id":"4","last_reported":1684699612,"current_range_meters":14800,"station_id":"ce4bhr12rcd13ifvqhpg","pricing_plan_id":"free"},{"bike_id":"dde51e02-dadf-42e3-94fd-83287b145cab","system_id":"levelo_inurba_marseille","lat":43.299222,"lon":5.365554,"is_reserved":false,"is_disabled":false,"rental_uris":{"android":"levelo://app?vid=dde51e02-dadf-42e3-94fd-83287b145cab","ios":"levelo://app?vid=dde51e02-dadf-42e3-94fd-83287b145cab"},"vehicle_type_id":"4","last_reported":1684699612,"current_range_meters":25200,"station_id":"ce4bgm92rcd13ifvqbr0","pricing_plan_id":"free"},{"bike_id":"0484a4ba-cf64-4d00-88b0-9745339dd5f0","system_id":"levelo_inurba_marseille","lat":43.298433,"lon":5.362774,"is_reserved":false,"is_disabled":false,"rental_uris":{"android":"levelo://app?vid=0484a4ba-cf64-4d00-88b0-9745339dd5f0","ios":"levelo://app?vid=0484a4ba-cf64-4d00-88b0-9745339dd5f0"},"vehicle_type_id":"4","last_reported":1684699612,"current_range_meters":9200,"station_id":"ce4bgpp2rcd13ifvqc3g","pricing_plan_id":"free"},{"bike_id":"6dea21ea-274c-432b-85ca-e5e3ab091b71","system_id":"levelo_inurba_marseille","lat":43.298433,"lon":5.362774,"is_reserved":false,"is_disabled":false,"rental_uris":{"android":"levelo://app?vid=6dea21ea-274c-432b-85ca-e5e3ab091b71","ios":"levelo://app?vid=6dea21ea-274c-432b-85ca-e5e3ab091b71"},"vehicle_type_id":"4","last_reported":1684699612,"current_range_meters":4400,"station_id":"ce4bgpp2rcd13ifvqc3g","pricing_plan_id":"free"},{"bike_id":"57b25957-ccf5-4745-8e69-8e1449e5a77e","system_id":"levelo_inurba_marseille","lat":43.305364,"lon":5.384119,"is_reserved":false,"is_disabled":false,"rental_uris":{"android":"levelo://app?vid=57b25957-ccf5-4745-8e69-8e1449e5a77e","ios":"levelo://app?vid=57b25957-ccf5-4745-8e69-8e1449e5a77e"},"vehicle_type_id":"4","last_reported":1684699612,"current_range_meters":2000,"station_id":"ce4bgg92rcd13ifvqb30","pricing_plan_id":"free"},{"bike_id":"8a30443e-e342-4096-b37c-0b5675cfe661","system_id":"levelo_inurba_marseille","lat":43.299243,"lon":5.37481,"is_reserved":false,"is_disabled":false,"rental_uris":{"android":"levelo://app?vid=8a30443e-e342-4096-b37c-0b5675cfe661","ios":"levelo://app?vid=8a30443e-e342-4096-b37c-0b5675cfe661"},"vehicle_type_id":"4","last_reported":1684699612,"current_range_meters":0,"station_id":"ce4bgjh2rcd13ifvqbg0","pricing_plan_id":"free"},{"bike_id":"6c26faec-4c2b-4693-ace2-91ee631f95aa","system_id":"levelo_inurba_marseille","lat":43.311722,"lon":5.387247,"is_reserved":false,"is_disabled":false,"rental_uris":{"android":"levelo://app?vid=6c26faec-4c2b-4693-ace2-91ee631f95aa","ios":"levelo://app?vid=6c26faec-4c2b-4693-ace2-91ee631f95aa"},"vehicle_type_id":"4","last_reported":1684699612,"current_range_meters":10800,"station_id":"ce4bgv12rcd13ifvqcp0","pricing_plan_id":"free"},{"bike_id":"7a4b79ce-7453-464d-beac-4e75ca73d00d","system_id":"levelo_inurba_marseille","lat":43.311722,"lon":5.387247,"is_reserved":false,"is_disabled":false,"rental_uris":{"android":"levelo://app?vid=7a4b79ce-7453-464d-beac-4e75ca73d00d","ios":"levelo://app?vid=7a4b79ce-7453-464d-beac-4e75ca73d00d"},"vehicle_type_id":"4","last_reported":1684699612,"current_range_meters":18400,"station_id":"ce4bgv12rcd13ifvqcp0","pricing_plan_id":"free"},{"bike_id":"71a7cd51-c98e-4b63-902f-c2f5a808a065","system_id":"levelo_inurba_marseille","lat":43.3277,"lon":5.36701,"is_reserved":false,"is_disabled":false,"rental_uris":{"android":"levelo://app?vid=71a7cd51-c98e-4b63-902f-c2f5a808a065","ios":"levelo://app?vid=71a7cd51-c98e-4b63-902f-c2f5a808a065"},"vehicle_type_id":"4","last_reported":1684699612,"current_range_meters":17200,"station_id":"","pricing_plan_id":"free"},{"bike_id":"e598eb43-74a1-444d-8457-379be8cf00b1","system_id":"levelo_inurba_marseille","lat":43.297794,"lon":5.370888,"is_reserved":false,"is_disabled":false,"rental_uris":{"android":"levelo://app?vid=e598eb43-74a1-444d-8457-379be8cf00b1","ios":"levelo://app?vid=e598eb43-74a1-444d-8457-379be8cf00b1"},"vehicle_type_id":"4","last_reported":1684699612,"current_range_meters":6400,"station_id":"ce4bgop2rcd13ifvqc1g","pricing_plan_id":"free"},{"bike_id":"8ca4b3ad-2ff8-4cb5-aaa7-93d62e217d4c","system_id":"levelo_inurba_marseille","lat":43.29791,"lon":5.37109,"is_reserved":false,"is_disabled":false,"rental_uris":{"android":"levelo://app?vid=8ca4b3ad-2ff8-4cb5-aaa7-93d62e217d4c","ios":"levelo://app?vid=8ca4b3ad-2ff8-4cb5-aaa7-93d62e217d4c"},"vehicle_type_id":"4","last_reported":1684699612,"current_range_meters":27600,"station_id":"ce4bgop2rcd13ifvqc1g","pricing_plan_id":"free"},{"bike_id":"5080e758-39a8-478b-b93d-bd5e34603c05","system_id":"levelo_inurba_marseille","lat":43.297794,"lon":5.370888,"is_reserved":false,"is_disabled":false,"rental_uris":{"android":"levelo://app?vid=5080e758-39a8-478b-b93d-bd5e34603c05","ios":"levelo://app?vid=5080e758-39a8-478b-b93d-bd5e34603c05"},"vehicle_type_id":"4","last_reported":1684699612,"current_range_meters":22800,"station_id":"ce4bgop2rcd13ifvqc1g","pricing_plan_id":"free"},{"bike_id":"3737530b-ca7b-4728-b36f-2127ef24fc71","system_id":"levelo_inurba_marseille","lat":43.328371,"lon":5.366912,"is_reserved":false,"is_disabled":false,"rental_uris":{"android":"levelo://app?vid=3737530b-ca7b-4728-b36f-2127ef24fc71","ios":"levelo://app?vid=3737530b-ca7b-4728-b36f-2127ef24fc71"},"vehicle_type_id":"4","last_reported":1684699612,"current_range_meters":22400,"station_id":"ce4bhs92rcd13ifvqi0g","pricing_plan_id":"free"},{"bike_id":"411c53dc-8a67-493a-b123-b1e299cae53c","system_id":"levelo_inurba_marseille","lat":43.32827,"lon":5.36681,"is_reserved":false,"is_disabled":false,"rental_uris":{"android":"levelo://app?vid=411c53dc-8a67-493a-b123-b1e299cae53c","ios":"levelo://app?vid=411c53dc-8a67-493a-b123-b1e299cae53c"},"vehicle_type_id":"4","last_reported":1684699612,"current_range_meters":26400,"station_id":"ce4bhs92rcd13ifvqi0g","pricing_plan_id":"free"},{"bike_id":"4bd0bc50-eb27-4447-b60f-a26a73dad528","system_id":"levelo_inurba_marseille","lat":43.32827,"lon":5.36676,"is_reserved":false,"is_disabled":false,"rental_uris":{"android":"levelo://app?vid=4bd0bc50-eb27-4447-b60f-a26a73dad528","ios":"levelo://app?vid=4bd0bc50-eb27-4447-b60f-a26a73dad528"},"vehicle_type_id":"4","last_reported":1684699612,"current_range_meters":24000,"station_id":"ce4bhs92rcd13ifvqi0g","pricing_plan_id":"free"},{"bike_id":"a7fb6a73-9ebf-4b56-938e-67995ffda768","system_id":"levelo_inurba_marseille","lat":43.32828,"lon":5.36676,"is_reserved":false,"is_disabled":false,"rental_uris":{"android":"levelo://app?vid=a7fb6a73-9ebf-4b56-938e-67995ffda768","ios":"levelo://app?vid=a7fb6a73-9ebf-4b56-938e-67995ffda768"},"vehicle_type_id":"4","last_reported":1684699612,"current_range_meters":28000,"station_id":"ce4bhs92rcd13ifvqi0g","pricing_plan_id":"free"},{"bike_id":"9d891959-73d6-4c5c-ad12-227228d64e9d","system_id":"levelo_inurba_marseille","lat":43.3283,"lon":5.36681,"is_reserved":false,"is_disabled":false,"rental_uris":{"android":"levelo://app?vid=9d891959-73d6-4c5c-ad12-227228d64e9d","ios":"levelo://app?vid=9d891959-73d6-4c5c-ad12-227228d64e9d"},"vehicle_type_id":"4","last_reported":1684699612,"current_range_meters":15200,"station_id":"ce4bhs92rcd13ifvqi0g","pricing_plan_id":"free"},{"bike_id":"b4753105-18f7-4cdd-9e29-09e2495164bd","system_id":"levelo_inurba_marseille","lat":43.29716,"lon":5.36613,"is_reserved":false,"is_disabled":false,"rental_uris":{"android":"levelo://app?vid=b4753105-18f7-4cdd-9e29-09e2495164bd","ios":"levelo://app?vid=b4753105-18f7-4cdd-9e29-09e2495164bd"},"vehicle_type_id":"4","last_reported":1684699612,"current_range_meters":19600,"station_id":"","pricing_plan_id":"free"},{"bike_id":"2d291edd-04b3-4a31-bc5e-638432229d02","system_id":"levelo_inurba_marseille","lat":43.328371,"lon":5.366912,"is_reserved":false,"is_disabled":false,"rental_uris":{"android":"levelo://app?vid=2d291edd-04b3-4a31-bc5e-638432229d02","ios":"levelo://app?vid=2d291edd-04b3-4a31-bc5e-638432229d02"},"vehicle_type_id":"4","last_reported":1684699612,"current_range_meters":3600,"station_id":"ce4bhs92rcd13ifvqi0g","pricing_plan_id":"free"},{"bike_id":"1b59127b-468c-4b1a-9136-b0e86c1c7b71","system_id":"levelo_inurba_marseille","lat":43.29714,"lon":5.36604,"is_reserved":false,"is_disabled":false,"rental_uris":{"android":"levelo://app?vid=1b59127b-468c-4b1a-9136-b0e86c1c7b71","ios":"levelo://app?vid=1b59127b-468c-4b1a-9136-b0e86c1c7b71"},"vehicle_type_id":"4","last_reported":1684699612,"current_range_meters":28000,"station_id":"","pricing_plan_id":"free"},{"bike_id":"e536a9df-1e8b-4f13-a019-b892008d14a9","system_id":"levelo_inurba_marseille","lat":43.29713,"lon":5.36611,"is_reserved":false,"is_disabled":false,"rental_uris":{"android":"levelo://app?vid=e536a9df-1e8b-4f13-a019-b892008d14a9","ios":"levelo://app?vid=e536a9df-1e8b-4f13-a019-b892008d14a9"},"vehicle_type_id":"4","last_reported":1684699612,"current_range_meters":27600,"station_id":"","pricing_plan_id":"free"},{"bike_id":"56569103-3d78-4795-9074-b49cf021049d","system_id":"levelo_inurba_marseille","lat":43.32837,"lon":5.36679,"is_reserved":false,"is_disabled":false,"rental_uris":{"android":"levelo://app?vid=56569103-3d78-4795-9074-b49cf021049d","ios":"levelo://app?vid=56569103-3d78-4795-9074-b49cf021049d"},"vehicle_type_id":"4","last_reported":1684699612,"current_range_meters":3600,"station_id":"ce4bhs92rcd13ifvqi0g","pricing_plan_id":"free"},{"bike_id":"c53a0104-d7a0-440e-b71c-74098b355a77","system_id":"levelo_inurba_marseille","lat":43.2971,"lon":5.36598,"is_reserved":false,"is_disabled":false,"rental_uris":{"android":"levelo://app?vid=c53a0104-d7a0-440e-b71c-74098b355a77","ios":"levelo://app?vid=c53a0104-d7a0-440e-b71c-74098b355a77"},"vehicle_type_id":"4","last_reported":1684699612,"current_range_meters":26400,"station_id":"","pricing_plan_id":"free"},{"bike_id":"b8704c7c-bcdd-4f2d-bf9e-17f6943b8c3a","system_id":"levelo_inurba_marseille","lat":43.2968,"lon":5.37291,"is_reserved":false,"is_disabled":false,"rental_uris":{"android":"levelo://app?vid=b8704c7c-bcdd-4f2d-bf9e-17f6943b8c3a","ios":"levelo://app?vid=b8704c7c-bcdd-4f2d-bf9e-17f6943b8c3a"},"vehicle_type_id":"4","last_reported":1684699612,"current_range_meters":14400,"station_id":"ce4bgk12rcd13ifvqbj0","pricing_plan_id":"free"},{"bike_id":"69da8c97-f01f-4789-bd64-dc45d19daa3f","system_id":"levelo_inurba_marseille","lat":43.2968,"lon":5.37291,"is_reserved":false,"is_disabled":false,"rental_uris":{"android":"levelo://app?vid=69da8c97-f01f-4789-bd64-dc45d19daa3f","ios":"levelo://app?vid=69da8c97-f01f-4789-bd64-dc45d19daa3f"},"vehicle_type_id":"4","last_reported":1684699612,"current_range_meters":14800,"station_id":"ce4bgk12rcd13ifvqbj0","pricing_plan_id":"free"},{"bike_id":"7d5c391a-8981-46b0-b682-e61a98c63c1f","system_id":"levelo_inurba_marseille","lat":43.296131,"lon":5.370791,"is_reserved":false,"is_disabled":false,"rental_uris":{"android":"levelo://app?vid=7d5c391a-8981-46b0-b682-e61a98c63c1f","ios":"levelo://app?vid=7d5c391a-8981-46b0-b682-e61a98c63c1f"},"vehicle_type_id":"4","last_reported":1684699612,"current_range_meters":20000,"station_id":"ce4bgnh2rcd13ifvqc0g","pricing_plan_id":"free"},{"bike_id":"f6f73e94-5fe5-4184-a6b3-66c72e127ebd","system_id":"levelo_inurba_marseille","lat":43.2991,"lon":5.38159,"is_reserved":false,"is_disabled":false,"rental_uris":{"android":"levelo://app?vid=f6f73e94-5fe5-4184-a6b3-66c72e127ebd","ios":"levelo://app?vid=f6f73e94-5fe5-4184-a6b3-66c72e127ebd"},"vehicle_type_id":"4","last_reported":1684699612,"current_range_meters":8800,"station_id":"ce4bgj12rcd13ifvqbc0","pricing_plan_id":"free"},{"bike_id":"53dc276e-a58f-4085-92b4-5763b308f64b","system_id":"levelo_inurba_marseille","lat":43.296935,"lon":5.376544,"is_reserved":false,"is_disabled":false,"rental_uris":{"android":"levelo://app?vid=53dc276e-a58f-4085-92b4-5763b308f64b","ios":"levelo://app?vid=53dc276e-a58f-4085-92b4-5763b308f64b"},"vehicle_type_id":"4","last_reported":1684699612,"current_range_meters":28800,"station_id":"ce4bgkh2rcd13ifvqbl0","pricing_plan_id":"free"},{"bike_id":"fe6b0ef8-2418-4c38-b0fd-5abf0602f136","system_id":"levelo_inurba_marseille","lat":43.317557,"lon":5.390173,"is_reserved":false,"is_disabled":false,"rental_uris":{"android":"levelo://app?vid=fe6b0ef8-2418-4c38-b0fd-5abf0602f136","ios":"levelo://app?vid=fe6b0ef8-2418-4c38-b0fd-5abf0602f136"},"vehicle_type_id":"4","last_reported":1684699612,"current_range_meters":6400,"station_id":"ce4bhqp2rcd13ifvqhng","pricing_plan_id":"free"},{"bike_id":"8ce00abf-e76b-4c09-aade-6bc219109b6e","system_id":"levelo_inurba_marseille","lat":43.31758,"lon":5.390208,"is_reserved":false,"is_disabled":false,"rental_uris":{"android":"levelo://app?vid=8ce00abf-e76b-4c09-aade-6bc219109b6e","ios":"levelo://app?vid=8ce00abf-e76b-4c09-aade-6bc219109b6e"},"vehicle_type_id":"4","last_reported":1684699612,"current_range_meters":10400,"station_id":"","pricing_plan_id":"free"},{"bike_id":"8fed59e5-5c48-4b05-9732-8c28c71a9dab","system_id":"levelo_inurba_marseille","lat":43.298037,"lon":5.381066,"is_reserved":false,"is_disabled":false,"rental_uris":{"android":"levelo://app?vid=8fed59e5-5c48-4b05-9732-8c28c71a9dab","ios":"levelo://app?vid=8fed59e5-5c48-4b05-9732-8c28c71a9dab"},"vehicle_type_id":"4","last_reported":1684699612,"current_range_meters":25200,"station_id":"ce4bgip2rcd13ifvqbb0","pricing_plan_id":"free"},{"bike_id":"624f239b-42df-4328-834d-c8ec2ffaed1f","system_id":"levelo_inurba_marseille","lat":43.298037,"lon":5.381066,"is_reserved":false,"is_disabled":false,"rental_uris":{"android":"levelo://app?vid=624f239b-42df-4328-834d-c8ec2ffaed1f","ios":"levelo://app?vid=624f239b-42df-4328-834d-c8ec2ffaed1f"},"vehicle_type_id":"4","last_reported":1684699612,"current_range_meters":22000,"station_id":"ce4bgip2rcd13ifvqbb0","pricing_plan_id":"free"},{"bike_id":"e22a5551-37a5-4ed7-ab31-1b2518e2b87c","system_id":"levelo_inurba_marseille","lat":43.304274,"lon":5.388873,"is_reserved":false,"is_disabled":false,"rental_uris":{"android":"levelo://app?vid=e22a5551-37a5-4ed7-ab31-1b2518e2b87c","ios":"levelo://app?vid=e22a5551-37a5-4ed7-ab31-1b2518e2b87c"},"vehicle_type_id":"4","last_reported":1684699612,"current_range_meters":0,"station_id":"ce4bgk12rcd13ifvqbi0","pricing_plan_id":"free"},{"bike_id":"38d11068-f1f3-4420-a0e3-595efe9e5341","system_id":"levelo_inurba_marseille","lat":43.304274,"lon":5.388873,"is_reserved":false,"is_disabled":false,"rental_uris":{"android":"levelo://app?vid=38d11068-f1f3-4420-a0e3-595efe9e5341","ios":"levelo://app?vid=38d11068-f1f3-4420-a0e3-595efe9e5341"},"vehicle_type_id":"4","last_reported":1684699612,"current_range_meters":14000,"station_id":"ce4bgk12rcd13ifvqbi0","pricing_plan_id":"free"},{"bike_id":"cc9b8189-ee96-4bf7-bb5d-31b6fd28e958","system_id":"levelo_inurba_marseille","lat":43.296277,"lon":5.377108,"is_reserved":false,"is_disabled":false,"rental_uris":{"android":"levelo://app?vid=cc9b8189-ee96-4bf7-bb5d-31b6fd28e958","ios":"levelo://app?vid=cc9b8189-ee96-4bf7-bb5d-31b6fd28e958"},"vehicle_type_id":"4","last_reported":1684699612,"current_range_meters":30000,"station_id":"ce4bgi92rcd13ifvqb90","pricing_plan_id":"free"},{"bike_id":"56c2b0e5-3ed9-4cd2-bf23-9e6b97ac049f","system_id":"levelo_inurba_marseille","lat":43.296277,"lon":5.377108,"is_reserved":false,"is_disabled":false,"rental_uris":{"android":"levelo://app?vid=56c2b0e5-3ed9-4cd2-bf23-9e6b97ac049f","ios":"levelo://app?vid=56c2b0e5-3ed9-4cd2-bf23-9e6b97ac049f"},"vehicle_type_id":"4","last_reported":1684699612,"current_range_meters":22000,"station_id":"ce4bgi92rcd13ifvqb90","pricing_plan_id":"free"},{"bike_id":"7616a566-9cb3-4111-974b-bd6556733b6a","system_id":"levelo_inurba_marseille","lat":43.296277,"lon":5.377108,"is_reserved":false,"is_disabled":false,"rental_uris":{"android":"levelo://app?vid=7616a566-9cb3-4111-974b-bd6556733b6a","ios":"levelo://app?vid=7616a566-9cb3-4111-974b-bd6556733b6a"},"vehicle_type_id":"4","last_reported":1684699612,"current_range_meters":16400,"station_id":"ce4bgi92rcd13ifvqb90","pricing_plan_id":"free"},{"bike_id":"65f5b786-fcfe-4a16-a1cd-74cdaf8ecb35","system_id":"levelo_inurba_marseille","lat":43.296277,"lon":5.377108,"is_reserved":false,"is_disabled":false,"rental_uris":{"android":"levelo://app?vid=65f5b786-fcfe-4a16-a1cd-74cdaf8ecb35","ios":"levelo://app?vid=65f5b786-fcfe-4a16-a1cd-74cdaf8ecb35"},"vehicle_type_id":"4","last_reported":1684699612,"current_range_meters":31200,"station_id":"ce4bgi92rcd13ifvqb90","pricing_plan_id":"free"},{"bike_id":"38bb7106-ae9c-4e4c-8c73-578eba7c7b92","system_id":"levelo_inurba_marseille","lat":43.295279,"lon":5.375048,"is_reserved":false,"is_disabled":false,"rental_uris":{"android":"levelo://app?vid=38bb7106-ae9c-4e4c-8c73-578eba7c7b92","ios":"levelo://app?vid=38bb7106-ae9c-4e4c-8c73-578eba7c7b92"},"vehicle_type_id":"4","last_reported":1684699612,"current_range_meters":14400,"station_id":"ce4bgkp2rcd13ifvqbmg","pricing_plan_id":"free"},{"bike_id":"ce5daa72-4589-4e73-9715-268618c80e84","system_id":"levelo_inurba_marseille","lat":43.295279,"lon":5.375048,"is_reserved":false,"is_disabled":false,"rental_uris":{"android":"levelo://app?vid=ce5daa72-4589-4e73-9715-268618c80e84","ios":"levelo://app?vid=ce5daa72-4589-4e73-9715-268618c80e84"},"vehicle_type_id":"4","last_reported":1684699612,"current_range_meters":16000,"station_id":"ce4bgkp2rcd13ifvqbmg","pricing_plan_id":"free"},{"bike_id":"38c5ed6c-7064-4edc-bf7d-006851159a0f","system_id":"levelo_inurba_marseille","lat":43.295279,"lon":5.375048,"is_reserved":false,"is_disabled":false,"rental_uris":{"android":"levelo://app?vid=38c5ed6c-7064-4edc-bf7d-006851159a0f","ios":"levelo://app?vid=38c5ed6c-7064-4edc-bf7d-006851159a0f"},"vehicle_type_id":"4","last_reported":1684699612,"current_range_meters":20800,"station_id":"ce4bgkp2rcd13ifvqbmg","pricing_plan_id":"free"},{"bike_id":"f777fabf-4115-4224-aac9-d28a536faec6","system_id":"levelo_inurba_marseille","lat":43.295279,"lon":5.375048,"is_reserved":false,"is_disabled":false,"rental_uris":{"android":"levelo://app?vid=f777fabf-4115-4224-aac9-d28a536faec6","ios":"levelo://app?vid=f777fabf-4115-4224-aac9-d28a536faec6"},"vehicle_type_id":"4","last_reported":1684699612,"current_range_meters":24800,"station_id":"ce4bgkp2rcd13ifvqbmg","pricing_plan_id":"free"},{"bike_id":"d269b05a-6310-4c30-a120-d691f01e3d3c","system_id":"levelo_inurba_marseille","lat":43.295279,"lon":5.375048,"is_reserved":false,"is_disabled":false,"rental_uris":{"android":"levelo://app?vid=d269b05a-6310-4c30-a120-d691f01e3d3c","ios":"levelo://app?vid=d269b05a-6310-4c30-a120-d691f01e3d3c"},"vehicle_type_id":"4","last_reported":1684699612,"current_range_meters":25200,"station_id":"ce4bgkp2rcd13ifvqbmg","pricing_plan_id":"free"},{"bike_id":"aea4c755-8e80-438a-a19c-01287b54f344","system_id":"levelo_inurba_marseille","lat":43.3236,"lon":5.38876,"is_reserved":false,"is_disabled":false,"rental_uris":{"android":"levelo://app?vid=aea4c755-8e80-438a-a19c-01287b54f344","ios":"levelo://app?vid=aea4c755-8e80-438a-a19c-01287b54f344"},"vehicle_type_id":"4","last_reported":1684699612,"current_range_meters":23200,"station_id":"ce4bhqp2rcd13ifvqhog","pricing_plan_id":"free"},{"bike_id":"f0c7eaf2-bea8-495f-9767-db2ea8300e1f","system_id":"levelo_inurba_marseille","lat":43.32362,"lon":5.38877,"is_reserved":false,"is_disabled":false,"rental_uris":{"android":"levelo://app?vid=f0c7eaf2-bea8-495f-9767-db2ea8300e1f","ios":"levelo://app?vid=f0c7eaf2-bea8-495f-9767-db2ea8300e1f"},"vehicle_type_id":"4","last_reported":1684699612,"current_range_meters":0,"station_id":"ce4bhqp2rcd13ifvqhog","pricing_plan_id":"free"},{"bike_id":"4ac8d894-44aa-44fe-a5bc-75ed68bed853","system_id":"levelo_inurba_marseille","lat":43.32365,"lon":5.38879,"is_reserved":false,"is_disabled":false,"rental_uris":{"android":"levelo://app?vid=4ac8d894-44aa-44fe-a5bc-75ed68bed853","ios":"levelo://app?vid=4ac8d894-44aa-44fe-a5bc-75ed68bed853"},"vehicle_type_id":"4","last_reported":1684699612,"current_range_meters":16000,"station_id":"ce4bhqp2rcd13ifvqhog","pricing_plan_id":"free"},{"bike_id":"54116cb7-e06e-44b7-b6c6-7288ee4c40a3","system_id":"levelo_inurba_marseille","lat":43.32361,"lon":5.38883,"is_reserved":false,"is_disabled":false,"rental_uris":{"android":"levelo://app?vid=54116cb7-e06e-44b7-b6c6-7288ee4c40a3","ios":"levelo://app?vid=54116cb7-e06e-44b7-b6c6-7288ee4c40a3"},"vehicle_type_id":"4","last_reported":1684699612,"current_range_meters":26000,"station_id":"ce4bhqp2rcd13ifvqhog","pricing_plan_id":"free"},{"bike_id":"e267f340-98f6-4e1c-9dff-034ba5864fb0","system_id":"levelo_inurba_marseille","lat":43.32362,"lon":5.38884,"is_reserved":false,"is_disabled":false,"rental_uris":{"android":"levelo://app?vid=e267f340-98f6-4e1c-9dff-034ba5864fb0","ios":"levelo://app?vid=e267f340-98f6-4e1c-9dff-034ba5864fb0"},"vehicle_type_id":"4","last_reported":1684699612,"current_range_meters":30000,"station_id":"ce4bhqp2rcd13ifvqhog","pricing_plan_id":"free"},{"bike_id":"e93e9afc-a4d8-40a8-acd4-6ce3c457187d","system_id":"levelo_inurba_marseille","lat":43.32365,"lon":5.38882,"is_reserved":false,"is_disabled":false,"rental_uris":{"android":"levelo://app?vid=e93e9afc-a4d8-40a8-acd4-6ce3c457187d","ios":"levelo://app?vid=e93e9afc-a4d8-40a8-acd4-6ce3c457187d"},"vehicle_type_id":"4","last_reported":1684699612,"current_range_meters":18400,"station_id":"ce4bhqp2rcd13ifvqhog","pricing_plan_id":"free"},{"bike_id":"b2239e09-41dc-4cde-9b2f-b27fe7d0a355","system_id":"levelo_inurba_marseille","lat":43.32363,"lon":5.38884,"is_reserved":false,"is_disabled":false,"rental_uris":{"android":"levelo://app?vid=b2239e09-41dc-4cde-9b2f-b27fe7d0a355","ios":"levelo://app?vid=b2239e09-41dc-4cde-9b2f-b27fe7d0a355"},"vehicle_type_id":"4","last_reported":1684699612,"current_range_meters":28400,"station_id":"ce4bhqp2rcd13ifvqhog","pricing_plan_id":"free"},{"bike_id":"73045699-9656-449f-aed1-96552ac57a20","system_id":"levelo_inurba_marseille","lat":43.32366,"lon":5.38882,"is_reserved":false,"is_disabled":false,"rental_uris":{"android":"levelo://app?vid=73045699-9656-449f-aed1-96552ac57a20","ios":"levelo://app?vid=73045699-9656-449f-aed1-96552ac57a20"},"vehicle_type_id":"4","last_reported":1684699612,"current_range_meters":29600,"station_id":"ce4bhqp2rcd13ifvqhog","pricing_plan_id":"free"},{"bike_id":"4801f3fd-1e36-4ac4-90da-a6af93fab01d","system_id":"levelo_inurba_marseille","lat":43.3237,"lon":5.38879,"is_reserved":false,"is_disabled":false,"rental_uris":{"android":"levelo://app?vid=4801f3fd-1e36-4ac4-90da-a6af93fab01d","ios":"levelo://app?vid=4801f3fd-1e36-4ac4-90da-a6af93fab01d"},"vehicle_type_id":"4","last_reported":1684699612,"current_range_meters":20000,"station_id":"ce4bhqp2rcd13ifvqhog","pricing_plan_id":"free"},{"bike_id":"53c80b4b-d032-45da-9217-748d7d82aa73","system_id":"levelo_inurba_marseille","lat":43.32361,"lon":5.38888,"is_reserved":false,"is_disabled":false,"rental_uris":{"android":"levelo://app?vid=53c80b4b-d032-45da-9217-748d7d82aa73","ios":"levelo://app?vid=53c80b4b-d032-45da-9217-748d7d82aa73"},"vehicle_type_id":"4","last_reported":1684699612,"current_range_meters":11200,"station_id":"ce4bhqp2rcd13ifvqhog","pricing_plan_id":"free"},{"bike_id":"278cf516-bd46-4a4e-b2c7-90ce64b42f33","system_id":"levelo_inurba_marseille","lat":43.32367,"lon":5.388836,"is_reserved":false,"is_disabled":false,"rental_uris":{"android":"levelo://app?vid=278cf516-bd46-4a4e-b2c7-90ce64b42f33","ios":"levelo://app?vid=278cf516-bd46-4a4e-b2c7-90ce64b42f33"},"vehicle_type_id":"4","last_reported":1684699612,"current_range_meters":24000,"station_id":"ce4bhqp2rcd13ifvqhog","pricing_plan_id":"free"},{"bike_id":"d39153fb-3bdf-494f-a5d9-c0fbd6691de7","system_id":"levelo_inurba_marseille","lat":43.32369,"lon":5.38881,"is_reserved":false,"is_disabled":false,"rental_uris":{"android":"levelo://app?vid=d39153fb-3bdf-494f-a5d9-c0fbd6691de7","ios":"levelo://app?vid=d39153fb-3bdf-494f-a5d9-c0fbd6691de7"},"vehicle_type_id":"4","last_reported":1684699612,"current_range_meters":10000,"station_id":"ce4bhqp2rcd13ifvqhog","pricing_plan_id":"free"},{"bike_id":"01d401da-ad68-4b2e-a4ac-24f3f8771d91","system_id":"levelo_inurba_marseille","lat":43.32367,"lon":5.388836,"is_reserved":false,"is_disabled":false,"rental_uris":{"android":"levelo://app?vid=01d401da-ad68-4b2e-a4ac-24f3f8771d91","ios":"levelo://app?vid=01d401da-ad68-4b2e-a4ac-24f3f8771d91"},"vehicle_type_id":"4","last_reported":1684699612,"current_range_meters":20400,"station_id":"ce4bhqp2rcd13ifvqhog","pricing_plan_id":"free"},{"bike_id":"81343f62-2d4a-4850-8480-f129af56a333","system_id":"levelo_inurba_marseille","lat":43.32367,"lon":5.388836,"is_reserved":false,"is_disabled":false,"rental_uris":{"android":"levelo://app?vid=81343f62-2d4a-4850-8480-f129af56a333","ios":"levelo://app?vid=81343f62-2d4a-4850-8480-f129af56a333"},"vehicle_type_id":"4","last_reported":1684699612,"current_range_meters":21200,"station_id":"ce4bhqp2rcd13ifvqhog","pricing_plan_id":"free"},{"bike_id":"7f546ff4-b9e3-4964-8a41-970116f40585","system_id":"levelo_inurba_marseille","lat":43.292749,"lon":5.368398,"is_reserved":false,"is_disabled":false,"rental_uris":{"android":"levelo://app?vid=7f546ff4-b9e3-4964-8a41-970116f40585","ios":"levelo://app?vid=7f546ff4-b9e3-4964-8a41-970116f40585"},"vehicle_type_id":"4","last_reported":1684699612,"current_range_meters":21200,"station_id":"ce4bhbp2rcd13ifvqesg","pricing_plan_id":"free"},{"bike_id":"cff9cac7-b1bd-4c64-abf1-ee1a05418fc1","system_id":"levelo_inurba_marseille","lat":43.292749,"lon":5.368398,"is_reserved":false,"is_disabled":false,"rental_uris":{"android":"levelo://app?vid=cff9cac7-b1bd-4c64-abf1-ee1a05418fc1","ios":"levelo://app?vid=cff9cac7-b1bd-4c64-abf1-ee1a05418fc1"},"vehicle_type_id":"4","last_reported":1684699612,"current_range_meters":10000,"station_id":"ce4bhbp2rcd13ifvqesg","pricing_plan_id":"free"},{"bike_id":"9e659a41-56ec-4ae1-8b74-00895c424499","system_id":"levelo_inurba_marseille","lat":43.293009,"lon":5.374584,"is_reserved":false,"is_disabled":false,"rental_uris":{"android":"levelo://app?vid=9e659a41-56ec-4ae1-8b74-00895c424499","ios":"levelo://app?vid=9e659a41-56ec-4ae1-8b74-00895c424499"},"vehicle_type_id":"4","last_reported":1684699612,"current_range_meters":19600,"station_id":"ce4bgi12rcd13ifvqb70","pricing_plan_id":"free"},{"bike_id":"0cba61a2-7c39-4068-8669-7f87f4f781e7","system_id":"levelo_inurba_marseille","lat":43.293009,"lon":5.374584,"is_reserved":false,"is_disabled":false,"rental_uris":{"android":"levelo://app?vid=0cba61a2-7c39-4068-8669-7f87f4f781e7","ios":"levelo://app?vid=0cba61a2-7c39-4068-8669-7f87f4f781e7"},"vehicle_type_id":"4","last_reported":1684699612,"current_range_meters":16800,"station_id":"ce4bgi12rcd13ifvqb70","pricing_plan_id":"free"},{"bike_id":"433e1f3d-f97d-442a-8669-adf2ba7d94d4","system_id":"levelo_inurba_marseille","lat":43.305994,"lon":5.393687,"is_reserved":false,"is_disabled":false,"rental_uris":{"android":"levelo://app?vid=433e1f3d-f97d-442a-8669-adf2ba7d94d4","ios":"levelo://app?vid=433e1f3d-f97d-442a-8669-adf2ba7d94d4"},"vehicle_type_id":"4","last_reported":1684699612,"current_range_meters":20800,"station_id":"ce4bh0p2rcd13ifvqd80","pricing_plan_id":"free"},{"bike_id":"9414da43-786e-4493-8cf3-da23050a9397","system_id":"levelo_inurba_marseille","lat":43.303002,"lon":5.392142,"is_reserved":false,"is_disabled":false,"rental_uris":{"android":"levelo://app?vid=9414da43-786e-4493-8cf3-da23050a9397","ios":"levelo://app?vid=9414da43-786e-4493-8cf3-da23050a9397"},"vehicle_type_id":"4","last_reported":1684699612,"current_range_meters":2000,"station_id":"ce4bgkh2rcd13ifvqbk0","pricing_plan_id":"free"},{"bike_id":"0ff31c16-6dd7-4308-8724-991595b830d4","system_id":"levelo_inurba_marseille","lat":43.303,"lon":5.39234,"is_reserved":false,"is_disabled":false,"rental_uris":{"android":"levelo://app?vid=0ff31c16-6dd7-4308-8724-991595b830d4","ios":"levelo://app?vid=0ff31c16-6dd7-4308-8724-991595b830d4"},"vehicle_type_id":"4","last_reported":1684699612,"current_range_meters":22800,"station_id":"ce4bgkh2rcd13ifvqbk0","pricing_plan_id":"free"},{"bike_id":"1950c7c2-a1e3-4913-aaf2-b2b97102bd51","system_id":"levelo_inurba_marseille","lat":43.30085,"lon":5.390856,"is_reserved":false,"is_disabled":false,"rental_uris":{"android":"levelo://app?vid=1950c7c2-a1e3-4913-aaf2-b2b97102bd51","ios":"levelo://app?vid=1950c7c2-a1e3-4913-aaf2-b2b97102bd51"},"vehicle_type_id":"4","last_reported":1684699612,"current_range_meters":1600,"station_id":"ce4bh192rcd13ifvqdb0","pricing_plan_id":"free"},{"bike_id":"5a120aa2-8c6e-4f42-9ce8-3f7179179811","system_id":"levelo_inurba_marseille","lat":43.300852,"lon":5.390859,"is_reserved":false,"is_disabled":false,"rental_uris":{"android":"levelo://app?vid=5a120aa2-8c6e-4f42-9ce8-3f7179179811","ios":"levelo://app?vid=5a120aa2-8c6e-4f42-9ce8-3f7179179811"},"vehicle_type_id":"4","last_reported":1684699612,"current_range_meters":17200,"station_id":"ce4bh192rcd13ifvqdb0","pricing_plan_id":"free"},{"bike_id":"0b48b96f-fe55-4ca2-afa8-ea219a61dc4d","system_id":"levelo_inurba_marseille","lat":43.300852,"lon":5.390859,"is_reserved":false,"is_disabled":false,"rental_uris":{"android":"levelo://app?vid=0b48b96f-fe55-4ca2-afa8-ea219a61dc4d","ios":"levelo://app?vid=0b48b96f-fe55-4ca2-afa8-ea219a61dc4d"},"vehicle_type_id":"4","last_reported":1684699612,"current_range_meters":25200,"station_id":"ce4bh192rcd13ifvqdb0","pricing_plan_id":"free"},{"bike_id":"5ce2f48b-80b8-4ecc-ac31-b1b5c03ce414","system_id":"levelo_inurba_marseille","lat":43.29217,"lon":5.36049,"is_reserved":false,"is_disabled":false,"rental_uris":{"android":"levelo://app?vid=5ce2f48b-80b8-4ecc-ac31-b1b5c03ce414","ios":"levelo://app?vid=5ce2f48b-80b8-4ecc-ac31-b1b5c03ce414"},"vehicle_type_id":"4","last_reported":1684699612,"current_range_meters":0,"station_id":"","pricing_plan_id":"free"},{"bike_id":"c54c5960-ba7b-4b1d-90c1-8ac80246459d","system_id":"levelo_inurba_marseille","lat":43.300852,"lon":5.390859,"is_reserved":false,"is_disabled":false,"rental_uris":{"android":"levelo://app?vid=c54c5960-ba7b-4b1d-90c1-8ac80246459d","ios":"levelo://app?vid=c54c5960-ba7b-4b1d-90c1-8ac80246459d"},"vehicle_type_id":"4","last_reported":1684699612,"current_range_meters":12400,"station_id":"ce4bh192rcd13ifvqdb0","pricing_plan_id":"free"},{"bike_id":"b10f8343-d7f5-46f1-b63c-bb3b5b41a09f","system_id":"levelo_inurba_marseille","lat":43.292663,"lon":5.376394,"is_reserved":false,"is_disabled":false,"rental_uris":{"android":"levelo://app?vid=b10f8343-d7f5-46f1-b63c-bb3b5b41a09f","ios":"levelo://app?vid=b10f8343-d7f5-46f1-b63c-bb3b5b41a09f"},"vehicle_type_id":"4","last_reported":1684699612,"current_range_meters":30000,"station_id":"ce4bgi12rcd13ifvqb80","pricing_plan_id":"free"},{"bike_id":"a6a172bb-2e0d-4bb6-840e-4950ba2a2196","system_id":"levelo_inurba_marseille","lat":43.298764,"lon":5.388973,"is_reserved":false,"is_disabled":false,"rental_uris":{"android":"levelo://app?vid=a6a172bb-2e0d-4bb6-840e-4950ba2a2196","ios":"levelo://app?vid=a6a172bb-2e0d-4bb6-840e-4950ba2a2196"},"vehicle_type_id":"4","last_reported":1684699612,"current_range_meters":14800,"station_id":"ce4bh392rcd13ifvqdl0","pricing_plan_id":"free"},{"bike_id":"e6af0941-df48-4e1b-b1ba-524f30afd85b","system_id":"levelo_inurba_marseille","lat":43.298764,"lon":5.388973,"is_reserved":false,"is_disabled":false,"rental_uris":{"android":"levelo://app?vid=e6af0941-df48-4e1b-b1ba-524f30afd85b","ios":"levelo://app?vid=e6af0941-df48-4e1b-b1ba-524f30afd85b"},"vehicle_type_id":"4","last_reported":1684699612,"current_range_meters":17600,"station_id":"ce4bh392rcd13ifvqdl0","pricing_plan_id":"free"},{"bike_id":"78131bbf-db35-4859-ad30-4fbcd268a013","system_id":"levelo_inurba_marseille","lat":43.298764,"lon":5.388973,"is_reserved":false,"is_disabled":false,"rental_uris":{"android":"levelo://app?vid=78131bbf-db35-4859-ad30-4fbcd268a013","ios":"levelo://app?vid=78131bbf-db35-4859-ad30-4fbcd268a013"},"vehicle_type_id":"4","last_reported":1684699612,"current_range_meters":3600,"station_id":"ce4bh392rcd13ifvqdl0","pricing_plan_id":"free"},{"bike_id":"4d35eff1-5cfb-478f-9e95-7c4882d2761f","system_id":"levelo_inurba_marseille","lat":43.291675,"lon":5.371583,"is_reserved":false,"is_disabled":false,"rental_uris":{"android":"levelo://app?vid=4d35eff1-5cfb-478f-9e95-7c4882d2761f","ios":"levelo://app?vid=4d35eff1-5cfb-478f-9e95-7c4882d2761f"},"vehicle_type_id":"4","last_reported":1684699612,"current_range_meters":7600,"station_id":"ce4bha92rcd13ifvqeh0","pricing_plan_id":"free"},{"bike_id":"a9347715-c81d-4f0d-b36b-b48ef200db1a","system_id":"levelo_inurba_marseille","lat":43.309038,"lon":5.396546,"is_reserved":false,"is_disabled":false,"rental_uris":{"android":"levelo://app?vid=a9347715-c81d-4f0d-b36b-b48ef200db1a","ios":"levelo://app?vid=a9347715-c81d-4f0d-b36b-b48ef200db1a"},"vehicle_type_id":"4","last_reported":1684699612,"current_range_meters":15600,"station_id":"ce4bh012rcd13ifvqcv0","pricing_plan_id":"free"},{"bike_id":"e09121cd-a9dd-4af6-8e36-965a2af2d4af","system_id":"levelo_inurba_marseille","lat":43.29529,"lon":5.385581,"is_reserved":false,"is_disabled":false,"rental_uris":{"android":"levelo://app?vid=e09121cd-a9dd-4af6-8e36-965a2af2d4af","ios":"levelo://app?vid=e09121cd-a9dd-4af6-8e36-965a2af2d4af"},"vehicle_type_id":"4","last_reported":1684699612,"current_range_meters":400,"station_id":"ce4bgih2rcd13ifvqba0","pricing_plan_id":"free"},{"bike_id":"946f8436-efc7-49ae-b3c5-baa103c4b83f","system_id":"levelo_inurba_marseille","lat":43.309038,"lon":5.396546,"is_reserved":false,"is_disabled":false,"rental_uris":{"android":"levelo://app?vid=946f8436-efc7-49ae-b3c5-baa103c4b83f","ios":"levelo://app?vid=946f8436-efc7-49ae-b3c5-baa103c4b83f"},"vehicle_type_id":"4","last_reported":1684699612,"current_range_meters":9600,"station_id":"ce4bh012rcd13ifvqcv0","pricing_plan_id":"free"},{"bike_id":"cb44302b-1107-4134-9908-445e870ef38f","system_id":"levelo_inurba_marseille","lat":43.309038,"lon":5.396546,"is_reserved":false,"is_disabled":false,"rental_uris":{"android":"levelo://app?vid=cb44302b-1107-4134-9908-445e870ef38f","ios":"levelo://app?vid=cb44302b-1107-4134-9908-445e870ef38f"},"vehicle_type_id":"4","last_reported":1684699612,"current_range_meters":4400,"station_id":"ce4bh012rcd13ifvqcv0","pricing_plan_id":"free"},{"bike_id":"29aace73-b171-4ca6-b714-e9cc43875f25","system_id":"levelo_inurba_marseille","lat":43.313291,"lon":5.396838,"is_reserved":false,"is_disabled":false,"rental_uris":{"android":"levelo://app?vid=29aace73-b171-4ca6-b714-e9cc43875f25","ios":"levelo://app?vid=29aace73-b171-4ca6-b714-e9cc43875f25"},"vehicle_type_id":"4","last_reported":1684699612,"current_range_meters":6400,"station_id":"ce4bgvp2rcd13ifvqcu0","pricing_plan_id":"free"},{"bike_id":"942bd61a-0dc8-40ee-a448-0e63f89a641e","system_id":"levelo_inurba_marseille","lat":43.309038,"lon":5.396546,"is_reserved":false,"is_disabled":false,"rental_uris":{"android":"levelo://app?vid=942bd61a-0dc8-40ee-a448-0e63f89a641e","ios":"levelo://app?vid=942bd61a-0dc8-40ee-a448-0e63f89a641e"},"vehicle_type_id":"4","last_reported":1684699612,"current_range_meters":4800,"station_id":"ce4bh012rcd13ifvqcv0","pricing_plan_id":"free"},{"bike_id":"9c457001-016f-4408-8a9e-3964c1f19739","system_id":"levelo_inurba_marseille","lat":43.309038,"lon":5.396546,"is_reserved":false,"is_disabled":false,"rental_uris":{"android":"levelo://app?vid=9c457001-016f-4408-8a9e-3964c1f19739","ios":"levelo://app?vid=9c457001-016f-4408-8a9e-3964c1f19739"},"vehicle_type_id":"4","last_reported":1684699612,"current_range_meters":0,"station_id":"ce4bh012rcd13ifvqcv0","pricing_plan_id":"free"},{"bike_id":"3792d515-34af-431c-9707-4a5fa24da28f","system_id":"levelo_inurba_marseille","lat":43.309038,"lon":5.396546,"is_reserved":false,"is_disabled":false,"rental_uris":{"android":"levelo://app?vid=3792d515-34af-431c-9707-4a5fa24da28f","ios":"levelo://app?vid=3792d515-34af-431c-9707-4a5fa24da28f"},"vehicle_type_id":"4","last_reported":1684699612,"current_range_meters":20400,"station_id":"ce4bh012rcd13ifvqcv0","pricing_plan_id":"free"},{"bike_id":"aa4fd7dc-1da9-4ee6-af1b-0874c294a946","system_id":"levelo_inurba_marseille","lat":43.309038,"lon":5.396546,"is_reserved":false,"is_disabled":false,"rental_uris":{"android":"levelo://app?vid=aa4fd7dc-1da9-4ee6-af1b-0874c294a946","ios":"levelo://app?vid=aa4fd7dc-1da9-4ee6-af1b-0874c294a946"},"vehicle_type_id":"4","last_reported":1684699612,"current_range_meters":12000,"station_id":"ce4bh012rcd13ifvqcv0","pricing_plan_id":"free"},{"bike_id":"182fc166-5718-4b90-8baa-2e86806b6420","system_id":"levelo_inurba_marseille","lat":43.29529,"lon":5.385581,"is_reserved":false,"is_disabled":false,"rental_uris":{"android":"levelo://app?vid=182fc166-5718-4b90-8baa-2e86806b6420","ios":"levelo://app?vid=182fc166-5718-4b90-8baa-2e86806b6420"},"vehicle_type_id":"4","last_reported":1684699612,"current_range_meters":11600,"station_id":"ce4bgih2rcd13ifvqba0","pricing_plan_id":"free"},{"bike_id":"f205227e-eec7-4ccc-8657-eec31d67638a","system_id":"levelo_inurba_marseille","lat":43.29529,"lon":5.385581,"is_reserved":false,"is_disabled":false,"rental_uris":{"android":"levelo://app?vid=f205227e-eec7-4ccc-8657-eec31d67638a","ios":"levelo://app?vid=f205227e-eec7-4ccc-8657-eec31d67638a"},"vehicle_type_id":"4","last_reported":1684699612,"current_range_meters":12800,"station_id":"ce4bgih2rcd13ifvqba0","pricing_plan_id":"free"},{"bike_id":"88cd1592-f294-42ec-88f1-e28e25832a1e","system_id":"levelo_inurba_marseille","lat":43.29529,"lon":5.385581,"is_reserved":false,"is_disabled":false,"rental_uris":{"android":"levelo://app?vid=88cd1592-f294-42ec-88f1-e28e25832a1e","ios":"levelo://app?vid=88cd1592-f294-42ec-88f1-e28e25832a1e"},"vehicle_type_id":"4","last_reported":1684699612,"current_range_meters":26000,"station_id":"ce4bgih2rcd13ifvqba0","pricing_plan_id":"free"},{"bike_id":"5ec646d8-56be-42f6-a688-a8cbf17469c6","system_id":"levelo_inurba_marseille","lat":43.29529,"lon":5.385581,"is_reserved":false,"is_disabled":false,"rental_uris":{"android":"levelo://app?vid=5ec646d8-56be-42f6-a688-a8cbf17469c6","ios":"levelo://app?vid=5ec646d8-56be-42f6-a688-a8cbf17469c6"},"vehicle_type_id":"4","last_reported":1684699612,"current_range_meters":24400,"station_id":"ce4bgih2rcd13ifvqba0","pricing_plan_id":"free"},{"bike_id":"3cc1914d-e1b7-4b2e-81cd-a3a77392e49f","system_id":"levelo_inurba_marseille","lat":43.29529,"lon":5.385581,"is_reserved":false,"is_disabled":false,"rental_uris":{"android":"levelo://app?vid=3cc1914d-e1b7-4b2e-81cd-a3a77392e49f","ios":"levelo://app?vid=3cc1914d-e1b7-4b2e-81cd-a3a77392e49f"},"vehicle_type_id":"4","last_reported":1684699612,"current_range_meters":26800,"station_id":"ce4bgih2rcd13ifvqba0","pricing_plan_id":"free"},{"bike_id":"925746b2-ae54-46ea-8b36-9ebff615367c","system_id":"levelo_inurba_marseille","lat":43.29529,"lon":5.385581,"is_reserved":false,"is_disabled":false,"rental_uris":{"android":"levelo://app?vid=925746b2-ae54-46ea-8b36-9ebff615367c","ios":"levelo://app?vid=925746b2-ae54-46ea-8b36-9ebff615367c"},"vehicle_type_id":"4","last_reported":1684699612,"current_range_meters":19600,"station_id":"ce4bgih2rcd13ifvqba0","pricing_plan_id":"free"},{"bike_id":"a72c8011-e008-42c9-88d0-0f0cbc3208d2","system_id":"levelo_inurba_marseille","lat":43.29529,"lon":5.385581,"is_reserved":false,"is_disabled":false,"rental_uris":{"android":"levelo://app?vid=a72c8011-e008-42c9-88d0-0f0cbc3208d2","ios":"levelo://app?vid=a72c8011-e008-42c9-88d0-0f0cbc3208d2"},"vehicle_type_id":"4","last_reported":1684699612,"current_range_meters":4800,"station_id":"ce4bgih2rcd13ifvqba0","pricing_plan_id":"free"},{"bike_id":"851dfa0a-6979-48a4-9776-6eb94e478c99","system_id":"levelo_inurba_marseille","lat":43.29529,"lon":5.385581,"is_reserved":false,"is_disabled":false,"rental_uris":{"android":"levelo://app?vid=851dfa0a-6979-48a4-9776-6eb94e478c99","ios":"levelo://app?vid=851dfa0a-6979-48a4-9776-6eb94e478c99"},"vehicle_type_id":"4","last_reported":1684699612,"current_range_meters":27200,"station_id":"ce4bgih2rcd13ifvqba0","pricing_plan_id":"free"},{"bike_id":"80bdbdb7-1f18-4bbe-b6c3-1708e578df57","system_id":"levelo_inurba_marseille","lat":43.30219,"lon":5.39462,"is_reserved":false,"is_disabled":false,"rental_uris":{"android":"levelo://app?vid=80bdbdb7-1f18-4bbe-b6c3-1708e578df57","ios":"levelo://app?vid=80bdbdb7-1f18-4bbe-b6c3-1708e578df57"},"vehicle_type_id":"4","last_reported":1684699612,"current_range_meters":14000,"station_id":"ce4bh0p2rcd13ifvqd70","pricing_plan_id":"free"},{"bike_id":"009f9267-f846-4ec5-82b6-c991e3a56440","system_id":"levelo_inurba_marseille","lat":43.302008,"lon":5.394694,"is_reserved":false,"is_disabled":false,"rental_uris":{"android":"levelo://app?vid=009f9267-f846-4ec5-82b6-c991e3a56440","ios":"levelo://app?vid=009f9267-f846-4ec5-82b6-c991e3a56440"},"vehicle_type_id":"4","last_reported":1684699612,"current_range_meters":22400,"station_id":"ce4bh0p2rcd13ifvqd70","pricing_plan_id":"free"},{"bike_id":"4ad89348-c120-4dba-86cd-439767fab888","system_id":"levelo_inurba_marseille","lat":43.29424,"lon":5.38626,"is_reserved":false,"is_disabled":false,"rental_uris":{"android":"levelo://app?vid=4ad89348-c120-4dba-86cd-439767fab888","ios":"levelo://app?vid=4ad89348-c120-4dba-86cd-439767fab888"},"vehicle_type_id":"4","last_reported":1684699612,"current_range_meters":14400,"station_id":"ce4bh2h2rcd13ifvqdh0","pricing_plan_id":"free"},{"bike_id":"c3e6dfac-b02d-4e98-b4d8-8ee0b763adf5","system_id":"levelo_inurba_marseille","lat":43.29422,"lon":5.38623,"is_reserved":false,"is_disabled":false,"rental_uris":{"android":"levelo://app?vid=c3e6dfac-b02d-4e98-b4d8-8ee0b763adf5","ios":"levelo://app?vid=c3e6dfac-b02d-4e98-b4d8-8ee0b763adf5"},"vehicle_type_id":"4","last_reported":1684699612,"current_range_meters":18800,"station_id":"ce4bh2h2rcd13ifvqdh0","pricing_plan_id":"free"},{"bike_id":"24abb15e-c475-4639-9b88-f8210c24291d","system_id":"levelo_inurba_marseille","lat":43.29422,"lon":5.38624,"is_reserved":false,"is_disabled":false,"rental_uris":{"android":"levelo://app?vid=24abb15e-c475-4639-9b88-f8210c24291d","ios":"levelo://app?vid=24abb15e-c475-4639-9b88-f8210c24291d"},"vehicle_type_id":"4","last_reported":1684699612,"current_range_meters":8000,"station_id":"ce4bh2h2rcd13ifvqdh0","pricing_plan_id":"free"},{"bike_id":"0054a141-b31c-497a-bfdd-096c21190677","system_id":"levelo_inurba_marseille","lat":43.2942,"lon":5.38622,"is_reserved":false,"is_disabled":false,"rental_uris":{"android":"levelo://app?vid=0054a141-b31c-497a-bfdd-096c21190677","ios":"levelo://app?vid=0054a141-b31c-497a-bfdd-096c21190677"},"vehicle_type_id":"4","last_reported":1684699612,"current_range_meters":15200,"station_id":"ce4bh2h2rcd13ifvqdh0","pricing_plan_id":"free"},{"bike_id":"dff97b60-66c3-4f41-babe-a3c703efbdb0","system_id":"levelo_inurba_marseille","lat":43.29418,"lon":5.38619,"is_reserved":false,"is_disabled":false,"rental_uris":{"android":"levelo://app?vid=dff97b60-66c3-4f41-babe-a3c703efbdb0","ios":"levelo://app?vid=dff97b60-66c3-4f41-babe-a3c703efbdb0"},"vehicle_type_id":"4","last_reported":1684699612,"current_range_meters":10000,"station_id":"ce4bh2h2rcd13ifvqdh0","pricing_plan_id":"free"},{"bike_id":"0f689244-8460-4369-9a8f-905a6f957e6b","system_id":"levelo_inurba_marseille","lat":43.29421,"lon":5.38627,"is_reserved":false,"is_disabled":false,"rental_uris":{"android":"levelo://app?vid=0f689244-8460-4369-9a8f-905a6f957e6b","ios":"levelo://app?vid=0f689244-8460-4369-9a8f-905a6f957e6b"},"vehicle_type_id":"4","last_reported":1684699612,"current_range_meters":16800,"station_id":"ce4bh2h2rcd13ifvqdh0","pricing_plan_id":"free"},{"bike_id":"8d9ebe4f-6ad3-44ad-8658-4a33343e451a","system_id":"levelo_inurba_marseille","lat":43.29418,"lon":5.38622,"is_reserved":false,"is_disabled":false,"rental_uris":{"android":"levelo://app?vid=8d9ebe4f-6ad3-44ad-8658-4a33343e451a","ios":"levelo://app?vid=8d9ebe4f-6ad3-44ad-8658-4a33343e451a"},"vehicle_type_id":"4","last_reported":1684699612,"current_range_meters":24800,"station_id":"ce4bh2h2rcd13ifvqdh0","pricing_plan_id":"free"},{"bike_id":"6dbbcb95-b3a5-43a5-b31e-a7802a17563a","system_id":"levelo_inurba_marseille","lat":43.29416,"lon":5.38624,"is_reserved":false,"is_disabled":false,"rental_uris":{"android":"levelo://app?vid=6dbbcb95-b3a5-43a5-b31e-a7802a17563a","ios":"levelo://app?vid=6dbbcb95-b3a5-43a5-b31e-a7802a17563a"},"vehicle_type_id":"4","last_reported":1684699612,"current_range_meters":25600,"station_id":"ce4bh2h2rcd13ifvqdh0","pricing_plan_id":"free"},{"bike_id":"a68df6a0-6f3b-47f3-a71a-7ee386248eb3","system_id":"levelo_inurba_marseille","lat":43.29419,"lon":5.38635,"is_reserved":false,"is_disabled":false,"rental_uris":{"android":"levelo://app?vid=a68df6a0-6f3b-47f3-a71a-7ee386248eb3","ios":"levelo://app?vid=a68df6a0-6f3b-47f3-a71a-7ee386248eb3"},"vehicle_type_id":"4","last_reported":1684699612,"current_range_meters":21600,"station_id":"ce4bh2h2rcd13ifvqdh0","pricing_plan_id":"free"},{"bike_id":"bbb2002f-a4d6-42a1-a649-3ca7bc5069eb","system_id":"levelo_inurba_marseille","lat":43.29417,"lon":5.38632,"is_reserved":false,"is_disabled":false,"rental_uris":{"android":"levelo://app?vid=bbb2002f-a4d6-42a1-a649-3ca7bc5069eb","ios":"levelo://app?vid=bbb2002f-a4d6-42a1-a649-3ca7bc5069eb"},"vehicle_type_id":"4","last_reported":1684699612,"current_range_meters":15600,"station_id":"ce4bh2h2rcd13ifvqdh0","pricing_plan_id":"free"},{"bike_id":"d2cd4606-ef2a-4843-a3f9-eb72b2157ad8","system_id":"levelo_inurba_marseille","lat":43.289184,"lon":5.366408,"is_reserved":false,"is_disabled":false,"rental_uris":{"android":"levelo://app?vid=d2cd4606-ef2a-4843-a3f9-eb72b2157ad8","ios":"levelo://app?vid=d2cd4606-ef2a-4843-a3f9-eb72b2157ad8"},"vehicle_type_id":"4","last_reported":1684699612,"current_range_meters":7600,"station_id":"ce4bhap2rcd13ifvqek0","pricing_plan_id":"free"},{"bike_id":"b3ce3d6a-8f66-4ffc-a603-2cc14b8b231d","system_id":"levelo_inurba_marseille","lat":43.289184,"lon":5.366408,"is_reserved":false,"is_disabled":false,"rental_uris":{"android":"levelo://app?vid=b3ce3d6a-8f66-4ffc-a603-2cc14b8b231d","ios":"levelo://app?vid=b3ce3d6a-8f66-4ffc-a603-2cc14b8b231d"},"vehicle_type_id":"4","last_reported":1684699612,"current_range_meters":17600,"station_id":"ce4bhap2rcd13ifvqek0","pricing_plan_id":"free"},{"bike_id":"8b794642-2dc1-4b90-8853-7e5a084a96b8","system_id":"levelo_inurba_marseille","lat":43.289184,"lon":5.366408,"is_reserved":false,"is_disabled":false,"rental_uris":{"android":"levelo://app?vid=8b794642-2dc1-4b90-8853-7e5a084a96b8","ios":"levelo://app?vid=8b794642-2dc1-4b90-8853-7e5a084a96b8"},"vehicle_type_id":"4","last_reported":1684699612,"current_range_meters":4000,"station_id":"ce4bhap2rcd13ifvqek0","pricing_plan_id":"free"},{"bike_id":"79ab6efe-6ba5-4654-aef5-9a19bb23856b","system_id":"levelo_inurba_marseille","lat":43.289184,"lon":5.366408,"is_reserved":false,"is_disabled":false,"rental_uris":{"android":"levelo://app?vid=79ab6efe-6ba5-4654-aef5-9a19bb23856b","ios":"levelo://app?vid=79ab6efe-6ba5-4654-aef5-9a19bb23856b"},"vehicle_type_id":"4","last_reported":1684699612,"current_range_meters":28400,"station_id":"ce4bhap2rcd13ifvqek0","pricing_plan_id":"free"},{"bike_id":"21cc4c0e-8c7f-48ce-ab14-529b0ce9308e","system_id":"levelo_inurba_marseille","lat":43.289184,"lon":5.366408,"is_reserved":false,"is_disabled":false,"rental_uris":{"android":"levelo://app?vid=21cc4c0e-8c7f-48ce-ab14-529b0ce9308e","ios":"levelo://app?vid=21cc4c0e-8c7f-48ce-ab14-529b0ce9308e"},"vehicle_type_id":"4","last_reported":1684699612,"current_range_meters":9200,"station_id":"ce4bhap2rcd13ifvqek0","pricing_plan_id":"free"},{"bike_id":"024f8b56-48b5-4214-9598-64b90082b907","system_id":"levelo_inurba_marseille","lat":43.289184,"lon":5.366408,"is_reserved":false,"is_disabled":false,"rental_uris":{"android":"levelo://app?vid=024f8b56-48b5-4214-9598-64b90082b907","ios":"levelo://app?vid=024f8b56-48b5-4214-9598-64b90082b907"},"vehicle_type_id":"4","last_reported":1684699612,"current_range_meters":8400,"station_id":"ce4bhap2rcd13ifvqek0","pricing_plan_id":"free"},{"bike_id":"604ae6db-ae59-4407-83fc-0bc60c147408","system_id":"levelo_inurba_marseille","lat":43.289184,"lon":5.366408,"is_reserved":false,"is_disabled":false,"rental_uris":{"android":"levelo://app?vid=604ae6db-ae59-4407-83fc-0bc60c147408","ios":"levelo://app?vid=604ae6db-ae59-4407-83fc-0bc60c147408"},"vehicle_type_id":"4","last_reported":1684699612,"current_range_meters":12800,"station_id":"ce4bhap2rcd13ifvqek0","pricing_plan_id":"free"},{"bike_id":"0f724104-12ec-44fe-86df-e3420db5bc6d","system_id":"levelo_inurba_marseille","lat":43.289184,"lon":5.366408,"is_reserved":false,"is_disabled":false,"rental_uris":{"android":"levelo://app?vid=0f724104-12ec-44fe-86df-e3420db5bc6d","ios":"levelo://app?vid=0f724104-12ec-44fe-86df-e3420db5bc6d"},"vehicle_type_id":"4","last_reported":1684699612,"current_range_meters":31600,"station_id":"ce4bhap2rcd13ifvqek0","pricing_plan_id":"free"},{"bike_id":"1265a7bc-2a0a-452a-84e0-4a0d2b733743","system_id":"levelo_inurba_marseille","lat":43.289468,"lon":5.363719,"is_reserved":false,"is_disabled":false,"rental_uris":{"android":"levelo://app?vid=1265a7bc-2a0a-452a-84e0-4a0d2b733743","ios":"levelo://app?vid=1265a7bc-2a0a-452a-84e0-4a0d2b733743"},"vehicle_type_id":"4","last_reported":1684699612,"current_range_meters":28800,"station_id":"ce4bhc92rcd13ifvqetg","pricing_plan_id":"free"},{"bike_id":"3d8cf611-6367-4893-aa66-ebfa2f06b2ad","system_id":"levelo_inurba_marseille","lat":43.304296,"lon":5.397513,"is_reserved":false,"is_disabled":false,"rental_uris":{"android":"levelo://app?vid=3d8cf611-6367-4893-aa66-ebfa2f06b2ad","ios":"levelo://app?vid=3d8cf611-6367-4893-aa66-ebfa2f06b2ad"},"vehicle_type_id":"4","last_reported":1684699612,"current_range_meters":30400,"station_id":"ce4bh092rcd13ifvqd20","pricing_plan_id":"free"},{"bike_id":"0870906d-77aa-493d-8c06-edc2ca0434c5","system_id":"levelo_inurba_marseille","lat":43.292644,"lon":5.384257,"is_reserved":false,"is_disabled":false,"rental_uris":{"android":"levelo://app?vid=0870906d-77aa-493d-8c06-edc2ca0434c5","ios":"levelo://app?vid=0870906d-77aa-493d-8c06-edc2ca0434c5"},"vehicle_type_id":"4","last_reported":1684699612,"current_range_meters":23200,"station_id":"ce4bh692rcd13ifvqea0","pricing_plan_id":"free"},{"bike_id":"7395cc22-f516-46eb-90f2-05f2e9a715bb","system_id":"levelo_inurba_marseille","lat":43.304296,"lon":5.397513,"is_reserved":false,"is_disabled":false,"rental_uris":{"android":"levelo://app?vid=7395cc22-f516-46eb-90f2-05f2e9a715bb","ios":"levelo://app?vid=7395cc22-f516-46eb-90f2-05f2e9a715bb"},"vehicle_type_id":"4","last_reported":1684699612,"current_range_meters":3200,"station_id":"ce4bh092rcd13ifvqd20","pricing_plan_id":"free"},{"bike_id":"1835f5b8-3ba2-4039-a10a-44a22dbf2cb1","system_id":"levelo_inurba_marseille","lat":43.304274,"lon":5.397513,"is_reserved":false,"is_disabled":false,"rental_uris":{"android":"levelo://app?vid=1835f5b8-3ba2-4039-a10a-44a22dbf2cb1","ios":"levelo://app?vid=1835f5b8-3ba2-4039-a10a-44a22dbf2cb1"},"vehicle_type_id":"4","last_reported":1684699612,"current_range_meters":5600,"station_id":"ce4bh092rcd13ifvqd20","pricing_plan_id":"free"},{"bike_id":"2d6b17e1-3cda-475f-83e8-051dbd613984","system_id":"levelo_inurba_marseille","lat":43.304274,"lon":5.397513,"is_reserved":false,"is_disabled":false,"rental_uris":{"android":"levelo://app?vid=2d6b17e1-3cda-475f-83e8-051dbd613984","ios":"levelo://app?vid=2d6b17e1-3cda-475f-83e8-051dbd613984"},"vehicle_type_id":"4","last_reported":1684699612,"current_range_meters":11200,"station_id":"ce4bh092rcd13ifvqd20","pricing_plan_id":"free"},{"bike_id":"08058652-74f6-4040-94da-6b36e0b51c78","system_id":"levelo_inurba_marseille","lat":43.29261,"lon":5.38439,"is_reserved":false,"is_disabled":false,"rental_uris":{"android":"levelo://app?vid=08058652-74f6-4040-94da-6b36e0b51c78","ios":"levelo://app?vid=08058652-74f6-4040-94da-6b36e0b51c78"},"vehicle_type_id":"4","last_reported":1684699612,"current_range_meters":22000,"station_id":"ce4bh692rcd13ifvqea0","pricing_plan_id":"free"},{"bike_id":"fbd2d27a-ad98-438e-9daa-8ed2cb42e964","system_id":"levelo_inurba_marseille","lat":43.304296,"lon":5.397513,"is_reserved":false,"is_disabled":false,"rental_uris":{"android":"levelo://app?vid=fbd2d27a-ad98-438e-9daa-8ed2cb42e964","ios":"levelo://app?vid=fbd2d27a-ad98-438e-9daa-8ed2cb42e964"},"vehicle_type_id":"4","last_reported":1684699612,"current_range_meters":24000,"station_id":"ce4bh092rcd13ifvqd20","pricing_plan_id":"free"},{"bike_id":"a43ae4d1-69bf-4053-9c77-85f179f99fff","system_id":"levelo_inurba_marseille","lat":43.304296,"lon":5.397513,"is_reserved":false,"is_disabled":false,"rental_uris":{"android":"levelo://app?vid=a43ae4d1-69bf-4053-9c77-85f179f99fff","ios":"levelo://app?vid=a43ae4d1-69bf-4053-9c77-85f179f99fff"},"vehicle_type_id":"4","last_reported":1684699612,"current_range_meters":10800,"station_id":"ce4bh092rcd13ifvqd20","pricing_plan_id":"free"},{"bike_id":"dc561eec-74b8-4a9d-8360-fde7940ea8ed","system_id":"levelo_inurba_marseille","lat":43.33041,"lon":5.38916,"is_reserved":false,"is_disabled":false,"rental_uris":{"android":"levelo://app?vid=dc561eec-74b8-4a9d-8360-fde7940ea8ed","ios":"levelo://app?vid=dc561eec-74b8-4a9d-8360-fde7940ea8ed"},"vehicle_type_id":"4","last_reported":1684699612,"current_range_meters":14400,"station_id":"ce4bhr92rcd13ifvqhrg","pricing_plan_id":"free"},{"bike_id":"56ce9f6b-6808-45d2-9e0f-64eeb12179cf","system_id":"levelo_inurba_marseille","lat":43.33047,"lon":5.38916,"is_reserved":false,"is_disabled":false,"rental_uris":{"android":"levelo://app?vid=56ce9f6b-6808-45d2-9e0f-64eeb12179cf","ios":"levelo://app?vid=56ce9f6b-6808-45d2-9e0f-64eeb12179cf"},"vehicle_type_id":"4","last_reported":1684699612,"current_range_meters":23200,"station_id":"ce4bhr92rcd13ifvqhrg","pricing_plan_id":"free"},{"bike_id":"840e0da4-f4ae-4002-8702-91af478a23dc","system_id":"levelo_inurba_marseille","lat":43.290104,"lon":5.356111,"is_reserved":false,"is_disabled":false,"rental_uris":{"android":"levelo://app?vid=840e0da4-f4ae-4002-8702-91af478a23dc","ios":"levelo://app?vid=840e0da4-f4ae-4002-8702-91af478a23dc"},"vehicle_type_id":"4","last_reported":1684699612,"current_range_meters":1200,"station_id":"ce4bhb92rcd13ifvqen0","pricing_plan_id":"free"},{"bike_id":"d2ee21b2-66ce-4151-b3d5-5f9e68e59be0","system_id":"levelo_inurba_marseille","lat":43.3306,"lon":5.38898,"is_reserved":false,"is_disabled":false,"rental_uris":{"android":"levelo://app?vid=d2ee21b2-66ce-4151-b3d5-5f9e68e59be0","ios":"levelo://app?vid=d2ee21b2-66ce-4151-b3d5-5f9e68e59be0"},"vehicle_type_id":"4","last_reported":1684699612,"current_range_meters":20000,"station_id":"ce4bhr92rcd13ifvqhrg","pricing_plan_id":"free"},{"bike_id":"ff5c1717-0caa-403f-a11d-5eda7b6077f9","system_id":"levelo_inurba_marseille","lat":43.33043,"lon":5.38924,"is_reserved":false,"is_disabled":false,"rental_uris":{"android":"levelo://app?vid=ff5c1717-0caa-403f-a11d-5eda7b6077f9","ios":"levelo://app?vid=ff5c1717-0caa-403f-a11d-5eda7b6077f9"},"vehicle_type_id":"4","last_reported":1684699612,"current_range_meters":800,"station_id":"ce4bhr92rcd13ifvqhrg","pricing_plan_id":"free"},{"bike_id":"a750ce23-7ecd-4066-8716-11060c233ab0","system_id":"levelo_inurba_marseille","lat":43.290995,"lon":5.381361,"is_reserved":false,"is_disabled":false,"rental_uris":{"android":"levelo://app?vid=a750ce23-7ecd-4066-8716-11060c233ab0","ios":"levelo://app?vid=a750ce23-7ecd-4066-8716-11060c233ab0"},"vehicle_type_id":"4","last_reported":1684699612,"current_range_meters":4800,"station_id":"ce4bh512rcd13ifvqe2g","pricing_plan_id":"free"},{"bike_id":"7046ff56-6eb1-4c08-af5f-1121a25dc141","system_id":"levelo_inurba_marseille","lat":43.29529,"lon":5.385581,"is_reserved":false,"is_disabled":false,"rental_uris":{"android":"levelo://app?vid=7046ff56-6eb1-4c08-af5f-1121a25dc141","ios":"levelo://app?vid=7046ff56-6eb1-4c08-af5f-1121a25dc141"},"vehicle_type_id":"4","last_reported":1684699612,"current_range_meters":20400,"station_id":"ce4bgih2rcd13ifvqba0","pricing_plan_id":"free"},{"bike_id":"2acecaf4-3007-47d0-a1e8-725add926587","system_id":"levelo_inurba_marseille","lat":43.297814,"lon":5.393513,"is_reserved":false,"is_disabled":false,"rental_uris":{"android":"levelo://app?vid=2acecaf4-3007-47d0-a1e8-725add926587","ios":"levelo://app?vid=2acecaf4-3007-47d0-a1e8-725add926587"},"vehicle_type_id":"4","last_reported":1684699612,"current_range_meters":18800,"station_id":"chh1huq6cuj3fo74tm60","pricing_plan_id":"free"},{"bike_id":"08c095e2-3bf4-43bf-99fb-a576e84c73d5","system_id":"levelo_inurba_marseille","lat":43.297814,"lon":5.393513,"is_reserved":false,"is_disabled":false,"rental_uris":{"android":"levelo://app?vid=08c095e2-3bf4-43bf-99fb-a576e84c73d5","ios":"levelo://app?vid=08c095e2-3bf4-43bf-99fb-a576e84c73d5"},"vehicle_type_id":"4","last_reported":1684699612,"current_range_meters":14000,"station_id":"chh1huq6cuj3fo74tm60","pricing_plan_id":"free"},{"bike_id":"95025965-3dc1-45a0-a0b5-387aa44d2644","system_id":"levelo_inurba_marseille","lat":43.297814,"lon":5.393513,"is_reserved":false,"is_disabled":false,"rental_uris":{"android":"levelo://app?vid=95025965-3dc1-45a0-a0b5-387aa44d2644","ios":"levelo://app?vid=95025965-3dc1-45a0-a0b5-387aa44d2644"},"vehicle_type_id":"4","last_reported":1684699612,"current_range_meters":14000,"station_id":"chh1huq6cuj3fo74tm60","pricing_plan_id":"free"},{"bike_id":"1e51de50-5eee-4734-a726-ded41f7572c1","system_id":"levelo_inurba_marseille","lat":43.297814,"lon":5.393513,"is_reserved":false,"is_disabled":false,"rental_uris":{"android":"levelo://app?vid=1e51de50-5eee-4734-a726-ded41f7572c1","ios":"levelo://app?vid=1e51de50-5eee-4734-a726-ded41f7572c1"},"vehicle_type_id":"4","last_reported":1684699612,"current_range_meters":28800,"station_id":"chh1huq6cuj3fo74tm60","pricing_plan_id":"free"},{"bike_id":"2a7a27be-f168-4b39-8464-050d58a6187c","system_id":"levelo_inurba_marseille","lat":43.289743,"lon":5.378304,"is_reserved":false,"is_disabled":false,"rental_uris":{"android":"levelo://app?vid=2a7a27be-f168-4b39-8464-050d58a6187c","ios":"levelo://app?vid=2a7a27be-f168-4b39-8464-050d58a6187c"},"vehicle_type_id":"4","last_reported":1684699612,"current_range_meters":11200,"station_id":"ce4bh9p2rcd13ifvqed0","pricing_plan_id":"free"},{"bike_id":"7eee3fe9-bcfa-4871-b20d-57b8ca7e89c9","system_id":"levelo_inurba_marseille","lat":43.295169,"lon":5.390426,"is_reserved":false,"is_disabled":false,"rental_uris":{"android":"levelo://app?vid=7eee3fe9-bcfa-4871-b20d-57b8ca7e89c9","ios":"levelo://app?vid=7eee3fe9-bcfa-4871-b20d-57b8ca7e89c9"},"vehicle_type_id":"4","last_reported":1684699612,"current_range_meters":25200,"station_id":"ce4bh3p2rcd13ifvqdp0","pricing_plan_id":"free"},{"bike_id":"2bfbc39c-e6a2-4213-85ea-35325df5d4b6","system_id":"levelo_inurba_marseille","lat":43.295169,"lon":5.390426,"is_reserved":false,"is_disabled":false,"rental_uris":{"android":"levelo://app?vid=2bfbc39c-e6a2-4213-85ea-35325df5d4b6","ios":"levelo://app?vid=2bfbc39c-e6a2-4213-85ea-35325df5d4b6"},"vehicle_type_id":"4","last_reported":1684699612,"current_range_meters":23600,"station_id":"ce4bh3p2rcd13ifvqdp0","pricing_plan_id":"free"},{"bike_id":"ba516149-20d2-4d86-9141-087abc708632","system_id":"levelo_inurba_marseille","lat":43.295169,"lon":5.390426,"is_reserved":false,"is_disabled":false,"rental_uris":{"android":"levelo://app?vid=ba516149-20d2-4d86-9141-087abc708632","ios":"levelo://app?vid=ba516149-20d2-4d86-9141-087abc708632"},"vehicle_type_id":"4","last_reported":1684699612,"current_range_meters":24400,"station_id":"ce4bh3p2rcd13ifvqdp0","pricing_plan_id":"free"},{"bike_id":"2cc3c107-da8c-4934-b14b-b7345c78e333","system_id":"levelo_inurba_marseille","lat":43.2901,"lon":5.381269,"is_reserved":false,"is_disabled":false,"rental_uris":{"android":"levelo://app?vid=2cc3c107-da8c-4934-b14b-b7345c78e333","ios":"levelo://app?vid=2cc3c107-da8c-4934-b14b-b7345c78e333"},"vehicle_type_id":"4","last_reported":1684699612,"current_range_meters":26400,"station_id":"ce4bh4p2rcd13ifvqe1g","pricing_plan_id":"free"},{"bike_id":"29f6da61-59ea-489c-8a6d-80ee0756730a","system_id":"levelo_inurba_marseille","lat":43.28874,"lon":5.35845,"is_reserved":false,"is_disabled":false,"rental_uris":{"android":"levelo://app?vid=29f6da61-59ea-489c-8a6d-80ee0756730a","ios":"levelo://app?vid=29f6da61-59ea-489c-8a6d-80ee0756730a"},"vehicle_type_id":"4","last_reported":1684699612,"current_range_meters":21200,"station_id":"ce4bhb12rcd13ifvqem0","pricing_plan_id":"free"},{"bike_id":"50b8ef83-f953-4855-b490-5c99bae794be","system_id":"levelo_inurba_marseille","lat":43.28856,"lon":5.358371,"is_reserved":false,"is_disabled":false,"rental_uris":{"android":"levelo://app?vid=50b8ef83-f953-4855-b490-5c99bae794be","ios":"levelo://app?vid=50b8ef83-f953-4855-b490-5c99bae794be"},"vehicle_type_id":"4","last_reported":1684699612,"current_range_meters":12000,"station_id":"ce4bhb12rcd13ifvqem0","pricing_plan_id":"free"},{"bike_id":"67ed130c-5055-4146-aabf-e5bbf62ce430","system_id":"levelo_inurba_marseille","lat":43.28856,"lon":5.358371,"is_reserved":false,"is_disabled":false,"rental_uris":{"android":"levelo://app?vid=67ed130c-5055-4146-aabf-e5bbf62ce430","ios":"levelo://app?vid=67ed130c-5055-4146-aabf-e5bbf62ce430"},"vehicle_type_id":"4","last_reported":1684699612,"current_range_meters":19600,"station_id":"ce4bhb12rcd13ifvqem0","pricing_plan_id":"free"},{"bike_id":"16fd87f3-72c6-48ff-a8dc-db3d8e59bb00","system_id":"levelo_inurba_marseille","lat":43.30507,"lon":5.39938,"is_reserved":false,"is_disabled":false,"rental_uris":{"android":"levelo://app?vid=16fd87f3-72c6-48ff-a8dc-db3d8e59bb00","ios":"levelo://app?vid=16fd87f3-72c6-48ff-a8dc-db3d8e59bb00"},"vehicle_type_id":"4","last_reported":1684699612,"current_range_meters":12400,"station_id":"","pricing_plan_id":"free"},{"bike_id":"9495254d-884e-4bc1-904a-e3b16f68a43c","system_id":"levelo_inurba_marseille","lat":43.290094,"lon":5.381264,"is_reserved":false,"is_disabled":false,"rental_uris":{"android":"levelo://app?vid=9495254d-884e-4bc1-904a-e3b16f68a43c","ios":"levelo://app?vid=9495254d-884e-4bc1-904a-e3b16f68a43c"},"vehicle_type_id":"4","last_reported":1684699612,"current_range_meters":17200,"station_id":"ce4bh4p2rcd13ifvqe1g","pricing_plan_id":"free"},{"bike_id":"27fddc98-f3da-4e3c-b526-49c9e14be8ca","system_id":"levelo_inurba_marseille","lat":43.28856,"lon":5.358371,"is_reserved":false,"is_disabled":false,"rental_uris":{"android":"levelo://app?vid=27fddc98-f3da-4e3c-b526-49c9e14be8ca","ios":"levelo://app?vid=27fddc98-f3da-4e3c-b526-49c9e14be8ca"},"vehicle_type_id":"4","last_reported":1684699612,"current_range_meters":9200,"station_id":"ce4bhb12rcd13ifvqem0","pricing_plan_id":"free"},{"bike_id":"59fb6869-f7ec-4e7a-b4ca-00eac6dcd5b2","system_id":"levelo_inurba_marseille","lat":43.28856,"lon":5.358371,"is_reserved":false,"is_disabled":false,"rental_uris":{"android":"levelo://app?vid=59fb6869-f7ec-4e7a-b4ca-00eac6dcd5b2","ios":"levelo://app?vid=59fb6869-f7ec-4e7a-b4ca-00eac6dcd5b2"},"vehicle_type_id":"4","last_reported":1684699612,"current_range_meters":14800,"station_id":"ce4bhb12rcd13ifvqem0","pricing_plan_id":"free"},{"bike_id":"ae7a61f0-9885-4c25-9c23-225db7b45263","system_id":"levelo_inurba_marseille","lat":43.290094,"lon":5.381264,"is_reserved":false,"is_disabled":false,"rental_uris":{"android":"levelo://app?vid=ae7a61f0-9885-4c25-9c23-225db7b45263","ios":"levelo://app?vid=ae7a61f0-9885-4c25-9c23-225db7b45263"},"vehicle_type_id":"4","last_reported":1684699612,"current_range_meters":20800,"station_id":"ce4bh4p2rcd13ifvqe1g","pricing_plan_id":"free"},{"bike_id":"3184b603-ce36-401c-9f60-99f96b19288f","system_id":"levelo_inurba_marseille","lat":43.28856,"lon":5.358371,"is_reserved":false,"is_disabled":false,"rental_uris":{"android":"levelo://app?vid=3184b603-ce36-401c-9f60-99f96b19288f","ios":"levelo://app?vid=3184b603-ce36-401c-9f60-99f96b19288f"},"vehicle_type_id":"4","last_reported":1684699612,"current_range_meters":24800,"station_id":"ce4bhb12rcd13ifvqem0","pricing_plan_id":"free"},{"bike_id":"11890e3e-1509-467c-9755-c497148f042f","system_id":"levelo_inurba_marseille","lat":43.28856,"lon":5.358371,"is_reserved":false,"is_disabled":false,"rental_uris":{"android":"levelo://app?vid=11890e3e-1509-467c-9755-c497148f042f","ios":"levelo://app?vid=11890e3e-1509-467c-9755-c497148f042f"},"vehicle_type_id":"4","last_reported":1684699612,"current_range_meters":28400,"station_id":"ce4bhb12rcd13ifvqem0","pricing_plan_id":"free"},{"bike_id":"66a74e04-1afd-4831-9866-d6b53dc382c7","system_id":"levelo_inurba_marseille","lat":43.33757,"lon":5.37436,"is_reserved":false,"is_disabled":false,"rental_uris":{"android":"levelo://app?vid=66a74e04-1afd-4831-9866-d6b53dc382c7","ios":"levelo://app?vid=66a74e04-1afd-4831-9866-d6b53dc382c7"},"vehicle_type_id":"4","last_reported":1684699612,"current_range_meters":6000,"station_id":"","pricing_plan_id":"free"},{"bike_id":"3659adea-bd44-4154-846b-1c4cccfa3bf5","system_id":"levelo_inurba_marseille","lat":43.30642,"lon":5.401031,"is_reserved":false,"is_disabled":false,"rental_uris":{"android":"levelo://app?vid=3659adea-bd44-4154-846b-1c4cccfa3bf5","ios":"levelo://app?vid=3659adea-bd44-4154-846b-1c4cccfa3bf5"},"vehicle_type_id":"4","last_reported":1684699612,"current_range_meters":18800,"station_id":"ce4bh112rcd13ifvqda0","pricing_plan_id":"free"},{"bike_id":"359a0ffd-233f-4421-8690-3965c63d4004","system_id":"levelo_inurba_marseille","lat":43.33757,"lon":5.37452,"is_reserved":false,"is_disabled":false,"rental_uris":{"android":"levelo://app?vid=359a0ffd-233f-4421-8690-3965c63d4004","ios":"levelo://app?vid=359a0ffd-233f-4421-8690-3965c63d4004"},"vehicle_type_id":"4","last_reported":1684699612,"current_range_meters":10400,"station_id":"","pricing_plan_id":"free"},{"bike_id":"23d7764e-5829-4278-b98f-1d86361ffbcd","system_id":"levelo_inurba_marseille","lat":43.30642,"lon":5.401031,"is_reserved":false,"is_disabled":false,"rental_uris":{"android":"levelo://app?vid=23d7764e-5829-4278-b98f-1d86361ffbcd","ios":"levelo://app?vid=23d7764e-5829-4278-b98f-1d86361ffbcd"},"vehicle_type_id":"4","last_reported":1684699612,"current_range_meters":31200,"station_id":"ce4bh112rcd13ifvqda0","pricing_plan_id":"free"},{"bike_id":"26dd98ad-a4de-43b2-883f-24ba8b4540a2","system_id":"levelo_inurba_marseille","lat":43.30642,"lon":5.401031,"is_reserved":false,"is_disabled":false,"rental_uris":{"android":"levelo://app?vid=26dd98ad-a4de-43b2-883f-24ba8b4540a2","ios":"levelo://app?vid=26dd98ad-a4de-43b2-883f-24ba8b4540a2"},"vehicle_type_id":"4","last_reported":1684699612,"current_range_meters":16000,"station_id":"ce4bh112rcd13ifvqda0","pricing_plan_id":"free"},{"bike_id":"de6a8212-b664-4a98-b28a-0f14736cd870","system_id":"levelo_inurba_marseille","lat":43.3065,"lon":5.40086,"is_reserved":false,"is_disabled":false,"rental_uris":{"android":"levelo://app?vid=de6a8212-b664-4a98-b28a-0f14736cd870","ios":"levelo://app?vid=de6a8212-b664-4a98-b28a-0f14736cd870"},"vehicle_type_id":"4","last_reported":1684699612,"current_range_meters":15600,"station_id":"ce4bh112rcd13ifvqda0","pricing_plan_id":"free"},{"bike_id":"1d291aae-0e76-4830-b1d8-2b4e3d778262","system_id":"levelo_inurba_marseille","lat":43.30642,"lon":5.401031,"is_reserved":false,"is_disabled":false,"rental_uris":{"android":"levelo://app?vid=1d291aae-0e76-4830-b1d8-2b4e3d778262","ios":"levelo://app?vid=1d291aae-0e76-4830-b1d8-2b4e3d778262"},"vehicle_type_id":"4","last_reported":1684699612,"current_range_meters":18800,"station_id":"ce4bh112rcd13ifvqda0","pricing_plan_id":"free"},{"bike_id":"9214154f-41b1-4579-bbae-93c27c32db19","system_id":"levelo_inurba_marseille","lat":43.30642,"lon":5.401031,"is_reserved":false,"is_disabled":false,"rental_uris":{"android":"levelo://app?vid=9214154f-41b1-4579-bbae-93c27c32db19","ios":"levelo://app?vid=9214154f-41b1-4579-bbae-93c27c32db19"},"vehicle_type_id":"4","last_reported":1684699612,"current_range_meters":2800,"station_id":"ce4bh112rcd13ifvqda0","pricing_plan_id":"free"},{"bike_id":"37773414-6964-47e5-b0fb-c4f0a3516d43","system_id":"levelo_inurba_marseille","lat":43.30642,"lon":5.401031,"is_reserved":false,"is_disabled":false,"rental_uris":{"android":"levelo://app?vid=37773414-6964-47e5-b0fb-c4f0a3516d43","ios":"levelo://app?vid=37773414-6964-47e5-b0fb-c4f0a3516d43"},"vehicle_type_id":"4","last_reported":1684699612,"current_range_meters":20000,"station_id":"ce4bh112rcd13ifvqda0","pricing_plan_id":"free"},{"bike_id":"91bf8834-4fe6-4642-bdda-90e0677f2525","system_id":"levelo_inurba_marseille","lat":43.33768,"lon":5.3743,"is_reserved":false,"is_disabled":false,"rental_uris":{"android":"levelo://app?vid=91bf8834-4fe6-4642-bdda-90e0677f2525","ios":"levelo://app?vid=91bf8834-4fe6-4642-bdda-90e0677f2525"},"vehicle_type_id":"4","last_reported":1684699612,"current_range_meters":31200,"station_id":"","pricing_plan_id":"free"},{"bike_id":"6a760224-e52f-46ca-80dd-cc48e00cf59b","system_id":"levelo_inurba_marseille","lat":43.30642,"lon":5.401031,"is_reserved":false,"is_disabled":false,"rental_uris":{"android":"levelo://app?vid=6a760224-e52f-46ca-80dd-cc48e00cf59b","ios":"levelo://app?vid=6a760224-e52f-46ca-80dd-cc48e00cf59b"},"vehicle_type_id":"4","last_reported":1684699612,"current_range_meters":9600,"station_id":"ce4bh112rcd13ifvqda0","pricing_plan_id":"free"},{"bike_id":"3f5ea4f8-5323-4f43-b939-5d6b1364e77d","system_id":"levelo_inurba_marseille","lat":43.30642,"lon":5.401031,"is_reserved":false,"is_disabled":false,"rental_uris":{"android":"levelo://app?vid=3f5ea4f8-5323-4f43-b939-5d6b1364e77d","ios":"levelo://app?vid=3f5ea4f8-5323-4f43-b939-5d6b1364e77d"},"vehicle_type_id":"4","last_reported":1684699612,"current_range_meters":0,"station_id":"ce4bh112rcd13ifvqda0","pricing_plan_id":"free"},{"bike_id":"5af14fb2-d542-4c89-b4f8-85f0fe30b205","system_id":"levelo_inurba_marseille","lat":43.30642,"lon":5.401031,"is_reserved":false,"is_disabled":false,"rental_uris":{"android":"levelo://app?vid=5af14fb2-d542-4c89-b4f8-85f0fe30b205","ios":"levelo://app?vid=5af14fb2-d542-4c89-b4f8-85f0fe30b205"},"vehicle_type_id":"4","last_reported":1684699612,"current_range_meters":27600,"station_id":"ce4bh112rcd13ifvqda0","pricing_plan_id":"free"},{"bike_id":"c3b66989-b85e-4172-b369-d5cd98ae4ea7","system_id":"levelo_inurba_marseille","lat":43.33769,"lon":5.37462,"is_reserved":false,"is_disabled":false,"rental_uris":{"android":"levelo://app?vid=c3b66989-b85e-4172-b369-d5cd98ae4ea7","ios":"levelo://app?vid=c3b66989-b85e-4172-b369-d5cd98ae4ea7"},"vehicle_type_id":"4","last_reported":1684699612,"current_range_meters":9600,"station_id":"","pricing_plan_id":"free"},{"bike_id":"36ba97cd-b1f7-4413-8a5e-55ab9db793c0","system_id":"levelo_inurba_marseille","lat":43.30642,"lon":5.401031,"is_reserved":false,"is_disabled":false,"rental_uris":{"android":"levelo://app?vid=36ba97cd-b1f7-4413-8a5e-55ab9db793c0","ios":"levelo://app?vid=36ba97cd-b1f7-4413-8a5e-55ab9db793c0"},"vehicle_type_id":"4","last_reported":1684699612,"current_range_meters":8400,"station_id":"ce4bh112rcd13ifvqda0","pricing_plan_id":"free"},{"bike_id":"bbee0a56-0393-4fee-b624-6c6820b22d6a","system_id":"levelo_inurba_marseille","lat":43.301117,"lon":5.398795,"is_reserved":false,"is_disabled":false,"rental_uris":{"android":"levelo://app?vid=bbee0a56-0393-4fee-b624-6c6820b22d6a","ios":"levelo://app?vid=bbee0a56-0393-4fee-b624-6c6820b22d6a"},"vehicle_type_id":"4","last_reported":1684699612,"current_range_meters":11600,"station_id":"ce4bh0h2rcd13ifvqd40","pricing_plan_id":"free"},{"bike_id":"97f6d6fc-fd2d-4b80-ba62-efd4626eb1cd","system_id":"levelo_inurba_marseille","lat":43.301117,"lon":5.398795,"is_reserved":false,"is_disabled":false,"rental_uris":{"android":"levelo://app?vid=97f6d6fc-fd2d-4b80-ba62-efd4626eb1cd","ios":"levelo://app?vid=97f6d6fc-fd2d-4b80-ba62-efd4626eb1cd"},"vehicle_type_id":"4","last_reported":1684699612,"current_range_meters":17600,"station_id":"ce4bh0h2rcd13ifvqd40","pricing_plan_id":"free"},{"bike_id":"a517c221-8fb9-4cbf-a585-d462252cdf1d","system_id":"levelo_inurba_marseille","lat":43.301117,"lon":5.398795,"is_reserved":false,"is_disabled":false,"rental_uris":{"android":"levelo://app?vid=a517c221-8fb9-4cbf-a585-d462252cdf1d","ios":"levelo://app?vid=a517c221-8fb9-4cbf-a585-d462252cdf1d"},"vehicle_type_id":"4","last_reported":1684699612,"current_range_meters":27200,"station_id":"ce4bh0h2rcd13ifvqd40","pricing_plan_id":"free"},{"bike_id":"ea6ad6af-dd0c-4a60-96bd-f6c58b8dfb31","system_id":"levelo_inurba_marseille","lat":43.286591,"lon":5.363346,"is_reserved":false,"is_disabled":false,"rental_uris":{"android":"levelo://app?vid=ea6ad6af-dd0c-4a60-96bd-f6c58b8dfb31","ios":"levelo://app?vid=ea6ad6af-dd0c-4a60-96bd-f6c58b8dfb31"},"vehicle_type_id":"4","last_reported":1684699612,"current_range_meters":16400,"station_id":"ce4bhah2rcd13ifvqej0","pricing_plan_id":"free"},{"bike_id":"e803b020-5a45-4ed3-841b-bd77889b8618","system_id":"levelo_inurba_marseille","lat":43.298681,"lon":5.397225,"is_reserved":false,"is_disabled":false,"rental_uris":{"android":"levelo://app?vid=e803b020-5a45-4ed3-841b-bd77889b8618","ios":"levelo://app?vid=e803b020-5a45-4ed3-841b-bd77889b8618"},"vehicle_type_id":"4","last_reported":1684699612,"current_range_meters":28000,"station_id":"ce4bh0h2rcd13ifvqd50","pricing_plan_id":"free"},{"bike_id":"7aa59bf5-0240-4b14-8b5a-57d015ce7a10","system_id":"levelo_inurba_marseille","lat":43.290094,"lon":5.381264,"is_reserved":false,"is_disabled":false,"rental_uris":{"android":"levelo://app?vid=7aa59bf5-0240-4b14-8b5a-57d015ce7a10","ios":"levelo://app?vid=7aa59bf5-0240-4b14-8b5a-57d015ce7a10"},"vehicle_type_id":"4","last_reported":1684699612,"current_range_meters":14000,"station_id":"ce4bh4p2rcd13ifvqe1g","pricing_plan_id":"free"},{"bike_id":"f0acee53-c19f-48a8-a307-8e0dab29426f","system_id":"levelo_inurba_marseille","lat":43.298681,"lon":5.397225,"is_reserved":false,"is_disabled":false,"rental_uris":{"android":"levelo://app?vid=f0acee53-c19f-48a8-a307-8e0dab29426f","ios":"levelo://app?vid=f0acee53-c19f-48a8-a307-8e0dab29426f"},"vehicle_type_id":"4","last_reported":1684699612,"current_range_meters":0,"station_id":"ce4bh0h2rcd13ifvqd50","pricing_plan_id":"free"},{"bike_id":"9b0a6818-eddd-4efd-8d11-fa697d366900","system_id":"levelo_inurba_marseille","lat":43.298681,"lon":5.397225,"is_reserved":false,"is_disabled":false,"rental_uris":{"android":"levelo://app?vid=9b0a6818-eddd-4efd-8d11-fa697d366900","ios":"levelo://app?vid=9b0a6818-eddd-4efd-8d11-fa697d366900"},"vehicle_type_id":"4","last_reported":1684699612,"current_range_meters":12400,"station_id":"ce4bh0h2rcd13ifvqd50","pricing_plan_id":"free"},{"bike_id":"ee10c97b-87b1-4861-b7ff-4e61de0e6ce2","system_id":"levelo_inurba_marseille","lat":43.298681,"lon":5.397225,"is_reserved":false,"is_disabled":false,"rental_uris":{"android":"levelo://app?vid=ee10c97b-87b1-4861-b7ff-4e61de0e6ce2","ios":"levelo://app?vid=ee10c97b-87b1-4861-b7ff-4e61de0e6ce2"},"vehicle_type_id":"4","last_reported":1684699612,"current_range_meters":26000,"station_id":"ce4bh0h2rcd13ifvqd50","pricing_plan_id":"free"},{"bike_id":"e2d2e1f1-3a1a-4a82-9f6d-8089e005afd6","system_id":"levelo_inurba_marseille","lat":43.298681,"lon":5.397225,"is_reserved":false,"is_disabled":false,"rental_uris":{"android":"levelo://app?vid=e2d2e1f1-3a1a-4a82-9f6d-8089e005afd6","ios":"levelo://app?vid=e2d2e1f1-3a1a-4a82-9f6d-8089e005afd6"},"vehicle_type_id":"4","last_reported":1684699612,"current_range_meters":7200,"station_id":"ce4bh0h2rcd13ifvqd50","pricing_plan_id":"free"},{"bike_id":"1d4f60e4-48a8-4995-9f13-be373bbc1cab","system_id":"levelo_inurba_marseille","lat":43.298681,"lon":5.397225,"is_reserved":false,"is_disabled":false,"rental_uris":{"android":"levelo://app?vid=1d4f60e4-48a8-4995-9f13-be373bbc1cab","ios":"levelo://app?vid=1d4f60e4-48a8-4995-9f13-be373bbc1cab"},"vehicle_type_id":"4","last_reported":1684699612,"current_range_meters":18800,"station_id":"ce4bh0h2rcd13ifvqd50","pricing_plan_id":"free"},{"bike_id":"cc4800bb-7b61-44e7-a375-4138c0848036","system_id":"levelo_inurba_marseille","lat":43.298681,"lon":5.397225,"is_reserved":false,"is_disabled":false,"rental_uris":{"android":"levelo://app?vid=cc4800bb-7b61-44e7-a375-4138c0848036","ios":"levelo://app?vid=cc4800bb-7b61-44e7-a375-4138c0848036"},"vehicle_type_id":"4","last_reported":1684699612,"current_range_meters":9600,"station_id":"ce4bh0h2rcd13ifvqd50","pricing_plan_id":"free"},{"bike_id":"38ec4b64-5800-48eb-ba0f-6cfbfa033d98","system_id":"levelo_inurba_marseille","lat":43.295196,"lon":5.39397,"is_reserved":false,"is_disabled":false,"rental_uris":{"android":"levelo://app?vid=38ec4b64-5800-48eb-ba0f-6cfbfa033d98","ios":"levelo://app?vid=38ec4b64-5800-48eb-ba0f-6cfbfa033d98"},"vehicle_type_id":"4","last_reported":1684699612,"current_range_meters":26400,"station_id":"ce4bh292rcd13ifvqdf0","pricing_plan_id":"free"},{"bike_id":"3a457b40-d788-4e93-b636-5c654f49a7f1","system_id":"levelo_inurba_marseille","lat":43.295194,"lon":5.39397,"is_reserved":false,"is_disabled":false,"rental_uris":{"android":"levelo://app?vid=3a457b40-d788-4e93-b636-5c654f49a7f1","ios":"levelo://app?vid=3a457b40-d788-4e93-b636-5c654f49a7f1"},"vehicle_type_id":"4","last_reported":1684699612,"current_range_meters":12000,"station_id":"ce4bh292rcd13ifvqdf0","pricing_plan_id":"free"},{"bike_id":"723e68f1-4f1a-45cd-815c-073b8932d58f","system_id":"levelo_inurba_marseille","lat":43.295196,"lon":5.39397,"is_reserved":false,"is_disabled":false,"rental_uris":{"android":"levelo://app?vid=723e68f1-4f1a-45cd-815c-073b8932d58f","ios":"levelo://app?vid=723e68f1-4f1a-45cd-815c-073b8932d58f"},"vehicle_type_id":"4","last_reported":1684699612,"current_range_meters":12400,"station_id":"ce4bh292rcd13ifvqdf0","pricing_plan_id":"free"},{"bike_id":"0b6f1411-8ed8-4878-aad2-1e93359c7d5a","system_id":"levelo_inurba_marseille","lat":43.295196,"lon":5.39397,"is_reserved":false,"is_disabled":false,"rental_uris":{"android":"levelo://app?vid=0b6f1411-8ed8-4878-aad2-1e93359c7d5a","ios":"levelo://app?vid=0b6f1411-8ed8-4878-aad2-1e93359c7d5a"},"vehicle_type_id":"4","last_reported":1684699612,"current_range_meters":12800,"station_id":"ce4bh292rcd13ifvqdf0","pricing_plan_id":"free"},{"bike_id":"4143c4d4-247d-4241-81ea-75231dfbc7fc","system_id":"levelo_inurba_marseille","lat":43.302759,"lon":5.400793,"is_reserved":false,"is_disabled":false,"rental_uris":{"android":"levelo://app?vid=4143c4d4-247d-4241-81ea-75231dfbc7fc","ios":"levelo://app?vid=4143c4d4-247d-4241-81ea-75231dfbc7fc"},"vehicle_type_id":"4","last_reported":1684699612,"current_range_meters":5600,"station_id":"ce4bgvh2rcd13ifvqcs0","pricing_plan_id":"free"},{"bike_id":"82e3465e-87bd-425f-9831-4f1f8cfc9c04","system_id":"levelo_inurba_marseille","lat":43.302759,"lon":5.400793,"is_reserved":false,"is_disabled":false,"rental_uris":{"android":"levelo://app?vid=82e3465e-87bd-425f-9831-4f1f8cfc9c04","ios":"levelo://app?vid=82e3465e-87bd-425f-9831-4f1f8cfc9c04"},"vehicle_type_id":"4","last_reported":1684699612,"current_range_meters":26800,"station_id":"ce4bgvh2rcd13ifvqcs0","pricing_plan_id":"free"},{"bike_id":"2b449e53-b752-4994-8c02-29a8125a3fa0","system_id":"levelo_inurba_marseille","lat":43.302759,"lon":5.400793,"is_reserved":false,"is_disabled":false,"rental_uris":{"android":"levelo://app?vid=2b449e53-b752-4994-8c02-29a8125a3fa0","ios":"levelo://app?vid=2b449e53-b752-4994-8c02-29a8125a3fa0"},"vehicle_type_id":"4","last_reported":1684699612,"current_range_meters":21600,"station_id":"ce4bgvh2rcd13ifvqcs0","pricing_plan_id":"free"},{"bike_id":"0d2c3466-83f8-4c25-8d0a-9c6524cabe28","system_id":"levelo_inurba_marseille","lat":43.302759,"lon":5.400793,"is_reserved":false,"is_disabled":false,"rental_uris":{"android":"levelo://app?vid=0d2c3466-83f8-4c25-8d0a-9c6524cabe28","ios":"levelo://app?vid=0d2c3466-83f8-4c25-8d0a-9c6524cabe28"},"vehicle_type_id":"4","last_reported":1684699612,"current_range_meters":17200,"station_id":"ce4bgvh2rcd13ifvqcs0","pricing_plan_id":"free"},{"bike_id":"b8477cb3-74fa-4e90-86ce-0edb95461fb9","system_id":"levelo_inurba_marseille","lat":43.286039,"lon":5.370679,"is_reserved":false,"is_disabled":false,"rental_uris":{"android":"levelo://app?vid=b8477cb3-74fa-4e90-86ce-0edb95461fb9","ios":"levelo://app?vid=b8477cb3-74fa-4e90-86ce-0edb95461fb9"},"vehicle_type_id":"4","last_reported":1684699612,"current_range_meters":4800,"station_id":"ce4bht12rcd13ifvqi60","pricing_plan_id":"free"},{"bike_id":"ed92b49a-4e31-47c7-a09c-722f07534fbe","system_id":"levelo_inurba_marseille","lat":43.286039,"lon":5.370679,"is_reserved":false,"is_disabled":false,"rental_uris":{"android":"levelo://app?vid=ed92b49a-4e31-47c7-a09c-722f07534fbe","ios":"levelo://app?vid=ed92b49a-4e31-47c7-a09c-722f07534fbe"},"vehicle_type_id":"4","last_reported":1684699612,"current_range_meters":22000,"station_id":"ce4bht12rcd13ifvqi60","pricing_plan_id":"free"},{"bike_id":"bd5fb5c5-9707-45c2-b810-c1b547bb17e1","system_id":"levelo_inurba_marseille","lat":43.2861,"lon":5.37073,"is_reserved":false,"is_disabled":false,"rental_uris":{"android":"levelo://app?vid=bd5fb5c5-9707-45c2-b810-c1b547bb17e1","ios":"levelo://app?vid=bd5fb5c5-9707-45c2-b810-c1b547bb17e1"},"vehicle_type_id":"4","last_reported":1684699612,"current_range_meters":1200,"station_id":"","pricing_plan_id":"free"},{"bike_id":"ea1cf206-e16e-4260-ac11-653d7e180480","system_id":"levelo_inurba_marseille","lat":43.282754,"lon":5.350519,"is_reserved":false,"is_disabled":false,"rental_uris":{"android":"levelo://app?vid=ea1cf206-e16e-4260-ac11-653d7e180480","ios":"levelo://app?vid=ea1cf206-e16e-4260-ac11-653d7e180480"},"vehicle_type_id":"4","last_reported":1684699612,"current_range_meters":23200,"station_id":"ce4bhbp2rcd13ifvqerg","pricing_plan_id":"free"},{"bike_id":"6f303b2e-a67c-4e6a-bf2d-b6cecf9a5325","system_id":"levelo_inurba_marseille","lat":43.287184,"lon":5.37937,"is_reserved":false,"is_disabled":false,"rental_uris":{"android":"levelo://app?vid=6f303b2e-a67c-4e6a-bf2d-b6cecf9a5325","ios":"levelo://app?vid=6f303b2e-a67c-4e6a-bf2d-b6cecf9a5325"},"vehicle_type_id":"4","last_reported":1684699612,"current_range_meters":31200,"station_id":"ce4bh9p2rcd13ifvqec0","pricing_plan_id":"free"},{"bike_id":"1aec7370-5055-426f-8a26-e709bb1a2e36","system_id":"levelo_inurba_marseille","lat":43.287184,"lon":5.37937,"is_reserved":false,"is_disabled":false,"rental_uris":{"android":"levelo://app?vid=1aec7370-5055-426f-8a26-e709bb1a2e36","ios":"levelo://app?vid=1aec7370-5055-426f-8a26-e709bb1a2e36"},"vehicle_type_id":"4","last_reported":1684699612,"current_range_meters":26000,"station_id":"ce4bh9p2rcd13ifvqec0","pricing_plan_id":"free"},{"bike_id":"f6d7efa4-ddff-46b5-bf91-344b5f900af1","system_id":"levelo_inurba_marseille","lat":43.28718,"lon":5.37943,"is_reserved":false,"is_disabled":false,"rental_uris":{"android":"levelo://app?vid=f6d7efa4-ddff-46b5-bf91-344b5f900af1","ios":"levelo://app?vid=f6d7efa4-ddff-46b5-bf91-344b5f900af1"},"vehicle_type_id":"4","last_reported":1684699612,"current_range_meters":14000,"station_id":"ce4bh9p2rcd13ifvqec0","pricing_plan_id":"free"},{"bike_id":"a0d8f9d8-7900-4164-ad7b-9028c9927747","system_id":"levelo_inurba_marseille","lat":43.287184,"lon":5.37937,"is_reserved":false,"is_disabled":false,"rental_uris":{"android":"levelo://app?vid=a0d8f9d8-7900-4164-ad7b-9028c9927747","ios":"levelo://app?vid=a0d8f9d8-7900-4164-ad7b-9028c9927747"},"vehicle_type_id":"4","last_reported":1684699612,"current_range_meters":23600,"station_id":"ce4bh9p2rcd13ifvqec0","pricing_plan_id":"free"},{"bike_id":"ef42977e-425a-44e5-9c75-4435888e09e0","system_id":"levelo_inurba_marseille","lat":43.287184,"lon":5.37937,"is_reserved":false,"is_disabled":false,"rental_uris":{"android":"levelo://app?vid=ef42977e-425a-44e5-9c75-4435888e09e0","ios":"levelo://app?vid=ef42977e-425a-44e5-9c75-4435888e09e0"},"vehicle_type_id":"4","last_reported":1684699612,"current_range_meters":30400,"station_id":"ce4bh9p2rcd13ifvqec0","pricing_plan_id":"free"},{"bike_id":"bbdef158-0ea7-42ab-9bae-11a71df407b1","system_id":"levelo_inurba_marseille","lat":43.316517,"lon":5.404375,"is_reserved":false,"is_disabled":false,"rental_uris":{"android":"levelo://app?vid=bbdef158-0ea7-42ab-9bae-11a71df407b1","ios":"levelo://app?vid=bbdef158-0ea7-42ab-9bae-11a71df407b1"},"vehicle_type_id":"4","last_reported":1684699612,"current_range_meters":5600,"station_id":"ce4bh012rcd13ifvqd00","pricing_plan_id":"free"},{"bike_id":"57c6f99b-19c1-477e-a9de-b6b73f17563a","system_id":"levelo_inurba_marseille","lat":43.316517,"lon":5.404375,"is_reserved":false,"is_disabled":false,"rental_uris":{"android":"levelo://app?vid=57c6f99b-19c1-477e-a9de-b6b73f17563a","ios":"levelo://app?vid=57c6f99b-19c1-477e-a9de-b6b73f17563a"},"vehicle_type_id":"4","last_reported":1684699612,"current_range_meters":18800,"station_id":"ce4bh012rcd13ifvqd00","pricing_plan_id":"free"},{"bike_id":"ecd2fd12-03d8-4049-aa60-dd8bef2dc7c9","system_id":"levelo_inurba_marseille","lat":43.316517,"lon":5.404375,"is_reserved":false,"is_disabled":false,"rental_uris":{"android":"levelo://app?vid=ecd2fd12-03d8-4049-aa60-dd8bef2dc7c9","ios":"levelo://app?vid=ecd2fd12-03d8-4049-aa60-dd8bef2dc7c9"},"vehicle_type_id":"4","last_reported":1684699612,"current_range_meters":17600,"station_id":"ce4bh012rcd13ifvqd00","pricing_plan_id":"free"},{"bike_id":"1974d5f7-6e23-405e-8039-61e809455ce6","system_id":"levelo_inurba_marseille","lat":43.316517,"lon":5.404375,"is_reserved":false,"is_disabled":false,"rental_uris":{"android":"levelo://app?vid=1974d5f7-6e23-405e-8039-61e809455ce6","ios":"levelo://app?vid=1974d5f7-6e23-405e-8039-61e809455ce6"},"vehicle_type_id":"4","last_reported":1684699612,"current_range_meters":17200,"station_id":"ce4bh012rcd13ifvqd00","pricing_plan_id":"free"},{"bike_id":"939d933a-870b-45b0-9736-83035f02c9bb","system_id":"levelo_inurba_marseille","lat":43.31387,"lon":5.4056,"is_reserved":false,"is_disabled":false,"rental_uris":{"android":"levelo://app?vid=939d933a-870b-45b0-9736-83035f02c9bb","ios":"levelo://app?vid=939d933a-870b-45b0-9736-83035f02c9bb"},"vehicle_type_id":"4","last_reported":1684699612,"current_range_meters":10000,"station_id":"","pricing_plan_id":"free"},{"bike_id":"f6e03ebb-952e-4ada-9e34-1effbc4e49da","system_id":"levelo_inurba_marseille","lat":43.29206,"lon":5.39326,"is_reserved":false,"is_disabled":false,"rental_uris":{"android":"levelo://app?vid=f6e03ebb-952e-4ada-9e34-1effbc4e49da","ios":"levelo://app?vid=f6e03ebb-952e-4ada-9e34-1effbc4e49da"},"vehicle_type_id":"4","last_reported":1684699612,"current_range_meters":27600,"station_id":"ce4bh192rcd13ifvqdd0","pricing_plan_id":"free"},{"bike_id":"02c7fea5-656e-45dd-b87f-cec020083542","system_id":"levelo_inurba_marseille","lat":43.284534,"lon":5.358662,"is_reserved":false,"is_disabled":false,"rental_uris":{"android":"levelo://app?vid=02c7fea5-656e-45dd-b87f-cec020083542","ios":"levelo://app?vid=02c7fea5-656e-45dd-b87f-cec020083542"},"vehicle_type_id":"4","last_reported":1684699612,"current_range_meters":800,"station_id":"ce4bhah2rcd13ifvqei0","pricing_plan_id":"free"},{"bike_id":"e2e7b116-f094-41cf-af04-7e2307407091","system_id":"levelo_inurba_marseille","lat":43.28478,"lon":5.35878,"is_reserved":false,"is_disabled":false,"rental_uris":{"android":"levelo://app?vid=e2e7b116-f094-41cf-af04-7e2307407091","ios":"levelo://app?vid=e2e7b116-f094-41cf-af04-7e2307407091"},