{"last_updated":1740403071,"ttl":60,"version":"2.2","data":{"bikes":[{"bike_id":"9e7afbcb-0d12-4b38-ac91-9a1fab479bb4","system_id":"levelo_inurba_marseille","lat":43.30207,"lon":5.3947,"is_reserved":false,"is_disabled":false,"rental_uris":{"android":"levelo://app?vid=9e7afbcb-0d12-4b38-ac91-9a1fab479bb4","ios":"levelo://app?vid=9e7afbcb-0d12-4b38-ac91-9a1fab479bb4"},"vehicle_type_id":"4","last_reported":1740403071,"current_range_meters":2800,"station_id":"ce4bh0p2rcd13ifvqd70","pricing_plan_id":"cebpf4jnsgd1na2vs0mg"},{"bike_id":"5100a686-03d5-435f-8c27-b388a22e8bcc","system_id":"levelo_inurba_marseille","lat":43.28112,"lon":5.37845,"is_reserved":false,"is_disabled":false,"rental_uris":{"android":"levelo://app?vid=5100a686-03d5-435f-8c27-b388a22e8bcc","ios":"levelo://app?vid=5100a686-03d5-435f-8c27-b388a22e8bcc"},"vehicle_type_id":"4","last_reported":1740403071,"current_range_meters":1600,"station_id":"ce4bha12rcd13ifvqee0","pricing_plan_id":"cebpf4jnsgd1na2vs0mg"},{"bike_id":"c901b331-d8df-49db-a6e9-7013fb9ac563","system_id":"levelo_inurba_marseille","lat":43.28556,"lon":5.36022,"is_reserved":false,"is_disabled":false,"rental_uris":{"android":"levelo://app?vid=c901b331-d8df-49db-a6e9-7013fb9ac563","ios":"levelo://app?vid=c901b331-d8df-49db-a6e9-7013fb9ac563"},"vehicle_type_id":"4","last_reported":1740403071,"current_range_meters":12400,"station_id":"ce4bhah2rcd13ifvqei0","pricing_plan_id":"cebpf4jnsgd1na2vs0mg"},{"bike_id":"ed4b5b02-104e-4355-aee6-ecf7c683b9e5","system_id":"levelo_inurba_marseille","lat":43.22934,"lon":5.3538,"is_reserved":false,"is_disabled":false,"rental_uris":{"android":"levelo://app?vid=ed4b5b02-104e-4355-aee6-ecf7c683b9e5","ios":"levelo://app?vid=ed4b5b02-104e-4355-aee6-ecf7c683b9e5"},"vehicle_type_id":"4","last_reported":1740403071,"current_range_meters":3600,"station_id":"cpo3532slgdg3j2ikp40","pricing_plan_id":"cebpf4jnsgd1na2vs0mg"},{"bike_id":"0ccf9870-97d2-4bc1-a4f1-ce40d0469e03","system_id":"levelo_inurba_marseille","lat":43.301233,"lon":5.380813,"is_reserved":false,"is_disabled":false,"rental_uris":{"android":"levelo://app?vid=0ccf9870-97d2-4bc1-a4f1-ce40d0469e03","ios":"levelo://app?vid=0ccf9870-97d2-4bc1-a4f1-ce40d0469e03"},"vehicle_type_id":"4","last_reported":1740403071,"current_range_meters":3200,"station_id":"ce4bghh2rcd13ifvqb60","pricing_plan_id":"cebpf4jnsgd1na2vs0mg"},{"bike_id":"5f1ecace-7900-46f8-a28d-df1af71c2f91","system_id":"levelo_inurba_marseille","lat":43.25931,"lon":5.40911,"is_reserved":false,"is_disabled":false,"rental_uris":{"android":"levelo://app?vid=5f1ecace-7900-46f8-a28d-df1af71c2f91","ios":"levelo://app?vid=5f1ecace-7900-46f8-a28d-df1af71c2f91"},"vehicle_type_id":"4","last_reported":1740403071,"current_range_meters":4000,"station_id":"ce4bhm92rcd13ifvqglg","pricing_plan_id":"cebpf4jnsgd1na2vs0mg"},{"bike_id":"a971344c-4c32-4552-bae2-6e1231905859","system_id":"levelo_inurba_marseille","lat":43.29626,"lon":5.37162,"is_reserved":false,"is_disabled":false,"rental_uris":{"android":"levelo://app?vid=a971344c-4c32-4552-bae2-6e1231905859","ios":"levelo://app?vid=a971344c-4c32-4552-bae2-6e1231905859"},"vehicle_type_id":"4","last_reported":1740403071,"current_range_meters":3600,"station_id":"ce4bgnh2rcd13ifvqc0g","pricing_plan_id":"cebpf4jnsgd1na2vs0mg"},{"bike_id":"76d0eaaa-0ba8-4d5d-b590-20b34943f7e1","system_id":"levelo_inurba_marseille","lat":43.301435,"lon":5.380934,"is_reserved":false,"is_disabled":false,"rental_uris":{"android":"levelo://app?vid=76d0eaaa-0ba8-4d5d-b590-20b34943f7e1","ios":"levelo://app?vid=76d0eaaa-0ba8-4d5d-b590-20b34943f7e1"},"vehicle_type_id":"4","last_reported":1740403071,"current_range_meters":4000,"station_id":"ce4bh112rcd13ifvqda0","pricing_plan_id":"cebpf4jnsgd1na2vs0mg"},{"bike_id":"4065208e-2592-492d-8226-700f8a2f5c00","system_id":"levelo_inurba_marseille","lat":43.28619,"lon":5.35105,"is_reserved":false,"is_disabled":false,"rental_uris":{"android":"levelo://app?vid=4065208e-2592-492d-8226-700f8a2f5c00","ios":"levelo://app?vid=4065208e-2592-492d-8226-700f8a2f5c00"},"vehicle_type_id":"4","last_reported":1740403071,"current_range_meters":4400,"station_id":"ce4bhch2rcd13ifvqeug","pricing_plan_id":"cebpf4jnsgd1na2vs0mg"},{"bike_id":"f1075aed-0c1f-4362-b184-4e5bc77fa624","system_id":"levelo_inurba_marseille","lat":43.3122,"lon":5.36864,"is_reserved":false,"is_disabled":false,"rental_uris":{"android":"levelo://app?vid=f1075aed-0c1f-4362-b184-4e5bc77fa624","ios":"levelo://app?vid=f1075aed-0c1f-4362-b184-4e5bc77fa624"},"vehicle_type_id":"4","last_reported":1740403071,"current_range_meters":5600,"station_id":"ce4bgl92rcd13ifvqbq0","pricing_plan_id":"cebpf4jnsgd1na2vs0mg"},{"bike_id":"62b8ad63-fd83-4bbd-8cd0-489008e07e32","system_id":"levelo_inurba_marseille","lat":43.2794,"lon":5.41046,"is_reserved":false,"is_disabled":false,"rental_uris":{"android":"levelo://app?vid=62b8ad63-fd83-4bbd-8cd0-489008e07e32","ios":"levelo://app?vid=62b8ad63-fd83-4bbd-8cd0-489008e07e32"},"vehicle_type_id":"4","last_reported":1740403071,"current_range_meters":3600,"station_id":"ce4bhnp2rcd13ifvqh0g","pricing_plan_id":"cebpf4jnsgd1na2vs0mg"},{"bike_id":"0c88cdb7-c678-47aa-b89d-6687f21f6b90","system_id":"levelo_inurba_marseille","lat":43.29035,"lon":5.375741,"is_reserved":false,"is_disabled":false,"rental_uris":{"android":"levelo://app?vid=0c88cdb7-c678-47aa-b89d-6687f21f6b90","ios":"levelo://app?vid=0c88cdb7-c678-47aa-b89d-6687f21f6b90"},"vehicle_type_id":"4","last_reported":1740403071,"current_range_meters":6000,"station_id":"ce4bh692rcd13ifvqe90","pricing_plan_id":"cebpf4jnsgd1na2vs0mg"},{"bike_id":"382e5233-5cfe-4334-a0f3-a3461ab2933c","system_id":"levelo_inurba_marseille","lat":43.30545,"lon":5.36734,"is_reserved":false,"is_disabled":false,"rental_uris":{"android":"levelo://app?vid=382e5233-5cfe-4334-a0f3-a3461ab2933c","ios":"levelo://app?vid=382e5233-5cfe-4334-a0f3-a3461ab2933c"},"vehicle_type_id":"4","last_reported":1740403071,"current_range_meters":6400,"station_id":"ce4bgrp2rcd13ifvqc9g","pricing_plan_id":"cebpf4jnsgd1na2vs0mg"},{"bike_id":"20706f49-707e-4dc7-bdfd-5eebc60f358c","system_id":"levelo_inurba_marseille","lat":43.24156,"lon":5.36398,"is_reserved":false,"is_disabled":false,"rental_uris":{"android":"levelo://app?vid=20706f49-707e-4dc7-bdfd-5eebc60f358c","ios":"levelo://app?vid=20706f49-707e-4dc7-bdfd-5eebc60f358c"},"vehicle_type_id":"4","last_reported":1740403071,"current_range_meters":6400,"station_id":"cpo36qri1sfpv3e86is0","pricing_plan_id":"cebpf4jnsgd1na2vs0mg"},{"bike_id":"413dc171-4546-4050-9354-c607ae4433bf","system_id":"levelo_inurba_marseille","lat":43.30126,"lon":5.39578,"is_reserved":false,"is_disabled":true,"rental_uris":{"android":"levelo://app?vid=413dc171-4546-4050-9354-c607ae4433bf","ios":"levelo://app?vid=413dc171-4546-4050-9354-c607ae4433bf"},"vehicle_type_id":"4","last_reported":1740403071,"current_range_meters":6400,"station_id":"","pricing_plan_id":"cebpf4jnsgd1na2vs0mg"},{"bike_id":"438488c4-ca66-4425-b017-dd7b516f7f15","system_id":"levelo_inurba_marseille","lat":43.27059,"lon":5.40265,"is_reserved":false,"is_disabled":false,"rental_uris":{"android":"levelo://app?vid=438488c4-ca66-4425-b017-dd7b516f7f15","ios":"levelo://app?vid=438488c4-ca66-4425-b017-dd7b516f7f15"},"vehicle_type_id":"4","last_reported":1740403071,"current_range_meters":6400,"station_id":"ce4bhk92rcd13ifvqgc0","pricing_plan_id":"cebpf4jnsgd1na2vs0mg"},{"bike_id":"90df2f38-669c-48e4-aa95-258b0a030130","system_id":"levelo_inurba_marseille","lat":43.312172,"lon":5.368543,"is_reserved":false,"is_disabled":false,"rental_uris":{"android":"levelo://app?vid=90df2f38-669c-48e4-aa95-258b0a030130","ios":"levelo://app?vid=90df2f38-669c-48e4-aa95-258b0a030130"},"vehicle_type_id":"4","last_reported":1740403071,"current_range_meters":6800,"station_id":"ce4bgl92rcd13ifvqbq0","pricing_plan_id":"cebpf4jnsgd1na2vs0mg"},{"bike_id":"4c14f219-4791-4fd2-b378-58f3192d0245","system_id":"levelo_inurba_marseille","lat":43.2721,"lon":5.39188,"is_reserved":false,"is_disabled":false,"rental_uris":{"android":"levelo://app?vid=4c14f219-4791-4fd2-b378-58f3192d0245","ios":"levelo://app?vid=4c14f219-4791-4fd2-b378-58f3192d0245"},"vehicle_type_id":"4","last_reported":1740403071,"current_range_meters":4400,"station_id":"ce4bhhp2rcd13ifvqfm0","pricing_plan_id":"cebpf4jnsgd1na2vs0mg"},{"bike_id":"39228e71-e322-4459-b828-d84a825a576f","system_id":"levelo_inurba_marseille","lat":43.2499,"lon":5.38937,"is_reserved":false,"is_disabled":false,"rental_uris":{"android":"levelo://app?vid=39228e71-e322-4459-b828-d84a825a576f","ios":"levelo://app?vid=39228e71-e322-4459-b828-d84a825a576f"},"vehicle_type_id":"4","last_reported":1740403071,"current_range_meters":6800,"station_id":"ce4bhgp2rcd13ifvqfd0","pricing_plan_id":"cebpf4jnsgd1na2vs0mg"},{"bike_id":"3095385b-d4a0-4cfe-b50e-c3aacbb0c915","system_id":"levelo_inurba_marseille","lat":43.26034,"lon":5.37538,"is_reserved":false,"is_disabled":false,"rental_uris":{"android":"levelo://app?vid=3095385b-d4a0-4cfe-b50e-c3aacbb0c915","ios":"levelo://app?vid=3095385b-d4a0-4cfe-b50e-c3aacbb0c915"},"vehicle_type_id":"4","last_reported":1740403071,"current_range_meters":7200,"station_id":"ce4bhgh2rcd13ifvqfa0","pricing_plan_id":"cebpf4jnsgd1na2vs0mg"},{"bike_id":"24c2d760-2d89-417a-827c-4df92b78c4e6","system_id":"levelo_inurba_marseille","lat":43.28935,"lon":5.36628,"is_reserved":false,"is_disabled":false,"rental_uris":{"android":"levelo://app?vid=24c2d760-2d89-417a-827c-4df92b78c4e6","ios":"levelo://app?vid=24c2d760-2d89-417a-827c-4df92b78c4e6"},"vehicle_type_id":"4","last_reported":1740403071,"current_range_meters":7200,"station_id":"ce4bhap2rcd13ifvqek0","pricing_plan_id":"cebpf4jnsgd1na2vs0mg"},{"bike_id":"be7ed8e6-dd53-4503-a934-72b01d9d4b96","system_id":"levelo_inurba_marseille","lat":43.29412,"lon":5.3863,"is_reserved":false,"is_disabled":false,"rental_uris":{"android":"levelo://app?vid=be7ed8e6-dd53-4503-a934-72b01d9d4b96","ios":"levelo://app?vid=be7ed8e6-dd53-4503-a934-72b01d9d4b96"},"vehicle_type_id":"4","last_reported":1740403071,"current_range_meters":8000,"station_id":"ce4bh2h2rcd13ifvqdh0","pricing_plan_id":"cebpf4jnsgd1na2vs0mg"},{"bike_id":"92e92c63-3e21-4af4-ba0d-c938d500aa27","system_id":"levelo_inurba_marseille","lat":43.24079,"lon":5.37757,"is_reserved":false,"is_disabled":false,"rental_uris":{"android":"levelo://app?vid=92e92c63-3e21-4af4-ba0d-c938d500aa27","ios":"levelo://app?vid=92e92c63-3e21-4af4-ba0d-c938d500aa27"},"vehicle_type_id":"4","last_reported":1740403071,"current_range_meters":8000,"station_id":"ce4bhnp2rcd13ifvqgvg","pricing_plan_id":"cebpf4jnsgd1na2vs0mg"},{"bike_id":"d9193939-1515-4246-99ac-a771a18b2d5d","system_id":"levelo_inurba_marseille","lat":43.27426,"lon":5.39419,"is_reserved":false,"is_disabled":false,"rental_uris":{"android":"levelo://app?vid=d9193939-1515-4246-99ac-a771a18b2d5d","ios":"levelo://app?vid=d9193939-1515-4246-99ac-a771a18b2d5d"},"vehicle_type_id":"4","last_reported":1740403071,"current_range_meters":7200,"station_id":"ce4bhdp2rcd13ifvqf20","pricing_plan_id":"cebpf4jnsgd1na2vs0mg"},{"bike_id":"23f648b1-f292-44d0-ac0b-814281ff3a52","system_id":"levelo_inurba_marseille","lat":43.28937,"lon":5.36645,"is_reserved":false,"is_disabled":false,"rental_uris":{"android":"levelo://app?vid=23f648b1-f292-44d0-ac0b-814281ff3a52","ios":"levelo://app?vid=23f648b1-f292-44d0-ac0b-814281ff3a52"},"vehicle_type_id":"4","last_reported":1740403071,"current_range_meters":8000,"station_id":"ce4bhap2rcd13ifvqek0","pricing_plan_id":"cebpf4jnsgd1na2vs0mg"},{"bike_id":"c1a7b9fc-f9d9-43fe-a6d2-2df1526ca53b","system_id":"levelo_inurba_marseille","lat":43.25581,"lon":5.3823,"is_reserved":false,"is_disabled":false,"rental_uris":{"android":"levelo://app?vid=c1a7b9fc-f9d9-43fe-a6d2-2df1526ca53b","ios":"levelo://app?vid=c1a7b9fc-f9d9-43fe-a6d2-2df1526ca53b"},"vehicle_type_id":"4","last_reported":1740403071,"current_range_meters":8000,"station_id":"ce4bhih2rcd13ifvqfs0","pricing_plan_id":"cebpf4jnsgd1na2vs0mg"},{"bike_id":"0c3eca5e-8b23-4bdd-b5e7-c3a5c83ec36e","system_id":"levelo_inurba_marseille","lat":43.2944,"lon":5.3975,"is_reserved":false,"is_disabled":false,"rental_uris":{"android":"levelo://app?vid=0c3eca5e-8b23-4bdd-b5e7-c3a5c83ec36e","ios":"levelo://app?vid=0c3eca5e-8b23-4bdd-b5e7-c3a5c83ec36e"},"vehicle_type_id":"4","last_reported":1740403071,"current_range_meters":8000,"station_id":"ce4bh3h2rcd13ifvqdo0","pricing_plan_id":"cebpf4jnsgd1na2vs0mg"},{"bike_id":"80db1b4f-c760-4c08-9e24-fb96115d5e2c","system_id":"levelo_inurba_marseille","lat":43.32109,"lon":5.36766,"is_reserved":false,"is_disabled":false,"rental_uris":{"android":"levelo://app?vid=80db1b4f-c760-4c08-9e24-fb96115d5e2c","ios":"levelo://app?vid=80db1b4f-c760-4c08-9e24-fb96115d5e2c"},"vehicle_type_id":"4","last_reported":1740403071,"current_range_meters":8000,"station_id":"ce4bhrh2rcd13ifvqhug","pricing_plan_id":"cebpf4jnsgd1na2vs0mg"},{"bike_id":"14687c58-ddd7-4a83-9004-77919a344842","system_id":"levelo_inurba_marseille","lat":43.32485,"lon":5.36584,"is_reserved":false,"is_disabled":false,"rental_uris":{"android":"levelo://app?vid=14687c58-ddd7-4a83-9004-77919a344842","ios":"levelo://app?vid=14687c58-ddd7-4a83-9004-77919a344842"},"vehicle_type_id":"4","last_reported":1740403071,"current_range_meters":8000,"station_id":"ce4bhs12rcd13ifvqhvg","pricing_plan_id":"cebpf4jnsgd1na2vs0mg"},{"bike_id":"9428e67b-2eae-4fe6-92e0-e6b538c4f9f5","system_id":"levelo_inurba_marseille","lat":43.336,"lon":5.41039,"is_reserved":false,"is_disabled":false,"rental_uris":{"android":"levelo://app?vid=9428e67b-2eae-4fe6-92e0-e6b538c4f9f5","ios":"levelo://app?vid=9428e67b-2eae-4fe6-92e0-e6b538c4f9f5"},"vehicle_type_id":"4","last_reported":1740403071,"current_range_meters":8000,"station_id":"ce4bhqh2rcd13ifvqhmg","pricing_plan_id":"cebpf4jnsgd1na2vs0mg"},{"bike_id":"5afc4df9-d0d5-4bfb-8111-51ebc5ba3a03","system_id":"levelo_inurba_marseille","lat":43.29986,"lon":5.39852,"is_reserved":false,"is_disabled":false,"rental_uris":{"android":"levelo://app?vid=5afc4df9-d0d5-4bfb-8111-51ebc5ba3a03","ios":"levelo://app?vid=5afc4df9-d0d5-4bfb-8111-51ebc5ba3a03"},"vehicle_type_id":"4","last_reported":1740403071,"current_range_meters":8400,"station_id":"ce4bh392rcd13ifvqdm0","pricing_plan_id":"cebpf4jnsgd1na2vs0mg"},{"bike_id":"5de23fb7-3eae-42bf-9301-f28b9a95bd5e","system_id":"levelo_inurba_marseille","lat":43.24068,"lon":5.37753,"is_reserved":false,"is_disabled":false,"rental_uris":{"android":"levelo://app?vid=5de23fb7-3eae-42bf-9301-f28b9a95bd5e","ios":"levelo://app?vid=5de23fb7-3eae-42bf-9301-f28b9a95bd5e"},"vehicle_type_id":"4","last_reported":1740403071,"current_range_meters":8400,"station_id":"ce4bhnp2rcd13ifvqgvg","pricing_plan_id":"cebpf4jnsgd1na2vs0mg"},{"bike_id":"e1e622b7-94b9-4227-9056-d889e47df6c3","system_id":"levelo_inurba_marseille","lat":43.23184,"lon":5.39983,"is_reserved":false,"is_disabled":false,"rental_uris":{"android":"levelo://app?vid=e1e622b7-94b9-4227-9056-d889e47df6c3","ios":"levelo://app?vid=e1e622b7-94b9-4227-9056-d889e47df6c3"},"vehicle_type_id":"4","last_reported":1740403071,"current_range_meters":8400,"station_id":"ce4bhn12rcd13ifvqgqg","pricing_plan_id":"cebpf4jnsgd1na2vs0mg"},{"bike_id":"214abdbc-6efb-4674-a60d-2a5a4e72714d","system_id":"levelo_inurba_marseille","lat":43.305328,"lon":5.367122,"is_reserved":false,"is_disabled":false,"rental_uris":{"android":"levelo://app?vid=214abdbc-6efb-4674-a60d-2a5a4e72714d","ios":"levelo://app?vid=214abdbc-6efb-4674-a60d-2a5a4e72714d"},"vehicle_type_id":"4","last_reported":1740403071,"current_range_meters":8400,"station_id":"ce4bgrp2rcd13ifvqc9g","pricing_plan_id":"cebpf4jnsgd1na2vs0mg"},{"bike_id":"4949cbbd-196e-4a86-b925-857e3d2c2733","system_id":"levelo_inurba_marseille","lat":43.26684,"lon":5.38271,"is_reserved":false,"is_disabled":false,"rental_uris":{"android":"levelo://app?vid=4949cbbd-196e-4a86-b925-857e3d2c2733","ios":"levelo://app?vid=4949cbbd-196e-4a86-b925-857e3d2c2733"},"vehicle_type_id":"4","last_reported":1740403071,"current_range_meters":8800,"station_id":"ce4bhg92rcd13ifvqf90","pricing_plan_id":"cebpf4jnsgd1na2vs0mg"},{"bike_id":"5a6e50f2-f794-44f4-b5eb-8a31ea325648","system_id":"levelo_inurba_marseille","lat":43.31687,"lon":5.40476,"is_reserved":false,"is_disabled":false,"rental_uris":{"android":"levelo://app?vid=5a6e50f2-f794-44f4-b5eb-8a31ea325648","ios":"levelo://app?vid=5a6e50f2-f794-44f4-b5eb-8a31ea325648"},"vehicle_type_id":"4","last_reported":1740403071,"current_range_meters":8400,"station_id":"ce4bh012rcd13ifvqd00","pricing_plan_id":"cebpf4jnsgd1na2vs0mg"},{"bike_id":"bd1c9204-109d-453d-a655-cc2878aad0c5","system_id":"levelo_inurba_marseille","lat":43.29905,"lon":5.43668,"is_reserved":false,"is_disabled":false,"rental_uris":{"android":"levelo://app?vid=bd1c9204-109d-453d-a655-cc2878aad0c5","ios":"levelo://app?vid=bd1c9204-109d-453d-a655-cc2878aad0c5"},"vehicle_type_id":"4","last_reported":1740403071,"current_range_meters":8800,"station_id":"ce4bhpp2rcd13ifvqhfg","pricing_plan_id":"cebpf4jnsgd1na2vs0mg"},{"bike_id":"c2cb75d2-1cc0-4bb8-8462-295d51cf471c","system_id":"levelo_inurba_marseille","lat":43.2501,"lon":5.38921,"is_reserved":false,"is_disabled":false,"rental_uris":{"android":"levelo://app?vid=c2cb75d2-1cc0-4bb8-8462-295d51cf471c","ios":"levelo://app?vid=c2cb75d2-1cc0-4bb8-8462-295d51cf471c"},"vehicle_type_id":"4","last_reported":1740403071,"current_range_meters":8800,"station_id":"ce4bhgp2rcd13ifvqfd0","pricing_plan_id":"cebpf4jnsgd1na2vs0mg"},{"bike_id":"6d0f173c-44de-433f-bc7c-15663f711133","system_id":"levelo_inurba_marseille","lat":43.31128,"lon":5.37778,"is_reserved":false,"is_disabled":true,"rental_uris":{"android":"levelo://app?vid=6d0f173c-44de-433f-bc7c-15663f711133","ios":"levelo://app?vid=6d0f173c-44de-433f-bc7c-15663f711133"},"vehicle_type_id":"4","last_reported":1740403071,"current_range_meters":8800,"station_id":"ce4bgt92rcd13ifvqcg0","pricing_plan_id":"cebpf4jnsgd1na2vs0mg"},{"bike_id":"5f4ca2b9-75a1-4a97-b798-9620098e1081","system_id":"levelo_inurba_marseille","lat":43.24081,"lon":5.37753,"is_reserved":false,"is_disabled":false,"rental_uris":{"android":"levelo://app?vid=5f4ca2b9-75a1-4a97-b798-9620098e1081","ios":"levelo://app?vid=5f4ca2b9-75a1-4a97-b798-9620098e1081"},"vehicle_type_id":"4","last_reported":1740403071,"current_range_meters":8800,"station_id":"ce4bhnp2rcd13ifvqgvg","pricing_plan_id":"cebpf4jnsgd1na2vs0mg"},{"bike_id":"aa91a18a-bd9b-4a32-8ba1-3edd26eb14d5","system_id":"levelo_inurba_marseille","lat":43.29798,"lon":5.38101,"is_reserved":false,"is_disabled":false,"rental_uris":{"android":"levelo://app?vid=aa91a18a-bd9b-4a32-8ba1-3edd26eb14d5","ios":"levelo://app?vid=aa91a18a-bd9b-4a32-8ba1-3edd26eb14d5"},"vehicle_type_id":"4","last_reported":1740403071,"current_range_meters":8400,"station_id":"ce4bgip2rcd13ifvqbb0","pricing_plan_id":"cebpf4jnsgd1na2vs0mg"},{"bike_id":"6b71706e-d666-4f85-857d-105b87a64cd8","system_id":"levelo_inurba_marseille","lat":43.231947,"lon":5.355519,"is_reserved":false,"is_disabled":false,"rental_uris":{"android":"levelo://app?vid=6b71706e-d666-4f85-857d-105b87a64cd8","ios":"levelo://app?vid=6b71706e-d666-4f85-857d-105b87a64cd8"},"vehicle_type_id":"4","last_reported":1740403071,"current_range_meters":8400,"station_id":"ce4bhh12rcd13ifvqff0","pricing_plan_id":"cebpf4jnsgd1na2vs0mg"},{"bike_id":"99aaabf2-e8f7-4a5d-af6d-abaefe06477f","system_id":"levelo_inurba_marseille","lat":43.26679,"lon":5.38272,"is_reserved":false,"is_disabled":false,"rental_uris":{"android":"levelo://app?vid=99aaabf2-e8f7-4a5d-af6d-abaefe06477f","ios":"levelo://app?vid=99aaabf2-e8f7-4a5d-af6d-abaefe06477f"},"vehicle_type_id":"4","last_reported":1740403071,"current_range_meters":8800,"station_id":"ce4bhg92rcd13ifvqf90","pricing_plan_id":"cebpf4jnsgd1na2vs0mg"},{"bike_id":"fbb14a9c-f1ab-4a95-aad6-c1ebc0e245b7","system_id":"levelo_inurba_marseille","lat":43.28483,"lon":5.38416,"is_reserved":false,"is_disabled":false,"rental_uris":{"android":"levelo://app?vid=fbb14a9c-f1ab-4a95-aad6-c1ebc0e245b7","ios":"levelo://app?vid=fbb14a9c-f1ab-4a95-aad6-c1ebc0e245b7"},"vehicle_type_id":"4","last_reported":1740403071,"current_range_meters":9200,"station_id":"ce4bh512rcd13ifvqe3g","pricing_plan_id":"cebpf4jnsgd1na2vs0mg"},{"bike_id":"1e02fef8-5fd4-407c-af05-3bfb83b6bd78","system_id":"levelo_inurba_marseille","lat":43.32128,"lon":5.36739,"is_reserved":false,"is_disabled":false,"rental_uris":{"android":"levelo://app?vid=1e02fef8-5fd4-407c-af05-3bfb83b6bd78","ios":"levelo://app?vid=1e02fef8-5fd4-407c-af05-3bfb83b6bd78"},"vehicle_type_id":"4","last_reported":1740403071,"current_range_meters":9200,"station_id":"ce4bhrh2rcd13ifvqhug","pricing_plan_id":"cebpf4jnsgd1na2vs0mg"},{"bike_id":"3437f868-4313-4959-9701-44244b0bd81b","system_id":"levelo_inurba_marseille","lat":43.2749,"lon":5.42446,"is_reserved":false,"is_disabled":false,"rental_uris":{"android":"levelo://app?vid=3437f868-4313-4959-9701-44244b0bd81b","ios":"levelo://app?vid=3437f868-4313-4959-9701-44244b0bd81b"},"vehicle_type_id":"4","last_reported":1740403071,"current_range_meters":9200,"station_id":"ce4bhn92rcd13ifvqgrg","pricing_plan_id":"cebpf4jnsgd1na2vs0mg"},{"bike_id":"1b0ba662-1378-4a7f-8019-7c3e04ab5162","system_id":"levelo_inurba_marseille","lat":43.2815,"lon":5.42641,"is_reserved":false,"is_disabled":false,"rental_uris":{"android":"levelo://app?vid=1b0ba662-1378-4a7f-8019-7c3e04ab5162","ios":"levelo://app?vid=1b0ba662-1378-4a7f-8019-7c3e04ab5162"},"vehicle_type_id":"4","last_reported":1740403071,"current_range_meters":9200,"station_id":"ce4bhnh2rcd13ifvqgug","pricing_plan_id":"cebpf4jnsgd1na2vs0mg"},{"bike_id":"33d07f4f-b531-43d0-96c2-0f3a0085a2fc","system_id":"levelo_inurba_marseille","lat":43.27212,"lon":5.39183,"is_reserved":false,"is_disabled":false,"rental_uris":{"android":"levelo://app?vid=33d07f4f-b531-43d0-96c2-0f3a0085a2fc","ios":"levelo://app?vid=33d07f4f-b531-43d0-96c2-0f3a0085a2fc"},"vehicle_type_id":"4","last_reported":1740403071,"current_range_meters":12000,"station_id":"ce4bhhp2rcd13ifvqfm0","pricing_plan_id":"cebpf4jnsgd1na2vs0mg"},{"bike_id":"b21c77a5-e540-4cda-8ea5-f87eb6cea310","system_id":"levelo_inurba_marseille","lat":43.293,"lon":5.3746,"is_reserved":false,"is_disabled":true,"rental_uris":{"android":"levelo://app?vid=b21c77a5-e540-4cda-8ea5-f87eb6cea310","ios":"levelo://app?vid=b21c77a5-e540-4cda-8ea5-f87eb6cea310"},"vehicle_type_id":"4","last_reported":1740403071,"current_range_meters":9200,"station_id":"ce4bgi12rcd13ifvqb70","pricing_plan_id":"cebpf4jnsgd1na2vs0mg"},{"bike_id":"1b075c50-fdfd-4ed0-9acd-4c0d0c8732fb","system_id":"levelo_inurba_marseille","lat":43.27676,"lon":5.38878,"is_reserved":false,"is_disabled":false,"rental_uris":{"android":"levelo://app?vid=1b075c50-fdfd-4ed0-9acd-4c0d0c8732fb","ios":"levelo://app?vid=1b075c50-fdfd-4ed0-9acd-4c0d0c8732fb"},"vehicle_type_id":"4","last_reported":1740403071,"current_range_meters":9200,"station_id":"ce4bhi12rcd13ifvqfo0","pricing_plan_id":"cebpf4jnsgd1na2vs0mg"},{"bike_id":"b67cd77b-3ddb-44e1-ba6e-363c623fe15f","system_id":"levelo_inurba_marseille","lat":43.3251,"lon":5.41477,"is_reserved":false,"is_disabled":false,"rental_uris":{"android":"levelo://app?vid=b67cd77b-3ddb-44e1-ba6e-363c623fe15f","ios":"levelo://app?vid=b67cd77b-3ddb-44e1-ba6e-363c623fe15f"},"vehicle_type_id":"4","last_reported":1740403071,"current_range_meters":9200,"station_id":"ce4bhq12rcd13ifvqhhg","pricing_plan_id":"cebpf4jnsgd1na2vs0mg"},{"bike_id":"e86ba67a-8bf6-4d1c-9f87-496208c50956","system_id":"levelo_inurba_marseille","lat":43.3205,"lon":5.41575,"is_reserved":false,"is_disabled":false,"rental_uris":{"android":"levelo://app?vid=e86ba67a-8bf6-4d1c-9f87-496208c50956","ios":"levelo://app?vid=e86ba67a-8bf6-4d1c-9f87-496208c50956"},"vehicle_type_id":"4","last_reported":1740403071,"current_range_meters":12400,"station_id":"ce4bhq92rcd13ifvqhkg","pricing_plan_id":"cebpf4jnsgd1na2vs0mg"},{"bike_id":"aa29475d-69ae-46d1-93c5-caa268f67236","system_id":"levelo_inurba_marseille","lat":43.32541,"lon":5.41426,"is_reserved":false,"is_disabled":false,"rental_uris":{"android":"levelo://app?vid=aa29475d-69ae-46d1-93c5-caa268f67236","ios":"levelo://app?vid=aa29475d-69ae-46d1-93c5-caa268f67236"},"vehicle_type_id":"4","last_reported":1740403071,"current_range_meters":8800,"station_id":"ce4bhq12rcd13ifvqhhg","pricing_plan_id":"cebpf4jnsgd1na2vs0mg"},{"bike_id":"f824cb01-8026-4b65-b32f-b9b53c92d523","system_id":"levelo_inurba_marseille","lat":43.25005,"lon":5.38927,"is_reserved":false,"is_disabled":false,"rental_uris":{"android":"levelo://app?vid=f824cb01-8026-4b65-b32f-b9b53c92d523","ios":"levelo://app?vid=f824cb01-8026-4b65-b32f-b9b53c92d523"},"vehicle_type_id":"4","last_reported":1740403071,"current_range_meters":9200,"station_id":"ce4bhgp2rcd13ifvqfd0","pricing_plan_id":"cebpf4jnsgd1na2vs0mg"},{"bike_id":"7e26a3e9-4c57-4918-aa17-698a0ce4ac78","system_id":"levelo_inurba_marseille","lat":43.3069,"lon":5.37602,"is_reserved":false,"is_disabled":false,"rental_uris":{"android":"levelo://app?vid=7e26a3e9-4c57-4918-aa17-698a0ce4ac78","ios":"levelo://app?vid=7e26a3e9-4c57-4918-aa17-698a0ce4ac78"},"vehicle_type_id":"4","last_reported":1740403071,"current_range_meters":9200,"station_id":"","pricing_plan_id":"cebpf4jnsgd1na2vs0mg"},{"bike_id":"d205081a-fefd-4fe8-8999-fd8844057bca","system_id":"levelo_inurba_marseille","lat":43.29873,"lon":5.36264,"is_reserved":false,"is_disabled":false,"rental_uris":{"android":"levelo://app?vid=d205081a-fefd-4fe8-8999-fd8844057bca","ios":"levelo://app?vid=d205081a-fefd-4fe8-8999-fd8844057bca"},"vehicle_type_id":"4","last_reported":1740403071,"current_range_meters":9200,"station_id":"ce4bgpp2rcd13ifvqc3g","pricing_plan_id":"cebpf4jnsgd1na2vs0mg"},{"bike_id":"87bbda1f-0db0-4d79-a046-a87b5e94995a","system_id":"levelo_inurba_marseille","lat":43.24151,"lon":5.36411,"is_reserved":false,"is_disabled":false,"rental_uris":{"android":"levelo://app?vid=87bbda1f-0db0-4d79-a046-a87b5e94995a","ios":"levelo://app?vid=87bbda1f-0db0-4d79-a046-a87b5e94995a"},"vehicle_type_id":"4","last_reported":1740403071,"current_range_meters":9600,"station_id":"cpo36qri1sfpv3e86is0","pricing_plan_id":"cebpf4jnsgd1na2vs0mg"},{"bike_id":"ede9c3a0-5d28-4eae-be12-5e8bc7ce32cb","system_id":"levelo_inurba_marseille","lat":43.26789,"lon":5.39408,"is_reserved":false,"is_disabled":false,"rental_uris":{"android":"levelo://app?vid=ede9c3a0-5d28-4eae-be12-5e8bc7ce32cb","ios":"levelo://app?vid=ede9c3a0-5d28-4eae-be12-5e8bc7ce32cb"},"vehicle_type_id":"4","last_reported":1740403071,"current_range_meters":9200,"station_id":"ce4bhh12rcd13ifvqfg0","pricing_plan_id":"cebpf4jnsgd1na2vs0mg"},{"bike_id":"abbdc6de-b083-4f4b-814e-b34c4a31179f","system_id":"levelo_inurba_marseille","lat":43.26782,"lon":5.39414,"is_reserved":false,"is_disabled":false,"rental_uris":{"android":"levelo://app?vid=abbdc6de-b083-4f4b-814e-b34c4a31179f","ios":"levelo://app?vid=abbdc6de-b083-4f4b-814e-b34c4a31179f"},"vehicle_type_id":"4","last_reported":1740403071,"current_range_meters":9600,"station_id":"ce4bhh12rcd13ifvqfg0","pricing_plan_id":"cebpf4jnsgd1na2vs0mg"},{"bike_id":"6b1f8f3e-45ef-456f-aaee-da935071e671","system_id":"levelo_inurba_marseille","lat":43.28269,"lon":5.3509,"is_reserved":false,"is_disabled":true,"rental_uris":{"android":"levelo://app?vid=6b1f8f3e-45ef-456f-aaee-da935071e671","ios":"levelo://app?vid=6b1f8f3e-45ef-456f-aaee-da935071e671"},"vehicle_type_id":"4","last_reported":1740403071,"current_range_meters":9600,"station_id":"ce4bhbp2rcd13ifvqerg","pricing_plan_id":"cebpf4jnsgd1na2vs0mg"},{"bike_id":"46b6aad1-7138-4a90-8d09-f178f7c99367","system_id":"levelo_inurba_marseille","lat":43.28943,"lon":5.36373,"is_reserved":false,"is_disabled":false,"rental_uris":{"android":"levelo://app?vid=46b6aad1-7138-4a90-8d09-f178f7c99367","ios":"levelo://app?vid=46b6aad1-7138-4a90-8d09-f178f7c99367"},"vehicle_type_id":"4","last_reported":1740403071,"current_range_meters":9200,"station_id":"ce4bhc92rcd13ifvqetg","pricing_plan_id":"cebpf4jnsgd1na2vs0mg"},{"bike_id":"7764cb33-5426-4b94-909c-ac480986db17","system_id":"levelo_inurba_marseille","lat":43.2932,"lon":5.37264,"is_reserved":false,"is_disabled":false,"rental_uris":{"android":"levelo://app?vid=7764cb33-5426-4b94-909c-ac480986db17","ios":"levelo://app?vid=7764cb33-5426-4b94-909c-ac480986db17"},"vehicle_type_id":"4","last_reported":1740403071,"current_range_meters":10000,"station_id":"","pricing_plan_id":"cebpf4jnsgd1na2vs0mg"},{"bike_id":"b86048c4-f305-4d68-ad78-087443649aaa","system_id":"levelo_inurba_marseille","lat":43.23136,"lon":5.43703,"is_reserved":false,"is_disabled":false,"rental_uris":{"android":"levelo://app?vid=b86048c4-f305-4d68-ad78-087443649aaa","ios":"levelo://app?vid=b86048c4-f305-4d68-ad78-087443649aaa"},"vehicle_type_id":"4","last_reported":1740403071,"current_range_meters":9600,"station_id":"ce4bhmp2rcd13ifvqgog","pricing_plan_id":"cebpf4jnsgd1na2vs0mg"},{"bike_id":"216bb77f-c769-4011-8970-e66d63254aa2","system_id":"levelo_inurba_marseille","lat":43.299181,"lon":5.378579,"is_reserved":false,"is_disabled":false,"rental_uris":{"android":"levelo://app?vid=216bb77f-c769-4011-8970-e66d63254aa2","ios":"levelo://app?vid=216bb77f-c769-4011-8970-e66d63254aa2"},"vehicle_type_id":"4","last_reported":1740403071,"current_range_meters":10000,"station_id":"","pricing_plan_id":"cebpf4jnsgd1na2vs0mg"},{"bike_id":"44fede2a-2199-449f-b6ee-92cc56c6a359","system_id":"levelo_inurba_marseille","lat":43.296263,"lon":5.371608,"is_reserved":false,"is_disabled":false,"rental_uris":{"android":"levelo://app?vid=44fede2a-2199-449f-b6ee-92cc56c6a359","ios":"levelo://app?vid=44fede2a-2199-449f-b6ee-92cc56c6a359"},"vehicle_type_id":"4","last_reported":1740403071,"current_range_meters":10000,"station_id":"ce4bgnh2rcd13ifvqc0g","pricing_plan_id":"cebpf4jnsgd1na2vs0mg"},{"bike_id":"81a6860f-a8bc-41e4-a65f-dd8e8c40b55a","system_id":"levelo_inurba_marseille","lat":43.29976,"lon":5.38489,"is_reserved":false,"is_disabled":false,"rental_uris":{"android":"levelo://app?vid=81a6860f-a8bc-41e4-a65f-dd8e8c40b55a","ios":"levelo://app?vid=81a6860f-a8bc-41e4-a65f-dd8e8c40b55a"},"vehicle_type_id":"4","last_reported":1740403071,"current_range_meters":10000,"station_id":"ce4bgj92rcd13ifvqbd0","pricing_plan_id":"cebpf4jnsgd1na2vs0mg"},{"bike_id":"6467259c-3f73-42ae-a724-d228309db7fd","system_id":"levelo_inurba_marseille","lat":43.29785,"lon":5.39328,"is_reserved":false,"is_disabled":false,"rental_uris":{"android":"levelo://app?vid=6467259c-3f73-42ae-a724-d228309db7fd","ios":"levelo://app?vid=6467259c-3f73-42ae-a724-d228309db7fd"},"vehicle_type_id":"4","last_reported":1740403071,"current_range_meters":9600,"station_id":"chh1huq6cuj3fo74tm60","pricing_plan_id":"cebpf4jnsgd1na2vs0mg"},{"bike_id":"91bee1ab-e5ca-4a52-9614-45c157756eb7","system_id":"levelo_inurba_marseille","lat":43.23151,"lon":5.43733,"is_reserved":false,"is_disabled":false,"rental_uris":{"android":"levelo://app?vid=91bee1ab-e5ca-4a52-9614-45c157756eb7","ios":"levelo://app?vid=91bee1ab-e5ca-4a52-9614-45c157756eb7"},"vehicle_type_id":"4","last_reported":1740403071,"current_range_meters":12400,"station_id":"ce4bhmp2rcd13ifvqgog","pricing_plan_id":"cebpf4jnsgd1na2vs0mg"},{"bike_id":"a8c1ac6e-4fe0-4484-9bf9-ba50ac4d6956","system_id":"levelo_inurba_marseille","lat":43.26564,"lon":5.39017,"is_reserved":false,"is_disabled":false,"rental_uris":{"android":"levelo://app?vid=a8c1ac6e-4fe0-4484-9bf9-ba50ac4d6956","ios":"levelo://app?vid=a8c1ac6e-4fe0-4484-9bf9-ba50ac4d6956"},"vehicle_type_id":"4","last_reported":1740403071,"current_range_meters":10000,"station_id":"ce4bhe12rcd13ifvqf30","pricing_plan_id":"cebpf4jnsgd1na2vs0mg"},{"bike_id":"b3daf4f4-b605-42a7-bd4b-531ddf848fbd","system_id":"levelo_inurba_marseille","lat":43.30825,"lon":5.3819,"is_reserved":false,"is_disabled":false,"rental_uris":{"android":"levelo://app?vid=b3daf4f4-b605-42a7-bd4b-531ddf848fbd","ios":"levelo://app?vid=b3daf4f4-b605-42a7-bd4b-531ddf848fbd"},"vehicle_type_id":"4","last_reported":1740403071,"current_range_meters":10000,"station_id":"ce4bgt12rcd13ifvqce0","pricing_plan_id":"cebpf4jnsgd1na2vs0mg"},{"bike_id":"18ef55be-849b-4d56-a344-234d88ed46b1","system_id":"levelo_inurba_marseille","lat":43.300977,"lon":5.390723,"is_reserved":false,"is_disabled":false,"rental_uris":{"android":"levelo://app?vid=18ef55be-849b-4d56-a344-234d88ed46b1","ios":"levelo://app?vid=18ef55be-849b-4d56-a344-234d88ed46b1"},"vehicle_type_id":"4","last_reported":1740403071,"current_range_meters":10800,"station_id":"ce4bh192rcd13ifvqdb0","pricing_plan_id":"cebpf4jnsgd1na2vs0mg"},{"bike_id":"491564c0-ab43-40cb-879e-cda85f925e7b","system_id":"levelo_inurba_marseille","lat":43.2814,"lon":5.42639,"is_reserved":false,"is_disabled":false,"rental_uris":{"android":"levelo://app?vid=491564c0-ab43-40cb-879e-cda85f925e7b","ios":"levelo://app?vid=491564c0-ab43-40cb-879e-cda85f925e7b"},"vehicle_type_id":"4","last_reported":1740403071,"current_range_meters":10800,"station_id":"ce4bhnh2rcd13ifvqgug","pricing_plan_id":"cebpf4jnsgd1na2vs0mg"},{"bike_id":"6cd9e29c-750c-43f0-bd5a-a0573ca6f52d","system_id":"levelo_inurba_marseille","lat":43.25577,"lon":5.38232,"is_reserved":false,"is_disabled":false,"rental_uris":{"android":"levelo://app?vid=6cd9e29c-750c-43f0-bd5a-a0573ca6f52d","ios":"levelo://app?vid=6cd9e29c-750c-43f0-bd5a-a0573ca6f52d"},"vehicle_type_id":"4","last_reported":1740403071,"current_range_meters":10800,"station_id":"ce4bhih2rcd13ifvqfs0","pricing_plan_id":"cebpf4jnsgd1na2vs0mg"},{"bike_id":"8ff551a1-229e-4006-801e-19ea1c094368","system_id":"levelo_inurba_marseille","lat":43.23152,"lon":5.43705,"is_reserved":false,"is_disabled":false,"rental_uris":{"android":"levelo://app?vid=8ff551a1-229e-4006-801e-19ea1c094368","ios":"levelo://app?vid=8ff551a1-229e-4006-801e-19ea1c094368"},"vehicle_type_id":"4","last_reported":1740403071,"current_range_meters":10800,"station_id":"ce4bhmp2rcd13ifvqgog","pricing_plan_id":"cebpf4jnsgd1na2vs0mg"},{"bike_id":"cb398a6c-bb66-4c6f-82db-8a9b1baf3cd6","system_id":"levelo_inurba_marseille","lat":43.30906,"lon":5.36846,"is_reserved":false,"is_disabled":false,"rental_uris":{"android":"levelo://app?vid=cb398a6c-bb66-4c6f-82db-8a9b1baf3cd6","ios":"levelo://app?vid=cb398a6c-bb66-4c6f-82db-8a9b1baf3cd6"},"vehicle_type_id":"4","last_reported":1740403071,"current_range_meters":10000,"station_id":"ce4bgn92rcd13ifvqbvg","pricing_plan_id":"cebpf4jnsgd1na2vs0mg"},{"bike_id":"af3b6082-e1d5-40a6-a684-cde66d4be0b0","system_id":"levelo_inurba_marseille","lat":43.2315,"lon":5.4372,"is_reserved":false,"is_disabled":false,"rental_uris":{"android":"levelo://app?vid=af3b6082-e1d5-40a6-a684-cde66d4be0b0","ios":"levelo://app?vid=af3b6082-e1d5-40a6-a684-cde66d4be0b0"},"vehicle_type_id":"4","last_reported":1740403071,"current_range_meters":11600,"station_id":"ce4bhmp2rcd13ifvqgog","pricing_plan_id":"cebpf4jnsgd1na2vs0mg"},{"bike_id":"734f28fb-4a9a-40a3-9d66-f28f686ab40d","system_id":"levelo_inurba_marseille","lat":43.27945,"lon":5.41047,"is_reserved":false,"is_disabled":false,"rental_uris":{"android":"levelo://app?vid=734f28fb-4a9a-40a3-9d66-f28f686ab40d","ios":"levelo://app?vid=734f28fb-4a9a-40a3-9d66-f28f686ab40d"},"vehicle_type_id":"4","last_reported":1740403071,"current_range_meters":11200,"station_id":"ce4bhnp2rcd13ifvqh0g","pricing_plan_id":"cebpf4jnsgd1na2vs0mg"},{"bike_id":"2b81dbdc-5915-4d05-a663-ccc0a4b7a833","system_id":"levelo_inurba_marseille","lat":43.28693,"lon":5.39986,"is_reserved":false,"is_disabled":false,"rental_uris":{"android":"levelo://app?vid=2b81dbdc-5915-4d05-a663-ccc0a4b7a833","ios":"levelo://app?vid=2b81dbdc-5915-4d05-a663-ccc0a4b7a833"},"vehicle_type_id":"4","last_reported":1740403071,"current_range_meters":11200,"station_id":"ce4bho92rcd13ifvqh3g","pricing_plan_id":"cebpf4jnsgd1na2vs0mg"},{"bike_id":"615e212e-047c-4187-9b0f-7a3031a5adda","system_id":"levelo_inurba_marseille","lat":43.27496,"lon":5.42461,"is_reserved":false,"is_disabled":false,"rental_uris":{"android":"levelo://app?vid=615e212e-047c-4187-9b0f-7a3031a5adda","ios":"levelo://app?vid=615e212e-047c-4187-9b0f-7a3031a5adda"},"vehicle_type_id":"4","last_reported":1740403071,"current_range_meters":11200,"station_id":"ce4bhn92rcd13ifvqgrg","pricing_plan_id":"cebpf4jnsgd1na2vs0mg"},{"bike_id":"6a3112f7-34bf-4b42-849d-216f33de370e","system_id":"levelo_inurba_marseille","lat":43.24068,"lon":5.37737,"is_reserved":false,"is_disabled":false,"rental_uris":{"android":"levelo://app?vid=6a3112f7-34bf-4b42-849d-216f33de370e","ios":"levelo://app?vid=6a3112f7-34bf-4b42-849d-216f33de370e"},"vehicle_type_id":"4","last_reported":1740403071,"current_range_meters":11600,"station_id":"ce4bhnp2rcd13ifvqgvg","pricing_plan_id":"cebpf4jnsgd1na2vs0mg"},{"bike_id":"fb6a8be3-dc0e-4d4f-a97c-8ba1e88733e2","system_id":"levelo_inurba_marseille","lat":43.24055,"lon":5.37737,"is_reserved":false,"is_disabled":false,"rental_uris":{"android":"levelo://app?vid=fb6a8be3-dc0e-4d4f-a97c-8ba1e88733e2","ios":"levelo://app?vid=fb6a8be3-dc0e-4d4f-a97c-8ba1e88733e2"},"vehicle_type_id":"4","last_reported":1740403071,"current_range_meters":11200,"station_id":"ce4bhnp2rcd13ifvqgvg","pricing_plan_id":"cebpf4jnsgd1na2vs0mg"},{"bike_id":"243758a6-c08c-4f05-a708-338a05b43e7c","system_id":"levelo_inurba_marseille","lat":43.29577,"lon":5.36738,"is_reserved":false,"is_disabled":false,"rental_uris":{"android":"levelo://app?vid=243758a6-c08c-4f05-a708-338a05b43e7c","ios":"levelo://app?vid=243758a6-c08c-4f05-a708-338a05b43e7c"},"vehicle_type_id":"4","last_reported":1740403071,"current_range_meters":11600,"station_id":"ce4bgph2rcd13ifvqc2g","pricing_plan_id":"cebpf4jnsgd1na2vs0mg"},{"bike_id":"7d462d73-4828-42de-9728-af386b3d6d1f","system_id":"levelo_inurba_marseille","lat":43.30533,"lon":5.36691,"is_reserved":false,"is_disabled":false,"rental_uris":{"android":"levelo://app?vid=7d462d73-4828-42de-9728-af386b3d6d1f","ios":"levelo://app?vid=7d462d73-4828-42de-9728-af386b3d6d1f"},"vehicle_type_id":"4","last_reported":1740403071,"current_range_meters":12000,"station_id":"ce4bgrp2rcd13ifvqc9g","pricing_plan_id":"cebpf4jnsgd1na2vs0mg"},{"bike_id":"637c03a1-26ef-4ad9-8296-45aa0bbd605f","system_id":"levelo_inurba_marseille","lat":43.30953,"lon":5.39031,"is_reserved":false,"is_disabled":false,"rental_uris":{"android":"levelo://app?vid=637c03a1-26ef-4ad9-8296-45aa0bbd605f","ios":"levelo://app?vid=637c03a1-26ef-4ad9-8296-45aa0bbd605f"},"vehicle_type_id":"4","last_reported":1740403071,"current_range_meters":12000,"station_id":"ce4bgup2rcd13ifvqco0","pricing_plan_id":"cebpf4jnsgd1na2vs0mg"},{"bike_id":"bf6b8727-222a-4167-a11e-e9ef0208bae2","system_id":"levelo_inurba_marseille","lat":43.26917,"lon":5.38661,"is_reserved":false,"is_disabled":false,"rental_uris":{"android":"levelo://app?vid=bf6b8727-222a-4167-a11e-e9ef0208bae2","ios":"levelo://app?vid=bf6b8727-222a-4167-a11e-e9ef0208bae2"},"vehicle_type_id":"4","last_reported":1740403071,"current_range_meters":12000,"station_id":"ce4bhh92rcd13ifvqfh0","pricing_plan_id":"cebpf4jnsgd1na2vs0mg"},{"bike_id":"efc2585b-866e-49c9-8a9d-fb25be525740","system_id":"levelo_inurba_marseille","lat":43.32544,"lon":5.41428,"is_reserved":false,"is_disabled":false,"rental_uris":{"android":"levelo://app?vid=efc2585b-866e-49c9-8a9d-fb25be525740","ios":"levelo://app?vid=efc2585b-866e-49c9-8a9d-fb25be525740"},"vehicle_type_id":"4","last_reported":1740403071,"current_range_meters":12000,"station_id":"ce4bhq12rcd13ifvqhhg","pricing_plan_id":"cebpf4jnsgd1na2vs0mg"},{"bike_id":"3be6cac3-f9c7-49cf-b75d-b42a65cdb6e9","system_id":"levelo_inurba_marseille","lat":43.28157,"lon":5.42646,"is_reserved":false,"is_disabled":false,"rental_uris":{"android":"levelo://app?vid=3be6cac3-f9c7-49cf-b75d-b42a65cdb6e9","ios":"levelo://app?vid=3be6cac3-f9c7-49cf-b75d-b42a65cdb6e9"},"vehicle_type_id":"4","last_reported":1740403071,"current_range_meters":12000,"station_id":"ce4bhnh2rcd13ifvqgug","pricing_plan_id":"cebpf4jnsgd1na2vs0mg"},{"bike_id":"90e6e7ee-bbe8-48f3-a7a6-bcc085e80d68","system_id":"levelo_inurba_marseille","lat":43.28934,"lon":5.39641,"is_reserved":false,"is_disabled":false,"rental_uris":{"android":"levelo://app?vid=90e6e7ee-bbe8-48f3-a7a6-bcc085e80d68","ios":"levelo://app?vid=90e6e7ee-bbe8-48f3-a7a6-bcc085e80d68"},"vehicle_type_id":"4","last_reported":1740403071,"current_range_meters":11600,"station_id":"ce4bh3h2rcd13ifvqdn0","pricing_plan_id":"cebpf4jnsgd1na2vs0mg"},{"bike_id":"77da644c-7b1c-4aa4-a9c0-c430160e4901","system_id":"levelo_inurba_marseille","lat":43.29041,"lon":5.39978,"is_reserved":false,"is_disabled":false,"rental_uris":{"android":"levelo://app?vid=77da644c-7b1c-4aa4-a9c0-c430160e4901","ios":"levelo://app?vid=77da644c-7b1c-4aa4-a9c0-c430160e4901"},"vehicle_type_id":"4","last_reported":1740403071,"current_range_meters":12000,"station_id":"ce4bh392rcd13ifvqdm0","pricing_plan_id":"cebpf4jnsgd1na2vs0mg"},{"bike_id":"6ac16e64-222a-4560-b8f0-9d6610478de3","system_id":"levelo_inurba_marseille","lat":43.296313,"lon":5.377283,"is_reserved":false,"is_disabled":false,"rental_uris":{"android":"levelo://app?vid=6ac16e64-222a-4560-b8f0-9d6610478de3","ios":"levelo://app?vid=6ac16e64-222a-4560-b8f0-9d6610478de3"},"vehicle_type_id":"4","last_reported":1740403071,"current_range_meters":12400,"station_id":"ce4bh9p2rcd13ifvqec0","pricing_plan_id":"cebpf4jnsgd1na2vs0mg"},{"bike_id":"d28d756f-a5b9-437c-b9c5-f266fca8fc88","system_id":"levelo_inurba_marseille","lat":43.27679,"lon":5.38894,"is_reserved":false,"is_disabled":false,"rental_uris":{"android":"levelo://app?vid=d28d756f-a5b9-437c-b9c5-f266fca8fc88","ios":"levelo://app?vid=d28d756f-a5b9-437c-b9c5-f266fca8fc88"},"vehicle_type_id":"4","last_reported":1740403071,"current_range_meters":12000,"station_id":"ce4bhi12rcd13ifvqfo0","pricing_plan_id":"cebpf4jnsgd1na2vs0mg"},{"bike_id":"aba4b0ca-bd7e-473e-a7a5-13d43db8a4b2","system_id":"levelo_inurba_marseille","lat":43.32356,"lon":5.36746,"is_reserved":false,"is_disabled":false,"rental_uris":{"android":"levelo://app?vid=aba4b0ca-bd7e-473e-a7a5-13d43db8a4b2","ios":"levelo://app?vid=aba4b0ca-bd7e-473e-a7a5-13d43db8a4b2"},"vehicle_type_id":"4","last_reported":1740403071,"current_range_meters":12400,"station_id":"ce4bhsh2rcd13ifvqi2g","pricing_plan_id":"cebpf4jnsgd1na2vs0mg"},{"bike_id":"e30df1ca-0636-4053-a1a2-68f49a2952f4","system_id":"levelo_inurba_marseille","lat":43.28944,"lon":5.39631,"is_reserved":false,"is_disabled":true,"rental_uris":{"android":"levelo://app?vid=e30df1ca-0636-4053-a1a2-68f49a2952f4","ios":"levelo://app?vid=e30df1ca-0636-4053-a1a2-68f49a2952f4"},"vehicle_type_id":"4","last_reported":1740403071,"current_range_meters":12400,"station_id":"ce4bh3h2rcd13ifvqdn0","pricing_plan_id":"cebpf4jnsgd1na2vs0mg"},{"bike_id":"7dddf74d-1926-45cc-90cd-d695e28f4e01","system_id":"levelo_inurba_marseille","lat":43.29006,"lon":5.35609,"is_reserved":false,"is_disabled":false,"rental_uris":{"android":"levelo://app?vid=7dddf74d-1926-45cc-90cd-d695e28f4e01","ios":"levelo://app?vid=7dddf74d-1926-45cc-90cd-d695e28f4e01"},"vehicle_type_id":"4","last_reported":1740403071,"current_range_meters":12400,"station_id":"ce4bhb92rcd13ifvqen0","pricing_plan_id":"cebpf4jnsgd1na2vs0mg"},{"bike_id":"5d449784-7a6a-409e-9b3f-45e6d5955375","system_id":"levelo_inurba_marseille","lat":43.267929,"lon":5.394161,"is_reserved":false,"is_disabled":false,"rental_uris":{"android":"levelo://app?vid=5d449784-7a6a-409e-9b3f-45e6d5955375","ios":"levelo://app?vid=5d449784-7a6a-409e-9b3f-45e6d5955375"},"vehicle_type_id":"4","last_reported":1740403071,"current_range_meters":12400,"station_id":"ce4bgv12rcd13ifvqcp0","pricing_plan_id":"cebpf4jnsgd1na2vs0mg"},{"bike_id":"7353184b-9332-474c-9963-7212010f3380","system_id":"levelo_inurba_marseille","lat":43.28271,"lon":5.35073,"is_reserved":false,"is_disabled":false,"rental_uris":{"android":"levelo://app?vid=7353184b-9332-474c-9963-7212010f3380","ios":"levelo://app?vid=7353184b-9332-474c-9963-7212010f3380"},"vehicle_type_id":"4","last_reported":1740403071,"current_range_meters":14400,"station_id":"ce4bhah2rcd13ifvqei0","pricing_plan_id":"cebpf4jnsgd1na2vs0mg"},{"bike_id":"e5f26436-25ad-41ee-a4e3-5b4f0bc582eb","system_id":"levelo_inurba_marseille","lat":43.28934,"lon":5.36634,"is_reserved":false,"is_disabled":false,"rental_uris":{"android":"levelo://app?vid=e5f26436-25ad-41ee-a4e3-5b4f0bc582eb","ios":"levelo://app?vid=e5f26436-25ad-41ee-a4e3-5b4f0bc582eb"},"vehicle_type_id":"4","last_reported":1740403071,"current_range_meters":12800,"station_id":"ce4bhap2rcd13ifvqek0","pricing_plan_id":"cebpf4jnsgd1na2vs0mg"},{"bike_id":"d34f31cc-0c36-4f70-acdd-552f7ed8e918","system_id":"levelo_inurba_marseille","lat":43.27829,"lon":5.39217,"is_reserved":false,"is_disabled":false,"rental_uris":{"android":"levelo://app?vid=d34f31cc-0c36-4f70-acdd-552f7ed8e918","ios":"levelo://app?vid=d34f31cc-0c36-4f70-acdd-552f7ed8e918"},"vehicle_type_id":"4","last_reported":1740403071,"current_range_meters":12400,"station_id":"ce4bhjp2rcd13ifvqga0","pricing_plan_id":"cebpf4jnsgd1na2vs0mg"},{"bike_id":"548175b3-050a-474b-b94e-2d5f0d777576","system_id":"levelo_inurba_marseille","lat":43.27491,"lon":5.42456,"is_reserved":false,"is_disabled":false,"rental_uris":{"android":"levelo://app?vid=548175b3-050a-474b-b94e-2d5f0d777576","ios":"levelo://app?vid=548175b3-050a-474b-b94e-2d5f0d777576"},"vehicle_type_id":"4","last_reported":1740403071,"current_range_meters":12800,"station_id":"ce4bhn92rcd13ifvqgrg","pricing_plan_id":"cebpf4jnsgd1na2vs0mg"},{"bike_id":"674cb057-5d42-4512-ae8c-448c1f63016b","system_id":"levelo_inurba_marseille","lat":43.30362,"lon":5.39443,"is_reserved":false,"is_disabled":false,"rental_uris":{"android":"levelo://app?vid=674cb057-5d42-4512-ae8c-448c1f63016b","ios":"levelo://app?vid=674cb057-5d42-4512-ae8c-448c1f63016b"},"vehicle_type_id":"4","last_reported":1740403071,"current_range_meters":13600,"station_id":"","pricing_plan_id":"cebpf4jnsgd1na2vs0mg"},{"bike_id":"97a25366-1c78-4005-b59f-6ceb5544794b","system_id":"levelo_inurba_marseille","lat":43.29706,"lon":5.37683,"is_reserved":false,"is_disabled":false,"rental_uris":{"android":"levelo://app?vid=97a25366-1c78-4005-b59f-6ceb5544794b","ios":"levelo://app?vid=97a25366-1c78-4005-b59f-6ceb5544794b"},"vehicle_type_id":"4","last_reported":1740403071,"current_range_meters":14000,"station_id":"ce4bgkh2rcd13ifvqbl0","pricing_plan_id":"cebpf4jnsgd1na2vs0mg"},{"bike_id":"643fc280-ca54-48e7-a137-f1a059dd085c","system_id":"levelo_inurba_marseille","lat":43.24162,"lon":5.39774,"is_reserved":false,"is_disabled":false,"rental_uris":{"android":"levelo://app?vid=643fc280-ca54-48e7-a137-f1a059dd085c","ios":"levelo://app?vid=643fc280-ca54-48e7-a137-f1a059dd085c"},"vehicle_type_id":"4","last_reported":1740403071,"current_range_meters":13600,"station_id":"ce4bhn12rcd13ifvqgpg","pricing_plan_id":"cebpf4jnsgd1na2vs0mg"},{"bike_id":"b32b2208-421b-42ed-9379-1b1cf20aa27f","system_id":"levelo_inurba_marseille","lat":43.31376,"lon":5.38478,"is_reserved":false,"is_disabled":false,"rental_uris":{"android":"levelo://app?vid=b32b2208-421b-42ed-9379-1b1cf20aa27f","ios":"levelo://app?vid=b32b2208-421b-42ed-9379-1b1cf20aa27f"},"vehicle_type_id":"4","last_reported":1740403071,"current_range_meters":13600,"station_id":"ce4bgt92rcd13ifvqcf0","pricing_plan_id":"cebpf4jnsgd1na2vs0mg"},{"bike_id":"a2d983fa-b1df-4cf2-a15e-7a22d4131e2d","system_id":"levelo_inurba_marseille","lat":43.24062,"lon":5.37764,"is_reserved":false,"is_disabled":false,"rental_uris":{"android":"levelo://app?vid=a2d983fa-b1df-4cf2-a15e-7a22d4131e2d","ios":"levelo://app?vid=a2d983fa-b1df-4cf2-a15e-7a22d4131e2d"},"vehicle_type_id":"4","last_reported":1740403071,"current_range_meters":14000,"station_id":"ce4bhnp2rcd13ifvqgvg","pricing_plan_id":"cebpf4jnsgd1na2vs0mg"},{"bike_id":"fc280b11-3990-4c44-a308-fc1a9a8cad45","system_id":"levelo_inurba_marseille","lat":43.30306,"lon":5.39196,"is_reserved":false,"is_disabled":false,"rental_uris":{"android":"levelo://app?vid=fc280b11-3990-4c44-a308-fc1a9a8cad45","ios":"levelo://app?vid=fc280b11-3990-4c44-a308-fc1a9a8cad45"},"vehicle_type_id":"4","last_reported":1740403071,"current_range_meters":14000,"station_id":"ce4bgkh2rcd13ifvqbk0","pricing_plan_id":"cebpf4jnsgd1na2vs0mg"},{"bike_id":"dcfaf5c6-be3a-42e9-9c96-99d4a05b5ac2","system_id":"levelo_inurba_marseille","lat":43.25924,"lon":5.40884,"is_reserved":false,"is_disabled":false,"rental_uris":{"android":"levelo://app?vid=dcfaf5c6-be3a-42e9-9c96-99d4a05b5ac2","ios":"levelo://app?vid=dcfaf5c6-be3a-42e9-9c96-99d4a05b5ac2"},"vehicle_type_id":"4","last_reported":1740403071,"current_range_meters":14000,"station_id":"ce4bhm92rcd13ifvqglg","pricing_plan_id":"cebpf4jnsgd1na2vs0mg"},{"bike_id":"2faea67b-00b9-44f4-86a5-ccca349622da","system_id":"levelo_inurba_marseille","lat":43.2593,"lon":5.40892,"is_reserved":false,"is_disabled":false,"rental_uris":{"android":"levelo://app?vid=2faea67b-00b9-44f4-86a5-ccca349622da","ios":"levelo://app?vid=2faea67b-00b9-44f4-86a5-ccca349622da"},"vehicle_type_id":"4","last_reported":1740403071,"current_range_meters":14000,"station_id":"ce4bhm92rcd13ifvqglg","pricing_plan_id":"cebpf4jnsgd1na2vs0mg"},{"bike_id":"2c79d0e9-b47c-4e9e-90d0-9d0bb000588f","system_id":"levelo_inurba_marseille","lat":43.295227,"lon":5.394063,"is_reserved":false,"is_disabled":false,"rental_uris":{"android":"levelo://app?vid=2c79d0e9-b47c-4e9e-90d0-9d0bb000588f","ios":"levelo://app?vid=2c79d0e9-b47c-4e9e-90d0-9d0bb000588f"},"vehicle_type_id":"4","last_reported":1740403071,"current_range_meters":14000,"station_id":"ce4bh3p2rcd13ifvqdq0","pricing_plan_id":"cebpf4jnsgd1na2vs0mg"},{"bike_id":"6020a2a9-1128-4dce-a02f-1ce369e89d9a","system_id":"levelo_inurba_marseille","lat":43.28463,"lon":5.35893,"is_reserved":false,"is_disabled":false,"rental_uris":{"android":"levelo://app?vid=6020a2a9-1128-4dce-a02f-1ce369e89d9a","ios":"levelo://app?vid=6020a2a9-1128-4dce-a02f-1ce369e89d9a"},"vehicle_type_id":"4","last_reported":1740403071,"current_range_meters":14400,"station_id":"ce4bhah2rcd13ifvqei0","pricing_plan_id":"cebpf4jnsgd1na2vs0mg"},{"bike_id":"e1bc21e3-f669-48b9-a7e6-f99b385ad1ba","system_id":"levelo_inurba_marseille","lat":43.30185,"lon":5.36621,"is_reserved":false,"is_disabled":false,"rental_uris":{"android":"levelo://app?vid=e1bc21e3-f669-48b9-a7e6-f99b385ad1ba","ios":"levelo://app?vid=e1bc21e3-f669-48b9-a7e6-f99b385ad1ba"},"vehicle_type_id":"4","last_reported":1740403071,"current_range_meters":14000,"station_id":"ce4bgrh2rcd13ifvqc8g","pricing_plan_id":"cebpf4jnsgd1na2vs0mg"},{"bike_id":"cde2e6ae-f610-4209-b292-1183ab73619b","system_id":"levelo_inurba_marseille","lat":43.29209,"lon":5.39326,"is_reserved":false,"is_disabled":false,"rental_uris":{"android":"levelo://app?vid=cde2e6ae-f610-4209-b292-1183ab73619b","ios":"levelo://app?vid=cde2e6ae-f610-4209-b292-1183ab73619b"},"vehicle_type_id":"4","last_reported":1740403071,"current_range_meters":14800,"station_id":"ce4bh192rcd13ifvqdd0","pricing_plan_id":"cebpf4jnsgd1na2vs0mg"},{"bike_id":"27a3e911-3015-4fe1-95db-9084e087a055","system_id":"levelo_inurba_marseille","lat":43.27495,"lon":5.4251,"is_reserved":false,"is_disabled":false,"rental_uris":{"android":"levelo://app?vid=27a3e911-3015-4fe1-95db-9084e087a055","ios":"levelo://app?vid=27a3e911-3015-4fe1-95db-9084e087a055"},"vehicle_type_id":"4","last_reported":1740403071,"current_range_meters":15200,"station_id":"ce4bhn92rcd13ifvqgrg","pricing_plan_id":"cebpf4jnsgd1na2vs0mg"},{"bike_id":"130ab319-f673-4e36-9717-343d196c6cce","system_id":"levelo_inurba_marseille","lat":43.23202,"lon":5.39964,"is_reserved":false,"is_disabled":false,"rental_uris":{"android":"levelo://app?vid=130ab319-f673-4e36-9717-343d196c6cce","ios":"levelo://app?vid=130ab319-f673-4e36-9717-343d196c6cce"},"vehicle_type_id":"4","last_reported":1740403071,"current_range_meters":14800,"station_id":"ce4bhn12rcd13ifvqgqg","pricing_plan_id":"cebpf4jnsgd1na2vs0mg"},{"bike_id":"8b205258-8de8-4704-a7d9-58229027ffdb","system_id":"levelo_inurba_marseille","lat":43.24074,"lon":5.37748,"is_reserved":false,"is_disabled":false,"rental_uris":{"android":"levelo://app?vid=8b205258-8de8-4704-a7d9-58229027ffdb","ios":"levelo://app?vid=8b205258-8de8-4704-a7d9-58229027ffdb"},"vehicle_type_id":"4","last_reported":1740403071,"current_range_meters":14800,"station_id":"ce4bhnp2rcd13ifvqgvg","pricing_plan_id":"cebpf4jnsgd1na2vs0mg"},{"bike_id":"dc86b0d3-3360-49b4-9f3f-5c2f2e8eb085","system_id":"levelo_inurba_marseille","lat":43.23957,"lon":5.36665,"is_reserved":false,"is_disabled":false,"rental_uris":{"android":"levelo://app?vid=dc86b0d3-3360-49b4-9f3f-5c2f2e8eb085","ios":"levelo://app?vid=dc86b0d3-3360-49b4-9f3f-5c2f2e8eb085"},"vehicle_type_id":"4","last_reported":1740403071,"current_range_meters":15200,"station_id":"ce4bhi12rcd13ifvqfp0","pricing_plan_id":"cebpf4jnsgd1na2vs0mg"},{"bike_id":"7aefbfc4-5f49-4894-b981-02afda4d51a5","system_id":"levelo_inurba_marseille","lat":43.30303,"lon":5.36884,"is_reserved":false,"is_disabled":false,"rental_uris":{"android":"levelo://app?vid=7aefbfc4-5f49-4894-b981-02afda4d51a5","ios":"levelo://app?vid=7aefbfc4-5f49-4894-b981-02afda4d51a5"},"vehicle_type_id":"4","last_reported":1740403071,"current_range_meters":14800,"station_id":"ce4bgqh2rcd13ifvqc5g","pricing_plan_id":"cebpf4jnsgd1na2vs0mg"},{"bike_id":"dacd6abf-57c0-4371-947d-3111646be974","system_id":"levelo_inurba_marseille","lat":43.2848,"lon":5.36919,"is_reserved":false,"is_disabled":true,"rental_uris":{"android":"levelo://app?vid=dacd6abf-57c0-4371-947d-3111646be974","ios":"levelo://app?vid=dacd6abf-57c0-4371-947d-3111646be974"},"vehicle_type_id":"4","last_reported":1740403071,"current_range_meters":15200,"station_id":"","pricing_plan_id":"cebpf4jnsgd1na2vs0mg"},{"bike_id":"c010e87c-21ab-488e-a5e6-3639b3df3e60","system_id":"levelo_inurba_marseille","lat":43.26556,"lon":5.37286,"is_reserved":false,"is_disabled":false,"rental_uris":{"android":"levelo://app?vid=c010e87c-21ab-488e-a5e6-3639b3df3e60","ios":"levelo://app?vid=c010e87c-21ab-488e-a5e6-3639b3df3e60"},"vehicle_type_id":"4","last_reported":1740403071,"current_range_meters":16000,"station_id":"ce4bhg12rcd13ifvqf70","pricing_plan_id":"cebpf4jnsgd1na2vs0mg"},{"bike_id":"8f44dda1-9d79-448e-8863-709f19de9a07","system_id":"levelo_inurba_marseille","lat":43.31222,"lon":5.37226,"is_reserved":false,"is_disabled":false,"rental_uris":{"android":"levelo://app?vid=8f44dda1-9d79-448e-8863-709f19de9a07","ios":"levelo://app?vid=8f44dda1-9d79-448e-8863-709f19de9a07"},"vehicle_type_id":"4","last_reported":1740403071,"current_range_meters":16000,"station_id":"","pricing_plan_id":"cebpf4jnsgd1na2vs0mg"},{"bike_id":"6f9eb619-ce1a-440a-9085-673242f78425","system_id":"levelo_inurba_marseille","lat":43.29496,"lon":5.37529,"is_reserved":false,"is_disabled":true,"rental_uris":{"android":"levelo://app?vid=6f9eb619-ce1a-440a-9085-673242f78425","ios":"levelo://app?vid=6f9eb619-ce1a-440a-9085-673242f78425"},"vehicle_type_id":"4","last_reported":1740403071,"current_range_meters":16000,"station_id":"","pricing_plan_id":"cebpf4jnsgd1na2vs0mg"},{"bike_id":"6fc8bfba-9629-44ad-8ed1-59ae03ef3456","system_id":"levelo_inurba_marseille","lat":43.29269,"lon":5.36851,"is_reserved":false,"is_disabled":false,"rental_uris":{"android":"levelo://app?vid=6fc8bfba-9629-44ad-8ed1-59ae03ef3456","ios":"levelo://app?vid=6fc8bfba-9629-44ad-8ed1-59ae03ef3456"},"vehicle_type_id":"4","last_reported":1740403071,"current_range_meters":16000,"station_id":"ce4bhbp2rcd13ifvqesg","pricing_plan_id":"cebpf4jnsgd1na2vs0mg"},{"bike_id":"1f746e09-2505-460e-8b8c-d7526c455178","system_id":"levelo_inurba_marseille","lat":43.24188,"lon":5.39736,"is_reserved":false,"is_disabled":false,"rental_uris":{"android":"levelo://app?vid=1f746e09-2505-460e-8b8c-d7526c455178","ios":"levelo://app?vid=1f746e09-2505-460e-8b8c-d7526c455178"},"vehicle_type_id":"4","last_reported":1740403071,"current_range_meters":16000,"station_id":"ce4bhn12rcd13ifvqgpg","pricing_plan_id":"cebpf4jnsgd1na2vs0mg"},{"bike_id":"9dbf9022-dd6b-44ca-830c-2dc8a8caf0f3","system_id":"levelo_inurba_marseille","lat":43.28341,"lon":5.38113,"is_reserved":false,"is_disabled":false,"rental_uris":{"android":"levelo://app?vid=9dbf9022-dd6b-44ca-830c-2dc8a8caf0f3","ios":"levelo://app?vid=9dbf9022-dd6b-44ca-830c-2dc8a8caf0f3"},"vehicle_type_id":"4","last_reported":1740403071,"current_range_meters":14800,"station_id":"ce4bh412rcd13ifvqdr0","pricing_plan_id":"cebpf4jnsgd1na2vs0mg"},{"bike_id":"8e3e6f13-2d9f-4b9c-9895-8df836891ed8","system_id":"levelo_inurba_marseille","lat":43.30543,"lon":5.36701,"is_reserved":false,"is_disabled":false,"rental_uris":{"android":"levelo://app?vid=8e3e6f13-2d9f-4b9c-9895-8df836891ed8","ios":"levelo://app?vid=8e3e6f13-2d9f-4b9c-9895-8df836891ed8"},"vehicle_type_id":"4","last_reported":1740403071,"current_range_meters":16000,"station_id":"ce4bgrp2rcd13ifvqc9g","pricing_plan_id":"cebpf4jnsgd1na2vs0mg"},{"bike_id":"5f59e386-4d68-474b-8c55-e0c5b5b16bde","system_id":"levelo_inurba_marseille","lat":43.28036,"lon":5.36946,"is_reserved":false,"is_disabled":false,"rental_uris":{"android":"levelo://app?vid=5f59e386-4d68-474b-8c55-e0c5b5b16bde","ios":"levelo://app?vid=5f59e386-4d68-474b-8c55-e0c5b5b16bde"},"vehicle_type_id":"4","last_reported":1740403071,"current_range_meters":15200,"station_id":"ce4bha12rcd13ifvqef0","pricing_plan_id":"cebpf4jnsgd1na2vs0mg"},{"bike_id":"ca364d26-fd85-449e-b5fb-16acdafc47f2","system_id":"levelo_inurba_marseille","lat":43.27997,"lon":5.40012,"is_reserved":false,"is_disabled":false,"rental_uris":{"android":"levelo://app?vid=ca364d26-fd85-449e-b5fb-16acdafc47f2","ios":"levelo://app?vid=ca364d26-fd85-449e-b5fb-16acdafc47f2"},"vehicle_type_id":"4","last_reported":1740403071,"current_range_meters":16000,"station_id":"ce4bho92rcd13ifvqh4g","pricing_plan_id":"cebpf4jnsgd1na2vs0mg"},{"bike_id":"51bffffd-b5c9-47a5-b13d-6a2437e7bb7b","system_id":"levelo_inurba_marseille","lat":43.29603,"lon":5.381,"is_reserved":false,"is_disabled":false,"rental_uris":{"android":"levelo://app?vid=51bffffd-b5c9-47a5-b13d-6a2437e7bb7b","ios":"levelo://app?vid=51bffffd-b5c9-47a5-b13d-6a2437e7bb7b"},"vehicle_type_id":"4","last_reported":1740403071,"current_range_meters":16000,"station_id":"ce4bgl12rcd13ifvqbo0","pricing_plan_id":"cebpf4jnsgd1na2vs0mg"},{"bike_id":"abef7188-d18a-451c-9be1-a5cb1a90671b","system_id":"levelo_inurba_marseille","lat":43.23066,"lon":5.35486,"is_reserved":false,"is_disabled":false,"rental_uris":{"android":"levelo://app?vid=abef7188-d18a-451c-9be1-a5cb1a90671b","ios":"levelo://app?vid=abef7188-d18a-451c-9be1-a5cb1a90671b"},"vehicle_type_id":"4","last_reported":1740403071,"current_range_meters":16400,"station_id":"","pricing_plan_id":"cebpf4jnsgd1na2vs0mg"},{"bike_id":"fd880d6c-2406-4655-9519-fcef16eff44e","system_id":"levelo_inurba_marseille","lat":43.30652,"lon":5.40092,"is_reserved":false,"is_disabled":true,"rental_uris":{"android":"levelo://app?vid=fd880d6c-2406-4655-9519-fcef16eff44e","ios":"levelo://app?vid=fd880d6c-2406-4655-9519-fcef16eff44e"},"vehicle_type_id":"4","last_reported":1740403071,"current_range_meters":16400,"station_id":"ce4bh112rcd13ifvqda0","pricing_plan_id":"cebpf4jnsgd1na2vs0mg"},{"bike_id":"d2610799-3b25-4010-8a8a-a9ba4108f5fb","system_id":"levelo_inurba_marseille","lat":43.24999,"lon":5.38926,"is_reserved":false,"is_disabled":false,"rental_uris":{"android":"levelo://app?vid=d2610799-3b25-4010-8a8a-a9ba4108f5fb","ios":"levelo://app?vid=d2610799-3b25-4010-8a8a-a9ba4108f5fb"},"vehicle_type_id":"4","last_reported":1740403071,"current_range_meters":16400,"station_id":"ce4bhgp2rcd13ifvqfd0","pricing_plan_id":"cebpf4jnsgd1na2vs0mg"},{"bike_id":"d73be7fc-bd8e-4a5f-906b-2de8c25e8bbe","system_id":"levelo_inurba_marseille","lat":43.30589,"lon":5.39353,"is_reserved":false,"is_disabled":false,"rental_uris":{"android":"levelo://app?vid=d73be7fc-bd8e-4a5f-906b-2de8c25e8bbe","ios":"levelo://app?vid=d73be7fc-bd8e-4a5f-906b-2de8c25e8bbe"},"vehicle_type_id":"4","last_reported":1740403071,"current_range_meters":16400,"station_id":"ce4bh0p2rcd13ifvqd80","pricing_plan_id":"cebpf4jnsgd1na2vs0mg"},{"bike_id":"8327d23a-b6d3-4bf1-a839-8b7f79e0692d","system_id":"levelo_inurba_marseille","lat":43.28412,"lon":5.37518,"is_reserved":false,"is_disabled":false,"rental_uris":{"android":"levelo://app?vid=8327d23a-b6d3-4bf1-a839-8b7f79e0692d","ios":"levelo://app?vid=8327d23a-b6d3-4bf1-a839-8b7f79e0692d"},"vehicle_type_id":"4","last_reported":1740403071,"current_range_meters":16400,"station_id":"ce4bh412rcd13ifvqds0","pricing_plan_id":"cebpf4jnsgd1na2vs0mg"},{"bike_id":"45a19c8e-2d94-4018-8646-3507003fa4a6","system_id":"levelo_inurba_marseille","lat":43.27494,"lon":5.42461,"is_reserved":false,"is_disabled":false,"rental_uris":{"android":"levelo://app?vid=45a19c8e-2d94-4018-8646-3507003fa4a6","ios":"levelo://app?vid=45a19c8e-2d94-4018-8646-3507003fa4a6"},"vehicle_type_id":"4","last_reported":1740403071,"current_range_meters":16800,"station_id":"ce4bhn92rcd13ifvqgrg","pricing_plan_id":"cebpf4jnsgd1na2vs0mg"},{"bike_id":"f89ee3a4-947e-4d70-b193-dacc472a02ff","system_id":"levelo_inurba_marseille","lat":43.29579,"lon":5.3674,"is_reserved":false,"is_disabled":false,"rental_uris":{"android":"levelo://app?vid=f89ee3a4-947e-4d70-b193-dacc472a02ff","ios":"levelo://app?vid=f89ee3a4-947e-4d70-b193-dacc472a02ff"},"vehicle_type_id":"4","last_reported":1740403071,"current_range_meters":16800,"station_id":"ce4bgph2rcd13ifvqc2g","pricing_plan_id":"cebpf4jnsgd1na2vs0mg"},{"bike_id":"5cc477ad-0769-40c3-b877-b7c07bd3bbeb","system_id":"levelo_inurba_marseille","lat":43.296904,"lon":5.397676,"is_reserved":false,"is_disabled":false,"rental_uris":{"android":"levelo://app?vid=5cc477ad-0769-40c3-b877-b7c07bd3bbeb","ios":"levelo://app?vid=5cc477ad-0769-40c3-b877-b7c07bd3bbeb"},"vehicle_type_id":"4","last_reported":1740403071,"current_range_meters":16400,"station_id":"ce4bhi12rcd13ifvqfo0","pricing_plan_id":"cebpf4jnsgd1na2vs0mg"},{"bike_id":"e5deb594-c1a2-4437-84f4-04984020f537","system_id":"levelo_inurba_marseille","lat":43.29929,"lon":5.36565,"is_reserved":false,"is_disabled":false,"rental_uris":{"android":"levelo://app?vid=e5deb594-c1a2-4437-84f4-04984020f537","ios":"levelo://app?vid=e5deb594-c1a2-4437-84f4-04984020f537"},"vehicle_type_id":"4","last_reported":1740403071,"current_range_meters":16800,"station_id":"ce4bgm92rcd13ifvqbr0","pricing_plan_id":"cebpf4jnsgd1na2vs0mg"},{"bike_id":"490e0b2f-1cb1-49dd-90c6-d8ed026aeda8","system_id":"levelo_inurba_marseille","lat":43.30533,"lon":5.36704,"is_reserved":false,"is_disabled":false,"rental_uris":{"android":"levelo://app?vid=490e0b2f-1cb1-49dd-90c6-d8ed026aeda8","ios":"levelo://app?vid=490e0b2f-1cb1-49dd-90c6-d8ed026aeda8"},"vehicle_type_id":"4","last_reported":1740403071,"current_range_meters":16800,"station_id":"ce4bgrp2rcd13ifvqc9g","pricing_plan_id":"cebpf4jnsgd1na2vs0mg"},{"bike_id":"b0956cd4-a0d3-4419-85b7-205c3d19c002","system_id":"levelo_inurba_marseille","lat":43.31333,"lon":5.39699,"is_reserved":false,"is_disabled":false,"rental_uris":{"android":"levelo://app?vid=b0956cd4-a0d3-4419-85b7-205c3d19c002","ios":"levelo://app?vid=b0956cd4-a0d3-4419-85b7-205c3d19c002"},"vehicle_type_id":"4","last_reported":1740403071,"current_range_meters":16800,"station_id":"ce4bgvp2rcd13ifvqcu0","pricing_plan_id":"cebpf4jnsgd1na2vs0mg"},{"bike_id":"8a0b1c74-0182-4a4a-bb2e-fc624cd3a83f","system_id":"levelo_inurba_marseille","lat":43.30448,"lon":5.37915,"is_reserved":false,"is_disabled":false,"rental_uris":{"android":"levelo://app?vid=8a0b1c74-0182-4a4a-bb2e-fc624cd3a83f","ios":"levelo://app?vid=8a0b1c74-0182-4a4a-bb2e-fc624cd3a83f"},"vehicle_type_id":"4","last_reported":1740403071,"current_range_meters":17200,"station_id":"ce4bgup2rcd13ifvqcn0","pricing_plan_id":"cebpf4jnsgd1na2vs0mg"},{"bike_id":"cb951299-7e93-45e0-b5cf-ec11c74e3ace","system_id":"levelo_inurba_marseille","lat":43.30926,"lon":5.40163,"is_reserved":false,"is_disabled":false,"rental_uris":{"android":"levelo://app?vid=cb951299-7e93-45e0-b5cf-ec11c74e3ace","ios":"levelo://app?vid=cb951299-7e93-45e0-b5cf-ec11c74e3ace"},"vehicle_type_id":"4","last_reported":1740403071,"current_range_meters":17200,"station_id":"ce4bgvp2rcd13ifvqct0","pricing_plan_id":"cebpf4jnsgd1na2vs0mg"},{"bike_id":"05f51bd6-bf8c-4b6c-ba2f-d7bf7cec3006","system_id":"levelo_inurba_marseille","lat":43.23198,"lon":5.35586,"is_reserved":false,"is_disabled":false,"rental_uris":{"android":"levelo://app?vid=05f51bd6-bf8c-4b6c-ba2f-d7bf7cec3006","ios":"levelo://app?vid=05f51bd6-bf8c-4b6c-ba2f-d7bf7cec3006"},"vehicle_type_id":"4","last_reported":1740403071,"current_range_meters":17200,"station_id":"ce4bhu92rcd13ifvqi70","pricing_plan_id":"cebpf4jnsgd1na2vs0mg"},{"bike_id":"fa0af912-b51f-408f-a049-c8e97ad929a8","system_id":"levelo_inurba_marseille","lat":43.25721,"lon":5.41115,"is_reserved":false,"is_disabled":false,"rental_uris":{"android":"levelo://app?vid=fa0af912-b51f-408f-a049-c8e97ad929a8","ios":"levelo://app?vid=fa0af912-b51f-408f-a049-c8e97ad929a8"},"vehicle_type_id":"4","last_reported":1740403071,"current_range_meters":17200,"station_id":"ce4bhkp2rcd13ifvqgd0","pricing_plan_id":"cebpf4jnsgd1na2vs0mg"},{"bike_id":"ee83707b-16c2-4154-8c55-dd06ab591e73","system_id":"levelo_inurba_marseille","lat":43.32374,"lon":5.3676,"is_reserved":false,"is_disabled":false,"rental_uris":{"android":"levelo://app?vid=ee83707b-16c2-4154-8c55-dd06ab591e73","ios":"levelo://app?vid=ee83707b-16c2-4154-8c55-dd06ab591e73"},"vehicle_type_id":"4","last_reported":1740403071,"current_range_meters":17200,"station_id":"ce4bhsh2rcd13ifvqi2g","pricing_plan_id":"cebpf4jnsgd1na2vs0mg"},{"bike_id":"846e1578-1f04-4c98-bc6c-9950f2a1d347","system_id":"levelo_inurba_marseille","lat":43.27072,"lon":5.4228,"is_reserved":false,"is_disabled":false,"rental_uris":{"android":"levelo://app?vid=846e1578-1f04-4c98-bc6c-9950f2a1d347","ios":"levelo://app?vid=846e1578-1f04-4c98-bc6c-9950f2a1d347"},"vehicle_type_id":"4","last_reported":1740403071,"current_range_meters":17600,"station_id":"ce4bhk92rcd13ifvqgb0","pricing_plan_id":"cebpf4jnsgd1na2vs0mg"},{"bike_id":"f6f8c3a5-484e-4733-89b4-8125aa6e5bb6","system_id":"levelo_inurba_marseille","lat":43.26201,"lon":5.37923,"is_reserved":false,"is_disabled":false,"rental_uris":{"android":"levelo://app?vid=f6f8c3a5-484e-4733-89b4-8125aa6e5bb6","ios":"levelo://app?vid=f6f8c3a5-484e-4733-89b4-8125aa6e5bb6"},"vehicle_type_id":"4","last_reported":1740403071,"current_range_meters":17200,"station_id":"ce4bhjp2rcd13ifvqg90","pricing_plan_id":"cebpf4jnsgd1na2vs0mg"},{"bike_id":"254b67b1-580a-4ebb-b883-ef27f702d657","system_id":"levelo_inurba_marseille","lat":43.28155,"lon":5.4264,"is_reserved":false,"is_disabled":false,"rental_uris":{"android":"levelo://app?vid=254b67b1-580a-4ebb-b883-ef27f702d657","ios":"levelo://app?vid=254b67b1-580a-4ebb-b883-ef27f702d657"},"vehicle_type_id":"4","last_reported":1740403071,"current_range_meters":17600,"station_id":"ce4bhnh2rcd13ifvqgug","pricing_plan_id":"cebpf4jnsgd1na2vs0mg"},{"bike_id":"be1807f1-3ff8-4d68-bfa3-1bcc169ac2a8","system_id":"levelo_inurba_marseille","lat":43.23147,"lon":5.43742,"is_reserved":false,"is_disabled":false,"rental_uris":{"android":"levelo://app?vid=be1807f1-3ff8-4d68-bfa3-1bcc169ac2a8","ios":"levelo://app?vid=be1807f1-3ff8-4d68-bfa3-1bcc169ac2a8"},"vehicle_type_id":"4","last_reported":1740403071,"current_range_meters":17600,"station_id":"ce4bhmp2rcd13ifvqgog","pricing_plan_id":"cebpf4jnsgd1na2vs0mg"},{"bike_id":"a5c700a0-c818-486c-a293-e09d72e7fde8","system_id":"levelo_inurba_marseille","lat":43.29214,"lon":5.36059,"is_reserved":false,"is_disabled":false,"rental_uris":{"android":"levelo://app?vid=a5c700a0-c818-486c-a293-e09d72e7fde8","ios":"levelo://app?vid=a5c700a0-c818-486c-a293-e09d72e7fde8"},"vehicle_type_id":"4","last_reported":1740403071,"current_range_meters":17600,"station_id":"ce4bhbh2rcd13ifvqeqg","pricing_plan_id":"cebpf4jnsgd1na2vs0mg"},{"bike_id":"8e150a5e-01e8-4a68-ae8c-cd2dbdd95ca4","system_id":"levelo_inurba_marseille","lat":43.23152,"lon":5.43735,"is_reserved":false,"is_disabled":false,"rental_uris":{"android":"levelo://app?vid=8e150a5e-01e8-4a68-ae8c-cd2dbdd95ca4","ios":"levelo://app?vid=8e150a5e-01e8-4a68-ae8c-cd2dbdd95ca4"},"vehicle_type_id":"4","last_reported":1740403071,"current_range_meters":17600,"station_id":"ce4bhmp2rcd13ifvqgog","pricing_plan_id":"cebpf4jnsgd1na2vs0mg"},{"bike_id":"6f20dd05-a602-49b3-9fbf-ad37e307aa3c","system_id":"levelo_inurba_marseille","lat":43.27668,"lon":5.38902,"is_reserved":false,"is_disabled":false,"rental_uris":{"android":"levelo://app?vid=6f20dd05-a602-49b3-9fbf-ad37e307aa3c","ios":"levelo://app?vid=6f20dd05-a602-49b3-9fbf-ad37e307aa3c"},"vehicle_type_id":"4","last_reported":1740403071,"current_range_meters":18000,"station_id":"ce4bhi12rcd13ifvqfo0","pricing_plan_id":"cebpf4jnsgd1na2vs0mg"},{"bike_id":"1c2f3bdc-68fa-40a8-b99e-fcf41f32f9e4","system_id":"levelo_inurba_marseille","lat":43.292138,"lon":5.405171,"is_reserved":false,"is_disabled":false,"rental_uris":{"android":"levelo://app?vid=1c2f3bdc-68fa-40a8-b99e-fcf41f32f9e4","ios":"levelo://app?vid=1c2f3bdc-68fa-40a8-b99e-fcf41f32f9e4"},"vehicle_type_id":"4","last_reported":1740403071,"current_range_meters":17600,"station_id":"","pricing_plan_id":"cebpf4jnsgd1na2vs0mg"},{"bike_id":"2036f24d-841d-4656-8ff6-76ae435303b7","system_id":"levelo_inurba_marseille","lat":43.29623,"lon":5.37163,"is_reserved":false,"is_disabled":false,"rental_uris":{"android":"levelo://app?vid=2036f24d-841d-4656-8ff6-76ae435303b7","ios":"levelo://app?vid=2036f24d-841d-4656-8ff6-76ae435303b7"},"vehicle_type_id":"4","last_reported":1740403071,"current_range_meters":17600,"station_id":"ce4bgnh2rcd13ifvqc0g","pricing_plan_id":"cebpf4jnsgd1na2vs0mg"},{"bike_id":"a9afe926-b99e-40c4-8f4d-f067936df36b","system_id":"levelo_inurba_marseille","lat":43.32104,"lon":5.36774,"is_reserved":false,"is_disabled":false,"rental_uris":{"android":"levelo://app?vid=a9afe926-b99e-40c4-8f4d-f067936df36b","ios":"levelo://app?vid=a9afe926-b99e-40c4-8f4d-f067936df36b"},"vehicle_type_id":"4","last_reported":1740403071,"current_range_meters":17600,"station_id":"ce4bhrh2rcd13ifvqhug","pricing_plan_id":"cebpf4jnsgd1na2vs0mg"},{"bike_id":"cb776002-bc17-4d37-b8e8-745b86a6f0d2","system_id":"levelo_inurba_marseille","lat":43.3048,"lon":5.37899,"is_reserved":false,"is_disabled":false,"rental_uris":{"android":"levelo://app?vid=cb776002-bc17-4d37-b8e8-745b86a6f0d2","ios":"levelo://app?vid=cb776002-bc17-4d37-b8e8-745b86a6f0d2"},"vehicle_type_id":"4","last_reported":1740403071,"current_range_meters":17600,"station_id":"ce4bgup2rcd13ifvqcn0","pricing_plan_id":"cebpf4jnsgd1na2vs0mg"},{"bike_id":"d2241545-a394-449b-8224-bf4eafbeda95","system_id":"levelo_inurba_marseille","lat":43.2926,"lon":5.37619,"is_reserved":false,"is_disabled":false,"rental_uris":{"android":"levelo://app?vid=d2241545-a394-449b-8224-bf4eafbeda95","ios":"levelo://app?vid=d2241545-a394-449b-8224-bf4eafbeda95"},"vehicle_type_id":"4","last_reported":1740403071,"current_range_meters":17600,"station_id":"ce4bgi12rcd13ifvqb80","pricing_plan_id":"cebpf4jnsgd1na2vs0mg"},{"bike_id":"4ca12fc2-5ec3-4c43-af0f-94fe0f83f18f","system_id":"levelo_inurba_marseille","lat":43.28459,"lon":5.359,"is_reserved":false,"is_disabled":true,"rental_uris":{"android":"levelo://app?vid=4ca12fc2-5ec3-4c43-af0f-94fe0f83f18f","ios":"levelo://app?vid=4ca12fc2-5ec3-4c43-af0f-94fe0f83f18f"},"vehicle_type_id":"4","last_reported":1740403071,"current_range_meters":17600,"station_id":"ce4bhah2rcd13ifvqei0","pricing_plan_id":"cebpf4jnsgd1na2vs0mg"},{"bike_id":"42705695-38a9-49ff-ae24-6ed69a135c74","system_id":"levelo_inurba_marseille","lat":43.30909,"lon":5.36841,"is_reserved":false,"is_disabled":false,"rental_uris":{"android":"levelo://app?vid=42705695-38a9-49ff-ae24-6ed69a135c74","ios":"levelo://app?vid=42705695-38a9-49ff-ae24-6ed69a135c74"},"vehicle_type_id":"4","last_reported":1740403071,"current_range_meters":17600,"station_id":"ce4bgn92rcd13ifvqbvg","pricing_plan_id":"cebpf4jnsgd1na2vs0mg"},{"bike_id":"2675431b-bcdf-4508-b8eb-eea4be9250f7","system_id":"levelo_inurba_marseille","lat":43.26489,"lon":5.3956,"is_reserved":false,"is_disabled":false,"rental_uris":{"android":"levelo://app?vid=2675431b-bcdf-4508-b8eb-eea4be9250f7","ios":"levelo://app?vid=2675431b-bcdf-4508-b8eb-eea4be9250f7"},"vehicle_type_id":"4","last_reported":1740403071,"current_range_meters":18000,"station_id":"ce4bhi12rcd13ifvqfq0","pricing_plan_id":"cebpf4jnsgd1na2vs0mg"},{"bike_id":"db61d5ff-f584-4fa1-aedd-6bbf4e5e52f9","system_id":"levelo_inurba_marseille","lat":43.30307,"lon":5.36888,"is_reserved":false,"is_disabled":false,"rental_uris":{"android":"levelo://app?vid=db61d5ff-f584-4fa1-aedd-6bbf4e5e52f9","ios":"levelo://app?vid=db61d5ff-f584-4fa1-aedd-6bbf4e5e52f9"},"vehicle_type_id":"4","last_reported":1740403071,"current_range_meters":18000,"station_id":"ce4bgqh2rcd13ifvqc5g","pricing_plan_id":"cebpf4jnsgd1na2vs0mg"},{"bike_id":"e9450d61-7e12-49ac-9e64-6fdcd904c3ba","system_id":"levelo_inurba_marseille","lat":43.30305,"lon":5.36911,"is_reserved":false,"is_disabled":false,"rental_uris":{"android":"levelo://app?vid=e9450d61-7e12-49ac-9e64-6fdcd904c3ba","ios":"levelo://app?vid=e9450d61-7e12-49ac-9e64-6fdcd904c3ba"},"vehicle_type_id":"4","last_reported":1740403071,"current_range_meters":18000,"station_id":"ce4bgqh2rcd13ifvqc5g","pricing_plan_id":"cebpf4jnsgd1na2vs0mg"},{"bike_id":"9062f7b6-9c81-49b8-a1bd-5df58202afcd","system_id":"levelo_inurba_marseille","lat":43.31714,"lon":5.43704,"is_reserved":false,"is_disabled":false,"rental_uris":{"android":"levelo://app?vid=9062f7b6-9c81-49b8-a1bd-5df58202afcd","ios":"levelo://app?vid=9062f7b6-9c81-49b8-a1bd-5df58202afcd"},"vehicle_type_id":"4","last_reported":1740403071,"current_range_meters":18000,"station_id":"ce4bhp92rcd13ifvqhcg","pricing_plan_id":"cebpf4jnsgd1na2vs0mg"},{"bike_id":"a1f423f9-dad5-4e4f-8b5c-48069a32f8bb","system_id":"levelo_inurba_marseille","lat":43.3124,"lon":5.36825,"is_reserved":false,"is_disabled":false,"rental_uris":{"android":"levelo://app?vid=a1f423f9-dad5-4e4f-8b5c-48069a32f8bb","ios":"levelo://app?vid=a1f423f9-dad5-4e4f-8b5c-48069a32f8bb"},"vehicle_type_id":"4","last_reported":1740403071,"current_range_meters":18000,"station_id":"ce4bgl92rcd13ifvqbq0","pricing_plan_id":"cebpf4jnsgd1na2vs0mg"},{"bike_id":"6d671fa3-b1ce-4470-905e-4421960aae20","system_id":"levelo_inurba_marseille","lat":43.25931,"lon":5.40889,"is_reserved":false,"is_disabled":false,"rental_uris":{"android":"levelo://app?vid=6d671fa3-b1ce-4470-905e-4421960aae20","ios":"levelo://app?vid=6d671fa3-b1ce-4470-905e-4421960aae20"},"vehicle_type_id":"4","last_reported":1740403071,"current_range_meters":18000,"station_id":"ce4bhm92rcd13ifvqglg","pricing_plan_id":"cebpf4jnsgd1na2vs0mg"},{"bike_id":"8889495f-2701-4dcd-925d-626fbf30f0fe","system_id":"levelo_inurba_marseille","lat":43.24174,"lon":5.39733,"is_reserved":false,"is_disabled":false,"rental_uris":{"android":"levelo://app?vid=8889495f-2701-4dcd-925d-626fbf30f0fe","ios":"levelo://app?vid=8889495f-2701-4dcd-925d-626fbf30f0fe"},"vehicle_type_id":"4","last_reported":1740403071,"current_range_meters":18000,"station_id":"ce4bhn12rcd13ifvqgpg","pricing_plan_id":"cebpf4jnsgd1na2vs0mg"},{"bike_id":"bf2e7b2f-0e01-4436-bd59-b0be5af18ec5","system_id":"levelo_inurba_marseille","lat":43.285796,"lon":5.395059,"is_reserved":false,"is_disabled":false,"rental_uris":{"android":"levelo://app?vid=bf2e7b2f-0e01-4436-bd59-b0be5af18ec5","ios":"levelo://app?vid=bf2e7b2f-0e01-4436-bd59-b0be5af18ec5"},"vehicle_type_id":"4","last_reported":1740403071,"current_range_meters":18000,"station_id":"ce4bh192rcd13ifvqdd0","pricing_plan_id":"cebpf4jnsgd1na2vs0mg"},{"bike_id":"48c9d238-ef44-4ccb-9d08-e828ced5223d","system_id":"levelo_inurba_marseille","lat":43.29033,"lon":5.37565,"is_reserved":false,"is_disabled":false,"rental_uris":{"android":"levelo://app?vid=48c9d238-ef44-4ccb-9d08-e828ced5223d","ios":"levelo://app?vid=48c9d238-ef44-4ccb-9d08-e828ced5223d"},"vehicle_type_id":"4","last_reported":1740403071,"current_range_meters":18000,"station_id":"ce4bh692rcd13ifvqe90","pricing_plan_id":"cebpf4jnsgd1na2vs0mg"},{"bike_id":"38fa9d4b-0a92-4f37-8f79-16dee37e2ee8","system_id":"levelo_inurba_marseille","lat":43.33582,"lon":5.41014,"is_reserved":false,"is_disabled":false,"rental_uris":{"android":"levelo://app?vid=38fa9d4b-0a92-4f37-8f79-16dee37e2ee8","ios":"levelo://app?vid=38fa9d4b-0a92-4f37-8f79-16dee37e2ee8"},"vehicle_type_id":"4","last_reported":1740403071,"current_range_meters":19200,"station_id":"ce4bhqh2rcd13ifvqhmg","pricing_plan_id":"cebpf4jnsgd1na2vs0mg"},{"bike_id":"dd5d5bf7-e3f2-4105-8f7c-d35f0f384e0e","system_id":"levelo_inurba_marseille","lat":43.23186,"lon":5.39992,"is_reserved":false,"is_disabled":false,"rental_uris":{"android":"levelo://app?vid=dd5d5bf7-e3f2-4105-8f7c-d35f0f384e0e","ios":"levelo://app?vid=dd5d5bf7-e3f2-4105-8f7c-d35f0f384e0e"},"vehicle_type_id":"4","last_reported":1740403071,"current_range_meters":18800,"station_id":"ce4bhn12rcd13ifvqgqg","pricing_plan_id":"cebpf4jnsgd1na2vs0mg"},{"bike_id":"f0baf3cd-f5f4-4aa9-9be8-6a00869df268","system_id":"levelo_inurba_marseille","lat":43.23151,"lon":5.43724,"is_reserved":false,"is_disabled":false,"rental_uris":{"android":"levelo://app?vid=f0baf3cd-f5f4-4aa9-9be8-6a00869df268","ios":"levelo://app?vid=f0baf3cd-f5f4-4aa9-9be8-6a00869df268"},"vehicle_type_id":"4","last_reported":1740403071,"current_range_meters":18800,"station_id":"ce4bhmp2rcd13ifvqgog","pricing_plan_id":"cebpf4jnsgd1na2vs0mg"},{"bike_id":"e4fa7fb5-e5b6-4907-9d49-5fcedff49eba","system_id":"levelo_inurba_marseille","lat":43.30886,"lon":5.39658,"is_reserved":false,"is_disabled":false,"rental_uris":{"android":"levelo://app?vid=e4fa7fb5-e5b6-4907-9d49-5fcedff49eba","ios":"levelo://app?vid=e4fa7fb5-e5b6-4907-9d49-5fcedff49eba"},"vehicle_type_id":"4","last_reported":1740403071,"current_range_meters":18000,"station_id":"ce4bh012rcd13ifvqcv0","pricing_plan_id":"cebpf4jnsgd1na2vs0mg"},{"bike_id":"d04b00a2-3377-4469-8edc-7dadf9cdd552","system_id":"levelo_inurba_marseille","lat":43.30799,"lon":5.38164,"is_reserved":false,"is_disabled":false,"rental_uris":{"android":"levelo://app?vid=d04b00a2-3377-4469-8edc-7dadf9cdd552","ios":"levelo://app?vid=d04b00a2-3377-4469-8edc-7dadf9cdd552"},"vehicle_type_id":"4","last_reported":1740403071,"current_range_meters":18000,"station_id":"ce4bgt12rcd13ifvqce0","pricing_plan_id":"cebpf4jnsgd1na2vs0mg"},{"bike_id":"1cc7d386-c0f4-4ead-b949-abf7e37f87fb","system_id":"levelo_inurba_marseille","lat":43.30167,"lon":5.36615,"is_reserved":false,"is_disabled":false,"rental_uris":{"android":"levelo://app?vid=1cc7d386-c0f4-4ead-b949-abf7e37f87fb","ios":"levelo://app?vid=1cc7d386-c0f4-4ead-b949-abf7e37f87fb"},"vehicle_type_id":"4","last_reported":1740403071,"current_range_meters":18800,"station_id":"ce4bgrh2rcd13ifvqc8g","pricing_plan_id":"cebpf4jnsgd1na2vs0mg"},{"bike_id":"a589e050-9a89-4269-80d0-5087bd41da2e","system_id":"levelo_inurba_marseille","lat":43.29709,"lon":5.3661,"is_reserved":false,"is_disabled":false,"rental_uris":{"android":"levelo://app?vid=a589e050-9a89-4269-80d0-5087bd41da2e","ios":"levelo://app?vid=a589e050-9a89-4269-80d0-5087bd41da2e"},"vehicle_type_id":"4","last_reported":1740403071,"current_range_meters":18000,"station_id":"ce4bgn12rcd13ifvqbt0","pricing_plan_id":"cebpf4jnsgd1na2vs0mg"},{"bike_id":"6d06264f-7ad3-4168-855c-0a5c3743dd3d","system_id":"levelo_inurba_marseille","lat":43.29002,"lon":5.3561,"is_reserved":false,"is_disabled":false,"rental_uris":{"android":"levelo://app?vid=6d06264f-7ad3-4168-855c-0a5c3743dd3d","ios":"levelo://app?vid=6d06264f-7ad3-4168-855c-0a5c3743dd3d"},"vehicle_type_id":"4","last_reported":1740403071,"current_range_meters":18800,"station_id":"ce4bhb92rcd13ifvqen0","pricing_plan_id":"cebpf4jnsgd1na2vs0mg"},{"bike_id":"2312afdf-cb58-4b9f-a552-7de3906b7d88","system_id":"levelo_inurba_marseille","lat":43.3148,"lon":5.3731,"is_reserved":false,"is_disabled":false,"rental_uris":{"android":"levelo://app?vid=2312afdf-cb58-4b9f-a552-7de3906b7d88","ios":"levelo://app?vid=2312afdf-cb58-4b9f-a552-7de3906b7d88"},"vehicle_type_id":"4","last_reported":1740403071,"current_range_meters":19200,"station_id":"ce4bgt12rcd13ifvqcd0","pricing_plan_id":"cebpf4jnsgd1na2vs0mg"},{"bike_id":"60845ca1-be6d-44ee-9b29-8736e24de3f4","system_id":"levelo_inurba_marseille","lat":43.27415,"lon":5.39404,"is_reserved":false,"is_disabled":false,"rental_uris":{"android":"levelo://app?vid=60845ca1-be6d-44ee-9b29-8736e24de3f4","ios":"levelo://app?vid=60845ca1-be6d-44ee-9b29-8736e24de3f4"},"vehicle_type_id":"4","last_reported":1740403071,"current_range_meters":19200,"station_id":"ce4bhdp2rcd13ifvqf20","pricing_plan_id":"cebpf4jnsgd1na2vs0mg"},{"bike_id":"7c45866a-bd99-4c12-9747-66203f12a96e","system_id":"levelo_inurba_marseille","lat":43.23126,"lon":5.35506,"is_reserved":false,"is_disabled":false,"rental_uris":{"android":"levelo://app?vid=7c45866a-bd99-4c12-9747-66203f12a96e","ios":"levelo://app?vid=7c45866a-bd99-4c12-9747-66203f12a96e"},"vehicle_type_id":"4","last_reported":1740403071,"current_range_meters":19200,"station_id":"","pricing_plan_id":"cebpf4jnsgd1na2vs0mg"},{"bike_id":"b2565027-7a80-4d71-a8a5-57d64cd3ee74","system_id":"levelo_inurba_marseille","lat":43.32041,"lon":5.41545,"is_reserved":false,"is_disabled":false,"rental_uris":{"android":"levelo://app?vid=b2565027-7a80-4d71-a8a5-57d64cd3ee74","ios":"levelo://app?vid=b2565027-7a80-4d71-a8a5-57d64cd3ee74"},"vehicle_type_id":"4","last_reported":1740403071,"current_range_meters":19200,"station_id":"ce4bhq92rcd13ifvqhkg","pricing_plan_id":"cebpf4jnsgd1na2vs0mg"},{"bike_id":"cb9be10d-df8d-4083-8713-dee630fbf9e9","system_id":"levelo_inurba_marseille","lat":43.24064,"lon":5.37764,"is_reserved":false,"is_disabled":false,"rental_uris":{"android":"levelo://app?vid=cb9be10d-df8d-4083-8713-dee630fbf9e9","ios":"levelo://app?vid=cb9be10d-df8d-4083-8713-dee630fbf9e9"},"vehicle_type_id":"4","last_reported":1740403071,"current_range_meters":19200,"station_id":"ce4bhnp2rcd13ifvqgvg","pricing_plan_id":"cebpf4jnsgd1na2vs0mg"},{"bike_id":"9c8787fc-0f50-420b-aafe-3faf832e130b","system_id":"levelo_inurba_marseille","lat":43.27509,"lon":5.42434,"is_reserved":false,"is_disabled":false,"rental_uris":{"android":"levelo://app?vid=9c8787fc-0f50-420b-aafe-3faf832e130b","ios":"levelo://app?vid=9c8787fc-0f50-420b-aafe-3faf832e130b"},"vehicle_type_id":"4","last_reported":1740403071,"current_range_meters":20400,"station_id":"ce4bhn92rcd13ifvqgrg","pricing_plan_id":"cebpf4jnsgd1na2vs0mg"},{"bike_id":"39c4d6f8-f10a-45ca-b694-73724e1e0daf","system_id":"levelo_inurba_marseille","lat":43.2657,"lon":5.39008,"is_reserved":false,"is_disabled":false,"rental_uris":{"android":"levelo://app?vid=39c4d6f8-f10a-45ca-b694-73724e1e0daf","ios":"levelo://app?vid=39c4d6f8-f10a-45ca-b694-73724e1e0daf"},"vehicle_type_id":"4","last_reported":1740403071,"current_range_meters":20000,"station_id":"ce4bhe12rcd13ifvqf30","pricing_plan_id":"cebpf4jnsgd1na2vs0mg"},{"bike_id":"3b39d8ac-c140-48e7-aaa7-82bed1353112","system_id":"levelo_inurba_marseille","lat":43.25003,"lon":5.38914,"is_reserved":false,"is_disabled":false,"rental_uris":{"android":"levelo://app?vid=3b39d8ac-c140-48e7-aaa7-82bed1353112","ios":"levelo://app?vid=3b39d8ac-c140-48e7-aaa7-82bed1353112"},"vehicle_type_id":"4","last_reported":1740403071,"current_range_meters":19600,"station_id":"ce4bhgp2rcd13ifvqfd0","pricing_plan_id":"cebpf4jnsgd1na2vs0mg"},{"bike_id":"43027549-2013-4416-9be7-a75c294028f6","system_id":"levelo_inurba_marseille","lat":43.23149,"lon":5.43729,"is_reserved":false,"is_disabled":false,"rental_uris":{"android":"levelo://app?vid=43027549-2013-4416-9be7-a75c294028f6","ios":"levelo://app?vid=43027549-2013-4416-9be7-a75c294028f6"},"vehicle_type_id":"4","last_reported":1740403071,"current_range_meters":19600,"station_id":"ce4bhmp2rcd13ifvqgog","pricing_plan_id":"cebpf4jnsgd1na2vs0mg"},{"bike_id":"157a2b8a-e087-40e0-b7cf-61c2cae2f494","system_id":"levelo_inurba_marseille","lat":43.29786,"lon":5.38111,"is_reserved":false,"is_disabled":false,"rental_uris":{"android":"levelo://app?vid=157a2b8a-e087-40e0-b7cf-61c2cae2f494","ios":"levelo://app?vid=157a2b8a-e087-40e0-b7cf-61c2cae2f494"},"vehicle_type_id":"4","last_reported":1740403071,"current_range_meters":19600,"station_id":"ce4bgip2rcd13ifvqbb0","pricing_plan_id":"cebpf4jnsgd1na2vs0mg"},{"bike_id":"b210f713-12c8-4fd0-92dc-f054b986f7b7","system_id":"levelo_inurba_marseille","lat":43.298655,"lon":5.397269,"is_reserved":false,"is_disabled":false,"rental_uris":{"android":"levelo://app?vid=b210f713-12c8-4fd0-92dc-f054b986f7b7","ios":"levelo://app?vid=b210f713-12c8-4fd0-92dc-f054b986f7b7"},"vehicle_type_id":"4","last_reported":1740403071,"current_range_meters":19200,"station_id":"ce4bh112rcd13ifvqda0","pricing_plan_id":"cebpf4jnsgd1na2vs0mg"},{"bike_id":"db0b36f7-7193-4d57-a2c4-a12c8fac139c","system_id":"levelo_inurba_marseille","lat":43.28702,"lon":5.39985,"is_reserved":false,"is_disabled":false,"rental_uris":{"android":"levelo://app?vid=db0b36f7-7193-4d57-a2c4-a12c8fac139c","ios":"levelo://app?vid=db0b36f7-7193-4d57-a2c4-a12c8fac139c"},"vehicle_type_id":"4","last_reported":1740403071,"current_range_meters":19600,"station_id":"ce4bho92rcd13ifvqh3g","pricing_plan_id":"cebpf4jnsgd1na2vs0mg"},{"bike_id":"d39fa3c7-b4d2-4b54-a1ff-d67057b264a1","system_id":"levelo_inurba_marseille","lat":43.26787,"lon":5.39391,"is_reserved":false,"is_disabled":false,"rental_uris":{"android":"levelo://app?vid=d39fa3c7-b4d2-4b54-a1ff-d67057b264a1","ios":"levelo://app?vid=d39fa3c7-b4d2-4b54-a1ff-d67057b264a1"},"vehicle_type_id":"4","last_reported":1740403071,"current_range_meters":19600,"station_id":"ce4bhh12rcd13ifvqfg0","pricing_plan_id":"cebpf4jnsgd1na2vs0mg"},{"bike_id":"f9da9abe-e6c6-4031-992d-baa0b568b64a","system_id":"levelo_inurba_marseille","lat":43.24187,"lon":5.3973,"is_reserved":false,"is_disabled":false,"rental_uris":{"android":"levelo://app?vid=f9da9abe-e6c6-4031-992d-baa0b568b64a","ios":"levelo://app?vid=f9da9abe-e6c6-4031-992d-baa0b568b64a"},"vehicle_type_id":"4","last_reported":1740403071,"current_range_meters":20000,"station_id":"ce4bhn12rcd13ifvqgpg","pricing_plan_id":"cebpf4jnsgd1na2vs0mg"},{"bike_id":"1001cd2c-f913-41d1-b3bb-8cb83bf66c39","system_id":"levelo_inurba_marseille","lat":43.23179,"lon":5.40001,"is_reserved":false,"is_disabled":false,"rental_uris":{"android":"levelo://app?vid=1001cd2c-f913-41d1-b3bb-8cb83bf66c39","ios":"levelo://app?vid=1001cd2c-f913-41d1-b3bb-8cb83bf66c39"},"vehicle_type_id":"4","last_reported":1740403071,"current_range_meters":19600,"station_id":"ce4bhn12rcd13ifvqgqg","pricing_plan_id":"cebpf4jnsgd1na2vs0mg"},{"bike_id":"294e9c0c-f0a6-41fb-a4c2-8d575fdc208e","system_id":"levelo_inurba_marseille","lat":43.30465,"lon":5.37914,"is_reserved":false,"is_disabled":false,"rental_uris":{"android":"levelo://app?vid=294e9c0c-f0a6-41fb-a4c2-8d575fdc208e","ios":"levelo://app?vid=294e9c0c-f0a6-41fb-a4c2-8d575fdc208e"},"vehicle_type_id":"4","last_reported":1740403071,"current_range_meters":20000,"station_id":"ce4bgup2rcd13ifvqcn0","pricing_plan_id":"cebpf4jnsgd1na2vs0mg"},{"bike_id":"05b9f403-f224-47e0-887c-862d2dce55e3","system_id":"levelo_inurba_marseille","lat":43.32499,"lon":5.36557,"is_reserved":false,"is_disabled":false,"rental_uris":{"android":"levelo://app?vid=05b9f403-f224-47e0-887c-862d2dce55e3","ios":"levelo://app?vid=05b9f403-f224-47e0-887c-862d2dce55e3"},"vehicle_type_id":"4","last_reported":1740403071,"current_range_meters":20000,"station_id":"ce4bhs12rcd13ifvqhvg","pricing_plan_id":"cebpf4jnsgd1na2vs0mg"},{"bike_id":"9eac2746-8092-4d6b-922c-fe301b638772","system_id":"levelo_inurba_marseille","lat":43.29975,"lon":5.38495,"is_reserved":false,"is_disabled":false,"rental_uris":{"android":"levelo://app?vid=9eac2746-8092-4d6b-922c-fe301b638772","ios":"levelo://app?vid=9eac2746-8092-4d6b-922c-fe301b638772"},"vehicle_type_id":"4","last_reported":1740403071,"current_range_meters":19600,"station_id":"ce4bgj92rcd13ifvqbd0","pricing_plan_id":"cebpf4jnsgd1na2vs0mg"},{"bike_id":"7ffb6d41-e0b3-455c-9e71-56128f670693","system_id":"levelo_inurba_marseille","lat":43.29194,"lon":5.39322,"is_reserved":false,"is_disabled":false,"rental_uris":{"android":"levelo://app?vid=7ffb6d41-e0b3-455c-9e71-56128f670693","ios":"levelo://app?vid=7ffb6d41-e0b3-455c-9e71-56128f670693"},"vehicle_type_id":"4","last_reported":1740403071,"current_range_meters":20000,"station_id":"ce4bh192rcd13ifvqdd0","pricing_plan_id":"cebpf4jnsgd1na2vs0mg"},{"bike_id":"9c5a038e-ea5d-4516-905d-52b9c56c1ad7","system_id":"levelo_inurba_marseille","lat":43.24542,"lon":5.39531,"is_reserved":false,"is_disabled":false,"rental_uris":{"android":"levelo://app?vid=9c5a038e-ea5d-4516-905d-52b9c56c1ad7","ios":"levelo://app?vid=9c5a038e-ea5d-4516-905d-52b9c56c1ad7"},"vehicle_type_id":"4","last_reported":1740403071,"current_range_meters":20000,"station_id":"ce4bhlp2rcd13ifvqgjg","pricing_plan_id":"cebpf4jnsgd1na2vs0mg"},{"bike_id":"2c55bc8d-76e2-4163-892a-ed039a7b93f3","system_id":"levelo_inurba_marseille","lat":43.29006,"lon":5.35616,"is_reserved":false,"is_disabled":false,"rental_uris":{"android":"levelo://app?vid=2c55bc8d-76e2-4163-892a-ed039a7b93f3","ios":"levelo://app?vid=2c55bc8d-76e2-4163-892a-ed039a7b93f3"},"vehicle_type_id":"4","last_reported":1740403071,"current_range_meters":19600,"station_id":"ce4bhb92rcd13ifvqen0","pricing_plan_id":"cebpf4jnsgd1na2vs0mg"},{"bike_id":"0ab6615e-a910-4815-a705-f66a1611c63f","system_id":"levelo_inurba_marseille","lat":43.27498,"lon":5.42455,"is_reserved":false,"is_disabled":false,"rental_uris":{"android":"levelo://app?vid=0ab6615e-a910-4815-a705-f66a1611c63f","ios":"levelo://app?vid=0ab6615e-a910-4815-a705-f66a1611c63f"},"vehicle_type_id":"4","last_reported":1740403071,"current_range_meters":20000,"station_id":"ce4bhn92rcd13ifvqgrg","pricing_plan_id":"cebpf4jnsgd1na2vs0mg"},{"bike_id":"78f22b5a-6bf3-4a7f-9bfd-ce237d136f3e","system_id":"levelo_inurba_marseille","lat":43.29886,"lon":5.38905,"is_reserved":false,"is_disabled":false,"rental_uris":{"android":"levelo://app?vid=78f22b5a-6bf3-4a7f-9bfd-ce237d136f3e","ios":"levelo://app?vid=78f22b5a-6bf3-4a7f-9bfd-ce237d136f3e"},"vehicle_type_id":"4","last_reported":1740403071,"current_range_meters":19600,"station_id":"ce4bh392rcd13ifvqdl0","pricing_plan_id":"cebpf4jnsgd1na2vs0mg"},{"bike_id":"19eb3738-1d23-4126-bd32-48c1a132784d","system_id":"levelo_inurba_marseille","lat":43.24072,"lon":5.37765,"is_reserved":false,"is_disabled":false,"rental_uris":{"android":"levelo://app?vid=19eb3738-1d23-4126-bd32-48c1a132784d","ios":"levelo://app?vid=19eb3738-1d23-4126-bd32-48c1a132784d"},"vehicle_type_id":"4","last_reported":1740403071,"current_range_meters":20000,"station_id":"ce4bhnp2rcd13ifvqgvg","pricing_plan_id":"cebpf4jnsgd1na2vs0mg"},{"bike_id":"29dc4a04-5778-413c-bda9-7b3a26699511","system_id":"levelo_inurba_marseille","lat":43.2695,"lon":5.38631,"is_reserved":false,"is_disabled":false,"rental_uris":{"android":"levelo://app?vid=29dc4a04-5778-413c-bda9-7b3a26699511","ios":"levelo://app?vid=29dc4a04-5778-413c-bda9-7b3a26699511"},"vehicle_type_id":"4","last_reported":1740403071,"current_range_meters":19600,"station_id":"ce4bhh92rcd13ifvqfh0","pricing_plan_id":"cebpf4jnsgd1na2vs0mg"},{"bike_id":"f89f27f9-d18f-4888-b147-5f0109eeb79d","system_id":"levelo_inurba_marseille","lat":43.24076,"lon":5.37755,"is_reserved":false,"is_disabled":false,"rental_uris":{"android":"levelo://app?vid=f89f27f9-d18f-4888-b147-5f0109eeb79d","ios":"levelo://app?vid=f89f27f9-d18f-4888-b147-5f0109eeb79d"},"vehicle_type_id":"4","last_reported":1740403071,"current_range_meters":20000,"station_id":"ce4bhnp2rcd13ifvqgvg","pricing_plan_id":"cebpf4jnsgd1na2vs0mg"},{"bike_id":"97f04c5a-7acb-49a0-90f5-8cb7871b7af0","system_id":"levelo_inurba_marseille","lat":43.25896,"lon":5.40859,"is_reserved":false,"is_disabled":false,"rental_uris":{"android":"levelo://app?vid=97f04c5a-7acb-49a0-90f5-8cb7871b7af0","ios":"levelo://app?vid=97f04c5a-7acb-49a0-90f5-8cb7871b7af0"},"vehicle_type_id":"4","last_reported":1740403071,"current_range_meters":20400,"station_id":"ce4bhm92rcd13ifvqglg","pricing_plan_id":"cebpf4jnsgd1na2vs0mg"},{"bike_id":"05388da8-9671-4cce-a9c6-be5a5bec9026","system_id":"levelo_inurba_marseille","lat":43.32356,"lon":5.36759,"is_reserved":false,"is_disabled":false,"rental_uris":{"android":"levelo://app?vid=05388da8-9671-4cce-a9c6-be5a5bec9026","ios":"levelo://app?vid=05388da8-9671-4cce-a9c6-be5a5bec9026"},"vehicle_type_id":"4","last_reported":1740403071,"current_range_meters":20400,"station_id":"ce4bhsh2rcd13ifvqi2g","pricing_plan_id":"cebpf4jnsgd1na2vs0mg"},{"bike_id":"b488fdd1-2945-4724-bb12-49178af929a6","system_id":"levelo_inurba_marseille","lat":43.26215,"lon":5.37448,"is_reserved":false,"is_disabled":false,"rental_uris":{"android":"levelo://app?vid=b488fdd1-2945-4724-bb12-49178af929a6","ios":"levelo://app?vid=b488fdd1-2945-4724-bb12-49178af929a6"},"vehicle_type_id":"4","last_reported":1740403071,"current_range_meters":20400,"station_id":"ce4bhgp2rcd13ifvqfc0","pricing_plan_id":"cebpf4jnsgd1na2vs0mg"},{"bike_id":"83630c54-d46e-46ef-9c2b-07a9635d74e3","system_id":"levelo_inurba_marseille","lat":43.29973,"lon":5.37168,"is_reserved":false,"is_disabled":false,"rental_uris":{"android":"levelo://app?vid=83630c54-d46e-46ef-9c2b-07a9635d74e3","ios":"levelo://app?vid=83630c54-d46e-46ef-9c2b-07a9635d74e3"},"vehicle_type_id":"4","last_reported":1740403071,"current_range_meters":20000,"station_id":"ce4bgr92rcd13ifvqc7g","pricing_plan_id":"cebpf4jnsgd1na2vs0mg"},{"bike_id":"cd9635ee-c1b7-40e6-99fd-50143bcf6b9a","system_id":"levelo_inurba_marseille","lat":43.295339,"lon":5.390236,"is_reserved":false,"is_disabled":false,"rental_uris":{"android":"levelo://app?vid=cd9635ee-c1b7-40e6-99fd-50143bcf6b9a","ios":"levelo://app?vid=cd9635ee-c1b7-40e6-99fd-50143bcf6b9a"},"vehicle_type_id":"4","last_reported":1740403071,"current_range_meters":20400,"station_id":"ce4bh3p2rcd13ifvqdp0","pricing_plan_id":"cebpf4jnsgd1na2vs0mg"},{"bike_id":"99a6215f-6506-4f6e-9c5e-ddad7f4be2a5","system_id":"levelo_inurba_marseille","lat":43.29902,"lon":5.4366,"is_reserved":false,"is_disabled":false,"rental_uris":{"android":"levelo://app?vid=99a6215f-6506-4f6e-9c5e-ddad7f4be2a5","ios":"levelo://app?vid=99a6215f-6506-4f6e-9c5e-ddad7f4be2a5"},"vehicle_type_id":"4","last_reported":1740403071,"current_range_meters":20400,"station_id":"ce4bhpp2rcd13ifvqhfg","pricing_plan_id":"cebpf4jnsgd1na2vs0mg"},{"bike_id":"f9263461-3709-4f2b-be15-741c52b41394","system_id":"levelo_inurba_marseille","lat":43.27496,"lon":5.42448,"is_reserved":false,"is_disabled":false,"rental_uris":{"android":"levelo://app?vid=f9263461-3709-4f2b-be15-741c52b41394","ios":"levelo://app?vid=f9263461-3709-4f2b-be15-741c52b41394"},"vehicle_type_id":"4","last_reported":1740403071,"current_range_meters":20400,"station_id":"ce4bhn92rcd13ifvqgrg","pricing_plan_id":"cebpf4jnsgd1na2vs0mg"},{"bike_id":"7079d02a-a895-4fb8-b9c8-f97e88177d54","system_id":"levelo_inurba_marseille","lat":43.30138,"lon":5.37425,"is_reserved":false,"is_disabled":false,"rental_uris":{"android":"levelo://app?vid=7079d02a-a895-4fb8-b9c8-f97e88177d54","ios":"levelo://app?vid=7079d02a-a895-4fb8-b9c8-f97e88177d54"},"vehicle_type_id":"4","last_reported":1740403071,"current_range_meters":20400,"station_id":"ce4bgs92rcd13ifvqcc0","pricing_plan_id":"cebpf4jnsgd1na2vs0mg"},{"bike_id":"28ceccec-d469-43fa-8c90-3da493a96f25","system_id":"levelo_inurba_marseille","lat":43.28412,"lon":5.37518,"is_reserved":false,"is_disabled":false,"rental_uris":{"android":"levelo://app?vid=28ceccec-d469-43fa-8c90-3da493a96f25","ios":"levelo://app?vid=28ceccec-d469-43fa-8c90-3da493a96f25"},"vehicle_type_id":"4","last_reported":1740403071,"current_range_meters":20400,"station_id":"ce4bh412rcd13ifvqds0","pricing_plan_id":"cebpf4jnsgd1na2vs0mg"},{"bike_id":"7bb12468-0f41-431e-9b23-9120cc9dbc60","system_id":"levelo_inurba_marseille","lat":43.26563,"lon":5.37278,"is_reserved":false,"is_disabled":false,"rental_uris":{"android":"levelo://app?vid=7bb12468-0f41-431e-9b23-9120cc9dbc60","ios":"levelo://app?vid=7bb12468-0f41-431e-9b23-9120cc9dbc60"},"vehicle_type_id":"4","last_reported":1740403071,"current_range_meters":18800,"station_id":"ce4bhg12rcd13ifvqf70","pricing_plan_id":"cebpf4jnsgd1na2vs0mg"},{"bike_id":"2c5b41d8-2247-4fb1-8662-067a63dc29af","system_id":"levelo_inurba_marseille","lat":43.29932,"lon":5.36522,"is_reserved":false,"is_disabled":false,"rental_uris":{"android":"levelo://app?vid=2c5b41d8-2247-4fb1-8662-067a63dc29af","ios":"levelo://app?vid=2c5b41d8-2247-4fb1-8662-067a63dc29af"},"vehicle_type_id":"4","last_reported":1740403071,"current_range_meters":20800,"station_id":"ce4bgm92rcd13ifvqbr0","pricing_plan_id":"cebpf4jnsgd1na2vs0mg"},{"bike_id":"e00d4716-81ba-4b42-a393-48e7217fbbdf","system_id":"levelo_inurba_marseille","lat":43.23192,"lon":5.399907,"is_reserved":false,"is_disabled":false,"rental_uris":{"android":"levelo://app?vid=e00d4716-81ba-4b42-a393-48e7217fbbdf","ios":"levelo://app?vid=e00d4716-81ba-4b42-a393-48e7217fbbdf"},"vehicle_type_id":"4","last_reported":1740403071,"current_range_meters":20800,"station_id":"ce4bhn12rcd13ifvqgqg","pricing_plan_id":"cebpf4jnsgd1na2vs0mg"},{"bike_id":"e3c38b82-3864-44d1-8b0d-027305e14463","system_id":"levelo_inurba_marseille","lat":43.30554,"lon":5.36544,"is_reserved":false,"is_disabled":false,"rental_uris":{"android":"levelo://app?vid=e3c38b82-3864-44d1-8b0d-027305e14463","ios":"levelo://app?vid=e3c38b82-3864-44d1-8b0d-027305e14463"},"vehicle_type_id":"4","last_reported":1740403071,"current_range_meters":20800,"station_id":"ce4bgs12rcd13ifvqcag","pricing_plan_id":"cebpf4jnsgd1na2vs0mg"},{"bike_id":"35b2537f-602f-4c1c-bfba-02a4b878f83d","system_id":"levelo_inurba_marseille","lat":43.31269,"lon":5.36885,"is_reserved":false,"is_disabled":false,"rental_uris":{"android":"levelo://app?vid=35b2537f-602f-4c1c-bfba-02a4b878f83d","ios":"levelo://app?vid=35b2537f-602f-4c1c-bfba-02a4b878f83d"},"vehicle_type_id":"4","last_reported":1740403071,"current_range_meters":20800,"station_id":"ce4bgl92rcd13ifvqbq0","pricing_plan_id":"cebpf4jnsgd1na2vs0mg"},{"bike_id":"dd3fda8a-2e8a-426a-94a4-053389588f20","system_id":"levelo_inurba_marseille","lat":43.29788,"lon":5.38101,"is_reserved":false,"is_disabled":false,"rental_uris":{"android":"levelo://app?vid=dd3fda8a-2e8a-426a-94a4-053389588f20","ios":"levelo://app?vid=dd3fda8a-2e8a-426a-94a4-053389588f20"},"vehicle_type_id":"4","last_reported":1740403071,"current_range_meters":18800,"station_id":"ce4bgip2rcd13ifvqbb0","pricing_plan_id":"cebpf4jnsgd1na2vs0mg"},{"bike_id":"c7f24925-8d31-45c6-9764-1fdef5153db2","system_id":"levelo_inurba_marseille","lat":43.32542,"lon":5.41456,"is_reserved":false,"is_disabled":false,"rental_uris":{"android":"levelo://app?vid=c7f24925-8d31-45c6-9764-1fdef5153db2","ios":"levelo://app?vid=c7f24925-8d31-45c6-9764-1fdef5153db2"},"vehicle_type_id":"4","last_reported":1740403071,"current_range_meters":22000,"station_id":"ce4bhq12rcd13ifvqhhg","pricing_plan_id":"cebpf4jnsgd1na2vs0mg"},{"bike_id":"2cbf9774-3645-4c71-8245-448340eff87d","system_id":"levelo_inurba_marseille","lat":43.30591,"lon":5.39365,"is_reserved":false,"is_disabled":false,"rental_uris":{"android":"levelo://app?vid=2cbf9774-3645-4c71-8245-448340eff87d","ios":"levelo://app?vid=2cbf9774-3645-4c71-8245-448340eff87d"},"vehicle_type_id":"4","last_reported":1740403071,"current_range_meters":22000,"station_id":"ce4bh0p2rcd13ifvqd80","pricing_plan_id":"cebpf4jnsgd1na2vs0mg"},{"bike_id":"a5877d4b-d97f-41c6-b18f-c6036ebd6644","system_id":"levelo_inurba_marseille","lat":43.32487,"lon":5.3655,"is_reserved":false,"is_disabled":false,"rental_uris":{"android":"levelo://app?vid=a5877d4b-d97f-41c6-b18f-c6036ebd6644","ios":"levelo://app?vid=a5877d4b-d97f-41c6-b18f-c6036ebd6644"},"vehicle_type_id":"4","last_reported":1740403071,"current_range_meters":21600,"station_id":"ce4bhs12rcd13ifvqhvg","pricing_plan_id":"cebpf4jnsgd1na2vs0mg"},{"bike_id":"a7202821-d608-41ca-8507-3de3f294dc26","system_id":"levelo_inurba_marseille","lat":43.29861,"lon":5.36298,"is_reserved":false,"is_disabled":false,"rental_uris":{"android":"levelo://app?vid=a7202821-d608-41ca-8507-3de3f294dc26","ios":"levelo://app?vid=a7202821-d608-41ca-8507-3de3f294dc26"},"vehicle_type_id":"4","last_reported":1740403071,"current_range_meters":21600,"station_id":"ce4bgpp2rcd13ifvqc3g","pricing_plan_id":"cebpf4jnsgd1na2vs0mg"},