{"last_updated":1768857057,"ttl":60,"version":"2.2","data":{"bikes":[{"bike_id":"ded7fa61-510e-4eba-97c7-e012506f37d3","system_id":"levelo_inurba_marseille","lat":43.2557,"lon":5.38242,"is_reserved":false,"is_disabled":false,"rental_uris":{"android":"levelo://app?vid=ded7fa61-510e-4eba-97c7-e012506f37d3","ios":"levelo://app?vid=ded7fa61-510e-4eba-97c7-e012506f37d3"},"vehicle_type_id":"4","last_reported":1768857057,"current_range_meters":2800,"station_id":"ce4bhih2rcd13ifvqfs0","pricing_plan_id":"cebpf4jnsgd1na2vs0mg"},{"bike_id":"19fc464d-0d4d-48b4-9593-423f325faac5","system_id":"levelo_inurba_marseille","lat":43.22566,"lon":5.4162,"is_reserved":false,"is_disabled":false,"rental_uris":{"android":"levelo://app?vid=19fc464d-0d4d-48b4-9593-423f325faac5","ios":"levelo://app?vid=19fc464d-0d4d-48b4-9593-423f325faac5"},"vehicle_type_id":"4","last_reported":1768857057,"current_range_meters":2800,"station_id":"st_d2o4gvlbi1j2169b742g","pricing_plan_id":"cebpf4jnsgd1na2vs0mg"},{"bike_id":"ea1a7d9f-4c15-4715-bb07-912819b15d61","system_id":"levelo_inurba_marseille","lat":43.288405,"lon":5.393227,"is_reserved":false,"is_disabled":false,"rental_uris":{"android":"levelo://app?vid=ea1a7d9f-4c15-4715-bb07-912819b15d61","ios":"levelo://app?vid=ea1a7d9f-4c15-4715-bb07-912819b15d61"},"vehicle_type_id":"4","last_reported":1768857057,"current_range_meters":2800,"station_id":"ce4bh2p2rcd13ifvqdi0","pricing_plan_id":"cebpf4jnsgd1na2vs0mg"},{"bike_id":"f52db266-1287-475c-a94a-9b91756deae3","system_id":"levelo_inurba_marseille","lat":43.25879,"lon":5.399,"is_reserved":false,"is_disabled":false,"rental_uris":{"android":"levelo://app?vid=f52db266-1287-475c-a94a-9b91756deae3","ios":"levelo://app?vid=f52db266-1287-475c-a94a-9b91756deae3"},"vehicle_type_id":"4","last_reported":1768857057,"current_range_meters":2800,"station_id":"ce4bhl92rcd13ifvqghg","pricing_plan_id":"cebpf4jnsgd1na2vs0mg"},{"bike_id":"b5f93745-280d-476c-aef3-5429263680d7","system_id":"levelo_inurba_marseille","lat":43.27997,"lon":5.40019,"is_reserved":false,"is_disabled":false,"rental_uris":{"android":"levelo://app?vid=b5f93745-280d-476c-aef3-5429263680d7","ios":"levelo://app?vid=b5f93745-280d-476c-aef3-5429263680d7"},"vehicle_type_id":"4","last_reported":1768857057,"current_range_meters":2800,"station_id":"ce4bho92rcd13ifvqh4g","pricing_plan_id":"cebpf4jnsgd1na2vs0mg"},{"bike_id":"cbb0217e-1162-4111-9529-6944c2f11a5b","system_id":"levelo_inurba_marseille","lat":43.2848,"lon":5.48385,"is_reserved":false,"is_disabled":false,"rental_uris":{"android":"levelo://app?vid=cbb0217e-1162-4111-9529-6944c2f11a5b","ios":"levelo://app?vid=cbb0217e-1162-4111-9529-6944c2f11a5b"},"vehicle_type_id":"4","last_reported":1768857057,"current_range_meters":2800,"station_id":"","pricing_plan_id":"cebpf4jnsgd1na2vs0mg"},{"bike_id":"3e542e2c-d19c-46d5-a93c-5ce7bb053717","system_id":"levelo_inurba_marseille","lat":43.24815,"lon":5.37482,"is_reserved":false,"is_disabled":false,"rental_uris":{"android":"levelo://app?vid=3e542e2c-d19c-46d5-a93c-5ce7bb053717","ios":"levelo://app?vid=3e542e2c-d19c-46d5-a93c-5ce7bb053717"},"vehicle_type_id":"4","last_reported":1768857057,"current_range_meters":2800,"station_id":"ce4bhgh2rcd13ifvqfb0","pricing_plan_id":"cebpf4jnsgd1na2vs0mg"},{"bike_id":"e6ab20c9-a659-4902-bd62-abdf507eb375","system_id":"levelo_inurba_marseille","lat":43.28353,"lon":5.38136,"is_reserved":false,"is_disabled":false,"rental_uris":{"android":"levelo://app?vid=e6ab20c9-a659-4902-bd62-abdf507eb375","ios":"levelo://app?vid=e6ab20c9-a659-4902-bd62-abdf507eb375"},"vehicle_type_id":"4","last_reported":1768857057,"current_range_meters":2800,"station_id":"ce4bh412rcd13ifvqdr0","pricing_plan_id":"cebpf4jnsgd1na2vs0mg"},{"bike_id":"28b572ae-d394-4b45-9e6c-56714fae435c","system_id":"levelo_inurba_marseille","lat":43.30396,"lon":5.40974,"is_reserved":false,"is_disabled":false,"rental_uris":{"android":"levelo://app?vid=28b572ae-d394-4b45-9e6c-56714fae435c","ios":"levelo://app?vid=28b572ae-d394-4b45-9e6c-56714fae435c"},"vehicle_type_id":"4","last_reported":1768857057,"current_range_meters":2800,"station_id":"","pricing_plan_id":"cebpf4jnsgd1na2vs0mg"},{"bike_id":"821c9dc0-d2d7-4ec0-ba6d-778137fbc9c5","system_id":"levelo_inurba_marseille","lat":43.21755,"lon":5.34604,"is_reserved":false,"is_disabled":false,"rental_uris":{"android":"levelo://app?vid=821c9dc0-d2d7-4ec0-ba6d-778137fbc9c5","ios":"levelo://app?vid=821c9dc0-d2d7-4ec0-ba6d-778137fbc9c5"},"vehicle_type_id":"4","last_reported":1768857057,"current_range_meters":2800,"station_id":"st_cvj6r9ubvosntc0bgbag","pricing_plan_id":"cebpf4jnsgd1na2vs0mg"},{"bike_id":"ab3a9e9d-2538-4ee2-a227-c8d3d1721c50","system_id":"levelo_inurba_marseille","lat":43.30887,"lon":5.39648,"is_reserved":false,"is_disabled":false,"rental_uris":{"android":"levelo://app?vid=ab3a9e9d-2538-4ee2-a227-c8d3d1721c50","ios":"levelo://app?vid=ab3a9e9d-2538-4ee2-a227-c8d3d1721c50"},"vehicle_type_id":"4","last_reported":1768857057,"current_range_meters":2800,"station_id":"ce4bh012rcd13ifvqcv0","pricing_plan_id":"cebpf4jnsgd1na2vs0mg"},{"bike_id":"ca57c776-ead9-49c1-96d1-364b1394448d","system_id":"levelo_inurba_marseille","lat":43.2466,"lon":5.38154,"is_reserved":false,"is_disabled":false,"rental_uris":{"android":"levelo://app?vid=ca57c776-ead9-49c1-96d1-364b1394448d","ios":"levelo://app?vid=ca57c776-ead9-49c1-96d1-364b1394448d"},"vehicle_type_id":"4","last_reported":1768857057,"current_range_meters":2800,"station_id":"ce4bhih2rcd13ifvqfr0","pricing_plan_id":"cebpf4jnsgd1na2vs0mg"},{"bike_id":"ed7c339b-faef-438a-8ef5-b9ec1382e39d","system_id":"levelo_inurba_marseille","lat":43.28904,"lon":5.42487,"is_reserved":false,"is_disabled":false,"rental_uris":{"android":"levelo://app?vid=ed7c339b-faef-438a-8ef5-b9ec1382e39d","ios":"levelo://app?vid=ed7c339b-faef-438a-8ef5-b9ec1382e39d"},"vehicle_type_id":"4","last_reported":1768857057,"current_range_meters":3200,"station_id":"","pricing_plan_id":"cebpf4jnsgd1na2vs0mg"},{"bike_id":"686cbb6b-5805-4425-b812-97572b6aaff4","system_id":"levelo_inurba_marseille","lat":43.26209,"lon":5.37454,"is_reserved":false,"is_disabled":false,"rental_uris":{"android":"levelo://app?vid=686cbb6b-5805-4425-b812-97572b6aaff4","ios":"levelo://app?vid=686cbb6b-5805-4425-b812-97572b6aaff4"},"vehicle_type_id":"4","last_reported":1768857057,"current_range_meters":3200,"station_id":"ce4bhgp2rcd13ifvqfc0","pricing_plan_id":"cebpf4jnsgd1na2vs0mg"},{"bike_id":"388f4c92-539c-4501-96e9-5f308a307179","system_id":"levelo_inurba_marseille","lat":43.31212,"lon":5.36881,"is_reserved":false,"is_disabled":false,"rental_uris":{"android":"levelo://app?vid=388f4c92-539c-4501-96e9-5f308a307179","ios":"levelo://app?vid=388f4c92-539c-4501-96e9-5f308a307179"},"vehicle_type_id":"4","last_reported":1768857057,"current_range_meters":3200,"station_id":"ce4bgl92rcd13ifvqbq0","pricing_plan_id":"cebpf4jnsgd1na2vs0mg"},{"bike_id":"cbfcf099-c545-44e9-852c-93ab5328e5c5","system_id":"levelo_inurba_marseille","lat":43.24173,"lon":5.39729,"is_reserved":false,"is_disabled":false,"rental_uris":{"android":"levelo://app?vid=cbfcf099-c545-44e9-852c-93ab5328e5c5","ios":"levelo://app?vid=cbfcf099-c545-44e9-852c-93ab5328e5c5"},"vehicle_type_id":"4","last_reported":1768857057,"current_range_meters":3200,"station_id":"ce4bhn12rcd13ifvqgpg","pricing_plan_id":"cebpf4jnsgd1na2vs0mg"},{"bike_id":"4fbf0725-8587-4fe7-9ea7-29f4c621497d","system_id":"levelo_inurba_marseille","lat":43.27972,"lon":5.40076,"is_reserved":false,"is_disabled":false,"rental_uris":{"android":"levelo://app?vid=4fbf0725-8587-4fe7-9ea7-29f4c621497d","ios":"levelo://app?vid=4fbf0725-8587-4fe7-9ea7-29f4c621497d"},"vehicle_type_id":"4","last_reported":1768857057,"current_range_meters":3200,"station_id":"","pricing_plan_id":"cebpf4jnsgd1na2vs0mg"},{"bike_id":"2243ea7a-5eee-4ee0-ba34-45f2b9359d7f","system_id":"levelo_inurba_marseille","lat":43.2379,"lon":5.36632,"is_reserved":false,"is_disabled":false,"rental_uris":{"android":"levelo://app?vid=2243ea7a-5eee-4ee0-ba34-45f2b9359d7f","ios":"levelo://app?vid=2243ea7a-5eee-4ee0-ba34-45f2b9359d7f"},"vehicle_type_id":"4","last_reported":1768857057,"current_range_meters":3200,"station_id":"st_d3nk18o9ro0c73en2l3g","pricing_plan_id":"cebpf4jnsgd1na2vs0mg"},{"bike_id":"152a1114-2d28-4173-b902-6a8c0747451d","system_id":"levelo_inurba_marseille","lat":43.29434,"lon":5.39756,"is_reserved":false,"is_disabled":false,"rental_uris":{"android":"levelo://app?vid=152a1114-2d28-4173-b902-6a8c0747451d","ios":"levelo://app?vid=152a1114-2d28-4173-b902-6a8c0747451d"},"vehicle_type_id":"4","last_reported":1768857057,"current_range_meters":3200,"station_id":"ce4bh3h2rcd13ifvqdo0","pricing_plan_id":"cebpf4jnsgd1na2vs0mg"},{"bike_id":"ea7284ef-5752-442c-9367-26c5dcd07bb3","system_id":"levelo_inurba_marseille","lat":43.24663,"lon":5.38156,"is_reserved":false,"is_disabled":false,"rental_uris":{"android":"levelo://app?vid=ea7284ef-5752-442c-9367-26c5dcd07bb3","ios":"levelo://app?vid=ea7284ef-5752-442c-9367-26c5dcd07bb3"},"vehicle_type_id":"4","last_reported":1768857057,"current_range_meters":3200,"station_id":"ce4bhih2rcd13ifvqfr0","pricing_plan_id":"cebpf4jnsgd1na2vs0mg"},{"bike_id":"4a8856ad-7dc9-4f2c-9db0-7a501705d2a9","system_id":"levelo_inurba_marseille","lat":43.25579,"lon":5.38242,"is_reserved":false,"is_disabled":false,"rental_uris":{"android":"levelo://app?vid=4a8856ad-7dc9-4f2c-9db0-7a501705d2a9","ios":"levelo://app?vid=4a8856ad-7dc9-4f2c-9db0-7a501705d2a9"},"vehicle_type_id":"4","last_reported":1768857057,"current_range_meters":3200,"station_id":"ce4bhih2rcd13ifvqfs0","pricing_plan_id":"cebpf4jnsgd1na2vs0mg"},{"bike_id":"6e732b0b-6a90-42b3-949e-3a1856e3e817","system_id":"levelo_inurba_marseille","lat":43.28399,"lon":5.37486,"is_reserved":false,"is_disabled":false,"rental_uris":{"android":"levelo://app?vid=6e732b0b-6a90-42b3-949e-3a1856e3e817","ios":"levelo://app?vid=6e732b0b-6a90-42b3-949e-3a1856e3e817"},"vehicle_type_id":"4","last_reported":1768857057,"current_range_meters":3200,"station_id":"ce4bh412rcd13ifvqds0","pricing_plan_id":"cebpf4jnsgd1na2vs0mg"},{"bike_id":"67c0872c-5188-4486-8452-c46c870a6be6","system_id":"levelo_inurba_marseille","lat":43.26054,"lon":5.39391,"is_reserved":false,"is_disabled":false,"rental_uris":{"android":"levelo://app?vid=67c0872c-5188-4486-8452-c46c870a6be6","ios":"levelo://app?vid=67c0872c-5188-4486-8452-c46c870a6be6"},"vehicle_type_id":"4","last_reported":1768857057,"current_range_meters":3200,"station_id":"ce4bhh92rcd13ifvqfj0","pricing_plan_id":"cebpf4jnsgd1na2vs0mg"},{"bike_id":"bb222a75-25a1-4fae-89f9-e2c94f5fae83","system_id":"levelo_inurba_marseille","lat":43.29527,"lon":5.39028,"is_reserved":false,"is_disabled":false,"rental_uris":{"android":"levelo://app?vid=bb222a75-25a1-4fae-89f9-e2c94f5fae83","ios":"levelo://app?vid=bb222a75-25a1-4fae-89f9-e2c94f5fae83"},"vehicle_type_id":"4","last_reported":1768857057,"current_range_meters":3200,"station_id":"ce4bh3p2rcd13ifvqdp0","pricing_plan_id":"cebpf4jnsgd1na2vs0mg"},{"bike_id":"e85c21ba-c433-43c9-bbf1-0495b1f8402b","system_id":"levelo_inurba_marseille","lat":43.31087,"lon":5.37156,"is_reserved":false,"is_disabled":false,"rental_uris":{"android":"levelo://app?vid=e85c21ba-c433-43c9-bbf1-0495b1f8402b","ios":"levelo://app?vid=e85c21ba-c433-43c9-bbf1-0495b1f8402b"},"vehicle_type_id":"4","last_reported":1768857057,"current_range_meters":3200,"station_id":"st_d4kl2rp97mjs73e7tdfg","pricing_plan_id":"cebpf4jnsgd1na2vs0mg"},{"bike_id":"b5adf723-77e9-4d55-9df0-fefae359ecf3","system_id":"levelo_inurba_marseille","lat":43.30284,"lon":5.39227,"is_reserved":false,"is_disabled":false,"rental_uris":{"android":"levelo://app?vid=b5adf723-77e9-4d55-9df0-fefae359ecf3","ios":"levelo://app?vid=b5adf723-77e9-4d55-9df0-fefae359ecf3"},"vehicle_type_id":"4","last_reported":1768857057,"current_range_meters":3200,"station_id":"ce4bgkh2rcd13ifvqbk0","pricing_plan_id":"cebpf4jnsgd1na2vs0mg"},{"bike_id":"9362b4b1-180e-47a2-9c96-46810859e36b","system_id":"levelo_inurba_marseille","lat":43.286173,"lon":5.351024,"is_reserved":false,"is_disabled":false,"rental_uris":{"android":"levelo://app?vid=9362b4b1-180e-47a2-9c96-46810859e36b","ios":"levelo://app?vid=9362b4b1-180e-47a2-9c96-46810859e36b"},"vehicle_type_id":"4","last_reported":1768857057,"current_range_meters":3600,"station_id":"ce4bhch2rcd13ifvqeug","pricing_plan_id":"cebpf4jnsgd1na2vs0mg"},{"bike_id":"17e67adc-d388-4e3d-a9ce-7e5849262d1f","system_id":"levelo_inurba_marseille","lat":43.28491,"lon":5.44166,"is_reserved":false,"is_disabled":false,"rental_uris":{"android":"levelo://app?vid=17e67adc-d388-4e3d-a9ce-7e5849262d1f","ios":"levelo://app?vid=17e67adc-d388-4e3d-a9ce-7e5849262d1f"},"vehicle_type_id":"4","last_reported":1768857057,"current_range_meters":3600,"station_id":"","pricing_plan_id":"cebpf4jnsgd1na2vs0mg"},{"bike_id":"810b34a8-b148-4e2d-8e9c-04f4b58eedc2","system_id":"levelo_inurba_marseille","lat":43.26056,"lon":5.38636,"is_reserved":false,"is_disabled":false,"rental_uris":{"android":"levelo://app?vid=810b34a8-b148-4e2d-8e9c-04f4b58eedc2","ios":"levelo://app?vid=810b34a8-b148-4e2d-8e9c-04f4b58eedc2"},"vehicle_type_id":"4","last_reported":1768857057,"current_range_meters":3600,"station_id":"","pricing_plan_id":"cebpf4jnsgd1na2vs0mg"},{"bike_id":"be565ace-e38a-45b3-9c8d-ac45411d29e9","system_id":"levelo_inurba_marseille","lat":43.31054,"lon":5.38368,"is_reserved":false,"is_disabled":false,"rental_uris":{"android":"levelo://app?vid=be565ace-e38a-45b3-9c8d-ac45411d29e9","ios":"levelo://app?vid=be565ace-e38a-45b3-9c8d-ac45411d29e9"},"vehicle_type_id":"4","last_reported":1768857057,"current_range_meters":3600,"station_id":"ce4bgv92rcd13ifvqcr0","pricing_plan_id":"cebpf4jnsgd1na2vs0mg"},{"bike_id":"ab5489bc-20fa-410c-92ad-1c61733680f6","system_id":"levelo_inurba_marseille","lat":43.31234,"lon":5.36845,"is_reserved":false,"is_disabled":false,"rental_uris":{"android":"levelo://app?vid=ab5489bc-20fa-410c-92ad-1c61733680f6","ios":"levelo://app?vid=ab5489bc-20fa-410c-92ad-1c61733680f6"},"vehicle_type_id":"4","last_reported":1768857057,"current_range_meters":3600,"station_id":"ce4bgl92rcd13ifvqbq0","pricing_plan_id":"cebpf4jnsgd1na2vs0mg"},{"bike_id":"921bac40-df7b-4f4b-af86-6fcd1357c8a9","system_id":"levelo_inurba_marseille","lat":43.29799,"lon":5.39331,"is_reserved":false,"is_disabled":false,"rental_uris":{"android":"levelo://app?vid=921bac40-df7b-4f4b-af86-6fcd1357c8a9","ios":"levelo://app?vid=921bac40-df7b-4f4b-af86-6fcd1357c8a9"},"vehicle_type_id":"4","last_reported":1768857057,"current_range_meters":3600,"station_id":"chh1huq6cuj3fo74tm60","pricing_plan_id":"cebpf4jnsgd1na2vs0mg"},{"bike_id":"500a807b-2dab-4995-a78d-d98aedb6eb89","system_id":"levelo_inurba_marseille","lat":43.271804,"lon":5.409951,"is_reserved":false,"is_disabled":false,"rental_uris":{"android":"levelo://app?vid=500a807b-2dab-4995-a78d-d98aedb6eb89","ios":"levelo://app?vid=500a807b-2dab-4995-a78d-d98aedb6eb89"},"vehicle_type_id":"4","last_reported":1768857057,"current_range_meters":3600,"station_id":"ce4bhl12rcd13ifvqgf0","pricing_plan_id":"cebpf4jnsgd1na2vs0mg"},{"bike_id":"4e504fb0-fe56-4573-bfbf-8013551c3d1e","system_id":"levelo_inurba_marseille","lat":43.22945,"lon":5.35376,"is_reserved":false,"is_disabled":false,"rental_uris":{"android":"levelo://app?vid=4e504fb0-fe56-4573-bfbf-8013551c3d1e","ios":"levelo://app?vid=4e504fb0-fe56-4573-bfbf-8013551c3d1e"},"vehicle_type_id":"4","last_reported":1768857057,"current_range_meters":3600,"station_id":"cpo3532slgdg3j2ikp40","pricing_plan_id":"cebpf4jnsgd1na2vs0mg"},{"bike_id":"990fe401-cb57-4086-98ac-c1591152a387","system_id":"levelo_inurba_marseille","lat":43.25566,"lon":5.38273,"is_reserved":false,"is_disabled":false,"rental_uris":{"android":"levelo://app?vid=990fe401-cb57-4086-98ac-c1591152a387","ios":"levelo://app?vid=990fe401-cb57-4086-98ac-c1591152a387"},"vehicle_type_id":"4","last_reported":1768857057,"current_range_meters":3600,"station_id":"ce4bhih2rcd13ifvqfs0","pricing_plan_id":"cebpf4jnsgd1na2vs0mg"},{"bike_id":"a627aa1b-60f3-461d-ab59-5427a0b183ba","system_id":"levelo_inurba_marseille","lat":43.241759,"lon":5.39716,"is_reserved":false,"is_disabled":false,"rental_uris":{"android":"levelo://app?vid=a627aa1b-60f3-461d-ab59-5427a0b183ba","ios":"levelo://app?vid=a627aa1b-60f3-461d-ab59-5427a0b183ba"},"vehicle_type_id":"4","last_reported":1768857057,"current_range_meters":3600,"station_id":"ce4bhn12rcd13ifvqgpg","pricing_plan_id":"cebpf4jnsgd1na2vs0mg"},{"bike_id":"cd6c0d5f-54f3-4be9-b21d-d0441c9b0397","system_id":"levelo_inurba_marseille","lat":43.284805,"lon":5.483842,"is_reserved":false,"is_disabled":false,"rental_uris":{"android":"levelo://app?vid=cd6c0d5f-54f3-4be9-b21d-d0441c9b0397","ios":"levelo://app?vid=cd6c0d5f-54f3-4be9-b21d-d0441c9b0397"},"vehicle_type_id":"4","last_reported":1768857057,"current_range_meters":3600,"station_id":"st_d3svhcjqgbts73a3dn0g","pricing_plan_id":"cebpf4jnsgd1na2vs0mg"},{"bike_id":"72d5dbbd-6d19-4f9e-b234-eb0c87c1870b","system_id":"levelo_inurba_marseille","lat":43.29798,"lon":5.39356,"is_reserved":false,"is_disabled":false,"rental_uris":{"android":"levelo://app?vid=72d5dbbd-6d19-4f9e-b234-eb0c87c1870b","ios":"levelo://app?vid=72d5dbbd-6d19-4f9e-b234-eb0c87c1870b"},"vehicle_type_id":"4","last_reported":1768857057,"current_range_meters":3600,"station_id":"chh1huq6cuj3fo74tm60","pricing_plan_id":"cebpf4jnsgd1na2vs0mg"},{"bike_id":"d8e726be-ef4a-406e-aa58-6f48c9676c61","system_id":"levelo_inurba_marseille","lat":43.28469,"lon":5.48407,"is_reserved":false,"is_disabled":false,"rental_uris":{"android":"levelo://app?vid=d8e726be-ef4a-406e-aa58-6f48c9676c61","ios":"levelo://app?vid=d8e726be-ef4a-406e-aa58-6f48c9676c61"},"vehicle_type_id":"4","last_reported":1768857057,"current_range_meters":3600,"station_id":"st_d3svhcjqgbts73a3dn0g","pricing_plan_id":"cebpf4jnsgd1na2vs0mg"},{"bike_id":"2db4129b-a65d-40ce-a7e6-9ac238f3a54c","system_id":"levelo_inurba_marseille","lat":43.31755,"lon":5.39022,"is_reserved":false,"is_disabled":false,"rental_uris":{"android":"levelo://app?vid=2db4129b-a65d-40ce-a7e6-9ac238f3a54c","ios":"levelo://app?vid=2db4129b-a65d-40ce-a7e6-9ac238f3a54c"},"vehicle_type_id":"4","last_reported":1768857057,"current_range_meters":3600,"station_id":"ce4bhqp2rcd13ifvqhng","pricing_plan_id":"cebpf4jnsgd1na2vs0mg"},{"bike_id":"24a76f0f-35c8-4970-8e83-d33fa59c3471","system_id":"levelo_inurba_marseille","lat":43.2897,"lon":5.37841,"is_reserved":false,"is_disabled":false,"rental_uris":{"android":"levelo://app?vid=24a76f0f-35c8-4970-8e83-d33fa59c3471","ios":"levelo://app?vid=24a76f0f-35c8-4970-8e83-d33fa59c3471"},"vehicle_type_id":"4","last_reported":1768857057,"current_range_meters":4000,"station_id":"ce4bh9p2rcd13ifvqed0","pricing_plan_id":"cebpf4jnsgd1na2vs0mg"},{"bike_id":"e7866689-ccae-434e-9735-0e85445c0a9a","system_id":"levelo_inurba_marseille","lat":43.27972,"lon":5.38525,"is_reserved":false,"is_disabled":false,"rental_uris":{"android":"levelo://app?vid=e7866689-ccae-434e-9735-0e85445c0a9a","ios":"levelo://app?vid=e7866689-ccae-434e-9735-0e85445c0a9a"},"vehicle_type_id":"4","last_reported":1768857057,"current_range_meters":4000,"station_id":"","pricing_plan_id":"cebpf4jnsgd1na2vs0mg"},{"bike_id":"c15b425d-809a-4cd3-8810-57b150a646cf","system_id":"levelo_inurba_marseille","lat":43.2607,"lon":5.39389,"is_reserved":false,"is_disabled":false,"rental_uris":{"android":"levelo://app?vid=c15b425d-809a-4cd3-8810-57b150a646cf","ios":"levelo://app?vid=c15b425d-809a-4cd3-8810-57b150a646cf"},"vehicle_type_id":"4","last_reported":1768857057,"current_range_meters":4000,"station_id":"ce4bhh92rcd13ifvqfj0","pricing_plan_id":"cebpf4jnsgd1na2vs0mg"},{"bike_id":"4a8fa7c2-348e-4bdc-87b6-0a5b28b707c4","system_id":"levelo_inurba_marseille","lat":43.27385,"lon":5.362456,"is_reserved":false,"is_disabled":false,"rental_uris":{"android":"levelo://app?vid=4a8fa7c2-348e-4bdc-87b6-0a5b28b707c4","ios":"levelo://app?vid=4a8fa7c2-348e-4bdc-87b6-0a5b28b707c4"},"vehicle_type_id":"4","last_reported":1768857057,"current_range_meters":4000,"station_id":"ce4bhbh2rcd13ifvqeo0","pricing_plan_id":"cebpf4jnsgd1na2vs0mg"},{"bike_id":"a206c9a5-193f-456d-81eb-4bcf89997a0e","system_id":"levelo_inurba_marseille","lat":43.27818,"lon":5.40695,"is_reserved":false,"is_disabled":false,"rental_uris":{"android":"levelo://app?vid=a206c9a5-193f-456d-81eb-4bcf89997a0e","ios":"levelo://app?vid=a206c9a5-193f-456d-81eb-4bcf89997a0e"},"vehicle_type_id":"4","last_reported":1768857057,"current_range_meters":4000,"station_id":"ce4bhnh2rcd13ifvqgtg","pricing_plan_id":"cebpf4jnsgd1na2vs0mg"},{"bike_id":"26358ecb-ac8c-418f-b2eb-c93d2f2c1384","system_id":"levelo_inurba_marseille","lat":43.24837,"lon":5.37454,"is_reserved":false,"is_disabled":false,"rental_uris":{"android":"levelo://app?vid=26358ecb-ac8c-418f-b2eb-c93d2f2c1384","ios":"levelo://app?vid=26358ecb-ac8c-418f-b2eb-c93d2f2c1384"},"vehicle_type_id":"4","last_reported":1768857057,"current_range_meters":4000,"station_id":"ce4bhgh2rcd13ifvqfb0","pricing_plan_id":"cebpf4jnsgd1na2vs0mg"},{"bike_id":"9149b9bf-0379-4933-8d49-fb09fb074be2","system_id":"levelo_inurba_marseille","lat":43.23195,"lon":5.35543,"is_reserved":false,"is_disabled":false,"rental_uris":{"android":"levelo://app?vid=9149b9bf-0379-4933-8d49-fb09fb074be2","ios":"levelo://app?vid=9149b9bf-0379-4933-8d49-fb09fb074be2"},"vehicle_type_id":"4","last_reported":1768857057,"current_range_meters":4000,"station_id":"ce4bhu92rcd13ifvqi70","pricing_plan_id":"cebpf4jnsgd1na2vs0mg"},{"bike_id":"4177790e-6b94-4cdb-a7e9-946dc0b7d729","system_id":"levelo_inurba_marseille","lat":43.24173,"lon":5.39715,"is_reserved":false,"is_disabled":false,"rental_uris":{"android":"levelo://app?vid=4177790e-6b94-4cdb-a7e9-946dc0b7d729","ios":"levelo://app?vid=4177790e-6b94-4cdb-a7e9-946dc0b7d729"},"vehicle_type_id":"4","last_reported":1768857057,"current_range_meters":4000,"station_id":"ce4bhn12rcd13ifvqgpg","pricing_plan_id":"cebpf4jnsgd1na2vs0mg"},{"bike_id":"ed207b13-7644-427b-bd86-4c36458b94d7","system_id":"levelo_inurba_marseille","lat":43.290131,"lon":5.381234,"is_reserved":false,"is_disabled":false,"rental_uris":{"android":"levelo://app?vid=ed207b13-7644-427b-bd86-4c36458b94d7","ios":"levelo://app?vid=ed207b13-7644-427b-bd86-4c36458b94d7"},"vehicle_type_id":"4","last_reported":1768857057,"current_range_meters":4000,"station_id":"ce4bh4p2rcd13ifvqe1g","pricing_plan_id":"cebpf4jnsgd1na2vs0mg"},{"bike_id":"df81daeb-fa82-46bb-b9e6-1a4d2a87b90a","system_id":"levelo_inurba_marseille","lat":43.23977,"lon":5.36629,"is_reserved":false,"is_disabled":false,"rental_uris":{"android":"levelo://app?vid=df81daeb-fa82-46bb-b9e6-1a4d2a87b90a","ios":"levelo://app?vid=df81daeb-fa82-46bb-b9e6-1a4d2a87b90a"},"vehicle_type_id":"4","last_reported":1768857057,"current_range_meters":4000,"station_id":"ce4bhi12rcd13ifvqfp0","pricing_plan_id":"cebpf4jnsgd1na2vs0mg"},{"bike_id":"362a0ae8-a2e7-42cc-abd5-2ef869d92a77","system_id":"levelo_inurba_marseille","lat":43.284677,"lon":5.483986,"is_reserved":false,"is_disabled":false,"rental_uris":{"android":"levelo://app?vid=362a0ae8-a2e7-42cc-abd5-2ef869d92a77","ios":"levelo://app?vid=362a0ae8-a2e7-42cc-abd5-2ef869d92a77"},"vehicle_type_id":"4","last_reported":1768857057,"current_range_meters":4000,"station_id":"","pricing_plan_id":"cebpf4jnsgd1na2vs0mg"},{"bike_id":"1221f2dd-cf20-4d5d-abe2-4b43510055fc","system_id":"levelo_inurba_marseille","lat":43.31462,"lon":5.37317,"is_reserved":false,"is_disabled":false,"rental_uris":{"android":"levelo://app?vid=1221f2dd-cf20-4d5d-abe2-4b43510055fc","ios":"levelo://app?vid=1221f2dd-cf20-4d5d-abe2-4b43510055fc"},"vehicle_type_id":"4","last_reported":1768857057,"current_range_meters":4000,"station_id":"ce4bgt12rcd13ifvqcd0","pricing_plan_id":"cebpf4jnsgd1na2vs0mg"},{"bike_id":"860f83bd-bd20-462c-b1ec-852e7f98b549","system_id":"levelo_inurba_marseille","lat":43.23178,"lon":5.39998,"is_reserved":false,"is_disabled":false,"rental_uris":{"android":"levelo://app?vid=860f83bd-bd20-462c-b1ec-852e7f98b549","ios":"levelo://app?vid=860f83bd-bd20-462c-b1ec-852e7f98b549"},"vehicle_type_id":"4","last_reported":1768857057,"current_range_meters":4000,"station_id":"ce4bhn12rcd13ifvqgqg","pricing_plan_id":"cebpf4jnsgd1na2vs0mg"},{"bike_id":"ce832304-07e8-493b-9219-b4604d5125ea","system_id":"levelo_inurba_marseille","lat":43.25875,"lon":5.39896,"is_reserved":false,"is_disabled":false,"rental_uris":{"android":"levelo://app?vid=ce832304-07e8-493b-9219-b4604d5125ea","ios":"levelo://app?vid=ce832304-07e8-493b-9219-b4604d5125ea"},"vehicle_type_id":"4","last_reported":1768857057,"current_range_meters":4400,"station_id":"ce4bhl92rcd13ifvqghg","pricing_plan_id":"cebpf4jnsgd1na2vs0mg"},{"bike_id":"a9183507-6636-4b9d-95bd-5e2af2c2a6fe","system_id":"levelo_inurba_marseille","lat":43.22949,"lon":5.3542,"is_reserved":false,"is_disabled":false,"rental_uris":{"android":"levelo://app?vid=a9183507-6636-4b9d-95bd-5e2af2c2a6fe","ios":"levelo://app?vid=a9183507-6636-4b9d-95bd-5e2af2c2a6fe"},"vehicle_type_id":"4","last_reported":1768857057,"current_range_meters":4400,"station_id":"cpo3532slgdg3j2ikp40","pricing_plan_id":"cebpf4jnsgd1na2vs0mg"},{"bike_id":"4d9635fb-63a8-4fed-8445-6853e971fca6","system_id":"levelo_inurba_marseille","lat":43.27939,"lon":5.41061,"is_reserved":false,"is_disabled":false,"rental_uris":{"android":"levelo://app?vid=4d9635fb-63a8-4fed-8445-6853e971fca6","ios":"levelo://app?vid=4d9635fb-63a8-4fed-8445-6853e971fca6"},"vehicle_type_id":"4","last_reported":1768857057,"current_range_meters":4400,"station_id":"ce4bhnp2rcd13ifvqh0g","pricing_plan_id":"cebpf4jnsgd1na2vs0mg"},{"bike_id":"22b863de-7052-47e1-9e7c-e78248bc65db","system_id":"levelo_inurba_marseille","lat":43.27962,"lon":5.38709,"is_reserved":false,"is_disabled":false,"rental_uris":{"android":"levelo://app?vid=22b863de-7052-47e1-9e7c-e78248bc65db","ios":"levelo://app?vid=22b863de-7052-47e1-9e7c-e78248bc65db"},"vehicle_type_id":"4","last_reported":1768857057,"current_range_meters":4400,"station_id":"ce4bhg12rcd13ifvqf80","pricing_plan_id":"cebpf4jnsgd1na2vs0mg"},{"bike_id":"0c80884c-9c03-40f4-a5db-26696ff4abea","system_id":"levelo_inurba_marseille","lat":43.3055,"lon":5.36527,"is_reserved":false,"is_disabled":false,"rental_uris":{"android":"levelo://app?vid=0c80884c-9c03-40f4-a5db-26696ff4abea","ios":"levelo://app?vid=0c80884c-9c03-40f4-a5db-26696ff4abea"},"vehicle_type_id":"4","last_reported":1768857057,"current_range_meters":4400,"station_id":"ce4bgs12rcd13ifvqcag","pricing_plan_id":"cebpf4jnsgd1na2vs0mg"},{"bike_id":"65d540a3-6b25-4335-8357-ca6e40a2c0bf","system_id":"levelo_inurba_marseille","lat":43.28485,"lon":5.38536,"is_reserved":false,"is_disabled":false,"rental_uris":{"android":"levelo://app?vid=65d540a3-6b25-4335-8357-ca6e40a2c0bf","ios":"levelo://app?vid=65d540a3-6b25-4335-8357-ca6e40a2c0bf"},"vehicle_type_id":"4","last_reported":1768857057,"current_range_meters":4400,"station_id":"ce4bh8p2rcd13ifvqeb0","pricing_plan_id":"cebpf4jnsgd1na2vs0mg"},{"bike_id":"806e4957-1a5f-4c53-95df-29433d7f8877","system_id":"levelo_inurba_marseille","lat":43.30237,"lon":5.40022,"is_reserved":false,"is_disabled":true,"rental_uris":{"android":"levelo://app?vid=806e4957-1a5f-4c53-95df-29433d7f8877","ios":"levelo://app?vid=806e4957-1a5f-4c53-95df-29433d7f8877"},"vehicle_type_id":"4","last_reported":1768857057,"current_range_meters":4400,"station_id":"ce4bgvh2rcd13ifvqcs0","pricing_plan_id":"cebpf4jnsgd1na2vs0mg"},{"bike_id":"2fbfe62a-db06-4932-8158-ef1d0b78abf4","system_id":"levelo_inurba_marseille","lat":43.25221,"lon":5.38037,"is_reserved":false,"is_disabled":false,"rental_uris":{"android":"levelo://app?vid=2fbfe62a-db06-4932-8158-ef1d0b78abf4","ios":"levelo://app?vid=2fbfe62a-db06-4932-8158-ef1d0b78abf4"},"vehicle_type_id":"4","last_reported":1768857057,"current_range_meters":4400,"station_id":"","pricing_plan_id":"cebpf4jnsgd1na2vs0mg"},{"bike_id":"a85307e7-55a6-493f-b75d-6dc070935e20","system_id":"levelo_inurba_marseille","lat":43.27907,"lon":5.38022,"is_reserved":false,"is_disabled":false,"rental_uris":{"android":"levelo://app?vid=a85307e7-55a6-493f-b75d-6dc070935e20","ios":"levelo://app?vid=a85307e7-55a6-493f-b75d-6dc070935e20"},"vehicle_type_id":"4","last_reported":1768857057,"current_range_meters":4800,"station_id":"ce4bhf92rcd13ifvqf50","pricing_plan_id":"cebpf4jnsgd1na2vs0mg"},{"bike_id":"35df58ab-77a3-4070-9ec0-1c9995a3f5b6","system_id":"levelo_inurba_marseille","lat":43.2533,"lon":5.42155,"is_reserved":false,"is_disabled":false,"rental_uris":{"android":"levelo://app?vid=35df58ab-77a3-4070-9ec0-1c9995a3f5b6","ios":"levelo://app?vid=35df58ab-77a3-4070-9ec0-1c9995a3f5b6"},"vehicle_type_id":"4","last_reported":1768857057,"current_range_meters":4800,"station_id":"st_d2m65c5bi1j21697t3ng","pricing_plan_id":"cebpf4jnsgd1na2vs0mg"},{"bike_id":"7b740c1a-ea4c-4e40-ac1e-df09ec3f121c","system_id":"levelo_inurba_marseille","lat":43.29061,"lon":5.37163,"is_reserved":false,"is_disabled":false,"rental_uris":{"android":"levelo://app?vid=7b740c1a-ea4c-4e40-ac1e-df09ec3f121c","ios":"levelo://app?vid=7b740c1a-ea4c-4e40-ac1e-df09ec3f121c"},"vehicle_type_id":"4","last_reported":1768857057,"current_range_meters":4800,"station_id":"ce4bh5p2rcd13ifvqe4g","pricing_plan_id":"cebpf4jnsgd1na2vs0mg"},{"bike_id":"07d71416-deb7-4cc7-9f86-0f69e2a32773","system_id":"levelo_inurba_marseille","lat":43.24144,"lon":5.3973,"is_reserved":false,"is_disabled":false,"rental_uris":{"android":"levelo://app?vid=07d71416-deb7-4cc7-9f86-0f69e2a32773","ios":"levelo://app?vid=07d71416-deb7-4cc7-9f86-0f69e2a32773"},"vehicle_type_id":"4","last_reported":1768857057,"current_range_meters":4800,"station_id":"ce4bhn12rcd13ifvqgpg","pricing_plan_id":"cebpf4jnsgd1na2vs0mg"},{"bike_id":"d46ba195-2d28-4c38-aa25-805415af83e7","system_id":"levelo_inurba_marseille","lat":43.29972,"lon":5.38486,"is_reserved":false,"is_disabled":true,"rental_uris":{"android":"levelo://app?vid=d46ba195-2d28-4c38-aa25-805415af83e7","ios":"levelo://app?vid=d46ba195-2d28-4c38-aa25-805415af83e7"},"vehicle_type_id":"4","last_reported":1768857057,"current_range_meters":4800,"station_id":"ce4bgj92rcd13ifvqbd0","pricing_plan_id":"cebpf4jnsgd1na2vs0mg"},{"bike_id":"a47d2f2f-93ab-481b-b44f-0345cb20a93b","system_id":"levelo_inurba_marseille","lat":43.28935,"lon":5.38396,"is_reserved":false,"is_disabled":false,"rental_uris":{"android":"levelo://app?vid=a47d2f2f-93ab-481b-b44f-0345cb20a93b","ios":"levelo://app?vid=a47d2f2f-93ab-481b-b44f-0345cb20a93b"},"vehicle_type_id":"4","last_reported":1768857057,"current_range_meters":4800,"station_id":"ce4bh612rcd13ifvqe6g","pricing_plan_id":"cebpf4jnsgd1na2vs0mg"},{"bike_id":"c4e14ba6-9590-42e8-a0ad-bdab976a11ef","system_id":"levelo_inurba_marseille","lat":43.282621,"lon":5.350608,"is_reserved":false,"is_disabled":false,"rental_uris":{"android":"levelo://app?vid=c4e14ba6-9590-42e8-a0ad-bdab976a11ef","ios":"levelo://app?vid=c4e14ba6-9590-42e8-a0ad-bdab976a11ef"},"vehicle_type_id":"4","last_reported":1768857057,"current_range_meters":4800,"station_id":"ce4bhbp2rcd13ifvqerg","pricing_plan_id":"cebpf4jnsgd1na2vs0mg"},{"bike_id":"2e44fc02-404d-4c56-9bc6-3ccf2db7f515","system_id":"levelo_inurba_marseille","lat":43.29886,"lon":5.43681,"is_reserved":false,"is_disabled":false,"rental_uris":{"android":"levelo://app?vid=2e44fc02-404d-4c56-9bc6-3ccf2db7f515","ios":"levelo://app?vid=2e44fc02-404d-4c56-9bc6-3ccf2db7f515"},"vehicle_type_id":"4","last_reported":1768857057,"current_range_meters":4800,"station_id":"ce4bhpp2rcd13ifvqhfg","pricing_plan_id":"cebpf4jnsgd1na2vs0mg"},{"bike_id":"369b0722-a4b8-4027-a4ac-c61f71d9f27d","system_id":"levelo_inurba_marseille","lat":43.29529,"lon":5.39413,"is_reserved":false,"is_disabled":false,"rental_uris":{"android":"levelo://app?vid=369b0722-a4b8-4027-a4ac-c61f71d9f27d","ios":"levelo://app?vid=369b0722-a4b8-4027-a4ac-c61f71d9f27d"},"vehicle_type_id":"4","last_reported":1768857057,"current_range_meters":4800,"station_id":"ce4bh292rcd13ifvqdf0","pricing_plan_id":"cebpf4jnsgd1na2vs0mg"},{"bike_id":"dc3aed01-7444-4d81-8b59-d1a15aed744e","system_id":"levelo_inurba_marseille","lat":43.28343,"lon":5.38118,"is_reserved":false,"is_disabled":false,"rental_uris":{"android":"levelo://app?vid=dc3aed01-7444-4d81-8b59-d1a15aed744e","ios":"levelo://app?vid=dc3aed01-7444-4d81-8b59-d1a15aed744e"},"vehicle_type_id":"4","last_reported":1768857057,"current_range_meters":5600,"station_id":"ce4bh412rcd13ifvqdr0","pricing_plan_id":"cebpf4jnsgd1na2vs0mg"},{"bike_id":"bc7ccd1b-bfee-4869-a3d2-39dfa3a48fb2","system_id":"levelo_inurba_marseille","lat":43.28389,"lon":5.37537,"is_reserved":false,"is_disabled":false,"rental_uris":{"android":"levelo://app?vid=bc7ccd1b-bfee-4869-a3d2-39dfa3a48fb2","ios":"levelo://app?vid=bc7ccd1b-bfee-4869-a3d2-39dfa3a48fb2"},"vehicle_type_id":"4","last_reported":1768857057,"current_range_meters":5600,"station_id":"ce4bh412rcd13ifvqds0","pricing_plan_id":"cebpf4jnsgd1na2vs0mg"},{"bike_id":"5f120a86-cc0b-40c7-9c31-6878b214f823","system_id":"levelo_inurba_marseille","lat":43.24808,"lon":5.37454,"is_reserved":false,"is_disabled":false,"rental_uris":{"android":"levelo://app?vid=5f120a86-cc0b-40c7-9c31-6878b214f823","ios":"levelo://app?vid=5f120a86-cc0b-40c7-9c31-6878b214f823"},"vehicle_type_id":"4","last_reported":1768857057,"current_range_meters":5600,"station_id":"ce4bhgh2rcd13ifvqfb0","pricing_plan_id":"cebpf4jnsgd1na2vs0mg"},{"bike_id":"946882e2-1c7c-41d9-af64-47c95d7833f4","system_id":"levelo_inurba_marseille","lat":43.31757,"lon":5.39016,"is_reserved":false,"is_disabled":false,"rental_uris":{"android":"levelo://app?vid=946882e2-1c7c-41d9-af64-47c95d7833f4","ios":"levelo://app?vid=946882e2-1c7c-41d9-af64-47c95d7833f4"},"vehicle_type_id":"4","last_reported":1768857057,"current_range_meters":5600,"station_id":"ce4bhqp2rcd13ifvqhng","pricing_plan_id":"cebpf4jnsgd1na2vs0mg"},{"bike_id":"076970a1-4e6f-4125-84da-dd7c2322262c","system_id":"levelo_inurba_marseille","lat":43.29843,"lon":5.36289,"is_reserved":false,"is_disabled":false,"rental_uris":{"android":"levelo://app?vid=076970a1-4e6f-4125-84da-dd7c2322262c","ios":"levelo://app?vid=076970a1-4e6f-4125-84da-dd7c2322262c"},"vehicle_type_id":"4","last_reported":1768857057,"current_range_meters":5600,"station_id":"","pricing_plan_id":"cebpf4jnsgd1na2vs0mg"},{"bike_id":"82a972ff-c30f-4326-8a02-4f8fe3b37884","system_id":"levelo_inurba_marseille","lat":43.2377,"lon":5.36694,"is_reserved":false,"is_disabled":false,"rental_uris":{"android":"levelo://app?vid=82a972ff-c30f-4326-8a02-4f8fe3b37884","ios":"levelo://app?vid=82a972ff-c30f-4326-8a02-4f8fe3b37884"},"vehicle_type_id":"4","last_reported":1768857057,"current_range_meters":5600,"station_id":"st_d3nk18o9ro0c73en2l3g","pricing_plan_id":"cebpf4jnsgd1na2vs0mg"},{"bike_id":"cc98da82-e4c4-42c7-9f6a-c9c177b6cbc3","system_id":"levelo_inurba_marseille","lat":43.23155,"lon":5.43731,"is_reserved":false,"is_disabled":true,"rental_uris":{"android":"levelo://app?vid=cc98da82-e4c4-42c7-9f6a-c9c177b6cbc3","ios":"levelo://app?vid=cc98da82-e4c4-42c7-9f6a-c9c177b6cbc3"},"vehicle_type_id":"4","last_reported":1768857057,"current_range_meters":5600,"station_id":"ce4bhmp2rcd13ifvqgog","pricing_plan_id":"cebpf4jnsgd1na2vs0mg"},{"bike_id":"5eaccc9d-2b69-4116-b8f4-6671095c29ff","system_id":"levelo_inurba_marseille","lat":43.28755,"lon":5.37159,"is_reserved":false,"is_disabled":false,"rental_uris":{"android":"levelo://app?vid=5eaccc9d-2b69-4116-b8f4-6671095c29ff","ios":"levelo://app?vid=5eaccc9d-2b69-4116-b8f4-6671095c29ff"},"vehicle_type_id":"4","last_reported":1768857057,"current_range_meters":5600,"station_id":"","pricing_plan_id":"cebpf4jnsgd1na2vs0mg"},{"bike_id":"db7ef3fe-8042-458f-98f0-bf32c553e4f2","system_id":"levelo_inurba_marseille","lat":43.30253,"lon":5.40049,"is_reserved":false,"is_disabled":false,"rental_uris":{"android":"levelo://app?vid=db7ef3fe-8042-458f-98f0-bf32c553e4f2","ios":"levelo://app?vid=db7ef3fe-8042-458f-98f0-bf32c553e4f2"},"vehicle_type_id":"4","last_reported":1768857057,"current_range_meters":5600,"station_id":"ce4bgvh2rcd13ifvqcs0","pricing_plan_id":"cebpf4jnsgd1na2vs0mg"},{"bike_id":"7203e830-a3e8-48b3-874d-a33c2d2d3056","system_id":"levelo_inurba_marseille","lat":43.33753,"lon":5.37462,"is_reserved":false,"is_disabled":false,"rental_uris":{"android":"levelo://app?vid=7203e830-a3e8-48b3-874d-a33c2d2d3056","ios":"levelo://app?vid=7203e830-a3e8-48b3-874d-a33c2d2d3056"},"vehicle_type_id":"4","last_reported":1768857057,"current_range_meters":5600,"station_id":"","pricing_plan_id":"cebpf4jnsgd1na2vs0mg"},{"bike_id":"53d7389e-67e7-4845-ae5c-1cd339660b50","system_id":"levelo_inurba_marseille","lat":43.26552,"lon":5.40357,"is_reserved":false,"is_disabled":false,"rental_uris":{"android":"levelo://app?vid=53d7389e-67e7-4845-ae5c-1cd339660b50","ios":"levelo://app?vid=53d7389e-67e7-4845-ae5c-1cd339660b50"},"vehicle_type_id":"4","last_reported":1768857057,"current_range_meters":5600,"station_id":"ce4bhmp2rcd13ifvqgng","pricing_plan_id":"cebpf4jnsgd1na2vs0mg"},{"bike_id":"920c26d8-8ebc-4174-b996-b489c0a23e3d","system_id":"levelo_inurba_marseille","lat":43.241561,"lon":5.396792,"is_reserved":false,"is_disabled":false,"rental_uris":{"android":"levelo://app?vid=920c26d8-8ebc-4174-b996-b489c0a23e3d","ios":"levelo://app?vid=920c26d8-8ebc-4174-b996-b489c0a23e3d"},"vehicle_type_id":"4","last_reported":1768857057,"current_range_meters":5600,"station_id":"ce4bhn12rcd13ifvqgpg","pricing_plan_id":"cebpf4jnsgd1na2vs0mg"},{"bike_id":"d8bfb2e5-5baa-4794-9f56-3108e552202f","system_id":"levelo_inurba_marseille","lat":43.27825,"lon":5.40723,"is_reserved":false,"is_disabled":false,"rental_uris":{"android":"levelo://app?vid=d8bfb2e5-5baa-4794-9f56-3108e552202f","ios":"levelo://app?vid=d8bfb2e5-5baa-4794-9f56-3108e552202f"},"vehicle_type_id":"4","last_reported":1768857057,"current_range_meters":5600,"station_id":"ce4bhnh2rcd13ifvqgtg","pricing_plan_id":"cebpf4jnsgd1na2vs0mg"},{"bike_id":"6c7011e5-414c-4f5e-abe7-ae2f824bd5bd","system_id":"levelo_inurba_marseille","lat":43.25865,"lon":5.399,"is_reserved":false,"is_disabled":false,"rental_uris":{"android":"levelo://app?vid=6c7011e5-414c-4f5e-abe7-ae2f824bd5bd","ios":"levelo://app?vid=6c7011e5-414c-4f5e-abe7-ae2f824bd5bd"},"vehicle_type_id":"4","last_reported":1768857057,"current_range_meters":5600,"station_id":"ce4bhl92rcd13ifvqghg","pricing_plan_id":"cebpf4jnsgd1na2vs0mg"},{"bike_id":"eaa3d88b-d58a-4126-b680-cb7365fc49f6","system_id":"levelo_inurba_marseille","lat":43.31171,"lon":5.38711,"is_reserved":false,"is_disabled":false,"rental_uris":{"android":"levelo://app?vid=eaa3d88b-d58a-4126-b680-cb7365fc49f6","ios":"levelo://app?vid=eaa3d88b-d58a-4126-b680-cb7365fc49f6"},"vehicle_type_id":"4","last_reported":1768857057,"current_range_meters":5600,"station_id":"ce4bgv12rcd13ifvqcp0","pricing_plan_id":"cebpf4jnsgd1na2vs0mg"},{"bike_id":"c0627a81-edf3-4c76-87d5-5fc1946102fe","system_id":"levelo_inurba_marseille","lat":43.28602,"lon":5.3511,"is_reserved":false,"is_disabled":false,"rental_uris":{"android":"levelo://app?vid=c0627a81-edf3-4c76-87d5-5fc1946102fe","ios":"levelo://app?vid=c0627a81-edf3-4c76-87d5-5fc1946102fe"},"vehicle_type_id":"4","last_reported":1768857057,"current_range_meters":5600,"station_id":"ce4bhch2rcd13ifvqeug","pricing_plan_id":"cebpf4jnsgd1na2vs0mg"},{"bike_id":"1efd8771-c3d5-49d2-a669-045ea31d0385","system_id":"levelo_inurba_marseille","lat":43.28432,"lon":5.39189,"is_reserved":false,"is_disabled":false,"rental_uris":{"android":"levelo://app?vid=1efd8771-c3d5-49d2-a669-045ea31d0385","ios":"levelo://app?vid=1efd8771-c3d5-49d2-a669-045ea31d0385"},"vehicle_type_id":"4","last_reported":1768857057,"current_range_meters":5600,"station_id":"ce4bhoh2rcd13ifvqh5g","pricing_plan_id":"cebpf4jnsgd1na2vs0mg"},{"bike_id":"9a6b46e7-bffd-43dc-99b8-4d8b1baff20e","system_id":"levelo_inurba_marseille","lat":43.30428,"lon":5.38893,"is_reserved":false,"is_disabled":false,"rental_uris":{"android":"levelo://app?vid=9a6b46e7-bffd-43dc-99b8-4d8b1baff20e","ios":"levelo://app?vid=9a6b46e7-bffd-43dc-99b8-4d8b1baff20e"},"vehicle_type_id":"4","last_reported":1768857057,"current_range_meters":6000,"station_id":"ce4bgk12rcd13ifvqbi0","pricing_plan_id":"cebpf4jnsgd1na2vs0mg"},{"bike_id":"fb5bd089-1d87-433b-a102-943632d05bb1","system_id":"levelo_inurba_marseille","lat":43.28673,"lon":5.38658,"is_reserved":false,"is_disabled":false,"rental_uris":{"android":"levelo://app?vid=fb5bd089-1d87-433b-a102-943632d05bb1","ios":"levelo://app?vid=fb5bd089-1d87-433b-a102-943632d05bb1"},"vehicle_type_id":"4","last_reported":1768857057,"current_range_meters":6000,"station_id":"ce4bh492rcd13ifvqdug","pricing_plan_id":"cebpf4jnsgd1na2vs0mg"},{"bike_id":"5b2696e3-4023-43dc-90a6-9e0c0e41ee6d","system_id":"levelo_inurba_marseille","lat":43.29262,"lon":5.38461,"is_reserved":false,"is_disabled":false,"rental_uris":{"android":"levelo://app?vid=5b2696e3-4023-43dc-90a6-9e0c0e41ee6d","ios":"levelo://app?vid=5b2696e3-4023-43dc-90a6-9e0c0e41ee6d"},"vehicle_type_id":"4","last_reported":1768857057,"current_range_meters":6000,"station_id":"ce4bh692rcd13ifvqea0","pricing_plan_id":"cebpf4jnsgd1na2vs0mg"},{"bike_id":"55134973-4332-436c-abb8-45c5b07e5b64","system_id":"levelo_inurba_marseille","lat":43.28705,"lon":5.36101,"is_reserved":false,"is_disabled":false,"rental_uris":{"android":"levelo://app?vid=55134973-4332-436c-abb8-45c5b07e5b64","ios":"levelo://app?vid=55134973-4332-436c-abb8-45c5b07e5b64"},"vehicle_type_id":"4","last_reported":1768857057,"current_range_meters":6000,"station_id":"cki0cbj6b192h4jlfktg","pricing_plan_id":"cebpf4jnsgd1na2vs0mg"},{"bike_id":"50c47a6e-8921-4008-8c5d-86f87ed06be3","system_id":"levelo_inurba_marseille","lat":43.27999,"lon":5.40016,"is_reserved":false,"is_disabled":false,"rental_uris":{"android":"levelo://app?vid=50c47a6e-8921-4008-8c5d-86f87ed06be3","ios":"levelo://app?vid=50c47a6e-8921-4008-8c5d-86f87ed06be3"},"vehicle_type_id":"4","last_reported":1768857057,"current_range_meters":6000,"station_id":"ce4bho92rcd13ifvqh4g","pricing_plan_id":"cebpf4jnsgd1na2vs0mg"},{"bike_id":"4b5aa404-a223-4202-a9b4-4364010f0fb4","system_id":"levelo_inurba_marseille","lat":43.33758,"lon":5.37493,"is_reserved":false,"is_disabled":false,"rental_uris":{"android":"levelo://app?vid=4b5aa404-a223-4202-a9b4-4364010f0fb4","ios":"levelo://app?vid=4b5aa404-a223-4202-a9b4-4364010f0fb4"},"vehicle_type_id":"4","last_reported":1768857057,"current_range_meters":6000,"station_id":"","pricing_plan_id":"cebpf4jnsgd1na2vs0mg"},{"bike_id":"82bc016e-ea5f-4e74-95db-96f538282223","system_id":"levelo_inurba_marseille","lat":43.298235,"lon":5.362191,"is_reserved":false,"is_disabled":false,"rental_uris":{"android":"levelo://app?vid=82bc016e-ea5f-4e74-95db-96f538282223","ios":"levelo://app?vid=82bc016e-ea5f-4e74-95db-96f538282223"},"vehicle_type_id":"4","last_reported":1768857057,"current_range_meters":6000,"station_id":"ce4bgpp2rcd13ifvqc3g","pricing_plan_id":"cebpf4jnsgd1na2vs0mg"},{"bike_id":"0be1b7c2-2a16-4cfb-b6c6-31dc9a4a8cf1","system_id":"levelo_inurba_marseille","lat":43.27789,"lon":5.40728,"is_reserved":false,"is_disabled":false,"rental_uris":{"android":"levelo://app?vid=0be1b7c2-2a16-4cfb-b6c6-31dc9a4a8cf1","ios":"levelo://app?vid=0be1b7c2-2a16-4cfb-b6c6-31dc9a4a8cf1"},"vehicle_type_id":"4","last_reported":1768857057,"current_range_meters":6000,"station_id":"ce4bhnh2rcd13ifvqgtg","pricing_plan_id":"cebpf4jnsgd1na2vs0mg"},{"bike_id":"24c89c87-4e34-4758-98ab-4279f78b4108","system_id":"levelo_inurba_marseille","lat":43.25815,"lon":5.39433,"is_reserved":false,"is_disabled":false,"rental_uris":{"android":"levelo://app?vid=24c89c87-4e34-4758-98ab-4279f78b4108","ios":"levelo://app?vid=24c89c87-4e34-4758-98ab-4279f78b4108"},"vehicle_type_id":"4","last_reported":1768857057,"current_range_meters":6000,"station_id":"ce4bhip2rcd13ifvqft0","pricing_plan_id":"cebpf4jnsgd1na2vs0mg"},{"bike_id":"f18bc030-feac-4290-98f5-ef3dbe2dffcf","system_id":"levelo_inurba_marseille","lat":43.26492,"lon":5.39551,"is_reserved":false,"is_disabled":false,"rental_uris":{"android":"levelo://app?vid=f18bc030-feac-4290-98f5-ef3dbe2dffcf","ios":"levelo://app?vid=f18bc030-feac-4290-98f5-ef3dbe2dffcf"},"vehicle_type_id":"4","last_reported":1768857057,"current_range_meters":6000,"station_id":"ce4bhi12rcd13ifvqfq0","pricing_plan_id":"cebpf4jnsgd1na2vs0mg"},{"bike_id":"16ce393c-0a0b-4807-8031-904c4658b2b9","system_id":"levelo_inurba_marseille","lat":43.28608,"lon":5.39873,"is_reserved":false,"is_disabled":false,"rental_uris":{"android":"levelo://app?vid=16ce393c-0a0b-4807-8031-904c4658b2b9","ios":"levelo://app?vid=16ce393c-0a0b-4807-8031-904c4658b2b9"},"vehicle_type_id":"4","last_reported":1768857057,"current_range_meters":6000,"station_id":"st_d4a7ka997mjs738ck50g","pricing_plan_id":"cebpf4jnsgd1na2vs0mg"},{"bike_id":"d94b0719-67c8-4a98-823a-17ee81ceae99","system_id":"levelo_inurba_marseille","lat":43.27984,"lon":5.39966,"is_reserved":false,"is_disabled":false,"rental_uris":{"android":"levelo://app?vid=d94b0719-67c8-4a98-823a-17ee81ceae99","ios":"levelo://app?vid=d94b0719-67c8-4a98-823a-17ee81ceae99"},"vehicle_type_id":"4","last_reported":1768857057,"current_range_meters":6000,"station_id":"ce4bho92rcd13ifvqh4g","pricing_plan_id":"cebpf4jnsgd1na2vs0mg"},{"bike_id":"d5dd060c-3afa-4f16-9d8f-3630c24efc3a","system_id":"levelo_inurba_marseille","lat":43.29144,"lon":5.38599,"is_reserved":false,"is_disabled":false,"rental_uris":{"android":"levelo://app?vid=d5dd060c-3afa-4f16-9d8f-3630c24efc3a","ios":"levelo://app?vid=d5dd060c-3afa-4f16-9d8f-3630c24efc3a"},"vehicle_type_id":"4","last_reported":1768857057,"current_range_meters":6000,"station_id":"","pricing_plan_id":"cebpf4jnsgd1na2vs0mg"},{"bike_id":"0ffa3a37-1efe-4773-9c0c-0281daa15b60","system_id":"levelo_inurba_marseille","lat":43.25282,"lon":5.38065,"is_reserved":false,"is_disabled":false,"rental_uris":{"android":"levelo://app?vid=0ffa3a37-1efe-4773-9c0c-0281daa15b60","ios":"levelo://app?vid=0ffa3a37-1efe-4773-9c0c-0281daa15b60"},"vehicle_type_id":"4","last_reported":1768857057,"current_range_meters":6000,"station_id":"","pricing_plan_id":"cebpf4jnsgd1na2vs0mg"},{"bike_id":"8ad38f65-7061-4db4-ab81-a3b040098a9a","system_id":"levelo_inurba_marseille","lat":43.27795,"lon":5.40721,"is_reserved":false,"is_disabled":false,"rental_uris":{"android":"levelo://app?vid=8ad38f65-7061-4db4-ab81-a3b040098a9a","ios":"levelo://app?vid=8ad38f65-7061-4db4-ab81-a3b040098a9a"},"vehicle_type_id":"4","last_reported":1768857057,"current_range_meters":6000,"station_id":"ce4bhnh2rcd13ifvqgtg","pricing_plan_id":"cebpf4jnsgd1na2vs0mg"},{"bike_id":"439c8f8d-4d3b-4ce9-9439-6b8f54f2b295","system_id":"levelo_inurba_marseille","lat":43.30133,"lon":5.39867,"is_reserved":false,"is_disabled":false,"rental_uris":{"android":"levelo://app?vid=439c8f8d-4d3b-4ce9-9439-6b8f54f2b295","ios":"levelo://app?vid=439c8f8d-4d3b-4ce9-9439-6b8f54f2b295"},"vehicle_type_id":"4","last_reported":1768857057,"current_range_meters":6000,"station_id":"ce4bh0h2rcd13ifvqd40","pricing_plan_id":"cebpf4jnsgd1na2vs0mg"},{"bike_id":"601c2709-22a4-464b-ac88-e378165071d7","system_id":"levelo_inurba_marseille","lat":43.253355,"lon":5.421664,"is_reserved":false,"is_disabled":false,"rental_uris":{"android":"levelo://app?vid=601c2709-22a4-464b-ac88-e378165071d7","ios":"levelo://app?vid=601c2709-22a4-464b-ac88-e378165071d7"},"vehicle_type_id":"4","last_reported":1768857057,"current_range_meters":6400,"station_id":"st_d2m65c5bi1j21697t3ng","pricing_plan_id":"cebpf4jnsgd1na2vs0mg"},{"bike_id":"aa734ba7-ce92-4c1b-86f8-f1622bce223c","system_id":"levelo_inurba_marseille","lat":43.29801,"lon":5.44111,"is_reserved":false,"is_disabled":true,"rental_uris":{"android":"levelo://app?vid=aa734ba7-ce92-4c1b-86f8-f1622bce223c","ios":"levelo://app?vid=aa734ba7-ce92-4c1b-86f8-f1622bce223c"},"vehicle_type_id":"4","last_reported":1768857057,"current_range_meters":6400,"station_id":"","pricing_plan_id":"cebpf4jnsgd1na2vs0mg"},{"bike_id":"59a79dbb-2ce7-4b03-a390-aeb2eafa0f16","system_id":"levelo_inurba_marseille","lat":43.28492,"lon":5.38549,"is_reserved":false,"is_disabled":false,"rental_uris":{"android":"levelo://app?vid=59a79dbb-2ce7-4b03-a390-aeb2eafa0f16","ios":"levelo://app?vid=59a79dbb-2ce7-4b03-a390-aeb2eafa0f16"},"vehicle_type_id":"4","last_reported":1768857057,"current_range_meters":6400,"station_id":"ce4bh8p2rcd13ifvqeb0","pricing_plan_id":"cebpf4jnsgd1na2vs0mg"},{"bike_id":"d16668c1-3494-42a0-89aa-a7fc6a4a19f9","system_id":"levelo_inurba_marseille","lat":43.22938,"lon":5.35379,"is_reserved":false,"is_disabled":false,"rental_uris":{"android":"levelo://app?vid=d16668c1-3494-42a0-89aa-a7fc6a4a19f9","ios":"levelo://app?vid=d16668c1-3494-42a0-89aa-a7fc6a4a19f9"},"vehicle_type_id":"4","last_reported":1768857057,"current_range_meters":6400,"station_id":"cpo3532slgdg3j2ikp40","pricing_plan_id":"cebpf4jnsgd1na2vs0mg"},{"bike_id":"a2e52012-295b-4081-ba41-4daf4a0dd9bd","system_id":"levelo_inurba_marseille","lat":43.2291,"lon":5.35416,"is_reserved":false,"is_disabled":false,"rental_uris":{"android":"levelo://app?vid=a2e52012-295b-4081-ba41-4daf4a0dd9bd","ios":"levelo://app?vid=a2e52012-295b-4081-ba41-4daf4a0dd9bd"},"vehicle_type_id":"4","last_reported":1768857057,"current_range_meters":6400,"station_id":"cpo3532slgdg3j2ikp40","pricing_plan_id":"cebpf4jnsgd1na2vs0mg"},{"bike_id":"92030df9-3983-40dd-ae8e-c537cab0af80","system_id":"levelo_inurba_marseille","lat":43.264946,"lon":5.395401,"is_reserved":false,"is_disabled":false,"rental_uris":{"android":"levelo://app?vid=92030df9-3983-40dd-ae8e-c537cab0af80","ios":"levelo://app?vid=92030df9-3983-40dd-ae8e-c537cab0af80"},"vehicle_type_id":"4","last_reported":1768857057,"current_range_meters":6400,"station_id":"ce4bhi12rcd13ifvqfq0","pricing_plan_id":"cebpf4jnsgd1na2vs0mg"},{"bike_id":"0352f83e-42c9-4b95-aab1-5eb895fe3a3d","system_id":"levelo_inurba_marseille","lat":43.22563,"lon":5.41638,"is_reserved":false,"is_disabled":false,"rental_uris":{"android":"levelo://app?vid=0352f83e-42c9-4b95-aab1-5eb895fe3a3d","ios":"levelo://app?vid=0352f83e-42c9-4b95-aab1-5eb895fe3a3d"},"vehicle_type_id":"4","last_reported":1768857057,"current_range_meters":6400,"station_id":"st_d2o4gvlbi1j2169b742g","pricing_plan_id":"cebpf4jnsgd1na2vs0mg"},{"bike_id":"58922b42-b0dc-43fd-bf81-dd6ae427768e","system_id":"levelo_inurba_marseille","lat":43.25189,"lon":5.40079,"is_reserved":false,"is_disabled":false,"rental_uris":{"android":"levelo://app?vid=58922b42-b0dc-43fd-bf81-dd6ae427768e","ios":"levelo://app?vid=58922b42-b0dc-43fd-bf81-dd6ae427768e"},"vehicle_type_id":"4","last_reported":1768857057,"current_range_meters":6400,"station_id":"","pricing_plan_id":"cebpf4jnsgd1na2vs0mg"},{"bike_id":"1f98d89c-8dec-45fe-8489-d4b0908ef42d","system_id":"levelo_inurba_marseille","lat":43.26568,"lon":5.39048,"is_reserved":false,"is_disabled":false,"rental_uris":{"android":"levelo://app?vid=1f98d89c-8dec-45fe-8489-d4b0908ef42d","ios":"levelo://app?vid=1f98d89c-8dec-45fe-8489-d4b0908ef42d"},"vehicle_type_id":"4","last_reported":1768857057,"current_range_meters":6400,"station_id":"ce4bhe12rcd13ifvqf30","pricing_plan_id":"cebpf4jnsgd1na2vs0mg"},{"bike_id":"0f04e703-1d97-4ec9-9d78-4934dc51f36a","system_id":"levelo_inurba_marseille","lat":43.311,"lon":5.37776,"is_reserved":false,"is_disabled":false,"rental_uris":{"android":"levelo://app?vid=0f04e703-1d97-4ec9-9d78-4934dc51f36a","ios":"levelo://app?vid=0f04e703-1d97-4ec9-9d78-4934dc51f36a"},"vehicle_type_id":"4","last_reported":1768857057,"current_range_meters":6400,"station_id":"ce4bgt92rcd13ifvqcg0","pricing_plan_id":"cebpf4jnsgd1na2vs0mg"},{"bike_id":"ca08b23d-b54d-456f-9dc9-e5cc35a08fcc","system_id":"levelo_inurba_marseille","lat":43.2869,"lon":5.38673,"is_reserved":false,"is_disabled":false,"rental_uris":{"android":"levelo://app?vid=ca08b23d-b54d-456f-9dc9-e5cc35a08fcc","ios":"levelo://app?vid=ca08b23d-b54d-456f-9dc9-e5cc35a08fcc"},"vehicle_type_id":"4","last_reported":1768857057,"current_range_meters":6400,"station_id":"ce4bh492rcd13ifvqdug","pricing_plan_id":"cebpf4jnsgd1na2vs0mg"},{"bike_id":"5a47b597-eb88-4d0f-a0cc-dc9cf6057637","system_id":"levelo_inurba_marseille","lat":43.24659,"lon":5.38922,"is_reserved":false,"is_disabled":false,"rental_uris":{"android":"levelo://app?vid=5a47b597-eb88-4d0f-a0cc-dc9cf6057637","ios":"levelo://app?vid=5a47b597-eb88-4d0f-a0cc-dc9cf6057637"},"vehicle_type_id":"4","last_reported":1768857057,"current_range_meters":6400,"station_id":"ce4bhg12rcd13ifvqf60","pricing_plan_id":"cebpf4jnsgd1na2vs0mg"},{"bike_id":"1d96bc89-a55a-4036-8519-21c71a49b3da","system_id":"levelo_inurba_marseille","lat":43.31144,"lon":5.37972,"is_reserved":false,"is_disabled":false,"rental_uris":{"android":"levelo://app?vid=1d96bc89-a55a-4036-8519-21c71a49b3da","ios":"levelo://app?vid=1d96bc89-a55a-4036-8519-21c71a49b3da"},"vehicle_type_id":"4","last_reported":1768857057,"current_range_meters":6400,"station_id":"","pricing_plan_id":"cebpf4jnsgd1na2vs0mg"},{"bike_id":"526b8503-7faf-448a-b0f6-00cc94ab5971","system_id":"levelo_inurba_marseille","lat":43.24493,"lon":5.42538,"is_reserved":false,"is_disabled":false,"rental_uris":{"android":"levelo://app?vid=526b8503-7faf-448a-b0f6-00cc94ab5971","ios":"levelo://app?vid=526b8503-7faf-448a-b0f6-00cc94ab5971"},"vehicle_type_id":"4","last_reported":1768857057,"current_range_meters":6800,"station_id":"st_d4a3vfp97mjs738cd8kg","pricing_plan_id":"cebpf4jnsgd1na2vs0mg"},{"bike_id":"a7d95974-2710-4aab-9af4-78af1fb2e291","system_id":"levelo_inurba_marseille","lat":43.2826,"lon":5.35075,"is_reserved":false,"is_disabled":false,"rental_uris":{"android":"levelo://app?vid=a7d95974-2710-4aab-9af4-78af1fb2e291","ios":"levelo://app?vid=a7d95974-2710-4aab-9af4-78af1fb2e291"},"vehicle_type_id":"4","last_reported":1768857057,"current_range_meters":6800,"station_id":"ce4bhbp2rcd13ifvqerg","pricing_plan_id":"cebpf4jnsgd1na2vs0mg"},{"bike_id":"23130343-706e-4d89-bd20-e93b1b2ca952","system_id":"levelo_inurba_marseille","lat":43.30176,"lon":5.37972,"is_reserved":false,"is_disabled":false,"rental_uris":{"android":"levelo://app?vid=23130343-706e-4d89-bd20-e93b1b2ca952","ios":"levelo://app?vid=23130343-706e-4d89-bd20-e93b1b2ca952"},"vehicle_type_id":"4","last_reported":1768857057,"current_range_meters":6800,"station_id":"","pricing_plan_id":"cebpf4jnsgd1na2vs0mg"},{"bike_id":"de773d31-c0ae-4fe9-90d5-b0353b585a1e","system_id":"levelo_inurba_marseille","lat":43.265,"lon":5.39543,"is_reserved":false,"is_disabled":false,"rental_uris":{"android":"levelo://app?vid=de773d31-c0ae-4fe9-90d5-b0353b585a1e","ios":"levelo://app?vid=de773d31-c0ae-4fe9-90d5-b0353b585a1e"},"vehicle_type_id":"4","last_reported":1768857057,"current_range_meters":6800,"station_id":"","pricing_plan_id":"cebpf4jnsgd1na2vs0mg"},{"bike_id":"55a93059-46da-4326-b3f6-eca54949cf8d","system_id":"levelo_inurba_marseille","lat":43.27808,"lon":5.40709,"is_reserved":false,"is_disabled":false,"rental_uris":{"android":"levelo://app?vid=55a93059-46da-4326-b3f6-eca54949cf8d","ios":"levelo://app?vid=55a93059-46da-4326-b3f6-eca54949cf8d"},"vehicle_type_id":"4","last_reported":1768857057,"current_range_meters":6800,"station_id":"ce4bhnh2rcd13ifvqgtg","pricing_plan_id":"cebpf4jnsgd1na2vs0mg"},{"bike_id":"8faa5eec-1572-4730-991d-d243800d03ee","system_id":"levelo_inurba_marseille","lat":43.30116,"lon":5.43126,"is_reserved":false,"is_disabled":false,"rental_uris":{"android":"levelo://app?vid=8faa5eec-1572-4730-991d-d243800d03ee","ios":"levelo://app?vid=8faa5eec-1572-4730-991d-d243800d03ee"},"vehicle_type_id":"4","last_reported":1768857057,"current_range_meters":6800,"station_id":"st_d3js3co5814s73ftftug","pricing_plan_id":"cebpf4jnsgd1na2vs0mg"},{"bike_id":"944690ea-f3d7-4e77-b795-63c34d099868","system_id":"levelo_inurba_marseille","lat":43.24471,"lon":5.42576,"is_reserved":false,"is_disabled":false,"rental_uris":{"android":"levelo://app?vid=944690ea-f3d7-4e77-b795-63c34d099868","ios":"levelo://app?vid=944690ea-f3d7-4e77-b795-63c34d099868"},"vehicle_type_id":"4","last_reported":1768857057,"current_range_meters":6800,"station_id":"st_d4a3vfp97mjs738cd8kg","pricing_plan_id":"cebpf4jnsgd1na2vs0mg"},{"bike_id":"4c18c049-62ae-469f-b2ed-484231c5fbdf","system_id":"levelo_inurba_marseille","lat":43.31074,"lon":5.38363,"is_reserved":false,"is_disabled":false,"rental_uris":{"android":"levelo://app?vid=4c18c049-62ae-469f-b2ed-484231c5fbdf","ios":"levelo://app?vid=4c18c049-62ae-469f-b2ed-484231c5fbdf"},"vehicle_type_id":"4","last_reported":1768857057,"current_range_meters":6800,"station_id":"ce4bgv92rcd13ifvqcr0","pricing_plan_id":"cebpf4jnsgd1na2vs0mg"},{"bike_id":"19875d50-7f43-4982-a2ad-e20b9e3adaa2","system_id":"levelo_inurba_marseille","lat":43.24951,"lon":5.40489,"is_reserved":false,"is_disabled":true,"rental_uris":{"android":"levelo://app?vid=19875d50-7f43-4982-a2ad-e20b9e3adaa2","ios":"levelo://app?vid=19875d50-7f43-4982-a2ad-e20b9e3adaa2"},"vehicle_type_id":"4","last_reported":1768857057,"current_range_meters":6800,"station_id":"st_d2ngiaodas8pm72gd1h0","pricing_plan_id":"cebpf4jnsgd1na2vs0mg"},{"bike_id":"24566be9-ade1-4d06-8609-5228ee715f52","system_id":"levelo_inurba_marseille","lat":43.29705,"lon":5.36612,"is_reserved":false,"is_disabled":false,"rental_uris":{"android":"levelo://app?vid=24566be9-ade1-4d06-8609-5228ee715f52","ios":"levelo://app?vid=24566be9-ade1-4d06-8609-5228ee715f52"},"vehicle_type_id":"4","last_reported":1768857057,"current_range_meters":6800,"station_id":"ce4bgn12rcd13ifvqbt0","pricing_plan_id":"cebpf4jnsgd1na2vs0mg"},{"bike_id":"e5afdae1-8536-48ae-affe-93a7f04d1b80","system_id":"levelo_inurba_marseille","lat":43.28355,"lon":5.39428,"is_reserved":false,"is_disabled":false,"rental_uris":{"android":"levelo://app?vid=e5afdae1-8536-48ae-affe-93a7f04d1b80","ios":"levelo://app?vid=e5afdae1-8536-48ae-affe-93a7f04d1b80"},"vehicle_type_id":"4","last_reported":1768857057,"current_range_meters":6800,"station_id":"","pricing_plan_id":"cebpf4jnsgd1na2vs0mg"},{"bike_id":"485e1504-e49e-49c4-abeb-fa5cfa3ec9ad","system_id":"levelo_inurba_marseille","lat":43.30795,"lon":5.38154,"is_reserved":false,"is_disabled":false,"rental_uris":{"android":"levelo://app?vid=485e1504-e49e-49c4-abeb-fa5cfa3ec9ad","ios":"levelo://app?vid=485e1504-e49e-49c4-abeb-fa5cfa3ec9ad"},"vehicle_type_id":"4","last_reported":1768857057,"current_range_meters":6800,"station_id":"ce4bgt12rcd13ifvqce0","pricing_plan_id":"cebpf4jnsgd1na2vs0mg"},{"bike_id":"295e07a1-ab63-4c7c-aaa5-9a38ff447ed7","system_id":"levelo_inurba_marseille","lat":43.27184,"lon":5.40976,"is_reserved":false,"is_disabled":false,"rental_uris":{"android":"levelo://app?vid=295e07a1-ab63-4c7c-aaa5-9a38ff447ed7","ios":"levelo://app?vid=295e07a1-ab63-4c7c-aaa5-9a38ff447ed7"},"vehicle_type_id":"4","last_reported":1768857057,"current_range_meters":6800,"station_id":"ce4bhl12rcd13ifvqgf0","pricing_plan_id":"cebpf4jnsgd1na2vs0mg"},{"bike_id":"160762cb-b0be-4eb4-9c86-0c44f320ab1f","system_id":"levelo_inurba_marseille","lat":43.24955,"lon":5.4051,"is_reserved":false,"is_disabled":false,"rental_uris":{"android":"levelo://app?vid=160762cb-b0be-4eb4-9c86-0c44f320ab1f","ios":"levelo://app?vid=160762cb-b0be-4eb4-9c86-0c44f320ab1f"},"vehicle_type_id":"4","last_reported":1768857057,"current_range_meters":6800,"station_id":"st_d2ngiaodas8pm72gd1h0","pricing_plan_id":"cebpf4jnsgd1na2vs0mg"},{"bike_id":"2aa92939-faa1-423c-a91d-f94f85acf3d9","system_id":"levelo_inurba_marseille","lat":43.317124,"lon":5.436972,"is_reserved":false,"is_disabled":false,"rental_uris":{"android":"levelo://app?vid=2aa92939-faa1-423c-a91d-f94f85acf3d9","ios":"levelo://app?vid=2aa92939-faa1-423c-a91d-f94f85acf3d9"},"vehicle_type_id":"4","last_reported":1768857057,"current_range_meters":6800,"station_id":"ce4bhp92rcd13ifvqhcg","pricing_plan_id":"cebpf4jnsgd1na2vs0mg"},{"bike_id":"fbe56d21-b8ca-48e6-a7e7-2db2bee715ee","system_id":"levelo_inurba_marseille","lat":43.25581,"lon":5.38234,"is_reserved":false,"is_disabled":false,"rental_uris":{"android":"levelo://app?vid=fbe56d21-b8ca-48e6-a7e7-2db2bee715ee","ios":"levelo://app?vid=fbe56d21-b8ca-48e6-a7e7-2db2bee715ee"},"vehicle_type_id":"4","last_reported":1768857057,"current_range_meters":6800,"station_id":"ce4bhih2rcd13ifvqfs0","pricing_plan_id":"cebpf4jnsgd1na2vs0mg"},{"bike_id":"032aecd2-ec21-44b6-8a45-d6109505bbde","system_id":"levelo_inurba_marseille","lat":43.24659,"lon":5.38163,"is_reserved":false,"is_disabled":false,"rental_uris":{"android":"levelo://app?vid=032aecd2-ec21-44b6-8a45-d6109505bbde","ios":"levelo://app?vid=032aecd2-ec21-44b6-8a45-d6109505bbde"},"vehicle_type_id":"4","last_reported":1768857057,"current_range_meters":6800,"station_id":"ce4bhih2rcd13ifvqfr0","pricing_plan_id":"cebpf4jnsgd1na2vs0mg"},{"bike_id":"d9b02a63-6749-4e7c-a41c-f66a10e0384e","system_id":"levelo_inurba_marseille","lat":43.2319,"lon":5.39985,"is_reserved":false,"is_disabled":false,"rental_uris":{"android":"levelo://app?vid=d9b02a63-6749-4e7c-a41c-f66a10e0384e","ios":"levelo://app?vid=d9b02a63-6749-4e7c-a41c-f66a10e0384e"},"vehicle_type_id":"4","last_reported":1768857057,"current_range_meters":6800,"station_id":"ce4bhn12rcd13ifvqgqg","pricing_plan_id":"cebpf4jnsgd1na2vs0mg"},{"bike_id":"3ca81cfa-8a3e-48fa-a409-545ea74d9f21","system_id":"levelo_inurba_marseille","lat":43.25337,"lon":5.4218,"is_reserved":false,"is_disabled":false,"rental_uris":{"android":"levelo://app?vid=3ca81cfa-8a3e-48fa-a409-545ea74d9f21","ios":"levelo://app?vid=3ca81cfa-8a3e-48fa-a409-545ea74d9f21"},"vehicle_type_id":"4","last_reported":1768857057,"current_range_meters":6800,"station_id":"st_d2m65c5bi1j21697t3ng","pricing_plan_id":"cebpf4jnsgd1na2vs0mg"},{"bike_id":"e696390d-8036-4f59-a8b6-4285efe55098","system_id":"levelo_inurba_marseille","lat":43.24656,"lon":5.38898,"is_reserved":false,"is_disabled":false,"rental_uris":{"android":"levelo://app?vid=e696390d-8036-4f59-a8b6-4285efe55098","ios":"levelo://app?vid=e696390d-8036-4f59-a8b6-4285efe55098"},"vehicle_type_id":"4","last_reported":1768857057,"current_range_meters":7200,"station_id":"ce4bhg12rcd13ifvqf60","pricing_plan_id":"cebpf4jnsgd1na2vs0mg"},{"bike_id":"65fa859c-fd52-4fc1-bf24-0348f651f61b","system_id":"levelo_inurba_marseille","lat":43.27981,"lon":5.40003,"is_reserved":false,"is_disabled":false,"rental_uris":{"android":"levelo://app?vid=65fa859c-fd52-4fc1-bf24-0348f651f61b","ios":"levelo://app?vid=65fa859c-fd52-4fc1-bf24-0348f651f61b"},"vehicle_type_id":"4","last_reported":1768857057,"current_range_meters":7200,"station_id":"ce4bho92rcd13ifvqh4g","pricing_plan_id":"cebpf4jnsgd1na2vs0mg"},{"bike_id":"bc6c800a-6928-4bf7-8745-f31ca6747acf","system_id":"levelo_inurba_marseille","lat":43.323496,"lon":5.367318,"is_reserved":false,"is_disabled":false,"rental_uris":{"android":"levelo://app?vid=bc6c800a-6928-4bf7-8745-f31ca6747acf","ios":"levelo://app?vid=bc6c800a-6928-4bf7-8745-f31ca6747acf"},"vehicle_type_id":"4","last_reported":1768857057,"current_range_meters":7200,"station_id":"ce4bhsh2rcd13ifvqi2g","pricing_plan_id":"cebpf4jnsgd1na2vs0mg"},{"bike_id":"cf5cb808-f9d1-4427-acc0-79b66b4dbb3c","system_id":"levelo_inurba_marseille","lat":43.29893,"lon":5.38157,"is_reserved":false,"is_disabled":false,"rental_uris":{"android":"levelo://app?vid=cf5cb808-f9d1-4427-acc0-79b66b4dbb3c","ios":"levelo://app?vid=cf5cb808-f9d1-4427-acc0-79b66b4dbb3c"},"vehicle_type_id":"4","last_reported":1768857057,"current_range_meters":7200,"station_id":"ce4bgj12rcd13ifvqbc0","pricing_plan_id":"cebpf4jnsgd1na2vs0mg"},{"bike_id":"cda89745-8f54-4bf5-8360-8da5fc0056d3","system_id":"levelo_inurba_marseille","lat":43.31054,"lon":5.38348,"is_reserved":false,"is_disabled":false,"rental_uris":{"android":"levelo://app?vid=cda89745-8f54-4bf5-8360-8da5fc0056d3","ios":"levelo://app?vid=cda89745-8f54-4bf5-8360-8da5fc0056d3"},"vehicle_type_id":"4","last_reported":1768857057,"current_range_meters":7200,"station_id":"ce4bgv92rcd13ifvqcr0","pricing_plan_id":"cebpf4jnsgd1na2vs0mg"},{"bike_id":"e30883dd-96d3-4b00-8b5d-c5c36c37f796","system_id":"levelo_inurba_marseille","lat":43.25575,"lon":5.3825,"is_reserved":false,"is_disabled":false,"rental_uris":{"android":"levelo://app?vid=e30883dd-96d3-4b00-8b5d-c5c36c37f796","ios":"levelo://app?vid=e30883dd-96d3-4b00-8b5d-c5c36c37f796"},"vehicle_type_id":"4","last_reported":1768857057,"current_range_meters":7200,"station_id":"ce4bhih2rcd13ifvqfs0","pricing_plan_id":"cebpf4jnsgd1na2vs0mg"},{"bike_id":"b551ef05-f836-4853-960c-473fc7e36c29","system_id":"levelo_inurba_marseille","lat":43.28433,"lon":5.39179,"is_reserved":false,"is_disabled":false,"rental_uris":{"android":"levelo://app?vid=b551ef05-f836-4853-960c-473fc7e36c29","ios":"levelo://app?vid=b551ef05-f836-4853-960c-473fc7e36c29"},"vehicle_type_id":"4","last_reported":1768857057,"current_range_meters":7200,"station_id":"ce4bhoh2rcd13ifvqh5g","pricing_plan_id":"cebpf4jnsgd1na2vs0mg"},{"bike_id":"d0a70439-b068-41ba-bc8d-4fbe10ec4141","system_id":"levelo_inurba_marseille","lat":43.28154,"lon":5.42639,"is_reserved":false,"is_disabled":false,"rental_uris":{"android":"levelo://app?vid=d0a70439-b068-41ba-bc8d-4fbe10ec4141","ios":"levelo://app?vid=d0a70439-b068-41ba-bc8d-4fbe10ec4141"},"vehicle_type_id":"4","last_reported":1768857057,"current_range_meters":7200,"station_id":"ce4bhnh2rcd13ifvqgug","pricing_plan_id":"cebpf4jnsgd1na2vs0mg"},{"bike_id":"2c2fbf79-f72f-466f-accc-166f31abf8cd","system_id":"levelo_inurba_marseille","lat":43.30557,"lon":5.36722,"is_reserved":false,"is_disabled":false,"rental_uris":{"android":"levelo://app?vid=2c2fbf79-f72f-466f-accc-166f31abf8cd","ios":"levelo://app?vid=2c2fbf79-f72f-466f-accc-166f31abf8cd"},"vehicle_type_id":"4","last_reported":1768857057,"current_range_meters":7200,"station_id":"ce4bgrp2rcd13ifvqc9g","pricing_plan_id":"cebpf4jnsgd1na2vs0mg"},{"bike_id":"2eb0b3c0-c971-4368-a383-4cb4d90d410f","system_id":"levelo_inurba_marseille","lat":43.28262,"lon":5.35073,"is_reserved":false,"is_disabled":false,"rental_uris":{"android":"levelo://app?vid=2eb0b3c0-c971-4368-a383-4cb4d90d410f","ios":"levelo://app?vid=2eb0b3c0-c971-4368-a383-4cb4d90d410f"},"vehicle_type_id":"4","last_reported":1768857057,"current_range_meters":7200,"station_id":"ce4bhbp2rcd13ifvqerg","pricing_plan_id":"cebpf4jnsgd1na2vs0mg"},{"bike_id":"bff75e7f-4a1a-426a-b08e-395e935c089a","system_id":"levelo_inurba_marseille","lat":43.24162,"lon":5.39759,"is_reserved":false,"is_disabled":false,"rental_uris":{"android":"levelo://app?vid=bff75e7f-4a1a-426a-b08e-395e935c089a","ios":"levelo://app?vid=bff75e7f-4a1a-426a-b08e-395e935c089a"},"vehicle_type_id":"4","last_reported":1768857057,"current_range_meters":7200,"station_id":"ce4bhn12rcd13ifvqgpg","pricing_plan_id":"cebpf4jnsgd1na2vs0mg"},{"bike_id":"1486c1e4-f2cf-4043-954c-09949c641aea","system_id":"levelo_inurba_marseille","lat":43.26939,"lon":5.4026,"is_reserved":false,"is_disabled":false,"rental_uris":{"android":"levelo://app?vid=1486c1e4-f2cf-4043-954c-09949c641aea","ios":"levelo://app?vid=1486c1e4-f2cf-4043-954c-09949c641aea"},"vehicle_type_id":"4","last_reported":1768857057,"current_range_meters":7200,"station_id":"cjm6bp8fraef2m0cb0m0","pricing_plan_id":"cebpf4jnsgd1na2vs0mg"},{"bike_id":"fac4e5af-2e82-475c-bc31-9567019eded6","system_id":"levelo_inurba_marseille","lat":43.25884,"lon":5.39931,"is_reserved":false,"is_disabled":false,"rental_uris":{"android":"levelo://app?vid=fac4e5af-2e82-475c-bc31-9567019eded6","ios":"levelo://app?vid=fac4e5af-2e82-475c-bc31-9567019eded6"},"vehicle_type_id":"4","last_reported":1768857057,"current_range_meters":7200,"station_id":"ce4bhl92rcd13ifvqghg","pricing_plan_id":"cebpf4jnsgd1na2vs0mg"},{"bike_id":"756d14e8-2c6b-4a78-909a-3065166b7627","system_id":"levelo_inurba_marseille","lat":43.301235,"lon":5.431196,"is_reserved":false,"is_disabled":false,"rental_uris":{"android":"levelo://app?vid=756d14e8-2c6b-4a78-909a-3065166b7627","ios":"levelo://app?vid=756d14e8-2c6b-4a78-909a-3065166b7627"},"vehicle_type_id":"4","last_reported":1768857057,"current_range_meters":8000,"station_id":"st_d3js3co5814s73ftftug","pricing_plan_id":"cebpf4jnsgd1na2vs0mg"},{"bike_id":"72531f71-d042-483c-a024-3dc9ad4c3b33","system_id":"levelo_inurba_marseille","lat":43.28003,"lon":5.4003,"is_reserved":false,"is_disabled":false,"rental_uris":{"android":"levelo://app?vid=72531f71-d042-483c-a024-3dc9ad4c3b33","ios":"levelo://app?vid=72531f71-d042-483c-a024-3dc9ad4c3b33"},"vehicle_type_id":"4","last_reported":1768857057,"current_range_meters":8000,"station_id":"ce4bho92rcd13ifvqh4g","pricing_plan_id":"cebpf4jnsgd1na2vs0mg"},{"bike_id":"b8fcd8cb-0594-4218-bff2-939b2eaa3365","system_id":"levelo_inurba_marseille","lat":43.27942,"lon":5.41043,"is_reserved":false,"is_disabled":false,"rental_uris":{"android":"levelo://app?vid=b8fcd8cb-0594-4218-bff2-939b2eaa3365","ios":"levelo://app?vid=b8fcd8cb-0594-4218-bff2-939b2eaa3365"},"vehicle_type_id":"4","last_reported":1768857057,"current_range_meters":8000,"station_id":"ce4bhnp2rcd13ifvqh0g","pricing_plan_id":"cebpf4jnsgd1na2vs0mg"},{"bike_id":"77a1140a-0d3b-41a6-b6b0-7d28a908c6be","system_id":"levelo_inurba_marseille","lat":43.24399,"lon":5.37067,"is_reserved":false,"is_disabled":false,"rental_uris":{"android":"levelo://app?vid=77a1140a-0d3b-41a6-b6b0-7d28a908c6be","ios":"levelo://app?vid=77a1140a-0d3b-41a6-b6b0-7d28a908c6be"},"vehicle_type_id":"4","last_reported":1768857057,"current_range_meters":8000,"station_id":"ce4bhhh2rcd13ifvqfk0","pricing_plan_id":"cebpf4jnsgd1na2vs0mg"},{"bike_id":"2a7e72c7-7fdf-46b5-8e98-fbe8666dc7c0","system_id":"levelo_inurba_marseille","lat":43.24806,"lon":5.37491,"is_reserved":false,"is_disabled":false,"rental_uris":{"android":"levelo://app?vid=2a7e72c7-7fdf-46b5-8e98-fbe8666dc7c0","ios":"levelo://app?vid=2a7e72c7-7fdf-46b5-8e98-fbe8666dc7c0"},"vehicle_type_id":"4","last_reported":1768857057,"current_range_meters":8000,"station_id":"ce4bhgh2rcd13ifvqfb0","pricing_plan_id":"cebpf4jnsgd1na2vs0mg"},{"bike_id":"dc8c1109-459c-4368-859d-186168c2462d","system_id":"levelo_inurba_marseille","lat":43.24154,"lon":5.36445,"is_reserved":false,"is_disabled":false,"rental_uris":{"android":"levelo://app?vid=dc8c1109-459c-4368-859d-186168c2462d","ios":"levelo://app?vid=dc8c1109-459c-4368-859d-186168c2462d"},"vehicle_type_id":"4","last_reported":1768857057,"current_range_meters":8000,"station_id":"cpo36qri1sfpv3e86is0","pricing_plan_id":"cebpf4jnsgd1na2vs0mg"},{"bike_id":"fc994a2b-0355-4a92-b6ad-9cee7a3878f1","system_id":"levelo_inurba_marseille","lat":43.26496,"lon":5.39546,"is_reserved":false,"is_disabled":false,"rental_uris":{"android":"levelo://app?vid=fc994a2b-0355-4a92-b6ad-9cee7a3878f1","ios":"levelo://app?vid=fc994a2b-0355-4a92-b6ad-9cee7a3878f1"},"vehicle_type_id":"4","last_reported":1768857057,"current_range_meters":8000,"station_id":"ce4bhi12rcd13ifvqfq0","pricing_plan_id":"cebpf4jnsgd1na2vs0mg"},{"bike_id":"d98680e2-8519-4eb7-88a9-6aba4c293400","system_id":"levelo_inurba_marseille","lat":43.27986,"lon":5.40035,"is_reserved":false,"is_disabled":false,"rental_uris":{"android":"levelo://app?vid=d98680e2-8519-4eb7-88a9-6aba4c293400","ios":"levelo://app?vid=d98680e2-8519-4eb7-88a9-6aba4c293400"},"vehicle_type_id":"4","last_reported":1768857057,"current_range_meters":8000,"station_id":"ce4bho92rcd13ifvqh4g","pricing_plan_id":"cebpf4jnsgd1na2vs0mg"},{"bike_id":"2351e1c9-97c0-42ed-8ba7-93d168c64106","system_id":"levelo_inurba_marseille","lat":43.2975,"lon":5.42824,"is_reserved":false,"is_disabled":false,"rental_uris":{"android":"levelo://app?vid=2351e1c9-97c0-42ed-8ba7-93d168c64106","ios":"levelo://app?vid=2351e1c9-97c0-42ed-8ba7-93d168c64106"},"vehicle_type_id":"4","last_reported":1768857057,"current_range_meters":8000,"station_id":"st_d3md5207bmas73dh9klg","pricing_plan_id":"cebpf4jnsgd1na2vs0mg"},{"bike_id":"110752dd-fcb0-4a44-8352-90ba14512a7e","system_id":"levelo_inurba_marseille","lat":43.28605,"lon":5.39895,"is_reserved":false,"is_disabled":false,"rental_uris":{"android":"levelo://app?vid=110752dd-fcb0-4a44-8352-90ba14512a7e","ios":"levelo://app?vid=110752dd-fcb0-4a44-8352-90ba14512a7e"},"vehicle_type_id":"4","last_reported":1768857057,"current_range_meters":8000,"station_id":"st_d4a7ka997mjs738ck50g","pricing_plan_id":"cebpf4jnsgd1na2vs0mg"},{"bike_id":"00de2ed4-e7f4-45e3-817d-17850a09e1c1","system_id":"levelo_inurba_marseille","lat":43.28572,"lon":5.39503,"is_reserved":false,"is_disabled":false,"rental_uris":{"android":"levelo://app?vid=00de2ed4-e7f4-45e3-817d-17850a09e1c1","ios":"levelo://app?vid=00de2ed4-e7f4-45e3-817d-17850a09e1c1"},"vehicle_type_id":"4","last_reported":1768857057,"current_range_meters":8000,"station_id":"ce4bh292rcd13ifvqdg0","pricing_plan_id":"cebpf4jnsgd1na2vs0mg"},{"bike_id":"26fa87a8-64e8-4574-88ad-3ef617745c36","system_id":"levelo_inurba_marseille","lat":43.27802,"lon":5.40718,"is_reserved":false,"is_disabled":false,"rental_uris":{"android":"levelo://app?vid=26fa87a8-64e8-4574-88ad-3ef617745c36","ios":"levelo://app?vid=26fa87a8-64e8-4574-88ad-3ef617745c36"},"vehicle_type_id":"4","last_reported":1768857057,"current_range_meters":8000,"station_id":"ce4bhnh2rcd13ifvqgtg","pricing_plan_id":"cebpf4jnsgd1na2vs0mg"},{"bike_id":"b413f672-6f60-41b8-8f68-1814f77da456","system_id":"levelo_inurba_marseille","lat":43.24161,"lon":5.36404,"is_reserved":false,"is_disabled":false,"rental_uris":{"android":"levelo://app?vid=b413f672-6f60-41b8-8f68-1814f77da456","ios":"levelo://app?vid=b413f672-6f60-41b8-8f68-1814f77da456"},"vehicle_type_id":"4","last_reported":1768857057,"current_range_meters":8000,"station_id":"cpo36qri1sfpv3e86is0","pricing_plan_id":"cebpf4jnsgd1na2vs0mg"},{"bike_id":"b9127574-6b1e-4043-9224-ebb8aeabb571","system_id":"levelo_inurba_marseille","lat":43.3014,"lon":5.38789,"is_reserved":false,"is_disabled":true,"rental_uris":{"android":"levelo://app?vid=b9127574-6b1e-4043-9224-ebb8aeabb571","ios":"levelo://app?vid=b9127574-6b1e-4043-9224-ebb8aeabb571"},"vehicle_type_id":"4","last_reported":1768857057,"current_range_meters":8000,"station_id":"ce4bghh2rcd13ifvqb60","pricing_plan_id":"cebpf4jnsgd1na2vs0mg"},{"bike_id":"5dc6f01a-593a-4aab-9283-e89a465b0c48","system_id":"levelo_inurba_marseille","lat":43.29513,"lon":5.38546,"is_reserved":false,"is_disabled":false,"rental_uris":{"android":"levelo://app?vid=5dc6f01a-593a-4aab-9283-e89a465b0c48","ios":"levelo://app?vid=5dc6f01a-593a-4aab-9283-e89a465b0c48"},"vehicle_type_id":"4","last_reported":1768857057,"current_range_meters":8000,"station_id":"ce4bgih2rcd13ifvqba0","pricing_plan_id":"cebpf4jnsgd1na2vs0mg"},{"bike_id":"f949b1a8-0099-4897-af1c-b4c1c497f28f","system_id":"levelo_inurba_marseille","lat":43.25818,"lon":5.39441,"is_reserved":false,"is_disabled":false,"rental_uris":{"android":"levelo://app?vid=f949b1a8-0099-4897-af1c-b4c1c497f28f","ios":"levelo://app?vid=f949b1a8-0099-4897-af1c-b4c1c497f28f"},"vehicle_type_id":"4","last_reported":1768857057,"current_range_meters":8000,"station_id":"ce4bhip2rcd13ifvqft0","pricing_plan_id":"cebpf4jnsgd1na2vs0mg"},{"bike_id":"f650aff8-e742-48ca-8e77-f4fd3b3eebb9","system_id":"levelo_inurba_marseille","lat":43.26867,"lon":5.39552,"is_reserved":false,"is_disabled":false,"rental_uris":{"android":"levelo://app?vid=f650aff8-e742-48ca-8e77-f4fd3b3eebb9","ios":"levelo://app?vid=f650aff8-e742-48ca-8e77-f4fd3b3eebb9"},"vehicle_type_id":"4","last_reported":1768857057,"current_range_meters":8000,"station_id":"","pricing_plan_id":"cebpf4jnsgd1na2vs0mg"},{"bike_id":"3fb85085-2283-4154-a459-0516266c5240","system_id":"levelo_inurba_marseille","lat":43.28702,"lon":5.37927,"is_reserved":false,"is_disabled":false,"rental_uris":{"android":"levelo://app?vid=3fb85085-2283-4154-a459-0516266c5240","ios":"levelo://app?vid=3fb85085-2283-4154-a459-0516266c5240"},"vehicle_type_id":"4","last_reported":1768857057,"current_range_meters":8000,"station_id":"ce4bh9p2rcd13ifvqec0","pricing_plan_id":"cebpf4jnsgd1na2vs0mg"},{"bike_id":"33fa26f0-0d41-40f0-937f-42edd0fc6d0d","system_id":"levelo_inurba_marseille","lat":43.255881,"lon":5.382445,"is_reserved":false,"is_disabled":false,"rental_uris":{"android":"levelo://app?vid=33fa26f0-0d41-40f0-937f-42edd0fc6d0d","ios":"levelo://app?vid=33fa26f0-0d41-40f0-937f-42edd0fc6d0d"},"vehicle_type_id":"4","last_reported":1768857057,"current_range_meters":8000,"station_id":"ce4bhih2rcd13ifvqfs0","pricing_plan_id":"cebpf4jnsgd1na2vs0mg"},{"bike_id":"bc0686aa-660c-455d-85d7-5aeb7f5eefa4","system_id":"levelo_inurba_marseille","lat":43.263649,"lon":5.410643,"is_reserved":false,"is_disabled":false,"rental_uris":{"android":"levelo://app?vid=bc0686aa-660c-455d-85d7-5aeb7f5eefa4","ios":"levelo://app?vid=bc0686aa-660c-455d-85d7-5aeb7f5eefa4"},"vehicle_type_id":"4","last_reported":1768857057,"current_range_meters":8000,"station_id":"st_d4e5ca6na9uc73bfl5fg","pricing_plan_id":"cebpf4jnsgd1na2vs0mg"},{"bike_id":"90e30c61-c606-4ba6-adb5-183cc649b959","system_id":"levelo_inurba_marseille","lat":43.27948,"lon":5.41051,"is_reserved":false,"is_disabled":false,"rental_uris":{"android":"levelo://app?vid=90e30c61-c606-4ba6-adb5-183cc649b959","ios":"levelo://app?vid=90e30c61-c606-4ba6-adb5-183cc649b959"},"vehicle_type_id":"4","last_reported":1768857057,"current_range_meters":8000,"station_id":"ce4bhnp2rcd13ifvqh0g","pricing_plan_id":"cebpf4jnsgd1na2vs0mg"},{"bike_id":"2667a010-18aa-4bf6-9ac1-8e7053d8f55a","system_id":"levelo_inurba_marseille","lat":43.28462,"lon":5.35892,"is_reserved":false,"is_disabled":false,"rental_uris":{"android":"levelo://app?vid=2667a010-18aa-4bf6-9ac1-8e7053d8f55a","ios":"levelo://app?vid=2667a010-18aa-4bf6-9ac1-8e7053d8f55a"},"vehicle_type_id":"4","last_reported":1768857057,"current_range_meters":8000,"station_id":"ce4bhah2rcd13ifvqei0","pricing_plan_id":"cebpf4jnsgd1na2vs0mg"},{"bike_id":"a2853d7e-9f09-429d-bb18-d81aadd54a33","system_id":"levelo_inurba_marseille","lat":43.31535,"lon":5.38051,"is_reserved":false,"is_disabled":false,"rental_uris":{"android":"levelo://app?vid=a2853d7e-9f09-429d-bb18-d81aadd54a33","ios":"levelo://app?vid=a2853d7e-9f09-429d-bb18-d81aadd54a33"},"vehicle_type_id":"4","last_reported":1768857057,"current_range_meters":8000,"station_id":"ce4bhsp2rcd13ifvqi50","pricing_plan_id":"cebpf4jnsgd1na2vs0mg"},{"bike_id":"c945f0ba-a485-4dbc-9c7e-745da3aefd34","system_id":"levelo_inurba_marseille","lat":43.278078,"lon":5.407145,"is_reserved":false,"is_disabled":false,"rental_uris":{"android":"levelo://app?vid=c945f0ba-a485-4dbc-9c7e-745da3aefd34","ios":"levelo://app?vid=c945f0ba-a485-4dbc-9c7e-745da3aefd34"},"vehicle_type_id":"4","last_reported":1768857057,"current_range_meters":8000,"station_id":"ce4bhnh2rcd13ifvqgtg","pricing_plan_id":"cebpf4jnsgd1na2vs0mg"},{"bike_id":"5efeb85a-b0f9-4de0-9295-125baf33b57f","system_id":"levelo_inurba_marseille","lat":43.24659,"lon":5.3893,"is_reserved":false,"is_disabled":false,"rental_uris":{"android":"levelo://app?vid=5efeb85a-b0f9-4de0-9295-125baf33b57f","ios":"levelo://app?vid=5efeb85a-b0f9-4de0-9295-125baf33b57f"},"vehicle_type_id":"4","last_reported":1768857057,"current_range_meters":8000,"station_id":"ce4bhg12rcd13ifvqf60","pricing_plan_id":"cebpf4jnsgd1na2vs0mg"},{"bike_id":"f9521f2f-ef1d-4474-82c2-4520713c5b63","system_id":"levelo_inurba_marseille","lat":43.2798,"lon":5.41663,"is_reserved":false,"is_disabled":false,"rental_uris":{"android":"levelo://app?vid=f9521f2f-ef1d-4474-82c2-4520713c5b63","ios":"levelo://app?vid=f9521f2f-ef1d-4474-82c2-4520713c5b63"},"vehicle_type_id":"4","last_reported":1768857057,"current_range_meters":8000,"station_id":"ce4bho12rcd13ifvqh1g","pricing_plan_id":"cebpf4jnsgd1na2vs0mg"},{"bike_id":"b9eb4abf-1e15-4e70-9433-4b17890b2dca","system_id":"levelo_inurba_marseille","lat":43.26017,"lon":5.41746,"is_reserved":false,"is_disabled":false,"rental_uris":{"android":"levelo://app?vid=b9eb4abf-1e15-4e70-9433-4b17890b2dca","ios":"levelo://app?vid=b9eb4abf-1e15-4e70-9433-4b17890b2dca"},"vehicle_type_id":"4","last_reported":1768857057,"current_range_meters":8000,"station_id":"","pricing_plan_id":"cebpf4jnsgd1na2vs0mg"},{"bike_id":"dfa05952-28e6-4d42-be4a-7cfd2ba7524c","system_id":"levelo_inurba_marseille","lat":43.30146,"lon":5.38091,"is_reserved":false,"is_disabled":false,"rental_uris":{"android":"levelo://app?vid=dfa05952-28e6-4d42-be4a-7cfd2ba7524c","ios":"levelo://app?vid=dfa05952-28e6-4d42-be4a-7cfd2ba7524c"},"vehicle_type_id":"4","last_reported":1768857057,"current_range_meters":8000,"station_id":"ce4bgjp2rcd13ifvqbh0","pricing_plan_id":"cebpf4jnsgd1na2vs0mg"},{"bike_id":"30a4fec0-552e-4f59-a219-04b536436fc8","system_id":"levelo_inurba_marseille","lat":43.23772,"lon":5.36657,"is_reserved":false,"is_disabled":false,"rental_uris":{"android":"levelo://app?vid=30a4fec0-552e-4f59-a219-04b536436fc8","ios":"levelo://app?vid=30a4fec0-552e-4f59-a219-04b536436fc8"},"vehicle_type_id":"4","last_reported":1768857057,"current_range_meters":8000,"station_id":"st_d3nk18o9ro0c73en2l3g","pricing_plan_id":"cebpf4jnsgd1na2vs0mg"},{"bike_id":"9e5998a3-e8ec-4ff6-bdc2-90c25f4c041f","system_id":"levelo_inurba_marseille","lat":43.25819,"lon":5.39431,"is_reserved":false,"is_disabled":false,"rental_uris":{"android":"levelo://app?vid=9e5998a3-e8ec-4ff6-bdc2-90c25f4c041f","ios":"levelo://app?vid=9e5998a3-e8ec-4ff6-bdc2-90c25f4c041f"},"vehicle_type_id":"4","last_reported":1768857057,"current_range_meters":8000,"station_id":"ce4bhip2rcd13ifvqft0","pricing_plan_id":"cebpf4jnsgd1na2vs0mg"},{"bike_id":"d1656b93-1b71-4e85-bf98-22a1e92bb468","system_id":"levelo_inurba_marseille","lat":43.28874,"lon":5.42497,"is_reserved":false,"is_disabled":false,"rental_uris":{"android":"levelo://app?vid=d1656b93-1b71-4e85-bf98-22a1e92bb468","ios":"levelo://app?vid=d1656b93-1b71-4e85-bf98-22a1e92bb468"},"vehicle_type_id":"4","last_reported":1768857057,"current_range_meters":8000,"station_id":"st_d3b462108ojc7389ooeg","pricing_plan_id":"cebpf4jnsgd1na2vs0mg"},{"bike_id":"cc08d2b6-69fb-4c32-9f0f-91f88c556b74","system_id":"levelo_inurba_marseille","lat":43.22936,"lon":5.35378,"is_reserved":false,"is_disabled":false,"rental_uris":{"android":"levelo://app?vid=cc08d2b6-69fb-4c32-9f0f-91f88c556b74","ios":"levelo://app?vid=cc08d2b6-69fb-4c32-9f0f-91f88c556b74"},"vehicle_type_id":"4","last_reported":1768857057,"current_range_meters":8000,"station_id":"cpo3532slgdg3j2ikp40","pricing_plan_id":"cebpf4jnsgd1na2vs0mg"},{"bike_id":"a8d2063b-b136-4ccb-ad44-f4ea411c2cb1","system_id":"levelo_inurba_marseille","lat":43.246361,"lon":5.431476,"is_reserved":false,"is_disabled":false,"rental_uris":{"android":"levelo://app?vid=a8d2063b-b136-4ccb-ad44-f4ea411c2cb1","ios":"levelo://app?vid=a8d2063b-b136-4ccb-ad44-f4ea411c2cb1"},"vehicle_type_id":"4","last_reported":1768857057,"current_range_meters":8400,"station_id":"st_d2m6c4gdas8pm72e190g","pricing_plan_id":"cebpf4jnsgd1na2vs0mg"},{"bike_id":"6e7007a4-50a4-410a-b7bd-d0ebb7830797","system_id":"levelo_inurba_marseille","lat":43.24176,"lon":5.39717,"is_reserved":false,"is_disabled":false,"rental_uris":{"android":"levelo://app?vid=6e7007a4-50a4-410a-b7bd-d0ebb7830797","ios":"levelo://app?vid=6e7007a4-50a4-410a-b7bd-d0ebb7830797"},"vehicle_type_id":"4","last_reported":1768857057,"current_range_meters":8400,"station_id":"ce4bhn12rcd13ifvqgpg","pricing_plan_id":"cebpf4jnsgd1na2vs0mg"},{"bike_id":"01fdea96-cc9e-4a72-844a-f5f0bc7d1d6d","system_id":"levelo_inurba_marseille","lat":43.31334,"lon":5.39692,"is_reserved":false,"is_disabled":false,"rental_uris":{"android":"levelo://app?vid=01fdea96-cc9e-4a72-844a-f5f0bc7d1d6d","ios":"levelo://app?vid=01fdea96-cc9e-4a72-844a-f5f0bc7d1d6d"},"vehicle_type_id":"4","last_reported":1768857057,"current_range_meters":8400,"station_id":"ce4bgvp2rcd13ifvqcu0","pricing_plan_id":"cebpf4jnsgd1na2vs0mg"},{"bike_id":"18af9eee-a946-4752-9d9d-709d962f533d","system_id":"levelo_inurba_marseille","lat":43.31693,"lon":5.437,"is_reserved":false,"is_disabled":false,"rental_uris":{"android":"levelo://app?vid=18af9eee-a946-4752-9d9d-709d962f533d","ios":"levelo://app?vid=18af9eee-a946-4752-9d9d-709d962f533d"},"vehicle_type_id":"4","last_reported":1768857057,"current_range_meters":8400,"station_id":"ce4bhp92rcd13ifvqhcg","pricing_plan_id":"cebpf4jnsgd1na2vs0mg"},{"bike_id":"73a4e6a5-0c0f-409b-a59b-671187d7eeb4","system_id":"levelo_inurba_marseille","lat":43.24171,"lon":5.39729,"is_reserved":false,"is_disabled":false,"rental_uris":{"android":"levelo://app?vid=73a4e6a5-0c0f-409b-a59b-671187d7eeb4","ios":"levelo://app?vid=73a4e6a5-0c0f-409b-a59b-671187d7eeb4"},"vehicle_type_id":"4","last_reported":1768857057,"current_range_meters":8400,"station_id":"ce4bhn12rcd13ifvqgpg","pricing_plan_id":"cebpf4jnsgd1na2vs0mg"},{"bike_id":"7eb7bc06-d60e-4a1a-8fa8-1625e2b2692a","system_id":"levelo_inurba_marseille","lat":43.29751,"lon":5.3733,"is_reserved":false,"is_disabled":false,"rental_uris":{"android":"levelo://app?vid=7eb7bc06-d60e-4a1a-8fa8-1625e2b2692a","ios":"levelo://app?vid=7eb7bc06-d60e-4a1a-8fa8-1625e2b2692a"},"vehicle_type_id":"4","last_reported":1768857057,"current_range_meters":8400,"station_id":"","pricing_plan_id":"cebpf4jnsgd1na2vs0mg"},{"bike_id":"8b36c48c-cee1-407c-b4fc-9439f2de3d6a","system_id":"levelo_inurba_marseille","lat":43.2956,"lon":5.3752,"is_reserved":false,"is_disabled":false,"rental_uris":{"android":"levelo://app?vid=8b36c48c-cee1-407c-b4fc-9439f2de3d6a","ios":"levelo://app?vid=8b36c48c-cee1-407c-b4fc-9439f2de3d6a"},"vehicle_type_id":"4","last_reported":1768857057,"current_range_meters":8400,"station_id":"ce4bgh92rcd13ifvqb50","pricing_plan_id":"cebpf4jnsgd1na2vs0mg"},{"bike_id":"aaff8d94-1fa8-4cba-bdbc-2775e2b840f4","system_id":"levelo_inurba_marseille","lat":43.30924,"lon":5.38043,"is_reserved":false,"is_disabled":false,"rental_uris":{"android":"levelo://app?vid=aaff8d94-1fa8-4cba-bdbc-2775e2b840f4","ios":"levelo://app?vid=aaff8d94-1fa8-4cba-bdbc-2775e2b840f4"},"vehicle_type_id":"4","last_reported":1768857057,"current_range_meters":8400,"station_id":"","pricing_plan_id":"cebpf4jnsgd1na2vs0mg"},{"bike_id":"3cf4f121-47f1-4ab7-8209-fc71d72f0a66","system_id":"levelo_inurba_marseille","lat":43.31558,"lon":5.38008,"is_reserved":false,"is_disabled":false,"rental_uris":{"android":"levelo://app?vid=3cf4f121-47f1-4ab7-8209-fc71d72f0a66","ios":"levelo://app?vid=3cf4f121-47f1-4ab7-8209-fc71d72f0a66"},"vehicle_type_id":"4","last_reported":1768857057,"current_range_meters":8400,"station_id":"ce4bhsp2rcd13ifvqi50","pricing_plan_id":"cebpf4jnsgd1na2vs0mg"},{"bike_id":"aaef3ec1-41c8-4c84-860e-bea41a8299bc","system_id":"levelo_inurba_marseille","lat":43.22556,"lon":5.41655,"is_reserved":false,"is_disabled":false,"rental_uris":{"android":"levelo://app?vid=aaef3ec1-41c8-4c84-860e-bea41a8299bc","ios":"levelo://app?vid=aaef3ec1-41c8-4c84-860e-bea41a8299bc"},"vehicle_type_id":"4","last_reported":1768857057,"current_range_meters":8400,"station_id":"st_d2o4gvlbi1j2169b742g","pricing_plan_id":"cebpf4jnsgd1na2vs0mg"},{"bike_id":"dc7f2cde-f394-4ae1-b0e4-a51d66aa1255","system_id":"levelo_inurba_marseille","lat":43.28156,"lon":5.43155,"is_reserved":false,"is_disabled":false,"rental_uris":{"android":"levelo://app?vid=dc7f2cde-f394-4ae1-b0e4-a51d66aa1255","ios":"levelo://app?vid=dc7f2cde-f394-4ae1-b0e4-a51d66aa1255"},"vehicle_type_id":"4","last_reported":1768857057,"current_range_meters":8400,"station_id":"","pricing_plan_id":"cebpf4jnsgd1na2vs0mg"},{"bike_id":"8dd29d92-f002-43aa-9b1f-4ab297c82f6b","system_id":"levelo_inurba_marseille","lat":43.26677,"lon":5.38256,"is_reserved":false,"is_disabled":false,"rental_uris":{"android":"levelo://app?vid=8dd29d92-f002-43aa-9b1f-4ab297c82f6b","ios":"levelo://app?vid=8dd29d92-f002-43aa-9b1f-4ab297c82f6b"},"vehicle_type_id":"4","last_reported":1768857057,"current_range_meters":8400,"station_id":"ce4bhg92rcd13ifvqf90","pricing_plan_id":"cebpf4jnsgd1na2vs0mg"},{"bike_id":"dc2a9558-abfe-4ddc-ba8f-278f09875a11","system_id":"levelo_inurba_marseille","lat":43.26567,"lon":5.39011,"is_reserved":false,"is_disabled":false,"rental_uris":{"android":"levelo://app?vid=dc2a9558-abfe-4ddc-ba8f-278f09875a11","ios":"levelo://app?vid=dc2a9558-abfe-4ddc-ba8f-278f09875a11"},"vehicle_type_id":"4","last_reported":1768857057,"current_range_meters":8400,"station_id":"ce4bhe12rcd13ifvqf30","pricing_plan_id":"cebpf4jnsgd1na2vs0mg"},{"bike_id":"a3ef314e-17ff-4b63-a41e-7a5b0c184673","system_id":"levelo_inurba_marseille","lat":43.29009,"lon":5.35613,"is_reserved":false,"is_disabled":false,"rental_uris":{"android":"levelo://app?vid=a3ef314e-17ff-4b63-a41e-7a5b0c184673","ios":"levelo://app?vid=a3ef314e-17ff-4b63-a41e-7a5b0c184673"},"vehicle_type_id":"4","last_reported":1768857057,"current_range_meters":8400,"station_id":"ce4bhb92rcd13ifvqen0","pricing_plan_id":"cebpf4jnsgd1na2vs0mg"},{"bike_id":"3c0bb7d7-7ea2-4502-a02e-c86beaa596bf","system_id":"levelo_inurba_marseille","lat":43.28907,"lon":5.38417,"is_reserved":false,"is_disabled":true,"rental_uris":{"android":"levelo://app?vid=3c0bb7d7-7ea2-4502-a02e-c86beaa596bf","ios":"levelo://app?vid=3c0bb7d7-7ea2-4502-a02e-c86beaa596bf"},"vehicle_type_id":"4","last_reported":1768857057,"current_range_meters":8400,"station_id":"ce4bh612rcd13ifvqe6g","pricing_plan_id":"cebpf4jnsgd1na2vs0mg"},{"bike_id":"108b0029-d01a-4933-8e88-16292523c45d","system_id":"levelo_inurba_marseille","lat":43.24639,"lon":5.38919,"is_reserved":false,"is_disabled":false,"rental_uris":{"android":"levelo://app?vid=108b0029-d01a-4933-8e88-16292523c45d","ios":"levelo://app?vid=108b0029-d01a-4933-8e88-16292523c45d"},"vehicle_type_id":"4","last_reported":1768857057,"current_range_meters":8400,"station_id":"ce4bhg12rcd13ifvqf60","pricing_plan_id":"cebpf4jnsgd1na2vs0mg"},{"bike_id":"1272ca26-8489-4856-86b5-29f469845629","system_id":"levelo_inurba_marseille","lat":43.29253,"lon":5.36863,"is_reserved":false,"is_disabled":false,"rental_uris":{"android":"levelo://app?vid=1272ca26-8489-4856-86b5-29f469845629","ios":"levelo://app?vid=1272ca26-8489-4856-86b5-29f469845629"},"vehicle_type_id":"4","last_reported":1768857057,"current_range_meters":8400,"station_id":"ce4bhbp2rcd13ifvqesg","pricing_plan_id":"cebpf4jnsgd1na2vs0mg"},{"bike_id":"66c8ff35-87b8-4bbf-ae52-7b633884b1e5","system_id":"levelo_inurba_marseille","lat":43.3023,"lon":5.36745,"is_reserved":false,"is_disabled":false,"rental_uris":{"android":"levelo://app?vid=66c8ff35-87b8-4bbf-ae52-7b633884b1e5","ios":"levelo://app?vid=66c8ff35-87b8-4bbf-ae52-7b633884b1e5"},"vehicle_type_id":"4","last_reported":1768857057,"current_range_meters":8800,"station_id":"","pricing_plan_id":"cebpf4jnsgd1na2vs0mg"},{"bike_id":"0295f9ba-4e73-430a-9e09-5c8e9c5ec835","system_id":"levelo_inurba_marseille","lat":43.27934,"lon":5.41049,"is_reserved":false,"is_disabled":false,"rental_uris":{"android":"levelo://app?vid=0295f9ba-4e73-430a-9e09-5c8e9c5ec835","ios":"levelo://app?vid=0295f9ba-4e73-430a-9e09-5c8e9c5ec835"},"vehicle_type_id":"4","last_reported":1768857057,"current_range_meters":8800,"station_id":"","pricing_plan_id":"cebpf4jnsgd1na2vs0mg"},{"bike_id":"9a6fa9d6-bd85-41a0-a1be-8f3bc0337c0a","system_id":"levelo_inurba_marseille","lat":43.24468,"lon":5.42548,"is_reserved":false,"is_disabled":false,"rental_uris":{"android":"levelo://app?vid=9a6fa9d6-bd85-41a0-a1be-8f3bc0337c0a","ios":"levelo://app?vid=9a6fa9d6-bd85-41a0-a1be-8f3bc0337c0a"},"vehicle_type_id":"4","last_reported":1768857057,"current_range_meters":8800,"station_id":"st_d4a3vfp97mjs738cd8kg","pricing_plan_id":"cebpf4jnsgd1na2vs0mg"},{"bike_id":"3a73d29d-19a3-4829-b646-774a893045f4","system_id":"levelo_inurba_marseille","lat":43.24463,"lon":5.42542,"is_reserved":false,"is_disabled":false,"rental_uris":{"android":"levelo://app?vid=3a73d29d-19a3-4829-b646-774a893045f4","ios":"levelo://app?vid=3a73d29d-19a3-4829-b646-774a893045f4"},"vehicle_type_id":"4","last_reported":1768857057,"current_range_meters":8800,"station_id":"st_d4a3vfp97mjs738cd8kg","pricing_plan_id":"cebpf4jnsgd1na2vs0mg"},{"bike_id":"b4d4d78b-c7ae-46d1-84aa-0c58c638c8ea","system_id":"levelo_inurba_marseille","lat":43.279915,"lon":5.416558,"is_reserved":false,"is_disabled":false,"rental_uris":{"android":"levelo://app?vid=b4d4d78b-c7ae-46d1-84aa-0c58c638c8ea","ios":"levelo://app?vid=b4d4d78b-c7ae-46d1-84aa-0c58c638c8ea"},"vehicle_type_id":"4","last_reported":1768857057,"current_range_meters":8800,"station_id":"ce4bho12rcd13ifvqh1g","pricing_plan_id":"cebpf4jnsgd1na2vs0mg"},{"bike_id":"d22ed065-4fe2-4b60-bef2-0ac8d0ec8e32","system_id":"levelo_inurba_marseille","lat":43.295321,"lon":5.394067,"is_reserved":false,"is_disabled":false,"rental_uris":{"android":"levelo://app?vid=d22ed065-4fe2-4b60-bef2-0ac8d0ec8e32","ios":"levelo://app?vid=d22ed065-4fe2-4b60-bef2-0ac8d0ec8e32"},"vehicle_type_id":"4","last_reported":1768857057,"current_range_meters":8800,"station_id":"ce4bh292rcd13ifvqdf0","pricing_plan_id":"cebpf4jnsgd1na2vs0mg"},{"bike_id":"826aeb2d-9384-4062-9da4-ff770f5b59dd","system_id":"levelo_inurba_marseille","lat":43.26065,"lon":5.39385,"is_reserved":false,"is_disabled":false,"rental_uris":{"android":"levelo://app?vid=826aeb2d-9384-4062-9da4-ff770f5b59dd","ios":"levelo://app?vid=826aeb2d-9384-4062-9da4-ff770f5b59dd"},"vehicle_type_id":"4","last_reported":1768857057,"current_range_meters":8800,"station_id":"ce4bhh92rcd13ifvqfj0","pricing_plan_id":"cebpf4jnsgd1na2vs0mg"},{"bike_id":"87324946-5ce2-42c8-907b-e4826726f53b","system_id":"levelo_inurba_marseille","lat":43.30646,"lon":5.40091,"is_reserved":false,"is_disabled":false,"rental_uris":{"android":"levelo://app?vid=87324946-5ce2-42c8-907b-e4826726f53b","ios":"levelo://app?vid=87324946-5ce2-42c8-907b-e4826726f53b"},"vehicle_type_id":"4","last_reported":1768857057,"current_range_meters":8800,"station_id":"ce4bh112rcd13ifvqda0","pricing_plan_id":"cebpf4jnsgd1na2vs0mg"},{"bike_id":"42b5ad2d-acd8-454f-95e3-acdb00543462","system_id":"levelo_inurba_marseille","lat":43.26059,"lon":5.39399,"is_reserved":false,"is_disabled":false,"rental_uris":{"android":"levelo://app?vid=42b5ad2d-acd8-454f-95e3-acdb00543462","ios":"levelo://app?vid=42b5ad2d-acd8-454f-95e3-acdb00543462"},"vehicle_type_id":"4","last_reported":1768857057,"current_range_meters":8800,"station_id":"ce4bhh92rcd13ifvqfj0","pricing_plan_id":"cebpf4jnsgd1na2vs0mg"},{"bike_id":"fb399f5a-106d-4e4e-b0b6-eb700dad2449","system_id":"levelo_inurba_marseille","lat":43.28603,"lon":5.39922,"is_reserved":false,"is_disabled":true,"rental_uris":{"android":"levelo://app?vid=fb399f5a-106d-4e4e-b0b6-eb700dad2449","ios":"levelo://app?vid=fb399f5a-106d-4e4e-b0b6-eb700dad2449"},"vehicle_type_id":"4","last_reported":1768857057,"current_range_meters":8800,"station_id":"ce4bho92rcd13ifvqh3g","pricing_plan_id":"cebpf4jnsgd1na2vs0mg"},{"bike_id":"38d5b374-7e40-46a3-b1cd-2f03a42372af","system_id":"levelo_inurba_marseille","lat":43.29567,"lon":5.37494,"is_reserved":false,"is_disabled":false,"rental_uris":{"android":"levelo://app?vid=38d5b374-7e40-46a3-b1cd-2f03a42372af","ios":"levelo://app?vid=38d5b374-7e40-46a3-b1cd-2f03a42372af"},"vehicle_type_id":"4","last_reported":1768857057,"current_range_meters":8800,"station_id":"ce4bgh92rcd13ifvqb50","pricing_plan_id":"cebpf4jnsgd1na2vs0mg"},{"bike_id":"97096676-429c-4f07-9652-1523f48f5442","system_id":"levelo_inurba_marseille","lat":43.30266,"lon":5.43429,"is_reserved":false,"is_disabled":false,"rental_uris":{"android":"levelo://app?vid=97096676-429c-4f07-9652-1523f48f5442","ios":"levelo://app?vid=97096676-429c-4f07-9652-1523f48f5442"},"vehicle_type_id":"4","last_reported":1768857057,"current_range_meters":8800,"station_id":"","pricing_plan_id":"cebpf4jnsgd1na2vs0mg"},{"bike_id":"203c8981-ef37-4eef-8298-b08fb7b6c5a7","system_id":"levelo_inurba_marseille","lat":43.26206,"lon":5.37923,"is_reserved":false,"is_disabled":false,"rental_uris":{"android":"levelo://app?vid=203c8981-ef37-4eef-8298-b08fb7b6c5a7","ios":"levelo://app?vid=203c8981-ef37-4eef-8298-b08fb7b6c5a7"},"vehicle_type_id":"4","last_reported":1768857057,"current_range_meters":8800,"station_id":"ce4bhjp2rcd13ifvqg90","pricing_plan_id":"cebpf4jnsgd1na2vs0mg"},{"bike_id":"801303f1-cf94-4013-b35a-0d38a90415b0","system_id":"levelo_inurba_marseille","lat":43.25812,"lon":5.39409,"is_reserved":false,"is_disabled":false,"rental_uris":{"android":"levelo://app?vid=801303f1-cf94-4013-b35a-0d38a90415b0","ios":"levelo://app?vid=801303f1-cf94-4013-b35a-0d38a90415b0"},"vehicle_type_id":"4","last_reported":1768857057,"current_range_meters":8800,"station_id":"ce4bhip2rcd13ifvqft0","pricing_plan_id":"cebpf4jnsgd1na2vs0mg"},{"bike_id":"6650e884-e0da-4109-b234-07cb78bd6a80","system_id":"levelo_inurba_marseille","lat":43.29527,"lon":5.39397,"is_reserved":false,"is_disabled":false,"rental_uris":{"android":"levelo://app?vid=6650e884-e0da-4109-b234-07cb78bd6a80","ios":"levelo://app?vid=6650e884-e0da-4109-b234-07cb78bd6a80"},"vehicle_type_id":"4","last_reported":1768857057,"current_range_meters":8800,"station_id":"ce4bh292rcd13ifvqdf0","pricing_plan_id":"cebpf4jnsgd1na2vs0mg"},{"bike_id":"503864be-c798-4d4b-ac7b-7b2422b1910a","system_id":"levelo_inurba_marseille","lat":43.28826,"lon":5.3588,"is_reserved":false,"is_disabled":false,"rental_uris":{"android":"levelo://app?vid=503864be-c798-4d4b-ac7b-7b2422b1910a","ios":"levelo://app?vid=503864be-c798-4d4b-ac7b-7b2422b1910a"},"vehicle_type_id":"4","last_reported":1768857057,"current_range_meters":8800,"station_id":"ce4bhb12rcd13ifvqem0","pricing_plan_id":"cebpf4jnsgd1na2vs0mg"},{"bike_id":"f1d4233d-2911-4edf-a268-ad1589486129","system_id":"levelo_inurba_marseille","lat":43.24139,"lon":5.39714,"is_reserved":false,"is_disabled":false,"rental_uris":{"android":"levelo://app?vid=f1d4233d-2911-4edf-a268-ad1589486129","ios":"levelo://app?vid=f1d4233d-2911-4edf-a268-ad1589486129"},"vehicle_type_id":"4","last_reported":1768857057,"current_range_meters":8800,"station_id":"ce4bhn12rcd13ifvqgpg","pricing_plan_id":"cebpf4jnsgd1na2vs0mg"},{"bike_id":"3eb8859d-ffef-4784-9e54-eefc1b1513e9","system_id":"levelo_inurba_marseille","lat":43.33133,"lon":5.37722,"is_reserved":false,"is_disabled":false,"rental_uris":{"android":"levelo://app?vid=3eb8859d-ffef-4784-9e54-eefc1b1513e9","ios":"levelo://app?vid=3eb8859d-ffef-4784-9e54-eefc1b1513e9"},"vehicle_type_id":"4","last_reported":1768857057,"current_range_meters":8800,"station_id":"st_d46cu089ee8s73dldbu0","pricing_plan_id":"cebpf4jnsgd1na2vs0mg"},{"bike_id":"cc62d652-5cbe-43dd-a054-c509721d6194","system_id":"levelo_inurba_marseille","lat":43.26574,"lon":5.39043,"is_reserved":false,"is_disabled":false,"rental_uris":{"android":"levelo://app?vid=cc62d652-5cbe-43dd-a054-c509721d6194","ios":"levelo://app?vid=cc62d652-5cbe-43dd-a054-c509721d6194"},"vehicle_type_id":"4","last_reported":1768857057,"current_range_meters":8800,"station_id":"ce4bhe12rcd13ifvqf30","pricing_plan_id":"cebpf4jnsgd1na2vs0mg"},{"bike_id":"2560fc6f-d31f-42c0-980f-6141b2721bdd","system_id":"levelo_inurba_marseille","lat":43.2886,"lon":5.42524,"is_reserved":false,"is_disabled":false,"rental_uris":{"android":"levelo://app?vid=2560fc6f-d31f-42c0-980f-6141b2721bdd","ios":"levelo://app?vid=2560fc6f-d31f-42c0-980f-6141b2721bdd"},"vehicle_type_id":"4","last_reported":1768857057,"current_range_meters":8800,"station_id":"st_d3b462108ojc7389ooeg","pricing_plan_id":"cebpf4jnsgd1na2vs0mg"},{"bike_id":"efa38cb7-a84d-49d1-a1ea-367fe8bf17b7","system_id":"levelo_inurba_marseille","lat":43.3032,"lon":5.36925,"is_reserved":false,"is_disabled":false,"rental_uris":{"android":"levelo://app?vid=efa38cb7-a84d-49d1-a1ea-367fe8bf17b7","ios":"levelo://app?vid=efa38cb7-a84d-49d1-a1ea-367fe8bf17b7"},"vehicle_type_id":"4","last_reported":1768857057,"current_range_meters":8800,"station_id":"ce4bgqh2rcd13ifvqc5g","pricing_plan_id":"cebpf4jnsgd1na2vs0mg"},{"bike_id":"f3a86046-50fd-4be9-ae98-aa109659b224","system_id":"levelo_inurba_marseille","lat":43.303192,"lon":5.404324,"is_reserved":false,"is_disabled":false,"rental_uris":{"android":"levelo://app?vid=f3a86046-50fd-4be9-ae98-aa109659b224","ios":"levelo://app?vid=f3a86046-50fd-4be9-ae98-aa109659b224"},"vehicle_type_id":"4","last_reported":1768857057,"current_range_meters":8800,"station_id":"ce4bh012rcd13ifvqd10","pricing_plan_id":"cebpf4jnsgd1na2vs0mg"},{"bike_id":"6c3a5c15-7423-4a25-87ba-05f3c8d2d87e","system_id":"levelo_inurba_marseille","lat":43.32347,"lon":5.36753,"is_reserved":false,"is_disabled":false,"rental_uris":{"android":"levelo://app?vid=6c3a5c15-7423-4a25-87ba-05f3c8d2d87e","ios":"levelo://app?vid=6c3a5c15-7423-4a25-87ba-05f3c8d2d87e"},"vehicle_type_id":"4","last_reported":1768857057,"current_range_meters":8800,"station_id":"ce4bhsh2rcd13ifvqi2g","pricing_plan_id":"cebpf4jnsgd1na2vs0mg"},