{"last_updated":1742548228,"ttl":60,"version":"2.2","data":{"bikes":[{"bike_id":"33a24ca1-0083-4d1c-a977-1b0200de2997","system_id":"levelo_inurba_marseille","lat":43.29576,"lon":5.3674,"is_reserved":false,"is_disabled":false,"rental_uris":{"android":"levelo://app?vid=33a24ca1-0083-4d1c-a977-1b0200de2997","ios":"levelo://app?vid=33a24ca1-0083-4d1c-a977-1b0200de2997"},"vehicle_type_id":"4","last_reported":1742548228,"current_range_meters":2800,"station_id":"ce4bgph2rcd13ifvqc2g","pricing_plan_id":"cebpf4jnsgd1na2vs0mg"},{"bike_id":"14e04a47-4b39-4bd7-ae6e-bf93cf9acaee","system_id":"levelo_inurba_marseille","lat":43.28366,"lon":5.39883,"is_reserved":false,"is_disabled":false,"rental_uris":{"android":"levelo://app?vid=14e04a47-4b39-4bd7-ae6e-bf93cf9acaee","ios":"levelo://app?vid=14e04a47-4b39-4bd7-ae6e-bf93cf9acaee"},"vehicle_type_id":"4","last_reported":1742548228,"current_range_meters":3200,"station_id":"","pricing_plan_id":"cebpf4jnsgd1na2vs0mg"},{"bike_id":"6ad236bc-a2d1-4643-abe7-47295a697ba3","system_id":"levelo_inurba_marseille","lat":43.2884,"lon":5.37899,"is_reserved":false,"is_disabled":false,"rental_uris":{"android":"levelo://app?vid=6ad236bc-a2d1-4643-abe7-47295a697ba3","ios":"levelo://app?vid=6ad236bc-a2d1-4643-abe7-47295a697ba3"},"vehicle_type_id":"4","last_reported":1742548228,"current_range_meters":2800,"station_id":"","pricing_plan_id":"cebpf4jnsgd1na2vs0mg"},{"bike_id":"932e50e5-8656-4e0e-845f-b8d1d7ba4a14","system_id":"levelo_inurba_marseille","lat":43.24548,"lon":5.39524,"is_reserved":false,"is_disabled":false,"rental_uris":{"android":"levelo://app?vid=932e50e5-8656-4e0e-845f-b8d1d7ba4a14","ios":"levelo://app?vid=932e50e5-8656-4e0e-845f-b8d1d7ba4a14"},"vehicle_type_id":"4","last_reported":1742548228,"current_range_meters":2800,"station_id":"ce4bhlp2rcd13ifvqgjg","pricing_plan_id":"cebpf4jnsgd1na2vs0mg"},{"bike_id":"3b276e99-234c-4646-acfe-1384ad70d051","system_id":"levelo_inurba_marseille","lat":43.25069,"lon":5.3952,"is_reserved":false,"is_disabled":false,"rental_uris":{"android":"levelo://app?vid=3b276e99-234c-4646-acfe-1384ad70d051","ios":"levelo://app?vid=3b276e99-234c-4646-acfe-1384ad70d051"},"vehicle_type_id":"4","last_reported":1742548228,"current_range_meters":3200,"station_id":"ce4bhm12rcd13ifvqgkg","pricing_plan_id":"cebpf4jnsgd1na2vs0mg"},{"bike_id":"03559b68-f53b-4377-ba54-41f67f9d3d6b","system_id":"levelo_inurba_marseille","lat":43.31501,"lon":5.37308,"is_reserved":false,"is_disabled":false,"rental_uris":{"android":"levelo://app?vid=03559b68-f53b-4377-ba54-41f67f9d3d6b","ios":"levelo://app?vid=03559b68-f53b-4377-ba54-41f67f9d3d6b"},"vehicle_type_id":"4","last_reported":1742548228,"current_range_meters":3200,"station_id":"ce4bgt12rcd13ifvqcd0","pricing_plan_id":"cebpf4jnsgd1na2vs0mg"},{"bike_id":"4e9a8159-a55b-43e9-a082-f07b3d4b1495","system_id":"levelo_inurba_marseille","lat":43.30881,"lon":5.36854,"is_reserved":false,"is_disabled":false,"rental_uris":{"android":"levelo://app?vid=4e9a8159-a55b-43e9-a082-f07b3d4b1495","ios":"levelo://app?vid=4e9a8159-a55b-43e9-a082-f07b3d4b1495"},"vehicle_type_id":"4","last_reported":1742548228,"current_range_meters":3200,"station_id":"ce4bgn92rcd13ifvqbvg","pricing_plan_id":"cebpf4jnsgd1na2vs0mg"},{"bike_id":"c2833b87-c07a-4ecf-9052-e932cd239f16","system_id":"levelo_inurba_marseille","lat":43.28137,"lon":5.42663,"is_reserved":false,"is_disabled":false,"rental_uris":{"android":"levelo://app?vid=c2833b87-c07a-4ecf-9052-e932cd239f16","ios":"levelo://app?vid=c2833b87-c07a-4ecf-9052-e932cd239f16"},"vehicle_type_id":"4","last_reported":1742548228,"current_range_meters":3200,"station_id":"ce4bhnh2rcd13ifvqgug","pricing_plan_id":"cebpf4jnsgd1na2vs0mg"},{"bike_id":"5188b82b-8c44-42ff-93c4-bf85de5ec3b7","system_id":"levelo_inurba_marseille","lat":43.32139,"lon":5.3675,"is_reserved":false,"is_disabled":false,"rental_uris":{"android":"levelo://app?vid=5188b82b-8c44-42ff-93c4-bf85de5ec3b7","ios":"levelo://app?vid=5188b82b-8c44-42ff-93c4-bf85de5ec3b7"},"vehicle_type_id":"4","last_reported":1742548228,"current_range_meters":3200,"station_id":"ce4bhrh2rcd13ifvqhug","pricing_plan_id":"cebpf4jnsgd1na2vs0mg"},{"bike_id":"79b9318f-7b68-4ffa-a739-3d904aa51145","system_id":"levelo_inurba_marseille","lat":43.26792,"lon":5.39415,"is_reserved":false,"is_disabled":false,"rental_uris":{"android":"levelo://app?vid=79b9318f-7b68-4ffa-a739-3d904aa51145","ios":"levelo://app?vid=79b9318f-7b68-4ffa-a739-3d904aa51145"},"vehicle_type_id":"4","last_reported":1742548228,"current_range_meters":3200,"station_id":"ce4bhh12rcd13ifvqfg0","pricing_plan_id":"cebpf4jnsgd1na2vs0mg"},{"bike_id":"9d26c008-8ec1-4269-9cd2-f45774f03ccb","system_id":"levelo_inurba_marseille","lat":43.2795,"lon":5.37918,"is_reserved":false,"is_disabled":true,"rental_uris":{"android":"levelo://app?vid=9d26c008-8ec1-4269-9cd2-f45774f03ccb","ios":"levelo://app?vid=9d26c008-8ec1-4269-9cd2-f45774f03ccb"},"vehicle_type_id":"4","last_reported":1742548228,"current_range_meters":3200,"station_id":"","pricing_plan_id":"cebpf4jnsgd1na2vs0mg"},{"bike_id":"010cab51-be23-4735-babf-19c9eb5c8e43","system_id":"levelo_inurba_marseille","lat":43.24066,"lon":5.37761,"is_reserved":false,"is_disabled":false,"rental_uris":{"android":"levelo://app?vid=010cab51-be23-4735-babf-19c9eb5c8e43","ios":"levelo://app?vid=010cab51-be23-4735-babf-19c9eb5c8e43"},"vehicle_type_id":"4","last_reported":1742548228,"current_range_meters":3200,"station_id":"ce4bhnp2rcd13ifvqgvg","pricing_plan_id":"cebpf4jnsgd1na2vs0mg"},{"bike_id":"649fac6d-bd00-4c0f-b826-65403cb90b36","system_id":"levelo_inurba_marseille","lat":43.297948,"lon":5.380955,"is_reserved":false,"is_disabled":false,"rental_uris":{"android":"levelo://app?vid=649fac6d-bd00-4c0f-b826-65403cb90b36","ios":"levelo://app?vid=649fac6d-bd00-4c0f-b826-65403cb90b36"},"vehicle_type_id":"4","last_reported":1742548228,"current_range_meters":3600,"station_id":"ce4bgip2rcd13ifvqbb0","pricing_plan_id":"cebpf4jnsgd1na2vs0mg"},{"bike_id":"c9331a8d-e756-4aee-abf2-04a90ee86423","system_id":"levelo_inurba_marseille","lat":43.30553,"lon":5.38425,"is_reserved":false,"is_disabled":false,"rental_uris":{"android":"levelo://app?vid=c9331a8d-e756-4aee-abf2-04a90ee86423","ios":"levelo://app?vid=c9331a8d-e756-4aee-abf2-04a90ee86423"},"vehicle_type_id":"4","last_reported":1742548228,"current_range_meters":3600,"station_id":"ce4bgg92rcd13ifvqb30","pricing_plan_id":"cebpf4jnsgd1na2vs0mg"},{"bike_id":"5ab5285f-8d1d-4860-b978-a65c626c1634","system_id":"levelo_inurba_marseille","lat":43.31707,"lon":5.3773,"is_reserved":false,"is_disabled":false,"rental_uris":{"android":"levelo://app?vid=5ab5285f-8d1d-4860-b978-a65c626c1634","ios":"levelo://app?vid=5ab5285f-8d1d-4860-b978-a65c626c1634"},"vehicle_type_id":"4","last_reported":1742548228,"current_range_meters":3600,"station_id":"ce4bgth2rcd13ifvqch0","pricing_plan_id":"cebpf4jnsgd1na2vs0mg"},{"bike_id":"28f34723-7aef-4dd9-ba81-7d6deba682cf","system_id":"levelo_inurba_marseille","lat":43.2816,"lon":5.42673,"is_reserved":false,"is_disabled":false,"rental_uris":{"android":"levelo://app?vid=28f34723-7aef-4dd9-ba81-7d6deba682cf","ios":"levelo://app?vid=28f34723-7aef-4dd9-ba81-7d6deba682cf"},"vehicle_type_id":"4","last_reported":1742548228,"current_range_meters":3600,"station_id":"ce4bhnh2rcd13ifvqgug","pricing_plan_id":"cebpf4jnsgd1na2vs0mg"},{"bike_id":"a8bff648-9b4d-483e-8acf-924a729bd8cf","system_id":"levelo_inurba_marseille","lat":43.29272,"lon":5.37636,"is_reserved":false,"is_disabled":false,"rental_uris":{"android":"levelo://app?vid=a8bff648-9b4d-483e-8acf-924a729bd8cf","ios":"levelo://app?vid=a8bff648-9b4d-483e-8acf-924a729bd8cf"},"vehicle_type_id":"4","last_reported":1742548228,"current_range_meters":3600,"station_id":"ce4bgi12rcd13ifvqb80","pricing_plan_id":"cebpf4jnsgd1na2vs0mg"},{"bike_id":"2bc6c5c1-8369-44a9-9625-7037738d35a2","system_id":"levelo_inurba_marseille","lat":43.30305,"lon":5.369,"is_reserved":false,"is_disabled":false,"rental_uris":{"android":"levelo://app?vid=2bc6c5c1-8369-44a9-9625-7037738d35a2","ios":"levelo://app?vid=2bc6c5c1-8369-44a9-9625-7037738d35a2"},"vehicle_type_id":"4","last_reported":1742548228,"current_range_meters":3600,"station_id":"ce4bgqh2rcd13ifvqc5g","pricing_plan_id":"cebpf4jnsgd1na2vs0mg"},{"bike_id":"a9cf5ff7-36bc-4131-a26a-d2a5701e8f33","system_id":"levelo_inurba_marseille","lat":43.26555,"lon":5.39038,"is_reserved":false,"is_disabled":false,"rental_uris":{"android":"levelo://app?vid=a9cf5ff7-36bc-4131-a26a-d2a5701e8f33","ios":"levelo://app?vid=a9cf5ff7-36bc-4131-a26a-d2a5701e8f33"},"vehicle_type_id":"4","last_reported":1742548228,"current_range_meters":3600,"station_id":"ce4bhe12rcd13ifvqf30","pricing_plan_id":"cebpf4jnsgd1na2vs0mg"},{"bike_id":"7661730a-e11b-431a-9786-e9413570571f","system_id":"levelo_inurba_marseille","lat":43.32544,"lon":5.41426,"is_reserved":false,"is_disabled":false,"rental_uris":{"android":"levelo://app?vid=7661730a-e11b-431a-9786-e9413570571f","ios":"levelo://app?vid=7661730a-e11b-431a-9786-e9413570571f"},"vehicle_type_id":"4","last_reported":1742548228,"current_range_meters":3600,"station_id":"ce4bhq12rcd13ifvqhhg","pricing_plan_id":"cebpf4jnsgd1na2vs0mg"},{"bike_id":"3ae4f3bd-c485-4c98-8e8e-3c9bb312423a","system_id":"levelo_inurba_marseille","lat":43.24799,"lon":5.37457,"is_reserved":false,"is_disabled":false,"rental_uris":{"android":"levelo://app?vid=3ae4f3bd-c485-4c98-8e8e-3c9bb312423a","ios":"levelo://app?vid=3ae4f3bd-c485-4c98-8e8e-3c9bb312423a"},"vehicle_type_id":"4","last_reported":1742548228,"current_range_meters":4000,"station_id":"ce4bhgh2rcd13ifvqfb0","pricing_plan_id":"cebpf4jnsgd1na2vs0mg"},{"bike_id":"a8b8dae1-87ef-4f8a-a2c8-fe9fd9bf0f77","system_id":"levelo_inurba_marseille","lat":43.23519,"lon":5.37757,"is_reserved":false,"is_disabled":false,"rental_uris":{"android":"levelo://app?vid=a8b8dae1-87ef-4f8a-a2c8-fe9fd9bf0f77","ios":"levelo://app?vid=a8b8dae1-87ef-4f8a-a2c8-fe9fd9bf0f77"},"vehicle_type_id":"4","last_reported":1742548228,"current_range_meters":4000,"station_id":"","pricing_plan_id":"cebpf4jnsgd1na2vs0mg"},{"bike_id":"f2153ccd-baa9-4f3a-8e74-e24f124dd207","system_id":"levelo_inurba_marseille","lat":43.24386,"lon":5.37055,"is_reserved":false,"is_disabled":false,"rental_uris":{"android":"levelo://app?vid=f2153ccd-baa9-4f3a-8e74-e24f124dd207","ios":"levelo://app?vid=f2153ccd-baa9-4f3a-8e74-e24f124dd207"},"vehicle_type_id":"4","last_reported":1742548228,"current_range_meters":3600,"station_id":"ce4bhhh2rcd13ifvqfk0","pricing_plan_id":"cebpf4jnsgd1na2vs0mg"},{"bike_id":"d4e6a2e5-f190-47b3-8cc6-6797e846d957","system_id":"levelo_inurba_marseille","lat":43.29352,"lon":5.37847,"is_reserved":false,"is_disabled":false,"rental_uris":{"android":"levelo://app?vid=d4e6a2e5-f190-47b3-8cc6-6797e846d957","ios":"levelo://app?vid=d4e6a2e5-f190-47b3-8cc6-6797e846d957"},"vehicle_type_id":"4","last_reported":1742548228,"current_range_meters":4000,"station_id":"ce4bgjh2rcd13ifvqbf0","pricing_plan_id":"cebpf4jnsgd1na2vs0mg"},{"bike_id":"df9cd460-54ac-467e-9838-97022265124e","system_id":"levelo_inurba_marseille","lat":43.3414,"lon":5.40907,"is_reserved":false,"is_disabled":false,"rental_uris":{"android":"levelo://app?vid=df9cd460-54ac-467e-9838-97022265124e","ios":"levelo://app?vid=df9cd460-54ac-467e-9838-97022265124e"},"vehicle_type_id":"4","last_reported":1742548228,"current_range_meters":4000,"station_id":"ce4bhqh2rcd13ifvqhlg","pricing_plan_id":"cebpf4jnsgd1na2vs0mg"},{"bike_id":"16818fb2-0115-4091-856c-6e0109271f6c","system_id":"levelo_inurba_marseille","lat":43.26946,"lon":5.38645,"is_reserved":false,"is_disabled":false,"rental_uris":{"android":"levelo://app?vid=16818fb2-0115-4091-856c-6e0109271f6c","ios":"levelo://app?vid=16818fb2-0115-4091-856c-6e0109271f6c"},"vehicle_type_id":"4","last_reported":1742548228,"current_range_meters":4000,"station_id":"ce4bhh92rcd13ifvqfh0","pricing_plan_id":"cebpf4jnsgd1na2vs0mg"},{"bike_id":"d526b6e2-b103-4339-baa5-b85128efba8c","system_id":"levelo_inurba_marseille","lat":43.23057,"lon":5.35493,"is_reserved":false,"is_disabled":false,"rental_uris":{"android":"levelo://app?vid=d526b6e2-b103-4339-baa5-b85128efba8c","ios":"levelo://app?vid=d526b6e2-b103-4339-baa5-b85128efba8c"},"vehicle_type_id":"4","last_reported":1742548228,"current_range_meters":4000,"station_id":"cpo3342slgdg3j2ifvpg","pricing_plan_id":"cebpf4jnsgd1na2vs0mg"},{"bike_id":"9ce8bb93-9b24-4f04-9b0f-4227076b74e7","system_id":"levelo_inurba_marseille","lat":43.26193,"lon":5.37455,"is_reserved":false,"is_disabled":false,"rental_uris":{"android":"levelo://app?vid=9ce8bb93-9b24-4f04-9b0f-4227076b74e7","ios":"levelo://app?vid=9ce8bb93-9b24-4f04-9b0f-4227076b74e7"},"vehicle_type_id":"4","last_reported":1742548228,"current_range_meters":4000,"station_id":"ce4bhgp2rcd13ifvqfc0","pricing_plan_id":"cebpf4jnsgd1na2vs0mg"},{"bike_id":"2f136629-c702-4ef2-9fa2-dd74230ea6a8","system_id":"levelo_inurba_marseille","lat":43.27652,"lon":5.38395,"is_reserved":false,"is_disabled":false,"rental_uris":{"android":"levelo://app?vid=2f136629-c702-4ef2-9fa2-dd74230ea6a8","ios":"levelo://app?vid=2f136629-c702-4ef2-9fa2-dd74230ea6a8"},"vehicle_type_id":"4","last_reported":1742548228,"current_range_meters":4000,"station_id":"ce4bhh92rcd13ifvqfi0","pricing_plan_id":"cebpf4jnsgd1na2vs0mg"},{"bike_id":"a9c28a03-1b4b-4e90-b1d1-cdd66016aeee","system_id":"levelo_inurba_marseille","lat":43.30462,"lon":5.37911,"is_reserved":false,"is_disabled":false,"rental_uris":{"android":"levelo://app?vid=a9c28a03-1b4b-4e90-b1d1-cdd66016aeee","ios":"levelo://app?vid=a9c28a03-1b4b-4e90-b1d1-cdd66016aeee"},"vehicle_type_id":"4","last_reported":1742548228,"current_range_meters":4400,"station_id":"ce4bgup2rcd13ifvqcn0","pricing_plan_id":"cebpf4jnsgd1na2vs0mg"},{"bike_id":"dd3884dc-0b6b-4a2b-8af5-b0f72ae3a61b","system_id":"levelo_inurba_marseille","lat":43.23202,"lon":5.3555,"is_reserved":false,"is_disabled":false,"rental_uris":{"android":"levelo://app?vid=dd3884dc-0b6b-4a2b-8af5-b0f72ae3a61b","ios":"levelo://app?vid=dd3884dc-0b6b-4a2b-8af5-b0f72ae3a61b"},"vehicle_type_id":"4","last_reported":1742548228,"current_range_meters":4400,"station_id":"ce4bhu92rcd13ifvqi70","pricing_plan_id":"cebpf4jnsgd1na2vs0mg"},{"bike_id":"24badc44-9bf9-4f36-b135-2594ae4af7d3","system_id":"levelo_inurba_marseille","lat":43.29866,"lon":5.39738,"is_reserved":false,"is_disabled":false,"rental_uris":{"android":"levelo://app?vid=24badc44-9bf9-4f36-b135-2594ae4af7d3","ios":"levelo://app?vid=24badc44-9bf9-4f36-b135-2594ae4af7d3"},"vehicle_type_id":"4","last_reported":1742548228,"current_range_meters":4400,"station_id":"ce4bh0h2rcd13ifvqd50","pricing_plan_id":"cebpf4jnsgd1na2vs0mg"},{"bike_id":"8cb71e2b-d965-4f13-b540-05a111c6eb59","system_id":"levelo_inurba_marseille","lat":43.3016,"lon":5.38094,"is_reserved":false,"is_disabled":false,"rental_uris":{"android":"levelo://app?vid=8cb71e2b-d965-4f13-b540-05a111c6eb59","ios":"levelo://app?vid=8cb71e2b-d965-4f13-b540-05a111c6eb59"},"vehicle_type_id":"4","last_reported":1742548228,"current_range_meters":4800,"station_id":"ce4bgjp2rcd13ifvqbh0","pricing_plan_id":"cebpf4jnsgd1na2vs0mg"},{"bike_id":"82e4a325-6b2d-47b5-91b0-43cec8017702","system_id":"levelo_inurba_marseille","lat":43.25721,"lon":5.41108,"is_reserved":false,"is_disabled":false,"rental_uris":{"android":"levelo://app?vid=82e4a325-6b2d-47b5-91b0-43cec8017702","ios":"levelo://app?vid=82e4a325-6b2d-47b5-91b0-43cec8017702"},"vehicle_type_id":"4","last_reported":1742548228,"current_range_meters":5600,"station_id":"ce4bhkp2rcd13ifvqgd0","pricing_plan_id":"cebpf4jnsgd1na2vs0mg"},{"bike_id":"0d87581c-e8a1-4ddc-bbdb-cc51556eba17","system_id":"levelo_inurba_marseille","lat":43.33604,"lon":5.41031,"is_reserved":false,"is_disabled":false,"rental_uris":{"android":"levelo://app?vid=0d87581c-e8a1-4ddc-bbdb-cc51556eba17","ios":"levelo://app?vid=0d87581c-e8a1-4ddc-bbdb-cc51556eba17"},"vehicle_type_id":"4","last_reported":1742548228,"current_range_meters":5600,"station_id":"ce4bhqh2rcd13ifvqhmg","pricing_plan_id":"cebpf4jnsgd1na2vs0mg"},{"bike_id":"e5c14285-2e1d-41d9-bab9-ae38b8ffec63","system_id":"levelo_inurba_marseille","lat":43.3361,"lon":5.41027,"is_reserved":false,"is_disabled":false,"rental_uris":{"android":"levelo://app?vid=e5c14285-2e1d-41d9-bab9-ae38b8ffec63","ios":"levelo://app?vid=e5c14285-2e1d-41d9-bab9-ae38b8ffec63"},"vehicle_type_id":"4","last_reported":1742548228,"current_range_meters":5600,"station_id":"ce4bhqh2rcd13ifvqhmg","pricing_plan_id":"cebpf4jnsgd1na2vs0mg"},{"bike_id":"471b8c1a-1a85-4080-b533-fb41f3dbfd81","system_id":"levelo_inurba_marseille","lat":43.23195,"lon":5.35567,"is_reserved":false,"is_disabled":false,"rental_uris":{"android":"levelo://app?vid=471b8c1a-1a85-4080-b533-fb41f3dbfd81","ios":"levelo://app?vid=471b8c1a-1a85-4080-b533-fb41f3dbfd81"},"vehicle_type_id":"4","last_reported":1742548228,"current_range_meters":5600,"station_id":"ce4bhu92rcd13ifvqi70","pricing_plan_id":"cebpf4jnsgd1na2vs0mg"},{"bike_id":"466bd5c6-75d1-4403-8968-704cfeeac6d2","system_id":"levelo_inurba_marseille","lat":43.2315,"lon":5.43723,"is_reserved":false,"is_disabled":false,"rental_uris":{"android":"levelo://app?vid=466bd5c6-75d1-4403-8968-704cfeeac6d2","ios":"levelo://app?vid=466bd5c6-75d1-4403-8968-704cfeeac6d2"},"vehicle_type_id":"4","last_reported":1742548228,"current_range_meters":5600,"station_id":"ce4bhmp2rcd13ifvqgog","pricing_plan_id":"cebpf4jnsgd1na2vs0mg"},{"bike_id":"ad4cdc41-562d-436a-b376-1bdaba4ddea6","system_id":"levelo_inurba_marseille","lat":43.30948,"lon":5.39031,"is_reserved":false,"is_disabled":false,"rental_uris":{"android":"levelo://app?vid=ad4cdc41-562d-436a-b376-1bdaba4ddea6","ios":"levelo://app?vid=ad4cdc41-562d-436a-b376-1bdaba4ddea6"},"vehicle_type_id":"4","last_reported":1742548228,"current_range_meters":6000,"station_id":"ce4bgup2rcd13ifvqco0","pricing_plan_id":"cebpf4jnsgd1na2vs0mg"},{"bike_id":"747f52f6-e172-4a6b-8605-5af32b1e948a","system_id":"levelo_inurba_marseille","lat":43.32551,"lon":5.41443,"is_reserved":false,"is_disabled":false,"rental_uris":{"android":"levelo://app?vid=747f52f6-e172-4a6b-8605-5af32b1e948a","ios":"levelo://app?vid=747f52f6-e172-4a6b-8605-5af32b1e948a"},"vehicle_type_id":"4","last_reported":1742548228,"current_range_meters":6000,"station_id":"ce4bhq12rcd13ifvqhhg","pricing_plan_id":"cebpf4jnsgd1na2vs0mg"},{"bike_id":"08eaddc6-d579-40b8-895c-089b2f8ce149","system_id":"levelo_inurba_marseille","lat":43.23886,"lon":5.37953,"is_reserved":false,"is_disabled":false,"rental_uris":{"android":"levelo://app?vid=08eaddc6-d579-40b8-895c-089b2f8ce149","ios":"levelo://app?vid=08eaddc6-d579-40b8-895c-089b2f8ce149"},"vehicle_type_id":"4","last_reported":1742548228,"current_range_meters":6000,"station_id":"ce4bhih2rcd13ifvqfr0","pricing_plan_id":"cebpf4jnsgd1na2vs0mg"},{"bike_id":"671210b1-9e8f-4893-953f-985ab8b97e34","system_id":"levelo_inurba_marseille","lat":43.32112,"lon":5.36772,"is_reserved":false,"is_disabled":false,"rental_uris":{"android":"levelo://app?vid=671210b1-9e8f-4893-953f-985ab8b97e34","ios":"levelo://app?vid=671210b1-9e8f-4893-953f-985ab8b97e34"},"vehicle_type_id":"4","last_reported":1742548228,"current_range_meters":6000,"station_id":"ce4bhrh2rcd13ifvqhug","pricing_plan_id":"cebpf4jnsgd1na2vs0mg"},{"bike_id":"6fc4d402-a718-4441-82e4-db60aa4fa880","system_id":"levelo_inurba_marseille","lat":43.30565,"lon":5.36697,"is_reserved":false,"is_disabled":false,"rental_uris":{"android":"levelo://app?vid=6fc4d402-a718-4441-82e4-db60aa4fa880","ios":"levelo://app?vid=6fc4d402-a718-4441-82e4-db60aa4fa880"},"vehicle_type_id":"4","last_reported":1742548228,"current_range_meters":6400,"station_id":"ce4bgrp2rcd13ifvqc9g","pricing_plan_id":"cebpf4jnsgd1na2vs0mg"},{"bike_id":"bf937b59-7f17-447a-bbc2-76c829f6f4d8","system_id":"levelo_inurba_marseille","lat":43.30428,"lon":5.39742,"is_reserved":false,"is_disabled":false,"rental_uris":{"android":"levelo://app?vid=bf937b59-7f17-447a-bbc2-76c829f6f4d8","ios":"levelo://app?vid=bf937b59-7f17-447a-bbc2-76c829f6f4d8"},"vehicle_type_id":"4","last_reported":1742548228,"current_range_meters":6400,"station_id":"ce4bh092rcd13ifvqd20","pricing_plan_id":"cebpf4jnsgd1na2vs0mg"},{"bike_id":"c2e5f77d-7def-477a-88be-4e7832c31727","system_id":"levelo_inurba_marseille","lat":43.25928,"lon":5.40899,"is_reserved":false,"is_disabled":false,"rental_uris":{"android":"levelo://app?vid=c2e5f77d-7def-477a-88be-4e7832c31727","ios":"levelo://app?vid=c2e5f77d-7def-477a-88be-4e7832c31727"},"vehicle_type_id":"4","last_reported":1742548228,"current_range_meters":6400,"station_id":"ce4bhm92rcd13ifvqglg","pricing_plan_id":"cebpf4jnsgd1na2vs0mg"},{"bike_id":"3de2406a-ac3d-462f-b119-f2f92e9b0930","system_id":"levelo_inurba_marseille","lat":43.31388,"lon":5.3891,"is_reserved":false,"is_disabled":false,"rental_uris":{"android":"levelo://app?vid=3de2406a-ac3d-462f-b119-f2f92e9b0930","ios":"levelo://app?vid=3de2406a-ac3d-462f-b119-f2f92e9b0930"},"vehicle_type_id":"4","last_reported":1742548228,"current_range_meters":6400,"station_id":"","pricing_plan_id":"cebpf4jnsgd1na2vs0mg"},{"bike_id":"88235f40-31c6-4a2f-8946-34e3a8b8f4b1","system_id":"levelo_inurba_marseille","lat":43.29876,"lon":5.39758,"is_reserved":false,"is_disabled":false,"rental_uris":{"android":"levelo://app?vid=88235f40-31c6-4a2f-8946-34e3a8b8f4b1","ios":"levelo://app?vid=88235f40-31c6-4a2f-8946-34e3a8b8f4b1"},"vehicle_type_id":"4","last_reported":1742548228,"current_range_meters":6400,"station_id":"ce4bh0h2rcd13ifvqd50","pricing_plan_id":"cebpf4jnsgd1na2vs0mg"},{"bike_id":"7c7ca4bb-9de0-4cce-8130-65c77b21ac88","system_id":"levelo_inurba_marseille","lat":43.29273,"lon":5.40137,"is_reserved":false,"is_disabled":false,"rental_uris":{"android":"levelo://app?vid=7c7ca4bb-9de0-4cce-8130-65c77b21ac88","ios":"levelo://app?vid=7c7ca4bb-9de0-4cce-8130-65c77b21ac88"},"vehicle_type_id":"4","last_reported":1742548228,"current_range_meters":6400,"station_id":"ce4bh312rcd13ifvqdk0","pricing_plan_id":"cebpf4jnsgd1na2vs0mg"},{"bike_id":"5c8add38-8866-42aa-a547-95e43c01b72a","system_id":"levelo_inurba_marseille","lat":43.2896,"lon":5.37826,"is_reserved":false,"is_disabled":true,"rental_uris":{"android":"levelo://app?vid=5c8add38-8866-42aa-a547-95e43c01b72a","ios":"levelo://app?vid=5c8add38-8866-42aa-a547-95e43c01b72a"},"vehicle_type_id":"4","last_reported":1742548228,"current_range_meters":6800,"station_id":"ce4bh9p2rcd13ifvqed0","pricing_plan_id":"cebpf4jnsgd1na2vs0mg"},{"bike_id":"cb6062cd-3cfa-4917-b79b-5707b99e3c03","system_id":"levelo_inurba_marseille","lat":43.321185,"lon":5.367534,"is_reserved":false,"is_disabled":false,"rental_uris":{"android":"levelo://app?vid=cb6062cd-3cfa-4917-b79b-5707b99e3c03","ios":"levelo://app?vid=cb6062cd-3cfa-4917-b79b-5707b99e3c03"},"vehicle_type_id":"4","last_reported":1742548228,"current_range_meters":6800,"station_id":"ce4bho92rcd13ifvqh3g","pricing_plan_id":"cebpf4jnsgd1na2vs0mg"},{"bike_id":"9b2a4ae1-45d2-42a7-b1d8-970226b193d0","system_id":"levelo_inurba_marseille","lat":43.2418,"lon":5.39727,"is_reserved":false,"is_disabled":false,"rental_uris":{"android":"levelo://app?vid=9b2a4ae1-45d2-42a7-b1d8-970226b193d0","ios":"levelo://app?vid=9b2a4ae1-45d2-42a7-b1d8-970226b193d0"},"vehicle_type_id":"4","last_reported":1742548228,"current_range_meters":6800,"station_id":"ce4bhn12rcd13ifvqgpg","pricing_plan_id":"cebpf4jnsgd1na2vs0mg"},{"bike_id":"d7b2614f-197c-4f6e-9e80-2a6d090ecad9","system_id":"levelo_inurba_marseille","lat":43.28346,"lon":5.38097,"is_reserved":false,"is_disabled":false,"rental_uris":{"android":"levelo://app?vid=d7b2614f-197c-4f6e-9e80-2a6d090ecad9","ios":"levelo://app?vid=d7b2614f-197c-4f6e-9e80-2a6d090ecad9"},"vehicle_type_id":"4","last_reported":1742548228,"current_range_meters":6800,"station_id":"ce4bh412rcd13ifvqdr0","pricing_plan_id":"cebpf4jnsgd1na2vs0mg"},{"bike_id":"dfc7ef74-27e8-4777-baa7-8eaf73d41c8c","system_id":"levelo_inurba_marseille","lat":43.30311,"lon":5.3691,"is_reserved":false,"is_disabled":false,"rental_uris":{"android":"levelo://app?vid=dfc7ef74-27e8-4777-baa7-8eaf73d41c8c","ios":"levelo://app?vid=dfc7ef74-27e8-4777-baa7-8eaf73d41c8c"},"vehicle_type_id":"4","last_reported":1742548228,"current_range_meters":6800,"station_id":"ce4bgqh2rcd13ifvqc5g","pricing_plan_id":"cebpf4jnsgd1na2vs0mg"},{"bike_id":"4f3fae75-1507-44ea-b182-5931043b4935","system_id":"levelo_inurba_marseille","lat":43.26605,"lon":5.38992,"is_reserved":false,"is_disabled":false,"rental_uris":{"android":"levelo://app?vid=4f3fae75-1507-44ea-b182-5931043b4935","ios":"levelo://app?vid=4f3fae75-1507-44ea-b182-5931043b4935"},"vehicle_type_id":"4","last_reported":1742548228,"current_range_meters":6800,"station_id":"","pricing_plan_id":"cebpf4jnsgd1na2vs0mg"},{"bike_id":"fb5fd746-d7a0-4163-9fd4-42d5eef31468","system_id":"levelo_inurba_marseille","lat":43.30615,"lon":5.3961,"is_reserved":false,"is_disabled":false,"rental_uris":{"android":"levelo://app?vid=fb5fd746-d7a0-4163-9fd4-42d5eef31468","ios":"levelo://app?vid=fb5fd746-d7a0-4163-9fd4-42d5eef31468"},"vehicle_type_id":"4","last_reported":1742548228,"current_range_meters":6800,"station_id":"","pricing_plan_id":"cebpf4jnsgd1na2vs0mg"},{"bike_id":"78797494-0464-400a-aaed-d7c6fd0a8e61","system_id":"levelo_inurba_marseille","lat":43.31351,"lon":5.38488,"is_reserved":false,"is_disabled":false,"rental_uris":{"android":"levelo://app?vid=78797494-0464-400a-aaed-d7c6fd0a8e61","ios":"levelo://app?vid=78797494-0464-400a-aaed-d7c6fd0a8e61"},"vehicle_type_id":"4","last_reported":1742548228,"current_range_meters":6800,"station_id":"ce4bgt92rcd13ifvqcf0","pricing_plan_id":"cebpf4jnsgd1na2vs0mg"},{"bike_id":"5ad98702-9c26-43dc-9ae6-2999496f4812","system_id":"levelo_inurba_marseille","lat":43.29623,"lon":5.37733,"is_reserved":false,"is_disabled":false,"rental_uris":{"android":"levelo://app?vid=5ad98702-9c26-43dc-9ae6-2999496f4812","ios":"levelo://app?vid=5ad98702-9c26-43dc-9ae6-2999496f4812"},"vehicle_type_id":"4","last_reported":1742548228,"current_range_meters":6800,"station_id":"ce4bgi92rcd13ifvqb90","pricing_plan_id":"cebpf4jnsgd1na2vs0mg"},{"bike_id":"d7645557-54c5-44ed-8c44-41e433a350da","system_id":"levelo_inurba_marseille","lat":43.29475,"lon":5.35581,"is_reserved":false,"is_disabled":false,"rental_uris":{"android":"levelo://app?vid=d7645557-54c5-44ed-8c44-41e433a350da","ios":"levelo://app?vid=d7645557-54c5-44ed-8c44-41e433a350da"},"vehicle_type_id":"4","last_reported":1742548228,"current_range_meters":6800,"station_id":"","pricing_plan_id":"cebpf4jnsgd1na2vs0mg"},{"bike_id":"b266faba-4e26-4c50-b078-a54d17773ddd","system_id":"levelo_inurba_marseille","lat":43.24547,"lon":5.39527,"is_reserved":false,"is_disabled":false,"rental_uris":{"android":"levelo://app?vid=b266faba-4e26-4c50-b078-a54d17773ddd","ios":"levelo://app?vid=b266faba-4e26-4c50-b078-a54d17773ddd"},"vehicle_type_id":"4","last_reported":1742548228,"current_range_meters":7200,"station_id":"ce4bhlp2rcd13ifvqgjg","pricing_plan_id":"cebpf4jnsgd1na2vs0mg"},{"bike_id":"9234cc95-59ca-41ed-a383-b1ff3fd77c89","system_id":"levelo_inurba_marseille","lat":43.23962,"lon":5.36629,"is_reserved":false,"is_disabled":false,"rental_uris":{"android":"levelo://app?vid=9234cc95-59ca-41ed-a383-b1ff3fd77c89","ios":"levelo://app?vid=9234cc95-59ca-41ed-a383-b1ff3fd77c89"},"vehicle_type_id":"4","last_reported":1742548228,"current_range_meters":7200,"station_id":"ce4bhi12rcd13ifvqfp0","pricing_plan_id":"cebpf4jnsgd1na2vs0mg"},{"bike_id":"f43d6e12-15f8-4661-b1f8-886c4b9fac59","system_id":"levelo_inurba_marseille","lat":43.30269,"lon":5.37726,"is_reserved":false,"is_disabled":false,"rental_uris":{"android":"levelo://app?vid=f43d6e12-15f8-4661-b1f8-886c4b9fac59","ios":"levelo://app?vid=f43d6e12-15f8-4661-b1f8-886c4b9fac59"},"vehicle_type_id":"4","last_reported":1742548228,"current_range_meters":7200,"station_id":"ce4bguh2rcd13ifvqcj0","pricing_plan_id":"cebpf4jnsgd1na2vs0mg"},{"bike_id":"4da38abe-63fe-44a7-abd3-4bad6629a678","system_id":"levelo_inurba_marseille","lat":43.29685,"lon":5.37346,"is_reserved":false,"is_disabled":false,"rental_uris":{"android":"levelo://app?vid=4da38abe-63fe-44a7-abd3-4bad6629a678","ios":"levelo://app?vid=4da38abe-63fe-44a7-abd3-4bad6629a678"},"vehicle_type_id":"4","last_reported":1742548228,"current_range_meters":7200,"station_id":"ce4bgk12rcd13ifvqbj0","pricing_plan_id":"cebpf4jnsgd1na2vs0mg"},{"bike_id":"a1d4474e-dc54-4e96-8359-81b099ba1a93","system_id":"levelo_inurba_marseille","lat":43.2321,"lon":5.39965,"is_reserved":false,"is_disabled":false,"rental_uris":{"android":"levelo://app?vid=a1d4474e-dc54-4e96-8359-81b099ba1a93","ios":"levelo://app?vid=a1d4474e-dc54-4e96-8359-81b099ba1a93"},"vehicle_type_id":"4","last_reported":1742548228,"current_range_meters":8000,"station_id":"ce4bhn12rcd13ifvqgqg","pricing_plan_id":"cebpf4jnsgd1na2vs0mg"},{"bike_id":"2f1aa16a-8533-444e-93d5-6a974fa5a1db","system_id":"levelo_inurba_marseille","lat":43.29302,"lon":5.37464,"is_reserved":false,"is_disabled":false,"rental_uris":{"android":"levelo://app?vid=2f1aa16a-8533-444e-93d5-6a974fa5a1db","ios":"levelo://app?vid=2f1aa16a-8533-444e-93d5-6a974fa5a1db"},"vehicle_type_id":"4","last_reported":1742548228,"current_range_meters":8000,"station_id":"ce4bgi12rcd13ifvqb70","pricing_plan_id":"cebpf4jnsgd1na2vs0mg"},{"bike_id":"2bccb1e2-4ec6-49dd-8fbc-289207394bb5","system_id":"levelo_inurba_marseille","lat":43.29031,"lon":5.3996,"is_reserved":false,"is_disabled":false,"rental_uris":{"android":"levelo://app?vid=2bccb1e2-4ec6-49dd-8fbc-289207394bb5","ios":"levelo://app?vid=2bccb1e2-4ec6-49dd-8fbc-289207394bb5"},"vehicle_type_id":"4","last_reported":1742548228,"current_range_meters":8000,"station_id":"ce4bh392rcd13ifvqdm0","pricing_plan_id":"cebpf4jnsgd1na2vs0mg"},{"bike_id":"74ca8f8e-770f-4c39-9bcc-04d356dfc1fe","system_id":"levelo_inurba_marseille","lat":43.32465,"lon":5.36581,"is_reserved":false,"is_disabled":false,"rental_uris":{"android":"levelo://app?vid=74ca8f8e-770f-4c39-9bcc-04d356dfc1fe","ios":"levelo://app?vid=74ca8f8e-770f-4c39-9bcc-04d356dfc1fe"},"vehicle_type_id":"4","last_reported":1742548228,"current_range_meters":8000,"station_id":"ce4bhs12rcd13ifvqhvg","pricing_plan_id":"cebpf4jnsgd1na2vs0mg"},{"bike_id":"32e3927b-12d0-4b1a-9923-ea2f64ded6c1","system_id":"levelo_inurba_marseille","lat":43.28159,"lon":5.42646,"is_reserved":false,"is_disabled":false,"rental_uris":{"android":"levelo://app?vid=32e3927b-12d0-4b1a-9923-ea2f64ded6c1","ios":"levelo://app?vid=32e3927b-12d0-4b1a-9923-ea2f64ded6c1"},"vehicle_type_id":"4","last_reported":1742548228,"current_range_meters":8000,"station_id":"ce4bhnh2rcd13ifvqgug","pricing_plan_id":"cebpf4jnsgd1na2vs0mg"},{"bike_id":"294818fe-f961-4f2d-85c2-45f9b2579a29","system_id":"levelo_inurba_marseille","lat":43.27675,"lon":5.39073,"is_reserved":false,"is_disabled":false,"rental_uris":{"android":"levelo://app?vid=294818fe-f961-4f2d-85c2-45f9b2579a29","ios":"levelo://app?vid=294818fe-f961-4f2d-85c2-45f9b2579a29"},"vehicle_type_id":"4","last_reported":1742548228,"current_range_meters":8000,"station_id":"","pricing_plan_id":"cebpf4jnsgd1na2vs0mg"},{"bike_id":"f54ca8c9-1f19-48d7-8d0e-71f9257573ea","system_id":"levelo_inurba_marseille","lat":43.28138,"lon":5.42647,"is_reserved":false,"is_disabled":false,"rental_uris":{"android":"levelo://app?vid=f54ca8c9-1f19-48d7-8d0e-71f9257573ea","ios":"levelo://app?vid=f54ca8c9-1f19-48d7-8d0e-71f9257573ea"},"vehicle_type_id":"4","last_reported":1742548228,"current_range_meters":8000,"station_id":"ce4bhnh2rcd13ifvqgug","pricing_plan_id":"cebpf4jnsgd1na2vs0mg"},{"bike_id":"a0deeb6c-62a7-4efb-834c-1bec837aaba6","system_id":"levelo_inurba_marseille","lat":43.33661,"lon":5.37884,"is_reserved":false,"is_disabled":false,"rental_uris":{"android":"levelo://app?vid=a0deeb6c-62a7-4efb-834c-1bec837aaba6","ios":"levelo://app?vid=a0deeb6c-62a7-4efb-834c-1bec837aaba6"},"vehicle_type_id":"4","last_reported":1742548228,"current_range_meters":8000,"station_id":"","pricing_plan_id":"cebpf4jnsgd1na2vs0mg"},{"bike_id":"ffbee1c9-ab8d-45ee-b606-c546ab78c5f2","system_id":"levelo_inurba_marseille","lat":43.29732,"lon":5.37766,"is_reserved":false,"is_disabled":false,"rental_uris":{"android":"levelo://app?vid=ffbee1c9-ab8d-45ee-b606-c546ab78c5f2","ios":"levelo://app?vid=ffbee1c9-ab8d-45ee-b606-c546ab78c5f2"},"vehicle_type_id":"4","last_reported":1742548228,"current_range_meters":8000,"station_id":"","pricing_plan_id":"cebpf4jnsgd1na2vs0mg"},{"bike_id":"9044461e-62db-4d23-b825-ab9c7ed1b440","system_id":"levelo_inurba_marseille","lat":43.27498,"lon":5.42456,"is_reserved":false,"is_disabled":false,"rental_uris":{"android":"levelo://app?vid=9044461e-62db-4d23-b825-ab9c7ed1b440","ios":"levelo://app?vid=9044461e-62db-4d23-b825-ab9c7ed1b440"},"vehicle_type_id":"4","last_reported":1742548228,"current_range_meters":8000,"station_id":"ce4bho12rcd13ifvqh1g","pricing_plan_id":"cebpf4jnsgd1na2vs0mg"},{"bike_id":"76a129e6-b305-42b8-a863-5a99730d4d66","system_id":"levelo_inurba_marseille","lat":43.30406,"lon":5.41297,"is_reserved":false,"is_disabled":false,"rental_uris":{"android":"levelo://app?vid=76a129e6-b305-42b8-a863-5a99730d4d66","ios":"levelo://app?vid=76a129e6-b305-42b8-a863-5a99730d4d66"},"vehicle_type_id":"4","last_reported":1742548228,"current_range_meters":8000,"station_id":"ce4bhop2rcd13ifvqh8g","pricing_plan_id":"cebpf4jnsgd1na2vs0mg"},{"bike_id":"87fc0535-a83d-43a6-b769-72549de4a628","system_id":"levelo_inurba_marseille","lat":43.30392,"lon":5.42522,"is_reserved":false,"is_disabled":false,"rental_uris":{"android":"levelo://app?vid=87fc0535-a83d-43a6-b769-72549de4a628","ios":"levelo://app?vid=87fc0535-a83d-43a6-b769-72549de4a628"},"vehicle_type_id":"4","last_reported":1742548228,"current_range_meters":8000,"station_id":"ce4bhoh2rcd13ifvqh6g","pricing_plan_id":"cebpf4jnsgd1na2vs0mg"},{"bike_id":"b9e4bdd0-024c-4547-9a94-39d0c7923642","system_id":"levelo_inurba_marseille","lat":43.2417,"lon":5.36406,"is_reserved":false,"is_disabled":false,"rental_uris":{"android":"levelo://app?vid=b9e4bdd0-024c-4547-9a94-39d0c7923642","ios":"levelo://app?vid=b9e4bdd0-024c-4547-9a94-39d0c7923642"},"vehicle_type_id":"4","last_reported":1742548228,"current_range_meters":8000,"station_id":"cpo36qri1sfpv3e86is0","pricing_plan_id":"cebpf4jnsgd1na2vs0mg"},{"bike_id":"c5bb5dca-1dc9-450e-9a3d-9fa737cf345d","system_id":"levelo_inurba_marseille","lat":43.2465,"lon":5.38877,"is_reserved":false,"is_disabled":false,"rental_uris":{"android":"levelo://app?vid=c5bb5dca-1dc9-450e-9a3d-9fa737cf345d","ios":"levelo://app?vid=c5bb5dca-1dc9-450e-9a3d-9fa737cf345d"},"vehicle_type_id":"4","last_reported":1742548228,"current_range_meters":8000,"station_id":"ce4bhg12rcd13ifvqf60","pricing_plan_id":"cebpf4jnsgd1na2vs0mg"},{"bike_id":"a5c13526-e2a3-4409-99b6-22b3084d84d0","system_id":"levelo_inurba_marseille","lat":43.29027,"lon":5.38647,"is_reserved":false,"is_disabled":false,"rental_uris":{"android":"levelo://app?vid=a5c13526-e2a3-4409-99b6-22b3084d84d0","ios":"levelo://app?vid=a5c13526-e2a3-4409-99b6-22b3084d84d0"},"vehicle_type_id":"4","last_reported":1742548228,"current_range_meters":8000,"station_id":"ce4bh4p2rcd13ifvqe0g","pricing_plan_id":"cebpf4jnsgd1na2vs0mg"},{"bike_id":"9b91a0f9-9539-4ee0-ac8e-999f54064ee5","system_id":"levelo_inurba_marseille","lat":43.2845,"lon":5.35892,"is_reserved":false,"is_disabled":false,"rental_uris":{"android":"levelo://app?vid=9b91a0f9-9539-4ee0-ac8e-999f54064ee5","ios":"levelo://app?vid=9b91a0f9-9539-4ee0-ac8e-999f54064ee5"},"vehicle_type_id":"4","last_reported":1742548228,"current_range_meters":8400,"station_id":"ce4bhah2rcd13ifvqei0","pricing_plan_id":"cebpf4jnsgd1na2vs0mg"},{"bike_id":"311f3d6e-f9db-4cb3-9683-608f9dcd7aad","system_id":"levelo_inurba_marseille","lat":43.3029,"lon":5.36903,"is_reserved":false,"is_disabled":false,"rental_uris":{"android":"levelo://app?vid=311f3d6e-f9db-4cb3-9683-608f9dcd7aad","ios":"levelo://app?vid=311f3d6e-f9db-4cb3-9683-608f9dcd7aad"},"vehicle_type_id":"4","last_reported":1742548228,"current_range_meters":8400,"station_id":"ce4bgqh2rcd13ifvqc5g","pricing_plan_id":"cebpf4jnsgd1na2vs0mg"},{"bike_id":"9b260041-8d2c-4c8e-bf20-b6a92c893e71","system_id":"levelo_inurba_marseille","lat":43.31683,"lon":5.40479,"is_reserved":false,"is_disabled":false,"rental_uris":{"android":"levelo://app?vid=9b260041-8d2c-4c8e-bf20-b6a92c893e71","ios":"levelo://app?vid=9b260041-8d2c-4c8e-bf20-b6a92c893e71"},"vehicle_type_id":"4","last_reported":1742548228,"current_range_meters":8400,"station_id":"ce4bh012rcd13ifvqd00","pricing_plan_id":"cebpf4jnsgd1na2vs0mg"},{"bike_id":"298094ff-1b8f-403e-b315-5326030acb86","system_id":"levelo_inurba_marseille","lat":43.28159,"lon":5.42647,"is_reserved":false,"is_disabled":false,"rental_uris":{"android":"levelo://app?vid=298094ff-1b8f-403e-b315-5326030acb86","ios":"levelo://app?vid=298094ff-1b8f-403e-b315-5326030acb86"},"vehicle_type_id":"4","last_reported":1742548228,"current_range_meters":8400,"station_id":"ce4bhnh2rcd13ifvqgug","pricing_plan_id":"cebpf4jnsgd1na2vs0mg"},{"bike_id":"5dfc63c0-0c7b-4480-85a3-2062cb4ad599","system_id":"levelo_inurba_marseille","lat":43.32542,"lon":5.41437,"is_reserved":false,"is_disabled":false,"rental_uris":{"android":"levelo://app?vid=5dfc63c0-0c7b-4480-85a3-2062cb4ad599","ios":"levelo://app?vid=5dfc63c0-0c7b-4480-85a3-2062cb4ad599"},"vehicle_type_id":"4","last_reported":1742548228,"current_range_meters":8400,"station_id":"ce4bhq12rcd13ifvqhhg","pricing_plan_id":"cebpf4jnsgd1na2vs0mg"},{"bike_id":"1650c152-e083-415c-b118-5516ca869cbf","system_id":"levelo_inurba_marseille","lat":43.26949,"lon":5.38645,"is_reserved":false,"is_disabled":false,"rental_uris":{"android":"levelo://app?vid=1650c152-e083-415c-b118-5516ca869cbf","ios":"levelo://app?vid=1650c152-e083-415c-b118-5516ca869cbf"},"vehicle_type_id":"4","last_reported":1742548228,"current_range_meters":8400,"station_id":"ce4bhh92rcd13ifvqfh0","pricing_plan_id":"cebpf4jnsgd1na2vs0mg"},{"bike_id":"83943421-5d80-40aa-81ef-a3934e023337","system_id":"levelo_inurba_marseille","lat":43.30131,"lon":5.37411,"is_reserved":false,"is_disabled":false,"rental_uris":{"android":"levelo://app?vid=83943421-5d80-40aa-81ef-a3934e023337","ios":"levelo://app?vid=83943421-5d80-40aa-81ef-a3934e023337"},"vehicle_type_id":"4","last_reported":1742548228,"current_range_meters":8400,"station_id":"ce4bgs92rcd13ifvqcc0","pricing_plan_id":"cebpf4jnsgd1na2vs0mg"},{"bike_id":"45c24edb-28b5-4494-8c05-4b46963853ae","system_id":"levelo_inurba_marseille","lat":43.29546,"lon":5.42265,"is_reserved":false,"is_disabled":false,"rental_uris":{"android":"levelo://app?vid=45c24edb-28b5-4494-8c05-4b46963853ae","ios":"levelo://app?vid=45c24edb-28b5-4494-8c05-4b46963853ae"},"vehicle_type_id":"4","last_reported":1742548228,"current_range_meters":8800,"station_id":"ce4bhph2rcd13ifvqhdg","pricing_plan_id":"cebpf4jnsgd1na2vs0mg"},{"bike_id":"2d1e9648-a42f-4602-91d8-09906da8dfd9","system_id":"levelo_inurba_marseille","lat":43.30214,"lon":5.39461,"is_reserved":false,"is_disabled":false,"rental_uris":{"android":"levelo://app?vid=2d1e9648-a42f-4602-91d8-09906da8dfd9","ios":"levelo://app?vid=2d1e9648-a42f-4602-91d8-09906da8dfd9"},"vehicle_type_id":"4","last_reported":1742548228,"current_range_meters":8800,"station_id":"ce4bh0p2rcd13ifvqd70","pricing_plan_id":"cebpf4jnsgd1na2vs0mg"},{"bike_id":"c0196702-1a48-466c-ba11-6749e93050f1","system_id":"levelo_inurba_marseille","lat":43.28403,"lon":5.37526,"is_reserved":false,"is_disabled":true,"rental_uris":{"android":"levelo://app?vid=c0196702-1a48-466c-ba11-6749e93050f1","ios":"levelo://app?vid=c0196702-1a48-466c-ba11-6749e93050f1"},"vehicle_type_id":"4","last_reported":1742548228,"current_range_meters":8800,"station_id":"ce4bh412rcd13ifvqds0","pricing_plan_id":"cebpf4jnsgd1na2vs0mg"},{"bike_id":"b82d6ead-402b-4db0-8007-debc71aee8bc","system_id":"levelo_inurba_marseille","lat":43.2315,"lon":5.43715,"is_reserved":false,"is_disabled":false,"rental_uris":{"android":"levelo://app?vid=b82d6ead-402b-4db0-8007-debc71aee8bc","ios":"levelo://app?vid=b82d6ead-402b-4db0-8007-debc71aee8bc"},"vehicle_type_id":"4","last_reported":1742548228,"current_range_meters":8800,"station_id":"ce4bhmp2rcd13ifvqgog","pricing_plan_id":"cebpf4jnsgd1na2vs0mg"},{"bike_id":"a2ece08e-5a0a-4ecb-a8bb-4b5c24cd4f12","system_id":"levelo_inurba_marseille","lat":43.2981,"lon":5.38086,"is_reserved":false,"is_disabled":false,"rental_uris":{"android":"levelo://app?vid=a2ece08e-5a0a-4ecb-a8bb-4b5c24cd4f12","ios":"levelo://app?vid=a2ece08e-5a0a-4ecb-a8bb-4b5c24cd4f12"},"vehicle_type_id":"4","last_reported":1742548228,"current_range_meters":8800,"station_id":"ce4bgip2rcd13ifvqbb0","pricing_plan_id":"cebpf4jnsgd1na2vs0mg"},{"bike_id":"1d8daad7-9bb4-40dd-adfc-e589f483368c","system_id":"levelo_inurba_marseille","lat":43.25823,"lon":5.39439,"is_reserved":false,"is_disabled":false,"rental_uris":{"android":"levelo://app?vid=1d8daad7-9bb4-40dd-adfc-e589f483368c","ios":"levelo://app?vid=1d8daad7-9bb4-40dd-adfc-e589f483368c"},"vehicle_type_id":"4","last_reported":1742548228,"current_range_meters":9200,"station_id":"ce4bhip2rcd13ifvqft0","pricing_plan_id":"cebpf4jnsgd1na2vs0mg"},{"bike_id":"825ee441-bae2-442f-9126-9ee40c6406b2","system_id":"levelo_inurba_marseille","lat":43.30963,"lon":5.3907,"is_reserved":false,"is_disabled":false,"rental_uris":{"android":"levelo://app?vid=825ee441-bae2-442f-9126-9ee40c6406b2","ios":"levelo://app?vid=825ee441-bae2-442f-9126-9ee40c6406b2"},"vehicle_type_id":"4","last_reported":1742548228,"current_range_meters":9200,"station_id":"ce4bgup2rcd13ifvqco0","pricing_plan_id":"cebpf4jnsgd1na2vs0mg"},{"bike_id":"4ac8d093-2a07-4a38-bf73-829335d22cc6","system_id":"levelo_inurba_marseille","lat":43.29804,"lon":5.38099,"is_reserved":false,"is_disabled":false,"rental_uris":{"android":"levelo://app?vid=4ac8d093-2a07-4a38-bf73-829335d22cc6","ios":"levelo://app?vid=4ac8d093-2a07-4a38-bf73-829335d22cc6"},"vehicle_type_id":"4","last_reported":1742548228,"current_range_meters":9200,"station_id":"ce4bgip2rcd13ifvqbb0","pricing_plan_id":"cebpf4jnsgd1na2vs0mg"},{"bike_id":"9e829b61-bb07-4953-b3a4-b3e8e3e13897","system_id":"levelo_inurba_marseille","lat":43.30323,"lon":5.36891,"is_reserved":false,"is_disabled":false,"rental_uris":{"android":"levelo://app?vid=9e829b61-bb07-4953-b3a4-b3e8e3e13897","ios":"levelo://app?vid=9e829b61-bb07-4953-b3a4-b3e8e3e13897"},"vehicle_type_id":"4","last_reported":1742548228,"current_range_meters":9200,"station_id":"ce4bgqh2rcd13ifvqc5g","pricing_plan_id":"cebpf4jnsgd1na2vs0mg"},{"bike_id":"62bf2f5c-9819-4816-afad-4a268d7a76b8","system_id":"levelo_inurba_marseille","lat":43.24171,"lon":5.36394,"is_reserved":false,"is_disabled":false,"rental_uris":{"android":"levelo://app?vid=62bf2f5c-9819-4816-afad-4a268d7a76b8","ios":"levelo://app?vid=62bf2f5c-9819-4816-afad-4a268d7a76b8"},"vehicle_type_id":"4","last_reported":1742548228,"current_range_meters":9200,"station_id":"cpo36qri1sfpv3e86is0","pricing_plan_id":"cebpf4jnsgd1na2vs0mg"},{"bike_id":"b5acc6c1-f2ed-46ae-ac6d-f87b22ac88b5","system_id":"levelo_inurba_marseille","lat":43.30301,"lon":5.36916,"is_reserved":false,"is_disabled":false,"rental_uris":{"android":"levelo://app?vid=b5acc6c1-f2ed-46ae-ac6d-f87b22ac88b5","ios":"levelo://app?vid=b5acc6c1-f2ed-46ae-ac6d-f87b22ac88b5"},"vehicle_type_id":"4","last_reported":1742548228,"current_range_meters":9200,"station_id":"ce4bgqh2rcd13ifvqc5g","pricing_plan_id":"cebpf4jnsgd1na2vs0mg"},{"bike_id":"2678929a-312d-4089-b116-1e816de7db90","system_id":"levelo_inurba_marseille","lat":43.32127,"lon":5.36775,"is_reserved":false,"is_disabled":false,"rental_uris":{"android":"levelo://app?vid=2678929a-312d-4089-b116-1e816de7db90","ios":"levelo://app?vid=2678929a-312d-4089-b116-1e816de7db90"},"vehicle_type_id":"4","last_reported":1742548228,"current_range_meters":9200,"station_id":"ce4bhrh2rcd13ifvqhug","pricing_plan_id":"cebpf4jnsgd1na2vs0mg"},{"bike_id":"2ed991e7-7689-4f90-9e1a-9e81707b2e04","system_id":"levelo_inurba_marseille","lat":43.28154,"lon":5.42646,"is_reserved":false,"is_disabled":false,"rental_uris":{"android":"levelo://app?vid=2ed991e7-7689-4f90-9e1a-9e81707b2e04","ios":"levelo://app?vid=2ed991e7-7689-4f90-9e1a-9e81707b2e04"},"vehicle_type_id":"4","last_reported":1742548228,"current_range_meters":9200,"station_id":"ce4bhnh2rcd13ifvqgug","pricing_plan_id":"cebpf4jnsgd1na2vs0mg"},{"bike_id":"4abb3195-7132-49da-98e0-ec29e44ed135","system_id":"levelo_inurba_marseille","lat":43.2408,"lon":5.37757,"is_reserved":false,"is_disabled":false,"rental_uris":{"android":"levelo://app?vid=4abb3195-7132-49da-98e0-ec29e44ed135","ios":"levelo://app?vid=4abb3195-7132-49da-98e0-ec29e44ed135"},"vehicle_type_id":"4","last_reported":1742548228,"current_range_meters":9200,"station_id":"ce4bhnp2rcd13ifvqgvg","pricing_plan_id":"cebpf4jnsgd1na2vs0mg"},{"bike_id":"586ea3cc-35ac-4786-adbf-ef7e26cd0a89","system_id":"levelo_inurba_marseille","lat":43.29551,"lon":5.42291,"is_reserved":false,"is_disabled":false,"rental_uris":{"android":"levelo://app?vid=586ea3cc-35ac-4786-adbf-ef7e26cd0a89","ios":"levelo://app?vid=586ea3cc-35ac-4786-adbf-ef7e26cd0a89"},"vehicle_type_id":"4","last_reported":1742548228,"current_range_meters":8800,"station_id":"ce4bhph2rcd13ifvqhdg","pricing_plan_id":"cebpf4jnsgd1na2vs0mg"},{"bike_id":"1c3b5361-695c-4ccc-94f9-aca7f37b6d45","system_id":"levelo_inurba_marseille","lat":43.2319,"lon":5.3557,"is_reserved":false,"is_disabled":false,"rental_uris":{"android":"levelo://app?vid=1c3b5361-695c-4ccc-94f9-aca7f37b6d45","ios":"levelo://app?vid=1c3b5361-695c-4ccc-94f9-aca7f37b6d45"},"vehicle_type_id":"4","last_reported":1742548228,"current_range_meters":9600,"station_id":"ce4bhu92rcd13ifvqi70","pricing_plan_id":"cebpf4jnsgd1na2vs0mg"},{"bike_id":"1eca4609-2079-4525-8832-ee76c3c962bf","system_id":"levelo_inurba_marseille","lat":43.28353,"lon":5.38098,"is_reserved":false,"is_disabled":false,"rental_uris":{"android":"levelo://app?vid=1eca4609-2079-4525-8832-ee76c3c962bf","ios":"levelo://app?vid=1eca4609-2079-4525-8832-ee76c3c962bf"},"vehicle_type_id":"4","last_reported":1742548228,"current_range_meters":9600,"station_id":"ce4bh412rcd13ifvqdr0","pricing_plan_id":"cebpf4jnsgd1na2vs0mg"},{"bike_id":"864cc626-acee-4281-a704-02772977571f","system_id":"levelo_inurba_marseille","lat":43.31214,"lon":5.36859,"is_reserved":false,"is_disabled":false,"rental_uris":{"android":"levelo://app?vid=864cc626-acee-4281-a704-02772977571f","ios":"levelo://app?vid=864cc626-acee-4281-a704-02772977571f"},"vehicle_type_id":"4","last_reported":1742548228,"current_range_meters":9600,"station_id":"ce4bgl92rcd13ifvqbq0","pricing_plan_id":"cebpf4jnsgd1na2vs0mg"},{"bike_id":"a8e54271-f43e-4238-be61-5a0d0f7d1259","system_id":"levelo_inurba_marseille","lat":43.24664,"lon":5.38164,"is_reserved":false,"is_disabled":false,"rental_uris":{"android":"levelo://app?vid=a8e54271-f43e-4238-be61-5a0d0f7d1259","ios":"levelo://app?vid=a8e54271-f43e-4238-be61-5a0d0f7d1259"},"vehicle_type_id":"4","last_reported":1742548228,"current_range_meters":9600,"station_id":"ce4bhih2rcd13ifvqfr0","pricing_plan_id":"cebpf4jnsgd1na2vs0mg"},{"bike_id":"1295e912-beee-47fe-a5c8-2ae149d6d129","system_id":"levelo_inurba_marseille","lat":43.31729,"lon":5.37764,"is_reserved":false,"is_disabled":false,"rental_uris":{"android":"levelo://app?vid=1295e912-beee-47fe-a5c8-2ae149d6d129","ios":"levelo://app?vid=1295e912-beee-47fe-a5c8-2ae149d6d129"},"vehicle_type_id":"4","last_reported":1742548228,"current_range_meters":9600,"station_id":"ce4bgth2rcd13ifvqch0","pricing_plan_id":"cebpf4jnsgd1na2vs0mg"},{"bike_id":"24016567-79c9-417a-ad0a-921105cb0978","system_id":"levelo_inurba_marseille","lat":43.32363,"lon":5.38899,"is_reserved":false,"is_disabled":false,"rental_uris":{"android":"levelo://app?vid=24016567-79c9-417a-ad0a-921105cb0978","ios":"levelo://app?vid=24016567-79c9-417a-ad0a-921105cb0978"},"vehicle_type_id":"4","last_reported":1742548228,"current_range_meters":9600,"station_id":"ce4bhqp2rcd13ifvqhog","pricing_plan_id":"cebpf4jnsgd1na2vs0mg"},{"bike_id":"d5a33943-f897-4524-a7fa-cd13ee66439c","system_id":"levelo_inurba_marseille","lat":43.27493,"lon":5.42464,"is_reserved":false,"is_disabled":false,"rental_uris":{"android":"levelo://app?vid=d5a33943-f897-4524-a7fa-cd13ee66439c","ios":"levelo://app?vid=d5a33943-f897-4524-a7fa-cd13ee66439c"},"vehicle_type_id":"4","last_reported":1742548228,"current_range_meters":9600,"station_id":"ce4bhn92rcd13ifvqgrg","pricing_plan_id":"cebpf4jnsgd1na2vs0mg"},{"bike_id":"9d87eaf5-326d-495f-a80f-e96261b34364","system_id":"levelo_inurba_marseille","lat":43.31353,"lon":5.36717,"is_reserved":false,"is_disabled":false,"rental_uris":{"android":"levelo://app?vid=9d87eaf5-326d-495f-a80f-e96261b34364","ios":"levelo://app?vid=9d87eaf5-326d-495f-a80f-e96261b34364"},"vehicle_type_id":"4","last_reported":1742548228,"current_range_meters":9600,"station_id":"ce4bgr92rcd13ifvqc6g","pricing_plan_id":"cebpf4jnsgd1na2vs0mg"},{"bike_id":"e09697cf-cef3-416a-825f-dffd9442d472","system_id":"levelo_inurba_marseille","lat":43.29765,"lon":5.37114,"is_reserved":false,"is_disabled":false,"rental_uris":{"android":"levelo://app?vid=e09697cf-cef3-416a-825f-dffd9442d472","ios":"levelo://app?vid=e09697cf-cef3-416a-825f-dffd9442d472"},"vehicle_type_id":"4","last_reported":1742548228,"current_range_meters":9600,"station_id":"ce4bgop2rcd13ifvqc1g","pricing_plan_id":"cebpf4jnsgd1na2vs0mg"},{"bike_id":"31ba5937-48f4-487d-85b0-bd6c0014621f","system_id":"levelo_inurba_marseille","lat":43.31524,"lon":5.37317,"is_reserved":false,"is_disabled":false,"rental_uris":{"android":"levelo://app?vid=31ba5937-48f4-487d-85b0-bd6c0014621f","ios":"levelo://app?vid=31ba5937-48f4-487d-85b0-bd6c0014621f"},"vehicle_type_id":"4","last_reported":1742548228,"current_range_meters":9600,"station_id":"ce4bgt12rcd13ifvqcd0","pricing_plan_id":"cebpf4jnsgd1na2vs0mg"},{"bike_id":"c948e839-b271-4ab0-a9f8-eb56f9d3874f","system_id":"levelo_inurba_marseille","lat":43.29176,"lon":5.37153,"is_reserved":false,"is_disabled":false,"rental_uris":{"android":"levelo://app?vid=c948e839-b271-4ab0-a9f8-eb56f9d3874f","ios":"levelo://app?vid=c948e839-b271-4ab0-a9f8-eb56f9d3874f"},"vehicle_type_id":"4","last_reported":1742548228,"current_range_meters":9200,"station_id":"ce4bha92rcd13ifvqeh0","pricing_plan_id":"cebpf4jnsgd1na2vs0mg"},{"bike_id":"d6496905-199b-4708-a985-dc7d891a1034","system_id":"levelo_inurba_marseille","lat":43.29253,"lon":5.40907,"is_reserved":false,"is_disabled":false,"rental_uris":{"android":"levelo://app?vid=d6496905-199b-4708-a985-dc7d891a1034","ios":"levelo://app?vid=d6496905-199b-4708-a985-dc7d891a1034"},"vehicle_type_id":"4","last_reported":1742548228,"current_range_meters":10000,"station_id":"ce4bh192rcd13ifvqdc0","pricing_plan_id":"cebpf4jnsgd1na2vs0mg"},{"bike_id":"86859bc8-cdf3-4c55-a231-e1ff87943727","system_id":"levelo_inurba_marseille","lat":43.31505,"lon":5.37299,"is_reserved":false,"is_disabled":false,"rental_uris":{"android":"levelo://app?vid=86859bc8-cdf3-4c55-a231-e1ff87943727","ios":"levelo://app?vid=86859bc8-cdf3-4c55-a231-e1ff87943727"},"vehicle_type_id":"4","last_reported":1742548228,"current_range_meters":10000,"station_id":"ce4bgt12rcd13ifvqcd0","pricing_plan_id":"cebpf4jnsgd1na2vs0mg"},{"bike_id":"f2387910-c486-4275-a7ab-dbeb87afdc12","system_id":"levelo_inurba_marseille","lat":43.33736,"lon":5.39183,"is_reserved":false,"is_disabled":false,"rental_uris":{"android":"levelo://app?vid=f2387910-c486-4275-a7ab-dbeb87afdc12","ios":"levelo://app?vid=f2387910-c486-4275-a7ab-dbeb87afdc12"},"vehicle_type_id":"4","last_reported":1742548228,"current_range_meters":10000,"station_id":"ce4bhr92rcd13ifvqhsg","pricing_plan_id":"cebpf4jnsgd1na2vs0mg"},{"bike_id":"275de813-0e43-4fc3-826b-c550fe9c37d2","system_id":"levelo_inurba_marseille","lat":43.24386,"lon":5.37059,"is_reserved":false,"is_disabled":false,"rental_uris":{"android":"levelo://app?vid=275de813-0e43-4fc3-826b-c550fe9c37d2","ios":"levelo://app?vid=275de813-0e43-4fc3-826b-c550fe9c37d2"},"vehicle_type_id":"4","last_reported":1742548228,"current_range_meters":9600,"station_id":"ce4bhhh2rcd13ifvqfk0","pricing_plan_id":"cebpf4jnsgd1na2vs0mg"},{"bike_id":"5355adac-aab2-4a7f-81d8-0133f613eedd","system_id":"levelo_inurba_marseille","lat":43.29839,"lon":5.36268,"is_reserved":false,"is_disabled":false,"rental_uris":{"android":"levelo://app?vid=5355adac-aab2-4a7f-81d8-0133f613eedd","ios":"levelo://app?vid=5355adac-aab2-4a7f-81d8-0133f613eedd"},"vehicle_type_id":"4","last_reported":1742548228,"current_range_meters":10000,"station_id":"ce4bgpp2rcd13ifvqc3g","pricing_plan_id":"cebpf4jnsgd1na2vs0mg"},{"bike_id":"ca38fcd6-3c68-4041-b15a-86267bca2e49","system_id":"levelo_inurba_marseille","lat":43.32489,"lon":5.36573,"is_reserved":false,"is_disabled":false,"rental_uris":{"android":"levelo://app?vid=ca38fcd6-3c68-4041-b15a-86267bca2e49","ios":"levelo://app?vid=ca38fcd6-3c68-4041-b15a-86267bca2e49"},"vehicle_type_id":"4","last_reported":1742548228,"current_range_meters":10000,"station_id":"ce4bhs12rcd13ifvqhvg","pricing_plan_id":"cebpf4jnsgd1na2vs0mg"},{"bike_id":"fd63a192-a2ae-4c1d-aa3f-4b573664d6e9","system_id":"levelo_inurba_marseille","lat":43.31346,"lon":5.36713,"is_reserved":false,"is_disabled":false,"rental_uris":{"android":"levelo://app?vid=fd63a192-a2ae-4c1d-aa3f-4b573664d6e9","ios":"levelo://app?vid=fd63a192-a2ae-4c1d-aa3f-4b573664d6e9"},"vehicle_type_id":"4","last_reported":1742548228,"current_range_meters":10000,"station_id":"ce4bgr92rcd13ifvqc6g","pricing_plan_id":"cebpf4jnsgd1na2vs0mg"},{"bike_id":"a67c54b6-5ce9-4632-8070-5ca7d5b7fc9e","system_id":"levelo_inurba_marseille","lat":43.23057,"lon":5.3551,"is_reserved":false,"is_disabled":false,"rental_uris":{"android":"levelo://app?vid=a67c54b6-5ce9-4632-8070-5ca7d5b7fc9e","ios":"levelo://app?vid=a67c54b6-5ce9-4632-8070-5ca7d5b7fc9e"},"vehicle_type_id":"4","last_reported":1742548228,"current_range_meters":10000,"station_id":"cpo3342slgdg3j2ifvpg","pricing_plan_id":"cebpf4jnsgd1na2vs0mg"},{"bike_id":"977d434b-f498-4766-adac-22ba6fd3a8aa","system_id":"levelo_inurba_marseille","lat":43.27492,"lon":5.42449,"is_reserved":false,"is_disabled":false,"rental_uris":{"android":"levelo://app?vid=977d434b-f498-4766-adac-22ba6fd3a8aa","ios":"levelo://app?vid=977d434b-f498-4766-adac-22ba6fd3a8aa"},"vehicle_type_id":"4","last_reported":1742548228,"current_range_meters":10000,"station_id":"ce4bhn92rcd13ifvqgrg","pricing_plan_id":"cebpf4jnsgd1na2vs0mg"},{"bike_id":"7442246c-2798-431d-84d3-acec834915be","system_id":"levelo_inurba_marseille","lat":43.30907,"lon":5.36865,"is_reserved":false,"is_disabled":false,"rental_uris":{"android":"levelo://app?vid=7442246c-2798-431d-84d3-acec834915be","ios":"levelo://app?vid=7442246c-2798-431d-84d3-acec834915be"},"vehicle_type_id":"4","last_reported":1742548228,"current_range_meters":10000,"station_id":"ce4bgn92rcd13ifvqbvg","pricing_plan_id":"cebpf4jnsgd1na2vs0mg"},{"bike_id":"6d71c6b4-0ae1-44cc-8b02-7ae0ed469266","system_id":"levelo_inurba_marseille","lat":43.29003,"lon":5.35634,"is_reserved":false,"is_disabled":false,"rental_uris":{"android":"levelo://app?vid=6d71c6b4-0ae1-44cc-8b02-7ae0ed469266","ios":"levelo://app?vid=6d71c6b4-0ae1-44cc-8b02-7ae0ed469266"},"vehicle_type_id":"4","last_reported":1742548228,"current_range_meters":10000,"station_id":"ce4bhb92rcd13ifvqen0","pricing_plan_id":"cebpf4jnsgd1na2vs0mg"},{"bike_id":"5ef2432c-8b14-42cf-8e2a-1af923562f84","system_id":"levelo_inurba_marseille","lat":43.31497,"lon":5.37303,"is_reserved":false,"is_disabled":false,"rental_uris":{"android":"levelo://app?vid=5ef2432c-8b14-42cf-8e2a-1af923562f84","ios":"levelo://app?vid=5ef2432c-8b14-42cf-8e2a-1af923562f84"},"vehicle_type_id":"4","last_reported":1742548228,"current_range_meters":10000,"station_id":"ce4bgt12rcd13ifvqcd0","pricing_plan_id":"cebpf4jnsgd1na2vs0mg"},{"bike_id":"e7099a91-f011-4f51-8f8e-c8f0d1018eb5","system_id":"levelo_inurba_marseille","lat":43.2317,"lon":5.39999,"is_reserved":false,"is_disabled":false,"rental_uris":{"android":"levelo://app?vid=e7099a91-f011-4f51-8f8e-c8f0d1018eb5","ios":"levelo://app?vid=e7099a91-f011-4f51-8f8e-c8f0d1018eb5"},"vehicle_type_id":"4","last_reported":1742548228,"current_range_meters":10000,"station_id":"ce4bhn12rcd13ifvqgqg","pricing_plan_id":"cebpf4jnsgd1na2vs0mg"},{"bike_id":"dd713a48-3025-4704-84ce-aa7f1d00305f","system_id":"levelo_inurba_marseille","lat":43.2984,"lon":5.36271,"is_reserved":false,"is_disabled":false,"rental_uris":{"android":"levelo://app?vid=dd713a48-3025-4704-84ce-aa7f1d00305f","ios":"levelo://app?vid=dd713a48-3025-4704-84ce-aa7f1d00305f"},"vehicle_type_id":"4","last_reported":1742548228,"current_range_meters":10000,"station_id":"ce4bgpp2rcd13ifvqc3g","pricing_plan_id":"cebpf4jnsgd1na2vs0mg"},{"bike_id":"a3251066-4c40-4122-a906-99c3befc3d95","system_id":"levelo_inurba_marseille","lat":43.31353,"lon":5.36703,"is_reserved":false,"is_disabled":false,"rental_uris":{"android":"levelo://app?vid=a3251066-4c40-4122-a906-99c3befc3d95","ios":"levelo://app?vid=a3251066-4c40-4122-a906-99c3befc3d95"},"vehicle_type_id":"4","last_reported":1742548228,"current_range_meters":10800,"station_id":"ce4bgr92rcd13ifvqc6g","pricing_plan_id":"cebpf4jnsgd1na2vs0mg"},{"bike_id":"466ab05c-24cc-4223-acab-cd66e8fed814","system_id":"levelo_inurba_marseille","lat":43.30949,"lon":5.39035,"is_reserved":false,"is_disabled":false,"rental_uris":{"android":"levelo://app?vid=466ab05c-24cc-4223-acab-cd66e8fed814","ios":"levelo://app?vid=466ab05c-24cc-4223-acab-cd66e8fed814"},"vehicle_type_id":"4","last_reported":1742548228,"current_range_meters":10800,"station_id":"ce4bgup2rcd13ifvqco0","pricing_plan_id":"cebpf4jnsgd1na2vs0mg"},{"bike_id":"899ab87e-4ea4-40e5-9304-e09f83aad3d0","system_id":"levelo_inurba_marseille","lat":43.23965,"lon":5.36639,"is_reserved":false,"is_disabled":false,"rental_uris":{"android":"levelo://app?vid=899ab87e-4ea4-40e5-9304-e09f83aad3d0","ios":"levelo://app?vid=899ab87e-4ea4-40e5-9304-e09f83aad3d0"},"vehicle_type_id":"4","last_reported":1742548228,"current_range_meters":10800,"station_id":"ce4bhi12rcd13ifvqfp0","pricing_plan_id":"cebpf4jnsgd1na2vs0mg"},{"bike_id":"9d348164-74cb-4d89-b295-b81085fda8a6","system_id":"levelo_inurba_marseille","lat":43.24076,"lon":5.37747,"is_reserved":false,"is_disabled":false,"rental_uris":{"android":"levelo://app?vid=9d348164-74cb-4d89-b295-b81085fda8a6","ios":"levelo://app?vid=9d348164-74cb-4d89-b295-b81085fda8a6"},"vehicle_type_id":"4","last_reported":1742548228,"current_range_meters":10800,"station_id":"ce4bhnp2rcd13ifvqgvg","pricing_plan_id":"cebpf4jnsgd1na2vs0mg"},{"bike_id":"29c299a3-8deb-46e4-8cd6-c7a928ea34d7","system_id":"levelo_inurba_marseille","lat":43.26555,"lon":5.37283,"is_reserved":false,"is_disabled":false,"rental_uris":{"android":"levelo://app?vid=29c299a3-8deb-46e4-8cd6-c7a928ea34d7","ios":"levelo://app?vid=29c299a3-8deb-46e4-8cd6-c7a928ea34d7"},"vehicle_type_id":"4","last_reported":1742548228,"current_range_meters":10800,"station_id":"ce4bhg12rcd13ifvqf70","pricing_plan_id":"cebpf4jnsgd1na2vs0mg"},{"bike_id":"ce68037b-a835-43b1-bf4f-bfb90d267a32","system_id":"levelo_inurba_marseille","lat":43.25103,"lon":5.40328,"is_reserved":false,"is_disabled":false,"rental_uris":{"android":"levelo://app?vid=ce68037b-a835-43b1-bf4f-bfb90d267a32","ios":"levelo://app?vid=ce68037b-a835-43b1-bf4f-bfb90d267a32"},"vehicle_type_id":"4","last_reported":1742548228,"current_range_meters":10800,"station_id":"ce4bhlh2rcd13ifvqgig","pricing_plan_id":"cebpf4jnsgd1na2vs0mg"},{"bike_id":"bf5d7bdb-65a8-4310-b955-6a76e2cbd7fe","system_id":"levelo_inurba_marseille","lat":43.33728,"lon":5.39188,"is_reserved":false,"is_disabled":false,"rental_uris":{"android":"levelo://app?vid=bf5d7bdb-65a8-4310-b955-6a76e2cbd7fe","ios":"levelo://app?vid=bf5d7bdb-65a8-4310-b955-6a76e2cbd7fe"},"vehicle_type_id":"4","last_reported":1742548228,"current_range_meters":10800,"station_id":"ce4bhr92rcd13ifvqhsg","pricing_plan_id":"cebpf4jnsgd1na2vs0mg"},{"bike_id":"1bfdbd5d-72ee-4f04-9456-495f81e1040b","system_id":"levelo_inurba_marseille","lat":43.24062,"lon":5.37741,"is_reserved":false,"is_disabled":false,"rental_uris":{"android":"levelo://app?vid=1bfdbd5d-72ee-4f04-9456-495f81e1040b","ios":"levelo://app?vid=1bfdbd5d-72ee-4f04-9456-495f81e1040b"},"vehicle_type_id":"4","last_reported":1742548228,"current_range_meters":10000,"station_id":"ce4bhnp2rcd13ifvqgvg","pricing_plan_id":"cebpf4jnsgd1na2vs0mg"},{"bike_id":"0eccd1b9-b51c-4489-a22b-8d3f70a5275a","system_id":"levelo_inurba_marseille","lat":43.31225,"lon":5.36865,"is_reserved":false,"is_disabled":false,"rental_uris":{"android":"levelo://app?vid=0eccd1b9-b51c-4489-a22b-8d3f70a5275a","ios":"levelo://app?vid=0eccd1b9-b51c-4489-a22b-8d3f70a5275a"},"vehicle_type_id":"4","last_reported":1742548228,"current_range_meters":10800,"station_id":"ce4bgl92rcd13ifvqbq0","pricing_plan_id":"cebpf4jnsgd1na2vs0mg"},{"bike_id":"ef16e6fd-d954-4df1-911a-4d78b575162e","system_id":"levelo_inurba_marseille","lat":43.32527,"lon":5.41469,"is_reserved":false,"is_disabled":false,"rental_uris":{"android":"levelo://app?vid=ef16e6fd-d954-4df1-911a-4d78b575162e","ios":"levelo://app?vid=ef16e6fd-d954-4df1-911a-4d78b575162e"},"vehicle_type_id":"4","last_reported":1742548228,"current_range_meters":10800,"station_id":"ce4bhq12rcd13ifvqhhg","pricing_plan_id":"cebpf4jnsgd1na2vs0mg"},{"bike_id":"95d6241b-3e1d-4af9-93b1-4e10abb92a8a","system_id":"levelo_inurba_marseille","lat":43.25932,"lon":5.40912,"is_reserved":false,"is_disabled":false,"rental_uris":{"android":"levelo://app?vid=95d6241b-3e1d-4af9-93b1-4e10abb92a8a","ios":"levelo://app?vid=95d6241b-3e1d-4af9-93b1-4e10abb92a8a"},"vehicle_type_id":"4","last_reported":1742548228,"current_range_meters":10800,"station_id":"ce4bhm92rcd13ifvqglg","pricing_plan_id":"cebpf4jnsgd1na2vs0mg"},{"bike_id":"ef760efa-1a76-4bb1-8cd8-068113ba4c42","system_id":"levelo_inurba_marseille","lat":43.25925,"lon":5.40913,"is_reserved":false,"is_disabled":false,"rental_uris":{"android":"levelo://app?vid=ef760efa-1a76-4bb1-8cd8-068113ba4c42","ios":"levelo://app?vid=ef760efa-1a76-4bb1-8cd8-068113ba4c42"},"vehicle_type_id":"4","last_reported":1742548228,"current_range_meters":10800,"station_id":"ce4bhm92rcd13ifvqglg","pricing_plan_id":"cebpf4jnsgd1na2vs0mg"},{"bike_id":"e8a37170-fee3-4d70-ba78-31e6e059fe35","system_id":"levelo_inurba_marseille","lat":43.28,"lon":5.40016,"is_reserved":false,"is_disabled":false,"rental_uris":{"android":"levelo://app?vid=e8a37170-fee3-4d70-ba78-31e6e059fe35","ios":"levelo://app?vid=e8a37170-fee3-4d70-ba78-31e6e059fe35"},"vehicle_type_id":"4","last_reported":1742548228,"current_range_meters":10800,"station_id":"ce4bho92rcd13ifvqh4g","pricing_plan_id":"cebpf4jnsgd1na2vs0mg"},{"bike_id":"32c136b5-47bb-4db2-974c-debde23c849b","system_id":"levelo_inurba_marseille","lat":43.29238,"lon":5.37649,"is_reserved":false,"is_disabled":false,"rental_uris":{"android":"levelo://app?vid=32c136b5-47bb-4db2-974c-debde23c849b","ios":"levelo://app?vid=32c136b5-47bb-4db2-974c-debde23c849b"},"vehicle_type_id":"4","last_reported":1742548228,"current_range_meters":10800,"station_id":"ce4bgi12rcd13ifvqb80","pricing_plan_id":"cebpf4jnsgd1na2vs0mg"},{"bike_id":"aba7a31c-d1db-4bb4-ba56-e84838fed699","system_id":"levelo_inurba_marseille","lat":43.24637,"lon":5.38928,"is_reserved":false,"is_disabled":false,"rental_uris":{"android":"levelo://app?vid=aba7a31c-d1db-4bb4-ba56-e84838fed699","ios":"levelo://app?vid=aba7a31c-d1db-4bb4-ba56-e84838fed699"},"vehicle_type_id":"4","last_reported":1742548228,"current_range_meters":10800,"station_id":"ce4bhg12rcd13ifvqf60","pricing_plan_id":"cebpf4jnsgd1na2vs0mg"},{"bike_id":"da25a481-ec45-460d-8fd6-0e400f91c966","system_id":"levelo_inurba_marseille","lat":43.31375,"lon":5.36688,"is_reserved":false,"is_disabled":false,"rental_uris":{"android":"levelo://app?vid=da25a481-ec45-460d-8fd6-0e400f91c966","ios":"levelo://app?vid=da25a481-ec45-460d-8fd6-0e400f91c966"},"vehicle_type_id":"4","last_reported":1742548228,"current_range_meters":10800,"station_id":"ce4bgr92rcd13ifvqc6g","pricing_plan_id":"cebpf4jnsgd1na2vs0mg"},{"bike_id":"64f3f160-3d41-4047-a7c4-5d9924ce80c7","system_id":"levelo_inurba_marseille","lat":43.25839,"lon":5.39418,"is_reserved":false,"is_disabled":false,"rental_uris":{"android":"levelo://app?vid=64f3f160-3d41-4047-a7c4-5d9924ce80c7","ios":"levelo://app?vid=64f3f160-3d41-4047-a7c4-5d9924ce80c7"},"vehicle_type_id":"4","last_reported":1742548228,"current_range_meters":10800,"station_id":"ce4bhip2rcd13ifvqft0","pricing_plan_id":"cebpf4jnsgd1na2vs0mg"},{"bike_id":"8616a6a5-5f7c-421c-8cef-0a1c30da5686","system_id":"levelo_inurba_marseille","lat":43.24063,"lon":5.37735,"is_reserved":false,"is_disabled":false,"rental_uris":{"android":"levelo://app?vid=8616a6a5-5f7c-421c-8cef-0a1c30da5686","ios":"levelo://app?vid=8616a6a5-5f7c-421c-8cef-0a1c30da5686"},"vehicle_type_id":"4","last_reported":1742548228,"current_range_meters":10800,"station_id":"ce4bhnp2rcd13ifvqgvg","pricing_plan_id":"cebpf4jnsgd1na2vs0mg"},{"bike_id":"4beb8025-e1f9-4436-8bd3-e792974ecb8c","system_id":"levelo_inurba_marseille","lat":43.24182,"lon":5.39726,"is_reserved":false,"is_disabled":false,"rental_uris":{"android":"levelo://app?vid=4beb8025-e1f9-4436-8bd3-e792974ecb8c","ios":"levelo://app?vid=4beb8025-e1f9-4436-8bd3-e792974ecb8c"},"vehicle_type_id":"4","last_reported":1742548228,"current_range_meters":10800,"station_id":"ce4bhn12rcd13ifvqgpg","pricing_plan_id":"cebpf4jnsgd1na2vs0mg"},{"bike_id":"563086a8-8515-4d07-a2d8-6c7fc246f529","system_id":"levelo_inurba_marseille","lat":43.25836,"lon":5.39431,"is_reserved":false,"is_disabled":false,"rental_uris":{"android":"levelo://app?vid=563086a8-8515-4d07-a2d8-6c7fc246f529","ios":"levelo://app?vid=563086a8-8515-4d07-a2d8-6c7fc246f529"},"vehicle_type_id":"4","last_reported":1742548228,"current_range_meters":11200,"station_id":"ce4bhip2rcd13ifvqft0","pricing_plan_id":"cebpf4jnsgd1na2vs0mg"},{"bike_id":"ba0c939b-6b7b-407a-8424-cb28c6c49bb2","system_id":"levelo_inurba_marseille","lat":43.30914,"lon":5.36851,"is_reserved":false,"is_disabled":false,"rental_uris":{"android":"levelo://app?vid=ba0c939b-6b7b-407a-8424-cb28c6c49bb2","ios":"levelo://app?vid=ba0c939b-6b7b-407a-8424-cb28c6c49bb2"},"vehicle_type_id":"4","last_reported":1742548228,"current_range_meters":11200,"station_id":"ce4bgn92rcd13ifvqbvg","pricing_plan_id":"cebpf4jnsgd1na2vs0mg"},{"bike_id":"fb15ee11-b2b6-4fb7-9d7d-b32657ee284c","system_id":"levelo_inurba_marseille","lat":43.30292,"lon":5.36906,"is_reserved":false,"is_disabled":false,"rental_uris":{"android":"levelo://app?vid=fb15ee11-b2b6-4fb7-9d7d-b32657ee284c","ios":"levelo://app?vid=fb15ee11-b2b6-4fb7-9d7d-b32657ee284c"},"vehicle_type_id":"4","last_reported":1742548228,"current_range_meters":11200,"station_id":"ce4bgqh2rcd13ifvqc5g","pricing_plan_id":"cebpf4jnsgd1na2vs0mg"},{"bike_id":"b170c252-3863-41f0-8fe0-a5bac1d263c0","system_id":"levelo_inurba_marseille","lat":43.29604,"lon":5.38103,"is_reserved":false,"is_disabled":false,"rental_uris":{"android":"levelo://app?vid=b170c252-3863-41f0-8fe0-a5bac1d263c0","ios":"levelo://app?vid=b170c252-3863-41f0-8fe0-a5bac1d263c0"},"vehicle_type_id":"4","last_reported":1742548228,"current_range_meters":11200,"station_id":"ce4bgl12rcd13ifvqbo0","pricing_plan_id":"cebpf4jnsgd1na2vs0mg"},{"bike_id":"611cf6a7-c612-4e85-9234-539bfc7b6df7","system_id":"levelo_inurba_marseille","lat":43.34146,"lon":5.40901,"is_reserved":false,"is_disabled":false,"rental_uris":{"android":"levelo://app?vid=611cf6a7-c612-4e85-9234-539bfc7b6df7","ios":"levelo://app?vid=611cf6a7-c612-4e85-9234-539bfc7b6df7"},"vehicle_type_id":"4","last_reported":1742548228,"current_range_meters":11600,"station_id":"ce4bhqh2rcd13ifvqhlg","pricing_plan_id":"cebpf4jnsgd1na2vs0mg"},{"bike_id":"cff5c5d7-b2c2-4661-bcba-b7a09aa5def1","system_id":"levelo_inurba_marseille","lat":43.30306,"lon":5.36916,"is_reserved":false,"is_disabled":false,"rental_uris":{"android":"levelo://app?vid=cff5c5d7-b2c2-4661-bcba-b7a09aa5def1","ios":"levelo://app?vid=cff5c5d7-b2c2-4661-bcba-b7a09aa5def1"},"vehicle_type_id":"4","last_reported":1742548228,"current_range_meters":11600,"station_id":"ce4bgqh2rcd13ifvqc5g","pricing_plan_id":"cebpf4jnsgd1na2vs0mg"},{"bike_id":"15b7ddba-d31e-4944-b345-a3c4fd450e1d","system_id":"levelo_inurba_marseille","lat":43.24527,"lon":5.39538,"is_reserved":false,"is_disabled":false,"rental_uris":{"android":"levelo://app?vid=15b7ddba-d31e-4944-b345-a3c4fd450e1d","ios":"levelo://app?vid=15b7ddba-d31e-4944-b345-a3c4fd450e1d"},"vehicle_type_id":"4","last_reported":1742548228,"current_range_meters":11600,"station_id":"ce4bhlp2rcd13ifvqgjg","pricing_plan_id":"cebpf4jnsgd1na2vs0mg"},{"bike_id":"bb55ab9d-3223-4c62-9ba4-1c929d3f7ca3","system_id":"levelo_inurba_marseille","lat":43.29901,"lon":5.43674,"is_reserved":false,"is_disabled":false,"rental_uris":{"android":"levelo://app?vid=bb55ab9d-3223-4c62-9ba4-1c929d3f7ca3","ios":"levelo://app?vid=bb55ab9d-3223-4c62-9ba4-1c929d3f7ca3"},"vehicle_type_id":"4","last_reported":1742548228,"current_range_meters":11600,"station_id":"ce4bhpp2rcd13ifvqhfg","pricing_plan_id":"cebpf4jnsgd1na2vs0mg"},{"bike_id":"dff08fa2-0a08-4e42-8e6f-3b350c7d5495","system_id":"levelo_inurba_marseille","lat":43.28422,"lon":5.37505,"is_reserved":false,"is_disabled":false,"rental_uris":{"android":"levelo://app?vid=dff08fa2-0a08-4e42-8e6f-3b350c7d5495","ios":"levelo://app?vid=dff08fa2-0a08-4e42-8e6f-3b350c7d5495"},"vehicle_type_id":"4","last_reported":1742548228,"current_range_meters":11600,"station_id":"ce4bh412rcd13ifvqds0","pricing_plan_id":"cebpf4jnsgd1na2vs0mg"},{"bike_id":"1f4b5356-d265-454a-aa48-2f7dec9d4d2a","system_id":"levelo_inurba_marseille","lat":43.33732,"lon":5.39201,"is_reserved":false,"is_disabled":false,"rental_uris":{"android":"levelo://app?vid=1f4b5356-d265-454a-aa48-2f7dec9d4d2a","ios":"levelo://app?vid=1f4b5356-d265-454a-aa48-2f7dec9d4d2a"},"vehicle_type_id":"4","last_reported":1742548228,"current_range_meters":11600,"station_id":"ce4bhr92rcd13ifvqhsg","pricing_plan_id":"cebpf4jnsgd1na2vs0mg"},{"bike_id":"e62dac40-44c1-4bd0-960d-9e1c5df60e4a","system_id":"levelo_inurba_marseille","lat":43.30317,"lon":5.36905,"is_reserved":false,"is_disabled":false,"rental_uris":{"android":"levelo://app?vid=e62dac40-44c1-4bd0-960d-9e1c5df60e4a","ios":"levelo://app?vid=e62dac40-44c1-4bd0-960d-9e1c5df60e4a"},"vehicle_type_id":"4","last_reported":1742548228,"current_range_meters":11600,"station_id":"ce4bgqh2rcd13ifvqc5g","pricing_plan_id":"cebpf4jnsgd1na2vs0mg"},{"bike_id":"07c2e984-62b5-4a47-81cb-ee4f58a06f19","system_id":"levelo_inurba_marseille","lat":43.30947,"lon":5.39027,"is_reserved":false,"is_disabled":false,"rental_uris":{"android":"levelo://app?vid=07c2e984-62b5-4a47-81cb-ee4f58a06f19","ios":"levelo://app?vid=07c2e984-62b5-4a47-81cb-ee4f58a06f19"},"vehicle_type_id":"4","last_reported":1742548228,"current_range_meters":12000,"station_id":"","pricing_plan_id":"cebpf4jnsgd1na2vs0mg"},{"bike_id":"a06df953-ee24-4eee-acd9-cfb685fc1c62","system_id":"levelo_inurba_marseille","lat":43.3141,"lon":5.37447,"is_reserved":false,"is_disabled":false,"rental_uris":{"android":"levelo://app?vid=a06df953-ee24-4eee-acd9-cfb685fc1c62","ios":"levelo://app?vid=a06df953-ee24-4eee-acd9-cfb685fc1c62"},"vehicle_type_id":"4","last_reported":1742548228,"current_range_meters":12000,"station_id":"","pricing_plan_id":"cebpf4jnsgd1na2vs0mg"},{"bike_id":"9cc58acb-f7d3-45c0-8466-9077f098d5b3","system_id":"levelo_inurba_marseille","lat":43.29251,"lon":5.38445,"is_reserved":false,"is_disabled":false,"rental_uris":{"android":"levelo://app?vid=9cc58acb-f7d3-45c0-8466-9077f098d5b3","ios":"levelo://app?vid=9cc58acb-f7d3-45c0-8466-9077f098d5b3"},"vehicle_type_id":"4","last_reported":1742548228,"current_range_meters":12000,"station_id":"ce4bh692rcd13ifvqea0","pricing_plan_id":"cebpf4jnsgd1na2vs0mg"},{"bike_id":"6c7f6a65-3f6d-43f3-b59a-7370b2183fbd","system_id":"levelo_inurba_marseille","lat":43.3091,"lon":5.36856,"is_reserved":false,"is_disabled":false,"rental_uris":{"android":"levelo://app?vid=6c7f6a65-3f6d-43f3-b59a-7370b2183fbd","ios":"levelo://app?vid=6c7f6a65-3f6d-43f3-b59a-7370b2183fbd"},"vehicle_type_id":"4","last_reported":1742548228,"current_range_meters":12000,"station_id":"ce4bgn92rcd13ifvqbvg","pricing_plan_id":"cebpf4jnsgd1na2vs0mg"},{"bike_id":"548c1973-5abf-4956-b147-b19891691d04","system_id":"levelo_inurba_marseille","lat":43.28354,"lon":5.38107,"is_reserved":false,"is_disabled":false,"rental_uris":{"android":"levelo://app?vid=548c1973-5abf-4956-b147-b19891691d04","ios":"levelo://app?vid=548c1973-5abf-4956-b147-b19891691d04"},"vehicle_type_id":"4","last_reported":1742548228,"current_range_meters":12000,"station_id":"ce4bh412rcd13ifvqdr0","pricing_plan_id":"cebpf4jnsgd1na2vs0mg"},{"bike_id":"3ad88472-a492-4fd9-a624-36b84c8c6f43","system_id":"levelo_inurba_marseille","lat":43.30541,"lon":5.36528,"is_reserved":false,"is_disabled":false,"rental_uris":{"android":"levelo://app?vid=3ad88472-a492-4fd9-a624-36b84c8c6f43","ios":"levelo://app?vid=3ad88472-a492-4fd9-a624-36b84c8c6f43"},"vehicle_type_id":"4","last_reported":1742548228,"current_range_meters":8800,"station_id":"ce4bgs12rcd13ifvqcag","pricing_plan_id":"cebpf4jnsgd1na2vs0mg"},{"bike_id":"3705d478-7e8d-4f59-b470-ff22b8b6072c","system_id":"levelo_inurba_marseille","lat":43.292731,"lon":5.384335,"is_reserved":false,"is_disabled":false,"rental_uris":{"android":"levelo://app?vid=3705d478-7e8d-4f59-b470-ff22b8b6072c","ios":"levelo://app?vid=3705d478-7e8d-4f59-b470-ff22b8b6072c"},"vehicle_type_id":"4","last_reported":1742548228,"current_range_meters":12400,"station_id":"ce4bh692rcd13ifvqea0","pricing_plan_id":"cebpf4jnsgd1na2vs0mg"},{"bike_id":"52c16ac5-3447-4053-956c-78fc8bf0dc7c","system_id":"levelo_inurba_marseille","lat":43.32355,"lon":5.36755,"is_reserved":false,"is_disabled":false,"rental_uris":{"android":"levelo://app?vid=52c16ac5-3447-4053-956c-78fc8bf0dc7c","ios":"levelo://app?vid=52c16ac5-3447-4053-956c-78fc8bf0dc7c"},"vehicle_type_id":"4","last_reported":1742548228,"current_range_meters":12400,"station_id":"ce4bhsh2rcd13ifvqi2g","pricing_plan_id":"cebpf4jnsgd1na2vs0mg"},{"bike_id":"9f1c3e5c-869d-4869-b7c6-0c926f2da6bf","system_id":"levelo_inurba_marseille","lat":43.2836,"lon":5.398,"is_reserved":false,"is_disabled":false,"rental_uris":{"android":"levelo://app?vid=9f1c3e5c-869d-4869-b7c6-0c926f2da6bf","ios":"levelo://app?vid=9f1c3e5c-869d-4869-b7c6-0c926f2da6bf"},"vehicle_type_id":"4","last_reported":1742548228,"current_range_meters":12400,"station_id":"","pricing_plan_id":"cebpf4jnsgd1na2vs0mg"},{"bike_id":"4267841d-5d94-44c6-8617-f314080e9a83","system_id":"levelo_inurba_marseille","lat":43.32479,"lon":5.36572,"is_reserved":false,"is_disabled":false,"rental_uris":{"android":"levelo://app?vid=4267841d-5d94-44c6-8617-f314080e9a83","ios":"levelo://app?vid=4267841d-5d94-44c6-8617-f314080e9a83"},"vehicle_type_id":"4","last_reported":1742548228,"current_range_meters":12400,"station_id":"ce4bhs12rcd13ifvqhvg","pricing_plan_id":"cebpf4jnsgd1na2vs0mg"},{"bike_id":"971d52e6-f04b-4665-8e99-f9a511e878b1","system_id":"levelo_inurba_marseille","lat":43.30963,"lon":5.39033,"is_reserved":false,"is_disabled":false,"rental_uris":{"android":"levelo://app?vid=971d52e6-f04b-4665-8e99-f9a511e878b1","ios":"levelo://app?vid=971d52e6-f04b-4665-8e99-f9a511e878b1"},"vehicle_type_id":"4","last_reported":1742548228,"current_range_meters":12400,"station_id":"ce4bgup2rcd13ifvqco0","pricing_plan_id":"cebpf4jnsgd1na2vs0mg"},{"bike_id":"a2adffae-47d8-4e48-83ea-f5e22f3a2143","system_id":"levelo_inurba_marseille","lat":43.34139,"lon":5.409,"is_reserved":false,"is_disabled":false,"rental_uris":{"android":"levelo://app?vid=a2adffae-47d8-4e48-83ea-f5e22f3a2143","ios":"levelo://app?vid=a2adffae-47d8-4e48-83ea-f5e22f3a2143"},"vehicle_type_id":"4","last_reported":1742548228,"current_range_meters":12400,"station_id":"ce4bhqh2rcd13ifvqhlg","pricing_plan_id":"cebpf4jnsgd1na2vs0mg"},{"bike_id":"fe2f903f-6bba-4923-98b6-89bd7b9a1b52","system_id":"levelo_inurba_marseille","lat":43.29301,"lon":5.37454,"is_reserved":false,"is_disabled":false,"rental_uris":{"android":"levelo://app?vid=fe2f903f-6bba-4923-98b6-89bd7b9a1b52","ios":"levelo://app?vid=fe2f903f-6bba-4923-98b6-89bd7b9a1b52"},"vehicle_type_id":"4","last_reported":1742548228,"current_range_meters":12400,"station_id":"ce4bgi12rcd13ifvqb70","pricing_plan_id":"cebpf4jnsgd1na2vs0mg"},{"bike_id":"8bd37f81-6ac3-451f-be30-e35eae99b7cf","system_id":"levelo_inurba_marseille","lat":43.2407,"lon":5.37756,"is_reserved":false,"is_disabled":false,"rental_uris":{"android":"levelo://app?vid=8bd37f81-6ac3-451f-be30-e35eae99b7cf","ios":"levelo://app?vid=8bd37f81-6ac3-451f-be30-e35eae99b7cf"},"vehicle_type_id":"4","last_reported":1742548228,"current_range_meters":12400,"station_id":"ce4bhnp2rcd13ifvqgvg","pricing_plan_id":"cebpf4jnsgd1na2vs0mg"},{"bike_id":"09b90bc9-f5a2-4675-b87f-b58dc3f75ec2","system_id":"levelo_inurba_marseille","lat":43.27958,"lon":5.38718,"is_reserved":false,"is_disabled":true,"rental_uris":{"android":"levelo://app?vid=09b90bc9-f5a2-4675-b87f-b58dc3f75ec2","ios":"levelo://app?vid=09b90bc9-f5a2-4675-b87f-b58dc3f75ec2"},"vehicle_type_id":"4","last_reported":1742548228,"current_range_meters":12400,"station_id":"ce4bhg12rcd13ifvqf80","pricing_plan_id":"cebpf4jnsgd1na2vs0mg"},{"bike_id":"4bcb1d12-70bd-49c9-a774-8af972a6ec5c","system_id":"levelo_inurba_marseille","lat":43.28152,"lon":5.42642,"is_reserved":false,"is_disabled":false,"rental_uris":{"android":"levelo://app?vid=4bcb1d12-70bd-49c9-a774-8af972a6ec5c","ios":"levelo://app?vid=4bcb1d12-70bd-49c9-a774-8af972a6ec5c"},"vehicle_type_id":"4","last_reported":1742548228,"current_range_meters":12800,"station_id":"ce4bhnh2rcd13ifvqgug","pricing_plan_id":"cebpf4jnsgd1na2vs0mg"},{"bike_id":"eca27a81-a303-407b-9584-1b4a67bf83d4","system_id":"levelo_inurba_marseille","lat":43.24074,"lon":5.37768,"is_reserved":false,"is_disabled":false,"rental_uris":{"android":"levelo://app?vid=eca27a81-a303-407b-9584-1b4a67bf83d4","ios":"levelo://app?vid=eca27a81-a303-407b-9584-1b4a67bf83d4"},"vehicle_type_id":"4","last_reported":1742548228,"current_range_meters":12800,"station_id":"ce4bhnp2rcd13ifvqgvg","pricing_plan_id":"cebpf4jnsgd1na2vs0mg"},{"bike_id":"fbbb3028-b15b-4750-98dc-ac90972ecc9b","system_id":"levelo_inurba_marseille","lat":43.32112,"lon":5.3677,"is_reserved":false,"is_disabled":false,"rental_uris":{"android":"levelo://app?vid=fbbb3028-b15b-4750-98dc-ac90972ecc9b","ios":"levelo://app?vid=fbbb3028-b15b-4750-98dc-ac90972ecc9b"},"vehicle_type_id":"4","last_reported":1742548228,"current_range_meters":12800,"station_id":"ce4bhrh2rcd13ifvqhug","pricing_plan_id":"cebpf4jnsgd1na2vs0mg"},{"bike_id":"15ecf1da-a7e5-4f8a-a83b-5761a6e31ae3","system_id":"levelo_inurba_marseille","lat":43.232,"lon":5.35557,"is_reserved":false,"is_disabled":false,"rental_uris":{"android":"levelo://app?vid=15ecf1da-a7e5-4f8a-a83b-5761a6e31ae3","ios":"levelo://app?vid=15ecf1da-a7e5-4f8a-a83b-5761a6e31ae3"},"vehicle_type_id":"4","last_reported":1742548228,"current_range_meters":12800,"station_id":"ce4bhu92rcd13ifvqi70","pricing_plan_id":"cebpf4jnsgd1na2vs0mg"},{"bike_id":"3f7d6cde-7911-4e85-a37f-700b24691ccd","system_id":"levelo_inurba_marseille","lat":43.24174,"lon":5.36394,"is_reserved":false,"is_disabled":false,"rental_uris":{"android":"levelo://app?vid=3f7d6cde-7911-4e85-a37f-700b24691ccd","ios":"levelo://app?vid=3f7d6cde-7911-4e85-a37f-700b24691ccd"},"vehicle_type_id":"4","last_reported":1742548228,"current_range_meters":12800,"station_id":"cpo36qri1sfpv3e86is0","pricing_plan_id":"cebpf4jnsgd1na2vs0mg"},{"bike_id":"91cabc99-b88c-4d8a-9e44-1edd6c0885ec","system_id":"levelo_inurba_marseille","lat":43.24073,"lon":5.3776,"is_reserved":false,"is_disabled":false,"rental_uris":{"android":"levelo://app?vid=91cabc99-b88c-4d8a-9e44-1edd6c0885ec","ios":"levelo://app?vid=91cabc99-b88c-4d8a-9e44-1edd6c0885ec"},"vehicle_type_id":"4","last_reported":1742548228,"current_range_meters":12800,"station_id":"ce4bhnp2rcd13ifvqgvg","pricing_plan_id":"cebpf4jnsgd1na2vs0mg"},{"bike_id":"9f71b25d-9206-481d-ac8c-220bc4ce65d9","system_id":"levelo_inurba_marseille","lat":43.24165,"lon":5.36401,"is_reserved":false,"is_disabled":false,"rental_uris":{"android":"levelo://app?vid=9f71b25d-9206-481d-ac8c-220bc4ce65d9","ios":"levelo://app?vid=9f71b25d-9206-481d-ac8c-220bc4ce65d9"},"vehicle_type_id":"4","last_reported":1742548228,"current_range_meters":12800,"station_id":"cpo36qri1sfpv3e86is0","pricing_plan_id":"cebpf4jnsgd1na2vs0mg"},{"bike_id":"96c6f8aa-ae67-45f3-b370-9e1714850571","system_id":"levelo_inurba_marseille","lat":43.28714,"lon":5.37944,"is_reserved":false,"is_disabled":false,"rental_uris":{"android":"levelo://app?vid=96c6f8aa-ae67-45f3-b370-9e1714850571","ios":"levelo://app?vid=96c6f8aa-ae67-45f3-b370-9e1714850571"},"vehicle_type_id":"4","last_reported":1742548228,"current_range_meters":12400,"station_id":"ce4bh9p2rcd13ifvqec0","pricing_plan_id":"cebpf4jnsgd1na2vs0mg"},{"bike_id":"86dd3df1-c90d-404c-8360-d8d198a5195e","system_id":"levelo_inurba_marseille","lat":43.26195,"lon":5.37929,"is_reserved":false,"is_disabled":false,"rental_uris":{"android":"levelo://app?vid=86dd3df1-c90d-404c-8360-d8d198a5195e","ios":"levelo://app?vid=86dd3df1-c90d-404c-8360-d8d198a5195e"},"vehicle_type_id":"4","last_reported":1742548228,"current_range_meters":13600,"station_id":"ce4bhjp2rcd13ifvqg90","pricing_plan_id":"cebpf4jnsgd1na2vs0mg"},{"bike_id":"4eed87ec-6ba8-4423-bb2a-902257d20a6d","system_id":"levelo_inurba_marseille","lat":43.23137,"lon":5.43719,"is_reserved":false,"is_disabled":false,"rental_uris":{"android":"levelo://app?vid=4eed87ec-6ba8-4423-bb2a-902257d20a6d","ios":"levelo://app?vid=4eed87ec-6ba8-4423-bb2a-902257d20a6d"},"vehicle_type_id":"4","last_reported":1742548228,"current_range_meters":13600,"station_id":"ce4bhmp2rcd13ifvqgog","pricing_plan_id":"cebpf4jnsgd1na2vs0mg"},{"bike_id":"dc537980-6042-493d-8080-0667efb1d6ad","system_id":"levelo_inurba_marseille","lat":43.24598,"lon":5.39529,"is_reserved":false,"is_disabled":false,"rental_uris":{"android":"levelo://app?vid=dc537980-6042-493d-8080-0667efb1d6ad","ios":"levelo://app?vid=dc537980-6042-493d-8080-0667efb1d6ad"},"vehicle_type_id":"4","last_reported":1742548228,"current_range_meters":13600,"station_id":"ce4bhlp2rcd13ifvqgjg","pricing_plan_id":"cebpf4jnsgd1na2vs0mg"},{"bike_id":"c29ed713-1462-4e0c-9611-44a815b07041","system_id":"levelo_inurba_marseille","lat":43.28937,"lon":5.36647,"is_reserved":false,"is_disabled":false,"rental_uris":{"android":"levelo://app?vid=c29ed713-1462-4e0c-9611-44a815b07041","ios":"levelo://app?vid=c29ed713-1462-4e0c-9611-44a815b07041"},"vehicle_type_id":"4","last_reported":1742548228,"current_range_meters":12800,"station_id":"ce4bhap2rcd13ifvqek0","pricing_plan_id":"cebpf4jnsgd1na2vs0mg"},{"bike_id":"f7b19721-c68b-4280-b653-43eff6dbb1fd","system_id":"levelo_inurba_marseille","lat":43.32093,"lon":5.36786,"is_reserved":false,"is_disabled":false,"rental_uris":{"android":"levelo://app?vid=f7b19721-c68b-4280-b653-43eff6dbb1fd","ios":"levelo://app?vid=f7b19721-c68b-4280-b653-43eff6dbb1fd"},"vehicle_type_id":"4","last_reported":1742548228,"current_range_meters":13600,"station_id":"ce4bhrh2rcd13ifvqhug","pricing_plan_id":"cebpf4jnsgd1na2vs0mg"},{"bike_id":"7f3b9a53-7f99-4987-a372-ce7661601647","system_id":"levelo_inurba_marseille","lat":43.31495,"lon":5.37299,"is_reserved":false,"is_disabled":false,"rental_uris":{"android":"levelo://app?vid=7f3b9a53-7f99-4987-a372-ce7661601647","ios":"levelo://app?vid=7f3b9a53-7f99-4987-a372-ce7661601647"},"vehicle_type_id":"4","last_reported":1742548228,"current_range_meters":13600,"station_id":"ce4bgt12rcd13ifvqcd0","pricing_plan_id":"cebpf4jnsgd1na2vs0mg"},{"bike_id":"7fd35775-9abf-462e-b27f-fb7404f2d1d4","system_id":"levelo_inurba_marseille","lat":43.31684,"lon":5.40476,"is_reserved":false,"is_disabled":false,"rental_uris":{"android":"levelo://app?vid=7fd35775-9abf-462e-b27f-fb7404f2d1d4","ios":"levelo://app?vid=7fd35775-9abf-462e-b27f-fb7404f2d1d4"},"vehicle_type_id":"4","last_reported":1742548228,"current_range_meters":12800,"station_id":"ce4bh012rcd13ifvqd00","pricing_plan_id":"cebpf4jnsgd1na2vs0mg"},{"bike_id":"60489768-70a1-4f3b-a334-8d7bb79d79eb","system_id":"levelo_inurba_marseille","lat":43.29239,"lon":5.40908,"is_reserved":false,"is_disabled":false,"rental_uris":{"android":"levelo://app?vid=60489768-70a1-4f3b-a334-8d7bb79d79eb","ios":"levelo://app?vid=60489768-70a1-4f3b-a334-8d7bb79d79eb"},"vehicle_type_id":"4","last_reported":1742548228,"current_range_meters":13600,"station_id":"ce4bh192rcd13ifvqdc0","pricing_plan_id":"cebpf4jnsgd1na2vs0mg"},{"bike_id":"556b5e08-97ea-4f47-9aee-0ddb89816c84","system_id":"levelo_inurba_marseille","lat":43.30546,"lon":5.36706,"is_reserved":false,"is_disabled":false,"rental_uris":{"android":"levelo://app?vid=556b5e08-97ea-4f47-9aee-0ddb89816c84","ios":"levelo://app?vid=556b5e08-97ea-4f47-9aee-0ddb89816c84"},"vehicle_type_id":"4","last_reported":1742548228,"current_range_meters":14000,"station_id":"ce4bgrp2rcd13ifvqc9g","pricing_plan_id":"cebpf4jnsgd1na2vs0mg"},{"bike_id":"e66793e3-2da6-4d2f-ba3e-dad4dec04a88","system_id":"levelo_inurba_marseille","lat":43.29827,"lon":5.38068,"is_reserved":false,"is_disabled":false,"rental_uris":{"android":"levelo://app?vid=e66793e3-2da6-4d2f-ba3e-dad4dec04a88","ios":"levelo://app?vid=e66793e3-2da6-4d2f-ba3e-dad4dec04a88"},"vehicle_type_id":"4","last_reported":1742548228,"current_range_meters":14000,"station_id":"ce4bgip2rcd13ifvqbb0","pricing_plan_id":"cebpf4jnsgd1na2vs0mg"},{"bike_id":"4da31b6a-f3aa-4ec7-a81a-164659308165","system_id":"levelo_inurba_marseille","lat":43.32532,"lon":5.41452,"is_reserved":false,"is_disabled":false,"rental_uris":{"android":"levelo://app?vid=4da31b6a-f3aa-4ec7-a81a-164659308165","ios":"levelo://app?vid=4da31b6a-f3aa-4ec7-a81a-164659308165"},"vehicle_type_id":"4","last_reported":1742548228,"current_range_meters":14000,"station_id":"ce4bhq12rcd13ifvqhhg","pricing_plan_id":"cebpf4jnsgd1na2vs0mg"},{"bike_id":"495d67fb-311c-4157-a54d-b808f182608e","system_id":"levelo_inurba_marseille","lat":43.32532,"lon":5.41473,"is_reserved":false,"is_disabled":false,"rental_uris":{"android":"levelo://app?vid=495d67fb-311c-4157-a54d-b808f182608e","ios":"levelo://app?vid=495d67fb-311c-4157-a54d-b808f182608e"},"vehicle_type_id":"4","last_reported":1742548228,"current_range_meters":14000,"station_id":"ce4bhq12rcd13ifvqhhg","pricing_plan_id":"cebpf4jnsgd1na2vs0mg"},{"bike_id":"0fbf373c-ac5b-49d9-a94e-bea438af3895","system_id":"levelo_inurba_marseille","lat":43.3095,"lon":5.39039,"is_reserved":false,"is_disabled":false,"rental_uris":{"android":"levelo://app?vid=0fbf373c-ac5b-49d9-a94e-bea438af3895","ios":"levelo://app?vid=0fbf373c-ac5b-49d9-a94e-bea438af3895"},"vehicle_type_id":"4","last_reported":1742548228,"current_range_meters":14000,"station_id":"ce4bgup2rcd13ifvqco0","pricing_plan_id":"cebpf4jnsgd1na2vs0mg"},{"bike_id":"8aa2fbf1-1352-46c1-b1dd-671d3c72831b","system_id":"levelo_inurba_marseille","lat":43.26933,"lon":5.40257,"is_reserved":false,"is_disabled":false,"rental_uris":{"android":"levelo://app?vid=8aa2fbf1-1352-46c1-b1dd-671d3c72831b","ios":"levelo://app?vid=8aa2fbf1-1352-46c1-b1dd-671d3c72831b"},"vehicle_type_id":"4","last_reported":1742548228,"current_range_meters":14400,"station_id":"cjm6bp8fraef2m0cb0m0","pricing_plan_id":"cebpf4jnsgd1na2vs0mg"},{"bike_id":"2f608053-a475-4cd0-9217-fb6dc09de981","system_id":"levelo_inurba_marseille","lat":43.24643,"lon":5.38921,"is_reserved":false,"is_disabled":false,"rental_uris":{"android":"levelo://app?vid=2f608053-a475-4cd0-9217-fb6dc09de981","ios":"levelo://app?vid=2f608053-a475-4cd0-9217-fb6dc09de981"},"vehicle_type_id":"4","last_reported":1742548228,"current_range_meters":14400,"station_id":"ce4bhg12rcd13ifvqf60","pricing_plan_id":"cebpf4jnsgd1na2vs0mg"},{"bike_id":"f857e3ee-7b86-4ccd-8116-6a58a1cacb60","system_id":"levelo_inurba_marseille","lat":43.33101,"lon":5.40833,"is_reserved":false,"is_disabled":false,"rental_uris":{"android":"levelo://app?vid=f857e3ee-7b86-4ccd-8116-6a58a1cacb60","ios":"levelo://app?vid=f857e3ee-7b86-4ccd-8116-6a58a1cacb60"},"vehicle_type_id":"4","last_reported":1742548228,"current_range_meters":14400,"station_id":"","pricing_plan_id":"cebpf4jnsgd1na2vs0mg"},{"bike_id":"b481f89f-85c4-4136-b3ed-75dcf00ea3a3","system_id":"levelo_inurba_marseille","lat":43.30157,"lon":5.37433,"is_reserved":false,"is_disabled":false,"rental_uris":{"android":"levelo://app?vid=b481f89f-85c4-4136-b3ed-75dcf00ea3a3","ios":"levelo://app?vid=b481f89f-85c4-4136-b3ed-75dcf00ea3a3"},"vehicle_type_id":"4","last_reported":1742548228,"current_range_meters":14400,"station_id":"ce4bgs92rcd13ifvqcc0","pricing_plan_id":"cebpf4jnsgd1na2vs0mg"},{"bike_id":"4ba70a3b-43ac-4de8-b351-3a8833532eb6","system_id":"levelo_inurba_marseille","lat":43.31481,"lon":5.3731,"is_reserved":false,"is_disabled":false,"rental_uris":{"android":"levelo://app?vid=4ba70a3b-43ac-4de8-b351-3a8833532eb6","ios":"levelo://app?vid=4ba70a3b-43ac-4de8-b351-3a8833532eb6"},"vehicle_type_id":"4","last_reported":1742548228,"current_range_meters":14400,"station_id":"ce4bgt12rcd13ifvqcd0","pricing_plan_id":"cebpf4jnsgd1na2vs0mg"},{"bike_id":"aa38de45-471a-40c6-9431-1f537c7b1dbb","system_id":"levelo_inurba_marseille","lat":43.2903,"lon":5.39956,"is_reserved":false,"is_disabled":false,"rental_uris":{"android":"levelo://app?vid=aa38de45-471a-40c6-9431-1f537c7b1dbb","ios":"levelo://app?vid=aa38de45-471a-40c6-9431-1f537c7b1dbb"},"vehicle_type_id":"4","last_reported":1742548228,"current_range_meters":14400,"station_id":"ce4bh392rcd13ifvqdm0","pricing_plan_id":"cebpf4jnsgd1na2vs0mg"},{"bike_id":"f235226c-2f14-49cf-86f6-2639af248d58","system_id":"levelo_inurba_marseille","lat":43.27972,"lon":5.3875,"is_reserved":false,"is_disabled":false,"rental_uris":{"android":"levelo://app?vid=f235226c-2f14-49cf-86f6-2639af248d58","ios":"levelo://app?vid=f235226c-2f14-49cf-86f6-2639af248d58"},"vehicle_type_id":"4","last_reported":1742548228,"current_range_meters":14400,"station_id":"ce4bhg12rcd13ifvqf80","pricing_plan_id":"cebpf4jnsgd1na2vs0mg"},{"bike_id":"144d37a4-36e2-42a8-aee9-74ed486b3eb9","system_id":"levelo_inurba_marseille","lat":43.30536,"lon":5.3653,"is_reserved":false,"is_disabled":false,"rental_uris":{"android":"levelo://app?vid=144d37a4-36e2-42a8-aee9-74ed486b3eb9","ios":"levelo://app?vid=144d37a4-36e2-42a8-aee9-74ed486b3eb9"},"vehicle_type_id":"4","last_reported":1742548228,"current_range_meters":14400,"station_id":"ce4bgs12rcd13ifvqcag","pricing_plan_id":"cebpf4jnsgd1na2vs0mg"},{"bike_id":"ea141fb6-62f1-4d53-bc05-9105d8b00d5b","system_id":"levelo_inurba_marseille","lat":43.336027,"lon":5.410374,"is_reserved":false,"is_disabled":false,"rental_uris":{"android":"levelo://app?vid=ea141fb6-62f1-4d53-bc05-9105d8b00d5b","ios":"levelo://app?vid=ea141fb6-62f1-4d53-bc05-9105d8b00d5b"},"vehicle_type_id":"4","last_reported":1742548228,"current_range_meters":14000,"station_id":"ce4bgr92rcd13ifvqc7g","pricing_plan_id":"cebpf4jnsgd1na2vs0mg"},{"bike_id":"a93b6cdd-048b-4ec0-a07b-dcd3650e1115","system_id":"levelo_inurba_marseille","lat":43.33605,"lon":5.41034,"is_reserved":false,"is_disabled":false,"rental_uris":{"android":"levelo://app?vid=a93b6cdd-048b-4ec0-a07b-dcd3650e1115","ios":"levelo://app?vid=a93b6cdd-048b-4ec0-a07b-dcd3650e1115"},"vehicle_type_id":"4","last_reported":1742548228,"current_range_meters":14400,"station_id":"ce4bhqh2rcd13ifvqhmg","pricing_plan_id":"cebpf4jnsgd1na2vs0mg"},{"bike_id":"f431628d-8123-4155-ab3c-35b882b78a0a","system_id":"levelo_inurba_marseille","lat":43.32494,"lon":5.36568,"is_reserved":false,"is_disabled":true,"rental_uris":{"android":"levelo://app?vid=f431628d-8123-4155-ab3c-35b882b78a0a","ios":"levelo://app?vid=f431628d-8123-4155-ab3c-35b882b78a0a"},"vehicle_type_id":"4","last_reported":1742548228,"current_range_meters":14400,"station_id":"ce4bhs12rcd13ifvqhvg","pricing_plan_id":"cebpf4jnsgd1na2vs0mg"},{"bike_id":"737cb292-b6af-4e59-973b-2c00c233aaa4","system_id":"levelo_inurba_marseille","lat":43.28413,"lon":5.37506,"is_reserved":false,"is_disabled":false,"rental_uris":{"android":"levelo://app?vid=737cb292-b6af-4e59-973b-2c00c233aaa4","ios":"levelo://app?vid=737cb292-b6af-4e59-973b-2c00c233aaa4"},"vehicle_type_id":"4","last_reported":1742548228,"current_range_meters":14400,"station_id":"ce4bh412rcd13ifvqds0","pricing_plan_id":"cebpf4jnsgd1na2vs0mg"},{"bike_id":"40ffe235-476c-4261-82fe-7e1b1b15f5b3","system_id":"levelo_inurba_marseille","lat":43.24068,"lon":5.37738,"is_reserved":false,"is_disabled":false,"rental_uris":{"android":"levelo://app?vid=40ffe235-476c-4261-82fe-7e1b1b15f5b3","ios":"levelo://app?vid=40ffe235-476c-4261-82fe-7e1b1b15f5b3"},"vehicle_type_id":"4","last_reported":1742548228,"current_range_meters":14800,"station_id":"ce4bhnp2rcd13ifvqgvg","pricing_plan_id":"cebpf4jnsgd1na2vs0mg"},{"bike_id":"3d7c7733-c38c-463a-9466-4a4a84f66f2e","system_id":"levelo_inurba_marseille","lat":43.29025,"lon":5.37571,"is_reserved":false,"is_disabled":false,"rental_uris":{"android":"levelo://app?vid=3d7c7733-c38c-463a-9466-4a4a84f66f2e","ios":"levelo://app?vid=3d7c7733-c38c-463a-9466-4a4a84f66f2e"},"vehicle_type_id":"4","last_reported":1742548228,"current_range_meters":14800,"station_id":"ce4bh692rcd13ifvqe90","pricing_plan_id":"cebpf4jnsgd1na2vs0mg"},{"bike_id":"2599cc75-20d7-45f7-8063-301ac3187af4","system_id":"levelo_inurba_marseille","lat":43.29258,"lon":5.38433,"is_reserved":false,"is_disabled":false,"rental_uris":{"android":"levelo://app?vid=2599cc75-20d7-45f7-8063-301ac3187af4","ios":"levelo://app?vid=2599cc75-20d7-45f7-8063-301ac3187af4"},"vehicle_type_id":"4","last_reported":1742548228,"current_range_meters":14800,"station_id":"ce4bh692rcd13ifvqea0","pricing_plan_id":"cebpf4jnsgd1na2vs0mg"},{"bike_id":"317d6b69-7893-4d6a-bcf4-3a5c81de488e","system_id":"levelo_inurba_marseille","lat":43.27491,"lon":5.42468,"is_reserved":false,"is_disabled":false,"rental_uris":{"android":"levelo://app?vid=317d6b69-7893-4d6a-bcf4-3a5c81de488e","ios":"levelo://app?vid=317d6b69-7893-4d6a-bcf4-3a5c81de488e"},"vehicle_type_id":"4","last_reported":1742548228,"current_range_meters":14800,"station_id":"ce4bhn92rcd13ifvqgrg","pricing_plan_id":"cebpf4jnsgd1na2vs0mg"},{"bike_id":"b290a832-9566-47d3-ba61-076568387192","system_id":"levelo_inurba_marseille","lat":43.25722,"lon":5.41108,"is_reserved":false,"is_disabled":false,"rental_uris":{"android":"levelo://app?vid=b290a832-9566-47d3-ba61-076568387192","ios":"levelo://app?vid=b290a832-9566-47d3-ba61-076568387192"},"vehicle_type_id":"4","last_reported":1742548228,"current_range_meters":14400,"station_id":"ce4bhkp2rcd13ifvqgd0","pricing_plan_id":"cebpf4jnsgd1na2vs0mg"},{"bike_id":"b27c565b-0798-4129-b9a7-1c2eac3fa281","system_id":"levelo_inurba_marseille","lat":43.27494,"lon":5.42478,"is_reserved":false,"is_disabled":false,"rental_uris":{"android":"levelo://app?vid=b27c565b-0798-4129-b9a7-1c2eac3fa281","ios":"levelo://app?vid=b27c565b-0798-4129-b9a7-1c2eac3fa281"},"vehicle_type_id":"4","last_reported":1742548228,"current_range_meters":15200,"station_id":"ce4bhn92rcd13ifvqgrg","pricing_plan_id":"cebpf4jnsgd1na2vs0mg"},{"bike_id":"27d13143-5ca0-4eaf-910a-791fb0f99ce4","system_id":"levelo_inurba_marseille","lat":43.232,"lon":5.35558,"is_reserved":false,"is_disabled":false,"rental_uris":{"android":"levelo://app?vid=27d13143-5ca0-4eaf-910a-791fb0f99ce4","ios":"levelo://app?vid=27d13143-5ca0-4eaf-910a-791fb0f99ce4"},"vehicle_type_id":"4","last_reported":1742548228,"current_range_meters":15200,"station_id":"ce4bhu92rcd13ifvqi70","pricing_plan_id":"cebpf4jnsgd1na2vs0mg"},{"bike_id":"758d6121-2739-47f8-baa5-39507cb03d50","system_id":"levelo_inurba_marseille","lat":43.31482,"lon":5.37288,"is_reserved":false,"is_disabled":false,"rental_uris":{"android":"levelo://app?vid=758d6121-2739-47f8-baa5-39507cb03d50","ios":"levelo://app?vid=758d6121-2739-47f8-baa5-39507cb03d50"},"vehicle_type_id":"4","last_reported":1742548228,"current_range_meters":15200,"station_id":"ce4bgt12rcd13ifvqcd0","pricing_plan_id":"cebpf4jnsgd1na2vs0mg"},{"bike_id":"6c2d259d-cc39-462c-94d1-46efd2f019c7","system_id":"levelo_inurba_marseille","lat":43.29011,"lon":5.38133,"is_reserved":false,"is_disabled":false,"rental_uris":{"android":"levelo://app?vid=6c2d259d-cc39-462c-94d1-46efd2f019c7","ios":"levelo://app?vid=6c2d259d-cc39-462c-94d1-46efd2f019c7"},"vehicle_type_id":"4","last_reported":1742548228,"current_range_meters":15200,"station_id":"ce4bh4p2rcd13ifvqe1g","pricing_plan_id":"cebpf4jnsgd1na2vs0mg"},{"bike_id":"e53819f3-f56d-4383-aab9-182a6b4eb49f","system_id":"levelo_inurba_marseille","lat":43.24069,"lon":5.37769,"is_reserved":false,"is_disabled":false,"rental_uris":{"android":"levelo://app?vid=e53819f3-f56d-4383-aab9-182a6b4eb49f","ios":"levelo://app?vid=e53819f3-f56d-4383-aab9-182a6b4eb49f"},"vehicle_type_id":"4","last_reported":1742548228,"current_range_meters":15200,"station_id":"ce4bhnp2rcd13ifvqgvg","pricing_plan_id":"cebpf4jnsgd1na2vs0mg"},{"bike_id":"8597d210-d070-4290-9bfc-0ab01c8f81c1","system_id":"levelo_inurba_marseille","lat":43.31364,"lon":5.36702,"is_reserved":false,"is_disabled":false,"rental_uris":{"android":"levelo://app?vid=8597d210-d070-4290-9bfc-0ab01c8f81c1","ios":"levelo://app?vid=8597d210-d070-4290-9bfc-0ab01c8f81c1"},"vehicle_type_id":"4","last_reported":1742548228,"current_range_meters":15200,"station_id":"ce4bgr92rcd13ifvqc6g","pricing_plan_id":"cebpf4jnsgd1na2vs0mg"},{"bike_id":"a3ccf716-59e2-40a9-89ad-45509a0a57fa","system_id":"levelo_inurba_marseille","lat":43.24083,"lon":5.37756,"is_reserved":false,"is_disabled":false,"rental_uris":{"android":"levelo://app?vid=a3ccf716-59e2-40a9-89ad-45509a0a57fa","ios":"levelo://app?vid=a3ccf716-59e2-40a9-89ad-45509a0a57fa"},"vehicle_type_id":"4","last_reported":1742548228,"current_range_meters":15200,"station_id":"ce4bhnp2rcd13ifvqgvg","pricing_plan_id":"cebpf4jnsgd1na2vs0mg"},{"bike_id":"72384b11-7664-4f98-b04b-cccc4781a6b4","system_id":"levelo_inurba_marseille","lat":43.29574,"lon":5.39971,"is_reserved":false,"is_disabled":false,"rental_uris":{"android":"levelo://app?vid=72384b11-7664-4f98-b04b-cccc4781a6b4","ios":"levelo://app?vid=72384b11-7664-4f98-b04b-cccc4781a6b4"},"vehicle_type_id":"4","last_reported":1742548228,"current_range_meters":15200,"station_id":"ce4bh312rcd13ifvqdj0","pricing_plan_id":"cebpf4jnsgd1na2vs0mg"},{"bike_id":"295b2b96-8a22-4b6f-a45b-df5a7ed58969","system_id":"levelo_inurba_marseille","lat":43.33729,"lon":5.39175,"is_reserved":false,"is_disabled":false,"rental_uris":{"android":"levelo://app?vid=295b2b96-8a22-4b6f-a45b-df5a7ed58969","ios":"levelo://app?vid=295b2b96-8a22-4b6f-a45b-df5a7ed58969"},"vehicle_type_id":"4","last_reported":1742548228,"current_range_meters":16000,"station_id":"ce4bhr92rcd13ifvqhsg","pricing_plan_id":"cebpf4jnsgd1na2vs0mg"},{"bike_id":"83ee902e-ca1a-4e47-a8af-2a0865a4d384","system_id":"levelo_inurba_marseille","lat":43.30909,"lon":5.36856,"is_reserved":false,"is_disabled":false,"rental_uris":{"android":"levelo://app?vid=83ee902e-ca1a-4e47-a8af-2a0865a4d384","ios":"levelo://app?vid=83ee902e-ca1a-4e47-a8af-2a0865a4d384"},"vehicle_type_id":"4","last_reported":1742548228,"current_range_meters":16000,"station_id":"ce4bgn92rcd13ifvqbvg","pricing_plan_id":"cebpf4jnsgd1na2vs0mg"},{"bike_id":"2ee11e51-242f-4eec-9134-dcb809b6ea12","system_id":"levelo_inurba_marseille","lat":43.25926,"lon":5.40893,"is_reserved":false,"is_disabled":false,"rental_uris":{"android":"levelo://app?vid=2ee11e51-242f-4eec-9134-dcb809b6ea12","ios":"levelo://app?vid=2ee11e51-242f-4eec-9134-dcb809b6ea12"},"vehicle_type_id":"4","last_reported":1742548228,"current_range_meters":16000,"station_id":"ce4bhm92rcd13ifvqglg","pricing_plan_id":"cebpf4jnsgd1na2vs0mg"},{"bike_id":"8d506eb5-6e6f-4e23-8278-802c9bc0c802","system_id":"levelo_inurba_marseille","lat":43.30541,"lon":5.36707,"is_reserved":false,"is_disabled":false,"rental_uris":{"android":"levelo://app?vid=8d506eb5-6e6f-4e23-8278-802c9bc0c802","ios":"levelo://app?vid=8d506eb5-6e6f-4e23-8278-802c9bc0c802"},"vehicle_type_id":"4","last_reported":1742548228,"current_range_meters":16000,"station_id":"ce4bgrp2rcd13ifvqc9g","pricing_plan_id":"cebpf4jnsgd1na2vs0mg"},{"bike_id":"c2e83226-9eac-42ab-a096-f2b99303ffdf","system_id":"levelo_inurba_marseille","lat":43.2678,"lon":5.39443,"is_reserved":false,"is_disabled":false,"rental_uris":{"android":"levelo://app?vid=c2e83226-9eac-42ab-a096-f2b99303ffdf","ios":"levelo://app?vid=c2e83226-9eac-42ab-a096-f2b99303ffdf"},