{"last_updated":1740381010,"ttl":60,"version":"2.2","data":{"bikes":[{"bike_id":"2277c4b4-4610-40d9-bc21-009d6cf537b9","system_id":"levelo_inurba_marseille","lat":43.2957,"lon":5.39511,"is_reserved":false,"is_disabled":false,"rental_uris":{"android":"levelo://app?vid=2277c4b4-4610-40d9-bc21-009d6cf537b9","ios":"levelo://app?vid=2277c4b4-4610-40d9-bc21-009d6cf537b9"},"vehicle_type_id":"4","last_reported":1740381010,"current_range_meters":2800,"station_id":"","pricing_plan_id":"cebpf4jnsgd1na2vs0mg"},{"bike_id":"bbd10bf5-3ca6-4d7b-90bf-8e1b0b9f279c","system_id":"levelo_inurba_marseille","lat":43.23178,"lon":5.39989,"is_reserved":false,"is_disabled":false,"rental_uris":{"android":"levelo://app?vid=bbd10bf5-3ca6-4d7b-90bf-8e1b0b9f279c","ios":"levelo://app?vid=bbd10bf5-3ca6-4d7b-90bf-8e1b0b9f279c"},"vehicle_type_id":"4","last_reported":1740381010,"current_range_meters":2800,"station_id":"ce4bhn12rcd13ifvqgqg","pricing_plan_id":"cebpf4jnsgd1na2vs0mg"},{"bike_id":"320d8699-b6fc-4953-9978-6b6d2a010da9","system_id":"levelo_inurba_marseille","lat":43.28361,"lon":5.35019,"is_reserved":false,"is_disabled":false,"rental_uris":{"android":"levelo://app?vid=320d8699-b6fc-4953-9978-6b6d2a010da9","ios":"levelo://app?vid=320d8699-b6fc-4953-9978-6b6d2a010da9"},"vehicle_type_id":"4","last_reported":1740381010,"current_range_meters":2800,"station_id":"ce4bhb12rcd13ifvqel0","pricing_plan_id":"cebpf4jnsgd1na2vs0mg"},{"bike_id":"2a7165b4-60a1-4418-90cd-83d9915280e2","system_id":"levelo_inurba_marseille","lat":43.2799,"lon":5.40601,"is_reserved":false,"is_disabled":false,"rental_uris":{"android":"levelo://app?vid=2a7165b4-60a1-4418-90cd-83d9915280e2","ios":"levelo://app?vid=2a7165b4-60a1-4418-90cd-83d9915280e2"},"vehicle_type_id":"4","last_reported":1740381010,"current_range_meters":2800,"station_id":"","pricing_plan_id":"cebpf4jnsgd1na2vs0mg"},{"bike_id":"2e4d9ef6-4dd9-45eb-8687-42db3850d70a","system_id":"levelo_inurba_marseille","lat":43.27473,"lon":5.40751,"is_reserved":false,"is_disabled":false,"rental_uris":{"android":"levelo://app?vid=2e4d9ef6-4dd9-45eb-8687-42db3850d70a","ios":"levelo://app?vid=2e4d9ef6-4dd9-45eb-8687-42db3850d70a"},"vehicle_type_id":"4","last_reported":1740381010,"current_range_meters":2800,"station_id":"","pricing_plan_id":"cebpf4jnsgd1na2vs0mg"},{"bike_id":"5be81403-e80e-49df-8f5d-218571205bc6","system_id":"levelo_inurba_marseille","lat":43.28407,"lon":5.37537,"is_reserved":false,"is_disabled":true,"rental_uris":{"android":"levelo://app?vid=5be81403-e80e-49df-8f5d-218571205bc6","ios":"levelo://app?vid=5be81403-e80e-49df-8f5d-218571205bc6"},"vehicle_type_id":"4","last_reported":1740381010,"current_range_meters":3200,"station_id":"ce4bh412rcd13ifvqds0","pricing_plan_id":"cebpf4jnsgd1na2vs0mg"},{"bike_id":"1f01055d-9465-4e40-beb8-db545ec54749","system_id":"levelo_inurba_marseille","lat":43.33604,"lon":5.41033,"is_reserved":false,"is_disabled":false,"rental_uris":{"android":"levelo://app?vid=1f01055d-9465-4e40-beb8-db545ec54749","ios":"levelo://app?vid=1f01055d-9465-4e40-beb8-db545ec54749"},"vehicle_type_id":"4","last_reported":1740381010,"current_range_meters":4000,"station_id":"ce4bhqh2rcd13ifvqhmg","pricing_plan_id":"cebpf4jnsgd1na2vs0mg"},{"bike_id":"2d28c2ad-8481-45c3-bb6b-0db53117a622","system_id":"levelo_inurba_marseille","lat":43.26201,"lon":5.37444,"is_reserved":false,"is_disabled":false,"rental_uris":{"android":"levelo://app?vid=2d28c2ad-8481-45c3-bb6b-0db53117a622","ios":"levelo://app?vid=2d28c2ad-8481-45c3-bb6b-0db53117a622"},"vehicle_type_id":"4","last_reported":1740381010,"current_range_meters":4400,"station_id":"ce4bhgp2rcd13ifvqfc0","pricing_plan_id":"cebpf4jnsgd1na2vs0mg"},{"bike_id":"68eaf70c-86da-4a55-b86e-08db94ec71f8","system_id":"levelo_inurba_marseille","lat":43.30886,"lon":5.39629,"is_reserved":false,"is_disabled":false,"rental_uris":{"android":"levelo://app?vid=68eaf70c-86da-4a55-b86e-08db94ec71f8","ios":"levelo://app?vid=68eaf70c-86da-4a55-b86e-08db94ec71f8"},"vehicle_type_id":"4","last_reported":1740381010,"current_range_meters":4400,"station_id":"ce4bh012rcd13ifvqcv0","pricing_plan_id":"cebpf4jnsgd1na2vs0mg"},{"bike_id":"1284377d-613e-4b0e-b8b9-30807af03316","system_id":"levelo_inurba_marseille","lat":43.27864,"lon":5.39179,"is_reserved":false,"is_disabled":true,"rental_uris":{"android":"levelo://app?vid=1284377d-613e-4b0e-b8b9-30807af03316","ios":"levelo://app?vid=1284377d-613e-4b0e-b8b9-30807af03316"},"vehicle_type_id":"4","last_reported":1740381010,"current_range_meters":4400,"station_id":"ce4bhjp2rcd13ifvqga0","pricing_plan_id":"cebpf4jnsgd1na2vs0mg"},{"bike_id":"519c0d90-c598-4074-9c80-d5e1565ff705","system_id":"levelo_inurba_marseille","lat":43.23072,"lon":5.35494,"is_reserved":false,"is_disabled":false,"rental_uris":{"android":"levelo://app?vid=519c0d90-c598-4074-9c80-d5e1565ff705","ios":"levelo://app?vid=519c0d90-c598-4074-9c80-d5e1565ff705"},"vehicle_type_id":"4","last_reported":1740381010,"current_range_meters":4800,"station_id":"cpo3342slgdg3j2ifvpg","pricing_plan_id":"cebpf4jnsgd1na2vs0mg"},{"bike_id":"f4c73116-43d3-41d9-88bb-9461dbbb405f","system_id":"levelo_inurba_marseille","lat":43.254179,"lon":5.415713,"is_reserved":false,"is_disabled":false,"rental_uris":{"android":"levelo://app?vid=f4c73116-43d3-41d9-88bb-9461dbbb405f","ios":"levelo://app?vid=f4c73116-43d3-41d9-88bb-9461dbbb405f"},"vehicle_type_id":"4","last_reported":1740381010,"current_range_meters":4800,"station_id":"","pricing_plan_id":"cebpf4jnsgd1na2vs0mg"},{"bike_id":"0bce59ed-e475-4201-847e-db5e8f22455a","system_id":"levelo_inurba_marseille","lat":43.28334,"lon":5.38112,"is_reserved":false,"is_disabled":false,"rental_uris":{"android":"levelo://app?vid=0bce59ed-e475-4201-847e-db5e8f22455a","ios":"levelo://app?vid=0bce59ed-e475-4201-847e-db5e8f22455a"},"vehicle_type_id":"4","last_reported":1740381010,"current_range_meters":5600,"station_id":"ce4bh412rcd13ifvqdr0","pricing_plan_id":"cebpf4jnsgd1na2vs0mg"},{"bike_id":"69777bf4-f196-4d92-944d-65c72e7557a6","system_id":"levelo_inurba_marseille","lat":43.3051,"lon":5.37329,"is_reserved":false,"is_disabled":false,"rental_uris":{"android":"levelo://app?vid=69777bf4-f196-4d92-944d-65c72e7557a6","ios":"levelo://app?vid=69777bf4-f196-4d92-944d-65c72e7557a6"},"vehicle_type_id":"4","last_reported":1740381010,"current_range_meters":5600,"station_id":"","pricing_plan_id":"cebpf4jnsgd1na2vs0mg"},{"bike_id":"e863be6a-7aab-448d-8d65-2c1c76675972","system_id":"levelo_inurba_marseille","lat":43.31488,"lon":5.37313,"is_reserved":false,"is_disabled":false,"rental_uris":{"android":"levelo://app?vid=e863be6a-7aab-448d-8d65-2c1c76675972","ios":"levelo://app?vid=e863be6a-7aab-448d-8d65-2c1c76675972"},"vehicle_type_id":"4","last_reported":1740381010,"current_range_meters":5600,"station_id":"ce4bgt12rcd13ifvqcd0","pricing_plan_id":"cebpf4jnsgd1na2vs0mg"},{"bike_id":"330f0647-6ae3-429b-bf1c-df4288b237c9","system_id":"levelo_inurba_marseille","lat":43.31483,"lon":5.37301,"is_reserved":false,"is_disabled":false,"rental_uris":{"android":"levelo://app?vid=330f0647-6ae3-429b-bf1c-df4288b237c9","ios":"levelo://app?vid=330f0647-6ae3-429b-bf1c-df4288b237c9"},"vehicle_type_id":"4","last_reported":1740381010,"current_range_meters":6000,"station_id":"ce4bgt12rcd13ifvqcd0","pricing_plan_id":"cebpf4jnsgd1na2vs0mg"},{"bike_id":"80e30e07-59ff-4807-b06b-c6dc1a9e08e2","system_id":"levelo_inurba_marseille","lat":43.33618,"lon":5.41045,"is_reserved":false,"is_disabled":true,"rental_uris":{"android":"levelo://app?vid=80e30e07-59ff-4807-b06b-c6dc1a9e08e2","ios":"levelo://app?vid=80e30e07-59ff-4807-b06b-c6dc1a9e08e2"},"vehicle_type_id":"4","last_reported":1740381010,"current_range_meters":6000,"station_id":"ce4bhqh2rcd13ifvqhmg","pricing_plan_id":"cebpf4jnsgd1na2vs0mg"},{"bike_id":"21c03b67-4f1c-47ef-9bf8-29d8898d16e5","system_id":"levelo_inurba_marseille","lat":43.30891,"lon":5.39655,"is_reserved":false,"is_disabled":false,"rental_uris":{"android":"levelo://app?vid=21c03b67-4f1c-47ef-9bf8-29d8898d16e5","ios":"levelo://app?vid=21c03b67-4f1c-47ef-9bf8-29d8898d16e5"},"vehicle_type_id":"4","last_reported":1740381010,"current_range_meters":6000,"station_id":"ce4bh012rcd13ifvqcv0","pricing_plan_id":"cebpf4jnsgd1na2vs0mg"},{"bike_id":"09486dc5-7654-4904-afc6-3b8a40308aeb","system_id":"levelo_inurba_marseille","lat":43.25424,"lon":5.41566,"is_reserved":false,"is_disabled":false,"rental_uris":{"android":"levelo://app?vid=09486dc5-7654-4904-afc6-3b8a40308aeb","ios":"levelo://app?vid=09486dc5-7654-4904-afc6-3b8a40308aeb"},"vehicle_type_id":"4","last_reported":1740381010,"current_range_meters":6000,"station_id":"","pricing_plan_id":"cebpf4jnsgd1na2vs0mg"},{"bike_id":"63e9a078-42c9-4658-bd69-9e0edf2761a8","system_id":"levelo_inurba_marseille","lat":43.293,"lon":5.37457,"is_reserved":false,"is_disabled":false,"rental_uris":{"android":"levelo://app?vid=63e9a078-42c9-4658-bd69-9e0edf2761a8","ios":"levelo://app?vid=63e9a078-42c9-4658-bd69-9e0edf2761a8"},"vehicle_type_id":"4","last_reported":1740381010,"current_range_meters":6000,"station_id":"ce4bgi12rcd13ifvqb70","pricing_plan_id":"cebpf4jnsgd1na2vs0mg"},{"bike_id":"35a55591-5faf-4f08-9de6-d322bb266fea","system_id":"levelo_inurba_marseille","lat":43.24175,"lon":5.39719,"is_reserved":false,"is_disabled":true,"rental_uris":{"android":"levelo://app?vid=35a55591-5faf-4f08-9de6-d322bb266fea","ios":"levelo://app?vid=35a55591-5faf-4f08-9de6-d322bb266fea"},"vehicle_type_id":"4","last_reported":1740381010,"current_range_meters":6000,"station_id":"ce4bhn12rcd13ifvqgpg","pricing_plan_id":"cebpf4jnsgd1na2vs0mg"},{"bike_id":"022e8fbc-78ed-4518-8454-5d05a14e7093","system_id":"levelo_inurba_marseille","lat":43.30875,"lon":5.39663,"is_reserved":false,"is_disabled":false,"rental_uris":{"android":"levelo://app?vid=022e8fbc-78ed-4518-8454-5d05a14e7093","ios":"levelo://app?vid=022e8fbc-78ed-4518-8454-5d05a14e7093"},"vehicle_type_id":"4","last_reported":1740381010,"current_range_meters":6000,"station_id":"ce4bh012rcd13ifvqcv0","pricing_plan_id":"cebpf4jnsgd1na2vs0mg"},{"bike_id":"26a2d076-f5f2-45a7-98f5-29542790fe7d","system_id":"levelo_inurba_marseille","lat":43.32356,"lon":5.36755,"is_reserved":false,"is_disabled":false,"rental_uris":{"android":"levelo://app?vid=26a2d076-f5f2-45a7-98f5-29542790fe7d","ios":"levelo://app?vid=26a2d076-f5f2-45a7-98f5-29542790fe7d"},"vehicle_type_id":"4","last_reported":1740381010,"current_range_meters":6000,"station_id":"ce4bhsh2rcd13ifvqi2g","pricing_plan_id":"cebpf4jnsgd1na2vs0mg"},{"bike_id":"bb39d0e1-e05f-4872-974f-e9d42d7edff0","system_id":"levelo_inurba_marseille","lat":43.30602,"lon":5.39362,"is_reserved":false,"is_disabled":false,"rental_uris":{"android":"levelo://app?vid=bb39d0e1-e05f-4872-974f-e9d42d7edff0","ios":"levelo://app?vid=bb39d0e1-e05f-4872-974f-e9d42d7edff0"},"vehicle_type_id":"4","last_reported":1740381010,"current_range_meters":6000,"station_id":"ce4bh0p2rcd13ifvqd80","pricing_plan_id":"cebpf4jnsgd1na2vs0mg"},{"bike_id":"fa9ca2a2-943c-4288-81b7-dda20c6e5960","system_id":"levelo_inurba_marseille","lat":43.28944,"lon":5.36382,"is_reserved":false,"is_disabled":false,"rental_uris":{"android":"levelo://app?vid=fa9ca2a2-943c-4288-81b7-dda20c6e5960","ios":"levelo://app?vid=fa9ca2a2-943c-4288-81b7-dda20c6e5960"},"vehicle_type_id":"4","last_reported":1740381010,"current_range_meters":6400,"station_id":"ce4bhc92rcd13ifvqetg","pricing_plan_id":"cebpf4jnsgd1na2vs0mg"},{"bike_id":"1af71967-b274-4269-9655-88715abf61c6","system_id":"levelo_inurba_marseille","lat":43.26549,"lon":5.37292,"is_reserved":false,"is_disabled":true,"rental_uris":{"android":"levelo://app?vid=1af71967-b274-4269-9655-88715abf61c6","ios":"levelo://app?vid=1af71967-b274-4269-9655-88715abf61c6"},"vehicle_type_id":"4","last_reported":1740381010,"current_range_meters":6400,"station_id":"ce4bhg12rcd13ifvqf70","pricing_plan_id":"cebpf4jnsgd1na2vs0mg"},{"bike_id":"5de90a37-b7c7-4a02-ac2e-e5ef7e12ddbb","system_id":"levelo_inurba_marseille","lat":43.24167,"lon":5.36391,"is_reserved":false,"is_disabled":false,"rental_uris":{"android":"levelo://app?vid=5de90a37-b7c7-4a02-ac2e-e5ef7e12ddbb","ios":"levelo://app?vid=5de90a37-b7c7-4a02-ac2e-e5ef7e12ddbb"},"vehicle_type_id":"4","last_reported":1740381010,"current_range_meters":6800,"station_id":"","pricing_plan_id":"cebpf4jnsgd1na2vs0mg"},{"bike_id":"d3dc4114-38c6-48d5-81b2-55fe1924872f","system_id":"levelo_inurba_marseille","lat":43.23198,"lon":5.40003,"is_reserved":false,"is_disabled":false,"rental_uris":{"android":"levelo://app?vid=d3dc4114-38c6-48d5-81b2-55fe1924872f","ios":"levelo://app?vid=d3dc4114-38c6-48d5-81b2-55fe1924872f"},"vehicle_type_id":"4","last_reported":1740381010,"current_range_meters":6800,"station_id":"ce4bhn12rcd13ifvqgqg","pricing_plan_id":"cebpf4jnsgd1na2vs0mg"},{"bike_id":"94b79092-d90d-4f91-9aad-21b0a209345d","system_id":"levelo_inurba_marseille","lat":43.299265,"lon":5.365515,"is_reserved":false,"is_disabled":false,"rental_uris":{"android":"levelo://app?vid=94b79092-d90d-4f91-9aad-21b0a209345d","ios":"levelo://app?vid=94b79092-d90d-4f91-9aad-21b0a209345d"},"vehicle_type_id":"4","last_reported":1740381010,"current_range_meters":6800,"station_id":"ce4bgm92rcd13ifvqbr0","pricing_plan_id":"cebpf4jnsgd1na2vs0mg"},{"bike_id":"5f468bed-e693-4e0c-bd24-5733f39eaa5c","system_id":"levelo_inurba_marseille","lat":43.28939,"lon":5.36634,"is_reserved":false,"is_disabled":false,"rental_uris":{"android":"levelo://app?vid=5f468bed-e693-4e0c-bd24-5733f39eaa5c","ios":"levelo://app?vid=5f468bed-e693-4e0c-bd24-5733f39eaa5c"},"vehicle_type_id":"4","last_reported":1740381010,"current_range_meters":6800,"station_id":"ce4bhap2rcd13ifvqek0","pricing_plan_id":"cebpf4jnsgd1na2vs0mg"},{"bike_id":"49e1c317-c43a-4e17-be08-ea23dc8d6739","system_id":"levelo_inurba_marseille","lat":43.30126,"lon":5.39578,"is_reserved":false,"is_disabled":true,"rental_uris":{"android":"levelo://app?vid=49e1c317-c43a-4e17-be08-ea23dc8d6739","ios":"levelo://app?vid=49e1c317-c43a-4e17-be08-ea23dc8d6739"},"vehicle_type_id":"4","last_reported":1740381010,"current_range_meters":6800,"station_id":"","pricing_plan_id":"cebpf4jnsgd1na2vs0mg"},{"bike_id":"e0c1d965-9bb5-48f6-93c4-81a00c3e7849","system_id":"levelo_inurba_marseille","lat":43.27078,"lon":5.42284,"is_reserved":false,"is_disabled":false,"rental_uris":{"android":"levelo://app?vid=e0c1d965-9bb5-48f6-93c4-81a00c3e7849","ios":"levelo://app?vid=e0c1d965-9bb5-48f6-93c4-81a00c3e7849"},"vehicle_type_id":"4","last_reported":1740381010,"current_range_meters":6800,"station_id":"ce4bhk92rcd13ifvqgb0","pricing_plan_id":"cebpf4jnsgd1na2vs0mg"},{"bike_id":"bce7c208-037d-431c-a1b5-32dbe25f328e","system_id":"levelo_inurba_marseille","lat":43.29295,"lon":5.37462,"is_reserved":false,"is_disabled":false,"rental_uris":{"android":"levelo://app?vid=bce7c208-037d-431c-a1b5-32dbe25f328e","ios":"levelo://app?vid=bce7c208-037d-431c-a1b5-32dbe25f328e"},"vehicle_type_id":"4","last_reported":1740381010,"current_range_meters":6800,"station_id":"ce4bgi12rcd13ifvqb70","pricing_plan_id":"cebpf4jnsgd1na2vs0mg"},{"bike_id":"8dc51aab-29d3-43fa-a37e-6c47cc4c2e69","system_id":"levelo_inurba_marseille","lat":43.24162,"lon":5.36403,"is_reserved":false,"is_disabled":false,"rental_uris":{"android":"levelo://app?vid=8dc51aab-29d3-43fa-a37e-6c47cc4c2e69","ios":"levelo://app?vid=8dc51aab-29d3-43fa-a37e-6c47cc4c2e69"},"vehicle_type_id":"4","last_reported":1740381010,"current_range_meters":7200,"station_id":"cpo36qri1sfpv3e86is0","pricing_plan_id":"cebpf4jnsgd1na2vs0mg"},{"bike_id":"7cbc38a5-68b9-4c0e-b227-488aa85ec6d7","system_id":"levelo_inurba_marseille","lat":43.24819,"lon":5.37437,"is_reserved":false,"is_disabled":false,"rental_uris":{"android":"levelo://app?vid=7cbc38a5-68b9-4c0e-b227-488aa85ec6d7","ios":"levelo://app?vid=7cbc38a5-68b9-4c0e-b227-488aa85ec6d7"},"vehicle_type_id":"4","last_reported":1740381010,"current_range_meters":8000,"station_id":"ce4bhgh2rcd13ifvqfb0","pricing_plan_id":"cebpf4jnsgd1na2vs0mg"},{"bike_id":"1f7411cd-9379-4bab-a8bc-411b928d8602","system_id":"levelo_inurba_marseille","lat":43.27496,"lon":5.42463,"is_reserved":false,"is_disabled":false,"rental_uris":{"android":"levelo://app?vid=1f7411cd-9379-4bab-a8bc-411b928d8602","ios":"levelo://app?vid=1f7411cd-9379-4bab-a8bc-411b928d8602"},"vehicle_type_id":"4","last_reported":1740381010,"current_range_meters":8000,"station_id":"ce4bhn92rcd13ifvqgrg","pricing_plan_id":"cebpf4jnsgd1na2vs0mg"},{"bike_id":"8ae90cfe-8302-4e8c-882c-b5f9e1a906c9","system_id":"levelo_inurba_marseille","lat":43.26014,"lon":5.3755,"is_reserved":false,"is_disabled":false,"rental_uris":{"android":"levelo://app?vid=8ae90cfe-8302-4e8c-882c-b5f9e1a906c9","ios":"levelo://app?vid=8ae90cfe-8302-4e8c-882c-b5f9e1a906c9"},"vehicle_type_id":"4","last_reported":1740381010,"current_range_meters":8000,"station_id":"ce4bhgh2rcd13ifvqfa0","pricing_plan_id":"cebpf4jnsgd1na2vs0mg"},{"bike_id":"62202325-0dc9-44aa-9739-89d11f4951da","system_id":"levelo_inurba_marseille","lat":43.317481,"lon":5.390145,"is_reserved":false,"is_disabled":false,"rental_uris":{"android":"levelo://app?vid=62202325-0dc9-44aa-9739-89d11f4951da","ios":"levelo://app?vid=62202325-0dc9-44aa-9739-89d11f4951da"},"vehicle_type_id":"4","last_reported":1740381010,"current_range_meters":8000,"station_id":"ce4bhqp2rcd13ifvqhng","pricing_plan_id":"cebpf4jnsgd1na2vs0mg"},{"bike_id":"c8ab2732-97c7-4e83-a3de-581686152e68","system_id":"levelo_inurba_marseille","lat":43.248,"lon":5.37457,"is_reserved":false,"is_disabled":true,"rental_uris":{"android":"levelo://app?vid=c8ab2732-97c7-4e83-a3de-581686152e68","ios":"levelo://app?vid=c8ab2732-97c7-4e83-a3de-581686152e68"},"vehicle_type_id":"4","last_reported":1740381010,"current_range_meters":8400,"station_id":"ce4bhgh2rcd13ifvqfb0","pricing_plan_id":"cebpf4jnsgd1na2vs0mg"},{"bike_id":"095d5026-b6cb-411c-ab71-6c60703e2b2f","system_id":"levelo_inurba_marseille","lat":43.23049,"lon":5.35499,"is_reserved":false,"is_disabled":true,"rental_uris":{"android":"levelo://app?vid=095d5026-b6cb-411c-ab71-6c60703e2b2f","ios":"levelo://app?vid=095d5026-b6cb-411c-ab71-6c60703e2b2f"},"vehicle_type_id":"4","last_reported":1740381010,"current_range_meters":8400,"station_id":"cpo3342slgdg3j2ifvpg","pricing_plan_id":"cebpf4jnsgd1na2vs0mg"},{"bike_id":"ea7e3de9-37ca-4851-8757-99555fe7bbaf","system_id":"levelo_inurba_marseille","lat":43.25091,"lon":5.39545,"is_reserved":false,"is_disabled":false,"rental_uris":{"android":"levelo://app?vid=ea7e3de9-37ca-4851-8757-99555fe7bbaf","ios":"levelo://app?vid=ea7e3de9-37ca-4851-8757-99555fe7bbaf"},"vehicle_type_id":"4","last_reported":1740381010,"current_range_meters":8400,"station_id":"ce4bhm12rcd13ifvqgkg","pricing_plan_id":"cebpf4jnsgd1na2vs0mg"},{"bike_id":"ad336382-44bd-4c86-8c92-547db12853aa","system_id":"levelo_inurba_marseille","lat":43.269548,"lon":5.386297,"is_reserved":false,"is_disabled":false,"rental_uris":{"android":"levelo://app?vid=ad336382-44bd-4c86-8c92-547db12853aa","ios":"levelo://app?vid=ad336382-44bd-4c86-8c92-547db12853aa"},"vehicle_type_id":"4","last_reported":1740381010,"current_range_meters":8800,"station_id":"ce4bhl92rcd13ifvqghg","pricing_plan_id":"cebpf4jnsgd1na2vs0mg"},{"bike_id":"075d1eaf-77ce-4b0a-978b-022471073e96","system_id":"levelo_inurba_marseille","lat":43.29037,"lon":5.39965,"is_reserved":false,"is_disabled":false,"rental_uris":{"android":"levelo://app?vid=075d1eaf-77ce-4b0a-978b-022471073e96","ios":"levelo://app?vid=075d1eaf-77ce-4b0a-978b-022471073e96"},"vehicle_type_id":"4","last_reported":1740381010,"current_range_meters":8800,"station_id":"ce4bh392rcd13ifvqdm0","pricing_plan_id":"cebpf4jnsgd1na2vs0mg"},{"bike_id":"8cd8e855-556a-49bb-858e-094e7857f894","system_id":"levelo_inurba_marseille","lat":43.29194,"lon":5.35798,"is_reserved":false,"is_disabled":true,"rental_uris":{"android":"levelo://app?vid=8cd8e855-556a-49bb-858e-094e7857f894","ios":"levelo://app?vid=8cd8e855-556a-49bb-858e-094e7857f894"},"vehicle_type_id":"4","last_reported":1740381010,"current_range_meters":8800,"station_id":"ce4bhb12rcd13ifvqel0","pricing_plan_id":"cebpf4jnsgd1na2vs0mg"},{"bike_id":"4bb0b86f-55c5-479a-8c77-811677938423","system_id":"levelo_inurba_marseille","lat":43.25821,"lon":5.39433,"is_reserved":false,"is_disabled":false,"rental_uris":{"android":"levelo://app?vid=4bb0b86f-55c5-479a-8c77-811677938423","ios":"levelo://app?vid=4bb0b86f-55c5-479a-8c77-811677938423"},"vehicle_type_id":"4","last_reported":1740381010,"current_range_meters":9200,"station_id":"ce4bhip2rcd13ifvqft0","pricing_plan_id":"cebpf4jnsgd1na2vs0mg"},{"bike_id":"3bca3269-64d9-4460-b686-b4e7575e3edb","system_id":"levelo_inurba_marseille","lat":43.24078,"lon":5.37753,"is_reserved":false,"is_disabled":false,"rental_uris":{"android":"levelo://app?vid=3bca3269-64d9-4460-b686-b4e7575e3edb","ios":"levelo://app?vid=3bca3269-64d9-4460-b686-b4e7575e3edb"},"vehicle_type_id":"4","last_reported":1740381010,"current_range_meters":9200,"station_id":"ce4bhnp2rcd13ifvqgvg","pricing_plan_id":"cebpf4jnsgd1na2vs0mg"},{"bike_id":"1127a561-55dc-461d-840d-fc4e71e9155a","system_id":"levelo_inurba_marseille","lat":43.29905,"lon":5.43668,"is_reserved":false,"is_disabled":false,"rental_uris":{"android":"levelo://app?vid=1127a561-55dc-461d-840d-fc4e71e9155a","ios":"levelo://app?vid=1127a561-55dc-461d-840d-fc4e71e9155a"},"vehicle_type_id":"4","last_reported":1740381010,"current_range_meters":9200,"station_id":"ce4bhpp2rcd13ifvqhfg","pricing_plan_id":"cebpf4jnsgd1na2vs0mg"},{"bike_id":"ab7da9df-c7ed-482b-9961-43b5cca3e34b","system_id":"levelo_inurba_marseille","lat":43.31125,"lon":5.37777,"is_reserved":false,"is_disabled":true,"rental_uris":{"android":"levelo://app?vid=ab7da9df-c7ed-482b-9961-43b5cca3e34b","ios":"levelo://app?vid=ab7da9df-c7ed-482b-9961-43b5cca3e34b"},"vehicle_type_id":"4","last_reported":1740381010,"current_range_meters":9200,"station_id":"ce4bgt92rcd13ifvqcg0","pricing_plan_id":"cebpf4jnsgd1na2vs0mg"},{"bike_id":"e61c2b74-4ece-46bf-bf8e-6ea12dcb1ec2","system_id":"levelo_inurba_marseille","lat":43.30604,"lon":5.39369,"is_reserved":false,"is_disabled":true,"rental_uris":{"android":"levelo://app?vid=e61c2b74-4ece-46bf-bf8e-6ea12dcb1ec2","ios":"levelo://app?vid=e61c2b74-4ece-46bf-bf8e-6ea12dcb1ec2"},"vehicle_type_id":"4","last_reported":1740381010,"current_range_meters":9200,"station_id":"ce4bh0p2rcd13ifvqd80","pricing_plan_id":"cebpf4jnsgd1na2vs0mg"},{"bike_id":"5e936d59-b28e-4041-af84-051b04d5a63a","system_id":"levelo_inurba_marseille","lat":43.24397,"lon":5.37085,"is_reserved":false,"is_disabled":false,"rental_uris":{"android":"levelo://app?vid=5e936d59-b28e-4041-af84-051b04d5a63a","ios":"levelo://app?vid=5e936d59-b28e-4041-af84-051b04d5a63a"},"vehicle_type_id":"4","last_reported":1740381010,"current_range_meters":9200,"station_id":"ce4bhhh2rcd13ifvqfk0","pricing_plan_id":"cebpf4jnsgd1na2vs0mg"},{"bike_id":"fb44b31f-7afc-4a5c-8b14-6d56005aa669","system_id":"levelo_inurba_marseille","lat":43.28954,"lon":5.43287,"is_reserved":false,"is_disabled":false,"rental_uris":{"android":"levelo://app?vid=fb44b31f-7afc-4a5c-8b14-6d56005aa669","ios":"levelo://app?vid=fb44b31f-7afc-4a5c-8b14-6d56005aa669"},"vehicle_type_id":"4","last_reported":1740381010,"current_range_meters":9200,"station_id":"","pricing_plan_id":"cebpf4jnsgd1na2vs0mg"},{"bike_id":"618f913e-cba8-4c50-a313-a42d4485f0ce","system_id":"levelo_inurba_marseille","lat":43.305463,"lon":5.367063,"is_reserved":false,"is_disabled":true,"rental_uris":{"android":"levelo://app?vid=618f913e-cba8-4c50-a313-a42d4485f0ce","ios":"levelo://app?vid=618f913e-cba8-4c50-a313-a42d4485f0ce"},"vehicle_type_id":"4","last_reported":1740381010,"current_range_meters":9200,"station_id":"ce4bgrp2rcd13ifvqc9g","pricing_plan_id":"cebpf4jnsgd1na2vs0mg"},{"bike_id":"9b76b06f-126c-4e6e-8728-15b4bb57d951","system_id":"levelo_inurba_marseille","lat":43.29793,"lon":5.38085,"is_reserved":false,"is_disabled":false,"rental_uris":{"android":"levelo://app?vid=9b76b06f-126c-4e6e-8728-15b4bb57d951","ios":"levelo://app?vid=9b76b06f-126c-4e6e-8728-15b4bb57d951"},"vehicle_type_id":"4","last_reported":1740381010,"current_range_meters":9200,"station_id":"ce4bgip2rcd13ifvqbb0","pricing_plan_id":"cebpf4jnsgd1na2vs0mg"},{"bike_id":"66d01159-7459-400c-a8d5-a441cd548517","system_id":"levelo_inurba_marseille","lat":43.27494,"lon":5.42454,"is_reserved":false,"is_disabled":false,"rental_uris":{"android":"levelo://app?vid=66d01159-7459-400c-a8d5-a441cd548517","ios":"levelo://app?vid=66d01159-7459-400c-a8d5-a441cd548517"},"vehicle_type_id":"4","last_reported":1740381010,"current_range_meters":9200,"station_id":"ce4bhn92rcd13ifvqgrg","pricing_plan_id":"cebpf4jnsgd1na2vs0mg"},{"bike_id":"0e17628e-77f1-4b2d-9900-e51a8c9f0181","system_id":"levelo_inurba_marseille","lat":43.28883,"lon":5.44993,"is_reserved":false,"is_disabled":false,"rental_uris":{"android":"levelo://app?vid=0e17628e-77f1-4b2d-9900-e51a8c9f0181","ios":"levelo://app?vid=0e17628e-77f1-4b2d-9900-e51a8c9f0181"},"vehicle_type_id":"4","last_reported":1740381010,"current_range_meters":9600,"station_id":"","pricing_plan_id":"cebpf4jnsgd1na2vs0mg"},{"bike_id":"a8dc7729-6589-4862-ac61-2b20487771e6","system_id":"levelo_inurba_marseille","lat":43.32128,"lon":5.36739,"is_reserved":false,"is_disabled":false,"rental_uris":{"android":"levelo://app?vid=a8dc7729-6589-4862-ac61-2b20487771e6","ios":"levelo://app?vid=a8dc7729-6589-4862-ac61-2b20487771e6"},"vehicle_type_id":"4","last_reported":1740381010,"current_range_meters":9600,"station_id":"ce4bhrh2rcd13ifvqhug","pricing_plan_id":"cebpf4jnsgd1na2vs0mg"},{"bike_id":"9ec8cc63-14ea-41e2-a32b-68a8e86d1e16","system_id":"levelo_inurba_marseille","lat":43.28714,"lon":5.37919,"is_reserved":false,"is_disabled":false,"rental_uris":{"android":"levelo://app?vid=9ec8cc63-14ea-41e2-a32b-68a8e86d1e16","ios":"levelo://app?vid=9ec8cc63-14ea-41e2-a32b-68a8e86d1e16"},"vehicle_type_id":"4","last_reported":1740381010,"current_range_meters":9600,"station_id":"ce4bh9p2rcd13ifvqec0","pricing_plan_id":"cebpf4jnsgd1na2vs0mg"},{"bike_id":"18d9471e-34dc-42c9-bc81-b934af1d5e72","system_id":"levelo_inurba_marseille","lat":43.29803,"lon":5.38075,"is_reserved":false,"is_disabled":false,"rental_uris":{"android":"levelo://app?vid=18d9471e-34dc-42c9-bc81-b934af1d5e72","ios":"levelo://app?vid=18d9471e-34dc-42c9-bc81-b934af1d5e72"},"vehicle_type_id":"4","last_reported":1740381010,"current_range_meters":9600,"station_id":"ce4bgip2rcd13ifvqbb0","pricing_plan_id":"cebpf4jnsgd1na2vs0mg"},{"bike_id":"a3610751-bbe4-4d3e-a717-1a0eebd2fb2a","system_id":"levelo_inurba_marseille","lat":43.30655,"lon":5.37522,"is_reserved":false,"is_disabled":false,"rental_uris":{"android":"levelo://app?vid=a3610751-bbe4-4d3e-a717-1a0eebd2fb2a","ios":"levelo://app?vid=a3610751-bbe4-4d3e-a717-1a0eebd2fb2a"},"vehicle_type_id":"4","last_reported":1740381010,"current_range_meters":9600,"station_id":"","pricing_plan_id":"cebpf4jnsgd1na2vs0mg"},{"bike_id":"9c19ed5c-9da5-477e-a3ab-9b57c502f36e","system_id":"levelo_inurba_marseille","lat":43.2483,"lon":5.37478,"is_reserved":false,"is_disabled":false,"rental_uris":{"android":"levelo://app?vid=9c19ed5c-9da5-477e-a3ab-9b57c502f36e","ios":"levelo://app?vid=9c19ed5c-9da5-477e-a3ab-9b57c502f36e"},"vehicle_type_id":"4","last_reported":1740381010,"current_range_meters":10000,"station_id":"","pricing_plan_id":"cebpf4jnsgd1na2vs0mg"},{"bike_id":"62de5a89-44a5-4c13-82ee-056b994c42fa","system_id":"levelo_inurba_marseille","lat":43.27493,"lon":5.42452,"is_reserved":false,"is_disabled":false,"rental_uris":{"android":"levelo://app?vid=62de5a89-44a5-4c13-82ee-056b994c42fa","ios":"levelo://app?vid=62de5a89-44a5-4c13-82ee-056b994c42fa"},"vehicle_type_id":"4","last_reported":1740381010,"current_range_meters":10000,"station_id":"ce4bhn92rcd13ifvqgrg","pricing_plan_id":"cebpf4jnsgd1na2vs0mg"},{"bike_id":"012c8f70-ebce-432d-b7b1-1115a8687937","system_id":"levelo_inurba_marseille","lat":43.24803,"lon":5.37456,"is_reserved":false,"is_disabled":false,"rental_uris":{"android":"levelo://app?vid=012c8f70-ebce-432d-b7b1-1115a8687937","ios":"levelo://app?vid=012c8f70-ebce-432d-b7b1-1115a8687937"},"vehicle_type_id":"4","last_reported":1740381010,"current_range_meters":10000,"station_id":"ce4bhgh2rcd13ifvqfb0","pricing_plan_id":"cebpf4jnsgd1na2vs0mg"},{"bike_id":"dfdc8222-c420-4613-9e27-05383ac06669","system_id":"levelo_inurba_marseille","lat":43.3148,"lon":5.37256,"is_reserved":false,"is_disabled":false,"rental_uris":{"android":"levelo://app?vid=dfdc8222-c420-4613-9e27-05383ac06669","ios":"levelo://app?vid=dfdc8222-c420-4613-9e27-05383ac06669"},"vehicle_type_id":"4","last_reported":1740381010,"current_range_meters":10000,"station_id":"ce4bgt12rcd13ifvqcd0","pricing_plan_id":"cebpf4jnsgd1na2vs0mg"},{"bike_id":"28735acf-777d-4ad1-a503-cb11bdcf16a6","system_id":"levelo_inurba_marseille","lat":43.29624,"lon":5.37723,"is_reserved":false,"is_disabled":false,"rental_uris":{"android":"levelo://app?vid=28735acf-777d-4ad1-a503-cb11bdcf16a6","ios":"levelo://app?vid=28735acf-777d-4ad1-a503-cb11bdcf16a6"},"vehicle_type_id":"4","last_reported":1740381010,"current_range_meters":10000,"station_id":"ce4bgi92rcd13ifvqb90","pricing_plan_id":"cebpf4jnsgd1na2vs0mg"},{"bike_id":"35f7fe5f-b05d-405c-a155-dda0758733e2","system_id":"levelo_inurba_marseille","lat":43.28158,"lon":5.4266,"is_reserved":false,"is_disabled":true,"rental_uris":{"android":"levelo://app?vid=35f7fe5f-b05d-405c-a155-dda0758733e2","ios":"levelo://app?vid=35f7fe5f-b05d-405c-a155-dda0758733e2"},"vehicle_type_id":"4","last_reported":1740381010,"current_range_meters":10000,"station_id":"ce4bhnh2rcd13ifvqgug","pricing_plan_id":"cebpf4jnsgd1na2vs0mg"},{"bike_id":"9fdc5228-e835-4793-ad30-e5834cfd975b","system_id":"levelo_inurba_marseille","lat":43.25856,"lon":5.39927,"is_reserved":false,"is_disabled":false,"rental_uris":{"android":"levelo://app?vid=9fdc5228-e835-4793-ad30-e5834cfd975b","ios":"levelo://app?vid=9fdc5228-e835-4793-ad30-e5834cfd975b"},"vehicle_type_id":"4","last_reported":1740381010,"current_range_meters":10000,"station_id":"ce4bhl92rcd13ifvqghg","pricing_plan_id":"cebpf4jnsgd1na2vs0mg"},{"bike_id":"59cee8b2-041d-483f-9014-53e4c3fcc3d2","system_id":"levelo_inurba_marseille","lat":43.28271,"lon":5.35098,"is_reserved":false,"is_disabled":true,"rental_uris":{"android":"levelo://app?vid=59cee8b2-041d-483f-9014-53e4c3fcc3d2","ios":"levelo://app?vid=59cee8b2-041d-483f-9014-53e4c3fcc3d2"},"vehicle_type_id":"4","last_reported":1740381010,"current_range_meters":10000,"station_id":"ce4bhbp2rcd13ifvqerg","pricing_plan_id":"cebpf4jnsgd1na2vs0mg"},{"bike_id":"65b24aaf-95c9-4e3d-8265-052f02587eee","system_id":"levelo_inurba_marseille","lat":43.290489,"lon":5.375556,"is_reserved":false,"is_disabled":false,"rental_uris":{"android":"levelo://app?vid=65b24aaf-95c9-4e3d-8265-052f02587eee","ios":"levelo://app?vid=65b24aaf-95c9-4e3d-8265-052f02587eee"},"vehicle_type_id":"4","last_reported":1740381010,"current_range_meters":10000,"station_id":"","pricing_plan_id":"cebpf4jnsgd1na2vs0mg"},{"bike_id":"c4abef68-54bd-45bd-b2c0-4265c013ea72","system_id":"levelo_inurba_marseille","lat":43.24081,"lon":5.3775,"is_reserved":false,"is_disabled":false,"rental_uris":{"android":"levelo://app?vid=c4abef68-54bd-45bd-b2c0-4265c013ea72","ios":"levelo://app?vid=c4abef68-54bd-45bd-b2c0-4265c013ea72"},"vehicle_type_id":"4","last_reported":1740381010,"current_range_meters":10000,"station_id":"ce4bhnp2rcd13ifvqgvg","pricing_plan_id":"cebpf4jnsgd1na2vs0mg"},{"bike_id":"60289aa3-201f-4bea-a941-a015d73de6a7","system_id":"levelo_inurba_marseille","lat":43.26939,"lon":5.40264,"is_reserved":false,"is_disabled":false,"rental_uris":{"android":"levelo://app?vid=60289aa3-201f-4bea-a941-a015d73de6a7","ios":"levelo://app?vid=60289aa3-201f-4bea-a941-a015d73de6a7"},"vehicle_type_id":"4","last_reported":1740381010,"current_range_meters":10000,"station_id":"cjm6bp8fraef2m0cb0m0","pricing_plan_id":"cebpf4jnsgd1na2vs0mg"},{"bike_id":"b49d5e52-ea0b-48d3-8a70-3d9ea3251436","system_id":"levelo_inurba_marseille","lat":43.30139,"lon":5.39883,"is_reserved":false,"is_disabled":true,"rental_uris":{"android":"levelo://app?vid=b49d5e52-ea0b-48d3-8a70-3d9ea3251436","ios":"levelo://app?vid=b49d5e52-ea0b-48d3-8a70-3d9ea3251436"},"vehicle_type_id":"4","last_reported":1740381010,"current_range_meters":10800,"station_id":"ce4bh0h2rcd13ifvqd40","pricing_plan_id":"cebpf4jnsgd1na2vs0mg"},{"bike_id":"0733b99c-14c1-4744-99a7-4c59b20e9afc","system_id":"levelo_inurba_marseille","lat":43.27178,"lon":5.40992,"is_reserved":false,"is_disabled":false,"rental_uris":{"android":"levelo://app?vid=0733b99c-14c1-4744-99a7-4c59b20e9afc","ios":"levelo://app?vid=0733b99c-14c1-4744-99a7-4c59b20e9afc"},"vehicle_type_id":"4","last_reported":1740381010,"current_range_meters":10800,"station_id":"ce4bhl12rcd13ifvqgf0","pricing_plan_id":"cebpf4jnsgd1na2vs0mg"},{"bike_id":"bd3cd35d-8872-4079-b434-dfe718238ac3","system_id":"levelo_inurba_marseille","lat":43.32365,"lon":5.38888,"is_reserved":false,"is_disabled":false,"rental_uris":{"android":"levelo://app?vid=bd3cd35d-8872-4079-b434-dfe718238ac3","ios":"levelo://app?vid=bd3cd35d-8872-4079-b434-dfe718238ac3"},"vehicle_type_id":"4","last_reported":1740381010,"current_range_meters":10800,"station_id":"ce4bhqp2rcd13ifvqhog","pricing_plan_id":"cebpf4jnsgd1na2vs0mg"},{"bike_id":"0164ca90-d755-45a3-b7b4-83f0aa4362ef","system_id":"levelo_inurba_marseille","lat":43.320338,"lon":5.415711,"is_reserved":false,"is_disabled":false,"rental_uris":{"android":"levelo://app?vid=0164ca90-d755-45a3-b7b4-83f0aa4362ef","ios":"levelo://app?vid=0164ca90-d755-45a3-b7b4-83f0aa4362ef"},"vehicle_type_id":"4","last_reported":1740381010,"current_range_meters":10800,"station_id":"ce4bhq92rcd13ifvqhkg","pricing_plan_id":"cebpf4jnsgd1na2vs0mg"},{"bike_id":"34b60e4e-03ef-486b-8103-9545ecdbc1e1","system_id":"levelo_inurba_marseille","lat":43.26779,"lon":5.3944,"is_reserved":false,"is_disabled":true,"rental_uris":{"android":"levelo://app?vid=34b60e4e-03ef-486b-8103-9545ecdbc1e1","ios":"levelo://app?vid=34b60e4e-03ef-486b-8103-9545ecdbc1e1"},"vehicle_type_id":"4","last_reported":1740381010,"current_range_meters":10800,"station_id":"ce4bhh12rcd13ifvqfg0","pricing_plan_id":"cebpf4jnsgd1na2vs0mg"},{"bike_id":"860eff15-4aff-4d92-8690-98414ae73df2","system_id":"levelo_inurba_marseille","lat":43.26507,"lon":5.3906,"is_reserved":false,"is_disabled":true,"rental_uris":{"android":"levelo://app?vid=860eff15-4aff-4d92-8690-98414ae73df2","ios":"levelo://app?vid=860eff15-4aff-4d92-8690-98414ae73df2"},"vehicle_type_id":"4","last_reported":1740381010,"current_range_meters":10800,"station_id":"ce4bhe12rcd13ifvqf30","pricing_plan_id":"cebpf4jnsgd1na2vs0mg"},{"bike_id":"5c89da34-efd7-46ec-88fb-42cf783587ce","system_id":"levelo_inurba_marseille","lat":43.28293,"lon":5.43227,"is_reserved":false,"is_disabled":false,"rental_uris":{"android":"levelo://app?vid=5c89da34-efd7-46ec-88fb-42cf783587ce","ios":"levelo://app?vid=5c89da34-efd7-46ec-88fb-42cf783587ce"},"vehicle_type_id":"4","last_reported":1740381010,"current_range_meters":10800,"station_id":"","pricing_plan_id":"cebpf4jnsgd1na2vs0mg"},{"bike_id":"86fb0940-ae6b-46b1-a8e5-9c040ab1f0ef","system_id":"levelo_inurba_marseille","lat":43.3014,"lon":5.37421,"is_reserved":false,"is_disabled":false,"rental_uris":{"android":"levelo://app?vid=86fb0940-ae6b-46b1-a8e5-9c040ab1f0ef","ios":"levelo://app?vid=86fb0940-ae6b-46b1-a8e5-9c040ab1f0ef"},"vehicle_type_id":"4","last_reported":1740381010,"current_range_meters":10800,"station_id":"ce4bgs92rcd13ifvqcc0","pricing_plan_id":"cebpf4jnsgd1na2vs0mg"},{"bike_id":"731b2407-4c38-40b4-b725-2dab0583194a","system_id":"levelo_inurba_marseille","lat":43.25083,"lon":5.39491,"is_reserved":false,"is_disabled":false,"rental_uris":{"android":"levelo://app?vid=731b2407-4c38-40b4-b725-2dab0583194a","ios":"levelo://app?vid=731b2407-4c38-40b4-b725-2dab0583194a"},"vehicle_type_id":"4","last_reported":1740381010,"current_range_meters":10800,"station_id":"ce4bhm12rcd13ifvqgkg","pricing_plan_id":"cebpf4jnsgd1na2vs0mg"},{"bike_id":"cc2c257a-f9ef-420a-b79a-34b7b057f9ca","system_id":"levelo_inurba_marseille","lat":43.30146,"lon":5.37408,"is_reserved":false,"is_disabled":false,"rental_uris":{"android":"levelo://app?vid=cc2c257a-f9ef-420a-b79a-34b7b057f9ca","ios":"levelo://app?vid=cc2c257a-f9ef-420a-b79a-34b7b057f9ca"},"vehicle_type_id":"4","last_reported":1740381010,"current_range_meters":11200,"station_id":"ce4bgs92rcd13ifvqcc0","pricing_plan_id":"cebpf4jnsgd1na2vs0mg"},{"bike_id":"ada63238-8d3b-4193-9841-f7299b305fa4","system_id":"levelo_inurba_marseille","lat":43.2871,"lon":5.3794,"is_reserved":false,"is_disabled":false,"rental_uris":{"android":"levelo://app?vid=ada63238-8d3b-4193-9841-f7299b305fa4","ios":"levelo://app?vid=ada63238-8d3b-4193-9841-f7299b305fa4"},"vehicle_type_id":"4","last_reported":1740381010,"current_range_meters":11200,"station_id":"ce4bh9p2rcd13ifvqec0","pricing_plan_id":"cebpf4jnsgd1na2vs0mg"},{"bike_id":"febe72e5-6b3a-47b7-a672-fd77a339193f","system_id":"levelo_inurba_marseille","lat":43.29189,"lon":5.39319,"is_reserved":false,"is_disabled":false,"rental_uris":{"android":"levelo://app?vid=febe72e5-6b3a-47b7-a672-fd77a339193f","ios":"levelo://app?vid=febe72e5-6b3a-47b7-a672-fd77a339193f"},"vehicle_type_id":"4","last_reported":1740381010,"current_range_meters":11200,"station_id":"ce4bh192rcd13ifvqdd0","pricing_plan_id":"cebpf4jnsgd1na2vs0mg"},{"bike_id":"87cd03be-0ff7-48bc-9ce2-8c3c9f1d1312","system_id":"levelo_inurba_marseille","lat":43.30889,"lon":5.39636,"is_reserved":false,"is_disabled":false,"rental_uris":{"android":"levelo://app?vid=87cd03be-0ff7-48bc-9ce2-8c3c9f1d1312","ios":"levelo://app?vid=87cd03be-0ff7-48bc-9ce2-8c3c9f1d1312"},"vehicle_type_id":"4","last_reported":1740381010,"current_range_meters":11200,"station_id":"ce4bh012rcd13ifvqcv0","pricing_plan_id":"cebpf4jnsgd1na2vs0mg"},{"bike_id":"af0fea54-90aa-4ab8-9100-0ca4c9f1f15a","system_id":"levelo_inurba_marseille","lat":43.29289,"lon":5.37475,"is_reserved":false,"is_disabled":false,"rental_uris":{"android":"levelo://app?vid=af0fea54-90aa-4ab8-9100-0ca4c9f1f15a","ios":"levelo://app?vid=af0fea54-90aa-4ab8-9100-0ca4c9f1f15a"},"vehicle_type_id":"4","last_reported":1740381010,"current_range_meters":11200,"station_id":"ce4bgi12rcd13ifvqb70","pricing_plan_id":"cebpf4jnsgd1na2vs0mg"},{"bike_id":"1e88ff06-321f-4203-b996-fede3544a947","system_id":"levelo_inurba_marseille","lat":43.291972,"lon":5.393212,"is_reserved":false,"is_disabled":false,"rental_uris":{"android":"levelo://app?vid=1e88ff06-321f-4203-b996-fede3544a947","ios":"levelo://app?vid=1e88ff06-321f-4203-b996-fede3544a947"},"vehicle_type_id":"4","last_reported":1740381010,"current_range_meters":11200,"station_id":"ce4bh192rcd13ifvqdd0","pricing_plan_id":"cebpf4jnsgd1na2vs0mg"},{"bike_id":"6d3a28fb-ad8e-4099-ab7e-2f1842cf0da6","system_id":"levelo_inurba_marseille","lat":43.31994,"lon":5.38152,"is_reserved":false,"is_disabled":false,"rental_uris":{"android":"levelo://app?vid=6d3a28fb-ad8e-4099-ab7e-2f1842cf0da6","ios":"levelo://app?vid=6d3a28fb-ad8e-4099-ab7e-2f1842cf0da6"},"vehicle_type_id":"4","last_reported":1740381010,"current_range_meters":11600,"station_id":"ce4bhr12rcd13ifvqhpg","pricing_plan_id":"cebpf4jnsgd1na2vs0mg"},{"bike_id":"9faf844a-413f-419f-bdea-64830f7f2bfb","system_id":"levelo_inurba_marseille","lat":43.299133,"lon":5.37862,"is_reserved":false,"is_disabled":false,"rental_uris":{"android":"levelo://app?vid=9faf844a-413f-419f-bdea-64830f7f2bfb","ios":"levelo://app?vid=9faf844a-413f-419f-bdea-64830f7f2bfb"},"vehicle_type_id":"4","last_reported":1740381010,"current_range_meters":11600,"station_id":"","pricing_plan_id":"cebpf4jnsgd1na2vs0mg"},{"bike_id":"5ca04e06-abd0-4c06-847d-0b70eb7a9340","system_id":"levelo_inurba_marseille","lat":43.3137,"lon":5.38505,"is_reserved":false,"is_disabled":false,"rental_uris":{"android":"levelo://app?vid=5ca04e06-abd0-4c06-847d-0b70eb7a9340","ios":"levelo://app?vid=5ca04e06-abd0-4c06-847d-0b70eb7a9340"},"vehicle_type_id":"4","last_reported":1740381010,"current_range_meters":11600,"station_id":"ce4bgt92rcd13ifvqcf0","pricing_plan_id":"cebpf4jnsgd1na2vs0mg"},{"bike_id":"fc93a0cd-d658-4fe7-9e6a-52a49333f268","system_id":"levelo_inurba_marseille","lat":43.30805,"lon":5.38204,"is_reserved":false,"is_disabled":false,"rental_uris":{"android":"levelo://app?vid=fc93a0cd-d658-4fe7-9e6a-52a49333f268","ios":"levelo://app?vid=fc93a0cd-d658-4fe7-9e6a-52a49333f268"},"vehicle_type_id":"4","last_reported":1740381010,"current_range_meters":11600,"station_id":"ce4bgt12rcd13ifvqce0","pricing_plan_id":"cebpf4jnsgd1na2vs0mg"},{"bike_id":"415c2104-39b5-4ab3-9d80-d169701df5e0","system_id":"levelo_inurba_marseille","lat":43.28936,"lon":5.3664,"is_reserved":false,"is_disabled":false,"rental_uris":{"android":"levelo://app?vid=415c2104-39b5-4ab3-9d80-d169701df5e0","ios":"levelo://app?vid=415c2104-39b5-4ab3-9d80-d169701df5e0"},"vehicle_type_id":"4","last_reported":1740381010,"current_range_meters":12000,"station_id":"ce4bhap2rcd13ifvqek0","pricing_plan_id":"cebpf4jnsgd1na2vs0mg"},{"bike_id":"2febd218-0f15-49bf-b304-2d8de09b1951","system_id":"levelo_inurba_marseille","lat":43.30269,"lon":5.3771,"is_reserved":false,"is_disabled":false,"rental_uris":{"android":"levelo://app?vid=2febd218-0f15-49bf-b304-2d8de09b1951","ios":"levelo://app?vid=2febd218-0f15-49bf-b304-2d8de09b1951"},"vehicle_type_id":"4","last_reported":1740381010,"current_range_meters":12000,"station_id":"ce4bguh2rcd13ifvqcj0","pricing_plan_id":"cebpf4jnsgd1na2vs0mg"},{"bike_id":"f3796124-833f-4465-95f3-ed1407466995","system_id":"levelo_inurba_marseille","lat":43.30955,"lon":5.39055,"is_reserved":false,"is_disabled":false,"rental_uris":{"android":"levelo://app?vid=f3796124-833f-4465-95f3-ed1407466995","ios":"levelo://app?vid=f3796124-833f-4465-95f3-ed1407466995"},"vehicle_type_id":"4","last_reported":1740381010,"current_range_meters":12000,"station_id":"ce4bgup2rcd13ifvqco0","pricing_plan_id":"cebpf4jnsgd1na2vs0mg"},{"bike_id":"10a9365f-072c-4bc6-9967-75e3cf71bc73","system_id":"levelo_inurba_marseille","lat":43.26323,"lon":5.39635,"is_reserved":false,"is_disabled":false,"rental_uris":{"android":"levelo://app?vid=10a9365f-072c-4bc6-9967-75e3cf71bc73","ios":"levelo://app?vid=10a9365f-072c-4bc6-9967-75e3cf71bc73"},"vehicle_type_id":"4","last_reported":1740381010,"current_range_meters":12000,"station_id":"","pricing_plan_id":"cebpf4jnsgd1na2vs0mg"},{"bike_id":"3fe402df-efb2-421d-9441-7aab75d83404","system_id":"levelo_inurba_marseille","lat":43.23158,"lon":5.43734,"is_reserved":false,"is_disabled":false,"rental_uris":{"android":"levelo://app?vid=3fe402df-efb2-421d-9441-7aab75d83404","ios":"levelo://app?vid=3fe402df-efb2-421d-9441-7aab75d83404"},"vehicle_type_id":"4","last_reported":1740381010,"current_range_meters":12400,"station_id":"ce4bhmp2rcd13ifvqgog","pricing_plan_id":"cebpf4jnsgd1na2vs0mg"},{"bike_id":"51c7c09f-82e9-4a4b-a201-54869c0fba8f","system_id":"levelo_inurba_marseille","lat":43.25097,"lon":5.39545,"is_reserved":false,"is_disabled":true,"rental_uris":{"android":"levelo://app?vid=51c7c09f-82e9-4a4b-a201-54869c0fba8f","ios":"levelo://app?vid=51c7c09f-82e9-4a4b-a201-54869c0fba8f"},"vehicle_type_id":"4","last_reported":1740381010,"current_range_meters":12400,"station_id":"ce4bhm12rcd13ifvqgkg","pricing_plan_id":"cebpf4jnsgd1na2vs0mg"},{"bike_id":"87c93845-143c-4613-9a0d-08836448a26d","system_id":"levelo_inurba_marseille","lat":43.23953,"lon":5.36634,"is_reserved":false,"is_disabled":false,"rental_uris":{"android":"levelo://app?vid=87c93845-143c-4613-9a0d-08836448a26d","ios":"levelo://app?vid=87c93845-143c-4613-9a0d-08836448a26d"},"vehicle_type_id":"4","last_reported":1740381010,"current_range_meters":12400,"station_id":"ce4bhi12rcd13ifvqfp0","pricing_plan_id":"cebpf4jnsgd1na2vs0mg"},{"bike_id":"a85dea3d-d4f1-4002-bf3e-2b6ec1fa25b3","system_id":"levelo_inurba_marseille","lat":43.26186,"lon":5.40453,"is_reserved":false,"is_disabled":false,"rental_uris":{"android":"levelo://app?vid=a85dea3d-d4f1-4002-bf3e-2b6ec1fa25b3","ios":"levelo://app?vid=a85dea3d-d4f1-4002-bf3e-2b6ec1fa25b3"},"vehicle_type_id":"4","last_reported":1740381010,"current_range_meters":12400,"station_id":"ce4bhmh2rcd13ifvqgmg","pricing_plan_id":"cebpf4jnsgd1na2vs0mg"},{"bike_id":"80bf6ebd-cdb4-457f-8201-e83d8231140f","system_id":"levelo_inurba_marseille","lat":43.29034,"lon":5.38646,"is_reserved":false,"is_disabled":false,"rental_uris":{"android":"levelo://app?vid=80bf6ebd-cdb4-457f-8201-e83d8231140f","ios":"levelo://app?vid=80bf6ebd-cdb4-457f-8201-e83d8231140f"},"vehicle_type_id":"4","last_reported":1740381010,"current_range_meters":12400,"station_id":"ce4bh4p2rcd13ifvqe0g","pricing_plan_id":"cebpf4jnsgd1na2vs0mg"},{"bike_id":"b71f5752-c890-416d-90df-2b38a153e41b","system_id":"levelo_inurba_marseille","lat":43.26209,"lon":5.40482,"is_reserved":false,"is_disabled":false,"rental_uris":{"android":"levelo://app?vid=b71f5752-c890-416d-90df-2b38a153e41b","ios":"levelo://app?vid=b71f5752-c890-416d-90df-2b38a153e41b"},"vehicle_type_id":"4","last_reported":1740381010,"current_range_meters":13600,"station_id":"ce4bhmh2rcd13ifvqgmg","pricing_plan_id":"cebpf4jnsgd1na2vs0mg"},{"bike_id":"77e2a727-5e32-4608-a3f2-9f5a60be0a14","system_id":"levelo_inurba_marseille","lat":43.30468,"lon":5.37907,"is_reserved":false,"is_disabled":false,"rental_uris":{"android":"levelo://app?vid=77e2a727-5e32-4608-a3f2-9f5a60be0a14","ios":"levelo://app?vid=77e2a727-5e32-4608-a3f2-9f5a60be0a14"},"vehicle_type_id":"4","last_reported":1740381010,"current_range_meters":13600,"station_id":"ce4bgup2rcd13ifvqcn0","pricing_plan_id":"cebpf4jnsgd1na2vs0mg"},{"bike_id":"9a4a2d20-d6fb-4142-97c2-47a44afc45bd","system_id":"levelo_inurba_marseille","lat":43.30222,"lon":5.4004,"is_reserved":false,"is_disabled":false,"rental_uris":{"android":"levelo://app?vid=9a4a2d20-d6fb-4142-97c2-47a44afc45bd","ios":"levelo://app?vid=9a4a2d20-d6fb-4142-97c2-47a44afc45bd"},"vehicle_type_id":"4","last_reported":1740381010,"current_range_meters":13600,"station_id":"","pricing_plan_id":"cebpf4jnsgd1na2vs0mg"},{"bike_id":"f552ed34-6521-4177-92e6-a88032cb18f0","system_id":"levelo_inurba_marseille","lat":43.29538,"lon":5.385472,"is_reserved":false,"is_disabled":false,"rental_uris":{"android":"levelo://app?vid=f552ed34-6521-4177-92e6-a88032cb18f0","ios":"levelo://app?vid=f552ed34-6521-4177-92e6-a88032cb18f0"},"vehicle_type_id":"4","last_reported":1740381010,"current_range_meters":13600,"station_id":"ce4bgrp2rcd13ifvqc9g","pricing_plan_id":"cebpf4jnsgd1na2vs0mg"},{"bike_id":"7fe0996e-2e24-4a3a-b975-03a2a20f6506","system_id":"levelo_inurba_marseille","lat":43.32356,"lon":5.36752,"is_reserved":false,"is_disabled":false,"rental_uris":{"android":"levelo://app?vid=7fe0996e-2e24-4a3a-b975-03a2a20f6506","ios":"levelo://app?vid=7fe0996e-2e24-4a3a-b975-03a2a20f6506"},"vehicle_type_id":"4","last_reported":1740381010,"current_range_meters":14000,"station_id":"ce4bhsh2rcd13ifvqi2g","pricing_plan_id":"cebpf4jnsgd1na2vs0mg"},{"bike_id":"a2a7b9e1-e732-4de6-90e9-b6554c228af8","system_id":"levelo_inurba_marseille","lat":43.28058,"lon":5.35288,"is_reserved":false,"is_disabled":false,"rental_uris":{"android":"levelo://app?vid=a2a7b9e1-e732-4de6-90e9-b6554c228af8","ios":"levelo://app?vid=a2a7b9e1-e732-4de6-90e9-b6554c228af8"},"vehicle_type_id":"4","last_reported":1740381010,"current_range_meters":14000,"station_id":"","pricing_plan_id":"cebpf4jnsgd1na2vs0mg"},{"bike_id":"ebed167f-fde3-4da7-9d94-773754c47396","system_id":"levelo_inurba_marseille","lat":43.311223,"lon":5.377582,"is_reserved":false,"is_disabled":false,"rental_uris":{"android":"levelo://app?vid=ebed167f-fde3-4da7-9d94-773754c47396","ios":"levelo://app?vid=ebed167f-fde3-4da7-9d94-773754c47396"},"vehicle_type_id":"4","last_reported":1740381010,"current_range_meters":14000,"station_id":"ce4bgt92rcd13ifvqcg0","pricing_plan_id":"cebpf4jnsgd1na2vs0mg"},{"bike_id":"427065c3-06bb-4de2-9cdd-4b6c81431816","system_id":"levelo_inurba_marseille","lat":43.24078,"lon":5.37758,"is_reserved":false,"is_disabled":false,"rental_uris":{"android":"levelo://app?vid=427065c3-06bb-4de2-9cdd-4b6c81431816","ios":"levelo://app?vid=427065c3-06bb-4de2-9cdd-4b6c81431816"},"vehicle_type_id":"4","last_reported":1740381010,"current_range_meters":14000,"station_id":"ce4bhnp2rcd13ifvqgvg","pricing_plan_id":"cebpf4jnsgd1na2vs0mg"},{"bike_id":"dc54d4c7-bc24-4392-9110-799e297e7337","system_id":"levelo_inurba_marseille","lat":43.29317,"lon":5.37249,"is_reserved":false,"is_disabled":false,"rental_uris":{"android":"levelo://app?vid=dc54d4c7-bc24-4392-9110-799e297e7337","ios":"levelo://app?vid=dc54d4c7-bc24-4392-9110-799e297e7337"},"vehicle_type_id":"4","last_reported":1740381010,"current_range_meters":14000,"station_id":"","pricing_plan_id":"cebpf4jnsgd1na2vs0mg"},{"bike_id":"e5cd9cf4-3da8-45a1-bacc-b2e0eca67e8e","system_id":"levelo_inurba_marseille","lat":43.2959,"lon":5.38102,"is_reserved":false,"is_disabled":false,"rental_uris":{"android":"levelo://app?vid=e5cd9cf4-3da8-45a1-bacc-b2e0eca67e8e","ios":"levelo://app?vid=e5cd9cf4-3da8-45a1-bacc-b2e0eca67e8e"},"vehicle_type_id":"4","last_reported":1740381010,"current_range_meters":14000,"station_id":"ce4bgl12rcd13ifvqbo0","pricing_plan_id":"cebpf4jnsgd1na2vs0mg"},{"bike_id":"25ef5a1f-5aec-48a2-a786-541af88b2004","system_id":"levelo_inurba_marseille","lat":43.30362,"lon":5.39443,"is_reserved":false,"is_disabled":false,"rental_uris":{"android":"levelo://app?vid=25ef5a1f-5aec-48a2-a786-541af88b2004","ios":"levelo://app?vid=25ef5a1f-5aec-48a2-a786-541af88b2004"},"vehicle_type_id":"4","last_reported":1740381010,"current_range_meters":14400,"station_id":"","pricing_plan_id":"cebpf4jnsgd1na2vs0mg"},{"bike_id":"41a2216f-8b22-4f4f-9eac-5e2283bcdb4b","system_id":"levelo_inurba_marseille","lat":43.28142,"lon":5.42661,"is_reserved":false,"is_disabled":true,"rental_uris":{"android":"levelo://app?vid=41a2216f-8b22-4f4f-9eac-5e2283bcdb4b","ios":"levelo://app?vid=41a2216f-8b22-4f4f-9eac-5e2283bcdb4b"},"vehicle_type_id":"4","last_reported":1740381010,"current_range_meters":14400,"station_id":"ce4bhnh2rcd13ifvqgug","pricing_plan_id":"cebpf4jnsgd1na2vs0mg"},{"bike_id":"1ef41376-cd3a-40a3-ae4a-f23a2a34fc30","system_id":"levelo_inurba_marseille","lat":43.2765,"lon":5.38974,"is_reserved":false,"is_disabled":true,"rental_uris":{"android":"levelo://app?vid=1ef41376-cd3a-40a3-ae4a-f23a2a34fc30","ios":"levelo://app?vid=1ef41376-cd3a-40a3-ae4a-f23a2a34fc30"},"vehicle_type_id":"4","last_reported":1740381010,"current_range_meters":14400,"station_id":"ce4bhi12rcd13ifvqfo0","pricing_plan_id":"cebpf4jnsgd1na2vs0mg"},{"bike_id":"55e8dfe4-3690-4fe4-a013-f8375845b432","system_id":"levelo_inurba_marseille","lat":43.25924,"lon":5.40884,"is_reserved":false,"is_disabled":false,"rental_uris":{"android":"levelo://app?vid=55e8dfe4-3690-4fe4-a013-f8375845b432","ios":"levelo://app?vid=55e8dfe4-3690-4fe4-a013-f8375845b432"},"vehicle_type_id":"4","last_reported":1740381010,"current_range_meters":14400,"station_id":"ce4bhm92rcd13ifvqglg","pricing_plan_id":"cebpf4jnsgd1na2vs0mg"},{"bike_id":"c12823c9-47e8-4930-a397-98d423876f45","system_id":"levelo_inurba_marseille","lat":43.30465,"lon":5.379098,"is_reserved":false,"is_disabled":false,"rental_uris":{"android":"levelo://app?vid=c12823c9-47e8-4930-a397-98d423876f45","ios":"levelo://app?vid=c12823c9-47e8-4930-a397-98d423876f45"},"vehicle_type_id":"4","last_reported":1740381010,"current_range_meters":14400,"station_id":"ce4bgt92rcd13ifvqcg0","pricing_plan_id":"cebpf4jnsgd1na2vs0mg"},{"bike_id":"a2d6ae3f-66f4-4649-ba0a-99967149441d","system_id":"levelo_inurba_marseille","lat":43.29547,"lon":5.3611,"is_reserved":false,"is_disabled":false,"rental_uris":{"android":"levelo://app?vid=a2d6ae3f-66f4-4649-ba0a-99967149441d","ios":"levelo://app?vid=a2d6ae3f-66f4-4649-ba0a-99967149441d"},"vehicle_type_id":"4","last_reported":1740381010,"current_range_meters":14400,"station_id":"","pricing_plan_id":"cebpf4jnsgd1na2vs0mg"},{"bike_id":"ecbde4f5-7c94-4d4a-b617-8f3106853853","system_id":"levelo_inurba_marseille","lat":43.27488,"lon":5.42454,"is_reserved":false,"is_disabled":false,"rental_uris":{"android":"levelo://app?vid=ecbde4f5-7c94-4d4a-b617-8f3106853853","ios":"levelo://app?vid=ecbde4f5-7c94-4d4a-b617-8f3106853853"},"vehicle_type_id":"4","last_reported":1740381010,"current_range_meters":14400,"station_id":"ce4bhn92rcd13ifvqgrg","pricing_plan_id":"cebpf4jnsgd1na2vs0mg"},{"bike_id":"9ec80d5d-5365-4fe8-b1b8-741c81741c1c","system_id":"levelo_inurba_marseille","lat":43.27708,"lon":5.4081,"is_reserved":false,"is_disabled":false,"rental_uris":{"android":"levelo://app?vid=9ec80d5d-5365-4fe8-b1b8-741c81741c1c","ios":"levelo://app?vid=9ec80d5d-5365-4fe8-b1b8-741c81741c1c"},"vehicle_type_id":"4","last_reported":1740381010,"current_range_meters":14800,"station_id":"","pricing_plan_id":"cebpf4jnsgd1na2vs0mg"},{"bike_id":"281f023c-1419-4a74-9183-6a29eb02329e","system_id":"levelo_inurba_marseille","lat":43.28927,"lon":5.38458,"is_reserved":false,"is_disabled":false,"rental_uris":{"android":"levelo://app?vid=281f023c-1419-4a74-9183-6a29eb02329e","ios":"levelo://app?vid=281f023c-1419-4a74-9183-6a29eb02329e"},"vehicle_type_id":"4","last_reported":1740381010,"current_range_meters":14800,"station_id":"ce4bh612rcd13ifvqe6g","pricing_plan_id":"cebpf4jnsgd1na2vs0mg"},{"bike_id":"abd7081e-7230-47ff-9e6a-ae679d4113e9","system_id":"levelo_inurba_marseille","lat":43.290375,"lon":5.399733,"is_reserved":false,"is_disabled":false,"rental_uris":{"android":"levelo://app?vid=abd7081e-7230-47ff-9e6a-ae679d4113e9","ios":"levelo://app?vid=abd7081e-7230-47ff-9e6a-ae679d4113e9"},"vehicle_type_id":"4","last_reported":1740381010,"current_range_meters":14800,"station_id":"ce4bh392rcd13ifvqdm0","pricing_plan_id":"cebpf4jnsgd1na2vs0mg"},{"bike_id":"e75c0d85-8728-4a49-b32c-56ebf5735a6f","system_id":"levelo_inurba_marseille","lat":43.30539,"lon":5.36711,"is_reserved":false,"is_disabled":false,"rental_uris":{"android":"levelo://app?vid=e75c0d85-8728-4a49-b32c-56ebf5735a6f","ios":"levelo://app?vid=e75c0d85-8728-4a49-b32c-56ebf5735a6f"},"vehicle_type_id":"4","last_reported":1740381010,"current_range_meters":14800,"station_id":"ce4bgrp2rcd13ifvqc9g","pricing_plan_id":"cebpf4jnsgd1na2vs0mg"},{"bike_id":"738d7062-e684-48a6-b108-52fbc1509e4e","system_id":"levelo_inurba_marseille","lat":43.292111,"lon":5.393291,"is_reserved":false,"is_disabled":false,"rental_uris":{"android":"levelo://app?vid=738d7062-e684-48a6-b108-52fbc1509e4e","ios":"levelo://app?vid=738d7062-e684-48a6-b108-52fbc1509e4e"},"vehicle_type_id":"4","last_reported":1740381010,"current_range_meters":14800,"station_id":"ce4bh192rcd13ifvqdd0","pricing_plan_id":"cebpf4jnsgd1na2vs0mg"},{"bike_id":"f3414e77-2212-403a-a4af-ec84d2672794","system_id":"levelo_inurba_marseille","lat":43.31359,"lon":5.3849,"is_reserved":false,"is_disabled":false,"rental_uris":{"android":"levelo://app?vid=f3414e77-2212-403a-a4af-ec84d2672794","ios":"levelo://app?vid=f3414e77-2212-403a-a4af-ec84d2672794"},"vehicle_type_id":"4","last_reported":1740381010,"current_range_meters":15200,"station_id":"ce4bgt92rcd13ifvqcf0","pricing_plan_id":"cebpf4jnsgd1na2vs0mg"},{"bike_id":"b17e5ed9-6143-4a15-8968-367fc0b46e2c","system_id":"levelo_inurba_marseille","lat":43.30886,"lon":5.39606,"is_reserved":false,"is_disabled":false,"rental_uris":{"android":"levelo://app?vid=b17e5ed9-6143-4a15-8968-367fc0b46e2c","ios":"levelo://app?vid=b17e5ed9-6143-4a15-8968-367fc0b46e2c"},"vehicle_type_id":"4","last_reported":1740381010,"current_range_meters":15200,"station_id":"ce4bh012rcd13ifvqcv0","pricing_plan_id":"cebpf4jnsgd1na2vs0mg"},{"bike_id":"da805173-c32f-4615-b8c5-69bdaf0f2e7f","system_id":"levelo_inurba_marseille","lat":43.29008,"lon":5.35638,"is_reserved":false,"is_disabled":true,"rental_uris":{"android":"levelo://app?vid=da805173-c32f-4615-b8c5-69bdaf0f2e7f","ios":"levelo://app?vid=da805173-c32f-4615-b8c5-69bdaf0f2e7f"},"vehicle_type_id":"4","last_reported":1740381010,"current_range_meters":15200,"station_id":"ce4bhb92rcd13ifvqen0","pricing_plan_id":"cebpf4jnsgd1na2vs0mg"},{"bike_id":"ec6547c1-b07c-4c37-a061-60796a7363ff","system_id":"levelo_inurba_marseille","lat":43.29224,"lon":5.36073,"is_reserved":false,"is_disabled":false,"rental_uris":{"android":"levelo://app?vid=ec6547c1-b07c-4c37-a061-60796a7363ff","ios":"levelo://app?vid=ec6547c1-b07c-4c37-a061-60796a7363ff"},"vehicle_type_id":"4","last_reported":1740381010,"current_range_meters":15200,"station_id":"ce4bhbh2rcd13ifvqeqg","pricing_plan_id":"cebpf4jnsgd1na2vs0mg"},{"bike_id":"38d4b5b8-d8a2-46ef-87ba-e5cf58e153b6","system_id":"levelo_inurba_marseille","lat":43.30355,"lon":5.41873,"is_reserved":false,"is_disabled":false,"rental_uris":{"android":"levelo://app?vid=38d4b5b8-d8a2-46ef-87ba-e5cf58e153b6","ios":"levelo://app?vid=38d4b5b8-d8a2-46ef-87ba-e5cf58e153b6"},"vehicle_type_id":"4","last_reported":1740381010,"current_range_meters":15200,"station_id":"ce4bhop2rcd13ifvqh7g","pricing_plan_id":"cebpf4jnsgd1na2vs0mg"},{"bike_id":"b5a1d484-9e63-43b3-9bbc-06f2df1a2c91","system_id":"levelo_inurba_marseille","lat":43.292101,"lon":5.393133,"is_reserved":false,"is_disabled":false,"rental_uris":{"android":"levelo://app?vid=b5a1d484-9e63-43b3-9bbc-06f2df1a2c91","ios":"levelo://app?vid=b5a1d484-9e63-43b3-9bbc-06f2df1a2c91"},"vehicle_type_id":"4","last_reported":1740381010,"current_range_meters":16000,"station_id":"ce4bh192rcd13ifvqdd0","pricing_plan_id":"cebpf4jnsgd1na2vs0mg"},{"bike_id":"cd1ed5da-4193-4b1f-828e-88308d393b06","system_id":"levelo_inurba_marseille","lat":43.33626,"lon":5.40989,"is_reserved":false,"is_disabled":false,"rental_uris":{"android":"levelo://app?vid=cd1ed5da-4193-4b1f-828e-88308d393b06","ios":"levelo://app?vid=cd1ed5da-4193-4b1f-828e-88308d393b06"},"vehicle_type_id":"4","last_reported":1740381010,"current_range_meters":16000,"station_id":"ce4bhqh2rcd13ifvqhmg","pricing_plan_id":"cebpf4jnsgd1na2vs0mg"},{"bike_id":"d0f9baeb-9149-42dc-b55d-2776f262fab0","system_id":"levelo_inurba_marseille","lat":43.27489,"lon":5.4245,"is_reserved":false,"is_disabled":false,"rental_uris":{"android":"levelo://app?vid=d0f9baeb-9149-42dc-b55d-2776f262fab0","ios":"levelo://app?vid=d0f9baeb-9149-42dc-b55d-2776f262fab0"},"vehicle_type_id":"4","last_reported":1740381010,"current_range_meters":16000,"station_id":"ce4bhn92rcd13ifvqgrg","pricing_plan_id":"cebpf4jnsgd1na2vs0mg"},{"bike_id":"470cf5e7-7964-4eba-b068-2cb407bcc686","system_id":"levelo_inurba_marseille","lat":43.29033,"lon":5.39981,"is_reserved":false,"is_disabled":false,"rental_uris":{"android":"levelo://app?vid=470cf5e7-7964-4eba-b068-2cb407bcc686","ios":"levelo://app?vid=470cf5e7-7964-4eba-b068-2cb407bcc686"},"vehicle_type_id":"4","last_reported":1740381010,"current_range_meters":16000,"station_id":"ce4bh392rcd13ifvqdm0","pricing_plan_id":"cebpf4jnsgd1na2vs0mg"},{"bike_id":"aacf8858-9d1e-4b81-bbf1-12eb2db8a7c5","system_id":"levelo_inurba_marseille","lat":43.27057,"lon":5.40264,"is_reserved":false,"is_disabled":false,"rental_uris":{"android":"levelo://app?vid=aacf8858-9d1e-4b81-bbf1-12eb2db8a7c5","ios":"levelo://app?vid=aacf8858-9d1e-4b81-bbf1-12eb2db8a7c5"},"vehicle_type_id":"4","last_reported":1740381010,"current_range_meters":16000,"station_id":"ce4bhk92rcd13ifvqgc0","pricing_plan_id":"cebpf4jnsgd1na2vs0mg"},{"bike_id":"b6c67d47-6b6c-433b-9cf7-69638e23cd88","system_id":"levelo_inurba_marseille","lat":43.28404,"lon":5.37534,"is_reserved":false,"is_disabled":false,"rental_uris":{"android":"levelo://app?vid=b6c67d47-6b6c-433b-9cf7-69638e23cd88","ios":"levelo://app?vid=b6c67d47-6b6c-433b-9cf7-69638e23cd88"},"vehicle_type_id":"4","last_reported":1740381010,"current_range_meters":16000,"station_id":"ce4bh412rcd13ifvqds0","pricing_plan_id":"cebpf4jnsgd1na2vs0mg"},{"bike_id":"2cb3f284-7b8f-46db-a012-ff6c476270a8","system_id":"levelo_inurba_marseille","lat":43.23187,"lon":5.35558,"is_reserved":false,"is_disabled":false,"rental_uris":{"android":"levelo://app?vid=2cb3f284-7b8f-46db-a012-ff6c476270a8","ios":"levelo://app?vid=2cb3f284-7b8f-46db-a012-ff6c476270a8"},"vehicle_type_id":"4","last_reported":1740381010,"current_range_meters":16000,"station_id":"ce4bhu92rcd13ifvqi70","pricing_plan_id":"cebpf4jnsgd1na2vs0mg"},{"bike_id":"615a02a6-6646-4df1-8ade-8686d89d8747","system_id":"levelo_inurba_marseille","lat":43.31322,"lon":5.39705,"is_reserved":false,"is_disabled":true,"rental_uris":{"android":"levelo://app?vid=615a02a6-6646-4df1-8ade-8686d89d8747","ios":"levelo://app?vid=615a02a6-6646-4df1-8ade-8686d89d8747"},"vehicle_type_id":"4","last_reported":1740381010,"current_range_meters":16000,"station_id":"ce4bgvp2rcd13ifvqcu0","pricing_plan_id":"cebpf4jnsgd1na2vs0mg"},{"bike_id":"10f42660-2599-493d-ab3d-95e9e390723e","system_id":"levelo_inurba_marseille","lat":43.29029,"lon":5.39983,"is_reserved":false,"is_disabled":false,"rental_uris":{"android":"levelo://app?vid=10f42660-2599-493d-ab3d-95e9e390723e","ios":"levelo://app?vid=10f42660-2599-493d-ab3d-95e9e390723e"},"vehicle_type_id":"4","last_reported":1740381010,"current_range_meters":16000,"station_id":"ce4bh392rcd13ifvqdm0","pricing_plan_id":"cebpf4jnsgd1na2vs0mg"},{"bike_id":"c0553ce2-1e21-4424-ae14-30f158e9755d","system_id":"levelo_inurba_marseille","lat":43.298695,"lon":5.389035,"is_reserved":false,"is_disabled":true,"rental_uris":{"android":"levelo://app?vid=c0553ce2-1e21-4424-ae14-30f158e9755d","ios":"levelo://app?vid=c0553ce2-1e21-4424-ae14-30f158e9755d"},"vehicle_type_id":"4","last_reported":1740381010,"current_range_meters":16000,"station_id":"ce4bh392rcd13ifvqdl0","pricing_plan_id":"cebpf4jnsgd1na2vs0mg"},{"bike_id":"706643d2-c89f-4374-8393-6c79d403ba35","system_id":"levelo_inurba_marseille","lat":43.29496,"lon":5.37529,"is_reserved":false,"is_disabled":false,"rental_uris":{"android":"levelo://app?vid=706643d2-c89f-4374-8393-6c79d403ba35","ios":"levelo://app?vid=706643d2-c89f-4374-8393-6c79d403ba35"},"vehicle_type_id":"4","last_reported":1740381010,"current_range_meters":16400,"station_id":"","pricing_plan_id":"cebpf4jnsgd1na2vs0mg"},{"bike_id":"fbf47da0-6d11-43ce-b150-72395881f05c","system_id":"levelo_inurba_marseille","lat":43.26947,"lon":5.38655,"is_reserved":false,"is_disabled":false,"rental_uris":{"android":"levelo://app?vid=fbf47da0-6d11-43ce-b150-72395881f05c","ios":"levelo://app?vid=fbf47da0-6d11-43ce-b150-72395881f05c"},"vehicle_type_id":"4","last_reported":1740381010,"current_range_meters":16400,"station_id":"ce4bhh92rcd13ifvqfh0","pricing_plan_id":"cebpf4jnsgd1na2vs0mg"},{"bike_id":"98ee55f8-f3af-433a-86d4-ad5a74b5654c","system_id":"levelo_inurba_marseille","lat":43.27321,"lon":5.39148,"is_reserved":false,"is_disabled":true,"rental_uris":{"android":"levelo://app?vid=98ee55f8-f3af-433a-86d4-ad5a74b5654c","ios":"levelo://app?vid=98ee55f8-f3af-433a-86d4-ad5a74b5654c"},"vehicle_type_id":"4","last_reported":1740381010,"current_range_meters":16400,"station_id":"","pricing_plan_id":"cebpf4jnsgd1na2vs0mg"},{"bike_id":"e635de05-4efb-4b34-8abf-ae671d27753c","system_id":"levelo_inurba_marseille","lat":43.31526,"lon":5.38029,"is_reserved":false,"is_disabled":false,"rental_uris":{"android":"levelo://app?vid=e635de05-4efb-4b34-8abf-ae671d27753c","ios":"levelo://app?vid=e635de05-4efb-4b34-8abf-ae671d27753c"},"vehicle_type_id":"4","last_reported":1740381010,"current_range_meters":16400,"station_id":"ce4bhsp2rcd13ifvqi50","pricing_plan_id":"cebpf4jnsgd1na2vs0mg"},{"bike_id":"035c237b-16c5-4c4f-94e9-8a6ba9d28779","system_id":"levelo_inurba_marseille","lat":43.2842,"lon":5.37521,"is_reserved":false,"is_disabled":false,"rental_uris":{"android":"levelo://app?vid=035c237b-16c5-4c4f-94e9-8a6ba9d28779","ios":"levelo://app?vid=035c237b-16c5-4c4f-94e9-8a6ba9d28779"},"vehicle_type_id":"4","last_reported":1740381010,"current_range_meters":16400,"station_id":"ce4bh412rcd13ifvqds0","pricing_plan_id":"cebpf4jnsgd1na2vs0mg"},{"bike_id":"39a60a69-3a33-4a9b-9faf-7b5a69f60b6c","system_id":"levelo_inurba_marseille","lat":43.287154,"lon":5.379335,"is_reserved":false,"is_disabled":false,"rental_uris":{"android":"levelo://app?vid=39a60a69-3a33-4a9b-9faf-7b5a69f60b6c","ios":"levelo://app?vid=39a60a69-3a33-4a9b-9faf-7b5a69f60b6c"},"vehicle_type_id":"4","last_reported":1740381010,"current_range_meters":16400,"station_id":"","pricing_plan_id":"cebpf4jnsgd1na2vs0mg"},{"bike_id":"0b578b0a-918d-46f6-81f3-220ca5fc5b14","system_id":"levelo_inurba_marseille","lat":43.24179,"lon":5.39733,"is_reserved":false,"is_disabled":false,"rental_uris":{"android":"levelo://app?vid=0b578b0a-918d-46f6-81f3-220ca5fc5b14","ios":"levelo://app?vid=0b578b0a-918d-46f6-81f3-220ca5fc5b14"},"vehicle_type_id":"4","last_reported":1740381010,"current_range_meters":16400,"station_id":"ce4bhn12rcd13ifvqgpg","pricing_plan_id":"cebpf4jnsgd1na2vs0mg"},{"bike_id":"85d568d1-e5fc-4bf6-8447-2c852733293d","system_id":"levelo_inurba_marseille","lat":43.26496,"lon":5.39541,"is_reserved":false,"is_disabled":false,"rental_uris":{"android":"levelo://app?vid=85d568d1-e5fc-4bf6-8447-2c852733293d","ios":"levelo://app?vid=85d568d1-e5fc-4bf6-8447-2c852733293d"},"vehicle_type_id":"4","last_reported":1740381010,"current_range_meters":14800,"station_id":"ce4bhi12rcd13ifvqfq0","pricing_plan_id":"cebpf4jnsgd1na2vs0mg"},{"bike_id":"c97f5ab1-20b5-4c00-b657-8a7a3dfc639d","system_id":"levelo_inurba_marseille","lat":43.31222,"lon":5.37226,"is_reserved":false,"is_disabled":false,"rental_uris":{"android":"levelo://app?vid=c97f5ab1-20b5-4c00-b657-8a7a3dfc639d","ios":"levelo://app?vid=c97f5ab1-20b5-4c00-b657-8a7a3dfc639d"},"vehicle_type_id":"4","last_reported":1740381010,"current_range_meters":16800,"station_id":"","pricing_plan_id":"cebpf4jnsgd1na2vs0mg"},{"bike_id":"34953fce-97d9-4ccf-8eef-5fbc7fb03376","system_id":"levelo_inurba_marseille","lat":43.25714,"lon":5.41123,"is_reserved":false,"is_disabled":false,"rental_uris":{"android":"levelo://app?vid=34953fce-97d9-4ccf-8eef-5fbc7fb03376","ios":"levelo://app?vid=34953fce-97d9-4ccf-8eef-5fbc7fb03376"},"vehicle_type_id":"4","last_reported":1740381010,"current_range_meters":16800,"station_id":"ce4bhkp2rcd13ifvqgd0","pricing_plan_id":"cebpf4jnsgd1na2vs0mg"},{"bike_id":"1a378166-2075-479c-a0aa-bfefad30e7f5","system_id":"levelo_inurba_marseille","lat":43.27502,"lon":5.4245,"is_reserved":false,"is_disabled":false,"rental_uris":{"android":"levelo://app?vid=1a378166-2075-479c-a0aa-bfefad30e7f5","ios":"levelo://app?vid=1a378166-2075-479c-a0aa-bfefad30e7f5"},"vehicle_type_id":"4","last_reported":1740381010,"current_range_meters":16800,"station_id":"ce4bhn92rcd13ifvqgrg","pricing_plan_id":"cebpf4jnsgd1na2vs0mg"},{"bike_id":"72dd37bb-67b2-4173-814e-384200def7f1","system_id":"levelo_inurba_marseille","lat":43.28149,"lon":5.42641,"is_reserved":false,"is_disabled":false,"rental_uris":{"android":"levelo://app?vid=72dd37bb-67b2-4173-814e-384200def7f1","ios":"levelo://app?vid=72dd37bb-67b2-4173-814e-384200def7f1"},"vehicle_type_id":"4","last_reported":1740381010,"current_range_meters":16800,"station_id":"ce4bhnh2rcd13ifvqgug","pricing_plan_id":"cebpf4jnsgd1na2vs0mg"},{"bike_id":"27068228-7ec6-4512-87fa-dcb51515ec3c","system_id":"levelo_inurba_marseille","lat":43.30905,"lon":5.37188,"is_reserved":false,"is_disabled":false,"rental_uris":{"android":"levelo://app?vid=27068228-7ec6-4512-87fa-dcb51515ec3c","ios":"levelo://app?vid=27068228-7ec6-4512-87fa-dcb51515ec3c"},"vehicle_type_id":"4","last_reported":1740381010,"current_range_meters":17200,"station_id":"ce4bguh2rcd13ifvqckg","pricing_plan_id":"cebpf4jnsgd1na2vs0mg"},{"bike_id":"5684b800-be3f-427a-a4f6-29b35eadfeb6","system_id":"levelo_inurba_marseille","lat":43.29268,"lon":5.40123,"is_reserved":false,"is_disabled":false,"rental_uris":{"android":"levelo://app?vid=5684b800-be3f-427a-a4f6-29b35eadfeb6","ios":"levelo://app?vid=5684b800-be3f-427a-a4f6-29b35eadfeb6"},"vehicle_type_id":"4","last_reported":1740381010,"current_range_meters":17200,"station_id":"ce4bh312rcd13ifvqdk0","pricing_plan_id":"cebpf4jnsgd1na2vs0mg"},{"bike_id":"16383675-fc5d-4252-93cf-d4c3ee1829f6","system_id":"levelo_inurba_marseille","lat":43.26228,"lon":5.37589,"is_reserved":false,"is_disabled":false,"rental_uris":{"android":"levelo://app?vid=16383675-fc5d-4252-93cf-d4c3ee1829f6","ios":"levelo://app?vid=16383675-fc5d-4252-93cf-d4c3ee1829f6"},"vehicle_type_id":"4","last_reported":1740381010,"current_range_meters":17200,"station_id":"","pricing_plan_id":"cebpf4jnsgd1na2vs0mg"},{"bike_id":"825afeec-18be-406e-9d4d-367ce8e4ca04","system_id":"levelo_inurba_marseille","lat":43.2834,"lon":5.38108,"is_reserved":false,"is_disabled":true,"rental_uris":{"android":"levelo://app?vid=825afeec-18be-406e-9d4d-367ce8e4ca04","ios":"levelo://app?vid=825afeec-18be-406e-9d4d-367ce8e4ca04"},"vehicle_type_id":"4","last_reported":1740381010,"current_range_meters":17200,"station_id":"ce4bh412rcd13ifvqdr0","pricing_plan_id":"cebpf4jnsgd1na2vs0mg"},{"bike_id":"d4730943-c8a0-45ac-a541-8183607370d1","system_id":"levelo_inurba_marseille","lat":43.25025,"lon":5.38924,"is_reserved":false,"is_disabled":false,"rental_uris":{"android":"levelo://app?vid=d4730943-c8a0-45ac-a541-8183607370d1","ios":"levelo://app?vid=d4730943-c8a0-45ac-a541-8183607370d1"},"vehicle_type_id":"4","last_reported":1740381010,"current_range_meters":17200,"station_id":"ce4bhgp2rcd13ifvqfd0","pricing_plan_id":"cebpf4jnsgd1na2vs0mg"},{"bike_id":"cdf89f84-1d45-4ce1-b985-6a2c8b69ccf3","system_id":"levelo_inurba_marseille","lat":43.30574,"lon":5.36557,"is_reserved":false,"is_disabled":true,"rental_uris":{"android":"levelo://app?vid=cdf89f84-1d45-4ce1-b985-6a2c8b69ccf3","ios":"levelo://app?vid=cdf89f84-1d45-4ce1-b985-6a2c8b69ccf3"},"vehicle_type_id":"4","last_reported":1740381010,"current_range_meters":17200,"station_id":"ce4bgs12rcd13ifvqcag","pricing_plan_id":"cebpf4jnsgd1na2vs0mg"},{"bike_id":"ebbf6217-465f-4269-8ee4-4515a862b241","system_id":"levelo_inurba_marseille","lat":43.29877,"lon":5.389,"is_reserved":false,"is_disabled":true,"rental_uris":{"android":"levelo://app?vid=ebbf6217-465f-4269-8ee4-4515a862b241","ios":"levelo://app?vid=ebbf6217-465f-4269-8ee4-4515a862b241"},"vehicle_type_id":"4","last_reported":1740381010,"current_range_meters":17200,"station_id":"ce4bh392rcd13ifvqdl0","pricing_plan_id":"cebpf4jnsgd1na2vs0mg"},{"bike_id":"f576d7a9-f79b-4cc8-ac37-889f5617be0e","system_id":"levelo_inurba_marseille","lat":43.26565,"lon":5.39012,"is_reserved":false,"is_disabled":false,"rental_uris":{"android":"levelo://app?vid=f576d7a9-f79b-4cc8-ac37-889f5617be0e","ios":"levelo://app?vid=f576d7a9-f79b-4cc8-ac37-889f5617be0e"},"vehicle_type_id":"4","last_reported":1740381010,"current_range_meters":17200,"station_id":"ce4bhe12rcd13ifvqf30","pricing_plan_id":"cebpf4jnsgd1na2vs0mg"},{"bike_id":"26453f95-18ff-43f2-8a79-9360540621ad","system_id":"levelo_inurba_marseille","lat":43.3377,"lon":5.3747,"is_reserved":false,"is_disabled":false,"rental_uris":{"android":"levelo://app?vid=26453f95-18ff-43f2-8a79-9360540621ad","ios":"levelo://app?vid=26453f95-18ff-43f2-8a79-9360540621ad"},"vehicle_type_id":"4","last_reported":1740381010,"current_range_meters":17200,"station_id":"","pricing_plan_id":"cebpf4jnsgd1na2vs0mg"},{"bike_id":"86669f33-8519-423e-9dec-1b624217baeb","system_id":"levelo_inurba_marseille","lat":43.25071,"lon":5.39514,"is_reserved":false,"is_disabled":true,"rental_uris":{"android":"levelo://app?vid=86669f33-8519-423e-9dec-1b624217baeb","ios":"levelo://app?vid=86669f33-8519-423e-9dec-1b624217baeb"},"vehicle_type_id":"4","last_reported":1740381010,"current_range_meters":17200,"station_id":"ce4bhm12rcd13ifvqgkg","pricing_plan_id":"cebpf4jnsgd1na2vs0mg"},{"bike_id":"1b60de2b-f8be-450d-b86a-335aa6df06e4","system_id":"levelo_inurba_marseille","lat":43.2835,"lon":5.38115,"is_reserved":false,"is_disabled":false,"rental_uris":{"android":"levelo://app?vid=1b60de2b-f8be-450d-b86a-335aa6df06e4","ios":"levelo://app?vid=1b60de2b-f8be-450d-b86a-335aa6df06e4"},"vehicle_type_id":"4","last_reported":1740381010,"current_range_meters":17200,"station_id":"ce4bh412rcd13ifvqdr0","pricing_plan_id":"cebpf4jnsgd1na2vs0mg"},{"bike_id":"b49d302f-fb5a-4306-a09c-3f66a66839fc","system_id":"levelo_inurba_marseille","lat":43.286997,"lon":5.373844,"is_reserved":false,"is_disabled":false,"rental_uris":{"android":"levelo://app?vid=b49d302f-fb5a-4306-a09c-3f66a66839fc","ios":"levelo://app?vid=b49d302f-fb5a-4306-a09c-3f66a66839fc"},"vehicle_type_id":"4","last_reported":1740381010,"current_range_meters":17200,"station_id":"","pricing_plan_id":"cebpf4jnsgd1na2vs0mg"},{"bike_id":"00ba52b7-3835-4ab7-bc9b-89c15e7b9f5d","system_id":"levelo_inurba_marseille","lat":43.2797,"lon":5.38731,"is_reserved":false,"is_disabled":false,"rental_uris":{"android":"levelo://app?vid=00ba52b7-3835-4ab7-bc9b-89c15e7b9f5d","ios":"levelo://app?vid=00ba52b7-3835-4ab7-bc9b-89c15e7b9f5d"},"vehicle_type_id":"4","last_reported":1740381010,"current_range_meters":17200,"station_id":"","pricing_plan_id":"cebpf4jnsgd1na2vs0mg"},{"bike_id":"adeeeb81-4f0a-4083-9054-a0dae332fd81","system_id":"levelo_inurba_marseille","lat":43.30887,"lon":5.3967,"is_reserved":false,"is_disabled":false,"rental_uris":{"android":"levelo://app?vid=adeeeb81-4f0a-4083-9054-a0dae332fd81","ios":"levelo://app?vid=adeeeb81-4f0a-4083-9054-a0dae332fd81"},"vehicle_type_id":"4","last_reported":1740381010,"current_range_meters":17600,"station_id":"ce4bh012rcd13ifvqcv0","pricing_plan_id":"cebpf4jnsgd1na2vs0mg"},{"bike_id":"53899e2c-901f-4684-921b-47370fcd206b","system_id":"levelo_inurba_marseille","lat":43.30104,"lon":5.39094,"is_reserved":false,"is_disabled":true,"rental_uris":{"android":"levelo://app?vid=53899e2c-901f-4684-921b-47370fcd206b","ios":"levelo://app?vid=53899e2c-901f-4684-921b-47370fcd206b"},"vehicle_type_id":"4","last_reported":1740381010,"current_range_meters":17600,"station_id":"ce4bh192rcd13ifvqdb0","pricing_plan_id":"cebpf4jnsgd1na2vs0mg"},{"bike_id":"41b8905f-5d71-47d2-981b-cd5802ac227d","system_id":"levelo_inurba_marseille","lat":43.28159,"lon":5.42604,"is_reserved":false,"is_disabled":false,"rental_uris":{"android":"levelo://app?vid=41b8905f-5d71-47d2-981b-cd5802ac227d","ios":"levelo://app?vid=41b8905f-5d71-47d2-981b-cd5802ac227d"},"vehicle_type_id":"4","last_reported":1740381010,"current_range_meters":17600,"station_id":"ce4bhnh2rcd13ifvqgug","pricing_plan_id":"cebpf4jnsgd1na2vs0mg"},{"bike_id":"a01f5c6f-5aea-4ddc-8287-05dfd53152b4","system_id":"levelo_inurba_marseille","lat":43.292081,"lon":5.393116,"is_reserved":false,"is_disabled":false,"rental_uris":{"android":"levelo://app?vid=a01f5c6f-5aea-4ddc-8287-05dfd53152b4","ios":"levelo://app?vid=a01f5c6f-5aea-4ddc-8287-05dfd53152b4"},"vehicle_type_id":"4","last_reported":1740381010,"current_range_meters":17600,"station_id":"ce4bh192rcd13ifvqdd0","pricing_plan_id":"cebpf4jnsgd1na2vs0mg"},{"bike_id":"9fabdfa7-a0ef-44ff-b626-33a9b5d52aad","system_id":"levelo_inurba_marseille","lat":43.30133,"lon":5.388,"is_reserved":false,"is_disabled":true,"rental_uris":{"android":"levelo://app?vid=9fabdfa7-a0ef-44ff-b626-33a9b5d52aad","ios":"levelo://app?vid=9fabdfa7-a0ef-44ff-b626-33a9b5d52aad"},"vehicle_type_id":"4","last_reported":1740381010,"current_range_meters":17600,"station_id":"ce4bghh2rcd13ifvqb60","pricing_plan_id":"cebpf4jnsgd1na2vs0mg"},{"bike_id":"67353ec5-ce91-46f3-8df8-86128e85fd44","system_id":"levelo_inurba_marseille","lat":43.28137,"lon":5.42645,"is_reserved":false,"is_disabled":true,"rental_uris":{"android":"levelo://app?vid=67353ec5-ce91-46f3-8df8-86128e85fd44","ios":"levelo://app?vid=67353ec5-ce91-46f3-8df8-86128e85fd44"},"vehicle_type_id":"4","last_reported":1740381010,"current_range_meters":17600,"station_id":"ce4bhnh2rcd13ifvqgug","pricing_plan_id":"cebpf4jnsgd1na2vs0mg"},{"bike_id":"a437ce3e-94c1-4d80-949a-3eb291854603","system_id":"levelo_inurba_marseille","lat":43.30932,"lon":5.40168,"is_reserved":false,"is_disabled":true,"rental_uris":{"android":"levelo://app?vid=a437ce3e-94c1-4d80-949a-3eb291854603","ios":"levelo://app?vid=a437ce3e-94c1-4d80-949a-3eb291854603"},"vehicle_type_id":"4","last_reported":1740381010,"current_range_meters":18000,"station_id":"ce4bgvp2rcd13ifvqct0","pricing_plan_id":"cebpf4jnsgd1na2vs0mg"},{"bike_id":"67350e3b-ced3-434f-8df5-0f50029c572e","system_id":"levelo_inurba_marseille","lat":43.23185,"lon":5.35575,"is_reserved":false,"is_disabled":false,"rental_uris":{"android":"levelo://app?vid=67350e3b-ced3-434f-8df5-0f50029c572e","ios":"levelo://app?vid=67350e3b-ced3-434f-8df5-0f50029c572e"},"vehicle_type_id":"4","last_reported":1740381010,"current_range_meters":18000,"station_id":"ce4bhu92rcd13ifvqi70","pricing_plan_id":"cebpf4jnsgd1na2vs0mg"},{"bike_id":"1af0197e-a00b-4831-8650-e203175ddec1","system_id":"levelo_inurba_marseille","lat":43.26554,"lon":5.37301,"is_reserved":false,"is_disabled":false,"rental_uris":{"android":"levelo://app?vid=1af0197e-a00b-4831-8650-e203175ddec1","ios":"levelo://app?vid=1af0197e-a00b-4831-8650-e203175ddec1"},"vehicle_type_id":"4","last_reported":1740381010,"current_range_meters":18000,"station_id":"ce4bhg12rcd13ifvqf70","pricing_plan_id":"cebpf4jnsgd1na2vs0mg"},{"bike_id":"f373858c-4bfe-491d-8681-185b20c75a86","system_id":"levelo_inurba_marseille","lat":43.30671,"lon":5.40097,"is_reserved":false,"is_disabled":true,"rental_uris":{"android":"levelo://app?vid=f373858c-4bfe-491d-8681-185b20c75a86","ios":"levelo://app?vid=f373858c-4bfe-491d-8681-185b20c75a86"},"vehicle_type_id":"4","last_reported":1740381010,"current_range_meters":18000,"station_id":"ce4bh112rcd13ifvqda0","pricing_plan_id":"cebpf4jnsgd1na2vs0mg"},{"bike_id":"8d825ae2-ed2e-40e6-9346-a5bb6d99d17f","system_id":"levelo_inurba_marseille","lat":43.27492,"lon":5.42451,"is_reserved":false,"is_disabled":false,"rental_uris":{"android":"levelo://app?vid=8d825ae2-ed2e-40e6-9346-a5bb6d99d17f","ios":"levelo://app?vid=8d825ae2-ed2e-40e6-9346-a5bb6d99d17f"},"vehicle_type_id":"4","last_reported":1740381010,"current_range_meters":18000,"station_id":"ce4bhn92rcd13ifvqgrg","pricing_plan_id":"cebpf4jnsgd1na2vs0mg"},{"bike_id":"607ba613-09dd-4240-9abd-e146789d9c7f","system_id":"levelo_inurba_marseille","lat":43.29596,"lon":5.38101,"is_reserved":false,"is_disabled":false,"rental_uris":{"android":"levelo://app?vid=607ba613-09dd-4240-9abd-e146789d9c7f","ios":"levelo://app?vid=607ba613-09dd-4240-9abd-e146789d9c7f"},"vehicle_type_id":"4","last_reported":1740381010,"current_range_meters":18000,"station_id":"ce4bgl12rcd13ifvqbo0","pricing_plan_id":"cebpf4jnsgd1na2vs0mg"},{"bike_id":"53c250d8-2df3-441a-ade7-521012287108","system_id":"levelo_inurba_marseille","lat":43.24066,"lon":5.377574,"is_reserved":false,"is_disabled":false,"rental_uris":{"android":"levelo://app?vid=53c250d8-2df3-441a-ade7-521012287108","ios":"levelo://app?vid=53c250d8-2df3-441a-ade7-521012287108"},"vehicle_type_id":"4","last_reported":1740381010,"current_range_meters":18000,"station_id":"ce4bhnp2rcd13ifvqgvg","pricing_plan_id":"cebpf4jnsgd1na2vs0mg"},{"bike_id":"700f80f4-ea28-4ab3-9121-611fa2013f36","system_id":"levelo_inurba_marseille","lat":43.29304,"lon":5.37163,"is_reserved":false,"is_disabled":false,"rental_uris":{"android":"levelo://app?vid=700f80f4-ea28-4ab3-9121-611fa2013f36","ios":"levelo://app?vid=700f80f4-ea28-4ab3-9121-611fa2013f36"},"vehicle_type_id":"4","last_reported":1740381010,"current_range_meters":18000,"station_id":"ce4bgh92rcd13ifvqb40","pricing_plan_id":"cebpf4jnsgd1na2vs0mg"},{"bike_id":"073518a5-4dc0-447e-9477-a67f73b2a5a2","system_id":"levelo_inurba_marseille","lat":43.32374,"lon":5.3676,"is_reserved":false,"is_disabled":false,"rental_uris":{"android":"levelo://app?vid=073518a5-4dc0-447e-9477-a67f73b2a5a2","ios":"levelo://app?vid=073518a5-4dc0-447e-9477-a67f73b2a5a2"},"vehicle_type_id":"4","last_reported":1740381010,"current_range_meters":18000,"station_id":"ce4bhsh2rcd13ifvqi2g","pricing_plan_id":"cebpf4jnsgd1na2vs0mg"},{"bike_id":"5aaf3fc5-83c7-42fe-83c5-3bdbef39dfe2","system_id":"levelo_inurba_marseille","lat":43.31994,"lon":5.38161,"is_reserved":false,"is_disabled":false,"rental_uris":{"android":"levelo://app?vid=5aaf3fc5-83c7-42fe-83c5-3bdbef39dfe2","ios":"levelo://app?vid=5aaf3fc5-83c7-42fe-83c5-3bdbef39dfe2"},"vehicle_type_id":"4","last_reported":1740381010,"current_range_meters":18000,"station_id":"ce4bhr12rcd13ifvqhpg","pricing_plan_id":"cebpf4jnsgd1na2vs0mg"},{"bike_id":"e0a974b6-ebb6-4643-b3b6-b282d529bc0a","system_id":"levelo_inurba_marseille","lat":43.31702,"lon":5.43708,"is_reserved":false,"is_disabled":true,"rental_uris":{"android":"levelo://app?vid=e0a974b6-ebb6-4643-b3b6-b282d529bc0a","ios":"levelo://app?vid=e0a974b6-ebb6-4643-b3b6-b282d529bc0a"},"vehicle_type_id":"4","last_reported":1740381010,"current_range_meters":18000,"station_id":"ce4bhp92rcd13ifvqhcg","pricing_plan_id":"cebpf4jnsgd1na2vs0mg"},{"bike_id":"f36faf02-762d-4ff7-a66f-4079fb1336d4","system_id":"levelo_inurba_marseille","lat":43.30609,"lon":5.37219,"is_reserved":false,"is_disabled":false,"rental_uris":{"android":"levelo://app?vid=f36faf02-762d-4ff7-a66f-4079fb1336d4","ios":"levelo://app?vid=f36faf02-762d-4ff7-a66f-4079fb1336d4"},"vehicle_type_id":"4","last_reported":1740381010,"current_range_meters":18000,"station_id":"ce4bgqh2rcd13ifvqc4g","pricing_plan_id":"cebpf4jnsgd1na2vs0mg"},{"bike_id":"6ecefc8b-8ad5-4cef-a47d-d4d4e9a483d8","system_id":"levelo_inurba_marseille","lat":43.30885,"lon":5.3963,"is_reserved":false,"is_disabled":false,"rental_uris":{"android":"levelo://app?vid=6ecefc8b-8ad5-4cef-a47d-d4d4e9a483d8","ios":"levelo://app?vid=6ecefc8b-8ad5-4cef-a47d-d4d4e9a483d8"},"vehicle_type_id":"4","last_reported":1740381010,"current_range_meters":18000,"station_id":"ce4bh012rcd13ifvqcv0","pricing_plan_id":"cebpf4jnsgd1na2vs0mg"},{"bike_id":"c51fbff7-6a2a-4b56-8c2e-57a8978764b4","system_id":"levelo_inurba_marseille","lat":43.27976,"lon":5.4004,"is_reserved":false,"is_disabled":true,"rental_uris":{"android":"levelo://app?vid=c51fbff7-6a2a-4b56-8c2e-57a8978764b4","ios":"levelo://app?vid=c51fbff7-6a2a-4b56-8c2e-57a8978764b4"},"vehicle_type_id":"4","last_reported":1740381010,"current_range_meters":18800,"station_id":"ce4bho92rcd13ifvqh4g","pricing_plan_id":"cebpf4jnsgd1na2vs0mg"},{"bike_id":"af7bd2dc-9049-4073-b802-cfe9ff927ac8","system_id":"levelo_inurba_marseille","lat":43.30595,"lon":5.39344,"is_reserved":false,"is_disabled":false,"rental_uris":{"android":"levelo://app?vid=af7bd2dc-9049-4073-b802-cfe9ff927ac8","ios":"levelo://app?vid=af7bd2dc-9049-4073-b802-cfe9ff927ac8"},"vehicle_type_id":"4","last_reported":1740381010,"current_range_meters":18800,"station_id":"ce4bh0p2rcd13ifvqd80","pricing_plan_id":"cebpf4jnsgd1na2vs0mg"},{"bike_id":"d9f923af-325f-4e8f-8578-de052dbd7852","system_id":"levelo_inurba_marseille","lat":43.26932,"lon":5.38913,"is_reserved":false,"is_disabled":false,"rental_uris":{"android":"levelo://app?vid=d9f923af-325f-4e8f-8578-de052dbd7852","ios":"levelo://app?vid=d9f923af-325f-4e8f-8578-de052dbd7852"},"vehicle_type_id":"4","last_reported":1740381010,"current_range_meters":18800,"station_id":"ce4bhhh2rcd13ifvqfl0","pricing_plan_id":"cebpf4jnsgd1na2vs0mg"},{"bike_id":"306c8afe-27f2-42dd-9d3c-74d43bc1f2cb","system_id":"levelo_inurba_marseille","lat":43.27497,"lon":5.42457,"is_reserved":false,"is_disabled":false,"rental_uris":{"android":"levelo://app?vid=306c8afe-27f2-42dd-9d3c-74d43bc1f2cb","ios":"levelo://app?vid=306c8afe-27f2-42dd-9d3c-74d43bc1f2cb"},"vehicle_type_id":"4","last_reported":1740381010,"current_range_meters":18800,"station_id":"ce4bhn92rcd13ifvqgrg","pricing_plan_id":"cebpf4jnsgd1na2vs0mg"},{"bike_id":"5adbc049-b8fb-444d-b923-357513919821","system_id":"levelo_inurba_marseille","lat":43.29518,"lon":5.3904,"is_reserved":false,"is_disabled":false,"rental_uris":{"android":"levelo://app?vid=5adbc049-b8fb-444d-b923-357513919821","ios":"levelo://app?vid=5adbc049-b8fb-444d-b923-357513919821"},"vehicle_type_id":"4","last_reported":1740381010,"current_range_meters":18800,"station_id":"ce4bh3p2rcd13ifvqdp0","pricing_plan_id":"cebpf4jnsgd1na2vs0mg"},{"bike_id":"876aa59c-c91a-4ffc-81c7-21dd319d2cb2","system_id":"levelo_inurba_marseille","lat":43.292132,"lon":5.405247,"is_reserved":false,"is_disabled":false,"rental_uris":{"android":"levelo://app?vid=876aa59c-c91a-4ffc-81c7-21dd319d2cb2","ios":"levelo://app?vid=876aa59c-c91a-4ffc-81c7-21dd319d2cb2"},"vehicle_type_id":"4","last_reported":1740381010,"current_range_meters":18800,"station_id":"","pricing_plan_id":"cebpf4jnsgd1na2vs0mg"},{"bike_id":"e813f92c-4fd3-41c9-ae0a-6879c319e323","system_id":"levelo_inurba_marseille","lat":43.29622,"lon":5.3715,"is_reserved":false,"is_disabled":false,"rental_uris":{"android":"levelo://app?vid=e813f92c-4fd3-41c9-ae0a-6879c319e323","ios":"levelo://app?vid=e813f92c-4fd3-41c9-ae0a-6879c319e323"},"vehicle_type_id":"4","last_reported":1740381010,"current_range_meters":18800,"station_id":"ce4bgnh2rcd13ifvqc0g","pricing_plan_id":"cebpf4jnsgd1na2vs0mg"},{"bike_id":"2def0963-f3e0-4747-a572-5c3b359c09fb","system_id":"levelo_inurba_marseille","lat":43.27495,"lon":5.42461,"is_reserved":false,"is_disabled":false,"rental_uris":{"android":"levelo://app?vid=2def0963-f3e0-4747-a572-5c3b359c09fb","ios":"levelo://app?vid=2def0963-f3e0-4747-a572-5c3b359c09fb"},"vehicle_type_id":"4","last_reported":1740381010,"current_range_meters":18800,"station_id":"ce4bhn92rcd13ifvqgrg","pricing_plan_id":"cebpf4jnsgd1na2vs0mg"},{"bike_id":"594beea8-0522-43d0-8af1-0fd835e4f688","system_id":"levelo_inurba_marseille","lat":43.30251,"lon":5.40066,"is_reserved":false,"is_disabled":false,"rental_uris":{"android":"levelo://app?vid=594beea8-0522-43d0-8af1-0fd835e4f688","ios":"levelo://app?vid=594beea8-0522-43d0-8af1-0fd835e4f688"},"vehicle_type_id":"4","last_reported":1740381010,"current_range_meters":18800,"station_id":"ce4bgvh2rcd13ifvqcs0","pricing_plan_id":"cebpf4jnsgd1na2vs0mg"},{"bike_id":"eddbdbfe-4ab6-4461-94f2-70979571ce52","system_id":"levelo_inurba_marseille","lat":43.30448,"lon":5.37896,"is_reserved":false,"is_disabled":false,"rental_uris":{"android":"levelo://app?vid=eddbdbfe-4ab6-4461-94f2-70979571ce52","ios":"levelo://app?vid=eddbdbfe-4ab6-4461-94f2-70979571ce52"},"vehicle_type_id":"4","last_reported":1740381010,"current_range_meters":19200,"station_id":"ce4bgup2rcd13ifvqcn0","pricing_plan_id":"cebpf4jnsgd1na2vs0mg"},{"bike_id":"74f6355f-fe3a-45d6-9609-3e905c9f6aa8","system_id":"levelo_inurba_marseille","lat":43.29192,"lon":5.3932,"is_reserved":false,"is_disabled":false,"rental_uris":{"android":"levelo://app?vid=74f6355f-fe3a-45d6-9609-3e905c9f6aa8","ios":"levelo://app?vid=74f6355f-fe3a-45d6-9609-3e905c9f6aa8"},"vehicle_type_id":"4","last_reported":1740381010,"current_range_meters":19200,"station_id":"ce4bh192rcd13ifvqdd0","pricing_plan_id":"cebpf4jnsgd1na2vs0mg"},{"bike_id":"0db4c3f7-6b83-4b6b-b085-323d4c61deac","system_id":"levelo_inurba_marseille","lat":43.32111,"lon":5.36767,"is_reserved":false,"is_disabled":false,"rental_uris":{"android":"levelo://app?vid=0db4c3f7-6b83-4b6b-b085-323d4c61deac","ios":"levelo://app?vid=0db4c3f7-6b83-4b6b-b085-323d4c61deac"},"vehicle_type_id":"4","last_reported":1740381010,"current_range_meters":19200,"station_id":"ce4bhrh2rcd13ifvqhug","pricing_plan_id":"cebpf4jnsgd1na2vs0mg"},{"bike_id":"181e14ed-4e9f-4874-8710-1b5c1fed90a1","system_id":"levelo_inurba_marseille","lat":43.25824,"lon":5.39429,"is_reserved":false,"is_disabled":false,"rental_uris":{"android":"levelo://app?vid=181e14ed-4e9f-4874-8710-1b5c1fed90a1","ios":"levelo://app?vid=181e14ed-4e9f-4874-8710-1b5c1fed90a1"},"vehicle_type_id":"4","last_reported":1740381010,"current_range_meters":19600,"station_id":"ce4bhip2rcd13ifvqft0","pricing_plan_id":"cebpf4jnsgd1na2vs0mg"},{"bike_id":"7ac02330-70fe-4e82-b68e-85c67f35e64e","system_id":"levelo_inurba_marseille","lat":43.29262,"lon":5.40128,"is_reserved":false,"is_disabled":false,"rental_uris":{"android":"levelo://app?vid=7ac02330-70fe-4e82-b68e-85c67f35e64e","ios":"levelo://app?vid=7ac02330-70fe-4e82-b68e-85c67f35e64e"},"vehicle_type_id":"4","last_reported":1740381010,"current_range_meters":19600,"station_id":"ce4bh312rcd13ifvqdk0","pricing_plan_id":"cebpf4jnsgd1na2vs0mg"},{"bike_id":"cae5183b-e04c-488b-bbc2-8a88557ef0cd","system_id":"levelo_inurba_marseille","lat":43.30078,"lon":5.3906,"is_reserved":false,"is_disabled":true,"rental_uris":{"android":"levelo://app?vid=cae5183b-e04c-488b-bbc2-8a88557ef0cd","ios":"levelo://app?vid=cae5183b-e04c-488b-bbc2-8a88557ef0cd"},"vehicle_type_id":"4","last_reported":1740381010,"current_range_meters":19600,"station_id":"ce4bh192rcd13ifvqdb0","pricing_plan_id":"cebpf4jnsgd1na2vs0mg"},{"bike_id":"56a0cb01-fc13-42c8-94be-4f8cad837efb","system_id":"levelo_inurba_marseille","lat":43.30298,"lon":5.36905,"is_reserved":false,"is_disabled":true,"rental_uris":{"android":"levelo://app?vid=56a0cb01-fc13-42c8-94be-4f8cad837efb","ios":"levelo://app?vid=56a0cb01-fc13-42c8-94be-4f8cad837efb"},"vehicle_type_id":"4","last_reported":1740381010,"current_range_meters":19600,"station_id":"ce4bgqh2rcd13ifvqc5g","pricing_plan_id":"cebpf4jnsgd1na2vs0mg"},{"bike_id":"dea65a2a-42e1-443b-9b1d-1b05397fcc96","system_id":"levelo_inurba_marseille","lat":43.27151,"lon":5.41017,"is_reserved":false,"is_disabled":false,"rental_uris":{"android":"levelo://app?vid=dea65a2a-42e1-443b-9b1d-1b05397fcc96","ios":"levelo://app?vid=dea65a2a-42e1-443b-9b1d-1b05397fcc96"},"vehicle_type_id":"4","last_reported":1740381010,"current_range_meters":19600,"station_id":"ce4bhl12rcd13ifvqgf0","pricing_plan_id":"cebpf4jnsgd1na2vs0mg"},{"bike_id":"4449701b-be22-48bb-a45c-5457e79137b3","system_id":"levelo_inurba_marseille","lat":43.30807,"lon":5.3815,"is_reserved":false,"is_disabled":false,"rental_uris":{"android":"levelo://app?vid=4449701b-be22-48bb-a45c-5457e79137b3","ios":"levelo://app?vid=4449701b-be22-48bb-a45c-5457e79137b3"},"vehicle_type_id":"4","last_reported":1740381010,"current_range_meters":19600,"station_id":"ce4bgt12rcd13ifvqce0","pricing_plan_id":"cebpf4jnsgd1na2vs0mg"},{"bike_id":"a813479c-1e1b-4e51-b92e-2156340fc23e","system_id":"levelo_inurba_marseille","lat":43.30465,"lon":5.37913,"is_reserved":false,"is_disabled":false,"rental_uris":{"android":"levelo://app?vid=a813479c-1e1b-4e51-b92e-2156340fc23e","ios":"levelo://app?vid=a813479c-1e1b-4e51-b92e-2156340fc23e"},"vehicle_type_id":"4","last_reported":1740381010,"current_range_meters":20000,"station_id":"ce4bgup2rcd13ifvqcn0","pricing_plan_id":"cebpf4jnsgd1na2vs0mg"},{"bike_id":"ae3d3997-9872-4807-a0a3-3512c509af71","system_id":"levelo_inurba_marseille","lat":43.30084,"lon":5.40004,"is_reserved":false,"is_disabled":true,"rental_uris":{"android":"levelo://app?vid=ae3d3997-9872-4807-a0a3-3512c509af71","ios":"levelo://app?vid=ae3d3997-9872-4807-a0a3-3512c509af71"},"vehicle_type_id":"4","last_reported":1740381010,"current_range_meters":20000,"station_id":"","pricing_plan_id":"cebpf4jnsgd1na2vs0mg"},{"bike_id":"63afb1fc-974d-4ad7-9aeb-1f34144b4f49","system_id":"levelo_inurba_marseille","lat":43.23148,"lon":5.43722,"is_reserved":false,"is_disabled":false,"rental_uris":{"android":"levelo://app?vid=63afb1fc-974d-4ad7-9aeb-1f34144b4f49","ios":"levelo://app?vid=63afb1fc-974d-4ad7-9aeb-1f34144b4f49"},"vehicle_type_id":"4","last_reported":1740381010,"current_range_meters":20000,"station_id":"ce4bhmp2rcd13ifvqgog","pricing_plan_id":"cebpf4jnsgd1na2vs0mg"},{"bike_id":"1684a617-5ffc-4983-9d12-61ffc4938f83","system_id":"levelo_inurba_marseille","lat":43.30542,"lon":5.36711,"is_reserved":false,"is_disabled":false,"rental_uris":{"android":"levelo://app?vid=1684a617-5ffc-4983-9d12-61ffc4938f83","ios":"levelo://app?vid=1684a617-5ffc-4983-9d12-61ffc4938f83"},"vehicle_type_id":"4","last_reported":1740381010,"current_range_meters":20000,"station_id":"ce4bgrp2rcd13ifvqc9g","pricing_plan_id":"cebpf4jnsgd1na2vs0mg"},{"bike_id":"bbc4386e-8016-457d-913c-552cdf6d6b64","system_id":"levelo_inurba_marseille","lat":43.28418,"lon":5.37511,"is_reserved":false,"is_disabled":false,"rental_uris":{"android":"levelo://app?vid=bbc4386e-8016-457d-913c-552cdf6d6b64","ios":"levelo://app?vid=bbc4386e-8016-457d-913c-552cdf6d6b64"},"vehicle_type_id":"4","last_reported":1740381010,"current_range_meters":20000,"station_id":"ce4bh412rcd13ifvqds0","pricing_plan_id":"cebpf4jnsgd1na2vs0mg"},{"bike_id":"d15bab97-415a-42d4-b817-ae269ea37219","system_id":"levelo_inurba_marseille","lat":43.29424,"lon":5.3862,"is_reserved":false,"is_disabled":true,"rental_uris":{"android":"levelo://app?vid=d15bab97-415a-42d4-b817-ae269ea37219","ios":"levelo://app?vid=d15bab97-415a-42d4-b817-ae269ea37219"},"vehicle_type_id":"4","last_reported":1740381010,"current_range_meters":20000,"station_id":"ce4bh2h2rcd13ifvqdh0","pricing_plan_id":"cebpf4jnsgd1na2vs0mg"},{"bike_id":"7ee7f826-dc37-4344-ad19-a7d227aa9e57","system_id":"levelo_inurba_marseille","lat":43.33397,"lon":5.44122,"is_reserved":false,"is_disabled":false,"rental_uris":{"android":"levelo://app?vid=7ee7f826-dc37-4344-ad19-a7d227aa9e57","ios":"levelo://app?vid=7ee7f826-dc37-4344-ad19-a7d227aa9e57"},"vehicle_type_id":"4","last_reported":1740381010,"current_range_meters":20400,"station_id":"","pricing_plan_id":"cebpf4jnsgd1na2vs0mg"},{"bike_id":"bad02665-ebb5-404a-8d35-46d83d550f85","system_id":"levelo_inurba_marseille","lat":43.27052,"lon":5.40262,"is_reserved":false,"is_disabled":false,"rental_uris":{"android":"levelo://app?vid=bad02665-ebb5-404a-8d35-46d83d550f85","ios":"levelo://app?vid=bad02665-ebb5-404a-8d35-46d83d550f85"},"vehicle_type_id":"4","last_reported":1740381010,"current_range_meters":20400,"station_id":"ce4bhk92rcd13ifvqgc0","pricing_plan_id":"cebpf4jnsgd1na2vs0mg"},{"bike_id":"74359a94-32fc-4833-a62a-e1829ddca4d6","system_id":"levelo_inurba_marseille","lat":43.29696,"lon":5.36607,"is_reserved":false,"is_disabled":false,"rental_uris":{"android":"levelo://app?vid=74359a94-32fc-4833-a62a-e1829ddca4d6","ios":"levelo://app?vid=74359a94-32fc-4833-a62a-e1829ddca4d6"},"vehicle_type_id":"4","last_reported":1740381010,"current_range_meters":20400,"station_id":"ce4bgn12rcd13ifvqbt0","pricing_plan_id":"cebpf4jnsgd1na2vs0mg"},{"bike_id":"7e00f6cd-348d-4eb2-b595-42a596c47d81","system_id":"levelo_inurba_marseille","lat":43.29266,"lon":5.40115,"is_reserved":false,"is_disabled":true,"rental_uris":{"android":"levelo://app?vid=7e00f6cd-348d-4eb2-b595-42a596c47d81","ios":"levelo://app?vid=7e00f6cd-348d-4eb2-b595-42a596c47d81"},"vehicle_type_id":"4","last_reported":1740381010,"current_range_meters":20400,"station_id":"ce4bh312rcd13ifvqdk0","pricing_plan_id":"cebpf4jnsgd1na2vs0mg"},{"bike_id":"196e3f9e-3d37-4710-a41f-2556664534f8","system_id":"levelo_inurba_marseille","lat":43.306,"lon":5.37248,"is_reserved":false,"is_disabled":true,"rental_uris":{"android":"levelo://app?vid=196e3f9e-3d37-4710-a41f-2556664534f8","ios":"levelo://app?vid=196e3f9e-3d37-4710-a41f-2556664534f8"},"vehicle_type_id":"4","last_reported":1740381010,"current_range_meters":20400,"station_id":"ce4bgqh2rcd13ifvqc4g","pricing_plan_id":"cebpf4jnsgd1na2vs0mg"},{"bike_id":"07c3fd25-be25-4cc3-8722-dd5a7fe76e04","system_id":"levelo_inurba_marseille","lat":43.2957,"lon":5.38801,"is_reserved":false,"is_disabled":false,"rental_uris":{"android":"levelo://app?vid=07c3fd25-be25-4cc3-8722-dd5a7fe76e04","ios":"levelo://app?vid=07c3fd25-be25-4cc3-8722-dd5a7fe76e04"},"vehicle_type_id":"4","last_reported":1740381010,"current_range_meters":20400,"station_id":"","pricing_plan_id":"cebpf4jnsgd1na2vs0mg"},{"bike_id":"0d6ccb42-a21f-497c-b438-fc48532a3ef9","system_id":"levelo_inurba_marseille","lat":43.25089,"lon":5.39537,"is_reserved":false,"is_disabled":false,"rental_uris":{"android":"levelo://app?vid=0d6ccb42-a21f-497c-b438-fc48532a3ef9","ios":"levelo://app?vid=0d6ccb42-a21f-497c-b438-fc48532a3ef9"},"vehicle_type_id":"4","last_reported":1740381010,"current_range_meters":20400,"station_id":"ce4bhm12rcd13ifvqgkg","pricing_plan_id":"cebpf4jnsgd1na2vs0mg"},{"bike_id":"9e106413-6843-4cd1-b384-550802c26cbe","system_id":"levelo_inurba_marseille","lat":43.30874,"lon":5.39678,"is_reserved":false,"is_disabled":false,"rental_uris":{"android":"levelo://app?vid=9e106413-6843-4cd1-b384-550802c26cbe","ios":"levelo://app?vid=9e106413-6843-4cd1-b384-550802c26cbe"},"vehicle_type_id":"4","last_reported":1740381010,"current_range_meters":20400,"station_id":"ce4bh012rcd13ifvqcv0","pricing_plan_id":"cebpf4jnsgd1na2vs0mg"},{"bike_id":"9d1167a7-7b33-4da5-8dbc-822cc68dbd96","system_id":"levelo_inurba_marseille","lat":43.28978,"lon":5.3783,"is_reserved":false,"is_disabled":false,"rental_uris":{"android":"levelo://app?vid=9d1167a7-7b33-4da5-8dbc-822cc68dbd96","ios":"levelo://app?vid=9d1167a7-7b33-4da5-8dbc-822cc68dbd96"},"vehicle_type_id":"4","last_reported":1740381010,"current_range_meters":20800,"station_id":"ce4bh9p2rcd13ifvqed0","pricing_plan_id":"cebpf4jnsgd1na2vs0mg"},{"bike_id":"055e8d14-3ba8-463d-8252-f67d913c74e2","system_id":"levelo_inurba_marseille","lat":43.32534,"lon":5.41429,"is_reserved":false,"is_disabled":false,"rental_uris":{"android":"levelo://app?vid=055e8d14-3ba8-463d-8252-f67d913c74e2","ios":"levelo://app?vid=055e8d14-3ba8-463d-8252-f67d913c74e2"},"vehicle_type_id":"4","last_reported":1740381010,"current_range_meters":20800,"station_id":"ce4bhq12rcd13ifvqhhg","pricing_plan_id":"cebpf4jnsgd1na2vs0mg"},{"bike_id":"41c02980-2d5d-4ec8-b439-0a197839dea1","system_id":"levelo_inurba_marseille","lat":43.29902,"lon":5.4366,"is_reserved":false,"is_disabled":false,"rental_uris":{"android":"levelo://app?vid=41c02980-2d5d-4ec8-b439-0a197839dea1","ios":"levelo://app?vid=41c02980-2d5d-4ec8-b439-0a197839dea1"},"vehicle_type_id":"4","last_reported":1740381010,"current_range_meters":20800,"station_id":"ce4bhpp2rcd13ifvqhfg","pricing_plan_id":"cebpf4jnsgd1na2vs0mg"},{"bike_id":"e9f130b8-3cf6-4f92-83d0-ea5e8b890e93","system_id":"levelo_inurba_marseille","lat":43.24075,"lon":5.37762,"is_reserved":false,"is_disabled":false,"rental_uris":{"android":"levelo://app?vid=e9f130b8-3cf6-4f92-83d0-ea5e8b890e93","ios":"levelo://app?vid=e9f130b8-3cf6-4f92-83d0-ea5e8b890e93"},"vehicle_type_id":"4","last_reported":1740381010,"current_range_meters":20800,"station_id":"ce4bhnp2rcd13ifvqgvg","pricing_plan_id":"cebpf4jnsgd1na2vs0mg"},{"bike_id":"b8e3bfff-82f7-403a-b005-6c09ad9aa181","system_id":"levelo_inurba_marseille","lat":43.30463,"lon":5.37899,"is_reserved":false,"is_disabled":false,"rental_uris":{"android":"levelo://app?vid=b8e3bfff-82f7-403a-b005-6c09ad9aa181","ios":"levelo://app?vid=b8e3bfff-82f7-403a-b005-6c09ad9aa181"},"vehicle_type_id":"4","last_reported":1740381010,"current_range_meters":21600,"station_id":"ce4bgup2rcd13ifvqcn0","pricing_plan_id":"cebpf4jnsgd1na2vs0mg"},{"bike_id":"f068448c-e801-454e-833d-0c754e5ae0fa","system_id":"levelo_inurba_marseille","lat":43.32537,"lon":5.41429,"is_reserved":false,"is_disabled":false,"rental_uris":{"android":"levelo://app?vid=f068448c-e801-454e-833d-0c754e5ae0fa","ios":"levelo://app?vid=f068448c-e801-454e-833d-0c754e5ae0fa"},"vehicle_type_id":"4","last_reported":1740381010,"current_range_meters":21600,"station_id":"ce4bhq12rcd13ifvqhhg","pricing_plan_id":"cebpf4jnsgd1na2vs0mg"},{"bike_id":"26e67349-8270-4806-aad3-839f545a79a4","system_id":"levelo_inurba_marseille","lat":43.3058,"lon":5.3934,"is_reserved":false,"is_disabled":true,"rental_uris":{"android":"levelo://app?vid=26e67349-8270-4806-aad3-839f545a79a4","ios":"levelo://app?vid=26e67349-8270-4806-aad3-839f545a79a4"},"vehicle_type_id":"4","last_reported":1740381010,"current_range_meters":21600,"station_id":"ce4bh0p2rcd13ifvqd80","pricing_plan_id":"cebpf4jnsgd1na2vs0mg"},{"bike_id":"12b3b3f8-5ec4-4b36-933f-377f405e0a18","system_id":"levelo_inurba_marseille","lat":43.304673,"lon":5.379078,"is_reserved":false,"is_disabled":false,"rental_uris":{"android":"levelo://app?vid=12b3b3f8-5ec4-4b36-933f-377f405e0a18","ios":"levelo://app?vid=12b3b3f8-5ec4-4b36-933f-377f405e0a18"},"vehicle_type_id":"4","last_reported":1740381010,"current_range_meters":21600,"station_id":"ce4bgup2rcd13ifvqcn0","pricing_plan_id":"cebpf4jnsgd1na2vs0mg"},{"bike_id":"944e8778-72a4-4f7c-8f24-dc1ea410c37d","system_id":"levelo_inurba_marseille","lat":43.27568,"lon":5.384026,"is_reserved":false,"is_disabled":false,"rental_uris":{"android":"levelo://app?vid=944e8778-72a4-4f7c-8f24-dc1ea410c37d","ios":"levelo://app?vid=944e8778-72a4-4f7c-8f24-dc1ea410c37d"},"vehicle_type_id":"4","last_reported":1740381010,"current_range_meters":22000,"station_id":"ce4bhh92rcd13ifvqfi0","pricing_plan_id":"cebpf4jnsgd1na2vs0mg"},