{"last_updated":1761577865,"ttl":60,"version":"2.2","data":{"bikes":[{"bike_id":"d88cfa34-e68c-472c-b57c-1a9ba5770303","system_id":"levelo_inurba_marseille","lat":43.285386,"lon":5.440759,"is_reserved":false,"is_disabled":false,"rental_uris":{"android":"levelo://app?vid=d88cfa34-e68c-472c-b57c-1a9ba5770303","ios":"levelo://app?vid=d88cfa34-e68c-472c-b57c-1a9ba5770303"},"vehicle_type_id":"4","last_reported":1761577866,"current_range_meters":2800,"station_id":"st_d3j3df2ikq2c7380ej80","pricing_plan_id":"cebpf4jnsgd1na2vs0mg"},{"bike_id":"6ba8ae3c-f276-4317-b667-02161637f0bc","system_id":"levelo_inurba_marseille","lat":43.30412,"lon":5.41295,"is_reserved":false,"is_disabled":false,"rental_uris":{"android":"levelo://app?vid=6ba8ae3c-f276-4317-b667-02161637f0bc","ios":"levelo://app?vid=6ba8ae3c-f276-4317-b667-02161637f0bc"},"vehicle_type_id":"4","last_reported":1761577866,"current_range_meters":2800,"station_id":"ce4bhop2rcd13ifvqh8g","pricing_plan_id":"cebpf4jnsgd1na2vs0mg"},{"bike_id":"06cd0bc8-edf8-42f6-b1b9-70c99d7480ac","system_id":"levelo_inurba_marseille","lat":43.298462,"lon":5.362767,"is_reserved":false,"is_disabled":false,"rental_uris":{"android":"levelo://app?vid=06cd0bc8-edf8-42f6-b1b9-70c99d7480ac","ios":"levelo://app?vid=06cd0bc8-edf8-42f6-b1b9-70c99d7480ac"},"vehicle_type_id":"4","last_reported":1761577866,"current_range_meters":2800,"station_id":"ce4bgpp2rcd13ifvqc3g","pricing_plan_id":"cebpf4jnsgd1na2vs0mg"},{"bike_id":"4f5219f7-c563-4ff8-9ff6-5f09af3a0641","system_id":"levelo_inurba_marseille","lat":43.29616,"lon":5.37158,"is_reserved":false,"is_disabled":false,"rental_uris":{"android":"levelo://app?vid=4f5219f7-c563-4ff8-9ff6-5f09af3a0641","ios":"levelo://app?vid=4f5219f7-c563-4ff8-9ff6-5f09af3a0641"},"vehicle_type_id":"4","last_reported":1761577866,"current_range_meters":3200,"station_id":"ce4bgnh2rcd13ifvqc0g","pricing_plan_id":"cebpf4jnsgd1na2vs0mg"},{"bike_id":"8be6a47c-9542-4fed-8109-f6d91a0f2b3f","system_id":"levelo_inurba_marseille","lat":43.29174,"lon":5.37161,"is_reserved":false,"is_disabled":false,"rental_uris":{"android":"levelo://app?vid=8be6a47c-9542-4fed-8109-f6d91a0f2b3f","ios":"levelo://app?vid=8be6a47c-9542-4fed-8109-f6d91a0f2b3f"},"vehicle_type_id":"4","last_reported":1761577866,"current_range_meters":3200,"station_id":"ce4bha92rcd13ifvqeh0","pricing_plan_id":"cebpf4jnsgd1na2vs0mg"},{"bike_id":"d510096f-8ee7-4c3a-ad59-02ac4e9390bc","system_id":"levelo_inurba_marseille","lat":43.29564,"lon":5.39973,"is_reserved":false,"is_disabled":false,"rental_uris":{"android":"levelo://app?vid=d510096f-8ee7-4c3a-ad59-02ac4e9390bc","ios":"levelo://app?vid=d510096f-8ee7-4c3a-ad59-02ac4e9390bc"},"vehicle_type_id":"4","last_reported":1761577866,"current_range_meters":3200,"station_id":"ce4bh312rcd13ifvqdj0","pricing_plan_id":"cebpf4jnsgd1na2vs0mg"},{"bike_id":"8168783a-c656-4575-a79b-8465e432d0ae","system_id":"levelo_inurba_marseille","lat":43.2986,"lon":5.36273,"is_reserved":false,"is_disabled":false,"rental_uris":{"android":"levelo://app?vid=8168783a-c656-4575-a79b-8465e432d0ae","ios":"levelo://app?vid=8168783a-c656-4575-a79b-8465e432d0ae"},"vehicle_type_id":"4","last_reported":1761577866,"current_range_meters":4000,"station_id":"ce4bgpp2rcd13ifvqc3g","pricing_plan_id":"cebpf4jnsgd1na2vs0mg"},{"bike_id":"da1e47b2-6649-4d73-80c2-f3f1c6df36ed","system_id":"levelo_inurba_marseille","lat":43.309451,"lon":5.401495,"is_reserved":false,"is_disabled":false,"rental_uris":{"android":"levelo://app?vid=da1e47b2-6649-4d73-80c2-f3f1c6df36ed","ios":"levelo://app?vid=da1e47b2-6649-4d73-80c2-f3f1c6df36ed"},"vehicle_type_id":"4","last_reported":1761577866,"current_range_meters":4000,"station_id":"ce4bgvp2rcd13ifvqct0","pricing_plan_id":"cebpf4jnsgd1na2vs0mg"},{"bike_id":"07d18e15-950d-42a9-a2d7-06e0d294b2f5","system_id":"levelo_inurba_marseille","lat":43.26498,"lon":5.3954,"is_reserved":false,"is_disabled":false,"rental_uris":{"android":"levelo://app?vid=07d18e15-950d-42a9-a2d7-06e0d294b2f5","ios":"levelo://app?vid=07d18e15-950d-42a9-a2d7-06e0d294b2f5"},"vehicle_type_id":"4","last_reported":1761577866,"current_range_meters":4000,"station_id":"ce4bhi12rcd13ifvqfq0","pricing_plan_id":"cebpf4jnsgd1na2vs0mg"},{"bike_id":"69880247-38f2-48e7-ab49-326f3d5eca30","system_id":"levelo_inurba_marseille","lat":43.211879,"lon":5.350755,"is_reserved":false,"is_disabled":false,"rental_uris":{"android":"levelo://app?vid=69880247-38f2-48e7-ab49-326f3d5eca30","ios":"levelo://app?vid=69880247-38f2-48e7-ab49-326f3d5eca30"},"vehicle_type_id":"4","last_reported":1761577866,"current_range_meters":4400,"station_id":"st_cvj6sg6p6f1abm77japg","pricing_plan_id":"cebpf4jnsgd1na2vs0mg"},{"bike_id":"e4d24b97-7b17-4da6-8674-bf2c1f581ba9","system_id":"levelo_inurba_marseille","lat":43.21202,"lon":5.3508,"is_reserved":false,"is_disabled":false,"rental_uris":{"android":"levelo://app?vid=e4d24b97-7b17-4da6-8674-bf2c1f581ba9","ios":"levelo://app?vid=e4d24b97-7b17-4da6-8674-bf2c1f581ba9"},"vehicle_type_id":"4","last_reported":1761577866,"current_range_meters":4800,"station_id":"st_cvj6sg6p6f1abm77japg","pricing_plan_id":"cebpf4jnsgd1na2vs0mg"},{"bike_id":"8b731966-fea9-408d-ad51-61579cf4f05b","system_id":"levelo_inurba_marseille","lat":43.30547,"lon":5.36538,"is_reserved":false,"is_disabled":false,"rental_uris":{"android":"levelo://app?vid=8b731966-fea9-408d-ad51-61579cf4f05b","ios":"levelo://app?vid=8b731966-fea9-408d-ad51-61579cf4f05b"},"vehicle_type_id":"4","last_reported":1761577866,"current_range_meters":4800,"station_id":"ce4bgs12rcd13ifvqcag","pricing_plan_id":"cebpf4jnsgd1na2vs0mg"},{"bike_id":"b0ba880f-81c8-4233-9770-506b14a49247","system_id":"levelo_inurba_marseille","lat":43.279177,"lon":5.395752,"is_reserved":false,"is_disabled":false,"rental_uris":{"android":"levelo://app?vid=b0ba880f-81c8-4233-9770-506b14a49247","ios":"levelo://app?vid=b0ba880f-81c8-4233-9770-506b14a49247"},"vehicle_type_id":"4","last_reported":1761577866,"current_range_meters":5600,"station_id":"ce4bhf92rcd13ifvqf40","pricing_plan_id":"cebpf4jnsgd1na2vs0mg"},{"bike_id":"429edb4f-2014-4607-8060-9276a550d495","system_id":"levelo_inurba_marseille","lat":43.24382,"lon":5.37063,"is_reserved":false,"is_disabled":false,"rental_uris":{"android":"levelo://app?vid=429edb4f-2014-4607-8060-9276a550d495","ios":"levelo://app?vid=429edb4f-2014-4607-8060-9276a550d495"},"vehicle_type_id":"4","last_reported":1761577866,"current_range_meters":5600,"station_id":"ce4bhhh2rcd13ifvqfk0","pricing_plan_id":"cebpf4jnsgd1na2vs0mg"},{"bike_id":"9d943b33-e12f-4684-b457-eab990b642ab","system_id":"levelo_inurba_marseille","lat":43.21204,"lon":5.35087,"is_reserved":false,"is_disabled":false,"rental_uris":{"android":"levelo://app?vid=9d943b33-e12f-4684-b457-eab990b642ab","ios":"levelo://app?vid=9d943b33-e12f-4684-b457-eab990b642ab"},"vehicle_type_id":"4","last_reported":1761577866,"current_range_meters":5600,"station_id":"st_cvj6sg6p6f1abm77japg","pricing_plan_id":"cebpf4jnsgd1na2vs0mg"},{"bike_id":"6ee611b3-bf13-495e-a0dc-dfd1a8718271","system_id":"levelo_inurba_marseille","lat":43.29838,"lon":5.44059,"is_reserved":false,"is_disabled":false,"rental_uris":{"android":"levelo://app?vid=6ee611b3-bf13-495e-a0dc-dfd1a8718271","ios":"levelo://app?vid=6ee611b3-bf13-495e-a0dc-dfd1a8718271"},"vehicle_type_id":"4","last_reported":1761577866,"current_range_meters":6000,"station_id":"st_d3jp68qikq2c7381ktn0","pricing_plan_id":"cebpf4jnsgd1na2vs0mg"},{"bike_id":"3b3a2036-2b61-4f69-b210-68f571d1d055","system_id":"levelo_inurba_marseille","lat":43.246706,"lon":5.38156,"is_reserved":false,"is_disabled":false,"rental_uris":{"android":"levelo://app?vid=3b3a2036-2b61-4f69-b210-68f571d1d055","ios":"levelo://app?vid=3b3a2036-2b61-4f69-b210-68f571d1d055"},"vehicle_type_id":"4","last_reported":1761577866,"current_range_meters":6000,"station_id":"ce4bhih2rcd13ifvqfr0","pricing_plan_id":"cebpf4jnsgd1na2vs0mg"},{"bike_id":"293fc35e-0ac1-4fe5-b0f1-f5f9ed3f2cbc","system_id":"levelo_inurba_marseille","lat":43.225257,"lon":5.348161,"is_reserved":false,"is_disabled":false,"rental_uris":{"android":"levelo://app?vid=293fc35e-0ac1-4fe5-b0f1-f5f9ed3f2cbc","ios":"levelo://app?vid=293fc35e-0ac1-4fe5-b0f1-f5f9ed3f2cbc"},"vehicle_type_id":"4","last_reported":1761577866,"current_range_meters":6000,"station_id":"st_cvj5dfep6f1abm77gieg","pricing_plan_id":"cebpf4jnsgd1na2vs0mg"},{"bike_id":"48ba970b-01af-454f-abff-5f6252268871","system_id":"levelo_inurba_marseille","lat":43.32256,"lon":5.3829,"is_reserved":false,"is_disabled":false,"rental_uris":{"android":"levelo://app?vid=48ba970b-01af-454f-abff-5f6252268871","ios":"levelo://app?vid=48ba970b-01af-454f-abff-5f6252268871"},"vehicle_type_id":"4","last_reported":1761577866,"current_range_meters":6000,"station_id":"ce4bhr12rcd13ifvqhqg","pricing_plan_id":"cebpf4jnsgd1na2vs0mg"},{"bike_id":"b3db65d9-24ed-4423-8cee-4835cec8ad5c","system_id":"levelo_inurba_marseille","lat":43.26937,"lon":5.38908,"is_reserved":false,"is_disabled":false,"rental_uris":{"android":"levelo://app?vid=b3db65d9-24ed-4423-8cee-4835cec8ad5c","ios":"levelo://app?vid=b3db65d9-24ed-4423-8cee-4835cec8ad5c"},"vehicle_type_id":"4","last_reported":1761577866,"current_range_meters":6400,"station_id":"ce4bhhh2rcd13ifvqfl0","pricing_plan_id":"cebpf4jnsgd1na2vs0mg"},{"bike_id":"56a549db-1e89-4915-b6e5-fec8de1040bb","system_id":"levelo_inurba_marseille","lat":43.29006,"lon":5.35613,"is_reserved":false,"is_disabled":false,"rental_uris":{"android":"levelo://app?vid=56a549db-1e89-4915-b6e5-fec8de1040bb","ios":"levelo://app?vid=56a549db-1e89-4915-b6e5-fec8de1040bb"},"vehicle_type_id":"4","last_reported":1761577866,"current_range_meters":6400,"station_id":"ce4bhb92rcd13ifvqen0","pricing_plan_id":"cebpf4jnsgd1na2vs0mg"},{"bike_id":"0e31575e-4e74-4c43-a037-3ac5c147671f","system_id":"levelo_inurba_marseille","lat":43.290348,"lon":5.381412,"is_reserved":false,"is_disabled":false,"rental_uris":{"android":"levelo://app?vid=0e31575e-4e74-4c43-a037-3ac5c147671f","ios":"levelo://app?vid=0e31575e-4e74-4c43-a037-3ac5c147671f"},"vehicle_type_id":"4","last_reported":1761577866,"current_range_meters":6400,"station_id":"ce4bh4p2rcd13ifvqe1g","pricing_plan_id":"cebpf4jnsgd1na2vs0mg"},{"bike_id":"23a98284-9a68-4cae-9bcd-20b82d63126c","system_id":"levelo_inurba_marseille","lat":43.29934,"lon":5.36536,"is_reserved":false,"is_disabled":false,"rental_uris":{"android":"levelo://app?vid=23a98284-9a68-4cae-9bcd-20b82d63126c","ios":"levelo://app?vid=23a98284-9a68-4cae-9bcd-20b82d63126c"},"vehicle_type_id":"4","last_reported":1761577866,"current_range_meters":6400,"station_id":"ce4bgm92rcd13ifvqbr0","pricing_plan_id":"cebpf4jnsgd1na2vs0mg"},{"bike_id":"e1aa20f8-799a-4567-bfd0-31e71eee617f","system_id":"levelo_inurba_marseille","lat":43.31437,"lon":5.38885,"is_reserved":false,"is_disabled":false,"rental_uris":{"android":"levelo://app?vid=e1aa20f8-799a-4567-bfd0-31e71eee617f","ios":"levelo://app?vid=e1aa20f8-799a-4567-bfd0-31e71eee617f"},"vehicle_type_id":"4","last_reported":1761577866,"current_range_meters":6800,"station_id":"","pricing_plan_id":"cebpf4jnsgd1na2vs0mg"},{"bike_id":"94994509-16d9-4d40-9224-f56149581ba7","system_id":"levelo_inurba_marseille","lat":43.25508,"lon":5.37663,"is_reserved":false,"is_disabled":false,"rental_uris":{"android":"levelo://app?vid=94994509-16d9-4d40-9224-f56149581ba7","ios":"levelo://app?vid=94994509-16d9-4d40-9224-f56149581ba7"},"vehicle_type_id":"4","last_reported":1761577866,"current_range_meters":6800,"station_id":"ce4bhh12rcd13ifvqff0","pricing_plan_id":"cebpf4jnsgd1na2vs0mg"},{"bike_id":"025d7a66-6af7-4a09-8abd-31f4d0bcb680","system_id":"levelo_inurba_marseille","lat":43.261949,"lon":5.374653,"is_reserved":false,"is_disabled":false,"rental_uris":{"android":"levelo://app?vid=025d7a66-6af7-4a09-8abd-31f4d0bcb680","ios":"levelo://app?vid=025d7a66-6af7-4a09-8abd-31f4d0bcb680"},"vehicle_type_id":"4","last_reported":1761577866,"current_range_meters":6800,"station_id":"ce4bhgp2rcd13ifvqfc0","pricing_plan_id":"cebpf4jnsgd1na2vs0mg"},{"bike_id":"4ade9d83-f2d5-4d19-a54e-74fbd9ec2b53","system_id":"levelo_inurba_marseille","lat":43.32363,"lon":5.38895,"is_reserved":false,"is_disabled":false,"rental_uris":{"android":"levelo://app?vid=4ade9d83-f2d5-4d19-a54e-74fbd9ec2b53","ios":"levelo://app?vid=4ade9d83-f2d5-4d19-a54e-74fbd9ec2b53"},"vehicle_type_id":"4","last_reported":1761577866,"current_range_meters":6800,"station_id":"ce4bhqp2rcd13ifvqhog","pricing_plan_id":"cebpf4jnsgd1na2vs0mg"},{"bike_id":"750144f8-ccc7-463b-9813-73498a2ecf69","system_id":"levelo_inurba_marseille","lat":43.30928,"lon":5.36848,"is_reserved":false,"is_disabled":false,"rental_uris":{"android":"levelo://app?vid=750144f8-ccc7-463b-9813-73498a2ecf69","ios":"levelo://app?vid=750144f8-ccc7-463b-9813-73498a2ecf69"},"vehicle_type_id":"4","last_reported":1761577866,"current_range_meters":6800,"station_id":"ce4bgn92rcd13ifvqbvg","pricing_plan_id":"cebpf4jnsgd1na2vs0mg"},{"bike_id":"64b57acd-75aa-4142-b117-ecad676bae0e","system_id":"levelo_inurba_marseille","lat":43.24988,"lon":5.38935,"is_reserved":false,"is_disabled":false,"rental_uris":{"android":"levelo://app?vid=64b57acd-75aa-4142-b117-ecad676bae0e","ios":"levelo://app?vid=64b57acd-75aa-4142-b117-ecad676bae0e"},"vehicle_type_id":"4","last_reported":1761577866,"current_range_meters":6800,"station_id":"ce4bhgp2rcd13ifvqfd0","pricing_plan_id":"cebpf4jnsgd1na2vs0mg"},{"bike_id":"9a907ef3-1105-4b30-90b9-124b1084edbb","system_id":"levelo_inurba_marseille","lat":43.28012,"lon":5.41645,"is_reserved":false,"is_disabled":false,"rental_uris":{"android":"levelo://app?vid=9a907ef3-1105-4b30-90b9-124b1084edbb","ios":"levelo://app?vid=9a907ef3-1105-4b30-90b9-124b1084edbb"},"vehicle_type_id":"4","last_reported":1761577866,"current_range_meters":7200,"station_id":"ce4bho12rcd13ifvqh1g","pricing_plan_id":"cebpf4jnsgd1na2vs0mg"},{"bike_id":"e993fb3e-6dbe-4545-a18f-e2b84897faec","system_id":"levelo_inurba_marseille","lat":43.31324,"lon":5.3969,"is_reserved":false,"is_disabled":false,"rental_uris":{"android":"levelo://app?vid=e993fb3e-6dbe-4545-a18f-e2b84897faec","ios":"levelo://app?vid=e993fb3e-6dbe-4545-a18f-e2b84897faec"},"vehicle_type_id":"4","last_reported":1761577866,"current_range_meters":7200,"station_id":"ce4bgvp2rcd13ifvqcu0","pricing_plan_id":"cebpf4jnsgd1na2vs0mg"},{"bike_id":"f0795a76-6b90-42bd-865e-ab0d05039926","system_id":"levelo_inurba_marseille","lat":43.24173,"lon":5.39733,"is_reserved":false,"is_disabled":false,"rental_uris":{"android":"levelo://app?vid=f0795a76-6b90-42bd-865e-ab0d05039926","ios":"levelo://app?vid=f0795a76-6b90-42bd-865e-ab0d05039926"},"vehicle_type_id":"4","last_reported":1761577866,"current_range_meters":7200,"station_id":"ce4bhn12rcd13ifvqgpg","pricing_plan_id":"cebpf4jnsgd1na2vs0mg"},{"bike_id":"376f37db-9367-433a-9ac4-7f57991dd845","system_id":"levelo_inurba_marseille","lat":43.32096,"lon":5.36802,"is_reserved":false,"is_disabled":false,"rental_uris":{"android":"levelo://app?vid=376f37db-9367-433a-9ac4-7f57991dd845","ios":"levelo://app?vid=376f37db-9367-433a-9ac4-7f57991dd845"},"vehicle_type_id":"4","last_reported":1761577866,"current_range_meters":8000,"station_id":"ce4bhrh2rcd13ifvqhug","pricing_plan_id":"cebpf4jnsgd1na2vs0mg"},{"bike_id":"87102fa3-154e-43df-a038-53375f421661","system_id":"levelo_inurba_marseille","lat":43.262025,"lon":5.379372,"is_reserved":false,"is_disabled":false,"rental_uris":{"android":"levelo://app?vid=87102fa3-154e-43df-a038-53375f421661","ios":"levelo://app?vid=87102fa3-154e-43df-a038-53375f421661"},"vehicle_type_id":"4","last_reported":1761577866,"current_range_meters":8000,"station_id":"ce4bhjp2rcd13ifvqg90","pricing_plan_id":"cebpf4jnsgd1na2vs0mg"},{"bike_id":"c0b81f28-bbba-4247-a74b-c55a34b31846","system_id":"levelo_inurba_marseille","lat":43.33258,"lon":5.41086,"is_reserved":false,"is_disabled":false,"rental_uris":{"android":"levelo://app?vid=c0b81f28-bbba-4247-a74b-c55a34b31846","ios":"levelo://app?vid=c0b81f28-bbba-4247-a74b-c55a34b31846"},"vehicle_type_id":"4","last_reported":1761577866,"current_range_meters":8400,"station_id":"","pricing_plan_id":"cebpf4jnsgd1na2vs0mg"},{"bike_id":"41d45b45-3a52-4b5a-b2b3-1e62d5490ada","system_id":"levelo_inurba_marseille","lat":43.28524,"lon":5.44104,"is_reserved":false,"is_disabled":false,"rental_uris":{"android":"levelo://app?vid=41d45b45-3a52-4b5a-b2b3-1e62d5490ada","ios":"levelo://app?vid=41d45b45-3a52-4b5a-b2b3-1e62d5490ada"},"vehicle_type_id":"4","last_reported":1761577866,"current_range_meters":8400,"station_id":"st_d3j3df2ikq2c7380ej80","pricing_plan_id":"cebpf4jnsgd1na2vs0mg"},{"bike_id":"b9e69b17-887c-49c1-980f-916e4603fe47","system_id":"levelo_inurba_marseille","lat":43.28675,"lon":5.38665,"is_reserved":false,"is_disabled":false,"rental_uris":{"android":"levelo://app?vid=b9e69b17-887c-49c1-980f-916e4603fe47","ios":"levelo://app?vid=b9e69b17-887c-49c1-980f-916e4603fe47"},"vehicle_type_id":"4","last_reported":1761577866,"current_range_meters":8400,"station_id":"ce4bh492rcd13ifvqdug","pricing_plan_id":"cebpf4jnsgd1na2vs0mg"},{"bike_id":"8e49c088-979f-4ff9-81b1-d21901a3a257","system_id":"levelo_inurba_marseille","lat":43.28163,"lon":5.34998,"is_reserved":false,"is_disabled":false,"rental_uris":{"android":"levelo://app?vid=8e49c088-979f-4ff9-81b1-d21901a3a257","ios":"levelo://app?vid=8e49c088-979f-4ff9-81b1-d21901a3a257"},"vehicle_type_id":"4","last_reported":1761577866,"current_range_meters":8400,"station_id":"","pricing_plan_id":"cebpf4jnsgd1na2vs0mg"},{"bike_id":"845494ba-54c2-4566-9fb5-143bba03d522","system_id":"levelo_inurba_marseille","lat":43.30432,"lon":5.39745,"is_reserved":false,"is_disabled":false,"rental_uris":{"android":"levelo://app?vid=845494ba-54c2-4566-9fb5-143bba03d522","ios":"levelo://app?vid=845494ba-54c2-4566-9fb5-143bba03d522"},"vehicle_type_id":"4","last_reported":1761577866,"current_range_meters":8800,"station_id":"ce4bh092rcd13ifvqd20","pricing_plan_id":"cebpf4jnsgd1na2vs0mg"},{"bike_id":"64b75b4a-3497-4861-8cc2-90dd62cd9f5e","system_id":"levelo_inurba_marseille","lat":43.293011,"lon":5.434473,"is_reserved":false,"is_disabled":false,"rental_uris":{"android":"levelo://app?vid=64b75b4a-3497-4861-8cc2-90dd62cd9f5e","ios":"levelo://app?vid=64b75b4a-3497-4861-8cc2-90dd62cd9f5e"},"vehicle_type_id":"4","last_reported":1761577866,"current_range_meters":8800,"station_id":"","pricing_plan_id":"cebpf4jnsgd1na2vs0mg"},{"bike_id":"af01d055-b0f4-4e21-ab26-45fb6440de15","system_id":"levelo_inurba_marseille","lat":43.29898,"lon":5.43651,"is_reserved":false,"is_disabled":false,"rental_uris":{"android":"levelo://app?vid=af01d055-b0f4-4e21-ab26-45fb6440de15","ios":"levelo://app?vid=af01d055-b0f4-4e21-ab26-45fb6440de15"},"vehicle_type_id":"4","last_reported":1761577866,"current_range_meters":8800,"station_id":"ce4bhpp2rcd13ifvqhfg","pricing_plan_id":"cebpf4jnsgd1na2vs0mg"},{"bike_id":"e4ccce50-4824-4895-aa8c-033835526f23","system_id":"levelo_inurba_marseille","lat":43.318809,"lon":5.399802,"is_reserved":false,"is_disabled":false,"rental_uris":{"android":"levelo://app?vid=e4ccce50-4824-4895-aa8c-033835526f23","ios":"levelo://app?vid=e4ccce50-4824-4895-aa8c-033835526f23"},"vehicle_type_id":"4","last_reported":1761577866,"current_range_meters":8800,"station_id":"","pricing_plan_id":"cebpf4jnsgd1na2vs0mg"},{"bike_id":"8da55fc5-d39a-4cdd-9640-35d21b65670e","system_id":"levelo_inurba_marseille","lat":43.3204,"lon":5.4155,"is_reserved":false,"is_disabled":false,"rental_uris":{"android":"levelo://app?vid=8da55fc5-d39a-4cdd-9640-35d21b65670e","ios":"levelo://app?vid=8da55fc5-d39a-4cdd-9640-35d21b65670e"},"vehicle_type_id":"4","last_reported":1761577866,"current_range_meters":8800,"station_id":"ce4bhq92rcd13ifvqhkg","pricing_plan_id":"cebpf4jnsgd1na2vs0mg"},{"bike_id":"de5cece4-6186-4ccb-b70e-a25e8bd3fc86","system_id":"levelo_inurba_marseille","lat":43.337444,"lon":5.374475,"is_reserved":false,"is_disabled":false,"rental_uris":{"android":"levelo://app?vid=de5cece4-6186-4ccb-b70e-a25e8bd3fc86","ios":"levelo://app?vid=de5cece4-6186-4ccb-b70e-a25e8bd3fc86"},"vehicle_type_id":"4","last_reported":1761577866,"current_range_meters":8800,"station_id":"","pricing_plan_id":"cebpf4jnsgd1na2vs0mg"},{"bike_id":"54a26065-ae65-4d07-947d-498eda9ead61","system_id":"levelo_inurba_marseille","lat":43.26656,"lon":5.3828,"is_reserved":false,"is_disabled":false,"rental_uris":{"android":"levelo://app?vid=54a26065-ae65-4d07-947d-498eda9ead61","ios":"levelo://app?vid=54a26065-ae65-4d07-947d-498eda9ead61"},"vehicle_type_id":"4","last_reported":1761577866,"current_range_meters":9200,"station_id":"ce4bhg92rcd13ifvqf90","pricing_plan_id":"cebpf4jnsgd1na2vs0mg"},{"bike_id":"8847af5d-c1ad-4d8d-a5c1-273c3b41c105","system_id":"levelo_inurba_marseille","lat":43.32243,"lon":5.41957,"is_reserved":false,"is_disabled":false,"rental_uris":{"android":"levelo://app?vid=8847af5d-c1ad-4d8d-a5c1-273c3b41c105","ios":"levelo://app?vid=8847af5d-c1ad-4d8d-a5c1-273c3b41c105"},"vehicle_type_id":"4","last_reported":1761577866,"current_range_meters":9200,"station_id":"","pricing_plan_id":"cebpf4jnsgd1na2vs0mg"},{"bike_id":"82f73d99-74f0-455c-9396-899160d92f0a","system_id":"levelo_inurba_marseille","lat":43.29525,"lon":5.39396,"is_reserved":false,"is_disabled":false,"rental_uris":{"android":"levelo://app?vid=82f73d99-74f0-455c-9396-899160d92f0a","ios":"levelo://app?vid=82f73d99-74f0-455c-9396-899160d92f0a"},"vehicle_type_id":"4","last_reported":1761577866,"current_range_meters":9200,"station_id":"ce4bh292rcd13ifvqdf0","pricing_plan_id":"cebpf4jnsgd1na2vs0mg"},{"bike_id":"5c804781-5aea-4e12-8d03-cb8829527549","system_id":"levelo_inurba_marseille","lat":43.299739,"lon":5.371864,"is_reserved":false,"is_disabled":false,"rental_uris":{"android":"levelo://app?vid=5c804781-5aea-4e12-8d03-cb8829527549","ios":"levelo://app?vid=5c804781-5aea-4e12-8d03-cb8829527549"},"vehicle_type_id":"4","last_reported":1761577866,"current_range_meters":9200,"station_id":"ce4bgr92rcd13ifvqc7g","pricing_plan_id":"cebpf4jnsgd1na2vs0mg"},{"bike_id":"74a824dd-30b6-457c-bbb7-0b263e341550","system_id":"levelo_inurba_marseille","lat":43.29862,"lon":5.39748,"is_reserved":false,"is_disabled":false,"rental_uris":{"android":"levelo://app?vid=74a824dd-30b6-457c-bbb7-0b263e341550","ios":"levelo://app?vid=74a824dd-30b6-457c-bbb7-0b263e341550"},"vehicle_type_id":"4","last_reported":1761577866,"current_range_meters":9200,"station_id":"ce4bh0h2rcd13ifvqd50","pricing_plan_id":"cebpf4jnsgd1na2vs0mg"},{"bike_id":"375b3fa6-4f19-4ffb-8f5d-26c47e160841","system_id":"levelo_inurba_marseille","lat":43.217507,"lon":5.346111,"is_reserved":false,"is_disabled":false,"rental_uris":{"android":"levelo://app?vid=375b3fa6-4f19-4ffb-8f5d-26c47e160841","ios":"levelo://app?vid=375b3fa6-4f19-4ffb-8f5d-26c47e160841"},"vehicle_type_id":"4","last_reported":1761577866,"current_range_meters":9200,"station_id":"","pricing_plan_id":"cebpf4jnsgd1na2vs0mg"},{"bike_id":"c913255a-6d5e-4b47-a6e3-d597b6765aee","system_id":"levelo_inurba_marseille","lat":43.282654,"lon":5.35068,"is_reserved":false,"is_disabled":false,"rental_uris":{"android":"levelo://app?vid=c913255a-6d5e-4b47-a6e3-d597b6765aee","ios":"levelo://app?vid=c913255a-6d5e-4b47-a6e3-d597b6765aee"},"vehicle_type_id":"4","last_reported":1761577866,"current_range_meters":9200,"station_id":"ce4bhbp2rcd13ifvqerg","pricing_plan_id":"cebpf4jnsgd1na2vs0mg"},{"bike_id":"bca3b18c-0d56-4a2c-9a66-c7302ddd90dd","system_id":"levelo_inurba_marseille","lat":43.28183,"lon":5.39064,"is_reserved":false,"is_disabled":false,"rental_uris":{"android":"levelo://app?vid=bca3b18c-0d56-4a2c-9a66-c7302ddd90dd","ios":"levelo://app?vid=bca3b18c-0d56-4a2c-9a66-c7302ddd90dd"},"vehicle_type_id":"4","last_reported":1761577866,"current_range_meters":9600,"station_id":"ce4bhn92rcd13ifvqgsg","pricing_plan_id":"cebpf4jnsgd1na2vs0mg"},{"bike_id":"de0ca7a8-116a-46c8-8c50-6b445a473423","system_id":"levelo_inurba_marseille","lat":43.28865,"lon":5.4253,"is_reserved":false,"is_disabled":false,"rental_uris":{"android":"levelo://app?vid=de0ca7a8-116a-46c8-8c50-6b445a473423","ios":"levelo://app?vid=de0ca7a8-116a-46c8-8c50-6b445a473423"},"vehicle_type_id":"4","last_reported":1761577866,"current_range_meters":9600,"station_id":"st_d3b462108ojc7389ooeg","pricing_plan_id":"cebpf4jnsgd1na2vs0mg"},{"bike_id":"e80257ad-078d-4372-925c-fb433f33b9c1","system_id":"levelo_inurba_marseille","lat":43.29905,"lon":5.3655,"is_reserved":false,"is_disabled":false,"rental_uris":{"android":"levelo://app?vid=e80257ad-078d-4372-925c-fb433f33b9c1","ios":"levelo://app?vid=e80257ad-078d-4372-925c-fb433f33b9c1"},"vehicle_type_id":"4","last_reported":1761577866,"current_range_meters":9600,"station_id":"ce4bgm92rcd13ifvqbr0","pricing_plan_id":"cebpf4jnsgd1na2vs0mg"},{"bike_id":"2b2378e8-fe69-44fb-9f4d-d06d1c41ba6f","system_id":"levelo_inurba_marseille","lat":43.26682,"lon":5.38273,"is_reserved":false,"is_disabled":false,"rental_uris":{"android":"levelo://app?vid=2b2378e8-fe69-44fb-9f4d-d06d1c41ba6f","ios":"levelo://app?vid=2b2378e8-fe69-44fb-9f4d-d06d1c41ba6f"},"vehicle_type_id":"4","last_reported":1761577866,"current_range_meters":9600,"station_id":"ce4bhg92rcd13ifvqf90","pricing_plan_id":"cebpf4jnsgd1na2vs0mg"},{"bike_id":"c5e0a972-a5f9-4418-89c0-737fca3d39e9","system_id":"levelo_inurba_marseille","lat":43.299265,"lon":5.365463,"is_reserved":false,"is_disabled":false,"rental_uris":{"android":"levelo://app?vid=c5e0a972-a5f9-4418-89c0-737fca3d39e9","ios":"levelo://app?vid=c5e0a972-a5f9-4418-89c0-737fca3d39e9"},"vehicle_type_id":"4","last_reported":1761577866,"current_range_meters":10000,"station_id":"ce4bgm92rcd13ifvqbr0","pricing_plan_id":"cebpf4jnsgd1na2vs0mg"},{"bike_id":"d9bb607d-1ecc-49cc-9f82-e52383a3bc84","system_id":"levelo_inurba_marseille","lat":43.2932,"lon":5.41182,"is_reserved":false,"is_disabled":false,"rental_uris":{"android":"levelo://app?vid=d9bb607d-1ecc-49cc-9f82-e52383a3bc84","ios":"levelo://app?vid=d9bb607d-1ecc-49cc-9f82-e52383a3bc84"},"vehicle_type_id":"4","last_reported":1761577866,"current_range_meters":10000,"station_id":"","pricing_plan_id":"cebpf4jnsgd1na2vs0mg"},{"bike_id":"0c80bcba-3536-4b7d-9624-828e9322931b","system_id":"levelo_inurba_marseille","lat":43.33601,"lon":5.41033,"is_reserved":false,"is_disabled":false,"rental_uris":{"android":"levelo://app?vid=0c80bcba-3536-4b7d-9624-828e9322931b","ios":"levelo://app?vid=0c80bcba-3536-4b7d-9624-828e9322931b"},"vehicle_type_id":"4","last_reported":1761577866,"current_range_meters":10000,"station_id":"ce4bhqh2rcd13ifvqhmg","pricing_plan_id":"cebpf4jnsgd1na2vs0mg"},{"bike_id":"242a2cae-5090-416c-bb06-fc75f23214ab","system_id":"levelo_inurba_marseille","lat":43.29974,"lon":5.37178,"is_reserved":false,"is_disabled":false,"rental_uris":{"android":"levelo://app?vid=242a2cae-5090-416c-bb06-fc75f23214ab","ios":"levelo://app?vid=242a2cae-5090-416c-bb06-fc75f23214ab"},"vehicle_type_id":"4","last_reported":1761577866,"current_range_meters":10000,"station_id":"ce4bgr92rcd13ifvqc7g","pricing_plan_id":"cebpf4jnsgd1na2vs0mg"},{"bike_id":"8e84b6af-6960-461d-913b-40ee0eff6fdd","system_id":"levelo_inurba_marseille","lat":43.30526,"lon":5.36563,"is_reserved":false,"is_disabled":false,"rental_uris":{"android":"levelo://app?vid=8e84b6af-6960-461d-913b-40ee0eff6fdd","ios":"levelo://app?vid=8e84b6af-6960-461d-913b-40ee0eff6fdd"},"vehicle_type_id":"4","last_reported":1761577866,"current_range_meters":10000,"station_id":"ce4bgs12rcd13ifvqcag","pricing_plan_id":"cebpf4jnsgd1na2vs0mg"},{"bike_id":"7348219f-62a2-4f61-9dc3-4c6ae6e126f0","system_id":"levelo_inurba_marseille","lat":43.33725,"lon":5.37459,"is_reserved":false,"is_disabled":false,"rental_uris":{"android":"levelo://app?vid=7348219f-62a2-4f61-9dc3-4c6ae6e126f0","ios":"levelo://app?vid=7348219f-62a2-4f61-9dc3-4c6ae6e126f0"},"vehicle_type_id":"4","last_reported":1761577866,"current_range_meters":10800,"station_id":"","pricing_plan_id":"cebpf4jnsgd1na2vs0mg"},{"bike_id":"85abcedc-eaaa-4984-984d-f3b7bc8484a5","system_id":"levelo_inurba_marseille","lat":43.284832,"lon":5.384167,"is_reserved":false,"is_disabled":false,"rental_uris":{"android":"levelo://app?vid=85abcedc-eaaa-4984-984d-f3b7bc8484a5","ios":"levelo://app?vid=85abcedc-eaaa-4984-984d-f3b7bc8484a5"},"vehicle_type_id":"4","last_reported":1761577866,"current_range_meters":10800,"station_id":"ce4bh512rcd13ifvqe3g","pricing_plan_id":"cebpf4jnsgd1na2vs0mg"},{"bike_id":"0006473d-a589-4f6e-a840-373d7f724227","system_id":"levelo_inurba_marseille","lat":43.30109,"lon":5.38788,"is_reserved":false,"is_disabled":false,"rental_uris":{"android":"levelo://app?vid=0006473d-a589-4f6e-a840-373d7f724227","ios":"levelo://app?vid=0006473d-a589-4f6e-a840-373d7f724227"},"vehicle_type_id":"4","last_reported":1761577866,"current_range_meters":11200,"station_id":"ce4bghh2rcd13ifvqb60","pricing_plan_id":"cebpf4jnsgd1na2vs0mg"},{"bike_id":"7ebed296-9c39-4448-8c31-14084ae11589","system_id":"levelo_inurba_marseille","lat":43.29571,"lon":5.38114,"is_reserved":false,"is_disabled":false,"rental_uris":{"android":"levelo://app?vid=7ebed296-9c39-4448-8c31-14084ae11589","ios":"levelo://app?vid=7ebed296-9c39-4448-8c31-14084ae11589"},"vehicle_type_id":"4","last_reported":1761577866,"current_range_meters":11200,"station_id":"ce4bgl12rcd13ifvqbo0","pricing_plan_id":"cebpf4jnsgd1na2vs0mg"},{"bike_id":"520a923d-8393-46c2-9fe4-754780c4305a","system_id":"levelo_inurba_marseille","lat":43.2947,"lon":5.43323,"is_reserved":false,"is_disabled":false,"rental_uris":{"android":"levelo://app?vid=520a923d-8393-46c2-9fe4-754780c4305a","ios":"levelo://app?vid=520a923d-8393-46c2-9fe4-754780c4305a"},"vehicle_type_id":"4","last_reported":1761577866,"current_range_meters":11200,"station_id":"st_d3j5ugp08ojc73fj9d10","pricing_plan_id":"cebpf4jnsgd1na2vs0mg"},{"bike_id":"8c1d91e1-a0a1-4644-a1f1-1182ef7cba8a","system_id":"levelo_inurba_marseille","lat":43.287,"lon":5.39979,"is_reserved":false,"is_disabled":false,"rental_uris":{"android":"levelo://app?vid=8c1d91e1-a0a1-4644-a1f1-1182ef7cba8a","ios":"levelo://app?vid=8c1d91e1-a0a1-4644-a1f1-1182ef7cba8a"},"vehicle_type_id":"4","last_reported":1761577866,"current_range_meters":11200,"station_id":"ce4bho92rcd13ifvqh3g","pricing_plan_id":"cebpf4jnsgd1na2vs0mg"},{"bike_id":"423e556f-17c4-4408-a1f1-7c1e84f1b6f8","system_id":"levelo_inurba_marseille","lat":43.23208,"lon":5.4366,"is_reserved":false,"is_disabled":false,"rental_uris":{"android":"levelo://app?vid=423e556f-17c4-4408-a1f1-7c1e84f1b6f8","ios":"levelo://app?vid=423e556f-17c4-4408-a1f1-7c1e84f1b6f8"},"vehicle_type_id":"4","last_reported":1761577866,"current_range_meters":11200,"station_id":"ce4bhmp2rcd13ifvqgog","pricing_plan_id":"cebpf4jnsgd1na2vs0mg"},{"bike_id":"efce307e-8def-4fc3-b47b-8fe6678abb79","system_id":"levelo_inurba_marseille","lat":43.282511,"lon":5.350835,"is_reserved":false,"is_disabled":false,"rental_uris":{"android":"levelo://app?vid=efce307e-8def-4fc3-b47b-8fe6678abb79","ios":"levelo://app?vid=efce307e-8def-4fc3-b47b-8fe6678abb79"},"vehicle_type_id":"4","last_reported":1761577866,"current_range_meters":11600,"station_id":"ce4bhbp2rcd13ifvqerg","pricing_plan_id":"cebpf4jnsgd1na2vs0mg"},{"bike_id":"ab2e8c77-4846-4b79-abc7-30dc4d99a337","system_id":"levelo_inurba_marseille","lat":43.26217,"lon":5.40471,"is_reserved":false,"is_disabled":false,"rental_uris":{"android":"levelo://app?vid=ab2e8c77-4846-4b79-abc7-30dc4d99a337","ios":"levelo://app?vid=ab2e8c77-4846-4b79-abc7-30dc4d99a337"},"vehicle_type_id":"4","last_reported":1761577866,"current_range_meters":11600,"station_id":"ce4bhmh2rcd13ifvqgmg","pricing_plan_id":"cebpf4jnsgd1na2vs0mg"},{"bike_id":"3d348a7e-85ba-484e-9de6-700884e21380","system_id":"levelo_inurba_marseille","lat":43.27983,"lon":5.38747,"is_reserved":false,"is_disabled":false,"rental_uris":{"android":"levelo://app?vid=3d348a7e-85ba-484e-9de6-700884e21380","ios":"levelo://app?vid=3d348a7e-85ba-484e-9de6-700884e21380"},"vehicle_type_id":"4","last_reported":1761577866,"current_range_meters":11600,"station_id":"ce4bhg12rcd13ifvqf80","pricing_plan_id":"cebpf4jnsgd1na2vs0mg"},{"bike_id":"3af31174-e1ee-4592-8a91-36899f80135b","system_id":"levelo_inurba_marseille","lat":43.22925,"lon":5.35388,"is_reserved":false,"is_disabled":false,"rental_uris":{"android":"levelo://app?vid=3af31174-e1ee-4592-8a91-36899f80135b","ios":"levelo://app?vid=3af31174-e1ee-4592-8a91-36899f80135b"},"vehicle_type_id":"4","last_reported":1761577866,"current_range_meters":11600,"station_id":"cpo3532slgdg3j2ikp40","pricing_plan_id":"cebpf4jnsgd1na2vs0mg"},{"bike_id":"e99985bf-9b97-4170-857e-c0845fed75ff","system_id":"levelo_inurba_marseille","lat":43.2875,"lon":5.38552,"is_reserved":false,"is_disabled":false,"rental_uris":{"android":"levelo://app?vid=e99985bf-9b97-4170-857e-c0845fed75ff","ios":"levelo://app?vid=e99985bf-9b97-4170-857e-c0845fed75ff"},"vehicle_type_id":"4","last_reported":1761577866,"current_range_meters":12000,"station_id":"","pricing_plan_id":"cebpf4jnsgd1na2vs0mg"},{"bike_id":"d9ef5462-f283-4c70-90db-fdb906b67df3","system_id":"levelo_inurba_marseille","lat":43.27982,"lon":5.41671,"is_reserved":false,"is_disabled":false,"rental_uris":{"android":"levelo://app?vid=d9ef5462-f283-4c70-90db-fdb906b67df3","ios":"levelo://app?vid=d9ef5462-f283-4c70-90db-fdb906b67df3"},"vehicle_type_id":"4","last_reported":1761577866,"current_range_meters":12000,"station_id":"ce4bho12rcd13ifvqh1g","pricing_plan_id":"cebpf4jnsgd1na2vs0mg"},{"bike_id":"71fe0d6a-f99e-45a0-9c75-e294b78524b2","system_id":"levelo_inurba_marseille","lat":43.21668,"lon":5.34628,"is_reserved":false,"is_disabled":false,"rental_uris":{"android":"levelo://app?vid=71fe0d6a-f99e-45a0-9c75-e294b78524b2","ios":"levelo://app?vid=71fe0d6a-f99e-45a0-9c75-e294b78524b2"},"vehicle_type_id":"4","last_reported":1761577866,"current_range_meters":12400,"station_id":"","pricing_plan_id":"cebpf4jnsgd1na2vs0mg"},{"bike_id":"a7a0862c-1eb2-4260-80d9-5ba3ce0c4428","system_id":"levelo_inurba_marseille","lat":43.29003,"lon":5.35611,"is_reserved":false,"is_disabled":false,"rental_uris":{"android":"levelo://app?vid=a7a0862c-1eb2-4260-80d9-5ba3ce0c4428","ios":"levelo://app?vid=a7a0862c-1eb2-4260-80d9-5ba3ce0c4428"},"vehicle_type_id":"4","last_reported":1761577866,"current_range_meters":12400,"station_id":"ce4bhb92rcd13ifvqen0","pricing_plan_id":"cebpf4jnsgd1na2vs0mg"},{"bike_id":"b45fdef1-3b64-4516-b805-32ad99ff17a0","system_id":"levelo_inurba_marseille","lat":43.290379,"lon":5.375698,"is_reserved":false,"is_disabled":false,"rental_uris":{"android":"levelo://app?vid=b45fdef1-3b64-4516-b805-32ad99ff17a0","ios":"levelo://app?vid=b45fdef1-3b64-4516-b805-32ad99ff17a0"},"vehicle_type_id":"4","last_reported":1761577866,"current_range_meters":12400,"station_id":"ce4bh692rcd13ifvqe90","pricing_plan_id":"cebpf4jnsgd1na2vs0mg"},{"bike_id":"657b2410-a444-48fa-b451-b810dd559f8d","system_id":"levelo_inurba_marseille","lat":43.28002,"lon":5.40025,"is_reserved":false,"is_disabled":false,"rental_uris":{"android":"levelo://app?vid=657b2410-a444-48fa-b451-b810dd559f8d","ios":"levelo://app?vid=657b2410-a444-48fa-b451-b810dd559f8d"},"vehicle_type_id":"4","last_reported":1761577866,"current_range_meters":12400,"station_id":"ce4bho92rcd13ifvqh4g","pricing_plan_id":"cebpf4jnsgd1na2vs0mg"},{"bike_id":"f6f41915-49e3-4fb8-8c5c-96d42e084e15","system_id":"levelo_inurba_marseille","lat":43.32039,"lon":5.37115,"is_reserved":false,"is_disabled":false,"rental_uris":{"android":"levelo://app?vid=f6f41915-49e3-4fb8-8c5c-96d42e084e15","ios":"levelo://app?vid=f6f41915-49e3-4fb8-8c5c-96d42e084e15"},"vehicle_type_id":"4","last_reported":1761577866,"current_range_meters":12800,"station_id":"","pricing_plan_id":"cebpf4jnsgd1na2vs0mg"},{"bike_id":"2d10b29a-1085-4848-b419-ed8b64a2bc3d","system_id":"levelo_inurba_marseille","lat":43.2854,"lon":5.383919,"is_reserved":false,"is_disabled":false,"rental_uris":{"android":"levelo://app?vid=2d10b29a-1085-4848-b419-ed8b64a2bc3d","ios":"levelo://app?vid=2d10b29a-1085-4848-b419-ed8b64a2bc3d"},"vehicle_type_id":"4","last_reported":1761577866,"current_range_meters":12800,"station_id":"ce4bh512rcd13ifvqe2g","pricing_plan_id":"cebpf4jnsgd1na2vs0mg"},{"bike_id":"5717a78a-362c-4022-83fd-f4c63c32698e","system_id":"levelo_inurba_marseille","lat":43.30415,"lon":5.41292,"is_reserved":false,"is_disabled":false,"rental_uris":{"android":"levelo://app?vid=5717a78a-362c-4022-83fd-f4c63c32698e","ios":"levelo://app?vid=5717a78a-362c-4022-83fd-f4c63c32698e"},"vehicle_type_id":"4","last_reported":1761577866,"current_range_meters":12800,"station_id":"ce4bhop2rcd13ifvqh8g","pricing_plan_id":"cebpf4jnsgd1na2vs0mg"},{"bike_id":"b62384da-b264-4572-be95-c352c4c4a292","system_id":"levelo_inurba_marseille","lat":43.27171,"lon":5.40991,"is_reserved":false,"is_disabled":false,"rental_uris":{"android":"levelo://app?vid=b62384da-b264-4572-be95-c352c4c4a292","ios":"levelo://app?vid=b62384da-b264-4572-be95-c352c4c4a292"},"vehicle_type_id":"4","last_reported":1761577866,"current_range_meters":12800,"station_id":"ce4bhl12rcd13ifvqgf0","pricing_plan_id":"cebpf4jnsgd1na2vs0mg"},{"bike_id":"f7caac40-7c69-43ef-92b4-f846ffab3e51","system_id":"levelo_inurba_marseille","lat":43.26224,"lon":5.37455,"is_reserved":false,"is_disabled":false,"rental_uris":{"android":"levelo://app?vid=f7caac40-7c69-43ef-92b4-f846ffab3e51","ios":"levelo://app?vid=f7caac40-7c69-43ef-92b4-f846ffab3e51"},"vehicle_type_id":"4","last_reported":1761577866,"current_range_meters":12800,"station_id":"","pricing_plan_id":"cebpf4jnsgd1na2vs0mg"},{"bike_id":"02dd205b-e97c-4104-9683-066d2523fd3f","system_id":"levelo_inurba_marseille","lat":43.2196,"lon":5.34548,"is_reserved":false,"is_disabled":false,"rental_uris":{"android":"levelo://app?vid=02dd205b-e97c-4104-9683-066d2523fd3f","ios":"levelo://app?vid=02dd205b-e97c-4104-9683-066d2523fd3f"},"vehicle_type_id":"4","last_reported":1761577866,"current_range_meters":12800,"station_id":"","pricing_plan_id":"cebpf4jnsgd1na2vs0mg"},{"bike_id":"99604b58-d182-4334-99ee-a0cd33dddfef","system_id":"levelo_inurba_marseille","lat":43.29463,"lon":5.38563,"is_reserved":false,"is_disabled":false,"rental_uris":{"android":"levelo://app?vid=99604b58-d182-4334-99ee-a0cd33dddfef","ios":"levelo://app?vid=99604b58-d182-4334-99ee-a0cd33dddfef"},"vehicle_type_id":"4","last_reported":1761577866,"current_range_meters":12800,"station_id":"","pricing_plan_id":"cebpf4jnsgd1na2vs0mg"},{"bike_id":"b83891d3-7971-45ae-9af3-651a6e6209e2","system_id":"levelo_inurba_marseille","lat":43.23201,"lon":5.35567,"is_reserved":false,"is_disabled":true,"rental_uris":{"android":"levelo://app?vid=b83891d3-7971-45ae-9af3-651a6e6209e2","ios":"levelo://app?vid=b83891d3-7971-45ae-9af3-651a6e6209e2"},"vehicle_type_id":"4","last_reported":1761577866,"current_range_meters":13600,"station_id":"ce4bhu92rcd13ifvqi70","pricing_plan_id":"cebpf4jnsgd1na2vs0mg"},{"bike_id":"d0c081ad-3486-48c9-8966-70405df77a5b","system_id":"levelo_inurba_marseille","lat":43.22934,"lon":5.353772,"is_reserved":false,"is_disabled":false,"rental_uris":{"android":"levelo://app?vid=d0c081ad-3486-48c9-8966-70405df77a5b","ios":"levelo://app?vid=d0c081ad-3486-48c9-8966-70405df77a5b"},"vehicle_type_id":"4","last_reported":1761577866,"current_range_meters":13600,"station_id":"cpo3532slgdg3j2ikp40","pricing_plan_id":"cebpf4jnsgd1na2vs0mg"},{"bike_id":"bbbf3dbb-fbe2-4b7e-bfad-c027ca4e1c25","system_id":"levelo_inurba_marseille","lat":43.28487,"lon":5.4839,"is_reserved":false,"is_disabled":false,"rental_uris":{"android":"levelo://app?vid=bbbf3dbb-fbe2-4b7e-bfad-c027ca4e1c25","ios":"levelo://app?vid=bbbf3dbb-fbe2-4b7e-bfad-c027ca4e1c25"},"vehicle_type_id":"4","last_reported":1761577866,"current_range_meters":13600,"station_id":"st_d3svhcjqgbts73a3dn0g","pricing_plan_id":"cebpf4jnsgd1na2vs0mg"},{"bike_id":"f3673a60-efd2-465f-aa18-cb0baaf105f7","system_id":"levelo_inurba_marseille","lat":43.32339,"lon":5.38895,"is_reserved":false,"is_disabled":false,"rental_uris":{"android":"levelo://app?vid=f3673a60-efd2-465f-aa18-cb0baaf105f7","ios":"levelo://app?vid=f3673a60-efd2-465f-aa18-cb0baaf105f7"},"vehicle_type_id":"4","last_reported":1761577866,"current_range_meters":13600,"station_id":"ce4bhqp2rcd13ifvqhog","pricing_plan_id":"cebpf4jnsgd1na2vs0mg"},{"bike_id":"56751891-e4ac-405b-a8d0-6a8db30e5ff7","system_id":"levelo_inurba_marseille","lat":43.320829,"lon":5.367731,"is_reserved":false,"is_disabled":false,"rental_uris":{"android":"levelo://app?vid=56751891-e4ac-405b-a8d0-6a8db30e5ff7","ios":"levelo://app?vid=56751891-e4ac-405b-a8d0-6a8db30e5ff7"},"vehicle_type_id":"4","last_reported":1761577866,"current_range_meters":13600,"station_id":"ce4bhrh2rcd13ifvqhug","pricing_plan_id":"cebpf4jnsgd1na2vs0mg"},{"bike_id":"1413f756-89ea-4cda-8257-a8a7f80b9d88","system_id":"levelo_inurba_marseille","lat":43.21183,"lon":5.35079,"is_reserved":false,"is_disabled":false,"rental_uris":{"android":"levelo://app?vid=1413f756-89ea-4cda-8257-a8a7f80b9d88","ios":"levelo://app?vid=1413f756-89ea-4cda-8257-a8a7f80b9d88"},"vehicle_type_id":"4","last_reported":1761577866,"current_range_meters":14000,"station_id":"st_cvj6sg6p6f1abm77japg","pricing_plan_id":"cebpf4jnsgd1na2vs0mg"},{"bike_id":"2319520a-fc10-4ea5-a5ca-d3a4702f6c7b","system_id":"levelo_inurba_marseille","lat":43.29863,"lon":5.43684,"is_reserved":false,"is_disabled":true,"rental_uris":{"android":"levelo://app?vid=2319520a-fc10-4ea5-a5ca-d3a4702f6c7b","ios":"levelo://app?vid=2319520a-fc10-4ea5-a5ca-d3a4702f6c7b"},"vehicle_type_id":"4","last_reported":1761577866,"current_range_meters":14000,"station_id":"ce4bhpp2rcd13ifvqhfg","pricing_plan_id":"cebpf4jnsgd1na2vs0mg"},{"bike_id":"f3f46de2-7bb3-417e-bdef-ef9caebe66b9","system_id":"levelo_inurba_marseille","lat":43.25812,"lon":5.39435,"is_reserved":false,"is_disabled":false,"rental_uris":{"android":"levelo://app?vid=f3f46de2-7bb3-417e-bdef-ef9caebe66b9","ios":"levelo://app?vid=f3f46de2-7bb3-417e-bdef-ef9caebe66b9"},"vehicle_type_id":"4","last_reported":1761577866,"current_range_meters":14000,"station_id":"ce4bhip2rcd13ifvqft0","pricing_plan_id":"cebpf4jnsgd1na2vs0mg"},{"bike_id":"e92a5181-3093-4535-adde-2230374de0aa","system_id":"levelo_inurba_marseille","lat":43.31335,"lon":5.3768,"is_reserved":false,"is_disabled":false,"rental_uris":{"android":"levelo://app?vid=e92a5181-3093-4535-adde-2230374de0aa","ios":"levelo://app?vid=e92a5181-3093-4535-adde-2230374de0aa"},"vehicle_type_id":"4","last_reported":1761577866,"current_range_meters":14000,"station_id":"","pricing_plan_id":"cebpf4jnsgd1na2vs0mg"},{"bike_id":"de3f25b3-5ea7-498c-9a20-6478233319d2","system_id":"levelo_inurba_marseille","lat":43.26211,"lon":5.3744,"is_reserved":false,"is_disabled":false,"rental_uris":{"android":"levelo://app?vid=de3f25b3-5ea7-498c-9a20-6478233319d2","ios":"levelo://app?vid=de3f25b3-5ea7-498c-9a20-6478233319d2"},"vehicle_type_id":"4","last_reported":1761577866,"current_range_meters":14000,"station_id":"ce4bhgp2rcd13ifvqfc0","pricing_plan_id":"cebpf4jnsgd1na2vs0mg"},{"bike_id":"2ad80d90-cb15-422d-9e6e-c4669485c0f8","system_id":"levelo_inurba_marseille","lat":43.26551,"lon":5.37286,"is_reserved":false,"is_disabled":false,"rental_uris":{"android":"levelo://app?vid=2ad80d90-cb15-422d-9e6e-c4669485c0f8","ios":"levelo://app?vid=2ad80d90-cb15-422d-9e6e-c4669485c0f8"},"vehicle_type_id":"4","last_reported":1761577866,"current_range_meters":14000,"station_id":"ce4bhg12rcd13ifvqf70","pricing_plan_id":"cebpf4jnsgd1na2vs0mg"},{"bike_id":"1b7829fd-c993-41fc-94f6-0cddf3da8a25","system_id":"levelo_inurba_marseille","lat":43.248108,"lon":5.374629,"is_reserved":false,"is_disabled":false,"rental_uris":{"android":"levelo://app?vid=1b7829fd-c993-41fc-94f6-0cddf3da8a25","ios":"levelo://app?vid=1b7829fd-c993-41fc-94f6-0cddf3da8a25"},"vehicle_type_id":"4","last_reported":1761577866,"current_range_meters":14000,"station_id":"ce4bhgh2rcd13ifvqfb0","pricing_plan_id":"cebpf4jnsgd1na2vs0mg"},{"bike_id":"485c5109-3977-435c-9a09-79f3c74a9193","system_id":"levelo_inurba_marseille","lat":43.27208,"lon":5.39183,"is_reserved":false,"is_disabled":false,"rental_uris":{"android":"levelo://app?vid=485c5109-3977-435c-9a09-79f3c74a9193","ios":"levelo://app?vid=485c5109-3977-435c-9a09-79f3c74a9193"},"vehicle_type_id":"4","last_reported":1761577866,"current_range_meters":14000,"station_id":"ce4bhhp2rcd13ifvqfm0","pricing_plan_id":"cebpf4jnsgd1na2vs0mg"},{"bike_id":"6b27b53b-ade4-4e59-9555-b40b30fb2fb2","system_id":"levelo_inurba_marseille","lat":43.25336,"lon":5.42169,"is_reserved":false,"is_disabled":false,"rental_uris":{"android":"levelo://app?vid=6b27b53b-ade4-4e59-9555-b40b30fb2fb2","ios":"levelo://app?vid=6b27b53b-ade4-4e59-9555-b40b30fb2fb2"},"vehicle_type_id":"4","last_reported":1761577866,"current_range_meters":14000,"station_id":"st_d2m65c5bi1j21697t3ng","pricing_plan_id":"cebpf4jnsgd1na2vs0mg"},{"bike_id":"93ef566c-0909-48d1-8deb-d11c9c5aea5b","system_id":"levelo_inurba_marseille","lat":43.32349,"lon":5.36726,"is_reserved":false,"is_disabled":false,"rental_uris":{"android":"levelo://app?vid=93ef566c-0909-48d1-8deb-d11c9c5aea5b","ios":"levelo://app?vid=93ef566c-0909-48d1-8deb-d11c9c5aea5b"},"vehicle_type_id":"4","last_reported":1761577866,"current_range_meters":14400,"station_id":"ce4bhsh2rcd13ifvqi2g","pricing_plan_id":"cebpf4jnsgd1na2vs0mg"},{"bike_id":"947f6fe0-a59c-453e-b322-6ca93d0d9f92","system_id":"levelo_inurba_marseille","lat":43.30942,"lon":5.3903,"is_reserved":false,"is_disabled":false,"rental_uris":{"android":"levelo://app?vid=947f6fe0-a59c-453e-b322-6ca93d0d9f92","ios":"levelo://app?vid=947f6fe0-a59c-453e-b322-6ca93d0d9f92"},"vehicle_type_id":"4","last_reported":1761577866,"current_range_meters":14400,"station_id":"ce4bgup2rcd13ifvqco0","pricing_plan_id":"cebpf4jnsgd1na2vs0mg"},{"bike_id":"72692e77-b537-477c-ba7d-fdff69794bfb","system_id":"levelo_inurba_marseille","lat":43.25336,"lon":5.42172,"is_reserved":false,"is_disabled":false,"rental_uris":{"android":"levelo://app?vid=72692e77-b537-477c-ba7d-fdff69794bfb","ios":"levelo://app?vid=72692e77-b537-477c-ba7d-fdff69794bfb"},"vehicle_type_id":"4","last_reported":1761577866,"current_range_meters":14400,"station_id":"st_d2m65c5bi1j21697t3ng","pricing_plan_id":"cebpf4jnsgd1na2vs0mg"},{"bike_id":"fdc43030-5704-454e-ad42-cd94061c06a1","system_id":"levelo_inurba_marseille","lat":43.32083,"lon":5.36802,"is_reserved":false,"is_disabled":false,"rental_uris":{"android":"levelo://app?vid=fdc43030-5704-454e-ad42-cd94061c06a1","ios":"levelo://app?vid=fdc43030-5704-454e-ad42-cd94061c06a1"},"vehicle_type_id":"4","last_reported":1761577866,"current_range_meters":14400,"station_id":"ce4bhrh2rcd13ifvqhug","pricing_plan_id":"cebpf4jnsgd1na2vs0mg"},{"bike_id":"1880ebb9-7edb-463e-976b-226e958b9ebe","system_id":"levelo_inurba_marseille","lat":43.31097,"lon":5.37487,"is_reserved":false,"is_disabled":false,"rental_uris":{"android":"levelo://app?vid=1880ebb9-7edb-463e-976b-226e958b9ebe","ios":"levelo://app?vid=1880ebb9-7edb-463e-976b-226e958b9ebe"},"vehicle_type_id":"4","last_reported":1761577866,"current_range_meters":14800,"station_id":"ce4bgt12rcd13ifvqce0","pricing_plan_id":"cebpf4jnsgd1na2vs0mg"},{"bike_id":"2b1439df-3719-4969-b4f4-03e89e796f35","system_id":"levelo_inurba_marseille","lat":43.29706,"lon":5.3658,"is_reserved":false,"is_disabled":false,"rental_uris":{"android":"levelo://app?vid=2b1439df-3719-4969-b4f4-03e89e796f35","ios":"levelo://app?vid=2b1439df-3719-4969-b4f4-03e89e796f35"},"vehicle_type_id":"4","last_reported":1761577866,"current_range_meters":14800,"station_id":"ce4bgn12rcd13ifvqbt0","pricing_plan_id":"cebpf4jnsgd1na2vs0mg"},{"bike_id":"58d8b26a-6f13-45df-b3b4-60aac18c5324","system_id":"levelo_inurba_marseille","lat":43.28697,"lon":5.3998,"is_reserved":false,"is_disabled":false,"rental_uris":{"android":"levelo://app?vid=58d8b26a-6f13-45df-b3b4-60aac18c5324","ios":"levelo://app?vid=58d8b26a-6f13-45df-b3b4-60aac18c5324"},"vehicle_type_id":"4","last_reported":1761577866,"current_range_meters":14800,"station_id":"ce4bho92rcd13ifvqh3g","pricing_plan_id":"cebpf4jnsgd1na2vs0mg"},{"bike_id":"38ac2f8a-86dc-492d-8264-9f25599ea7d3","system_id":"levelo_inurba_marseille","lat":43.282096,"lon":5.390544,"is_reserved":false,"is_disabled":false,"rental_uris":{"android":"levelo://app?vid=38ac2f8a-86dc-492d-8264-9f25599ea7d3","ios":"levelo://app?vid=38ac2f8a-86dc-492d-8264-9f25599ea7d3"},"vehicle_type_id":"4","last_reported":1761577866,"current_range_meters":14800,"station_id":"ce4bhn92rcd13ifvqgsg","pricing_plan_id":"cebpf4jnsgd1na2vs0mg"},{"bike_id":"17886cc1-aa1b-44cd-bc9d-3da7d45d3943","system_id":"levelo_inurba_marseille","lat":43.27993,"lon":5.41669,"is_reserved":false,"is_disabled":false,"rental_uris":{"android":"levelo://app?vid=17886cc1-aa1b-44cd-bc9d-3da7d45d3943","ios":"levelo://app?vid=17886cc1-aa1b-44cd-bc9d-3da7d45d3943"},"vehicle_type_id":"4","last_reported":1761577866,"current_range_meters":14800,"station_id":"ce4bho12rcd13ifvqh1g","pricing_plan_id":"cebpf4jnsgd1na2vs0mg"},{"bike_id":"d982d9d2-20bb-4590-8f3d-11fd7f3ad91a","system_id":"levelo_inurba_marseille","lat":43.31071,"lon":5.38355,"is_reserved":false,"is_disabled":false,"rental_uris":{"android":"levelo://app?vid=d982d9d2-20bb-4590-8f3d-11fd7f3ad91a","ios":"levelo://app?vid=d982d9d2-20bb-4590-8f3d-11fd7f3ad91a"},"vehicle_type_id":"4","last_reported":1761577866,"current_range_meters":14800,"station_id":"ce4bgv92rcd13ifvqcr0","pricing_plan_id":"cebpf4jnsgd1na2vs0mg"},{"bike_id":"6d4cf729-c4ae-4dbc-bbf5-fabbb41a5819","system_id":"levelo_inurba_marseille","lat":43.2955,"lon":5.42297,"is_reserved":false,"is_disabled":false,"rental_uris":{"android":"levelo://app?vid=6d4cf729-c4ae-4dbc-bbf5-fabbb41a5819","ios":"levelo://app?vid=6d4cf729-c4ae-4dbc-bbf5-fabbb41a5819"},"vehicle_type_id":"4","last_reported":1761577866,"current_range_meters":15200,"station_id":"ce4bhph2rcd13ifvqhdg","pricing_plan_id":"cebpf4jnsgd1na2vs0mg"},{"bike_id":"aeef0b44-9ab3-4042-b8ea-3aec64ce43a8","system_id":"levelo_inurba_marseille","lat":43.29843,"lon":5.36276,"is_reserved":false,"is_disabled":false,"rental_uris":{"android":"levelo://app?vid=aeef0b44-9ab3-4042-b8ea-3aec64ce43a8","ios":"levelo://app?vid=aeef0b44-9ab3-4042-b8ea-3aec64ce43a8"},"vehicle_type_id":"4","last_reported":1761577866,"current_range_meters":15200,"station_id":"ce4bgpp2rcd13ifvqc3g","pricing_plan_id":"cebpf4jnsgd1na2vs0mg"},{"bike_id":"a4e95e87-d156-4e47-b706-7e1fdc5fba67","system_id":"levelo_inurba_marseille","lat":43.29002,"lon":5.35608,"is_reserved":false,"is_disabled":false,"rental_uris":{"android":"levelo://app?vid=a4e95e87-d156-4e47-b706-7e1fdc5fba67","ios":"levelo://app?vid=a4e95e87-d156-4e47-b706-7e1fdc5fba67"},"vehicle_type_id":"4","last_reported":1761577866,"current_range_meters":15200,"station_id":"ce4bhb92rcd13ifvqen0","pricing_plan_id":"cebpf4jnsgd1na2vs0mg"},{"bike_id":"a3100ff0-76ab-498b-bebf-b9c52f3d2538","system_id":"levelo_inurba_marseille","lat":43.28466,"lon":5.4839,"is_reserved":false,"is_disabled":false,"rental_uris":{"android":"levelo://app?vid=a3100ff0-76ab-498b-bebf-b9c52f3d2538","ios":"levelo://app?vid=a3100ff0-76ab-498b-bebf-b9c52f3d2538"},"vehicle_type_id":"4","last_reported":1761577866,"current_range_meters":15200,"station_id":"","pricing_plan_id":"cebpf4jnsgd1na2vs0mg"},{"bike_id":"9d631db4-5b7a-4af8-8f4f-208726fe0d19","system_id":"levelo_inurba_marseille","lat":43.2919,"lon":5.35813,"is_reserved":false,"is_disabled":false,"rental_uris":{"android":"levelo://app?vid=9d631db4-5b7a-4af8-8f4f-208726fe0d19","ios":"levelo://app?vid=9d631db4-5b7a-4af8-8f4f-208726fe0d19"},"vehicle_type_id":"4","last_reported":1761577866,"current_range_meters":15200,"station_id":"ce4bhb12rcd13ifvqel0","pricing_plan_id":"cebpf4jnsgd1na2vs0mg"},{"bike_id":"a507e789-f440-40a8-85cf-09841d81676c","system_id":"levelo_inurba_marseille","lat":43.225285,"lon":5.348443,"is_reserved":false,"is_disabled":false,"rental_uris":{"android":"levelo://app?vid=a507e789-f440-40a8-85cf-09841d81676c","ios":"levelo://app?vid=a507e789-f440-40a8-85cf-09841d81676c"},"vehicle_type_id":"4","last_reported":1761577866,"current_range_meters":16000,"station_id":"","pricing_plan_id":"cebpf4jnsgd1na2vs0mg"},{"bike_id":"eea3c3c3-734f-4fd3-8061-ed84cfe47b38","system_id":"levelo_inurba_marseille","lat":43.3256,"lon":5.3916,"is_reserved":false,"is_disabled":false,"rental_uris":{"android":"levelo://app?vid=eea3c3c3-734f-4fd3-8061-ed84cfe47b38","ios":"levelo://app?vid=eea3c3c3-734f-4fd3-8061-ed84cfe47b38"},"vehicle_type_id":"4","last_reported":1761577866,"current_range_meters":16000,"station_id":"","pricing_plan_id":"cebpf4jnsgd1na2vs0mg"},{"bike_id":"04f05742-34e4-4285-9012-d64d097608c7","system_id":"levelo_inurba_marseille","lat":43.25856,"lon":5.39905,"is_reserved":false,"is_disabled":false,"rental_uris":{"android":"levelo://app?vid=04f05742-34e4-4285-9012-d64d097608c7","ios":"levelo://app?vid=04f05742-34e4-4285-9012-d64d097608c7"},"vehicle_type_id":"4","last_reported":1761577866,"current_range_meters":16000,"station_id":"ce4bhl92rcd13ifvqghg","pricing_plan_id":"cebpf4jnsgd1na2vs0mg"},{"bike_id":"2fc1f180-acee-43e1-8d09-beee254fde53","system_id":"levelo_inurba_marseille","lat":43.31084,"lon":5.42428,"is_reserved":false,"is_disabled":false,"rental_uris":{"android":"levelo://app?vid=2fc1f180-acee-43e1-8d09-beee254fde53","ios":"levelo://app?vid=2fc1f180-acee-43e1-8d09-beee254fde53"},"vehicle_type_id":"4","last_reported":1761577866,"current_range_meters":16000,"station_id":"ce4bhp92rcd13ifvqhag","pricing_plan_id":"cebpf4jnsgd1na2vs0mg"},{"bike_id":"ace0f855-4c90-49ef-95ae-f91dea23478f","system_id":"levelo_inurba_marseille","lat":43.2621,"lon":5.37437,"is_reserved":false,"is_disabled":false,"rental_uris":{"android":"levelo://app?vid=ace0f855-4c90-49ef-95ae-f91dea23478f","ios":"levelo://app?vid=ace0f855-4c90-49ef-95ae-f91dea23478f"},"vehicle_type_id":"4","last_reported":1761577866,"current_range_meters":16000,"station_id":"ce4bhgp2rcd13ifvqfc0","pricing_plan_id":"cebpf4jnsgd1na2vs0mg"},{"bike_id":"21dbf7f2-eb19-4663-b1c0-879822879492","system_id":"levelo_inurba_marseille","lat":43.337631,"lon":5.374577,"is_reserved":false,"is_disabled":false,"rental_uris":{"android":"levelo://app?vid=21dbf7f2-eb19-4663-b1c0-879822879492","ios":"levelo://app?vid=21dbf7f2-eb19-4663-b1c0-879822879492"},"vehicle_type_id":"4","last_reported":1761577866,"current_range_meters":16000,"station_id":"","pricing_plan_id":"cebpf4jnsgd1na2vs0mg"},{"bike_id":"6746bb14-cd8a-46bd-9599-e1c30770f442","system_id":"levelo_inurba_marseille","lat":43.296267,"lon":5.404041,"is_reserved":false,"is_disabled":false,"rental_uris":{"android":"levelo://app?vid=6746bb14-cd8a-46bd-9599-e1c30770f442","ios":"levelo://app?vid=6746bb14-cd8a-46bd-9599-e1c30770f442"},"vehicle_type_id":"4","last_reported":1761577866,"current_range_meters":16400,"station_id":"ce4bh0h2rcd13ifvqd60","pricing_plan_id":"cebpf4jnsgd1na2vs0mg"},{"bike_id":"148afe50-3b08-40ab-95fa-23fe4fdf19f2","system_id":"levelo_inurba_marseille","lat":43.30596,"lon":5.37245,"is_reserved":false,"is_disabled":false,"rental_uris":{"android":"levelo://app?vid=148afe50-3b08-40ab-95fa-23fe4fdf19f2","ios":"levelo://app?vid=148afe50-3b08-40ab-95fa-23fe4fdf19f2"},"vehicle_type_id":"4","last_reported":1761577866,"current_range_meters":16400,"station_id":"ce4bgqh2rcd13ifvqc4g","pricing_plan_id":"cebpf4jnsgd1na2vs0mg"},{"bike_id":"dac59d94-5f8c-49a8-aaff-998411484e05","system_id":"levelo_inurba_marseille","lat":43.29616,"lon":5.377074,"is_reserved":false,"is_disabled":false,"rental_uris":{"android":"levelo://app?vid=dac59d94-5f8c-49a8-aaff-998411484e05","ios":"levelo://app?vid=dac59d94-5f8c-49a8-aaff-998411484e05"},"vehicle_type_id":"4","last_reported":1761577866,"current_range_meters":16400,"station_id":"ce4bgi92rcd13ifvqb90","pricing_plan_id":"cebpf4jnsgd1na2vs0mg"},{"bike_id":"6707e9ca-92a2-4e95-8654-3b145595537a","system_id":"levelo_inurba_marseille","lat":43.29826,"lon":5.36288,"is_reserved":false,"is_disabled":false,"rental_uris":{"android":"levelo://app?vid=6707e9ca-92a2-4e95-8654-3b145595537a","ios":"levelo://app?vid=6707e9ca-92a2-4e95-8654-3b145595537a"},"vehicle_type_id":"4","last_reported":1761577866,"current_range_meters":16400,"station_id":"ce4bgpp2rcd13ifvqc3g","pricing_plan_id":"cebpf4jnsgd1na2vs0mg"},{"bike_id":"51cbe4c1-4392-4280-a510-8bd6c729d8bd","system_id":"levelo_inurba_marseille","lat":43.28223,"lon":5.39075,"is_reserved":false,"is_disabled":false,"rental_uris":{"android":"levelo://app?vid=51cbe4c1-4392-4280-a510-8bd6c729d8bd","ios":"levelo://app?vid=51cbe4c1-4392-4280-a510-8bd6c729d8bd"},"vehicle_type_id":"4","last_reported":1761577866,"current_range_meters":16400,"station_id":"ce4bhn92rcd13ifvqgsg","pricing_plan_id":"cebpf4jnsgd1na2vs0mg"},{"bike_id":"b689a5bf-875d-4ab1-9212-a71e85899faa","system_id":"levelo_inurba_marseille","lat":43.29752,"lon":5.4278,"is_reserved":false,"is_disabled":false,"rental_uris":{"android":"levelo://app?vid=b689a5bf-875d-4ab1-9212-a71e85899faa","ios":"levelo://app?vid=b689a5bf-875d-4ab1-9212-a71e85899faa"},"vehicle_type_id":"4","last_reported":1761577866,"current_range_meters":16800,"station_id":"st_d3md5207bmas73dh9klg","pricing_plan_id":"cebpf4jnsgd1na2vs0mg"},{"bike_id":"d1d0aa62-4a5a-4c9e-a0e9-2e25f081c01a","system_id":"levelo_inurba_marseille","lat":43.26209,"lon":5.37436,"is_reserved":false,"is_disabled":false,"rental_uris":{"android":"levelo://app?vid=d1d0aa62-4a5a-4c9e-a0e9-2e25f081c01a","ios":"levelo://app?vid=d1d0aa62-4a5a-4c9e-a0e9-2e25f081c01a"},"vehicle_type_id":"4","last_reported":1761577866,"current_range_meters":16800,"station_id":"ce4bhgp2rcd13ifvqfc0","pricing_plan_id":"cebpf4jnsgd1na2vs0mg"},{"bike_id":"0bbc239a-da27-4714-a802-1c546dd89778","system_id":"levelo_inurba_marseille","lat":43.23148,"lon":5.43752,"is_reserved":false,"is_disabled":false,"rental_uris":{"android":"levelo://app?vid=0bbc239a-da27-4714-a802-1c546dd89778","ios":"levelo://app?vid=0bbc239a-da27-4714-a802-1c546dd89778"},"vehicle_type_id":"4","last_reported":1761577866,"current_range_meters":16800,"station_id":"ce4bhmp2rcd13ifvqgog","pricing_plan_id":"cebpf4jnsgd1na2vs0mg"},{"bike_id":"8c71c05b-dd29-470b-8b05-4159f459865a","system_id":"levelo_inurba_marseille","lat":43.27675,"lon":5.38927,"is_reserved":false,"is_disabled":false,"rental_uris":{"android":"levelo://app?vid=8c71c05b-dd29-470b-8b05-4159f459865a","ios":"levelo://app?vid=8c71c05b-dd29-470b-8b05-4159f459865a"},"vehicle_type_id":"4","last_reported":1761577866,"current_range_meters":16800,"station_id":"ce4bhi12rcd13ifvqfo0","pricing_plan_id":"cebpf4jnsgd1na2vs0mg"},{"bike_id":"736d8b01-ed0c-4252-a1f5-d865ba0c9351","system_id":"levelo_inurba_marseille","lat":43.26209,"lon":5.37448,"is_reserved":false,"is_disabled":false,"rental_uris":{"android":"levelo://app?vid=736d8b01-ed0c-4252-a1f5-d865ba0c9351","ios":"levelo://app?vid=736d8b01-ed0c-4252-a1f5-d865ba0c9351"},"vehicle_type_id":"4","last_reported":1761577866,"current_range_meters":16800,"station_id":"ce4bhgp2rcd13ifvqfc0","pricing_plan_id":"cebpf4jnsgd1na2vs0mg"},{"bike_id":"bb7bf581-0585-4ba9-9345-434d76055512","system_id":"levelo_inurba_marseille","lat":43.30639,"lon":5.40103,"is_reserved":false,"is_disabled":false,"rental_uris":{"android":"levelo://app?vid=bb7bf581-0585-4ba9-9345-434d76055512","ios":"levelo://app?vid=bb7bf581-0585-4ba9-9345-434d76055512"},"vehicle_type_id":"4","last_reported":1761577866,"current_range_meters":16800,"station_id":"ce4bh112rcd13ifvqda0","pricing_plan_id":"cebpf4jnsgd1na2vs0mg"},{"bike_id":"543c6d9a-678c-444e-8694-ad3b67653d24","system_id":"levelo_inurba_marseille","lat":43.239671,"lon":5.366201,"is_reserved":false,"is_disabled":false,"rental_uris":{"android":"levelo://app?vid=543c6d9a-678c-444e-8694-ad3b67653d24","ios":"levelo://app?vid=543c6d9a-678c-444e-8694-ad3b67653d24"},"vehicle_type_id":"4","last_reported":1761577866,"current_range_meters":16800,"station_id":"ce4bhi12rcd13ifvqfp0","pricing_plan_id":"cebpf4jnsgd1na2vs0mg"},{"bike_id":"e5a80e7f-bf99-4e79-9034-afc6051381aa","system_id":"levelo_inurba_marseille","lat":43.31236,"lon":5.40195,"is_reserved":false,"is_disabled":false,"rental_uris":{"android":"levelo://app?vid=e5a80e7f-bf99-4e79-9034-afc6051381aa","ios":"levelo://app?vid=e5a80e7f-bf99-4e79-9034-afc6051381aa"},"vehicle_type_id":"4","last_reported":1761577866,"current_range_meters":17200,"station_id":"ce4bh092rcd13ifvqd30","pricing_plan_id":"cebpf4jnsgd1na2vs0mg"},{"bike_id":"d7b556e6-ac3d-4fe4-b136-c7cd05c756e3","system_id":"levelo_inurba_marseille","lat":43.23066,"lon":5.35492,"is_reserved":false,"is_disabled":false,"rental_uris":{"android":"levelo://app?vid=d7b556e6-ac3d-4fe4-b136-c7cd05c756e3","ios":"levelo://app?vid=d7b556e6-ac3d-4fe4-b136-c7cd05c756e3"},"vehicle_type_id":"4","last_reported":1761577866,"current_range_meters":17200,"station_id":"cpo3342slgdg3j2ifvpg","pricing_plan_id":"cebpf4jnsgd1na2vs0mg"},{"bike_id":"85e0885e-126e-4925-9839-61a4c2ddf116","system_id":"levelo_inurba_marseille","lat":43.29602,"lon":5.36904,"is_reserved":false,"is_disabled":false,"rental_uris":{"android":"levelo://app?vid=85e0885e-126e-4925-9839-61a4c2ddf116","ios":"levelo://app?vid=85e0885e-126e-4925-9839-61a4c2ddf116"},"vehicle_type_id":"4","last_reported":1761577866,"current_range_meters":17200,"station_id":"ce4bgi92rcd13ifvqb90","pricing_plan_id":"cebpf4jnsgd1na2vs0mg"},{"bike_id":"0709da96-3569-4b3f-9bc8-3bb4680af42a","system_id":"levelo_inurba_marseille","lat":43.31528,"lon":5.37328,"is_reserved":false,"is_disabled":false,"rental_uris":{"android":"levelo://app?vid=0709da96-3569-4b3f-9bc8-3bb4680af42a","ios":"levelo://app?vid=0709da96-3569-4b3f-9bc8-3bb4680af42a"},"vehicle_type_id":"4","last_reported":1761577866,"current_range_meters":17200,"station_id":"","pricing_plan_id":"cebpf4jnsgd1na2vs0mg"},{"bike_id":"d5ca831f-8041-403e-ada8-7b4196c3d5be","system_id":"levelo_inurba_marseille","lat":43.293714,"lon":5.379385,"is_reserved":false,"is_disabled":false,"rental_uris":{"android":"levelo://app?vid=d5ca831f-8041-403e-ada8-7b4196c3d5be","ios":"levelo://app?vid=d5ca831f-8041-403e-ada8-7b4196c3d5be"},"vehicle_type_id":"4","last_reported":1761577866,"current_range_meters":17200,"station_id":"","pricing_plan_id":"cebpf4jnsgd1na2vs0mg"},{"bike_id":"27ebca52-c632-4716-b13b-3fca160a2b6a","system_id":"levelo_inurba_marseille","lat":43.29798,"lon":5.38095,"is_reserved":false,"is_disabled":false,"rental_uris":{"android":"levelo://app?vid=27ebca52-c632-4716-b13b-3fca160a2b6a","ios":"levelo://app?vid=27ebca52-c632-4716-b13b-3fca160a2b6a"},"vehicle_type_id":"4","last_reported":1761577866,"current_range_meters":17600,"station_id":"ce4bgip2rcd13ifvqbb0","pricing_plan_id":"cebpf4jnsgd1na2vs0mg"},{"bike_id":"72ff869f-50e0-4045-a920-3ad975f90c2e","system_id":"levelo_inurba_marseille","lat":43.323719,"lon":5.367638,"is_reserved":false,"is_disabled":false,"rental_uris":{"android":"levelo://app?vid=72ff869f-50e0-4045-a920-3ad975f90c2e","ios":"levelo://app?vid=72ff869f-50e0-4045-a920-3ad975f90c2e"},"vehicle_type_id":"4","last_reported":1761577866,"current_range_meters":17600,"station_id":"ce4bhsh2rcd13ifvqi2g","pricing_plan_id":"cebpf4jnsgd1na2vs0mg"},{"bike_id":"bb67c3b0-2743-4c3b-9eec-5571be98e567","system_id":"levelo_inurba_marseille","lat":43.26552,"lon":5.37286,"is_reserved":false,"is_disabled":false,"rental_uris":{"android":"levelo://app?vid=bb67c3b0-2743-4c3b-9eec-5571be98e567","ios":"levelo://app?vid=bb67c3b0-2743-4c3b-9eec-5571be98e567"},"vehicle_type_id":"4","last_reported":1761577866,"current_range_meters":17600,"station_id":"ce4bhg12rcd13ifvqf70","pricing_plan_id":"cebpf4jnsgd1na2vs0mg"},{"bike_id":"a630ed88-3f05-4926-bbab-8387ab6b6a28","system_id":"levelo_inurba_marseille","lat":43.23165,"lon":5.43701,"is_reserved":false,"is_disabled":true,"rental_uris":{"android":"levelo://app?vid=a630ed88-3f05-4926-bbab-8387ab6b6a28","ios":"levelo://app?vid=a630ed88-3f05-4926-bbab-8387ab6b6a28"},"vehicle_type_id":"4","last_reported":1761577866,"current_range_meters":17600,"station_id":"ce4bhmp2rcd13ifvqgog","pricing_plan_id":"cebpf4jnsgd1na2vs0mg"},{"bike_id":"6259f55b-2b03-426c-926a-c8a432bd1482","system_id":"levelo_inurba_marseille","lat":43.21752,"lon":5.346,"is_reserved":false,"is_disabled":false,"rental_uris":{"android":"levelo://app?vid=6259f55b-2b03-426c-926a-c8a432bd1482","ios":"levelo://app?vid=6259f55b-2b03-426c-926a-c8a432bd1482"},"vehicle_type_id":"4","last_reported":1761577866,"current_range_meters":17600,"station_id":"","pricing_plan_id":"cebpf4jnsgd1na2vs0mg"},{"bike_id":"767c8600-d9d5-4fa0-a40a-95131a234cfc","system_id":"levelo_inurba_marseille","lat":43.29845,"lon":5.3627,"is_reserved":false,"is_disabled":false,"rental_uris":{"android":"levelo://app?vid=767c8600-d9d5-4fa0-a40a-95131a234cfc","ios":"levelo://app?vid=767c8600-d9d5-4fa0-a40a-95131a234cfc"},"vehicle_type_id":"4","last_reported":1761577866,"current_range_meters":17600,"station_id":"ce4bgpp2rcd13ifvqc3g","pricing_plan_id":"cebpf4jnsgd1na2vs0mg"},{"bike_id":"584373b2-7857-4514-ba1b-a8cbf8f807e7","system_id":"levelo_inurba_marseille","lat":43.298428,"lon":5.362832,"is_reserved":false,"is_disabled":false,"rental_uris":{"android":"levelo://app?vid=584373b2-7857-4514-ba1b-a8cbf8f807e7","ios":"levelo://app?vid=584373b2-7857-4514-ba1b-a8cbf8f807e7"},"vehicle_type_id":"4","last_reported":1761577866,"current_range_meters":18000,"station_id":"ce4bgpp2rcd13ifvqc3g","pricing_plan_id":"cebpf4jnsgd1na2vs0mg"},{"bike_id":"edf5f0fb-0959-44c0-b6b3-9db9d272d2c0","system_id":"levelo_inurba_marseille","lat":43.24179,"lon":5.39739,"is_reserved":false,"is_disabled":false,"rental_uris":{"android":"levelo://app?vid=edf5f0fb-0959-44c0-b6b3-9db9d272d2c0","ios":"levelo://app?vid=edf5f0fb-0959-44c0-b6b3-9db9d272d2c0"},"vehicle_type_id":"4","last_reported":1761577866,"current_range_meters":18000,"station_id":"ce4bhn12rcd13ifvqgpg","pricing_plan_id":"cebpf4jnsgd1na2vs0mg"},{"bike_id":"edf849fb-5192-43cb-b71a-9bdb55843529","system_id":"levelo_inurba_marseille","lat":43.307856,"lon":5.376438,"is_reserved":false,"is_disabled":false,"rental_uris":{"android":"levelo://app?vid=edf849fb-5192-43cb-b71a-9bdb55843529","ios":"levelo://app?vid=edf849fb-5192-43cb-b71a-9bdb55843529"},"vehicle_type_id":"4","last_reported":1761577866,"current_range_meters":18000,"station_id":"ce4bgv92rcd13ifvqcq0","pricing_plan_id":"cebpf4jnsgd1na2vs0mg"},{"bike_id":"2484d73d-0ed9-4aeb-b08e-8d8cbd56d7f7","system_id":"levelo_inurba_marseille","lat":43.312379,"lon":5.368484,"is_reserved":false,"is_disabled":false,"rental_uris":{"android":"levelo://app?vid=2484d73d-0ed9-4aeb-b08e-8d8cbd56d7f7","ios":"levelo://app?vid=2484d73d-0ed9-4aeb-b08e-8d8cbd56d7f7"},"vehicle_type_id":"4","last_reported":1761577866,"current_range_meters":18000,"station_id":"ce4bgr92rcd13ifvqc6g","pricing_plan_id":"cebpf4jnsgd1na2vs0mg"},{"bike_id":"58ece87e-1dac-4d32-b97d-ebecd1d7ab05","system_id":"levelo_inurba_marseille","lat":43.286102,"lon":5.35109,"is_reserved":false,"is_disabled":false,"rental_uris":{"android":"levelo://app?vid=58ece87e-1dac-4d32-b97d-ebecd1d7ab05","ios":"levelo://app?vid=58ece87e-1dac-4d32-b97d-ebecd1d7ab05"},"vehicle_type_id":"4","last_reported":1761577866,"current_range_meters":18000,"station_id":"ce4bhch2rcd13ifvqeug","pricing_plan_id":"cebpf4jnsgd1na2vs0mg"},{"bike_id":"e1ca1064-3ac1-495e-b8d2-df8047d11b2e","system_id":"levelo_inurba_marseille","lat":43.28486,"lon":5.48398,"is_reserved":false,"is_disabled":false,"rental_uris":{"android":"levelo://app?vid=e1ca1064-3ac1-495e-b8d2-df8047d11b2e","ios":"levelo://app?vid=e1ca1064-3ac1-495e-b8d2-df8047d11b2e"},"vehicle_type_id":"4","last_reported":1761577866,"current_range_meters":18000,"station_id":"st_d3svhcjqgbts73a3dn0g","pricing_plan_id":"cebpf4jnsgd1na2vs0mg"},{"bike_id":"310e927d-d5b8-4a6f-82be-2d623690659d","system_id":"levelo_inurba_marseille","lat":43.31273,"lon":5.37789,"is_reserved":false,"is_disabled":false,"rental_uris":{"android":"levelo://app?vid=310e927d-d5b8-4a6f-82be-2d623690659d","ios":"levelo://app?vid=310e927d-d5b8-4a6f-82be-2d623690659d"},"vehicle_type_id":"4","last_reported":1761577866,"current_range_meters":18800,"station_id":"","pricing_plan_id":"cebpf4jnsgd1na2vs0mg"},{"bike_id":"40e63316-0891-44a5-a26a-2e96a6b7e6fc","system_id":"levelo_inurba_marseille","lat":43.29783,"lon":5.37099,"is_reserved":false,"is_disabled":false,"rental_uris":{"android":"levelo://app?vid=40e63316-0891-44a5-a26a-2e96a6b7e6fc","ios":"levelo://app?vid=40e63316-0891-44a5-a26a-2e96a6b7e6fc"},"vehicle_type_id":"4","last_reported":1761577866,"current_range_meters":18800,"station_id":"ce4bgop2rcd13ifvqc1g","pricing_plan_id":"cebpf4jnsgd1na2vs0mg"},{"bike_id":"9e192de4-7a56-417d-8c28-eb8b5f267a0b","system_id":"levelo_inurba_marseille","lat":43.2678,"lon":5.39417,"is_reserved":false,"is_disabled":false,"rental_uris":{"android":"levelo://app?vid=9e192de4-7a56-417d-8c28-eb8b5f267a0b","ios":"levelo://app?vid=9e192de4-7a56-417d-8c28-eb8b5f267a0b"},"vehicle_type_id":"4","last_reported":1761577866,"current_range_meters":18800,"station_id":"ce4bhh12rcd13ifvqfg0","pricing_plan_id":"cebpf4jnsgd1na2vs0mg"},{"bike_id":"99c35bc4-9b23-47bf-adb0-b876259c2867","system_id":"levelo_inurba_marseille","lat":43.29061,"lon":5.36572,"is_reserved":false,"is_disabled":false,"rental_uris":{"android":"levelo://app?vid=99c35bc4-9b23-47bf-adb0-b876259c2867","ios":"levelo://app?vid=99c35bc4-9b23-47bf-adb0-b876259c2867"},"vehicle_type_id":"4","last_reported":1761577866,"current_range_meters":18800,"station_id":"","pricing_plan_id":"cebpf4jnsgd1na2vs0mg"},{"bike_id":"05157b8c-1948-447f-a0a9-c6574a0b09b7","system_id":"levelo_inurba_marseille","lat":43.31355,"lon":5.3671,"is_reserved":false,"is_disabled":false,"rental_uris":{"android":"levelo://app?vid=05157b8c-1948-447f-a0a9-c6574a0b09b7","ios":"levelo://app?vid=05157b8c-1948-447f-a0a9-c6574a0b09b7"},"vehicle_type_id":"4","last_reported":1761577866,"current_range_meters":18800,"station_id":"ce4bgr92rcd13ifvqc6g","pricing_plan_id":"cebpf4jnsgd1na2vs0mg"},{"bike_id":"d5a49dbd-284f-44d1-bf21-988be425a5e5","system_id":"levelo_inurba_marseille","lat":43.255763,"lon":5.382376,"is_reserved":false,"is_disabled":true,"rental_uris":{"android":"levelo://app?vid=d5a49dbd-284f-44d1-bf21-988be425a5e5","ios":"levelo://app?vid=d5a49dbd-284f-44d1-bf21-988be425a5e5"},"vehicle_type_id":"4","last_reported":1761577866,"current_range_meters":19200,"station_id":"ce4bhih2rcd13ifvqfs0","pricing_plan_id":"cebpf4jnsgd1na2vs0mg"},{"bike_id":"316ded5d-28c9-4663-be5c-04dc90d5b34c","system_id":"levelo_inurba_marseille","lat":43.28383,"lon":5.38779,"is_reserved":false,"is_disabled":false,"rental_uris":{"android":"levelo://app?vid=316ded5d-28c9-4663-be5c-04dc90d5b34c","ios":"levelo://app?vid=316ded5d-28c9-4663-be5c-04dc90d5b34c"},"vehicle_type_id":"4","last_reported":1761577866,"current_range_meters":19200,"station_id":"","pricing_plan_id":"cebpf4jnsgd1na2vs0mg"},{"bike_id":"dccef0b1-edb3-49b5-866c-43e10e5763cc","system_id":"levelo_inurba_marseille","lat":43.2881,"lon":5.43847,"is_reserved":false,"is_disabled":false,"rental_uris":{"android":"levelo://app?vid=dccef0b1-edb3-49b5-866c-43e10e5763cc","ios":"levelo://app?vid=dccef0b1-edb3-49b5-866c-43e10e5763cc"},"vehicle_type_id":"4","last_reported":1761577866,"current_range_meters":19200,"station_id":"","pricing_plan_id":"cebpf4jnsgd1na2vs0mg"},{"bike_id":"dced2bcc-e95f-44ce-b7d8-7bb47def612a","system_id":"levelo_inurba_marseille","lat":43.23059,"lon":5.35489,"is_reserved":false,"is_disabled":false,"rental_uris":{"android":"levelo://app?vid=dced2bcc-e95f-44ce-b7d8-7bb47def612a","ios":"levelo://app?vid=dced2bcc-e95f-44ce-b7d8-7bb47def612a"},"vehicle_type_id":"4","last_reported":1761577866,"current_range_meters":19200,"station_id":"cpo3342slgdg3j2ifvpg","pricing_plan_id":"cebpf4jnsgd1na2vs0mg"},{"bike_id":"2be3bf9b-39f4-4c37-8c01-9e9bcabe1c53","system_id":"levelo_inurba_marseille","lat":43.33741,"lon":5.37444,"is_reserved":false,"is_disabled":false,"rental_uris":{"android":"levelo://app?vid=2be3bf9b-39f4-4c37-8c01-9e9bcabe1c53","ios":"levelo://app?vid=2be3bf9b-39f4-4c37-8c01-9e9bcabe1c53"},"vehicle_type_id":"4","last_reported":1761577866,"current_range_meters":19200,"station_id":"","pricing_plan_id":"cebpf4jnsgd1na2vs0mg"},{"bike_id":"86e6f968-d204-49a9-a713-9ebb5bcf7b2b","system_id":"levelo_inurba_marseille","lat":43.30596,"lon":5.37235,"is_reserved":false,"is_disabled":false,"rental_uris":{"android":"levelo://app?vid=86e6f968-d204-49a9-a713-9ebb5bcf7b2b","ios":"levelo://app?vid=86e6f968-d204-49a9-a713-9ebb5bcf7b2b"},"vehicle_type_id":"4","last_reported":1761577866,"current_range_meters":19200,"station_id":"ce4bgqh2rcd13ifvqc4g","pricing_plan_id":"cebpf4jnsgd1na2vs0mg"},{"bike_id":"455ef50d-b33b-4523-8ad5-a87befbae6f9","system_id":"levelo_inurba_marseille","lat":43.29926,"lon":5.36549,"is_reserved":false,"is_disabled":false,"rental_uris":{"android":"levelo://app?vid=455ef50d-b33b-4523-8ad5-a87befbae6f9","ios":"levelo://app?vid=455ef50d-b33b-4523-8ad5-a87befbae6f9"},"vehicle_type_id":"4","last_reported":1761577866,"current_range_meters":19200,"station_id":"ce4bgm92rcd13ifvqbr0","pricing_plan_id":"cebpf4jnsgd1na2vs0mg"},{"bike_id":"05f6558b-72ee-45eb-878b-f6744351d47a","system_id":"levelo_inurba_marseille","lat":43.285931,"lon":5.35081,"is_reserved":false,"is_disabled":false,"rental_uris":{"android":"levelo://app?vid=05f6558b-72ee-45eb-878b-f6744351d47a","ios":"levelo://app?vid=05f6558b-72ee-45eb-878b-f6744351d47a"},"vehicle_type_id":"4","last_reported":1761577866,"current_range_meters":19200,"station_id":"ce4bhg12rcd13ifvqf70","pricing_plan_id":"cebpf4jnsgd1na2vs0mg"},{"bike_id":"c55fb844-a11d-478a-94e7-8905e76c6031","system_id":"levelo_inurba_marseille","lat":43.292728,"lon":5.408984,"is_reserved":false,"is_disabled":false,"rental_uris":{"android":"levelo://app?vid=c55fb844-a11d-478a-94e7-8905e76c6031","ios":"levelo://app?vid=c55fb844-a11d-478a-94e7-8905e76c6031"},"vehicle_type_id":"4","last_reported":1761577866,"current_range_meters":19200,"station_id":"ce4bh192rcd13ifvqdc0","pricing_plan_id":"cebpf4jnsgd1na2vs0mg"},{"bike_id":"021e2773-71f7-4902-84c6-5e91af9a8aba","system_id":"levelo_inurba_marseille","lat":43.295573,"lon":5.394809,"is_reserved":false,"is_disabled":false,"rental_uris":{"android":"levelo://app?vid=021e2773-71f7-4902-84c6-5e91af9a8aba","ios":"levelo://app?vid=021e2773-71f7-4902-84c6-5e91af9a8aba"},"vehicle_type_id":"4","last_reported":1761577866,"current_range_meters":19200,"station_id":"ce4bho92rcd13ifvqh4g","pricing_plan_id":"cebpf4jnsgd1na2vs0mg"},{"bike_id":"6e3a7e6e-71b5-40f8-a9af-3d340e6706cc","system_id":"levelo_inurba_marseille","lat":43.296782,"lon":5.378637,"is_reserved":false,"is_disabled":false,"rental_uris":{"android":"levelo://app?vid=6e3a7e6e-71b5-40f8-a9af-3d340e6706cc","ios":"levelo://app?vid=6e3a7e6e-71b5-40f8-a9af-3d340e6706cc"},"vehicle_type_id":"4","last_reported":1761577866,"current_range_meters":19600,"station_id":"","pricing_plan_id":"cebpf4jnsgd1na2vs0mg"},{"bike_id":"985cf2a5-6560-4622-9131-59ec4174ede8","system_id":"levelo_inurba_marseille","lat":43.29581,"lon":5.36742,"is_reserved":false,"is_disabled":false,"rental_uris":{"android":"levelo://app?vid=985cf2a5-6560-4622-9131-59ec4174ede8","ios":"levelo://app?vid=985cf2a5-6560-4622-9131-59ec4174ede8"},"vehicle_type_id":"4","last_reported":1761577866,"current_range_meters":19600,"station_id":"ce4bgph2rcd13ifvqc2g","pricing_plan_id":"cebpf4jnsgd1na2vs0mg"},{"bike_id":"f568391f-b71f-4807-9099-53eb6b0dc22d","system_id":"levelo_inurba_marseille","lat":43.2976,"lon":5.38189,"is_reserved":false,"is_disabled":false,"rental_uris":{"android":"levelo://app?vid=f568391f-b71f-4807-9099-53eb6b0dc22d","ios":"levelo://app?vid=f568391f-b71f-4807-9099-53eb6b0dc22d"},"vehicle_type_id":"4","last_reported":1761577866,"current_range_meters":19600,"station_id":"","pricing_plan_id":"cebpf4jnsgd1na2vs0mg"},{"bike_id":"4f221918-84b5-4b9e-a22d-a70ce4456717","system_id":"levelo_inurba_marseille","lat":43.21751,"lon":5.3461,"is_reserved":false,"is_disabled":false,"rental_uris":{"android":"levelo://app?vid=4f221918-84b5-4b9e-a22d-a70ce4456717","ios":"levelo://app?vid=4f221918-84b5-4b9e-a22d-a70ce4456717"},"vehicle_type_id":"4","last_reported":1761577866,"current_range_meters":19600,"station_id":"","pricing_plan_id":"cebpf4jnsgd1na2vs0mg"},{"bike_id":"02ef2e64-d540-474d-84b8-3e2c9f220b6d","system_id":"levelo_inurba_marseille","lat":43.291963,"lon":5.358002,"is_reserved":false,"is_disabled":false,"rental_uris":{"android":"levelo://app?vid=02ef2e64-d540-474d-84b8-3e2c9f220b6d","ios":"levelo://app?vid=02ef2e64-d540-474d-84b8-3e2c9f220b6d"},"vehicle_type_id":"4","last_reported":1761577866,"current_range_meters":19600,"station_id":"ce4bhb12rcd13ifvqel0","pricing_plan_id":"cebpf4jnsgd1na2vs0mg"},{"bike_id":"f68e98a1-0455-4994-b385-cdd5e6dd66ac","system_id":"levelo_inurba_marseille","lat":43.23135,"lon":5.43737,"is_reserved":false,"is_disabled":false,"rental_uris":{"android":"levelo://app?vid=f68e98a1-0455-4994-b385-cdd5e6dd66ac","ios":"levelo://app?vid=f68e98a1-0455-4994-b385-cdd5e6dd66ac"},"vehicle_type_id":"4","last_reported":1761577866,"current_range_meters":19600,"station_id":"ce4bhmp2rcd13ifvqgog","pricing_plan_id":"cebpf4jnsgd1na2vs0mg"},{"bike_id":"732030fb-be9e-45db-8b99-2196fedadbdc","system_id":"levelo_inurba_marseille","lat":43.29676,"lon":5.37289,"is_reserved":false,"is_disabled":false,"rental_uris":{"android":"levelo://app?vid=732030fb-be9e-45db-8b99-2196fedadbdc","ios":"levelo://app?vid=732030fb-be9e-45db-8b99-2196fedadbdc"},"vehicle_type_id":"4","last_reported":1761577866,"current_range_meters":19600,"station_id":"ce4bgk12rcd13ifvqbj0","pricing_plan_id":"cebpf4jnsgd1na2vs0mg"},{"bike_id":"58827ea2-e111-486b-8138-bbce95fc30f4","system_id":"levelo_inurba_marseille","lat":43.31354,"lon":5.38502,"is_reserved":false,"is_disabled":false,"rental_uris":{"android":"levelo://app?vid=58827ea2-e111-486b-8138-bbce95fc30f4","ios":"levelo://app?vid=58827ea2-e111-486b-8138-bbce95fc30f4"},"vehicle_type_id":"4","last_reported":1761577866,"current_range_meters":19600,"station_id":"ce4bgt92rcd13ifvqcf0","pricing_plan_id":"cebpf4jnsgd1na2vs0mg"},{"bike_id":"ae8ebe94-fc0f-4409-8f77-39eb5c613a67","system_id":"levelo_inurba_marseille","lat":43.337444,"lon":5.374475,"is_reserved":false,"is_disabled":false,"rental_uris":{"android":"levelo://app?vid=ae8ebe94-fc0f-4409-8f77-39eb5c613a67","ios":"levelo://app?vid=ae8ebe94-fc0f-4409-8f77-39eb5c613a67"},"vehicle_type_id":"4","last_reported":1761577866,"current_range_meters":20000,"station_id":"","pricing_plan_id":"cebpf4jnsgd1na2vs0mg"},{"bike_id":"5bac8c2a-12e9-4858-a30d-932120e79d9f","system_id":"levelo_inurba_marseille","lat":43.2439,"lon":5.37081,"is_reserved":false,"is_disabled":false,"rental_uris":{"android":"levelo://app?vid=5bac8c2a-12e9-4858-a30d-932120e79d9f","ios":"levelo://app?vid=5bac8c2a-12e9-4858-a30d-932120e79d9f"},"vehicle_type_id":"4","last_reported":1761577866,"current_range_meters":20000,"station_id":"ce4bhhh2rcd13ifvqfk0","pricing_plan_id":"cebpf4jnsgd1na2vs0mg"},{"bike_id":"5ff0956d-af58-4e24-856a-f5692fe27950","system_id":"levelo_inurba_marseille","lat":43.29179,"lon":5.356748,"is_reserved":false,"is_disabled":false,"rental_uris":{"android":"levelo://app?vid=5ff0956d-af58-4e24-856a-f5692fe27950","ios":"levelo://app?vid=5ff0956d-af58-4e24-856a-f5692fe27950"},"vehicle_type_id":"4","last_reported":1761577866,"current_range_meters":20000,"station_id":"ce4bhb92rcd13ifvqen0","pricing_plan_id":"cebpf4jnsgd1na2vs0mg"},{"bike_id":"af96d0e3-d801-42d7-a0dc-15b2fdf2eb9e","system_id":"levelo_inurba_marseille","lat":43.26222,"lon":5.40449,"is_reserved":false,"is_disabled":false,"rental_uris":{"android":"levelo://app?vid=af96d0e3-d801-42d7-a0dc-15b2fdf2eb9e","ios":"levelo://app?vid=af96d0e3-d801-42d7-a0dc-15b2fdf2eb9e"},"vehicle_type_id":"4","last_reported":1761577866,"current_range_meters":20000,"station_id":"ce4bhmh2rcd13ifvqgmg","pricing_plan_id":"cebpf4jnsgd1na2vs0mg"},{"bike_id":"32d7653e-b033-4183-b4c0-f44169bb9067","system_id":"levelo_inurba_marseille","lat":43.32707,"lon":5.39214,"is_reserved":false,"is_disabled":false,"rental_uris":{"android":"levelo://app?vid=32d7653e-b033-4183-b4c0-f44169bb9067","ios":"levelo://app?vid=32d7653e-b033-4183-b4c0-f44169bb9067"},"vehicle_type_id":"4","last_reported":1761577866,"current_range_meters":20000,"station_id":"","pricing_plan_id":"cebpf4jnsgd1na2vs0mg"},{"bike_id":"51c976f5-d92c-416d-bb77-deced1c49b0b","system_id":"levelo_inurba_marseille","lat":43.299717,"lon":5.38475,"is_reserved":false,"is_disabled":false,"rental_uris":{"android":"levelo://app?vid=51c976f5-d92c-416d-bb77-deced1c49b0b","ios":"levelo://app?vid=51c976f5-d92c-416d-bb77-deced1c49b0b"},"vehicle_type_id":"4","last_reported":1761577866,"current_range_meters":20000,"station_id":"ce4bgj92rcd13ifvqbd0","pricing_plan_id":"cebpf4jnsgd1na2vs0mg"},{"bike_id":"35a865b9-7b60-47e9-aac5-e7704209e699","system_id":"levelo_inurba_marseille","lat":43.24943,"lon":5.40495,"is_reserved":false,"is_disabled":false,"rental_uris":{"android":"levelo://app?vid=35a865b9-7b60-47e9-aac5-e7704209e699","ios":"levelo://app?vid=35a865b9-7b60-47e9-aac5-e7704209e699"},"vehicle_type_id":"4","last_reported":1761577866,"current_range_meters":20000,"station_id":"st_d2ngiaodas8pm72gd1h0","pricing_plan_id":"cebpf4jnsgd1na2vs0mg"},{"bike_id":"7a2db725-bbd2-4faf-ad2b-6cbc12302a78","system_id":"levelo_inurba_marseille","lat":43.31227,"lon":5.36855,"is_reserved":false,"is_disabled":false,"rental_uris":{"android":"levelo://app?vid=7a2db725-bbd2-4faf-ad2b-6cbc12302a78","ios":"levelo://app?vid=7a2db725-bbd2-4faf-ad2b-6cbc12302a78"},"vehicle_type_id":"4","last_reported":1761577866,"current_range_meters":20000,"station_id":"ce4bgl92rcd13ifvqbq0","pricing_plan_id":"cebpf4jnsgd1na2vs0mg"},{"bike_id":"a9d6f84c-7daf-4c59-adfe-f1faabb86893","system_id":"levelo_inurba_marseille","lat":43.32347,"lon":5.36746,"is_reserved":false,"is_disabled":false,"rental_uris":{"android":"levelo://app?vid=a9d6f84c-7daf-4c59-adfe-f1faabb86893","ios":"levelo://app?vid=a9d6f84c-7daf-4c59-adfe-f1faabb86893"},"vehicle_type_id":"4","last_reported":1761577866,"current_range_meters":20000,"station_id":"ce4bhsh2rcd13ifvqi2g","pricing_plan_id":"cebpf4jnsgd1na2vs0mg"},{"bike_id":"6aa9a1ee-9778-4d45-859f-f81494315a8d","system_id":"levelo_inurba_marseille","lat":43.211926,"lon":5.350734,"is_reserved":false,"is_disabled":false,"rental_uris":{"android":"levelo://app?vid=6aa9a1ee-9778-4d45-859f-f81494315a8d","ios":"levelo://app?vid=6aa9a1ee-9778-4d45-859f-f81494315a8d"},"vehicle_type_id":"4","last_reported":1761577866,"current_range_meters":20000,"station_id":"","pricing_plan_id":"cebpf4jnsgd1na2vs0mg"},{"bike_id":"46292dbd-4a2f-46bb-964b-a4a3d10786f9","system_id":"levelo_inurba_marseille","lat":43.2481,"lon":5.37462,"is_reserved":false,"is_disabled":false,"rental_uris":{"android":"levelo://app?vid=46292dbd-4a2f-46bb-964b-a4a3d10786f9","ios":"levelo://app?vid=46292dbd-4a2f-46bb-964b-a4a3d10786f9"},"vehicle_type_id":"4","last_reported":1761577866,"current_range_meters":20400,"station_id":"ce4bhgh2rcd13ifvqfb0","pricing_plan_id":"cebpf4jnsgd1na2vs0mg"},{"bike_id":"3ce424f2-328c-4bf3-b6fe-b10a5190adca","system_id":"levelo_inurba_marseille","lat":43.28558,"lon":5.39507,"is_reserved":false,"is_disabled":false,"rental_uris":{"android":"levelo://app?vid=3ce424f2-328c-4bf3-b6fe-b10a5190adca","ios":"levelo://app?vid=3ce424f2-328c-4bf3-b6fe-b10a5190adca"},"vehicle_type_id":"4","last_reported":1761577866,"current_range_meters":20400,"station_id":"ce4bh292rcd13ifvqdg0","pricing_plan_id":"cebpf4jnsgd1na2vs0mg"},{"bike_id":"ab5bc796-95c5-47c2-9f3f-9762c49b04d3","system_id":"levelo_inurba_marseille","lat":43.29623,"lon":5.37713,"is_reserved":false,"is_disabled":false,"rental_uris":{"android":"levelo://app?vid=ab5bc796-95c5-47c2-9f3f-9762c49b04d3","ios":"levelo://app?vid=ab5bc796-95c5-47c2-9f3f-9762c49b04d3"},"vehicle_type_id":"4","last_reported":1761577866,"current_range_meters":20400,"station_id":"ce4bgi92rcd13ifvqb90","pricing_plan_id":"cebpf4jnsgd1na2vs0mg"},{"bike_id":"95ad308e-7242-42cf-9fbd-d57a66418231","system_id":"levelo_inurba_marseille","lat":43.29231,"lon":5.36056,"is_reserved":false,"is_disabled":false,"rental_uris":{"android":"levelo://app?vid=95ad308e-7242-42cf-9fbd-d57a66418231","ios":"levelo://app?vid=95ad308e-7242-42cf-9fbd-d57a66418231"},"vehicle_type_id":"4","last_reported":1761577866,"current_range_meters":20400,"station_id":"ce4bhbh2rcd13ifvqeqg","pricing_plan_id":"cebpf4jnsgd1na2vs0mg"},{"bike_id":"dc8929ba-a503-4409-89bb-f2c68f67a198","system_id":"levelo_inurba_marseille","lat":43.26915,"lon":5.38866,"is_reserved":false,"is_disabled":false,"rental_uris":{"android":"levelo://app?vid=dc8929ba-a503-4409-89bb-f2c68f67a198","ios":"levelo://app?vid=dc8929ba-a503-4409-89bb-f2c68f67a198"},"vehicle_type_id":"4","last_reported":1761577866,"current_range_meters":20400,"station_id":"","pricing_plan_id":"cebpf4jnsgd1na2vs0mg"},{"bike_id":"e9d11840-696e-414e-8e48-fa40d93d98a9","system_id":"levelo_inurba_marseille","lat":43.26782,"lon":5.39418,"is_reserved":false,"is_disabled":false,"rental_uris":{"android":"levelo://app?vid=e9d11840-696e-414e-8e48-fa40d93d98a9","ios":"levelo://app?vid=e9d11840-696e-414e-8e48-fa40d93d98a9"},"vehicle_type_id":"4","last_reported":1761577866,"current_range_meters":20400,"station_id":"ce4bhh12rcd13ifvqfg0","pricing_plan_id":"cebpf4jnsgd1na2vs0mg"},{"bike_id":"6f60b159-83c5-40f3-a1b0-7b6a6268dfa5","system_id":"levelo_inurba_marseille","lat":43.29174,"lon":5.35623,"is_reserved":false,"is_disabled":false,"rental_uris":{"android":"levelo://app?vid=6f60b159-83c5-40f3-a1b0-7b6a6268dfa5","ios":"levelo://app?vid=6f60b159-83c5-40f3-a1b0-7b6a6268dfa5"},"vehicle_type_id":"4","last_reported":1761577866,"current_range_meters":20400,"station_id":"","pricing_plan_id":"cebpf4jnsgd1na2vs0mg"},{"bike_id":"979822cf-56f6-44e7-8388-b5caf88ac3e5","system_id":"levelo_inurba_marseille","lat":43.29924,"lon":5.36543,"is_reserved":false,"is_disabled":false,"rental_uris":{"android":"levelo://app?vid=979822cf-56f6-44e7-8388-b5caf88ac3e5","ios":"levelo://app?vid=979822cf-56f6-44e7-8388-b5caf88ac3e5"},"vehicle_type_id":"4","last_reported":1761577866,"current_range_meters":20400,"station_id":"ce4bgm92rcd13ifvqbr0","pricing_plan_id":"cebpf4jnsgd1na2vs0mg"},{"bike_id":"6d148cc3-0681-4dcb-a26b-81f30200d1d0","system_id":"levelo_inurba_marseille","lat":43.27993,"lon":5.4165,"is_reserved":false,"is_disabled":false,"rental_uris":{"android":"levelo://app?vid=6d148cc3-0681-4dcb-a26b-81f30200d1d0","ios":"levelo://app?vid=6d148cc3-0681-4dcb-a26b-81f30200d1d0"},"vehicle_type_id":"4","last_reported":1761577866,"current_range_meters":20800,"station_id":"ce4bho12rcd13ifvqh1g","pricing_plan_id":"cebpf4jnsgd1na2vs0mg"},{"bike_id":"abe34bf0-7048-4da1-9eec-5004d4e0fdf3","system_id":"levelo_inurba_marseille","lat":43.29911,"lon":5.37452,"is_reserved":false,"is_disabled":false,"rental_uris":{"android":"levelo://app?vid=abe34bf0-7048-4da1-9eec-5004d4e0fdf3","ios":"levelo://app?vid=abe34bf0-7048-4da1-9eec-5004d4e0fdf3"},"vehicle_type_id":"4","last_reported":1761577866,"current_range_meters":20800,"station_id":"ce4bgjh2rcd13ifvqbg0","pricing_plan_id":"cebpf4jnsgd1na2vs0mg"},{"bike_id":"5be318a4-8c7f-4906-8914-e48935b1a54e","system_id":"levelo_inurba_marseille","lat":43.30602,"lon":5.37231,"is_reserved":false,"is_disabled":false,"rental_uris":{"android":"levelo://app?vid=5be318a4-8c7f-4906-8914-e48935b1a54e","ios":"levelo://app?vid=5be318a4-8c7f-4906-8914-e48935b1a54e"},"vehicle_type_id":"4","last_reported":1761577866,"current_range_meters":20800,"station_id":"ce4bgqh2rcd13ifvqc4g","pricing_plan_id":"cebpf4jnsgd1na2vs0mg"},{"bike_id":"9d447215-7097-463a-ab01-ffec67831b86","system_id":"levelo_inurba_marseille","lat":43.32356,"lon":5.36745,"is_reserved":false,"is_disabled":false,"rental_uris":{"android":"levelo://app?vid=9d447215-7097-463a-ab01-ffec67831b86","ios":"levelo://app?vid=9d447215-7097-463a-ab01-ffec67831b86"},"vehicle_type_id":"4","last_reported":1761577866,"current_range_meters":20800,"station_id":"ce4bhsh2rcd13ifvqi2g","pricing_plan_id":"cebpf4jnsgd1na2vs0mg"},{"bike_id":"21f69449-c7d2-456c-b5da-e360e03a540a","system_id":"levelo_inurba_marseille","lat":43.26559,"lon":5.39021,"is_reserved":false,"is_disabled":false,"rental_uris":{"android":"levelo://app?vid=21f69449-c7d2-456c-b5da-e360e03a540a","ios":"levelo://app?vid=21f69449-c7d2-456c-b5da-e360e03a540a"},"vehicle_type_id":"4","last_reported":1761577866,"current_range_meters":21600,"station_id":"ce4bhe12rcd13ifvqf30","pricing_plan_id":"cebpf4jnsgd1na2vs0mg"},{"bike_id":"a45afcb8-dce8-4f3d-8c34-e07d53545177","system_id":"levelo_inurba_marseille","lat":43.295757,"lon":5.367427,"is_reserved":false,"is_disabled":false,"rental_uris":{"android":"levelo://app?vid=a45afcb8-dce8-4f3d-8c34-e07d53545177","ios":"levelo://app?vid=a45afcb8-dce8-4f3d-8c34-e07d53545177"},"vehicle_type_id":"4","last_reported":1761577866,"current_range_meters":21600,"station_id":"ce4bgph2rcd13ifvqc2g","pricing_plan_id":"cebpf4jnsgd1na2vs0mg"},{"bike_id":"51a7e268-9562-4b96-8e84-f568b0acc7b7","system_id":"levelo_inurba_marseille","lat":43.247969,"lon":5.37456,"is_reserved":false,"is_disabled":false,"rental_uris":{"android":"levelo://app?vid=51a7e268-9562-4b96-8e84-f568b0acc7b7","ios":"levelo://app?vid=51a7e268-9562-4b96-8e84-f568b0acc7b7"},"vehicle_type_id":"4","last_reported":1761577866,"current_range_meters":21600,"station_id":"","pricing_plan_id":"cebpf4jnsgd1na2vs0mg"},{"bike_id":"c07fc79b-1ff0-4409-9adc-2edb05bcb7a7","system_id":"levelo_inurba_marseille","lat":43.29513,"lon":5.39401,"is_reserved":false,"is_disabled":false,"rental_uris":{"android":"levelo://app?vid=c07fc79b-1ff0-4409-9adc-2edb05bcb7a7","ios":"levelo://app?vid=c07fc79b-1ff0-4409-9adc-2edb05bcb7a7"},"vehicle_type_id":"4","last_reported":1761577866,"current_range_meters":21600,"station_id":"ce4bh292rcd13ifvqdf0","pricing_plan_id":"cebpf4jnsgd1na2vs0mg"},{"bike_id":"c5357aaa-f358-42dd-a7b4-114e2fddc718","system_id":"levelo_inurba_marseille","lat":43.24803,"lon":5.37455,"is_reserved":false,"is_disabled":false,"rental_uris":{"android":"levelo://app?vid=c5357aaa-f358-42dd-a7b4-114e2fddc718","ios":"levelo://app?vid=c5357aaa-f358-42dd-a7b4-114e2fddc718"},"vehicle_type_id":"4","last_reported":1761577866,"current_range_meters":21600,"station_id":"ce4bhgh2rcd13ifvqfb0","pricing_plan_id":"cebpf4jnsgd1na2vs0mg"},{"bike_id":"622f0d86-823c-48b4-8c15-a983a2a3b688","system_id":"levelo_inurba_marseille","lat":43.26499,"lon":5.39542,"is_reserved":false,"is_disabled":false,"rental_uris":{"android":"levelo://app?vid=622f0d86-823c-48b4-8c15-a983a2a3b688","ios":"levelo://app?vid=622f0d86-823c-48b4-8c15-a983a2a3b688"},"vehicle_type_id":"4","last_reported":1761577866,"current_range_meters":21600,"station_id":"ce4bhi12rcd13ifvqfq0","pricing_plan_id":"cebpf4jnsgd1na2vs0mg"},{"bike_id":"0c897b7a-fda3-462a-956d-8a7449db89ce","system_id":"levelo_inurba_marseille","lat":43.26666,"lon":5.38305,"is_reserved":false,"is_disabled":false,"rental_uris":{"android":"levelo://app?vid=0c897b7a-fda3-462a-956d-8a7449db89ce","ios":"levelo://app?vid=0c897b7a-fda3-462a-956d-8a7449db89ce"},"vehicle_type_id":"4","last_reported":1761577866,"current_range_meters":21600,"station_id":"ce4bhg92rcd13ifvqf90","pricing_plan_id":"cebpf4jnsgd1na2vs0mg"},{"bike_id":"db28e9ca-f3ae-41d6-bd4c-eed3441bd596","system_id":"levelo_inurba_marseille","lat":43.323563,"lon":5.367565,"is_reserved":false,"is_disabled":false,"rental_uris":{"android":"levelo://app?vid=db28e9ca-f3ae-41d6-bd4c-eed3441bd596","ios":"levelo://app?vid=db28e9ca-f3ae-41d6-bd4c-eed3441bd596"},"vehicle_type_id":"4","last_reported":1761577866,"current_range_meters":21600,"station_id":"ce4bhsh2rcd13ifvqi2g","pricing_plan_id":"cebpf4jnsgd1na2vs0mg"},{"bike_id":"57185adc-6152-4762-b3ab-836c5f2dcef3","system_id":"levelo_inurba_marseille","lat":43.23135,"lon":5.43708,"is_reserved":false,"is_disabled":false,"rental_uris":{"android":"levelo://app?vid=57185adc-6152-4762-b3ab-836c5f2dcef3","ios":"levelo://app?vid=57185adc-6152-4762-b3ab-836c5f2dcef3"},"vehicle_type_id":"4","last_reported":1761577866,"current_range_meters":21600,"station_id":"ce4bhmp2rcd13ifvqgog","pricing_plan_id":"cebpf4jnsgd1na2vs0mg"},{"bike_id":"49ed0d39-51fe-4cd4-8527-50556baa8749","system_id":"levelo_inurba_marseille","lat":43.225318,"lon":5.348308,"is_reserved":false,"is_disabled":false,"rental_uris":{"android":"levelo://app?vid=49ed0d39-51fe-4cd4-8527-50556baa8749","ios":"levelo://app?vid=49ed0d39-51fe-4cd4-8527-50556baa8749"},"vehicle_type_id":"4","last_reported":1761577866,"current_range_meters":21600,"station_id":"","pricing_plan_id":"cebpf4jnsgd1na2vs0mg"},{"bike_id":"e1138902-3e9c-4dbd-a886-51539f49fca5","system_id":"levelo_inurba_marseille","lat":43.31352,"lon":5.36708,"is_reserved":false,"is_disabled":false,"rental_uris":{"android":"levelo://app?vid=e1138902-3e9c-4dbd-a886-51539f49fca5","ios":"levelo://app?vid=e1138902-3e9c-4dbd-a886-51539f49fca5"},"vehicle_type_id":"4","last_reported":1761577866,"current_range_meters":22000,"station_id":"ce4bgr92rcd13ifvqc6g","pricing_plan_id":"cebpf4jnsgd1na2vs0mg"},{"bike_id":"ca5e84da-65f5-4f5b-a0bb-5fe9543e962b","system_id":"levelo_inurba_marseille","lat":43.2748,"lon":5.40787,"is_reserved":false,"is_disabled":false,"rental_uris":{"android":"levelo://app?vid=ca5e84da-65f5-4f5b-a0bb-5fe9543e962b","ios":"levelo://app?vid=ca5e84da-65f5-4f5b-a0bb-5fe9543e962b"},"vehicle_type_id":"4","last_reported":1761577866,"current_range_meters":22000,"station_id":"","pricing_plan_id":"cebpf4jnsgd1na2vs0mg"},{"bike_id":"6cb0b2d4-d2f8-4865-acb3-257f814ffbaf","system_id":"levelo_inurba_marseille","lat":43.31091,"lon":5.42425,"is_reserved":false,"is_disabled":false,"rental_uris":{"android":"levelo://app?vid=6cb0b2d4-d2f8-4865-acb3-257f814ffbaf","ios":"levelo://app?vid=6cb0b2d4-d2f8-4865-acb3-257f814ffbaf"},"vehicle_type_id":"4","last_reported":1761577866,"current_range_meters":22000,"station_id":"ce4bhp92rcd13ifvqhag","pricing_plan_id":"cebpf4jnsgd1na2vs0mg"},{"bike_id":"96b93a83-82f2-4d31-acb8-139fbce4500d","system_id":"levelo_inurba_marseille","lat":43.22933,"lon":5.35377,"is_reserved":false,"is_disabled":false,"rental_uris":{"android":"levelo://app?vid=96b93a83-82f2-4d31-acb8-139fbce4500d","ios":"levelo://app?vid=96b93a83-82f2-4d31-acb8-139fbce4500d"},"vehicle_type_id":"4","last_reported":1761577866,"current_range_meters":22000,"station_id":"cpo3532slgdg3j2ikp40","pricing_plan_id":"cebpf4jnsgd1na2vs0mg"},{"bike_id":"6daca031-efb5-4517-911c-f1bf58b277b7","system_id":"levelo_inurba_marseille","lat":43.2119,"lon":5.35099,"is_reserved":false,"is_disabled":false,"rental_uris":{"android":"levelo://app?vid=6daca031-efb5-4517-911c-f1bf58b277b7","ios":"levelo://app?vid=6daca031-efb5-4517-911c-f1bf58b277b7"},"vehicle_type_id":"4","last_reported":1761577866,"current_range_meters":22400,"station_id":"st_cvj6sg6p6f1abm77japg","pricing_plan_id":"cebpf4jnsgd1na2vs0mg"},{"bike_id":"b1e81361-2b17-4ef1-8a58-6def5753471b","system_id":"levelo_inurba_marseille","lat":43.337474,"lon":5.374712,"is_reserved":false,"is_disabled":false,"rental_uris":{"android":"levelo://app?vid=b1e81361-2b17-4ef1-8a58-6def5753471b","ios":"levelo://app?vid=b1e81361-2b17-4ef1-8a58-6def5753471b"},"vehicle_type_id":"4","last_reported":1761577866,"current_range_meters":22400,"station_id":"","pricing_plan_id":"cebpf4jnsgd1na2vs0mg"},{"bike_id":"61e35669-bebb-443d-8601-985c12c6d9ec","system_id":"levelo_inurba_marseille","lat":43.32494,"lon":5.36561,"is_reserved":false,"is_disabled":false,"rental_uris":{"android":"levelo://app?vid=61e35669-bebb-443d-8601-985c12c6d9ec","ios":"levelo://app?vid=61e35669-bebb-443d-8601-985c12c6d9ec"},"vehicle_type_id":"4","last_reported":1761577866,"current_range_meters":22400,"station_id":"ce4bhs12rcd13ifvqhvg","pricing_plan_id":"cebpf4jnsgd1na2vs0mg"},{"bike_id":"8743deb1-3e1b-4fe6-ab63-b75dc0a57f17","system_id":"levelo_inurba_marseille","lat":43.23043,"lon":5.35524,"is_reserved":false,"is_disabled":false,"rental_uris":{"android":"levelo://app?vid=8743deb1-3e1b-4fe6-ab63-b75dc0a57f17","ios":"levelo://app?vid=8743deb1-3e1b-4fe6-ab63-b75dc0a57f17"},"vehicle_type_id":"4","last_reported":1761577866,"current_range_meters":22400,"station_id":"cpo3342slgdg3j2ifvpg","pricing_plan_id":"cebpf4jnsgd1na2vs0mg"},{"bike_id":"11ef3bae-f74c-4d6c-9e1c-74445fbc74b3","system_id":"levelo_inurba_marseille","lat":43.25504,"lon":5.37652,"is_reserved":false,"is_disabled":false,"rental_uris":{"android":"levelo://app?vid=11ef3bae-f74c-4d6c-9e1c-74445fbc74b3","ios":"levelo://app?vid=11ef3bae-f74c-4d6c-9e1c-74445fbc74b3"},"vehicle_type_id":"4","last_reported":1761577866,"current_range_meters":22400,"station_id":"ce4bhh12rcd13ifvqff0","pricing_plan_id":"cebpf4jnsgd1na2vs0mg"},{"bike_id":"3133460c-3311-47a5-99b3-5411c6e77fb6","system_id":"levelo_inurba_marseille","lat":43.25112,"lon":5.40318,"is_reserved":false,"is_disabled":false,"rental_uris":{"android":"levelo://app?vid=3133460c-3311-47a5-99b3-5411c6e77fb6","ios":"levelo://app?vid=3133460c-3311-47a5-99b3-5411c6e77fb6"},"vehicle_type_id":"4","last_reported":1761577866,"current_range_meters":22800,"station_id":"ce4bhlh2rcd13ifvqgig","pricing_plan_id":"cebpf4jnsgd1na2vs0mg"},{"bike_id":"4b4a96a7-2d82-4f7c-b910-379470332401","system_id":"levelo_inurba_marseille","lat":43.2927,"lon":5.36848,"is_reserved":false,"is_disabled":false,"rental_uris":{"android":"levelo://app?vid=4b4a96a7-2d82-4f7c-b910-379470332401","ios":"levelo://app?vid=4b4a96a7-2d82-4f7c-b910-379470332401"},"vehicle_type_id":"4","last_reported":1761577866,"current_range_meters":22800,"station_id":"ce4bhbp2rcd13ifvqesg","pricing_plan_id":"cebpf4jnsgd1na2vs0mg"},{"bike_id":"4689c156-531b-4afc-9bec-37cd234035a7","system_id":"levelo_inurba_marseille","lat":43.24164,"lon":5.3973,"is_reserved":false,"is_disabled":false,"rental_uris":{"android":"levelo://app?vid=4689c156-531b-4afc-9bec-37cd234035a7","ios":"levelo://app?vid=4689c156-531b-4afc-9bec-37cd234035a7"},"vehicle_type_id":"4","last_reported":1761577866,"current_range_meters":22800,"station_id":"ce4bhn12rcd13ifvqgpg","pricing_plan_id":"cebpf4jnsgd1na2vs0mg"},{"bike_id":"37b2703d-c3fc-47fc-b961-79097d0ba32c","system_id":"levelo_inurba_marseille","lat":43.25078,"lon":5.39519,"is_reserved":false,"is_disabled":false,"rental_uris":{"android":"levelo://app?vid=37b2703d-c3fc-47fc-b961-79097d0ba32c","ios":"levelo://app?vid=37b2703d-c3fc-47fc-b961-79097d0ba32c"},"vehicle_type_id":"4","last_reported":1761577866,"current_range_meters":22800,"station_id":"ce4bhm12rcd13ifvqgkg","pricing_plan_id":"cebpf4jnsgd1na2vs0mg"},{"bike_id":"27d60207-ab7f-4910-8c6e-7783a50f7eba","system_id":"levelo_inurba_marseille","lat":43.29621,"lon":5.37173,"is_reserved":false,"is_disabled":false,"rental_uris":{"android":"levelo://app?vid=27d60207-ab7f-4910-8c6e-7783a50f7eba","ios":"levelo://app?vid=27d60207-ab7f-4910-8c6e-7783a50f7eba"},"vehicle_type_id":"4","last_reported":1761577866,"current_range_meters":22800,"station_id":"ce4bgnh2rcd13ifvqc0g","pricing_plan_id":"cebpf4jnsgd1na2vs0mg"},{"bike_id":"f19d0758-81d8-401f-95d9-a237539ee50f","system_id":"levelo_inurba_marseille","lat":43.304128,"lon":5.412836,"is_reserved":false,"is_disabled":false,"rental_uris":{"android":"levelo://app?vid=f19d0758-81d8-401f-95d9-a237539ee50f","ios":"levelo://app?vid=f19d0758-81d8-401f-95d9-a237539ee50f"},"vehicle_type_id":"4","last_reported":1761577866,"current_range_meters":22800,"station_id":"ce4bhop2rcd13ifvqh8g","pricing_plan_id":"cebpf4jnsgd1na2vs0mg"},{"bike_id":"4acb5605-864e-471a-9039-8152ac39bc1c","system_id":"levelo_inurba_marseille","lat":43.27363,"lon":5.36257,"is_reserved":false,"is_disabled":false,"rental_uris":{"android":"levelo://app?vid=4acb5605-864e-471a-9039-8152ac39bc1c","ios":"levelo://app?vid=4acb5605-864e-471a-9039-8152ac39bc1c"},"vehicle_type_id":"4","last_reported":1761577866,"current_range_meters":23200,"station_id":"ce4bhbh2rcd13ifvqeo0","pricing_plan_id":"cebpf4jnsgd1na2vs0mg"},{"bike_id":"941eca81-61b6-4376-acbb-773a2fc9f625","system_id":"levelo_inurba_marseille","lat":43.321243,"lon":5.367778,"is_reserved":false,"is_disabled":false,"rental_uris":{"android":"levelo://app?vid=941eca81-61b6-4376-acbb-773a2fc9f625","ios":"levelo://app?vid=941eca81-61b6-4376-acbb-773a2fc9f625"},"vehicle_type_id":"4","last_reported":1761577866,"current_range_meters":23200,"station_id":"ce4bhrh2rcd13ifvqhug","pricing_plan_id":"cebpf4jnsgd1na2vs0mg"},