{"last_updated":1683356757,"ttl":30,"version":"2.2","data":{"bikes":[{"bike_id":"47ae8ee7-c766-413c-8dd3-91bd605fe816","system_id":"levelo_inurba_marseille","lat":43.31492,"lon":5.3731,"is_reserved":false,"is_disabled":false,"rental_uris":{"android":"levelo://app?vid=47ae8ee7-c766-413c-8dd3-91bd605fe816","ios":"levelo://app?vid=47ae8ee7-c766-413c-8dd3-91bd605fe816"},"vehicle_type_id":"4","last_reported":1683356758,"current_range_meters":29600,"station_id":"ce4bgt12rcd13ifvqcd0","pricing_plan_id":"free"},{"bike_id":"0cbf019e-3c89-4ec8-8e22-3f73b146d753","system_id":"levelo_inurba_marseille","lat":43.308614,"lon":5.372098,"is_reserved":false,"is_disabled":false,"rental_uris":{"android":"levelo://app?vid=0cbf019e-3c89-4ec8-8e22-3f73b146d753","ios":"levelo://app?vid=0cbf019e-3c89-4ec8-8e22-3f73b146d753"},"vehicle_type_id":"4","last_reported":1683356758,"current_range_meters":30800,"station_id":"ce4bguh2rcd13ifvqckg","pricing_plan_id":"free"},{"bike_id":"3bbc4ef1-2b82-4335-b78b-92aee415c38a","system_id":"levelo_inurba_marseille","lat":43.308614,"lon":5.372098,"is_reserved":false,"is_disabled":false,"rental_uris":{"android":"levelo://app?vid=3bbc4ef1-2b82-4335-b78b-92aee415c38a","ios":"levelo://app?vid=3bbc4ef1-2b82-4335-b78b-92aee415c38a"},"vehicle_type_id":"4","last_reported":1683356758,"current_range_meters":29200,"station_id":"ce4bguh2rcd13ifvqckg","pricing_plan_id":"free"},{"bike_id":"0a7b584c-5391-41f4-8118-bf6117260934","system_id":"levelo_inurba_marseille","lat":43.308614,"lon":5.372098,"is_reserved":false,"is_disabled":false,"rental_uris":{"android":"levelo://app?vid=0a7b584c-5391-41f4-8118-bf6117260934","ios":"levelo://app?vid=0a7b584c-5391-41f4-8118-bf6117260934"},"vehicle_type_id":"4","last_reported":1683356758,"current_range_meters":30000,"station_id":"ce4bguh2rcd13ifvqckg","pricing_plan_id":"free"},{"bike_id":"97942a21-2e78-41bd-b024-7efe5d5d86b6","system_id":"levelo_inurba_marseille","lat":43.308614,"lon":5.372098,"is_reserved":false,"is_disabled":false,"rental_uris":{"android":"levelo://app?vid=97942a21-2e78-41bd-b024-7efe5d5d86b6","ios":"levelo://app?vid=97942a21-2e78-41bd-b024-7efe5d5d86b6"},"vehicle_type_id":"4","last_reported":1683356758,"current_range_meters":24400,"station_id":"ce4bguh2rcd13ifvqckg","pricing_plan_id":"free"},{"bike_id":"caea2489-5a5d-4f00-8e78-8c319f8ed68e","system_id":"levelo_inurba_marseille","lat":43.3057,"lon":5.36553,"is_reserved":false,"is_disabled":false,"rental_uris":{"android":"levelo://app?vid=caea2489-5a5d-4f00-8e78-8c319f8ed68e","ios":"levelo://app?vid=caea2489-5a5d-4f00-8e78-8c319f8ed68e"},"vehicle_type_id":"4","last_reported":1683356758,"current_range_meters":7600,"station_id":"","pricing_plan_id":"free"},{"bike_id":"b54e35b6-e189-4d57-8677-f0a1f69a6001","system_id":"levelo_inurba_marseille","lat":43.305706,"lon":5.365654,"is_reserved":false,"is_disabled":false,"rental_uris":{"android":"levelo://app?vid=b54e35b6-e189-4d57-8677-f0a1f69a6001","ios":"levelo://app?vid=b54e35b6-e189-4d57-8677-f0a1f69a6001"},"vehicle_type_id":"4","last_reported":1683356758,"current_range_meters":12800,"station_id":"ce4bgs12rcd13ifvqcag","pricing_plan_id":"free"},{"bike_id":"b23e3959-9509-448e-9d7f-f12196107c72","system_id":"levelo_inurba_marseille","lat":43.305706,"lon":5.365654,"is_reserved":false,"is_disabled":false,"rental_uris":{"android":"levelo://app?vid=b23e3959-9509-448e-9d7f-f12196107c72","ios":"levelo://app?vid=b23e3959-9509-448e-9d7f-f12196107c72"},"vehicle_type_id":"4","last_reported":1683356758,"current_range_meters":25200,"station_id":"ce4bgs12rcd13ifvqcag","pricing_plan_id":"free"},{"bike_id":"4bdf5377-8f60-435d-8420-0c8bc450dd05","system_id":"levelo_inurba_marseille","lat":43.305989,"lon":5.37225,"is_reserved":false,"is_disabled":false,"rental_uris":{"android":"levelo://app?vid=4bdf5377-8f60-435d-8420-0c8bc450dd05","ios":"levelo://app?vid=4bdf5377-8f60-435d-8420-0c8bc450dd05"},"vehicle_type_id":"4","last_reported":1683356758,"current_range_meters":15200,"station_id":"ce4bgqh2rcd13ifvqc4g","pricing_plan_id":"free"},{"bike_id":"7d3f8e8b-5b35-478e-9c0f-bdc2dbfa813c","system_id":"levelo_inurba_marseille","lat":43.30607,"lon":5.37232,"is_reserved":false,"is_disabled":false,"rental_uris":{"android":"levelo://app?vid=7d3f8e8b-5b35-478e-9c0f-bdc2dbfa813c","ios":"levelo://app?vid=7d3f8e8b-5b35-478e-9c0f-bdc2dbfa813c"},"vehicle_type_id":"4","last_reported":1683356758,"current_range_meters":30000,"station_id":"ce4bgqh2rcd13ifvqc4g","pricing_plan_id":"free"},{"bike_id":"bc570655-8ce2-4307-8157-7f1869e267c8","system_id":"levelo_inurba_marseille","lat":43.305989,"lon":5.37225,"is_reserved":false,"is_disabled":false,"rental_uris":{"android":"levelo://app?vid=bc570655-8ce2-4307-8157-7f1869e267c8","ios":"levelo://app?vid=bc570655-8ce2-4307-8157-7f1869e267c8"},"vehicle_type_id":"4","last_reported":1683356758,"current_range_meters":26800,"station_id":"ce4bgqh2rcd13ifvqc4g","pricing_plan_id":"free"},{"bike_id":"94e2f0be-b495-47ba-98db-9dcb535e254a","system_id":"levelo_inurba_marseille","lat":43.311125,"lon":5.377624,"is_reserved":false,"is_disabled":false,"rental_uris":{"android":"levelo://app?vid=94e2f0be-b495-47ba-98db-9dcb535e254a","ios":"levelo://app?vid=94e2f0be-b495-47ba-98db-9dcb535e254a"},"vehicle_type_id":"4","last_reported":1683356758,"current_range_meters":16000,"station_id":"ce4bgt92rcd13ifvqcg0","pricing_plan_id":"free"},{"bike_id":"cd1a3b5f-31b9-4da3-90af-8f9fbfbcdf9e","system_id":"levelo_inurba_marseille","lat":43.311125,"lon":5.377624,"is_reserved":false,"is_disabled":false,"rental_uris":{"android":"levelo://app?vid=cd1a3b5f-31b9-4da3-90af-8f9fbfbcdf9e","ios":"levelo://app?vid=cd1a3b5f-31b9-4da3-90af-8f9fbfbcdf9e"},"vehicle_type_id":"4","last_reported":1683356758,"current_range_meters":7200,"station_id":"ce4bgt92rcd13ifvqcg0","pricing_plan_id":"free"},{"bike_id":"ffff244b-f73d-4e2a-bfd1-81d2a3755d58","system_id":"levelo_inurba_marseille","lat":43.311131,"lon":5.377651,"is_reserved":false,"is_disabled":false,"rental_uris":{"android":"levelo://app?vid=ffff244b-f73d-4e2a-bfd1-81d2a3755d58","ios":"levelo://app?vid=ffff244b-f73d-4e2a-bfd1-81d2a3755d58"},"vehicle_type_id":"4","last_reported":1683356758,"current_range_meters":26800,"station_id":"ce4bgt92rcd13ifvqcg0","pricing_plan_id":"free"},{"bike_id":"4489c62c-6913-4f3b-8acd-b3cba1a7fc11","system_id":"levelo_inurba_marseille","lat":43.311131,"lon":5.377651,"is_reserved":false,"is_disabled":false,"rental_uris":{"android":"levelo://app?vid=4489c62c-6913-4f3b-8acd-b3cba1a7fc11","ios":"levelo://app?vid=4489c62c-6913-4f3b-8acd-b3cba1a7fc11"},"vehicle_type_id":"4","last_reported":1683356758,"current_range_meters":29600,"station_id":"ce4bgt92rcd13ifvqcg0","pricing_plan_id":"free"},{"bike_id":"b2dafc9d-7580-407a-b7e9-62f7e45f3313","system_id":"levelo_inurba_marseille","lat":43.311131,"lon":5.377651,"is_reserved":false,"is_disabled":false,"rental_uris":{"android":"levelo://app?vid=b2dafc9d-7580-407a-b7e9-62f7e45f3313","ios":"levelo://app?vid=b2dafc9d-7580-407a-b7e9-62f7e45f3313"},"vehicle_type_id":"4","last_reported":1683356758,"current_range_meters":0,"station_id":"ce4bgt92rcd13ifvqcg0","pricing_plan_id":"free"},{"bike_id":"452d8aa2-923d-4a4d-904e-1aaf1c481c7d","system_id":"levelo_inurba_marseille","lat":43.30472,"lon":5.36786,"is_reserved":false,"is_disabled":false,"rental_uris":{"android":"levelo://app?vid=452d8aa2-923d-4a4d-904e-1aaf1c481c7d","ios":"levelo://app?vid=452d8aa2-923d-4a4d-904e-1aaf1c481c7d"},"vehicle_type_id":"4","last_reported":1683356758,"current_range_meters":0,"station_id":"","pricing_plan_id":"free"},{"bike_id":"41493f0d-0963-40d9-9c83-61ab65e8adb1","system_id":"levelo_inurba_marseille","lat":43.317075,"lon":5.377367,"is_reserved":false,"is_disabled":false,"rental_uris":{"android":"levelo://app?vid=41493f0d-0963-40d9-9c83-61ab65e8adb1","ios":"levelo://app?vid=41493f0d-0963-40d9-9c83-61ab65e8adb1"},"vehicle_type_id":"4","last_reported":1683356758,"current_range_meters":30400,"station_id":"ce4bgth2rcd13ifvqch0","pricing_plan_id":"free"},{"bike_id":"4a4d6ac7-929f-4743-bf1b-c5d837398877","system_id":"levelo_inurba_marseille","lat":43.317075,"lon":5.377367,"is_reserved":false,"is_disabled":false,"rental_uris":{"android":"levelo://app?vid=4a4d6ac7-929f-4743-bf1b-c5d837398877","ios":"levelo://app?vid=4a4d6ac7-929f-4743-bf1b-c5d837398877"},"vehicle_type_id":"4","last_reported":1683356758,"current_range_meters":31200,"station_id":"ce4bgth2rcd13ifvqch0","pricing_plan_id":"free"},{"bike_id":"2a9ba982-b2b3-404c-9cd8-3013399dd421","system_id":"levelo_inurba_marseille","lat":43.317075,"lon":5.377367,"is_reserved":false,"is_disabled":false,"rental_uris":{"android":"levelo://app?vid=2a9ba982-b2b3-404c-9cd8-3013399dd421","ios":"levelo://app?vid=2a9ba982-b2b3-404c-9cd8-3013399dd421"},"vehicle_type_id":"4","last_reported":1683356758,"current_range_meters":30400,"station_id":"ce4bgth2rcd13ifvqch0","pricing_plan_id":"free"},{"bike_id":"0ceddf03-75b7-4dff-ba07-11950b87c5d3","system_id":"levelo_inurba_marseille","lat":43.317075,"lon":5.377367,"is_reserved":false,"is_disabled":false,"rental_uris":{"android":"levelo://app?vid=0ceddf03-75b7-4dff-ba07-11950b87c5d3","ios":"levelo://app?vid=0ceddf03-75b7-4dff-ba07-11950b87c5d3"},"vehicle_type_id":"4","last_reported":1683356758,"current_range_meters":28000,"station_id":"ce4bgth2rcd13ifvqch0","pricing_plan_id":"free"},{"bike_id":"8170f3b4-b1c3-4994-93d8-7121a498d044","system_id":"levelo_inurba_marseille","lat":43.31527,"lon":5.38032,"is_reserved":false,"is_disabled":false,"rental_uris":{"android":"levelo://app?vid=8170f3b4-b1c3-4994-93d8-7121a498d044","ios":"levelo://app?vid=8170f3b4-b1c3-4994-93d8-7121a498d044"},"vehicle_type_id":"4","last_reported":1683356758,"current_range_meters":30800,"station_id":"ce4bhsp2rcd13ifvqi50","pricing_plan_id":"free"},{"bike_id":"d44ef1b5-aa87-494f-b80b-d91982363150","system_id":"levelo_inurba_marseille","lat":43.31527,"lon":5.38032,"is_reserved":false,"is_disabled":false,"rental_uris":{"android":"levelo://app?vid=d44ef1b5-aa87-494f-b80b-d91982363150","ios":"levelo://app?vid=d44ef1b5-aa87-494f-b80b-d91982363150"},"vehicle_type_id":"4","last_reported":1683356758,"current_range_meters":27600,"station_id":"ce4bhsp2rcd13ifvqi50","pricing_plan_id":"free"},{"bike_id":"10394994-36fd-400a-a11d-6616bcab1dd5","system_id":"levelo_inurba_marseille","lat":43.31535,"lon":5.3803,"is_reserved":false,"is_disabled":false,"rental_uris":{"android":"levelo://app?vid=10394994-36fd-400a-a11d-6616bcab1dd5","ios":"levelo://app?vid=10394994-36fd-400a-a11d-6616bcab1dd5"},"vehicle_type_id":"4","last_reported":1683356758,"current_range_meters":31200,"station_id":"ce4bhsp2rcd13ifvqi50","pricing_plan_id":"free"},{"bike_id":"695480ea-8623-43ba-9449-9a7d0ad32100","system_id":"levelo_inurba_marseille","lat":43.31536,"lon":5.38033,"is_reserved":false,"is_disabled":false,"rental_uris":{"android":"levelo://app?vid=695480ea-8623-43ba-9449-9a7d0ad32100","ios":"levelo://app?vid=695480ea-8623-43ba-9449-9a7d0ad32100"},"vehicle_type_id":"4","last_reported":1683356758,"current_range_meters":18800,"station_id":"ce4bhsp2rcd13ifvqi50","pricing_plan_id":"free"},{"bike_id":"6646f385-7df2-4aa2-8f2d-7587e9a3c28a","system_id":"levelo_inurba_marseille","lat":43.315293,"lon":5.380349,"is_reserved":false,"is_disabled":false,"rental_uris":{"android":"levelo://app?vid=6646f385-7df2-4aa2-8f2d-7587e9a3c28a","ios":"levelo://app?vid=6646f385-7df2-4aa2-8f2d-7587e9a3c28a"},"vehicle_type_id":"4","last_reported":1683356758,"current_range_meters":27600,"station_id":"ce4bhsp2rcd13ifvqi50","pricing_plan_id":"free"},{"bike_id":"8aa2da5e-0885-4e53-be4e-3eb28395cd1b","system_id":"levelo_inurba_marseille","lat":43.30193,"lon":5.36597,"is_reserved":false,"is_disabled":false,"rental_uris":{"android":"levelo://app?vid=8aa2da5e-0885-4e53-be4e-3eb28395cd1b","ios":"levelo://app?vid=8aa2da5e-0885-4e53-be4e-3eb28395cd1b"},"vehicle_type_id":"4","last_reported":1683356758,"current_range_meters":26800,"station_id":"ce4bgup2rcd13ifvqcn0","pricing_plan_id":"free"},{"bike_id":"5a9512cf-9950-4cc9-ad4f-eb91c3dea633","system_id":"levelo_inurba_marseille","lat":43.301939,"lon":5.366286,"is_reserved":false,"is_disabled":false,"rental_uris":{"android":"levelo://app?vid=5a9512cf-9950-4cc9-ad4f-eb91c3dea633","ios":"levelo://app?vid=5a9512cf-9950-4cc9-ad4f-eb91c3dea633"},"vehicle_type_id":"4","last_reported":1683356758,"current_range_meters":31200,"station_id":"ce4bgrh2rcd13ifvqc8g","pricing_plan_id":"free"},{"bike_id":"4a1537b0-ca60-45b2-9950-e0879d167967","system_id":"levelo_inurba_marseille","lat":43.301939,"lon":5.366286,"is_reserved":false,"is_disabled":false,"rental_uris":{"android":"levelo://app?vid=4a1537b0-ca60-45b2-9950-e0879d167967","ios":"levelo://app?vid=4a1537b0-ca60-45b2-9950-e0879d167967"},"vehicle_type_id":"4","last_reported":1683356758,"current_range_meters":13600,"station_id":"ce4bgrh2rcd13ifvqc8g","pricing_plan_id":"free"},{"bike_id":"1e61aa19-471d-4b82-abc8-12e696f90661","system_id":"levelo_inurba_marseille","lat":43.301939,"lon":5.366286,"is_reserved":false,"is_disabled":false,"rental_uris":{"android":"levelo://app?vid=1e61aa19-471d-4b82-abc8-12e696f90661","ios":"levelo://app?vid=1e61aa19-471d-4b82-abc8-12e696f90661"},"vehicle_type_id":"4","last_reported":1683356758,"current_range_meters":30400,"station_id":"ce4bgrh2rcd13ifvqc8g","pricing_plan_id":"free"},{"bike_id":"ca3fab88-1e75-4eb9-bf43-24b13447c4dd","system_id":"levelo_inurba_marseille","lat":43.30804,"lon":5.38154,"is_reserved":false,"is_disabled":false,"rental_uris":{"android":"levelo://app?vid=ca3fab88-1e75-4eb9-bf43-24b13447c4dd","ios":"levelo://app?vid=ca3fab88-1e75-4eb9-bf43-24b13447c4dd"},"vehicle_type_id":"4","last_reported":1683356758,"current_range_meters":28000,"station_id":"ce4bgt12rcd13ifvqce0","pricing_plan_id":"free"},{"bike_id":"073ddd54-3b15-4860-871f-2e4b719fb946","system_id":"levelo_inurba_marseille","lat":43.308012,"lon":5.381511,"is_reserved":false,"is_disabled":false,"rental_uris":{"android":"levelo://app?vid=073ddd54-3b15-4860-871f-2e4b719fb946","ios":"levelo://app?vid=073ddd54-3b15-4860-871f-2e4b719fb946"},"vehicle_type_id":"4","last_reported":1683356758,"current_range_meters":10400,"station_id":"ce4bgt12rcd13ifvqce0","pricing_plan_id":"free"},{"bike_id":"be5f2e04-9faf-47c0-867c-a2d2d3892486","system_id":"levelo_inurba_marseille","lat":43.308012,"lon":5.381511,"is_reserved":false,"is_disabled":false,"rental_uris":{"android":"levelo://app?vid=be5f2e04-9faf-47c0-867c-a2d2d3892486","ios":"levelo://app?vid=be5f2e04-9faf-47c0-867c-a2d2d3892486"},"vehicle_type_id":"4","last_reported":1683356758,"current_range_meters":19600,"station_id":"ce4bgt12rcd13ifvqce0","pricing_plan_id":"free"},{"bike_id":"850d0888-4b27-48a4-a01d-202c54ecbc00","system_id":"levelo_inurba_marseille","lat":43.304606,"lon":5.379026,"is_reserved":false,"is_disabled":false,"rental_uris":{"android":"levelo://app?vid=850d0888-4b27-48a4-a01d-202c54ecbc00","ios":"levelo://app?vid=850d0888-4b27-48a4-a01d-202c54ecbc00"},"vehicle_type_id":"4","last_reported":1683356758,"current_range_meters":30000,"station_id":"ce4bgup2rcd13ifvqcn0","pricing_plan_id":"free"},{"bike_id":"c0f2ded7-90c4-4f28-990a-40ee57c63e58","system_id":"levelo_inurba_marseille","lat":43.304606,"lon":5.379026,"is_reserved":false,"is_disabled":false,"rental_uris":{"android":"levelo://app?vid=c0f2ded7-90c4-4f28-990a-40ee57c63e58","ios":"levelo://app?vid=c0f2ded7-90c4-4f28-990a-40ee57c63e58"},"vehicle_type_id":"4","last_reported":1683356758,"current_range_meters":31200,"station_id":"ce4bgup2rcd13ifvqcn0","pricing_plan_id":"free"},{"bike_id":"10ccce20-02ad-4dc0-81e1-c11cf011c776","system_id":"levelo_inurba_marseille","lat":43.304606,"lon":5.379026,"is_reserved":false,"is_disabled":false,"rental_uris":{"android":"levelo://app?vid=10ccce20-02ad-4dc0-81e1-c11cf011c776","ios":"levelo://app?vid=10ccce20-02ad-4dc0-81e1-c11cf011c776"},"vehicle_type_id":"4","last_reported":1683356758,"current_range_meters":31200,"station_id":"ce4bgup2rcd13ifvqcn0","pricing_plan_id":"free"},{"bike_id":"ce61796c-09f9-4397-9588-3528ab4d5fa6","system_id":"levelo_inurba_marseille","lat":43.304606,"lon":5.379026,"is_reserved":false,"is_disabled":false,"rental_uris":{"android":"levelo://app?vid=ce61796c-09f9-4397-9588-3528ab4d5fa6","ios":"levelo://app?vid=ce61796c-09f9-4397-9588-3528ab4d5fa6"},"vehicle_type_id":"4","last_reported":1683356758,"current_range_meters":25600,"station_id":"ce4bgup2rcd13ifvqcn0","pricing_plan_id":"free"},{"bike_id":"28c342ea-7f38-4400-be8b-203b0d2d65d2","system_id":"levelo_inurba_marseille","lat":43.304606,"lon":5.379026,"is_reserved":false,"is_disabled":false,"rental_uris":{"android":"levelo://app?vid=28c342ea-7f38-4400-be8b-203b0d2d65d2","ios":"levelo://app?vid=28c342ea-7f38-4400-be8b-203b0d2d65d2"},"vehicle_type_id":"4","last_reported":1683356758,"current_range_meters":28800,"station_id":"ce4bgup2rcd13ifvqcn0","pricing_plan_id":"free"},{"bike_id":"a4a9cad7-81f3-41a0-8926-65ddca302903","system_id":"levelo_inurba_marseille","lat":43.304606,"lon":5.379026,"is_reserved":false,"is_disabled":false,"rental_uris":{"android":"levelo://app?vid=a4a9cad7-81f3-41a0-8926-65ddca302903","ios":"levelo://app?vid=a4a9cad7-81f3-41a0-8926-65ddca302903"},"vehicle_type_id":"4","last_reported":1683356758,"current_range_meters":27600,"station_id":"ce4bgup2rcd13ifvqcn0","pricing_plan_id":"free"},{"bike_id":"8de032c1-e102-4dae-9d8e-9e56e8eed41a","system_id":"levelo_inurba_marseille","lat":43.304606,"lon":5.379026,"is_reserved":false,"is_disabled":false,"rental_uris":{"android":"levelo://app?vid=8de032c1-e102-4dae-9d8e-9e56e8eed41a","ios":"levelo://app?vid=8de032c1-e102-4dae-9d8e-9e56e8eed41a"},"vehicle_type_id":"4","last_reported":1683356758,"current_range_meters":24000,"station_id":"ce4bgup2rcd13ifvqcn0","pricing_plan_id":"free"},{"bike_id":"ed67b6d6-c540-4471-b8db-7710a1acc285","system_id":"levelo_inurba_marseille","lat":43.304606,"lon":5.379026,"is_reserved":false,"is_disabled":false,"rental_uris":{"android":"levelo://app?vid=ed67b6d6-c540-4471-b8db-7710a1acc285","ios":"levelo://app?vid=ed67b6d6-c540-4471-b8db-7710a1acc285"},"vehicle_type_id":"4","last_reported":1683356758,"current_range_meters":31600,"station_id":"ce4bgup2rcd13ifvqcn0","pricing_plan_id":"free"},{"bike_id":"f13ad450-ae72-40dd-827e-6c61e17a89be","system_id":"levelo_inurba_marseille","lat":43.304606,"lon":5.379026,"is_reserved":false,"is_disabled":false,"rental_uris":{"android":"levelo://app?vid=f13ad450-ae72-40dd-827e-6c61e17a89be","ios":"levelo://app?vid=f13ad450-ae72-40dd-827e-6c61e17a89be"},"vehicle_type_id":"4","last_reported":1683356758,"current_range_meters":31200,"station_id":"ce4bgup2rcd13ifvqcn0","pricing_plan_id":"free"},{"bike_id":"16dbd4dc-a38f-4517-86e3-4dd891cdd050","system_id":"levelo_inurba_marseille","lat":43.304606,"lon":5.379026,"is_reserved":false,"is_disabled":false,"rental_uris":{"android":"levelo://app?vid=16dbd4dc-a38f-4517-86e3-4dd891cdd050","ios":"levelo://app?vid=16dbd4dc-a38f-4517-86e3-4dd891cdd050"},"vehicle_type_id":"4","last_reported":1683356758,"current_range_meters":16800,"station_id":"ce4bgup2rcd13ifvqcn0","pricing_plan_id":"free"},{"bike_id":"388c4d0f-ccf9-4ec2-ae28-db1efc96b57f","system_id":"levelo_inurba_marseille","lat":43.304606,"lon":5.379026,"is_reserved":false,"is_disabled":false,"rental_uris":{"android":"levelo://app?vid=388c4d0f-ccf9-4ec2-ae28-db1efc96b57f","ios":"levelo://app?vid=388c4d0f-ccf9-4ec2-ae28-db1efc96b57f"},"vehicle_type_id":"4","last_reported":1683356758,"current_range_meters":24000,"station_id":"ce4bgup2rcd13ifvqcn0","pricing_plan_id":"free"},{"bike_id":"6482b8a3-70c9-4804-83f2-4836c15ec734","system_id":"levelo_inurba_marseille","lat":43.304606,"lon":5.379026,"is_reserved":false,"is_disabled":false,"rental_uris":{"android":"levelo://app?vid=6482b8a3-70c9-4804-83f2-4836c15ec734","ios":"levelo://app?vid=6482b8a3-70c9-4804-83f2-4836c15ec734"},"vehicle_type_id":"4","last_reported":1683356758,"current_range_meters":5600,"station_id":"ce4bgup2rcd13ifvqcn0","pricing_plan_id":"free"},{"bike_id":"0409a969-d6a9-4535-a3aa-39109a7e4038","system_id":"levelo_inurba_marseille","lat":43.304606,"lon":5.379026,"is_reserved":false,"is_disabled":false,"rental_uris":{"android":"levelo://app?vid=0409a969-d6a9-4535-a3aa-39109a7e4038","ios":"levelo://app?vid=0409a969-d6a9-4535-a3aa-39109a7e4038"},"vehicle_type_id":"4","last_reported":1683356758,"current_range_meters":24000,"station_id":"ce4bgup2rcd13ifvqcn0","pricing_plan_id":"free"},{"bike_id":"cffebdb4-e502-46e0-8a86-7a7765449115","system_id":"levelo_inurba_marseille","lat":43.304606,"lon":5.379026,"is_reserved":false,"is_disabled":false,"rental_uris":{"android":"levelo://app?vid=cffebdb4-e502-46e0-8a86-7a7765449115","ios":"levelo://app?vid=cffebdb4-e502-46e0-8a86-7a7765449115"},"vehicle_type_id":"4","last_reported":1683356758,"current_range_meters":22000,"station_id":"ce4bgup2rcd13ifvqcn0","pricing_plan_id":"free"},{"bike_id":"d50f94be-98a5-430d-85ca-38d86b478ca3","system_id":"levelo_inurba_marseille","lat":43.304606,"lon":5.379026,"is_reserved":false,"is_disabled":false,"rental_uris":{"android":"levelo://app?vid=d50f94be-98a5-430d-85ca-38d86b478ca3","ios":"levelo://app?vid=d50f94be-98a5-430d-85ca-38d86b478ca3"},"vehicle_type_id":"4","last_reported":1683356758,"current_range_meters":16400,"station_id":"ce4bgup2rcd13ifvqcn0","pricing_plan_id":"free"},{"bike_id":"b9314077-b028-433d-9f46-68eec18a92b0","system_id":"levelo_inurba_marseille","lat":43.304606,"lon":5.379026,"is_reserved":false,"is_disabled":false,"rental_uris":{"android":"levelo://app?vid=b9314077-b028-433d-9f46-68eec18a92b0","ios":"levelo://app?vid=b9314077-b028-433d-9f46-68eec18a92b0"},"vehicle_type_id":"4","last_reported":1683356758,"current_range_meters":21200,"station_id":"ce4bgup2rcd13ifvqcn0","pricing_plan_id":"free"},{"bike_id":"73adaaaf-9942-442f-930d-bef4f03eef0a","system_id":"levelo_inurba_marseille","lat":43.304606,"lon":5.379026,"is_reserved":false,"is_disabled":false,"rental_uris":{"android":"levelo://app?vid=73adaaaf-9942-442f-930d-bef4f03eef0a","ios":"levelo://app?vid=73adaaaf-9942-442f-930d-bef4f03eef0a"},"vehicle_type_id":"4","last_reported":1683356758,"current_range_meters":31600,"station_id":"ce4bgup2rcd13ifvqcn0","pricing_plan_id":"free"},{"bike_id":"32602ba5-374d-4aa5-8d8e-c79f8eb70f7b","system_id":"levelo_inurba_marseille","lat":43.313571,"lon":5.384829,"is_reserved":false,"is_disabled":false,"rental_uris":{"android":"levelo://app?vid=32602ba5-374d-4aa5-8d8e-c79f8eb70f7b","ios":"levelo://app?vid=32602ba5-374d-4aa5-8d8e-c79f8eb70f7b"},"vehicle_type_id":"4","last_reported":1683356758,"current_range_meters":22400,"station_id":"ce4bgt92rcd13ifvqcf0","pricing_plan_id":"free"},{"bike_id":"cb6a3fc3-cd7f-4f20-8aed-1b890fc65bbd","system_id":"levelo_inurba_marseille","lat":43.313571,"lon":5.384829,"is_reserved":false,"is_disabled":false,"rental_uris":{"android":"levelo://app?vid=cb6a3fc3-cd7f-4f20-8aed-1b890fc65bbd","ios":"levelo://app?vid=cb6a3fc3-cd7f-4f20-8aed-1b890fc65bbd"},"vehicle_type_id":"4","last_reported":1683356758,"current_range_meters":30000,"station_id":"ce4bgt92rcd13ifvqcf0","pricing_plan_id":"free"},{"bike_id":"67f4cfc7-1513-4fe5-ad0a-e97fc25f0f56","system_id":"levelo_inurba_marseille","lat":43.313571,"lon":5.384829,"is_reserved":false,"is_disabled":false,"rental_uris":{"android":"levelo://app?vid=67f4cfc7-1513-4fe5-ad0a-e97fc25f0f56","ios":"levelo://app?vid=67f4cfc7-1513-4fe5-ad0a-e97fc25f0f56"},"vehicle_type_id":"4","last_reported":1683356758,"current_range_meters":30000,"station_id":"ce4bgt92rcd13ifvqcf0","pricing_plan_id":"free"},{"bike_id":"08cb81fe-9249-4d57-84de-c58e1d51d56f","system_id":"levelo_inurba_marseille","lat":43.313571,"lon":5.384829,"is_reserved":false,"is_disabled":false,"rental_uris":{"android":"levelo://app?vid=08cb81fe-9249-4d57-84de-c58e1d51d56f","ios":"levelo://app?vid=08cb81fe-9249-4d57-84de-c58e1d51d56f"},"vehicle_type_id":"4","last_reported":1683356758,"current_range_meters":31200,"station_id":"ce4bgt92rcd13ifvqcf0","pricing_plan_id":"free"},{"bike_id":"ed823ae8-e73d-41df-b709-72e0e301e341","system_id":"levelo_inurba_marseille","lat":43.313571,"lon":5.384829,"is_reserved":false,"is_disabled":false,"rental_uris":{"android":"levelo://app?vid=ed823ae8-e73d-41df-b709-72e0e301e341","ios":"levelo://app?vid=ed823ae8-e73d-41df-b709-72e0e301e341"},"vehicle_type_id":"4","last_reported":1683356758,"current_range_meters":31200,"station_id":"ce4bgt92rcd13ifvqcf0","pricing_plan_id":"free"},{"bike_id":"a27a8097-ef4b-4228-ab88-df61392f64ef","system_id":"levelo_inurba_marseille","lat":43.313571,"lon":5.384829,"is_reserved":false,"is_disabled":false,"rental_uris":{"android":"levelo://app?vid=a27a8097-ef4b-4228-ab88-df61392f64ef","ios":"levelo://app?vid=a27a8097-ef4b-4228-ab88-df61392f64ef"},"vehicle_type_id":"4","last_reported":1683356758,"current_range_meters":30400,"station_id":"ce4bgt92rcd13ifvqcf0","pricing_plan_id":"free"},{"bike_id":"f6c64a9d-d5f6-48c4-8a81-960fe0f29fb2","system_id":"levelo_inurba_marseille","lat":43.31364,"lon":5.38521,"is_reserved":false,"is_disabled":false,"rental_uris":{"android":"levelo://app?vid=f6c64a9d-d5f6-48c4-8a81-960fe0f29fb2","ios":"levelo://app?vid=f6c64a9d-d5f6-48c4-8a81-960fe0f29fb2"},"vehicle_type_id":"4","last_reported":1683356758,"current_range_meters":19200,"station_id":"","pricing_plan_id":"free"},{"bike_id":"18f6744c-9dbb-4f2a-9bc7-bf4498b0a7d8","system_id":"levelo_inurba_marseille","lat":43.29935,"lon":5.36543,"is_reserved":false,"is_disabled":false,"rental_uris":{"android":"levelo://app?vid=18f6744c-9dbb-4f2a-9bc7-bf4498b0a7d8","ios":"levelo://app?vid=18f6744c-9dbb-4f2a-9bc7-bf4498b0a7d8"},"vehicle_type_id":"4","last_reported":1683356758,"current_range_meters":31200,"station_id":"ce4bgm92rcd13ifvqbr0","pricing_plan_id":"free"},{"bike_id":"457bcdcf-a85e-4e94-996b-b09b2a617d1b","system_id":"levelo_inurba_marseille","lat":43.29933,"lon":5.36535,"is_reserved":false,"is_disabled":false,"rental_uris":{"android":"levelo://app?vid=457bcdcf-a85e-4e94-996b-b09b2a617d1b","ios":"levelo://app?vid=457bcdcf-a85e-4e94-996b-b09b2a617d1b"},"vehicle_type_id":"4","last_reported":1683356758,"current_range_meters":30400,"station_id":"ce4bgm92rcd13ifvqbr0","pricing_plan_id":"free"},{"bike_id":"bcf12486-4d40-4884-969b-2c19f244a968","system_id":"levelo_inurba_marseille","lat":43.29885,"lon":5.36702,"is_reserved":false,"is_disabled":false,"rental_uris":{"android":"levelo://app?vid=bcf12486-4d40-4884-969b-2c19f244a968","ios":"levelo://app?vid=bcf12486-4d40-4884-969b-2c19f244a968"},"vehicle_type_id":"4","last_reported":1683356758,"current_range_meters":400,"station_id":"","pricing_plan_id":"free"},{"bike_id":"9a8cb2cd-7757-4f79-b6cf-f301b5954263","system_id":"levelo_inurba_marseille","lat":43.30044,"lon":5.37623,"is_reserved":false,"is_disabled":false,"rental_uris":{"android":"levelo://app?vid=9a8cb2cd-7757-4f79-b6cf-f301b5954263","ios":"levelo://app?vid=9a8cb2cd-7757-4f79-b6cf-f301b5954263"},"vehicle_type_id":"4","last_reported":1683356758,"current_range_meters":23600,"station_id":"","pricing_plan_id":"free"},{"bike_id":"583fb971-9406-424e-b976-13c9597f8615","system_id":"levelo_inurba_marseille","lat":43.298433,"lon":5.362774,"is_reserved":false,"is_disabled":false,"rental_uris":{"android":"levelo://app?vid=583fb971-9406-424e-b976-13c9597f8615","ios":"levelo://app?vid=583fb971-9406-424e-b976-13c9597f8615"},"vehicle_type_id":"4","last_reported":1683356758,"current_range_meters":29200,"station_id":"ce4bgpp2rcd13ifvqc3g","pricing_plan_id":"free"},{"bike_id":"95925265-2773-46fb-a8aa-7f9e5fade442","system_id":"levelo_inurba_marseille","lat":43.298433,"lon":5.362774,"is_reserved":false,"is_disabled":false,"rental_uris":{"android":"levelo://app?vid=95925265-2773-46fb-a8aa-7f9e5fade442","ios":"levelo://app?vid=95925265-2773-46fb-a8aa-7f9e5fade442"},"vehicle_type_id":"4","last_reported":1683356758,"current_range_meters":22800,"station_id":"ce4bgpp2rcd13ifvqc3g","pricing_plan_id":"free"},{"bike_id":"c1c2e289-0a6c-4c91-ae6f-9a85c275378c","system_id":"levelo_inurba_marseille","lat":43.298433,"lon":5.362774,"is_reserved":false,"is_disabled":false,"rental_uris":{"android":"levelo://app?vid=c1c2e289-0a6c-4c91-ae6f-9a85c275378c","ios":"levelo://app?vid=c1c2e289-0a6c-4c91-ae6f-9a85c275378c"},"vehicle_type_id":"4","last_reported":1683356758,"current_range_meters":6000,"station_id":"ce4bgpp2rcd13ifvqc3g","pricing_plan_id":"free"},{"bike_id":"883ddd2c-df89-4063-bcf9-c9769e9017f3","system_id":"levelo_inurba_marseille","lat":43.305364,"lon":5.384119,"is_reserved":false,"is_disabled":false,"rental_uris":{"android":"levelo://app?vid=883ddd2c-df89-4063-bcf9-c9769e9017f3","ios":"levelo://app?vid=883ddd2c-df89-4063-bcf9-c9769e9017f3"},"vehicle_type_id":"4","last_reported":1683356758,"current_range_meters":24800,"station_id":"ce4bgg92rcd13ifvqb30","pricing_plan_id":"free"},{"bike_id":"b3f0ad76-c637-4f10-a026-6bd2eed28b22","system_id":"levelo_inurba_marseille","lat":43.305364,"lon":5.384119,"is_reserved":false,"is_disabled":false,"rental_uris":{"android":"levelo://app?vid=b3f0ad76-c637-4f10-a026-6bd2eed28b22","ios":"levelo://app?vid=b3f0ad76-c637-4f10-a026-6bd2eed28b22"},"vehicle_type_id":"4","last_reported":1683356758,"current_range_meters":25200,"station_id":"ce4bgg92rcd13ifvqb30","pricing_plan_id":"free"},{"bike_id":"187b106e-d29e-4b97-b32d-f16350f067dc","system_id":"levelo_inurba_marseille","lat":43.305364,"lon":5.384119,"is_reserved":false,"is_disabled":false,"rental_uris":{"android":"levelo://app?vid=187b106e-d29e-4b97-b32d-f16350f067dc","ios":"levelo://app?vid=187b106e-d29e-4b97-b32d-f16350f067dc"},"vehicle_type_id":"4","last_reported":1683356758,"current_range_meters":29200,"station_id":"ce4bgg92rcd13ifvqb30","pricing_plan_id":"free"},{"bike_id":"9f84352f-9d62-412d-898e-d8247799657d","system_id":"levelo_inurba_marseille","lat":43.305364,"lon":5.384119,"is_reserved":false,"is_disabled":false,"rental_uris":{"android":"levelo://app?vid=9f84352f-9d62-412d-898e-d8247799657d","ios":"levelo://app?vid=9f84352f-9d62-412d-898e-d8247799657d"},"vehicle_type_id":"4","last_reported":1683356758,"current_range_meters":9200,"station_id":"ce4bgg92rcd13ifvqb30","pricing_plan_id":"free"},{"bike_id":"cf477475-8c6e-446c-a1be-bab4a9898043","system_id":"levelo_inurba_marseille","lat":43.305364,"lon":5.384119,"is_reserved":false,"is_disabled":false,"rental_uris":{"android":"levelo://app?vid=cf477475-8c6e-446c-a1be-bab4a9898043","ios":"levelo://app?vid=cf477475-8c6e-446c-a1be-bab4a9898043"},"vehicle_type_id":"4","last_reported":1683356758,"current_range_meters":18000,"station_id":"ce4bgg92rcd13ifvqb30","pricing_plan_id":"free"},{"bike_id":"05c4847d-c8a9-4166-b18b-0736833ba7fd","system_id":"levelo_inurba_marseille","lat":43.298433,"lon":5.362774,"is_reserved":false,"is_disabled":false,"rental_uris":{"android":"levelo://app?vid=05c4847d-c8a9-4166-b18b-0736833ba7fd","ios":"levelo://app?vid=05c4847d-c8a9-4166-b18b-0736833ba7fd"},"vehicle_type_id":"4","last_reported":1683356758,"current_range_meters":28000,"station_id":"ce4bgpp2rcd13ifvqc3g","pricing_plan_id":"free"},{"bike_id":"224f1fdf-58b7-440b-8da8-5b8cf899e785","system_id":"levelo_inurba_marseille","lat":43.299243,"lon":5.37481,"is_reserved":false,"is_disabled":false,"rental_uris":{"android":"levelo://app?vid=224f1fdf-58b7-440b-8da8-5b8cf899e785","ios":"levelo://app?vid=224f1fdf-58b7-440b-8da8-5b8cf899e785"},"vehicle_type_id":"4","last_reported":1683356758,"current_range_meters":25600,"station_id":"ce4bgjh2rcd13ifvqbg0","pricing_plan_id":"free"},{"bike_id":"b46cae3d-48f3-4fc2-9224-6bf22b7e73c4","system_id":"levelo_inurba_marseille","lat":43.311722,"lon":5.387247,"is_reserved":false,"is_disabled":false,"rental_uris":{"android":"levelo://app?vid=b46cae3d-48f3-4fc2-9224-6bf22b7e73c4","ios":"levelo://app?vid=b46cae3d-48f3-4fc2-9224-6bf22b7e73c4"},"vehicle_type_id":"4","last_reported":1683356758,"current_range_meters":31200,"station_id":"ce4bgv12rcd13ifvqcp0","pricing_plan_id":"free"},{"bike_id":"c2dcf690-7922-4016-adc2-261fdc127cf2","system_id":"levelo_inurba_marseille","lat":43.31167,"lon":5.38716,"is_reserved":false,"is_disabled":false,"rental_uris":{"android":"levelo://app?vid=c2dcf690-7922-4016-adc2-261fdc127cf2","ios":"levelo://app?vid=c2dcf690-7922-4016-adc2-261fdc127cf2"},"vehicle_type_id":"4","last_reported":1683356758,"current_range_meters":20400,"station_id":"ce4bgv12rcd13ifvqcp0","pricing_plan_id":"free"},{"bike_id":"9f13dbda-65c4-4d03-8e83-b3c015b49658","system_id":"levelo_inurba_marseille","lat":43.31166,"lon":5.38718,"is_reserved":false,"is_disabled":false,"rental_uris":{"android":"levelo://app?vid=9f13dbda-65c4-4d03-8e83-b3c015b49658","ios":"levelo://app?vid=9f13dbda-65c4-4d03-8e83-b3c015b49658"},"vehicle_type_id":"4","last_reported":1683356758,"current_range_meters":4800,"station_id":"ce4bgv12rcd13ifvqcp0","pricing_plan_id":"free"},{"bike_id":"0ddc8f60-7680-4f69-a451-9fccdb0fb714","system_id":"levelo_inurba_marseille","lat":43.311722,"lon":5.387247,"is_reserved":false,"is_disabled":false,"rental_uris":{"android":"levelo://app?vid=0ddc8f60-7680-4f69-a451-9fccdb0fb714","ios":"levelo://app?vid=0ddc8f60-7680-4f69-a451-9fccdb0fb714"},"vehicle_type_id":"4","last_reported":1683356758,"current_range_meters":30400,"station_id":"ce4bgv12rcd13ifvqcp0","pricing_plan_id":"free"},{"bike_id":"ad6674de-aed0-4dc0-b81a-c591701a1454","system_id":"levelo_inurba_marseille","lat":43.311722,"lon":5.387247,"is_reserved":false,"is_disabled":false,"rental_uris":{"android":"levelo://app?vid=ad6674de-aed0-4dc0-b81a-c591701a1454","ios":"levelo://app?vid=ad6674de-aed0-4dc0-b81a-c591701a1454"},"vehicle_type_id":"4","last_reported":1683356758,"current_range_meters":28800,"station_id":"ce4bgv12rcd13ifvqcp0","pricing_plan_id":"free"},{"bike_id":"2b50b170-0df6-406d-bea0-202c3e023fe5","system_id":"levelo_inurba_marseille","lat":43.32829,"lon":5.36695,"is_reserved":false,"is_disabled":false,"rental_uris":{"android":"levelo://app?vid=2b50b170-0df6-406d-bea0-202c3e023fe5","ios":"levelo://app?vid=2b50b170-0df6-406d-bea0-202c3e023fe5"},"vehicle_type_id":"4","last_reported":1683356758,"current_range_meters":18000,"station_id":"ce4bhs92rcd13ifvqi0g","pricing_plan_id":"free"},{"bike_id":"b6a93899-ac06-4e98-a44c-b2d37c0bd789","system_id":"levelo_inurba_marseille","lat":43.2968,"lon":5.37291,"is_reserved":false,"is_disabled":false,"rental_uris":{"android":"levelo://app?vid=b6a93899-ac06-4e98-a44c-b2d37c0bd789","ios":"levelo://app?vid=b6a93899-ac06-4e98-a44c-b2d37c0bd789"},"vehicle_type_id":"4","last_reported":1683356758,"current_range_meters":30800,"station_id":"ce4bgk12rcd13ifvqbj0","pricing_plan_id":"free"},{"bike_id":"aafcc005-5e38-4c52-a10d-6d0f89f0012b","system_id":"levelo_inurba_marseille","lat":43.302008,"lon":5.394694,"is_reserved":false,"is_disabled":false,"rental_uris":{"android":"levelo://app?vid=aafcc005-5e38-4c52-a10d-6d0f89f0012b","ios":"levelo://app?vid=aafcc005-5e38-4c52-a10d-6d0f89f0012b"},"vehicle_type_id":"4","last_reported":1683356758,"current_range_meters":6000,"station_id":"ce4bh0p2rcd13ifvqd70","pricing_plan_id":"free"},{"bike_id":"1c23169d-444c-46cc-9b4a-711cc038abd6","system_id":"levelo_inurba_marseille","lat":43.296131,"lon":5.370773,"is_reserved":false,"is_disabled":false,"rental_uris":{"android":"levelo://app?vid=1c23169d-444c-46cc-9b4a-711cc038abd6","ios":"levelo://app?vid=1c23169d-444c-46cc-9b4a-711cc038abd6"},"vehicle_type_id":"4","last_reported":1683356758,"current_range_meters":29200,"station_id":"ce4bgnh2rcd13ifvqc0g","pricing_plan_id":"free"},{"bike_id":"510be64a-a095-410e-a7ab-b2250e2f4214","system_id":"levelo_inurba_marseille","lat":43.296131,"lon":5.370773,"is_reserved":false,"is_disabled":false,"rental_uris":{"android":"levelo://app?vid=510be64a-a095-410e-a7ab-b2250e2f4214","ios":"levelo://app?vid=510be64a-a095-410e-a7ab-b2250e2f4214"},"vehicle_type_id":"4","last_reported":1683356758,"current_range_meters":30000,"station_id":"ce4bgnh2rcd13ifvqc0g","pricing_plan_id":"free"},{"bike_id":"4473eaac-7c01-4734-9faa-6aff9bc87eee","system_id":"levelo_inurba_marseille","lat":43.29573,"lon":5.367355,"is_reserved":false,"is_disabled":false,"rental_uris":{"android":"levelo://app?vid=4473eaac-7c01-4734-9faa-6aff9bc87eee","ios":"levelo://app?vid=4473eaac-7c01-4734-9faa-6aff9bc87eee"},"vehicle_type_id":"4","last_reported":1683356758,"current_range_meters":18800,"station_id":"ce4bgph2rcd13ifvqc2g","pricing_plan_id":"free"},{"bike_id":"1b20ac20-5d78-4af0-bce2-d3637ac83214","system_id":"levelo_inurba_marseille","lat":43.29573,"lon":5.367355,"is_reserved":false,"is_disabled":false,"rental_uris":{"android":"levelo://app?vid=1b20ac20-5d78-4af0-bce2-d3637ac83214","ios":"levelo://app?vid=1b20ac20-5d78-4af0-bce2-d3637ac83214"},"vehicle_type_id":"4","last_reported":1683356758,"current_range_meters":31200,"station_id":"ce4bgph2rcd13ifvqc2g","pricing_plan_id":"free"},{"bike_id":"89e934a6-aae0-4645-9d37-e0040cfc9094","system_id":"levelo_inurba_marseille","lat":43.296129,"lon":5.370777,"is_reserved":false,"is_disabled":false,"rental_uris":{"android":"levelo://app?vid=89e934a6-aae0-4645-9d37-e0040cfc9094","ios":"levelo://app?vid=89e934a6-aae0-4645-9d37-e0040cfc9094"},"vehicle_type_id":"4","last_reported":1683356758,"current_range_meters":30800,"station_id":"ce4bgnh2rcd13ifvqc0g","pricing_plan_id":"free"},{"bike_id":"b76367e4-5ba1-4b2c-b4b9-bbf8fe69b725","system_id":"levelo_inurba_marseille","lat":43.296131,"lon":5.370773,"is_reserved":false,"is_disabled":false,"rental_uris":{"android":"levelo://app?vid=b76367e4-5ba1-4b2c-b4b9-bbf8fe69b725","ios":"levelo://app?vid=b76367e4-5ba1-4b2c-b4b9-bbf8fe69b725"},"vehicle_type_id":"4","last_reported":1683356758,"current_range_meters":30000,"station_id":"ce4bgnh2rcd13ifvqc0g","pricing_plan_id":"free"},{"bike_id":"5a7558b1-9c35-4332-b67a-e6ee1c87e13d","system_id":"levelo_inurba_marseille","lat":43.296131,"lon":5.370773,"is_reserved":false,"is_disabled":false,"rental_uris":{"android":"levelo://app?vid=5a7558b1-9c35-4332-b67a-e6ee1c87e13d","ios":"levelo://app?vid=5a7558b1-9c35-4332-b67a-e6ee1c87e13d"},"vehicle_type_id":"4","last_reported":1683356758,"current_range_meters":30400,"station_id":"ce4bgnh2rcd13ifvqc0g","pricing_plan_id":"free"},{"bike_id":"82516aae-69e5-4085-838d-95aaa2e40b55","system_id":"levelo_inurba_marseille","lat":43.296131,"lon":5.370773,"is_reserved":false,"is_disabled":false,"rental_uris":{"android":"levelo://app?vid=82516aae-69e5-4085-838d-95aaa2e40b55","ios":"levelo://app?vid=82516aae-69e5-4085-838d-95aaa2e40b55"},"vehicle_type_id":"4","last_reported":1683356758,"current_range_meters":27200,"station_id":"ce4bgnh2rcd13ifvqc0g","pricing_plan_id":"free"},{"bike_id":"8eceffc6-1411-4c22-96d4-b49b60e4dc19","system_id":"levelo_inurba_marseille","lat":43.29573,"lon":5.367355,"is_reserved":false,"is_disabled":false,"rental_uris":{"android":"levelo://app?vid=8eceffc6-1411-4c22-96d4-b49b60e4dc19","ios":"levelo://app?vid=8eceffc6-1411-4c22-96d4-b49b60e4dc19"},"vehicle_type_id":"4","last_reported":1683356758,"current_range_meters":27200,"station_id":"ce4bgph2rcd13ifvqc2g","pricing_plan_id":"free"},{"bike_id":"962475f3-edb7-47ba-b24a-6c0dd9c58f34","system_id":"levelo_inurba_marseille","lat":43.29573,"lon":5.367355,"is_reserved":false,"is_disabled":false,"rental_uris":{"android":"levelo://app?vid=962475f3-edb7-47ba-b24a-6c0dd9c58f34","ios":"levelo://app?vid=962475f3-edb7-47ba-b24a-6c0dd9c58f34"},"vehicle_type_id":"4","last_reported":1683356758,"current_range_meters":26400,"station_id":"ce4bgph2rcd13ifvqc2g","pricing_plan_id":"free"},{"bike_id":"5190ba32-8a2e-4838-8f48-9c858e9c80a0","system_id":"levelo_inurba_marseille","lat":43.29573,"lon":5.367355,"is_reserved":false,"is_disabled":false,"rental_uris":{"android":"levelo://app?vid=5190ba32-8a2e-4838-8f48-9c858e9c80a0","ios":"levelo://app?vid=5190ba32-8a2e-4838-8f48-9c858e9c80a0"},"vehicle_type_id":"4","last_reported":1683356758,"current_range_meters":31200,"station_id":"ce4bgph2rcd13ifvqc2g","pricing_plan_id":"free"},{"bike_id":"ecdcc8a7-d61d-4bb1-99d8-7f33c26653ee","system_id":"levelo_inurba_marseille","lat":43.29573,"lon":5.367355,"is_reserved":false,"is_disabled":false,"rental_uris":{"android":"levelo://app?vid=ecdcc8a7-d61d-4bb1-99d8-7f33c26653ee","ios":"levelo://app?vid=ecdcc8a7-d61d-4bb1-99d8-7f33c26653ee"},"vehicle_type_id":"4","last_reported":1683356758,"current_range_meters":31200,"station_id":"ce4bgph2rcd13ifvqc2g","pricing_plan_id":"free"},{"bike_id":"12fdc314-b4ac-474e-96d6-154ed76740b0","system_id":"levelo_inurba_marseille","lat":43.296921,"lon":5.376579,"is_reserved":false,"is_disabled":false,"rental_uris":{"android":"levelo://app?vid=12fdc314-b4ac-474e-96d6-154ed76740b0","ios":"levelo://app?vid=12fdc314-b4ac-474e-96d6-154ed76740b0"},"vehicle_type_id":"4","last_reported":1683356758,"current_range_meters":26800,"station_id":"ce4bgkh2rcd13ifvqbl0","pricing_plan_id":"free"},{"bike_id":"f5ab8c44-3459-46c9-9ef7-c56ec337ffbc","system_id":"levelo_inurba_marseille","lat":43.29573,"lon":5.367355,"is_reserved":false,"is_disabled":false,"rental_uris":{"android":"levelo://app?vid=f5ab8c44-3459-46c9-9ef7-c56ec337ffbc","ios":"levelo://app?vid=f5ab8c44-3459-46c9-9ef7-c56ec337ffbc"},"vehicle_type_id":"4","last_reported":1683356758,"current_range_meters":12800,"station_id":"ce4bgph2rcd13ifvqc2g","pricing_plan_id":"free"},{"bike_id":"5f708886-c442-4ba5-a30f-d0412d359c36","system_id":"levelo_inurba_marseille","lat":43.29573,"lon":5.367355,"is_reserved":false,"is_disabled":false,"rental_uris":{"android":"levelo://app?vid=5f708886-c442-4ba5-a30f-d0412d359c36","ios":"levelo://app?vid=5f708886-c442-4ba5-a30f-d0412d359c36"},"vehicle_type_id":"4","last_reported":1683356758,"current_range_meters":31200,"station_id":"ce4bgph2rcd13ifvqc2g","pricing_plan_id":"free"},{"bike_id":"71c9b29f-61a6-4c3e-9d16-af5383be02f4","system_id":"levelo_inurba_marseille","lat":43.296935,"lon":5.376544,"is_reserved":false,"is_disabled":false,"rental_uris":{"android":"levelo://app?vid=71c9b29f-61a6-4c3e-9d16-af5383be02f4","ios":"levelo://app?vid=71c9b29f-61a6-4c3e-9d16-af5383be02f4"},"vehicle_type_id":"4","last_reported":1683356758,"current_range_meters":27600,"station_id":"ce4bgkh2rcd13ifvqbl0","pricing_plan_id":"free"},{"bike_id":"bd27ece9-332b-4c96-9abb-83eda9c75203","system_id":"levelo_inurba_marseille","lat":43.296935,"lon":5.376544,"is_reserved":false,"is_disabled":false,"rental_uris":{"android":"levelo://app?vid=bd27ece9-332b-4c96-9abb-83eda9c75203","ios":"levelo://app?vid=bd27ece9-332b-4c96-9abb-83eda9c75203"},"vehicle_type_id":"4","last_reported":1683356758,"current_range_meters":25200,"station_id":"ce4bgkh2rcd13ifvqbl0","pricing_plan_id":"free"},{"bike_id":"518d8ca1-494d-4401-b1d3-ae645f927ae6","system_id":"levelo_inurba_marseille","lat":43.299028,"lon":5.381509,"is_reserved":false,"is_disabled":false,"rental_uris":{"android":"levelo://app?vid=518d8ca1-494d-4401-b1d3-ae645f927ae6","ios":"levelo://app?vid=518d8ca1-494d-4401-b1d3-ae645f927ae6"},"vehicle_type_id":"4","last_reported":1683356758,"current_range_meters":31200,"station_id":"ce4bgj12rcd13ifvqbc0","pricing_plan_id":"free"},{"bike_id":"18042a01-ba7f-4620-9d33-a635db81f02b","system_id":"levelo_inurba_marseille","lat":43.299028,"lon":5.381509,"is_reserved":false,"is_disabled":false,"rental_uris":{"android":"levelo://app?vid=18042a01-ba7f-4620-9d33-a635db81f02b","ios":"levelo://app?vid=18042a01-ba7f-4620-9d33-a635db81f02b"},"vehicle_type_id":"4","last_reported":1683356758,"current_range_meters":18800,"station_id":"ce4bgj12rcd13ifvqbc0","pricing_plan_id":"free"},{"bike_id":"12d1ee2e-5f69-475b-8199-10b81df2caec","system_id":"levelo_inurba_marseille","lat":43.296921,"lon":5.376579,"is_reserved":false,"is_disabled":false,"rental_uris":{"android":"levelo://app?vid=12d1ee2e-5f69-475b-8199-10b81df2caec","ios":"levelo://app?vid=12d1ee2e-5f69-475b-8199-10b81df2caec"},"vehicle_type_id":"4","last_reported":1683356758,"current_range_meters":24400,"station_id":"ce4bgkh2rcd13ifvqbl0","pricing_plan_id":"free"},{"bike_id":"e00888f6-99e1-4c69-986f-1e3669edea53","system_id":"levelo_inurba_marseille","lat":43.317557,"lon":5.390173,"is_reserved":false,"is_disabled":false,"rental_uris":{"android":"levelo://app?vid=e00888f6-99e1-4c69-986f-1e3669edea53","ios":"levelo://app?vid=e00888f6-99e1-4c69-986f-1e3669edea53"},"vehicle_type_id":"4","last_reported":1683356758,"current_range_meters":16800,"station_id":"ce4bhqp2rcd13ifvqhng","pricing_plan_id":"free"},{"bike_id":"d3bded05-295a-4e27-816d-28fd9af6ceed","system_id":"levelo_inurba_marseille","lat":43.317557,"lon":5.390173,"is_reserved":false,"is_disabled":false,"rental_uris":{"android":"levelo://app?vid=d3bded05-295a-4e27-816d-28fd9af6ceed","ios":"levelo://app?vid=d3bded05-295a-4e27-816d-28fd9af6ceed"},"vehicle_type_id":"4","last_reported":1683356758,"current_range_meters":27600,"station_id":"ce4bhqp2rcd13ifvqhng","pricing_plan_id":"free"},{"bike_id":"77f34d79-51d0-4db3-ab3a-5aec4d75e78b","system_id":"levelo_inurba_marseille","lat":43.317557,"lon":5.390173,"is_reserved":false,"is_disabled":false,"rental_uris":{"android":"levelo://app?vid=77f34d79-51d0-4db3-ab3a-5aec4d75e78b","ios":"levelo://app?vid=77f34d79-51d0-4db3-ab3a-5aec4d75e78b"},"vehicle_type_id":"4","last_reported":1683356758,"current_range_meters":19200,"station_id":"ce4bhqp2rcd13ifvqhng","pricing_plan_id":"free"},{"bike_id":"55e81a5c-dc18-4625-89aa-fe6acd3ab9fd","system_id":"levelo_inurba_marseille","lat":43.317557,"lon":5.390173,"is_reserved":false,"is_disabled":false,"rental_uris":{"android":"levelo://app?vid=55e81a5c-dc18-4625-89aa-fe6acd3ab9fd","ios":"levelo://app?vid=55e81a5c-dc18-4625-89aa-fe6acd3ab9fd"},"vehicle_type_id":"4","last_reported":1683356758,"current_range_meters":12000,"station_id":"ce4bhqp2rcd13ifvqhng","pricing_plan_id":"free"},{"bike_id":"fc664ecd-283b-4ad5-b8d8-fe7518401503","system_id":"levelo_inurba_marseille","lat":43.317557,"lon":5.390173,"is_reserved":false,"is_disabled":false,"rental_uris":{"android":"levelo://app?vid=fc664ecd-283b-4ad5-b8d8-fe7518401503","ios":"levelo://app?vid=fc664ecd-283b-4ad5-b8d8-fe7518401503"},"vehicle_type_id":"4","last_reported":1683356758,"current_range_meters":29200,"station_id":"ce4bhqp2rcd13ifvqhng","pricing_plan_id":"free"},{"bike_id":"60ef946b-9459-4a60-b71e-9a93871770e0","system_id":"levelo_inurba_marseille","lat":43.31756,"lon":5.39022,"is_reserved":false,"is_disabled":false,"rental_uris":{"android":"levelo://app?vid=60ef946b-9459-4a60-b71e-9a93871770e0","ios":"levelo://app?vid=60ef946b-9459-4a60-b71e-9a93871770e0"},"vehicle_type_id":"4","last_reported":1683356758,"current_range_meters":28800,"station_id":"ce4bhqp2rcd13ifvqhng","pricing_plan_id":"free"},{"bike_id":"7f816c57-b662-44ab-87e8-e5632cce84a0","system_id":"levelo_inurba_marseille","lat":43.298037,"lon":5.381066,"is_reserved":false,"is_disabled":false,"rental_uris":{"android":"levelo://app?vid=7f816c57-b662-44ab-87e8-e5632cce84a0","ios":"levelo://app?vid=7f816c57-b662-44ab-87e8-e5632cce84a0"},"vehicle_type_id":"4","last_reported":1683356758,"current_range_meters":28000,"station_id":"ce4bgip2rcd13ifvqbb0","pricing_plan_id":"free"},{"bike_id":"2d6e235d-8b4a-423f-8630-e6e94094c93f","system_id":"levelo_inurba_marseille","lat":43.298037,"lon":5.381066,"is_reserved":false,"is_disabled":false,"rental_uris":{"android":"levelo://app?vid=2d6e235d-8b4a-423f-8630-e6e94094c93f","ios":"levelo://app?vid=2d6e235d-8b4a-423f-8630-e6e94094c93f"},"vehicle_type_id":"4","last_reported":1683356758,"current_range_meters":22400,"station_id":"ce4bgip2rcd13ifvqbb0","pricing_plan_id":"free"},{"bike_id":"b5558859-c2a8-44ea-9c52-49587d3c42e6","system_id":"levelo_inurba_marseille","lat":43.298037,"lon":5.381066,"is_reserved":false,"is_disabled":false,"rental_uris":{"android":"levelo://app?vid=b5558859-c2a8-44ea-9c52-49587d3c42e6","ios":"levelo://app?vid=b5558859-c2a8-44ea-9c52-49587d3c42e6"},"vehicle_type_id":"4","last_reported":1683356758,"current_range_meters":28800,"station_id":"ce4bgip2rcd13ifvqbb0","pricing_plan_id":"free"},{"bike_id":"bb5d420c-a3d6-4d27-8172-a2fa6ad7dce4","system_id":"levelo_inurba_marseille","lat":43.298037,"lon":5.381066,"is_reserved":false,"is_disabled":false,"rental_uris":{"android":"levelo://app?vid=bb5d420c-a3d6-4d27-8172-a2fa6ad7dce4","ios":"levelo://app?vid=bb5d420c-a3d6-4d27-8172-a2fa6ad7dce4"},"vehicle_type_id":"4","last_reported":1683356758,"current_range_meters":31200,"station_id":"ce4bgip2rcd13ifvqbb0","pricing_plan_id":"free"},{"bike_id":"07463b46-c47f-489c-9c27-a6fb2c473c78","system_id":"levelo_inurba_marseille","lat":43.31467,"lon":5.3915,"is_reserved":false,"is_disabled":false,"rental_uris":{"android":"levelo://app?vid=07463b46-c47f-489c-9c27-a6fb2c473c78","ios":"levelo://app?vid=07463b46-c47f-489c-9c27-a6fb2c473c78"},"vehicle_type_id":"4","last_reported":1683356758,"current_range_meters":2000,"station_id":"","pricing_plan_id":"free"},{"bike_id":"a711e164-229d-48e6-ba58-5f6d823ae946","system_id":"levelo_inurba_marseille","lat":43.298037,"lon":5.381066,"is_reserved":false,"is_disabled":false,"rental_uris":{"android":"levelo://app?vid=a711e164-229d-48e6-ba58-5f6d823ae946","ios":"levelo://app?vid=a711e164-229d-48e6-ba58-5f6d823ae946"},"vehicle_type_id":"4","last_reported":1683356758,"current_range_meters":24400,"station_id":"ce4bgip2rcd13ifvqbb0","pricing_plan_id":"free"},{"bike_id":"57c611cb-d683-43c4-9386-3275edf387e7","system_id":"levelo_inurba_marseille","lat":43.298037,"lon":5.381066,"is_reserved":false,"is_disabled":false,"rental_uris":{"android":"levelo://app?vid=57c611cb-d683-43c4-9386-3275edf387e7","ios":"levelo://app?vid=57c611cb-d683-43c4-9386-3275edf387e7"},"vehicle_type_id":"4","last_reported":1683356758,"current_range_meters":30000,"station_id":"ce4bgip2rcd13ifvqbb0","pricing_plan_id":"free"},{"bike_id":"8f027c59-4c02-41be-af43-4c5f9f6b91b7","system_id":"levelo_inurba_marseille","lat":43.295748,"lon":5.37522,"is_reserved":false,"is_disabled":false,"rental_uris":{"android":"levelo://app?vid=8f027c59-4c02-41be-af43-4c5f9f6b91b7","ios":"levelo://app?vid=8f027c59-4c02-41be-af43-4c5f9f6b91b7"},"vehicle_type_id":"4","last_reported":1683356758,"current_range_meters":23600,"station_id":"ce4bgh92rcd13ifvqb50","pricing_plan_id":"free"},{"bike_id":"5a67b63f-5b3d-4e41-901f-b78379c9baa4","system_id":"levelo_inurba_marseille","lat":43.304274,"lon":5.388873,"is_reserved":false,"is_disabled":false,"rental_uris":{"android":"levelo://app?vid=5a67b63f-5b3d-4e41-901f-b78379c9baa4","ios":"levelo://app?vid=5a67b63f-5b3d-4e41-901f-b78379c9baa4"},"vehicle_type_id":"4","last_reported":1683356758,"current_range_meters":31200,"station_id":"ce4bgk12rcd13ifvqbi0","pricing_plan_id":"free"},{"bike_id":"c89981fa-4c38-4b48-95fc-91ebee8257ab","system_id":"levelo_inurba_marseille","lat":43.304274,"lon":5.388873,"is_reserved":false,"is_disabled":false,"rental_uris":{"android":"levelo://app?vid=c89981fa-4c38-4b48-95fc-91ebee8257ab","ios":"levelo://app?vid=c89981fa-4c38-4b48-95fc-91ebee8257ab"},"vehicle_type_id":"4","last_reported":1683356758,"current_range_meters":29200,"station_id":"ce4bgk12rcd13ifvqbi0","pricing_plan_id":"free"},{"bike_id":"0f6d2b3b-2e14-4ed3-865d-e8c088a610cd","system_id":"levelo_inurba_marseille","lat":43.295748,"lon":5.37522,"is_reserved":false,"is_disabled":false,"rental_uris":{"android":"levelo://app?vid=0f6d2b3b-2e14-4ed3-865d-e8c088a610cd","ios":"levelo://app?vid=0f6d2b3b-2e14-4ed3-865d-e8c088a610cd"},"vehicle_type_id":"4","last_reported":1683356758,"current_range_meters":26000,"station_id":"ce4bgh92rcd13ifvqb50","pricing_plan_id":"free"},{"bike_id":"4368a780-62ef-4236-8d36-5964d01df089","system_id":"levelo_inurba_marseille","lat":43.304274,"lon":5.388873,"is_reserved":false,"is_disabled":false,"rental_uris":{"android":"levelo://app?vid=4368a780-62ef-4236-8d36-5964d01df089","ios":"levelo://app?vid=4368a780-62ef-4236-8d36-5964d01df089"},"vehicle_type_id":"4","last_reported":1683356758,"current_range_meters":30800,"station_id":"ce4bgk12rcd13ifvqbi0","pricing_plan_id":"free"},{"bike_id":"87c1a058-a796-454f-bfe1-02cfdd7b3cfc","system_id":"levelo_inurba_marseille","lat":43.304274,"lon":5.388873,"is_reserved":false,"is_disabled":false,"rental_uris":{"android":"levelo://app?vid=87c1a058-a796-454f-bfe1-02cfdd7b3cfc","ios":"levelo://app?vid=87c1a058-a796-454f-bfe1-02cfdd7b3cfc"},"vehicle_type_id":"4","last_reported":1683356758,"current_range_meters":30000,"station_id":"ce4bgk12rcd13ifvqbi0","pricing_plan_id":"free"},{"bike_id":"868c1e90-375e-4f02-bd07-6e182dfb0af6","system_id":"levelo_inurba_marseille","lat":43.295748,"lon":5.37522,"is_reserved":false,"is_disabled":false,"rental_uris":{"android":"levelo://app?vid=868c1e90-375e-4f02-bd07-6e182dfb0af6","ios":"levelo://app?vid=868c1e90-375e-4f02-bd07-6e182dfb0af6"},"vehicle_type_id":"4","last_reported":1683356758,"current_range_meters":31200,"station_id":"ce4bgh92rcd13ifvqb50","pricing_plan_id":"free"},{"bike_id":"3607f3e9-f470-415f-ae7e-56a51d36a4ea","system_id":"levelo_inurba_marseille","lat":43.295748,"lon":5.37522,"is_reserved":false,"is_disabled":false,"rental_uris":{"android":"levelo://app?vid=3607f3e9-f470-415f-ae7e-56a51d36a4ea","ios":"levelo://app?vid=3607f3e9-f470-415f-ae7e-56a51d36a4ea"},"vehicle_type_id":"4","last_reported":1683356758,"current_range_meters":800,"station_id":"ce4bgh92rcd13ifvqb50","pricing_plan_id":"free"},{"bike_id":"dcceabde-4aa8-4607-be32-132b89be26fe","system_id":"levelo_inurba_marseille","lat":43.304274,"lon":5.388873,"is_reserved":false,"is_disabled":false,"rental_uris":{"android":"levelo://app?vid=dcceabde-4aa8-4607-be32-132b89be26fe","ios":"levelo://app?vid=dcceabde-4aa8-4607-be32-132b89be26fe"},"vehicle_type_id":"4","last_reported":1683356758,"current_range_meters":25200,"station_id":"ce4bgk12rcd13ifvqbi0","pricing_plan_id":"free"},{"bike_id":"2df87b42-4c21-4230-a8f4-24eb26d298ae","system_id":"levelo_inurba_marseille","lat":43.295748,"lon":5.37522,"is_reserved":false,"is_disabled":false,"rental_uris":{"android":"levelo://app?vid=2df87b42-4c21-4230-a8f4-24eb26d298ae","ios":"levelo://app?vid=2df87b42-4c21-4230-a8f4-24eb26d298ae"},"vehicle_type_id":"4","last_reported":1683356758,"current_range_meters":18800,"station_id":"ce4bgh92rcd13ifvqb50","pricing_plan_id":"free"},{"bike_id":"4e21c893-687a-44d3-a3ae-71f52176d535","system_id":"levelo_inurba_marseille","lat":43.304274,"lon":5.388873,"is_reserved":false,"is_disabled":false,"rental_uris":{"android":"levelo://app?vid=4e21c893-687a-44d3-a3ae-71f52176d535","ios":"levelo://app?vid=4e21c893-687a-44d3-a3ae-71f52176d535"},"vehicle_type_id":"4","last_reported":1683356758,"current_range_meters":15200,"station_id":"ce4bgk12rcd13ifvqbi0","pricing_plan_id":"free"},{"bike_id":"746e2aa2-2fef-4b8a-8583-9cb6537604b5","system_id":"levelo_inurba_marseille","lat":43.304274,"lon":5.388873,"is_reserved":false,"is_disabled":false,"rental_uris":{"android":"levelo://app?vid=746e2aa2-2fef-4b8a-8583-9cb6537604b5","ios":"levelo://app?vid=746e2aa2-2fef-4b8a-8583-9cb6537604b5"},"vehicle_type_id":"4","last_reported":1683356758,"current_range_meters":17600,"station_id":"ce4bgk12rcd13ifvqbi0","pricing_plan_id":"free"},{"bike_id":"6f7dc8e7-d401-427e-8be6-539097f9c81a","system_id":"levelo_inurba_marseille","lat":43.304274,"lon":5.388873,"is_reserved":false,"is_disabled":false,"rental_uris":{"android":"levelo://app?vid=6f7dc8e7-d401-427e-8be6-539097f9c81a","ios":"levelo://app?vid=6f7dc8e7-d401-427e-8be6-539097f9c81a"},"vehicle_type_id":"4","last_reported":1683356758,"current_range_meters":18800,"station_id":"ce4bgk12rcd13ifvqbi0","pricing_plan_id":"free"},{"bike_id":"9a9ada40-dea7-4d2b-a071-64eccfb1581f","system_id":"levelo_inurba_marseille","lat":43.304274,"lon":5.388873,"is_reserved":false,"is_disabled":false,"rental_uris":{"android":"levelo://app?vid=9a9ada40-dea7-4d2b-a071-64eccfb1581f","ios":"levelo://app?vid=9a9ada40-dea7-4d2b-a071-64eccfb1581f"},"vehicle_type_id":"4","last_reported":1683356758,"current_range_meters":30000,"station_id":"ce4bgk12rcd13ifvqbi0","pricing_plan_id":"free"},{"bike_id":"516ea600-b146-4fa0-a573-454f8e3c341f","system_id":"levelo_inurba_marseille","lat":43.304274,"lon":5.388873,"is_reserved":false,"is_disabled":false,"rental_uris":{"android":"levelo://app?vid=516ea600-b146-4fa0-a573-454f8e3c341f","ios":"levelo://app?vid=516ea600-b146-4fa0-a573-454f8e3c341f"},"vehicle_type_id":"4","last_reported":1683356758,"current_range_meters":0,"station_id":"ce4bgk12rcd13ifvqbi0","pricing_plan_id":"free"},{"bike_id":"89bb3774-ac8a-40a0-b7e1-7f825f67c46e","system_id":"levelo_inurba_marseille","lat":43.295748,"lon":5.37522,"is_reserved":false,"is_disabled":false,"rental_uris":{"android":"levelo://app?vid=89bb3774-ac8a-40a0-b7e1-7f825f67c46e","ios":"levelo://app?vid=89bb3774-ac8a-40a0-b7e1-7f825f67c46e"},"vehicle_type_id":"4","last_reported":1683356758,"current_range_meters":31200,"station_id":"ce4bgh92rcd13ifvqb50","pricing_plan_id":"free"},{"bike_id":"71cb7265-ca0a-4db5-9536-4a62edc7e16d","system_id":"levelo_inurba_marseille","lat":43.295748,"lon":5.37522,"is_reserved":false,"is_disabled":false,"rental_uris":{"android":"levelo://app?vid=71cb7265-ca0a-4db5-9536-4a62edc7e16d","ios":"levelo://app?vid=71cb7265-ca0a-4db5-9536-4a62edc7e16d"},"vehicle_type_id":"4","last_reported":1683356758,"current_range_meters":16000,"station_id":"ce4bgh92rcd13ifvqb50","pricing_plan_id":"free"},{"bike_id":"06d78d93-6c70-41ab-a4c3-1b1f30aa87be","system_id":"levelo_inurba_marseille","lat":43.298037,"lon":5.381066,"is_reserved":false,"is_disabled":false,"rental_uris":{"android":"levelo://app?vid=06d78d93-6c70-41ab-a4c3-1b1f30aa87be","ios":"levelo://app?vid=06d78d93-6c70-41ab-a4c3-1b1f30aa87be"},"vehicle_type_id":"4","last_reported":1683356758,"current_range_meters":25600,"station_id":"ce4bgip2rcd13ifvqbb0","pricing_plan_id":"free"},{"bike_id":"6599a6d8-b76f-45c1-b1fa-a4f8619619eb","system_id":"levelo_inurba_marseille","lat":43.295748,"lon":5.37522,"is_reserved":false,"is_disabled":false,"rental_uris":{"android":"levelo://app?vid=6599a6d8-b76f-45c1-b1fa-a4f8619619eb","ios":"levelo://app?vid=6599a6d8-b76f-45c1-b1fa-a4f8619619eb"},"vehicle_type_id":"4","last_reported":1683356758,"current_range_meters":0,"station_id":"ce4bgh92rcd13ifvqb50","pricing_plan_id":"free"},{"bike_id":"a15fc4e3-8441-40c2-bb77-dbda19a30e06","system_id":"levelo_inurba_marseille","lat":43.304274,"lon":5.388873,"is_reserved":false,"is_disabled":false,"rental_uris":{"android":"levelo://app?vid=a15fc4e3-8441-40c2-bb77-dbda19a30e06","ios":"levelo://app?vid=a15fc4e3-8441-40c2-bb77-dbda19a30e06"},"vehicle_type_id":"4","last_reported":1683356758,"current_range_meters":28000,"station_id":"ce4bgk12rcd13ifvqbi0","pricing_plan_id":"free"},{"bike_id":"9d476b46-61af-4260-a1d0-17d947b7d602","system_id":"levelo_inurba_marseille","lat":43.296277,"lon":5.377108,"is_reserved":false,"is_disabled":false,"rental_uris":{"android":"levelo://app?vid=9d476b46-61af-4260-a1d0-17d947b7d602","ios":"levelo://app?vid=9d476b46-61af-4260-a1d0-17d947b7d602"},"vehicle_type_id":"4","last_reported":1683356758,"current_range_meters":28000,"station_id":"ce4bgi92rcd13ifvqb90","pricing_plan_id":"free"},{"bike_id":"606feddc-7cfb-4467-b216-054cc2162548","system_id":"levelo_inurba_marseille","lat":43.295279,"lon":5.375048,"is_reserved":false,"is_disabled":false,"rental_uris":{"android":"levelo://app?vid=606feddc-7cfb-4467-b216-054cc2162548","ios":"levelo://app?vid=606feddc-7cfb-4467-b216-054cc2162548"},"vehicle_type_id":"4","last_reported":1683356758,"current_range_meters":31200,"station_id":"ce4bgkp2rcd13ifvqbmg","pricing_plan_id":"free"},{"bike_id":"15f46eb4-f116-4623-b4fe-04e235a8dd3b","system_id":"levelo_inurba_marseille","lat":43.296277,"lon":5.377108,"is_reserved":false,"is_disabled":false,"rental_uris":{"android":"levelo://app?vid=15f46eb4-f116-4623-b4fe-04e235a8dd3b","ios":"levelo://app?vid=15f46eb4-f116-4623-b4fe-04e235a8dd3b"},"vehicle_type_id":"4","last_reported":1683356758,"current_range_meters":16800,"station_id":"ce4bgi92rcd13ifvqb90","pricing_plan_id":"free"},{"bike_id":"c24c7400-bce8-49a0-82fa-0af8a30d6a1c","system_id":"levelo_inurba_marseille","lat":43.295279,"lon":5.375048,"is_reserved":false,"is_disabled":false,"rental_uris":{"android":"levelo://app?vid=c24c7400-bce8-49a0-82fa-0af8a30d6a1c","ios":"levelo://app?vid=c24c7400-bce8-49a0-82fa-0af8a30d6a1c"},"vehicle_type_id":"4","last_reported":1683356758,"current_range_meters":24400,"station_id":"ce4bgkp2rcd13ifvqbmg","pricing_plan_id":"free"},{"bike_id":"8a29c32c-8bfa-40b0-aa09-4acf755efa52","system_id":"levelo_inurba_marseille","lat":43.299724,"lon":5.384848,"is_reserved":false,"is_disabled":false,"rental_uris":{"android":"levelo://app?vid=8a29c32c-8bfa-40b0-aa09-4acf755efa52","ios":"levelo://app?vid=8a29c32c-8bfa-40b0-aa09-4acf755efa52"},"vehicle_type_id":"4","last_reported":1683356758,"current_range_meters":27600,"station_id":"ce4bgj92rcd13ifvqbd0","pricing_plan_id":"free"},{"bike_id":"1dd06c98-c200-4a3d-afc9-e5fd057d158b","system_id":"levelo_inurba_marseille","lat":43.30468,"lon":5.39056,"is_reserved":false,"is_disabled":false,"rental_uris":{"android":"levelo://app?vid=1dd06c98-c200-4a3d-afc9-e5fd057d158b","ios":"levelo://app?vid=1dd06c98-c200-4a3d-afc9-e5fd057d158b"},"vehicle_type_id":"4","last_reported":1683356758,"current_range_meters":14800,"station_id":"","pricing_plan_id":"free"},{"bike_id":"d12317f6-5e43-43d3-a282-57e40f56ad4e","system_id":"levelo_inurba_marseille","lat":43.29596,"lon":5.38014,"is_reserved":false,"is_disabled":false,"rental_uris":{"android":"levelo://app?vid=d12317f6-5e43-43d3-a282-57e40f56ad4e","ios":"levelo://app?vid=d12317f6-5e43-43d3-a282-57e40f56ad4e"},"vehicle_type_id":"4","last_reported":1683356758,"current_range_meters":6800,"station_id":"","pricing_plan_id":"free"},{"bike_id":"da8f326b-1da7-4431-bb23-759e8c0a89ab","system_id":"levelo_inurba_marseille","lat":43.29601,"lon":5.381084,"is_reserved":false,"is_disabled":false,"rental_uris":{"android":"levelo://app?vid=da8f326b-1da7-4431-bb23-759e8c0a89ab","ios":"levelo://app?vid=da8f326b-1da7-4431-bb23-759e8c0a89ab"},"vehicle_type_id":"4","last_reported":1683356758,"current_range_meters":31200,"station_id":"ce4bgl12rcd13ifvqbo0","pricing_plan_id":"free"},{"bike_id":"db164325-0c48-4b85-a3de-ec4f049efc2e","system_id":"levelo_inurba_marseille","lat":43.29601,"lon":5.381084,"is_reserved":false,"is_disabled":false,"rental_uris":{"android":"levelo://app?vid=db164325-0c48-4b85-a3de-ec4f049efc2e","ios":"levelo://app?vid=db164325-0c48-4b85-a3de-ec4f049efc2e"},"vehicle_type_id":"4","last_reported":1683356758,"current_range_meters":28800,"station_id":"ce4bgl12rcd13ifvqbo0","pricing_plan_id":"free"},{"bike_id":"a6826234-3588-48fd-8c41-89f42d833443","system_id":"levelo_inurba_marseille","lat":43.293249,"lon":5.371578,"is_reserved":false,"is_disabled":false,"rental_uris":{"android":"levelo://app?vid=a6826234-3588-48fd-8c41-89f42d833443","ios":"levelo://app?vid=a6826234-3588-48fd-8c41-89f42d833443"},"vehicle_type_id":"4","last_reported":1683356758,"current_range_meters":24800,"station_id":"ce4bgh92rcd13ifvqb40","pricing_plan_id":"free"},{"bike_id":"31841292-1424-4829-989a-41fca2fbb73a","system_id":"levelo_inurba_marseille","lat":43.293249,"lon":5.371578,"is_reserved":false,"is_disabled":false,"rental_uris":{"android":"levelo://app?vid=31841292-1424-4829-989a-41fca2fbb73a","ios":"levelo://app?vid=31841292-1424-4829-989a-41fca2fbb73a"},"vehicle_type_id":"4","last_reported":1683356758,"current_range_meters":14400,"station_id":"ce4bgh92rcd13ifvqb40","pricing_plan_id":"free"},{"bike_id":"d8a1db20-fed8-47a4-a4ab-2de90c1e9be1","system_id":"levelo_inurba_marseille","lat":43.29283,"lon":5.36844,"is_reserved":false,"is_disabled":false,"rental_uris":{"android":"levelo://app?vid=d8a1db20-fed8-47a4-a4ab-2de90c1e9be1","ios":"levelo://app?vid=d8a1db20-fed8-47a4-a4ab-2de90c1e9be1"},"vehicle_type_id":"4","last_reported":1683356758,"current_range_meters":28400,"station_id":"ce4bhbp2rcd13ifvqesg","pricing_plan_id":"free"},{"bike_id":"71b8e830-3416-4266-936e-3993f39fd35d","system_id":"levelo_inurba_marseille","lat":43.29282,"lon":5.36844,"is_reserved":false,"is_disabled":false,"rental_uris":{"android":"levelo://app?vid=71b8e830-3416-4266-936e-3993f39fd35d","ios":"levelo://app?vid=71b8e830-3416-4266-936e-3993f39fd35d"},"vehicle_type_id":"4","last_reported":1683356758,"current_range_meters":27600,"station_id":"ce4bhbp2rcd13ifvqesg","pricing_plan_id":"free"},{"bike_id":"5af92faf-d891-40db-844a-ba8349ce0bfc","system_id":"levelo_inurba_marseille","lat":43.29279,"lon":5.36837,"is_reserved":false,"is_disabled":false,"rental_uris":{"android":"levelo://app?vid=5af92faf-d891-40db-844a-ba8349ce0bfc","ios":"levelo://app?vid=5af92faf-d891-40db-844a-ba8349ce0bfc"},"vehicle_type_id":"4","last_reported":1683356758,"current_range_meters":24400,"station_id":"ce4bhbp2rcd13ifvqesg","pricing_plan_id":"free"},{"bike_id":"70b93a86-6e97-4726-827c-e5407fc6fd47","system_id":"levelo_inurba_marseille","lat":43.292782,"lon":5.368289,"is_reserved":false,"is_disabled":false,"rental_uris":{"android":"levelo://app?vid=70b93a86-6e97-4726-827c-e5407fc6fd47","ios":"levelo://app?vid=70b93a86-6e97-4726-827c-e5407fc6fd47"},"vehicle_type_id":"4","last_reported":1683356758,"current_range_meters":28400,"station_id":"ce4bhbp2rcd13ifvqesg","pricing_plan_id":"free"},{"bike_id":"49f95f08-073f-4f59-bd27-b97963d230a8","system_id":"levelo_inurba_marseille","lat":43.29278,"lon":5.36846,"is_reserved":false,"is_disabled":false,"rental_uris":{"android":"levelo://app?vid=49f95f08-073f-4f59-bd27-b97963d230a8","ios":"levelo://app?vid=49f95f08-073f-4f59-bd27-b97963d230a8"},"vehicle_type_id":"4","last_reported":1683356758,"current_range_meters":31200,"station_id":"ce4bhbp2rcd13ifvqesg","pricing_plan_id":"free"},{"bike_id":"4d49d598-ea0c-4b46-b038-876eb8fb5825","system_id":"levelo_inurba_marseille","lat":43.29276,"lon":5.36846,"is_reserved":false,"is_disabled":false,"rental_uris":{"android":"levelo://app?vid=4d49d598-ea0c-4b46-b038-876eb8fb5825","ios":"levelo://app?vid=4d49d598-ea0c-4b46-b038-876eb8fb5825"},"vehicle_type_id":"4","last_reported":1683356758,"current_range_meters":31200,"station_id":"ce4bhbp2rcd13ifvqesg","pricing_plan_id":"free"},{"bike_id":"ea22974b-6c3b-4102-962e-8cc28d269c72","system_id":"levelo_inurba_marseille","lat":43.29276,"lon":5.36852,"is_reserved":false,"is_disabled":false,"rental_uris":{"android":"levelo://app?vid=ea22974b-6c3b-4102-962e-8cc28d269c72","ios":"levelo://app?vid=ea22974b-6c3b-4102-962e-8cc28d269c72"},"vehicle_type_id":"4","last_reported":1683356758,"current_range_meters":31200,"station_id":"ce4bhbp2rcd13ifvqesg","pricing_plan_id":"free"},{"bike_id":"7099a268-44d3-4d4b-805c-f529d82b5943","system_id":"levelo_inurba_marseille","lat":43.292753,"lon":5.368415,"is_reserved":false,"is_disabled":false,"rental_uris":{"android":"levelo://app?vid=7099a268-44d3-4d4b-805c-f529d82b5943","ios":"levelo://app?vid=7099a268-44d3-4d4b-805c-f529d82b5943"},"vehicle_type_id":"4","last_reported":1683356758,"current_range_meters":2800,"station_id":"ce4bhbp2rcd13ifvqesg","pricing_plan_id":"free"},{"bike_id":"a3b423aa-793a-4fe3-bc95-b0cb1153664b","system_id":"levelo_inurba_marseille","lat":43.29269,"lon":5.36849,"is_reserved":false,"is_disabled":false,"rental_uris":{"android":"levelo://app?vid=a3b423aa-793a-4fe3-bc95-b0cb1153664b","ios":"levelo://app?vid=a3b423aa-793a-4fe3-bc95-b0cb1153664b"},"vehicle_type_id":"4","last_reported":1683356758,"current_range_meters":31200,"station_id":"ce4bhbp2rcd13ifvqesg","pricing_plan_id":"free"},{"bike_id":"5fc3de0f-39b5-45b6-9051-9da7864c553a","system_id":"levelo_inurba_marseille","lat":43.293009,"lon":5.374584,"is_reserved":false,"is_disabled":false,"rental_uris":{"android":"levelo://app?vid=5fc3de0f-39b5-45b6-9051-9da7864c553a","ios":"levelo://app?vid=5fc3de0f-39b5-45b6-9051-9da7864c553a"},"vehicle_type_id":"4","last_reported":1683356758,"current_range_meters":17200,"station_id":"ce4bgi12rcd13ifvqb70","pricing_plan_id":"free"},{"bike_id":"70cba946-b4c1-46f0-b67a-ee6efa3e586e","system_id":"levelo_inurba_marseille","lat":43.293009,"lon":5.374584,"is_reserved":false,"is_disabled":false,"rental_uris":{"android":"levelo://app?vid=70cba946-b4c1-46f0-b67a-ee6efa3e586e","ios":"levelo://app?vid=70cba946-b4c1-46f0-b67a-ee6efa3e586e"},"vehicle_type_id":"4","last_reported":1683356758,"current_range_meters":29200,"station_id":"ce4bgi12rcd13ifvqb70","pricing_plan_id":"free"},{"bike_id":"93fc113e-f7b7-4e92-8943-17417a503366","system_id":"levelo_inurba_marseille","lat":43.29239,"lon":5.36202,"is_reserved":false,"is_disabled":false,"rental_uris":{"android":"levelo://app?vid=93fc113e-f7b7-4e92-8943-17417a503366","ios":"levelo://app?vid=93fc113e-f7b7-4e92-8943-17417a503366"},"vehicle_type_id":"4","last_reported":1683356758,"current_range_meters":13600,"station_id":"","pricing_plan_id":"free"},{"bike_id":"3371aef1-a91a-4d8f-8d01-3a91fd370035","system_id":"levelo_inurba_marseille","lat":43.302992,"lon":5.392136,"is_reserved":false,"is_disabled":false,"rental_uris":{"android":"levelo://app?vid=3371aef1-a91a-4d8f-8d01-3a91fd370035","ios":"levelo://app?vid=3371aef1-a91a-4d8f-8d01-3a91fd370035"},"vehicle_type_id":"4","last_reported":1683356758,"current_range_meters":15600,"station_id":"ce4bgkh2rcd13ifvqbk0","pricing_plan_id":"free"},{"bike_id":"b267d4b0-2e35-47da-85eb-7d2510b072dd","system_id":"levelo_inurba_marseille","lat":43.303002,"lon":5.392142,"is_reserved":false,"is_disabled":false,"rental_uris":{"android":"levelo://app?vid=b267d4b0-2e35-47da-85eb-7d2510b072dd","ios":"levelo://app?vid=b267d4b0-2e35-47da-85eb-7d2510b072dd"},"vehicle_type_id":"4","last_reported":1683356758,"current_range_meters":21600,"station_id":"ce4bgkh2rcd13ifvqbk0","pricing_plan_id":"free"},{"bike_id":"b664ff0f-8d9e-4a7e-acc2-a81f9c49957b","system_id":"levelo_inurba_marseille","lat":43.2936,"lon":5.37835,"is_reserved":false,"is_disabled":false,"rental_uris":{"android":"levelo://app?vid=b664ff0f-8d9e-4a7e-acc2-a81f9c49957b","ios":"levelo://app?vid=b664ff0f-8d9e-4a7e-acc2-a81f9c49957b"},"vehicle_type_id":"4","last_reported":1683356758,"current_range_meters":28000,"station_id":"ce4bgjh2rcd13ifvqbf0","pricing_plan_id":"free"},{"bike_id":"93ac23be-0a16-4f68-9513-88edb86f352e","system_id":"levelo_inurba_marseille","lat":43.291671,"lon":5.371575,"is_reserved":false,"is_disabled":false,"rental_uris":{"android":"levelo://app?vid=93ac23be-0a16-4f68-9513-88edb86f352e","ios":"levelo://app?vid=93ac23be-0a16-4f68-9513-88edb86f352e"},"vehicle_type_id":"4","last_reported":1683356758,"current_range_meters":28000,"station_id":"ce4bha92rcd13ifvqeh0","pricing_plan_id":"free"},{"bike_id":"9e7f7928-3ca6-48ca-afe6-5fecb4406152","system_id":"levelo_inurba_marseille","lat":43.291675,"lon":5.371583,"is_reserved":false,"is_disabled":false,"rental_uris":{"android":"levelo://app?vid=9e7f7928-3ca6-48ca-afe6-5fecb4406152","ios":"levelo://app?vid=9e7f7928-3ca6-48ca-afe6-5fecb4406152"},"vehicle_type_id":"4","last_reported":1683356758,"current_range_meters":24400,"station_id":"ce4bha92rcd13ifvqeh0","pricing_plan_id":"free"},{"bike_id":"6f106a94-aeea-480b-91eb-a9e22d6b0f35","system_id":"levelo_inurba_marseille","lat":43.298764,"lon":5.388973,"is_reserved":false,"is_disabled":false,"rental_uris":{"android":"levelo://app?vid=6f106a94-aeea-480b-91eb-a9e22d6b0f35","ios":"levelo://app?vid=6f106a94-aeea-480b-91eb-a9e22d6b0f35"},"vehicle_type_id":"4","last_reported":1683356758,"current_range_meters":2800,"station_id":"ce4bh392rcd13ifvqdl0","pricing_plan_id":"free"},{"bike_id":"1f359320-5278-486f-8b9e-09b14ba9f16a","system_id":"levelo_inurba_marseille","lat":43.291675,"lon":5.371583,"is_reserved":false,"is_disabled":false,"rental_uris":{"android":"levelo://app?vid=1f359320-5278-486f-8b9e-09b14ba9f16a","ios":"levelo://app?vid=1f359320-5278-486f-8b9e-09b14ba9f16a"},"vehicle_type_id":"4","last_reported":1683356758,"current_range_meters":29200,"station_id":"ce4bha92rcd13ifvqeh0","pricing_plan_id":"free"},{"bike_id":"af40efc1-8c61-4cea-a250-ffb018b2ad33","system_id":"levelo_inurba_marseille","lat":43.291675,"lon":5.371583,"is_reserved":false,"is_disabled":false,"rental_uris":{"android":"levelo://app?vid=af40efc1-8c61-4cea-a250-ffb018b2ad33","ios":"levelo://app?vid=af40efc1-8c61-4cea-a250-ffb018b2ad33"},"vehicle_type_id":"4","last_reported":1683356758,"current_range_meters":30400,"station_id":"ce4bha92rcd13ifvqeh0","pricing_plan_id":"free"},{"bike_id":"faab5a62-cbab-41d5-9a5f-60c32434b02a","system_id":"levelo_inurba_marseille","lat":43.29152,"lon":5.37091,"is_reserved":false,"is_disabled":false,"rental_uris":{"android":"levelo://app?vid=faab5a62-cbab-41d5-9a5f-60c32434b02a","ios":"levelo://app?vid=faab5a62-cbab-41d5-9a5f-60c32434b02a"},"vehicle_type_id":"4","last_reported":1683356758,"current_range_meters":12400,"station_id":"","pricing_plan_id":"free"},{"bike_id":"12d550f2-61eb-40a9-80f4-fdab2578764c","system_id":"levelo_inurba_marseille","lat":43.309038,"lon":5.396546,"is_reserved":false,"is_disabled":false,"rental_uris":{"android":"levelo://app?vid=12d550f2-61eb-40a9-80f4-fdab2578764c","ios":"levelo://app?vid=12d550f2-61eb-40a9-80f4-fdab2578764c"},"vehicle_type_id":"4","last_reported":1683356758,"current_range_meters":30800,"station_id":"ce4bh012rcd13ifvqcv0","pricing_plan_id":"free"},{"bike_id":"624c7e00-ae8f-4e62-b2d0-1af934abc11f","system_id":"levelo_inurba_marseille","lat":43.309038,"lon":5.396546,"is_reserved":false,"is_disabled":false,"rental_uris":{"android":"levelo://app?vid=624c7e00-ae8f-4e62-b2d0-1af934abc11f","ios":"levelo://app?vid=624c7e00-ae8f-4e62-b2d0-1af934abc11f"},"vehicle_type_id":"4","last_reported":1683356758,"current_range_meters":20800,"station_id":"ce4bh012rcd13ifvqcv0","pricing_plan_id":"free"},{"bike_id":"ddb53808-54cb-44f1-a2dc-c38a93fade6c","system_id":"levelo_inurba_marseille","lat":43.31333,"lon":5.39689,"is_reserved":false,"is_disabled":false,"rental_uris":{"android":"levelo://app?vid=ddb53808-54cb-44f1-a2dc-c38a93fade6c","ios":"levelo://app?vid=ddb53808-54cb-44f1-a2dc-c38a93fade6c"},"vehicle_type_id":"4","last_reported":1683356758,"current_range_meters":20800,"station_id":"ce4bgvp2rcd13ifvqcu0","pricing_plan_id":"free"},{"bike_id":"072aa426-15bb-4142-b72d-1f77aecc18d7","system_id":"levelo_inurba_marseille","lat":43.31332,"lon":5.3969,"is_reserved":false,"is_disabled":false,"rental_uris":{"android":"levelo://app?vid=072aa426-15bb-4142-b72d-1f77aecc18d7","ios":"levelo://app?vid=072aa426-15bb-4142-b72d-1f77aecc18d7"},"vehicle_type_id":"4","last_reported":1683356758,"current_range_meters":24400,"station_id":"ce4bgvp2rcd13ifvqcu0","pricing_plan_id":"free"},{"bike_id":"0e3932e6-6afc-4620-a5f3-f34cce9c3f6b","system_id":"levelo_inurba_marseille","lat":43.30877,"lon":5.39641,"is_reserved":false,"is_disabled":false,"rental_uris":{"android":"levelo://app?vid=0e3932e6-6afc-4620-a5f3-f34cce9c3f6b","ios":"levelo://app?vid=0e3932e6-6afc-4620-a5f3-f34cce9c3f6b"},"vehicle_type_id":"4","last_reported":1683356758,"current_range_meters":11200,"station_id":"ce4bh012rcd13ifvqcv0","pricing_plan_id":"free"},{"bike_id":"b72bb075-8c4d-4e51-a5a9-3057e5999670","system_id":"levelo_inurba_marseille","lat":43.313291,"lon":5.396838,"is_reserved":false,"is_disabled":false,"rental_uris":{"android":"levelo://app?vid=b72bb075-8c4d-4e51-a5a9-3057e5999670","ios":"levelo://app?vid=b72bb075-8c4d-4e51-a5a9-3057e5999670"},"vehicle_type_id":"4","last_reported":1683356758,"current_range_meters":26000,"station_id":"ce4bgvp2rcd13ifvqcu0","pricing_plan_id":"free"},{"bike_id":"a9c2ca96-fbcf-4ffe-a7c4-c0fa80978979","system_id":"levelo_inurba_marseille","lat":43.31325,"lon":5.39691,"is_reserved":false,"is_disabled":false,"rental_uris":{"android":"levelo://app?vid=a9c2ca96-fbcf-4ffe-a7c4-c0fa80978979","ios":"levelo://app?vid=a9c2ca96-fbcf-4ffe-a7c4-c0fa80978979"},"vehicle_type_id":"4","last_reported":1683356758,"current_range_meters":19200,"station_id":"ce4bgvp2rcd13ifvqcu0","pricing_plan_id":"free"},{"bike_id":"c6e71a29-acbc-459a-8d92-98a0f117907e","system_id":"levelo_inurba_marseille","lat":43.309038,"lon":5.396546,"is_reserved":false,"is_disabled":false,"rental_uris":{"android":"levelo://app?vid=c6e71a29-acbc-459a-8d92-98a0f117907e","ios":"levelo://app?vid=c6e71a29-acbc-459a-8d92-98a0f117907e"},"vehicle_type_id":"4","last_reported":1683356758,"current_range_meters":8000,"station_id":"ce4bh012rcd13ifvqcv0","pricing_plan_id":"free"},{"bike_id":"aa0f64bb-a008-4e95-8236-743108e5893a","system_id":"levelo_inurba_marseille","lat":43.31325,"lon":5.39692,"is_reserved":false,"is_disabled":false,"rental_uris":{"android":"levelo://app?vid=aa0f64bb-a008-4e95-8236-743108e5893a","ios":"levelo://app?vid=aa0f64bb-a008-4e95-8236-743108e5893a"},"vehicle_type_id":"4","last_reported":1683356758,"current_range_meters":19200,"station_id":"ce4bgvp2rcd13ifvqcu0","pricing_plan_id":"free"},{"bike_id":"3b1178ec-fdfa-4149-a8b3-e51941c5e8ff","system_id":"levelo_inurba_marseille","lat":43.31326,"lon":5.39692,"is_reserved":false,"is_disabled":false,"rental_uris":{"android":"levelo://app?vid=3b1178ec-fdfa-4149-a8b3-e51941c5e8ff","ios":"levelo://app?vid=3b1178ec-fdfa-4149-a8b3-e51941c5e8ff"},"vehicle_type_id":"4","last_reported":1683356758,"current_range_meters":11200,"station_id":"ce4bgvp2rcd13ifvqcu0","pricing_plan_id":"free"},{"bike_id":"eb6b4802-88fa-4c9f-bc1b-71a1b52ff5ba","system_id":"levelo_inurba_marseille","lat":43.31329,"lon":5.39694,"is_reserved":false,"is_disabled":false,"rental_uris":{"android":"levelo://app?vid=eb6b4802-88fa-4c9f-bc1b-71a1b52ff5ba","ios":"levelo://app?vid=eb6b4802-88fa-4c9f-bc1b-71a1b52ff5ba"},"vehicle_type_id":"4","last_reported":1683356758,"current_range_meters":22400,"station_id":"ce4bgvp2rcd13ifvqcu0","pricing_plan_id":"free"},{"bike_id":"4dba08b7-3353-4b8f-8fd0-26d6a68db0c4","system_id":"levelo_inurba_marseille","lat":43.31333,"lon":5.39694,"is_reserved":false,"is_disabled":false,"rental_uris":{"android":"levelo://app?vid=4dba08b7-3353-4b8f-8fd0-26d6a68db0c4","ios":"levelo://app?vid=4dba08b7-3353-4b8f-8fd0-26d6a68db0c4"},"vehicle_type_id":"4","last_reported":1683356758,"current_range_meters":10000,"station_id":"ce4bgvp2rcd13ifvqcu0","pricing_plan_id":"free"},{"bike_id":"c0ddf89c-827f-4734-8163-44b04fe80684","system_id":"levelo_inurba_marseille","lat":43.309038,"lon":5.396546,"is_reserved":false,"is_disabled":false,"rental_uris":{"android":"levelo://app?vid=c0ddf89c-827f-4734-8163-44b04fe80684","ios":"levelo://app?vid=c0ddf89c-827f-4734-8163-44b04fe80684"},"vehicle_type_id":"4","last_reported":1683356758,"current_range_meters":20000,"station_id":"ce4bh012rcd13ifvqcv0","pricing_plan_id":"free"},{"bike_id":"a9c6e4fd-3ae1-46d7-b246-0ac0d6a11056","system_id":"levelo_inurba_marseille","lat":43.313291,"lon":5.396838,"is_reserved":false,"is_disabled":false,"rental_uris":{"android":"levelo://app?vid=a9c6e4fd-3ae1-46d7-b246-0ac0d6a11056","ios":"levelo://app?vid=a9c6e4fd-3ae1-46d7-b246-0ac0d6a11056"},"vehicle_type_id":"4","last_reported":1683356758,"current_range_meters":23600,"station_id":"ce4bgvp2rcd13ifvqcu0","pricing_plan_id":"free"},{"bike_id":"d70b52ce-20cb-4aa0-aba3-74ce839f91cb","system_id":"levelo_inurba_marseille","lat":43.31332,"lon":5.39697,"is_reserved":false,"is_disabled":false,"rental_uris":{"android":"levelo://app?vid=d70b52ce-20cb-4aa0-aba3-74ce839f91cb","ios":"levelo://app?vid=d70b52ce-20cb-4aa0-aba3-74ce839f91cb"},"vehicle_type_id":"4","last_reported":1683356758,"current_range_meters":28400,"station_id":"ce4bgvp2rcd13ifvqcu0","pricing_plan_id":"free"},{"bike_id":"96df9e9e-0ad7-408f-aaee-cb88c7c8ba83","system_id":"levelo_inurba_marseille","lat":43.31331,"lon":5.39698,"is_reserved":false,"is_disabled":false,"rental_uris":{"android":"levelo://app?vid=96df9e9e-0ad7-408f-aaee-cb88c7c8ba83","ios":"levelo://app?vid=96df9e9e-0ad7-408f-aaee-cb88c7c8ba83"},"vehicle_type_id":"4","last_reported":1683356758,"current_range_meters":6000,"station_id":"ce4bgvp2rcd13ifvqcu0","pricing_plan_id":"free"},{"bike_id":"a8a44b43-d4e9-4dba-9295-35a113a172d3","system_id":"levelo_inurba_marseille","lat":43.31336,"lon":5.397,"is_reserved":false,"is_disabled":false,"rental_uris":{"android":"levelo://app?vid=a8a44b43-d4e9-4dba-9295-35a113a172d3","ios":"levelo://app?vid=a8a44b43-d4e9-4dba-9295-35a113a172d3"},"vehicle_type_id":"4","last_reported":1683356758,"current_range_meters":9600,"station_id":"ce4bgvp2rcd13ifvqcu0","pricing_plan_id":"free"},{"bike_id":"4ec35346-1220-40f5-85a6-3c55929564b5","system_id":"levelo_inurba_marseille","lat":43.29074,"lon":5.37169,"is_reserved":false,"is_disabled":false,"rental_uris":{"android":"levelo://app?vid=4ec35346-1220-40f5-85a6-3c55929564b5","ios":"levelo://app?vid=4ec35346-1220-40f5-85a6-3c55929564b5"},"vehicle_type_id":"4","last_reported":1683356758,"current_range_meters":24800,"station_id":"ce4bh5p2rcd13ifvqe4g","pricing_plan_id":"free"},{"bike_id":"112ec1bf-6af5-41b7-83f3-993dd11960c1","system_id":"levelo_inurba_marseille","lat":43.302008,"lon":5.394694,"is_reserved":false,"is_disabled":false,"rental_uris":{"android":"levelo://app?vid=112ec1bf-6af5-41b7-83f3-993dd11960c1","ios":"levelo://app?vid=112ec1bf-6af5-41b7-83f3-993dd11960c1"},"vehicle_type_id":"4","last_reported":1683356758,"current_range_meters":31200,"station_id":"ce4bh0p2rcd13ifvqd70","pricing_plan_id":"free"},{"bike_id":"3844dfee-12f8-45ac-86a9-e238d93ebd4e","system_id":"levelo_inurba_marseille","lat":43.302008,"lon":5.394694,"is_reserved":false,"is_disabled":false,"rental_uris":{"android":"levelo://app?vid=3844dfee-12f8-45ac-86a9-e238d93ebd4e","ios":"levelo://app?vid=3844dfee-12f8-45ac-86a9-e238d93ebd4e"},"vehicle_type_id":"4","last_reported":1683356758,"current_range_meters":28000,"station_id":"ce4bh0p2rcd13ifvqd70","pricing_plan_id":"free"},{"bike_id":"84757010-e82a-4d44-bb6f-c23d114c07e4","system_id":"levelo_inurba_marseille","lat":43.302008,"lon":5.394694,"is_reserved":false,"is_disabled":false,"rental_uris":{"android":"levelo://app?vid=84757010-e82a-4d44-bb6f-c23d114c07e4","ios":"levelo://app?vid=84757010-e82a-4d44-bb6f-c23d114c07e4"},"vehicle_type_id":"4","last_reported":1683356758,"current_range_meters":29600,"station_id":"ce4bh0p2rcd13ifvqd70","pricing_plan_id":"free"},{"bike_id":"68c600ce-db9a-4a10-a3e4-39d6dd7474d5","system_id":"levelo_inurba_marseille","lat":43.290624,"lon":5.359245,"is_reserved":false,"is_disabled":false,"rental_uris":{"android":"levelo://app?vid=68c600ce-db9a-4a10-a3e4-39d6dd7474d5","ios":"levelo://app?vid=68c600ce-db9a-4a10-a3e4-39d6dd7474d5"},"vehicle_type_id":"4","last_reported":1683356758,"current_range_meters":0,"station_id":"ce4bha92rcd13ifvqeg0","pricing_plan_id":"free"},{"bike_id":"dafae70a-87db-4e5d-8fc9-970dd5b16aa8","system_id":"levelo_inurba_marseille","lat":43.290631,"lon":5.359244,"is_reserved":false,"is_disabled":false,"rental_uris":{"android":"levelo://app?vid=dafae70a-87db-4e5d-8fc9-970dd5b16aa8","ios":"levelo://app?vid=dafae70a-87db-4e5d-8fc9-970dd5b16aa8"},"vehicle_type_id":"4","last_reported":1683356758,"current_range_meters":29600,"station_id":"ce4bha92rcd13ifvqeg0","pricing_plan_id":"free"},{"bike_id":"0f4b1d01-abd8-4a30-9d80-7f59879c7901","system_id":"levelo_inurba_marseille","lat":43.290327,"lon":5.375711,"is_reserved":false,"is_disabled":false,"rental_uris":{"android":"levelo://app?vid=0f4b1d01-abd8-4a30-9d80-7f59879c7901","ios":"levelo://app?vid=0f4b1d01-abd8-4a30-9d80-7f59879c7901"},"vehicle_type_id":"4","last_reported":1683356758,"current_range_meters":9600,"station_id":"ce4bh692rcd13ifvqe90","pricing_plan_id":"free"},{"bike_id":"b8f4902a-4469-4e4e-80c9-3819a916fe46","system_id":"levelo_inurba_marseille","lat":43.290327,"lon":5.375711,"is_reserved":false,"is_disabled":false,"rental_uris":{"android":"levelo://app?vid=b8f4902a-4469-4e4e-80c9-3819a916fe46","ios":"levelo://app?vid=b8f4902a-4469-4e4e-80c9-3819a916fe46"},"vehicle_type_id":"4","last_reported":1683356758,"current_range_meters":30400,"station_id":"ce4bh692rcd13ifvqe90","pricing_plan_id":"free"},{"bike_id":"d45eb284-8ede-41eb-b93f-a40c2ff7416b","system_id":"levelo_inurba_marseille","lat":43.289184,"lon":5.366408,"is_reserved":false,"is_disabled":false,"rental_uris":{"android":"levelo://app?vid=d45eb284-8ede-41eb-b93f-a40c2ff7416b","ios":"levelo://app?vid=d45eb284-8ede-41eb-b93f-a40c2ff7416b"},"vehicle_type_id":"4","last_reported":1683356758,"current_range_meters":21200,"station_id":"ce4bhap2rcd13ifvqek0","pricing_plan_id":"free"},{"bike_id":"82575811-5c48-4a45-833b-87f6c6509a7a","system_id":"levelo_inurba_marseille","lat":43.289184,"lon":5.366408,"is_reserved":false,"is_disabled":false,"rental_uris":{"android":"levelo://app?vid=82575811-5c48-4a45-833b-87f6c6509a7a","ios":"levelo://app?vid=82575811-5c48-4a45-833b-87f6c6509a7a"},"vehicle_type_id":"4","last_reported":1683356758,"current_range_meters":28400,"station_id":"ce4bhap2rcd13ifvqek0","pricing_plan_id":"free"},{"bike_id":"c4dc3205-752e-402f-8a84-4114558e644d","system_id":"levelo_inurba_marseille","lat":43.290327,"lon":5.375711,"is_reserved":false,"is_disabled":false,"rental_uris":{"android":"levelo://app?vid=c4dc3205-752e-402f-8a84-4114558e644d","ios":"levelo://app?vid=c4dc3205-752e-402f-8a84-4114558e644d"},"vehicle_type_id":"4","last_reported":1683356758,"current_range_meters":30400,"station_id":"ce4bh692rcd13ifvqe90","pricing_plan_id":"free"},{"bike_id":"f434f181-f0c3-4aeb-91bb-d9f3ca4c433a","system_id":"levelo_inurba_marseille","lat":43.289184,"lon":5.366408,"is_reserved":false,"is_disabled":false,"rental_uris":{"android":"levelo://app?vid=f434f181-f0c3-4aeb-91bb-d9f3ca4c433a","ios":"levelo://app?vid=f434f181-f0c3-4aeb-91bb-d9f3ca4c433a"},"vehicle_type_id":"4","last_reported":1683356758,"current_range_meters":31200,"station_id":"ce4bhap2rcd13ifvqek0","pricing_plan_id":"free"},{"bike_id":"fc6ed387-3da2-40b4-989c-b608a888d228","system_id":"levelo_inurba_marseille","lat":43.289184,"lon":5.366408,"is_reserved":false,"is_disabled":false,"rental_uris":{"android":"levelo://app?vid=fc6ed387-3da2-40b4-989c-b608a888d228","ios":"levelo://app?vid=fc6ed387-3da2-40b4-989c-b608a888d228"},"vehicle_type_id":"4","last_reported":1683356758,"current_range_meters":31600,"station_id":"ce4bhap2rcd13ifvqek0","pricing_plan_id":"free"},{"bike_id":"a2022c01-befb-4dc3-955b-49e100db30df","system_id":"levelo_inurba_marseille","lat":43.289184,"lon":5.366408,"is_reserved":false,"is_disabled":false,"rental_uris":{"android":"levelo://app?vid=a2022c01-befb-4dc3-955b-49e100db30df","ios":"levelo://app?vid=a2022c01-befb-4dc3-955b-49e100db30df"},"vehicle_type_id":"4","last_reported":1683356758,"current_range_meters":31200,"station_id":"ce4bhap2rcd13ifvqek0","pricing_plan_id":"free"},{"bike_id":"e1c4a7ce-6fe3-43ad-9e95-41330eae44e0","system_id":"levelo_inurba_marseille","lat":43.289468,"lon":5.363719,"is_reserved":false,"is_disabled":false,"rental_uris":{"android":"levelo://app?vid=e1c4a7ce-6fe3-43ad-9e95-41330eae44e0","ios":"levelo://app?vid=e1c4a7ce-6fe3-43ad-9e95-41330eae44e0"},"vehicle_type_id":"4","last_reported":1683356758,"current_range_meters":28000,"station_id":"ce4bhc92rcd13ifvqetg","pricing_plan_id":"free"},{"bike_id":"0331668f-b7b2-4faf-8637-4d2e6e4b9bc3","system_id":"levelo_inurba_marseille","lat":43.289184,"lon":5.366408,"is_reserved":false,"is_disabled":false,"rental_uris":{"android":"levelo://app?vid=0331668f-b7b2-4faf-8637-4d2e6e4b9bc3","ios":"levelo://app?vid=0331668f-b7b2-4faf-8637-4d2e6e4b9bc3"},"vehicle_type_id":"4","last_reported":1683356758,"current_range_meters":17200,"station_id":"ce4bhap2rcd13ifvqek0","pricing_plan_id":"free"},{"bike_id":"a8d556c8-71e7-4a21-adee-9b9eb337534e","system_id":"levelo_inurba_marseille","lat":43.289184,"lon":5.366408,"is_reserved":false,"is_disabled":false,"rental_uris":{"android":"levelo://app?vid=a8d556c8-71e7-4a21-adee-9b9eb337534e","ios":"levelo://app?vid=a8d556c8-71e7-4a21-adee-9b9eb337534e"},"vehicle_type_id":"4","last_reported":1683356758,"current_range_meters":27200,"station_id":"ce4bhap2rcd13ifvqek0","pricing_plan_id":"free"},{"bike_id":"0ef48a19-c721-4875-b13d-2017865b26d0","system_id":"levelo_inurba_marseille","lat":43.289184,"lon":5.366408,"is_reserved":false,"is_disabled":false,"rental_uris":{"android":"levelo://app?vid=0ef48a19-c721-4875-b13d-2017865b26d0","ios":"levelo://app?vid=0ef48a19-c721-4875-b13d-2017865b26d0"},"vehicle_type_id":"4","last_reported":1683356758,"current_range_meters":31200,"station_id":"ce4bhap2rcd13ifvqek0","pricing_plan_id":"free"},{"bike_id":"2bfe7b28-33f6-4a4d-aacd-b880cc12ab9f","system_id":"levelo_inurba_marseille","lat":43.289184,"lon":5.366408,"is_reserved":false,"is_disabled":false,"rental_uris":{"android":"levelo://app?vid=2bfe7b28-33f6-4a4d-aacd-b880cc12ab9f","ios":"levelo://app?vid=2bfe7b28-33f6-4a4d-aacd-b880cc12ab9f"},"vehicle_type_id":"4","last_reported":1683356758,"current_range_meters":31200,"station_id":"ce4bhap2rcd13ifvqek0","pricing_plan_id":"free"},{"bike_id":"e90c7c92-9678-44d9-90ed-6979940269a3","system_id":"levelo_inurba_marseille","lat":43.289468,"lon":5.363719,"is_reserved":false,"is_disabled":false,"rental_uris":{"android":"levelo://app?vid=e90c7c92-9678-44d9-90ed-6979940269a3","ios":"levelo://app?vid=e90c7c92-9678-44d9-90ed-6979940269a3"},"vehicle_type_id":"4","last_reported":1683356758,"current_range_meters":28800,"station_id":"ce4bhc92rcd13ifvqetg","pricing_plan_id":"free"},{"bike_id":"9c9b71c7-efea-4792-bf67-f4777fcc9a3c","system_id":"levelo_inurba_marseille","lat":43.289468,"lon":5.363719,"is_reserved":false,"is_disabled":false,"rental_uris":{"android":"levelo://app?vid=9c9b71c7-efea-4792-bf67-f4777fcc9a3c","ios":"levelo://app?vid=9c9b71c7-efea-4792-bf67-f4777fcc9a3c"},"vehicle_type_id":"4","last_reported":1683356758,"current_range_meters":26400,"station_id":"ce4bhc92rcd13ifvqetg","pricing_plan_id":"free"},{"bike_id":"3a69e9bd-53f4-438b-9675-76d810285f35","system_id":"levelo_inurba_marseille","lat":43.304267,"lon":5.397481,"is_reserved":false,"is_disabled":false,"rental_uris":{"android":"levelo://app?vid=3a69e9bd-53f4-438b-9675-76d810285f35","ios":"levelo://app?vid=3a69e9bd-53f4-438b-9675-76d810285f35"},"vehicle_type_id":"4","last_reported":1683356758,"current_range_meters":27600,"station_id":"","pricing_plan_id":"free"},{"bike_id":"e98bc82e-7f30-43dc-b49e-222b778b5ef3","system_id":"levelo_inurba_marseille","lat":43.304296,"lon":5.397513,"is_reserved":false,"is_disabled":false,"rental_uris":{"android":"levelo://app?vid=e98bc82e-7f30-43dc-b49e-222b778b5ef3","ios":"levelo://app?vid=e98bc82e-7f30-43dc-b49e-222b778b5ef3"},"vehicle_type_id":"4","last_reported":1683356758,"current_range_meters":31200,"station_id":"ce4bh092rcd13ifvqd20","pricing_plan_id":"free"},{"bike_id":"c7d204ce-6619-491c-8812-dc4b0a6a663b","system_id":"levelo_inurba_marseille","lat":43.33041,"lon":5.38917,"is_reserved":false,"is_disabled":false,"rental_uris":{"android":"levelo://app?vid=c7d204ce-6619-491c-8812-dc4b0a6a663b","ios":"levelo://app?vid=c7d204ce-6619-491c-8812-dc4b0a6a663b"},"vehicle_type_id":"4","last_reported":1683356758,"current_range_meters":29600,"station_id":"ce4bhr92rcd13ifvqhrg","pricing_plan_id":"free"},{"bike_id":"b19188c7-d374-4f35-9d6f-4ee40c840621","system_id":"levelo_inurba_marseille","lat":43.33042,"lon":5.38916,"is_reserved":false,"is_disabled":false,"rental_uris":{"android":"levelo://app?vid=b19188c7-d374-4f35-9d6f-4ee40c840621","ios":"levelo://app?vid=b19188c7-d374-4f35-9d6f-4ee40c840621"},"vehicle_type_id":"4","last_reported":1683356758,"current_range_meters":23600,"station_id":"ce4bhr92rcd13ifvqhrg","pricing_plan_id":"free"},{"bike_id":"f319fcfe-f5db-454d-86ad-d7e4bddb4951","system_id":"levelo_inurba_marseille","lat":43.33042,"lon":5.38916,"is_reserved":false,"is_disabled":false,"rental_uris":{"android":"levelo://app?vid=f319fcfe-f5db-454d-86ad-d7e4bddb4951","ios":"levelo://app?vid=f319fcfe-f5db-454d-86ad-d7e4bddb4951"},"vehicle_type_id":"4","last_reported":1683356758,"current_range_meters":28400,"station_id":"ce4bhr92rcd13ifvqhrg","pricing_plan_id":"free"},{"bike_id":"1f662943-fd3c-4d30-8e8d-761822cb14d2","system_id":"levelo_inurba_marseille","lat":43.33041,"lon":5.38918,"is_reserved":false,"is_disabled":false,"rental_uris":{"android":"levelo://app?vid=1f662943-fd3c-4d30-8e8d-761822cb14d2","ios":"levelo://app?vid=1f662943-fd3c-4d30-8e8d-761822cb14d2"},"vehicle_type_id":"4","last_reported":1683356758,"current_range_meters":22400,"station_id":"ce4bhr92rcd13ifvqhrg","pricing_plan_id":"free"},{"bike_id":"9cc13337-a19e-40f5-b636-2bafa5380dab","system_id":"levelo_inurba_marseille","lat":43.33039,"lon":5.38921,"is_reserved":false,"is_disabled":false,"rental_uris":{"android":"levelo://app?vid=9cc13337-a19e-40f5-b636-2bafa5380dab","ios":"levelo://app?vid=9cc13337-a19e-40f5-b636-2bafa5380dab"},"vehicle_type_id":"4","last_reported":1683356758,"current_range_meters":30000,"station_id":"ce4bhr92rcd13ifvqhrg","pricing_plan_id":"free"},{"bike_id":"b1e637ac-383e-4f35-827c-3188ca7e3031","system_id":"levelo_inurba_marseille","lat":43.3304,"lon":5.3892,"is_reserved":false,"is_disabled":false,"rental_uris":{"android":"levelo://app?vid=b1e637ac-383e-4f35-827c-3188ca7e3031","ios":"levelo://app?vid=b1e637ac-383e-4f35-827c-3188ca7e3031"},"vehicle_type_id":"4","last_reported":1683356758,"current_range_meters":29600,"station_id":"ce4bhr92rcd13ifvqhrg","pricing_plan_id":"free"},{"bike_id":"8354f027-4ab3-43cf-aa5a-b91f8b7b635d","system_id":"levelo_inurba_marseille","lat":43.33046,"lon":5.38911,"is_reserved":false,"is_disabled":false,"rental_uris":{"android":"levelo://app?vid=8354f027-4ab3-43cf-aa5a-b91f8b7b635d","ios":"levelo://app?vid=8354f027-4ab3-43cf-aa5a-b91f8b7b635d"},"vehicle_type_id":"4","last_reported":1683356758,"current_range_meters":13200,"station_id":"ce4bhr92rcd13ifvqhrg","pricing_plan_id":"free"},{"bike_id":"c0b39783-7886-4047-9a8d-355fea0e4444","system_id":"levelo_inurba_marseille","lat":43.33043,"lon":5.38916,"is_reserved":false,"is_disabled":false,"rental_uris":{"android":"levelo://app?vid=c0b39783-7886-4047-9a8d-355fea0e4444","ios":"levelo://app?vid=c0b39783-7886-4047-9a8d-355fea0e4444"},"vehicle_type_id":"4","last_reported":1683356758,"current_range_meters":22400,"station_id":"ce4bhr92rcd13ifvqhrg","pricing_plan_id":"free"},{"bike_id":"eec179c5-79de-473a-a2fe-2282099fce04","system_id":"levelo_inurba_marseille","lat":43.3304,"lon":5.38921,"is_reserved":false,"is_disabled":false,"rental_uris":{"android":"levelo://app?vid=eec179c5-79de-473a-a2fe-2282099fce04","ios":"levelo://app?vid=eec179c5-79de-473a-a2fe-2282099fce04"},"vehicle_type_id":"4","last_reported":1683356758,"current_range_meters":20800,"station_id":"ce4bhr92rcd13ifvqhrg","pricing_plan_id":"free"},{"bike_id":"d6233f8b-531d-433b-b8e9-589e3920c098","system_id":"levelo_inurba_marseille","lat":43.33044,"lon":5.38915,"is_reserved":false,"is_disabled":false,"rental_uris":{"android":"levelo://app?vid=d6233f8b-531d-433b-b8e9-589e3920c098","ios":"levelo://app?vid=d6233f8b-531d-433b-b8e9-589e3920c098"},"vehicle_type_id":"4","last_reported":1683356758,"current_range_meters":22800,"station_id":"ce4bhr92rcd13ifvqhrg","pricing_plan_id":"free"},{"bike_id":"da86836b-d020-456b-ad95-a73c452d8db8","system_id":"levelo_inurba_marseille","lat":43.33041,"lon":5.3892,"is_reserved":false,"is_disabled":false,"rental_uris":{"android":"levelo://app?vid=da86836b-d020-456b-ad95-a73c452d8db8","ios":"levelo://app?vid=da86836b-d020-456b-ad95-a73c452d8db8"},"vehicle_type_id":"4","last_reported":1683356758,"current_range_meters":24400,"station_id":"ce4bhr92rcd13ifvqhrg","pricing_plan_id":"free"},{"bike_id":"6bff39af-b880-495b-87c5-e559d7e2e65e","system_id":"levelo_inurba_marseille","lat":43.33041,"lon":5.3892,"is_reserved":false,"is_disabled":false,"rental_uris":{"android":"levelo://app?vid=6bff39af-b880-495b-87c5-e559d7e2e65e","ios":"levelo://app?vid=6bff39af-b880-495b-87c5-e559d7e2e65e"},"vehicle_type_id":"4","last_reported":1683356758,"current_range_meters":16400,"station_id":"ce4bhr92rcd13ifvqhrg","pricing_plan_id":"free"},{"bike_id":"dcccfc4b-f234-43e2-b72b-27beaa552019","system_id":"levelo_inurba_marseille","lat":43.290104,"lon":5.356111,"is_reserved":false,"is_disabled":false,"rental_uris":{"android":"levelo://app?vid=dcccfc4b-f234-43e2-b72b-27beaa552019","ios":"levelo://app?vid=dcccfc4b-f234-43e2-b72b-27beaa552019"},"vehicle_type_id":"4","last_reported":1683356758,"current_range_meters":30400,"station_id":"ce4bhb92rcd13ifvqen0","pricing_plan_id":"free"},{"bike_id":"501c7299-cf80-4cf2-9813-bd153e5ae5e1","system_id":"levelo_inurba_marseille","lat":43.290104,"lon":5.356111,"is_reserved":false,"is_disabled":false,"rental_uris":{"android":"levelo://app?vid=501c7299-cf80-4cf2-9813-bd153e5ae5e1","ios":"levelo://app?vid=501c7299-cf80-4cf2-9813-bd153e5ae5e1"},"vehicle_type_id":"4","last_reported":1683356758,"current_range_meters":28800,"station_id":"ce4bhb92rcd13ifvqen0","pricing_plan_id":"free"},{"bike_id":"496fc879-c6a2-4335-9eab-2fdd6a6f8bf1","system_id":"levelo_inurba_marseille","lat":43.33042,"lon":5.38921,"is_reserved":false,"is_disabled":false,"rental_uris":{"android":"levelo://app?vid=496fc879-c6a2-4335-9eab-2fdd6a6f8bf1","ios":"levelo://app?vid=496fc879-c6a2-4335-9eab-2fdd6a6f8bf1"},"vehicle_type_id":"4","last_reported":1683356758,"current_range_meters":18000,"station_id":"ce4bhr92rcd13ifvqhrg","pricing_plan_id":"free"},{"bike_id":"ca24a59f-d386-41a3-bec3-cccfb35035a7","system_id":"levelo_inurba_marseille","lat":43.33044,"lon":5.38918,"is_reserved":false,"is_disabled":false,"rental_uris":{"android":"levelo://app?vid=ca24a59f-d386-41a3-bec3-cccfb35035a7","ios":"levelo://app?vid=ca24a59f-d386-41a3-bec3-cccfb35035a7"},"vehicle_type_id":"4","last_reported":1683356758,"current_range_meters":400,"station_id":"ce4bhr92rcd13ifvqhrg","pricing_plan_id":"free"},{"bike_id":"1cd8baf0-5550-4716-8d5e-6381fd878ebd","system_id":"levelo_inurba_marseille","lat":43.3305,"lon":5.38909,"is_reserved":false,"is_disabled":false,"rental_uris":{"android":"levelo://app?vid=1cd8baf0-5550-4716-8d5e-6381fd878ebd","ios":"levelo://app?vid=1cd8baf0-5550-4716-8d5e-6381fd878ebd"},"vehicle_type_id":"4","last_reported":1683356758,"current_range_meters":26400,"station_id":"ce4bhr92rcd13ifvqhrg","pricing_plan_id":"free"},{"bike_id":"10a8eeb7-4f93-4e8d-81bd-f27d3d4ef515","system_id":"levelo_inurba_marseille","lat":43.33041,"lon":5.38923,"is_reserved":false,"is_disabled":false,"rental_uris":{"android":"levelo://app?vid=10a8eeb7-4f93-4e8d-81bd-f27d3d4ef515","ios":"levelo://app?vid=10a8eeb7-4f93-4e8d-81bd-f27d3d4ef515"},"vehicle_type_id":"4","last_reported":1683356758,"current_range_meters":27200,"station_id":"ce4bhr92rcd13ifvqhrg","pricing_plan_id":"free"},{"bike_id":"c9455a8e-920b-4e52-910e-7a1224d93dcf","system_id":"levelo_inurba_marseille","lat":43.33044,"lon":5.38919,"is_reserved":false,"is_disabled":false,"rental_uris":{"android":"levelo://app?vid=c9455a8e-920b-4e52-910e-7a1224d93dcf","ios":"levelo://app?vid=c9455a8e-920b-4e52-910e-7a1224d93dcf"},"vehicle_type_id":"4","last_reported":1683356758,"current_range_meters":22400,"station_id":"ce4bhr92rcd13ifvqhrg","pricing_plan_id":"free"},{"bike_id":"c6a5f3db-467c-47f5-acd9-61fe8cd674ee","system_id":"levelo_inurba_marseille","lat":43.33047,"lon":5.38916,"is_reserved":false,"is_disabled":false,"rental_uris":{"android":"levelo://app?vid=c6a5f3db-467c-47f5-acd9-61fe8cd674ee","ios":"levelo://app?vid=c6a5f3db-467c-47f5-acd9-61fe8cd674ee"},"vehicle_type_id":"4","last_reported":1683356758,"current_range_meters":24400,"station_id":"ce4bhr92rcd13ifvqhrg","pricing_plan_id":"free"},{"bike_id":"53fe0696-8fbc-48b8-831c-c78693c5a58b","system_id":"levelo_inurba_marseille","lat":43.33047,"lon":5.38916,"is_reserved":false,"is_disabled":false,"rental_uris":{"android":"levelo://app?vid=53fe0696-8fbc-48b8-831c-c78693c5a58b","ios":"levelo://app?vid=53fe0696-8fbc-48b8-831c-c78693c5a58b"},"vehicle_type_id":"4","last_reported":1683356758,"current_range_meters":19600,"station_id":"ce4bhr92rcd13ifvqhrg","pricing_plan_id":"free"},{"bike_id":"8f0dd782-cc44-4b84-9888-2d5e7a387faa","system_id":"levelo_inurba_marseille","lat":43.290103,"lon":5.356114,"is_reserved":false,"is_disabled":false,"rental_uris":{"android":"levelo://app?vid=8f0dd782-cc44-4b84-9888-2d5e7a387faa","ios":"levelo://app?vid=8f0dd782-cc44-4b84-9888-2d5e7a387faa"},"vehicle_type_id":"4","last_reported":1683356758,"current_range_meters":31200,"station_id":"ce4bhb92rcd13ifvqen0","pricing_plan_id":"free"},