{"last_updated":1709834943,"ttl":30,"version":"2.2","data":{"bikes":[{"bike_id":"7f3ec1f3-7b92-41d6-9c1e-0caa857b0509","system_id":"levelo_inurba_marseille","lat":43.309076,"lon":5.368465,"is_reserved":false,"is_disabled":false,"rental_uris":{"android":"levelo://app?vid=7f3ec1f3-7b92-41d6-9c1e-0caa857b0509","ios":"levelo://app?vid=7f3ec1f3-7b92-41d6-9c1e-0caa857b0509"},"vehicle_type_id":"4","last_reported":1709834943,"current_range_meters":25200,"station_id":"ce4bgn92rcd13ifvqbvg","pricing_plan_id":"cebpf4jnsgd1na2vs0mg"},{"bike_id":"bbad561a-e132-41ca-a954-3e20f7c8f4ce","system_id":"levelo_inurba_marseille","lat":43.314811,"lon":5.373103,"is_reserved":false,"is_disabled":false,"rental_uris":{"android":"levelo://app?vid=bbad561a-e132-41ca-a954-3e20f7c8f4ce","ios":"levelo://app?vid=bbad561a-e132-41ca-a954-3e20f7c8f4ce"},"vehicle_type_id":"4","last_reported":1709834943,"current_range_meters":6800,"station_id":"ce4bgt12rcd13ifvqcd0","pricing_plan_id":"cebpf4jnsgd1na2vs0mg"},{"bike_id":"d3bee323-d88b-4654-9001-9afc7844efb3","system_id":"levelo_inurba_marseille","lat":43.309117,"lon":5.372035,"is_reserved":false,"is_disabled":false,"rental_uris":{"android":"levelo://app?vid=d3bee323-d88b-4654-9001-9afc7844efb3","ios":"levelo://app?vid=d3bee323-d88b-4654-9001-9afc7844efb3"},"vehicle_type_id":"4","last_reported":1709834943,"current_range_meters":31200,"station_id":"ce4bguh2rcd13ifvqckg","pricing_plan_id":"cebpf4jnsgd1na2vs0mg"},{"bike_id":"b5e8cc9f-8d06-4db5-89f4-c8d6bc38ea71","system_id":"levelo_inurba_marseille","lat":43.309034,"lon":5.371783,"is_reserved":false,"is_disabled":false,"rental_uris":{"android":"levelo://app?vid=b5e8cc9f-8d06-4db5-89f4-c8d6bc38ea71","ios":"levelo://app?vid=b5e8cc9f-8d06-4db5-89f4-c8d6bc38ea71"},"vehicle_type_id":"4","last_reported":1709834943,"current_range_meters":25200,"station_id":"ce4bguh2rcd13ifvqckg","pricing_plan_id":"cebpf4jnsgd1na2vs0mg"},{"bike_id":"558a091c-cd86-4231-ac23-461ac731227a","system_id":"levelo_inurba_marseille","lat":43.3089,"lon":5.37179,"is_reserved":false,"is_disabled":false,"rental_uris":{"android":"levelo://app?vid=558a091c-cd86-4231-ac23-461ac731227a","ios":"levelo://app?vid=558a091c-cd86-4231-ac23-461ac731227a"},"vehicle_type_id":"4","last_reported":1709834943,"current_range_meters":16400,"station_id":"ce4bguh2rcd13ifvqckg","pricing_plan_id":"cebpf4jnsgd1na2vs0mg"},{"bike_id":"9d17679f-f3d9-4cc6-a78e-655b22c593a6","system_id":"levelo_inurba_marseille","lat":43.308792,"lon":5.372204,"is_reserved":false,"is_disabled":false,"rental_uris":{"android":"levelo://app?vid=9d17679f-f3d9-4cc6-a78e-655b22c593a6","ios":"levelo://app?vid=9d17679f-f3d9-4cc6-a78e-655b22c593a6"},"vehicle_type_id":"4","last_reported":1709834943,"current_range_meters":13600,"station_id":"ce4bguh2rcd13ifvqckg","pricing_plan_id":"cebpf4jnsgd1na2vs0mg"},{"bike_id":"114e8cd1-1aa5-443d-9d66-37c8a3263b54","system_id":"levelo_inurba_marseille","lat":43.308098,"lon":5.373284,"is_reserved":false,"is_disabled":false,"rental_uris":{"android":"levelo://app?vid=114e8cd1-1aa5-443d-9d66-37c8a3263b54","ios":"levelo://app?vid=114e8cd1-1aa5-443d-9d66-37c8a3263b54"},"vehicle_type_id":"4","last_reported":1709834943,"current_range_meters":4400,"station_id":"ce4bguh2rcd13ifvqckg","pricing_plan_id":"cebpf4jnsgd1na2vs0mg"},{"bike_id":"3a7b7e49-4d64-46cd-a79e-4695f8372e71","system_id":"levelo_inurba_marseille","lat":43.305368,"lon":5.367343,"is_reserved":false,"is_disabled":false,"rental_uris":{"android":"levelo://app?vid=3a7b7e49-4d64-46cd-a79e-4695f8372e71","ios":"levelo://app?vid=3a7b7e49-4d64-46cd-a79e-4695f8372e71"},"vehicle_type_id":"4","last_reported":1709834943,"current_range_meters":2800,"station_id":"ce4bgrp2rcd13ifvqc9g","pricing_plan_id":"cebpf4jnsgd1na2vs0mg"},{"bike_id":"86dcf1b2-6e53-469f-8bc2-65b86310aff3","system_id":"levelo_inurba_marseille","lat":43.30552,"lon":5.36549,"is_reserved":false,"is_disabled":false,"rental_uris":{"android":"levelo://app?vid=86dcf1b2-6e53-469f-8bc2-65b86310aff3","ios":"levelo://app?vid=86dcf1b2-6e53-469f-8bc2-65b86310aff3"},"vehicle_type_id":"4","last_reported":1709834943,"current_range_meters":0,"station_id":"ce4bgs12rcd13ifvqcag","pricing_plan_id":"cebpf4jnsgd1na2vs0mg"},{"bike_id":"82e0ad93-4c33-454e-95e4-03f0d01a8869","system_id":"levelo_inurba_marseille","lat":43.305483,"lon":5.36539,"is_reserved":false,"is_disabled":false,"rental_uris":{"android":"levelo://app?vid=82e0ad93-4c33-454e-95e4-03f0d01a8869","ios":"levelo://app?vid=82e0ad93-4c33-454e-95e4-03f0d01a8869"},"vehicle_type_id":"4","last_reported":1709834943,"current_range_meters":0,"station_id":"ce4bgs12rcd13ifvqcag","pricing_plan_id":"cebpf4jnsgd1na2vs0mg"},{"bike_id":"666825cb-7002-4505-8f7a-86df30c3c2e3","system_id":"levelo_inurba_marseille","lat":43.305368,"lon":5.367343,"is_reserved":false,"is_disabled":false,"rental_uris":{"android":"levelo://app?vid=666825cb-7002-4505-8f7a-86df30c3c2e3","ios":"levelo://app?vid=666825cb-7002-4505-8f7a-86df30c3c2e3"},"vehicle_type_id":"4","last_reported":1709834943,"current_range_meters":400,"station_id":"ce4bgrp2rcd13ifvqc9g","pricing_plan_id":"cebpf4jnsgd1na2vs0mg"},{"bike_id":"6b6749cb-83ae-4af1-a179-e48af1e46bc4","system_id":"levelo_inurba_marseille","lat":43.305706,"lon":5.365654,"is_reserved":false,"is_disabled":false,"rental_uris":{"android":"levelo://app?vid=6b6749cb-83ae-4af1-a179-e48af1e46bc4","ios":"levelo://app?vid=6b6749cb-83ae-4af1-a179-e48af1e46bc4"},"vehicle_type_id":"4","last_reported":1709834943,"current_range_meters":6800,"station_id":"ce4bgs12rcd13ifvqcag","pricing_plan_id":"cebpf4jnsgd1na2vs0mg"},{"bike_id":"435bf067-2bf5-46ae-88a4-d090d4b6a062","system_id":"levelo_inurba_marseille","lat":43.290779,"lon":5.371482,"is_reserved":false,"is_disabled":false,"rental_uris":{"android":"levelo://app?vid=435bf067-2bf5-46ae-88a4-d090d4b6a062","ios":"levelo://app?vid=435bf067-2bf5-46ae-88a4-d090d4b6a062"},"vehicle_type_id":"4","last_reported":1709834943,"current_range_meters":5600,"station_id":"ce4bh5p2rcd13ifvqe4g","pricing_plan_id":"cebpf4jnsgd1na2vs0mg"},{"bike_id":"96e55d0a-718e-4899-a8f0-2de854957a3c","system_id":"levelo_inurba_marseille","lat":43.305989,"lon":5.37225,"is_reserved":false,"is_disabled":false,"rental_uris":{"android":"levelo://app?vid=96e55d0a-718e-4899-a8f0-2de854957a3c","ios":"levelo://app?vid=96e55d0a-718e-4899-a8f0-2de854957a3c"},"vehicle_type_id":"4","last_reported":1709834943,"current_range_meters":400,"station_id":"ce4bgqh2rcd13ifvqc4g","pricing_plan_id":"cebpf4jnsgd1na2vs0mg"},{"bike_id":"19b62fe2-b0d1-4b49-b390-a34e57bfc738","system_id":"levelo_inurba_marseille","lat":43.311131,"lon":5.377651,"is_reserved":false,"is_disabled":false,"rental_uris":{"android":"levelo://app?vid=19b62fe2-b0d1-4b49-b390-a34e57bfc738","ios":"levelo://app?vid=19b62fe2-b0d1-4b49-b390-a34e57bfc738"},"vehicle_type_id":"4","last_reported":1709834943,"current_range_meters":400,"station_id":"ce4bgt92rcd13ifvqcg0","pricing_plan_id":"cebpf4jnsgd1na2vs0mg"},{"bike_id":"2a24e6d8-7020-4096-9c29-120a9841bac0","system_id":"levelo_inurba_marseille","lat":43.305989,"lon":5.37225,"is_reserved":false,"is_disabled":false,"rental_uris":{"android":"levelo://app?vid=2a24e6d8-7020-4096-9c29-120a9841bac0","ios":"levelo://app?vid=2a24e6d8-7020-4096-9c29-120a9841bac0"},"vehicle_type_id":"4","last_reported":1709834943,"current_range_meters":14400,"station_id":"ce4bgqh2rcd13ifvqc4g","pricing_plan_id":"cebpf4jnsgd1na2vs0mg"},{"bike_id":"ce7afdb5-798c-4bd4-bf5d-f7014c50d389","system_id":"levelo_inurba_marseille","lat":43.311125,"lon":5.377624,"is_reserved":false,"is_disabled":false,"rental_uris":{"android":"levelo://app?vid=ce7afdb5-798c-4bd4-bf5d-f7014c50d389","ios":"levelo://app?vid=ce7afdb5-798c-4bd4-bf5d-f7014c50d389"},"vehicle_type_id":"4","last_reported":1709834943,"current_range_meters":24800,"station_id":"ce4bgt92rcd13ifvqcg0","pricing_plan_id":"cebpf4jnsgd1na2vs0mg"},{"bike_id":"ac1fac67-5880-4b85-a4a7-232ce7171f35","system_id":"levelo_inurba_marseille","lat":43.311125,"lon":5.377624,"is_reserved":false,"is_disabled":false,"rental_uris":{"android":"levelo://app?vid=ac1fac67-5880-4b85-a4a7-232ce7171f35","ios":"levelo://app?vid=ac1fac67-5880-4b85-a4a7-232ce7171f35"},"vehicle_type_id":"4","last_reported":1709834943,"current_range_meters":30000,"station_id":"ce4bgt92rcd13ifvqcg0","pricing_plan_id":"cebpf4jnsgd1na2vs0mg"},{"bike_id":"84fd0624-b793-4847-8baf-799964ff87da","system_id":"levelo_inurba_marseille","lat":43.311131,"lon":5.377651,"is_reserved":false,"is_disabled":false,"rental_uris":{"android":"levelo://app?vid=84fd0624-b793-4847-8baf-799964ff87da","ios":"levelo://app?vid=84fd0624-b793-4847-8baf-799964ff87da"},"vehicle_type_id":"4","last_reported":1709834943,"current_range_meters":21200,"station_id":"ce4bgt92rcd13ifvqcg0","pricing_plan_id":"cebpf4jnsgd1na2vs0mg"},{"bike_id":"2a627898-8ecf-4ed7-bd4a-3b1a2af7bdd5","system_id":"levelo_inurba_marseille","lat":43.31713,"lon":5.376325,"is_reserved":false,"is_disabled":false,"rental_uris":{"android":"levelo://app?vid=2a627898-8ecf-4ed7-bd4a-3b1a2af7bdd5","ios":"levelo://app?vid=2a627898-8ecf-4ed7-bd4a-3b1a2af7bdd5"},"vehicle_type_id":"4","last_reported":1709834943,"current_range_meters":0,"station_id":"","pricing_plan_id":"cebpf4jnsgd1na2vs0mg"},{"bike_id":"0a4e0adb-eb6e-4532-9173-2cb5d44f6def","system_id":"levelo_inurba_marseille","lat":43.307945,"lon":5.376487,"is_reserved":false,"is_disabled":false,"rental_uris":{"android":"levelo://app?vid=0a4e0adb-eb6e-4532-9173-2cb5d44f6def","ios":"levelo://app?vid=0a4e0adb-eb6e-4532-9173-2cb5d44f6def"},"vehicle_type_id":"4","last_reported":1709834943,"current_range_meters":6800,"station_id":"ce4bgv92rcd13ifvqcq0","pricing_plan_id":"cebpf4jnsgd1na2vs0mg"},{"bike_id":"7096592e-8dbe-4500-8fa2-be1d4664d03c","system_id":"levelo_inurba_marseille","lat":43.307945,"lon":5.376487,"is_reserved":false,"is_disabled":false,"rental_uris":{"android":"levelo://app?vid=7096592e-8dbe-4500-8fa2-be1d4664d03c","ios":"levelo://app?vid=7096592e-8dbe-4500-8fa2-be1d4664d03c"},"vehicle_type_id":"4","last_reported":1709834943,"current_range_meters":24000,"station_id":"ce4bgv92rcd13ifvqcq0","pricing_plan_id":"cebpf4jnsgd1na2vs0mg"},{"bike_id":"ba46b9a2-22f4-4a50-9949-aa34428b8bd2","system_id":"levelo_inurba_marseille","lat":43.307945,"lon":5.376487,"is_reserved":false,"is_disabled":false,"rental_uris":{"android":"levelo://app?vid=ba46b9a2-22f4-4a50-9949-aa34428b8bd2","ios":"levelo://app?vid=ba46b9a2-22f4-4a50-9949-aa34428b8bd2"},"vehicle_type_id":"4","last_reported":1709834943,"current_range_meters":14400,"station_id":"ce4bgv92rcd13ifvqcq0","pricing_plan_id":"cebpf4jnsgd1na2vs0mg"},{"bike_id":"533bae6f-4380-4631-a8e3-c07b92db79ab","system_id":"levelo_inurba_marseille","lat":43.307945,"lon":5.376487,"is_reserved":false,"is_disabled":false,"rental_uris":{"android":"levelo://app?vid=533bae6f-4380-4631-a8e3-c07b92db79ab","ios":"levelo://app?vid=533bae6f-4380-4631-a8e3-c07b92db79ab"},"vehicle_type_id":"4","last_reported":1709834943,"current_range_meters":11600,"station_id":"ce4bgv92rcd13ifvqcq0","pricing_plan_id":"cebpf4jnsgd1na2vs0mg"},{"bike_id":"c3c80124-ed91-47f2-9dfa-970c5ab29ff7","system_id":"levelo_inurba_marseille","lat":43.307826,"lon":5.376538,"is_reserved":false,"is_disabled":false,"rental_uris":{"android":"levelo://app?vid=c3c80124-ed91-47f2-9dfa-970c5ab29ff7","ios":"levelo://app?vid=c3c80124-ed91-47f2-9dfa-970c5ab29ff7"},"vehicle_type_id":"4","last_reported":1709834943,"current_range_meters":11600,"station_id":"ce4bgv92rcd13ifvqcq0","pricing_plan_id":"cebpf4jnsgd1na2vs0mg"},{"bike_id":"ae7fa47e-c501-4e26-a7de-90c08de4a30f","system_id":"levelo_inurba_marseille","lat":43.31703,"lon":5.37745,"is_reserved":false,"is_disabled":false,"rental_uris":{"android":"levelo://app?vid=ae7fa47e-c501-4e26-a7de-90c08de4a30f","ios":"levelo://app?vid=ae7fa47e-c501-4e26-a7de-90c08de4a30f"},"vehicle_type_id":"4","last_reported":1709834943,"current_range_meters":0,"station_id":"ce4bgth2rcd13ifvqch0","pricing_plan_id":"cebpf4jnsgd1na2vs0mg"},{"bike_id":"19cc42a8-114d-4ae1-b0e4-84fd9b151325","system_id":"levelo_inurba_marseille","lat":43.317075,"lon":5.377367,"is_reserved":false,"is_disabled":false,"rental_uris":{"android":"levelo://app?vid=19cc42a8-114d-4ae1-b0e4-84fd9b151325","ios":"levelo://app?vid=19cc42a8-114d-4ae1-b0e4-84fd9b151325"},"vehicle_type_id":"4","last_reported":1709834943,"current_range_meters":31200,"station_id":"ce4bgth2rcd13ifvqch0","pricing_plan_id":"cebpf4jnsgd1na2vs0mg"},{"bike_id":"d62eb374-41c4-44e2-a45a-67af6aba0579","system_id":"levelo_inurba_marseille","lat":43.31299,"lon":5.37936,"is_reserved":false,"is_disabled":false,"rental_uris":{"android":"levelo://app?vid=d62eb374-41c4-44e2-a45a-67af6aba0579","ios":"levelo://app?vid=d62eb374-41c4-44e2-a45a-67af6aba0579"},"vehicle_type_id":"4","last_reported":1709834943,"current_range_meters":20000,"station_id":"","pricing_plan_id":"cebpf4jnsgd1na2vs0mg"},{"bike_id":"ea9edad0-88b6-4a75-ab3e-9061a3a9f9b5","system_id":"levelo_inurba_marseille","lat":43.315293,"lon":5.380349,"is_reserved":false,"is_disabled":false,"rental_uris":{"android":"levelo://app?vid=ea9edad0-88b6-4a75-ab3e-9061a3a9f9b5","ios":"levelo://app?vid=ea9edad0-88b6-4a75-ab3e-9061a3a9f9b5"},"vehicle_type_id":"4","last_reported":1709834943,"current_range_meters":6400,"station_id":"ce4bhsp2rcd13ifvqi50","pricing_plan_id":"cebpf4jnsgd1na2vs0mg"},{"bike_id":"1703aa71-e804-451e-844e-e2bd110156ab","system_id":"levelo_inurba_marseille","lat":43.315289,"lon":5.380349,"is_reserved":false,"is_disabled":false,"rental_uris":{"android":"levelo://app?vid=1703aa71-e804-451e-844e-e2bd110156ab","ios":"levelo://app?vid=1703aa71-e804-451e-844e-e2bd110156ab"},"vehicle_type_id":"4","last_reported":1709834943,"current_range_meters":15600,"station_id":"ce4bhsp2rcd13ifvqi50","pricing_plan_id":"cebpf4jnsgd1na2vs0mg"},{"bike_id":"e875f898-d9e9-4ed9-b0e0-28dd8899903a","system_id":"levelo_inurba_marseille","lat":43.315293,"lon":5.380349,"is_reserved":false,"is_disabled":false,"rental_uris":{"android":"levelo://app?vid=e875f898-d9e9-4ed9-b0e0-28dd8899903a","ios":"levelo://app?vid=e875f898-d9e9-4ed9-b0e0-28dd8899903a"},"vehicle_type_id":"4","last_reported":1709834943,"current_range_meters":2000,"station_id":"ce4bhsp2rcd13ifvqi50","pricing_plan_id":"cebpf4jnsgd1na2vs0mg"},{"bike_id":"ce1e1e9c-6efe-4355-9a6c-af5771a5541b","system_id":"levelo_inurba_marseille","lat":43.301939,"lon":5.366286,"is_reserved":false,"is_disabled":false,"rental_uris":{"android":"levelo://app?vid=ce1e1e9c-6efe-4355-9a6c-af5771a5541b","ios":"levelo://app?vid=ce1e1e9c-6efe-4355-9a6c-af5771a5541b"},"vehicle_type_id":"4","last_reported":1709834943,"current_range_meters":26400,"station_id":"ce4bgrh2rcd13ifvqc8g","pricing_plan_id":"cebpf4jnsgd1na2vs0mg"},{"bike_id":"c89f8aa5-93f1-4015-97ee-590ddffd5cb1","system_id":"levelo_inurba_marseille","lat":43.301939,"lon":5.366286,"is_reserved":false,"is_disabled":false,"rental_uris":{"android":"levelo://app?vid=c89f8aa5-93f1-4015-97ee-590ddffd5cb1","ios":"levelo://app?vid=c89f8aa5-93f1-4015-97ee-590ddffd5cb1"},"vehicle_type_id":"4","last_reported":1709834943,"current_range_meters":19600,"station_id":"ce4bgrh2rcd13ifvqc8g","pricing_plan_id":"cebpf4jnsgd1na2vs0mg"},{"bike_id":"8dea0afe-ead4-45fb-98dc-ae51920f4ee1","system_id":"levelo_inurba_marseille","lat":43.30185,"lon":5.36621,"is_reserved":false,"is_disabled":false,"rental_uris":{"android":"levelo://app?vid=8dea0afe-ead4-45fb-98dc-ae51920f4ee1","ios":"levelo://app?vid=8dea0afe-ead4-45fb-98dc-ae51920f4ee1"},"vehicle_type_id":"4","last_reported":1709834943,"current_range_meters":0,"station_id":"ce4bgrh2rcd13ifvqc8g","pricing_plan_id":"cebpf4jnsgd1na2vs0mg"},{"bike_id":"64f0ec95-29d5-4d4c-ad2f-983655e32c4e","system_id":"levelo_inurba_marseille","lat":43.311131,"lon":5.377651,"is_reserved":false,"is_disabled":false,"rental_uris":{"android":"levelo://app?vid=64f0ec95-29d5-4d4c-ad2f-983655e32c4e","ios":"levelo://app?vid=64f0ec95-29d5-4d4c-ad2f-983655e32c4e"},"vehicle_type_id":"4","last_reported":1709834943,"current_range_meters":0,"station_id":"ce4bgt92rcd13ifvqcg0","pricing_plan_id":"cebpf4jnsgd1na2vs0mg"},{"bike_id":"4b7e4621-deb2-45fa-b847-7a0882482e02","system_id":"levelo_inurba_marseille","lat":43.308012,"lon":5.381511,"is_reserved":false,"is_disabled":false,"rental_uris":{"android":"levelo://app?vid=4b7e4621-deb2-45fa-b847-7a0882482e02","ios":"levelo://app?vid=4b7e4621-deb2-45fa-b847-7a0882482e02"},"vehicle_type_id":"4","last_reported":1709834943,"current_range_meters":12800,"station_id":"ce4bgt12rcd13ifvqce0","pricing_plan_id":"cebpf4jnsgd1na2vs0mg"},{"bike_id":"00ab42d3-af2a-40fe-81fe-19c5b2b2320f","system_id":"levelo_inurba_marseille","lat":43.308012,"lon":5.381511,"is_reserved":false,"is_disabled":false,"rental_uris":{"android":"levelo://app?vid=00ab42d3-af2a-40fe-81fe-19c5b2b2320f","ios":"levelo://app?vid=00ab42d3-af2a-40fe-81fe-19c5b2b2320f"},"vehicle_type_id":"4","last_reported":1709834943,"current_range_meters":4800,"station_id":"ce4bgt12rcd13ifvqce0","pricing_plan_id":"cebpf4jnsgd1na2vs0mg"},{"bike_id":"36d6530f-c4c4-41c5-92e3-31e2e0161fcf","system_id":"levelo_inurba_marseille","lat":43.308012,"lon":5.381511,"is_reserved":false,"is_disabled":false,"rental_uris":{"android":"levelo://app?vid=36d6530f-c4c4-41c5-92e3-31e2e0161fcf","ios":"levelo://app?vid=36d6530f-c4c4-41c5-92e3-31e2e0161fcf"},"vehicle_type_id":"4","last_reported":1709834943,"current_range_meters":24800,"station_id":"ce4bgt12rcd13ifvqce0","pricing_plan_id":"cebpf4jnsgd1na2vs0mg"},{"bike_id":"9e778fc6-1379-4a38-9728-e898286fdb0e","system_id":"levelo_inurba_marseille","lat":43.308012,"lon":5.381511,"is_reserved":false,"is_disabled":false,"rental_uris":{"android":"levelo://app?vid=9e778fc6-1379-4a38-9728-e898286fdb0e","ios":"levelo://app?vid=9e778fc6-1379-4a38-9728-e898286fdb0e"},"vehicle_type_id":"4","last_reported":1709834943,"current_range_meters":21200,"station_id":"ce4bgt12rcd13ifvqce0","pricing_plan_id":"cebpf4jnsgd1na2vs0mg"},{"bike_id":"087899ff-b1a2-49a6-a761-61fa4fff8b55","system_id":"levelo_inurba_marseille","lat":43.308012,"lon":5.381511,"is_reserved":false,"is_disabled":false,"rental_uris":{"android":"levelo://app?vid=087899ff-b1a2-49a6-a761-61fa4fff8b55","ios":"levelo://app?vid=087899ff-b1a2-49a6-a761-61fa4fff8b55"},"vehicle_type_id":"4","last_reported":1709834943,"current_range_meters":13600,"station_id":"ce4bgt12rcd13ifvqce0","pricing_plan_id":"cebpf4jnsgd1na2vs0mg"},{"bike_id":"80f67a7e-712c-48cd-9ae3-4713a3a1cc29","system_id":"levelo_inurba_marseille","lat":43.308012,"lon":5.381511,"is_reserved":false,"is_disabled":false,"rental_uris":{"android":"levelo://app?vid=80f67a7e-712c-48cd-9ae3-4713a3a1cc29","ios":"levelo://app?vid=80f67a7e-712c-48cd-9ae3-4713a3a1cc29"},"vehicle_type_id":"4","last_reported":1709834943,"current_range_meters":24800,"station_id":"ce4bgt12rcd13ifvqce0","pricing_plan_id":"cebpf4jnsgd1na2vs0mg"},{"bike_id":"5fa6298f-bb19-4f68-95ce-78a081aeaac3","system_id":"levelo_inurba_marseille","lat":43.322872,"lon":5.382756,"is_reserved":false,"is_disabled":false,"rental_uris":{"android":"levelo://app?vid=5fa6298f-bb19-4f68-95ce-78a081aeaac3","ios":"levelo://app?vid=5fa6298f-bb19-4f68-95ce-78a081aeaac3"},"vehicle_type_id":"4","last_reported":1709834943,"current_range_meters":0,"station_id":"ce4bhr12rcd13ifvqhqg","pricing_plan_id":"cebpf4jnsgd1na2vs0mg"},{"bike_id":"57d9c422-4d84-44ac-a024-f9ab8bda867d","system_id":"levelo_inurba_marseille","lat":43.308012,"lon":5.381511,"is_reserved":false,"is_disabled":false,"rental_uris":{"android":"levelo://app?vid=57d9c422-4d84-44ac-a024-f9ab8bda867d","ios":"levelo://app?vid=57d9c422-4d84-44ac-a024-f9ab8bda867d"},"vehicle_type_id":"4","last_reported":1709834943,"current_range_meters":0,"station_id":"ce4bgt12rcd13ifvqce0","pricing_plan_id":"cebpf4jnsgd1na2vs0mg"},{"bike_id":"8ff964ca-657b-43c4-a9a7-40ea3ecef6b9","system_id":"levelo_inurba_marseille","lat":43.304606,"lon":5.379026,"is_reserved":false,"is_disabled":false,"rental_uris":{"android":"levelo://app?vid=8ff964ca-657b-43c4-a9a7-40ea3ecef6b9","ios":"levelo://app?vid=8ff964ca-657b-43c4-a9a7-40ea3ecef6b9"},"vehicle_type_id":"4","last_reported":1709834943,"current_range_meters":0,"station_id":"ce4bgup2rcd13ifvqcn0","pricing_plan_id":"cebpf4jnsgd1na2vs0mg"},{"bike_id":"d2e3e0b5-f989-4739-b4cf-17a1a9089409","system_id":"levelo_inurba_marseille","lat":43.32472,"lon":5.36567,"is_reserved":false,"is_disabled":false,"rental_uris":{"android":"levelo://app?vid=d2e3e0b5-f989-4739-b4cf-17a1a9089409","ios":"levelo://app?vid=d2e3e0b5-f989-4739-b4cf-17a1a9089409"},"vehicle_type_id":"4","last_reported":1709834943,"current_range_meters":400,"station_id":"ce4bhs12rcd13ifvqhvg","pricing_plan_id":"cebpf4jnsgd1na2vs0mg"},{"bike_id":"3461fc30-e411-4143-8336-32c54a5b8340","system_id":"levelo_inurba_marseille","lat":43.324771,"lon":5.36557,"is_reserved":false,"is_disabled":false,"rental_uris":{"android":"levelo://app?vid=3461fc30-e411-4143-8336-32c54a5b8340","ios":"levelo://app?vid=3461fc30-e411-4143-8336-32c54a5b8340"},"vehicle_type_id":"4","last_reported":1709834943,"current_range_meters":0,"station_id":"ce4bhs12rcd13ifvqhvg","pricing_plan_id":"cebpf4jnsgd1na2vs0mg"},{"bike_id":"2964a4ab-b159-45a1-8723-fdf7b9c28488","system_id":"levelo_inurba_marseille","lat":43.32478,"lon":5.3656,"is_reserved":false,"is_disabled":false,"rental_uris":{"android":"levelo://app?vid=2964a4ab-b159-45a1-8723-fdf7b9c28488","ios":"levelo://app?vid=2964a4ab-b159-45a1-8723-fdf7b9c28488"},"vehicle_type_id":"4","last_reported":1709834943,"current_range_meters":18000,"station_id":"ce4bhs12rcd13ifvqhvg","pricing_plan_id":"cebpf4jnsgd1na2vs0mg"},{"bike_id":"037eeba0-dc40-42e2-a734-42c5d645a312","system_id":"levelo_inurba_marseille","lat":43.32481,"lon":5.36561,"is_reserved":false,"is_disabled":false,"rental_uris":{"android":"levelo://app?vid=037eeba0-dc40-42e2-a734-42c5d645a312","ios":"levelo://app?vid=037eeba0-dc40-42e2-a734-42c5d645a312"},"vehicle_type_id":"4","last_reported":1709834943,"current_range_meters":25600,"station_id":"ce4bhs12rcd13ifvqhvg","pricing_plan_id":"cebpf4jnsgd1na2vs0mg"},{"bike_id":"c0eb3740-3ce0-4c5d-8902-9195ab6df95a","system_id":"levelo_inurba_marseille","lat":43.324918,"lon":5.365828,"is_reserved":false,"is_disabled":false,"rental_uris":{"android":"levelo://app?vid=c0eb3740-3ce0-4c5d-8902-9195ab6df95a","ios":"levelo://app?vid=c0eb3740-3ce0-4c5d-8902-9195ab6df95a"},"vehicle_type_id":"4","last_reported":1709834943,"current_range_meters":0,"station_id":"ce4bhs12rcd13ifvqhvg","pricing_plan_id":"cebpf4jnsgd1na2vs0mg"},{"bike_id":"07893a66-6f81-45dd-82e1-ca601c72e47f","system_id":"levelo_inurba_marseille","lat":43.310706,"lon":5.383517,"is_reserved":false,"is_disabled":false,"rental_uris":{"android":"levelo://app?vid=07893a66-6f81-45dd-82e1-ca601c72e47f","ios":"levelo://app?vid=07893a66-6f81-45dd-82e1-ca601c72e47f"},"vehicle_type_id":"4","last_reported":1709834943,"current_range_meters":400,"station_id":"ce4bgv92rcd13ifvqcr0","pricing_plan_id":"cebpf4jnsgd1na2vs0mg"},{"bike_id":"cc91cb04-c6c8-468d-bbbe-dad8897a8d8f","system_id":"levelo_inurba_marseille","lat":43.310804,"lon":5.38359,"is_reserved":false,"is_disabled":false,"rental_uris":{"android":"levelo://app?vid=cc91cb04-c6c8-468d-bbbe-dad8897a8d8f","ios":"levelo://app?vid=cc91cb04-c6c8-468d-bbbe-dad8897a8d8f"},"vehicle_type_id":"4","last_reported":1709834943,"current_range_meters":21600,"station_id":"ce4bgv92rcd13ifvqcr0","pricing_plan_id":"cebpf4jnsgd1na2vs0mg"},{"bike_id":"38b8036d-3f96-4e0a-99a7-87b8e2155134","system_id":"levelo_inurba_marseille","lat":43.310804,"lon":5.38359,"is_reserved":false,"is_disabled":false,"rental_uris":{"android":"levelo://app?vid=38b8036d-3f96-4e0a-99a7-87b8e2155134","ios":"levelo://app?vid=38b8036d-3f96-4e0a-99a7-87b8e2155134"},"vehicle_type_id":"4","last_reported":1709834943,"current_range_meters":5600,"station_id":"ce4bgv92rcd13ifvqcr0","pricing_plan_id":"cebpf4jnsgd1na2vs0mg"},{"bike_id":"66315549-f96d-45ee-89fe-0c00ce1d3e39","system_id":"levelo_inurba_marseille","lat":43.302784,"lon":5.377158,"is_reserved":false,"is_disabled":false,"rental_uris":{"android":"levelo://app?vid=66315549-f96d-45ee-89fe-0c00ce1d3e39","ios":"levelo://app?vid=66315549-f96d-45ee-89fe-0c00ce1d3e39"},"vehicle_type_id":"4","last_reported":1709834943,"current_range_meters":12000,"station_id":"ce4bguh2rcd13ifvqcj0","pricing_plan_id":"cebpf4jnsgd1na2vs0mg"},{"bike_id":"e7dff946-e124-4311-8420-d2bf6b19fa75","system_id":"levelo_inurba_marseille","lat":43.301429,"lon":5.37413,"is_reserved":false,"is_disabled":false,"rental_uris":{"android":"levelo://app?vid=e7dff946-e124-4311-8420-d2bf6b19fa75","ios":"levelo://app?vid=e7dff946-e124-4311-8420-d2bf6b19fa75"},"vehicle_type_id":"4","last_reported":1709834943,"current_range_meters":800,"station_id":"ce4bgs92rcd13ifvqcc0","pricing_plan_id":"cebpf4jnsgd1na2vs0mg"},{"bike_id":"039781a6-9d6d-4e20-b3d4-a02c6011126e","system_id":"levelo_inurba_marseille","lat":43.319935,"lon":5.381699,"is_reserved":false,"is_disabled":false,"rental_uris":{"android":"levelo://app?vid=039781a6-9d6d-4e20-b3d4-a02c6011126e","ios":"levelo://app?vid=039781a6-9d6d-4e20-b3d4-a02c6011126e"},"vehicle_type_id":"4","last_reported":1709834943,"current_range_meters":14400,"station_id":"ce4bhr12rcd13ifvqhpg","pricing_plan_id":"cebpf4jnsgd1na2vs0mg"},{"bike_id":"963d859b-2fc2-458e-be64-4632c66e250d","system_id":"levelo_inurba_marseille","lat":43.319935,"lon":5.381699,"is_reserved":false,"is_disabled":false,"rental_uris":{"android":"levelo://app?vid=963d859b-2fc2-458e-be64-4632c66e250d","ios":"levelo://app?vid=963d859b-2fc2-458e-be64-4632c66e250d"},"vehicle_type_id":"4","last_reported":1709834943,"current_range_meters":3200,"station_id":"ce4bhr12rcd13ifvqhpg","pricing_plan_id":"cebpf4jnsgd1na2vs0mg"},{"bike_id":"91c2de41-8090-4331-a272-5c49f04629e2","system_id":"levelo_inurba_marseille","lat":43.313571,"lon":5.384829,"is_reserved":false,"is_disabled":false,"rental_uris":{"android":"levelo://app?vid=91c2de41-8090-4331-a272-5c49f04629e2","ios":"levelo://app?vid=91c2de41-8090-4331-a272-5c49f04629e2"},"vehicle_type_id":"4","last_reported":1709834943,"current_range_meters":4000,"station_id":"ce4bgt92rcd13ifvqcf0","pricing_plan_id":"cebpf4jnsgd1na2vs0mg"},{"bike_id":"e116d8a3-5111-4a98-88ff-c878fb3106b8","system_id":"levelo_inurba_marseille","lat":43.313571,"lon":5.384829,"is_reserved":false,"is_disabled":false,"rental_uris":{"android":"levelo://app?vid=e116d8a3-5111-4a98-88ff-c878fb3106b8","ios":"levelo://app?vid=e116d8a3-5111-4a98-88ff-c878fb3106b8"},"vehicle_type_id":"4","last_reported":1709834943,"current_range_meters":24800,"station_id":"ce4bgt92rcd13ifvqcf0","pricing_plan_id":"cebpf4jnsgd1na2vs0mg"},{"bike_id":"cf139c3c-ca32-4dfd-abe0-5a4a30e718c8","system_id":"levelo_inurba_marseille","lat":43.3136,"lon":5.38492,"is_reserved":false,"is_disabled":false,"rental_uris":{"android":"levelo://app?vid=cf139c3c-ca32-4dfd-abe0-5a4a30e718c8","ios":"levelo://app?vid=cf139c3c-ca32-4dfd-abe0-5a4a30e718c8"},"vehicle_type_id":"4","last_reported":1709834943,"current_range_meters":13200,"station_id":"ce4bgt92rcd13ifvqcf0","pricing_plan_id":"cebpf4jnsgd1na2vs0mg"},{"bike_id":"93034e52-9284-452e-bf9f-486929c40ec5","system_id":"levelo_inurba_marseille","lat":43.31362,"lon":5.38492,"is_reserved":false,"is_disabled":false,"rental_uris":{"android":"levelo://app?vid=93034e52-9284-452e-bf9f-486929c40ec5","ios":"levelo://app?vid=93034e52-9284-452e-bf9f-486929c40ec5"},"vehicle_type_id":"4","last_reported":1709834943,"current_range_meters":4800,"station_id":"ce4bgt92rcd13ifvqcf0","pricing_plan_id":"cebpf4jnsgd1na2vs0mg"},{"bike_id":"73291c6a-f045-402e-92c2-5aa6ca6ec782","system_id":"levelo_inurba_marseille","lat":43.313571,"lon":5.384829,"is_reserved":false,"is_disabled":false,"rental_uris":{"android":"levelo://app?vid=73291c6a-f045-402e-92c2-5aa6ca6ec782","ios":"levelo://app?vid=73291c6a-f045-402e-92c2-5aa6ca6ec782"},"vehicle_type_id":"4","last_reported":1709834943,"current_range_meters":8400,"station_id":"ce4bgt92rcd13ifvqcf0","pricing_plan_id":"cebpf4jnsgd1na2vs0mg"},{"bike_id":"5ceb285f-ae37-466e-9066-9f59a85df81a","system_id":"levelo_inurba_marseille","lat":43.29933,"lon":5.36544,"is_reserved":false,"is_disabled":false,"rental_uris":{"android":"levelo://app?vid=5ceb285f-ae37-466e-9066-9f59a85df81a","ios":"levelo://app?vid=5ceb285f-ae37-466e-9066-9f59a85df81a"},"vehicle_type_id":"4","last_reported":1709834943,"current_range_meters":0,"station_id":"ce4bgm92rcd13ifvqbr0","pricing_plan_id":"cebpf4jnsgd1na2vs0mg"},{"bike_id":"2bf52446-d9ed-4ccd-bf81-e9fb7fcc8343","system_id":"levelo_inurba_marseille","lat":43.313571,"lon":5.384829,"is_reserved":false,"is_disabled":false,"rental_uris":{"android":"levelo://app?vid=2bf52446-d9ed-4ccd-bf81-e9fb7fcc8343","ios":"levelo://app?vid=2bf52446-d9ed-4ccd-bf81-e9fb7fcc8343"},"vehicle_type_id":"4","last_reported":1709834943,"current_range_meters":8400,"station_id":"ce4bgt92rcd13ifvqcf0","pricing_plan_id":"cebpf4jnsgd1na2vs0mg"},{"bike_id":"a87b4426-c61e-4eb4-88e0-f0352b2b5eb2","system_id":"levelo_inurba_marseille","lat":43.31343,"lon":5.38607,"is_reserved":false,"is_disabled":false,"rental_uris":{"android":"levelo://app?vid=a87b4426-c61e-4eb4-88e0-f0352b2b5eb2","ios":"levelo://app?vid=a87b4426-c61e-4eb4-88e0-f0352b2b5eb2"},"vehicle_type_id":"4","last_reported":1709834943,"current_range_meters":10000,"station_id":"ce4bgt92rcd13ifvqcf0","pricing_plan_id":"cebpf4jnsgd1na2vs0mg"},{"bike_id":"82b2d583-13f2-4f7b-a3b8-8a232b53fdb3","system_id":"levelo_inurba_marseille","lat":43.29861,"lon":5.36294,"is_reserved":false,"is_disabled":false,"rental_uris":{"android":"levelo://app?vid=82b2d583-13f2-4f7b-a3b8-8a232b53fdb3","ios":"levelo://app?vid=82b2d583-13f2-4f7b-a3b8-8a232b53fdb3"},"vehicle_type_id":"4","last_reported":1709834943,"current_range_meters":21600,"station_id":"ce4bgpp2rcd13ifvqc3g","pricing_plan_id":"cebpf4jnsgd1na2vs0mg"},{"bike_id":"d68a81c3-0332-4cdd-ab2a-afed112901ae","system_id":"levelo_inurba_marseille","lat":43.29856,"lon":5.36286,"is_reserved":false,"is_disabled":false,"rental_uris":{"android":"levelo://app?vid=d68a81c3-0332-4cdd-ab2a-afed112901ae","ios":"levelo://app?vid=d68a81c3-0332-4cdd-ab2a-afed112901ae"},"vehicle_type_id":"4","last_reported":1709834943,"current_range_meters":2000,"station_id":"ce4bgpp2rcd13ifvqc3g","pricing_plan_id":"cebpf4jnsgd1na2vs0mg"},{"bike_id":"1d46e73b-f0b0-4ef1-9ec0-330596bae08f","system_id":"levelo_inurba_marseille","lat":43.299724,"lon":5.371829,"is_reserved":false,"is_disabled":false,"rental_uris":{"android":"levelo://app?vid=1d46e73b-f0b0-4ef1-9ec0-330596bae08f","ios":"levelo://app?vid=1d46e73b-f0b0-4ef1-9ec0-330596bae08f"},"vehicle_type_id":"4","last_reported":1709834943,"current_range_meters":2800,"station_id":"ce4bgr92rcd13ifvqc7g","pricing_plan_id":"cebpf4jnsgd1na2vs0mg"},{"bike_id":"79b857e2-cd4d-48cf-9fd7-a6dd5eea6d3d","system_id":"levelo_inurba_marseille","lat":43.298518,"lon":5.362869,"is_reserved":false,"is_disabled":false,"rental_uris":{"android":"levelo://app?vid=79b857e2-cd4d-48cf-9fd7-a6dd5eea6d3d","ios":"levelo://app?vid=79b857e2-cd4d-48cf-9fd7-a6dd5eea6d3d"},"vehicle_type_id":"4","last_reported":1709834943,"current_range_meters":6000,"station_id":"ce4bgpp2rcd13ifvqc3g","pricing_plan_id":"cebpf4jnsgd1na2vs0mg"},{"bike_id":"def884e6-41bf-4048-b6bd-c0fd9c1ccbb3","system_id":"levelo_inurba_marseille","lat":43.29852,"lon":5.36281,"is_reserved":false,"is_disabled":false,"rental_uris":{"android":"levelo://app?vid=def884e6-41bf-4048-b6bd-c0fd9c1ccbb3","ios":"levelo://app?vid=def884e6-41bf-4048-b6bd-c0fd9c1ccbb3"},"vehicle_type_id":"4","last_reported":1709834943,"current_range_meters":12000,"station_id":"ce4bgpp2rcd13ifvqc3g","pricing_plan_id":"cebpf4jnsgd1na2vs0mg"},{"bike_id":"dd0ef154-09c3-4027-bc58-2011bb926a42","system_id":"levelo_inurba_marseille","lat":43.30544,"lon":5.38429,"is_reserved":false,"is_disabled":false,"rental_uris":{"android":"levelo://app?vid=dd0ef154-09c3-4027-bc58-2011bb926a42","ios":"levelo://app?vid=dd0ef154-09c3-4027-bc58-2011bb926a42"},"vehicle_type_id":"4","last_reported":1709834943,"current_range_meters":3600,"station_id":"ce4bgg92rcd13ifvqb30","pricing_plan_id":"cebpf4jnsgd1na2vs0mg"},{"bike_id":"c9566bf1-c9a8-4349-af7e-7fb958ddc0ee","system_id":"levelo_inurba_marseille","lat":43.298416,"lon":5.362728,"is_reserved":false,"is_disabled":false,"rental_uris":{"android":"levelo://app?vid=c9566bf1-c9a8-4349-af7e-7fb958ddc0ee","ios":"levelo://app?vid=c9566bf1-c9a8-4349-af7e-7fb958ddc0ee"},"vehicle_type_id":"4","last_reported":1709834943,"current_range_meters":6400,"station_id":"ce4bgpp2rcd13ifvqc3g","pricing_plan_id":"cebpf4jnsgd1na2vs0mg"},{"bike_id":"460ff810-3d91-4aa4-8678-377ac79b6d58","system_id":"levelo_inurba_marseille","lat":43.30535,"lon":5.38432,"is_reserved":false,"is_disabled":false,"rental_uris":{"android":"levelo://app?vid=460ff810-3d91-4aa4-8678-377ac79b6d58","ios":"levelo://app?vid=460ff810-3d91-4aa4-8678-377ac79b6d58"},"vehicle_type_id":"4","last_reported":1709834943,"current_range_meters":4800,"station_id":"ce4bgg92rcd13ifvqb30","pricing_plan_id":"cebpf4jnsgd1na2vs0mg"},{"bike_id":"a815a761-3984-42a9-a631-10ff245363d3","system_id":"levelo_inurba_marseille","lat":43.2984,"lon":5.36268,"is_reserved":false,"is_disabled":false,"rental_uris":{"android":"levelo://app?vid=a815a761-3984-42a9-a631-10ff245363d3","ios":"levelo://app?vid=a815a761-3984-42a9-a631-10ff245363d3"},"vehicle_type_id":"4","last_reported":1709834943,"current_range_meters":26800,"station_id":"ce4bgpp2rcd13ifvqc3g","pricing_plan_id":"cebpf4jnsgd1na2vs0mg"},{"bike_id":"da904500-7b99-4166-8420-7ed041221a62","system_id":"levelo_inurba_marseille","lat":43.29839,"lon":5.36269,"is_reserved":false,"is_disabled":false,"rental_uris":{"android":"levelo://app?vid=da904500-7b99-4166-8420-7ed041221a62","ios":"levelo://app?vid=da904500-7b99-4166-8420-7ed041221a62"},"vehicle_type_id":"4","last_reported":1709834943,"current_range_meters":30000,"station_id":"ce4bgpp2rcd13ifvqc3g","pricing_plan_id":"cebpf4jnsgd1na2vs0mg"},{"bike_id":"912fb678-3b54-4449-8d33-2548dad59862","system_id":"levelo_inurba_marseille","lat":43.299243,"lon":5.37481,"is_reserved":false,"is_disabled":false,"rental_uris":{"android":"levelo://app?vid=912fb678-3b54-4449-8d33-2548dad59862","ios":"levelo://app?vid=912fb678-3b54-4449-8d33-2548dad59862"},"vehicle_type_id":"4","last_reported":1709834943,"current_range_meters":30400,"station_id":"ce4bgjh2rcd13ifvqbg0","pricing_plan_id":"cebpf4jnsgd1na2vs0mg"},{"bike_id":"43b050f2-32e5-45b7-ae52-68d2e02315a7","system_id":"levelo_inurba_marseille","lat":43.279087,"lon":5.380114,"is_reserved":false,"is_disabled":false,"rental_uris":{"android":"levelo://app?vid=43b050f2-32e5-45b7-ae52-68d2e02315a7","ios":"levelo://app?vid=43b050f2-32e5-45b7-ae52-68d2e02315a7"},"vehicle_type_id":"4","last_reported":1709834943,"current_range_meters":22800,"station_id":"ce4bhf92rcd13ifvqf50","pricing_plan_id":"cebpf4jnsgd1na2vs0mg"},{"bike_id":"33fbf0e3-a7fd-4898-9e87-9d241dfacc09","system_id":"levelo_inurba_marseille","lat":43.297794,"lon":5.370888,"is_reserved":false,"is_disabled":false,"rental_uris":{"android":"levelo://app?vid=33fbf0e3-a7fd-4898-9e87-9d241dfacc09","ios":"levelo://app?vid=33fbf0e3-a7fd-4898-9e87-9d241dfacc09"},"vehicle_type_id":"4","last_reported":1709834943,"current_range_meters":31200,"station_id":"ce4bgop2rcd13ifvqc1g","pricing_plan_id":"cebpf4jnsgd1na2vs0mg"},{"bike_id":"89281250-89ef-4dd7-84fe-26879b55f408","system_id":"levelo_inurba_marseille","lat":43.322872,"lon":5.382756,"is_reserved":false,"is_disabled":false,"rental_uris":{"android":"levelo://app?vid=89281250-89ef-4dd7-84fe-26879b55f408","ios":"levelo://app?vid=89281250-89ef-4dd7-84fe-26879b55f408"},"vehicle_type_id":"4","last_reported":1709834943,"current_range_meters":14800,"station_id":"ce4bhr12rcd13ifvqhqg","pricing_plan_id":"cebpf4jnsgd1na2vs0mg"},{"bike_id":"bb899dff-6c79-403f-9d3b-c06768d449fe","system_id":"levelo_inurba_marseille","lat":43.322872,"lon":5.382756,"is_reserved":false,"is_disabled":false,"rental_uris":{"android":"levelo://app?vid=bb899dff-6c79-403f-9d3b-c06768d449fe","ios":"levelo://app?vid=bb899dff-6c79-403f-9d3b-c06768d449fe"},"vehicle_type_id":"4","last_reported":1709834943,"current_range_meters":25600,"station_id":"ce4bhr12rcd13ifvqhqg","pricing_plan_id":"cebpf4jnsgd1na2vs0mg"},{"bike_id":"299e1b1d-026d-4cfd-9bd6-7cc24e19ad4c","system_id":"levelo_inurba_marseille","lat":43.322872,"lon":5.382756,"is_reserved":false,"is_disabled":false,"rental_uris":{"android":"levelo://app?vid=299e1b1d-026d-4cfd-9bd6-7cc24e19ad4c","ios":"levelo://app?vid=299e1b1d-026d-4cfd-9bd6-7cc24e19ad4c"},"vehicle_type_id":"4","last_reported":1709834943,"current_range_meters":31200,"station_id":"ce4bhr12rcd13ifvqhqg","pricing_plan_id":"cebpf4jnsgd1na2vs0mg"},{"bike_id":"0dba4155-3d71-46e5-832f-19d9dfef260f","system_id":"levelo_inurba_marseille","lat":43.322872,"lon":5.382756,"is_reserved":false,"is_disabled":false,"rental_uris":{"android":"levelo://app?vid=0dba4155-3d71-46e5-832f-19d9dfef260f","ios":"levelo://app?vid=0dba4155-3d71-46e5-832f-19d9dfef260f"},"vehicle_type_id":"4","last_reported":1709834943,"current_range_meters":30800,"station_id":"ce4bhr12rcd13ifvqhqg","pricing_plan_id":"cebpf4jnsgd1na2vs0mg"},{"bike_id":"c0664275-516d-4cfb-8db1-2225aa364432","system_id":"levelo_inurba_marseille","lat":43.322872,"lon":5.382756,"is_reserved":false,"is_disabled":false,"rental_uris":{"android":"levelo://app?vid=c0664275-516d-4cfb-8db1-2225aa364432","ios":"levelo://app?vid=c0664275-516d-4cfb-8db1-2225aa364432"},"vehicle_type_id":"4","last_reported":1709834943,"current_range_meters":18400,"station_id":"ce4bhr12rcd13ifvqhqg","pricing_plan_id":"cebpf4jnsgd1na2vs0mg"},{"bike_id":"371e6a2c-3338-4dae-a4e7-3f648e3af128","system_id":"levelo_inurba_marseille","lat":43.322872,"lon":5.382756,"is_reserved":false,"is_disabled":false,"rental_uris":{"android":"levelo://app?vid=371e6a2c-3338-4dae-a4e7-3f648e3af128","ios":"levelo://app?vid=371e6a2c-3338-4dae-a4e7-3f648e3af128"},"vehicle_type_id":"4","last_reported":1709834943,"current_range_meters":29600,"station_id":"ce4bhr12rcd13ifvqhqg","pricing_plan_id":"cebpf4jnsgd1na2vs0mg"},{"bike_id":"86b46df3-868b-4c5d-84aa-9e29bfde67d4","system_id":"levelo_inurba_marseille","lat":43.322872,"lon":5.382756,"is_reserved":false,"is_disabled":false,"rental_uris":{"android":"levelo://app?vid=86b46df3-868b-4c5d-84aa-9e29bfde67d4","ios":"levelo://app?vid=86b46df3-868b-4c5d-84aa-9e29bfde67d4"},"vehicle_type_id":"4","last_reported":1709834943,"current_range_meters":31600,"station_id":"ce4bhr12rcd13ifvqhqg","pricing_plan_id":"cebpf4jnsgd1na2vs0mg"},{"bike_id":"f2b1e53b-07d7-451c-bd8d-870edd7108da","system_id":"levelo_inurba_marseille","lat":43.296131,"lon":5.370791,"is_reserved":false,"is_disabled":false,"rental_uris":{"android":"levelo://app?vid=f2b1e53b-07d7-451c-bd8d-870edd7108da","ios":"levelo://app?vid=f2b1e53b-07d7-451c-bd8d-870edd7108da"},"vehicle_type_id":"4","last_reported":1709834943,"current_range_meters":21600,"station_id":"ce4bgnh2rcd13ifvqc0g","pricing_plan_id":"cebpf4jnsgd1na2vs0mg"},{"bike_id":"803c694e-279e-4f1b-8859-acea4a161102","system_id":"levelo_inurba_marseille","lat":43.296129,"lon":5.370777,"is_reserved":false,"is_disabled":false,"rental_uris":{"android":"levelo://app?vid=803c694e-279e-4f1b-8859-acea4a161102","ios":"levelo://app?vid=803c694e-279e-4f1b-8859-acea4a161102"},"vehicle_type_id":"4","last_reported":1709834943,"current_range_meters":20000,"station_id":"ce4bgnh2rcd13ifvqc0g","pricing_plan_id":"cebpf4jnsgd1na2vs0mg"},{"bike_id":"e0448723-deab-43df-a70b-26617e611dd9","system_id":"levelo_inurba_marseille","lat":43.29573,"lon":5.367355,"is_reserved":false,"is_disabled":false,"rental_uris":{"android":"levelo://app?vid=e0448723-deab-43df-a70b-26617e611dd9","ios":"levelo://app?vid=e0448723-deab-43df-a70b-26617e611dd9"},"vehicle_type_id":"4","last_reported":1709834943,"current_range_meters":6400,"station_id":"ce4bgph2rcd13ifvqc2g","pricing_plan_id":"cebpf4jnsgd1na2vs0mg"},{"bike_id":"c7b371be-1e1e-4589-832b-6ed09241114d","system_id":"levelo_inurba_marseille","lat":43.29573,"lon":5.367355,"is_reserved":false,"is_disabled":false,"rental_uris":{"android":"levelo://app?vid=c7b371be-1e1e-4589-832b-6ed09241114d","ios":"levelo://app?vid=c7b371be-1e1e-4589-832b-6ed09241114d"},"vehicle_type_id":"4","last_reported":1709834943,"current_range_meters":5600,"station_id":"ce4bgph2rcd13ifvqc2g","pricing_plan_id":"cebpf4jnsgd1na2vs0mg"},{"bike_id":"e4f8a414-bc43-445f-b321-75166f7b2e6a","system_id":"levelo_inurba_marseille","lat":43.29573,"lon":5.367355,"is_reserved":false,"is_disabled":false,"rental_uris":{"android":"levelo://app?vid=e4f8a414-bc43-445f-b321-75166f7b2e6a","ios":"levelo://app?vid=e4f8a414-bc43-445f-b321-75166f7b2e6a"},"vehicle_type_id":"4","last_reported":1709834943,"current_range_meters":8000,"station_id":"ce4bgph2rcd13ifvqc2g","pricing_plan_id":"cebpf4jnsgd1na2vs0mg"},{"bike_id":"1347a499-a1c1-467d-a5c4-44f4465bfd33","system_id":"levelo_inurba_marseille","lat":43.29602,"lon":5.381084,"is_reserved":false,"is_disabled":false,"rental_uris":{"android":"levelo://app?vid=1347a499-a1c1-467d-a5c4-44f4465bfd33","ios":"levelo://app?vid=1347a499-a1c1-467d-a5c4-44f4465bfd33"},"vehicle_type_id":"4","last_reported":1709834943,"current_range_meters":24400,"station_id":"ce4bgl12rcd13ifvqbo0","pricing_plan_id":"cebpf4jnsgd1na2vs0mg"},{"bike_id":"40dd52cf-4162-41a4-a957-02965ca7817c","system_id":"levelo_inurba_marseille","lat":43.29902,"lon":5.38129,"is_reserved":false,"is_disabled":false,"rental_uris":{"android":"levelo://app?vid=40dd52cf-4162-41a4-a957-02965ca7817c","ios":"levelo://app?vid=40dd52cf-4162-41a4-a957-02965ca7817c"},"vehicle_type_id":"4","last_reported":1709834943,"current_range_meters":21200,"station_id":"ce4bgj12rcd13ifvqbc0","pricing_plan_id":"cebpf4jnsgd1na2vs0mg"},{"bike_id":"16caf4fd-a758-4add-bd76-506f3c806b6a","system_id":"levelo_inurba_marseille","lat":43.299028,"lon":5.381509,"is_reserved":false,"is_disabled":false,"rental_uris":{"android":"levelo://app?vid=16caf4fd-a758-4add-bd76-506f3c806b6a","ios":"levelo://app?vid=16caf4fd-a758-4add-bd76-506f3c806b6a"},"vehicle_type_id":"4","last_reported":1709834943,"current_range_meters":30800,"station_id":"ce4bgj12rcd13ifvqbc0","pricing_plan_id":"cebpf4jnsgd1na2vs0mg"},{"bike_id":"cacecba9-4220-4a30-84d9-b5b433dd513d","system_id":"levelo_inurba_marseille","lat":43.309589,"lon":5.390258,"is_reserved":false,"is_disabled":false,"rental_uris":{"android":"levelo://app?vid=cacecba9-4220-4a30-84d9-b5b433dd513d","ios":"levelo://app?vid=cacecba9-4220-4a30-84d9-b5b433dd513d"},"vehicle_type_id":"4","last_reported":1709834943,"current_range_meters":0,"station_id":"ce4bgup2rcd13ifvqco0","pricing_plan_id":"cebpf4jnsgd1na2vs0mg"},{"bike_id":"307cad38-5e3c-42fe-bab8-45d13405e060","system_id":"levelo_inurba_marseille","lat":43.30959,"lon":5.39028,"is_reserved":false,"is_disabled":false,"rental_uris":{"android":"levelo://app?vid=307cad38-5e3c-42fe-bab8-45d13405e060","ios":"levelo://app?vid=307cad38-5e3c-42fe-bab8-45d13405e060"},"vehicle_type_id":"4","last_reported":1709834943,"current_range_meters":0,"station_id":"ce4bgup2rcd13ifvqco0","pricing_plan_id":"cebpf4jnsgd1na2vs0mg"},{"bike_id":"1f0ee9b4-ecab-45c8-8935-6eca1073af44","system_id":"levelo_inurba_marseille","lat":43.309589,"lon":5.390258,"is_reserved":false,"is_disabled":false,"rental_uris":{"android":"levelo://app?vid=1f0ee9b4-ecab-45c8-8935-6eca1073af44","ios":"levelo://app?vid=1f0ee9b4-ecab-45c8-8935-6eca1073af44"},"vehicle_type_id":"4","last_reported":1709834943,"current_range_meters":5600,"station_id":"ce4bgup2rcd13ifvqco0","pricing_plan_id":"cebpf4jnsgd1na2vs0mg"},{"bike_id":"481d78f6-e968-4346-8805-3a65a2e9a50c","system_id":"levelo_inurba_marseille","lat":43.317557,"lon":5.390173,"is_reserved":false,"is_disabled":false,"rental_uris":{"android":"levelo://app?vid=481d78f6-e968-4346-8805-3a65a2e9a50c","ios":"levelo://app?vid=481d78f6-e968-4346-8805-3a65a2e9a50c"},"vehicle_type_id":"4","last_reported":1709834943,"current_range_meters":400,"station_id":"ce4bhqp2rcd13ifvqhng","pricing_plan_id":"cebpf4jnsgd1na2vs0mg"},{"bike_id":"16f7fe0a-a554-4ec3-839f-7ecca952472f","system_id":"levelo_inurba_marseille","lat":43.3176,"lon":5.39012,"is_reserved":false,"is_disabled":false,"rental_uris":{"android":"levelo://app?vid=16f7fe0a-a554-4ec3-839f-7ecca952472f","ios":"levelo://app?vid=16f7fe0a-a554-4ec3-839f-7ecca952472f"},"vehicle_type_id":"4","last_reported":1709834943,"current_range_meters":3200,"station_id":"ce4bhqp2rcd13ifvqhng","pricing_plan_id":"cebpf4jnsgd1na2vs0mg"},{"bike_id":"8032fd1c-480c-496d-b498-7dbea2cd1255","system_id":"levelo_inurba_marseille","lat":43.31754,"lon":5.39015,"is_reserved":false,"is_disabled":false,"rental_uris":{"android":"levelo://app?vid=8032fd1c-480c-496d-b498-7dbea2cd1255","ios":"levelo://app?vid=8032fd1c-480c-496d-b498-7dbea2cd1255"},"vehicle_type_id":"4","last_reported":1709834943,"current_range_meters":26800,"station_id":"ce4bhqp2rcd13ifvqhng","pricing_plan_id":"cebpf4jnsgd1na2vs0mg"},{"bike_id":"a50d8518-274b-4c10-b0b7-650050baa7d7","system_id":"levelo_inurba_marseille","lat":43.31759,"lon":5.39017,"is_reserved":false,"is_disabled":false,"rental_uris":{"android":"levelo://app?vid=a50d8518-274b-4c10-b0b7-650050baa7d7","ios":"levelo://app?vid=a50d8518-274b-4c10-b0b7-650050baa7d7"},"vehicle_type_id":"4","last_reported":1709834943,"current_range_meters":29600,"station_id":"ce4bhqp2rcd13ifvqhng","pricing_plan_id":"cebpf4jnsgd1na2vs0mg"},{"bike_id":"de056d34-ecb1-4f51-a307-10e235c53ea4","system_id":"levelo_inurba_marseille","lat":43.304274,"lon":5.388873,"is_reserved":false,"is_disabled":false,"rental_uris":{"android":"levelo://app?vid=de056d34-ecb1-4f51-a307-10e235c53ea4","ios":"levelo://app?vid=de056d34-ecb1-4f51-a307-10e235c53ea4"},"vehicle_type_id":"4","last_reported":1709834943,"current_range_meters":30000,"station_id":"ce4bgk12rcd13ifvqbi0","pricing_plan_id":"cebpf4jnsgd1na2vs0mg"},{"bike_id":"cb127607-78a7-49ec-bab8-2b32f85aabe3","system_id":"levelo_inurba_marseille","lat":43.298037,"lon":5.381066,"is_reserved":false,"is_disabled":false,"rental_uris":{"android":"levelo://app?vid=cb127607-78a7-49ec-bab8-2b32f85aabe3","ios":"levelo://app?vid=cb127607-78a7-49ec-bab8-2b32f85aabe3"},"vehicle_type_id":"4","last_reported":1709834943,"current_range_meters":11600,"station_id":"ce4bgip2rcd13ifvqbb0","pricing_plan_id":"cebpf4jnsgd1na2vs0mg"},{"bike_id":"5a717ce4-4eb0-46e7-a7ea-2b39f28ba0e5","system_id":"levelo_inurba_marseille","lat":43.296277,"lon":5.377108,"is_reserved":false,"is_disabled":false,"rental_uris":{"android":"levelo://app?vid=5a717ce4-4eb0-46e7-a7ea-2b39f28ba0e5","ios":"levelo://app?vid=5a717ce4-4eb0-46e7-a7ea-2b39f28ba0e5"},"vehicle_type_id":"4","last_reported":1709834943,"current_range_meters":19600,"station_id":"ce4bgi92rcd13ifvqb90","pricing_plan_id":"cebpf4jnsgd1na2vs0mg"},{"bike_id":"7d174227-ba88-4348-9269-7d3dcba98df9","system_id":"levelo_inurba_marseille","lat":43.298037,"lon":5.381066,"is_reserved":false,"is_disabled":false,"rental_uris":{"android":"levelo://app?vid=7d174227-ba88-4348-9269-7d3dcba98df9","ios":"levelo://app?vid=7d174227-ba88-4348-9269-7d3dcba98df9"},"vehicle_type_id":"4","last_reported":1709834943,"current_range_meters":24000,"station_id":"ce4bgip2rcd13ifvqbb0","pricing_plan_id":"cebpf4jnsgd1na2vs0mg"},{"bike_id":"477a8ed3-c03b-422a-8a1f-171ca1b415cd","system_id":"levelo_inurba_marseille","lat":43.304274,"lon":5.388873,"is_reserved":false,"is_disabled":false,"rental_uris":{"android":"levelo://app?vid=477a8ed3-c03b-422a-8a1f-171ca1b415cd","ios":"levelo://app?vid=477a8ed3-c03b-422a-8a1f-171ca1b415cd"},"vehicle_type_id":"4","last_reported":1709834943,"current_range_meters":31200,"station_id":"ce4bgk12rcd13ifvqbi0","pricing_plan_id":"cebpf4jnsgd1na2vs0mg"},{"bike_id":"3c0ed6c9-a357-4393-98a4-cc665d88c146","system_id":"levelo_inurba_marseille","lat":43.30432,"lon":5.38887,"is_reserved":false,"is_disabled":false,"rental_uris":{"android":"levelo://app?vid=3c0ed6c9-a357-4393-98a4-cc665d88c146","ios":"levelo://app?vid=3c0ed6c9-a357-4393-98a4-cc665d88c146"},"vehicle_type_id":"4","last_reported":1709834943,"current_range_meters":8000,"station_id":"ce4bgk12rcd13ifvqbi0","pricing_plan_id":"cebpf4jnsgd1na2vs0mg"},{"bike_id":"2efe3c3c-c10c-46a1-aa65-8bf88f7714d0","system_id":"levelo_inurba_marseille","lat":43.30436,"lon":5.3889,"is_reserved":false,"is_disabled":false,"rental_uris":{"android":"levelo://app?vid=2efe3c3c-c10c-46a1-aa65-8bf88f7714d0","ios":"levelo://app?vid=2efe3c3c-c10c-46a1-aa65-8bf88f7714d0"},"vehicle_type_id":"4","last_reported":1709834943,"current_range_meters":26400,"station_id":"ce4bgk12rcd13ifvqbi0","pricing_plan_id":"cebpf4jnsgd1na2vs0mg"},{"bike_id":"5b62d834-ff05-47fe-bbb6-6e70a4ac52b9","system_id":"levelo_inurba_marseille","lat":43.30432,"lon":5.38888,"is_reserved":false,"is_disabled":false,"rental_uris":{"android":"levelo://app?vid=5b62d834-ff05-47fe-bbb6-6e70a4ac52b9","ios":"levelo://app?vid=5b62d834-ff05-47fe-bbb6-6e70a4ac52b9"},"vehicle_type_id":"4","last_reported":1709834943,"current_range_meters":6000,"station_id":"ce4bgk12rcd13ifvqbi0","pricing_plan_id":"cebpf4jnsgd1na2vs0mg"},{"bike_id":"cadb04d6-7d0a-4a1f-b4c4-6c1ae08b9ad6","system_id":"levelo_inurba_marseille","lat":43.304274,"lon":5.388873,"is_reserved":false,"is_disabled":false,"rental_uris":{"android":"levelo://app?vid=cadb04d6-7d0a-4a1f-b4c4-6c1ae08b9ad6","ios":"levelo://app?vid=cadb04d6-7d0a-4a1f-b4c4-6c1ae08b9ad6"},"vehicle_type_id":"4","last_reported":1709834943,"current_range_meters":15200,"station_id":"ce4bgk12rcd13ifvqbi0","pricing_plan_id":"cebpf4jnsgd1na2vs0mg"},{"bike_id":"50758912-8d02-4100-8370-55cb044e1f60","system_id":"levelo_inurba_marseille","lat":43.3043,"lon":5.38888,"is_reserved":false,"is_disabled":false,"rental_uris":{"android":"levelo://app?vid=50758912-8d02-4100-8370-55cb044e1f60","ios":"levelo://app?vid=50758912-8d02-4100-8370-55cb044e1f60"},"vehicle_type_id":"4","last_reported":1709834943,"current_range_meters":10000,"station_id":"ce4bgk12rcd13ifvqbi0","pricing_plan_id":"cebpf4jnsgd1na2vs0mg"},{"bike_id":"054594f7-95f0-43b2-ab19-6c078c9b8a88","system_id":"levelo_inurba_marseille","lat":43.298037,"lon":5.381066,"is_reserved":false,"is_disabled":false,"rental_uris":{"android":"levelo://app?vid=054594f7-95f0-43b2-ab19-6c078c9b8a88","ios":"levelo://app?vid=054594f7-95f0-43b2-ab19-6c078c9b8a88"},"vehicle_type_id":"4","last_reported":1709834943,"current_range_meters":14000,"station_id":"ce4bgip2rcd13ifvqbb0","pricing_plan_id":"cebpf4jnsgd1na2vs0mg"},{"bike_id":"707abdb3-2c17-4205-9685-79302b1cfaf7","system_id":"levelo_inurba_marseille","lat":43.30431,"lon":5.38894,"is_reserved":false,"is_disabled":false,"rental_uris":{"android":"levelo://app?vid=707abdb3-2c17-4205-9685-79302b1cfaf7","ios":"levelo://app?vid=707abdb3-2c17-4205-9685-79302b1cfaf7"},"vehicle_type_id":"4","last_reported":1709834943,"current_range_meters":4400,"station_id":"ce4bgk12rcd13ifvqbi0","pricing_plan_id":"cebpf4jnsgd1na2vs0mg"},{"bike_id":"c3f2af49-013a-4c5d-b004-e63567aae8f4","system_id":"levelo_inurba_marseille","lat":43.304274,"lon":5.388873,"is_reserved":false,"is_disabled":false,"rental_uris":{"android":"levelo://app?vid=c3f2af49-013a-4c5d-b004-e63567aae8f4","ios":"levelo://app?vid=c3f2af49-013a-4c5d-b004-e63567aae8f4"},"vehicle_type_id":"4","last_reported":1709834943,"current_range_meters":26800,"station_id":"ce4bgk12rcd13ifvqbi0","pricing_plan_id":"cebpf4jnsgd1na2vs0mg"},{"bike_id":"c62a57c5-3f3b-4642-bb8c-1cf1718d99f4","system_id":"levelo_inurba_marseille","lat":43.30432,"lon":5.38897,"is_reserved":false,"is_disabled":false,"rental_uris":{"android":"levelo://app?vid=c62a57c5-3f3b-4642-bb8c-1cf1718d99f4","ios":"levelo://app?vid=c62a57c5-3f3b-4642-bb8c-1cf1718d99f4"},"vehicle_type_id":"4","last_reported":1709834943,"current_range_meters":14400,"station_id":"ce4bgk12rcd13ifvqbi0","pricing_plan_id":"cebpf4jnsgd1na2vs0mg"},{"bike_id":"d02c877d-5f40-4f01-a5ed-b140a7c388f4","system_id":"levelo_inurba_marseille","lat":43.30426,"lon":5.38894,"is_reserved":false,"is_disabled":false,"rental_uris":{"android":"levelo://app?vid=d02c877d-5f40-4f01-a5ed-b140a7c388f4","ios":"levelo://app?vid=d02c877d-5f40-4f01-a5ed-b140a7c388f4"},"vehicle_type_id":"4","last_reported":1709834943,"current_range_meters":31200,"station_id":"ce4bgk12rcd13ifvqbi0","pricing_plan_id":"cebpf4jnsgd1na2vs0mg"},{"bike_id":"0ddbc03b-7b17-438f-825b-e9df5f5b247d","system_id":"levelo_inurba_marseille","lat":43.295279,"lon":5.375048,"is_reserved":false,"is_disabled":false,"rental_uris":{"android":"levelo://app?vid=0ddbc03b-7b17-438f-825b-e9df5f5b247d","ios":"levelo://app?vid=0ddbc03b-7b17-438f-825b-e9df5f5b247d"},"vehicle_type_id":"4","last_reported":1709834943,"current_range_meters":25600,"station_id":"ce4bgkp2rcd13ifvqbmg","pricing_plan_id":"cebpf4jnsgd1na2vs0mg"},{"bike_id":"c0dbf62a-eee2-4e6d-b692-1f1571f8c9d6","system_id":"levelo_inurba_marseille","lat":43.299707,"lon":5.384859,"is_reserved":false,"is_disabled":false,"rental_uris":{"android":"levelo://app?vid=c0dbf62a-eee2-4e6d-b692-1f1571f8c9d6","ios":"levelo://app?vid=c0dbf62a-eee2-4e6d-b692-1f1571f8c9d6"},"vehicle_type_id":"4","last_reported":1709834943,"current_range_meters":31200,"station_id":"ce4bgj92rcd13ifvqbd0","pricing_plan_id":"cebpf4jnsgd1na2vs0mg"},{"bike_id":"aacaa27b-35ea-485f-b37a-ce76564001f9","system_id":"levelo_inurba_marseille","lat":43.299707,"lon":5.384859,"is_reserved":false,"is_disabled":false,"rental_uris":{"android":"levelo://app?vid=aacaa27b-35ea-485f-b37a-ce76564001f9","ios":"levelo://app?vid=aacaa27b-35ea-485f-b37a-ce76564001f9"},"vehicle_type_id":"4","last_reported":1709834943,"current_range_meters":8800,"station_id":"ce4bgj92rcd13ifvqbd0","pricing_plan_id":"cebpf4jnsgd1na2vs0mg"},{"bike_id":"425a7442-4296-4e69-8243-76166464e8b0","system_id":"levelo_inurba_marseille","lat":43.29977,"lon":5.38491,"is_reserved":false,"is_disabled":false,"rental_uris":{"android":"levelo://app?vid=425a7442-4296-4e69-8243-76166464e8b0","ios":"levelo://app?vid=425a7442-4296-4e69-8243-76166464e8b0"},"vehicle_type_id":"4","last_reported":1709834943,"current_range_meters":30800,"station_id":"ce4bgj92rcd13ifvqbd0","pricing_plan_id":"cebpf4jnsgd1na2vs0mg"},{"bike_id":"d51ab5e0-ba10-4ac5-8be0-108c0d9d510c","system_id":"levelo_inurba_marseille","lat":43.299707,"lon":5.384859,"is_reserved":false,"is_disabled":false,"rental_uris":{"android":"levelo://app?vid=d51ab5e0-ba10-4ac5-8be0-108c0d9d510c","ios":"levelo://app?vid=d51ab5e0-ba10-4ac5-8be0-108c0d9d510c"},"vehicle_type_id":"4","last_reported":1709834943,"current_range_meters":4000,"station_id":"ce4bgj92rcd13ifvqbd0","pricing_plan_id":"cebpf4jnsgd1na2vs0mg"},{"bike_id":"4ff67627-7f54-4129-bbbc-251b416665f2","system_id":"levelo_inurba_marseille","lat":43.29975,"lon":5.38492,"is_reserved":false,"is_disabled":false,"rental_uris":{"android":"levelo://app?vid=4ff67627-7f54-4129-bbbc-251b416665f2","ios":"levelo://app?vid=4ff67627-7f54-4129-bbbc-251b416665f2"},"vehicle_type_id":"4","last_reported":1709834943,"current_range_meters":7600,"station_id":"","pricing_plan_id":"cebpf4jnsgd1na2vs0mg"},{"bike_id":"ece11338-9c03-4dea-bba1-5568196b8d03","system_id":"levelo_inurba_marseille","lat":43.299707,"lon":5.384859,"is_reserved":false,"is_disabled":false,"rental_uris":{"android":"levelo://app?vid=ece11338-9c03-4dea-bba1-5568196b8d03","ios":"levelo://app?vid=ece11338-9c03-4dea-bba1-5568196b8d03"},"vehicle_type_id":"4","last_reported":1709834943,"current_range_meters":800,"station_id":"ce4bgj92rcd13ifvqbd0","pricing_plan_id":"cebpf4jnsgd1na2vs0mg"},{"bike_id":"11ae315f-5237-411b-9d86-3485d1df8fd3","system_id":"levelo_inurba_marseille","lat":43.299707,"lon":5.384859,"is_reserved":false,"is_disabled":false,"rental_uris":{"android":"levelo://app?vid=11ae315f-5237-411b-9d86-3485d1df8fd3","ios":"levelo://app?vid=11ae315f-5237-411b-9d86-3485d1df8fd3"},"vehicle_type_id":"4","last_reported":1709834943,"current_range_meters":12800,"station_id":"ce4bgj92rcd13ifvqbd0","pricing_plan_id":"cebpf4jnsgd1na2vs0mg"},{"bike_id":"47f495a2-289d-40f6-8e63-ba5364e3daad","system_id":"levelo_inurba_marseille","lat":43.299717,"lon":5.384845,"is_reserved":false,"is_disabled":false,"rental_uris":{"android":"levelo://app?vid=47f495a2-289d-40f6-8e63-ba5364e3daad","ios":"levelo://app?vid=47f495a2-289d-40f6-8e63-ba5364e3daad"},"vehicle_type_id":"4","last_reported":1709834943,"current_range_meters":8000,"station_id":"ce4bgj92rcd13ifvqbd0","pricing_plan_id":"cebpf4jnsgd1na2vs0mg"},{"bike_id":"de053b42-a219-4d19-9a63-56f95cbfb243","system_id":"levelo_inurba_marseille","lat":43.29959,"lon":5.38495,"is_reserved":false,"is_disabled":false,"rental_uris":{"android":"levelo://app?vid=de053b42-a219-4d19-9a63-56f95cbfb243","ios":"levelo://app?vid=de053b42-a219-4d19-9a63-56f95cbfb243"},"vehicle_type_id":"4","last_reported":1709834943,"current_range_meters":18800,"station_id":"ce4bgj92rcd13ifvqbd0","pricing_plan_id":"cebpf4jnsgd1na2vs0mg"},{"bike_id":"e0c58e1b-c8a1-441b-9541-4d33d2777f42","system_id":"levelo_inurba_marseille","lat":43.29964,"lon":5.38502,"is_reserved":false,"is_disabled":false,"rental_uris":{"android":"levelo://app?vid=e0c58e1b-c8a1-441b-9541-4d33d2777f42","ios":"levelo://app?vid=e0c58e1b-c8a1-441b-9541-4d33d2777f42"},"vehicle_type_id":"4","last_reported":1709834943,"current_range_meters":7200,"station_id":"ce4bgj92rcd13ifvqbd0","pricing_plan_id":"cebpf4jnsgd1na2vs0mg"},{"bike_id":"92f9bd97-7073-4934-ad52-55ae58583ad1","system_id":"levelo_inurba_marseille","lat":43.29962,"lon":5.38508,"is_reserved":false,"is_disabled":false,"rental_uris":{"android":"levelo://app?vid=92f9bd97-7073-4934-ad52-55ae58583ad1","ios":"levelo://app?vid=92f9bd97-7073-4934-ad52-55ae58583ad1"},"vehicle_type_id":"4","last_reported":1709834943,"current_range_meters":2000,"station_id":"ce4bgj92rcd13ifvqbd0","pricing_plan_id":"cebpf4jnsgd1na2vs0mg"},{"bike_id":"4e6ecaaa-5b79-42bc-b508-7fbd8bc435bd","system_id":"levelo_inurba_marseille","lat":43.29976,"lon":5.3854,"is_reserved":false,"is_disabled":false,"rental_uris":{"android":"levelo://app?vid=4e6ecaaa-5b79-42bc-b508-7fbd8bc435bd","ios":"levelo://app?vid=4e6ecaaa-5b79-42bc-b508-7fbd8bc435bd"},"vehicle_type_id":"4","last_reported":1709834943,"current_range_meters":4800,"station_id":"ce4bgj92rcd13ifvqbd0","pricing_plan_id":"cebpf4jnsgd1na2vs0mg"},{"bike_id":"7ee2936c-eb5e-468d-8738-75e65ec6595f","system_id":"levelo_inurba_marseille","lat":43.299331,"lon":5.384944,"is_reserved":false,"is_disabled":false,"rental_uris":{"android":"levelo://app?vid=7ee2936c-eb5e-468d-8738-75e65ec6595f","ios":"levelo://app?vid=7ee2936c-eb5e-468d-8738-75e65ec6595f"},"vehicle_type_id":"4","last_reported":1709834943,"current_range_meters":19200,"station_id":"ce4bgj92rcd13ifvqbd0","pricing_plan_id":"cebpf4jnsgd1na2vs0mg"},{"bike_id":"5f2f7ac3-3e64-499f-abd9-697fe271d6d8","system_id":"levelo_inurba_marseille","lat":43.32365,"lon":5.38882,"is_reserved":false,"is_disabled":false,"rental_uris":{"android":"levelo://app?vid=5f2f7ac3-3e64-499f-abd9-697fe271d6d8","ios":"levelo://app?vid=5f2f7ac3-3e64-499f-abd9-697fe271d6d8"},"vehicle_type_id":"4","last_reported":1709834943,"current_range_meters":5600,"station_id":"ce4bhqp2rcd13ifvqhog","pricing_plan_id":"cebpf4jnsgd1na2vs0mg"},{"bike_id":"b1eadbff-6e43-4953-80e3-34adf77de178","system_id":"levelo_inurba_marseille","lat":43.32364,"lon":5.38885,"is_reserved":false,"is_disabled":false,"rental_uris":{"android":"levelo://app?vid=b1eadbff-6e43-4953-80e3-34adf77de178","ios":"levelo://app?vid=b1eadbff-6e43-4953-80e3-34adf77de178"},"vehicle_type_id":"4","last_reported":1709834943,"current_range_meters":3200,"station_id":"ce4bhqp2rcd13ifvqhog","pricing_plan_id":"cebpf4jnsgd1na2vs0mg"},{"bike_id":"ef52ec6c-d363-4170-a290-406e31ae120d","system_id":"levelo_inurba_marseille","lat":43.32367,"lon":5.388836,"is_reserved":false,"is_disabled":false,"rental_uris":{"android":"levelo://app?vid=ef52ec6c-d363-4170-a290-406e31ae120d","ios":"levelo://app?vid=ef52ec6c-d363-4170-a290-406e31ae120d"},"vehicle_type_id":"4","last_reported":1709834943,"current_range_meters":17200,"station_id":"ce4bhqp2rcd13ifvqhog","pricing_plan_id":"cebpf4jnsgd1na2vs0mg"},{"bike_id":"32cf131d-1564-4297-adb3-6e0cfb2b8f2b","system_id":"levelo_inurba_marseille","lat":43.32367,"lon":5.388836,"is_reserved":false,"is_disabled":false,"rental_uris":{"android":"levelo://app?vid=32cf131d-1564-4297-adb3-6e0cfb2b8f2b","ios":"levelo://app?vid=32cf131d-1564-4297-adb3-6e0cfb2b8f2b"},"vehicle_type_id":"4","last_reported":1709834943,"current_range_meters":8000,"station_id":"ce4bhqp2rcd13ifvqhog","pricing_plan_id":"cebpf4jnsgd1na2vs0mg"},{"bike_id":"34104afb-1ee4-439b-8ed4-567c78dcdda4","system_id":"levelo_inurba_marseille","lat":43.32367,"lon":5.388836,"is_reserved":false,"is_disabled":false,"rental_uris":{"android":"levelo://app?vid=34104afb-1ee4-439b-8ed4-567c78dcdda4","ios":"levelo://app?vid=34104afb-1ee4-439b-8ed4-567c78dcdda4"},"vehicle_type_id":"4","last_reported":1709834943,"current_range_meters":2000,"station_id":"ce4bhqp2rcd13ifvqhog","pricing_plan_id":"cebpf4jnsgd1na2vs0mg"},{"bike_id":"4531d9ad-3f5d-4a63-9e0e-478fdc380bb3","system_id":"levelo_inurba_marseille","lat":43.32367,"lon":5.388836,"is_reserved":false,"is_disabled":false,"rental_uris":{"android":"levelo://app?vid=4531d9ad-3f5d-4a63-9e0e-478fdc380bb3","ios":"levelo://app?vid=4531d9ad-3f5d-4a63-9e0e-478fdc380bb3"},"vehicle_type_id":"4","last_reported":1709834943,"current_range_meters":4400,"station_id":"ce4bhqp2rcd13ifvqhog","pricing_plan_id":"cebpf4jnsgd1na2vs0mg"},{"bike_id":"fef7fb17-8feb-442d-ada1-e933f379d802","system_id":"levelo_inurba_marseille","lat":43.32369,"lon":5.38893,"is_reserved":false,"is_disabled":false,"rental_uris":{"android":"levelo://app?vid=fef7fb17-8feb-442d-ada1-e933f379d802","ios":"levelo://app?vid=fef7fb17-8feb-442d-ada1-e933f379d802"},"vehicle_type_id":"4","last_reported":1709834943,"current_range_meters":14400,"station_id":"ce4bhqp2rcd13ifvqhog","pricing_plan_id":"cebpf4jnsgd1na2vs0mg"},{"bike_id":"58dcbe9b-4c4f-47e2-9e47-5efa79a2de18","system_id":"levelo_inurba_marseille","lat":43.2962,"lon":5.38108,"is_reserved":false,"is_disabled":false,"rental_uris":{"android":"levelo://app?vid=58dcbe9b-4c4f-47e2-9e47-5efa79a2de18","ios":"levelo://app?vid=58dcbe9b-4c4f-47e2-9e47-5efa79a2de18"},"vehicle_type_id":"4","last_reported":1709834943,"current_range_meters":0,"station_id":"ce4bgl12rcd13ifvqbo0","pricing_plan_id":"cebpf4jnsgd1na2vs0mg"},{"bike_id":"eea48fb2-756a-42cf-8377-13ad1714a5fb","system_id":"levelo_inurba_marseille","lat":43.30579,"lon":5.39206,"is_reserved":false,"is_disabled":false,"rental_uris":{"android":"levelo://app?vid=eea48fb2-756a-42cf-8377-13ad1714a5fb","ios":"levelo://app?vid=eea48fb2-756a-42cf-8377-13ad1714a5fb"},"vehicle_type_id":"4","last_reported":1709834943,"current_range_meters":0,"station_id":"","pricing_plan_id":"cebpf4jnsgd1na2vs0mg"},{"bike_id":"221db56d-e034-4286-bc4e-18f40358f4ba","system_id":"levelo_inurba_marseille","lat":43.29602,"lon":5.381084,"is_reserved":false,"is_disabled":false,"rental_uris":{"android":"levelo://app?vid=221db56d-e034-4286-bc4e-18f40358f4ba","ios":"levelo://app?vid=221db56d-e034-4286-bc4e-18f40358f4ba"},"vehicle_type_id":"4","last_reported":1709834943,"current_range_meters":6400,"station_id":"ce4bgl12rcd13ifvqbo0","pricing_plan_id":"cebpf4jnsgd1na2vs0mg"},{"bike_id":"d0b7a5ac-8adc-4bf7-8ec6-c6ea5b96b959","system_id":"levelo_inurba_marseille","lat":43.295986,"lon":5.381082,"is_reserved":false,"is_disabled":false,"rental_uris":{"android":"levelo://app?vid=d0b7a5ac-8adc-4bf7-8ec6-c6ea5b96b959","ios":"levelo://app?vid=d0b7a5ac-8adc-4bf7-8ec6-c6ea5b96b959"},"vehicle_type_id":"4","last_reported":1709834943,"current_range_meters":3600,"station_id":"ce4bgl12rcd13ifvqbo0","pricing_plan_id":"cebpf4jnsgd1na2vs0mg"},{"bike_id":"55231e97-d356-4f14-80fc-87f68389f4dc","system_id":"levelo_inurba_marseille","lat":43.293259,"lon":5.371586,"is_reserved":false,"is_disabled":false,"rental_uris":{"android":"levelo://app?vid=55231e97-d356-4f14-80fc-87f68389f4dc","ios":"levelo://app?vid=55231e97-d356-4f14-80fc-87f68389f4dc"},"vehicle_type_id":"4","last_reported":1709834943,"current_range_meters":14400,"station_id":"ce4bgh92rcd13ifvqb40","pricing_plan_id":"cebpf4jnsgd1na2vs0mg"},{"bike_id":"08dc89cd-566e-4406-8ff3-4477ce41c059","system_id":"levelo_inurba_marseille","lat":43.293259,"lon":5.371586,"is_reserved":false,"is_disabled":false,"rental_uris":{"android":"levelo://app?vid=08dc89cd-566e-4406-8ff3-4477ce41c059","ios":"levelo://app?vid=08dc89cd-566e-4406-8ff3-4477ce41c059"},"vehicle_type_id":"4","last_reported":1709834943,"current_range_meters":1200,"station_id":"ce4bgh92rcd13ifvqb40","pricing_plan_id":"cebpf4jnsgd1na2vs0mg"},{"bike_id":"066f492f-7c5a-4148-b156-80fe83af195b","system_id":"levelo_inurba_marseille","lat":43.293259,"lon":5.371586,"is_reserved":false,"is_disabled":false,"rental_uris":{"android":"levelo://app?vid=066f492f-7c5a-4148-b156-80fe83af195b","ios":"levelo://app?vid=066f492f-7c5a-4148-b156-80fe83af195b"},"vehicle_type_id":"4","last_reported":1709834943,"current_range_meters":6400,"station_id":"ce4bgh92rcd13ifvqb40","pricing_plan_id":"cebpf4jnsgd1na2vs0mg"},{"bike_id":"080bc93b-570b-4c91-a917-274df160b638","system_id":"levelo_inurba_marseille","lat":43.293259,"lon":5.371586,"is_reserved":false,"is_disabled":false,"rental_uris":{"android":"levelo://app?vid=080bc93b-570b-4c91-a917-274df160b638","ios":"levelo://app?vid=080bc93b-570b-4c91-a917-274df160b638"},"vehicle_type_id":"4","last_reported":1709834943,"current_range_meters":0,"station_id":"ce4bgh92rcd13ifvqb40","pricing_plan_id":"cebpf4jnsgd1na2vs0mg"},{"bike_id":"60090123-ea92-49c7-9767-82fcda844ff8","system_id":"levelo_inurba_marseille","lat":43.293249,"lon":5.371578,"is_reserved":false,"is_disabled":false,"rental_uris":{"android":"levelo://app?vid=60090123-ea92-49c7-9767-82fcda844ff8","ios":"levelo://app?vid=60090123-ea92-49c7-9767-82fcda844ff8"},"vehicle_type_id":"4","last_reported":1709834943,"current_range_meters":11200,"station_id":"ce4bgh92rcd13ifvqb40","pricing_plan_id":"cebpf4jnsgd1na2vs0mg"},{"bike_id":"4e2b0def-3a4f-4542-8d66-1b1c43926f35","system_id":"levelo_inurba_marseille","lat":43.293259,"lon":5.371586,"is_reserved":false,"is_disabled":false,"rental_uris":{"android":"levelo://app?vid=4e2b0def-3a4f-4542-8d66-1b1c43926f35","ios":"levelo://app?vid=4e2b0def-3a4f-4542-8d66-1b1c43926f35"},"vehicle_type_id":"4","last_reported":1709834943,"current_range_meters":1600,"station_id":"ce4bgh92rcd13ifvqb40","pricing_plan_id":"cebpf4jnsgd1na2vs0mg"},{"bike_id":"42b18fee-383d-4dc4-bc85-1f1e999dda99","system_id":"levelo_inurba_marseille","lat":43.2927,"lon":5.36835,"is_reserved":false,"is_disabled":false,"rental_uris":{"android":"levelo://app?vid=42b18fee-383d-4dc4-bc85-1f1e999dda99","ios":"levelo://app?vid=42b18fee-383d-4dc4-bc85-1f1e999dda99"},"vehicle_type_id":"4","last_reported":1709834943,"current_range_meters":24800,"station_id":"ce4bhbp2rcd13ifvqesg","pricing_plan_id":"cebpf4jnsgd1na2vs0mg"},{"bike_id":"bd09d4b8-c75a-40d8-9f02-4e1f335604d2","system_id":"levelo_inurba_marseille","lat":43.2927,"lon":5.36838,"is_reserved":false,"is_disabled":false,"rental_uris":{"android":"levelo://app?vid=bd09d4b8-c75a-40d8-9f02-4e1f335604d2","ios":"levelo://app?vid=bd09d4b8-c75a-40d8-9f02-4e1f335604d2"},"vehicle_type_id":"4","last_reported":1709834943,"current_range_meters":0,"station_id":"ce4bhbp2rcd13ifvqesg","pricing_plan_id":"cebpf4jnsgd1na2vs0mg"},{"bike_id":"69acf23f-d900-4212-b350-0b9deee58a61","system_id":"levelo_inurba_marseille","lat":43.293009,"lon":5.374584,"is_reserved":false,"is_disabled":false,"rental_uris":{"android":"levelo://app?vid=69acf23f-d900-4212-b350-0b9deee58a61","ios":"levelo://app?vid=69acf23f-d900-4212-b350-0b9deee58a61"},"vehicle_type_id":"4","last_reported":1709834943,"current_range_meters":11200,"station_id":"ce4bgi12rcd13ifvqb70","pricing_plan_id":"cebpf4jnsgd1na2vs0mg"},{"bike_id":"a0311283-19a2-487f-8e53-50c90365347c","system_id":"levelo_inurba_marseille","lat":43.293009,"lon":5.374584,"is_reserved":false,"is_disabled":false,"rental_uris":{"android":"levelo://app?vid=a0311283-19a2-487f-8e53-50c90365347c","ios":"levelo://app?vid=a0311283-19a2-487f-8e53-50c90365347c"},"vehicle_type_id":"4","last_reported":1709834943,"current_range_meters":12000,"station_id":"ce4bgi12rcd13ifvqb70","pricing_plan_id":"cebpf4jnsgd1na2vs0mg"},{"bike_id":"ae710960-b587-4acd-81ff-bbdb87a6a0ae","system_id":"levelo_inurba_marseille","lat":43.290995,"lon":5.381361,"is_reserved":false,"is_disabled":false,"rental_uris":{"android":"levelo://app?vid=ae710960-b587-4acd-81ff-bbdb87a6a0ae","ios":"levelo://app?vid=ae710960-b587-4acd-81ff-bbdb87a6a0ae"},"vehicle_type_id":"4","last_reported":1709834943,"current_range_meters":0,"station_id":"ce4bh512rcd13ifvqe2g","pricing_plan_id":"cebpf4jnsgd1na2vs0mg"},{"bike_id":"831fd5f8-2f4f-487b-ae8a-bec0d3fcd512","system_id":"levelo_inurba_marseille","lat":43.293009,"lon":5.374584,"is_reserved":false,"is_disabled":false,"rental_uris":{"android":"levelo://app?vid=831fd5f8-2f4f-487b-ae8a-bec0d3fcd512","ios":"levelo://app?vid=831fd5f8-2f4f-487b-ae8a-bec0d3fcd512"},"vehicle_type_id":"4","last_reported":1709834943,"current_range_meters":400,"station_id":"ce4bgi12rcd13ifvqb70","pricing_plan_id":"cebpf4jnsgd1na2vs0mg"},{"bike_id":"635dad50-04ec-43bc-bbc4-5747847b2e69","system_id":"levelo_inurba_marseille","lat":43.293009,"lon":5.374584,"is_reserved":false,"is_disabled":false,"rental_uris":{"android":"levelo://app?vid=635dad50-04ec-43bc-bbc4-5747847b2e69","ios":"levelo://app?vid=635dad50-04ec-43bc-bbc4-5747847b2e69"},"vehicle_type_id":"4","last_reported":1709834943,"current_range_meters":2800,"station_id":"ce4bgi12rcd13ifvqb70","pricing_plan_id":"cebpf4jnsgd1na2vs0mg"},{"bike_id":"96a9c6c8-086f-48cf-9b34-a8a73ac9d975","system_id":"levelo_inurba_marseille","lat":43.305994,"lon":5.393687,"is_reserved":false,"is_disabled":false,"rental_uris":{"android":"levelo://app?vid=96a9c6c8-086f-48cf-9b34-a8a73ac9d975","ios":"levelo://app?vid=96a9c6c8-086f-48cf-9b34-a8a73ac9d975"},"vehicle_type_id":"4","last_reported":1709834943,"current_range_meters":2800,"station_id":"ce4bh0p2rcd13ifvqd80","pricing_plan_id":"cebpf4jnsgd1na2vs0mg"},{"bike_id":"40506af9-d781-4d65-8bc4-48cbe2a519b7","system_id":"levelo_inurba_marseille","lat":43.311722,"lon":5.387247,"is_reserved":false,"is_disabled":false,"rental_uris":{"android":"levelo://app?vid=40506af9-d781-4d65-8bc4-48cbe2a519b7","ios":"levelo://app?vid=40506af9-d781-4d65-8bc4-48cbe2a519b7"},"vehicle_type_id":"4","last_reported":1709834943,"current_range_meters":9200,"station_id":"ce4bgv12rcd13ifvqcp0","pricing_plan_id":"cebpf4jnsgd1na2vs0mg"},{"bike_id":"14852aa5-57cd-4c51-92c8-3c11770de441","system_id":"levelo_inurba_marseille","lat":43.305994,"lon":5.393687,"is_reserved":false,"is_disabled":false,"rental_uris":{"android":"levelo://app?vid=14852aa5-57cd-4c51-92c8-3c11770de441","ios":"levelo://app?vid=14852aa5-57cd-4c51-92c8-3c11770de441"},"vehicle_type_id":"4","last_reported":1709834943,"current_range_meters":13600,"station_id":"ce4bh0p2rcd13ifvqd80","pricing_plan_id":"cebpf4jnsgd1na2vs0mg"},{"bike_id":"9f7a9526-2382-4bd6-8a6f-e574777c96f3","system_id":"levelo_inurba_marseille","lat":43.305994,"lon":5.393687,"is_reserved":false,"is_disabled":false,"rental_uris":{"android":"levelo://app?vid=9f7a9526-2382-4bd6-8a6f-e574777c96f3","ios":"levelo://app?vid=9f7a9526-2382-4bd6-8a6f-e574777c96f3"},"vehicle_type_id":"4","last_reported":1709834943,"current_range_meters":800,"station_id":"ce4bh0p2rcd13ifvqd80","pricing_plan_id":"cebpf4jnsgd1na2vs0mg"},{"bike_id":"35e5a675-5a76-4bd7-ae70-3d4a848ce353","system_id":"levelo_inurba_marseille","lat":43.2936,"lon":5.37835,"is_reserved":false,"is_disabled":false,"rental_uris":{"android":"levelo://app?vid=35e5a675-5a76-4bd7-ae70-3d4a848ce353","ios":"levelo://app?vid=35e5a675-5a76-4bd7-ae70-3d4a848ce353"},"vehicle_type_id":"4","last_reported":1709834943,"current_range_meters":25600,"station_id":"ce4bgjh2rcd13ifvqbf0","pricing_plan_id":"cebpf4jnsgd1na2vs0mg"},{"bike_id":"59e142a0-83e0-4177-ada0-acdd1fa2a2e9","system_id":"levelo_inurba_marseille","lat":43.29371,"lon":5.37862,"is_reserved":false,"is_disabled":false,"rental_uris":{"android":"levelo://app?vid=59e142a0-83e0-4177-ada0-acdd1fa2a2e9","ios":"levelo://app?vid=59e142a0-83e0-4177-ada0-acdd1fa2a2e9"},"vehicle_type_id":"4","last_reported":1709834943,"current_range_meters":0,"station_id":"ce4bgjh2rcd13ifvqbf0","pricing_plan_id":"cebpf4jnsgd1na2vs0mg"},{"bike_id":"8fc46f06-7685-49e9-a581-a915a7def0f8","system_id":"levelo_inurba_marseille","lat":43.2936,"lon":5.37835,"is_reserved":false,"is_disabled":false,"rental_uris":{"android":"levelo://app?vid=8fc46f06-7685-49e9-a581-a915a7def0f8","ios":"levelo://app?vid=8fc46f06-7685-49e9-a581-a915a7def0f8"},"vehicle_type_id":"4","last_reported":1709834943,"current_range_meters":27600,"station_id":"ce4bgjh2rcd13ifvqbf0","pricing_plan_id":"cebpf4jnsgd1na2vs0mg"},{"bike_id":"a3e9fb27-33fe-4151-9b91-ad87948ce77b","system_id":"levelo_inurba_marseille","lat":43.292571,"lon":5.409107,"is_reserved":false,"is_disabled":false,"rental_uris":{"android":"levelo://app?vid=a3e9fb27-33fe-4151-9b91-ad87948ce77b","ios":"levelo://app?vid=a3e9fb27-33fe-4151-9b91-ad87948ce77b"},"vehicle_type_id":"4","last_reported":1709834943,"current_range_meters":0,"station_id":"ce4bh192rcd13ifvqdc0","pricing_plan_id":"cebpf4jnsgd1na2vs0mg"},{"bike_id":"c0a63932-88de-44dd-84f8-a62555902759","system_id":"levelo_inurba_marseille","lat":43.292311,"lon":5.360731,"is_reserved":false,"is_disabled":false,"rental_uris":{"android":"levelo://app?vid=c0a63932-88de-44dd-84f8-a62555902759","ios":"levelo://app?vid=c0a63932-88de-44dd-84f8-a62555902759"},"vehicle_type_id":"4","last_reported":1709834943,"current_range_meters":17600,"station_id":"ce4bhbh2rcd13ifvqeqg","pricing_plan_id":"cebpf4jnsgd1na2vs0mg"},{"bike_id":"9d153daf-1815-4240-bf48-f44062a37914","system_id":"levelo_inurba_marseille","lat":43.301,"lon":5.39075,"is_reserved":false,"is_disabled":false,"rental_uris":{"android":"levelo://app?vid=9d153daf-1815-4240-bf48-f44062a37914","ios":"levelo://app?vid=9d153daf-1815-4240-bf48-f44062a37914"},"vehicle_type_id":"4","last_reported":1709834943,"current_range_meters":3200,"station_id":"ce4bh192rcd13ifvqdb0","pricing_plan_id":"cebpf4jnsgd1na2vs0mg"},{"bike_id":"3499a89f-afe4-4a06-93a2-a151e81cc58d","system_id":"levelo_inurba_marseille","lat":43.300852,"lon":5.390859,"is_reserved":false,"is_disabled":false,"rental_uris":{"android":"levelo://app?vid=3499a89f-afe4-4a06-93a2-a151e81cc58d","ios":"levelo://app?vid=3499a89f-afe4-4a06-93a2-a151e81cc58d"},"vehicle_type_id":"4","last_reported":1709834943,"current_range_meters":27200,"station_id":"ce4bh192rcd13ifvqdb0","pricing_plan_id":"cebpf4jnsgd1na2vs0mg"},{"bike_id":"f546e733-0c85-4b2f-82ac-6e91818a5f5a","system_id":"levelo_inurba_marseille","lat":43.30098,"lon":5.390802,"is_reserved":false,"is_disabled":false,"rental_uris":{"android":"levelo://app?vid=f546e733-0c85-4b2f-82ac-6e91818a5f5a","ios":"levelo://app?vid=f546e733-0c85-4b2f-82ac-6e91818a5f5a"},"vehicle_type_id":"4","last_reported":1709834943,"current_range_meters":22000,"station_id":"ce4bh192rcd13ifvqdb0","pricing_plan_id":"cebpf4jnsgd1na2vs0mg"},{"bike_id":"cce3c9ac-5724-47e1-86cf-285e31a97ed9","system_id":"levelo_inurba_marseille","lat":43.292278,"lon":5.360545,"is_reserved":false,"is_disabled":false,"rental_uris":{"android":"levelo://app?vid=cce3c9ac-5724-47e1-86cf-285e31a97ed9","ios":"levelo://app?vid=cce3c9ac-5724-47e1-86cf-285e31a97ed9"},"vehicle_type_id":"4","last_reported":1709834943,"current_range_meters":12800,"station_id":"ce4bhbh2rcd13ifvqeqg","pricing_plan_id":"cebpf4jnsgd1na2vs0mg"},{"bike_id":"3bd8b0c6-2e5c-40aa-aac5-398bb60dc122","system_id":"levelo_inurba_marseille","lat":43.30092,"lon":5.390763,"is_reserved":false,"is_disabled":false,"rental_uris":{"android":"levelo://app?vid=3bd8b0c6-2e5c-40aa-aac5-398bb60dc122","ios":"levelo://app?vid=3bd8b0c6-2e5c-40aa-aac5-398bb60dc122"},"vehicle_type_id":"4","last_reported":1709834943,"current_range_meters":30000,"station_id":"ce4bh192rcd13ifvqdb0","pricing_plan_id":"cebpf4jnsgd1na2vs0mg"},{"bike_id":"57402cf4-c6a2-4605-83cc-92df7197bef6","system_id":"levelo_inurba_marseille","lat":43.29227,"lon":5.36046,"is_reserved":false,"is_disabled":false,"rental_uris":{"android":"levelo://app?vid=57402cf4-c6a2-4605-83cc-92df7197bef6","ios":"levelo://app?vid=57402cf4-c6a2-4605-83cc-92df7197bef6"},"vehicle_type_id":"4","last_reported":1709834943,"current_range_meters":28400,"station_id":"ce4bhbh2rcd13ifvqeqg","pricing_plan_id":"cebpf4jnsgd1na2vs0mg"},{"bike_id":"43421eb6-6efe-4014-ae38-863e3f4c72c4","system_id":"levelo_inurba_marseille","lat":43.292221,"lon":5.360436,"is_reserved":false,"is_disabled":false,"rental_uris":{"android":"levelo://app?vid=43421eb6-6efe-4014-ae38-863e3f4c72c4","ios":"levelo://app?vid=43421eb6-6efe-4014-ae38-863e3f4c72c4"},"vehicle_type_id":"4","last_reported":1709834943,"current_range_meters":8400,"station_id":"ce4bhbh2rcd13ifvqeqg","pricing_plan_id":"cebpf4jnsgd1na2vs0mg"},{"bike_id":"c4ae27c2-144c-46c6-aac8-a05b844117db","system_id":"levelo_inurba_marseille","lat":43.298764,"lon":5.388973,"is_reserved":false,"is_disabled":false,"rental_uris":{"android":"levelo://app?vid=c4ae27c2-144c-46c6-aac8-a05b844117db","ios":"levelo://app?vid=c4ae27c2-144c-46c6-aac8-a05b844117db"},"vehicle_type_id":"4","last_reported":1709834943,"current_range_meters":22000,"station_id":"ce4bh392rcd13ifvqdl0","pricing_plan_id":"cebpf4jnsgd1na2vs0mg"},{"bike_id":"cf296181-1fbc-43ed-96aa-191c6614a1bd","system_id":"levelo_inurba_marseille","lat":43.298764,"lon":5.388973,"is_reserved":false,"is_disabled":false,"rental_uris":{"android":"levelo://app?vid=cf296181-1fbc-43ed-96aa-191c6614a1bd","ios":"levelo://app?vid=cf296181-1fbc-43ed-96aa-191c6614a1bd"},"vehicle_type_id":"4","last_reported":1709834943,"current_range_meters":9600,"station_id":"ce4bh392rcd13ifvqdl0","pricing_plan_id":"cebpf4jnsgd1na2vs0mg"},{"bike_id":"3d06c08d-eb08-43bc-ab95-ae2db2b91045","system_id":"levelo_inurba_marseille","lat":43.298764,"lon":5.388973,"is_reserved":false,"is_disabled":false,"rental_uris":{"android":"levelo://app?vid=3d06c08d-eb08-43bc-ab95-ae2db2b91045","ios":"levelo://app?vid=3d06c08d-eb08-43bc-ab95-ae2db2b91045"},"vehicle_type_id":"4","last_reported":1709834943,"current_range_meters":0,"station_id":"ce4bh392rcd13ifvqdl0","pricing_plan_id":"cebpf4jnsgd1na2vs0mg"},{"bike_id":"9b78402a-45aa-4794-b29c-877bfe1c3228","system_id":"levelo_inurba_marseille","lat":43.298764,"lon":5.388973,"is_reserved":false,"is_disabled":false,"rental_uris":{"android":"levelo://app?vid=9b78402a-45aa-4794-b29c-877bfe1c3228","ios":"levelo://app?vid=9b78402a-45aa-4794-b29c-877bfe1c3228"},"vehicle_type_id":"4","last_reported":1709834943,"current_range_meters":20800,"station_id":"ce4bh392rcd13ifvqdl0","pricing_plan_id":"cebpf4jnsgd1na2vs0mg"},{"bike_id":"862d6a9a-e612-47f8-803c-d8183f148fb5","system_id":"levelo_inurba_marseille","lat":43.291675,"lon":5.371583,"is_reserved":false,"is_disabled":false,"rental_uris":{"android":"levelo://app?vid=862d6a9a-e612-47f8-803c-d8183f148fb5","ios":"levelo://app?vid=862d6a9a-e612-47f8-803c-d8183f148fb5"},"vehicle_type_id":"4","last_reported":1709834943,"current_range_meters":17600,"station_id":"ce4bha92rcd13ifvqeh0","pricing_plan_id":"cebpf4jnsgd1na2vs0mg"},{"bike_id":"8f5715fd-c447-4b39-946b-3194868f5708","system_id":"levelo_inurba_marseille","lat":43.291675,"lon":5.371583,"is_reserved":false,"is_disabled":false,"rental_uris":{"android":"levelo://app?vid=8f5715fd-c447-4b39-946b-3194868f5708","ios":"levelo://app?vid=8f5715fd-c447-4b39-946b-3194868f5708"},"vehicle_type_id":"4","last_reported":1709834943,"current_range_meters":0,"station_id":"ce4bha92rcd13ifvqeh0","pricing_plan_id":"cebpf4jnsgd1na2vs0mg"},{"bike_id":"d4f19ff2-7011-414a-831a-a4df5fde0ac4","system_id":"levelo_inurba_marseille","lat":43.298764,"lon":5.388973,"is_reserved":false,"is_disabled":false,"rental_uris":{"android":"levelo://app?vid=d4f19ff2-7011-414a-831a-a4df5fde0ac4","ios":"levelo://app?vid=d4f19ff2-7011-414a-831a-a4df5fde0ac4"},"vehicle_type_id":"4","last_reported":1709834943,"current_range_meters":23600,"station_id":"ce4bh392rcd13ifvqdl0","pricing_plan_id":"cebpf4jnsgd1na2vs0mg"},{"bike_id":"08663a49-9fb5-4ee0-8284-0a1e8ad9fc11","system_id":"levelo_inurba_marseille","lat":43.293009,"lon":5.374584,"is_reserved":false,"is_disabled":false,"rental_uris":{"android":"levelo://app?vid=08663a49-9fb5-4ee0-8284-0a1e8ad9fc11","ios":"levelo://app?vid=08663a49-9fb5-4ee0-8284-0a1e8ad9fc11"},"vehicle_type_id":"4","last_reported":1709834943,"current_range_meters":9600,"station_id":"ce4bgi12rcd13ifvqb70","pricing_plan_id":"cebpf4jnsgd1na2vs0mg"},{"bike_id":"95df29af-5340-41b9-8969-3cd13d102315","system_id":"levelo_inurba_marseille","lat":43.298764,"lon":5.388973,"is_reserved":false,"is_disabled":false,"rental_uris":{"android":"levelo://app?vid=95df29af-5340-41b9-8969-3cd13d102315","ios":"levelo://app?vid=95df29af-5340-41b9-8969-3cd13d102315"},"vehicle_type_id":"4","last_reported":1709834943,"current_range_meters":18400,"station_id":"ce4bh392rcd13ifvqdl0","pricing_plan_id":"cebpf4jnsgd1na2vs0mg"},{"bike_id":"49aa0daa-8a88-446f-ba67-ff79ffb8d7c9","system_id":"levelo_inurba_marseille","lat":43.298764,"lon":5.388973,"is_reserved":false,"is_disabled":false,"rental_uris":{"android":"levelo://app?vid=49aa0daa-8a88-446f-ba67-ff79ffb8d7c9","ios":"levelo://app?vid=49aa0daa-8a88-446f-ba67-ff79ffb8d7c9"},"vehicle_type_id":"4","last_reported":1709834943,"current_range_meters":26000,"station_id":"ce4bh392rcd13ifvqdl0","pricing_plan_id":"cebpf4jnsgd1na2vs0mg"},{"bike_id":"3fb103d5-3bc2-480c-a852-19e1705dbc83","system_id":"levelo_inurba_marseille","lat":43.298764,"lon":5.388973,"is_reserved":false,"is_disabled":false,"rental_uris":{"android":"levelo://app?vid=3fb103d5-3bc2-480c-a852-19e1705dbc83","ios":"levelo://app?vid=3fb103d5-3bc2-480c-a852-19e1705dbc83"},"vehicle_type_id":"4","last_reported":1709834943,"current_range_meters":3600,"station_id":"ce4bh392rcd13ifvqdl0","pricing_plan_id":"cebpf4jnsgd1na2vs0mg"},{"bike_id":"7f711e3b-d2ff-4c0f-bd09-696609701ee9","system_id":"levelo_inurba_marseille","lat":43.298764,"lon":5.388973,"is_reserved":false,"is_disabled":false,"rental_uris":{"android":"levelo://app?vid=7f711e3b-d2ff-4c0f-bd09-696609701ee9","ios":"levelo://app?vid=7f711e3b-d2ff-4c0f-bd09-696609701ee9"},"vehicle_type_id":"4","last_reported":1709834943,"current_range_meters":25600,"station_id":"ce4bh392rcd13ifvqdl0","pricing_plan_id":"cebpf4jnsgd1na2vs0mg"},{"bike_id":"1facc159-7fcf-4cb1-a00b-9d974957b69e","system_id":"levelo_inurba_marseille","lat":43.298764,"lon":5.388973,"is_reserved":false,"is_disabled":false,"rental_uris":{"android":"levelo://app?vid=1facc159-7fcf-4cb1-a00b-9d974957b69e","ios":"levelo://app?vid=1facc159-7fcf-4cb1-a00b-9d974957b69e"},"vehicle_type_id":"4","last_reported":1709834943,"current_range_meters":4400,"station_id":"ce4bh392rcd13ifvqdl0","pricing_plan_id":"cebpf4jnsgd1na2vs0mg"},{"bike_id":"82cd196c-6207-4c1b-939c-e5050703b497","system_id":"levelo_inurba_marseille","lat":43.298764,"lon":5.388973,"is_reserved":false,"is_disabled":false,"rental_uris":{"android":"levelo://app?vid=82cd196c-6207-4c1b-939c-e5050703b497","ios":"levelo://app?vid=82cd196c-6207-4c1b-939c-e5050703b497"},"vehicle_type_id":"4","last_reported":1709834943,"current_range_meters":18400,"station_id":"ce4bh392rcd13ifvqdl0","pricing_plan_id":"cebpf4jnsgd1na2vs0mg"},{"bike_id":"2229a4ab-368a-42f8-ad8c-424ccc61fd8f","system_id":"levelo_inurba_marseille","lat":43.29529,"lon":5.385581,"is_reserved":false,"is_disabled":false,"rental_uris":{"android":"levelo://app?vid=2229a4ab-368a-42f8-ad8c-424ccc61fd8f","ios":"levelo://app?vid=2229a4ab-368a-42f8-ad8c-424ccc61fd8f"},"vehicle_type_id":"4","last_reported":1709834943,"current_range_meters":22800,"station_id":"ce4bgih2rcd13ifvqba0","pricing_plan_id":"cebpf4jnsgd1na2vs0mg"},{"bike_id":"ea21f3c9-85f1-4c59-bed3-561ca98bf067","system_id":"levelo_inurba_marseille","lat":43.292005,"lon":5.357875,"is_reserved":false,"is_disabled":false,"rental_uris":{"android":"levelo://app?vid=ea21f3c9-85f1-4c59-bed3-561ca98bf067","ios":"levelo://app?vid=ea21f3c9-85f1-4c59-bed3-561ca98bf067"},"vehicle_type_id":"4","last_reported":1709834943,"current_range_meters":28400,"station_id":"ce4bhb12rcd13ifvqel0","pricing_plan_id":"cebpf4jnsgd1na2vs0mg"},{"bike_id":"86e0b3d0-5198-4283-96b9-2faa0529b451","system_id":"levelo_inurba_marseille","lat":43.291994,"lon":5.357886,"is_reserved":false,"is_disabled":false,"rental_uris":{"android":"levelo://app?vid=86e0b3d0-5198-4283-96b9-2faa0529b451","ios":"levelo://app?vid=86e0b3d0-5198-4283-96b9-2faa0529b451"},"vehicle_type_id":"4","last_reported":1709834943,"current_range_meters":15600,"station_id":"ce4bhb12rcd13ifvqel0","pricing_plan_id":"cebpf4jnsgd1na2vs0mg"},{"bike_id":"31009e8f-e69c-4299-beec-2dd7771423a6","system_id":"levelo_inurba_marseille","lat":43.291994,"lon":5.357886,"is_reserved":false,"is_disabled":false,"rental_uris":{"android":"levelo://app?vid=31009e8f-e69c-4299-beec-2dd7771423a6","ios":"levelo://app?vid=31009e8f-e69c-4299-beec-2dd7771423a6"},"vehicle_type_id":"4","last_reported":1709834943,"current_range_meters":15600,"station_id":"ce4bhb12rcd13ifvqel0","pricing_plan_id":"cebpf4jnsgd1na2vs0mg"},{"bike_id":"f708068d-192b-4657-ad49-8fa7006f19c8","system_id":"levelo_inurba_marseille","lat":43.291994,"lon":5.357886,"is_reserved":false,"is_disabled":false,"rental_uris":{"android":"levelo://app?vid=f708068d-192b-4657-ad49-8fa7006f19c8","ios":"levelo://app?vid=f708068d-192b-4657-ad49-8fa7006f19c8"},"vehicle_type_id":"4","last_reported":1709834943,"current_range_meters":8000,"station_id":"ce4bhb12rcd13ifvqel0","pricing_plan_id":"cebpf4jnsgd1na2vs0mg"},{"bike_id":"6d787fd4-7f45-45ba-8c1a-f92dfcf64fe6","system_id":"levelo_inurba_marseille","lat":43.291994,"lon":5.357886,"is_reserved":false,"is_disabled":false,"rental_uris":{"android":"levelo://app?vid=6d787fd4-7f45-45ba-8c1a-f92dfcf64fe6","ios":"levelo://app?vid=6d787fd4-7f45-45ba-8c1a-f92dfcf64fe6"},"vehicle_type_id":"4","last_reported":1709834943,"current_range_meters":3600,"station_id":"ce4bhb12rcd13ifvqel0","pricing_plan_id":"cebpf4jnsgd1na2vs0mg"},{"bike_id":"daa03f31-f224-499e-9e4a-a457a0f5ff50","system_id":"levelo_inurba_marseille","lat":43.291994,"lon":5.357886,"is_reserved":false,"is_disabled":false,"rental_uris":{"android":"levelo://app?vid=daa03f31-f224-499e-9e4a-a457a0f5ff50","ios":"levelo://app?vid=daa03f31-f224-499e-9e4a-a457a0f5ff50"},"vehicle_type_id":"4","last_reported":1709834943,"current_range_meters":6800,"station_id":"ce4bhb12rcd13ifvqel0","pricing_plan_id":"cebpf4jnsgd1na2vs0mg"},{"bike_id":"f83a17c4-a839-41a7-ba86-1f753824ebd3","system_id":"levelo_inurba_marseille","lat":43.291994,"lon":5.357886,"is_reserved":false,"is_disabled":false,"rental_uris":{"android":"levelo://app?vid=f83a17c4-a839-41a7-ba86-1f753824ebd3","ios":"levelo://app?vid=f83a17c4-a839-41a7-ba86-1f753824ebd3"},"vehicle_type_id":"4","last_reported":1709834943,"current_range_meters":6800,"station_id":"ce4bhb12rcd13ifvqel0","pricing_plan_id":"cebpf4jnsgd1na2vs0mg"},{"bike_id":"14d78d9b-81fe-49b1-a127-27e707e23a48","system_id":"levelo_inurba_marseille","lat":43.291994,"lon":5.357886,"is_reserved":false,"is_disabled":false,"rental_uris":{"android":"levelo://app?vid=14d78d9b-81fe-49b1-a127-27e707e23a48","ios":"levelo://app?vid=14d78d9b-81fe-49b1-a127-27e707e23a48"},"vehicle_type_id":"4","last_reported":1709834943,"current_range_meters":25600,"station_id":"ce4bhb12rcd13ifvqel0","pricing_plan_id":"cebpf4jnsgd1na2vs0mg"},{"bike_id":"0b314766-e9ca-42ed-9166-a7bf3deae718","system_id":"levelo_inurba_marseille","lat":43.29193,"lon":5.35803,"is_reserved":false,"is_disabled":false,"rental_uris":{"android":"levelo://app?vid=0b314766-e9ca-42ed-9166-a7bf3deae718","ios":"levelo://app?vid=0b314766-e9ca-42ed-9166-a7bf3deae718"},"vehicle_type_id":"4","last_reported":1709834943,"current_range_meters":2000,"station_id":"ce4bhb12rcd13ifvqel0","pricing_plan_id":"cebpf4jnsgd1na2vs0mg"},{"bike_id":"22dda7e1-e140-448f-8aa1-1ba361ee4100","system_id":"levelo_inurba_marseille","lat":43.291994,"lon":5.357886,"is_reserved":false,"is_disabled":false,"rental_uris":{"android":"levelo://app?vid=22dda7e1-e140-448f-8aa1-1ba361ee4100","ios":"levelo://app?vid=22dda7e1-e140-448f-8aa1-1ba361ee4100"},"vehicle_type_id":"4","last_reported":1709834943,"current_range_meters":30800,"station_id":"ce4bhb12rcd13ifvqel0","pricing_plan_id":"cebpf4jnsgd1na2vs0mg"},{"bike_id":"6a7d0ea8-1810-423e-8254-93fafbd718a8","system_id":"levelo_inurba_marseille","lat":43.308891,"lon":5.396421,"is_reserved":false,"is_disabled":false,"rental_uris":{"android":"levelo://app?vid=6a7d0ea8-1810-423e-8254-93fafbd718a8","ios":"levelo://app?vid=6a7d0ea8-1810-423e-8254-93fafbd718a8"},"vehicle_type_id":"4","last_reported":1709834943,"current_range_meters":27200,"station_id":"ce4bh012rcd13ifvqcv0","pricing_plan_id":"cebpf4jnsgd1na2vs0mg"},{"bike_id":"91c986ae-76e4-4c1a-af04-1b51b9765cc3","system_id":"levelo_inurba_marseille","lat":43.313291,"lon":5.396838,"is_reserved":false,"is_disabled":false,"rental_uris":{"android":"levelo://app?vid=91c986ae-76e4-4c1a-af04-1b51b9765cc3","ios":"levelo://app?vid=91c986ae-76e4-4c1a-af04-1b51b9765cc3"},"vehicle_type_id":"4","last_reported":1709834943,"current_range_meters":0,"station_id":"ce4bgvp2rcd13ifvqcu0","pricing_plan_id":"cebpf4jnsgd1na2vs0mg"},{"bike_id":"8b0bbdcc-e511-4906-a077-02deb4d4a8ac","system_id":"levelo_inurba_marseille","lat":43.291994,"lon":5.357886,"is_reserved":false,"is_disabled":false,"rental_uris":{"android":"levelo://app?vid=8b0bbdcc-e511-4906-a077-02deb4d4a8ac","ios":"levelo://app?vid=8b0bbdcc-e511-4906-a077-02deb4d4a8ac"},"vehicle_type_id":"4","last_reported":1709834943,"current_range_meters":12400,"station_id":"ce4bhb12rcd13ifvqel0","pricing_plan_id":"cebpf4jnsgd1na2vs0mg"},{"bike_id":"ec7b07cc-ec3c-46bb-bca9-51451ed9f614","system_id":"levelo_inurba_marseille","lat":43.313291,"lon":5.396838,"is_reserved":false,"is_disabled":false,"rental_uris":{"android":"levelo://app?vid=ec7b07cc-ec3c-46bb-bca9-51451ed9f614","ios":"levelo://app?vid=ec7b07cc-ec3c-46bb-bca9-51451ed9f614"},"vehicle_type_id":"4","last_reported":1709834943,"current_range_meters":27200,"station_id":"ce4bgvp2rcd13ifvqcu0","pricing_plan_id":"cebpf4jnsgd1na2vs0mg"},{"bike_id":"46189881-14d9-43d2-bbbb-6d33b9b376ba","system_id":"levelo_inurba_marseille","lat":43.291994,"lon":5.357886,"is_reserved":false,"is_disabled":false,"rental_uris":{"android":"levelo://app?vid=46189881-14d9-43d2-bbbb-6d33b9b376ba","ios":"levelo://app?vid=46189881-14d9-43d2-bbbb-6d33b9b376ba"},"vehicle_type_id":"4","last_reported":1709834943,"current_range_meters":1600,"station_id":"ce4bhb12rcd13ifvqel0","pricing_plan_id":"cebpf4jnsgd1na2vs0mg"},{"bike_id":"35a208f0-613a-4912-9844-b1147f72f5d5","system_id":"levelo_inurba_marseille","lat":43.313291,"lon":5.396838,"is_reserved":false,"is_disabled":false,"rental_uris":{"android":"levelo://app?vid=35a208f0-613a-4912-9844-b1147f72f5d5","ios":"levelo://app?vid=35a208f0-613a-4912-9844-b1147f72f5d5"},"vehicle_type_id":"4","last_reported":1709834943,"current_range_meters":20000,"station_id":"ce4bgvp2rcd13ifvqcu0","pricing_plan_id":"cebpf4jnsgd1na2vs0mg"},{"bike_id":"be5fd6c0-bbcc-45bd-85a6-fa865fe8a964","system_id":"levelo_inurba_marseille","lat":43.30881,"lon":5.39649,"is_reserved":false,"is_disabled":false,"rental_uris":{"android":"levelo://app?vid=be5fd6c0-bbcc-45bd-85a6-fa865fe8a964","ios":"levelo://app?vid=be5fd6c0-bbcc-45bd-85a6-fa865fe8a964"},"vehicle_type_id":"4","last_reported":1709834943,"current_range_meters":18800,"station_id":"ce4bh012rcd13ifvqcv0","pricing_plan_id":"cebpf4jnsgd1na2vs0mg"},{"bike_id":"8bbff541-1cbe-4c16-9a0e-3e56f699f5b9","system_id":"levelo_inurba_marseille","lat":43.313291,"lon":5.396838,"is_reserved":false,"is_disabled":false,"rental_uris":{"android":"levelo://app?vid=8bbff541-1cbe-4c16-9a0e-3e56f699f5b9","ios":"levelo://app?vid=8bbff541-1cbe-4c16-9a0e-3e56f699f5b9"},"vehicle_type_id":"4","last_reported":1709834943,"current_range_meters":0,"station_id":"ce4bgvp2rcd13ifvqcu0","pricing_plan_id":"cebpf4jnsgd1na2vs0mg"},{"bike_id":"6714960c-5a43-4fc6-a7d1-da88dcce1c03","system_id":"levelo_inurba_marseille","lat":43.29182,"lon":5.35805,"is_reserved":false,"is_disabled":false,"rental_uris":{"android":"levelo://app?vid=6714960c-5a43-4fc6-a7d1-da88dcce1c03","ios":"levelo://app?vid=6714960c-5a43-4fc6-a7d1-da88dcce1c03"},"vehicle_type_id":"4","last_reported":1709834943,"current_range_meters":31200,"station_id":"ce4bhb12rcd13ifvqel0","pricing_plan_id":"cebpf4jnsgd1na2vs0mg"},{"bike_id":"05922845-820e-48fd-af39-0f4e61d53c17","system_id":"levelo_inurba_marseille","lat":43.309038,"lon":5.396546,"is_reserved":false,"is_disabled":false,"rental_uris":{"android":"levelo://app?vid=05922845-820e-48fd-af39-0f4e61d53c17","ios":"levelo://app?vid=05922845-820e-48fd-af39-0f4e61d53c17"},"vehicle_type_id":"4","last_reported":1709834943,"current_range_meters":27600,"station_id":"ce4bh012rcd13ifvqcv0","pricing_plan_id":"cebpf4jnsgd1na2vs0mg"},{"bike_id":"30495f6a-4177-407d-9cf6-355c79508edc","system_id":"levelo_inurba_marseille","lat":43.30886,"lon":5.39657,"is_reserved":false,"is_disabled":false,"rental_uris":{"android":"levelo://app?vid=30495f6a-4177-407d-9cf6-355c79508edc","ios":"levelo://app?vid=30495f6a-4177-407d-9cf6-355c79508edc"},"vehicle_type_id":"4","last_reported":1709834943,"current_range_meters":17200,"station_id":"ce4bh012rcd13ifvqcv0","pricing_plan_id":"cebpf4jnsgd1na2vs0mg"},{"bike_id":"011635af-a813-42bd-b0a6-14e07a7ac03c","system_id":"levelo_inurba_marseille","lat":43.30887,"lon":5.39658,"is_reserved":false,"is_disabled":false,"rental_uris":{"android":"levelo://app?vid=011635af-a813-42bd-b0a6-14e07a7ac03c","ios":"levelo://app?vid=011635af-a813-42bd-b0a6-14e07a7ac03c"},"vehicle_type_id":"4","last_reported":1709834943,"current_range_meters":14800,"station_id":"ce4bh012rcd13ifvqcv0","pricing_plan_id":"cebpf4jnsgd1na2vs0mg"},{"bike_id":"3d57b1c6-64f3-4890-8b3f-80e49c2178ef","system_id":"levelo_inurba_marseille","lat":43.313291,"lon":5.396838,"is_reserved":false,"is_disabled":false,"rental_uris":{"android":"levelo://app?vid=3d57b1c6-64f3-4890-8b3f-80e49c2178ef","ios":"levelo://app?vid=3d57b1c6-64f3-4890-8b3f-80e49c2178ef"},"vehicle_type_id":"4","last_reported":1709834943,"current_range_meters":8400,"station_id":"ce4bgvp2rcd13ifvqcu0","pricing_plan_id":"cebpf4jnsgd1na2vs0mg"},{"bike_id":"984203b6-24eb-4c14-997e-43752b3107ab","system_id":"levelo_inurba_marseille","lat":43.309038,"lon":5.396546,"is_reserved":false,"is_disabled":false,"rental_uris":{"android":"levelo://app?vid=984203b6-24eb-4c14-997e-43752b3107ab","ios":"levelo://app?vid=984203b6-24eb-4c14-997e-43752b3107ab"},"vehicle_type_id":"4","last_reported":1709834943,"current_range_meters":3200,"station_id":"ce4bh012rcd13ifvqcv0","pricing_plan_id":"cebpf4jnsgd1na2vs0mg"},{"bike_id":"aebe68af-6e6b-4577-b7ba-bfb13b7734cb","system_id":"levelo_inurba_marseille","lat":43.29529,"lon":5.385581,"is_reserved":false,"is_disabled":false,"rental_uris":{"android":"levelo://app?vid=aebe68af-6e6b-4577-b7ba-bfb13b7734cb","ios":"levelo://app?vid=aebe68af-6e6b-4577-b7ba-bfb13b7734cb"},"vehicle_type_id":"4","last_reported":1709834943,"current_range_meters":15200,"station_id":"ce4bgih2rcd13ifvqba0","pricing_plan_id":"cebpf4jnsgd1na2vs0mg"},{"bike_id":"d6c1288a-5ead-40c7-a406-c18022798f2f","system_id":"levelo_inurba_marseille","lat":43.29529,"lon":5.385581,"is_reserved":false,"is_disabled":false,"rental_uris":{"android":"levelo://app?vid=d6c1288a-5ead-40c7-a406-c18022798f2f","ios":"levelo://app?vid=d6c1288a-5ead-40c7-a406-c18022798f2f"},"vehicle_type_id":"4","last_reported":1709834943,"current_range_meters":12000,"station_id":"ce4bgih2rcd13ifvqba0","pricing_plan_id":"cebpf4jnsgd1na2vs0mg"},{"bike_id":"9959b2ce-90d8-48c6-8533-c375bb488446","system_id":"levelo_inurba_marseille","lat":43.29529,"lon":5.385581,"is_reserved":false,"is_disabled":false,"rental_uris":{"android":"levelo://app?vid=9959b2ce-90d8-48c6-8533-c375bb488446","ios":"levelo://app?vid=9959b2ce-90d8-48c6-8533-c375bb488446"},"vehicle_type_id":"4","last_reported":1709834943,"current_range_meters":11600,"station_id":"ce4bgih2rcd13ifvqba0","pricing_plan_id":"cebpf4jnsgd1na2vs0mg"},{"bike_id":"3e012a1e-93f3-45e0-ab19-2a18b0f3704d","system_id":"levelo_inurba_marseille","lat":43.291994,"lon":5.357886,"is_reserved":false,"is_disabled":false,"rental_uris":{"android":"levelo://app?vid=3e012a1e-93f3-45e0-ab19-2a18b0f3704d","ios":"levelo://app?vid=3e012a1e-93f3-45e0-ab19-2a18b0f3704d"},"vehicle_type_id":"4","last_reported":1709834943,"current_range_meters":10400,"station_id":"ce4bhb12rcd13ifvqel0","pricing_plan_id":"cebpf4jnsgd1na2vs0mg"},{"bike_id":"a7afa684-2ac3-4ad4-bf4b-3fae6a594b79","system_id":"levelo_inurba_marseille","lat":43.29529,"lon":5.385581,"is_reserved":false,"is_disabled":false,"rental_uris":{"android":"levelo://app?vid=a7afa684-2ac3-4ad4-bf4b-3fae6a594b79","ios":"levelo://app?vid=a7afa684-2ac3-4ad4-bf4b-3fae6a594b79"},"vehicle_type_id":"4","last_reported":1709834943,"current_range_meters":15600,"station_id":"ce4bgih2rcd13ifvqba0","pricing_plan_id":"cebpf4jnsgd1na2vs0mg"},{"bike_id":"29284114-17a0-4618-aa91-6a7703cad97d","system_id":"levelo_inurba_marseille","lat":43.29529,"lon":5.385581,"is_reserved":false,"is_disabled":false,"rental_uris":{"android":"levelo://app?vid=29284114-17a0-4618-aa91-6a7703cad97d","ios":"levelo://app?vid=29284114-17a0-4618-aa91-6a7703cad97d"},"vehicle_type_id":"4","last_reported":1709834943,"current_range_meters":8400,"station_id":"ce4bgih2rcd13ifvqba0","pricing_plan_id":"cebpf4jnsgd1na2vs0mg"},{"bike_id":"9625ab19-b47c-4692-9390-0f20ec865f75","system_id":"levelo_inurba_marseille","lat":43.29532,"lon":5.38544,"is_reserved":false,"is_disabled":false,"rental_uris":{"android":"levelo://app?vid=9625ab19-b47c-4692-9390-0f20ec865f75","ios":"levelo://app?vid=9625ab19-b47c-4692-9390-0f20ec865f75"},"vehicle_type_id":"4","last_reported":1709834943,"current_range_meters":24000,"station_id":"ce4bgih2rcd13ifvqba0","pricing_plan_id":"cebpf4jnsgd1na2vs0mg"},{"bike_id":"79471986-fdec-4147-b78f-fd3b1bcec6db","system_id":"levelo_inurba_marseille","lat":43.29529,"lon":5.385581,"is_reserved":false,"is_disabled":false,"rental_uris":{"android":"levelo://app?vid=79471986-fdec-4147-b78f-fd3b1bcec6db","ios":"levelo://app?vid=79471986-fdec-4147-b78f-fd3b1bcec6db"},"vehicle_type_id":"4","last_reported":1709834943,"current_range_meters":24800,"station_id":"ce4bgih2rcd13ifvqba0","pricing_plan_id":"cebpf4jnsgd1na2vs0mg"},{"bike_id":"0348e0b8-6903-4714-8855-242a3a60c408","system_id":"levelo_inurba_marseille","lat":43.29534,"lon":5.38549,"is_reserved":false,"is_disabled":false,"rental_uris":{"android":"levelo://app?vid=0348e0b8-6903-4714-8855-242a3a60c408","ios":"levelo://app?vid=0348e0b8-6903-4714-8855-242a3a60c408"},"vehicle_type_id":"4","last_reported":1709834943,"current_range_meters":17600,"station_id":"ce4bgih2rcd13ifvqba0","pricing_plan_id":"cebpf4jnsgd1na2vs0mg"},{"bike_id":"f41c0b92-d7ed-4cc0-be15-0e39d1a64014","system_id":"levelo_inurba_marseille","lat":43.29531,"lon":5.38546,"is_reserved":false,"is_disabled":false,"rental_uris":{"android":"levelo://app?vid=f41c0b92-d7ed-4cc0-be15-0e39d1a64014","ios":"levelo://app?vid=f41c0b92-d7ed-4cc0-be15-0e39d1a64014"},"vehicle_type_id":"4","last_reported":1709834943,"current_range_meters":800,"station_id":"ce4bgih2rcd13ifvqba0","pricing_plan_id":"cebpf4jnsgd1na2vs0mg"},{"bike_id":"006182fc-b33c-4021-bd0d-1aba98d08401","system_id":"levelo_inurba_marseille","lat":43.29529,"lon":5.385581,"is_reserved":false,"is_disabled":false,"rental_uris":{"android":"levelo://app?vid=006182fc-b33c-4021-bd0d-1aba98d08401","ios":"levelo://app?vid=006182fc-b33c-4021-bd0d-1aba98d08401"},"vehicle_type_id":"4","last_reported":1709834943,"current_range_meters":17600,"station_id":"ce4bgih2rcd13ifvqba0","pricing_plan_id":"cebpf4jnsgd1na2vs0mg"},