{"last_updated":1769181343,"ttl":60,"version":"2.2","data":{"bikes":[{"bike_id":"ee75d16a-1c10-4c1e-911b-79dcb98f4093","system_id":"levelo_inurba_marseille","lat":43.27907,"lon":5.39586,"is_reserved":false,"is_disabled":false,"rental_uris":{"android":"levelo://app?vid=ee75d16a-1c10-4c1e-911b-79dcb98f4093","ios":"levelo://app?vid=ee75d16a-1c10-4c1e-911b-79dcb98f4093"},"vehicle_type_id":"4","last_reported":1769181343,"current_range_meters":2800,"station_id":"ce4bhf92rcd13ifvqf40","pricing_plan_id":"cebpf4jnsgd1na2vs0mg"},{"bike_id":"090da4bf-e1ff-427c-b741-8d3293006606","system_id":"levelo_inurba_marseille","lat":43.23183,"lon":5.35541,"is_reserved":false,"is_disabled":false,"rental_uris":{"android":"levelo://app?vid=090da4bf-e1ff-427c-b741-8d3293006606","ios":"levelo://app?vid=090da4bf-e1ff-427c-b741-8d3293006606"},"vehicle_type_id":"4","last_reported":1769181343,"current_range_meters":2800,"station_id":"ce4bhu92rcd13ifvqi70","pricing_plan_id":"cebpf4jnsgd1na2vs0mg"},{"bike_id":"4de26ba9-5d23-481e-8471-b5172dd55178","system_id":"levelo_inurba_marseille","lat":43.26369,"lon":5.4108,"is_reserved":false,"is_disabled":false,"rental_uris":{"android":"levelo://app?vid=4de26ba9-5d23-481e-8471-b5172dd55178","ios":"levelo://app?vid=4de26ba9-5d23-481e-8471-b5172dd55178"},"vehicle_type_id":"4","last_reported":1769181343,"current_range_meters":2800,"station_id":"st_d4e5ca6na9uc73bfl5fg","pricing_plan_id":"cebpf4jnsgd1na2vs0mg"},{"bike_id":"983dfa04-9e71-401d-b498-feaefa1c2d24","system_id":"levelo_inurba_marseille","lat":43.27006,"lon":5.39242,"is_reserved":false,"is_disabled":false,"rental_uris":{"android":"levelo://app?vid=983dfa04-9e71-401d-b498-feaefa1c2d24","ios":"levelo://app?vid=983dfa04-9e71-401d-b498-feaefa1c2d24"},"vehicle_type_id":"4","last_reported":1769181343,"current_range_meters":2800,"station_id":"","pricing_plan_id":"cebpf4jnsgd1na2vs0mg"},{"bike_id":"eb4b9d36-8b52-49e0-bdee-0fea157e0312","system_id":"levelo_inurba_marseille","lat":43.30428,"lon":5.38887,"is_reserved":false,"is_disabled":false,"rental_uris":{"android":"levelo://app?vid=eb4b9d36-8b52-49e0-bdee-0fea157e0312","ios":"levelo://app?vid=eb4b9d36-8b52-49e0-bdee-0fea157e0312"},"vehicle_type_id":"4","last_reported":1769181343,"current_range_meters":2800,"station_id":"ce4bgk12rcd13ifvqbi0","pricing_plan_id":"cebpf4jnsgd1na2vs0mg"},{"bike_id":"abaa5a8e-dd2b-4aaf-9d0f-501988a758cd","system_id":"levelo_inurba_marseille","lat":43.28402,"lon":5.37532,"is_reserved":false,"is_disabled":false,"rental_uris":{"android":"levelo://app?vid=abaa5a8e-dd2b-4aaf-9d0f-501988a758cd","ios":"levelo://app?vid=abaa5a8e-dd2b-4aaf-9d0f-501988a758cd"},"vehicle_type_id":"4","last_reported":1769181343,"current_range_meters":2800,"station_id":"ce4bh412rcd13ifvqds0","pricing_plan_id":"cebpf4jnsgd1na2vs0mg"},{"bike_id":"3b364841-63d1-4d4f-bb34-83c89b251a49","system_id":"levelo_inurba_marseille","lat":43.308905,"lon":5.372013,"is_reserved":false,"is_disabled":false,"rental_uris":{"android":"levelo://app?vid=3b364841-63d1-4d4f-bb34-83c89b251a49","ios":"levelo://app?vid=3b364841-63d1-4d4f-bb34-83c89b251a49"},"vehicle_type_id":"4","last_reported":1769181343,"current_range_meters":2800,"station_id":"ce4bguh2rcd13ifvqckg","pricing_plan_id":"cebpf4jnsgd1na2vs0mg"},{"bike_id":"c7787279-dfd5-4b81-b413-3d26395ee6e9","system_id":"levelo_inurba_marseille","lat":43.29523,"lon":5.39038,"is_reserved":false,"is_disabled":false,"rental_uris":{"android":"levelo://app?vid=c7787279-dfd5-4b81-b413-3d26395ee6e9","ios":"levelo://app?vid=c7787279-dfd5-4b81-b413-3d26395ee6e9"},"vehicle_type_id":"4","last_reported":1769181343,"current_range_meters":2800,"station_id":"ce4bh3p2rcd13ifvqdp0","pricing_plan_id":"cebpf4jnsgd1na2vs0mg"},{"bike_id":"6cde08db-2d60-4fc0-a7d5-505f4f93c6d4","system_id":"levelo_inurba_marseille","lat":43.335479,"lon":5.374631,"is_reserved":false,"is_disabled":false,"rental_uris":{"android":"levelo://app?vid=6cde08db-2d60-4fc0-a7d5-505f4f93c6d4","ios":"levelo://app?vid=6cde08db-2d60-4fc0-a7d5-505f4f93c6d4"},"vehicle_type_id":"4","last_reported":1769181343,"current_range_meters":2800,"station_id":"st_d46tts09ee8s73dlu43g","pricing_plan_id":"cebpf4jnsgd1na2vs0mg"},{"bike_id":"71a83f56-b8e6-4a2c-80b2-a1fc36018cb0","system_id":"levelo_inurba_marseille","lat":43.28925,"lon":5.38401,"is_reserved":false,"is_disabled":false,"rental_uris":{"android":"levelo://app?vid=71a83f56-b8e6-4a2c-80b2-a1fc36018cb0","ios":"levelo://app?vid=71a83f56-b8e6-4a2c-80b2-a1fc36018cb0"},"vehicle_type_id":"4","last_reported":1769181343,"current_range_meters":2800,"station_id":"ce4bh612rcd13ifvqe6g","pricing_plan_id":"cebpf4jnsgd1na2vs0mg"},{"bike_id":"2bd7b052-198e-4662-8aa6-61b0cac79738","system_id":"levelo_inurba_marseille","lat":43.27295,"lon":5.39087,"is_reserved":false,"is_disabled":false,"rental_uris":{"android":"levelo://app?vid=2bd7b052-198e-4662-8aa6-61b0cac79738","ios":"levelo://app?vid=2bd7b052-198e-4662-8aa6-61b0cac79738"},"vehicle_type_id":"4","last_reported":1769181343,"current_range_meters":2800,"station_id":"ce4bhgp2rcd13ifvqfe0","pricing_plan_id":"cebpf4jnsgd1na2vs0mg"},{"bike_id":"dfb6b791-badd-4621-9306-ea3c833e2455","system_id":"levelo_inurba_marseille","lat":43.32696,"lon":5.40848,"is_reserved":false,"is_disabled":false,"rental_uris":{"android":"levelo://app?vid=dfb6b791-badd-4621-9306-ea3c833e2455","ios":"levelo://app?vid=dfb6b791-badd-4621-9306-ea3c833e2455"},"vehicle_type_id":"4","last_reported":1769181343,"current_range_meters":2800,"station_id":"","pricing_plan_id":"cebpf4jnsgd1na2vs0mg"},{"bike_id":"e726a595-d783-4aca-abf1-2027c976f3e0","system_id":"levelo_inurba_marseille","lat":43.3055,"lon":5.3657,"is_reserved":false,"is_disabled":false,"rental_uris":{"android":"levelo://app?vid=e726a595-d783-4aca-abf1-2027c976f3e0","ios":"levelo://app?vid=e726a595-d783-4aca-abf1-2027c976f3e0"},"vehicle_type_id":"4","last_reported":1769181343,"current_range_meters":2800,"station_id":"ce4bgs12rcd13ifvqcag","pricing_plan_id":"cebpf4jnsgd1na2vs0mg"},{"bike_id":"3e2deb9e-e71a-4d11-940d-76cd444019bd","system_id":"levelo_inurba_marseille","lat":43.30113,"lon":5.43115,"is_reserved":false,"is_disabled":false,"rental_uris":{"android":"levelo://app?vid=3e2deb9e-e71a-4d11-940d-76cd444019bd","ios":"levelo://app?vid=3e2deb9e-e71a-4d11-940d-76cd444019bd"},"vehicle_type_id":"4","last_reported":1769181343,"current_range_meters":3200,"station_id":"st_d3js3co5814s73ftftug","pricing_plan_id":"cebpf4jnsgd1na2vs0mg"},{"bike_id":"90986cae-dfb6-4673-bf77-446d46274004","system_id":"levelo_inurba_marseille","lat":43.28534,"lon":5.44089,"is_reserved":false,"is_disabled":false,"rental_uris":{"android":"levelo://app?vid=90986cae-dfb6-4673-bf77-446d46274004","ios":"levelo://app?vid=90986cae-dfb6-4673-bf77-446d46274004"},"vehicle_type_id":"4","last_reported":1769181343,"current_range_meters":3200,"station_id":"st_d3j3df2ikq2c7380ej80","pricing_plan_id":"cebpf4jnsgd1na2vs0mg"},{"bike_id":"1850841b-646c-41b2-acb1-5ed7f28164ea","system_id":"levelo_inurba_marseille","lat":43.26,"lon":5.40858,"is_reserved":false,"is_disabled":false,"rental_uris":{"android":"levelo://app?vid=1850841b-646c-41b2-acb1-5ed7f28164ea","ios":"levelo://app?vid=1850841b-646c-41b2-acb1-5ed7f28164ea"},"vehicle_type_id":"4","last_reported":1769181343,"current_range_meters":3200,"station_id":"ce4bhm92rcd13ifvqglg","pricing_plan_id":"cebpf4jnsgd1na2vs0mg"},{"bike_id":"9bcc74ff-bb21-459b-8c89-b1049e46743c","system_id":"levelo_inurba_marseille","lat":43.24632,"lon":5.43155,"is_reserved":false,"is_disabled":false,"rental_uris":{"android":"levelo://app?vid=9bcc74ff-bb21-459b-8c89-b1049e46743c","ios":"levelo://app?vid=9bcc74ff-bb21-459b-8c89-b1049e46743c"},"vehicle_type_id":"4","last_reported":1769181343,"current_range_meters":3200,"station_id":"st_d2m6c4gdas8pm72e190g","pricing_plan_id":"cebpf4jnsgd1na2vs0mg"},{"bike_id":"79382a13-73b2-4905-a43a-d90cfde55d8b","system_id":"levelo_inurba_marseille","lat":43.27561,"lon":5.3841,"is_reserved":false,"is_disabled":false,"rental_uris":{"android":"levelo://app?vid=79382a13-73b2-4905-a43a-d90cfde55d8b","ios":"levelo://app?vid=79382a13-73b2-4905-a43a-d90cfde55d8b"},"vehicle_type_id":"4","last_reported":1769181343,"current_range_meters":3200,"station_id":"ce4bhh92rcd13ifvqfi0","pricing_plan_id":"cebpf4jnsgd1na2vs0mg"},{"bike_id":"c9c91417-1c93-40bd-ac7d-c76d147f675b","system_id":"levelo_inurba_marseille","lat":43.25003,"lon":5.38919,"is_reserved":false,"is_disabled":false,"rental_uris":{"android":"levelo://app?vid=c9c91417-1c93-40bd-ac7d-c76d147f675b","ios":"levelo://app?vid=c9c91417-1c93-40bd-ac7d-c76d147f675b"},"vehicle_type_id":"4","last_reported":1769181343,"current_range_meters":3200,"station_id":"ce4bhgp2rcd13ifvqfd0","pricing_plan_id":"cebpf4jnsgd1na2vs0mg"},{"bike_id":"72fafb96-f297-4dfe-9661-167cd14b85bc","system_id":"levelo_inurba_marseille","lat":43.305412,"lon":5.365421,"is_reserved":false,"is_disabled":false,"rental_uris":{"android":"levelo://app?vid=72fafb96-f297-4dfe-9661-167cd14b85bc","ios":"levelo://app?vid=72fafb96-f297-4dfe-9661-167cd14b85bc"},"vehicle_type_id":"4","last_reported":1769181343,"current_range_meters":3200,"station_id":"ce4bgs12rcd13ifvqcag","pricing_plan_id":"cebpf4jnsgd1na2vs0mg"},{"bike_id":"e996fa48-9261-4f3d-8781-09bf2dada1a2","system_id":"levelo_inurba_marseille","lat":43.31074,"lon":5.38343,"is_reserved":false,"is_disabled":false,"rental_uris":{"android":"levelo://app?vid=e996fa48-9261-4f3d-8781-09bf2dada1a2","ios":"levelo://app?vid=e996fa48-9261-4f3d-8781-09bf2dada1a2"},"vehicle_type_id":"4","last_reported":1769181343,"current_range_meters":3200,"station_id":"ce4bgv92rcd13ifvqcr0","pricing_plan_id":"cebpf4jnsgd1na2vs0mg"},{"bike_id":"c6df5a11-88ac-4c2d-966f-46bd5174cf60","system_id":"levelo_inurba_marseille","lat":43.28193,"lon":5.42639,"is_reserved":false,"is_disabled":false,"rental_uris":{"android":"levelo://app?vid=c6df5a11-88ac-4c2d-966f-46bd5174cf60","ios":"levelo://app?vid=c6df5a11-88ac-4c2d-966f-46bd5174cf60"},"vehicle_type_id":"4","last_reported":1769181343,"current_range_meters":3600,"station_id":"ce4bhnh2rcd13ifvqgug","pricing_plan_id":"cebpf4jnsgd1na2vs0mg"},{"bike_id":"6055bb6e-3d5f-4359-bcc3-e96115ee8c1f","system_id":"levelo_inurba_marseille","lat":43.25569,"lon":5.38228,"is_reserved":false,"is_disabled":false,"rental_uris":{"android":"levelo://app?vid=6055bb6e-3d5f-4359-bcc3-e96115ee8c1f","ios":"levelo://app?vid=6055bb6e-3d5f-4359-bcc3-e96115ee8c1f"},"vehicle_type_id":"4","last_reported":1769181343,"current_range_meters":3600,"station_id":"ce4bhih2rcd13ifvqfs0","pricing_plan_id":"cebpf4jnsgd1na2vs0mg"},{"bike_id":"a1cf0267-a9c6-4cb7-b49a-598a4cc67209","system_id":"levelo_inurba_marseille","lat":43.231897,"lon":5.355419,"is_reserved":false,"is_disabled":false,"rental_uris":{"android":"levelo://app?vid=a1cf0267-a9c6-4cb7-b49a-598a4cc67209","ios":"levelo://app?vid=a1cf0267-a9c6-4cb7-b49a-598a4cc67209"},"vehicle_type_id":"4","last_reported":1769181343,"current_range_meters":3600,"station_id":"ce4bhu92rcd13ifvqi70","pricing_plan_id":"cebpf4jnsgd1na2vs0mg"},{"bike_id":"0aabe37f-1399-470b-9992-151b41718e39","system_id":"levelo_inurba_marseille","lat":43.29923,"lon":5.37469,"is_reserved":false,"is_disabled":false,"rental_uris":{"android":"levelo://app?vid=0aabe37f-1399-470b-9992-151b41718e39","ios":"levelo://app?vid=0aabe37f-1399-470b-9992-151b41718e39"},"vehicle_type_id":"4","last_reported":1769181343,"current_range_meters":3600,"station_id":"ce4bgjh2rcd13ifvqbg0","pricing_plan_id":"cebpf4jnsgd1na2vs0mg"},{"bike_id":"28b0ee13-bea5-4907-a1a4-3c3f9ad9d835","system_id":"levelo_inurba_marseille","lat":43.265628,"lon":5.372832,"is_reserved":false,"is_disabled":false,"rental_uris":{"android":"levelo://app?vid=28b0ee13-bea5-4907-a1a4-3c3f9ad9d835","ios":"levelo://app?vid=28b0ee13-bea5-4907-a1a4-3c3f9ad9d835"},"vehicle_type_id":"4","last_reported":1769181343,"current_range_meters":3600,"station_id":"ce4bhg12rcd13ifvqf70","pricing_plan_id":"cebpf4jnsgd1na2vs0mg"},{"bike_id":"07eceb74-6a95-40d2-bb91-34d09033e737","system_id":"levelo_inurba_marseille","lat":43.27368,"lon":5.36266,"is_reserved":false,"is_disabled":false,"rental_uris":{"android":"levelo://app?vid=07eceb74-6a95-40d2-bb91-34d09033e737","ios":"levelo://app?vid=07eceb74-6a95-40d2-bb91-34d09033e737"},"vehicle_type_id":"4","last_reported":1769181343,"current_range_meters":3600,"station_id":"ce4bhbh2rcd13ifvqeo0","pricing_plan_id":"cebpf4jnsgd1na2vs0mg"},{"bike_id":"48e8e473-45d5-4df5-a207-886bc528c39c","system_id":"levelo_inurba_marseille","lat":43.26207,"lon":5.37908,"is_reserved":false,"is_disabled":false,"rental_uris":{"android":"levelo://app?vid=48e8e473-45d5-4df5-a207-886bc528c39c","ios":"levelo://app?vid=48e8e473-45d5-4df5-a207-886bc528c39c"},"vehicle_type_id":"4","last_reported":1769181343,"current_range_meters":3600,"station_id":"ce4bhjp2rcd13ifvqg90","pricing_plan_id":"cebpf4jnsgd1na2vs0mg"},{"bike_id":"7a44288c-76ef-42bd-aa63-09fedbfa4f09","system_id":"levelo_inurba_marseille","lat":43.24455,"lon":5.4254,"is_reserved":false,"is_disabled":false,"rental_uris":{"android":"levelo://app?vid=7a44288c-76ef-42bd-aa63-09fedbfa4f09","ios":"levelo://app?vid=7a44288c-76ef-42bd-aa63-09fedbfa4f09"},"vehicle_type_id":"4","last_reported":1769181343,"current_range_meters":3600,"station_id":"st_d4a3vfp97mjs738cd8kg","pricing_plan_id":"cebpf4jnsgd1na2vs0mg"},{"bike_id":"fb842022-45b9-4c4c-bfeb-5beaac36a9dc","system_id":"levelo_inurba_marseille","lat":43.310372,"lon":5.371533,"is_reserved":false,"is_disabled":false,"rental_uris":{"android":"levelo://app?vid=fb842022-45b9-4c4c-bfeb-5beaac36a9dc","ios":"levelo://app?vid=fb842022-45b9-4c4c-bfeb-5beaac36a9dc"},"vehicle_type_id":"4","last_reported":1769181343,"current_range_meters":4000,"station_id":"st_d4kl2rp97mjs73e7tdfg","pricing_plan_id":"cebpf4jnsgd1na2vs0mg"},{"bike_id":"840590eb-d980-4636-80f2-7aff5b4516d2","system_id":"levelo_inurba_marseille","lat":43.309418,"lon":5.390286,"is_reserved":false,"is_disabled":true,"rental_uris":{"android":"levelo://app?vid=840590eb-d980-4636-80f2-7aff5b4516d2","ios":"levelo://app?vid=840590eb-d980-4636-80f2-7aff5b4516d2"},"vehicle_type_id":"4","last_reported":1769181343,"current_range_meters":4000,"station_id":"ce4bgup2rcd13ifvqco0","pricing_plan_id":"cebpf4jnsgd1na2vs0mg"},{"bike_id":"9864eb71-e1a9-41e3-a300-f80070833647","system_id":"levelo_inurba_marseille","lat":43.26555,"lon":5.40328,"is_reserved":false,"is_disabled":false,"rental_uris":{"android":"levelo://app?vid=9864eb71-e1a9-41e3-a300-f80070833647","ios":"levelo://app?vid=9864eb71-e1a9-41e3-a300-f80070833647"},"vehicle_type_id":"4","last_reported":1769181343,"current_range_meters":4000,"station_id":"ce4bhmp2rcd13ifvqgng","pricing_plan_id":"cebpf4jnsgd1na2vs0mg"},{"bike_id":"22dbf862-85e0-4c40-b4f1-72ade0defb67","system_id":"levelo_inurba_marseille","lat":43.26362,"lon":5.4108,"is_reserved":false,"is_disabled":false,"rental_uris":{"android":"levelo://app?vid=22dbf862-85e0-4c40-b4f1-72ade0defb67","ios":"levelo://app?vid=22dbf862-85e0-4c40-b4f1-72ade0defb67"},"vehicle_type_id":"4","last_reported":1769181343,"current_range_meters":4000,"station_id":"st_d4e5ca6na9uc73bfl5fg","pricing_plan_id":"cebpf4jnsgd1na2vs0mg"},{"bike_id":"45260080-dfa2-4d15-be6b-46d1e300d9b5","system_id":"levelo_inurba_marseille","lat":43.29547,"lon":5.42285,"is_reserved":false,"is_disabled":false,"rental_uris":{"android":"levelo://app?vid=45260080-dfa2-4d15-be6b-46d1e300d9b5","ios":"levelo://app?vid=45260080-dfa2-4d15-be6b-46d1e300d9b5"},"vehicle_type_id":"4","last_reported":1769181343,"current_range_meters":4000,"station_id":"ce4bhph2rcd13ifvqhdg","pricing_plan_id":"cebpf4jnsgd1na2vs0mg"},{"bike_id":"40e5e2c7-0e64-4220-a47b-eba55999faf7","system_id":"levelo_inurba_marseille","lat":43.22567,"lon":5.41626,"is_reserved":false,"is_disabled":false,"rental_uris":{"android":"levelo://app?vid=40e5e2c7-0e64-4220-a47b-eba55999faf7","ios":"levelo://app?vid=40e5e2c7-0e64-4220-a47b-eba55999faf7"},"vehicle_type_id":"4","last_reported":1769181343,"current_range_meters":4000,"station_id":"st_d2o4gvlbi1j2169b742g","pricing_plan_id":"cebpf4jnsgd1na2vs0mg"},{"bike_id":"cc05bb15-245c-40a1-b656-2c9ea1ae2247","system_id":"levelo_inurba_marseille","lat":43.28851,"lon":5.39317,"is_reserved":false,"is_disabled":false,"rental_uris":{"android":"levelo://app?vid=cc05bb15-245c-40a1-b656-2c9ea1ae2247","ios":"levelo://app?vid=cc05bb15-245c-40a1-b656-2c9ea1ae2247"},"vehicle_type_id":"4","last_reported":1769181343,"current_range_meters":4000,"station_id":"ce4bh2p2rcd13ifvqdi0","pricing_plan_id":"cebpf4jnsgd1na2vs0mg"},{"bike_id":"cdb669b6-4dee-41d9-a7e7-9da58ad4c896","system_id":"levelo_inurba_marseille","lat":43.25873,"lon":5.39888,"is_reserved":false,"is_disabled":false,"rental_uris":{"android":"levelo://app?vid=cdb669b6-4dee-41d9-a7e7-9da58ad4c896","ios":"levelo://app?vid=cdb669b6-4dee-41d9-a7e7-9da58ad4c896"},"vehicle_type_id":"4","last_reported":1769181343,"current_range_meters":4400,"station_id":"ce4bhl92rcd13ifvqghg","pricing_plan_id":"cebpf4jnsgd1na2vs0mg"},{"bike_id":"fd925f8e-899e-40ec-9287-4e65251eafb1","system_id":"levelo_inurba_marseille","lat":43.26826,"lon":5.38491,"is_reserved":false,"is_disabled":false,"rental_uris":{"android":"levelo://app?vid=fd925f8e-899e-40ec-9287-4e65251eafb1","ios":"levelo://app?vid=fd925f8e-899e-40ec-9287-4e65251eafb1"},"vehicle_type_id":"4","last_reported":1769181343,"current_range_meters":4400,"station_id":"","pricing_plan_id":"cebpf4jnsgd1na2vs0mg"},{"bike_id":"c462c4a3-3f5e-4fd1-8a2f-56615210c468","system_id":"levelo_inurba_marseille","lat":43.25808,"lon":5.38583,"is_reserved":false,"is_disabled":false,"rental_uris":{"android":"levelo://app?vid=c462c4a3-3f5e-4fd1-8a2f-56615210c468","ios":"levelo://app?vid=c462c4a3-3f5e-4fd1-8a2f-56615210c468"},"vehicle_type_id":"4","last_reported":1769181343,"current_range_meters":4400,"station_id":"","pricing_plan_id":"cebpf4jnsgd1na2vs0mg"},{"bike_id":"1d5149c1-a7cc-4728-8fe5-2a2782a29114","system_id":"levelo_inurba_marseille","lat":43.27209,"lon":5.39183,"is_reserved":false,"is_disabled":false,"rental_uris":{"android":"levelo://app?vid=1d5149c1-a7cc-4728-8fe5-2a2782a29114","ios":"levelo://app?vid=1d5149c1-a7cc-4728-8fe5-2a2782a29114"},"vehicle_type_id":"4","last_reported":1769181343,"current_range_meters":4400,"station_id":"ce4bhhp2rcd13ifvqfm0","pricing_plan_id":"cebpf4jnsgd1na2vs0mg"},{"bike_id":"3cf97f5c-44e2-4840-86f1-adbb97679053","system_id":"levelo_inurba_marseille","lat":43.30548,"lon":5.36699,"is_reserved":false,"is_disabled":false,"rental_uris":{"android":"levelo://app?vid=3cf97f5c-44e2-4840-86f1-adbb97679053","ios":"levelo://app?vid=3cf97f5c-44e2-4840-86f1-adbb97679053"},"vehicle_type_id":"4","last_reported":1769181343,"current_range_meters":4400,"station_id":"ce4bgrp2rcd13ifvqc9g","pricing_plan_id":"cebpf4jnsgd1na2vs0mg"},{"bike_id":"d3e4b92f-b8dd-4ce3-a549-98bda7fb9351","system_id":"levelo_inurba_marseille","lat":43.30133,"lon":5.38095,"is_reserved":false,"is_disabled":false,"rental_uris":{"android":"levelo://app?vid=d3e4b92f-b8dd-4ce3-a549-98bda7fb9351","ios":"levelo://app?vid=d3e4b92f-b8dd-4ce3-a549-98bda7fb9351"},"vehicle_type_id":"4","last_reported":1769181343,"current_range_meters":4400,"station_id":"ce4bgjp2rcd13ifvqbh0","pricing_plan_id":"cebpf4jnsgd1na2vs0mg"},{"bike_id":"fe3350b5-ccbd-45e4-b52d-f2070401a0a4","system_id":"levelo_inurba_marseille","lat":43.29874,"lon":5.38901,"is_reserved":false,"is_disabled":true,"rental_uris":{"android":"levelo://app?vid=fe3350b5-ccbd-45e4-b52d-f2070401a0a4","ios":"levelo://app?vid=fe3350b5-ccbd-45e4-b52d-f2070401a0a4"},"vehicle_type_id":"4","last_reported":1769181343,"current_range_meters":4400,"station_id":"ce4bh392rcd13ifvqdl0","pricing_plan_id":"cebpf4jnsgd1na2vs0mg"},{"bike_id":"34070627-8663-40d5-9fea-036aef31545f","system_id":"levelo_inurba_marseille","lat":43.29526,"lon":5.3853,"is_reserved":false,"is_disabled":false,"rental_uris":{"android":"levelo://app?vid=34070627-8663-40d5-9fea-036aef31545f","ios":"levelo://app?vid=34070627-8663-40d5-9fea-036aef31545f"},"vehicle_type_id":"4","last_reported":1769181343,"current_range_meters":4400,"station_id":"ce4bgih2rcd13ifvqba0","pricing_plan_id":"cebpf4jnsgd1na2vs0mg"},{"bike_id":"242b11c4-4e1d-4bda-a6c0-c261fbee4d2e","system_id":"levelo_inurba_marseille","lat":43.26566,"lon":5.37291,"is_reserved":false,"is_disabled":false,"rental_uris":{"android":"levelo://app?vid=242b11c4-4e1d-4bda-a6c0-c261fbee4d2e","ios":"levelo://app?vid=242b11c4-4e1d-4bda-a6c0-c261fbee4d2e"},"vehicle_type_id":"4","last_reported":1769181343,"current_range_meters":4400,"station_id":"ce4bhg12rcd13ifvqf70","pricing_plan_id":"cebpf4jnsgd1na2vs0mg"},{"bike_id":"b7f4806b-b236-46ef-9104-8b5915e2cdb1","system_id":"levelo_inurba_marseille","lat":43.30353,"lon":5.404437,"is_reserved":false,"is_disabled":false,"rental_uris":{"android":"levelo://app?vid=b7f4806b-b236-46ef-9104-8b5915e2cdb1","ios":"levelo://app?vid=b7f4806b-b236-46ef-9104-8b5915e2cdb1"},"vehicle_type_id":"4","last_reported":1769181343,"current_range_meters":4400,"station_id":"ce4bh012rcd13ifvqd10","pricing_plan_id":"cebpf4jnsgd1na2vs0mg"},{"bike_id":"48843717-8668-4788-9d60-faced9b761bf","system_id":"levelo_inurba_marseille","lat":43.2991,"lon":5.38141,"is_reserved":false,"is_disabled":false,"rental_uris":{"android":"levelo://app?vid=48843717-8668-4788-9d60-faced9b761bf","ios":"levelo://app?vid=48843717-8668-4788-9d60-faced9b761bf"},"vehicle_type_id":"4","last_reported":1769181343,"current_range_meters":4400,"station_id":"ce4bgj12rcd13ifvqbc0","pricing_plan_id":"cebpf4jnsgd1na2vs0mg"},{"bike_id":"884b714b-de31-400c-acad-491c87710532","system_id":"levelo_inurba_marseille","lat":43.29902,"lon":5.4367,"is_reserved":false,"is_disabled":false,"rental_uris":{"android":"levelo://app?vid=884b714b-de31-400c-acad-491c87710532","ios":"levelo://app?vid=884b714b-de31-400c-acad-491c87710532"},"vehicle_type_id":"4","last_reported":1769181343,"current_range_meters":4400,"station_id":"ce4bhpp2rcd13ifvqhfg","pricing_plan_id":"cebpf4jnsgd1na2vs0mg"},{"bike_id":"493afd47-0150-4eb7-b05d-19b96b3484d1","system_id":"levelo_inurba_marseille","lat":43.2637,"lon":5.41053,"is_reserved":false,"is_disabled":false,"rental_uris":{"android":"levelo://app?vid=493afd47-0150-4eb7-b05d-19b96b3484d1","ios":"levelo://app?vid=493afd47-0150-4eb7-b05d-19b96b3484d1"},"vehicle_type_id":"4","last_reported":1769181343,"current_range_meters":4800,"station_id":"st_d4e5ca6na9uc73bfl5fg","pricing_plan_id":"cebpf4jnsgd1na2vs0mg"},{"bike_id":"cc9f4717-497d-46b4-8770-89f5df0571cd","system_id":"levelo_inurba_marseille","lat":43.24393,"lon":5.37058,"is_reserved":false,"is_disabled":false,"rental_uris":{"android":"levelo://app?vid=cc9f4717-497d-46b4-8770-89f5df0571cd","ios":"levelo://app?vid=cc9f4717-497d-46b4-8770-89f5df0571cd"},"vehicle_type_id":"4","last_reported":1769181343,"current_range_meters":4800,"station_id":"ce4bhhh2rcd13ifvqfk0","pricing_plan_id":"cebpf4jnsgd1na2vs0mg"},{"bike_id":"05d6e816-c599-4137-a30a-5127b06dbfc0","system_id":"levelo_inurba_marseille","lat":43.28154,"lon":5.42641,"is_reserved":false,"is_disabled":true,"rental_uris":{"android":"levelo://app?vid=05d6e816-c599-4137-a30a-5127b06dbfc0","ios":"levelo://app?vid=05d6e816-c599-4137-a30a-5127b06dbfc0"},"vehicle_type_id":"4","last_reported":1769181343,"current_range_meters":4800,"station_id":"ce4bhnh2rcd13ifvqgug","pricing_plan_id":"cebpf4jnsgd1na2vs0mg"},{"bike_id":"a6647b88-80b4-4619-873e-fc05f3342456","system_id":"levelo_inurba_marseille","lat":43.24637,"lon":5.43136,"is_reserved":false,"is_disabled":false,"rental_uris":{"android":"levelo://app?vid=a6647b88-80b4-4619-873e-fc05f3342456","ios":"levelo://app?vid=a6647b88-80b4-4619-873e-fc05f3342456"},"vehicle_type_id":"4","last_reported":1769181343,"current_range_meters":4800,"station_id":"st_d2m6c4gdas8pm72e190g","pricing_plan_id":"cebpf4jnsgd1na2vs0mg"},{"bike_id":"6ba17ef6-f95a-41a2-8840-7fa5495ae807","system_id":"levelo_inurba_marseille","lat":43.29362,"lon":5.37836,"is_reserved":false,"is_disabled":false,"rental_uris":{"android":"levelo://app?vid=6ba17ef6-f95a-41a2-8840-7fa5495ae807","ios":"levelo://app?vid=6ba17ef6-f95a-41a2-8840-7fa5495ae807"},"vehicle_type_id":"4","last_reported":1769181343,"current_range_meters":4800,"station_id":"ce4bgjh2rcd13ifvqbf0","pricing_plan_id":"cebpf4jnsgd1na2vs0mg"},{"bike_id":"20c1cc69-3a0d-4679-b45c-9954ef47fca5","system_id":"levelo_inurba_marseille","lat":43.23063,"lon":5.35498,"is_reserved":false,"is_disabled":false,"rental_uris":{"android":"levelo://app?vid=20c1cc69-3a0d-4679-b45c-9954ef47fca5","ios":"levelo://app?vid=20c1cc69-3a0d-4679-b45c-9954ef47fca5"},"vehicle_type_id":"4","last_reported":1769181343,"current_range_meters":4800,"station_id":"cpo3342slgdg3j2ifvpg","pricing_plan_id":"cebpf4jnsgd1na2vs0mg"},{"bike_id":"57c7fcf1-4d78-4d44-bebf-c9328a85a0ca","system_id":"levelo_inurba_marseille","lat":43.2677,"lon":5.39423,"is_reserved":false,"is_disabled":false,"rental_uris":{"android":"levelo://app?vid=57c7fcf1-4d78-4d44-bebf-c9328a85a0ca","ios":"levelo://app?vid=57c7fcf1-4d78-4d44-bebf-c9328a85a0ca"},"vehicle_type_id":"4","last_reported":1769181343,"current_range_meters":5600,"station_id":"ce4bhh12rcd13ifvqfg0","pricing_plan_id":"cebpf4jnsgd1na2vs0mg"},{"bike_id":"b09ed71e-6bcb-4ee2-9445-f554353e284e","system_id":"levelo_inurba_marseille","lat":43.23152,"lon":5.43718,"is_reserved":false,"is_disabled":false,"rental_uris":{"android":"levelo://app?vid=b09ed71e-6bcb-4ee2-9445-f554353e284e","ios":"levelo://app?vid=b09ed71e-6bcb-4ee2-9445-f554353e284e"},"vehicle_type_id":"4","last_reported":1769181343,"current_range_meters":5600,"station_id":"ce4bhmp2rcd13ifvqgog","pricing_plan_id":"cebpf4jnsgd1na2vs0mg"},{"bike_id":"c0285b55-73df-4265-a2e1-4a0bb225f766","system_id":"levelo_inurba_marseille","lat":43.24668,"lon":5.38867,"is_reserved":false,"is_disabled":false,"rental_uris":{"android":"levelo://app?vid=c0285b55-73df-4265-a2e1-4a0bb225f766","ios":"levelo://app?vid=c0285b55-73df-4265-a2e1-4a0bb225f766"},"vehicle_type_id":"4","last_reported":1769181343,"current_range_meters":5600,"station_id":"ce4bhg12rcd13ifvqf60","pricing_plan_id":"cebpf4jnsgd1na2vs0mg"},{"bike_id":"56dc5e2b-c46f-4998-96b3-8038ffd41c5e","system_id":"levelo_inurba_marseille","lat":43.27164,"lon":5.39282,"is_reserved":false,"is_disabled":false,"rental_uris":{"android":"levelo://app?vid=56dc5e2b-c46f-4998-96b3-8038ffd41c5e","ios":"levelo://app?vid=56dc5e2b-c46f-4998-96b3-8038ffd41c5e"},"vehicle_type_id":"4","last_reported":1769181343,"current_range_meters":5600,"station_id":"","pricing_plan_id":"cebpf4jnsgd1na2vs0mg"},{"bike_id":"cc3c0fa4-318c-42a8-b516-2cb6a62d73ef","system_id":"levelo_inurba_marseille","lat":43.24987,"lon":5.38949,"is_reserved":false,"is_disabled":false,"rental_uris":{"android":"levelo://app?vid=cc3c0fa4-318c-42a8-b516-2cb6a62d73ef","ios":"levelo://app?vid=cc3c0fa4-318c-42a8-b516-2cb6a62d73ef"},"vehicle_type_id":"4","last_reported":1769181343,"current_range_meters":5600,"station_id":"ce4bhgp2rcd13ifvqfd0","pricing_plan_id":"cebpf4jnsgd1na2vs0mg"},{"bike_id":"8ba79850-47ad-4dee-9f44-d8fee237cfbf","system_id":"levelo_inurba_marseille","lat":43.29539,"lon":5.39012,"is_reserved":false,"is_disabled":false,"rental_uris":{"android":"levelo://app?vid=8ba79850-47ad-4dee-9f44-d8fee237cfbf","ios":"levelo://app?vid=8ba79850-47ad-4dee-9f44-d8fee237cfbf"},"vehicle_type_id":"4","last_reported":1769181343,"current_range_meters":5600,"station_id":"ce4bh3p2rcd13ifvqdp0","pricing_plan_id":"cebpf4jnsgd1na2vs0mg"},{"bike_id":"172e3650-5bed-480d-a3d5-248638504080","system_id":"levelo_inurba_marseille","lat":43.31182,"lon":5.38709,"is_reserved":false,"is_disabled":false,"rental_uris":{"android":"levelo://app?vid=172e3650-5bed-480d-a3d5-248638504080","ios":"levelo://app?vid=172e3650-5bed-480d-a3d5-248638504080"},"vehicle_type_id":"4","last_reported":1769181343,"current_range_meters":5600,"station_id":"ce4bgv12rcd13ifvqcp0","pricing_plan_id":"cebpf4jnsgd1na2vs0mg"},{"bike_id":"9bf61c2c-8793-4461-bba6-da184a1c702f","system_id":"levelo_inurba_marseille","lat":43.29522,"lon":5.39013,"is_reserved":false,"is_disabled":false,"rental_uris":{"android":"levelo://app?vid=9bf61c2c-8793-4461-bba6-da184a1c702f","ios":"levelo://app?vid=9bf61c2c-8793-4461-bba6-da184a1c702f"},"vehicle_type_id":"4","last_reported":1769181343,"current_range_meters":5600,"station_id":"ce4bh3p2rcd13ifvqdp0","pricing_plan_id":"cebpf4jnsgd1na2vs0mg"},{"bike_id":"70aa8391-3c8c-41ab-8c43-1b3661572c84","system_id":"levelo_inurba_marseille","lat":43.24665,"lon":5.38151,"is_reserved":false,"is_disabled":false,"rental_uris":{"android":"levelo://app?vid=70aa8391-3c8c-41ab-8c43-1b3661572c84","ios":"levelo://app?vid=70aa8391-3c8c-41ab-8c43-1b3661572c84"},"vehicle_type_id":"4","last_reported":1769181343,"current_range_meters":5600,"station_id":"ce4bhih2rcd13ifvqfr0","pricing_plan_id":"cebpf4jnsgd1na2vs0mg"},{"bike_id":"324cd82f-1083-4204-b317-811809b2300e","system_id":"levelo_inurba_marseille","lat":43.291935,"lon":5.372958,"is_reserved":false,"is_disabled":true,"rental_uris":{"android":"levelo://app?vid=324cd82f-1083-4204-b317-811809b2300e","ios":"levelo://app?vid=324cd82f-1083-4204-b317-811809b2300e"},"vehicle_type_id":"4","last_reported":1769181343,"current_range_meters":5600,"station_id":"","pricing_plan_id":"cebpf4jnsgd1na2vs0mg"},{"bike_id":"f78947df-deca-4141-ad9c-b28b8e18cc28","system_id":"levelo_inurba_marseille","lat":43.29507,"lon":5.37413,"is_reserved":false,"is_disabled":false,"rental_uris":{"android":"levelo://app?vid=f78947df-deca-4141-ad9c-b28b8e18cc28","ios":"levelo://app?vid=f78947df-deca-4141-ad9c-b28b8e18cc28"},"vehicle_type_id":"4","last_reported":1769181343,"current_range_meters":6000,"station_id":"","pricing_plan_id":"cebpf4jnsgd1na2vs0mg"},{"bike_id":"13968750-3719-4ac6-aefd-0a9132929815","system_id":"levelo_inurba_marseille","lat":43.26543,"lon":5.37292,"is_reserved":false,"is_disabled":false,"rental_uris":{"android":"levelo://app?vid=13968750-3719-4ac6-aefd-0a9132929815","ios":"levelo://app?vid=13968750-3719-4ac6-aefd-0a9132929815"},"vehicle_type_id":"4","last_reported":1769181343,"current_range_meters":6000,"station_id":"ce4bhg12rcd13ifvqf70","pricing_plan_id":"cebpf4jnsgd1na2vs0mg"},{"bike_id":"cf557c85-8b34-4929-8f7e-4bc211ee95de","system_id":"levelo_inurba_marseille","lat":43.21744,"lon":5.34598,"is_reserved":false,"is_disabled":false,"rental_uris":{"android":"levelo://app?vid=cf557c85-8b34-4929-8f7e-4bc211ee95de","ios":"levelo://app?vid=cf557c85-8b34-4929-8f7e-4bc211ee95de"},"vehicle_type_id":"4","last_reported":1769181343,"current_range_meters":6000,"station_id":"","pricing_plan_id":"cebpf4jnsgd1na2vs0mg"},{"bike_id":"7d7edde7-9e10-490d-aaad-d60edd10eefe","system_id":"levelo_inurba_marseille","lat":43.29796,"lon":5.38085,"is_reserved":false,"is_disabled":false,"rental_uris":{"android":"levelo://app?vid=7d7edde7-9e10-490d-aaad-d60edd10eefe","ios":"levelo://app?vid=7d7edde7-9e10-490d-aaad-d60edd10eefe"},"vehicle_type_id":"4","last_reported":1769181343,"current_range_meters":6000,"station_id":"ce4bgip2rcd13ifvqbb0","pricing_plan_id":"cebpf4jnsgd1na2vs0mg"},{"bike_id":"8201b82f-83b0-49f2-99bb-f454c070ebda","system_id":"levelo_inurba_marseille","lat":43.22553,"lon":5.41629,"is_reserved":false,"is_disabled":false,"rental_uris":{"android":"levelo://app?vid=8201b82f-83b0-49f2-99bb-f454c070ebda","ios":"levelo://app?vid=8201b82f-83b0-49f2-99bb-f454c070ebda"},"vehicle_type_id":"4","last_reported":1769181343,"current_range_meters":6000,"station_id":"st_d2o4gvlbi1j2169b742g","pricing_plan_id":"cebpf4jnsgd1na2vs0mg"},{"bike_id":"ba4dbbff-8d2b-4731-b2d8-2ba2461db1db","system_id":"levelo_inurba_marseille","lat":43.28861,"lon":5.4251,"is_reserved":false,"is_disabled":false,"rental_uris":{"android":"levelo://app?vid=ba4dbbff-8d2b-4731-b2d8-2ba2461db1db","ios":"levelo://app?vid=ba4dbbff-8d2b-4731-b2d8-2ba2461db1db"},"vehicle_type_id":"4","last_reported":1769181343,"current_range_meters":6000,"station_id":"st_d3b462108ojc7389ooeg","pricing_plan_id":"cebpf4jnsgd1na2vs0mg"},{"bike_id":"249a4cf7-06f6-4fea-96cc-c9c6b750c37f","system_id":"levelo_inurba_marseille","lat":43.24163,"lon":5.36388,"is_reserved":false,"is_disabled":false,"rental_uris":{"android":"levelo://app?vid=249a4cf7-06f6-4fea-96cc-c9c6b750c37f","ios":"levelo://app?vid=249a4cf7-06f6-4fea-96cc-c9c6b750c37f"},"vehicle_type_id":"4","last_reported":1769181343,"current_range_meters":6000,"station_id":"cpo36qri1sfpv3e86is0","pricing_plan_id":"cebpf4jnsgd1na2vs0mg"},{"bike_id":"d8d42882-f630-4234-8409-67fa247c2938","system_id":"levelo_inurba_marseille","lat":43.29372,"lon":5.37854,"is_reserved":false,"is_disabled":false,"rental_uris":{"android":"levelo://app?vid=d8d42882-f630-4234-8409-67fa247c2938","ios":"levelo://app?vid=d8d42882-f630-4234-8409-67fa247c2938"},"vehicle_type_id":"4","last_reported":1769181343,"current_range_meters":6000,"station_id":"ce4bgjh2rcd13ifvqbf0","pricing_plan_id":"cebpf4jnsgd1na2vs0mg"},{"bike_id":"45babb45-93f7-4f3b-b6b9-60f993fef36c","system_id":"levelo_inurba_marseille","lat":43.3235,"lon":5.36743,"is_reserved":false,"is_disabled":false,"rental_uris":{"android":"levelo://app?vid=45babb45-93f7-4f3b-b6b9-60f993fef36c","ios":"levelo://app?vid=45babb45-93f7-4f3b-b6b9-60f993fef36c"},"vehicle_type_id":"4","last_reported":1769181343,"current_range_meters":6000,"station_id":"ce4bhsh2rcd13ifvqi2g","pricing_plan_id":"cebpf4jnsgd1na2vs0mg"},{"bike_id":"8d79e999-534d-46eb-b226-e914c7d703b0","system_id":"levelo_inurba_marseille","lat":43.30531,"lon":5.3672,"is_reserved":false,"is_disabled":false,"rental_uris":{"android":"levelo://app?vid=8d79e999-534d-46eb-b226-e914c7d703b0","ios":"levelo://app?vid=8d79e999-534d-46eb-b226-e914c7d703b0"},"vehicle_type_id":"4","last_reported":1769181343,"current_range_meters":6000,"station_id":"ce4bgrp2rcd13ifvqc9g","pricing_plan_id":"cebpf4jnsgd1na2vs0mg"},{"bike_id":"92295e8e-aa68-4e38-8fb7-fb93e0d44651","system_id":"levelo_inurba_marseille","lat":43.232,"lon":5.35554,"is_reserved":false,"is_disabled":false,"rental_uris":{"android":"levelo://app?vid=92295e8e-aa68-4e38-8fb7-fb93e0d44651","ios":"levelo://app?vid=92295e8e-aa68-4e38-8fb7-fb93e0d44651"},"vehicle_type_id":"4","last_reported":1769181343,"current_range_meters":6000,"station_id":"ce4bhu92rcd13ifvqi70","pricing_plan_id":"cebpf4jnsgd1na2vs0mg"},{"bike_id":"2e3de3a2-4637-4e75-9007-fb75df491dfc","system_id":"levelo_inurba_marseille","lat":43.28503,"lon":5.38412,"is_reserved":false,"is_disabled":false,"rental_uris":{"android":"levelo://app?vid=2e3de3a2-4637-4e75-9007-fb75df491dfc","ios":"levelo://app?vid=2e3de3a2-4637-4e75-9007-fb75df491dfc"},"vehicle_type_id":"4","last_reported":1769181343,"current_range_meters":6000,"station_id":"ce4bh512rcd13ifvqe3g","pricing_plan_id":"cebpf4jnsgd1na2vs0mg"},{"bike_id":"7529d9bf-4569-4b73-9110-96c3aed47ab4","system_id":"levelo_inurba_marseille","lat":43.26232,"lon":5.40461,"is_reserved":false,"is_disabled":false,"rental_uris":{"android":"levelo://app?vid=7529d9bf-4569-4b73-9110-96c3aed47ab4","ios":"levelo://app?vid=7529d9bf-4569-4b73-9110-96c3aed47ab4"},"vehicle_type_id":"4","last_reported":1769181343,"current_range_meters":6000,"station_id":"ce4bhmh2rcd13ifvqgmg","pricing_plan_id":"cebpf4jnsgd1na2vs0mg"},{"bike_id":"ba883ae6-41d0-430b-b2c5-fa8f015c672b","system_id":"levelo_inurba_marseille","lat":43.30483,"lon":5.41061,"is_reserved":false,"is_disabled":false,"rental_uris":{"android":"levelo://app?vid=ba883ae6-41d0-430b-b2c5-fa8f015c672b","ios":"levelo://app?vid=ba883ae6-41d0-430b-b2c5-fa8f015c672b"},"vehicle_type_id":"4","last_reported":1769181343,"current_range_meters":6000,"station_id":"","pricing_plan_id":"cebpf4jnsgd1na2vs0mg"},{"bike_id":"5ed4e9d2-631e-4b69-8907-913cd14f0cf9","system_id":"levelo_inurba_marseille","lat":43.25819,"lon":5.39441,"is_reserved":false,"is_disabled":false,"rental_uris":{"android":"levelo://app?vid=5ed4e9d2-631e-4b69-8907-913cd14f0cf9","ios":"levelo://app?vid=5ed4e9d2-631e-4b69-8907-913cd14f0cf9"},"vehicle_type_id":"4","last_reported":1769181343,"current_range_meters":6400,"station_id":"ce4bhip2rcd13ifvqft0","pricing_plan_id":"cebpf4jnsgd1na2vs0mg"},{"bike_id":"217c986b-eb9e-44c4-a3e0-92f4ba70b7a5","system_id":"levelo_inurba_marseille","lat":43.231819,"lon":5.399822,"is_reserved":false,"is_disabled":false,"rental_uris":{"android":"levelo://app?vid=217c986b-eb9e-44c4-a3e0-92f4ba70b7a5","ios":"levelo://app?vid=217c986b-eb9e-44c4-a3e0-92f4ba70b7a5"},"vehicle_type_id":"4","last_reported":1769181343,"current_range_meters":6400,"station_id":"ce4bhn12rcd13ifvqgqg","pricing_plan_id":"cebpf4jnsgd1na2vs0mg"},{"bike_id":"ca9d0d1d-ca9f-44e5-b843-0721459e6d7d","system_id":"levelo_inurba_marseille","lat":43.28077,"lon":5.39658,"is_reserved":false,"is_disabled":false,"rental_uris":{"android":"levelo://app?vid=ca9d0d1d-ca9f-44e5-b843-0721459e6d7d","ios":"levelo://app?vid=ca9d0d1d-ca9f-44e5-b843-0721459e6d7d"},"vehicle_type_id":"4","last_reported":1769181343,"current_range_meters":6400,"station_id":"ce4bho12rcd13ifvqh2g","pricing_plan_id":"cebpf4jnsgd1na2vs0mg"},{"bike_id":"13c4acae-ccdc-4ea6-b7ff-fa342cb7998b","system_id":"levelo_inurba_marseille","lat":43.28709,"lon":5.4,"is_reserved":false,"is_disabled":false,"rental_uris":{"android":"levelo://app?vid=13c4acae-ccdc-4ea6-b7ff-fa342cb7998b","ios":"levelo://app?vid=13c4acae-ccdc-4ea6-b7ff-fa342cb7998b"},"vehicle_type_id":"4","last_reported":1769181343,"current_range_meters":6400,"station_id":"ce4bho92rcd13ifvqh3g","pricing_plan_id":"cebpf4jnsgd1na2vs0mg"},{"bike_id":"2403f0bf-de39-4f6c-b1d8-f725bb90dee3","system_id":"levelo_inurba_marseille","lat":43.24168,"lon":5.36384,"is_reserved":false,"is_disabled":false,"rental_uris":{"android":"levelo://app?vid=2403f0bf-de39-4f6c-b1d8-f725bb90dee3","ios":"levelo://app?vid=2403f0bf-de39-4f6c-b1d8-f725bb90dee3"},"vehicle_type_id":"4","last_reported":1769181343,"current_range_meters":6400,"station_id":"cpo36qri1sfpv3e86is0","pricing_plan_id":"cebpf4jnsgd1na2vs0mg"},{"bike_id":"0e5e8cf1-1fab-4b8e-9fff-33f1bc30a012","system_id":"levelo_inurba_marseille","lat":43.32431,"lon":5.37368,"is_reserved":false,"is_disabled":false,"rental_uris":{"android":"levelo://app?vid=0e5e8cf1-1fab-4b8e-9fff-33f1bc30a012","ios":"levelo://app?vid=0e5e8cf1-1fab-4b8e-9fff-33f1bc30a012"},"vehicle_type_id":"4","last_reported":1769181343,"current_range_meters":6400,"station_id":"","pricing_plan_id":"cebpf4jnsgd1na2vs0mg"},{"bike_id":"630358af-5dc2-4402-a954-7eec38a4ae20","system_id":"levelo_inurba_marseille","lat":43.305274,"lon":5.367062,"is_reserved":false,"is_disabled":false,"rental_uris":{"android":"levelo://app?vid=630358af-5dc2-4402-a954-7eec38a4ae20","ios":"levelo://app?vid=630358af-5dc2-4402-a954-7eec38a4ae20"},"vehicle_type_id":"4","last_reported":1769181343,"current_range_meters":6400,"station_id":"ce4bgrp2rcd13ifvqc9g","pricing_plan_id":"cebpf4jnsgd1na2vs0mg"},{"bike_id":"2ab8ad59-be8b-452a-a8ba-2c72aa70ac25","system_id":"levelo_inurba_marseille","lat":43.23149,"lon":5.43723,"is_reserved":false,"is_disabled":false,"rental_uris":{"android":"levelo://app?vid=2ab8ad59-be8b-452a-a8ba-2c72aa70ac25","ios":"levelo://app?vid=2ab8ad59-be8b-452a-a8ba-2c72aa70ac25"},"vehicle_type_id":"4","last_reported":1769181343,"current_range_meters":6400,"station_id":"ce4bhmp2rcd13ifvqgog","pricing_plan_id":"cebpf4jnsgd1na2vs0mg"},{"bike_id":"8f4f713f-1066-4ed9-b099-9452842bf212","system_id":"levelo_inurba_marseille","lat":43.23149,"lon":5.43727,"is_reserved":false,"is_disabled":false,"rental_uris":{"android":"levelo://app?vid=8f4f713f-1066-4ed9-b099-9452842bf212","ios":"levelo://app?vid=8f4f713f-1066-4ed9-b099-9452842bf212"},"vehicle_type_id":"4","last_reported":1769181343,"current_range_meters":6400,"station_id":"ce4bhmp2rcd13ifvqgog","pricing_plan_id":"cebpf4jnsgd1na2vs0mg"},{"bike_id":"9f9c4f85-7d9e-4e8a-9123-cbd1f8de03db","system_id":"levelo_inurba_marseille","lat":43.31838,"lon":5.3899,"is_reserved":false,"is_disabled":false,"rental_uris":{"android":"levelo://app?vid=9f9c4f85-7d9e-4e8a-9123-cbd1f8de03db","ios":"levelo://app?vid=9f9c4f85-7d9e-4e8a-9123-cbd1f8de03db"},"vehicle_type_id":"4","last_reported":1769181343,"current_range_meters":6400,"station_id":"","pricing_plan_id":"cebpf4jnsgd1na2vs0mg"},{"bike_id":"a887fc7f-7edf-476c-a4e2-1301810a1681","system_id":"levelo_inurba_marseille","lat":43.23785,"lon":5.3663,"is_reserved":false,"is_disabled":false,"rental_uris":{"android":"levelo://app?vid=a887fc7f-7edf-476c-a4e2-1301810a1681","ios":"levelo://app?vid=a887fc7f-7edf-476c-a4e2-1301810a1681"},"vehicle_type_id":"4","last_reported":1769181343,"current_range_meters":6400,"station_id":"st_d3nk18o9ro0c73en2l3g","pricing_plan_id":"cebpf4jnsgd1na2vs0mg"},{"bike_id":"55cd91a1-989b-41da-b0e9-2c2c1b6533d7","system_id":"levelo_inurba_marseille","lat":43.28502,"lon":5.38427,"is_reserved":false,"is_disabled":false,"rental_uris":{"android":"levelo://app?vid=55cd91a1-989b-41da-b0e9-2c2c1b6533d7","ios":"levelo://app?vid=55cd91a1-989b-41da-b0e9-2c2c1b6533d7"},"vehicle_type_id":"4","last_reported":1769181343,"current_range_meters":6800,"station_id":"ce4bh512rcd13ifvqe3g","pricing_plan_id":"cebpf4jnsgd1na2vs0mg"},{"bike_id":"59ba4534-2aee-44e4-9228-bcbe63725245","system_id":"levelo_inurba_marseille","lat":43.273295,"lon":5.390868,"is_reserved":false,"is_disabled":false,"rental_uris":{"android":"levelo://app?vid=59ba4534-2aee-44e4-9228-bcbe63725245","ios":"levelo://app?vid=59ba4534-2aee-44e4-9228-bcbe63725245"},"vehicle_type_id":"4","last_reported":1769181343,"current_range_meters":6800,"station_id":"ce4bhgp2rcd13ifvqfe0","pricing_plan_id":"cebpf4jnsgd1na2vs0mg"},{"bike_id":"accf3f81-0250-412b-b538-7a6a19b0ed96","system_id":"levelo_inurba_marseille","lat":43.30277,"lon":5.37707,"is_reserved":false,"is_disabled":false,"rental_uris":{"android":"levelo://app?vid=accf3f81-0250-412b-b538-7a6a19b0ed96","ios":"levelo://app?vid=accf3f81-0250-412b-b538-7a6a19b0ed96"},"vehicle_type_id":"4","last_reported":1769181343,"current_range_meters":6800,"station_id":"ce4bguh2rcd13ifvqcj0","pricing_plan_id":"cebpf4jnsgd1na2vs0mg"},{"bike_id":"1cd16e19-c2c6-42be-a9ab-0a35f15f0209","system_id":"levelo_inurba_marseille","lat":43.3014,"lon":5.37422,"is_reserved":false,"is_disabled":false,"rental_uris":{"android":"levelo://app?vid=1cd16e19-c2c6-42be-a9ab-0a35f15f0209","ios":"levelo://app?vid=1cd16e19-c2c6-42be-a9ab-0a35f15f0209"},"vehicle_type_id":"4","last_reported":1769181343,"current_range_meters":6800,"station_id":"ce4bgs92rcd13ifvqcc0","pricing_plan_id":"cebpf4jnsgd1na2vs0mg"},{"bike_id":"10c6e862-074b-4d2c-95d3-0107daf0f171","system_id":"levelo_inurba_marseille","lat":43.26097,"lon":5.39351,"is_reserved":false,"is_disabled":false,"rental_uris":{"android":"levelo://app?vid=10c6e862-074b-4d2c-95d3-0107daf0f171","ios":"levelo://app?vid=10c6e862-074b-4d2c-95d3-0107daf0f171"},"vehicle_type_id":"4","last_reported":1769181343,"current_range_meters":6800,"station_id":"ce4bhh92rcd13ifvqfj0","pricing_plan_id":"cebpf4jnsgd1na2vs0mg"},{"bike_id":"4e40f1d4-bb52-4c27-a4d4-39f33aa02fc5","system_id":"levelo_inurba_marseille","lat":43.27971,"lon":5.38755,"is_reserved":false,"is_disabled":false,"rental_uris":{"android":"levelo://app?vid=4e40f1d4-bb52-4c27-a4d4-39f33aa02fc5","ios":"levelo://app?vid=4e40f1d4-bb52-4c27-a4d4-39f33aa02fc5"},"vehicle_type_id":"4","last_reported":1769181343,"current_range_meters":6800,"station_id":"ce4bhg12rcd13ifvqf80","pricing_plan_id":"cebpf4jnsgd1na2vs0mg"},{"bike_id":"da005ffc-f532-4b5a-a329-d2fbdebb6e7d","system_id":"levelo_inurba_marseille","lat":43.316841,"lon":5.404759,"is_reserved":false,"is_disabled":false,"rental_uris":{"android":"levelo://app?vid=da005ffc-f532-4b5a-a329-d2fbdebb6e7d","ios":"levelo://app?vid=da005ffc-f532-4b5a-a329-d2fbdebb6e7d"},"vehicle_type_id":"4","last_reported":1769181343,"current_range_meters":6800,"station_id":"ce4bh012rcd13ifvqd00","pricing_plan_id":"cebpf4jnsgd1na2vs0mg"},{"bike_id":"485f9176-e3d7-4a06-a887-1d75232b68b0","system_id":"levelo_inurba_marseille","lat":43.26682,"lon":5.38276,"is_reserved":false,"is_disabled":false,"rental_uris":{"android":"levelo://app?vid=485f9176-e3d7-4a06-a887-1d75232b68b0","ios":"levelo://app?vid=485f9176-e3d7-4a06-a887-1d75232b68b0"},"vehicle_type_id":"4","last_reported":1769181343,"current_range_meters":6800,"station_id":"ce4bhg92rcd13ifvqf90","pricing_plan_id":"cebpf4jnsgd1na2vs0mg"},{"bike_id":"bc61b31d-a59b-43b4-9147-44220082005b","system_id":"levelo_inurba_marseille","lat":43.30531,"lon":5.36674,"is_reserved":false,"is_disabled":false,"rental_uris":{"android":"levelo://app?vid=bc61b31d-a59b-43b4-9147-44220082005b","ios":"levelo://app?vid=bc61b31d-a59b-43b4-9147-44220082005b"},"vehicle_type_id":"4","last_reported":1769181343,"current_range_meters":6800,"station_id":"ce4bgrp2rcd13ifvqc9g","pricing_plan_id":"cebpf4jnsgd1na2vs0mg"},{"bike_id":"b773bbbb-d72b-4b38-92a3-28fca628ed6c","system_id":"levelo_inurba_marseille","lat":43.22919,"lon":5.35388,"is_reserved":false,"is_disabled":false,"rental_uris":{"android":"levelo://app?vid=b773bbbb-d72b-4b38-92a3-28fca628ed6c","ios":"levelo://app?vid=b773bbbb-d72b-4b38-92a3-28fca628ed6c"},"vehicle_type_id":"4","last_reported":1769181343,"current_range_meters":6800,"station_id":"cpo3532slgdg3j2ikp40","pricing_plan_id":"cebpf4jnsgd1na2vs0mg"},{"bike_id":"b57df7ad-97cd-44b3-a204-ea83c250292c","system_id":"levelo_inurba_marseille","lat":43.23188,"lon":5.35546,"is_reserved":false,"is_disabled":false,"rental_uris":{"android":"levelo://app?vid=b57df7ad-97cd-44b3-a204-ea83c250292c","ios":"levelo://app?vid=b57df7ad-97cd-44b3-a204-ea83c250292c"},"vehicle_type_id":"4","last_reported":1769181343,"current_range_meters":6800,"station_id":"ce4bhu92rcd13ifvqi70","pricing_plan_id":"cebpf4jnsgd1na2vs0mg"},{"bike_id":"945b75a6-cb60-4db3-b411-8a275b15016e","system_id":"levelo_inurba_marseille","lat":43.25016,"lon":5.38928,"is_reserved":false,"is_disabled":false,"rental_uris":{"android":"levelo://app?vid=945b75a6-cb60-4db3-b411-8a275b15016e","ios":"levelo://app?vid=945b75a6-cb60-4db3-b411-8a275b15016e"},"vehicle_type_id":"4","last_reported":1769181343,"current_range_meters":6800,"station_id":"ce4bhgp2rcd13ifvqfd0","pricing_plan_id":"cebpf4jnsgd1na2vs0mg"},{"bike_id":"63cb4960-1f8d-4d8d-a273-406b763e3f5e","system_id":"levelo_inurba_marseille","lat":43.255806,"lon":5.382355,"is_reserved":false,"is_disabled":false,"rental_uris":{"android":"levelo://app?vid=63cb4960-1f8d-4d8d-a273-406b763e3f5e","ios":"levelo://app?vid=63cb4960-1f8d-4d8d-a273-406b763e3f5e"},"vehicle_type_id":"4","last_reported":1769181343,"current_range_meters":6800,"station_id":"ce4bhih2rcd13ifvqfs0","pricing_plan_id":"cebpf4jnsgd1na2vs0mg"},{"bike_id":"d8368424-7a2e-4ab4-b75d-24eb5c1743cf","system_id":"levelo_inurba_marseille","lat":43.305287,"lon":5.36711,"is_reserved":false,"is_disabled":false,"rental_uris":{"android":"levelo://app?vid=d8368424-7a2e-4ab4-b75d-24eb5c1743cf","ios":"levelo://app?vid=d8368424-7a2e-4ab4-b75d-24eb5c1743cf"},"vehicle_type_id":"4","last_reported":1769181343,"current_range_meters":6800,"station_id":"ce4bgrp2rcd13ifvqc9g","pricing_plan_id":"cebpf4jnsgd1na2vs0mg"},{"bike_id":"06dfaeef-59c6-4891-a191-7cdba5fe4cc8","system_id":"levelo_inurba_marseille","lat":43.28927,"lon":5.38391,"is_reserved":false,"is_disabled":false,"rental_uris":{"android":"levelo://app?vid=06dfaeef-59c6-4891-a191-7cdba5fe4cc8","ios":"levelo://app?vid=06dfaeef-59c6-4891-a191-7cdba5fe4cc8"},"vehicle_type_id":"4","last_reported":1769181343,"current_range_meters":6800,"station_id":"ce4bh612rcd13ifvqe6g","pricing_plan_id":"cebpf4jnsgd1na2vs0mg"},{"bike_id":"16590669-22b9-475f-acf3-c7e2ee0e80fd","system_id":"levelo_inurba_marseille","lat":43.250072,"lon":5.389211,"is_reserved":false,"is_disabled":false,"rental_uris":{"android":"levelo://app?vid=16590669-22b9-475f-acf3-c7e2ee0e80fd","ios":"levelo://app?vid=16590669-22b9-475f-acf3-c7e2ee0e80fd"},"vehicle_type_id":"4","last_reported":1769181343,"current_range_meters":6800,"station_id":"ce4bhgp2rcd13ifvqfd0","pricing_plan_id":"cebpf4jnsgd1na2vs0mg"},{"bike_id":"3046e026-9ad0-4040-9762-5420b00c2e3e","system_id":"levelo_inurba_marseille","lat":43.3105,"lon":5.37181,"is_reserved":false,"is_disabled":false,"rental_uris":{"android":"levelo://app?vid=3046e026-9ad0-4040-9762-5420b00c2e3e","ios":"levelo://app?vid=3046e026-9ad0-4040-9762-5420b00c2e3e"},"vehicle_type_id":"4","last_reported":1769181343,"current_range_meters":6800,"station_id":"st_d4kl2rp97mjs73e7tdfg","pricing_plan_id":"cebpf4jnsgd1na2vs0mg"},{"bike_id":"9aa317f7-a880-4ad1-9653-4813e1564b2a","system_id":"levelo_inurba_marseille","lat":43.31229,"lon":5.36842,"is_reserved":false,"is_disabled":false,"rental_uris":{"android":"levelo://app?vid=9aa317f7-a880-4ad1-9653-4813e1564b2a","ios":"levelo://app?vid=9aa317f7-a880-4ad1-9653-4813e1564b2a"},"vehicle_type_id":"4","last_reported":1769181343,"current_range_meters":6800,"station_id":"ce4bgl92rcd13ifvqbq0","pricing_plan_id":"cebpf4jnsgd1na2vs0mg"},{"bike_id":"99fcd333-d937-4dfa-abd1-3944554bdfba","system_id":"levelo_inurba_marseille","lat":43.30534,"lon":5.36535,"is_reserved":false,"is_disabled":false,"rental_uris":{"android":"levelo://app?vid=99fcd333-d937-4dfa-abd1-3944554bdfba","ios":"levelo://app?vid=99fcd333-d937-4dfa-abd1-3944554bdfba"},"vehicle_type_id":"4","last_reported":1769181343,"current_range_meters":6800,"station_id":"ce4bgs12rcd13ifvqcag","pricing_plan_id":"cebpf4jnsgd1na2vs0mg"},{"bike_id":"a413154f-5f8a-4dd1-8bc8-08f92ef3014c","system_id":"levelo_inurba_marseille","lat":43.28513,"lon":5.38417,"is_reserved":false,"is_disabled":false,"rental_uris":{"android":"levelo://app?vid=a413154f-5f8a-4dd1-8bc8-08f92ef3014c","ios":"levelo://app?vid=a413154f-5f8a-4dd1-8bc8-08f92ef3014c"},"vehicle_type_id":"4","last_reported":1769181343,"current_range_meters":7200,"station_id":"ce4bh512rcd13ifvqe3g","pricing_plan_id":"cebpf4jnsgd1na2vs0mg"},{"bike_id":"f2193dc0-9d2b-4279-a0db-7e21b70b0a7b","system_id":"levelo_inurba_marseille","lat":43.29908,"lon":5.38158,"is_reserved":false,"is_disabled":false,"rental_uris":{"android":"levelo://app?vid=f2193dc0-9d2b-4279-a0db-7e21b70b0a7b","ios":"levelo://app?vid=f2193dc0-9d2b-4279-a0db-7e21b70b0a7b"},"vehicle_type_id":"4","last_reported":1769181343,"current_range_meters":7200,"station_id":"ce4bgj12rcd13ifvqbc0","pricing_plan_id":"cebpf4jnsgd1na2vs0mg"},{"bike_id":"dc82bfc6-2b44-4bff-8892-9b8eb7e91578","system_id":"levelo_inurba_marseille","lat":43.23973,"lon":5.36618,"is_reserved":false,"is_disabled":false,"rental_uris":{"android":"levelo://app?vid=dc82bfc6-2b44-4bff-8892-9b8eb7e91578","ios":"levelo://app?vid=dc82bfc6-2b44-4bff-8892-9b8eb7e91578"},"vehicle_type_id":"4","last_reported":1769181343,"current_range_meters":7200,"station_id":"ce4bhi12rcd13ifvqfp0","pricing_plan_id":"cebpf4jnsgd1na2vs0mg"},{"bike_id":"d2dd2bd5-35c6-4cf8-86dc-87c4bf274249","system_id":"levelo_inurba_marseille","lat":43.24641,"lon":5.38899,"is_reserved":false,"is_disabled":false,"rental_uris":{"android":"levelo://app?vid=d2dd2bd5-35c6-4cf8-86dc-87c4bf274249","ios":"levelo://app?vid=d2dd2bd5-35c6-4cf8-86dc-87c4bf274249"},"vehicle_type_id":"4","last_reported":1769181343,"current_range_meters":7200,"station_id":"ce4bhg12rcd13ifvqf60","pricing_plan_id":"cebpf4jnsgd1na2vs0mg"},{"bike_id":"84a12454-d2e3-4990-b60e-c131a4bbf879","system_id":"levelo_inurba_marseille","lat":43.29622,"lon":5.37142,"is_reserved":false,"is_disabled":false,"rental_uris":{"android":"levelo://app?vid=84a12454-d2e3-4990-b60e-c131a4bbf879","ios":"levelo://app?vid=84a12454-d2e3-4990-b60e-c131a4bbf879"},"vehicle_type_id":"4","last_reported":1769181343,"current_range_meters":7200,"station_id":"ce4bgnh2rcd13ifvqc0g","pricing_plan_id":"cebpf4jnsgd1na2vs0mg"},{"bike_id":"7a979796-e9e0-46a0-8894-e0515e90f174","system_id":"levelo_inurba_marseille","lat":43.28005,"lon":5.39957,"is_reserved":false,"is_disabled":true,"rental_uris":{"android":"levelo://app?vid=7a979796-e9e0-46a0-8894-e0515e90f174","ios":"levelo://app?vid=7a979796-e9e0-46a0-8894-e0515e90f174"},"vehicle_type_id":"4","last_reported":1769181343,"current_range_meters":7200,"station_id":"ce4bho92rcd13ifvqh4g","pricing_plan_id":"cebpf4jnsgd1na2vs0mg"},{"bike_id":"33fc742a-a588-4e47-9cc8-3a0d0808d058","system_id":"levelo_inurba_marseille","lat":43.23143,"lon":5.43717,"is_reserved":false,"is_disabled":false,"rental_uris":{"android":"levelo://app?vid=33fc742a-a588-4e47-9cc8-3a0d0808d058","ios":"levelo://app?vid=33fc742a-a588-4e47-9cc8-3a0d0808d058"},"vehicle_type_id":"4","last_reported":1769181343,"current_range_meters":7200,"station_id":"ce4bhmp2rcd13ifvqgog","pricing_plan_id":"cebpf4jnsgd1na2vs0mg"},{"bike_id":"3335e611-99b9-4726-b980-d8c65126a65e","system_id":"levelo_inurba_marseille","lat":43.26491,"lon":5.39545,"is_reserved":false,"is_disabled":false,"rental_uris":{"android":"levelo://app?vid=3335e611-99b9-4726-b980-d8c65126a65e","ios":"levelo://app?vid=3335e611-99b9-4726-b980-d8c65126a65e"},"vehicle_type_id":"4","last_reported":1769181343,"current_range_meters":7200,"station_id":"ce4bhi12rcd13ifvqfq0","pricing_plan_id":"cebpf4jnsgd1na2vs0mg"},{"bike_id":"19d5bb9b-30cd-437d-a539-c3709cfd80aa","system_id":"levelo_inurba_marseille","lat":43.28489,"lon":5.38538,"is_reserved":false,"is_disabled":false,"rental_uris":{"android":"levelo://app?vid=19d5bb9b-30cd-437d-a539-c3709cfd80aa","ios":"levelo://app?vid=19d5bb9b-30cd-437d-a539-c3709cfd80aa"},"vehicle_type_id":"4","last_reported":1769181343,"current_range_meters":7200,"station_id":"ce4bh8p2rcd13ifvqeb0","pricing_plan_id":"cebpf4jnsgd1na2vs0mg"},{"bike_id":"5560fc7f-1e40-4887-b56f-d8792953a489","system_id":"levelo_inurba_marseille","lat":43.24153,"lon":5.36403,"is_reserved":false,"is_disabled":false,"rental_uris":{"android":"levelo://app?vid=5560fc7f-1e40-4887-b56f-d8792953a489","ios":"levelo://app?vid=5560fc7f-1e40-4887-b56f-d8792953a489"},"vehicle_type_id":"4","last_reported":1769181343,"current_range_meters":7200,"station_id":"cpo36qri1sfpv3e86is0","pricing_plan_id":"cebpf4jnsgd1na2vs0mg"},{"bike_id":"d5979a98-94ba-4609-af07-e02fe23bf3bc","system_id":"levelo_inurba_marseille","lat":43.22561,"lon":5.41627,"is_reserved":false,"is_disabled":false,"rental_uris":{"android":"levelo://app?vid=d5979a98-94ba-4609-af07-e02fe23bf3bc","ios":"levelo://app?vid=d5979a98-94ba-4609-af07-e02fe23bf3bc"},"vehicle_type_id":"4","last_reported":1769181343,"current_range_meters":7200,"station_id":"st_d2o4gvlbi1j2169b742g","pricing_plan_id":"cebpf4jnsgd1na2vs0mg"},{"bike_id":"d3746757-64c0-4deb-8ffa-a59c72b048ff","system_id":"levelo_inurba_marseille","lat":43.296936,"lon":5.37292,"is_reserved":false,"is_disabled":false,"rental_uris":{"android":"levelo://app?vid=d3746757-64c0-4deb-8ffa-a59c72b048ff","ios":"levelo://app?vid=d3746757-64c0-4deb-8ffa-a59c72b048ff"},"vehicle_type_id":"4","last_reported":1769181343,"current_range_meters":7200,"station_id":"ce4bgk12rcd13ifvqbj0","pricing_plan_id":"cebpf4jnsgd1na2vs0mg"},{"bike_id":"bad75388-e421-4a71-a9aa-cd2865663d67","system_id":"levelo_inurba_marseille","lat":43.32106,"lon":5.36776,"is_reserved":false,"is_disabled":false,"rental_uris":{"android":"levelo://app?vid=bad75388-e421-4a71-a9aa-cd2865663d67","ios":"levelo://app?vid=bad75388-e421-4a71-a9aa-cd2865663d67"},"vehicle_type_id":"4","last_reported":1769181343,"current_range_meters":7200,"station_id":"ce4bhrh2rcd13ifvqhug","pricing_plan_id":"cebpf4jnsgd1na2vs0mg"},{"bike_id":"43b70cbf-5d79-4659-a127-78df3de36ead","system_id":"levelo_inurba_marseille","lat":43.29056,"lon":5.37158,"is_reserved":false,"is_disabled":false,"rental_uris":{"android":"levelo://app?vid=43b70cbf-5d79-4659-a127-78df3de36ead","ios":"levelo://app?vid=43b70cbf-5d79-4659-a127-78df3de36ead"},"vehicle_type_id":"4","last_reported":1769181343,"current_range_meters":7200,"station_id":"ce4bh5p2rcd13ifvqe4g","pricing_plan_id":"cebpf4jnsgd1na2vs0mg"},{"bike_id":"d1a1a267-187e-45c7-9d7e-a93320f0a922","system_id":"levelo_inurba_marseille","lat":43.29555,"lon":5.42289,"is_reserved":false,"is_disabled":false,"rental_uris":{"android":"levelo://app?vid=d1a1a267-187e-45c7-9d7e-a93320f0a922","ios":"levelo://app?vid=d1a1a267-187e-45c7-9d7e-a93320f0a922"},"vehicle_type_id":"4","last_reported":1769181343,"current_range_meters":7200,"station_id":"ce4bhph2rcd13ifvqhdg","pricing_plan_id":"cebpf4jnsgd1na2vs0mg"},{"bike_id":"02e7a81c-add2-44fa-966b-2d696b46b0f6","system_id":"levelo_inurba_marseille","lat":43.29485,"lon":5.3738,"is_reserved":false,"is_disabled":false,"rental_uris":{"android":"levelo://app?vid=02e7a81c-add2-44fa-966b-2d696b46b0f6","ios":"levelo://app?vid=02e7a81c-add2-44fa-966b-2d696b46b0f6"},"vehicle_type_id":"4","last_reported":1769181343,"current_range_meters":7200,"station_id":"","pricing_plan_id":"cebpf4jnsgd1na2vs0mg"},{"bike_id":"10d81607-b2c6-4f43-9034-1dd057977b39","system_id":"levelo_inurba_marseille","lat":43.24203,"lon":5.39681,"is_reserved":false,"is_disabled":false,"rental_uris":{"android":"levelo://app?vid=10d81607-b2c6-4f43-9034-1dd057977b39","ios":"levelo://app?vid=10d81607-b2c6-4f43-9034-1dd057977b39"},"vehicle_type_id":"4","last_reported":1769181343,"current_range_meters":7200,"station_id":"ce4bhn12rcd13ifvqgpg","pricing_plan_id":"cebpf4jnsgd1na2vs0mg"},{"bike_id":"d353250a-6d8e-425f-8ab5-08d14be74d5b","system_id":"levelo_inurba_marseille","lat":43.29593,"lon":5.38096,"is_reserved":false,"is_disabled":false,"rental_uris":{"android":"levelo://app?vid=d353250a-6d8e-425f-8ab5-08d14be74d5b","ios":"levelo://app?vid=d353250a-6d8e-425f-8ab5-08d14be74d5b"},"vehicle_type_id":"4","last_reported":1769181343,"current_range_meters":7200,"station_id":"ce4bgl12rcd13ifvqbo0","pricing_plan_id":"cebpf4jnsgd1na2vs0mg"},{"bike_id":"731e3c39-4cfc-47aa-926e-d6f514d68010","system_id":"levelo_inurba_marseille","lat":43.22561,"lon":5.41617,"is_reserved":false,"is_disabled":false,"rental_uris":{"android":"levelo://app?vid=731e3c39-4cfc-47aa-926e-d6f514d68010","ios":"levelo://app?vid=731e3c39-4cfc-47aa-926e-d6f514d68010"},"vehicle_type_id":"4","last_reported":1769181343,"current_range_meters":8000,"station_id":"st_d2o4gvlbi1j2169b742g","pricing_plan_id":"cebpf4jnsgd1na2vs0mg"},{"bike_id":"c0bc2852-f707-4be0-bf2e-f4824af48c53","system_id":"levelo_inurba_marseille","lat":43.23183,"lon":5.39982,"is_reserved":false,"is_disabled":false,"rental_uris":{"android":"levelo://app?vid=c0bc2852-f707-4be0-bf2e-f4824af48c53","ios":"levelo://app?vid=c0bc2852-f707-4be0-bf2e-f4824af48c53"},"vehicle_type_id":"4","last_reported":1769181343,"current_range_meters":8000,"station_id":"ce4bhn12rcd13ifvqgqg","pricing_plan_id":"cebpf4jnsgd1na2vs0mg"},{"bike_id":"9a401371-c11b-4fb8-a6da-d007a0da7136","system_id":"levelo_inurba_marseille","lat":43.29534,"lon":5.38542,"is_reserved":false,"is_disabled":false,"rental_uris":{"android":"levelo://app?vid=9a401371-c11b-4fb8-a6da-d007a0da7136","ios":"levelo://app?vid=9a401371-c11b-4fb8-a6da-d007a0da7136"},"vehicle_type_id":"4","last_reported":1769181343,"current_range_meters":8000,"station_id":"ce4bgih2rcd13ifvqba0","pricing_plan_id":"cebpf4jnsgd1na2vs0mg"},{"bike_id":"a35fc7cd-b47c-4ba6-a634-a7d7023a9baf","system_id":"levelo_inurba_marseille","lat":43.29284,"lon":5.38438,"is_reserved":false,"is_disabled":false,"rental_uris":{"android":"levelo://app?vid=a35fc7cd-b47c-4ba6-a634-a7d7023a9baf","ios":"levelo://app?vid=a35fc7cd-b47c-4ba6-a634-a7d7023a9baf"},"vehicle_type_id":"4","last_reported":1769181343,"current_range_meters":8000,"station_id":"ce4bh692rcd13ifvqea0","pricing_plan_id":"cebpf4jnsgd1na2vs0mg"},{"bike_id":"ee1097c7-66cb-4cde-affa-a4b0a3128b81","system_id":"levelo_inurba_marseille","lat":43.28448,"lon":5.37157,"is_reserved":false,"is_disabled":false,"rental_uris":{"android":"levelo://app?vid=ee1097c7-66cb-4cde-affa-a4b0a3128b81","ios":"levelo://app?vid=ee1097c7-66cb-4cde-affa-a4b0a3128b81"},"vehicle_type_id":"4","last_reported":1769181343,"current_range_meters":8000,"station_id":"","pricing_plan_id":"cebpf4jnsgd1na2vs0mg"},{"bike_id":"078c9eab-27b6-460e-a26e-8ce7fa01f3b7","system_id":"levelo_inurba_marseille","lat":43.28716,"lon":5.37935,"is_reserved":false,"is_disabled":false,"rental_uris":{"android":"levelo://app?vid=078c9eab-27b6-460e-a26e-8ce7fa01f3b7","ios":"levelo://app?vid=078c9eab-27b6-460e-a26e-8ce7fa01f3b7"},"vehicle_type_id":"4","last_reported":1769181343,"current_range_meters":8000,"station_id":"ce4bh9p2rcd13ifvqec0","pricing_plan_id":"cebpf4jnsgd1na2vs0mg"},{"bike_id":"d1248e4b-c241-4185-9668-62cef44fb4ea","system_id":"levelo_inurba_marseille","lat":43.32327,"lon":5.36739,"is_reserved":false,"is_disabled":false,"rental_uris":{"android":"levelo://app?vid=d1248e4b-c241-4185-9668-62cef44fb4ea","ios":"levelo://app?vid=d1248e4b-c241-4185-9668-62cef44fb4ea"},"vehicle_type_id":"4","last_reported":1769181343,"current_range_meters":8000,"station_id":"ce4bhsh2rcd13ifvqi2g","pricing_plan_id":"cebpf4jnsgd1na2vs0mg"},{"bike_id":"5ad4a4e9-d234-4fde-a564-4f6265280587","system_id":"levelo_inurba_marseille","lat":43.28716,"lon":5.37954,"is_reserved":false,"is_disabled":false,"rental_uris":{"android":"levelo://app?vid=5ad4a4e9-d234-4fde-a564-4f6265280587","ios":"levelo://app?vid=5ad4a4e9-d234-4fde-a564-4f6265280587"},"vehicle_type_id":"4","last_reported":1769181343,"current_range_meters":8000,"station_id":"ce4bh9p2rcd13ifvqec0","pricing_plan_id":"cebpf4jnsgd1na2vs0mg"},{"bike_id":"6282d9a7-88b7-444d-a3bd-050bf586be70","system_id":"levelo_inurba_marseille","lat":43.29686,"lon":5.37295,"is_reserved":false,"is_disabled":false,"rental_uris":{"android":"levelo://app?vid=6282d9a7-88b7-444d-a3bd-050bf586be70","ios":"levelo://app?vid=6282d9a7-88b7-444d-a3bd-050bf586be70"},"vehicle_type_id":"4","last_reported":1769181343,"current_range_meters":8000,"station_id":"ce4bgk12rcd13ifvqbj0","pricing_plan_id":"cebpf4jnsgd1na2vs0mg"},{"bike_id":"83cfc6fc-818a-4d29-b877-3fdba22e0a51","system_id":"levelo_inurba_marseille","lat":43.30525,"lon":5.36696,"is_reserved":false,"is_disabled":false,"rental_uris":{"android":"levelo://app?vid=83cfc6fc-818a-4d29-b877-3fdba22e0a51","ios":"levelo://app?vid=83cfc6fc-818a-4d29-b877-3fdba22e0a51"},"vehicle_type_id":"4","last_reported":1769181343,"current_range_meters":8000,"station_id":"ce4bgrp2rcd13ifvqc9g","pricing_plan_id":"cebpf4jnsgd1na2vs0mg"},{"bike_id":"aa51067b-c1b9-4f70-974f-59c7e2ea4923","system_id":"levelo_inurba_marseille","lat":43.33151,"lon":5.3769,"is_reserved":false,"is_disabled":false,"rental_uris":{"android":"levelo://app?vid=aa51067b-c1b9-4f70-974f-59c7e2ea4923","ios":"levelo://app?vid=aa51067b-c1b9-4f70-974f-59c7e2ea4923"},"vehicle_type_id":"4","last_reported":1769181343,"current_range_meters":8000,"station_id":"st_d46cu089ee8s73dldbu0","pricing_plan_id":"cebpf4jnsgd1na2vs0mg"},{"bike_id":"94d95d66-6f20-41e5-8a05-91ff1e9e867a","system_id":"levelo_inurba_marseille","lat":43.28607,"lon":5.351,"is_reserved":false,"is_disabled":false,"rental_uris":{"android":"levelo://app?vid=94d95d66-6f20-41e5-8a05-91ff1e9e867a","ios":"levelo://app?vid=94d95d66-6f20-41e5-8a05-91ff1e9e867a"},"vehicle_type_id":"4","last_reported":1769181343,"current_range_meters":8000,"station_id":"ce4bhch2rcd13ifvqeug","pricing_plan_id":"cebpf4jnsgd1na2vs0mg"},{"bike_id":"04df064f-6595-4d9c-a76e-ac9b3521f389","system_id":"levelo_inurba_marseille","lat":43.2466,"lon":5.38898,"is_reserved":false,"is_disabled":false,"rental_uris":{"android":"levelo://app?vid=04df064f-6595-4d9c-a76e-ac9b3521f389","ios":"levelo://app?vid=04df064f-6595-4d9c-a76e-ac9b3521f389"},"vehicle_type_id":"4","last_reported":1769181343,"current_range_meters":8000,"station_id":"ce4bhg12rcd13ifvqf60","pricing_plan_id":"cebpf4jnsgd1na2vs0mg"},{"bike_id":"1be54819-e68b-42d5-8fc1-ae52d00eefcc","system_id":"levelo_inurba_marseille","lat":43.28348,"lon":5.38098,"is_reserved":false,"is_disabled":false,"rental_uris":{"android":"levelo://app?vid=1be54819-e68b-42d5-8fc1-ae52d00eefcc","ios":"levelo://app?vid=1be54819-e68b-42d5-8fc1-ae52d00eefcc"},"vehicle_type_id":"4","last_reported":1769181343,"current_range_meters":8000,"station_id":"ce4bh412rcd13ifvqdr0","pricing_plan_id":"cebpf4jnsgd1na2vs0mg"},{"bike_id":"ae8e9382-88d3-4359-841f-5d319be1dcf8","system_id":"levelo_inurba_marseille","lat":43.27074,"lon":5.42273,"is_reserved":false,"is_disabled":false,"rental_uris":{"android":"levelo://app?vid=ae8e9382-88d3-4359-841f-5d319be1dcf8","ios":"levelo://app?vid=ae8e9382-88d3-4359-841f-5d319be1dcf8"},"vehicle_type_id":"4","last_reported":1769181343,"current_range_meters":8000,"station_id":"ce4bhk92rcd13ifvqgb0","pricing_plan_id":"cebpf4jnsgd1na2vs0mg"},{"bike_id":"b6b95095-f7b8-4d1d-88be-d2fe44e905cd","system_id":"levelo_inurba_marseille","lat":43.287053,"lon":5.39987,"is_reserved":false,"is_disabled":false,"rental_uris":{"android":"levelo://app?vid=b6b95095-f7b8-4d1d-88be-d2fe44e905cd","ios":"levelo://app?vid=b6b95095-f7b8-4d1d-88be-d2fe44e905cd"},"vehicle_type_id":"4","last_reported":1769181343,"current_range_meters":8000,"station_id":"ce4bho92rcd13ifvqh3g","pricing_plan_id":"cebpf4jnsgd1na2vs0mg"},{"bike_id":"47e7e0ac-40e0-484e-ac22-3088ea2d92b2","system_id":"levelo_inurba_marseille","lat":43.273058,"lon":5.391207,"is_reserved":false,"is_disabled":false,"rental_uris":{"android":"levelo://app?vid=47e7e0ac-40e0-484e-ac22-3088ea2d92b2","ios":"levelo://app?vid=47e7e0ac-40e0-484e-ac22-3088ea2d92b2"},"vehicle_type_id":"4","last_reported":1769181343,"current_range_meters":8000,"station_id":"ce4bhgp2rcd13ifvqfe0","pricing_plan_id":"cebpf4jnsgd1na2vs0mg"},{"bike_id":"242c68f1-6b62-4a57-bfce-28531eca4eaf","system_id":"levelo_inurba_marseille","lat":43.297544,"lon":5.427684,"is_reserved":false,"is_disabled":false,"rental_uris":{"android":"levelo://app?vid=242c68f1-6b62-4a57-bfce-28531eca4eaf","ios":"levelo://app?vid=242c68f1-6b62-4a57-bfce-28531eca4eaf"},"vehicle_type_id":"4","last_reported":1769181343,"current_range_meters":8000,"station_id":"st_d3md5207bmas73dh9klg","pricing_plan_id":"cebpf4jnsgd1na2vs0mg"},{"bike_id":"8750ab90-342c-4b21-9046-287ee13df746","system_id":"levelo_inurba_marseille","lat":43.32346,"lon":5.3672,"is_reserved":false,"is_disabled":false,"rental_uris":{"android":"levelo://app?vid=8750ab90-342c-4b21-9046-287ee13df746","ios":"levelo://app?vid=8750ab90-342c-4b21-9046-287ee13df746"},"vehicle_type_id":"4","last_reported":1769181343,"current_range_meters":8000,"station_id":"ce4bhsh2rcd13ifvqi2g","pricing_plan_id":"cebpf4jnsgd1na2vs0mg"},{"bike_id":"3d597fd9-858c-4201-b70e-c019a48ebc4d","system_id":"levelo_inurba_marseille","lat":43.26371,"lon":5.41069,"is_reserved":false,"is_disabled":false,"rental_uris":{"android":"levelo://app?vid=3d597fd9-858c-4201-b70e-c019a48ebc4d","ios":"levelo://app?vid=3d597fd9-858c-4201-b70e-c019a48ebc4d"},"vehicle_type_id":"4","last_reported":1769181343,"current_range_meters":8000,"station_id":"st_d4e5ca6na9uc73bfl5fg","pricing_plan_id":"cebpf4jnsgd1na2vs0mg"},{"bike_id":"5c6da10b-38e9-4dc2-819a-b9596fb94c5b","system_id":"levelo_inurba_marseille","lat":43.26216,"lon":5.37428,"is_reserved":false,"is_disabled":false,"rental_uris":{"android":"levelo://app?vid=5c6da10b-38e9-4dc2-819a-b9596fb94c5b","ios":"levelo://app?vid=5c6da10b-38e9-4dc2-819a-b9596fb94c5b"},"vehicle_type_id":"4","last_reported":1769181343,"current_range_meters":8400,"station_id":"ce4bhgp2rcd13ifvqfc0","pricing_plan_id":"cebpf4jnsgd1na2vs0mg"},{"bike_id":"9610a3a8-a0cb-4f50-91d5-011de8a06a00","system_id":"levelo_inurba_marseille","lat":43.321084,"lon":5.367844,"is_reserved":false,"is_disabled":false,"rental_uris":{"android":"levelo://app?vid=9610a3a8-a0cb-4f50-91d5-011de8a06a00","ios":"levelo://app?vid=9610a3a8-a0cb-4f50-91d5-011de8a06a00"},"vehicle_type_id":"4","last_reported":1769181343,"current_range_meters":8400,"station_id":"ce4bhrh2rcd13ifvqhug","pricing_plan_id":"cebpf4jnsgd1na2vs0mg"},{"bike_id":"6ef2b20a-d546-45bb-a3e9-3830940c9ebd","system_id":"levelo_inurba_marseille","lat":43.2827,"lon":5.35079,"is_reserved":false,"is_disabled":false,"rental_uris":{"android":"levelo://app?vid=6ef2b20a-d546-45bb-a3e9-3830940c9ebd","ios":"levelo://app?vid=6ef2b20a-d546-45bb-a3e9-3830940c9ebd"},"vehicle_type_id":"4","last_reported":1769181343,"current_range_meters":8400,"station_id":"ce4bhbp2rcd13ifvqerg","pricing_plan_id":"cebpf4jnsgd1na2vs0mg"},{"bike_id":"16bac1b9-8c78-40e2-a2a0-840ef0df37e4","system_id":"levelo_inurba_marseille","lat":43.29261,"lon":5.36869,"is_reserved":false,"is_disabled":false,"rental_uris":{"android":"levelo://app?vid=16bac1b9-8c78-40e2-a2a0-840ef0df37e4","ios":"levelo://app?vid=16bac1b9-8c78-40e2-a2a0-840ef0df37e4"},"vehicle_type_id":"4","last_reported":1769181343,"current_range_meters":8400,"station_id":"ce4bhbp2rcd13ifvqesg","pricing_plan_id":"cebpf4jnsgd1na2vs0mg"},{"bike_id":"be188634-c5e5-46a9-9514-883e3afcd281","system_id":"levelo_inurba_marseille","lat":43.30599,"lon":5.39644,"is_reserved":false,"is_disabled":false,"rental_uris":{"android":"levelo://app?vid=be188634-c5e5-46a9-9514-883e3afcd281","ios":"levelo://app?vid=be188634-c5e5-46a9-9514-883e3afcd281"},"vehicle_type_id":"4","last_reported":1769181343,"current_range_meters":8400,"station_id":"","pricing_plan_id":"cebpf4jnsgd1na2vs0mg"},{"bike_id":"57b43f2a-3d06-4b94-a5cb-9405fbbf5392","system_id":"levelo_inurba_marseille","lat":43.30156,"lon":5.38072,"is_reserved":false,"is_disabled":false,"rental_uris":{"android":"levelo://app?vid=57b43f2a-3d06-4b94-a5cb-9405fbbf5392","ios":"levelo://app?vid=57b43f2a-3d06-4b94-a5cb-9405fbbf5392"},"vehicle_type_id":"4","last_reported":1769181343,"current_range_meters":8400,"station_id":"ce4bgjp2rcd13ifvqbh0","pricing_plan_id":"cebpf4jnsgd1na2vs0mg"},{"bike_id":"6e591a18-3633-4f7c-b4dd-aa11c4b92c0d","system_id":"levelo_inurba_marseille","lat":43.2884,"lon":5.393245,"is_reserved":false,"is_disabled":false,"rental_uris":{"android":"levelo://app?vid=6e591a18-3633-4f7c-b4dd-aa11c4b92c0d","ios":"levelo://app?vid=6e591a18-3633-4f7c-b4dd-aa11c4b92c0d"},"vehicle_type_id":"4","last_reported":1769181343,"current_range_meters":8400,"station_id":"ce4bh2p2rcd13ifvqdi0","pricing_plan_id":"cebpf4jnsgd1na2vs0mg"},{"bike_id":"15ce2f7b-e27b-4b73-b1d7-521910c86f00","system_id":"levelo_inurba_marseille","lat":43.28475,"lon":5.48385,"is_reserved":false,"is_disabled":false,"rental_uris":{"android":"levelo://app?vid=15ce2f7b-e27b-4b73-b1d7-521910c86f00","ios":"levelo://app?vid=15ce2f7b-e27b-4b73-b1d7-521910c86f00"},"vehicle_type_id":"4","last_reported":1769181343,"current_range_meters":8400,"station_id":"st_d3svhcjqgbts73a3dn0g","pricing_plan_id":"cebpf4jnsgd1na2vs0mg"},{"bike_id":"ea1935c2-5853-41a2-9dd7-375ef38f5b66","system_id":"levelo_inurba_marseille","lat":43.27938,"lon":5.41046,"is_reserved":false,"is_disabled":false,"rental_uris":{"android":"levelo://app?vid=ea1935c2-5853-41a2-9dd7-375ef38f5b66","ios":"levelo://app?vid=ea1935c2-5853-41a2-9dd7-375ef38f5b66"},"vehicle_type_id":"4","last_reported":1769181343,"current_range_meters":8400,"station_id":"ce4bhnp2rcd13ifvqh0g","pricing_plan_id":"cebpf4jnsgd1na2vs0mg"},{"bike_id":"42258f14-4722-4aac-b949-245a1ef55bb3","system_id":"levelo_inurba_marseille","lat":43.22913,"lon":5.35387,"is_reserved":false,"is_disabled":false,"rental_uris":{"android":"levelo://app?vid=42258f14-4722-4aac-b949-245a1ef55bb3","ios":"levelo://app?vid=42258f14-4722-4aac-b949-245a1ef55bb3"},"vehicle_type_id":"4","last_reported":1769181343,"current_range_meters":8400,"station_id":"cpo3532slgdg3j2ikp40","pricing_plan_id":"cebpf4jnsgd1na2vs0mg"},{"bike_id":"c9389fd4-af01-4458-ab7b-0fb1fe06acd7","system_id":"levelo_inurba_marseille","lat":43.2315,"lon":5.43721,"is_reserved":false,"is_disabled":false,"rental_uris":{"android":"levelo://app?vid=c9389fd4-af01-4458-ab7b-0fb1fe06acd7","ios":"levelo://app?vid=c9389fd4-af01-4458-ab7b-0fb1fe06acd7"},"vehicle_type_id":"4","last_reported":1769181343,"current_range_meters":8400,"station_id":"ce4bhmp2rcd13ifvqgog","pricing_plan_id":"cebpf4jnsgd1na2vs0mg"},{"bike_id":"88dd3c19-c993-46c3-9f2c-9a3ac134206e","system_id":"levelo_inurba_marseille","lat":43.26573,"lon":5.37282,"is_reserved":false,"is_disabled":false,"rental_uris":{"android":"levelo://app?vid=88dd3c19-c993-46c3-9f2c-9a3ac134206e","ios":"levelo://app?vid=88dd3c19-c993-46c3-9f2c-9a3ac134206e"},"vehicle_type_id":"4","last_reported":1769181343,"current_range_meters":8400,"station_id":"ce4bhg12rcd13ifvqf70","pricing_plan_id":"cebpf4jnsgd1na2vs0mg"},{"bike_id":"b7bcec5f-d6cd-483b-85d2-4908faca8d05","system_id":"levelo_inurba_marseille","lat":43.24686,"lon":5.38135,"is_reserved":false,"is_disabled":false,"rental_uris":{"android":"levelo://app?vid=b7bcec5f-d6cd-483b-85d2-4908faca8d05","ios":"levelo://app?vid=b7bcec5f-d6cd-483b-85d2-4908faca8d05"},"vehicle_type_id":"4","last_reported":1769181343,"current_range_meters":8400,"station_id":"ce4bhih2rcd13ifvqfr0","pricing_plan_id":"cebpf4jnsgd1na2vs0mg"},{"bike_id":"769eba54-6c68-421c-bade-c73118996ec3","system_id":"levelo_inurba_marseille","lat":43.28616,"lon":5.40372,"is_reserved":false,"is_disabled":false,"rental_uris":{"android":"levelo://app?vid=769eba54-6c68-421c-bade-c73118996ec3","ios":"levelo://app?vid=769eba54-6c68-421c-bade-c73118996ec3"},"vehicle_type_id":"4","last_reported":1769181343,"current_range_meters":8800,"station_id":"","pricing_plan_id":"cebpf4jnsgd1na2vs0mg"},{"bike_id":"4f500101-ee1c-4456-87d4-30f775017429","system_id":"levelo_inurba_marseille","lat":43.29519,"lon":5.42252,"is_reserved":false,"is_disabled":false,"rental_uris":{"android":"levelo://app?vid=4f500101-ee1c-4456-87d4-30f775017429","ios":"levelo://app?vid=4f500101-ee1c-4456-87d4-30f775017429"},"vehicle_type_id":"4","last_reported":1769181343,"current_range_meters":8800,"station_id":"ce4bhph2rcd13ifvqhdg","pricing_plan_id":"cebpf4jnsgd1na2vs0mg"},{"bike_id":"126cf0a7-4589-4b93-bb41-55dcf1b0bf93","system_id":"levelo_inurba_marseille","lat":43.26553,"lon":5.37283,"is_reserved":false,"is_disabled":false,"rental_uris":{"android":"levelo://app?vid=126cf0a7-4589-4b93-bb41-55dcf1b0bf93","ios":"levelo://app?vid=126cf0a7-4589-4b93-bb41-55dcf1b0bf93"},"vehicle_type_id":"4","last_reported":1769181343,"current_range_meters":8800,"station_id":"ce4bhg12rcd13ifvqf70","pricing_plan_id":"cebpf4jnsgd1na2vs0mg"},{"bike_id":"1d00bce8-fc7c-49fb-8763-ca16cb02ace0","system_id":"levelo_inurba_marseille","lat":43.30149,"lon":5.37388,"is_reserved":false,"is_disabled":false,"rental_uris":{"android":"levelo://app?vid=1d00bce8-fc7c-49fb-8763-ca16cb02ace0","ios":"levelo://app?vid=1d00bce8-fc7c-49fb-8763-ca16cb02ace0"},"vehicle_type_id":"4","last_reported":1769181343,"current_range_meters":8800,"station_id":"ce4bgs92rcd13ifvqcc0","pricing_plan_id":"cebpf4jnsgd1na2vs0mg"},{"bike_id":"46f75794-75d1-4ef5-98be-9fe9801b2e3c","system_id":"levelo_inurba_marseille","lat":43.31379,"lon":5.36697,"is_reserved":false,"is_disabled":false,"rental_uris":{"android":"levelo://app?vid=46f75794-75d1-4ef5-98be-9fe9801b2e3c","ios":"levelo://app?vid=46f75794-75d1-4ef5-98be-9fe9801b2e3c"},"vehicle_type_id":"4","last_reported":1769181343,"current_range_meters":8800,"station_id":"ce4bgr92rcd13ifvqc6g","pricing_plan_id":"cebpf4jnsgd1na2vs0mg"},{"bike_id":"640121a6-98f3-4df3-8ec4-d218eca026e4","system_id":"levelo_inurba_marseille","lat":43.2417,"lon":5.36381,"is_reserved":false,"is_disabled":false,"rental_uris":{"android":"levelo://app?vid=640121a6-98f3-4df3-8ec4-d218eca026e4","ios":"levelo://app?vid=640121a6-98f3-4df3-8ec4-d218eca026e4"},"vehicle_type_id":"4","last_reported":1769181343,"current_range_meters":8800,"station_id":"cpo36qri1sfpv3e86is0","pricing_plan_id":"cebpf4jnsgd1na2vs0mg"},{"bike_id":"b147dd6d-64e5-4e1d-a67d-e4c30841ca44","system_id":"levelo_inurba_marseille","lat":43.26566,"lon":5.39011,"is_reserved":false,"is_disabled":false,"rental_uris":{"android":"levelo://app?vid=b147dd6d-64e5-4e1d-a67d-e4c30841ca44","ios":"levelo://app?vid=b147dd6d-64e5-4e1d-a67d-e4c30841ca44"},"vehicle_type_id":"4","last_reported":1769181343,"current_range_meters":8800,"station_id":"ce4bhe12rcd13ifvqf30","pricing_plan_id":"cebpf4jnsgd1na2vs0mg"},{"bike_id":"24d74e28-051b-4ad7-ae1a-b9ed921f90c1","system_id":"levelo_inurba_marseille","lat":43.26499,"lon":5.39525,"is_reserved":false,"is_disabled":false,"rental_uris":{"android":"levelo://app?vid=24d74e28-051b-4ad7-ae1a-b9ed921f90c1","ios":"levelo://app?vid=24d74e28-051b-4ad7-ae1a-b9ed921f90c1"},"vehicle_type_id":"4","last_reported":1769181343,"current_range_meters":8800,"station_id":"ce4bhi12rcd13ifvqfq0","pricing_plan_id":"cebpf4jnsgd1na2vs0mg"},{"bike_id":"dd178b0d-57a2-42e1-8a69-79f640f4f2cc","system_id":"levelo_inurba_marseille","lat":43.33395,"lon":5.39405,"is_reserved":false,"is_disabled":false,"rental_uris":{"android":"levelo://app?vid=dd178b0d-57a2-42e1-8a69-79f640f4f2cc","ios":"levelo://app?vid=dd178b0d-57a2-42e1-8a69-79f640f4f2cc"},"vehicle_type_id":"4","last_reported":1769181343,"current_range_meters":8800,"station_id":"","pricing_plan_id":"cebpf4jnsgd1na2vs0mg"},{"bike_id":"3fd603c4-6e35-4017-a90c-25d398c36f9b","system_id":"levelo_inurba_marseille","lat":43.31264,"lon":5.36869,"is_reserved":false,"is_disabled":false,"rental_uris":{"android":"levelo://app?vid=3fd603c4-6e35-4017-a90c-25d398c36f9b","ios":"levelo://app?vid=3fd603c4-6e35-4017-a90c-25d398c36f9b"},"vehicle_type_id":"4","last_reported":1769181343,"current_range_meters":8800,"station_id":"ce4bgl92rcd13ifvqbq0","pricing_plan_id":"cebpf4jnsgd1na2vs0mg"},{"bike_id":"f8d9b269-c286-45ae-8e78-09b2d8fcd752","system_id":"levelo_inurba_marseille","lat":43.23141,"lon":5.43737,"is_reserved":false,"is_disabled":false,"rental_uris":{"android":"levelo://app?vid=f8d9b269-c286-45ae-8e78-09b2d8fcd752","ios":"levelo://app?vid=f8d9b269-c286-45ae-8e78-09b2d8fcd752"},"vehicle_type_id":"4","last_reported":1769181343,"current_range_meters":8800,"station_id":"ce4bhmp2rcd13ifvqgog","pricing_plan_id":"cebpf4jnsgd1na2vs0mg"},{"bike_id":"8c62329e-71c2-4f7a-81bf-708e91fc92be","system_id":"levelo_inurba_marseille","lat":43.240843,"lon":5.377469,"is_reserved":false,"is_disabled":true,"rental_uris":{"android":"levelo://app?vid=8c62329e-71c2-4f7a-81bf-708e91fc92be","ios":"levelo://app?vid=8c62329e-71c2-4f7a-81bf-708e91fc92be"},"vehicle_type_id":"4","last_reported":1769181343,"current_range_meters":8800,"station_id":"ce4bhn12rcd13ifvqgqg","pricing_plan_id":"cebpf4jnsgd1na2vs0mg"},{"bike_id":"2e2ce66a-3f89-4c21-a9df-34056a5a5860","system_id":"levelo_inurba_marseille","lat":43.22556,"lon":5.41627,"is_reserved":false,"is_disabled":false,"rental_uris":{"android":"levelo://app?vid=2e2ce66a-3f89-4c21-a9df-34056a5a5860","ios":"levelo://app?vid=2e2ce66a-3f89-4c21-a9df-34056a5a5860"},"vehicle_type_id":"4","last_reported":1769181343,"current_range_meters":8800,"station_id":"st_d2o4gvlbi1j2169b742g","pricing_plan_id":"cebpf4jnsgd1na2vs0mg"},{"bike_id":"e4c4f5dd-c80d-4d75-801c-35c973416425","system_id":"levelo_inurba_marseille","lat":43.26555,"lon":5.37276,"is_reserved":false,"is_disabled":false,"rental_uris":{"android":"levelo://app?vid=e4c4f5dd-c80d-4d75-801c-35c973416425","ios":"levelo://app?vid=e4c4f5dd-c80d-4d75-801c-35c973416425"},"vehicle_type_id":"4","last_reported":1769181343,"current_range_meters":9200,"station_id":"ce4bhg12rcd13ifvqf70","pricing_plan_id":"cebpf4jnsgd1na2vs0mg"},{"bike_id":"0e7c9739-7c0b-462d-b69e-90718e9a5775","system_id":"levelo_inurba_marseille","lat":43.26559,"lon":5.37279,"is_reserved":false,"is_disabled":false,"rental_uris":{"android":"levelo://app?vid=0e7c9739-7c0b-462d-b69e-90718e9a5775","ios":"levelo://app?vid=0e7c9739-7c0b-462d-b69e-90718e9a5775"},"vehicle_type_id":"4","last_reported":1769181343,"current_range_meters":9200,"station_id":"ce4bhg12rcd13ifvqf70","pricing_plan_id":"cebpf4jnsgd1na2vs0mg"},{"bike_id":"994cd074-f869-4813-80d0-fd8e13f5f341","system_id":"levelo_inurba_marseille","lat":43.29941,"lon":5.36522,"is_reserved":false,"is_disabled":false,"rental_uris":{"android":"levelo://app?vid=994cd074-f869-4813-80d0-fd8e13f5f341","ios":"levelo://app?vid=994cd074-f869-4813-80d0-fd8e13f5f341"},"vehicle_type_id":"4","last_reported":1769181343,"current_range_meters":9200,"station_id":"ce4bgm92rcd13ifvqbr0","pricing_plan_id":"cebpf4jnsgd1na2vs0mg"},{"bike_id":"e86b7d50-c44e-4041-8c29-1d196739ae63","system_id":"levelo_inurba_marseille","lat":43.29981,"lon":5.37159,"is_reserved":false,"is_disabled":false,"rental_uris":{"android":"levelo://app?vid=e86b7d50-c44e-4041-8c29-1d196739ae63","ios":"levelo://app?vid=e86b7d50-c44e-4041-8c29-1d196739ae63"},"vehicle_type_id":"4","last_reported":1769181343,"current_range_meters":9200,"station_id":"ce4bgr92rcd13ifvqc7g","pricing_plan_id":"cebpf4jnsgd1na2vs0mg"},{"bike_id":"f88443ab-9572-44f7-82f6-f341a3768fbc","system_id":"levelo_inurba_marseille","lat":43.313634,"lon":5.36706,"is_reserved":false,"is_disabled":false,"rental_uris":{"android":"levelo://app?vid=f88443ab-9572-44f7-82f6-f341a3768fbc","ios":"levelo://app?vid=f88443ab-9572-44f7-82f6-f341a3768fbc"},"vehicle_type_id":"4","last_reported":1769181343,"current_range_meters":9200,"station_id":"","pricing_plan_id":"cebpf4jnsgd1na2vs0mg"},{"bike_id":"10c585ec-0d69-49bc-a403-a71e7446105a","system_id":"levelo_inurba_marseille","lat":43.24899,"lon":5.39699,"is_reserved":false,"is_disabled":false,"rental_uris":{"android":"levelo://app?vid=10c585ec-0d69-49bc-a403-a71e7446105a","ios":"levelo://app?vid=10c585ec-0d69-49bc-a403-a71e7446105a"},"vehicle_type_id":"4","last_reported":1769181343,"current_range_meters":9200,"station_id":"","pricing_plan_id":"cebpf4jnsgd1na2vs0mg"},{"bike_id":"7c7cc252-7f4f-4ac1-8175-44f20e46ac77","system_id":"levelo_inurba_marseille","lat":43.26731,"lon":5.40187,"is_reserved":false,"is_disabled":false,"rental_uris":{"android":"levelo://app?vid=7c7cc252-7f4f-4ac1-8175-44f20e46ac77","ios":"levelo://app?vid=7c7cc252-7f4f-4ac1-8175-44f20e46ac77"},"vehicle_type_id":"4","last_reported":1769181343,"current_range_meters":9200,"station_id":"","pricing_plan_id":"cebpf4jnsgd1na2vs0mg"},{"bike_id":"8ac90997-fa6e-4e47-9844-f802382369ea","system_id":"levelo_inurba_marseille","lat":43.30463,"lon":5.3791,"is_reserved":false,"is_disabled":false,"rental_uris":{"android":"levelo://app?vid=8ac90997-fa6e-4e47-9844-f802382369ea","ios":"levelo://app?vid=8ac90997-fa6e-4e47-9844-f802382369ea"},"vehicle_type_id":"4","last_reported":1769181343,"current_range_meters":9200,"station_id":"ce4bgup2rcd13ifvqcn0","pricing_plan_id":"cebpf4jnsgd1na2vs0mg"},{"bike_id":"73c63664-8c9f-45d4-b198-ca35b3561de2","system_id":"levelo_inurba_marseille","lat":43.30285,"lon":5.37703,"is_reserved":false,"is_disabled":false,"rental_uris":{"android":"levelo://app?vid=73c63664-8c9f-45d4-b198-ca35b3561de2","ios":"levelo://app?vid=73c63664-8c9f-45d4-b198-ca35b3561de2"},"vehicle_type_id":"4","last_reported":1769181343,"current_range_meters":9200,"station_id":"ce4bguh2rcd13ifvqcj0","pricing_plan_id":"cebpf4jnsgd1na2vs0mg"},{"bike_id":"17ed46bf-b051-47fc-a887-339e35ccca50","system_id":"levelo_inurba_marseille","lat":43.29041,"lon":5.37565,"is_reserved":false,"is_disabled":false,"rental_uris":{"android":"levelo://app?vid=17ed46bf-b051-47fc-a887-339e35ccca50","ios":"levelo://app?vid=17ed46bf-b051-47fc-a887-339e35ccca50"},"vehicle_type_id":"4","last_reported":1769181343,"current_range_meters":9200,"station_id":"ce4bh692rcd13ifvqe90","pricing_plan_id":"cebpf4jnsgd1na2vs0mg"},{"bike_id":"05d1c121-28b2-4089-b97e-95b3b06f8585","system_id":"levelo_inurba_marseille","lat":43.31357,"lon":5.37143,"is_reserved":false,"is_disabled":false,"rental_uris":{"android":"levelo://app?vid=05d1c121-28b2-4089-b97e-95b3b06f8585","ios":"levelo://app?vid=05d1c121-28b2-4089-b97e-95b3b06f8585"},"vehicle_type_id":"4","last_reported":1769181343,"current_range_meters":9200,"station_id":"","pricing_plan_id":"cebpf4jnsgd1na2vs0mg"},{"bike_id":"e3bf064c-53bb-4e5e-a214-36779e2347bf","system_id":"levelo_inurba_marseille","lat":43.27991,"lon":5.41668,"is_reserved":false,"is_disabled":false,"rental_uris":{"android":"levelo://app?vid=e3bf064c-53bb-4e5e-a214-36779e2347bf","ios":"levelo://app?vid=e3bf064c-53bb-4e5e-a214-36779e2347bf"},"vehicle_type_id":"4","last_reported":1769181343,"current_range_meters":9200,"station_id":"ce4bho12rcd13ifvqh1g","pricing_plan_id":"cebpf4jnsgd1na2vs0mg"},{"bike_id":"7d0ee89a-8dde-49ad-975a-432a30771a06","system_id":"levelo_inurba_marseille","lat":43.30154,"lon":5.38084,"is_reserved":false,"is_disabled":false,"rental_uris":{"android":"levelo://app?vid=7d0ee89a-8dde-49ad-975a-432a30771a06","ios":"levelo://app?vid=7d0ee89a-8dde-49ad-975a-432a30771a06"},"vehicle_type_id":"4","last_reported":1769181343,"current_range_meters":9200,"station_id":"ce4bgjp2rcd13ifvqbh0","pricing_plan_id":"cebpf4jnsgd1na2vs0mg"},{"bike_id":"be75fe2f-731c-498b-a1b2-2409fbf35779","system_id":"levelo_inurba_marseille","lat":43.2997,"lon":5.37179,"is_reserved":false,"is_disabled":false,"rental_uris":{"android":"levelo://app?vid=be75fe2f-731c-498b-a1b2-2409fbf35779","ios":"levelo://app?vid=be75fe2f-731c-498b-a1b2-2409fbf35779"},"vehicle_type_id":"4","last_reported":1769181343,"current_range_meters":9200,"station_id":"ce4bgr92rcd13ifvqc7g","pricing_plan_id":"cebpf4jnsgd1na2vs0mg"},{"bike_id":"439b7aaa-5dab-412d-a2de-8f6b328a0bd3","system_id":"levelo_inurba_marseille","lat":43.30632,"lon":5.40086,"is_reserved":false,"is_disabled":false,"rental_uris":{"android":"levelo://app?vid=439b7aaa-5dab-412d-a2de-8f6b328a0bd3","ios":"levelo://app?vid=439b7aaa-5dab-412d-a2de-8f6b328a0bd3"},"vehicle_type_id":"4","last_reported":1769181343,"current_range_meters":9200,"station_id":"ce4bh112rcd13ifvqda0","pricing_plan_id":"cebpf4jnsgd1na2vs0mg"},{"bike_id":"24ce12cf-d5c6-4660-8561-5091745b134b","system_id":"levelo_inurba_marseille","lat":43.24947,"lon":5.40507,"is_reserved":false,"is_disabled":false,"rental_uris":{"android":"levelo://app?vid=24ce12cf-d5c6-4660-8561-5091745b134b","ios":"levelo://app?vid=24ce12cf-d5c6-4660-8561-5091745b134b"},"vehicle_type_id":"4","last_reported":1769181343,"current_range_meters":9200,"station_id":"st_d2ngiaodas8pm72gd1h0","pricing_plan_id":"cebpf4jnsgd1na2vs0mg"},{"bike_id":"16525725-a4c4-4bd9-9925-eb9b950936aa","system_id":"levelo_inurba_marseille","lat":43.26949,"lon":5.39077,"is_reserved":false,"is_disabled":false,"rental_uris":{"android":"levelo://app?vid=16525725-a4c4-4bd9-9925-eb9b950936aa","ios":"levelo://app?vid=16525725-a4c4-4bd9-9925-eb9b950936aa"},"vehicle_type_id":"4","last_reported":1769181343,"current_range_meters":9200,"station_id":"","pricing_plan_id":"cebpf4jnsgd1na2vs0mg"},{"bike_id":"fde92363-8631-4130-aea1-ab9509c68223","system_id":"levelo_inurba_marseille","lat":43.28377,"lon":5.38645,"is_reserved":false,"is_disabled":false,"rental_uris":{"android":"levelo://app?vid=fde92363-8631-4130-aea1-ab9509c68223","ios":"levelo://app?vid=fde92363-8631-4130-aea1-ab9509c68223"},"vehicle_type_id":"4","last_reported":1769181343,"current_range_meters":9200,"station_id":"ce4bh492rcd13ifvqdvg","pricing_plan_id":"cebpf4jnsgd1na2vs0mg"},{"bike_id":"54247625-5421-4985-8cfb-4f29ba1ac252","system_id":"levelo_inurba_marseille","lat":43.31652,"lon":5.37657,"is_reserved":false,"is_disabled":false,"rental_uris":{"android":"levelo://app?vid=54247625-5421-4985-8cfb-4f29ba1ac252","ios":"levelo://app?vid=54247625-5421-4985-8cfb-4f29ba1ac252"},"vehicle_type_id":"4","last_reported":1769181343,"current_range_meters":9200,"station_id":"","pricing_plan_id":"cebpf4jnsgd1na2vs0mg"},{"bike_id":"514778f3-cb3c-44e7-bfaa-f93fb491b5fc","system_id":"levelo_inurba_marseille","lat":43.24999,"lon":5.38917,"is_reserved":false,"is_disabled":false,"rental_uris":{"android":"levelo://app?vid=514778f3-cb3c-44e7-bfaa-f93fb491b5fc","ios":"levelo://app?vid=514778f3-cb3c-44e7-bfaa-f93fb491b5fc"},"vehicle_type_id":"4","last_reported":1769181343,"current_range_meters":9200,"station_id":"ce4bhgp2rcd13ifvqfd0","pricing_plan_id":"cebpf4jnsgd1na2vs0mg"},{"bike_id":"d761fb97-c86f-4b3b-a4cd-2c89679702dd","system_id":"levelo_inurba_marseille","lat":43.31076,"lon":5.38355,"is_reserved":false,"is_disabled":false,"rental_uris":{"android":"levelo://app?vid=d761fb97-c86f-4b3b-a4cd-2c89679702dd","ios":"levelo://app?vid=d761fb97-c86f-4b3b-a4cd-2c89679702dd"},"vehicle_type_id":"4","last_reported":1769181343,"current_range_meters":9600,"station_id":"ce4bgv92rcd13ifvqcr0","pricing_plan_id":"cebpf4jnsgd1na2vs0mg"},{"bike_id":"7a1b6b69-5f61-4e11-91d3-12cf02858ca8","system_id":"levelo_inurba_marseille","lat":43.243948,"lon":5.370536,"is_reserved":false,"is_disabled":false,"rental_uris":{"android":"levelo://app?vid=7a1b6b69-5f61-4e11-91d3-12cf02858ca8","ios":"levelo://app?vid=7a1b6b69-5f61-4e11-91d3-12cf02858ca8"},"vehicle_type_id":"4","last_reported":1769181343,"current_range_meters":9600,"station_id":"ce4bhhh2rcd13ifvqfk0","pricing_plan_id":"cebpf4jnsgd1na2vs0mg"},{"bike_id":"0067e0af-5ba0-4b0d-a268-ed0ed9e19547","system_id":"levelo_inurba_marseille","lat":43.323482,"lon":5.367473,"is_reserved":false,"is_disabled":false,"rental_uris":{"android":"levelo://app?vid=0067e0af-5ba0-4b0d-a268-ed0ed9e19547","ios":"levelo://app?vid=0067e0af-5ba0-4b0d-a268-ed0ed9e19547"},"vehicle_type_id":"4","last_reported":1769181343,"current_range_meters":9600,"station_id":"ce4bhsh2rcd13ifvqi2g","pricing_plan_id":"cebpf4jnsgd1na2vs0mg"},{"bike_id":"718d5db1-dc44-4b74-8e82-1e977ee8f15e","system_id":"levelo_inurba_marseille","lat":43.25114,"lon":5.40449,"is_reserved":false,"is_disabled":false,"rental_uris":{"android":"levelo://app?vid=718d5db1-dc44-4b74-8e82-1e977ee8f15e","ios":"levelo://app?vid=718d5db1-dc44-4b74-8e82-1e977ee8f15e"},"vehicle_type_id":"4","last_reported":1769181343,"current_range_meters":9600,"station_id":"","pricing_plan_id":"cebpf4jnsgd1na2vs0mg"},{"bike_id":"e23cf0d7-ceb2-4f07-9738-5a8d2636b1de","system_id":"levelo_inurba_marseille","lat":43.30185,"lon":5.40085,"is_reserved":false,"is_disabled":false,"rental_uris":{"android":"levelo://app?vid=e23cf0d7-ceb2-4f07-9738-5a8d2636b1de","ios":"levelo://app?vid=e23cf0d7-ceb2-4f07-9738-5a8d2636b1de"},"vehicle_type_id":"4","last_reported":1769181343,"current_range_meters":9600,"station_id":"","pricing_plan_id":"cebpf4jnsgd1na2vs0mg"},{"bike_id":"6f82171f-ad42-4264-affd-ff18eaaaec99","system_id":"levelo_inurba_marseille","lat":43.27987,"lon":5.41656,"is_reserved":false,"is_disabled":false,"rental_uris":{"android":"levelo://app?vid=6f82171f-ad42-4264-affd-ff18eaaaec99","ios":"levelo://app?vid=6f82171f-ad42-4264-affd-ff18eaaaec99"},"vehicle_type_id":"4","last_reported":1769181343,"current_range_meters":9600,"station_id":"ce4bho12rcd13ifvqh1g","pricing_plan_id":"cebpf4jnsgd1na2vs0mg"},{"bike_id":"8f72bfe4-ee21-4ee8-b70c-bdb39befee0d","system_id":"levelo_inurba_marseille","lat":43.23187,"lon":5.39997,"is_reserved":false,"is_disabled":false,"rental_uris":{"android":"levelo://app?vid=8f72bfe4-ee21-4ee8-b70c-bdb39befee0d","ios":"levelo://app?vid=8f72bfe4-ee21-4ee8-b70c-bdb39befee0d"},"vehicle_type_id":"4","last_reported":1769181343,"current_range_meters":9600,"station_id":"ce4bhn12rcd13ifvqgqg","pricing_plan_id":"cebpf4jnsgd1na2vs0mg"},{"bike_id":"89d2f176-9210-47d4-8e8a-9009973231fc","system_id":"levelo_inurba_marseille","lat":43.31369,"lon":5.3669,"is_reserved":false,"is_disabled":false,"rental_uris":{"android":"levelo://app?vid=89d2f176-9210-47d4-8e8a-9009973231fc","ios":"levelo://app?vid=89d2f176-9210-47d4-8e8a-9009973231fc"},"vehicle_type_id":"4","last_reported":1769181343,"current_range_meters":9600,"station_id":"ce4bgr92rcd13ifvqc6g","pricing_plan_id":"cebpf4jnsgd1na2vs0mg"},{"bike_id":"859c0b56-daf9-47de-8a3d-a09ddfbed08a","system_id":"levelo_inurba_marseille","lat":43.25041,"lon":5.38924,"is_reserved":false,"is_disabled":false,"rental_uris":{"android":"levelo://app?vid=859c0b56-daf9-47de-8a3d-a09ddfbed08a","ios":"levelo://app?vid=859c0b56-daf9-47de-8a3d-a09ddfbed08a"},"vehicle_type_id":"4","last_reported":1769181343,"current_range_meters":9600,"station_id":"ce4bhgp2rcd13ifvqfd0","pricing_plan_id":"cebpf4jnsgd1na2vs0mg"},{"bike_id":"33632f17-bcbd-47dd-aacd-a8fad25378a6","system_id":"levelo_inurba_marseille","lat":43.26226,"lon":5.4045,"is_reserved":false,"is_disabled":false,"rental_uris":{"android":"levelo://app?vid=33632f17-bcbd-47dd-aacd-a8fad25378a6","ios":"levelo://app?vid=33632f17-bcbd-47dd-aacd-a8fad25378a6"},"vehicle_type_id":"4","last_reported":1769181343,"current_range_meters":9600,"station_id":"ce4bhmh2rcd13ifvqgmg","pricing_plan_id":"cebpf4jnsgd1na2vs0mg"},{"bike_id":"d53aa9d5-2a5b-4c87-a2ec-7bd3f4bf9eba","system_id":"levelo_inurba_marseille","lat":43.24999,"lon":5.38914,"is_reserved":false,"is_disabled":false,"rental_uris":{"android":"levelo://app?vid=d53aa9d5-2a5b-4c87-a2ec-7bd3f4bf9eba","ios":"levelo://app?vid=d53aa9d5-2a5b-4c87-a2ec-7bd3f4bf9eba"},"vehicle_type_id":"4","last_reported":1769181343,"current_range_meters":9600,"station_id":"ce4bhgp2rcd13ifvqfd0","pricing_plan_id":"cebpf4jnsgd1na2vs0mg"},{"bike_id":"45bb63fe-8270-4a18-9d30-feedae2fa6a6","system_id":"levelo_inurba_marseille","lat":43.268242,"lon":5.384408,"is_reserved":false,"is_disabled":false,"rental_uris":{"android":"levelo://app?vid=45bb63fe-8270-4a18-9d30-feedae2fa6a6","ios":"levelo://app?vid=45bb63fe-8270-4a18-9d30-feedae2fa6a6"},"vehicle_type_id":"4","last_reported":1769181343,"current_range_meters":9600,"station_id":"","pricing_plan_id":"cebpf4jnsgd1na2vs0mg"},{"bike_id":"325d6000-e7a8-417c-aa29-6d5b58f2d9fb","system_id":"levelo_inurba_marseille","lat":43.29607,"lon":5.37183,"is_reserved":false,"is_disabled":false,"rental_uris":{"android":"levelo://app?vid=325d6000-e7a8-417c-aa29-6d5b58f2d9fb","ios":"levelo://app?vid=325d6000-e7a8-417c-aa29-6d5b58f2d9fb"},"vehicle_type_id":"4","last_reported":1769181343,"current_range_meters":9600,"station_id":"ce4bgnh2rcd13ifvqc0g","pricing_plan_id":"cebpf4jnsgd1na2vs0mg"},{"bike_id":"00017738-b4c1-47b3-8105-45d98f09854a","system_id":"levelo_inurba_marseille","lat":43.32136,"lon":5.36767,"is_reserved":false,"is_disabled":false,"rental_uris":{"android":"levelo://app?vid=00017738-b4c1-47b3-8105-45d98f09854a","ios":"levelo://app?vid=00017738-b4c1-47b3-8105-45d98f09854a"},"vehicle_type_id":"4","last_reported":1769181343,"current_range_meters":10000,"station_id":"ce4bhrh2rcd13ifvqhug","pricing_plan_id":"cebpf4jnsgd1na2vs0mg"},{"bike_id":"ce91f19c-6b5f-4475-ac98-6aba43530cf5","system_id":"levelo_inurba_marseille","lat":43.25016,"lon":5.38912,"is_reserved":false,"is_disabled":false,"rental_uris":{"android":"levelo://app?vid=ce91f19c-6b5f-4475-ac98-6aba43530cf5","ios":"levelo://app?vid=ce91f19c-6b5f-4475-ac98-6aba43530cf5"},"vehicle_type_id":"4","last_reported":1769181343,"current_range_meters":10000,"station_id":"ce4bhgp2rcd13ifvqfd0","pricing_plan_id":"cebpf4jnsgd1na2vs0mg"},{"bike_id":"21f6fd5f-51e0-4ace-adf3-8e7223e07642","system_id":"levelo_inurba_marseille","lat":43.29898,"lon":5.43651,"is_reserved":false,"is_disabled":false,"rental_uris":{"android":"levelo://app?vid=21f6fd5f-51e0-4ace-adf3-8e7223e07642","ios":"levelo://app?vid=21f6fd5f-51e0-4ace-adf3-8e7223e07642"},"vehicle_type_id":"4","last_reported":1769181343,"current_range_meters":10000,"station_id":"ce4bhpp2rcd13ifvqhfg","pricing_plan_id":"cebpf4jnsgd1na2vs0mg"},{"bike_id":"3df1c2ce-b029-4e4a-acf7-75de203dd298","system_id":"levelo_inurba_marseille","lat":43.24949,"lon":5.40492,"is_reserved":false,"is_disabled":false,"rental_uris":{"android":"levelo://app?vid=3df1c2ce-b029-4e4a-acf7-75de203dd298","ios":"levelo://app?vid=3df1c2ce-b029-4e4a-acf7-75de203dd298"},"vehicle_type_id":"4","last_reported":1769181343,"current_range_meters":10000,"station_id":"st_d2ngiaodas8pm72gd1h0","pricing_plan_id":"cebpf4jnsgd1na2vs0mg"},{"bike_id":"2375833f-cef2-4fa5-95b2-2df75a0950a7","system_id":"levelo_inurba_marseille","lat":43.296206,"lon":5.371735,"is_reserved":false,"is_disabled":false,"rental_uris":{"android":"levelo://app?vid=2375833f-cef2-4fa5-95b2-2df75a0950a7","ios":"levelo://app?vid=2375833f-cef2-4fa5-95b2-2df75a0950a7"},"vehicle_type_id":"4","last_reported":1769181343,"current_range_meters":10000,"station_id":"ce4bgnh2rcd13ifvqc0g","pricing_plan_id":"cebpf4jnsgd1na2vs0mg"},{"bike_id":"01e35ac6-4a5e-4881-8c4d-eef6634725de","system_id":"levelo_inurba_marseille","lat":43.22933,"lon":5.3539,"is_reserved":false,"is_disabled":false,"rental_uris":{"android":"levelo://app?vid=01e35ac6-4a5e-4881-8c4d-eef6634725de","ios":"levelo://app?vid=01e35ac6-4a5e-4881-8c4d-eef6634725de"},"vehicle_type_id":"4","last_reported":1769181343,"current_range_meters":10000,"station_id":"cpo3532slgdg3j2ikp40","pricing_plan_id":"cebpf4jnsgd1na2vs0mg"},{"bike_id":"98ce3a91-bb68-49dc-9094-facdbdc00ca7","system_id":"levelo_inurba_marseille","lat":43.28155,"lon":5.42647,"is_reserved":false,"is_disabled":false,"rental_uris":{"android":"levelo://app?vid=98ce3a91-bb68-49dc-9094-facdbdc00ca7","ios":"levelo://app?vid=98ce3a91-bb68-49dc-9094-facdbdc00ca7"},"vehicle_type_id":"4","last_reported":1769181343,"current_range_meters":10000,"station_id":"ce4bhnh2rcd13ifvqgug","pricing_plan_id":"cebpf4jnsgd1na2vs0mg"},{"bike_id":"829ce962-f253-4616-aebc-ac29e48ec5ea","system_id":"levelo_inurba_marseille","lat":43.26937,"lon":5.38919,"is_reserved":false,"is_disabled":false,"rental_uris":{"android":"levelo://app?vid=829ce962-f253-4616-aebc-ac29e48ec5ea","ios":"levelo://app?vid=829ce962-f253-4616-aebc-ac29e48ec5ea"},"vehicle_type_id":"4","last_reported":1769181343,"current_range_meters":10000,"station_id":"ce4bhhh2rcd13ifvqfl0","pricing_plan_id":"cebpf4jnsgd1na2vs0mg"},{"bike_id":"b6872c1f-ca5a-4968-ac67-dffd74e9290a","system_id":"levelo_inurba_marseille","lat":43.30273,"lon":5.37719,"is_reserved":false,"is_disabled":false,"rental_uris":{"android":"levelo://app?vid=b6872c1f-ca5a-4968-ac67-dffd74e9290a","ios":"levelo://app?vid=b6872c1f-ca5a-4968-ac67-dffd74e9290a"},"vehicle_type_id":"4","last_reported":1769181343,"current_range_meters":10000,"station_id":"ce4bguh2rcd13ifvqcj0","pricing_plan_id":"cebpf4jnsgd1na2vs0mg"},{"bike_id":"74da91f3-dde3-426d-8b0e-79d5c30c8878","system_id":"levelo_inurba_marseille","lat":43.29919,"lon":5.37476,"is_reserved":false,"is_disabled":false,"rental_uris":{"android":"levelo://app?vid=74da91f3-dde3-426d-8b0e-79d5c30c8878","ios":"levelo://app?vid=74da91f3-dde3-426d-8b0e-79d5c30c8878"},"vehicle_type_id":"4","last_reported":1769181343,"current_range_meters":10000,"station_id":"ce4bgjh2rcd13ifvqbg0","pricing_plan_id":"cebpf4jnsgd1na2vs0mg"},{"bike_id":"dc3bd017-a36c-437c-a91a-6cab42202242","system_id":"levelo_inurba_marseille","lat":43.2852,"lon":5.44123,"is_reserved":false,"is_disabled":false,"rental_uris":{"android":"levelo://app?vid=dc3bd017-a36c-437c-a91a-6cab42202242","ios":"levelo://app?vid=dc3bd017-a36c-437c-a91a-6cab42202242"},"vehicle_type_id":"4","last_reported":1769181343,"current_range_meters":10000,"station_id":"st_d3j3df2ikq2c7380ej80","pricing_plan_id":"cebpf4jnsgd1na2vs0mg"},{"bike_id":"4c2fc74e-5c84-4206-bed4-46936bdc04d6","system_id":"levelo_inurba_marseille","lat":43.2904,"lon":5.39942,"is_reserved":false,"is_disabled":false,"rental_uris":{"android":"levelo://app?vid=4c2fc74e-5c84-4206-bed4-46936bdc04d6","ios":"levelo://app?vid=4c2fc74e-5c84-4206-bed4-46936bdc04d6"},"vehicle_type_id":"4","last_reported":1769181343,"current_range_meters":10000,"station_id":"ce4bh392rcd13ifvqdm0","pricing_plan_id":"cebpf4jnsgd1na2vs0mg"},{"bike_id":"4c8f5267-572d-4a47-ba7d-3a904dae77d6","system_id":"levelo_inurba_marseille","lat":43.29567,"lon":5.37504,"is_reserved":false,"is_disabled":false,"rental_uris":{"android":"levelo://app?vid=4c8f5267-572d-4a47-ba7d-3a904dae77d6","ios":"levelo://app?vid=4c8f5267-572d-4a47-ba7d-3a904dae77d6"},"vehicle_type_id":"4","last_reported":1769181343,"current_range_meters":10000,"station_id":"ce4bgh92rcd13ifvqb50","pricing_plan_id":"cebpf4jnsgd1na2vs0mg"},{"bike_id":"1ee07084-a0a9-43af-bdb4-955f248e5678","system_id":"levelo_inurba_marseille","lat":43.28414,"lon":5.38781,"is_reserved":false,"is_disabled":false,"rental_uris":{"android":"levelo://app?vid=1ee07084-a0a9-43af-bdb4-955f248e5678","ios":"levelo://app?vid=1ee07084-a0a9-43af-bdb4-955f248e5678"},"vehicle_type_id":"4","last_reported":1769181343,"current_range_meters":10000,"station_id":"","pricing_plan_id":"cebpf4jnsgd1na2vs0mg"},{"bike_id":"f6f460da-b7b9-488f-bbdf-ade50c9a7709","system_id":"levelo_inurba_marseille","lat":43.3015,"lon":5.38093,"is_reserved":false,"is_disabled":false,"rental_uris":{"android":"levelo://app?vid=f6f460da-b7b9-488f-bbdf-ade50c9a7709","ios":"levelo://app?vid=f6f460da-b7b9-488f-bbdf-ade50c9a7709"},"vehicle_type_id":"4","last_reported":1769181343,"current_range_meters":10000,"station_id":"ce4bgjp2rcd13ifvqbh0","pricing_plan_id":"cebpf4jnsgd1na2vs0mg"},