{"last_updated":1742036819,"ttl":60,"version":"2.2","data":{"bikes":[{"bike_id":"df72de8d-3db5-4864-a6e0-f643623f7709","system_id":"levelo_inurba_marseille","lat":43.31387,"lon":5.38513,"is_reserved":false,"is_disabled":false,"rental_uris":{"android":"levelo://app?vid=df72de8d-3db5-4864-a6e0-f643623f7709","ios":"levelo://app?vid=df72de8d-3db5-4864-a6e0-f643623f7709"},"vehicle_type_id":"4","last_reported":1742036819,"current_range_meters":2800,"station_id":"ce4bgt92rcd13ifvqcf0","pricing_plan_id":"cebpf4jnsgd1na2vs0mg"},{"bike_id":"495a7237-c340-42ab-95f1-743373b37269","system_id":"levelo_inurba_marseille","lat":43.2549,"lon":5.37647,"is_reserved":false,"is_disabled":false,"rental_uris":{"android":"levelo://app?vid=495a7237-c340-42ab-95f1-743373b37269","ios":"levelo://app?vid=495a7237-c340-42ab-95f1-743373b37269"},"vehicle_type_id":"4","last_reported":1742036819,"current_range_meters":3600,"station_id":"ce4bhh12rcd13ifvqff0","pricing_plan_id":"cebpf4jnsgd1na2vs0mg"},{"bike_id":"551de01e-1edd-48d6-b7c6-5b7899e640a6","system_id":"levelo_inurba_marseille","lat":43.29004,"lon":5.35605,"is_reserved":false,"is_disabled":false,"rental_uris":{"android":"levelo://app?vid=551de01e-1edd-48d6-b7c6-5b7899e640a6","ios":"levelo://app?vid=551de01e-1edd-48d6-b7c6-5b7899e640a6"},"vehicle_type_id":"4","last_reported":1742036819,"current_range_meters":3600,"station_id":"ce4bhb92rcd13ifvqen0","pricing_plan_id":"cebpf4jnsgd1na2vs0mg"},{"bike_id":"534e742d-e416-4de5-b6e1-9213282f6c9a","system_id":"levelo_inurba_marseille","lat":43.31887,"lon":5.40739,"is_reserved":false,"is_disabled":false,"rental_uris":{"android":"levelo://app?vid=534e742d-e416-4de5-b6e1-9213282f6c9a","ios":"levelo://app?vid=534e742d-e416-4de5-b6e1-9213282f6c9a"},"vehicle_type_id":"4","last_reported":1742036819,"current_range_meters":3600,"station_id":"ce4bhq12rcd13ifvqhig","pricing_plan_id":"cebpf4jnsgd1na2vs0mg"},{"bike_id":"aa3c5349-766e-4992-8e95-c670f1f543fb","system_id":"levelo_inurba_marseille","lat":43.22937,"lon":5.40189,"is_reserved":false,"is_disabled":false,"rental_uris":{"android":"levelo://app?vid=aa3c5349-766e-4992-8e95-c670f1f543fb","ios":"levelo://app?vid=aa3c5349-766e-4992-8e95-c670f1f543fb"},"vehicle_type_id":"4","last_reported":1742036819,"current_range_meters":4000,"station_id":"","pricing_plan_id":"cebpf4jnsgd1na2vs0mg"},{"bike_id":"27379037-e6ef-4336-9cac-b686440a4aaf","system_id":"levelo_inurba_marseille","lat":43.29583,"lon":5.36738,"is_reserved":false,"is_disabled":false,"rental_uris":{"android":"levelo://app?vid=27379037-e6ef-4336-9cac-b686440a4aaf","ios":"levelo://app?vid=27379037-e6ef-4336-9cac-b686440a4aaf"},"vehicle_type_id":"4","last_reported":1742036819,"current_range_meters":4000,"station_id":"ce4bgph2rcd13ifvqc2g","pricing_plan_id":"cebpf4jnsgd1na2vs0mg"},{"bike_id":"0a5e71a6-671b-4cbf-b6d3-7d0aec5b3a05","system_id":"levelo_inurba_marseille","lat":43.2315,"lon":5.43712,"is_reserved":false,"is_disabled":false,"rental_uris":{"android":"levelo://app?vid=0a5e71a6-671b-4cbf-b6d3-7d0aec5b3a05","ios":"levelo://app?vid=0a5e71a6-671b-4cbf-b6d3-7d0aec5b3a05"},"vehicle_type_id":"4","last_reported":1742036819,"current_range_meters":4000,"station_id":"ce4bhmp2rcd13ifvqgog","pricing_plan_id":"cebpf4jnsgd1na2vs0mg"},{"bike_id":"fb25c0f6-5882-4734-a76a-2aeb0b117f9b","system_id":"levelo_inurba_marseille","lat":43.317526,"lon":5.39025,"is_reserved":false,"is_disabled":false,"rental_uris":{"android":"levelo://app?vid=fb25c0f6-5882-4734-a76a-2aeb0b117f9b","ios":"levelo://app?vid=fb25c0f6-5882-4734-a76a-2aeb0b117f9b"},"vehicle_type_id":"4","last_reported":1742036819,"current_range_meters":4400,"station_id":"ce4bhqp2rcd13ifvqhng","pricing_plan_id":"cebpf4jnsgd1na2vs0mg"},{"bike_id":"211771c7-5ba0-4209-aa44-1ddae7ff1645","system_id":"levelo_inurba_marseille","lat":43.28848,"lon":5.39329,"is_reserved":false,"is_disabled":false,"rental_uris":{"android":"levelo://app?vid=211771c7-5ba0-4209-aa44-1ddae7ff1645","ios":"levelo://app?vid=211771c7-5ba0-4209-aa44-1ddae7ff1645"},"vehicle_type_id":"4","last_reported":1742036819,"current_range_meters":4400,"station_id":"ce4bh2p2rcd13ifvqdi0","pricing_plan_id":"cebpf4jnsgd1na2vs0mg"},{"bike_id":"36ec5a15-215b-4367-a3ca-336aadd9a251","system_id":"levelo_inurba_marseille","lat":43.33746,"lon":5.3745,"is_reserved":false,"is_disabled":false,"rental_uris":{"android":"levelo://app?vid=36ec5a15-215b-4367-a3ca-336aadd9a251","ios":"levelo://app?vid=36ec5a15-215b-4367-a3ca-336aadd9a251"},"vehicle_type_id":"4","last_reported":1742036819,"current_range_meters":4800,"station_id":"","pricing_plan_id":"cebpf4jnsgd1na2vs0mg"},{"bike_id":"8600e973-6bae-49e6-a541-074b0686e3d2","system_id":"levelo_inurba_marseille","lat":43.32363,"lon":5.38876,"is_reserved":false,"is_disabled":false,"rental_uris":{"android":"levelo://app?vid=8600e973-6bae-49e6-a541-074b0686e3d2","ios":"levelo://app?vid=8600e973-6bae-49e6-a541-074b0686e3d2"},"vehicle_type_id":"4","last_reported":1742036819,"current_range_meters":4800,"station_id":"ce4bhqp2rcd13ifvqhog","pricing_plan_id":"cebpf4jnsgd1na2vs0mg"},{"bike_id":"b6f8c4e2-65e6-4cd4-aa0a-83f84ef00d61","system_id":"levelo_inurba_marseille","lat":43.30954,"lon":5.39026,"is_reserved":false,"is_disabled":false,"rental_uris":{"android":"levelo://app?vid=b6f8c4e2-65e6-4cd4-aa0a-83f84ef00d61","ios":"levelo://app?vid=b6f8c4e2-65e6-4cd4-aa0a-83f84ef00d61"},"vehicle_type_id":"4","last_reported":1742036819,"current_range_meters":4800,"station_id":"ce4bgup2rcd13ifvqco0","pricing_plan_id":"cebpf4jnsgd1na2vs0mg"},{"bike_id":"cfbfae81-2b5a-4512-adc5-3545d5eb48ff","system_id":"levelo_inurba_marseille","lat":43.32359,"lon":5.38881,"is_reserved":false,"is_disabled":false,"rental_uris":{"android":"levelo://app?vid=cfbfae81-2b5a-4512-adc5-3545d5eb48ff","ios":"levelo://app?vid=cfbfae81-2b5a-4512-adc5-3545d5eb48ff"},"vehicle_type_id":"4","last_reported":1742036819,"current_range_meters":4800,"station_id":"ce4bhqp2rcd13ifvqhog","pricing_plan_id":"cebpf4jnsgd1na2vs0mg"},{"bike_id":"7d3f251e-f562-42e2-9cca-d39c4a5c1256","system_id":"levelo_inurba_marseille","lat":43.30143,"lon":5.37418,"is_reserved":false,"is_disabled":false,"rental_uris":{"android":"levelo://app?vid=7d3f251e-f562-42e2-9cca-d39c4a5c1256","ios":"levelo://app?vid=7d3f251e-f562-42e2-9cca-d39c4a5c1256"},"vehicle_type_id":"4","last_reported":1742036819,"current_range_meters":4800,"station_id":"ce4bgs92rcd13ifvqcc0","pricing_plan_id":"cebpf4jnsgd1na2vs0mg"},{"bike_id":"e6e8f8dd-dda0-43b3-bdd7-e5e81a312194","system_id":"levelo_inurba_marseille","lat":43.27212,"lon":5.39189,"is_reserved":false,"is_disabled":false,"rental_uris":{"android":"levelo://app?vid=e6e8f8dd-dda0-43b3-bdd7-e5e81a312194","ios":"levelo://app?vid=e6e8f8dd-dda0-43b3-bdd7-e5e81a312194"},"vehicle_type_id":"4","last_reported":1742036819,"current_range_meters":6000,"station_id":"ce4bhhp2rcd13ifvqfm0","pricing_plan_id":"cebpf4jnsgd1na2vs0mg"},{"bike_id":"703a27ab-78c1-4da2-9977-9c24f54834c8","system_id":"levelo_inurba_marseille","lat":43.32477,"lon":5.3657,"is_reserved":false,"is_disabled":false,"rental_uris":{"android":"levelo://app?vid=703a27ab-78c1-4da2-9977-9c24f54834c8","ios":"levelo://app?vid=703a27ab-78c1-4da2-9977-9c24f54834c8"},"vehicle_type_id":"4","last_reported":1742036819,"current_range_meters":6000,"station_id":"ce4bhs12rcd13ifvqhvg","pricing_plan_id":"cebpf4jnsgd1na2vs0mg"},{"bike_id":"3363e5ed-aafd-4c83-9f97-12270e6ffcf4","system_id":"levelo_inurba_marseille","lat":43.248497,"lon":5.406407,"is_reserved":false,"is_disabled":false,"rental_uris":{"android":"levelo://app?vid=3363e5ed-aafd-4c83-9f97-12270e6ffcf4","ios":"levelo://app?vid=3363e5ed-aafd-4c83-9f97-12270e6ffcf4"},"vehicle_type_id":"4","last_reported":1742036819,"current_range_meters":6000,"station_id":"","pricing_plan_id":"cebpf4jnsgd1na2vs0mg"},{"bike_id":"f2ee8bc0-312d-4388-b78b-2fe33c2c7cb8","system_id":"levelo_inurba_marseille","lat":43.24548,"lon":5.39529,"is_reserved":false,"is_disabled":false,"rental_uris":{"android":"levelo://app?vid=f2ee8bc0-312d-4388-b78b-2fe33c2c7cb8","ios":"levelo://app?vid=f2ee8bc0-312d-4388-b78b-2fe33c2c7cb8"},"vehicle_type_id":"4","last_reported":1742036819,"current_range_meters":6000,"station_id":"ce4bhlp2rcd13ifvqgjg","pricing_plan_id":"cebpf4jnsgd1na2vs0mg"},{"bike_id":"e5f1406c-b4f9-4584-9821-ef46e4f60494","system_id":"levelo_inurba_marseille","lat":43.26054,"lon":5.39396,"is_reserved":false,"is_disabled":false,"rental_uris":{"android":"levelo://app?vid=e5f1406c-b4f9-4584-9821-ef46e4f60494","ios":"levelo://app?vid=e5f1406c-b4f9-4584-9821-ef46e4f60494"},"vehicle_type_id":"4","last_reported":1742036819,"current_range_meters":6000,"station_id":"ce4bhh92rcd13ifvqfj0","pricing_plan_id":"cebpf4jnsgd1na2vs0mg"},{"bike_id":"c6871b41-8020-4966-867b-6a4918b24e51","system_id":"levelo_inurba_marseille","lat":43.29626,"lon":5.3771,"is_reserved":false,"is_disabled":false,"rental_uris":{"android":"levelo://app?vid=c6871b41-8020-4966-867b-6a4918b24e51","ios":"levelo://app?vid=c6871b41-8020-4966-867b-6a4918b24e51"},"vehicle_type_id":"4","last_reported":1742036819,"current_range_meters":6400,"station_id":"ce4bgi92rcd13ifvqb90","pricing_plan_id":"cebpf4jnsgd1na2vs0mg"},{"bike_id":"2f65ed80-6c16-4426-b63c-1981c1c225b9","system_id":"levelo_inurba_marseille","lat":43.29554,"lon":5.42294,"is_reserved":false,"is_disabled":false,"rental_uris":{"android":"levelo://app?vid=2f65ed80-6c16-4426-b63c-1981c1c225b9","ios":"levelo://app?vid=2f65ed80-6c16-4426-b63c-1981c1c225b9"},"vehicle_type_id":"4","last_reported":1742036819,"current_range_meters":6400,"station_id":"ce4bhph2rcd13ifvqhdg","pricing_plan_id":"cebpf4jnsgd1na2vs0mg"},{"bike_id":"769267c9-ba89-410c-b393-c6991308bd6e","system_id":"levelo_inurba_marseille","lat":43.3013,"lon":5.38782,"is_reserved":false,"is_disabled":false,"rental_uris":{"android":"levelo://app?vid=769267c9-ba89-410c-b393-c6991308bd6e","ios":"levelo://app?vid=769267c9-ba89-410c-b393-c6991308bd6e"},"vehicle_type_id":"4","last_reported":1742036819,"current_range_meters":6400,"station_id":"ce4bghh2rcd13ifvqb60","pricing_plan_id":"cebpf4jnsgd1na2vs0mg"},{"bike_id":"36aad7e9-4791-4984-8df9-a8cded192aa8","system_id":"levelo_inurba_marseille","lat":43.274957,"lon":5.424547,"is_reserved":false,"is_disabled":false,"rental_uris":{"android":"levelo://app?vid=36aad7e9-4791-4984-8df9-a8cded192aa8","ios":"levelo://app?vid=36aad7e9-4791-4984-8df9-a8cded192aa8"},"vehicle_type_id":"4","last_reported":1742036819,"current_range_meters":6400,"station_id":"ce4bhn92rcd13ifvqgrg","pricing_plan_id":"cebpf4jnsgd1na2vs0mg"},{"bike_id":"f2d00548-a5af-43a5-9ad4-5205ddc617dc","system_id":"levelo_inurba_marseille","lat":43.309862,"lon":5.417347,"is_reserved":false,"is_disabled":false,"rental_uris":{"android":"levelo://app?vid=f2d00548-a5af-43a5-9ad4-5205ddc617dc","ios":"levelo://app?vid=f2d00548-a5af-43a5-9ad4-5205ddc617dc"},"vehicle_type_id":"4","last_reported":1742036819,"current_range_meters":6400,"station_id":"","pricing_plan_id":"cebpf4jnsgd1na2vs0mg"},{"bike_id":"92b883f8-cc3d-476b-b339-c4401f0d4f7f","system_id":"levelo_inurba_marseille","lat":43.26674,"lon":5.38268,"is_reserved":false,"is_disabled":false,"rental_uris":{"android":"levelo://app?vid=92b883f8-cc3d-476b-b339-c4401f0d4f7f","ios":"levelo://app?vid=92b883f8-cc3d-476b-b339-c4401f0d4f7f"},"vehicle_type_id":"4","last_reported":1742036819,"current_range_meters":6400,"station_id":"ce4bhg92rcd13ifvqf90","pricing_plan_id":"cebpf4jnsgd1na2vs0mg"},{"bike_id":"84e8c138-7d96-424f-8962-08a6d264462b","system_id":"levelo_inurba_marseille","lat":43.2315,"lon":5.4372,"is_reserved":false,"is_disabled":false,"rental_uris":{"android":"levelo://app?vid=84e8c138-7d96-424f-8962-08a6d264462b","ios":"levelo://app?vid=84e8c138-7d96-424f-8962-08a6d264462b"},"vehicle_type_id":"4","last_reported":1742036819,"current_range_meters":6400,"station_id":"ce4bhmp2rcd13ifvqgog","pricing_plan_id":"cebpf4jnsgd1na2vs0mg"},{"bike_id":"c61355d7-d03d-4f42-8e07-e610069a596f","system_id":"levelo_inurba_marseille","lat":43.28482,"lon":5.3841,"is_reserved":false,"is_disabled":false,"rental_uris":{"android":"levelo://app?vid=c61355d7-d03d-4f42-8e07-e610069a596f","ios":"levelo://app?vid=c61355d7-d03d-4f42-8e07-e610069a596f"},"vehicle_type_id":"4","last_reported":1742036819,"current_range_meters":6400,"station_id":"ce4bh512rcd13ifvqe3g","pricing_plan_id":"cebpf4jnsgd1na2vs0mg"},{"bike_id":"faf4c27a-d7eb-4435-bbca-3d07a59b2d3c","system_id":"levelo_inurba_marseille","lat":43.31289,"lon":5.40188,"is_reserved":false,"is_disabled":false,"rental_uris":{"android":"levelo://app?vid=faf4c27a-d7eb-4435-bbca-3d07a59b2d3c","ios":"levelo://app?vid=faf4c27a-d7eb-4435-bbca-3d07a59b2d3c"},"vehicle_type_id":"4","last_reported":1742036819,"current_range_meters":6800,"station_id":"ce4bh092rcd13ifvqd30","pricing_plan_id":"cebpf4jnsgd1na2vs0mg"},{"bike_id":"ee74655d-0140-407b-8329-fcb30d56a191","system_id":"levelo_inurba_marseille","lat":43.26558,"lon":5.39015,"is_reserved":false,"is_disabled":false,"rental_uris":{"android":"levelo://app?vid=ee74655d-0140-407b-8329-fcb30d56a191","ios":"levelo://app?vid=ee74655d-0140-407b-8329-fcb30d56a191"},"vehicle_type_id":"4","last_reported":1742036819,"current_range_meters":6800,"station_id":"ce4bhe12rcd13ifvqf30","pricing_plan_id":"cebpf4jnsgd1na2vs0mg"},{"bike_id":"e7e70597-27c6-40d2-933e-14b37f695537","system_id":"levelo_inurba_marseille","lat":43.29179,"lon":5.37141,"is_reserved":false,"is_disabled":false,"rental_uris":{"android":"levelo://app?vid=e7e70597-27c6-40d2-933e-14b37f695537","ios":"levelo://app?vid=e7e70597-27c6-40d2-933e-14b37f695537"},"vehicle_type_id":"4","last_reported":1742036819,"current_range_meters":7200,"station_id":"ce4bha92rcd13ifvqeh0","pricing_plan_id":"cebpf4jnsgd1na2vs0mg"},{"bike_id":"77f0430f-3350-4963-ac6b-e35c49a943e2","system_id":"levelo_inurba_marseille","lat":43.31667,"lon":5.39579,"is_reserved":false,"is_disabled":false,"rental_uris":{"android":"levelo://app?vid=77f0430f-3350-4963-ac6b-e35c49a943e2","ios":"levelo://app?vid=77f0430f-3350-4963-ac6b-e35c49a943e2"},"vehicle_type_id":"4","last_reported":1742036819,"current_range_meters":7200,"station_id":"","pricing_plan_id":"cebpf4jnsgd1na2vs0mg"},{"bike_id":"8a50b35c-7853-4d1c-9ad1-45b999aa59a0","system_id":"levelo_inurba_marseille","lat":43.33002,"lon":5.38904,"is_reserved":false,"is_disabled":false,"rental_uris":{"android":"levelo://app?vid=8a50b35c-7853-4d1c-9ad1-45b999aa59a0","ios":"levelo://app?vid=8a50b35c-7853-4d1c-9ad1-45b999aa59a0"},"vehicle_type_id":"4","last_reported":1742036819,"current_range_meters":8400,"station_id":"","pricing_plan_id":"cebpf4jnsgd1na2vs0mg"},{"bike_id":"886259f7-d5b4-4258-b9b1-334bcf1ab143","system_id":"levelo_inurba_marseille","lat":43.27066,"lon":5.42262,"is_reserved":false,"is_disabled":false,"rental_uris":{"android":"levelo://app?vid=886259f7-d5b4-4258-b9b1-334bcf1ab143","ios":"levelo://app?vid=886259f7-d5b4-4258-b9b1-334bcf1ab143"},"vehicle_type_id":"4","last_reported":1742036819,"current_range_meters":8000,"station_id":"ce4bhk92rcd13ifvqgb0","pricing_plan_id":"cebpf4jnsgd1na2vs0mg"},{"bike_id":"48f968e9-2670-450c-9a50-b12a7ac1907f","system_id":"levelo_inurba_marseille","lat":43.257299,"lon":5.411068,"is_reserved":false,"is_disabled":false,"rental_uris":{"android":"levelo://app?vid=48f968e9-2670-450c-9a50-b12a7ac1907f","ios":"levelo://app?vid=48f968e9-2670-450c-9a50-b12a7ac1907f"},"vehicle_type_id":"4","last_reported":1742036819,"current_range_meters":8000,"station_id":"ce4bhkp2rcd13ifvqgd0","pricing_plan_id":"cebpf4jnsgd1na2vs0mg"},{"bike_id":"1504e658-d922-44cd-b1b9-815c221c9ebe","system_id":"levelo_inurba_marseille","lat":43.29036,"lon":5.38637,"is_reserved":false,"is_disabled":false,"rental_uris":{"android":"levelo://app?vid=1504e658-d922-44cd-b1b9-815c221c9ebe","ios":"levelo://app?vid=1504e658-d922-44cd-b1b9-815c221c9ebe"},"vehicle_type_id":"4","last_reported":1742036819,"current_range_meters":8000,"station_id":"ce4bh4p2rcd13ifvqe0g","pricing_plan_id":"cebpf4jnsgd1na2vs0mg"},{"bike_id":"7bef0273-fa80-44ed-a4b4-548259f5ceb8","system_id":"levelo_inurba_marseille","lat":43.29577,"lon":5.36739,"is_reserved":false,"is_disabled":false,"rental_uris":{"android":"levelo://app?vid=7bef0273-fa80-44ed-a4b4-548259f5ceb8","ios":"levelo://app?vid=7bef0273-fa80-44ed-a4b4-548259f5ceb8"},"vehicle_type_id":"4","last_reported":1742036819,"current_range_meters":8000,"station_id":"ce4bgph2rcd13ifvqc2g","pricing_plan_id":"cebpf4jnsgd1na2vs0mg"},{"bike_id":"a8e67676-89ba-43e0-82dc-5ef4b0a5e328","system_id":"levelo_inurba_marseille","lat":43.31393,"lon":5.3921,"is_reserved":false,"is_disabled":false,"rental_uris":{"android":"levelo://app?vid=a8e67676-89ba-43e0-82dc-5ef4b0a5e328","ios":"levelo://app?vid=a8e67676-89ba-43e0-82dc-5ef4b0a5e328"},"vehicle_type_id":"4","last_reported":1742036819,"current_range_meters":8000,"station_id":"","pricing_plan_id":"cebpf4jnsgd1na2vs0mg"},{"bike_id":"2ec0f046-4e68-4150-a618-5c892d6b2cb5","system_id":"levelo_inurba_marseille","lat":43.26252,"lon":5.40479,"is_reserved":false,"is_disabled":false,"rental_uris":{"android":"levelo://app?vid=2ec0f046-4e68-4150-a618-5c892d6b2cb5","ios":"levelo://app?vid=2ec0f046-4e68-4150-a618-5c892d6b2cb5"},"vehicle_type_id":"4","last_reported":1742036819,"current_range_meters":8000,"station_id":"ce4bhmh2rcd13ifvqgmg","pricing_plan_id":"cebpf4jnsgd1na2vs0mg"},{"bike_id":"d9d112ab-bb0c-48a8-b7d7-88dde0b5d086","system_id":"levelo_inurba_marseille","lat":43.32298,"lon":5.38259,"is_reserved":false,"is_disabled":false,"rental_uris":{"android":"levelo://app?vid=d9d112ab-bb0c-48a8-b7d7-88dde0b5d086","ios":"levelo://app?vid=d9d112ab-bb0c-48a8-b7d7-88dde0b5d086"},"vehicle_type_id":"4","last_reported":1742036819,"current_range_meters":8400,"station_id":"ce4bhr12rcd13ifvqhqg","pricing_plan_id":"cebpf4jnsgd1na2vs0mg"},{"bike_id":"80fe951f-5b80-4eb8-8e1a-69871905ff36","system_id":"levelo_inurba_marseille","lat":43.281189,"lon":5.378296,"is_reserved":false,"is_disabled":false,"rental_uris":{"android":"levelo://app?vid=80fe951f-5b80-4eb8-8e1a-69871905ff36","ios":"levelo://app?vid=80fe951f-5b80-4eb8-8e1a-69871905ff36"},"vehicle_type_id":"4","last_reported":1742036819,"current_range_meters":8400,"station_id":"ce4bhnp2rcd13ifvqgvg","pricing_plan_id":"cebpf4jnsgd1na2vs0mg"},{"bike_id":"8a426378-1e66-4cf8-a4e5-601b569a4048","system_id":"levelo_inurba_marseille","lat":43.28894,"lon":5.40029,"is_reserved":false,"is_disabled":false,"rental_uris":{"android":"levelo://app?vid=8a426378-1e66-4cf8-a4e5-601b569a4048","ios":"levelo://app?vid=8a426378-1e66-4cf8-a4e5-601b569a4048"},"vehicle_type_id":"4","last_reported":1742036819,"current_range_meters":8400,"station_id":"","pricing_plan_id":"cebpf4jnsgd1na2vs0mg"},{"bike_id":"bd7fb638-a561-41df-90ca-f32685780427","system_id":"levelo_inurba_marseille","lat":43.229238,"lon":5.353766,"is_reserved":false,"is_disabled":false,"rental_uris":{"android":"levelo://app?vid=bd7fb638-a561-41df-90ca-f32685780427","ios":"levelo://app?vid=bd7fb638-a561-41df-90ca-f32685780427"},"vehicle_type_id":"4","last_reported":1742036819,"current_range_meters":8400,"station_id":"cpo3532slgdg3j2ikp40","pricing_plan_id":"cebpf4jnsgd1na2vs0mg"},{"bike_id":"8a5bd971-61c1-4475-933b-dffdb284dd01","system_id":"levelo_inurba_marseille","lat":43.250098,"lon":5.389123,"is_reserved":false,"is_disabled":false,"rental_uris":{"android":"levelo://app?vid=8a5bd971-61c1-4475-933b-dffdb284dd01","ios":"levelo://app?vid=8a5bd971-61c1-4475-933b-dffdb284dd01"},"vehicle_type_id":"4","last_reported":1742036819,"current_range_meters":8800,"station_id":"ce4bhgp2rcd13ifvqfd0","pricing_plan_id":"cebpf4jnsgd1na2vs0mg"},{"bike_id":"efb580b2-0ed6-492a-a281-d837da670148","system_id":"levelo_inurba_marseille","lat":43.29087,"lon":5.38124,"is_reserved":false,"is_disabled":false,"rental_uris":{"android":"levelo://app?vid=efb580b2-0ed6-492a-a281-d837da670148","ios":"levelo://app?vid=efb580b2-0ed6-492a-a281-d837da670148"},"vehicle_type_id":"4","last_reported":1742036819,"current_range_meters":8800,"station_id":"ce4bh512rcd13ifvqe2g","pricing_plan_id":"cebpf4jnsgd1na2vs0mg"},{"bike_id":"1a1c0fa8-6bde-48e1-91a5-03153729d84f","system_id":"levelo_inurba_marseille","lat":43.29781,"lon":5.38111,"is_reserved":false,"is_disabled":false,"rental_uris":{"android":"levelo://app?vid=1a1c0fa8-6bde-48e1-91a5-03153729d84f","ios":"levelo://app?vid=1a1c0fa8-6bde-48e1-91a5-03153729d84f"},"vehicle_type_id":"4","last_reported":1742036819,"current_range_meters":8800,"station_id":"ce4bgip2rcd13ifvqbb0","pricing_plan_id":"cebpf4jnsgd1na2vs0mg"},{"bike_id":"9ae97f87-5988-434e-be02-4825dd7943b7","system_id":"levelo_inurba_marseille","lat":43.25906,"lon":5.4085,"is_reserved":false,"is_disabled":false,"rental_uris":{"android":"levelo://app?vid=9ae97f87-5988-434e-be02-4825dd7943b7","ios":"levelo://app?vid=9ae97f87-5988-434e-be02-4825dd7943b7"},"vehicle_type_id":"4","last_reported":1742036819,"current_range_meters":8800,"station_id":"ce4bhm92rcd13ifvqglg","pricing_plan_id":"cebpf4jnsgd1na2vs0mg"},{"bike_id":"b277fbd0-7274-483c-bb32-41c3dbcee2be","system_id":"levelo_inurba_marseille","lat":43.27049,"lon":5.40261,"is_reserved":false,"is_disabled":false,"rental_uris":{"android":"levelo://app?vid=b277fbd0-7274-483c-bb32-41c3dbcee2be","ios":"levelo://app?vid=b277fbd0-7274-483c-bb32-41c3dbcee2be"},"vehicle_type_id":"4","last_reported":1742036819,"current_range_meters":9200,"station_id":"ce4bhk92rcd13ifvqgc0","pricing_plan_id":"cebpf4jnsgd1na2vs0mg"},{"bike_id":"1fa2c054-0357-481f-bf32-afbe27f59e33","system_id":"levelo_inurba_marseille","lat":43.23148,"lon":5.43716,"is_reserved":false,"is_disabled":false,"rental_uris":{"android":"levelo://app?vid=1fa2c054-0357-481f-bf32-afbe27f59e33","ios":"levelo://app?vid=1fa2c054-0357-481f-bf32-afbe27f59e33"},"vehicle_type_id":"4","last_reported":1742036819,"current_range_meters":9200,"station_id":"ce4bhmp2rcd13ifvqgog","pricing_plan_id":"cebpf4jnsgd1na2vs0mg"},{"bike_id":"2a069566-a5df-437d-bb2d-6e0c024e474a","system_id":"levelo_inurba_marseille","lat":43.29252,"lon":5.37626,"is_reserved":false,"is_disabled":false,"rental_uris":{"android":"levelo://app?vid=2a069566-a5df-437d-bb2d-6e0c024e474a","ios":"levelo://app?vid=2a069566-a5df-437d-bb2d-6e0c024e474a"},"vehicle_type_id":"4","last_reported":1742036819,"current_range_meters":9200,"station_id":"ce4bgi12rcd13ifvqb80","pricing_plan_id":"cebpf4jnsgd1na2vs0mg"},{"bike_id":"66f7e32f-3c95-41de-a44e-cd8857d1a810","system_id":"levelo_inurba_marseille","lat":43.27212,"lon":5.39195,"is_reserved":false,"is_disabled":false,"rental_uris":{"android":"levelo://app?vid=66f7e32f-3c95-41de-a44e-cd8857d1a810","ios":"levelo://app?vid=66f7e32f-3c95-41de-a44e-cd8857d1a810"},"vehicle_type_id":"4","last_reported":1742036819,"current_range_meters":9200,"station_id":"ce4bhhp2rcd13ifvqfm0","pricing_plan_id":"cebpf4jnsgd1na2vs0mg"},{"bike_id":"1ac0ebad-6828-4242-99b2-14a9f8209f79","system_id":"levelo_inurba_marseille","lat":43.23208,"lon":5.3556,"is_reserved":false,"is_disabled":false,"rental_uris":{"android":"levelo://app?vid=1ac0ebad-6828-4242-99b2-14a9f8209f79","ios":"levelo://app?vid=1ac0ebad-6828-4242-99b2-14a9f8209f79"},"vehicle_type_id":"4","last_reported":1742036819,"current_range_meters":9600,"station_id":"ce4bhu92rcd13ifvqi70","pricing_plan_id":"cebpf4jnsgd1na2vs0mg"},{"bike_id":"9fd8a695-1141-48a7-a275-ae03aade4f9e","system_id":"levelo_inurba_marseille","lat":43.24557,"lon":5.395282,"is_reserved":false,"is_disabled":false,"rental_uris":{"android":"levelo://app?vid=9fd8a695-1141-48a7-a275-ae03aade4f9e","ios":"levelo://app?vid=9fd8a695-1141-48a7-a275-ae03aade4f9e"},"vehicle_type_id":"4","last_reported":1742036819,"current_range_meters":9600,"station_id":"ce4bhlp2rcd13ifvqgjg","pricing_plan_id":"cebpf4jnsgd1na2vs0mg"},{"bike_id":"553f88c6-6125-4e11-9f10-81e7edf1b7e6","system_id":"levelo_inurba_marseille","lat":43.299,"lon":5.37458,"is_reserved":false,"is_disabled":false,"rental_uris":{"android":"levelo://app?vid=553f88c6-6125-4e11-9f10-81e7edf1b7e6","ios":"levelo://app?vid=553f88c6-6125-4e11-9f10-81e7edf1b7e6"},"vehicle_type_id":"4","last_reported":1742036819,"current_range_meters":9600,"station_id":"ce4bgjh2rcd13ifvqbg0","pricing_plan_id":"cebpf4jnsgd1na2vs0mg"},{"bike_id":"200726f4-dc4c-4abd-860e-9bf1a43ae209","system_id":"levelo_inurba_marseille","lat":43.25716,"lon":5.41111,"is_reserved":false,"is_disabled":false,"rental_uris":{"android":"levelo://app?vid=200726f4-dc4c-4abd-860e-9bf1a43ae209","ios":"levelo://app?vid=200726f4-dc4c-4abd-860e-9bf1a43ae209"},"vehicle_type_id":"4","last_reported":1742036819,"current_range_meters":9600,"station_id":"ce4bhkp2rcd13ifvqgd0","pricing_plan_id":"cebpf4jnsgd1na2vs0mg"},{"bike_id":"97a31297-01ac-492d-89d0-9766cbaaf2f0","system_id":"levelo_inurba_marseille","lat":43.29012,"lon":5.381274,"is_reserved":false,"is_disabled":false,"rental_uris":{"android":"levelo://app?vid=97a31297-01ac-492d-89d0-9766cbaaf2f0","ios":"levelo://app?vid=97a31297-01ac-492d-89d0-9766cbaaf2f0"},"vehicle_type_id":"4","last_reported":1742036819,"current_range_meters":12800,"station_id":"ce4bhhh2rcd13ifvqfk0","pricing_plan_id":"cebpf4jnsgd1na2vs0mg"},{"bike_id":"27a5838b-e5fc-4a35-a5fd-447aeff52f0f","system_id":"levelo_inurba_marseille","lat":43.24804,"lon":5.37453,"is_reserved":false,"is_disabled":false,"rental_uris":{"android":"levelo://app?vid=27a5838b-e5fc-4a35-a5fd-447aeff52f0f","ios":"levelo://app?vid=27a5838b-e5fc-4a35-a5fd-447aeff52f0f"},"vehicle_type_id":"4","last_reported":1742036819,"current_range_meters":9600,"station_id":"ce4bhgh2rcd13ifvqfb0","pricing_plan_id":"cebpf4jnsgd1na2vs0mg"},{"bike_id":"5c09fa10-66af-4d08-984a-1d41e4e2c41b","system_id":"levelo_inurba_marseille","lat":43.23191,"lon":5.39983,"is_reserved":false,"is_disabled":false,"rental_uris":{"android":"levelo://app?vid=5c09fa10-66af-4d08-984a-1d41e4e2c41b","ios":"levelo://app?vid=5c09fa10-66af-4d08-984a-1d41e4e2c41b"},"vehicle_type_id":"4","last_reported":1742036819,"current_range_meters":9600,"station_id":"ce4bhn12rcd13ifvqgqg","pricing_plan_id":"cebpf4jnsgd1na2vs0mg"},{"bike_id":"18a1cfa4-0583-4465-858e-41f769d09057","system_id":"levelo_inurba_marseille","lat":43.31282,"lon":5.40179,"is_reserved":false,"is_disabled":false,"rental_uris":{"android":"levelo://app?vid=18a1cfa4-0583-4465-858e-41f769d09057","ios":"levelo://app?vid=18a1cfa4-0583-4465-858e-41f769d09057"},"vehicle_type_id":"4","last_reported":1742036819,"current_range_meters":9600,"station_id":"ce4bh092rcd13ifvqd30","pricing_plan_id":"cebpf4jnsgd1na2vs0mg"},{"bike_id":"04f149c6-a120-4218-b435-a952d9eb67d0","system_id":"levelo_inurba_marseille","lat":43.24873,"lon":5.40645,"is_reserved":false,"is_disabled":false,"rental_uris":{"android":"levelo://app?vid=04f149c6-a120-4218-b435-a952d9eb67d0","ios":"levelo://app?vid=04f149c6-a120-4218-b435-a952d9eb67d0"},"vehicle_type_id":"4","last_reported":1742036819,"current_range_meters":9600,"station_id":"","pricing_plan_id":"cebpf4jnsgd1na2vs0mg"},{"bike_id":"385ae15c-2c3c-4490-a507-5eb20fb883a5","system_id":"levelo_inurba_marseille","lat":43.25925,"lon":5.40888,"is_reserved":false,"is_disabled":false,"rental_uris":{"android":"levelo://app?vid=385ae15c-2c3c-4490-a507-5eb20fb883a5","ios":"levelo://app?vid=385ae15c-2c3c-4490-a507-5eb20fb883a5"},"vehicle_type_id":"4","last_reported":1742036819,"current_range_meters":9600,"station_id":"ce4bhm92rcd13ifvqglg","pricing_plan_id":"cebpf4jnsgd1na2vs0mg"},{"bike_id":"8586b868-e2d7-4255-9e17-aa145b302dae","system_id":"levelo_inurba_marseille","lat":43.29501,"lon":5.37488,"is_reserved":false,"is_disabled":false,"rental_uris":{"android":"levelo://app?vid=8586b868-e2d7-4255-9e17-aa145b302dae","ios":"levelo://app?vid=8586b868-e2d7-4255-9e17-aa145b302dae"},"vehicle_type_id":"4","last_reported":1742036819,"current_range_meters":9600,"station_id":"ce4bgkp2rcd13ifvqbmg","pricing_plan_id":"cebpf4jnsgd1na2vs0mg"},{"bike_id":"e5271655-9edf-4e55-bb78-feb121655776","system_id":"levelo_inurba_marseille","lat":43.28407,"lon":5.34993,"is_reserved":false,"is_disabled":false,"rental_uris":{"android":"levelo://app?vid=e5271655-9edf-4e55-bb78-feb121655776","ios":"levelo://app?vid=e5271655-9edf-4e55-bb78-feb121655776"},"vehicle_type_id":"4","last_reported":1742036819,"current_range_meters":12400,"station_id":"ce4bhbh2rcd13ifvqepg","pricing_plan_id":"cebpf4jnsgd1na2vs0mg"},{"bike_id":"676e66c6-8e50-404c-b512-5f94c7d6a8fc","system_id":"levelo_inurba_marseille","lat":43.24173,"lon":5.36397,"is_reserved":false,"is_disabled":false,"rental_uris":{"android":"levelo://app?vid=676e66c6-8e50-404c-b512-5f94c7d6a8fc","ios":"levelo://app?vid=676e66c6-8e50-404c-b512-5f94c7d6a8fc"},"vehicle_type_id":"4","last_reported":1742036819,"current_range_meters":10000,"station_id":"cpo36qri1sfpv3e86is0","pricing_plan_id":"cebpf4jnsgd1na2vs0mg"},{"bike_id":"cabd3d2d-330e-43b2-8d0b-3e86699f79e1","system_id":"levelo_inurba_marseille","lat":43.241725,"lon":5.363953,"is_reserved":false,"is_disabled":false,"rental_uris":{"android":"levelo://app?vid=cabd3d2d-330e-43b2-8d0b-3e86699f79e1","ios":"levelo://app?vid=cabd3d2d-330e-43b2-8d0b-3e86699f79e1"},"vehicle_type_id":"4","last_reported":1742036819,"current_range_meters":10000,"station_id":"cpo36qri1sfpv3e86is0","pricing_plan_id":"cebpf4jnsgd1na2vs0mg"},{"bike_id":"c619d10a-5f96-4d14-8523-1fcba686b3e2","system_id":"levelo_inurba_marseille","lat":43.29528,"lon":5.39021,"is_reserved":false,"is_disabled":false,"rental_uris":{"android":"levelo://app?vid=c619d10a-5f96-4d14-8523-1fcba686b3e2","ios":"levelo://app?vid=c619d10a-5f96-4d14-8523-1fcba686b3e2"},"vehicle_type_id":"4","last_reported":1742036819,"current_range_meters":10000,"station_id":"ce4bh3p2rcd13ifvqdp0","pricing_plan_id":"cebpf4jnsgd1na2vs0mg"},{"bike_id":"cd2eb4ba-77cf-40ae-a991-34cec5701430","system_id":"levelo_inurba_marseille","lat":43.23161,"lon":5.43713,"is_reserved":false,"is_disabled":false,"rental_uris":{"android":"levelo://app?vid=cd2eb4ba-77cf-40ae-a991-34cec5701430","ios":"levelo://app?vid=cd2eb4ba-77cf-40ae-a991-34cec5701430"},"vehicle_type_id":"4","last_reported":1742036819,"current_range_meters":10000,"station_id":"ce4bhmp2rcd13ifvqgog","pricing_plan_id":"cebpf4jnsgd1na2vs0mg"},{"bike_id":"49a173d9-c0ae-4f30-8906-a1ef20c838ce","system_id":"levelo_inurba_marseille","lat":43.29624,"lon":5.37728,"is_reserved":false,"is_disabled":false,"rental_uris":{"android":"levelo://app?vid=49a173d9-c0ae-4f30-8906-a1ef20c838ce","ios":"levelo://app?vid=49a173d9-c0ae-4f30-8906-a1ef20c838ce"},"vehicle_type_id":"4","last_reported":1742036819,"current_range_meters":10000,"station_id":"ce4bgi92rcd13ifvqb90","pricing_plan_id":"cebpf4jnsgd1na2vs0mg"},{"bike_id":"625e9017-3d92-4831-b9b4-8efa6f5c5cf5","system_id":"levelo_inurba_marseille","lat":43.27905,"lon":5.39568,"is_reserved":false,"is_disabled":false,"rental_uris":{"android":"levelo://app?vid=625e9017-3d92-4831-b9b4-8efa6f5c5cf5","ios":"levelo://app?vid=625e9017-3d92-4831-b9b4-8efa6f5c5cf5"},"vehicle_type_id":"4","last_reported":1742036819,"current_range_meters":10000,"station_id":"ce4bhf92rcd13ifvqf40","pricing_plan_id":"cebpf4jnsgd1na2vs0mg"},{"bike_id":"62750819-90ea-49db-b059-da19472d9390","system_id":"levelo_inurba_marseille","lat":43.315624,"lon":5.422804,"is_reserved":false,"is_disabled":false,"rental_uris":{"android":"levelo://app?vid=62750819-90ea-49db-b059-da19472d9390","ios":"levelo://app?vid=62750819-90ea-49db-b059-da19472d9390"},"vehicle_type_id":"4","last_reported":1742036819,"current_range_meters":10000,"station_id":"","pricing_plan_id":"cebpf4jnsgd1na2vs0mg"},{"bike_id":"1022e317-28f7-4278-9663-49f0397abc93","system_id":"levelo_inurba_marseille","lat":43.24174,"lon":5.39734,"is_reserved":false,"is_disabled":false,"rental_uris":{"android":"levelo://app?vid=1022e317-28f7-4278-9663-49f0397abc93","ios":"levelo://app?vid=1022e317-28f7-4278-9663-49f0397abc93"},"vehicle_type_id":"4","last_reported":1742036819,"current_range_meters":10800,"station_id":"ce4bhn12rcd13ifvqgpg","pricing_plan_id":"cebpf4jnsgd1na2vs0mg"},{"bike_id":"9d9bd579-ca4a-49a8-84d8-e0a9c1600b5e","system_id":"levelo_inurba_marseille","lat":43.250844,"lon":5.395249,"is_reserved":false,"is_disabled":false,"rental_uris":{"android":"levelo://app?vid=9d9bd579-ca4a-49a8-84d8-e0a9c1600b5e","ios":"levelo://app?vid=9d9bd579-ca4a-49a8-84d8-e0a9c1600b5e"},"vehicle_type_id":"4","last_reported":1742036819,"current_range_meters":10800,"station_id":"ce4bhm12rcd13ifvqgkg","pricing_plan_id":"cebpf4jnsgd1na2vs0mg"},{"bike_id":"08d7ad39-29b9-4d1d-ab44-5a56dd13dd34","system_id":"levelo_inurba_marseille","lat":43.24096,"lon":5.37757,"is_reserved":false,"is_disabled":false,"rental_uris":{"android":"levelo://app?vid=08d7ad39-29b9-4d1d-ab44-5a56dd13dd34","ios":"levelo://app?vid=08d7ad39-29b9-4d1d-ab44-5a56dd13dd34"},"vehicle_type_id":"4","last_reported":1742036819,"current_range_meters":10800,"station_id":"ce4bhnp2rcd13ifvqgvg","pricing_plan_id":"cebpf4jnsgd1na2vs0mg"},{"bike_id":"269491db-b98a-49e3-a3b5-e04159ff8cbf","system_id":"levelo_inurba_marseille","lat":43.2694,"lon":5.40253,"is_reserved":false,"is_disabled":false,"rental_uris":{"android":"levelo://app?vid=269491db-b98a-49e3-a3b5-e04159ff8cbf","ios":"levelo://app?vid=269491db-b98a-49e3-a3b5-e04159ff8cbf"},"vehicle_type_id":"4","last_reported":1742036819,"current_range_meters":10800,"station_id":"cjm6bp8fraef2m0cb0m0","pricing_plan_id":"cebpf4jnsgd1na2vs0mg"},{"bike_id":"c319887f-b1ab-4c13-8ddc-9f57e60f8873","system_id":"levelo_inurba_marseille","lat":43.33623,"lon":5.41015,"is_reserved":false,"is_disabled":false,"rental_uris":{"android":"levelo://app?vid=c319887f-b1ab-4c13-8ddc-9f57e60f8873","ios":"levelo://app?vid=c319887f-b1ab-4c13-8ddc-9f57e60f8873"},"vehicle_type_id":"4","last_reported":1742036819,"current_range_meters":10800,"station_id":"ce4bhqh2rcd13ifvqhmg","pricing_plan_id":"cebpf4jnsgd1na2vs0mg"},{"bike_id":"2601e6fc-7ce4-49a6-b926-892447b63991","system_id":"levelo_inurba_marseille","lat":43.30282,"lon":5.37711,"is_reserved":false,"is_disabled":false,"rental_uris":{"android":"levelo://app?vid=2601e6fc-7ce4-49a6-b926-892447b63991","ios":"levelo://app?vid=2601e6fc-7ce4-49a6-b926-892447b63991"},"vehicle_type_id":"4","last_reported":1742036819,"current_range_meters":10800,"station_id":"ce4bguh2rcd13ifvqcj0","pricing_plan_id":"cebpf4jnsgd1na2vs0mg"},{"bike_id":"3c9a2a99-c0ff-41a0-874e-fad2ae49915e","system_id":"levelo_inurba_marseille","lat":43.30163,"lon":5.37369,"is_reserved":false,"is_disabled":false,"rental_uris":{"android":"levelo://app?vid=3c9a2a99-c0ff-41a0-874e-fad2ae49915e","ios":"levelo://app?vid=3c9a2a99-c0ff-41a0-874e-fad2ae49915e"},"vehicle_type_id":"4","last_reported":1742036819,"current_range_meters":10800,"station_id":"ce4bgs92rcd13ifvqcc0","pricing_plan_id":"cebpf4jnsgd1na2vs0mg"},{"bike_id":"0b7bfdb8-fd03-4687-9225-8085184f929c","system_id":"levelo_inurba_marseille","lat":43.32358,"lon":5.36764,"is_reserved":false,"is_disabled":false,"rental_uris":{"android":"levelo://app?vid=0b7bfdb8-fd03-4687-9225-8085184f929c","ios":"levelo://app?vid=0b7bfdb8-fd03-4687-9225-8085184f929c"},"vehicle_type_id":"4","last_reported":1742036819,"current_range_meters":11200,"station_id":"ce4bhsh2rcd13ifvqi2g","pricing_plan_id":"cebpf4jnsgd1na2vs0mg"},{"bike_id":"55978218-a5ba-43cd-bb45-feb7ac5e7c7d","system_id":"levelo_inurba_marseille","lat":43.30464,"lon":5.3791,"is_reserved":false,"is_disabled":false,"rental_uris":{"android":"levelo://app?vid=55978218-a5ba-43cd-bb45-feb7ac5e7c7d","ios":"levelo://app?vid=55978218-a5ba-43cd-bb45-feb7ac5e7c7d"},"vehicle_type_id":"4","last_reported":1742036819,"current_range_meters":11200,"station_id":"ce4bgup2rcd13ifvqcn0","pricing_plan_id":"cebpf4jnsgd1na2vs0mg"},{"bike_id":"d0d32e08-158c-474d-9e1f-6d03eceebda8","system_id":"levelo_inurba_marseille","lat":43.24543,"lon":5.39521,"is_reserved":false,"is_disabled":false,"rental_uris":{"android":"levelo://app?vid=d0d32e08-158c-474d-9e1f-6d03eceebda8","ios":"levelo://app?vid=d0d32e08-158c-474d-9e1f-6d03eceebda8"},"vehicle_type_id":"4","last_reported":1742036819,"current_range_meters":10800,"station_id":"ce4bhlp2rcd13ifvqgjg","pricing_plan_id":"cebpf4jnsgd1na2vs0mg"},{"bike_id":"e52b41b5-52df-4c67-a85c-3cebb3bf7504","system_id":"levelo_inurba_marseille","lat":43.32359,"lon":5.36765,"is_reserved":false,"is_disabled":false,"rental_uris":{"android":"levelo://app?vid=e52b41b5-52df-4c67-a85c-3cebb3bf7504","ios":"levelo://app?vid=e52b41b5-52df-4c67-a85c-3cebb3bf7504"},"vehicle_type_id":"4","last_reported":1742036819,"current_range_meters":11200,"station_id":"ce4bhsh2rcd13ifvqi2g","pricing_plan_id":"cebpf4jnsgd1na2vs0mg"},{"bike_id":"83783ead-721f-4d82-86e9-a8ac641b2edd","system_id":"levelo_inurba_marseille","lat":43.26233,"lon":5.40458,"is_reserved":false,"is_disabled":false,"rental_uris":{"android":"levelo://app?vid=83783ead-721f-4d82-86e9-a8ac641b2edd","ios":"levelo://app?vid=83783ead-721f-4d82-86e9-a8ac641b2edd"},"vehicle_type_id":"4","last_reported":1742036819,"current_range_meters":11200,"station_id":"ce4bhmh2rcd13ifvqgmg","pricing_plan_id":"cebpf4jnsgd1na2vs0mg"},{"bike_id":"efd3e708-b4a5-4c09-821a-227b99735fb3","system_id":"levelo_inurba_marseille","lat":43.28034,"lon":5.36944,"is_reserved":false,"is_disabled":false,"rental_uris":{"android":"levelo://app?vid=efd3e708-b4a5-4c09-821a-227b99735fb3","ios":"levelo://app?vid=efd3e708-b4a5-4c09-821a-227b99735fb3"},"vehicle_type_id":"4","last_reported":1742036819,"current_range_meters":11200,"station_id":"ce4bha12rcd13ifvqef0","pricing_plan_id":"cebpf4jnsgd1na2vs0mg"},{"bike_id":"7137f0c1-e937-471d-bfc2-9a2400fc4913","system_id":"levelo_inurba_marseille","lat":43.31292,"lon":5.40171,"is_reserved":false,"is_disabled":false,"rental_uris":{"android":"levelo://app?vid=7137f0c1-e937-471d-bfc2-9a2400fc4913","ios":"levelo://app?vid=7137f0c1-e937-471d-bfc2-9a2400fc4913"},"vehicle_type_id":"4","last_reported":1742036819,"current_range_meters":11200,"station_id":"ce4bh092rcd13ifvqd30","pricing_plan_id":"cebpf4jnsgd1na2vs0mg"},{"bike_id":"b1de987f-8517-4d01-bbc1-ecb7d6328513","system_id":"levelo_inurba_marseille","lat":43.32351,"lon":5.41449,"is_reserved":false,"is_disabled":false,"rental_uris":{"android":"levelo://app?vid=b1de987f-8517-4d01-bbc1-ecb7d6328513","ios":"levelo://app?vid=b1de987f-8517-4d01-bbc1-ecb7d6328513"},"vehicle_type_id":"4","last_reported":1742036819,"current_range_meters":11200,"station_id":"ce4bhq12rcd13ifvqhhg","pricing_plan_id":"cebpf4jnsgd1na2vs0mg"},{"bike_id":"3fbdbed3-81eb-4ebd-99e8-fe7ae5272906","system_id":"levelo_inurba_marseille","lat":43.25839,"lon":5.39412,"is_reserved":false,"is_disabled":false,"rental_uris":{"android":"levelo://app?vid=3fbdbed3-81eb-4ebd-99e8-fe7ae5272906","ios":"levelo://app?vid=3fbdbed3-81eb-4ebd-99e8-fe7ae5272906"},"vehicle_type_id":"4","last_reported":1742036819,"current_range_meters":11200,"station_id":"ce4bhip2rcd13ifvqft0","pricing_plan_id":"cebpf4jnsgd1na2vs0mg"},{"bike_id":"76b5d343-6624-4366-8e6e-f702d50ae492","system_id":"levelo_inurba_marseille","lat":43.231911,"lon":5.355551,"is_reserved":false,"is_disabled":false,"rental_uris":{"android":"levelo://app?vid=76b5d343-6624-4366-8e6e-f702d50ae492","ios":"levelo://app?vid=76b5d343-6624-4366-8e6e-f702d50ae492"},"vehicle_type_id":"4","last_reported":1742036819,"current_range_meters":11600,"station_id":"ce4bhu92rcd13ifvqi70","pricing_plan_id":"cebpf4jnsgd1na2vs0mg"},{"bike_id":"45ee20b5-5b5f-4059-8abd-816f5ec8d6f2","system_id":"levelo_inurba_marseille","lat":43.30123,"lon":5.39858,"is_reserved":false,"is_disabled":false,"rental_uris":{"android":"levelo://app?vid=45ee20b5-5b5f-4059-8abd-816f5ec8d6f2","ios":"levelo://app?vid=45ee20b5-5b5f-4059-8abd-816f5ec8d6f2"},"vehicle_type_id":"4","last_reported":1742036819,"current_range_meters":11600,"station_id":"ce4bh0h2rcd13ifvqd40","pricing_plan_id":"cebpf4jnsgd1na2vs0mg"},{"bike_id":"1742665e-3cf5-4d91-9f4d-8afacbb37c97","system_id":"levelo_inurba_marseille","lat":43.30317,"lon":5.39232,"is_reserved":false,"is_disabled":false,"rental_uris":{"android":"levelo://app?vid=1742665e-3cf5-4d91-9f4d-8afacbb37c97","ios":"levelo://app?vid=1742665e-3cf5-4d91-9f4d-8afacbb37c97"},"vehicle_type_id":"4","last_reported":1742036819,"current_range_meters":12400,"station_id":"ce4bgkh2rcd13ifvqbk0","pricing_plan_id":"cebpf4jnsgd1na2vs0mg"},{"bike_id":"742c86bb-c5b7-4ab4-8232-bc8cf0a8d010","system_id":"levelo_inurba_marseille","lat":43.29096,"lon":5.3816,"is_reserved":false,"is_disabled":false,"rental_uris":{"android":"levelo://app?vid=742c86bb-c5b7-4ab4-8232-bc8cf0a8d010","ios":"levelo://app?vid=742c86bb-c5b7-4ab4-8232-bc8cf0a8d010"},"vehicle_type_id":"4","last_reported":1742036819,"current_range_meters":12400,"station_id":"ce4bh512rcd13ifvqe2g","pricing_plan_id":"cebpf4jnsgd1na2vs0mg"},{"bike_id":"57f16d46-9a26-4a0f-bbd4-4019fba41bd5","system_id":"levelo_inurba_marseille","lat":43.23942,"lon":5.36574,"is_reserved":false,"is_disabled":false,"rental_uris":{"android":"levelo://app?vid=57f16d46-9a26-4a0f-bbd4-4019fba41bd5","ios":"levelo://app?vid=57f16d46-9a26-4a0f-bbd4-4019fba41bd5"},"vehicle_type_id":"4","last_reported":1742036819,"current_range_meters":12400,"station_id":"ce4bhi12rcd13ifvqfp0","pricing_plan_id":"cebpf4jnsgd1na2vs0mg"},{"bike_id":"52d5c875-3609-4039-a86e-3e5108b5309e","system_id":"levelo_inurba_marseille","lat":43.29228,"lon":5.36079,"is_reserved":false,"is_disabled":false,"rental_uris":{"android":"levelo://app?vid=52d5c875-3609-4039-a86e-3e5108b5309e","ios":"levelo://app?vid=52d5c875-3609-4039-a86e-3e5108b5309e"},"vehicle_type_id":"4","last_reported":1742036819,"current_range_meters":12400,"station_id":"ce4bhbh2rcd13ifvqeqg","pricing_plan_id":"cebpf4jnsgd1na2vs0mg"},{"bike_id":"0b2098f8-f01b-4126-87cc-0d78c36eb482","system_id":"levelo_inurba_marseille","lat":43.30132,"lon":5.3986,"is_reserved":false,"is_disabled":false,"rental_uris":{"android":"levelo://app?vid=0b2098f8-f01b-4126-87cc-0d78c36eb482","ios":"levelo://app?vid=0b2098f8-f01b-4126-87cc-0d78c36eb482"},"vehicle_type_id":"4","last_reported":1742036819,"current_range_meters":12000,"station_id":"ce4bgvp2rcd13ifvqct0","pricing_plan_id":"cebpf4jnsgd1na2vs0mg"},{"bike_id":"20528508-c65a-4c0c-9158-225b73242ced","system_id":"levelo_inurba_marseille","lat":43.24662,"lon":5.38169,"is_reserved":false,"is_disabled":false,"rental_uris":{"android":"levelo://app?vid=20528508-c65a-4c0c-9158-225b73242ced","ios":"levelo://app?vid=20528508-c65a-4c0c-9158-225b73242ced"},"vehicle_type_id":"4","last_reported":1742036819,"current_range_meters":12000,"station_id":"ce4bhih2rcd13ifvqfr0","pricing_plan_id":"cebpf4jnsgd1na2vs0mg"},{"bike_id":"35170032-9fbd-466b-b080-21388ed7720a","system_id":"levelo_inurba_marseille","lat":43.25087,"lon":5.3951,"is_reserved":false,"is_disabled":false,"rental_uris":{"android":"levelo://app?vid=35170032-9fbd-466b-b080-21388ed7720a","ios":"levelo://app?vid=35170032-9fbd-466b-b080-21388ed7720a"},"vehicle_type_id":"4","last_reported":1742036819,"current_range_meters":12800,"station_id":"ce4bhm12rcd13ifvqgkg","pricing_plan_id":"cebpf4jnsgd1na2vs0mg"},{"bike_id":"fcfb0226-b92a-48e1-8109-97d8670e0387","system_id":"levelo_inurba_marseille","lat":43.25917,"lon":5.40897,"is_reserved":false,"is_disabled":false,"rental_uris":{"android":"levelo://app?vid=fcfb0226-b92a-48e1-8109-97d8670e0387","ios":"levelo://app?vid=fcfb0226-b92a-48e1-8109-97d8670e0387"},"vehicle_type_id":"4","last_reported":1742036819,"current_range_meters":12800,"station_id":"ce4bhm92rcd13ifvqglg","pricing_plan_id":"cebpf4jnsgd1na2vs0mg"},{"bike_id":"0ffb75c2-4d62-487a-97af-1eaa52744ae6","system_id":"levelo_inurba_marseille","lat":43.29587,"lon":5.36745,"is_reserved":false,"is_disabled":false,"rental_uris":{"android":"levelo://app?vid=0ffb75c2-4d62-487a-97af-1eaa52744ae6","ios":"levelo://app?vid=0ffb75c2-4d62-487a-97af-1eaa52744ae6"},"vehicle_type_id":"4","last_reported":1742036819,"current_range_meters":12800,"station_id":"ce4bgph2rcd13ifvqc2g","pricing_plan_id":"cebpf4jnsgd1na2vs0mg"},{"bike_id":"5040a28b-2948-44a5-b2ab-78cb99e37b1a","system_id":"levelo_inurba_marseille","lat":43.264902,"lon":5.395436,"is_reserved":false,"is_disabled":false,"rental_uris":{"android":"levelo://app?vid=5040a28b-2948-44a5-b2ab-78cb99e37b1a","ios":"levelo://app?vid=5040a28b-2948-44a5-b2ab-78cb99e37b1a"},"vehicle_type_id":"4","last_reported":1742036819,"current_range_meters":12800,"station_id":"ce4bgpp2rcd13ifvqc3g","pricing_plan_id":"cebpf4jnsgd1na2vs0mg"},{"bike_id":"d751a31e-a518-44cc-8641-315d036d1e06","system_id":"levelo_inurba_marseille","lat":43.298723,"lon":5.397497,"is_reserved":false,"is_disabled":false,"rental_uris":{"android":"levelo://app?vid=d751a31e-a518-44cc-8641-315d036d1e06","ios":"levelo://app?vid=d751a31e-a518-44cc-8641-315d036d1e06"},"vehicle_type_id":"4","last_reported":1742036819,"current_range_meters":13600,"station_id":"ce4bh0h2rcd13ifvqd50","pricing_plan_id":"cebpf4jnsgd1na2vs0mg"},{"bike_id":"608f0462-484e-441f-9837-82475dce48ee","system_id":"levelo_inurba_marseille","lat":43.29908,"lon":5.43661,"is_reserved":false,"is_disabled":false,"rental_uris":{"android":"levelo://app?vid=608f0462-484e-441f-9837-82475dce48ee","ios":"levelo://app?vid=608f0462-484e-441f-9837-82475dce48ee"},"vehicle_type_id":"4","last_reported":1742036819,"current_range_meters":13600,"station_id":"ce4bhpp2rcd13ifvqhfg","pricing_plan_id":"cebpf4jnsgd1na2vs0mg"},{"bike_id":"27bac330-d155-49e8-82e6-eb8b69d07d77","system_id":"levelo_inurba_marseille","lat":43.30196,"lon":5.36645,"is_reserved":false,"is_disabled":false,"rental_uris":{"android":"levelo://app?vid=27bac330-d155-49e8-82e6-eb8b69d07d77","ios":"levelo://app?vid=27bac330-d155-49e8-82e6-eb8b69d07d77"},"vehicle_type_id":"4","last_reported":1742036819,"current_range_meters":13600,"station_id":"ce4bgrh2rcd13ifvqc8g","pricing_plan_id":"cebpf4jnsgd1na2vs0mg"},{"bike_id":"fc071de1-2cc0-488a-a43e-f8037a5a9a49","system_id":"levelo_inurba_marseille","lat":43.23065,"lon":5.35492,"is_reserved":false,"is_disabled":false,"rental_uris":{"android":"levelo://app?vid=fc071de1-2cc0-488a-a43e-f8037a5a9a49","ios":"levelo://app?vid=fc071de1-2cc0-488a-a43e-f8037a5a9a49"},"vehicle_type_id":"4","last_reported":1742036819,"current_range_meters":14000,"station_id":"cpo3342slgdg3j2ifvpg","pricing_plan_id":"cebpf4jnsgd1na2vs0mg"},{"bike_id":"5bad97ae-d0d5-4fde-adc4-d8026e48678c","system_id":"levelo_inurba_marseille","lat":43.282645,"lon":5.350564,"is_reserved":false,"is_disabled":false,"rental_uris":{"android":"levelo://app?vid=5bad97ae-d0d5-4fde-adc4-d8026e48678c","ios":"levelo://app?vid=5bad97ae-d0d5-4fde-adc4-d8026e48678c"},"vehicle_type_id":"4","last_reported":1742036819,"current_range_meters":14000,"station_id":"ce4bhgh2rcd13ifvqfb0","pricing_plan_id":"cebpf4jnsgd1na2vs0mg"},{"bike_id":"3a89315b-62de-4a2c-a0ba-c40dd86a913d","system_id":"levelo_inurba_marseille","lat":43.2705,"lon":5.40268,"is_reserved":false,"is_disabled":false,"rental_uris":{"android":"levelo://app?vid=3a89315b-62de-4a2c-a0ba-c40dd86a913d","ios":"levelo://app?vid=3a89315b-62de-4a2c-a0ba-c40dd86a913d"},"vehicle_type_id":"4","last_reported":1742036819,"current_range_meters":14000,"station_id":"ce4bhk92rcd13ifvqgc0","pricing_plan_id":"cebpf4jnsgd1na2vs0mg"},{"bike_id":"6850f114-f664-4675-ae66-935c99a0db8e","system_id":"levelo_inurba_marseille","lat":43.27048,"lon":5.40265,"is_reserved":false,"is_disabled":false,"rental_uris":{"android":"levelo://app?vid=6850f114-f664-4675-ae66-935c99a0db8e","ios":"levelo://app?vid=6850f114-f664-4675-ae66-935c99a0db8e"},"vehicle_type_id":"4","last_reported":1742036819,"current_range_meters":14400,"station_id":"ce4bhk92rcd13ifvqgc0","pricing_plan_id":"cebpf4jnsgd1na2vs0mg"},{"bike_id":"82de0703-de1d-4278-8ec2-c06289895ab8","system_id":"levelo_inurba_marseille","lat":43.30173,"lon":5.37425,"is_reserved":false,"is_disabled":false,"rental_uris":{"android":"levelo://app?vid=82de0703-de1d-4278-8ec2-c06289895ab8","ios":"levelo://app?vid=82de0703-de1d-4278-8ec2-c06289895ab8"},"vehicle_type_id":"4","last_reported":1742036819,"current_range_meters":14400,"station_id":"ce4bgs92rcd13ifvqcc0","pricing_plan_id":"cebpf4jnsgd1na2vs0mg"},{"bike_id":"74f2950d-f639-4809-bff2-7e52cd116e06","system_id":"levelo_inurba_marseille","lat":43.2316,"lon":5.43695,"is_reserved":false,"is_disabled":false,"rental_uris":{"android":"levelo://app?vid=74f2950d-f639-4809-bff2-7e52cd116e06","ios":"levelo://app?vid=74f2950d-f639-4809-bff2-7e52cd116e06"},"vehicle_type_id":"4","last_reported":1742036819,"current_range_meters":14400,"station_id":"ce4bhmp2rcd13ifvqgog","pricing_plan_id":"cebpf4jnsgd1na2vs0mg"},{"bike_id":"81c912df-1927-4434-97de-fb44b442ead6","system_id":"levelo_inurba_marseille","lat":43.27971,"lon":5.38726,"is_reserved":false,"is_disabled":false,"rental_uris":{"android":"levelo://app?vid=81c912df-1927-4434-97de-fb44b442ead6","ios":"levelo://app?vid=81c912df-1927-4434-97de-fb44b442ead6"},"vehicle_type_id":"4","last_reported":1742036819,"current_range_meters":14400,"station_id":"ce4bhg12rcd13ifvqf80","pricing_plan_id":"cebpf4jnsgd1na2vs0mg"},{"bike_id":"71b342b8-694b-40d5-99e8-310baf77a970","system_id":"levelo_inurba_marseille","lat":43.23049,"lon":5.35458,"is_reserved":false,"is_disabled":false,"rental_uris":{"android":"levelo://app?vid=71b342b8-694b-40d5-99e8-310baf77a970","ios":"levelo://app?vid=71b342b8-694b-40d5-99e8-310baf77a970"},"vehicle_type_id":"4","last_reported":1742036819,"current_range_meters":14400,"station_id":"cpo3342slgdg3j2ifvpg","pricing_plan_id":"cebpf4jnsgd1na2vs0mg"},{"bike_id":"90c707aa-0edc-4e94-a911-252e6bd4d4c2","system_id":"levelo_inurba_marseille","lat":43.28619,"lon":5.35104,"is_reserved":false,"is_disabled":false,"rental_uris":{"android":"levelo://app?vid=90c707aa-0edc-4e94-a911-252e6bd4d4c2","ios":"levelo://app?vid=90c707aa-0edc-4e94-a911-252e6bd4d4c2"},"vehicle_type_id":"4","last_reported":1742036819,"current_range_meters":14400,"station_id":"ce4bhch2rcd13ifvqeug","pricing_plan_id":"cebpf4jnsgd1na2vs0mg"},{"bike_id":"c69a0189-c69b-46b7-bf01-ed8fa65f4cbc","system_id":"levelo_inurba_marseille","lat":43.29009,"lon":5.35621,"is_reserved":false,"is_disabled":false,"rental_uris":{"android":"levelo://app?vid=c69a0189-c69b-46b7-bf01-ed8fa65f4cbc","ios":"levelo://app?vid=c69a0189-c69b-46b7-bf01-ed8fa65f4cbc"},"vehicle_type_id":"4","last_reported":1742036819,"current_range_meters":14000,"station_id":"ce4bhb92rcd13ifvqen0","pricing_plan_id":"cebpf4jnsgd1na2vs0mg"},{"bike_id":"e1bc5517-89cc-4fbd-afdb-e8d3c61b8e55","system_id":"levelo_inurba_marseille","lat":43.32355,"lon":5.36714,"is_reserved":false,"is_disabled":false,"rental_uris":{"android":"levelo://app?vid=e1bc5517-89cc-4fbd-afdb-e8d3c61b8e55","ios":"levelo://app?vid=e1bc5517-89cc-4fbd-afdb-e8d3c61b8e55"},"vehicle_type_id":"4","last_reported":1742036819,"current_range_meters":14400,"station_id":"ce4bhsh2rcd13ifvqi2g","pricing_plan_id":"cebpf4jnsgd1na2vs0mg"},{"bike_id":"67ba5532-a4de-45d0-bd2d-aa06a7264fb6","system_id":"levelo_inurba_marseille","lat":43.30882,"lon":5.37183,"is_reserved":false,"is_disabled":false,"rental_uris":{"android":"levelo://app?vid=67ba5532-a4de-45d0-bd2d-aa06a7264fb6","ios":"levelo://app?vid=67ba5532-a4de-45d0-bd2d-aa06a7264fb6"},"vehicle_type_id":"4","last_reported":1742036819,"current_range_meters":14400,"station_id":"ce4bguh2rcd13ifvqckg","pricing_plan_id":"cebpf4jnsgd1na2vs0mg"},{"bike_id":"f313e511-70a9-4d28-9105-f80f9ce3e50c","system_id":"levelo_inurba_marseille","lat":43.23957,"lon":5.36626,"is_reserved":false,"is_disabled":false,"rental_uris":{"android":"levelo://app?vid=f313e511-70a9-4d28-9105-f80f9ce3e50c","ios":"levelo://app?vid=f313e511-70a9-4d28-9105-f80f9ce3e50c"},"vehicle_type_id":"4","last_reported":1742036819,"current_range_meters":14400,"station_id":"ce4bhi12rcd13ifvqfp0","pricing_plan_id":"cebpf4jnsgd1na2vs0mg"},{"bike_id":"8b9fb6fd-6e71-48eb-abf7-14b62fc4e14e","system_id":"levelo_inurba_marseille","lat":43.29584,"lon":5.36733,"is_reserved":false,"is_disabled":false,"rental_uris":{"android":"levelo://app?vid=8b9fb6fd-6e71-48eb-abf7-14b62fc4e14e","ios":"levelo://app?vid=8b9fb6fd-6e71-48eb-abf7-14b62fc4e14e"},"vehicle_type_id":"4","last_reported":1742036819,"current_range_meters":14400,"station_id":"ce4bgph2rcd13ifvqc2g","pricing_plan_id":"cebpf4jnsgd1na2vs0mg"},{"bike_id":"bb7ad6be-3996-4f7d-bc5e-00d4e8748ea9","system_id":"levelo_inurba_marseille","lat":43.30433,"lon":5.38891,"is_reserved":false,"is_disabled":false,"rental_uris":{"android":"levelo://app?vid=bb7ad6be-3996-4f7d-bc5e-00d4e8748ea9","ios":"levelo://app?vid=bb7ad6be-3996-4f7d-bc5e-00d4e8748ea9"},"vehicle_type_id":"4","last_reported":1742036819,"current_range_meters":14400,"station_id":"ce4bgk12rcd13ifvqbi0","pricing_plan_id":"cebpf4jnsgd1na2vs0mg"},{"bike_id":"c75cb7d9-9c4c-44e7-bd33-ecf4015fd20e","system_id":"levelo_inurba_marseille","lat":43.27793,"lon":5.40705,"is_reserved":false,"is_disabled":false,"rental_uris":{"android":"levelo://app?vid=c75cb7d9-9c4c-44e7-bd33-ecf4015fd20e","ios":"levelo://app?vid=c75cb7d9-9c4c-44e7-bd33-ecf4015fd20e"},"vehicle_type_id":"4","last_reported":1742036819,"current_range_meters":14800,"station_id":"ce4bhnh2rcd13ifvqgtg","pricing_plan_id":"cebpf4jnsgd1na2vs0mg"},{"bike_id":"036f70ed-16f6-4171-a8f8-a83afce49e33","system_id":"levelo_inurba_marseille","lat":43.29889,"lon":5.389,"is_reserved":false,"is_disabled":false,"rental_uris":{"android":"levelo://app?vid=036f70ed-16f6-4171-a8f8-a83afce49e33","ios":"levelo://app?vid=036f70ed-16f6-4171-a8f8-a83afce49e33"},"vehicle_type_id":"4","last_reported":1742036819,"current_range_meters":14400,"station_id":"ce4bh392rcd13ifvqdl0","pricing_plan_id":"cebpf4jnsgd1na2vs0mg"},{"bike_id":"3cda90c6-6f61-4d98-af8f-92eb8abbfee1","system_id":"levelo_inurba_marseille","lat":43.28961,"lon":5.37824,"is_reserved":false,"is_disabled":false,"rental_uris":{"android":"levelo://app?vid=3cda90c6-6f61-4d98-af8f-92eb8abbfee1","ios":"levelo://app?vid=3cda90c6-6f61-4d98-af8f-92eb8abbfee1"},"vehicle_type_id":"4","last_reported":1742036819,"current_range_meters":14800,"station_id":"ce4bh9p2rcd13ifvqed0","pricing_plan_id":"cebpf4jnsgd1na2vs0mg"},{"bike_id":"df2bd365-182b-4a07-b573-1593f98b410a","system_id":"levelo_inurba_marseille","lat":43.28729,"lon":5.36104,"is_reserved":false,"is_disabled":true,"rental_uris":{"android":"levelo://app?vid=df2bd365-182b-4a07-b573-1593f98b410a","ios":"levelo://app?vid=df2bd365-182b-4a07-b573-1593f98b410a"},"vehicle_type_id":"4","last_reported":1742036819,"current_range_meters":14800,"station_id":"cki0cbj6b192h4jlfktg","pricing_plan_id":"cebpf4jnsgd1na2vs0mg"},{"bike_id":"3a65fa45-5962-4cce-a684-326978fd9e02","system_id":"levelo_inurba_marseille","lat":43.27075,"lon":5.42279,"is_reserved":false,"is_disabled":false,"rental_uris":{"android":"levelo://app?vid=3a65fa45-5962-4cce-a684-326978fd9e02","ios":"levelo://app?vid=3a65fa45-5962-4cce-a684-326978fd9e02"},"vehicle_type_id":"4","last_reported":1742036819,"current_range_meters":14800,"station_id":"ce4bhk92rcd13ifvqgb0","pricing_plan_id":"cebpf4jnsgd1na2vs0mg"},{"bike_id":"530dcf3f-baa5-4f42-b9c7-b4b5afe3c2c8","system_id":"levelo_inurba_marseille","lat":43.30335,"lon":5.40438,"is_reserved":false,"is_disabled":false,"rental_uris":{"android":"levelo://app?vid=530dcf3f-baa5-4f42-b9c7-b4b5afe3c2c8","ios":"levelo://app?vid=530dcf3f-baa5-4f42-b9c7-b4b5afe3c2c8"},"vehicle_type_id":"4","last_reported":1742036819,"current_range_meters":14800,"station_id":"ce4bh012rcd13ifvqd10","pricing_plan_id":"cebpf4jnsgd1na2vs0mg"},{"bike_id":"371e5012-862b-4f5e-a90c-8731a7a182c0","system_id":"levelo_inurba_marseille","lat":43.26676,"lon":5.3826,"is_reserved":false,"is_disabled":false,"rental_uris":{"android":"levelo://app?vid=371e5012-862b-4f5e-a90c-8731a7a182c0","ios":"levelo://app?vid=371e5012-862b-4f5e-a90c-8731a7a182c0"},"vehicle_type_id":"4","last_reported":1742036819,"current_range_meters":15200,"station_id":"ce4bhg92rcd13ifvqf90","pricing_plan_id":"cebpf4jnsgd1na2vs0mg"},{"bike_id":"9f72adf9-21e3-4b8b-b2e9-111538345ec9","system_id":"levelo_inurba_marseille","lat":43.29723,"lon":5.37682,"is_reserved":false,"is_disabled":false,"rental_uris":{"android":"levelo://app?vid=9f72adf9-21e3-4b8b-b2e9-111538345ec9","ios":"levelo://app?vid=9f72adf9-21e3-4b8b-b2e9-111538345ec9"},"vehicle_type_id":"4","last_reported":1742036819,"current_range_meters":15200,"station_id":"ce4bgkh2rcd13ifvqbl0","pricing_plan_id":"cebpf4jnsgd1na2vs0mg"},{"bike_id":"efa182c5-e8bb-4316-9ac4-4d06270b10d4","system_id":"levelo_inurba_marseille","lat":43.32384,"lon":5.38898,"is_reserved":false,"is_disabled":false,"rental_uris":{"android":"levelo://app?vid=efa182c5-e8bb-4316-9ac4-4d06270b10d4","ios":"levelo://app?vid=efa182c5-e8bb-4316-9ac4-4d06270b10d4"},"vehicle_type_id":"4","last_reported":1742036819,"current_range_meters":15200,"station_id":"ce4bhqp2rcd13ifvqhog","pricing_plan_id":"cebpf4jnsgd1na2vs0mg"},{"bike_id":"41d856e8-014d-42b4-85e9-2a0a980f469f","system_id":"levelo_inurba_marseille","lat":43.23195,"lon":5.35562,"is_reserved":false,"is_disabled":false,"rental_uris":{"android":"levelo://app?vid=41d856e8-014d-42b4-85e9-2a0a980f469f","ios":"levelo://app?vid=41d856e8-014d-42b4-85e9-2a0a980f469f"},"vehicle_type_id":"4","last_reported":1742036819,"current_range_meters":16000,"station_id":"ce4bhu92rcd13ifvqi70","pricing_plan_id":"cebpf4jnsgd1na2vs0mg"},{"bike_id":"a94d7163-d761-4d78-b80c-13305d15e5b2","system_id":"levelo_inurba_marseille","lat":43.25494,"lon":5.37646,"is_reserved":false,"is_disabled":false,"rental_uris":{"android":"levelo://app?vid=a94d7163-d761-4d78-b80c-13305d15e5b2","ios":"levelo://app?vid=a94d7163-d761-4d78-b80c-13305d15e5b2"},"vehicle_type_id":"4","last_reported":1742036819,"current_range_meters":15200,"station_id":"ce4bhh12rcd13ifvqff0","pricing_plan_id":"cebpf4jnsgd1na2vs0mg"},{"bike_id":"295a3b8e-dab0-4cc1-aa7b-c713137bda6e","system_id":"levelo_inurba_marseille","lat":43.29303,"lon":5.37462,"is_reserved":false,"is_disabled":false,"rental_uris":{"android":"levelo://app?vid=295a3b8e-dab0-4cc1-aa7b-c713137bda6e","ios":"levelo://app?vid=295a3b8e-dab0-4cc1-aa7b-c713137bda6e"},"vehicle_type_id":"4","last_reported":1742036819,"current_range_meters":16000,"station_id":"ce4bgi12rcd13ifvqb70","pricing_plan_id":"cebpf4jnsgd1na2vs0mg"},{"bike_id":"f238c0df-d3c9-4577-a186-a5d3f05e229a","system_id":"levelo_inurba_marseille","lat":43.2584,"lon":5.39423,"is_reserved":false,"is_disabled":false,"rental_uris":{"android":"levelo://app?vid=f238c0df-d3c9-4577-a186-a5d3f05e229a","ios":"levelo://app?vid=f238c0df-d3c9-4577-a186-a5d3f05e229a"},"vehicle_type_id":"4","last_reported":1742036819,"current_range_meters":16000,"station_id":"ce4bhip2rcd13ifvqft0","pricing_plan_id":"cebpf4jnsgd1na2vs0mg"},{"bike_id":"f709cb7e-4bd4-4503-ab85-447b0bd380b5","system_id":"levelo_inurba_marseille","lat":43.32359,"lon":5.38881,"is_reserved":false,"is_disabled":false,"rental_uris":{"android":"levelo://app?vid=f709cb7e-4bd4-4503-ab85-447b0bd380b5","ios":"levelo://app?vid=f709cb7e-4bd4-4503-ab85-447b0bd380b5"},"vehicle_type_id":"4","last_reported":1742036819,"current_range_meters":16000,"station_id":"ce4bhqp2rcd13ifvqhog","pricing_plan_id":"cebpf4jnsgd1na2vs0mg"},{"bike_id":"b89eb48b-e97b-4abf-8014-42ec3603d979","system_id":"levelo_inurba_marseille","lat":43.26236,"lon":5.40468,"is_reserved":false,"is_disabled":false,"rental_uris":{"android":"levelo://app?vid=b89eb48b-e97b-4abf-8014-42ec3603d979","ios":"levelo://app?vid=b89eb48b-e97b-4abf-8014-42ec3603d979"},"vehicle_type_id":"4","last_reported":1742036819,"current_range_meters":16000,"station_id":"ce4bhmh2rcd13ifvqgmg","pricing_plan_id":"cebpf4jnsgd1na2vs0mg"},{"bike_id":"bbc4a24c-fa03-4c06-91a6-8287f2724807","system_id":"levelo_inurba_marseille","lat":43.2455,"lon":5.39532,"is_reserved":false,"is_disabled":false,"rental_uris":{"android":"levelo://app?vid=bbc4a24c-fa03-4c06-91a6-8287f2724807","ios":"levelo://app?vid=bbc4a24c-fa03-4c06-91a6-8287f2724807"},"vehicle_type_id":"4","last_reported":1742036819,"current_range_meters":16000,"station_id":"ce4bhlp2rcd13ifvqgjg","pricing_plan_id":"cebpf4jnsgd1na2vs0mg"},{"bike_id":"788c1382-370f-4e77-a872-cda9e959324e","system_id":"levelo_inurba_marseille","lat":43.24386,"lon":5.37062,"is_reserved":false,"is_disabled":false,"rental_uris":{"android":"levelo://app?vid=788c1382-370f-4e77-a872-cda9e959324e","ios":"levelo://app?vid=788c1382-370f-4e77-a872-cda9e959324e"},"vehicle_type_id":"4","last_reported":1742036819,"current_range_meters":14800,"station_id":"ce4bhhh2rcd13ifvqfk0","pricing_plan_id":"cebpf4jnsgd1na2vs0mg"},{"bike_id":"e79fc578-3c3c-4a35-8a45-917973707e48","system_id":"levelo_inurba_marseille","lat":43.29564,"lon":5.37508,"is_reserved":false,"is_disabled":false,"rental_uris":{"android":"levelo://app?vid=e79fc578-3c3c-4a35-8a45-917973707e48","ios":"levelo://app?vid=e79fc578-3c3c-4a35-8a45-917973707e48"},"vehicle_type_id":"4","last_reported":1742036819,"current_range_meters":16400,"station_id":"ce4bgh92rcd13ifvqb50","pricing_plan_id":"cebpf4jnsgd1na2vs0mg"},{"bike_id":"06c80d6a-62b6-4bd0-95fb-ff2286ca6144","system_id":"levelo_inurba_marseille","lat":43.26677,"lon":5.38267,"is_reserved":false,"is_disabled":false,"rental_uris":{"android":"levelo://app?vid=06c80d6a-62b6-4bd0-95fb-ff2286ca6144","ios":"levelo://app?vid=06c80d6a-62b6-4bd0-95fb-ff2286ca6144"},"vehicle_type_id":"4","last_reported":1742036819,"current_range_meters":16400,"station_id":"ce4bhg92rcd13ifvqf90","pricing_plan_id":"cebpf4jnsgd1na2vs0mg"},{"bike_id":"4d20b878-6603-4328-ab6e-4a7ae0b08224","system_id":"levelo_inurba_marseille","lat":43.25937,"lon":5.40884,"is_reserved":false,"is_disabled":false,"rental_uris":{"android":"levelo://app?vid=4d20b878-6603-4328-ab6e-4a7ae0b08224","ios":"levelo://app?vid=4d20b878-6603-4328-ab6e-4a7ae0b08224"},"vehicle_type_id":"4","last_reported":1742036819,"current_range_meters":16400,"station_id":"ce4bhm92rcd13ifvqglg","pricing_plan_id":"cebpf4jnsgd1na2vs0mg"},{"bike_id":"2c5aa530-b47f-422b-9cfb-8ea5a70fd9b1","system_id":"levelo_inurba_marseille","lat":43.31326,"lon":5.39708,"is_reserved":false,"is_disabled":false,"rental_uris":{"android":"levelo://app?vid=2c5aa530-b47f-422b-9cfb-8ea5a70fd9b1","ios":"levelo://app?vid=2c5aa530-b47f-422b-9cfb-8ea5a70fd9b1"},"vehicle_type_id":"4","last_reported":1742036819,"current_range_meters":16400,"station_id":"ce4bgvp2rcd13ifvqcu0","pricing_plan_id":"cebpf4jnsgd1na2vs0mg"},{"bike_id":"7d38b17c-5298-4cb4-bd07-bd1039d6f6af","system_id":"levelo_inurba_marseille","lat":43.2952,"lon":5.37493,"is_reserved":false,"is_disabled":false,"rental_uris":{"android":"levelo://app?vid=7d38b17c-5298-4cb4-bd07-bd1039d6f6af","ios":"levelo://app?vid=7d38b17c-5298-4cb4-bd07-bd1039d6f6af"},"vehicle_type_id":"4","last_reported":1742036819,"current_range_meters":16400,"station_id":"ce4bgkp2rcd13ifvqbmg","pricing_plan_id":"cebpf4jnsgd1na2vs0mg"},{"bike_id":"9400bc91-9e55-4f82-b56c-4327dbc36f81","system_id":"levelo_inurba_marseille","lat":43.273083,"lon":5.390747,"is_reserved":false,"is_disabled":false,"rental_uris":{"android":"levelo://app?vid=9400bc91-9e55-4f82-b56c-4327dbc36f81","ios":"levelo://app?vid=9400bc91-9e55-4f82-b56c-4327dbc36f81"},"vehicle_type_id":"4","last_reported":1742036819,"current_range_meters":16400,"station_id":"ce4bhgp2rcd13ifvqfe0","pricing_plan_id":"cebpf4jnsgd1na2vs0mg"},{"bike_id":"4ef323ec-55a6-4673-9998-ca7fe4a3fb37","system_id":"levelo_inurba_marseille","lat":43.33033,"lon":5.39045,"is_reserved":false,"is_disabled":false,"rental_uris":{"android":"levelo://app?vid=4ef323ec-55a6-4673-9998-ca7fe4a3fb37","ios":"levelo://app?vid=4ef323ec-55a6-4673-9998-ca7fe4a3fb37"},"vehicle_type_id":"4","last_reported":1742036819,"current_range_meters":16400,"station_id":"ce4bhr92rcd13ifvqhrg","pricing_plan_id":"cebpf4jnsgd1na2vs0mg"},{"bike_id":"e51eba22-620f-4676-b932-36442a1f7348","system_id":"levelo_inurba_marseille","lat":43.25715,"lon":5.41117,"is_reserved":false,"is_disabled":false,"rental_uris":{"android":"levelo://app?vid=e51eba22-620f-4676-b932-36442a1f7348","ios":"levelo://app?vid=e51eba22-620f-4676-b932-36442a1f7348"},"vehicle_type_id":"4","last_reported":1742036819,"current_range_meters":16400,"station_id":"ce4bhkp2rcd13ifvqgd0","pricing_plan_id":"cebpf4jnsgd1na2vs0mg"},{"bike_id":"b4bba219-9392-421e-a93f-8bb2fba96cdc","system_id":"levelo_inurba_marseille","lat":43.27813,"lon":5.40695,"is_reserved":false,"is_disabled":false,"rental_uris":{"android":"levelo://app?vid=b4bba219-9392-421e-a93f-8bb2fba96cdc","ios":"levelo://app?vid=b4bba219-9392-421e-a93f-8bb2fba96cdc"},"vehicle_type_id":"4","last_reported":1742036819,"current_range_meters":16400,"station_id":"ce4bhnh2rcd13ifvqgtg","pricing_plan_id":"cebpf4jnsgd1na2vs0mg"},{"bike_id":"09664d10-0a14-4396-be6f-ed837d174d38","system_id":"levelo_inurba_marseille","lat":43.26953,"lon":5.38629,"is_reserved":false,"is_disabled":false,"rental_uris":{"android":"levelo://app?vid=09664d10-0a14-4396-be6f-ed837d174d38","ios":"levelo://app?vid=09664d10-0a14-4396-be6f-ed837d174d38"},"vehicle_type_id":"4","last_reported":1742036819,"current_range_meters":16400,"station_id":"ce4bhh92rcd13ifvqfh0","pricing_plan_id":"cebpf4jnsgd1na2vs0mg"},{"bike_id":"3e685809-8a98-470b-b8d1-c028716361a7","system_id":"levelo_inurba_marseille","lat":43.23967,"lon":5.36624,"is_reserved":false,"is_disabled":false,"rental_uris":{"android":"levelo://app?vid=3e685809-8a98-470b-b8d1-c028716361a7","ios":"levelo://app?vid=3e685809-8a98-470b-b8d1-c028716361a7"},"vehicle_type_id":"4","last_reported":1742036819,"current_range_meters":16800,"station_id":"ce4bhi12rcd13ifvqfp0","pricing_plan_id":"cebpf4jnsgd1na2vs0mg"},{"bike_id":"96744a18-3316-43e0-9153-7a6032ab1b09","system_id":"levelo_inurba_marseille","lat":43.25007,"lon":5.38913,"is_reserved":false,"is_disabled":false,"rental_uris":{"android":"levelo://app?vid=96744a18-3316-43e0-9153-7a6032ab1b09","ios":"levelo://app?vid=96744a18-3316-43e0-9153-7a6032ab1b09"},"vehicle_type_id":"4","last_reported":1742036819,"current_range_meters":16800,"station_id":"ce4bhgp2rcd13ifvqfd0","pricing_plan_id":"cebpf4jnsgd1na2vs0mg"},{"bike_id":"566e0489-1013-464c-941b-6fbcd4c26340","system_id":"levelo_inurba_marseille","lat":43.32105,"lon":5.3677,"is_reserved":false,"is_disabled":false,"rental_uris":{"android":"levelo://app?vid=566e0489-1013-464c-941b-6fbcd4c26340","ios":"levelo://app?vid=566e0489-1013-464c-941b-6fbcd4c26340"},"vehicle_type_id":"4","last_reported":1742036819,"current_range_meters":16800,"station_id":"ce4bhrh2rcd13ifvqhug","pricing_plan_id":"cebpf4jnsgd1na2vs0mg"},{"bike_id":"10a5dfbf-3aa3-4cf3-ac17-cd4d12fd6782","system_id":"levelo_inurba_marseille","lat":43.32375,"lon":5.36745,"is_reserved":false,"is_disabled":false,"rental_uris":{"android":"levelo://app?vid=10a5dfbf-3aa3-4cf3-ac17-cd4d12fd6782","ios":"levelo://app?vid=10a5dfbf-3aa3-4cf3-ac17-cd4d12fd6782"},"vehicle_type_id":"4","last_reported":1742036819,"current_range_meters":16800,"station_id":"ce4bhsh2rcd13ifvqi2g","pricing_plan_id":"cebpf4jnsgd1na2vs0mg"},{"bike_id":"7099c38a-2986-4dc9-9398-307b562f7d30","system_id":"levelo_inurba_marseille","lat":43.25903,"lon":5.40855,"is_reserved":false,"is_disabled":false,"rental_uris":{"android":"levelo://app?vid=7099c38a-2986-4dc9-9398-307b562f7d30","ios":"levelo://app?vid=7099c38a-2986-4dc9-9398-307b562f7d30"},"vehicle_type_id":"4","last_reported":1742036819,"current_range_meters":16800,"station_id":"ce4bhm92rcd13ifvqglg","pricing_plan_id":"cebpf4jnsgd1na2vs0mg"},{"bike_id":"7a8ebe4d-abc0-46c9-9b40-ffa92be42eba","system_id":"levelo_inurba_marseille","lat":43.29299,"lon":5.37438,"is_reserved":false,"is_disabled":false,"rental_uris":{"android":"levelo://app?vid=7a8ebe4d-abc0-46c9-9b40-ffa92be42eba","ios":"levelo://app?vid=7a8ebe4d-abc0-46c9-9b40-ffa92be42eba"},"vehicle_type_id":"4","last_reported":1742036819,"current_range_meters":16800,"station_id":"ce4bgi12rcd13ifvqb70","pricing_plan_id":"cebpf4jnsgd1na2vs0mg"},{"bike_id":"22efbf7a-7b48-45b8-ae0e-d149f0b6408b","system_id":"levelo_inurba_marseille","lat":43.25725,"lon":5.41117,"is_reserved":false,"is_disabled":false,"rental_uris":{"android":"levelo://app?vid=22efbf7a-7b48-45b8-ae0e-d149f0b6408b","ios":"levelo://app?vid=22efbf7a-7b48-45b8-ae0e-d149f0b6408b"},"vehicle_type_id":"4","last_reported":1742036819,"current_range_meters":16800,"station_id":"ce4bhkp2rcd13ifvqgd0","pricing_plan_id":"cebpf4jnsgd1na2vs0mg"},{"bike_id":"75123447-2b69-42e2-be90-9aa99ce954e5","system_id":"levelo_inurba_marseille","lat":43.3236,"lon":5.38866,"is_reserved":false,"is_disabled":false,"rental_uris":{"android":"levelo://app?vid=75123447-2b69-42e2-be90-9aa99ce954e5","ios":"levelo://app?vid=75123447-2b69-42e2-be90-9aa99ce954e5"},"vehicle_type_id":"4","last_reported":1742036819,"current_range_meters":17200,"station_id":"ce4bhqp2rcd13ifvqhog","pricing_plan_id":"cebpf4jnsgd1na2vs0mg"},{"bike_id":"937006d4-256e-4276-90fa-83b260647208","system_id":"levelo_inurba_marseille","lat":43.29583,"lon":5.36741,"is_reserved":false,"is_disabled":false,"rental_uris":{"android":"levelo://app?vid=937006d4-256e-4276-90fa-83b260647208","ios":"levelo://app?vid=937006d4-256e-4276-90fa-83b260647208"},"vehicle_type_id":"4","last_reported":1742036819,"current_range_meters":17200,"station_id":"ce4bgph2rcd13ifvqc2g","pricing_plan_id":"cebpf4jnsgd1na2vs0mg"},{"bike_id":"22b699ee-6f83-48a1-8b90-39cb337ef4d6","system_id":"levelo_inurba_marseille","lat":43.29939,"lon":5.36527,"is_reserved":false,"is_disabled":false,"rental_uris":{"android":"levelo://app?vid=22b699ee-6f83-48a1-8b90-39cb337ef4d6","ios":"levelo://app?vid=22b699ee-6f83-48a1-8b90-39cb337ef4d6"},"vehicle_type_id":"4","last_reported":1742036819,"current_range_meters":17200,"station_id":"ce4bgm92rcd13ifvqbr0","pricing_plan_id":"cebpf4jnsgd1na2vs0mg"},{"bike_id":"90ae79c7-35e3-45eb-a23f-191901556321","system_id":"levelo_inurba_marseille","lat":43.28867,"lon":5.35846,"is_reserved":false,"is_disabled":false,"rental_uris":{"android":"levelo://app?vid=90ae79c7-35e3-45eb-a23f-191901556321","ios":"levelo://app?vid=90ae79c7-35e3-45eb-a23f-191901556321"},"vehicle_type_id":"4","last_reported":1742036819,"current_range_meters":16800,"station_id":"ce4bhb12rcd13ifvqem0","pricing_plan_id":"cebpf4jnsgd1na2vs0mg"},{"bike_id":"d0f5a280-bbbd-46f1-9ff3-05886c25c45c","system_id":"levelo_inurba_marseille","lat":43.29004,"lon":5.35605,"is_reserved":false,"is_disabled":false,"rental_uris":{"android":"levelo://app?vid=d0f5a280-bbbd-46f1-9ff3-05886c25c45c","ios":"levelo://app?vid=d0f5a280-bbbd-46f1-9ff3-05886c25c45c"},"vehicle_type_id":"4","last_reported":1742036819,"current_range_meters":17200,"station_id":"ce4bhb92rcd13ifvqen0","pricing_plan_id":"cebpf4jnsgd1na2vs0mg"},{"bike_id":"c1bdb89b-bbe5-4ea5-a9bf-4999315f5170","system_id":"levelo_inurba_marseille","lat":43.29029,"lon":5.38122,"is_reserved":false,"is_disabled":false,"rental_uris":{"android":"levelo://app?vid=c1bdb89b-bbe5-4ea5-a9bf-4999315f5170","ios":"levelo://app?vid=c1bdb89b-bbe5-4ea5-a9bf-4999315f5170"},"vehicle_type_id":"4","last_reported":1742036819,"current_range_meters":17200,"station_id":"ce4bh4p2rcd13ifvqe1g","pricing_plan_id":"cebpf4jnsgd1na2vs0mg"},{"bike_id":"3c5d49e0-baa2-40a1-85e4-9bed196029c2","system_id":"levelo_inurba_marseille","lat":43.30161,"lon":5.38072,"is_reserved":false,"is_disabled":false,"rental_uris":{"android":"levelo://app?vid=3c5d49e0-baa2-40a1-85e4-9bed196029c2","ios":"levelo://app?vid=3c5d49e0-baa2-40a1-85e4-9bed196029c2"},"vehicle_type_id":"4","last_reported":1742036819,"current_range_meters":17200,"station_id":"ce4bgjp2rcd13ifvqbh0","pricing_plan_id":"cebpf4jnsgd1na2vs0mg"},{"bike_id":"3c528f7f-712c-435c-b5d4-a5694a485d73","system_id":"levelo_inurba_marseille","lat":43.29903,"lon":5.43666,"is_reserved":false,"is_disabled":false,"rental_uris":{"android":"levelo://app?vid=3c528f7f-712c-435c-b5d4-a5694a485d73","ios":"levelo://app?vid=3c528f7f-712c-435c-b5d4-a5694a485d73"},"vehicle_type_id":"4","last_reported":1742036819,"current_range_meters":17200,"station_id":"ce4bhpp2rcd13ifvqhfg","pricing_plan_id":"cebpf4jnsgd1na2vs0mg"},{"bike_id":"4ba99942-5d01-4e12-b338-531dba7c360b","system_id":"levelo_inurba_marseille","lat":43.29364,"lon":5.37858,"is_reserved":false,"is_disabled":false,"rental_uris":{"android":"levelo://app?vid=4ba99942-5d01-4e12-b338-531dba7c360b","ios":"levelo://app?vid=4ba99942-5d01-4e12-b338-531dba7c360b"},"vehicle_type_id":"4","last_reported":1742036819,"current_range_meters":16800,"station_id":"ce4bgjh2rcd13ifvqbf0","pricing_plan_id":"cebpf4jnsgd1na2vs0mg"},{"bike_id":"bafd57f9-42ca-4d51-b0a0-95f66f340e25","system_id":"levelo_inurba_marseille","lat":43.25846,"lon":5.39421,"is_reserved":false,"is_disabled":false,"rental_uris":{"android":"levelo://app?vid=bafd57f9-42ca-4d51-b0a0-95f66f340e25","ios":"levelo://app?vid=bafd57f9-42ca-4d51-b0a0-95f66f340e25"},"vehicle_type_id":"4","last_reported":1742036819,"current_range_meters":17200,"station_id":"ce4bhip2rcd13ifvqft0","pricing_plan_id":"cebpf4jnsgd1na2vs0mg"},{"bike_id":"8bcf9978-0a0f-4514-b162-723c6b634fa0","system_id":"levelo_inurba_marseille","lat":43.24548,"lon":5.3955,"is_reserved":false,"is_disabled":false,"rental_uris":{"android":"levelo://app?vid=8bcf9978-0a0f-4514-b162-723c6b634fa0","ios":"levelo://app?vid=8bcf9978-0a0f-4514-b162-723c6b634fa0"},"vehicle_type_id":"4","last_reported":1742036819,"current_range_meters":17200,"station_id":"ce4bhlp2rcd13ifvqgjg","pricing_plan_id":"cebpf4jnsgd1na2vs0mg"},{"bike_id":"1ab3fe05-34b9-475e-bbc3-fc9c2f72c66a","system_id":"levelo_inurba_marseille","lat":43.32364,"lon":5.38893,"is_reserved":false,"is_disabled":false,"rental_uris":{"android":"levelo://app?vid=1ab3fe05-34b9-475e-bbc3-fc9c2f72c66a","ios":"levelo://app?vid=1ab3fe05-34b9-475e-bbc3-fc9c2f72c66a"},"vehicle_type_id":"4","last_reported":1742036819,"current_range_meters":17200,"station_id":"ce4bhqp2rcd13ifvqhog","pricing_plan_id":"cebpf4jnsgd1na2vs0mg"},{"bike_id":"ed0931b3-0e89-416b-b210-f5009deab21a","system_id":"levelo_inurba_marseille","lat":43.28461,"lon":5.35892,"is_reserved":false,"is_disabled":false,"rental_uris":{"android":"levelo://app?vid=ed0931b3-0e89-416b-b210-f5009deab21a","ios":"levelo://app?vid=ed0931b3-0e89-416b-b210-f5009deab21a"},"vehicle_type_id":"4","last_reported":1742036819,"current_range_meters":17600,"station_id":"ce4bhah2rcd13ifvqei0","pricing_plan_id":"cebpf4jnsgd1na2vs0mg"},{"bike_id":"b4d96697-cd72-4b7d-bada-3b21147d6458","system_id":"levelo_inurba_marseille","lat":43.29735,"lon":5.37676,"is_reserved":false,"is_disabled":false,"rental_uris":{"android":"levelo://app?vid=b4d96697-cd72-4b7d-bada-3b21147d6458","ios":"levelo://app?vid=b4d96697-cd72-4b7d-bada-3b21147d6458"},"vehicle_type_id":"4","last_reported":1742036819,"current_range_meters":17600,"station_id":"ce4bgkh2rcd13ifvqbl0","pricing_plan_id":"cebpf4jnsgd1na2vs0mg"},{"bike_id":"5a61a616-683f-484d-83ae-d7f61143d634","system_id":"levelo_inurba_marseille","lat":43.29525,"lon":5.42493,"is_reserved":false,"is_disabled":false,"rental_uris":{"android":"levelo://app?vid=5a61a616-683f-484d-83ae-d7f61143d634","ios":"levelo://app?vid=5a61a616-683f-484d-83ae-d7f61143d634"},"vehicle_type_id":"4","last_reported":1742036819,"current_range_meters":17600,"station_id":"","pricing_plan_id":"cebpf4jnsgd1na2vs0mg"},{"bike_id":"09217766-4f65-47b7-bd76-63ccd980dcf1","system_id":"levelo_inurba_marseille","lat":43.30545,"lon":5.36546,"is_reserved":false,"is_disabled":false,"rental_uris":{"android":"levelo://app?vid=09217766-4f65-47b7-bd76-63ccd980dcf1","ios":"levelo://app?vid=09217766-4f65-47b7-bd76-63ccd980dcf1"},"vehicle_type_id":"4","last_reported":1742036819,"current_range_meters":17600,"station_id":"ce4bgs12rcd13ifvqcag","pricing_plan_id":"cebpf4jnsgd1na2vs0mg"},{"bike_id":"594637a1-1882-49ab-a7ac-888bca05eefc","system_id":"levelo_inurba_marseille","lat":43.31087,"lon":5.42448,"is_reserved":false,"is_disabled":true,"rental_uris":{"android":"levelo://app?vid=594637a1-1882-49ab-a7ac-888bca05eefc","ios":"levelo://app?vid=594637a1-1882-49ab-a7ac-888bca05eefc"},"vehicle_type_id":"4","last_reported":1742036819,"current_range_meters":17600,"station_id":"ce4bhp92rcd13ifvqhag","pricing_plan_id":"cebpf4jnsgd1na2vs0mg"},{"bike_id":"4142a05b-9c6a-4522-8130-5615dfb4567e","system_id":"levelo_inurba_marseille","lat":43.27055,"lon":5.40277,"is_reserved":false,"is_disabled":false,"rental_uris":{"android":"levelo://app?vid=4142a05b-9c6a-4522-8130-5615dfb4567e","ios":"levelo://app?vid=4142a05b-9c6a-4522-8130-5615dfb4567e"},"vehicle_type_id":"4","last_reported":1742036819,"current_range_meters":17600,"station_id":"ce4bhk92rcd13ifvqgc0","pricing_plan_id":"cebpf4jnsgd1na2vs0mg"},{"bike_id":"1b02f7cb-4ff7-4c2c-b559-003d4595110f","system_id":"levelo_inurba_marseille","lat":43.27073,"lon":5.40264,"is_reserved":false,"is_disabled":false,"rental_uris":{"android":"levelo://app?vid=1b02f7cb-4ff7-4c2c-b559-003d4595110f","ios":"levelo://app?vid=1b02f7cb-4ff7-4c2c-b559-003d4595110f"},"vehicle_type_id":"4","last_reported":1742036819,"current_range_meters":17600,"station_id":"ce4bhk92rcd13ifvqgc0","pricing_plan_id":"cebpf4jnsgd1na2vs0mg"},{"bike_id":"e6fcb5aa-8a11-407e-9e1b-38520b03be93","system_id":"levelo_inurba_marseille","lat":43.30197,"lon":5.36601,"is_reserved":false,"is_disabled":false,"rental_uris":{"android":"levelo://app?vid=e6fcb5aa-8a11-407e-9e1b-38520b03be93","ios":"levelo://app?vid=e6fcb5aa-8a11-407e-9e1b-38520b03be93"},"vehicle_type_id":"4","last_reported":1742036819,"current_range_meters":17600,"station_id":"ce4bgrh2rcd13ifvqc8g","pricing_plan_id":"cebpf4jnsgd1na2vs0mg"},{"bike_id":"84d18159-142d-47c3-b4a0-c0341fee9edd","system_id":"levelo_inurba_marseille","lat":43.23968,"lon":5.3662,"is_reserved":false,"is_disabled":false,"rental_uris":{"android":"levelo://app?vid=84d18159-142d-47c3-b4a0-c0341fee9edd","ios":"levelo://app?vid=84d18159-142d-47c3-b4a0-c0341fee9edd"},"vehicle_type_id":"4","last_reported":1742036819,"current_range_meters":18000,"station_id":"ce4bhi12rcd13ifvqfp0","pricing_plan_id":"cebpf4jnsgd1na2vs0mg"},{"bike_id":"6659b13b-340f-4172-a5ea-6a3116c908d4","system_id":"levelo_inurba_marseille","lat":43.30486,"lon":5.37898,"is_reserved":false,"is_disabled":false,"rental_uris":{"android":"levelo://app?vid=6659b13b-340f-4172-a5ea-6a3116c908d4","ios":"levelo://app?vid=6659b13b-340f-4172-a5ea-6a3116c908d4"},"vehicle_type_id":"4","last_reported":1742036819,"current_range_meters":18000,"station_id":"ce4bgup2rcd13ifvqcn0","pricing_plan_id":"cebpf4jnsgd1na2vs0mg"},{"bike_id":"57798ad6-32b3-44df-b30b-a6b6b41e9157","system_id":"levelo_inurba_marseille","lat":43.28848,"lon":5.35856,"is_reserved":false,"is_disabled":false,"rental_uris":{"android":"levelo://app?vid=57798ad6-32b3-44df-b30b-a6b6b41e9157","ios":"levelo://app?vid=57798ad6-32b3-44df-b30b-a6b6b41e9157"},"vehicle_type_id":"4","last_reported":1742036819,"current_range_meters":18000,"station_id":"ce4bhb12rcd13ifvqem0","pricing_plan_id":"cebpf4jnsgd1na2vs0mg"},{"bike_id":"d261395a-d173-485a-98fd-3bc6c9cddfe8","system_id":"levelo_inurba_marseille","lat":43.25676,"lon":5.41057,"is_reserved":false,"is_disabled":false,"rental_uris":{"android":"levelo://app?vid=d261395a-d173-485a-98fd-3bc6c9cddfe8","ios":"levelo://app?vid=d261395a-d173-485a-98fd-3bc6c9cddfe8"},"vehicle_type_id":"4","last_reported":1742036819,"current_range_meters":18000,"station_id":"ce4bhkp2rcd13ifvqgd0","pricing_plan_id":"cebpf4jnsgd1na2vs0mg"},{"bike_id":"65357cc7-2329-424b-b711-99eb17da523d","system_id":"levelo_inurba_marseille","lat":43.30543,"lon":5.36526,"is_reserved":false,"is_disabled":false,"rental_uris":{"android":"levelo://app?vid=65357cc7-2329-424b-b711-99eb17da523d","ios":"levelo://app?vid=65357cc7-2329-424b-b711-99eb17da523d"},"vehicle_type_id":"4","last_reported":1742036819,"current_range_meters":18000,"station_id":"ce4bgs12rcd13ifvqcag","pricing_plan_id":"cebpf4jnsgd1na2vs0mg"},{"bike_id":"7695a45b-134e-4fb3-bb14-ab0e31b82fe5","system_id":"levelo_inurba_marseille","lat":43.31083,"lon":5.38368,"is_reserved":false,"is_disabled":false,"rental_uris":{"android":"levelo://app?vid=7695a45b-134e-4fb3-bb14-ab0e31b82fe5","ios":"levelo://app?vid=7695a45b-134e-4fb3-bb14-ab0e31b82fe5"},"vehicle_type_id":"4","last_reported":1742036819,"current_range_meters":18000,"station_id":"ce4bgv92rcd13ifvqcr0","pricing_plan_id":"cebpf4jnsgd1na2vs0mg"},{"bike_id":"e431f6e7-c256-4a03-81b2-9044257b3488","system_id":"levelo_inurba_marseille","lat":43.23965,"lon":5.36623,"is_reserved":false,"is_disabled":false,"rental_uris":{"android":"levelo://app?vid=e431f6e7-c256-4a03-81b2-9044257b3488","ios":"levelo://app?vid=e431f6e7-c256-4a03-81b2-9044257b3488"},"vehicle_type_id":"4","last_reported":1742036819,"current_range_meters":18000,"station_id":"ce4bhi12rcd13ifvqfp0","pricing_plan_id":"cebpf4jnsgd1na2vs0mg"},{"bike_id":"a0187892-e285-4547-ae2f-950748a27002","system_id":"levelo_inurba_marseille","lat":43.2408,"lon":5.37744,"is_reserved":false,"is_disabled":false,"rental_uris":{"android":"levelo://app?vid=a0187892-e285-4547-ae2f-950748a27002","ios":"levelo://app?vid=a0187892-e285-4547-ae2f-950748a27002"},"vehicle_type_id":"4","last_reported":1742036819,"current_range_meters":18000,"station_id":"ce4bhnp2rcd13ifvqgvg","pricing_plan_id":"cebpf4jnsgd1na2vs0mg"},{"bike_id":"5deff3b1-7de0-4233-8bbb-77cee504cc6e","system_id":"levelo_inurba_marseille","lat":43.28606,"lon":5.35003,"is_reserved":false,"is_disabled":true,"rental_uris":{"android":"levelo://app?vid=5deff3b1-7de0-4233-8bbb-77cee504cc6e","ios":"levelo://app?vid=5deff3b1-7de0-4233-8bbb-77cee504cc6e"},"vehicle_type_id":"4","last_reported":1742036819,"current_range_meters":18000,"station_id":"","pricing_plan_id":"cebpf4jnsgd1na2vs0mg"},{"bike_id":"9f04d485-83b4-42da-a2bd-0b827863014b","system_id":"levelo_inurba_marseille","lat":43.25001,"lon":5.38928,"is_reserved":false,"is_disabled":false,"rental_uris":{"android":"levelo://app?vid=9f04d485-83b4-42da-a2bd-0b827863014b","ios":"levelo://app?vid=9f04d485-83b4-42da-a2bd-0b827863014b"},"vehicle_type_id":"4","last_reported":1742036819,"current_range_meters":18000,"station_id":"ce4bhgp2rcd13ifvqfd0","pricing_plan_id":"cebpf4jnsgd1na2vs0mg"},{"bike_id":"0278977a-6289-4f05-b3d4-76e1cc239e0a","system_id":"levelo_inurba_marseille","lat":43.270656,"lon":5.422741,"is_reserved":false,"is_disabled":false,"rental_uris":{"android":"levelo://app?vid=0278977a-6289-4f05-b3d4-76e1cc239e0a","ios":"levelo://app?vid=0278977a-6289-4f05-b3d4-76e1cc239e0a"},"vehicle_type_id":"4","last_reported":1742036819,"current_range_meters":18800,"station_id":"ce4bhk92rcd13ifvqgb0","pricing_plan_id":"cebpf4jnsgd1na2vs0mg"},{"bike_id":"d68643e3-dee3-439a-87f2-6e18e565c878","system_id":"levelo_inurba_marseille","lat":43.31189,"lon":5.38714,"is_reserved":false,"is_disabled":true,"rental_uris":{"android":"levelo://app?vid=d68643e3-dee3-439a-87f2-6e18e565c878","ios":"levelo://app?vid=d68643e3-dee3-439a-87f2-6e18e565c878"},"vehicle_type_id":"4","last_reported":1742036819,"current_range_meters":18800,"station_id":"ce4bgv12rcd13ifvqcp0","pricing_plan_id":"cebpf4jnsgd1na2vs0mg"},{"bike_id":"f310866f-c2d9-48fb-a53d-7a0eb3edd6b7","system_id":"levelo_inurba_marseille","lat":43.29979,"lon":5.37186,"is_reserved":false,"is_disabled":false,"rental_uris":{"android":"levelo://app?vid=f310866f-c2d9-48fb-a53d-7a0eb3edd6b7","ios":"levelo://app?vid=f310866f-c2d9-48fb-a53d-7a0eb3edd6b7"},"vehicle_type_id":"4","last_reported":1742036819,"current_range_meters":18000,"station_id":"ce4bgr92rcd13ifvqc7g","pricing_plan_id":"cebpf4jnsgd1na2vs0mg"},{"bike_id":"9c70149d-1ff9-4a2f-89eb-3b048ce12ba0","system_id":"levelo_inurba_marseille","lat":43.231899,"lon":5.399844,"is_reserved":false,"is_disabled":false,"rental_uris":{"android":"levelo://app?vid=9c70149d-1ff9-4a2f-89eb-3b048ce12ba0","ios":"levelo://app?vid=9c70149d-1ff9-4a2f-89eb-3b048ce12ba0"},"vehicle_type_id":"4","last_reported":1742036819,"current_range_meters":18800,"station_id":"ce4bhn12rcd13ifvqgqg","pricing_plan_id":"cebpf4jnsgd1na2vs0mg"},{"bike_id":"b65f8deb-f1af-4bfc-b25a-81b4d11f1394","system_id":"levelo_inurba_marseille","lat":43.29528,"lon":5.39396,"is_reserved":false,"is_disabled":false,"rental_uris":{"android":"levelo://app?vid=b65f8deb-f1af-4bfc-b25a-81b4d11f1394","ios":"levelo://app?vid=b65f8deb-f1af-4bfc-b25a-81b4d11f1394"},"vehicle_type_id":"4","last_reported":1742036819,"current_range_meters":18800,"station_id":"ce4bh292rcd13ifvqdf0","pricing_plan_id":"cebpf4jnsgd1na2vs0mg"},{"bike_id":"5e37c5c6-9302-4112-be8f-e6929ee53e5e","system_id":"levelo_inurba_marseille","lat":43.29188,"lon":5.358,"is_reserved":false,"is_disabled":false,"rental_uris":{"android":"levelo://app?vid=5e37c5c6-9302-4112-be8f-e6929ee53e5e","ios":"levelo://app?vid=5e37c5c6-9302-4112-be8f-e6929ee53e5e"},"vehicle_type_id":"4","last_reported":1742036819,"current_range_meters":18800,"station_id":"ce4bhb12rcd13ifvqel0","pricing_plan_id":"cebpf4jnsgd1na2vs0mg"},{"bike_id":"40b399a3-50a3-40e1-a6a6-c86dc00a2552","system_id":"levelo_inurba_marseille","lat":43.30532,"lon":5.36514,"is_reserved":false,"is_disabled":false,"rental_uris":{"android":"levelo://app?vid=40b399a3-50a3-40e1-a6a6-c86dc00a2552","ios":"levelo://app?vid=40b399a3-50a3-40e1-a6a6-c86dc00a2552"},"vehicle_type_id":"4","last_reported":1742036819,"current_range_meters":19200,"station_id":"ce4bgs12rcd13ifvqcag","pricing_plan_id":"cebpf4jnsgd1na2vs0mg"},{"bike_id":"a20535c7-7310-44f0-b4f7-b151985fc551","system_id":"levelo_inurba_marseille","lat":43.2749,"lon":5.42459,"is_reserved":false,"is_disabled":false,"rental_uris":{"android":"levelo://app?vid=a20535c7-7310-44f0-b4f7-b151985fc551","ios":"levelo://app?vid=a20535c7-7310-44f0-b4f7-b151985fc551"},"vehicle_type_id":"4","last_reported":1742036819,"current_range_meters":19200,"station_id":"ce4bhn92rcd13ifvqgrg","pricing_plan_id":"cebpf4jnsgd1na2vs0mg"},{"bike_id":"a2aa9629-8189-4adb-9b67-a7a645fcf80f","system_id":"levelo_inurba_marseille","lat":43.304624,"lon":5.379086,"is_reserved":false,"is_disabled":false,"rental_uris":{"android":"levelo://app?vid=a2aa9629-8189-4adb-9b67-a7a645fcf80f","ios":"levelo://app?vid=a2aa9629-8189-4adb-9b67-a7a645fcf80f"},"vehicle_type_id":"4","last_reported":1742036819,"current_range_meters":18800,"station_id":"ce4bhr12rcd13ifvqhpg","pricing_plan_id":"cebpf4jnsgd1na2vs0mg"},{"bike_id":"7fdaba83-9e71-4d79-962d-8e9bcb4ba61b","system_id":"levelo_inurba_marseille","lat":43.2319,"lon":5.35552,"is_reserved":false,"is_disabled":false,"rental_uris":{"android":"levelo://app?vid=7fdaba83-9e71-4d79-962d-8e9bcb4ba61b","ios":"levelo://app?vid=7fdaba83-9e71-4d79-962d-8e9bcb4ba61b"},"vehicle_type_id":"4","last_reported":1742036819,"current_range_meters":19200,"station_id":"ce4bhu92rcd13ifvqi70","pricing_plan_id":"cebpf4jnsgd1na2vs0mg"},{"bike_id":"dc7b5f63-d6b9-478f-8010-b82d6321352b","system_id":"levelo_inurba_marseille","lat":43.29979,"lon":5.37177,"is_reserved":false,"is_disabled":false,"rental_uris":{"android":"levelo://app?vid=dc7b5f63-d6b9-478f-8010-b82d6321352b","ios":"levelo://app?vid=dc7b5f63-d6b9-478f-8010-b82d6321352b"},"vehicle_type_id":"4","last_reported":1742036819,"current_range_meters":19200,"station_id":"ce4bgr92rcd13ifvqc7g","pricing_plan_id":"cebpf4jnsgd1na2vs0mg"},{"bike_id":"88206dfa-9889-49e9-813a-b608a95d51f5","system_id":"levelo_inurba_marseille","lat":43.3032,"lon":5.4044,"is_reserved":false,"is_disabled":false,"rental_uris":{"android":"levelo://app?vid=88206dfa-9889-49e9-813a-b608a95d51f5","ios":"levelo://app?vid=88206dfa-9889-49e9-813a-b608a95d51f5"},"vehicle_type_id":"4","last_reported":1742036819,"current_range_meters":19200,"station_id":"ce4bh012rcd13ifvqd10","pricing_plan_id":"cebpf4jnsgd1na2vs0mg"},{"bike_id":"2c31b52c-05dc-4f6c-8f12-1f41547bee5f","system_id":"levelo_inurba_marseille","lat":43.29711,"lon":5.3661,"is_reserved":false,"is_disabled":false,"rental_uris":{"android":"levelo://app?vid=2c31b52c-05dc-4f6c-8f12-1f41547bee5f","ios":"levelo://app?vid=2c31b52c-05dc-4f6c-8f12-1f41547bee5f"},"vehicle_type_id":"4","last_reported":1742036819,"current_range_meters":19200,"station_id":"ce4bgn12rcd13ifvqbt0","pricing_plan_id":"cebpf4jnsgd1na2vs0mg"},{"bike_id":"d49af6c8-c21f-49ba-bd50-b571545629f5","system_id":"levelo_inurba_marseille","lat":43.29936,"lon":5.36541,"is_reserved":false,"is_disabled":false,"rental_uris":{"android":"levelo://app?vid=d49af6c8-c21f-49ba-bd50-b571545629f5","ios":"levelo://app?vid=d49af6c8-c21f-49ba-bd50-b571545629f5"},"vehicle_type_id":"4","last_reported":1742036819,"current_range_meters":19200,"station_id":"ce4bgm92rcd13ifvqbr0","pricing_plan_id":"cebpf4jnsgd1na2vs0mg"},{"bike_id":"87c895ae-78da-402b-808b-79db5ed5fccc","system_id":"levelo_inurba_marseille","lat":43.29779,"lon":5.38096,"is_reserved":false,"is_disabled":false,"rental_uris":{"android":"levelo://app?vid=87c895ae-78da-402b-808b-79db5ed5fccc","ios":"levelo://app?vid=87c895ae-78da-402b-808b-79db5ed5fccc"},"vehicle_type_id":"4","last_reported":1742036819,"current_range_meters":19200,"station_id":"ce4bgip2rcd13ifvqbb0","pricing_plan_id":"cebpf4jnsgd1na2vs0mg"},{"bike_id":"cace3442-8b90-4a59-9628-b96896459cb8","system_id":"levelo_inurba_marseille","lat":43.2929,"lon":5.37458,"is_reserved":false,"is_disabled":false,"rental_uris":{"android":"levelo://app?vid=cace3442-8b90-4a59-9628-b96896459cb8","ios":"levelo://app?vid=cace3442-8b90-4a59-9628-b96896459cb8"},"vehicle_type_id":"4","last_reported":1742036819,"current_range_meters":19200,"station_id":"ce4bgi12rcd13ifvqb70","pricing_plan_id":"cebpf4jnsgd1na2vs0mg"},{"bike_id":"bae91207-c53c-4099-b67b-b81c091dbd2c","system_id":"levelo_inurba_marseille","lat":43.3236,"lon":5.3676,"is_reserved":false,"is_disabled":false,"rental_uris":{"android":"levelo://app?vid=bae91207-c53c-4099-b67b-b81c091dbd2c","ios":"levelo://app?vid=bae91207-c53c-4099-b67b-b81c091dbd2c"},"vehicle_type_id":"4","last_reported":1742036819,"current_range_meters":19200,"station_id":"ce4bhsh2rcd13ifvqi2g","pricing_plan_id":"cebpf4jnsgd1na2vs0mg"},{"bike_id":"266b0455-00d9-4aeb-ae08-13fa6a2f2fe3","system_id":"levelo_inurba_marseille","lat":43.29604,"lon":5.38091,"is_reserved":false,"is_disabled":false,"rental_uris":{"android":"levelo://app?vid=266b0455-00d9-4aeb-ae08-13fa6a2f2fe3","ios":"levelo://app?vid=266b0455-00d9-4aeb-ae08-13fa6a2f2fe3"},"vehicle_type_id":"4","last_reported":1742036819,"current_range_meters":19200,"station_id":"ce4bgl12rcd13ifvqbo0","pricing_plan_id":"cebpf4jnsgd1na2vs0mg"},{"bike_id":"5a4a7d35-0ef8-41e9-9195-6b8c171d9e40","system_id":"levelo_inurba_marseille","lat":43.25927,"lon":5.40877,"is_reserved":false,"is_disabled":false,"rental_uris":{"android":"levelo://app?vid=5a4a7d35-0ef8-41e9-9195-6b8c171d9e40","ios":"levelo://app?vid=5a4a7d35-0ef8-41e9-9195-6b8c171d9e40"},"vehicle_type_id":"4","last_reported":1742036819,"current_range_meters":19600,"station_id":"ce4bhm92rcd13ifvqglg","pricing_plan_id":"cebpf4jnsgd1na2vs0mg"},{"bike_id":"e484b4a2-4c23-4de7-abab-17ac7476c602","system_id":"levelo_inurba_marseille","lat":43.23197,"lon":5.35559,"is_reserved":false,"is_disabled":false,"rental_uris":{"android":"levelo://app?vid=e484b4a2-4c23-4de7-abab-17ac7476c602","ios":"levelo://app?vid=e484b4a2-4c23-4de7-abab-17ac7476c602"},"vehicle_type_id":"4","last_reported":1742036819,"current_range_meters":19600,"station_id":"ce4bhu92rcd13ifvqi70","pricing_plan_id":"cebpf4jnsgd1na2vs0mg"},{"bike_id":"2f1d0fb1-e9cf-46d2-9443-f33d47feb4b6","system_id":"levelo_inurba_marseille","lat":43.308,"lon":5.43521,"is_reserved":false,"is_disabled":false,"rental_uris":{"android":"levelo://app?vid=2f1d0fb1-e9cf-46d2-9443-f33d47feb4b6","ios":"levelo://app?vid=2f1d0fb1-e9cf-46d2-9443-f33d47feb4b6"},"vehicle_type_id":"4","last_reported":1742036819,"current_range_meters":19600,"station_id":"ce4bhph2rcd13ifvqheg","pricing_plan_id":"cebpf4jnsgd1na2vs0mg"},{"bike_id":"cc25066a-82d0-46ee-8c2a-846c11b5f03e","system_id":"levelo_inurba_marseille","lat":43.25005,"lon":5.38916,"is_reserved":false,"is_disabled":false,"rental_uris":{"android":"levelo://app?vid=cc25066a-82d0-46ee-8c2a-846c11b5f03e","ios":"levelo://app?vid=cc25066a-82d0-46ee-8c2a-846c11b5f03e"},"vehicle_type_id":"4","last_reported":1742036819,"current_range_meters":19600,"station_id":"ce4bhgp2rcd13ifvqfd0","pricing_plan_id":"cebpf4jnsgd1na2vs0mg"},{"bike_id":"ebd8fea3-3fc0-44f4-bb4e-b3217dc36392","system_id":"levelo_inurba_marseille","lat":43.27212,"lon":5.39186,"is_reserved":false,"is_disabled":false,"rental_uris":{"android":"levelo://app?vid=ebd8fea3-3fc0-44f4-bb4e-b3217dc36392","ios":"levelo://app?vid=ebd8fea3-3fc0-44f4-bb4e-b3217dc36392"},"vehicle_type_id":"4","last_reported":1742036819,"current_range_meters":19600,"station_id":"ce4bhhp2rcd13ifvqfm0","pricing_plan_id":"cebpf4jnsgd1na2vs0mg"},{"bike_id":"9fc0902f-8d59-4b68-a821-641b7ddcec61","system_id":"levelo_inurba_marseille","lat":43.26185,"lon":5.37447,"is_reserved":false,"is_disabled":false,"rental_uris":{"android":"levelo://app?vid=9fc0902f-8d59-4b68-a821-641b7ddcec61","ios":"levelo://app?vid=9fc0902f-8d59-4b68-a821-641b7ddcec61"},"vehicle_type_id":"4","last_reported":1742036819,"current_range_meters":19600,"station_id":"ce4bhgp2rcd13ifvqfc0","pricing_plan_id":"cebpf4jnsgd1na2vs0mg"},{"bike_id":"16cb1e08-4196-4c4f-b28c-741276556760","system_id":"levelo_inurba_marseille","lat":43.26928,"lon":5.40251,"is_reserved":false,"is_disabled":false,"rental_uris":{"android":"levelo://app?vid=16cb1e08-4196-4c4f-b28c-741276556760","ios":"levelo://app?vid=16cb1e08-4196-4c4f-b28c-741276556760"},"vehicle_type_id":"4","last_reported":1742036819,"current_range_meters":19600,"station_id":"cjm6bp8fraef2m0cb0m0","pricing_plan_id":"cebpf4jnsgd1na2vs0mg"},{"bike_id":"5189287a-880a-46a1-bc5e-d4c1d9f06a31","system_id":"levelo_inurba_marseille","lat":43.24084,"lon":5.37741,"is_reserved":false,"is_disabled":false,"rental_uris":{"android":"levelo://app?vid=5189287a-880a-46a1-bc5e-d4c1d9f06a31","ios":"levelo://app?vid=5189287a-880a-46a1-bc5e-d4c1d9f06a31"},"vehicle_type_id":"4","last_reported":1742036819,"current_range_meters":19600,"station_id":"ce4bhnp2rcd13ifvqgvg","pricing_plan_id":"cebpf4jnsgd1na2vs0mg"},{"bike_id":"89e44c5b-b8a8-479b-8038-a5559e32c6a1","system_id":"levelo_inurba_marseille","lat":43.29625,"lon":5.3775,"is_reserved":false,"is_disabled":false,"rental_uris":{"android":"levelo://app?vid=89e44c5b-b8a8-479b-8038-a5559e32c6a1","ios":"levelo://app?vid=89e44c5b-b8a8-479b-8038-a5559e32c6a1"},"vehicle_type_id":"4","last_reported":1742036819,"current_range_meters":19600,"station_id":"ce4bgi92rcd13ifvqb90","pricing_plan_id":"cebpf4jnsgd1na2vs0mg"},{"bike_id":"52998bfa-569e-4801-bb03-9cd5cd17755f","system_id":"levelo_inurba_marseille","lat":43.30136,"lon":5.374229,"is_reserved":false,"is_disabled":false,"rental_uris":{"android":"levelo://app?vid=52998bfa-569e-4801-bb03-9cd5cd17755f","ios":"levelo://app?vid=52998bfa-569e-4801-bb03-9cd5cd17755f"},"vehicle_type_id":"4","last_reported":1742036819,"current_range_meters":19600,"station_id":"ce4bgs92rcd13ifvqcc0","pricing_plan_id":"cebpf4jnsgd1na2vs0mg"},{"bike_id":"52a818c1-f358-462f-a8e2-59f3bb3c201c","system_id":"levelo_inurba_marseille","lat":43.29884,"lon":5.43599,"is_reserved":false,"is_disabled":false,"rental_uris":{"android":"levelo://app?vid=52a818c1-f358-462f-a8e2-59f3bb3c201c","ios":"levelo://app?vid=52a818c1-f358-462f-a8e2-59f3bb3c201c"},"vehicle_type_id":"4","last_reported":1742036819,"current_range_meters":20000,"station_id":"ce4bhpp2rcd13ifvqhfg","pricing_plan_id":"cebpf4jnsgd1na2vs0mg"},{"bike_id":"4ebe3c6d-7841-4b89-94a1-c0cc44b0f3a4","system_id":"levelo_inurba_marseille","lat":43.32119,"lon":5.36772,"is_reserved":false,"is_disabled":false,"rental_uris":{"android":"levelo://app?vid=4ebe3c6d-7841-4b89-94a1-c0cc44b0f3a4","ios":"levelo://app?vid=4ebe3c6d-7841-4b89-94a1-c0cc44b0f3a4"},"vehicle_type_id":"4","last_reported":1742036819,"current_range_meters":20000,"station_id":"ce4bhrh2rcd13ifvqhug","pricing_plan_id":"cebpf4jnsgd1na2vs0mg"},{"bike_id":"efcc4f59-a408-44e2-a1f3-3f4f946cd959","system_id":"levelo_inurba_marseille","lat":43.2989,"lon":5.43663,"is_reserved":false,"is_disabled":false,"rental_uris":{"android":"levelo://app?vid=efcc4f59-a408-44e2-a1f3-3f4f946cd959","ios":"levelo://app?vid=efcc4f59-a408-44e2-a1f3-3f4f946cd959"},"vehicle_type_id":"4","last_reported":1742036819,"current_range_meters":20000,"station_id":"ce4bhpp2rcd13ifvqhfg","pricing_plan_id":"cebpf4jnsgd1na2vs0mg"},{"bike_id":"c585e757-1277-4f8f-8bca-c17eb1bcee3f","system_id":"levelo_inurba_marseille","lat":43.25833,"lon":5.39426,"is_reserved":false,"is_disabled":false,"rental_uris":{"android":"levelo://app?vid=c585e757-1277-4f8f-8bca-c17eb1bcee3f","ios":"levelo://app?vid=c585e757-1277-4f8f-8bca-c17eb1bcee3f"},"vehicle_type_id":"4","last_reported":1742036819,"current_range_meters":20000,"station_id":"ce4bhip2rcd13ifvqft0","pricing_plan_id":"cebpf4jnsgd1na2vs0mg"},{"bike_id":"859f60fc-e905-43d1-b79d-c375474a6202","system_id":"levelo_inurba_marseille","lat":43.295476,"lon":5.422845,"is_reserved":false,"is_disabled":false,"rental_uris":{"android":"levelo://app?vid=859f60fc-e905-43d1-b79d-c375474a6202","ios":"levelo://app?vid=859f60fc-e905-43d1-b79d-c375474a6202"},"vehicle_type_id":"4","last_reported":1742036819,"current_range_meters":20000,"station_id":"ce4bhph2rcd13ifvqhdg","pricing_plan_id":"cebpf4jnsgd1na2vs0mg"},{"bike_id":"e87844fc-0f51-47ce-90f4-a95e3486c3c4","system_id":"levelo_inurba_marseille","lat":43.30529,"lon":5.3652,"is_reserved":false,"is_disabled":false,"rental_uris":{"android":"levelo://app?vid=e87844fc-0f51-47ce-90f4-a95e3486c3c4","ios":"levelo://app?vid=e87844fc-0f51-47ce-90f4-a95e3486c3c4"},"vehicle_type_id":"4","last_reported":1742036819,"current_range_meters":20000,"station_id":"ce4bgs12rcd13ifvqcag","pricing_plan_id":"cebpf4jnsgd1na2vs0mg"},{"bike_id":"19feee8a-9bec-4876-af46-de4d8c02de32","system_id":"levelo_inurba_marseille","lat":43.3234,"lon":5.40624,"is_reserved":false,"is_disabled":false,"rental_uris":{"android":"levelo://app?vid=19feee8a-9bec-4876-af46-de4d8c02de32","ios":"levelo://app?vid=19feee8a-9bec-4876-af46-de4d8c02de32"},"vehicle_type_id":"4","last_reported":1742036819,"current_range_meters":20000,"station_id":"ce4bhq92rcd13ifvqhjg","pricing_plan_id":"cebpf4jnsgd1na2vs0mg"},{"bike_id":"26155c65-4cdd-4504-9639-db6c05a86c73","system_id":"levelo_inurba_marseille","lat":43.33025,"lon":5.3904,"is_reserved":false,"is_disabled":false,"rental_uris":{"android":"levelo://app?vid=26155c65-4cdd-4504-9639-db6c05a86c73","ios":"levelo://app?vid=26155c65-4cdd-4504-9639-db6c05a86c73"},"vehicle_type_id":"4","last_reported":1742036819,"current_range_meters":20400,"station_id":"ce4bhr92rcd13ifvqhrg","pricing_plan_id":"cebpf4jnsgd1na2vs0mg"},{"bike_id":"ffd108bd-64d5-48ef-8b6f-1613c85a4da6","system_id":"levelo_inurba_marseille","lat":43.30433,"lon":5.39747,"is_reserved":false,"is_disabled":false,"rental_uris":{"android":"levelo://app?vid=ffd108bd-64d5-48ef-8b6f-1613c85a4da6","ios":"levelo://app?vid=ffd108bd-64d5-48ef-8b6f-1613c85a4da6"},"vehicle_type_id":"4","last_reported":1742036819,"current_range_meters":20400,"station_id":"ce4bh092rcd13ifvqd20","pricing_plan_id":"cebpf4jnsgd1na2vs0mg"},{"bike_id":"90f36701-ecf1-4515-bace-04be972be48d","system_id":"levelo_inurba_marseille","lat":43.29788,"lon":5.38081,"is_reserved":false,"is_disabled":false,"rental_uris":{"android":"levelo://app?vid=90f36701-ecf1-4515-bace-04be972be48d","ios":"levelo://app?vid=90f36701-ecf1-4515-bace-04be972be48d"},"vehicle_type_id":"4","last_reported":1742036819,"current_range_meters":20400,"station_id":"ce4bgip2rcd13ifvqbb0","pricing_plan_id":"cebpf4jnsgd1na2vs0mg"},{"bike_id":"f225bced-b7cb-4d44-a4fe-5b51c2cee024","system_id":"levelo_inurba_marseille","lat":43.29815,"lon":5.38085,"is_reserved":false,"is_disabled":false,"rental_uris":{"android":"levelo://app?vid=f225bced-b7cb-4d44-a4fe-5b51c2cee024","ios":"levelo://app?vid=f225bced-b7cb-4d44-a4fe-5b51c2cee024"},"vehicle_type_id":"4","last_reported":1742036819,"current_range_meters":20400,"station_id":"ce4bgip2rcd13ifvqbb0","pricing_plan_id":"cebpf4jnsgd1na2vs0mg"},{"bike_id":"2e150d75-e831-4c41-9b75-6007ed324a54","system_id":"levelo_inurba_marseille","lat":43.29785,"lon":5.38081,"is_reserved":false,"is_disabled":false,"rental_uris":{"android":"levelo://app?vid=2e150d75-e831-4c41-9b75-6007ed324a54","ios":"levelo://app?vid=2e150d75-e831-4c41-9b75-6007ed324a54"},"vehicle_type_id":"4","last_reported":1742036819,"current_range_meters":20400,"station_id":"ce4bgip2rcd13ifvqbb0","pricing_plan_id":"cebpf4jnsgd1na2vs0mg"},