{"last_updated":1703758056,"ttl":30,"version":"2.2","data":{"bikes":[{"bike_id":"92d4f817-0078-49c2-a633-ec1dee59c53d","system_id":"levelo_inurba_marseille","lat":43.31341,"lon":5.367098,"is_reserved":false,"is_disabled":false,"rental_uris":{"android":"levelo://app?vid=92d4f817-0078-49c2-a633-ec1dee59c53d","ios":"levelo://app?vid=92d4f817-0078-49c2-a633-ec1dee59c53d"},"vehicle_type_id":"4","last_reported":1703758056,"current_range_meters":9200,"station_id":"ce4bgr92rcd13ifvqc6g","pricing_plan_id":"free"},{"bike_id":"fd718e64-be48-4544-989d-0bea6dfd9864","system_id":"levelo_inurba_marseille","lat":43.31341,"lon":5.367098,"is_reserved":false,"is_disabled":false,"rental_uris":{"android":"levelo://app?vid=fd718e64-be48-4544-989d-0bea6dfd9864","ios":"levelo://app?vid=fd718e64-be48-4544-989d-0bea6dfd9864"},"vehicle_type_id":"4","last_reported":1703758056,"current_range_meters":28800,"station_id":"ce4bgr92rcd13ifvqc6g","pricing_plan_id":"free"},{"bike_id":"8d0aa6b3-acfc-4de3-94ac-62c967788013","system_id":"levelo_inurba_marseille","lat":43.31341,"lon":5.367098,"is_reserved":false,"is_disabled":false,"rental_uris":{"android":"levelo://app?vid=8d0aa6b3-acfc-4de3-94ac-62c967788013","ios":"levelo://app?vid=8d0aa6b3-acfc-4de3-94ac-62c967788013"},"vehicle_type_id":"4","last_reported":1703758056,"current_range_meters":8800,"station_id":"ce4bgr92rcd13ifvqc6g","pricing_plan_id":"free"},{"bike_id":"ff289769-8ee9-4ccb-b8c1-d91150b7767d","system_id":"levelo_inurba_marseille","lat":43.313391,"lon":5.36706,"is_reserved":false,"is_disabled":false,"rental_uris":{"android":"levelo://app?vid=ff289769-8ee9-4ccb-b8c1-d91150b7767d","ios":"levelo://app?vid=ff289769-8ee9-4ccb-b8c1-d91150b7767d"},"vehicle_type_id":"4","last_reported":1703758056,"current_range_meters":19600,"station_id":"ce4bgr92rcd13ifvqc6g","pricing_plan_id":"free"},{"bike_id":"d5982094-0c0a-4d8d-8dd0-d27ab3a034f5","system_id":"levelo_inurba_marseille","lat":43.31341,"lon":5.367098,"is_reserved":false,"is_disabled":false,"rental_uris":{"android":"levelo://app?vid=d5982094-0c0a-4d8d-8dd0-d27ab3a034f5","ios":"levelo://app?vid=d5982094-0c0a-4d8d-8dd0-d27ab3a034f5"},"vehicle_type_id":"4","last_reported":1703758056,"current_range_meters":22400,"station_id":"ce4bgr92rcd13ifvqc6g","pricing_plan_id":"free"},{"bike_id":"79beb675-a414-4d91-acf5-1970144f164d","system_id":"levelo_inurba_marseille","lat":43.313391,"lon":5.36706,"is_reserved":false,"is_disabled":false,"rental_uris":{"android":"levelo://app?vid=79beb675-a414-4d91-acf5-1970144f164d","ios":"levelo://app?vid=79beb675-a414-4d91-acf5-1970144f164d"},"vehicle_type_id":"4","last_reported":1703758056,"current_range_meters":26000,"station_id":"ce4bgr92rcd13ifvqc6g","pricing_plan_id":"free"},{"bike_id":"7f03bb82-3d8c-4897-b6bf-05bb5fa8a57c","system_id":"levelo_inurba_marseille","lat":43.31341,"lon":5.367098,"is_reserved":false,"is_disabled":false,"rental_uris":{"android":"levelo://app?vid=7f03bb82-3d8c-4897-b6bf-05bb5fa8a57c","ios":"levelo://app?vid=7f03bb82-3d8c-4897-b6bf-05bb5fa8a57c"},"vehicle_type_id":"4","last_reported":1703758056,"current_range_meters":31200,"station_id":"ce4bgr92rcd13ifvqc6g","pricing_plan_id":"free"},{"bike_id":"f2ec027f-a284-4750-8422-bfcebb8b2b9c","system_id":"levelo_inurba_marseille","lat":43.313391,"lon":5.36706,"is_reserved":false,"is_disabled":false,"rental_uris":{"android":"levelo://app?vid=f2ec027f-a284-4750-8422-bfcebb8b2b9c","ios":"levelo://app?vid=f2ec027f-a284-4750-8422-bfcebb8b2b9c"},"vehicle_type_id":"4","last_reported":1703758056,"current_range_meters":31600,"station_id":"ce4bgr92rcd13ifvqc6g","pricing_plan_id":"free"},{"bike_id":"b78eae04-7803-4ea2-8985-bb1f77354e0f","system_id":"levelo_inurba_marseille","lat":43.313391,"lon":5.36706,"is_reserved":false,"is_disabled":false,"rental_uris":{"android":"levelo://app?vid=b78eae04-7803-4ea2-8985-bb1f77354e0f","ios":"levelo://app?vid=b78eae04-7803-4ea2-8985-bb1f77354e0f"},"vehicle_type_id":"4","last_reported":1703758056,"current_range_meters":29600,"station_id":"ce4bgr92rcd13ifvqc6g","pricing_plan_id":"free"},{"bike_id":"999bcaad-4694-4bf4-a6af-93b7e99a5b08","system_id":"levelo_inurba_marseille","lat":43.313391,"lon":5.36706,"is_reserved":false,"is_disabled":false,"rental_uris":{"android":"levelo://app?vid=999bcaad-4694-4bf4-a6af-93b7e99a5b08","ios":"levelo://app?vid=999bcaad-4694-4bf4-a6af-93b7e99a5b08"},"vehicle_type_id":"4","last_reported":1703758056,"current_range_meters":20000,"station_id":"ce4bgr92rcd13ifvqc6g","pricing_plan_id":"free"},{"bike_id":"968a2a1d-ed84-4bb5-a62d-904b501e0c7c","system_id":"levelo_inurba_marseille","lat":43.312239,"lon":5.368562,"is_reserved":false,"is_disabled":false,"rental_uris":{"android":"levelo://app?vid=968a2a1d-ed84-4bb5-a62d-904b501e0c7c","ios":"levelo://app?vid=968a2a1d-ed84-4bb5-a62d-904b501e0c7c"},"vehicle_type_id":"4","last_reported":1703758056,"current_range_meters":4400,"station_id":"ce4bgl92rcd13ifvqbq0","pricing_plan_id":"free"},{"bike_id":"780642d1-c7a0-4191-997b-bf122a04cf1b","system_id":"levelo_inurba_marseille","lat":43.312239,"lon":5.368562,"is_reserved":false,"is_disabled":false,"rental_uris":{"android":"levelo://app?vid=780642d1-c7a0-4191-997b-bf122a04cf1b","ios":"levelo://app?vid=780642d1-c7a0-4191-997b-bf122a04cf1b"},"vehicle_type_id":"4","last_reported":1703758056,"current_range_meters":14800,"station_id":"ce4bgl92rcd13ifvqbq0","pricing_plan_id":"free"},{"bike_id":"8c58ad33-319e-4d90-9e25-fd43ae68f66d","system_id":"levelo_inurba_marseille","lat":43.30911,"lon":5.36858,"is_reserved":false,"is_disabled":false,"rental_uris":{"android":"levelo://app?vid=8c58ad33-319e-4d90-9e25-fd43ae68f66d","ios":"levelo://app?vid=8c58ad33-319e-4d90-9e25-fd43ae68f66d"},"vehicle_type_id":"4","last_reported":1703758056,"current_range_meters":28400,"station_id":"ce4bgn92rcd13ifvqbvg","pricing_plan_id":"free"},{"bike_id":"71413311-6ad0-4f44-a6ac-a2b6c7e1916c","system_id":"levelo_inurba_marseille","lat":43.309076,"lon":5.368465,"is_reserved":false,"is_disabled":false,"rental_uris":{"android":"levelo://app?vid=71413311-6ad0-4f44-a6ac-a2b6c7e1916c","ios":"levelo://app?vid=71413311-6ad0-4f44-a6ac-a2b6c7e1916c"},"vehicle_type_id":"4","last_reported":1703758056,"current_range_meters":25200,"station_id":"ce4bgn92rcd13ifvqbvg","pricing_plan_id":"free"},{"bike_id":"853df151-3927-48bf-ad5e-f7f583dccdc0","system_id":"levelo_inurba_marseille","lat":43.309039,"lon":5.371797,"is_reserved":false,"is_disabled":false,"rental_uris":{"android":"levelo://app?vid=853df151-3927-48bf-ad5e-f7f583dccdc0","ios":"levelo://app?vid=853df151-3927-48bf-ad5e-f7f583dccdc0"},"vehicle_type_id":"4","last_reported":1703758056,"current_range_meters":19600,"station_id":"ce4bguh2rcd13ifvqckg","pricing_plan_id":"free"},{"bike_id":"e53a9163-4e5b-47fe-9556-01a0a159d6b4","system_id":"levelo_inurba_marseille","lat":43.318964,"lon":5.36877,"is_reserved":false,"is_disabled":false,"rental_uris":{"android":"levelo://app?vid=e53a9163-4e5b-47fe-9556-01a0a159d6b4","ios":"levelo://app?vid=e53a9163-4e5b-47fe-9556-01a0a159d6b4"},"vehicle_type_id":"4","last_reported":1703758056,"current_range_meters":4800,"station_id":"","pricing_plan_id":"free"},{"bike_id":"294daea1-dfb7-429d-8796-4bb97a5afdbf","system_id":"levelo_inurba_marseille","lat":43.30537,"lon":5.367345,"is_reserved":false,"is_disabled":false,"rental_uris":{"android":"levelo://app?vid=294daea1-dfb7-429d-8796-4bb97a5afdbf","ios":"levelo://app?vid=294daea1-dfb7-429d-8796-4bb97a5afdbf"},"vehicle_type_id":"4","last_reported":1703758056,"current_range_meters":15200,"station_id":"ce4bgrp2rcd13ifvqc9g","pricing_plan_id":"free"},{"bike_id":"ec1b899d-756a-43bd-bcd2-ae28c82563d2","system_id":"levelo_inurba_marseille","lat":43.305368,"lon":5.367343,"is_reserved":false,"is_disabled":false,"rental_uris":{"android":"levelo://app?vid=ec1b899d-756a-43bd-bcd2-ae28c82563d2","ios":"levelo://app?vid=ec1b899d-756a-43bd-bcd2-ae28c82563d2"},"vehicle_type_id":"4","last_reported":1703758056,"current_range_meters":20800,"station_id":"ce4bgrp2rcd13ifvqc9g","pricing_plan_id":"free"},{"bike_id":"ae142779-b131-49b2-bd89-4923944822d2","system_id":"levelo_inurba_marseille","lat":43.305368,"lon":5.367343,"is_reserved":false,"is_disabled":false,"rental_uris":{"android":"levelo://app?vid=ae142779-b131-49b2-bd89-4923944822d2","ios":"levelo://app?vid=ae142779-b131-49b2-bd89-4923944822d2"},"vehicle_type_id":"4","last_reported":1703758056,"current_range_meters":24400,"station_id":"ce4bgrp2rcd13ifvqc9g","pricing_plan_id":"free"},{"bike_id":"0cbffb1f-cad0-4903-8235-6ece12fb0071","system_id":"levelo_inurba_marseille","lat":43.305714,"lon":5.365633,"is_reserved":false,"is_disabled":false,"rental_uris":{"android":"levelo://app?vid=0cbffb1f-cad0-4903-8235-6ece12fb0071","ios":"levelo://app?vid=0cbffb1f-cad0-4903-8235-6ece12fb0071"},"vehicle_type_id":"4","last_reported":1703758056,"current_range_meters":20000,"station_id":"ce4bgs12rcd13ifvqcag","pricing_plan_id":"free"},{"bike_id":"f16e10f8-b94e-4bda-b17e-003a27b85f06","system_id":"levelo_inurba_marseille","lat":43.305368,"lon":5.367343,"is_reserved":false,"is_disabled":false,"rental_uris":{"android":"levelo://app?vid=f16e10f8-b94e-4bda-b17e-003a27b85f06","ios":"levelo://app?vid=f16e10f8-b94e-4bda-b17e-003a27b85f06"},"vehicle_type_id":"4","last_reported":1703758056,"current_range_meters":6800,"station_id":"ce4bgrp2rcd13ifvqc9g","pricing_plan_id":"free"},{"bike_id":"7120785d-3d4d-4e3e-af82-ad0ab06ea962","system_id":"levelo_inurba_marseille","lat":43.305368,"lon":5.367343,"is_reserved":false,"is_disabled":false,"rental_uris":{"android":"levelo://app?vid=7120785d-3d4d-4e3e-af82-ad0ab06ea962","ios":"levelo://app?vid=7120785d-3d4d-4e3e-af82-ad0ab06ea962"},"vehicle_type_id":"4","last_reported":1703758056,"current_range_meters":30800,"station_id":"ce4bgrp2rcd13ifvqc9g","pricing_plan_id":"free"},{"bike_id":"50e7ae88-debc-4396-887a-aa6a1106b20a","system_id":"levelo_inurba_marseille","lat":43.305368,"lon":5.367343,"is_reserved":false,"is_disabled":false,"rental_uris":{"android":"levelo://app?vid=50e7ae88-debc-4396-887a-aa6a1106b20a","ios":"levelo://app?vid=50e7ae88-debc-4396-887a-aa6a1106b20a"},"vehicle_type_id":"4","last_reported":1703758056,"current_range_meters":20800,"station_id":"ce4bgrp2rcd13ifvqc9g","pricing_plan_id":"free"},{"bike_id":"634d8ee9-faa9-4e9a-8ede-7b4bcaeee64a","system_id":"levelo_inurba_marseille","lat":43.305714,"lon":5.365633,"is_reserved":false,"is_disabled":false,"rental_uris":{"android":"levelo://app?vid=634d8ee9-faa9-4e9a-8ede-7b4bcaeee64a","ios":"levelo://app?vid=634d8ee9-faa9-4e9a-8ede-7b4bcaeee64a"},"vehicle_type_id":"4","last_reported":1703758056,"current_range_meters":22800,"station_id":"ce4bgs12rcd13ifvqcag","pricing_plan_id":"free"},{"bike_id":"a8fb9101-9926-4251-8083-e8b96c43ec94","system_id":"levelo_inurba_marseille","lat":43.305706,"lon":5.365654,"is_reserved":false,"is_disabled":false,"rental_uris":{"android":"levelo://app?vid=a8fb9101-9926-4251-8083-e8b96c43ec94","ios":"levelo://app?vid=a8fb9101-9926-4251-8083-e8b96c43ec94"},"vehicle_type_id":"4","last_reported":1703758056,"current_range_meters":16400,"station_id":"ce4bgs12rcd13ifvqcag","pricing_plan_id":"free"},{"bike_id":"9ac9b534-500c-4d6a-b084-18b3e1042b8d","system_id":"levelo_inurba_marseille","lat":43.305706,"lon":5.365654,"is_reserved":false,"is_disabled":false,"rental_uris":{"android":"levelo://app?vid=9ac9b534-500c-4d6a-b084-18b3e1042b8d","ios":"levelo://app?vid=9ac9b534-500c-4d6a-b084-18b3e1042b8d"},"vehicle_type_id":"4","last_reported":1703758056,"current_range_meters":19600,"station_id":"ce4bgs12rcd13ifvqcag","pricing_plan_id":"free"},{"bike_id":"3df836d6-8357-4376-ab28-6100e07b9fcf","system_id":"levelo_inurba_marseille","lat":43.305368,"lon":5.367343,"is_reserved":false,"is_disabled":false,"rental_uris":{"android":"levelo://app?vid=3df836d6-8357-4376-ab28-6100e07b9fcf","ios":"levelo://app?vid=3df836d6-8357-4376-ab28-6100e07b9fcf"},"vehicle_type_id":"4","last_reported":1703758056,"current_range_meters":23200,"station_id":"ce4bgrp2rcd13ifvqc9g","pricing_plan_id":"free"},{"bike_id":"675c39b1-12e1-4e8e-9b7c-28061f1dcf30","system_id":"levelo_inurba_marseille","lat":43.305714,"lon":5.365633,"is_reserved":false,"is_disabled":false,"rental_uris":{"android":"levelo://app?vid=675c39b1-12e1-4e8e-9b7c-28061f1dcf30","ios":"levelo://app?vid=675c39b1-12e1-4e8e-9b7c-28061f1dcf30"},"vehicle_type_id":"4","last_reported":1703758056,"current_range_meters":31600,"station_id":"ce4bgs12rcd13ifvqcag","pricing_plan_id":"free"},{"bike_id":"ff973ec2-68fd-4956-995f-fab16a9286ce","system_id":"levelo_inurba_marseille","lat":43.305706,"lon":5.365654,"is_reserved":false,"is_disabled":false,"rental_uris":{"android":"levelo://app?vid=ff973ec2-68fd-4956-995f-fab16a9286ce","ios":"levelo://app?vid=ff973ec2-68fd-4956-995f-fab16a9286ce"},"vehicle_type_id":"4","last_reported":1703758056,"current_range_meters":25200,"station_id":"ce4bgs12rcd13ifvqcag","pricing_plan_id":"free"},{"bike_id":"070b7918-d2fc-4aa2-9283-6e960e75672d","system_id":"levelo_inurba_marseille","lat":43.305706,"lon":5.365654,"is_reserved":false,"is_disabled":false,"rental_uris":{"android":"levelo://app?vid=070b7918-d2fc-4aa2-9283-6e960e75672d","ios":"levelo://app?vid=070b7918-d2fc-4aa2-9283-6e960e75672d"},"vehicle_type_id":"4","last_reported":1703758056,"current_range_meters":31200,"station_id":"ce4bgs12rcd13ifvqcag","pricing_plan_id":"free"},{"bike_id":"4a34efe0-a211-4943-b23e-35eeed4b192b","system_id":"levelo_inurba_marseille","lat":43.305706,"lon":5.365654,"is_reserved":false,"is_disabled":false,"rental_uris":{"android":"levelo://app?vid=4a34efe0-a211-4943-b23e-35eeed4b192b","ios":"levelo://app?vid=4a34efe0-a211-4943-b23e-35eeed4b192b"},"vehicle_type_id":"4","last_reported":1703758056,"current_range_meters":22800,"station_id":"ce4bgs12rcd13ifvqcag","pricing_plan_id":"free"},{"bike_id":"9863d323-9953-419a-9dc3-1d788a74b3ea","system_id":"levelo_inurba_marseille","lat":43.305706,"lon":5.365654,"is_reserved":false,"is_disabled":false,"rental_uris":{"android":"levelo://app?vid=9863d323-9953-419a-9dc3-1d788a74b3ea","ios":"levelo://app?vid=9863d323-9953-419a-9dc3-1d788a74b3ea"},"vehicle_type_id":"4","last_reported":1703758056,"current_range_meters":30400,"station_id":"ce4bgs12rcd13ifvqcag","pricing_plan_id":"free"},{"bike_id":"4087852d-daa8-4e35-96b8-7858ad98bc9e","system_id":"levelo_inurba_marseille","lat":43.305706,"lon":5.365654,"is_reserved":false,"is_disabled":false,"rental_uris":{"android":"levelo://app?vid=4087852d-daa8-4e35-96b8-7858ad98bc9e","ios":"levelo://app?vid=4087852d-daa8-4e35-96b8-7858ad98bc9e"},"vehicle_type_id":"4","last_reported":1703758056,"current_range_meters":26400,"station_id":"ce4bgs12rcd13ifvqcag","pricing_plan_id":"free"},{"bike_id":"93def3bf-bd51-4998-9ec7-41dad3a11705","system_id":"levelo_inurba_marseille","lat":43.305989,"lon":5.37225,"is_reserved":false,"is_disabled":false,"rental_uris":{"android":"levelo://app?vid=93def3bf-bd51-4998-9ec7-41dad3a11705","ios":"levelo://app?vid=93def3bf-bd51-4998-9ec7-41dad3a11705"},"vehicle_type_id":"4","last_reported":1703758056,"current_range_meters":23200,"station_id":"ce4bgqh2rcd13ifvqc4g","pricing_plan_id":"free"},{"bike_id":"2c54c11a-46e1-44fc-bd78-7b09579908fa","system_id":"levelo_inurba_marseille","lat":43.305989,"lon":5.37225,"is_reserved":false,"is_disabled":false,"rental_uris":{"android":"levelo://app?vid=2c54c11a-46e1-44fc-bd78-7b09579908fa","ios":"levelo://app?vid=2c54c11a-46e1-44fc-bd78-7b09579908fa"},"vehicle_type_id":"4","last_reported":1703758056,"current_range_meters":25200,"station_id":"ce4bgqh2rcd13ifvqc4g","pricing_plan_id":"free"},{"bike_id":"4e950150-2f89-4672-baa0-af1133f437f4","system_id":"levelo_inurba_marseille","lat":43.303046,"lon":5.368981,"is_reserved":false,"is_disabled":false,"rental_uris":{"android":"levelo://app?vid=4e950150-2f89-4672-baa0-af1133f437f4","ios":"levelo://app?vid=4e950150-2f89-4672-baa0-af1133f437f4"},"vehicle_type_id":"4","last_reported":1703758056,"current_range_meters":26000,"station_id":"ce4bgqh2rcd13ifvqc5g","pricing_plan_id":"free"},{"bike_id":"43d28425-1387-47eb-a38b-b9bafd935c4f","system_id":"levelo_inurba_marseille","lat":43.30184,"lon":5.36611,"is_reserved":false,"is_disabled":false,"rental_uris":{"android":"levelo://app?vid=43d28425-1387-47eb-a38b-b9bafd935c4f","ios":"levelo://app?vid=43d28425-1387-47eb-a38b-b9bafd935c4f"},"vehicle_type_id":"4","last_reported":1703758056,"current_range_meters":29600,"station_id":"ce4bgrh2rcd13ifvqc8g","pricing_plan_id":"free"},{"bike_id":"5810a51d-900e-4f21-b011-504985336ccb","system_id":"levelo_inurba_marseille","lat":43.324771,"lon":5.36557,"is_reserved":false,"is_disabled":false,"rental_uris":{"android":"levelo://app?vid=5810a51d-900e-4f21-b011-504985336ccb","ios":"levelo://app?vid=5810a51d-900e-4f21-b011-504985336ccb"},"vehicle_type_id":"4","last_reported":1703758056,"current_range_meters":23200,"station_id":"ce4bhs12rcd13ifvqhvg","pricing_plan_id":"free"},{"bike_id":"65a5bc48-fdb7-4909-98ac-a83f0d971e40","system_id":"levelo_inurba_marseille","lat":43.324771,"lon":5.36557,"is_reserved":false,"is_disabled":false,"rental_uris":{"android":"levelo://app?vid=65a5bc48-fdb7-4909-98ac-a83f0d971e40","ios":"levelo://app?vid=65a5bc48-fdb7-4909-98ac-a83f0d971e40"},"vehicle_type_id":"4","last_reported":1703758056,"current_range_meters":17200,"station_id":"ce4bhs12rcd13ifvqhvg","pricing_plan_id":"free"},{"bike_id":"eb75f652-373e-4726-9e33-c05a085e4a2d","system_id":"levelo_inurba_marseille","lat":43.301453,"lon":5.37416,"is_reserved":false,"is_disabled":false,"rental_uris":{"android":"levelo://app?vid=eb75f652-373e-4726-9e33-c05a085e4a2d","ios":"levelo://app?vid=eb75f652-373e-4726-9e33-c05a085e4a2d"},"vehicle_type_id":"4","last_reported":1703758056,"current_range_meters":6400,"station_id":"","pricing_plan_id":"free"},{"bike_id":"1488580c-3f61-4f0a-9ae3-e859937624f1","system_id":"levelo_inurba_marseille","lat":43.30143,"lon":5.37413,"is_reserved":false,"is_disabled":false,"rental_uris":{"android":"levelo://app?vid=1488580c-3f61-4f0a-9ae3-e859937624f1","ios":"levelo://app?vid=1488580c-3f61-4f0a-9ae3-e859937624f1"},"vehicle_type_id":"4","last_reported":1703758056,"current_range_meters":26400,"station_id":"ce4bgs92rcd13ifvqcc0","pricing_plan_id":"free"},{"bike_id":"d798eee3-c9cd-4e09-a137-162e27e1625e","system_id":"levelo_inurba_marseille","lat":43.320036,"lon":5.381608,"is_reserved":false,"is_disabled":false,"rental_uris":{"android":"levelo://app?vid=d798eee3-c9cd-4e09-a137-162e27e1625e","ios":"levelo://app?vid=d798eee3-c9cd-4e09-a137-162e27e1625e"},"vehicle_type_id":"4","last_reported":1703758056,"current_range_meters":26800,"station_id":"ce4bhr12rcd13ifvqhpg","pricing_plan_id":"free"},{"bike_id":"83c69a68-3449-4633-83b8-1cbd36eb94ae","system_id":"levelo_inurba_marseille","lat":43.313571,"lon":5.384829,"is_reserved":false,"is_disabled":false,"rental_uris":{"android":"levelo://app?vid=83c69a68-3449-4633-83b8-1cbd36eb94ae","ios":"levelo://app?vid=83c69a68-3449-4633-83b8-1cbd36eb94ae"},"vehicle_type_id":"4","last_reported":1703758056,"current_range_meters":26800,"station_id":"ce4bgt92rcd13ifvqcf0","pricing_plan_id":"free"},{"bike_id":"78e2b32e-769c-49c9-81df-d85280197282","system_id":"levelo_inurba_marseille","lat":43.299222,"lon":5.365554,"is_reserved":false,"is_disabled":false,"rental_uris":{"android":"levelo://app?vid=78e2b32e-769c-49c9-81df-d85280197282","ios":"levelo://app?vid=78e2b32e-769c-49c9-81df-d85280197282"},"vehicle_type_id":"4","last_reported":1703758056,"current_range_meters":20800,"station_id":"ce4bgm92rcd13ifvqbr0","pricing_plan_id":"free"},{"bike_id":"bd54f3d2-dbde-480d-9b92-1c88e267412f","system_id":"levelo_inurba_marseille","lat":43.299222,"lon":5.365554,"is_reserved":false,"is_disabled":false,"rental_uris":{"android":"levelo://app?vid=bd54f3d2-dbde-480d-9b92-1c88e267412f","ios":"levelo://app?vid=bd54f3d2-dbde-480d-9b92-1c88e267412f"},"vehicle_type_id":"4","last_reported":1703758056,"current_range_meters":26800,"station_id":"ce4bgm92rcd13ifvqbr0","pricing_plan_id":"free"},{"bike_id":"2bf1159c-4b34-4bc3-a8b5-156be571c011","system_id":"levelo_inurba_marseille","lat":43.31889,"lon":5.383949,"is_reserved":false,"is_disabled":false,"rental_uris":{"android":"levelo://app?vid=2bf1159c-4b34-4bc3-a8b5-156be571c011","ios":"levelo://app?vid=2bf1159c-4b34-4bc3-a8b5-156be571c011"},"vehicle_type_id":"4","last_reported":1703758056,"current_range_meters":28800,"station_id":"","pricing_plan_id":"free"},{"bike_id":"efe44b84-aa74-49b6-88b0-d6fdf704a8f4","system_id":"levelo_inurba_marseille","lat":43.298433,"lon":5.362774,"is_reserved":false,"is_disabled":false,"rental_uris":{"android":"levelo://app?vid=efe44b84-aa74-49b6-88b0-d6fdf704a8f4","ios":"levelo://app?vid=efe44b84-aa74-49b6-88b0-d6fdf704a8f4"},"vehicle_type_id":"4","last_reported":1703758056,"current_range_meters":28000,"station_id":"ce4bgpp2rcd13ifvqc3g","pricing_plan_id":"free"},{"bike_id":"ec92cc99-4328-4d02-a99d-38d1310566de","system_id":"levelo_inurba_marseille","lat":43.298433,"lon":5.362774,"is_reserved":false,"is_disabled":false,"rental_uris":{"android":"levelo://app?vid=ec92cc99-4328-4d02-a99d-38d1310566de","ios":"levelo://app?vid=ec92cc99-4328-4d02-a99d-38d1310566de"},"vehicle_type_id":"4","last_reported":1703758056,"current_range_meters":13200,"station_id":"ce4bgpp2rcd13ifvqc3g","pricing_plan_id":"free"},{"bike_id":"10bc5903-804a-447f-aaa4-04dd15785460","system_id":"levelo_inurba_marseille","lat":43.298433,"lon":5.362774,"is_reserved":false,"is_disabled":false,"rental_uris":{"android":"levelo://app?vid=10bc5903-804a-447f-aaa4-04dd15785460","ios":"levelo://app?vid=10bc5903-804a-447f-aaa4-04dd15785460"},"vehicle_type_id":"4","last_reported":1703758056,"current_range_meters":19600,"station_id":"ce4bgpp2rcd13ifvqc3g","pricing_plan_id":"free"},{"bike_id":"e7dbfddc-8bd2-4985-baa8-4dc27f721e5f","system_id":"levelo_inurba_marseille","lat":43.298433,"lon":5.362774,"is_reserved":false,"is_disabled":false,"rental_uris":{"android":"levelo://app?vid=e7dbfddc-8bd2-4985-baa8-4dc27f721e5f","ios":"levelo://app?vid=e7dbfddc-8bd2-4985-baa8-4dc27f721e5f"},"vehicle_type_id":"4","last_reported":1703758056,"current_range_meters":26000,"station_id":"ce4bgpp2rcd13ifvqc3g","pricing_plan_id":"free"},{"bike_id":"f53cc4ba-067c-45fe-9dde-a155a35063b5","system_id":"levelo_inurba_marseille","lat":43.298433,"lon":5.362774,"is_reserved":false,"is_disabled":false,"rental_uris":{"android":"levelo://app?vid=f53cc4ba-067c-45fe-9dde-a155a35063b5","ios":"levelo://app?vid=f53cc4ba-067c-45fe-9dde-a155a35063b5"},"vehicle_type_id":"4","last_reported":1703758056,"current_range_meters":26800,"station_id":"ce4bgpp2rcd13ifvqc3g","pricing_plan_id":"free"},{"bike_id":"643c7a75-863f-4c12-b647-f13a6073cdca","system_id":"levelo_inurba_marseille","lat":43.298433,"lon":5.362774,"is_reserved":false,"is_disabled":false,"rental_uris":{"android":"levelo://app?vid=643c7a75-863f-4c12-b647-f13a6073cdca","ios":"levelo://app?vid=643c7a75-863f-4c12-b647-f13a6073cdca"},"vehicle_type_id":"4","last_reported":1703758056,"current_range_meters":27600,"station_id":"ce4bgpp2rcd13ifvqc3g","pricing_plan_id":"free"},{"bike_id":"7f36e65d-ec26-4c0b-bfa8-090b7e29db92","system_id":"levelo_inurba_marseille","lat":43.299243,"lon":5.37481,"is_reserved":false,"is_disabled":false,"rental_uris":{"android":"levelo://app?vid=7f36e65d-ec26-4c0b-bfa8-090b7e29db92","ios":"levelo://app?vid=7f36e65d-ec26-4c0b-bfa8-090b7e29db92"},"vehicle_type_id":"4","last_reported":1703758056,"current_range_meters":26000,"station_id":"ce4bgjh2rcd13ifvqbg0","pricing_plan_id":"free"},{"bike_id":"8f14d897-fbcc-47dc-a4c2-e0ac864303be","system_id":"levelo_inurba_marseille","lat":43.297794,"lon":5.370888,"is_reserved":false,"is_disabled":false,"rental_uris":{"android":"levelo://app?vid=8f14d897-fbcc-47dc-a4c2-e0ac864303be","ios":"levelo://app?vid=8f14d897-fbcc-47dc-a4c2-e0ac864303be"},"vehicle_type_id":"4","last_reported":1703758056,"current_range_meters":28400,"station_id":"ce4bgop2rcd13ifvqc1g","pricing_plan_id":"free"},{"bike_id":"b80d7642-fe96-4085-a572-f27716682acd","system_id":"levelo_inurba_marseille","lat":43.322872,"lon":5.382756,"is_reserved":false,"is_disabled":false,"rental_uris":{"android":"levelo://app?vid=b80d7642-fe96-4085-a572-f27716682acd","ios":"levelo://app?vid=b80d7642-fe96-4085-a572-f27716682acd"},"vehicle_type_id":"4","last_reported":1703758056,"current_range_meters":15600,"station_id":"ce4bhr12rcd13ifvqhqg","pricing_plan_id":"free"},{"bike_id":"6d1471f8-bce9-466e-a589-4a37d3811250","system_id":"levelo_inurba_marseille","lat":43.322872,"lon":5.382756,"is_reserved":false,"is_disabled":false,"rental_uris":{"android":"levelo://app?vid=6d1471f8-bce9-466e-a589-4a37d3811250","ios":"levelo://app?vid=6d1471f8-bce9-466e-a589-4a37d3811250"},"vehicle_type_id":"4","last_reported":1703758056,"current_range_meters":31200,"station_id":"ce4bhr12rcd13ifvqhqg","pricing_plan_id":"free"},{"bike_id":"cada3c22-f541-4194-9be2-fadc3fe9e187","system_id":"levelo_inurba_marseille","lat":43.322872,"lon":5.382756,"is_reserved":false,"is_disabled":false,"rental_uris":{"android":"levelo://app?vid=cada3c22-f541-4194-9be2-fadc3fe9e187","ios":"levelo://app?vid=cada3c22-f541-4194-9be2-fadc3fe9e187"},"vehicle_type_id":"4","last_reported":1703758056,"current_range_meters":18000,"station_id":"ce4bhr12rcd13ifvqhqg","pricing_plan_id":"free"},{"bike_id":"0a0a41d2-3c00-48f6-882d-b27afb73fe78","system_id":"levelo_inurba_marseille","lat":43.322872,"lon":5.382756,"is_reserved":false,"is_disabled":false,"rental_uris":{"android":"levelo://app?vid=0a0a41d2-3c00-48f6-882d-b27afb73fe78","ios":"levelo://app?vid=0a0a41d2-3c00-48f6-882d-b27afb73fe78"},"vehicle_type_id":"4","last_reported":1703758056,"current_range_meters":29600,"station_id":"ce4bhr12rcd13ifvqhqg","pricing_plan_id":"free"},{"bike_id":"63961824-470b-4769-af8f-257f972165a7","system_id":"levelo_inurba_marseille","lat":43.32291,"lon":5.38274,"is_reserved":false,"is_disabled":false,"rental_uris":{"android":"levelo://app?vid=63961824-470b-4769-af8f-257f972165a7","ios":"levelo://app?vid=63961824-470b-4769-af8f-257f972165a7"},"vehicle_type_id":"4","last_reported":1703758056,"current_range_meters":8000,"station_id":"ce4bhr12rcd13ifvqhqg","pricing_plan_id":"free"},{"bike_id":"3270f28d-7b09-46cb-ba43-f40752fc3385","system_id":"levelo_inurba_marseille","lat":43.322872,"lon":5.382756,"is_reserved":false,"is_disabled":false,"rental_uris":{"android":"levelo://app?vid=3270f28d-7b09-46cb-ba43-f40752fc3385","ios":"levelo://app?vid=3270f28d-7b09-46cb-ba43-f40752fc3385"},"vehicle_type_id":"4","last_reported":1703758056,"current_range_meters":31200,"station_id":"ce4bhr12rcd13ifvqhqg","pricing_plan_id":"free"},{"bike_id":"6516e11b-ff9a-4979-b85a-a42584b5c933","system_id":"levelo_inurba_marseille","lat":43.32823,"lon":5.36695,"is_reserved":false,"is_disabled":false,"rental_uris":{"android":"levelo://app?vid=6516e11b-ff9a-4979-b85a-a42584b5c933","ios":"levelo://app?vid=6516e11b-ff9a-4979-b85a-a42584b5c933"},"vehicle_type_id":"4","last_reported":1703758056,"current_range_meters":24800,"station_id":"ce4bhs92rcd13ifvqi0g","pricing_plan_id":"free"},{"bike_id":"b30b3d1b-ef61-4776-bd7b-61c34fd8cc81","system_id":"levelo_inurba_marseille","lat":43.328234,"lon":5.366758,"is_reserved":false,"is_disabled":false,"rental_uris":{"android":"levelo://app?vid=b30b3d1b-ef61-4776-bd7b-61c34fd8cc81","ios":"levelo://app?vid=b30b3d1b-ef61-4776-bd7b-61c34fd8cc81"},"vehicle_type_id":"4","last_reported":1703758056,"current_range_meters":19200,"station_id":"ce4bhs92rcd13ifvqi0g","pricing_plan_id":"free"},{"bike_id":"639980c6-9f73-401a-b944-961e7482aee9","system_id":"levelo_inurba_marseille","lat":43.32824,"lon":5.36679,"is_reserved":false,"is_disabled":false,"rental_uris":{"android":"levelo://app?vid=639980c6-9f73-401a-b944-961e7482aee9","ios":"levelo://app?vid=639980c6-9f73-401a-b944-961e7482aee9"},"vehicle_type_id":"4","last_reported":1703758056,"current_range_meters":6800,"station_id":"ce4bhs92rcd13ifvqi0g","pricing_plan_id":"free"},{"bike_id":"ddee1e46-a8ad-4997-9dc5-136753741280","system_id":"levelo_inurba_marseille","lat":43.32825,"lon":5.36672,"is_reserved":false,"is_disabled":false,"rental_uris":{"android":"levelo://app?vid=ddee1e46-a8ad-4997-9dc5-136753741280","ios":"levelo://app?vid=ddee1e46-a8ad-4997-9dc5-136753741280"},"vehicle_type_id":"4","last_reported":1703758056,"current_range_meters":26800,"station_id":"ce4bhs92rcd13ifvqi0g","pricing_plan_id":"free"},{"bike_id":"1ea82e61-37ea-4b15-a6ef-01d29683b9fd","system_id":"levelo_inurba_marseille","lat":43.32827,"lon":5.36674,"is_reserved":false,"is_disabled":false,"rental_uris":{"android":"levelo://app?vid=1ea82e61-37ea-4b15-a6ef-01d29683b9fd","ios":"levelo://app?vid=1ea82e61-37ea-4b15-a6ef-01d29683b9fd"},"vehicle_type_id":"4","last_reported":1703758056,"current_range_meters":21600,"station_id":"ce4bhs92rcd13ifvqi0g","pricing_plan_id":"free"},{"bike_id":"5c89eee7-6e83-42b4-bd81-efdcf68f6666","system_id":"levelo_inurba_marseille","lat":43.328279,"lon":5.36682,"is_reserved":false,"is_disabled":false,"rental_uris":{"android":"levelo://app?vid=5c89eee7-6e83-42b4-bd81-efdcf68f6666","ios":"levelo://app?vid=5c89eee7-6e83-42b4-bd81-efdcf68f6666"},"vehicle_type_id":"4","last_reported":1703758056,"current_range_meters":28400,"station_id":"ce4bhs92rcd13ifvqi0g","pricing_plan_id":"free"},{"bike_id":"51714c4a-3132-4951-88ec-80e85fa125e8","system_id":"levelo_inurba_marseille","lat":43.32828,"lon":5.36683,"is_reserved":false,"is_disabled":false,"rental_uris":{"android":"levelo://app?vid=51714c4a-3132-4951-88ec-80e85fa125e8","ios":"levelo://app?vid=51714c4a-3132-4951-88ec-80e85fa125e8"},"vehicle_type_id":"4","last_reported":1703758056,"current_range_meters":19600,"station_id":"ce4bhs92rcd13ifvqi0g","pricing_plan_id":"free"},{"bike_id":"a677cd10-a09b-4b2e-bffd-45b05d2c9229","system_id":"levelo_inurba_marseille","lat":43.32828,"lon":5.36679,"is_reserved":false,"is_disabled":false,"rental_uris":{"android":"levelo://app?vid=a677cd10-a09b-4b2e-bffd-45b05d2c9229","ios":"levelo://app?vid=a677cd10-a09b-4b2e-bffd-45b05d2c9229"},"vehicle_type_id":"4","last_reported":1703758056,"current_range_meters":26400,"station_id":"ce4bhs92rcd13ifvqi0g","pricing_plan_id":"free"},{"bike_id":"de708f00-7118-4d7c-9021-d7dcbd798473","system_id":"levelo_inurba_marseille","lat":43.328371,"lon":5.366909,"is_reserved":false,"is_disabled":false,"rental_uris":{"android":"levelo://app?vid=de708f00-7118-4d7c-9021-d7dcbd798473","ios":"levelo://app?vid=de708f00-7118-4d7c-9021-d7dcbd798473"},"vehicle_type_id":"4","last_reported":1703758056,"current_range_meters":16800,"station_id":"ce4bhs92rcd13ifvqi0g","pricing_plan_id":"free"},{"bike_id":"ea7074d7-b7c9-4941-82c2-dff391bae9cb","system_id":"levelo_inurba_marseille","lat":43.32831,"lon":5.36675,"is_reserved":false,"is_disabled":false,"rental_uris":{"android":"levelo://app?vid=ea7074d7-b7c9-4941-82c2-dff391bae9cb","ios":"levelo://app?vid=ea7074d7-b7c9-4941-82c2-dff391bae9cb"},"vehicle_type_id":"4","last_reported":1703758056,"current_range_meters":16000,"station_id":"ce4bhs92rcd13ifvqi0g","pricing_plan_id":"free"},{"bike_id":"904f83aa-e9ab-401d-84c1-9edfed82b884","system_id":"levelo_inurba_marseille","lat":43.328371,"lon":5.366912,"is_reserved":false,"is_disabled":false,"rental_uris":{"android":"levelo://app?vid=904f83aa-e9ab-401d-84c1-9edfed82b884","ios":"levelo://app?vid=904f83aa-e9ab-401d-84c1-9edfed82b884"},"vehicle_type_id":"4","last_reported":1703758056,"current_range_meters":10400,"station_id":"ce4bhs92rcd13ifvqi0g","pricing_plan_id":"free"},{"bike_id":"a448ca86-2b35-41e1-89c4-32a99bab0563","system_id":"levelo_inurba_marseille","lat":43.328371,"lon":5.366912,"is_reserved":false,"is_disabled":false,"rental_uris":{"android":"levelo://app?vid=a448ca86-2b35-41e1-89c4-32a99bab0563","ios":"levelo://app?vid=a448ca86-2b35-41e1-89c4-32a99bab0563"},"vehicle_type_id":"4","last_reported":1703758056,"current_range_meters":24400,"station_id":"ce4bhs92rcd13ifvqi0g","pricing_plan_id":"free"},{"bike_id":"b33e79d7-85bd-413c-801b-bcd1df69d847","system_id":"levelo_inurba_marseille","lat":43.32832,"lon":5.36682,"is_reserved":false,"is_disabled":false,"rental_uris":{"android":"levelo://app?vid=b33e79d7-85bd-413c-801b-bcd1df69d847","ios":"levelo://app?vid=b33e79d7-85bd-413c-801b-bcd1df69d847"},"vehicle_type_id":"4","last_reported":1703758056,"current_range_meters":18000,"station_id":"ce4bhs92rcd13ifvqi0g","pricing_plan_id":"free"},{"bike_id":"6f67326a-1664-406f-9978-902e013e2357","system_id":"levelo_inurba_marseille","lat":43.32832,"lon":5.36679,"is_reserved":false,"is_disabled":false,"rental_uris":{"android":"levelo://app?vid=6f67326a-1664-406f-9978-902e013e2357","ios":"levelo://app?vid=6f67326a-1664-406f-9978-902e013e2357"},"vehicle_type_id":"4","last_reported":1703758056,"current_range_meters":24000,"station_id":"ce4bhs92rcd13ifvqi0g","pricing_plan_id":"free"},{"bike_id":"fe7eb8b7-e45e-47ca-96ad-f45898880af4","system_id":"levelo_inurba_marseille","lat":43.297163,"lon":5.365866,"is_reserved":false,"is_disabled":false,"rental_uris":{"android":"levelo://app?vid=fe7eb8b7-e45e-47ca-96ad-f45898880af4","ios":"levelo://app?vid=fe7eb8b7-e45e-47ca-96ad-f45898880af4"},"vehicle_type_id":"4","last_reported":1703758056,"current_range_meters":28800,"station_id":"ce4bgn12rcd13ifvqbt0","pricing_plan_id":"free"},{"bike_id":"97f0259d-bb4d-4961-b3ce-cf6db48d69e6","system_id":"levelo_inurba_marseille","lat":43.297163,"lon":5.365866,"is_reserved":false,"is_disabled":false,"rental_uris":{"android":"levelo://app?vid=97f0259d-bb4d-4961-b3ce-cf6db48d69e6","ios":"levelo://app?vid=97f0259d-bb4d-4961-b3ce-cf6db48d69e6"},"vehicle_type_id":"4","last_reported":1703758056,"current_range_meters":5200,"station_id":"ce4bgn12rcd13ifvqbt0","pricing_plan_id":"free"},{"bike_id":"7119845d-00aa-4d9f-be8c-fc97d41f1380","system_id":"levelo_inurba_marseille","lat":43.326104,"lon":5.37832,"is_reserved":false,"is_disabled":false,"rental_uris":{"android":"levelo://app?vid=7119845d-00aa-4d9f-be8c-fc97d41f1380","ios":"levelo://app?vid=7119845d-00aa-4d9f-be8c-fc97d41f1380"},"vehicle_type_id":"4","last_reported":1703758056,"current_range_meters":21600,"station_id":"","pricing_plan_id":"free"},{"bike_id":"59f2c11b-a230-4925-839e-bdb370c75a48","system_id":"levelo_inurba_marseille","lat":43.2968,"lon":5.37291,"is_reserved":false,"is_disabled":false,"rental_uris":{"android":"levelo://app?vid=59f2c11b-a230-4925-839e-bdb370c75a48","ios":"levelo://app?vid=59f2c11b-a230-4925-839e-bdb370c75a48"},"vehicle_type_id":"4","last_reported":1703758056,"current_range_meters":20400,"station_id":"ce4bgk12rcd13ifvqbj0","pricing_plan_id":"free"},{"bike_id":"01a54847-0665-4fe8-8950-ab70fda2cfc6","system_id":"levelo_inurba_marseille","lat":43.2968,"lon":5.37291,"is_reserved":false,"is_disabled":false,"rental_uris":{"android":"levelo://app?vid=01a54847-0665-4fe8-8950-ab70fda2cfc6","ios":"levelo://app?vid=01a54847-0665-4fe8-8950-ab70fda2cfc6"},"vehicle_type_id":"4","last_reported":1703758056,"current_range_meters":17200,"station_id":"ce4bgk12rcd13ifvqbj0","pricing_plan_id":"free"},{"bike_id":"921b424d-ad0d-4c7a-9d74-66e3a49bfa19","system_id":"levelo_inurba_marseille","lat":43.32934,"lon":5.36612,"is_reserved":false,"is_disabled":false,"rental_uris":{"android":"levelo://app?vid=921b424d-ad0d-4c7a-9d74-66e3a49bfa19","ios":"levelo://app?vid=921b424d-ad0d-4c7a-9d74-66e3a49bfa19"},"vehicle_type_id":"4","last_reported":1703758056,"current_range_meters":14000,"station_id":"","pricing_plan_id":"free"},{"bike_id":"3e5a2a2b-2ee5-4de5-8e61-35198a6e4521","system_id":"levelo_inurba_marseille","lat":43.29573,"lon":5.367355,"is_reserved":false,"is_disabled":false,"rental_uris":{"android":"levelo://app?vid=3e5a2a2b-2ee5-4de5-8e61-35198a6e4521","ios":"levelo://app?vid=3e5a2a2b-2ee5-4de5-8e61-35198a6e4521"},"vehicle_type_id":"4","last_reported":1703758056,"current_range_meters":31200,"station_id":"ce4bgph2rcd13ifvqc2g","pricing_plan_id":"free"},{"bike_id":"8e647c12-ffe8-44bc-a95a-a27633a2efbb","system_id":"levelo_inurba_marseille","lat":43.296935,"lon":5.376544,"is_reserved":false,"is_disabled":false,"rental_uris":{"android":"levelo://app?vid=8e647c12-ffe8-44bc-a95a-a27633a2efbb","ios":"levelo://app?vid=8e647c12-ffe8-44bc-a95a-a27633a2efbb"},"vehicle_type_id":"4","last_reported":1703758056,"current_range_meters":31200,"station_id":"ce4bgkh2rcd13ifvqbl0","pricing_plan_id":"free"},{"bike_id":"276dc922-e39e-42ab-8cad-38b2a44a41a2","system_id":"levelo_inurba_marseille","lat":43.296921,"lon":5.376579,"is_reserved":false,"is_disabled":false,"rental_uris":{"android":"levelo://app?vid=276dc922-e39e-42ab-8cad-38b2a44a41a2","ios":"levelo://app?vid=276dc922-e39e-42ab-8cad-38b2a44a41a2"},"vehicle_type_id":"4","last_reported":1703758056,"current_range_meters":26800,"station_id":"ce4bgkh2rcd13ifvqbl0","pricing_plan_id":"free"},{"bike_id":"a5648590-7f67-4abf-a548-b0d3a6c27c51","system_id":"levelo_inurba_marseille","lat":43.295748,"lon":5.37522,"is_reserved":false,"is_disabled":false,"rental_uris":{"android":"levelo://app?vid=a5648590-7f67-4abf-a548-b0d3a6c27c51","ios":"levelo://app?vid=a5648590-7f67-4abf-a548-b0d3a6c27c51"},"vehicle_type_id":"4","last_reported":1703758056,"current_range_meters":28000,"station_id":"ce4bgh92rcd13ifvqb50","pricing_plan_id":"free"},{"bike_id":"c283a67b-8f65-4783-80db-72c7620eb8a7","system_id":"levelo_inurba_marseille","lat":43.295748,"lon":5.37522,"is_reserved":false,"is_disabled":false,"rental_uris":{"android":"levelo://app?vid=c283a67b-8f65-4783-80db-72c7620eb8a7","ios":"levelo://app?vid=c283a67b-8f65-4783-80db-72c7620eb8a7"},"vehicle_type_id":"4","last_reported":1703758056,"current_range_meters":24400,"station_id":"ce4bgh92rcd13ifvqb50","pricing_plan_id":"free"},{"bike_id":"4ae10481-86e1-4725-a75a-91f58e82e4e0","system_id":"levelo_inurba_marseille","lat":43.295748,"lon":5.37522,"is_reserved":false,"is_disabled":false,"rental_uris":{"android":"levelo://app?vid=4ae10481-86e1-4725-a75a-91f58e82e4e0","ios":"levelo://app?vid=4ae10481-86e1-4725-a75a-91f58e82e4e0"},"vehicle_type_id":"4","last_reported":1703758056,"current_range_meters":25200,"station_id":"ce4bgh92rcd13ifvqb50","pricing_plan_id":"free"},{"bike_id":"1e25ac78-0690-49f9-9c3e-a9529bbd9f99","system_id":"levelo_inurba_marseille","lat":43.295748,"lon":5.37522,"is_reserved":false,"is_disabled":false,"rental_uris":{"android":"levelo://app?vid=1e25ac78-0690-49f9-9c3e-a9529bbd9f99","ios":"levelo://app?vid=1e25ac78-0690-49f9-9c3e-a9529bbd9f99"},"vehicle_type_id":"4","last_reported":1703758056,"current_range_meters":16800,"station_id":"ce4bgh92rcd13ifvqb50","pricing_plan_id":"free"},{"bike_id":"95b5c742-96ca-4b6f-8303-19128ef660fb","system_id":"levelo_inurba_marseille","lat":43.296263,"lon":5.377094,"is_reserved":false,"is_disabled":false,"rental_uris":{"android":"levelo://app?vid=95b5c742-96ca-4b6f-8303-19128ef660fb","ios":"levelo://app?vid=95b5c742-96ca-4b6f-8303-19128ef660fb"},"vehicle_type_id":"4","last_reported":1703758056,"current_range_meters":26400,"station_id":"ce4bgi92rcd13ifvqb90","pricing_plan_id":"free"},{"bike_id":"b5d27c78-fbf2-43b6-acb2-2d4ffd8837c9","system_id":"levelo_inurba_marseille","lat":43.296263,"lon":5.377094,"is_reserved":false,"is_disabled":false,"rental_uris":{"android":"levelo://app?vid=b5d27c78-fbf2-43b6-acb2-2d4ffd8837c9","ios":"levelo://app?vid=b5d27c78-fbf2-43b6-acb2-2d4ffd8837c9"},"vehicle_type_id":"4","last_reported":1703758056,"current_range_meters":29600,"station_id":"ce4bgi92rcd13ifvqb90","pricing_plan_id":"free"},{"bike_id":"7ec9fa05-2caa-4e2e-b5e1-c0d39b78be2e","system_id":"levelo_inurba_marseille","lat":43.304274,"lon":5.388873,"is_reserved":false,"is_disabled":false,"rental_uris":{"android":"levelo://app?vid=7ec9fa05-2caa-4e2e-b5e1-c0d39b78be2e","ios":"levelo://app?vid=7ec9fa05-2caa-4e2e-b5e1-c0d39b78be2e"},"vehicle_type_id":"4","last_reported":1703758056,"current_range_meters":26800,"station_id":"ce4bgk12rcd13ifvqbi0","pricing_plan_id":"free"},{"bike_id":"7e756e5d-066a-4c78-b25f-3ee0fc890381","system_id":"levelo_inurba_marseille","lat":43.304278,"lon":5.388868,"is_reserved":false,"is_disabled":false,"rental_uris":{"android":"levelo://app?vid=7e756e5d-066a-4c78-b25f-3ee0fc890381","ios":"levelo://app?vid=7e756e5d-066a-4c78-b25f-3ee0fc890381"},"vehicle_type_id":"4","last_reported":1703758056,"current_range_meters":25600,"station_id":"ce4bgk12rcd13ifvqbi0","pricing_plan_id":"free"},{"bike_id":"17f84f91-f02c-4712-b077-3dc093112b69","system_id":"levelo_inurba_marseille","lat":43.296263,"lon":5.377094,"is_reserved":false,"is_disabled":false,"rental_uris":{"android":"levelo://app?vid=17f84f91-f02c-4712-b077-3dc093112b69","ios":"levelo://app?vid=17f84f91-f02c-4712-b077-3dc093112b69"},"vehicle_type_id":"4","last_reported":1703758056,"current_range_meters":21200,"station_id":"ce4bgi92rcd13ifvqb90","pricing_plan_id":"free"},{"bike_id":"e7eec175-877c-4126-a970-d18f2ee0b2bc","system_id":"levelo_inurba_marseille","lat":43.296263,"lon":5.377094,"is_reserved":false,"is_disabled":false,"rental_uris":{"android":"levelo://app?vid=e7eec175-877c-4126-a970-d18f2ee0b2bc","ios":"levelo://app?vid=e7eec175-877c-4126-a970-d18f2ee0b2bc"},"vehicle_type_id":"4","last_reported":1703758056,"current_range_meters":22000,"station_id":"ce4bgi92rcd13ifvqb90","pricing_plan_id":"free"},{"bike_id":"f20bc094-ec76-45ff-b507-3c4d36510e0d","system_id":"levelo_inurba_marseille","lat":43.296277,"lon":5.377108,"is_reserved":false,"is_disabled":false,"rental_uris":{"android":"levelo://app?vid=f20bc094-ec76-45ff-b507-3c4d36510e0d","ios":"levelo://app?vid=f20bc094-ec76-45ff-b507-3c4d36510e0d"},"vehicle_type_id":"4","last_reported":1703758056,"current_range_meters":23600,"station_id":"ce4bgi92rcd13ifvqb90","pricing_plan_id":"free"},{"bike_id":"45627f66-b36a-4283-a571-8e59371a3483","system_id":"levelo_inurba_marseille","lat":43.296277,"lon":5.377108,"is_reserved":false,"is_disabled":false,"rental_uris":{"android":"levelo://app?vid=45627f66-b36a-4283-a571-8e59371a3483","ios":"levelo://app?vid=45627f66-b36a-4283-a571-8e59371a3483"},"vehicle_type_id":"4","last_reported":1703758056,"current_range_meters":24400,"station_id":"ce4bgi92rcd13ifvqb90","pricing_plan_id":"free"},{"bike_id":"5c9c1254-0816-479a-8692-968589a70ba1","system_id":"levelo_inurba_marseille","lat":43.295279,"lon":5.375048,"is_reserved":false,"is_disabled":false,"rental_uris":{"android":"levelo://app?vid=5c9c1254-0816-479a-8692-968589a70ba1","ios":"levelo://app?vid=5c9c1254-0816-479a-8692-968589a70ba1"},"vehicle_type_id":"4","last_reported":1703758056,"current_range_meters":30800,"station_id":"ce4bgkp2rcd13ifvqbmg","pricing_plan_id":"free"},{"bike_id":"f5af24ea-2440-4c1a-9c6a-d5072b617728","system_id":"levelo_inurba_marseille","lat":43.32367,"lon":5.388836,"is_reserved":false,"is_disabled":false,"rental_uris":{"android":"levelo://app?vid=f5af24ea-2440-4c1a-9c6a-d5072b617728","ios":"levelo://app?vid=f5af24ea-2440-4c1a-9c6a-d5072b617728"},"vehicle_type_id":"4","last_reported":1703758056,"current_range_meters":20800,"station_id":"ce4bhqp2rcd13ifvqhog","pricing_plan_id":"free"},{"bike_id":"5b7f9489-1b2f-4ded-8453-fef3b30f43ec","system_id":"levelo_inurba_marseille","lat":43.32369,"lon":5.38883,"is_reserved":false,"is_disabled":false,"rental_uris":{"android":"levelo://app?vid=5b7f9489-1b2f-4ded-8453-fef3b30f43ec","ios":"levelo://app?vid=5b7f9489-1b2f-4ded-8453-fef3b30f43ec"},"vehicle_type_id":"4","last_reported":1703758056,"current_range_meters":29200,"station_id":"ce4bhqp2rcd13ifvqhog","pricing_plan_id":"free"},{"bike_id":"f4eaa971-7fd7-4cdf-bf0d-ab76025496ea","system_id":"levelo_inurba_marseille","lat":43.32367,"lon":5.388836,"is_reserved":false,"is_disabled":false,"rental_uris":{"android":"levelo://app?vid=f4eaa971-7fd7-4cdf-bf0d-ab76025496ea","ios":"levelo://app?vid=f4eaa971-7fd7-4cdf-bf0d-ab76025496ea"},"vehicle_type_id":"4","last_reported":1703758056,"current_range_meters":29600,"station_id":"ce4bhqp2rcd13ifvqhog","pricing_plan_id":"free"},{"bike_id":"edc571ac-79f5-429a-89f8-86fa7ab8f6ba","system_id":"levelo_inurba_marseille","lat":43.323713,"lon":5.389285,"is_reserved":false,"is_disabled":false,"rental_uris":{"android":"levelo://app?vid=edc571ac-79f5-429a-89f8-86fa7ab8f6ba","ios":"levelo://app?vid=edc571ac-79f5-429a-89f8-86fa7ab8f6ba"},"vehicle_type_id":"4","last_reported":1703758056,"current_range_meters":18800,"station_id":"ce4bhqp2rcd13ifvqhog","pricing_plan_id":"free"},{"bike_id":"e4987cc8-473a-40bb-84b8-75b90ba12107","system_id":"levelo_inurba_marseille","lat":43.29602,"lon":5.381084,"is_reserved":false,"is_disabled":false,"rental_uris":{"android":"levelo://app?vid=e4987cc8-473a-40bb-84b8-75b90ba12107","ios":"levelo://app?vid=e4987cc8-473a-40bb-84b8-75b90ba12107"},"vehicle_type_id":"4","last_reported":1703758056,"current_range_meters":28400,"station_id":"ce4bgl12rcd13ifvqbo0","pricing_plan_id":"free"},{"bike_id":"e2d85f20-e372-4bd6-b3e1-5da8fe2b05ef","system_id":"levelo_inurba_marseille","lat":43.293259,"lon":5.371586,"is_reserved":false,"is_disabled":false,"rental_uris":{"android":"levelo://app?vid=e2d85f20-e372-4bd6-b3e1-5da8fe2b05ef","ios":"levelo://app?vid=e2d85f20-e372-4bd6-b3e1-5da8fe2b05ef"},"vehicle_type_id":"4","last_reported":1703758056,"current_range_meters":31200,"station_id":"ce4bgh92rcd13ifvqb40","pricing_plan_id":"free"},{"bike_id":"9d30113f-584f-4b16-9bcb-0c99e8b4abb7","system_id":"levelo_inurba_marseille","lat":43.293259,"lon":5.371586,"is_reserved":false,"is_disabled":false,"rental_uris":{"android":"levelo://app?vid=9d30113f-584f-4b16-9bcb-0c99e8b4abb7","ios":"levelo://app?vid=9d30113f-584f-4b16-9bcb-0c99e8b4abb7"},"vehicle_type_id":"4","last_reported":1703758056,"current_range_meters":22800,"station_id":"ce4bgh92rcd13ifvqb40","pricing_plan_id":"free"},{"bike_id":"7c549a9a-6082-43be-be31-4cbd66357523","system_id":"levelo_inurba_marseille","lat":43.293259,"lon":5.371586,"is_reserved":false,"is_disabled":false,"rental_uris":{"android":"levelo://app?vid=7c549a9a-6082-43be-be31-4cbd66357523","ios":"levelo://app?vid=7c549a9a-6082-43be-be31-4cbd66357523"},"vehicle_type_id":"4","last_reported":1703758056,"current_range_meters":30800,"station_id":"ce4bgh92rcd13ifvqb40","pricing_plan_id":"free"},{"bike_id":"717f2543-553e-4222-b129-971f2819f9df","system_id":"levelo_inurba_marseille","lat":43.293009,"lon":5.374584,"is_reserved":false,"is_disabled":false,"rental_uris":{"android":"levelo://app?vid=717f2543-553e-4222-b129-971f2819f9df","ios":"levelo://app?vid=717f2543-553e-4222-b129-971f2819f9df"},"vehicle_type_id":"4","last_reported":1703758056,"current_range_meters":22800,"station_id":"ce4bgi12rcd13ifvqb70","pricing_plan_id":"free"},{"bike_id":"3988bbd2-fe28-457c-8d0d-45737cccdea6","system_id":"levelo_inurba_marseille","lat":43.293009,"lon":5.374584,"is_reserved":false,"is_disabled":false,"rental_uris":{"android":"levelo://app?vid=3988bbd2-fe28-457c-8d0d-45737cccdea6","ios":"levelo://app?vid=3988bbd2-fe28-457c-8d0d-45737cccdea6"},"vehicle_type_id":"4","last_reported":1703758056,"current_range_meters":31200,"station_id":"ce4bgi12rcd13ifvqb70","pricing_plan_id":"free"},{"bike_id":"f7f4cce2-c66e-4a12-8eed-e57430844bd3","system_id":"levelo_inurba_marseille","lat":43.303002,"lon":5.392142,"is_reserved":false,"is_disabled":false,"rental_uris":{"android":"levelo://app?vid=f7f4cce2-c66e-4a12-8eed-e57430844bd3","ios":"levelo://app?vid=f7f4cce2-c66e-4a12-8eed-e57430844bd3"},"vehicle_type_id":"4","last_reported":1703758056,"current_range_meters":21200,"station_id":"ce4bgkh2rcd13ifvqbk0","pricing_plan_id":"free"},{"bike_id":"cb74702b-7dd8-4ed2-866f-cadea2c76ff0","system_id":"levelo_inurba_marseille","lat":43.2936,"lon":5.37835,"is_reserved":false,"is_disabled":false,"rental_uris":{"android":"levelo://app?vid=cb74702b-7dd8-4ed2-866f-cadea2c76ff0","ios":"levelo://app?vid=cb74702b-7dd8-4ed2-866f-cadea2c76ff0"},"vehicle_type_id":"4","last_reported":1703758056,"current_range_meters":23600,"station_id":"ce4bgjh2rcd13ifvqbf0","pricing_plan_id":"free"},{"bike_id":"fe49cec4-b397-4b84-bbc9-295f96604431","system_id":"levelo_inurba_marseille","lat":43.2936,"lon":5.37835,"is_reserved":false,"is_disabled":false,"rental_uris":{"android":"levelo://app?vid=fe49cec4-b397-4b84-bbc9-295f96604431","ios":"levelo://app?vid=fe49cec4-b397-4b84-bbc9-295f96604431"},"vehicle_type_id":"4","last_reported":1703758056,"current_range_meters":28800,"station_id":"ce4bgjh2rcd13ifvqbf0","pricing_plan_id":"free"},{"bike_id":"698d4bf3-533d-4560-a632-2b1cf7dc0783","system_id":"levelo_inurba_marseille","lat":43.300852,"lon":5.390859,"is_reserved":false,"is_disabled":false,"rental_uris":{"android":"levelo://app?vid=698d4bf3-533d-4560-a632-2b1cf7dc0783","ios":"levelo://app?vid=698d4bf3-533d-4560-a632-2b1cf7dc0783"},"vehicle_type_id":"4","last_reported":1703758056,"current_range_meters":30000,"station_id":"ce4bh192rcd13ifvqdb0","pricing_plan_id":"free"},{"bike_id":"b5a8e646-98c5-4502-8385-372897731517","system_id":"levelo_inurba_marseille","lat":43.292311,"lon":5.360731,"is_reserved":false,"is_disabled":false,"rental_uris":{"android":"levelo://app?vid=b5a8e646-98c5-4502-8385-372897731517","ios":"levelo://app?vid=b5a8e646-98c5-4502-8385-372897731517"},"vehicle_type_id":"4","last_reported":1703758056,"current_range_meters":29600,"station_id":"ce4bhbh2rcd13ifvqeqg","pricing_plan_id":"free"},{"bike_id":"e8d00db0-b2da-4118-be49-2623886776c9","system_id":"levelo_inurba_marseille","lat":43.292682,"lon":5.376178,"is_reserved":false,"is_disabled":false,"rental_uris":{"android":"levelo://app?vid=e8d00db0-b2da-4118-be49-2623886776c9","ios":"levelo://app?vid=e8d00db0-b2da-4118-be49-2623886776c9"},"vehicle_type_id":"4","last_reported":1703758056,"current_range_meters":24800,"station_id":"","pricing_plan_id":"free"},{"bike_id":"f256d401-b220-4f7c-a233-f20fcd9b1c34","system_id":"levelo_inurba_marseille","lat":43.291671,"lon":5.371575,"is_reserved":false,"is_disabled":false,"rental_uris":{"android":"levelo://app?vid=f256d401-b220-4f7c-a233-f20fcd9b1c34","ios":"levelo://app?vid=f256d401-b220-4f7c-a233-f20fcd9b1c34"},"vehicle_type_id":"4","last_reported":1703758056,"current_range_meters":26400,"station_id":"ce4bha92rcd13ifvqeh0","pricing_plan_id":"free"},{"bike_id":"c1db25f5-5d61-4b4c-92f6-80715b1de172","system_id":"levelo_inurba_marseille","lat":43.292614,"lon":5.376219,"is_reserved":false,"is_disabled":false,"rental_uris":{"android":"levelo://app?vid=c1db25f5-5d61-4b4c-92f6-80715b1de172","ios":"levelo://app?vid=c1db25f5-5d61-4b4c-92f6-80715b1de172"},"vehicle_type_id":"4","last_reported":1703758056,"current_range_meters":24800,"station_id":"","pricing_plan_id":"free"},{"bike_id":"743ae948-9016-4915-a693-e4388d89be48","system_id":"levelo_inurba_marseille","lat":43.291675,"lon":5.371583,"is_reserved":false,"is_disabled":false,"rental_uris":{"android":"levelo://app?vid=743ae948-9016-4915-a693-e4388d89be48","ios":"levelo://app?vid=743ae948-9016-4915-a693-e4388d89be48"},"vehicle_type_id":"4","last_reported":1703758056,"current_range_meters":30000,"station_id":"ce4bha92rcd13ifvqeh0","pricing_plan_id":"free"},{"bike_id":"42304f79-5140-4757-8e7c-d8057bca2cb0","system_id":"levelo_inurba_marseille","lat":43.291671,"lon":5.371575,"is_reserved":false,"is_disabled":false,"rental_uris":{"android":"levelo://app?vid=42304f79-5140-4757-8e7c-d8057bca2cb0","ios":"levelo://app?vid=42304f79-5140-4757-8e7c-d8057bca2cb0"},"vehicle_type_id":"4","last_reported":1703758056,"current_range_meters":25600,"station_id":"ce4bha92rcd13ifvqeh0","pricing_plan_id":"free"},{"bike_id":"da0eed94-9481-425f-983b-d7dcd05e44d7","system_id":"levelo_inurba_marseille","lat":43.29869,"lon":5.38906,"is_reserved":false,"is_disabled":false,"rental_uris":{"android":"levelo://app?vid=da0eed94-9481-425f-983b-d7dcd05e44d7","ios":"levelo://app?vid=da0eed94-9481-425f-983b-d7dcd05e44d7"},"vehicle_type_id":"4","last_reported":1703758056,"current_range_meters":13600,"station_id":"","pricing_plan_id":"free"},{"bike_id":"9f8f0848-1140-4d4f-9ece-f465ab138af5","system_id":"levelo_inurba_marseille","lat":43.313291,"lon":5.396838,"is_reserved":false,"is_disabled":false,"rental_uris":{"android":"levelo://app?vid=9f8f0848-1140-4d4f-9ece-f465ab138af5","ios":"levelo://app?vid=9f8f0848-1140-4d4f-9ece-f465ab138af5"},"vehicle_type_id":"4","last_reported":1703758056,"current_range_meters":20000,"station_id":"ce4bgvp2rcd13ifvqcu0","pricing_plan_id":"free"},{"bike_id":"d935b4ff-886c-4935-9452-31aabed160c4","system_id":"levelo_inurba_marseille","lat":43.313291,"lon":5.396838,"is_reserved":false,"is_disabled":false,"rental_uris":{"android":"levelo://app?vid=d935b4ff-886c-4935-9452-31aabed160c4","ios":"levelo://app?vid=d935b4ff-886c-4935-9452-31aabed160c4"},"vehicle_type_id":"4","last_reported":1703758056,"current_range_meters":28800,"station_id":"ce4bgvp2rcd13ifvqcu0","pricing_plan_id":"free"},{"bike_id":"41203a36-5300-4bd5-8ace-b0bcdff6d885","system_id":"levelo_inurba_marseille","lat":43.302008,"lon":5.394694,"is_reserved":false,"is_disabled":false,"rental_uris":{"android":"levelo://app?vid=41203a36-5300-4bd5-8ace-b0bcdff6d885","ios":"levelo://app?vid=41203a36-5300-4bd5-8ace-b0bcdff6d885"},"vehicle_type_id":"4","last_reported":1703758056,"current_range_meters":29600,"station_id":"ce4bh0p2rcd13ifvqd70","pricing_plan_id":"free"},{"bike_id":"104d34b6-03c4-4208-86b2-8d61903fc0f1","system_id":"levelo_inurba_marseille","lat":43.290327,"lon":5.375711,"is_reserved":false,"is_disabled":false,"rental_uris":{"android":"levelo://app?vid=104d34b6-03c4-4208-86b2-8d61903fc0f1","ios":"levelo://app?vid=104d34b6-03c4-4208-86b2-8d61903fc0f1"},"vehicle_type_id":"4","last_reported":1703758056,"current_range_meters":28800,"station_id":"ce4bh692rcd13ifvqe90","pricing_plan_id":"free"},{"bike_id":"8d653779-5636-40cc-86a3-b3b01429b8fb","system_id":"levelo_inurba_marseille","lat":43.289184,"lon":5.366408,"is_reserved":false,"is_disabled":false,"rental_uris":{"android":"levelo://app?vid=8d653779-5636-40cc-86a3-b3b01429b8fb","ios":"levelo://app?vid=8d653779-5636-40cc-86a3-b3b01429b8fb"},"vehicle_type_id":"4","last_reported":1703758056,"current_range_meters":27600,"station_id":"ce4bhap2rcd13ifvqek0","pricing_plan_id":"free"},{"bike_id":"93be58db-acbb-432d-9f18-55172b117205","system_id":"levelo_inurba_marseille","lat":43.290327,"lon":5.375711,"is_reserved":false,"is_disabled":false,"rental_uris":{"android":"levelo://app?vid=93be58db-acbb-432d-9f18-55172b117205","ios":"levelo://app?vid=93be58db-acbb-432d-9f18-55172b117205"},"vehicle_type_id":"4","last_reported":1703758056,"current_range_meters":30800,"station_id":"ce4bh692rcd13ifvqe90","pricing_plan_id":"free"},{"bike_id":"2f41fe99-f02f-4251-b15d-009393d7d361","system_id":"levelo_inurba_marseille","lat":43.289184,"lon":5.366408,"is_reserved":false,"is_disabled":false,"rental_uris":{"android":"levelo://app?vid=2f41fe99-f02f-4251-b15d-009393d7d361","ios":"levelo://app?vid=2f41fe99-f02f-4251-b15d-009393d7d361"},"vehicle_type_id":"4","last_reported":1703758056,"current_range_meters":31600,"station_id":"ce4bhap2rcd13ifvqek0","pricing_plan_id":"free"},{"bike_id":"f994d1d4-3503-4be2-9bad-2063a00ba030","system_id":"levelo_inurba_marseille","lat":43.304296,"lon":5.397513,"is_reserved":false,"is_disabled":false,"rental_uris":{"android":"levelo://app?vid=f994d1d4-3503-4be2-9bad-2063a00ba030","ios":"levelo://app?vid=f994d1d4-3503-4be2-9bad-2063a00ba030"},"vehicle_type_id":"4","last_reported":1703758056,"current_range_meters":29200,"station_id":"ce4bh092rcd13ifvqd20","pricing_plan_id":"free"},{"bike_id":"a45ed218-c92d-4ee4-acc0-3cc950d1a453","system_id":"levelo_inurba_marseille","lat":43.304296,"lon":5.397513,"is_reserved":false,"is_disabled":false,"rental_uris":{"android":"levelo://app?vid=a45ed218-c92d-4ee4-acc0-3cc950d1a453","ios":"levelo://app?vid=a45ed218-c92d-4ee4-acc0-3cc950d1a453"},"vehicle_type_id":"4","last_reported":1703758056,"current_range_meters":30000,"station_id":"ce4bh092rcd13ifvqd20","pricing_plan_id":"free"},{"bike_id":"b71e943f-bf6c-413d-a883-9c4b7c98319a","system_id":"levelo_inurba_marseille","lat":43.290104,"lon":5.356111,"is_reserved":false,"is_disabled":false,"rental_uris":{"android":"levelo://app?vid=b71e943f-bf6c-413d-a883-9c4b7c98319a","ios":"levelo://app?vid=b71e943f-bf6c-413d-a883-9c4b7c98319a"},"vehicle_type_id":"4","last_reported":1703758056,"current_range_meters":30000,"station_id":"ce4bhb92rcd13ifvqen0","pricing_plan_id":"free"},{"bike_id":"69ea6a2a-c6f7-4b0a-aa90-5f1fda1f1855","system_id":"levelo_inurba_marseille","lat":43.290995,"lon":5.381361,"is_reserved":false,"is_disabled":false,"rental_uris":{"android":"levelo://app?vid=69ea6a2a-c6f7-4b0a-aa90-5f1fda1f1855","ios":"levelo://app?vid=69ea6a2a-c6f7-4b0a-aa90-5f1fda1f1855"},"vehicle_type_id":"4","last_reported":1703758056,"current_range_meters":24400,"station_id":"ce4bh512rcd13ifvqe2g","pricing_plan_id":"free"},{"bike_id":"d0d4943c-6985-42cb-9598-a93f99ea0b8f","system_id":"levelo_inurba_marseille","lat":43.290995,"lon":5.381361,"is_reserved":false,"is_disabled":false,"rental_uris":{"android":"levelo://app?vid=d0d4943c-6985-42cb-9598-a93f99ea0b8f","ios":"levelo://app?vid=d0d4943c-6985-42cb-9598-a93f99ea0b8f"},"vehicle_type_id":"4","last_reported":1703758056,"current_range_meters":28000,"station_id":"ce4bh512rcd13ifvqe2g","pricing_plan_id":"free"},{"bike_id":"51466ba7-a928-43a2-ae7d-6b0784ec14ab","system_id":"levelo_inurba_marseille","lat":43.33017,"lon":5.39042,"is_reserved":false,"is_disabled":false,"rental_uris":{"android":"levelo://app?vid=51466ba7-a928-43a2-ae7d-6b0784ec14ab","ios":"levelo://app?vid=51466ba7-a928-43a2-ae7d-6b0784ec14ab"},"vehicle_type_id":"4","last_reported":1703758056,"current_range_meters":3600,"station_id":"","pricing_plan_id":"free"},{"bike_id":"495faf64-a935-4c6e-b77f-2b296d14493a","system_id":"levelo_inurba_marseille","lat":43.331017,"lon":5.389194,"is_reserved":false,"is_disabled":false,"rental_uris":{"android":"levelo://app?vid=495faf64-a935-4c6e-b77f-2b296d14493a","ios":"levelo://app?vid=495faf64-a935-4c6e-b77f-2b296d14493a"},"vehicle_type_id":"4","last_reported":1703758056,"current_range_meters":12400,"station_id":"","pricing_plan_id":"free"},{"bike_id":"9f43ff55-d55b-4aa7-92bc-78e21b17b1eb","system_id":"levelo_inurba_marseille","lat":43.297815,"lon":5.393548,"is_reserved":false,"is_disabled":false,"rental_uris":{"android":"levelo://app?vid=9f43ff55-d55b-4aa7-92bc-78e21b17b1eb","ios":"levelo://app?vid=9f43ff55-d55b-4aa7-92bc-78e21b17b1eb"},"vehicle_type_id":"4","last_reported":1703758056,"current_range_meters":31200,"station_id":"chh1huq6cuj3fo74tm60","pricing_plan_id":"free"},{"bike_id":"e7e5b367-b928-4b3e-b05f-87b6b3716e8c","system_id":"levelo_inurba_marseille","lat":43.33019,"lon":5.39044,"is_reserved":false,"is_disabled":false,"rental_uris":{"android":"levelo://app?vid=e7e5b367-b928-4b3e-b05f-87b6b3716e8c","ios":"levelo://app?vid=e7e5b367-b928-4b3e-b05f-87b6b3716e8c"},"vehicle_type_id":"4","last_reported":1703758056,"current_range_meters":29200,"station_id":"","pricing_plan_id":"free"},{"bike_id":"da82727f-5090-4dcc-9a39-e49701b0afae","system_id":"levelo_inurba_marseille","lat":43.330442,"lon":5.389148,"is_reserved":false,"is_disabled":false,"rental_uris":{"android":"levelo://app?vid=da82727f-5090-4dcc-9a39-e49701b0afae","ios":"levelo://app?vid=da82727f-5090-4dcc-9a39-e49701b0afae"},"vehicle_type_id":"4","last_reported":1703758056,"current_range_meters":12400,"station_id":"ce4bhr92rcd13ifvqhrg","pricing_plan_id":"free"},{"bike_id":"370cccf7-c9ba-46c2-819b-c8e8cacc4c21","system_id":"levelo_inurba_marseille","lat":43.33145,"lon":5.3893,"is_reserved":false,"is_disabled":false,"rental_uris":{"android":"levelo://app?vid=370cccf7-c9ba-46c2-819b-c8e8cacc4c21","ios":"levelo://app?vid=370cccf7-c9ba-46c2-819b-c8e8cacc4c21"},"vehicle_type_id":"4","last_reported":1703758056,"current_range_meters":16800,"station_id":"","pricing_plan_id":"free"},{"bike_id":"80262a22-171c-437a-b7f9-919d5b10b4a1","system_id":"levelo_inurba_marseille","lat":43.28856,"lon":5.358371,"is_reserved":false,"is_disabled":false,"rental_uris":{"android":"levelo://app?vid=80262a22-171c-437a-b7f9-919d5b10b4a1","ios":"levelo://app?vid=80262a22-171c-437a-b7f9-919d5b10b4a1"},"vehicle_type_id":"4","last_reported":1703758056,"current_range_meters":4000,"station_id":"ce4bhb12rcd13ifvqem0","pricing_plan_id":"free"},{"bike_id":"9417c441-7777-40c8-ad75-77e9adc86d02","system_id":"levelo_inurba_marseille","lat":43.28856,"lon":5.358371,"is_reserved":false,"is_disabled":false,"rental_uris":{"android":"levelo://app?vid=9417c441-7777-40c8-ad75-77e9adc86d02","ios":"levelo://app?vid=9417c441-7777-40c8-ad75-77e9adc86d02"},"vehicle_type_id":"4","last_reported":1703758056,"current_range_meters":28000,"station_id":"ce4bhb12rcd13ifvqem0","pricing_plan_id":"free"},{"bike_id":"b2e80ec0-adcb-4869-ad8a-6557cde82cc2","system_id":"levelo_inurba_marseille","lat":43.312609,"lon":5.401662,"is_reserved":false,"is_disabled":false,"rental_uris":{"android":"levelo://app?vid=b2e80ec0-adcb-4869-ad8a-6557cde82cc2","ios":"levelo://app?vid=b2e80ec0-adcb-4869-ad8a-6557cde82cc2"},"vehicle_type_id":"4","last_reported":1703758056,"current_range_meters":30800,"station_id":"ce4bh092rcd13ifvqd30","pricing_plan_id":"free"},{"bike_id":"bbd7636b-a7fb-4d37-b29f-4a1e53743f64","system_id":"levelo_inurba_marseille","lat":43.33741,"lon":5.37453,"is_reserved":false,"is_disabled":false,"rental_uris":{"android":"levelo://app?vid=bbd7636b-a7fb-4d37-b29f-4a1e53743f64","ios":"levelo://app?vid=bbd7636b-a7fb-4d37-b29f-4a1e53743f64"},"vehicle_type_id":"4","last_reported":1703758056,"current_range_meters":26800,"station_id":"","pricing_plan_id":"free"},{"bike_id":"45e9d267-5c57-452e-993a-c6c7fa826b87","system_id":"levelo_inurba_marseille","lat":43.337537,"lon":5.374363,"is_reserved":false,"is_disabled":false,"rental_uris":{"android":"levelo://app?vid=45e9d267-5c57-452e-993a-c6c7fa826b87","ios":"levelo://app?vid=45e9d267-5c57-452e-993a-c6c7fa826b87"},"vehicle_type_id":"4","last_reported":1703758056,"current_range_meters":24000,"station_id":"","pricing_plan_id":"free"},{"bike_id":"037873fa-0f1f-4dda-80d3-f57e43ba03b7","system_id":"levelo_inurba_marseille","lat":43.30642,"lon":5.401031,"is_reserved":false,"is_disabled":false,"rental_uris":{"android":"levelo://app?vid=037873fa-0f1f-4dda-80d3-f57e43ba03b7","ios":"levelo://app?vid=037873fa-0f1f-4dda-80d3-f57e43ba03b7"},"vehicle_type_id":"4","last_reported":1703758056,"current_range_meters":19200,"station_id":"ce4bh112rcd13ifvqda0","pricing_plan_id":"free"},{"bike_id":"642f161a-f5cc-44c0-a26b-efc7bf44c222","system_id":"levelo_inurba_marseille","lat":43.306412,"lon":5.401035,"is_reserved":false,"is_disabled":false,"rental_uris":{"android":"levelo://app?vid=642f161a-f5cc-44c0-a26b-efc7bf44c222","ios":"levelo://app?vid=642f161a-f5cc-44c0-a26b-efc7bf44c222"},"vehicle_type_id":"4","last_reported":1703758056,"current_range_meters":21200,"station_id":"ce4bh112rcd13ifvqda0","pricing_plan_id":"free"},{"bike_id":"981f9dbf-5820-453e-beb6-8bbddd90c1d2","system_id":"levelo_inurba_marseille","lat":43.337715,"lon":5.374464,"is_reserved":false,"is_disabled":false,"rental_uris":{"android":"levelo://app?vid=981f9dbf-5820-453e-beb6-8bbddd90c1d2","ios":"levelo://app?vid=981f9dbf-5820-453e-beb6-8bbddd90c1d2"},"vehicle_type_id":"4","last_reported":1703758056,"current_range_meters":25600,"station_id":"","pricing_plan_id":"free"},{"bike_id":"d4074466-1ba4-4da2-b8dd-d7a8fb647117","system_id":"levelo_inurba_marseille","lat":43.306412,"lon":5.401035,"is_reserved":false,"is_disabled":false,"rental_uris":{"android":"levelo://app?vid=d4074466-1ba4-4da2-b8dd-d7a8fb647117","ios":"levelo://app?vid=d4074466-1ba4-4da2-b8dd-d7a8fb647117"},"vehicle_type_id":"4","last_reported":1703758056,"current_range_meters":22800,"station_id":"ce4bh112rcd13ifvqda0","pricing_plan_id":"free"},{"bike_id":"395b4c6b-2846-48f8-adf3-a7b6e4defa20","system_id":"levelo_inurba_marseille","lat":43.28727,"lon":5.36078,"is_reserved":false,"is_disabled":false,"rental_uris":{"android":"levelo://app?vid=395b4c6b-2846-48f8-adf3-a7b6e4defa20","ios":"levelo://app?vid=395b4c6b-2846-48f8-adf3-a7b6e4defa20"},"vehicle_type_id":"4","last_reported":1703758056,"current_range_meters":31200,"station_id":"cki0cbj6b192h4jlfktg","pricing_plan_id":"free"},{"bike_id":"d2e1d698-b0c9-4dcd-86e5-ba5cd4959c37","system_id":"levelo_inurba_marseille","lat":43.28727,"lon":5.36078,"is_reserved":false,"is_disabled":false,"rental_uris":{"android":"levelo://app?vid=d2e1d698-b0c9-4dcd-86e5-ba5cd4959c37","ios":"levelo://app?vid=d2e1d698-b0c9-4dcd-86e5-ba5cd4959c37"},"vehicle_type_id":"4","last_reported":1703758056,"current_range_meters":15200,"station_id":"cki0cbj6b192h4jlfktg","pricing_plan_id":"free"},{"bike_id":"443f0e34-b434-401c-9f24-81c2ee9fcec3","system_id":"levelo_inurba_marseille","lat":43.298681,"lon":5.397225,"is_reserved":false,"is_disabled":false,"rental_uris":{"android":"levelo://app?vid=443f0e34-b434-401c-9f24-81c2ee9fcec3","ios":"levelo://app?vid=443f0e34-b434-401c-9f24-81c2ee9fcec3"},"vehicle_type_id":"4","last_reported":1703758056,"current_range_meters":27600,"station_id":"ce4bh0h2rcd13ifvqd50","pricing_plan_id":"free"},{"bike_id":"ea034e2d-18ce-4064-b2dc-10b5b14f0d02","system_id":"levelo_inurba_marseille","lat":43.286591,"lon":5.363346,"is_reserved":false,"is_disabled":false,"rental_uris":{"android":"levelo://app?vid=ea034e2d-18ce-4064-b2dc-10b5b14f0d02","ios":"levelo://app?vid=ea034e2d-18ce-4064-b2dc-10b5b14f0d02"},"vehicle_type_id":"4","last_reported":1703758056,"current_range_meters":24400,"station_id":"ce4bhah2rcd13ifvqej0","pricing_plan_id":"free"},{"bike_id":"febb4d32-be17-4ae5-a7d1-f1e18c4e004b","system_id":"levelo_inurba_marseille","lat":43.298681,"lon":5.397225,"is_reserved":false,"is_disabled":false,"rental_uris":{"android":"levelo://app?vid=febb4d32-be17-4ae5-a7d1-f1e18c4e004b","ios":"levelo://app?vid=febb4d32-be17-4ae5-a7d1-f1e18c4e004b"},"vehicle_type_id":"4","last_reported":1703758056,"current_range_meters":25600,"station_id":"ce4bh0h2rcd13ifvqd50","pricing_plan_id":"free"},{"bike_id":"3edb320c-c0b1-4c28-93a0-ef0efc2caba2","system_id":"levelo_inurba_marseille","lat":43.295194,"lon":5.39397,"is_reserved":false,"is_disabled":false,"rental_uris":{"android":"levelo://app?vid=3edb320c-c0b1-4c28-93a0-ef0efc2caba2","ios":"levelo://app?vid=3edb320c-c0b1-4c28-93a0-ef0efc2caba2"},"vehicle_type_id":"4","last_reported":1703758056,"current_range_meters":16400,"station_id":"ce4bh292rcd13ifvqdf0","pricing_plan_id":"free"},{"bike_id":"6c78d231-db62-4c2c-8761-7cd3820fb6f9","system_id":"levelo_inurba_marseille","lat":43.295196,"lon":5.39397,"is_reserved":false,"is_disabled":false,"rental_uris":{"android":"levelo://app?vid=6c78d231-db62-4c2c-8761-7cd3820fb6f9","ios":"levelo://app?vid=6c78d231-db62-4c2c-8761-7cd3820fb6f9"},"vehicle_type_id":"4","last_reported":1703758056,"current_range_meters":28800,"station_id":"ce4bh292rcd13ifvqdf0","pricing_plan_id":"free"},{"bike_id":"58aef8e9-b678-4792-bc49-968d2f9366e9","system_id":"levelo_inurba_marseille","lat":43.295194,"lon":5.39397,"is_reserved":false,"is_disabled":false,"rental_uris":{"android":"levelo://app?vid=58aef8e9-b678-4792-bc49-968d2f9366e9","ios":"levelo://app?vid=58aef8e9-b678-4792-bc49-968d2f9366e9"},"vehicle_type_id":"4","last_reported":1703758056,"current_range_meters":31200,"station_id":"ce4bh292rcd13ifvqdf0","pricing_plan_id":"free"},{"bike_id":"1657204e-bbb7-4c59-b837-49f18e2f0eb8","system_id":"levelo_inurba_marseille","lat":43.289307,"lon":5.38406,"is_reserved":false,"is_disabled":false,"rental_uris":{"android":"levelo://app?vid=1657204e-bbb7-4c59-b837-49f18e2f0eb8","ios":"levelo://app?vid=1657204e-bbb7-4c59-b837-49f18e2f0eb8"},"vehicle_type_id":"4","last_reported":1703758056,"current_range_meters":8400,"station_id":"ce4bh612rcd13ifvqe6g","pricing_plan_id":"free"},{"bike_id":"e4b32aa9-4748-45e3-8440-e9f2246f3b09","system_id":"levelo_inurba_marseille","lat":43.289307,"lon":5.38406,"is_reserved":false,"is_disabled":false,"rental_uris":{"android":"levelo://app?vid=e4b32aa9-4748-45e3-8440-e9f2246f3b09","ios":"levelo://app?vid=e4b32aa9-4748-45e3-8440-e9f2246f3b09"},"vehicle_type_id":"4","last_reported":1703758056,"current_range_meters":27600,"station_id":"ce4bh612rcd13ifvqe6g","pricing_plan_id":"free"},{"bike_id":"cfc1c853-0fbf-4dfe-9af4-90e9e3437a4a","system_id":"levelo_inurba_marseille","lat":43.290336,"lon":5.386425,"is_reserved":false,"is_disabled":false,"rental_uris":{"android":"levelo://app?vid=cfc1c853-0fbf-4dfe-9af4-90e9e3437a4a","ios":"levelo://app?vid=cfc1c853-0fbf-4dfe-9af4-90e9e3437a4a"},"vehicle_type_id":"4","last_reported":1703758056,"current_range_meters":24400,"station_id":"ce4bh4p2rcd13ifvqe0g","pricing_plan_id":"free"},{"bike_id":"c536e4f3-3440-4cc1-9980-437b5d282815","system_id":"levelo_inurba_marseille","lat":43.302759,"lon":5.400793,"is_reserved":false,"is_disabled":false,"rental_uris":{"android":"levelo://app?vid=c536e4f3-3440-4cc1-9980-437b5d282815","ios":"levelo://app?vid=c536e4f3-3440-4cc1-9980-437b5d282815"},"vehicle_type_id":"4","last_reported":1703758056,"current_range_meters":22800,"station_id":"ce4bgvh2rcd13ifvqcs0","pricing_plan_id":"free"},{"bike_id":"1476349c-66da-4ca4-9789-fff9eae7f747","system_id":"levelo_inurba_marseille","lat":43.287184,"lon":5.37937,"is_reserved":false,"is_disabled":false,"rental_uris":{"android":"levelo://app?vid=1476349c-66da-4ca4-9789-fff9eae7f747","ios":"levelo://app?vid=1476349c-66da-4ca4-9789-fff9eae7f747"},"vehicle_type_id":"4","last_reported":1703758056,"current_range_meters":30000,"station_id":"ce4bh9p2rcd13ifvqec0","pricing_plan_id":"free"},{"bike_id":"aac00441-5e5c-4474-92e6-e699a3867bae","system_id":"levelo_inurba_marseille","lat":43.285842,"lon":5.360214,"is_reserved":false,"is_disabled":false,"rental_uris":{"android":"levelo://app?vid=aac00441-5e5c-4474-92e6-e699a3867bae","ios":"levelo://app?vid=aac00441-5e5c-4474-92e6-e699a3867bae"},"vehicle_type_id":"4","last_reported":1703758056,"current_range_meters":30800,"station_id":"","pricing_plan_id":"free"},{"bike_id":"5fafbd77-9ee8-4d8f-9a64-e12392e69c1d","system_id":"levelo_inurba_marseille","lat":43.316828,"lon":5.404723,"is_reserved":false,"is_disabled":false,"rental_uris":{"android":"levelo://app?vid=5fafbd77-9ee8-4d8f-9a64-e12392e69c1d","ios":"levelo://app?vid=5fafbd77-9ee8-4d8f-9a64-e12392e69c1d"},"vehicle_type_id":"4","last_reported":1703758056,"current_range_meters":14000,"station_id":"ce4bh012rcd13ifvqd00","pricing_plan_id":"free"},{"bike_id":"a9d76150-d0a2-4d94-b13d-ce1359a0ab5e","system_id":"levelo_inurba_marseille","lat":43.291994,"lon":5.392907,"is_reserved":false,"is_disabled":false,"rental_uris":{"android":"levelo://app?vid=a9d76150-d0a2-4d94-b13d-ce1359a0ab5e","ios":"levelo://app?vid=a9d76150-d0a2-4d94-b13d-ce1359a0ab5e"},"vehicle_type_id":"4","last_reported":1703758056,"current_range_meters":25600,"station_id":"ce4bh192rcd13ifvqdd0","pricing_plan_id":"free"},{"bike_id":"8e2b1692-14f0-461b-a759-b75bd79e3380","system_id":"levelo_inurba_marseille","lat":43.284538,"lon":5.358657,"is_reserved":false,"is_disabled":false,"rental_uris":{"android":"levelo://app?vid=8e2b1692-14f0-461b-a759-b75bd79e3380","ios":"levelo://app?vid=8e2b1692-14f0-461b-a759-b75bd79e3380"},"vehicle_type_id":"4","last_reported":1703758056,"current_range_meters":26000,"station_id":"ce4bhah2rcd13ifvqei0","pricing_plan_id":"free"},{"bike_id":"4b8e8d4e-4165-4d94-8b5b-f1738236627c","system_id":"levelo_inurba_marseille","lat":43.285848,"lon":5.350787,"is_reserved":false,"is_disabled":false,"rental_uris":{"android":"levelo://app?vid=4b8e8d4e-4165-4d94-8b5b-f1738236627c","ios":"levelo://app?vid=4b8e8d4e-4165-4d94-8b5b-f1738236627c"},"vehicle_type_id":"4","last_reported":1703758056,"current_range_meters":24000,"station_id":"ce4bhch2rcd13ifvqeug","pricing_plan_id":"free"},{"bike_id":"cd1c23c7-fdb6-4ec1-a939-b21ee14750a7","system_id":"levelo_inurba_marseille","lat":43.286595,"lon":5.386795,"is_reserved":false,"is_disabled":false,"rental_uris":{"android":"levelo://app?vid=cd1c23c7-fdb6-4ec1-a939-b21ee14750a7","ios":"levelo://app?vid=cd1c23c7-fdb6-4ec1-a939-b21ee14750a7"},"vehicle_type_id":"4","last_reported":1703758056,"current_range_meters":26800,"station_id":"ce4bh492rcd13ifvqdug","pricing_plan_id":"free"},{"bike_id":"7510080d-af49-4281-80b0-457720854c57","system_id":"levelo_inurba_marseille","lat":43.28741,"lon":5.38986,"is_reserved":false,"is_disabled":false,"rental_uris":{"android":"levelo://app?vid=7510080d-af49-4281-80b0-457720854c57","ios":"levelo://app?vid=7510080d-af49-4281-80b0-457720854c57"},"vehicle_type_id":"4","last_reported":1703758056,"current_range_meters":0,"station_id":"","pricing_plan_id":"free"},{"bike_id":"88a90eb6-df1d-4c20-8e42-f03f5a6f3a0d","system_id":"levelo_inurba_marseille","lat":43.337225,"lon":5.391771,"is_reserved":false,"is_disabled":false,"rental_uris":{"android":"levelo://app?vid=88a90eb6-df1d-4c20-8e42-f03f5a6f3a0d","ios":"levelo://app?vid=88a90eb6-df1d-4c20-8e42-f03f5a6f3a0d"},"vehicle_type_id":"4","last_reported":1703758056,"current_range_meters":12400,"station_id":"ce4bhr92rcd13ifvqhsg","pricing_plan_id":"free"},{"bike_id":"4982c8c4-23bc-476f-9042-7ca49d1ac40a","system_id":"levelo_inurba_marseille","lat":43.323464,"lon":5.406297,"is_reserved":false,"is_disabled":false,"rental_uris":{"android":"levelo://app?vid=4982c8c4-23bc-476f-9042-7ca49d1ac40a","ios":"levelo://app?vid=4982c8c4-23bc-476f-9042-7ca49d1ac40a"},"vehicle_type_id":"4","last_reported":1703758056,"current_range_meters":30400,"station_id":"ce4bhq92rcd13ifvqhjg","pricing_plan_id":"free"},{"bike_id":"381844c3-e025-4ad4-8b5b-45e3143ae1c8","system_id":"levelo_inurba_marseille","lat":43.323464,"lon":5.406297,"is_reserved":false,"is_disabled":false,"rental_uris":{"android":"levelo://app?vid=381844c3-e025-4ad4-8b5b-45e3143ae1c8","ios":"levelo://app?vid=381844c3-e025-4ad4-8b5b-45e3143ae1c8"},"vehicle_type_id":"4","last_reported":1703758056,"current_range_meters":19600,"station_id":"ce4bhq92rcd13ifvqhjg","pricing_plan_id":"free"},{"bike_id":"e485450b-2736-4f4c-b94b-0da5a69b88aa","system_id":"levelo_inurba_marseille","lat":43.33385,"lon":5.39822,"is_reserved":false,"is_disabled":false,"rental_uris":{"android":"levelo://app?vid=e485450b-2736-4f4c-b94b-0da5a69b88aa","ios":"levelo://app?vid=e485450b-2736-4f4c-b94b-0da5a69b88aa"},"vehicle_type_id":"4","last_reported":1703758056,"current_range_meters":15200,"station_id":"","pricing_plan_id":"free"},{"bike_id":"0b3e2a9c-9f4d-4e41-8125-a22b4eae98b9","system_id":"levelo_inurba_marseille","lat":43.289363,"lon":5.396322,"is_reserved":false,"is_disabled":false,"rental_uris":{"android":"levelo://app?vid=0b3e2a9c-9f4d-4e41-8125-a22b4eae98b9","ios":"levelo://app?vid=0b3e2a9c-9f4d-4e41-8125-a22b4eae98b9"},"vehicle_type_id":"4","last_reported":1703758056,"current_range_meters":26400,"station_id":"ce4bh3h2rcd13ifvqdn0","pricing_plan_id":"free"},{"bike_id":"a8a06406-497b-4840-98d4-c1e6a1e59279","system_id":"levelo_inurba_marseille","lat":43.283502,"lon":5.386471,"is_reserved":false,"is_disabled":false,"rental_uris":{"android":"levelo://app?vid=a8a06406-497b-4840-98d4-c1e6a1e59279","ios":"levelo://app?vid=a8a06406-497b-4840-98d4-c1e6a1e59279"},"vehicle_type_id":"4","last_reported":1703758056,"current_range_meters":22400,"station_id":"ce4bh492rcd13ifvqdvg","pricing_plan_id":"free"},{"bike_id":"4932551c-060c-4b93-94af-dd58c608c9f2","system_id":"levelo_inurba_marseille","lat":43.280382,"lon":5.369291,"is_reserved":false,"is_disabled":false,"rental_uris":{"android":"levelo://app?vid=4932551c-060c-4b93-94af-dd58c608c9f2","ios":"levelo://app?vid=4932551c-060c-4b93-94af-dd58c608c9f2"},"vehicle_type_id":"4","last_reported":1703758056,"current_range_meters":4800,"station_id":"ce4bha12rcd13ifvqef0","pricing_plan_id":"free"},{"bike_id":"4091593c-283c-4812-9919-0bd175a1bffb","system_id":"levelo_inurba_marseille","lat":43.280382,"lon":5.369291,"is_reserved":false,"is_disabled":false,"rental_uris":{"android":"levelo://app?vid=4091593c-283c-4812-9919-0bd175a1bffb","ios":"levelo://app?vid=4091593c-283c-4812-9919-0bd175a1bffb"},"vehicle_type_id":"4","last_reported":1703758056,"current_range_meters":31200,"station_id":"ce4bha12rcd13ifvqef0","pricing_plan_id":"free"},{"bike_id":"59053610-9bf3-4155-ae61-8327a4a1eae6","system_id":"levelo_inurba_marseille","lat":43.29041,"lon":5.399634,"is_reserved":false,"is_disabled":false,"rental_uris":{"android":"levelo://app?vid=59053610-9bf3-4155-ae61-8327a4a1eae6","ios":"levelo://app?vid=59053610-9bf3-4155-ae61-8327a4a1eae6"},"vehicle_type_id":"4","last_reported":1703758056,"current_range_meters":28800,"station_id":"ce4bh392rcd13ifvqdm0","pricing_plan_id":"free"},{"bike_id":"3a026c05-e423-467b-92fe-6aa9a6135b59","system_id":"levelo_inurba_marseille","lat":43.29041,"lon":5.399634,"is_reserved":false,"is_disabled":false,"rental_uris":{"android":"levelo://app?vid=3a026c05-e423-467b-92fe-6aa9a6135b59","ios":"levelo://app?vid=3a026c05-e423-467b-92fe-6aa9a6135b59"},"vehicle_type_id":"4","last_reported":1703758056,"current_range_meters":24800,"station_id":"ce4bh392rcd13ifvqdm0","pricing_plan_id":"free"},{"bike_id":"d60802d6-4f47-444a-b234-883690eec05b","system_id":"levelo_inurba_marseille","lat":43.33608,"lon":5.39848,"is_reserved":false,"is_disabled":false,"rental_uris":{"android":"levelo://app?vid=d60802d6-4f47-444a-b234-883690eec05b","ios":"levelo://app?vid=d60802d6-4f47-444a-b234-883690eec05b"},"vehicle_type_id":"4","last_reported":1703758056,"current_range_meters":30000,"station_id":"","pricing_plan_id":"free"},{"bike_id":"b9fb8c6f-c8b7-4735-9452-afae72699b1a","system_id":"levelo_inurba_marseille","lat":43.283502,"lon":5.386471,"is_reserved":false,"is_disabled":false,"rental_uris":{"android":"levelo://app?vid=b9fb8c6f-c8b7-4735-9452-afae72699b1a","ios":"levelo://app?vid=b9fb8c6f-c8b7-4735-9452-afae72699b1a"},"vehicle_type_id":"4","last_reported":1703758056,"current_range_meters":20800,"station_id":"ce4bh492rcd13ifvqdvg","pricing_plan_id":"free"},{"bike_id":"c109ad14-171b-4e98-b623-7ebde8801415","system_id":"levelo_inurba_marseille","lat":43.284462,"lon":5.392121,"is_reserved":false,"is_disabled":false,"rental_uris":{"android":"levelo://app?vid=c109ad14-171b-4e98-b623-7ebde8801415","ios":"levelo://app?vid=c109ad14-171b-4e98-b623-7ebde8801415"},"vehicle_type_id":"4","last_reported":1703758056,"current_range_meters":31200,"station_id":"ce4bhoh2rcd13ifvqh5g","pricing_plan_id":"free"},{"bike_id":"4891cc33-bc19-41b0-b556-a5c25d30d806","system_id":"levelo_inurba_marseille","lat":43.284462,"lon":5.392121,"is_reserved":false,"is_disabled":false,"rental_uris":{"android":"levelo://app?vid=4891cc33-bc19-41b0-b556-a5c25d30d806","ios":"levelo://app?vid=4891cc33-bc19-41b0-b556-a5c25d30d806"},"vehicle_type_id":"4","last_reported":1703758056,"current_range_meters":25600,"station_id":"ce4bhoh2rcd13ifvqh5g","pricing_plan_id":"free"},{"bike_id":"8a09ef64-d9c3-4a86-bbed-181fe3d0904e","system_id":"levelo_inurba_marseille","lat":43.326605,"lon":5.409903,"is_reserved":false,"is_disabled":false,"rental_uris":{"android":"levelo://app?vid=8a09ef64-d9c3-4a86-bbed-181fe3d0904e","ios":"levelo://app?vid=8a09ef64-d9c3-4a86-bbed-181fe3d0904e"},"vehicle_type_id":"4","last_reported":1703758056,"current_range_meters":30000,"station_id":"ce4bhpp2rcd13ifvqhgg","pricing_plan_id":"free"},{"bike_id":"c9d73eed-5888-4e39-be0e-da9a3b48d0b3","system_id":"levelo_inurba_marseille","lat":43.283633,"lon":5.392028,"is_reserved":false,"is_disabled":false,"rental_uris":{"android":"levelo://app?vid=c9d73eed-5888-4e39-be0e-da9a3b48d0b3","ios":"levelo://app?vid=c9d73eed-5888-4e39-be0e-da9a3b48d0b3"},"vehicle_type_id":"4","last_reported":1703758056,"current_range_meters":19600,"station_id":"","pricing_plan_id":"free"},{"bike_id":"694ad407-7238-4062-89a8-4125ccd97cc0","system_id":"levelo_inurba_marseille","lat":43.30413,"lon":5.41274,"is_reserved":false,"is_disabled":false,"rental_uris":{"android":"levelo://app?vid=694ad407-7238-4062-89a8-4125ccd97cc0","ios":"levelo://app?vid=694ad407-7238-4062-89a8-4125ccd97cc0"},"vehicle_type_id":"4","last_reported":1703758056,"current_range_meters":30400,"station_id":"ce4bhop2rcd13ifvqh8g","pricing_plan_id":"free"},{"bike_id":"da6049ec-8673-4273-b2fc-20efaa880ee2","system_id":"levelo_inurba_marseille","lat":43.30413,"lon":5.41282,"is_reserved":false,"is_disabled":false,"rental_uris":{"android":"levelo://app?vid=da6049ec-8673-4273-b2fc-20efaa880ee2","ios":"levelo://app?vid=da6049ec-8673-4273-b2fc-20efaa880ee2"},"vehicle_type_id":"4","last_reported":1703758056,"current_range_meters":30000,"station_id":"ce4bhop2rcd13ifvqh8g","pricing_plan_id":"free"},{"bike_id":"41b59856-6d85-4403-af7d-51e6d1cd4c98","system_id":"levelo_inurba_marseille","lat":43.304188,"lon":5.412904,"is_reserved":false,"is_disabled":false,"rental_uris":{"android":"levelo://app?vid=41b59856-6d85-4403-af7d-51e6d1cd4c98","ios":"levelo://app?vid=41b59856-6d85-4403-af7d-51e6d1cd4c98"},"vehicle_type_id":"4","last_reported":1703758056,"current_range_meters":31200,"station_id":"ce4bhop2rcd13ifvqh8g","pricing_plan_id":"free"},{"bike_id":"f5f5e396-960d-411b-92d3-c4693cebdfda","system_id":"levelo_inurba_marseille","lat":43.287154,"lon":5.399979,"is_reserved":false,"is_disabled":false,"rental_uris":{"android":"levelo://app?vid=f5f5e396-960d-411b-92d3-c4693cebdfda","ios":"levelo://app?vid=f5f5e396-960d-411b-92d3-c4693cebdfda"},"vehicle_type_id":"4","last_reported":1703758056,"current_range_meters":23600,"station_id":"ce4bho92rcd13ifvqh3g","pricing_plan_id":"free"},{"bike_id":"5707c136-3b85-4f50-bbfd-a01e4fce7e76","system_id":"levelo_inurba_marseille","lat":43.287154,"lon":5.399979,"is_reserved":false,"is_disabled":false,"rental_uris":{"android":"levelo://app?vid=5707c136-3b85-4f50-bbfd-a01e4fce7e76","ios":"levelo://app?vid=5707c136-3b85-4f50-bbfd-a01e4fce7e76"},"vehicle_type_id":"4","last_reported":1703758056,"current_range_meters":19600,"station_id":"ce4bho92rcd13ifvqh3g","pricing_plan_id":"free"},{"bike_id":"27848bd0-d1cd-4d95-91ed-d4f9ef8de52f","system_id":"levelo_inurba_marseille","lat":43.287154,"lon":5.399979,"is_reserved":false,"is_disabled":false,"rental_uris":{"android":"levelo://app?vid=27848bd0-d1cd-4d95-91ed-d4f9ef8de52f","ios":"levelo://app?vid=27848bd0-d1cd-4d95-91ed-d4f9ef8de52f"},"vehicle_type_id":"4","last_reported":1703758056,"current_range_meters":22800,"station_id":"ce4bho92rcd13ifvqh3g","pricing_plan_id":"free"},{"bike_id":"5c02ac9d-7d64-4ba2-8f17-3b2bf4ff2e54","system_id":"levelo_inurba_marseille","lat":43.320045,"lon":5.415046,"is_reserved":false,"is_disabled":false,"rental_uris":{"android":"levelo://app?vid=5c02ac9d-7d64-4ba2-8f17-3b2bf4ff2e54","ios":"levelo://app?vid=5c02ac9d-7d64-4ba2-8f17-3b2bf4ff2e54"},"vehicle_type_id":"4","last_reported":1703758056,"current_range_meters":30000,"station_id":"ce4bhq92rcd13ifvqhkg","pricing_plan_id":"free"},{"bike_id":"6737ae87-860c-426a-a2a2-657881d4b514","system_id":"levelo_inurba_marseille","lat":43.279742,"lon":5.38744,"is_reserved":false,"is_disabled":false,"rental_uris":{"android":"levelo://app?vid=6737ae87-860c-426a-a2a2-657881d4b514","ios":"levelo://app?vid=6737ae87-860c-426a-a2a2-657881d4b514"},"vehicle_type_id":"4","last_reported":1703758056,"current_range_meters":29200,"station_id":"ce4bhg12rcd13ifvqf80","pricing_plan_id":"free"},{"bike_id":"2ae4d234-8fc3-493f-95af-2c9c7b3c53cb","system_id":"levelo_inurba_marseille","lat":43.279742,"lon":5.38744,"is_reserved":false,"is_disabled":false,"rental_uris":{"android":"levelo://app?vid=2ae4d234-8fc3-493f-95af-2c9c7b3c53cb","ios":"levelo://app?vid=2ae4d234-8fc3-493f-95af-2c9c7b3c53cb"},"vehicle_type_id":"4","last_reported":1703758056,"current_range_meters":20800,"station_id":"ce4bhg12rcd13ifvqf80","pricing_plan_id":"free"},{"bike_id":"a76b43d3-b6fe-40f6-9dd8-30e6b2b27403","system_id":"levelo_inurba_marseille","lat":43.279742,"lon":5.38744,"is_reserved":false,"is_disabled":false,"rental_uris":{"android":"levelo://app?vid=a76b43d3-b6fe-40f6-9dd8-30e6b2b27403","ios":"levelo://app?vid=a76b43d3-b6fe-40f6-9dd8-30e6b2b27403"},"vehicle_type_id":"4","last_reported":1703758056,"current_range_meters":20800,"station_id":"ce4bhg12rcd13ifvqf80","pricing_plan_id":"free"},{"bike_id":"df361c80-983a-4479-945a-03c94c41c6e8","system_id":"levelo_inurba_marseille","lat":43.279742,"lon":5.38744,"is_reserved":false,"is_disabled":false,"rental_uris":{"android":"levelo://app?vid=df361c80-983a-4479-945a-03c94c41c6e8","ios":"levelo://app?vid=df361c80-983a-4479-945a-03c94c41c6e8"},"vehicle_type_id":"4","last_reported":1703758056,"current_range_meters":28400,"station_id":"ce4bhg12rcd13ifvqf80","pricing_plan_id":"free"},{"bike_id":"f5c6e5c0-30a4-4147-95a6-6c61538fe047","system_id":"levelo_inurba_marseille","lat":43.292569,"lon":5.409107,"is_reserved":false,"is_disabled":false,"rental_uris":{"android":"levelo://app?vid=f5c6e5c0-30a4-4147-95a6-6c61538fe047","ios":"levelo://app?vid=f5c6e5c0-30a4-4147-95a6-6c61538fe047"},"vehicle_type_id":"4","last_reported":1703758056,"current_range_meters":9200,"station_id":"ce4bh192rcd13ifvqdc0","pricing_plan_id":"free"},{"bike_id":"a7ee4fef-1fa4-48be-8a94-04c8ca8a6b71","system_id":"levelo_inurba_marseille","lat":43.27618,"lon":5.361009,"is_reserved":false,"is_disabled":false,"rental_uris":{"android":"levelo://app?vid=a7ee4fef-1fa4-48be-8a94-04c8ca8a6b71","ios":"levelo://app?vid=a7ee4fef-1fa4-48be-8a94-04c8ca8a6b71"},"vehicle_type_id":"4","last_reported":1703758056,"current_range_meters":10800,"station_id":"ce4bgj92rcd13ifvqbe0","pricing_plan_id":"free"},{"bike_id":"8a707ecd-aa76-439d-8b48-94cf3496be0a","system_id":"levelo_inurba_marseille","lat":43.27618,"lon":5.361009,"is_reserved":false,"is_disabled":false,"rental_uris":{"android":"levelo://app?vid=8a707ecd-aa76-439d-8b48-94cf3496be0a","ios":"levelo://app?vid=8a707ecd-aa76-439d-8b48-94cf3496be0a"},"vehicle_type_id":"4","last_reported":1703758056,"current_range_meters":30000,"station_id":"ce4bgj92rcd13ifvqbe0","pricing_plan_id":"free"},{"bike_id":"0fe51dae-0788-40c6-ad48-4caf4b21dfb4","system_id":"levelo_inurba_marseille","lat":43.280784,"lon":5.396622,"is_reserved":false,"is_disabled":false,"rental_uris":{"android":"levelo://app?vid=0fe51dae-0788-40c6-ad48-4caf4b21dfb4","ios":"levelo://app?vid=0fe51dae-0788-40c6-ad48-4caf4b21dfb4"},"vehicle_type_id":"4","last_reported":1703758056,"current_range_meters":25600,"station_id":"ce4bho12rcd13ifvqh2g","pricing_plan_id":"free"},{"bike_id":"9bcb19bd-5983-4cdb-9da7-82498f05e04a","system_id":"levelo_inurba_marseille","lat":43.299028,"lon":5.381509,"is_reserved":false,"is_disabled":false,"rental_uris":{"android":"levelo://app?vid=9bcb19bd-5983-4cdb-9da7-82498f05e04a","ios":"levelo://app?vid=9bcb19bd-5983-4cdb-9da7-82498f05e04a"},"vehicle_type_id":"4","last_reported":1703758056,"current_range_meters":26000,"station_id":"ce4bgj12rcd13ifvqbc0","pricing_plan_id":"free"},{"bike_id":"1662ed30-92da-4bd8-b020-58892e4ee964","system_id":"levelo_inurba_marseille","lat":43.303837,"lon":5.418724,"is_reserved":false,"is_disabled":false,"rental_uris":{"android":"levelo://app?vid=1662ed30-92da-4bd8-b020-58892e4ee964","ios":"levelo://app?vid=1662ed30-92da-4bd8-b020-58892e4ee964"},"vehicle_type_id":"4","last_reported":1703758056,"current_range_meters":31200,"station_id":"ce4bhop2rcd13ifvqh7g","pricing_plan_id":"free"},{"bike_id":"a2bef949-f68d-46c5-8af6-85753f357e84","system_id":"levelo_inurba_marseille","lat":43.303837,"lon":5.418724,"is_reserved":false,"is_disabled":false,"rental_uris":{"android":"levelo://app?vid=a2bef949-f68d-46c5-8af6-85753f357e84","ios":"levelo://app?vid=a2bef949-f68d-46c5-8af6-85753f357e84"},"vehicle_type_id":"4","last_reported":1703758056,"current_range_meters":24400,"station_id":"ce4bhop2rcd13ifvqh7g","pricing_plan_id":"free"},{"bike_id":"322060d8-8110-44e2-8e47-faafbb6c4ac9","system_id":"levelo_inurba_marseille","lat":43.278399,"lon":5.392139,"is_reserved":false,"is_disabled":false,"rental_uris":{"android":"levelo://app?vid=322060d8-8110-44e2-8e47-faafbb6c4ac9","ios":"levelo://app?vid=322060d8-8110-44e2-8e47-faafbb6c4ac9"},"vehicle_type_id":"4","last_reported":1703758056,"current_range_meters":28000,"station_id":"ce4bhjp2rcd13ifvqga0","pricing_plan_id":"free"},{"bike_id":"bc8f6a5f-25af-4b0c-9394-6ab0948d87ed","system_id":"levelo_inurba_marseille","lat":43.278401,"lon":5.392152,"is_reserved":false,"is_disabled":false,"rental_uris":{"android":"levelo://app?vid=bc8f6a5f-25af-4b0c-9394-6ab0948d87ed","ios":"levelo://app?vid=bc8f6a5f-25af-4b0c-9394-6ab0948d87ed"},"vehicle_type_id":"4","last_reported":1703758056,"current_range_meters":28800,"station_id":"ce4bhjp2rcd13ifvqga0","pricing_plan_id":"free"},{"bike_id":"e69b60b2-07af-42e8-8e66-91fd0202c21b","system_id":"levelo_inurba_marseille","lat":43.275625,"lon":5.384392,"is_reserved":false,"is_disabled":false,"rental_uris":{"android":"levelo://app?vid=e69b60b2-07af-42e8-8e66-91fd0202c21b","ios":"levelo://app?vid=e69b60b2-07af-42e8-8e66-91fd0202c21b"},"vehicle_type_id":"4","last_reported":1703758056,"current_range_meters":26000,"station_id":"ce4bhh92rcd13ifvqfi0","pricing_plan_id":"free"},{"bike_id":"f0627ac6-3dc9-45c2-a655-3b2b8446e2ff","system_id":"levelo_inurba_marseille","lat":43.336134,"lon":5.410341,"is_reserved":false,"is_disabled":false,"rental_uris":{"android":"levelo://app?vid=f0627ac6-3dc9-45c2-a655-3b2b8446e2ff","ios":"levelo://app?vid=f0627ac6-3dc9-45c2-a655-3b2b8446e2ff"},"vehicle_type_id":"4","last_reported":1703758056,"current_range_meters":22000,"station_id":"ce4bhqh2rcd13ifvqhmg","pricing_plan_id":"free"},{"bike_id":"bdc4a0ca-b10e-400a-998b-58bfa3560a8a","system_id":"levelo_inurba_marseille","lat":43.276769,"lon":5.388787,"is_reserved":false,"is_disabled":false,"rental_uris":{"android":"levelo://app?vid=bdc4a0ca-b10e-400a-998b-58bfa3560a8a","ios":"levelo://app?vid=bdc4a0ca-b10e-400a-998b-58bfa3560a8a"},"vehicle_type_id":"4","last_reported":1703758056,"current_range_meters":21200,"station_id":"ce4bhi12rcd13ifvqfo0","pricing_plan_id":"free"},{"bike_id":"25815a7f-f7aa-4a27-80d4-eb33fcf92742","system_id":"levelo_inurba_marseille","lat":43.276769,"lon":5.388787,"is_reserved":false,"is_disabled":false,"rental_uris":{"android":"levelo://app?vid=25815a7f-f7aa-4a27-80d4-eb33fcf92742","ios":"levelo://app?vid=25815a7f-f7aa-4a27-80d4-eb33fcf92742"},"vehicle_type_id":"4","last_reported":1703758056,"current_range_meters":30000,"station_id":"ce4bhi12rcd13ifvqfo0","pricing_plan_id":"free"},{"bike_id":"2fd4f203-14b6-43f2-9b52-ce087c389b77","system_id":"levelo_inurba_marseille","lat":43.276771,"lon":5.388799,"is_reserved":false,"is_disabled":false,"rental_uris":{"android":"levelo://app?vid=2fd4f203-14b6-43f2-9b52-ce087c389b77","ios":"levelo://app?vid=2fd4f203-14b6-43f2-9b52-ce087c389b77"},"vehicle_type_id":"4","last_reported":1703758056,"current_range_meters":25200,"station_id":"ce4bhi12rcd13ifvqfo0","pricing_plan_id":"free"},{"bike_id":"b9c1270b-11e0-4dbd-9a72-db03c6e29485","system_id":"levelo_inurba_marseille","lat":43.276771,"lon":5.388799,"is_reserved":false,"is_disabled":false,"rental_uris":{"android":"levelo://app?vid=b9c1270b-11e0-4dbd-9a72-db03c6e29485","ios":"levelo://app?vid=b9c1270b-11e0-4dbd-9a72-db03c6e29485"},"vehicle_type_id":"4","last_reported":1703758056,"current_range_meters":24800,"station_id":"ce4bhi12rcd13ifvqfo0","pricing_plan_id":"free"},{"bike_id":"3f302edb-3ace-4ffa-86b1-41d833c4ed69","system_id":"levelo_inurba_marseille","lat":43.276771,"lon":5.388799,"is_reserved":false,"is_disabled":false,"rental_uris":{"android":"levelo://app?vid=3f302edb-3ace-4ffa-86b1-41d833c4ed69","ios":"levelo://app?vid=3f302edb-3ace-4ffa-86b1-41d833c4ed69"},"vehicle_type_id":"4","last_reported":1703758056,"current_range_meters":27200,"station_id":"ce4bhi12rcd13ifvqfo0","pricing_plan_id":"free"},{"bike_id":"47c4a75a-9589-431f-9913-07cae62c1708","system_id":"levelo_inurba_marseille","lat":43.276348,"lon":5.389433,"is_reserved":false,"is_disabled":false,"rental_uris":{"android":"levelo://app?vid=47c4a75a-9589-431f-9913-07cae62c1708","ios":"levelo://app?vid=47c4a75a-9589-431f-9913-07cae62c1708"},"vehicle_type_id":"4","last_reported":1703758056,"current_range_meters":14400,"station_id":"","pricing_plan_id":"free"},{"bike_id":"8c260070-3888-46e0-9c82-233ab07c1fef","system_id":"levelo_inurba_marseille","lat":43.279975,"lon":5.40009,"is_reserved":false,"is_disabled":false,"rental_uris":{"android":"levelo://app?vid=8c260070-3888-46e0-9c82-233ab07c1fef","ios":"levelo://app?vid=8c260070-3888-46e0-9c82-233ab07c1fef"},"vehicle_type_id":"4","last_reported":1703758056,"current_range_meters":30400,"station_id":"ce4bho92rcd13ifvqh4g","pricing_plan_id":"free"},{"bike_id":"aa3252fe-2099-49f7-aeac-2efd806db45f","system_id":"levelo_inurba_marseille","lat":43.27995,"lon":5.40008,"is_reserved":false,"is_disabled":false,"rental_uris":{"android":"levelo://app?vid=aa3252fe-2099-49f7-aeac-2efd806db45f","ios":"levelo://app?vid=aa3252fe-2099-49f7-aeac-2efd806db45f"},"vehicle_type_id":"4","last_reported":1703758056,"current_range_meters":6800,"station_id":"ce4bho92rcd13ifvqh4g","pricing_plan_id":"free"},{"bike_id":"12915678-f2ca-4866-a195-a1e5afe0d7bf","system_id":"levelo_inurba_marseille","lat":43.279975,"lon":5.40009,"is_reserved":false,"is_disabled":false,"rental_uris":{"android":"levelo://app?vid=12915678-f2ca-4866-a195-a1e5afe0d7bf","ios":"levelo://app?vid=12915678-f2ca-4866-a195-a1e5afe0d7bf"},"vehicle_type_id":"4","last_reported":1703758056,"current_range_meters":14800,"station_id":"ce4bho92rcd13ifvqh4g","pricing_plan_id":"free"},{"bike_id":"f882c7a5-35a4-48ee-8041-43f976c14bb5","system_id":"levelo_inurba_marseille","lat":43.27995,"lon":5.40018,"is_reserved":false,"is_disabled":false,"rental_uris":{"android":"levelo://app?vid=f882c7a5-35a4-48ee-8041-43f976c14bb5","ios":"levelo://app?vid=f882c7a5-35a4-48ee-8041-43f976c14bb5"},"vehicle_type_id":"4","last_reported":1703758056,"current_range_meters":17200,"station_id":"ce4bho92rcd13ifvqh4g","pricing_plan_id":"free"},{"bike_id":"e6c526cb-ad98-46bb-8f9d-21c85847ddfd","system_id":"levelo_inurba_marseille","lat":43.310785,"lon":5.424305,"is_reserved":false,"is_disabled":false,"rental_uris":{"android":"levelo://app?vid=e6c526cb-ad98-46bb-8f9d-21c85847ddfd","ios":"levelo://app?vid=e6c526cb-ad98-46bb-8f9d-21c85847ddfd"},"vehicle_type_id":"4","last_reported":1703758056,"current_range_meters":20000,"station_id":"ce4bhp92rcd13ifvqhag","pricing_plan_id":"free"},{"bike_id":"7670712f-5adc-4b0e-b1ba-9918ef56c6d2","system_id":"levelo_inurba_marseille","lat":43.310785,"lon":5.424305,"is_reserved":false,"is_disabled":false,"rental_uris":{"android":"levelo://app?vid=7670712f-5adc-4b0e-b1ba-9918ef56c6d2","ios":"levelo://app?vid=7670712f-5adc-4b0e-b1ba-9918ef56c6d2"},"vehicle_type_id":"4","last_reported":1703758056,"current_range_meters":400,"station_id":"ce4bhp92rcd13ifvqhag","pricing_plan_id":"free"},{"bike_id":"1976eff5-ef90-4804-858a-1d928880b574","system_id":"levelo_inurba_marseille","lat":43.340804,"lon":5.410219,"is_reserved":false,"is_disabled":false,"rental_uris":{"android":"levelo://app?vid=1976eff5-ef90-4804-858a-1d928880b574","ios":"levelo://app?vid=1976eff5-ef90-4804-858a-1d928880b574"},"vehicle_type_id":"4","last_reported":1703758056,"current_range_meters":11600,"station_id":"ce4bhqh2rcd13ifvqhlg","pricing_plan_id":"free"},{"bike_id":"6bee08e5-780c-476e-a929-383a3efdd1eb","system_id":"levelo_inurba_marseille","lat":43.274099,"lon":5.394019,"is_reserved":false,"is_disabled":false,"rental_uris":{"android":"levelo://app?vid=6bee08e5-780c-476e-a929-383a3efdd1eb","ios":"levelo://app?vid=6bee08e5-780c-476e-a929-383a3efdd1eb"},"vehicle_type_id":"4","last_reported":1703758056,"current_range_meters":31200,"station_id":"ce4bhdp2rcd13ifvqf20","pricing_plan_id":"free"},{"bike_id":"37483b21-f7e4-4faf-8418-cf2e24b41c46","system_id":"levelo_inurba_marseille","lat":43.274099,"lon":5.394019,"is_reserved":false,"is_disabled":false,"rental_uris":{"android":"levelo://app?vid=37483b21-f7e4-4faf-8418-cf2e24b41c46","ios":"levelo://app?vid=37483b21-f7e4-4faf-8418-cf2e24b41c46"},"vehicle_type_id":"4","last_reported":1703758056,"current_range_meters":26400,"station_id":"ce4bhdp2rcd13ifvqf20","pricing_plan_id":"free"},{"bike_id":"b89f3e84-2a8d-42bd-8dad-9572c651d04e","system_id":"levelo_inurba_marseille","lat":43.304096,"lon":5.425385,"is_reserved":false,"is_disabled":false,"rental_uris":{"android":"levelo://app?vid=b89f3e84-2a8d-42bd-8dad-9572c651d04e","ios":"levelo://app?vid=b89f3e84-2a8d-42bd-8dad-9572c651d04e"},"vehicle_type_id":"4","last_reported":1703758056,"current_range_meters":24000,"station_id":"ce4bhoh2rcd13ifvqh6g","pricing_plan_id":"free"},{"bike_id":"192d14a9-2a45-4774-aa3a-b122462e99a1","system_id":"levelo_inurba_marseille","lat":43.304096,"lon":5.425385,"is_reserved":false,"is_disabled":false,"rental_uris":{"android":"levelo://app?vid=192d14a9-2a45-4774-aa3a-b122462e99a1","ios":"levelo://app?vid=192d14a9-2a45-4774-aa3a-b122462e99a1"},"vehicle_type_id":"4","last_reported":1703758056,"current_range_meters":8400,"station_id":"ce4bhoh2rcd13ifvqh6g","pricing_plan_id":"free"},{"bike_id":"6a48db3f-9fc3-4404-b973-f4cc675c01c7","system_id":"levelo_inurba_marseille","lat":43.295523,"lon":5.422926,"is_reserved":false,"is_disabled":false,"rental_uris":{"android":"levelo://app?vid=6a48db3f-9fc3-4404-b973-f4cc675c01c7","ios":"levelo://app?vid=6a48db3f-9fc3-4404-b973-f4cc675c01c7"},"vehicle_type_id":"4","last_reported":1703758056,"current_range_meters":29600,"station_id":"ce4bhph2rcd13ifvqhdg","pricing_plan_id":"free"},{"bike_id":"bc660e5c-f7cd-4460-935e-226ad1eba4eb","system_id":"levelo_inurba_marseille","lat":43.295523,"lon":5.422926,"is_reserved":false,"is_disabled":false,"rental_uris":{"android":"levelo://app?vid=bc660e5c-f7cd-4460-935e-226ad1eba4eb","ios":"levelo://app?vid=bc660e5c-f7cd-4460-935e-226ad1eba4eb"},"vehicle_type_id":"4","last_reported":1703758056,"current_range_meters":29200,"station_id":"ce4bhph2rcd13ifvqhdg","pricing_plan_id":"free"},{"bike_id":"623e5527-a121-4ec1-8cc0-17b5fddea11b","system_id":"levelo_inurba_marseille","lat":43.295523,"lon":5.422926,"is_reserved":false,"is_disabled":false,"rental_uris":{"android":"levelo://app?vid=623e5527-a121-4ec1-8cc0-17b5fddea11b","ios":"levelo://app?vid=623e5527-a121-4ec1-8cc0-17b5fddea11b"},"vehicle_type_id":"4","last_reported":1703758056,"current_range_meters":27200,"station_id":"ce4bhph2rcd13ifvqhdg","pricing_plan_id":"free"},{"bike_id":"adf5111d-6f9b-4db5-a250-275ab771e390","system_id":"levelo_inurba_marseille","lat":43.295523,"lon":5.422926,"is_reserved":false,"is_disabled":false,"rental_uris":{"android":"levelo://app?vid=adf5111d-6f9b-4db5-a250-275ab771e390","ios":"levelo://app?vid=adf5111d-6f9b-4db5-a250-275ab771e390"},"vehicle_type_id":"4","last_reported":1703758056,"current_range_meters":25200,"station_id":"ce4bhph2rcd13ifvqhdg","pricing_plan_id":"free"},{"bike_id":"8748f0f6-f6da-400d-9caa-9a0f1740277b","system_id":"levelo_inurba_marseille","lat":43.295511,"lon":5.422926,"is_reserved":false,"is_disabled":false,"rental_uris":{"android":"levelo://app?vid=8748f0f6-f6da-400d-9caa-9a0f1740277b","ios":"levelo://app?vid=8748f0f6-f6da-400d-9caa-9a0f1740277b"},"vehicle_type_id":"4","last_reported":1703758056,"current_range_meters":28400,"station_id":"ce4bhph2rcd13ifvqhdg","pricing_plan_id":"free"},{"bike_id":"acec87c8-498e-46a9-a572-8de891a24d3a","system_id":"levelo_inurba_marseille","lat":43.295523,"lon":5.422926,"is_reserved":false,"is_disabled":false,"rental_uris":{"android":"levelo://app?vid=acec87c8-498e-46a9-a572-8de891a24d3a","ios":"levelo://app?vid=acec87c8-498e-46a9-a572-8de891a24d3a"},"vehicle_type_id":"4","last_reported":1703758056,"current_range_meters":25200,"station_id":"ce4bhph2rcd13ifvqhdg","pricing_plan_id":"free"},{"bike_id":"6d735bdc-6834-49ef-ad58-2a1b73a15a49","system_id":"levelo_inurba_marseille","lat":43.295523,"lon":5.422926,"is_reserved":false,"is_disabled":false,"rental_uris":{"android":"levelo://app?vid=6d735bdc-6834-49ef-ad58-2a1b73a15a49","ios":"levelo://app?vid=6d735bdc-6834-49ef-ad58-2a1b73a15a49"},"vehicle_type_id":"4","last_reported":1703758056,"current_range_meters":31200,"station_id":"ce4bhph2rcd13ifvqhdg","pricing_plan_id":"free"},{"bike_id":"e192df68-2c2b-482d-b6fd-3b8920434290","system_id":"levelo_inurba_marseille","lat":43.29548,"lon":5.42281,"is_reserved":false,"is_disabled":false,"rental_uris":{"android":"levelo://app?vid=e192df68-2c2b-482d-b6fd-3b8920434290","ios":"levelo://app?vid=e192df68-2c2b-482d-b6fd-3b8920434290"},