{"last_updated":1732036139,"ttl":60,"version":"2.2","data":{"bikes":[{"bike_id":"cacde89c-5086-4b87-8bcd-a2b586b3345d","system_id":"levelo_inurba_marseille","lat":43.30161,"lon":5.38095,"is_reserved":false,"is_disabled":true,"rental_uris":{"android":"levelo://app?vid=cacde89c-5086-4b87-8bcd-a2b586b3345d","ios":"levelo://app?vid=cacde89c-5086-4b87-8bcd-a2b586b3345d"},"vehicle_type_id":"4","last_reported":1732036139,"current_range_meters":38800,"station_id":"ce4bgjp2rcd13ifvqbh0","pricing_plan_id":"cebpf4jnsgd1na2vs0mg"},{"bike_id":"46c6d75a-6f02-4f33-9930-3f2ae43c6e0c","system_id":"levelo_inurba_marseille","lat":43.2558,"lon":5.38242,"is_reserved":false,"is_disabled":false,"rental_uris":{"android":"levelo://app?vid=46c6d75a-6f02-4f33-9930-3f2ae43c6e0c","ios":"levelo://app?vid=46c6d75a-6f02-4f33-9930-3f2ae43c6e0c"},"vehicle_type_id":"4","last_reported":1732036139,"current_range_meters":30000,"station_id":"ce4bhih2rcd13ifvqfs0","pricing_plan_id":"cebpf4jnsgd1na2vs0mg"},{"bike_id":"b21da081-9879-40dd-84c5-23f42e6f5e53","system_id":"levelo_inurba_marseille","lat":43.27948,"lon":5.41053,"is_reserved":false,"is_disabled":true,"rental_uris":{"android":"levelo://app?vid=b21da081-9879-40dd-84c5-23f42e6f5e53","ios":"levelo://app?vid=b21da081-9879-40dd-84c5-23f42e6f5e53"},"vehicle_type_id":"4","last_reported":1732036139,"current_range_meters":18000,"station_id":"ce4bhnp2rcd13ifvqh0g","pricing_plan_id":"cebpf4jnsgd1na2vs0mg"},{"bike_id":"d13a7018-ea43-41e1-b32f-2175b2b529c1","system_id":"levelo_inurba_marseille","lat":43.30891,"lon":5.37198,"is_reserved":false,"is_disabled":false,"rental_uris":{"android":"levelo://app?vid=d13a7018-ea43-41e1-b32f-2175b2b529c1","ios":"levelo://app?vid=d13a7018-ea43-41e1-b32f-2175b2b529c1"},"vehicle_type_id":"4","last_reported":1732036139,"current_range_meters":33600,"station_id":"ce4bguh2rcd13ifvqckg","pricing_plan_id":"cebpf4jnsgd1na2vs0mg"},{"bike_id":"dc94fd26-5f8e-4f9c-bc63-4eeb71a922dd","system_id":"levelo_inurba_marseille","lat":43.25007,"lon":5.38925,"is_reserved":false,"is_disabled":false,"rental_uris":{"android":"levelo://app?vid=dc94fd26-5f8e-4f9c-bc63-4eeb71a922dd","ios":"levelo://app?vid=dc94fd26-5f8e-4f9c-bc63-4eeb71a922dd"},"vehicle_type_id":"4","last_reported":1732036139,"current_range_meters":38000,"station_id":"ce4bhgp2rcd13ifvqfd0","pricing_plan_id":"cebpf4jnsgd1na2vs0mg"},{"bike_id":"bb9ea763-6e93-4922-b0c2-ce9421dca49b","system_id":"levelo_inurba_marseille","lat":43.25936,"lon":5.40915,"is_reserved":false,"is_disabled":true,"rental_uris":{"android":"levelo://app?vid=bb9ea763-6e93-4922-b0c2-ce9421dca49b","ios":"levelo://app?vid=bb9ea763-6e93-4922-b0c2-ce9421dca49b"},"vehicle_type_id":"4","last_reported":1732036139,"current_range_meters":0,"station_id":"ce4bhm92rcd13ifvqglg","pricing_plan_id":"cebpf4jnsgd1na2vs0mg"},{"bike_id":"df89f28d-09ef-4d95-998a-b310ab3afea0","system_id":"levelo_inurba_marseille","lat":43.33021,"lon":5.39048,"is_reserved":false,"is_disabled":false,"rental_uris":{"android":"levelo://app?vid=df89f28d-09ef-4d95-998a-b310ab3afea0","ios":"levelo://app?vid=df89f28d-09ef-4d95-998a-b310ab3afea0"},"vehicle_type_id":"4","last_reported":1732036139,"current_range_meters":11200,"station_id":"ce4bhr92rcd13ifvqhrg","pricing_plan_id":"cebpf4jnsgd1na2vs0mg"},{"bike_id":"bbe1cea3-809d-4032-946e-2e395ba9e424","system_id":"levelo_inurba_marseille","lat":43.30798,"lon":5.38169,"is_reserved":false,"is_disabled":false,"rental_uris":{"android":"levelo://app?vid=bbe1cea3-809d-4032-946e-2e395ba9e424","ios":"levelo://app?vid=bbe1cea3-809d-4032-946e-2e395ba9e424"},"vehicle_type_id":"4","last_reported":1732036139,"current_range_meters":32800,"station_id":"ce4bgt12rcd13ifvqce0","pricing_plan_id":"cebpf4jnsgd1na2vs0mg"},{"bike_id":"5000ae5d-7ab8-4bff-ad5c-2f97a33df1a7","system_id":"levelo_inurba_marseille","lat":43.29193,"lon":5.35805,"is_reserved":false,"is_disabled":true,"rental_uris":{"android":"levelo://app?vid=5000ae5d-7ab8-4bff-ad5c-2f97a33df1a7","ios":"levelo://app?vid=5000ae5d-7ab8-4bff-ad5c-2f97a33df1a7"},"vehicle_type_id":"4","last_reported":1732036139,"current_range_meters":0,"station_id":"ce4bhb12rcd13ifvqel0","pricing_plan_id":"cebpf4jnsgd1na2vs0mg"},{"bike_id":"a56f6a73-a417-4b77-990d-34fd53b180b1","system_id":"levelo_inurba_marseille","lat":43.30884,"lon":5.39639,"is_reserved":false,"is_disabled":true,"rental_uris":{"android":"levelo://app?vid=a56f6a73-a417-4b77-990d-34fd53b180b1","ios":"levelo://app?vid=a56f6a73-a417-4b77-990d-34fd53b180b1"},"vehicle_type_id":"4","last_reported":1732036139,"current_range_meters":0,"station_id":"ce4bh012rcd13ifvqcv0","pricing_plan_id":"cebpf4jnsgd1na2vs0mg"},{"bike_id":"0ea93326-5034-4b5e-97b8-0a33b4d38611","system_id":"levelo_inurba_marseille","lat":43.30151,"lon":5.38103,"is_reserved":false,"is_disabled":true,"rental_uris":{"android":"levelo://app?vid=0ea93326-5034-4b5e-97b8-0a33b4d38611","ios":"levelo://app?vid=0ea93326-5034-4b5e-97b8-0a33b4d38611"},"vehicle_type_id":"4","last_reported":1732036139,"current_range_meters":0,"station_id":"ce4bgjp2rcd13ifvqbh0","pricing_plan_id":"cebpf4jnsgd1na2vs0mg"},{"bike_id":"c817807f-cd5e-4a7a-85b0-43cb81764f3b","system_id":"levelo_inurba_marseille","lat":43.28668,"lon":5.38663,"is_reserved":false,"is_disabled":false,"rental_uris":{"android":"levelo://app?vid=c817807f-cd5e-4a7a-85b0-43cb81764f3b","ios":"levelo://app?vid=c817807f-cd5e-4a7a-85b0-43cb81764f3b"},"vehicle_type_id":"4","last_reported":1732036139,"current_range_meters":2000,"station_id":"ce4bh492rcd13ifvqdug","pricing_plan_id":"cebpf4jnsgd1na2vs0mg"},{"bike_id":"f236f1c4-60fd-4e20-9640-52a56a1e5897","system_id":"levelo_inurba_marseille","lat":43.31494,"lon":5.37309,"is_reserved":false,"is_disabled":false,"rental_uris":{"android":"levelo://app?vid=f236f1c4-60fd-4e20-9640-52a56a1e5897","ios":"levelo://app?vid=f236f1c4-60fd-4e20-9640-52a56a1e5897"},"vehicle_type_id":"4","last_reported":1732036139,"current_range_meters":14000,"station_id":"ce4bgt12rcd13ifvqcd0","pricing_plan_id":"cebpf4jnsgd1na2vs0mg"},{"bike_id":"2f466cdc-d7ba-4f7a-9bba-23912463f264","system_id":"levelo_inurba_marseille","lat":43.30293,"lon":5.39218,"is_reserved":false,"is_disabled":false,"rental_uris":{"android":"levelo://app?vid=2f466cdc-d7ba-4f7a-9bba-23912463f264","ios":"levelo://app?vid=2f466cdc-d7ba-4f7a-9bba-23912463f264"},"vehicle_type_id":"4","last_reported":1732036139,"current_range_meters":16800,"station_id":"ce4bgkh2rcd13ifvqbk0","pricing_plan_id":"cebpf4jnsgd1na2vs0mg"},{"bike_id":"8171ab48-0b48-453b-a8d6-52e9b0c56fa5","system_id":"levelo_inurba_marseille","lat":43.30788,"lon":5.37642,"is_reserved":false,"is_disabled":false,"rental_uris":{"android":"levelo://app?vid=8171ab48-0b48-453b-a8d6-52e9b0c56fa5","ios":"levelo://app?vid=8171ab48-0b48-453b-a8d6-52e9b0c56fa5"},"vehicle_type_id":"4","last_reported":1732036139,"current_range_meters":30800,"station_id":"ce4bgv92rcd13ifvqcq0","pricing_plan_id":"cebpf4jnsgd1na2vs0mg"},{"bike_id":"dbe74249-58cd-403e-a63d-5e0a1c17b552","system_id":"levelo_inurba_marseille","lat":43.24093,"lon":5.37745,"is_reserved":false,"is_disabled":true,"rental_uris":{"android":"levelo://app?vid=dbe74249-58cd-403e-a63d-5e0a1c17b552","ios":"levelo://app?vid=dbe74249-58cd-403e-a63d-5e0a1c17b552"},"vehicle_type_id":"4","last_reported":1732036139,"current_range_meters":0,"station_id":"","pricing_plan_id":"cebpf4jnsgd1na2vs0mg"},{"bike_id":"c85666ef-4eaa-47a5-b89b-259bc40468c0","system_id":"levelo_inurba_marseille","lat":43.33065,"lon":5.39033,"is_reserved":false,"is_disabled":false,"rental_uris":{"android":"levelo://app?vid=c85666ef-4eaa-47a5-b89b-259bc40468c0","ios":"levelo://app?vid=c85666ef-4eaa-47a5-b89b-259bc40468c0"},"vehicle_type_id":"4","last_reported":1732036139,"current_range_meters":38800,"station_id":"ce4bhr92rcd13ifvqhrg","pricing_plan_id":"cebpf4jnsgd1na2vs0mg"},{"bike_id":"6414caae-d205-40bb-a1a7-13615a926124","system_id":"levelo_inurba_marseille","lat":43.29687,"lon":5.3729,"is_reserved":false,"is_disabled":false,"rental_uris":{"android":"levelo://app?vid=6414caae-d205-40bb-a1a7-13615a926124","ios":"levelo://app?vid=6414caae-d205-40bb-a1a7-13615a926124"},"vehicle_type_id":"4","last_reported":1732036139,"current_range_meters":31200,"station_id":"ce4bgk12rcd13ifvqbj0","pricing_plan_id":"cebpf4jnsgd1na2vs0mg"},{"bike_id":"a52d0eec-fb39-483d-9ed5-4d9bee576e30","system_id":"levelo_inurba_marseille","lat":43.30135,"lon":5.39855,"is_reserved":false,"is_disabled":false,"rental_uris":{"android":"levelo://app?vid=a52d0eec-fb39-483d-9ed5-4d9bee576e30","ios":"levelo://app?vid=a52d0eec-fb39-483d-9ed5-4d9bee576e30"},"vehicle_type_id":"4","last_reported":1732036139,"current_range_meters":22000,"station_id":"ce4bh0h2rcd13ifvqd40","pricing_plan_id":"cebpf4jnsgd1na2vs0mg"},{"bike_id":"9ac62003-6c46-4ae2-b70d-62e764553f72","system_id":"levelo_inurba_marseille","lat":43.27936,"lon":5.41049,"is_reserved":false,"is_disabled":false,"rental_uris":{"android":"levelo://app?vid=9ac62003-6c46-4ae2-b70d-62e764553f72","ios":"levelo://app?vid=9ac62003-6c46-4ae2-b70d-62e764553f72"},"vehicle_type_id":"4","last_reported":1732036139,"current_range_meters":25600,"station_id":"ce4bhnp2rcd13ifvqh0g","pricing_plan_id":"cebpf4jnsgd1na2vs0mg"},{"bike_id":"4f17ca83-5b56-46c8-9eb1-44219ca2b9a0","system_id":"levelo_inurba_marseille","lat":43.29856,"lon":5.38342,"is_reserved":false,"is_disabled":false,"rental_uris":{"android":"levelo://app?vid=4f17ca83-5b56-46c8-9eb1-44219ca2b9a0","ios":"levelo://app?vid=4f17ca83-5b56-46c8-9eb1-44219ca2b9a0"},"vehicle_type_id":"4","last_reported":1732036139,"current_range_meters":22000,"station_id":"","pricing_plan_id":"cebpf4jnsgd1na2vs0mg"},{"bike_id":"cbccd853-9bf6-4195-af9b-63f16bc19009","system_id":"levelo_inurba_marseille","lat":43.28465,"lon":5.3588,"is_reserved":false,"is_disabled":false,"rental_uris":{"android":"levelo://app?vid=cbccd853-9bf6-4195-af9b-63f16bc19009","ios":"levelo://app?vid=cbccd853-9bf6-4195-af9b-63f16bc19009"},"vehicle_type_id":"4","last_reported":1732036139,"current_range_meters":33600,"station_id":"ce4bhah2rcd13ifvqei0","pricing_plan_id":"cebpf4jnsgd1na2vs0mg"},{"bike_id":"7b7e23dd-2402-4c1a-b44b-d88ff97e3cd7","system_id":"levelo_inurba_marseille","lat":43.29424,"lon":5.3864,"is_reserved":false,"is_disabled":false,"rental_uris":{"android":"levelo://app?vid=7b7e23dd-2402-4c1a-b44b-d88ff97e3cd7","ios":"levelo://app?vid=7b7e23dd-2402-4c1a-b44b-d88ff97e3cd7"},"vehicle_type_id":"4","last_reported":1732036139,"current_range_meters":10800,"station_id":"ce4bh2h2rcd13ifvqdh0","pricing_plan_id":"cebpf4jnsgd1na2vs0mg"},{"bike_id":"edc0c13a-66e9-43e9-a662-c9c4cc639816","system_id":"levelo_inurba_marseille","lat":43.31365,"lon":5.38496,"is_reserved":false,"is_disabled":true,"rental_uris":{"android":"levelo://app?vid=edc0c13a-66e9-43e9-a662-c9c4cc639816","ios":"levelo://app?vid=edc0c13a-66e9-43e9-a662-c9c4cc639816"},"vehicle_type_id":"4","last_reported":1732036139,"current_range_meters":0,"station_id":"ce4bgt92rcd13ifvqcf0","pricing_plan_id":"cebpf4jnsgd1na2vs0mg"},{"bike_id":"3c4a7f4d-16f2-4011-a9b3-9c09a0e038e6","system_id":"levelo_inurba_marseille","lat":43.29523,"lon":5.39406,"is_reserved":false,"is_disabled":false,"rental_uris":{"android":"levelo://app?vid=3c4a7f4d-16f2-4011-a9b3-9c09a0e038e6","ios":"levelo://app?vid=3c4a7f4d-16f2-4011-a9b3-9c09a0e038e6"},"vehicle_type_id":"4","last_reported":1732036139,"current_range_meters":12800,"station_id":"ce4bh292rcd13ifvqdf0","pricing_plan_id":"cebpf4jnsgd1na2vs0mg"},{"bike_id":"85308c21-24d3-4ff7-9073-790d239a9901","system_id":"levelo_inurba_marseille","lat":43.31076,"lon":5.38348,"is_reserved":false,"is_disabled":true,"rental_uris":{"android":"levelo://app?vid=85308c21-24d3-4ff7-9073-790d239a9901","ios":"levelo://app?vid=85308c21-24d3-4ff7-9073-790d239a9901"},"vehicle_type_id":"4","last_reported":1732036139,"current_range_meters":36400,"station_id":"ce4bgv92rcd13ifvqcr0","pricing_plan_id":"cebpf4jnsgd1na2vs0mg"},{"bike_id":"8891c0f9-febd-407f-834f-a28776e168a7","system_id":"levelo_inurba_marseille","lat":43.24668,"lon":5.38169,"is_reserved":false,"is_disabled":false,"rental_uris":{"android":"levelo://app?vid=8891c0f9-febd-407f-834f-a28776e168a7","ios":"levelo://app?vid=8891c0f9-febd-407f-834f-a28776e168a7"},"vehicle_type_id":"4","last_reported":1732036139,"current_range_meters":9200,"station_id":"ce4bhih2rcd13ifvqfr0","pricing_plan_id":"cebpf4jnsgd1na2vs0mg"},{"bike_id":"1db39da8-b44e-4b8c-b72f-47f83c9ad948","system_id":"levelo_inurba_marseille","lat":43.27673,"lon":5.38929,"is_reserved":false,"is_disabled":false,"rental_uris":{"android":"levelo://app?vid=1db39da8-b44e-4b8c-b72f-47f83c9ad948","ios":"levelo://app?vid=1db39da8-b44e-4b8c-b72f-47f83c9ad948"},"vehicle_type_id":"4","last_reported":1732036139,"current_range_meters":12000,"station_id":"ce4bhi12rcd13ifvqfo0","pricing_plan_id":"cebpf4jnsgd1na2vs0mg"},{"bike_id":"77ee0227-6cee-45a9-a9b5-a32a2c135645","system_id":"levelo_inurba_marseille","lat":43.28415,"lon":5.38188,"is_reserved":false,"is_disabled":true,"rental_uris":{"android":"levelo://app?vid=77ee0227-6cee-45a9-a9b5-a32a2c135645","ios":"levelo://app?vid=77ee0227-6cee-45a9-a9b5-a32a2c135645"},"vehicle_type_id":"4","last_reported":1732036139,"current_range_meters":800,"station_id":"ce4bh412rcd13ifvqdr0","pricing_plan_id":"cebpf4jnsgd1na2vs0mg"},{"bike_id":"3b750261-43fb-4e04-85e0-f780a21f3a96","system_id":"levelo_inurba_marseille","lat":43.31371,"lon":5.38498,"is_reserved":false,"is_disabled":false,"rental_uris":{"android":"levelo://app?vid=3b750261-43fb-4e04-85e0-f780a21f3a96","ios":"levelo://app?vid=3b750261-43fb-4e04-85e0-f780a21f3a96"},"vehicle_type_id":"4","last_reported":1732036139,"current_range_meters":35200,"station_id":"ce4bgt92rcd13ifvqcf0","pricing_plan_id":"cebpf4jnsgd1na2vs0mg"},{"bike_id":"1341a828-b981-4198-a789-8a5791ca7539","system_id":"levelo_inurba_marseille","lat":43.25006,"lon":5.389213,"is_reserved":false,"is_disabled":false,"rental_uris":{"android":"levelo://app?vid=1341a828-b981-4198-a789-8a5791ca7539","ios":"levelo://app?vid=1341a828-b981-4198-a789-8a5791ca7539"},"vehicle_type_id":"4","last_reported":1732036139,"current_range_meters":35600,"station_id":"ce4bhgp2rcd13ifvqfd0","pricing_plan_id":"cebpf4jnsgd1na2vs0mg"},{"bike_id":"645e3cc3-5d53-4fad-b652-8da2295d3996","system_id":"levelo_inurba_marseille","lat":43.31754,"lon":5.39019,"is_reserved":false,"is_disabled":false,"rental_uris":{"android":"levelo://app?vid=645e3cc3-5d53-4fad-b652-8da2295d3996","ios":"levelo://app?vid=645e3cc3-5d53-4fad-b652-8da2295d3996"},"vehicle_type_id":"4","last_reported":1732036139,"current_range_meters":26000,"station_id":"ce4bhqp2rcd13ifvqhng","pricing_plan_id":"cebpf4jnsgd1na2vs0mg"},{"bike_id":"db26f0b7-1f48-4c43-a5e9-35f65374115c","system_id":"levelo_inurba_marseille","lat":43.31328,"lon":5.39694,"is_reserved":false,"is_disabled":false,"rental_uris":{"android":"levelo://app?vid=db26f0b7-1f48-4c43-a5e9-35f65374115c","ios":"levelo://app?vid=db26f0b7-1f48-4c43-a5e9-35f65374115c"},"vehicle_type_id":"4","last_reported":1732036139,"current_range_meters":6400,"station_id":"ce4bgvp2rcd13ifvqcu0","pricing_plan_id":"cebpf4jnsgd1na2vs0mg"},{"bike_id":"ec9396f6-920a-49c5-90b3-999117f09c4d","system_id":"levelo_inurba_marseille","lat":43.25504,"lon":5.37652,"is_reserved":false,"is_disabled":false,"rental_uris":{"android":"levelo://app?vid=ec9396f6-920a-49c5-90b3-999117f09c4d","ios":"levelo://app?vid=ec9396f6-920a-49c5-90b3-999117f09c4d"},"vehicle_type_id":"4","last_reported":1732036139,"current_range_meters":30800,"station_id":"ce4bhh12rcd13ifvqff0","pricing_plan_id":"cebpf4jnsgd1na2vs0mg"},{"bike_id":"e3511c0c-eb2b-4100-bb2d-c5ebcd644bea","system_id":"levelo_inurba_marseille","lat":43.23962,"lon":5.36627,"is_reserved":false,"is_disabled":true,"rental_uris":{"android":"levelo://app?vid=e3511c0c-eb2b-4100-bb2d-c5ebcd644bea","ios":"levelo://app?vid=e3511c0c-eb2b-4100-bb2d-c5ebcd644bea"},"vehicle_type_id":"4","last_reported":1732036139,"current_range_meters":35200,"station_id":"ce4bhi12rcd13ifvqfp0","pricing_plan_id":"cebpf4jnsgd1na2vs0mg"},{"bike_id":"7dc2540e-5c15-49cc-843d-b22dafd2ded0","system_id":"levelo_inurba_marseille","lat":43.33758,"lon":5.37427,"is_reserved":false,"is_disabled":false,"rental_uris":{"android":"levelo://app?vid=7dc2540e-5c15-49cc-843d-b22dafd2ded0","ios":"levelo://app?vid=7dc2540e-5c15-49cc-843d-b22dafd2ded0"},"vehicle_type_id":"4","last_reported":1732036139,"current_range_meters":36400,"station_id":"","pricing_plan_id":"cebpf4jnsgd1na2vs0mg"},{"bike_id":"5917a06d-1a89-42ee-9c96-70b3e49f2520","system_id":"levelo_inurba_marseille","lat":43.31697,"lon":5.40472,"is_reserved":false,"is_disabled":true,"rental_uris":{"android":"levelo://app?vid=5917a06d-1a89-42ee-9c96-70b3e49f2520","ios":"levelo://app?vid=5917a06d-1a89-42ee-9c96-70b3e49f2520"},"vehicle_type_id":"4","last_reported":1732036139,"current_range_meters":10800,"station_id":"ce4bh012rcd13ifvqd00","pricing_plan_id":"cebpf4jnsgd1na2vs0mg"},{"bike_id":"497454ce-e4eb-4dce-94e8-18190e4c429b","system_id":"levelo_inurba_marseille","lat":43.27815,"lon":5.4072,"is_reserved":false,"is_disabled":true,"rental_uris":{"android":"levelo://app?vid=497454ce-e4eb-4dce-94e8-18190e4c429b","ios":"levelo://app?vid=497454ce-e4eb-4dce-94e8-18190e4c429b"},"vehicle_type_id":"4","last_reported":1732036139,"current_range_meters":0,"station_id":"ce4bhnh2rcd13ifvqgtg","pricing_plan_id":"cebpf4jnsgd1na2vs0mg"},{"bike_id":"2e3f6c09-99e4-49a8-9dc1-b3ba4d6d553c","system_id":"levelo_inurba_marseille","lat":43.29379,"lon":5.37852,"is_reserved":false,"is_disabled":false,"rental_uris":{"android":"levelo://app?vid=2e3f6c09-99e4-49a8-9dc1-b3ba4d6d553c","ios":"levelo://app?vid=2e3f6c09-99e4-49a8-9dc1-b3ba4d6d553c"},"vehicle_type_id":"4","last_reported":1732036139,"current_range_meters":2800,"station_id":"ce4bgjh2rcd13ifvqbf0","pricing_plan_id":"cebpf4jnsgd1na2vs0mg"},{"bike_id":"234c2d44-811b-496d-933b-9ef853e058b2","system_id":"levelo_inurba_marseille","lat":43.29092,"lon":5.38156,"is_reserved":false,"is_disabled":true,"rental_uris":{"android":"levelo://app?vid=234c2d44-811b-496d-933b-9ef853e058b2","ios":"levelo://app?vid=234c2d44-811b-496d-933b-9ef853e058b2"},"vehicle_type_id":"4","last_reported":1732036139,"current_range_meters":0,"station_id":"ce4bh512rcd13ifvqe2g","pricing_plan_id":"cebpf4jnsgd1na2vs0mg"},{"bike_id":"25073dac-1c4b-4235-88f2-ba7b09ca22ac","system_id":"levelo_inurba_marseille","lat":43.32286,"lon":5.38274,"is_reserved":false,"is_disabled":false,"rental_uris":{"android":"levelo://app?vid=25073dac-1c4b-4235-88f2-ba7b09ca22ac","ios":"levelo://app?vid=25073dac-1c4b-4235-88f2-ba7b09ca22ac"},"vehicle_type_id":"4","last_reported":1732036139,"current_range_meters":20800,"station_id":"ce4bhr12rcd13ifvqhqg","pricing_plan_id":"cebpf4jnsgd1na2vs0mg"},{"bike_id":"37f14134-d611-451c-9aaa-25a59bd49fe3","system_id":"levelo_inurba_marseille","lat":43.29873,"lon":5.39749,"is_reserved":false,"is_disabled":true,"rental_uris":{"android":"levelo://app?vid=37f14134-d611-451c-9aaa-25a59bd49fe3","ios":"levelo://app?vid=37f14134-d611-451c-9aaa-25a59bd49fe3"},"vehicle_type_id":"4","last_reported":1732036139,"current_range_meters":38800,"station_id":"ce4bh0h2rcd13ifvqd50","pricing_plan_id":"cebpf4jnsgd1na2vs0mg"},{"bike_id":"c56c43d9-e006-4aba-b690-f1e0946ff685","system_id":"levelo_inurba_marseille","lat":43.30914,"lon":5.36848,"is_reserved":false,"is_disabled":false,"rental_uris":{"android":"levelo://app?vid=c56c43d9-e006-4aba-b690-f1e0946ff685","ios":"levelo://app?vid=c56c43d9-e006-4aba-b690-f1e0946ff685"},"vehicle_type_id":"4","last_reported":1732036139,"current_range_meters":28800,"station_id":"ce4bgn92rcd13ifvqbvg","pricing_plan_id":"cebpf4jnsgd1na2vs0mg"},{"bike_id":"dc7fa527-4def-471c-bced-6291e149d306","system_id":"levelo_inurba_marseille","lat":43.27811,"lon":5.40722,"is_reserved":false,"is_disabled":true,"rental_uris":{"android":"levelo://app?vid=dc7fa527-4def-471c-bced-6291e149d306","ios":"levelo://app?vid=dc7fa527-4def-471c-bced-6291e149d306"},"vehicle_type_id":"4","last_reported":1732036139,"current_range_meters":400,"station_id":"ce4bhnh2rcd13ifvqgtg","pricing_plan_id":"cebpf4jnsgd1na2vs0mg"},{"bike_id":"fe466b38-f08e-4c08-bae1-f457152e4063","system_id":"levelo_inurba_marseille","lat":43.29423,"lon":5.38622,"is_reserved":false,"is_disabled":false,"rental_uris":{"android":"levelo://app?vid=fe466b38-f08e-4c08-bae1-f457152e4063","ios":"levelo://app?vid=fe466b38-f08e-4c08-bae1-f457152e4063"},"vehicle_type_id":"4","last_reported":1732036139,"current_range_meters":3200,"station_id":"ce4bh2h2rcd13ifvqdh0","pricing_plan_id":"cebpf4jnsgd1na2vs0mg"},{"bike_id":"d674a550-723f-4e20-a0c2-89aa344c2ade","system_id":"levelo_inurba_marseille","lat":43.28199,"lon":5.44385,"is_reserved":false,"is_disabled":true,"rental_uris":{"android":"levelo://app?vid=d674a550-723f-4e20-a0c2-89aa344c2ade","ios":"levelo://app?vid=d674a550-723f-4e20-a0c2-89aa344c2ade"},"vehicle_type_id":"4","last_reported":1732036139,"current_range_meters":1200,"station_id":"","pricing_plan_id":"cebpf4jnsgd1na2vs0mg"},{"bike_id":"107cb121-9e0a-4c0f-8526-f758bc7415c7","system_id":"levelo_inurba_marseille","lat":43.3149,"lon":5.37313,"is_reserved":false,"is_disabled":false,"rental_uris":{"android":"levelo://app?vid=107cb121-9e0a-4c0f-8526-f758bc7415c7","ios":"levelo://app?vid=107cb121-9e0a-4c0f-8526-f758bc7415c7"},"vehicle_type_id":"4","last_reported":1732036139,"current_range_meters":32400,"station_id":"ce4bgt12rcd13ifvqcd0","pricing_plan_id":"cebpf4jnsgd1na2vs0mg"},{"bike_id":"73de2cc8-4db3-417a-9abb-3cffa18feca4","system_id":"levelo_inurba_marseille","lat":43.28421,"lon":5.37503,"is_reserved":false,"is_disabled":false,"rental_uris":{"android":"levelo://app?vid=73de2cc8-4db3-417a-9abb-3cffa18feca4","ios":"levelo://app?vid=73de2cc8-4db3-417a-9abb-3cffa18feca4"},"vehicle_type_id":"4","last_reported":1732036139,"current_range_meters":11600,"station_id":"ce4bh412rcd13ifvqds0","pricing_plan_id":"cebpf4jnsgd1na2vs0mg"},{"bike_id":"f5cf085e-8694-4c6f-ba9c-aa6e0d3c58c6","system_id":"levelo_inurba_marseille","lat":43.34614,"lon":5.35458,"is_reserved":false,"is_disabled":true,"rental_uris":{"android":"levelo://app?vid=f5cf085e-8694-4c6f-ba9c-aa6e0d3c58c6","ios":"levelo://app?vid=f5cf085e-8694-4c6f-ba9c-aa6e0d3c58c6"},"vehicle_type_id":"4","last_reported":1732036139,"current_range_meters":17200,"station_id":"","pricing_plan_id":"cebpf4jnsgd1na2vs0mg"},{"bike_id":"3d2beca7-eef0-4bae-98e1-8b3de347272c","system_id":"levelo_inurba_marseille","lat":43.23195,"lon":5.35557,"is_reserved":false,"is_disabled":true,"rental_uris":{"android":"levelo://app?vid=3d2beca7-eef0-4bae-98e1-8b3de347272c","ios":"levelo://app?vid=3d2beca7-eef0-4bae-98e1-8b3de347272c"},"vehicle_type_id":"4","last_reported":1732036139,"current_range_meters":0,"station_id":"ce4bhu92rcd13ifvqi70","pricing_plan_id":"cebpf4jnsgd1na2vs0mg"},{"bike_id":"d6719047-f624-4636-a294-58aff5d16e83","system_id":"levelo_inurba_marseille","lat":43.27902,"lon":5.38023,"is_reserved":false,"is_disabled":false,"rental_uris":{"android":"levelo://app?vid=d6719047-f624-4636-a294-58aff5d16e83","ios":"levelo://app?vid=d6719047-f624-4636-a294-58aff5d16e83"},"vehicle_type_id":"4","last_reported":1732036139,"current_range_meters":19600,"station_id":"ce4bhf92rcd13ifvqf50","pricing_plan_id":"cebpf4jnsgd1na2vs0mg"},{"bike_id":"a36b441c-7777-4414-9bda-d350737161ca","system_id":"levelo_inurba_marseille","lat":43.28437,"lon":5.39184,"is_reserved":false,"is_disabled":false,"rental_uris":{"android":"levelo://app?vid=a36b441c-7777-4414-9bda-d350737161ca","ios":"levelo://app?vid=a36b441c-7777-4414-9bda-d350737161ca"},"vehicle_type_id":"4","last_reported":1732036139,"current_range_meters":16800,"station_id":"ce4bhoh2rcd13ifvqh5g","pricing_plan_id":"cebpf4jnsgd1na2vs0mg"},{"bike_id":"cd0c00e9-48a8-436d-8b57-cff698975cd8","system_id":"levelo_inurba_marseille","lat":43.28413,"lon":5.37517,"is_reserved":false,"is_disabled":false,"rental_uris":{"android":"levelo://app?vid=cd0c00e9-48a8-436d-8b57-cff698975cd8","ios":"levelo://app?vid=cd0c00e9-48a8-436d-8b57-cff698975cd8"},"vehicle_type_id":"4","last_reported":1732036139,"current_range_meters":30000,"station_id":"ce4bh412rcd13ifvqds0","pricing_plan_id":"cebpf4jnsgd1na2vs0mg"},{"bike_id":"bd4a772f-74de-4528-ae45-171c28be203c","system_id":"levelo_inurba_marseille","lat":43.30414,"lon":5.41292,"is_reserved":false,"is_disabled":false,"rental_uris":{"android":"levelo://app?vid=bd4a772f-74de-4528-ae45-171c28be203c","ios":"levelo://app?vid=bd4a772f-74de-4528-ae45-171c28be203c"},"vehicle_type_id":"4","last_reported":1732036139,"current_range_meters":28000,"station_id":"ce4bhop2rcd13ifvqh8g","pricing_plan_id":"cebpf4jnsgd1na2vs0mg"},{"bike_id":"b025ac42-87a5-4dd9-9db1-d22342e3b716","system_id":"levelo_inurba_marseille","lat":43.30414,"lon":5.4128,"is_reserved":false,"is_disabled":false,"rental_uris":{"android":"levelo://app?vid=b025ac42-87a5-4dd9-9db1-d22342e3b716","ios":"levelo://app?vid=b025ac42-87a5-4dd9-9db1-d22342e3b716"},"vehicle_type_id":"4","last_reported":1732036139,"current_range_meters":12400,"station_id":"ce4bhop2rcd13ifvqh8g","pricing_plan_id":"cebpf4jnsgd1na2vs0mg"},{"bike_id":"c8d83793-85bb-4952-9046-6f5b4463921b","system_id":"levelo_inurba_marseille","lat":43.30799,"lon":5.38162,"is_reserved":false,"is_disabled":false,"rental_uris":{"android":"levelo://app?vid=c8d83793-85bb-4952-9046-6f5b4463921b","ios":"levelo://app?vid=c8d83793-85bb-4952-9046-6f5b4463921b"},"vehicle_type_id":"4","last_reported":1732036139,"current_range_meters":32000,"station_id":"ce4bgt12rcd13ifvqce0","pricing_plan_id":"cebpf4jnsgd1na2vs0mg"},{"bike_id":"28ca4ab7-9f04-4ae3-bbcf-4d20e25a72c6","system_id":"levelo_inurba_marseille","lat":43.23179,"lon":5.3999,"is_reserved":false,"is_disabled":false,"rental_uris":{"android":"levelo://app?vid=28ca4ab7-9f04-4ae3-bbcf-4d20e25a72c6","ios":"levelo://app?vid=28ca4ab7-9f04-4ae3-bbcf-4d20e25a72c6"},"vehicle_type_id":"4","last_reported":1732036139,"current_range_meters":14000,"station_id":"ce4bhn12rcd13ifvqgqg","pricing_plan_id":"cebpf4jnsgd1na2vs0mg"},{"bike_id":"2b9bd79d-166f-4c83-88dd-b221433e5801","system_id":"levelo_inurba_marseille","lat":43.3092,"lon":5.3685,"is_reserved":false,"is_disabled":false,"rental_uris":{"android":"levelo://app?vid=2b9bd79d-166f-4c83-88dd-b221433e5801","ios":"levelo://app?vid=2b9bd79d-166f-4c83-88dd-b221433e5801"},"vehicle_type_id":"4","last_reported":1732036139,"current_range_meters":38800,"station_id":"ce4bgn92rcd13ifvqbvg","pricing_plan_id":"cebpf4jnsgd1na2vs0mg"},{"bike_id":"d37ebefb-5d59-48ab-81bb-8f976905b3ce","system_id":"levelo_inurba_marseille","lat":43.30299,"lon":5.37699,"is_reserved":false,"is_disabled":false,"rental_uris":{"android":"levelo://app?vid=d37ebefb-5d59-48ab-81bb-8f976905b3ce","ios":"levelo://app?vid=d37ebefb-5d59-48ab-81bb-8f976905b3ce"},"vehicle_type_id":"4","last_reported":1732036139,"current_range_meters":32000,"station_id":"ce4bguh2rcd13ifvqcj0","pricing_plan_id":"cebpf4jnsgd1na2vs0mg"},{"bike_id":"bc249293-6395-4334-b84a-652f70f197fc","system_id":"levelo_inurba_marseille","lat":43.2763,"lon":5.42656,"is_reserved":false,"is_disabled":true,"rental_uris":{"android":"levelo://app?vid=bc249293-6395-4334-b84a-652f70f197fc","ios":"levelo://app?vid=bc249293-6395-4334-b84a-652f70f197fc"},"vehicle_type_id":"4","last_reported":1732036139,"current_range_meters":0,"station_id":"","pricing_plan_id":"cebpf4jnsgd1na2vs0mg"},{"bike_id":"c08fbe5e-8d67-40e3-b0c1-65c4bcae0162","system_id":"levelo_inurba_marseille","lat":43.31491,"lon":5.37311,"is_reserved":false,"is_disabled":false,"rental_uris":{"android":"levelo://app?vid=c08fbe5e-8d67-40e3-b0c1-65c4bcae0162","ios":"levelo://app?vid=c08fbe5e-8d67-40e3-b0c1-65c4bcae0162"},"vehicle_type_id":"4","last_reported":1732036139,"current_range_meters":32400,"station_id":"ce4bgt12rcd13ifvqcd0","pricing_plan_id":"cebpf4jnsgd1na2vs0mg"},{"bike_id":"b6b54739-c143-428e-b6ec-2d44124d8fc7","system_id":"levelo_inurba_marseille","lat":43.29259,"lon":5.4091,"is_reserved":false,"is_disabled":false,"rental_uris":{"android":"levelo://app?vid=b6b54739-c143-428e-b6ec-2d44124d8fc7","ios":"levelo://app?vid=b6b54739-c143-428e-b6ec-2d44124d8fc7"},"vehicle_type_id":"4","last_reported":1732036139,"current_range_meters":26000,"station_id":"ce4bh192rcd13ifvqdc0","pricing_plan_id":"cebpf4jnsgd1na2vs0mg"},{"bike_id":"be1dd5f8-91fc-4786-8461-76cd869dae13","system_id":"levelo_inurba_marseille","lat":43.31982,"lon":5.41584,"is_reserved":false,"is_disabled":true,"rental_uris":{"android":"levelo://app?vid=be1dd5f8-91fc-4786-8461-76cd869dae13","ios":"levelo://app?vid=be1dd5f8-91fc-4786-8461-76cd869dae13"},"vehicle_type_id":"4","last_reported":1732036139,"current_range_meters":25200,"station_id":"","pricing_plan_id":"cebpf4jnsgd1na2vs0mg"},{"bike_id":"3d506a14-01d8-4d60-beee-0e92a38005f7","system_id":"levelo_inurba_marseille","lat":43.30909,"lon":5.36849,"is_reserved":false,"is_disabled":false,"rental_uris":{"android":"levelo://app?vid=3d506a14-01d8-4d60-beee-0e92a38005f7","ios":"levelo://app?vid=3d506a14-01d8-4d60-beee-0e92a38005f7"},"vehicle_type_id":"4","last_reported":1732036139,"current_range_meters":28800,"station_id":"ce4bgn92rcd13ifvqbvg","pricing_plan_id":"cebpf4jnsgd1na2vs0mg"},{"bike_id":"2a9d0980-8e22-454d-831e-ddd37d645c2e","system_id":"levelo_inurba_marseille","lat":43.28442,"lon":5.39195,"is_reserved":false,"is_disabled":false,"rental_uris":{"android":"levelo://app?vid=2a9d0980-8e22-454d-831e-ddd37d645c2e","ios":"levelo://app?vid=2a9d0980-8e22-454d-831e-ddd37d645c2e"},"vehicle_type_id":"4","last_reported":1732036139,"current_range_meters":31200,"station_id":"ce4bhoh2rcd13ifvqh5g","pricing_plan_id":"cebpf4jnsgd1na2vs0mg"},{"bike_id":"80ed2145-0455-4da8-ae4a-e36065982ce3","system_id":"levelo_inurba_marseille","lat":43.32366,"lon":5.38886,"is_reserved":false,"is_disabled":false,"rental_uris":{"android":"levelo://app?vid=80ed2145-0455-4da8-ae4a-e36065982ce3","ios":"levelo://app?vid=80ed2145-0455-4da8-ae4a-e36065982ce3"},"vehicle_type_id":"4","last_reported":1732036139,"current_range_meters":17200,"station_id":"ce4bhqp2rcd13ifvqhog","pricing_plan_id":"cebpf4jnsgd1na2vs0mg"},{"bike_id":"e5e2248a-03d3-4b07-b4f7-fd61796e9419","system_id":"levelo_inurba_marseille","lat":43.29975,"lon":5.38081,"is_reserved":false,"is_disabled":false,"rental_uris":{"android":"levelo://app?vid=e5e2248a-03d3-4b07-b4f7-fd61796e9419","ios":"levelo://app?vid=e5e2248a-03d3-4b07-b4f7-fd61796e9419"},"vehicle_type_id":"4","last_reported":1732036139,"current_range_meters":38000,"station_id":"","pricing_plan_id":"cebpf4jnsgd1na2vs0mg"},{"bike_id":"9585d805-1328-453d-95bb-bbcd33e8cfe6","system_id":"levelo_inurba_marseille","lat":43.30543,"lon":5.36553,"is_reserved":false,"is_disabled":false,"rental_uris":{"android":"levelo://app?vid=9585d805-1328-453d-95bb-bbcd33e8cfe6","ios":"levelo://app?vid=9585d805-1328-453d-95bb-bbcd33e8cfe6"},"vehicle_type_id":"4","last_reported":1732036139,"current_range_meters":12000,"station_id":"ce4bgs12rcd13ifvqcag","pricing_plan_id":"cebpf4jnsgd1na2vs0mg"},{"bike_id":"f198b97b-88d4-49aa-b205-4610520421a6","system_id":"levelo_inurba_marseille","lat":43.33022,"lon":5.39037,"is_reserved":false,"is_disabled":false,"rental_uris":{"android":"levelo://app?vid=f198b97b-88d4-49aa-b205-4610520421a6","ios":"levelo://app?vid=f198b97b-88d4-49aa-b205-4610520421a6"},"vehicle_type_id":"4","last_reported":1732036139,"current_range_meters":33600,"station_id":"ce4bhr92rcd13ifvqhrg","pricing_plan_id":"cebpf4jnsgd1na2vs0mg"},{"bike_id":"6fe65320-959e-41bb-8132-72e6c31cb31d","system_id":"levelo_inurba_marseille","lat":43.28075,"lon":5.39661,"is_reserved":false,"is_disabled":true,"rental_uris":{"android":"levelo://app?vid=6fe65320-959e-41bb-8132-72e6c31cb31d","ios":"levelo://app?vid=6fe65320-959e-41bb-8132-72e6c31cb31d"},"vehicle_type_id":"4","last_reported":1732036139,"current_range_meters":38000,"station_id":"ce4bho12rcd13ifvqh2g","pricing_plan_id":"cebpf4jnsgd1na2vs0mg"},{"bike_id":"abf2e417-7fd0-4f5e-9afa-64af93f85e22","system_id":"levelo_inurba_marseille","lat":43.31993,"lon":5.38159,"is_reserved":false,"is_disabled":false,"rental_uris":{"android":"levelo://app?vid=abf2e417-7fd0-4f5e-9afa-64af93f85e22","ios":"levelo://app?vid=abf2e417-7fd0-4f5e-9afa-64af93f85e22"},"vehicle_type_id":"4","last_reported":1732036139,"current_range_meters":35600,"station_id":"ce4bhr12rcd13ifvqhpg","pricing_plan_id":"cebpf4jnsgd1na2vs0mg"},{"bike_id":"5fe20d58-65ac-4c8a-b149-a2e6de20044d","system_id":"levelo_inurba_marseille","lat":43.29379,"lon":5.37859,"is_reserved":false,"is_disabled":true,"rental_uris":{"android":"levelo://app?vid=5fe20d58-65ac-4c8a-b149-a2e6de20044d","ios":"levelo://app?vid=5fe20d58-65ac-4c8a-b149-a2e6de20044d"},"vehicle_type_id":"4","last_reported":1732036139,"current_range_meters":31200,"station_id":"ce4bgjh2rcd13ifvqbf0","pricing_plan_id":"cebpf4jnsgd1na2vs0mg"},{"bike_id":"32be5db6-4917-4250-ab2a-a0fd6bfc6f06","system_id":"levelo_inurba_marseille","lat":43.25112,"lon":5.40332,"is_reserved":false,"is_disabled":false,"rental_uris":{"android":"levelo://app?vid=32be5db6-4917-4250-ab2a-a0fd6bfc6f06","ios":"levelo://app?vid=32be5db6-4917-4250-ab2a-a0fd6bfc6f06"},"vehicle_type_id":"4","last_reported":1732036139,"current_range_meters":19600,"station_id":"ce4bhlh2rcd13ifvqgig","pricing_plan_id":"cebpf4jnsgd1na2vs0mg"},{"bike_id":"1ff8d342-969b-4f99-8acc-2de2d4695842","system_id":"levelo_inurba_marseille","lat":43.29493,"lon":5.42077,"is_reserved":false,"is_disabled":false,"rental_uris":{"android":"levelo://app?vid=1ff8d342-969b-4f99-8acc-2de2d4695842","ios":"levelo://app?vid=1ff8d342-969b-4f99-8acc-2de2d4695842"},"vehicle_type_id":"4","last_reported":1732036139,"current_range_meters":29600,"station_id":"ce4bhph2rcd13ifvqhdg","pricing_plan_id":"cebpf4jnsgd1na2vs0mg"},{"bike_id":"7cc34aea-974a-4cc1-91e7-3590557c20af","system_id":"levelo_inurba_marseille","lat":43.24548,"lon":5.39524,"is_reserved":false,"is_disabled":false,"rental_uris":{"android":"levelo://app?vid=7cc34aea-974a-4cc1-91e7-3590557c20af","ios":"levelo://app?vid=7cc34aea-974a-4cc1-91e7-3590557c20af"},"vehicle_type_id":"4","last_reported":1732036139,"current_range_meters":10000,"station_id":"ce4bhlp2rcd13ifvqgjg","pricing_plan_id":"cebpf4jnsgd1na2vs0mg"},{"bike_id":"b7413e12-76a0-4246-b275-0167220abb5d","system_id":"levelo_inurba_marseille","lat":43.27611,"lon":5.3611,"is_reserved":false,"is_disabled":true,"rental_uris":{"android":"levelo://app?vid=b7413e12-76a0-4246-b275-0167220abb5d","ios":"levelo://app?vid=b7413e12-76a0-4246-b275-0167220abb5d"},"vehicle_type_id":"4","last_reported":1732036139,"current_range_meters":0,"station_id":"ce4bgj92rcd13ifvqbe0","pricing_plan_id":"cebpf4jnsgd1na2vs0mg"},{"bike_id":"26c762f5-7597-49ad-9952-c3d02fea1936","system_id":"levelo_inurba_marseille","lat":43.29417,"lon":5.38632,"is_reserved":false,"is_disabled":false,"rental_uris":{"android":"levelo://app?vid=26c762f5-7597-49ad-9952-c3d02fea1936","ios":"levelo://app?vid=26c762f5-7597-49ad-9952-c3d02fea1936"},"vehicle_type_id":"4","last_reported":1732036139,"current_range_meters":12800,"station_id":"ce4bh2h2rcd13ifvqdh0","pricing_plan_id":"cebpf4jnsgd1na2vs0mg"},{"bike_id":"24b2c3eb-8b9b-40a7-8aad-177c7a5a5f47","system_id":"levelo_inurba_marseille","lat":43.26939,"lon":5.38919,"is_reserved":false,"is_disabled":true,"rental_uris":{"android":"levelo://app?vid=24b2c3eb-8b9b-40a7-8aad-177c7a5a5f47","ios":"levelo://app?vid=24b2c3eb-8b9b-40a7-8aad-177c7a5a5f47"},"vehicle_type_id":"4","last_reported":1732036139,"current_range_meters":0,"station_id":"ce4bhhh2rcd13ifvqfl0","pricing_plan_id":"cebpf4jnsgd1na2vs0mg"},{"bike_id":"0c21866d-64a6-48bd-84ec-2cdb016bb953","system_id":"levelo_inurba_marseille","lat":43.24394,"lon":5.37064,"is_reserved":false,"is_disabled":true,"rental_uris":{"android":"levelo://app?vid=0c21866d-64a6-48bd-84ec-2cdb016bb953","ios":"levelo://app?vid=0c21866d-64a6-48bd-84ec-2cdb016bb953"},"vehicle_type_id":"4","last_reported":1732036139,"current_range_meters":0,"station_id":"ce4bhhh2rcd13ifvqfk0","pricing_plan_id":"cebpf4jnsgd1na2vs0mg"},{"bike_id":"aa00330d-c693-4b1e-9e51-526212ae81ba","system_id":"levelo_inurba_marseille","lat":43.32656,"lon":5.40989,"is_reserved":false,"is_disabled":false,"rental_uris":{"android":"levelo://app?vid=aa00330d-c693-4b1e-9e51-526212ae81ba","ios":"levelo://app?vid=aa00330d-c693-4b1e-9e51-526212ae81ba"},"vehicle_type_id":"4","last_reported":1732036139,"current_range_meters":9600,"station_id":"ce4bhpp2rcd13ifvqhgg","pricing_plan_id":"cebpf4jnsgd1na2vs0mg"},{"bike_id":"9b4d52a8-a22b-418c-a556-65afaca3a235","system_id":"levelo_inurba_marseille","lat":43.33753,"lon":5.37448,"is_reserved":false,"is_disabled":false,"rental_uris":{"android":"levelo://app?vid=9b4d52a8-a22b-418c-a556-65afaca3a235","ios":"levelo://app?vid=9b4d52a8-a22b-418c-a556-65afaca3a235"},"vehicle_type_id":"4","last_reported":1732036139,"current_range_meters":22000,"station_id":"","pricing_plan_id":"cebpf4jnsgd1na2vs0mg"},{"bike_id":"f2749132-3274-41d3-9ac9-9eab9602bb86","system_id":"levelo_inurba_marseille","lat":43.28669,"lon":5.38671,"is_reserved":false,"is_disabled":false,"rental_uris":{"android":"levelo://app?vid=f2749132-3274-41d3-9ac9-9eab9602bb86","ios":"levelo://app?vid=f2749132-3274-41d3-9ac9-9eab9602bb86"},"vehicle_type_id":"4","last_reported":1732036139,"current_range_meters":12000,"station_id":"ce4bh492rcd13ifvqdug","pricing_plan_id":"cebpf4jnsgd1na2vs0mg"},{"bike_id":"7f37bd9c-e0cf-4d2c-86ff-559049c05c60","system_id":"levelo_inurba_marseille","lat":43.29805,"lon":5.40408,"is_reserved":false,"is_disabled":false,"rental_uris":{"android":"levelo://app?vid=7f37bd9c-e0cf-4d2c-86ff-559049c05c60","ios":"levelo://app?vid=7f37bd9c-e0cf-4d2c-86ff-559049c05c60"},"vehicle_type_id":"4","last_reported":1732036139,"current_range_meters":17600,"station_id":"ce4bh112rcd13ifvqd90","pricing_plan_id":"cebpf4jnsgd1na2vs0mg"},{"bike_id":"5c215695-7517-4c59-b4ed-3d09ca94c869","system_id":"levelo_inurba_marseille","lat":43.24805,"lon":5.37458,"is_reserved":false,"is_disabled":true,"rental_uris":{"android":"levelo://app?vid=5c215695-7517-4c59-b4ed-3d09ca94c869","ios":"levelo://app?vid=5c215695-7517-4c59-b4ed-3d09ca94c869"},"vehicle_type_id":"4","last_reported":1732036139,"current_range_meters":0,"station_id":"ce4bhgh2rcd13ifvqfb0","pricing_plan_id":"cebpf4jnsgd1na2vs0mg"},{"bike_id":"3b0c545d-4cf2-4e15-900f-03b6156ee277","system_id":"levelo_inurba_marseille","lat":43.30436,"lon":5.36873,"is_reserved":false,"is_disabled":false,"rental_uris":{"android":"levelo://app?vid=3b0c545d-4cf2-4e15-900f-03b6156ee277","ios":"levelo://app?vid=3b0c545d-4cf2-4e15-900f-03b6156ee277"},"vehicle_type_id":"4","last_reported":1732036139,"current_range_meters":3600,"station_id":"","pricing_plan_id":"cebpf4jnsgd1na2vs0mg"},{"bike_id":"b8e0ff19-cfbf-49c3-a9f8-f8dcefd4b613","system_id":"levelo_inurba_marseille","lat":43.27676,"lon":5.38909,"is_reserved":false,"is_disabled":true,"rental_uris":{"android":"levelo://app?vid=b8e0ff19-cfbf-49c3-a9f8-f8dcefd4b613","ios":"levelo://app?vid=b8e0ff19-cfbf-49c3-a9f8-f8dcefd4b613"},"vehicle_type_id":"4","last_reported":1732036139,"current_range_meters":36800,"station_id":"ce4bhi12rcd13ifvqfo0","pricing_plan_id":"cebpf4jnsgd1na2vs0mg"},{"bike_id":"2b678133-f97b-4da7-9ede-ba121e0a94a1","system_id":"levelo_inurba_marseille","lat":43.28446,"lon":5.39201,"is_reserved":false,"is_disabled":false,"rental_uris":{"android":"levelo://app?vid=2b678133-f97b-4da7-9ede-ba121e0a94a1","ios":"levelo://app?vid=2b678133-f97b-4da7-9ede-ba121e0a94a1"},"vehicle_type_id":"4","last_reported":1732036139,"current_range_meters":18800,"station_id":"ce4bhoh2rcd13ifvqh5g","pricing_plan_id":"cebpf4jnsgd1na2vs0mg"},{"bike_id":"eaa42bfa-9e14-44cc-8771-e7142d3132b3","system_id":"levelo_inurba_marseille","lat":43.29243,"lon":5.40104,"is_reserved":false,"is_disabled":false,"rental_uris":{"android":"levelo://app?vid=eaa42bfa-9e14-44cc-8771-e7142d3132b3","ios":"levelo://app?vid=eaa42bfa-9e14-44cc-8771-e7142d3132b3"},"vehicle_type_id":"4","last_reported":1732036139,"current_range_meters":21600,"station_id":"ce4bh312rcd13ifvqdk0","pricing_plan_id":"cebpf4jnsgd1na2vs0mg"},{"bike_id":"e97bb34f-bdb7-4379-b94c-6511800525f6","system_id":"levelo_inurba_marseille","lat":43.28953,"lon":5.36647,"is_reserved":false,"is_disabled":false,"rental_uris":{"android":"levelo://app?vid=e97bb34f-bdb7-4379-b94c-6511800525f6","ios":"levelo://app?vid=e97bb34f-bdb7-4379-b94c-6511800525f6"},"vehicle_type_id":"4","last_reported":1732036139,"current_range_meters":25600,"station_id":"ce4bhap2rcd13ifvqek0","pricing_plan_id":"cebpf4jnsgd1na2vs0mg"},{"bike_id":"1462f68e-113f-431d-9d5b-f4d7f987f2b8","system_id":"levelo_inurba_marseille","lat":43.28488,"lon":5.38424,"is_reserved":false,"is_disabled":true,"rental_uris":{"android":"levelo://app?vid=1462f68e-113f-431d-9d5b-f4d7f987f2b8","ios":"levelo://app?vid=1462f68e-113f-431d-9d5b-f4d7f987f2b8"},"vehicle_type_id":"4","last_reported":1732036139,"current_range_meters":13600,"station_id":"ce4bh512rcd13ifvqe3g","pricing_plan_id":"cebpf4jnsgd1na2vs0mg"},{"bike_id":"7084a388-c7ed-42d0-b175-07b5bba1901b","system_id":"levelo_inurba_marseille","lat":43.27935,"lon":5.39705,"is_reserved":false,"is_disabled":false,"rental_uris":{"android":"levelo://app?vid=7084a388-c7ed-42d0-b175-07b5bba1901b","ios":"levelo://app?vid=7084a388-c7ed-42d0-b175-07b5bba1901b"},"vehicle_type_id":"4","last_reported":1732036139,"current_range_meters":18800,"station_id":"ce4bhf92rcd13ifvqf40","pricing_plan_id":"cebpf4jnsgd1na2vs0mg"},{"bike_id":"0b733133-03c9-4766-961e-92b775b50bbc","system_id":"levelo_inurba_marseille","lat":43.28193,"lon":5.44272,"is_reserved":false,"is_disabled":true,"rental_uris":{"android":"levelo://app?vid=0b733133-03c9-4766-961e-92b775b50bbc","ios":"levelo://app?vid=0b733133-03c9-4766-961e-92b775b50bbc"},"vehicle_type_id":"4","last_reported":1732036139,"current_range_meters":0,"station_id":"","pricing_plan_id":"cebpf4jnsgd1na2vs0mg"},{"bike_id":"87f72484-0dd8-4a5a-8b7f-bb079e67d618","system_id":"levelo_inurba_marseille","lat":43.29586,"lon":5.3675,"is_reserved":false,"is_disabled":false,"rental_uris":{"android":"levelo://app?vid=87f72484-0dd8-4a5a-8b7f-bb079e67d618","ios":"levelo://app?vid=87f72484-0dd8-4a5a-8b7f-bb079e67d618"},"vehicle_type_id":"4","last_reported":1732036139,"current_range_meters":27600,"station_id":"ce4bgph2rcd13ifvqc2g","pricing_plan_id":"cebpf4jnsgd1na2vs0mg"},{"bike_id":"6c8a3cbf-04cb-47da-8675-d90a69f441f9","system_id":"levelo_inurba_marseille","lat":43.31485,"lon":5.37306,"is_reserved":false,"is_disabled":false,"rental_uris":{"android":"levelo://app?vid=6c8a3cbf-04cb-47da-8675-d90a69f441f9","ios":"levelo://app?vid=6c8a3cbf-04cb-47da-8675-d90a69f441f9"},"vehicle_type_id":"4","last_reported":1732036139,"current_range_meters":18000,"station_id":"ce4bgt12rcd13ifvqcd0","pricing_plan_id":"cebpf4jnsgd1na2vs0mg"},{"bike_id":"7d02f161-c4ab-430d-be6a-e052ba68aacf","system_id":"levelo_inurba_marseille","lat":43.30955,"lon":5.39028,"is_reserved":false,"is_disabled":true,"rental_uris":{"android":"levelo://app?vid=7d02f161-c4ab-430d-be6a-e052ba68aacf","ios":"levelo://app?vid=7d02f161-c4ab-430d-be6a-e052ba68aacf"},"vehicle_type_id":"4","last_reported":1732036139,"current_range_meters":10800,"station_id":"ce4bgup2rcd13ifvqco0","pricing_plan_id":"cebpf4jnsgd1na2vs0mg"},{"bike_id":"e65461e3-d425-4dee-a20c-933c7023442e","system_id":"levelo_inurba_marseille","lat":43.30253,"lon":5.40081,"is_reserved":false,"is_disabled":true,"rental_uris":{"android":"levelo://app?vid=e65461e3-d425-4dee-a20c-933c7023442e","ios":"levelo://app?vid=e65461e3-d425-4dee-a20c-933c7023442e"},"vehicle_type_id":"4","last_reported":1732036139,"current_range_meters":37600,"station_id":"ce4bgvh2rcd13ifvqcs0","pricing_plan_id":"cebpf4jnsgd1na2vs0mg"},{"bike_id":"90d6407c-ad9e-4b11-b31c-39e04c7a19d0","system_id":"levelo_inurba_marseille","lat":43.29968,"lon":5.37186,"is_reserved":false,"is_disabled":false,"rental_uris":{"android":"levelo://app?vid=90d6407c-ad9e-4b11-b31c-39e04c7a19d0","ios":"levelo://app?vid=90d6407c-ad9e-4b11-b31c-39e04c7a19d0"},"vehicle_type_id":"4","last_reported":1732036139,"current_range_meters":34800,"station_id":"ce4bgr92rcd13ifvqc7g","pricing_plan_id":"cebpf4jnsgd1na2vs0mg"},{"bike_id":"a5b186d1-820e-4499-94e9-b09ae9cff523","system_id":"levelo_inurba_marseille","lat":43.27989,"lon":5.41659,"is_reserved":false,"is_disabled":false,"rental_uris":{"android":"levelo://app?vid=a5b186d1-820e-4499-94e9-b09ae9cff523","ios":"levelo://app?vid=a5b186d1-820e-4499-94e9-b09ae9cff523"},"vehicle_type_id":"4","last_reported":1732036139,"current_range_meters":24400,"station_id":"ce4bho12rcd13ifvqh1g","pricing_plan_id":"cebpf4jnsgd1na2vs0mg"},{"bike_id":"19552482-30e5-4d1d-a01a-36f47b366222","system_id":"levelo_inurba_marseille","lat":43.3054,"lon":5.38431,"is_reserved":false,"is_disabled":false,"rental_uris":{"android":"levelo://app?vid=19552482-30e5-4d1d-a01a-36f47b366222","ios":"levelo://app?vid=19552482-30e5-4d1d-a01a-36f47b366222"},"vehicle_type_id":"4","last_reported":1732036139,"current_range_meters":25200,"station_id":"ce4bgg92rcd13ifvqb30","pricing_plan_id":"cebpf4jnsgd1na2vs0mg"},{"bike_id":"20d43469-0b35-4110-9c40-be0f1a781705","system_id":"levelo_inurba_marseille","lat":43.26208,"lon":5.37449,"is_reserved":false,"is_disabled":false,"rental_uris":{"android":"levelo://app?vid=20d43469-0b35-4110-9c40-be0f1a781705","ios":"levelo://app?vid=20d43469-0b35-4110-9c40-be0f1a781705"},"vehicle_type_id":"4","last_reported":1732036139,"current_range_meters":26800,"station_id":"ce4bhgp2rcd13ifvqfc0","pricing_plan_id":"cebpf4jnsgd1na2vs0mg"},{"bike_id":"8dfe3502-1a44-41d0-93ec-2f8847296f61","system_id":"levelo_inurba_marseille","lat":43.29196,"lon":5.35801,"is_reserved":false,"is_disabled":true,"rental_uris":{"android":"levelo://app?vid=8dfe3502-1a44-41d0-93ec-2f8847296f61","ios":"levelo://app?vid=8dfe3502-1a44-41d0-93ec-2f8847296f61"},"vehicle_type_id":"4","last_reported":1732036139,"current_range_meters":39200,"station_id":"ce4bhb12rcd13ifvqel0","pricing_plan_id":"cebpf4jnsgd1na2vs0mg"},{"bike_id":"954054ad-77ac-46c3-a1b5-c8fc266a522b","system_id":"levelo_inurba_marseille","lat":43.31725,"lon":5.42397,"is_reserved":false,"is_disabled":false,"rental_uris":{"android":"levelo://app?vid=954054ad-77ac-46c3-a1b5-c8fc266a522b","ios":"levelo://app?vid=954054ad-77ac-46c3-a1b5-c8fc266a522b"},"vehicle_type_id":"4","last_reported":1732036139,"current_range_meters":38800,"station_id":"ce4bhp92rcd13ifvqhbg","pricing_plan_id":"cebpf4jnsgd1na2vs0mg"},{"bike_id":"a068dc40-1862-43fc-975c-c8329fcb1c80","system_id":"levelo_inurba_marseille","lat":43.27314,"lon":5.39109,"is_reserved":false,"is_disabled":true,"rental_uris":{"android":"levelo://app?vid=a068dc40-1862-43fc-975c-c8329fcb1c80","ios":"levelo://app?vid=a068dc40-1862-43fc-975c-c8329fcb1c80"},"vehicle_type_id":"4","last_reported":1732036139,"current_range_meters":800,"station_id":"ce4bhgp2rcd13ifvqfe0","pricing_plan_id":"cebpf4jnsgd1na2vs0mg"},{"bike_id":"9c4a655e-2680-4a60-a844-6a2ea62fb4b1","system_id":"levelo_inurba_marseille","lat":43.26072,"lon":5.39393,"is_reserved":false,"is_disabled":true,"rental_uris":{"android":"levelo://app?vid=9c4a655e-2680-4a60-a844-6a2ea62fb4b1","ios":"levelo://app?vid=9c4a655e-2680-4a60-a844-6a2ea62fb4b1"},"vehicle_type_id":"4","last_reported":1732036139,"current_range_meters":28000,"station_id":"ce4bhh92rcd13ifvqfj0","pricing_plan_id":"cebpf4jnsgd1na2vs0mg"},{"bike_id":"2d983866-913c-4390-ae48-1873d10c9730","system_id":"levelo_inurba_marseille","lat":43.24813,"lon":5.37458,"is_reserved":false,"is_disabled":true,"rental_uris":{"android":"levelo://app?vid=2d983866-913c-4390-ae48-1873d10c9730","ios":"levelo://app?vid=2d983866-913c-4390-ae48-1873d10c9730"},"vehicle_type_id":"4","last_reported":1732036139,"current_range_meters":14800,"station_id":"ce4bhgh2rcd13ifvqfb0","pricing_plan_id":"cebpf4jnsgd1na2vs0mg"},{"bike_id":"e0f2d464-e856-4a2b-b26c-1674907834d7","system_id":"levelo_inurba_marseille","lat":43.29309,"lon":5.37188,"is_reserved":false,"is_disabled":true,"rental_uris":{"android":"levelo://app?vid=e0f2d464-e856-4a2b-b26c-1674907834d7","ios":"levelo://app?vid=e0f2d464-e856-4a2b-b26c-1674907834d7"},"vehicle_type_id":"4","last_reported":1732036139,"current_range_meters":36000,"station_id":"ce4bgh92rcd13ifvqb40","pricing_plan_id":"cebpf4jnsgd1na2vs0mg"},{"bike_id":"a46bb816-eecf-4f75-a308-1a4f1f1cf743","system_id":"levelo_inurba_marseille","lat":43.30312,"lon":5.39213,"is_reserved":false,"is_disabled":false,"rental_uris":{"android":"levelo://app?vid=a46bb816-eecf-4f75-a308-1a4f1f1cf743","ios":"levelo://app?vid=a46bb816-eecf-4f75-a308-1a4f1f1cf743"},"vehicle_type_id":"4","last_reported":1732036139,"current_range_meters":11200,"station_id":"ce4bgkh2rcd13ifvqbk0","pricing_plan_id":"cebpf4jnsgd1na2vs0mg"},{"bike_id":"be0057d7-36ed-4552-93a5-d26a01d6fce9","system_id":"levelo_inurba_marseille","lat":43.31704,"lon":5.37757,"is_reserved":false,"is_disabled":false,"rental_uris":{"android":"levelo://app?vid=be0057d7-36ed-4552-93a5-d26a01d6fce9","ios":"levelo://app?vid=be0057d7-36ed-4552-93a5-d26a01d6fce9"},"vehicle_type_id":"4","last_reported":1732036139,"current_range_meters":30000,"station_id":"ce4bgth2rcd13ifvqch0","pricing_plan_id":"cebpf4jnsgd1na2vs0mg"},{"bike_id":"e840fe4f-47a0-4d31-8133-7c332a3d517a","system_id":"levelo_inurba_marseille","lat":43.31083,"lon":5.4243,"is_reserved":false,"is_disabled":true,"rental_uris":{"android":"levelo://app?vid=e840fe4f-47a0-4d31-8133-7c332a3d517a","ios":"levelo://app?vid=e840fe4f-47a0-4d31-8133-7c332a3d517a"},"vehicle_type_id":"4","last_reported":1732036139,"current_range_meters":17200,"station_id":"ce4bhp92rcd13ifvqhag","pricing_plan_id":"cebpf4jnsgd1na2vs0mg"},{"bike_id":"84e120b7-966d-42e4-98b1-1bd8d949cb9a","system_id":"levelo_inurba_marseille","lat":43.27838,"lon":5.39204,"is_reserved":false,"is_disabled":false,"rental_uris":{"android":"levelo://app?vid=84e120b7-966d-42e4-98b1-1bd8d949cb9a","ios":"levelo://app?vid=84e120b7-966d-42e4-98b1-1bd8d949cb9a"},"vehicle_type_id":"4","last_reported":1732036139,"current_range_meters":19600,"station_id":"ce4bhjp2rcd13ifvqga0","pricing_plan_id":"cebpf4jnsgd1na2vs0mg"},{"bike_id":"b526cdd7-3d12-4ce5-8ad7-6e6e88583e7e","system_id":"levelo_inurba_marseille","lat":43.33023,"lon":5.39036,"is_reserved":false,"is_disabled":false,"rental_uris":{"android":"levelo://app?vid=b526cdd7-3d12-4ce5-8ad7-6e6e88583e7e","ios":"levelo://app?vid=b526cdd7-3d12-4ce5-8ad7-6e6e88583e7e"},"vehicle_type_id":"4","last_reported":1732036139,"current_range_meters":17200,"station_id":"ce4bhr92rcd13ifvqhrg","pricing_plan_id":"cebpf4jnsgd1na2vs0mg"},{"bike_id":"e264033a-f915-4b27-a08a-2f42cfcf052a","system_id":"levelo_inurba_marseille","lat":43.33775,"lon":5.37436,"is_reserved":false,"is_disabled":false,"rental_uris":{"android":"levelo://app?vid=e264033a-f915-4b27-a08a-2f42cfcf052a","ios":"levelo://app?vid=e264033a-f915-4b27-a08a-2f42cfcf052a"},"vehicle_type_id":"4","last_reported":1732036139,"current_range_meters":31200,"station_id":"","pricing_plan_id":"cebpf4jnsgd1na2vs0mg"},{"bike_id":"c7281c22-d843-43e3-84da-959dc127222a","system_id":"levelo_inurba_marseille","lat":43.3171,"lon":5.43707,"is_reserved":false,"is_disabled":false,"rental_uris":{"android":"levelo://app?vid=c7281c22-d843-43e3-84da-959dc127222a","ios":"levelo://app?vid=c7281c22-d843-43e3-84da-959dc127222a"},"vehicle_type_id":"4","last_reported":1732036139,"current_range_meters":35200,"station_id":"ce4bhp92rcd13ifvqhcg","pricing_plan_id":"cebpf4jnsgd1na2vs0mg"},{"bike_id":"51a42607-9bfa-4679-970d-2f85e27b0ac1","system_id":"levelo_inurba_marseille","lat":43.27913,"lon":5.3958,"is_reserved":false,"is_disabled":false,"rental_uris":{"android":"levelo://app?vid=51a42607-9bfa-4679-970d-2f85e27b0ac1","ios":"levelo://app?vid=51a42607-9bfa-4679-970d-2f85e27b0ac1"},"vehicle_type_id":"4","last_reported":1732036139,"current_range_meters":9600,"station_id":"ce4bhf92rcd13ifvqf40","pricing_plan_id":"cebpf4jnsgd1na2vs0mg"},{"bike_id":"478111c5-9ee8-4ccc-a30a-cc58cbff7345","system_id":"levelo_inurba_marseille","lat":43.29541,"lon":5.38554,"is_reserved":false,"is_disabled":false,"rental_uris":{"android":"levelo://app?vid=478111c5-9ee8-4ccc-a30a-cc58cbff7345","ios":"levelo://app?vid=478111c5-9ee8-4ccc-a30a-cc58cbff7345"},"vehicle_type_id":"4","last_reported":1732036139,"current_range_meters":38000,"station_id":"ce4bgih2rcd13ifvqba0","pricing_plan_id":"cebpf4jnsgd1na2vs0mg"},{"bike_id":"65e9dabb-330e-46f7-9f89-3fb6c70ec3b8","system_id":"levelo_inurba_marseille","lat":43.264975,"lon":5.395443,"is_reserved":false,"is_disabled":false,"rental_uris":{"android":"levelo://app?vid=65e9dabb-330e-46f7-9f89-3fb6c70ec3b8","ios":"levelo://app?vid=65e9dabb-330e-46f7-9f89-3fb6c70ec3b8"},"vehicle_type_id":"4","last_reported":1732036139,"current_range_meters":38800,"station_id":"ce4bhi12rcd13ifvqfq0","pricing_plan_id":"cebpf4jnsgd1na2vs0mg"},{"bike_id":"123862ba-68e2-48f6-a477-31ab9dae8bd5","system_id":"levelo_inurba_marseille","lat":43.337444,"lon":5.374475,"is_reserved":false,"is_disabled":true,"rental_uris":{"android":"levelo://app?vid=123862ba-68e2-48f6-a477-31ab9dae8bd5","ios":"levelo://app?vid=123862ba-68e2-48f6-a477-31ab9dae8bd5"},"vehicle_type_id":"4","last_reported":1732036139,"current_range_meters":14800,"station_id":"","pricing_plan_id":"cebpf4jnsgd1na2vs0mg"},{"bike_id":"e09f5bd3-1d6d-4c2b-8ba5-e78c43cdb728","system_id":"levelo_inurba_marseille","lat":43.29556,"lon":5.42286,"is_reserved":false,"is_disabled":false,"rental_uris":{"android":"levelo://app?vid=e09f5bd3-1d6d-4c2b-8ba5-e78c43cdb728","ios":"levelo://app?vid=e09f5bd3-1d6d-4c2b-8ba5-e78c43cdb728"},"vehicle_type_id":"4","last_reported":1732036139,"current_range_meters":36800,"station_id":"ce4bhph2rcd13ifvqhdg","pricing_plan_id":"cebpf4jnsgd1na2vs0mg"},{"bike_id":"c0414705-628e-4ecb-a390-6a6747dfe975","system_id":"levelo_inurba_marseille","lat":43.30458,"lon":5.36738,"is_reserved":false,"is_disabled":false,"rental_uris":{"android":"levelo://app?vid=c0414705-628e-4ecb-a390-6a6747dfe975","ios":"levelo://app?vid=c0414705-628e-4ecb-a390-6a6747dfe975"},"vehicle_type_id":"4","last_reported":1732036139,"current_range_meters":35600,"station_id":"","pricing_plan_id":"cebpf4jnsgd1na2vs0mg"},{"bike_id":"81559c03-4f51-40b1-bdb8-bcf327febc1a","system_id":"levelo_inurba_marseille","lat":43.28004,"lon":5.40007,"is_reserved":false,"is_disabled":true,"rental_uris":{"android":"levelo://app?vid=81559c03-4f51-40b1-bdb8-bcf327febc1a","ios":"levelo://app?vid=81559c03-4f51-40b1-bdb8-bcf327febc1a"},"vehicle_type_id":"4","last_reported":1732036139,"current_range_meters":2000,"station_id":"ce4bho92rcd13ifvqh4g","pricing_plan_id":"cebpf4jnsgd1na2vs0mg"},{"bike_id":"82c80a60-1304-4426-b479-564de6b2a583","system_id":"levelo_inurba_marseille","lat":43.23179,"lon":5.39988,"is_reserved":false,"is_disabled":false,"rental_uris":{"android":"levelo://app?vid=82c80a60-1304-4426-b479-564de6b2a583","ios":"levelo://app?vid=82c80a60-1304-4426-b479-564de6b2a583"},"vehicle_type_id":"4","last_reported":1732036139,"current_range_meters":14400,"station_id":"ce4bhn12rcd13ifvqgqg","pricing_plan_id":"cebpf4jnsgd1na2vs0mg"},{"bike_id":"9fa0e7a5-4987-48d6-a9cb-59bfd00d0406","system_id":"levelo_inurba_marseille","lat":43.29553,"lon":5.38552,"is_reserved":false,"is_disabled":false,"rental_uris":{"android":"levelo://app?vid=9fa0e7a5-4987-48d6-a9cb-59bfd00d0406","ios":"levelo://app?vid=9fa0e7a5-4987-48d6-a9cb-59bfd00d0406"},"vehicle_type_id":"4","last_reported":1732036139,"current_range_meters":36800,"station_id":"ce4bgih2rcd13ifvqba0","pricing_plan_id":"cebpf4jnsgd1na2vs0mg"},{"bike_id":"9a0f8073-9fc4-477f-af62-f52952da19ac","system_id":"levelo_inurba_marseille","lat":43.28467,"lon":5.35896,"is_reserved":false,"is_disabled":false,"rental_uris":{"android":"levelo://app?vid=9a0f8073-9fc4-477f-af62-f52952da19ac","ios":"levelo://app?vid=9a0f8073-9fc4-477f-af62-f52952da19ac"},"vehicle_type_id":"4","last_reported":1732036139,"current_range_meters":18800,"station_id":"ce4bhah2rcd13ifvqei0","pricing_plan_id":"cebpf4jnsgd1na2vs0mg"},{"bike_id":"fe5d2278-38cb-4585-bfe0-1deb52f1472f","system_id":"levelo_inurba_marseille","lat":43.28474,"lon":5.38415,"is_reserved":false,"is_disabled":false,"rental_uris":{"android":"levelo://app?vid=fe5d2278-38cb-4585-bfe0-1deb52f1472f","ios":"levelo://app?vid=fe5d2278-38cb-4585-bfe0-1deb52f1472f"},"vehicle_type_id":"4","last_reported":1732036139,"current_range_meters":8000,"station_id":"ce4bh512rcd13ifvqe3g","pricing_plan_id":"cebpf4jnsgd1na2vs0mg"},{"bike_id":"468677b6-edde-4292-bcec-86bf0f74d237","system_id":"levelo_inurba_marseille","lat":43.25721,"lon":5.41113,"is_reserved":false,"is_disabled":true,"rental_uris":{"android":"levelo://app?vid=468677b6-edde-4292-bcec-86bf0f74d237","ios":"levelo://app?vid=468677b6-edde-4292-bcec-86bf0f74d237"},"vehicle_type_id":"4","last_reported":1732036139,"current_range_meters":800,"station_id":"ce4bhkp2rcd13ifvqgd0","pricing_plan_id":"cebpf4jnsgd1na2vs0mg"},{"bike_id":"efaa20f7-d2fb-4778-9ca3-b17e9193d440","system_id":"levelo_inurba_marseille","lat":43.33718,"lon":5.39175,"is_reserved":false,"is_disabled":false,"rental_uris":{"android":"levelo://app?vid=efaa20f7-d2fb-4778-9ca3-b17e9193d440","ios":"levelo://app?vid=efaa20f7-d2fb-4778-9ca3-b17e9193d440"},"vehicle_type_id":"4","last_reported":1732036139,"current_range_meters":38000,"station_id":"ce4bhr92rcd13ifvqhsg","pricing_plan_id":"cebpf4jnsgd1na2vs0mg"},{"bike_id":"dca6b0db-332a-4f9e-b2ae-0ab6ae9012da","system_id":"levelo_inurba_marseille","lat":43.292633,"lon":5.409051,"is_reserved":false,"is_disabled":true,"rental_uris":{"android":"levelo://app?vid=dca6b0db-332a-4f9e-b2ae-0ab6ae9012da","ios":"levelo://app?vid=dca6b0db-332a-4f9e-b2ae-0ab6ae9012da"},"vehicle_type_id":"4","last_reported":1732036139,"current_range_meters":400,"station_id":"ce4bh192rcd13ifvqdc0","pricing_plan_id":"cebpf4jnsgd1na2vs0mg"},{"bike_id":"cbb19e09-aa20-4763-8e71-dc123172ec07","system_id":"levelo_inurba_marseille","lat":43.2316,"lon":5.43704,"is_reserved":false,"is_disabled":true,"rental_uris":{"android":"levelo://app?vid=cbb19e09-aa20-4763-8e71-dc123172ec07","ios":"levelo://app?vid=cbb19e09-aa20-4763-8e71-dc123172ec07"},"vehicle_type_id":"4","last_reported":1732036139,"current_range_meters":17200,"station_id":"ce4bhmp2rcd13ifvqgog","pricing_plan_id":"cebpf4jnsgd1na2vs0mg"},{"bike_id":"2b0ec9da-4cf7-4bf2-aa06-c0c85578ca35","system_id":"levelo_inurba_marseille","lat":43.29042,"lon":5.37571,"is_reserved":false,"is_disabled":false,"rental_uris":{"android":"levelo://app?vid=2b0ec9da-4cf7-4bf2-aa06-c0c85578ca35","ios":"levelo://app?vid=2b0ec9da-4cf7-4bf2-aa06-c0c85578ca35"},"vehicle_type_id":"4","last_reported":1732036139,"current_range_meters":38000,"station_id":"ce4bh692rcd13ifvqe90","pricing_plan_id":"cebpf4jnsgd1na2vs0mg"},{"bike_id":"bdf773a7-015c-4bf3-8c5a-59e3dcdff924","system_id":"levelo_inurba_marseille","lat":43.25495,"lon":5.37646,"is_reserved":false,"is_disabled":false,"rental_uris":{"android":"levelo://app?vid=bdf773a7-015c-4bf3-8c5a-59e3dcdff924","ios":"levelo://app?vid=bdf773a7-015c-4bf3-8c5a-59e3dcdff924"},"vehicle_type_id":"4","last_reported":1732036139,"current_range_meters":33200,"station_id":"ce4bhh12rcd13ifvqff0","pricing_plan_id":"cebpf4jnsgd1na2vs0mg"},{"bike_id":"fbf50743-a751-4d22-8d7f-9047b9d72787","system_id":"levelo_inurba_marseille","lat":43.33335,"lon":5.41863,"is_reserved":false,"is_disabled":false,"rental_uris":{"android":"levelo://app?vid=fbf50743-a751-4d22-8d7f-9047b9d72787","ios":"levelo://app?vid=fbf50743-a751-4d22-8d7f-9047b9d72787"},"vehicle_type_id":"4","last_reported":1732036139,"current_range_meters":26800,"station_id":"","pricing_plan_id":"cebpf4jnsgd1na2vs0mg"},{"bike_id":"56af11bc-cc37-43d6-99b5-a146ef7aeedc","system_id":"levelo_inurba_marseille","lat":43.29708,"lon":5.36609,"is_reserved":false,"is_disabled":false,"rental_uris":{"android":"levelo://app?vid=56af11bc-cc37-43d6-99b5-a146ef7aeedc","ios":"levelo://app?vid=56af11bc-cc37-43d6-99b5-a146ef7aeedc"},"vehicle_type_id":"4","last_reported":1732036139,"current_range_meters":38800,"station_id":"ce4bgn12rcd13ifvqbt0","pricing_plan_id":"cebpf4jnsgd1na2vs0mg"},{"bike_id":"1bbc3019-2930-4f65-9a53-9c72d10c9d75","system_id":"levelo_inurba_marseille","lat":43.28707,"lon":5.37389,"is_reserved":false,"is_disabled":false,"rental_uris":{"android":"levelo://app?vid=1bbc3019-2930-4f65-9a53-9c72d10c9d75","ios":"levelo://app?vid=1bbc3019-2930-4f65-9a53-9c72d10c9d75"},"vehicle_type_id":"4","last_reported":1732036139,"current_range_meters":14800,"station_id":"ce4bh3p2rcd13ifvqdq0","pricing_plan_id":"cebpf4jnsgd1na2vs0mg"},{"bike_id":"3c9c4489-15ec-4648-9f0e-fc9c71066058","system_id":"levelo_inurba_marseille","lat":43.28435,"lon":5.39195,"is_reserved":false,"is_disabled":false,"rental_uris":{"android":"levelo://app?vid=3c9c4489-15ec-4648-9f0e-fc9c71066058","ios":"levelo://app?vid=3c9c4489-15ec-4648-9f0e-fc9c71066058"},"vehicle_type_id":"4","last_reported":1732036139,"current_range_meters":36800,"station_id":"ce4bhoh2rcd13ifvqh5g","pricing_plan_id":"cebpf4jnsgd1na2vs0mg"},{"bike_id":"1ea9d202-7235-44ff-a808-1a87a3b9cfc1","system_id":"levelo_inurba_marseille","lat":43.25578,"lon":5.38242,"is_reserved":false,"is_disabled":false,"rental_uris":{"android":"levelo://app?vid=1ea9d202-7235-44ff-a808-1a87a3b9cfc1","ios":"levelo://app?vid=1ea9d202-7235-44ff-a808-1a87a3b9cfc1"},"vehicle_type_id":"4","last_reported":1732036139,"current_range_meters":14000,"station_id":"ce4bhih2rcd13ifvqfs0","pricing_plan_id":"cebpf4jnsgd1na2vs0mg"},{"bike_id":"d0a8d1e0-8de9-4df8-bcae-ad9cbd74d90d","system_id":"levelo_inurba_marseille","lat":43.32368,"lon":5.38886,"is_reserved":false,"is_disabled":false,"rental_uris":{"android":"levelo://app?vid=d0a8d1e0-8de9-4df8-bcae-ad9cbd74d90d","ios":"levelo://app?vid=d0a8d1e0-8de9-4df8-bcae-ad9cbd74d90d"},"vehicle_type_id":"4","last_reported":1732036139,"current_range_meters":21600,"station_id":"ce4bhqp2rcd13ifvqhog","pricing_plan_id":"cebpf4jnsgd1na2vs0mg"},{"bike_id":"0c5bbd39-2535-4e1b-896c-c0aa5772961e","system_id":"levelo_inurba_marseille","lat":43.33024,"lon":5.39043,"is_reserved":false,"is_disabled":false,"rental_uris":{"android":"levelo://app?vid=0c5bbd39-2535-4e1b-896c-c0aa5772961e","ios":"levelo://app?vid=0c5bbd39-2535-4e1b-896c-c0aa5772961e"},"vehicle_type_id":"4","last_reported":1732036139,"current_range_meters":6000,"station_id":"ce4bhr92rcd13ifvqhrg","pricing_plan_id":"cebpf4jnsgd1na2vs0mg"},{"bike_id":"ea3698ba-4aa8-4712-b521-18ff56838777","system_id":"levelo_inurba_marseille","lat":43.25501,"lon":5.37652,"is_reserved":false,"is_disabled":true,"rental_uris":{"android":"levelo://app?vid=ea3698ba-4aa8-4712-b521-18ff56838777","ios":"levelo://app?vid=ea3698ba-4aa8-4712-b521-18ff56838777"},"vehicle_type_id":"4","last_reported":1732036139,"current_range_meters":800,"station_id":"ce4bhh12rcd13ifvqff0","pricing_plan_id":"cebpf4jnsgd1na2vs0mg"},{"bike_id":"e724f48d-7831-4a53-bd1c-2ddf0f9a9faa","system_id":"levelo_inurba_marseille","lat":43.30321,"lon":5.36906,"is_reserved":false,"is_disabled":false,"rental_uris":{"android":"levelo://app?vid=e724f48d-7831-4a53-bd1c-2ddf0f9a9faa","ios":"levelo://app?vid=e724f48d-7831-4a53-bd1c-2ddf0f9a9faa"},"vehicle_type_id":"4","last_reported":1732036139,"current_range_meters":38800,"station_id":"ce4bgqh2rcd13ifvqc5g","pricing_plan_id":"cebpf4jnsgd1na2vs0mg"},{"bike_id":"64251bb9-7dd1-41eb-b9df-940683c418f0","system_id":"levelo_inurba_marseille","lat":43.29622,"lon":5.37722,"is_reserved":false,"is_disabled":false,"rental_uris":{"android":"levelo://app?vid=64251bb9-7dd1-41eb-b9df-940683c418f0","ios":"levelo://app?vid=64251bb9-7dd1-41eb-b9df-940683c418f0"},"vehicle_type_id":"4","last_reported":1732036139,"current_range_meters":18800,"station_id":"ce4bgi92rcd13ifvqb90","pricing_plan_id":"cebpf4jnsgd1na2vs0mg"},{"bike_id":"90a4dacc-9992-419d-8a78-723ec838ca88","system_id":"levelo_inurba_marseille","lat":43.28614,"lon":5.37059,"is_reserved":false,"is_disabled":false,"rental_uris":{"android":"levelo://app?vid=90a4dacc-9992-419d-8a78-723ec838ca88","ios":"levelo://app?vid=90a4dacc-9992-419d-8a78-723ec838ca88"},"vehicle_type_id":"4","last_reported":1732036139,"current_range_meters":16800,"station_id":"ce4bht12rcd13ifvqi60","pricing_plan_id":"cebpf4jnsgd1na2vs0mg"},{"bike_id":"7a74f50b-fe40-4106-9f5d-13731ba6b393","system_id":"levelo_inurba_marseille","lat":43.32374,"lon":5.38879,"is_reserved":false,"is_disabled":false,"rental_uris":{"android":"levelo://app?vid=7a74f50b-fe40-4106-9f5d-13731ba6b393","ios":"levelo://app?vid=7a74f50b-fe40-4106-9f5d-13731ba6b393"},"vehicle_type_id":"4","last_reported":1732036139,"current_range_meters":34000,"station_id":"ce4bhqp2rcd13ifvqhog","pricing_plan_id":"cebpf4jnsgd1na2vs0mg"},{"bike_id":"e5951ee3-4a5a-4ebb-b469-096c5188dfa3","system_id":"levelo_inurba_marseille","lat":43.24029,"lon":5.36612,"is_reserved":false,"is_disabled":true,"rental_uris":{"android":"levelo://app?vid=e5951ee3-4a5a-4ebb-b469-096c5188dfa3","ios":"levelo://app?vid=e5951ee3-4a5a-4ebb-b469-096c5188dfa3"},"vehicle_type_id":"4","last_reported":1732036139,"current_range_meters":1600,"station_id":"","pricing_plan_id":"cebpf4jnsgd1na2vs0mg"},{"bike_id":"dc083a3b-2ef0-4bba-9649-369d68afe5e6","system_id":"levelo_inurba_marseille","lat":43.29524,"lon":5.3941,"is_reserved":false,"is_disabled":false,"rental_uris":{"android":"levelo://app?vid=dc083a3b-2ef0-4bba-9649-369d68afe5e6","ios":"levelo://app?vid=dc083a3b-2ef0-4bba-9649-369d68afe5e6"},"vehicle_type_id":"4","last_reported":1732036139,"current_range_meters":15200,"station_id":"ce4bh292rcd13ifvqdf0","pricing_plan_id":"cebpf4jnsgd1na2vs0mg"},{"bike_id":"b2f6b9cf-69db-40ab-8230-689c41a2c16c","system_id":"levelo_inurba_marseille","lat":43.24169,"lon":5.36393,"is_reserved":false,"is_disabled":true,"rental_uris":{"android":"levelo://app?vid=b2f6b9cf-69db-40ab-8230-689c41a2c16c","ios":"levelo://app?vid=b2f6b9cf-69db-40ab-8230-689c41a2c16c"},"vehicle_type_id":"4","last_reported":1732036139,"current_range_meters":1600,"station_id":"cpo36qri1sfpv3e86is0","pricing_plan_id":"cebpf4jnsgd1na2vs0mg"},{"bike_id":"514b2be2-ad4a-4e1b-adfa-884dc708a680","system_id":"levelo_inurba_marseille","lat":43.29623,"lon":5.3717,"is_reserved":false,"is_disabled":false,"rental_uris":{"android":"levelo://app?vid=514b2be2-ad4a-4e1b-adfa-884dc708a680","ios":"levelo://app?vid=514b2be2-ad4a-4e1b-adfa-884dc708a680"},"vehicle_type_id":"4","last_reported":1732036139,"current_range_meters":25600,"station_id":"ce4bgnh2rcd13ifvqc0g","pricing_plan_id":"cebpf4jnsgd1na2vs0mg"},{"bike_id":"e1a28c7d-92d7-4b5a-ba25-871354b1150e","system_id":"levelo_inurba_marseille","lat":43.3013,"lon":5.39845,"is_reserved":false,"is_disabled":false,"rental_uris":{"android":"levelo://app?vid=e1a28c7d-92d7-4b5a-ba25-871354b1150e","ios":"levelo://app?vid=e1a28c7d-92d7-4b5a-ba25-871354b1150e"},"vehicle_type_id":"4","last_reported":1732036139,"current_range_meters":6000,"station_id":"ce4bh0h2rcd13ifvqd40","pricing_plan_id":"cebpf4jnsgd1na2vs0mg"},{"bike_id":"2910f69a-6dac-4d69-a60d-e4f1b8cce200","system_id":"levelo_inurba_marseille","lat":43.27813,"lon":5.40716,"is_reserved":false,"is_disabled":true,"rental_uris":{"android":"levelo://app?vid=2910f69a-6dac-4d69-a60d-e4f1b8cce200","ios":"levelo://app?vid=2910f69a-6dac-4d69-a60d-e4f1b8cce200"},"vehicle_type_id":"4","last_reported":1732036139,"current_range_meters":18800,"station_id":"ce4bhnh2rcd13ifvqgtg","pricing_plan_id":"cebpf4jnsgd1na2vs0mg"},{"bike_id":"65237102-4573-4378-8396-31d3a47fc54f","system_id":"levelo_inurba_marseille","lat":43.29532,"lon":5.38552,"is_reserved":false,"is_disabled":false,"rental_uris":{"android":"levelo://app?vid=65237102-4573-4378-8396-31d3a47fc54f","ios":"levelo://app?vid=65237102-4573-4378-8396-31d3a47fc54f"},"vehicle_type_id":"4","last_reported":1732036139,"current_range_meters":38800,"station_id":"ce4bgih2rcd13ifvqba0","pricing_plan_id":"cebpf4jnsgd1na2vs0mg"},{"bike_id":"eda58952-2fc8-470f-a088-5d6032548953","system_id":"levelo_inurba_marseille","lat":43.2862,"lon":5.35105,"is_reserved":false,"is_disabled":false,"rental_uris":{"android":"levelo://app?vid=eda58952-2fc8-470f-a088-5d6032548953","ios":"levelo://app?vid=eda58952-2fc8-470f-a088-5d6032548953"},"vehicle_type_id":"4","last_reported":1732036139,"current_range_meters":24400,"station_id":"ce4bhch2rcd13ifvqeug","pricing_plan_id":"cebpf4jnsgd1na2vs0mg"},{"bike_id":"1ef7aa62-8226-421d-8672-d4c6d5123edc","system_id":"levelo_inurba_marseille","lat":43.27682,"lon":5.38392,"is_reserved":false,"is_disabled":false,"rental_uris":{"android":"levelo://app?vid=1ef7aa62-8226-421d-8672-d4c6d5123edc","ios":"levelo://app?vid=1ef7aa62-8226-421d-8672-d4c6d5123edc"},"vehicle_type_id":"4","last_reported":1732036139,"current_range_meters":38400,"station_id":"ce4bhh92rcd13ifvqfi0","pricing_plan_id":"cebpf4jnsgd1na2vs0mg"},{"bike_id":"da118503-6ab7-4c94-98bc-2b63accd50d2","system_id":"levelo_inurba_marseille","lat":43.31083,"lon":5.42432,"is_reserved":false,"is_disabled":false,"rental_uris":{"android":"levelo://app?vid=da118503-6ab7-4c94-98bc-2b63accd50d2","ios":"levelo://app?vid=da118503-6ab7-4c94-98bc-2b63accd50d2"},"vehicle_type_id":"4","last_reported":1732036139,"current_range_meters":38000,"station_id":"ce4bhp92rcd13ifvqhag","pricing_plan_id":"cebpf4jnsgd1na2vs0mg"},{"bike_id":"57ac933b-38e9-4b61-b415-f8ac09f2fc14","system_id":"levelo_inurba_marseille","lat":43.23151,"lon":5.43723,"is_reserved":false,"is_disabled":true,"rental_uris":{"android":"levelo://app?vid=57ac933b-38e9-4b61-b415-f8ac09f2fc14","ios":"levelo://app?vid=57ac933b-38e9-4b61-b415-f8ac09f2fc14"},"vehicle_type_id":"4","last_reported":1732036139,"current_range_meters":0,"station_id":"ce4bhmp2rcd13ifvqgog","pricing_plan_id":"cebpf4jnsgd1na2vs0mg"},{"bike_id":"ec45b8dc-4632-444e-b37d-175be80b1610","system_id":"levelo_inurba_marseille","lat":43.29031,"lon":5.38647,"is_reserved":false,"is_disabled":false,"rental_uris":{"android":"levelo://app?vid=ec45b8dc-4632-444e-b37d-175be80b1610","ios":"levelo://app?vid=ec45b8dc-4632-444e-b37d-175be80b1610"},"vehicle_type_id":"4","last_reported":1732036139,"current_range_meters":5600,"station_id":"ce4bh4p2rcd13ifvqe0g","pricing_plan_id":"cebpf4jnsgd1na2vs0mg"},{"bike_id":"0d5d4600-f6cc-4daa-acd5-ac867678b78e","system_id":"levelo_inurba_marseille","lat":43.26032,"lon":5.37545,"is_reserved":false,"is_disabled":false,"rental_uris":{"android":"levelo://app?vid=0d5d4600-f6cc-4daa-acd5-ac867678b78e","ios":"levelo://app?vid=0d5d4600-f6cc-4daa-acd5-ac867678b78e"},"vehicle_type_id":"4","last_reported":1732036139,"current_range_meters":6000,"station_id":"ce4bhgh2rcd13ifvqfa0","pricing_plan_id":"cebpf4jnsgd1na2vs0mg"},{"bike_id":"e5e07d90-a860-41c6-ba7e-8e3d2e32b50b","system_id":"levelo_inurba_marseille","lat":43.29065,"lon":5.37163,"is_reserved":false,"is_disabled":false,"rental_uris":{"android":"levelo://app?vid=e5e07d90-a860-41c6-ba7e-8e3d2e32b50b","ios":"levelo://app?vid=e5e07d90-a860-41c6-ba7e-8e3d2e32b50b"},"vehicle_type_id":"4","last_reported":1732036139,"current_range_meters":28400,"station_id":"ce4bh5p2rcd13ifvqe4g","pricing_plan_id":"cebpf4jnsgd1na2vs0mg"},{"bike_id":"58f63648-9353-4761-b18c-0835f9ba8bbb","system_id":"levelo_inurba_marseille","lat":43.29566,"lon":5.42293,"is_reserved":false,"is_disabled":false,"rental_uris":{"android":"levelo://app?vid=58f63648-9353-4761-b18c-0835f9ba8bbb","ios":"levelo://app?vid=58f63648-9353-4761-b18c-0835f9ba8bbb"},"vehicle_type_id":"4","last_reported":1732036139,"current_range_meters":31200,"station_id":"ce4bhph2rcd13ifvqhdg","pricing_plan_id":"cebpf4jnsgd1na2vs0mg"},{"bike_id":"7e35deb2-0950-494e-a5fc-48886e723f0a","system_id":"levelo_inurba_marseille","lat":43.290368,"lon":5.37561,"is_reserved":false,"is_disabled":true,"rental_uris":{"android":"levelo://app?vid=7e35deb2-0950-494e-a5fc-48886e723f0a","ios":"levelo://app?vid=7e35deb2-0950-494e-a5fc-48886e723f0a"},"vehicle_type_id":"4","last_reported":1732036139,"current_range_meters":8800,"station_id":"ce4bh692rcd13ifvqe90","pricing_plan_id":"cebpf4jnsgd1na2vs0mg"},{"bike_id":"d482b473-8011-43d1-9203-ef428f8af553","system_id":"levelo_inurba_marseille","lat":43.2955,"lon":5.42285,"is_reserved":false,"is_disabled":false,"rental_uris":{"android":"levelo://app?vid=d482b473-8011-43d1-9203-ef428f8af553","ios":"levelo://app?vid=d482b473-8011-43d1-9203-ef428f8af553"},"vehicle_type_id":"4","last_reported":1732036139,"current_range_meters":40000,"station_id":"ce4bhph2rcd13ifvqhdg","pricing_plan_id":"cebpf4jnsgd1na2vs0mg"},{"bike_id":"1985f0ad-5fec-4017-9c67-4c18c8f68667","system_id":"levelo_inurba_marseille","lat":43.29578,"lon":5.36741,"is_reserved":false,"is_disabled":false,"rental_uris":{"android":"levelo://app?vid=1985f0ad-5fec-4017-9c67-4c18c8f68667","ios":"levelo://app?vid=1985f0ad-5fec-4017-9c67-4c18c8f68667"},"vehicle_type_id":"4","last_reported":1732036139,"current_range_meters":38800,"station_id":"ce4bgph2rcd13ifvqc2g","pricing_plan_id":"cebpf4jnsgd1na2vs0mg"},{"bike_id":"cde5eb04-35f5-4971-aec4-8004f9b2dcd9","system_id":"levelo_inurba_marseille","lat":43.28277,"lon":5.35076,"is_reserved":false,"is_disabled":true,"rental_uris":{"android":"levelo://app?vid=cde5eb04-35f5-4971-aec4-8004f9b2dcd9","ios":"levelo://app?vid=cde5eb04-35f5-4971-aec4-8004f9b2dcd9"},"vehicle_type_id":"4","last_reported":1732036139,"current_range_meters":32800,"station_id":"ce4bhbp2rcd13ifvqerg","pricing_plan_id":"cebpf4jnsgd1na2vs0mg"},{"bike_id":"e63fa20f-859b-43dc-995d-a32935dd2a71","system_id":"levelo_inurba_marseille","lat":43.2761,"lon":5.36111,"is_reserved":false,"is_disabled":false,"rental_uris":{"android":"levelo://app?vid=e63fa20f-859b-43dc-995d-a32935dd2a71","ios":"levelo://app?vid=e63fa20f-859b-43dc-995d-a32935dd2a71"},"vehicle_type_id":"4","last_reported":1732036139,"current_range_meters":17200,"station_id":"ce4bgj92rcd13ifvqbe0","pricing_plan_id":"cebpf4jnsgd1na2vs0mg"},{"bike_id":"cc32451c-19e5-4315-a085-6ee45923b208","system_id":"levelo_inurba_marseille","lat":43.29256,"lon":5.40904,"is_reserved":false,"is_disabled":false,"rental_uris":{"android":"levelo://app?vid=cc32451c-19e5-4315-a085-6ee45923b208","ios":"levelo://app?vid=cc32451c-19e5-4315-a085-6ee45923b208"},"vehicle_type_id":"4","last_reported":1732036139,"current_range_meters":17200,"station_id":"ce4bh192rcd13ifvqdc0","pricing_plan_id":"cebpf4jnsgd1na2vs0mg"},{"bike_id":"9aa470b2-21f1-47b6-987c-6a80aae82d77","system_id":"levelo_inurba_marseille","lat":43.29616,"lon":5.37711,"is_reserved":false,"is_disabled":true,"rental_uris":{"android":"levelo://app?vid=9aa470b2-21f1-47b6-987c-6a80aae82d77","ios":"levelo://app?vid=9aa470b2-21f1-47b6-987c-6a80aae82d77"},"vehicle_type_id":"4","last_reported":1732036139,"current_range_meters":1200,"station_id":"ce4bgi92rcd13ifvqb90","pricing_plan_id":"cebpf4jnsgd1na2vs0mg"},{"bike_id":"7fc71c05-3421-4424-ba9e-625cdcc2e2d9","system_id":"levelo_inurba_marseille","lat":43.33028,"lon":5.39038,"is_reserved":false,"is_disabled":false,"rental_uris":{"android":"levelo://app?vid=7fc71c05-3421-4424-ba9e-625cdcc2e2d9","ios":"levelo://app?vid=7fc71c05-3421-4424-ba9e-625cdcc2e2d9"},"vehicle_type_id":"4","last_reported":1732036139,"current_range_meters":37600,"station_id":"ce4bhr92rcd13ifvqhrg","pricing_plan_id":"cebpf4jnsgd1na2vs0mg"},{"bike_id":"2137401a-4a5b-40e2-8d23-46122eebd782","system_id":"levelo_inurba_marseille","lat":43.26932,"lon":5.38929,"is_reserved":false,"is_disabled":false,"rental_uris":{"android":"levelo://app?vid=2137401a-4a5b-40e2-8d23-46122eebd782","ios":"levelo://app?vid=2137401a-4a5b-40e2-8d23-46122eebd782"},"vehicle_type_id":"4","last_reported":1732036139,"current_range_meters":22000,"station_id":"ce4bhhh2rcd13ifvqfl0","pricing_plan_id":"cebpf4jnsgd1na2vs0mg"},{"bike_id":"0e2bbe61-8f31-47ba-b582-6a82d0b052e0","system_id":"levelo_inurba_marseille","lat":43.29025,"lon":5.38359,"is_reserved":false,"is_disabled":false,"rental_uris":{"android":"levelo://app?vid=0e2bbe61-8f31-47ba-b582-6a82d0b052e0","ios":"levelo://app?vid=0e2bbe61-8f31-47ba-b582-6a82d0b052e0"},"vehicle_type_id":"4","last_reported":1732036139,"current_range_meters":28000,"station_id":"ce4bgip2rcd13ifvqbb0","pricing_plan_id":"cebpf4jnsgd1na2vs0mg"},{"bike_id":"c3bc0f64-f384-48a7-9517-04f95522a7e3","system_id":"levelo_inurba_marseille","lat":43.318242,"lon":5.37611,"is_reserved":false,"is_disabled":true,"rental_uris":{"android":"levelo://app?vid=c3bc0f64-f384-48a7-9517-04f95522a7e3","ios":"levelo://app?vid=c3bc0f64-f384-48a7-9517-04f95522a7e3"},"vehicle_type_id":"4","last_reported":1732036139,"current_range_meters":14800,"station_id":"","pricing_plan_id":"cebpf4jnsgd1na2vs0mg"},{"bike_id":"6c929c11-2784-42b4-a444-e2394cc2adb7","system_id":"levelo_inurba_marseille","lat":43.24812,"lon":5.3746,"is_reserved":false,"is_disabled":false,"rental_uris":{"android":"levelo://app?vid=6c929c11-2784-42b4-a444-e2394cc2adb7","ios":"levelo://app?vid=6c929c11-2784-42b4-a444-e2394cc2adb7"},"vehicle_type_id":"4","last_reported":1732036139,"current_range_meters":4400,"station_id":"ce4bhgh2rcd13ifvqfb0","pricing_plan_id":"cebpf4jnsgd1na2vs0mg"},{"bike_id":"44ee0950-3528-490a-948e-7f3976ab238c","system_id":"levelo_inurba_marseille","lat":43.32365,"lon":5.38888,"is_reserved":false,"is_disabled":false,"rental_uris":{"android":"levelo://app?vid=44ee0950-3528-490a-948e-7f3976ab238c","ios":"levelo://app?vid=44ee0950-3528-490a-948e-7f3976ab238c"},"vehicle_type_id":"4","last_reported":1732036139,"current_range_meters":30000,"station_id":"ce4bhqp2rcd13ifvqhog","pricing_plan_id":"cebpf4jnsgd1na2vs0mg"},{"bike_id":"703ac527-6110-4b9f-8a2e-d770d3f47255","system_id":"levelo_inurba_marseille","lat":43.29713,"lon":5.36293,"is_reserved":false,"is_disabled":false,"rental_uris":{"android":"levelo://app?vid=703ac527-6110-4b9f-8a2e-d770d3f47255","ios":"levelo://app?vid=703ac527-6110-4b9f-8a2e-d770d3f47255"},"vehicle_type_id":"4","last_reported":1732036139,"current_range_meters":38400,"station_id":"ce4bgpp2rcd13ifvqc3g","pricing_plan_id":"cebpf4jnsgd1na2vs0mg"},{"bike_id":"b0e105d9-9f4c-4aac-ad98-aa479f2fe03e","system_id":"levelo_inurba_marseille","lat":43.3117,"lon":5.38712,"is_reserved":false,"is_disabled":false,"rental_uris":{"android":"levelo://app?vid=b0e105d9-9f4c-4aac-ad98-aa479f2fe03e","ios":"levelo://app?vid=b0e105d9-9f4c-4aac-ad98-aa479f2fe03e"},"vehicle_type_id":"4","last_reported":1732036139,"current_range_meters":29600,"station_id":"ce4bgv12rcd13ifvqcp0","pricing_plan_id":"cebpf4jnsgd1na2vs0mg"},{"bike_id":"ce27fe64-e773-48c7-8be0-dcaf49f06d43","system_id":"levelo_inurba_marseille","lat":43.24086,"lon":5.37749,"is_reserved":false,"is_disabled":true,"rental_uris":{"android":"levelo://app?vid=ce27fe64-e773-48c7-8be0-dcaf49f06d43","ios":"levelo://app?vid=ce27fe64-e773-48c7-8be0-dcaf49f06d43"},"vehicle_type_id":"4","last_reported":1732036139,"current_range_meters":0,"station_id":"ce4bhnp2rcd13ifvqgvg","pricing_plan_id":"cebpf4jnsgd1na2vs0mg"},{"bike_id":"5bd0dee0-f1f6-4953-a1ac-ae03db5073c5","system_id":"levelo_inurba_marseille","lat":43.29623,"lon":5.3717,"is_reserved":false,"is_disabled":false,"rental_uris":{"android":"levelo://app?vid=5bd0dee0-f1f6-4953-a1ac-ae03db5073c5","ios":"levelo://app?vid=5bd0dee0-f1f6-4953-a1ac-ae03db5073c5"},"vehicle_type_id":"4","last_reported":1732036139,"current_range_meters":34000,"station_id":"ce4bgnh2rcd13ifvqc0g","pricing_plan_id":"cebpf4jnsgd1na2vs0mg"},{"bike_id":"a288582f-e609-4b1f-9e1f-4b407176785e","system_id":"levelo_inurba_marseille","lat":43.29926,"lon":5.37454,"is_reserved":false,"is_disabled":true,"rental_uris":{"android":"levelo://app?vid=a288582f-e609-4b1f-9e1f-4b407176785e","ios":"levelo://app?vid=a288582f-e609-4b1f-9e1f-4b407176785e"},"vehicle_type_id":"4","last_reported":1732036139,"current_range_meters":19600,"station_id":"ce4bgjh2rcd13ifvqbg0","pricing_plan_id":"cebpf4jnsgd1na2vs0mg"},{"bike_id":"729f081d-5184-4f31-801f-2b41f23e3a17","system_id":"levelo_inurba_marseille","lat":43.33108,"lon":5.38212,"is_reserved":false,"is_disabled":true,"rental_uris":{"android":"levelo://app?vid=729f081d-5184-4f31-801f-2b41f23e3a17","ios":"levelo://app?vid=729f081d-5184-4f31-801f-2b41f23e3a17"},"vehicle_type_id":"4","last_reported":1732036139,"current_range_meters":33200,"station_id":"","pricing_plan_id":"cebpf4jnsgd1na2vs0mg"},{"bike_id":"2b773b37-08ac-4a58-be3c-62c7c2030daa","system_id":"levelo_inurba_marseille","lat":43.31332,"lon":5.39689,"is_reserved":false,"is_disabled":false,"rental_uris":{"android":"levelo://app?vid=2b773b37-08ac-4a58-be3c-62c7c2030daa","ios":"levelo://app?vid=2b773b37-08ac-4a58-be3c-62c7c2030daa"},"vehicle_type_id":"4","last_reported":1732036139,"current_range_meters":18800,"station_id":"ce4bgvp2rcd13ifvqcu0","pricing_plan_id":"cebpf4jnsgd1na2vs0mg"},{"bike_id":"7770b1cc-2a54-4d08-8255-6bed2fc397aa","system_id":"levelo_inurba_marseille","lat":43.231913,"lon":5.355563,"is_reserved":false,"is_disabled":false,"rental_uris":{"android":"levelo://app?vid=7770b1cc-2a54-4d08-8255-6bed2fc397aa","ios":"levelo://app?vid=7770b1cc-2a54-4d08-8255-6bed2fc397aa"},"vehicle_type_id":"4","last_reported":1732036139,"current_range_meters":29600,"station_id":"ce4bhu92rcd13ifvqi70","pricing_plan_id":"cebpf4jnsgd1na2vs0mg"},{"bike_id":"f8610b55-6663-430e-98ea-6d5e1d1b43cc","system_id":"levelo_inurba_marseille","lat":43.3237,"lon":5.38885,"is_reserved":false,"is_disabled":false,"rental_uris":{"android":"levelo://app?vid=f8610b55-6663-430e-98ea-6d5e1d1b43cc","ios":"levelo://app?vid=f8610b55-6663-430e-98ea-6d5e1d1b43cc"},"vehicle_type_id":"4","last_reported":1732036139,"current_range_meters":28000,"station_id":"ce4bhqp2rcd13ifvqhog","pricing_plan_id":"cebpf4jnsgd1na2vs0mg"},{"bike_id":"b321c3f8-cfeb-49c2-9411-946d91e0b750","system_id":"levelo_inurba_marseille","lat":43.2956,"lon":5.4228,"is_reserved":false,"is_disabled":false,"rental_uris":{"android":"levelo://app?vid=b321c3f8-cfeb-49c2-9411-946d91e0b750","ios":"levelo://app?vid=b321c3f8-cfeb-49c2-9411-946d91e0b750"},"vehicle_type_id":"4","last_reported":1732036139,"current_range_meters":16800,"station_id":"ce4bhph2rcd13ifvqhdg","pricing_plan_id":"cebpf4jnsgd1na2vs0mg"},{"bike_id":"f9fbd483-13b7-4c57-a99d-7b86e5f62429","system_id":"levelo_inurba_marseille","lat":43.30536,"lon":5.36706,"is_reserved":false,"is_disabled":false,"rental_uris":{"android":"levelo://app?vid=f9fbd483-13b7-4c57-a99d-7b86e5f62429","ios":"levelo://app?vid=f9fbd483-13b7-4c57-a99d-7b86e5f62429"},"vehicle_type_id":"4","last_reported":1732036139,"current_range_meters":28000,"station_id":"ce4bgrp2rcd13ifvqc9g","pricing_plan_id":"cebpf4jnsgd1na2vs0mg"},{"bike_id":"3d25d818-80cf-415a-996a-afc2d01ce97b","system_id":"levelo_inurba_marseille","lat":43.277835,"lon":5.40736,"is_reserved":false,"is_disabled":false,"rental_uris":{"android":"levelo://app?vid=3d25d818-80cf-415a-996a-afc2d01ce97b","ios":"levelo://app?vid=3d25d818-80cf-415a-996a-afc2d01ce97b"},"vehicle_type_id":"4","last_reported":1732036139,"current_range_meters":15200,"station_id":"ce4bhnh2rcd13ifvqgtg","pricing_plan_id":"cebpf4jnsgd1na2vs0mg"},{"bike_id":"7232a04f-8fb1-4851-b222-89bec82186ce","system_id":"levelo_inurba_marseille","lat":43.2318,"lon":5.39985,"is_reserved":false,"is_disabled":false,"rental_uris":{"android":"levelo://app?vid=7232a04f-8fb1-4851-b222-89bec82186ce","ios":"levelo://app?vid=7232a04f-8fb1-4851-b222-89bec82186ce"},"vehicle_type_id":"4","last_reported":1732036139,"current_range_meters":4400,"station_id":"ce4bhn12rcd13ifvqgqg","pricing_plan_id":"cebpf4jnsgd1na2vs0mg"},{"bike_id":"64ed23a0-3533-4dca-8fb9-650aaf2586c1","system_id":"levelo_inurba_marseille","lat":43.31721,"lon":5.42406,"is_reserved":false,"is_disabled":false,"rental_uris":{"android":"levelo://app?vid=64ed23a0-3533-4dca-8fb9-650aaf2586c1","ios":"levelo://app?vid=64ed23a0-3533-4dca-8fb9-650aaf2586c1"},"vehicle_type_id":"4","last_reported":1732036139,"current_range_meters":40000,"station_id":"ce4bhp92rcd13ifvqhbg","pricing_plan_id":"cebpf4jnsgd1na2vs0mg"},{"bike_id":"50b44e30-7bf5-4e2e-be3f-0e38514d5052","system_id":"levelo_inurba_marseille","lat":43.23155,"lon":5.43703,"is_reserved":false,"is_disabled":true,"rental_uris":{"android":"levelo://app?vid=50b44e30-7bf5-4e2e-be3f-0e38514d5052","ios":"levelo://app?vid=50b44e30-7bf5-4e2e-be3f-0e38514d5052"},"vehicle_type_id":"4","last_reported":1732036139,"current_range_meters":0,"station_id":"ce4bhmp2rcd13ifvqgog","pricing_plan_id":"cebpf4jnsgd1na2vs0mg"},{"bike_id":"5fbaf450-90c7-416c-a9b6-8e3b3003c75c","system_id":"levelo_inurba_marseille","lat":43.32482,"lon":5.36571,"is_reserved":false,"is_disabled":false,"rental_uris":{"android":"levelo://app?vid=5fbaf450-90c7-416c-a9b6-8e3b3003c75c","ios":"levelo://app?vid=5fbaf450-90c7-416c-a9b6-8e3b3003c75c"},"vehicle_type_id":"4","last_reported":1732036139,"current_range_meters":38800,"station_id":"ce4bhs12rcd13ifvqhvg","pricing_plan_id":"cebpf4jnsgd1na2vs0mg"},{"bike_id":"bd981726-7329-498f-afb2-fefc72aadccc","system_id":"levelo_inurba_marseille","lat":43.28465,"lon":5.35891,"is_reserved":false,"is_disabled":true,"rental_uris":{"android":"levelo://app?vid=bd981726-7329-498f-afb2-fefc72aadccc","ios":"levelo://app?vid=bd981726-7329-498f-afb2-fefc72aadccc"},"vehicle_type_id":"4","last_reported":1732036139,"current_range_meters":0,"station_id":"ce4bhah2rcd13ifvqei0","pricing_plan_id":"cebpf4jnsgd1na2vs0mg"},{"bike_id":"8fc10169-d5d1-427d-a828-d3cba24a32c1","system_id":"levelo_inurba_marseille","lat":43.29419,"lon":5.38628,"is_reserved":false,"is_disabled":false,"rental_uris":{"android":"levelo://app?vid=8fc10169-d5d1-427d-a828-d3cba24a32c1","ios":"levelo://app?vid=8fc10169-d5d1-427d-a828-d3cba24a32c1"},"vehicle_type_id":"4","last_reported":1732036139,"current_range_meters":30400,"station_id":"ce4bh2h2rcd13ifvqdh0","pricing_plan_id":"cebpf4jnsgd1na2vs0mg"},{"bike_id":"03624f7d-f25e-4ca6-82bf-9bdcb0d27757","system_id":"levelo_inurba_marseille","lat":43.30625,"lon":5.36763,"is_reserved":false,"is_disabled":true,"rental_uris":{"android":"levelo://app?vid=03624f7d-f25e-4ca6-82bf-9bdcb0d27757","ios":"levelo://app?vid=03624f7d-f25e-4ca6-82bf-9bdcb0d27757"},"vehicle_type_id":"4","last_reported":1732036139,"current_range_meters":0,"station_id":"","pricing_plan_id":"cebpf4jnsgd1na2vs0mg"},{"bike_id":"4343d524-9dc0-4afe-9d28-ce8b6ec92f18","system_id":"levelo_inurba_marseille","lat":43.27073,"lon":5.42281,"is_reserved":false,"is_disabled":false,"rental_uris":{"android":"levelo://app?vid=4343d524-9dc0-4afe-9d28-ce8b6ec92f18","ios":"levelo://app?vid=4343d524-9dc0-4afe-9d28-ce8b6ec92f18"},"vehicle_type_id":"4","last_reported":1732036139,"current_range_meters":9200,"station_id":"ce4bhk92rcd13ifvqgb0","pricing_plan_id":"cebpf4jnsgd1na2vs0mg"},{"bike_id":"c6623bb0-f692-407d-853b-d2ee9390c3ed","system_id":"levelo_inurba_marseille","lat":43.30136,"lon":5.39864,"is_reserved":false,"is_disabled":true,"rental_uris":{"android":"levelo://app?vid=c6623bb0-f692-407d-853b-d2ee9390c3ed","ios":"levelo://app?vid=c6623bb0-f692-407d-853b-d2ee9390c3ed"},"vehicle_type_id":"4","last_reported":1732036139,"current_range_meters":33200,"station_id":"ce4bh0h2rcd13ifvqd40","pricing_plan_id":"cebpf4jnsgd1na2vs0mg"},{"bike_id":"079da28f-094a-47d2-98e0-e20dff40a4fe","system_id":"levelo_inurba_marseille","lat":43.27616,"lon":5.36108,"is_reserved":false,"is_disabled":false,"rental_uris":{"android":"levelo://app?vid=079da28f-094a-47d2-98e0-e20dff40a4fe","ios":"levelo://app?vid=079da28f-094a-47d2-98e0-e20dff40a4fe"},"vehicle_type_id":"4","last_reported":1732036139,"current_range_meters":38800,"station_id":"ce4bgj92rcd13ifvqbe0","pricing_plan_id":"cebpf4jnsgd1na2vs0mg"},{"bike_id":"38d51da3-0139-4125-94d9-bc144948dd6a","system_id":"levelo_inurba_marseille","lat":43.26568,"lon":5.39017,"is_reserved":false,"is_disabled":false,"rental_uris":{"android":"levelo://app?vid=38d51da3-0139-4125-94d9-bc144948dd6a","ios":"levelo://app?vid=38d51da3-0139-4125-94d9-bc144948dd6a"},"vehicle_type_id":"4","last_reported":1732036139,"current_range_meters":3200,"station_id":"ce4bhe12rcd13ifvqf30","pricing_plan_id":"cebpf4jnsgd1na2vs0mg"},{"bike_id":"34fbb780-c0fa-45cf-bcf9-ca38bcd2e858","system_id":"levelo_inurba_marseille","lat":43.33027,"lon":5.3904,"is_reserved":false,"is_disabled":false,"rental_uris":{"android":"levelo://app?vid=34fbb780-c0fa-45cf-bcf9-ca38bcd2e858","ios":"levelo://app?vid=34fbb780-c0fa-45cf-bcf9-ca38bcd2e858"},"vehicle_type_id":"4","last_reported":1732036139,"current_range_meters":10000,"station_id":"ce4bhr92rcd13ifvqhrg","pricing_plan_id":"cebpf4jnsgd1na2vs0mg"},{"bike_id":"3721bf3a-cd39-48e9-976a-eaf7e01ea65a","system_id":"levelo_inurba_marseille","lat":43.24389,"lon":5.37057,"is_reserved":false,"is_disabled":true,"rental_uris":{"android":"levelo://app?vid=3721bf3a-cd39-48e9-976a-eaf7e01ea65a","ios":"levelo://app?vid=3721bf3a-cd39-48e9-976a-eaf7e01ea65a"},"vehicle_type_id":"4","last_reported":1732036139,"current_range_meters":0,"station_id":"ce4bhhh2rcd13ifvqfk0","pricing_plan_id":"cebpf4jnsgd1na2vs0mg"},{"bike_id":"43ea40e9-1f50-4f81-be7a-e4d53f2c5595","system_id":"levelo_inurba_marseille","lat":43.31485,"lon":5.38019,"is_reserved":false,"is_disabled":false,"rental_uris":{"android":"levelo://app?vid=43ea40e9-1f50-4f81-be7a-e4d53f2c5595","ios":"levelo://app?vid=43ea40e9-1f50-4f81-be7a-e4d53f2c5595"},"vehicle_type_id":"4","last_reported":1732036139,"current_range_meters":38000,"station_id":"ce4bhsp2rcd13ifvqi50","pricing_plan_id":"cebpf4jnsgd1na2vs0mg"},{"bike_id":"6b2d7ac6-daee-437a-898a-174ba8275963","system_id":"levelo_inurba_marseille","lat":43.29291,"lon":5.37468,"is_reserved":false,"is_disabled":false,"rental_uris":{"android":"levelo://app?vid=6b2d7ac6-daee-437a-898a-174ba8275963","ios":"levelo://app?vid=6b2d7ac6-daee-437a-898a-174ba8275963"},"vehicle_type_id":"4","last_reported":1732036139,"current_range_meters":30400,"station_id":"ce4bgi12rcd13ifvqb70","pricing_plan_id":"cebpf4jnsgd1na2vs0mg"},{"bike_id":"18b8f091-c34a-472c-8dc3-5f3caf056c58","system_id":"levelo_inurba_marseille","lat":43.337444,"lon":5.374475,"is_reserved":false,"is_disabled":false,"rental_uris":{"android":"levelo://app?vid=18b8f091-c34a-472c-8dc3-5f3caf056c58","ios":"levelo://app?vid=18b8f091-c34a-472c-8dc3-5f3caf056c58"},"vehicle_type_id":"4","last_reported":1732036139,"current_range_meters":38400,"station_id":"","pricing_plan_id":"cebpf4jnsgd1na2vs0mg"},{"bike_id":"9044f75c-15b5-4f34-bbd2-226c9f41adac","system_id":"levelo_inurba_marseille","lat":43.27609,"lon":5.36116,"is_reserved":false,"is_disabled":true,"rental_uris":{"android":"levelo://app?vid=9044f75c-15b5-4f34-bbd2-226c9f41adac","ios":"levelo://app?vid=9044f75c-15b5-4f34-bbd2-226c9f41adac"},"vehicle_type_id":"4","last_reported":1732036139,"current_range_meters":32800,"station_id":"ce4bgj92rcd13ifvqbe0","pricing_plan_id":"cebpf4jnsgd1na2vs0mg"},{"bike_id":"e03a06b6-df6d-487f-8834-4cdb03f56f47","system_id":"levelo_inurba_marseille","lat":43.28109,"lon":5.44097,"is_reserved":false,"is_disabled":true,"rental_uris":{"android":"levelo://app?vid=e03a06b6-df6d-487f-8834-4cdb03f56f47","ios":"levelo://app?vid=e03a06b6-df6d-487f-8834-4cdb03f56f47"},"vehicle_type_id":"4","last_reported":1732036139,"current_range_meters":0,"station_id":"","pricing_plan_id":"cebpf4jnsgd1na2vs0mg"},{"bike_id":"f5557847-0cf1-4ada-bcd6-c7726194655d","system_id":"levelo_inurba_marseille","lat":43.33759,"lon":5.3744,"is_reserved":false,"is_disabled":false,"rental_uris":{"android":"levelo://app?vid=f5557847-0cf1-4ada-bcd6-c7726194655d","ios":"levelo://app?vid=f5557847-0cf1-4ada-bcd6-c7726194655d"},"vehicle_type_id":"4","last_reported":1732036139,"current_range_meters":36800,"station_id":"","pricing_plan_id":"cebpf4jnsgd1na2vs0mg"},{"bike_id":"e2d6ce17-d315-470f-adb4-8dda24f8ad24","system_id":"levelo_inurba_marseille","lat":43.28041,"lon":5.36945,"is_reserved":false,"is_disabled":false,"rental_uris":{"android":"levelo://app?vid=e2d6ce17-d315-470f-adb4-8dda24f8ad24","ios":"levelo://app?vid=e2d6ce17-d315-470f-adb4-8dda24f8ad24"},"vehicle_type_id":"4","last_reported":1732036139,"current_range_meters":16800,"station_id":"ce4bha12rcd13ifvqef0","pricing_plan_id":"cebpf4jnsgd1na2vs0mg"},{"bike_id":"79511df2-b072-4a83-b5fb-62b31b8c5f1e","system_id":"levelo_inurba_marseille","lat":43.30538,"lon":5.36702,"is_reserved":false,"is_disabled":true,"rental_uris":{"android":"levelo://app?vid=79511df2-b072-4a83-b5fb-62b31b8c5f1e","ios":"levelo://app?vid=79511df2-b072-4a83-b5fb-62b31b8c5f1e"},"vehicle_type_id":"4","last_reported":1732036139,"current_range_meters":17200,"station_id":"ce4bgrp2rcd13ifvqc9g","pricing_plan_id":"cebpf4jnsgd1na2vs0mg"},{"bike_id":"87a1679d-aa59-41b4-bd56-bc5165abd16a","system_id":"levelo_inurba_marseille","lat":43.27901,"lon":5.38006,"is_reserved":false,"is_disabled":true,"rental_uris":{"android":"levelo://app?vid=87a1679d-aa59-41b4-bd56-bc5165abd16a","ios":"levelo://app?vid=87a1679d-aa59-41b4-bd56-bc5165abd16a"},"vehicle_type_id":"4","last_reported":1732036139,"current_range_meters":0,"station_id":"","pricing_plan_id":"cebpf4jnsgd1na2vs0mg"},{"bike_id":"ccf5e94a-251f-4f68-a88b-51e5313a6d6e","system_id":"levelo_inurba_marseille","lat":43.32367,"lon":5.3888,"is_reserved":false,"is_disabled":false,"rental_uris":{"android":"levelo://app?vid=ccf5e94a-251f-4f68-a88b-51e5313a6d6e","ios":"levelo://app?vid=ccf5e94a-251f-4f68-a88b-51e5313a6d6e"},"vehicle_type_id":"4","last_reported":1732036139,"current_range_meters":10800,"station_id":"ce4bhqp2rcd13ifvqhog","pricing_plan_id":"cebpf4jnsgd1na2vs0mg"},{"bike_id":"2d36e073-3a2a-4e2e-80a5-4cfb4ad75bb5","system_id":"levelo_inurba_marseille","lat":43.31267,"lon":5.40166,"is_reserved":false,"is_disabled":false,"rental_uris":{"android":"levelo://app?vid=2d36e073-3a2a-4e2e-80a5-4cfb4ad75bb5","ios":"levelo://app?vid=2d36e073-3a2a-4e2e-80a5-4cfb4ad75bb5"},"vehicle_type_id":"4","last_reported":1732036139,"current_range_meters":38800,"station_id":"ce4bh092rcd13ifvqd30","pricing_plan_id":"cebpf4jnsgd1na2vs0mg"},{"bike_id":"173d2649-402a-41e7-bab7-d5a24248377f","system_id":"levelo_inurba_marseille","lat":43.28447,"lon":5.39185,"is_reserved":false,"is_disabled":false,"rental_uris":{"android":"levelo://app?vid=173d2649-402a-41e7-bab7-d5a24248377f","ios":"levelo://app?vid=173d2649-402a-41e7-bab7-d5a24248377f"},"vehicle_type_id":"4","last_reported":1732036139,"current_range_meters":38800,"station_id":"ce4bhoh2rcd13ifvqh5g","pricing_plan_id":"cebpf4jnsgd1na2vs0mg"},{"bike_id":"3e20be65-3ce9-470b-8b23-92f1ff0c9bdc","system_id":"levelo_inurba_marseille","lat":43.29263,"lon":5.40917,"is_reserved":false,"is_disabled":false,"rental_uris":{"android":"levelo://app?vid=3e20be65-3ce9-470b-8b23-92f1ff0c9bdc","ios":"levelo://app?vid=3e20be65-3ce9-470b-8b23-92f1ff0c9bdc"},"vehicle_type_id":"4","last_reported":1732036139,"current_range_meters":16000,"station_id":"ce4bh192rcd13ifvqdc0","pricing_plan_id":"cebpf4jnsgd1na2vs0mg"},{"bike_id":"58165298-9415-410c-81e8-3778d767ad67","system_id":"levelo_inurba_marseille","lat":43.24656,"lon":5.38895,"is_reserved":false,"is_disabled":false,"rental_uris":{"android":"levelo://app?vid=58165298-9415-410c-81e8-3778d767ad67","ios":"levelo://app?vid=58165298-9415-410c-81e8-3778d767ad67"},"vehicle_type_id":"4","last_reported":1732036139,"current_range_meters":38800,"station_id":"ce4bhg12rcd13ifvqf60","pricing_plan_id":"cebpf4jnsgd1na2vs0mg"},{"bike_id":"798fd0da-3ec6-486c-851f-14a6474b7aef","system_id":"levelo_inurba_marseille","lat":43.28854,"lon":5.35861,"is_reserved":false,"is_disabled":false,"rental_uris":{"android":"levelo://app?vid=798fd0da-3ec6-486c-851f-14a6474b7aef","ios":"levelo://app?vid=798fd0da-3ec6-486c-851f-14a6474b7aef"},"vehicle_type_id":"4","last_reported":1732036139,"current_range_meters":10000,"station_id":"ce4bhb12rcd13ifvqem0","pricing_plan_id":"cebpf4jnsgd1na2vs0mg"},{"bike_id":"ea19813a-60dd-4179-850b-eefbf2bb844d","system_id":"levelo_inurba_marseille","lat":43.330234,"lon":5.390384,"is_reserved":false,"is_disabled":false,"rental_uris":{"android":"levelo://app?vid=ea19813a-60dd-4179-850b-eefbf2bb844d","ios":"levelo://app?vid=ea19813a-60dd-4179-850b-eefbf2bb844d"},"vehicle_type_id":"4","last_reported":1732036139,"current_range_meters":39200,"station_id":"ce4bhr92rcd13ifvqhrg","pricing_plan_id":"cebpf4jnsgd1na2vs0mg"},{"bike_id":"1feae83f-ad96-4e3f-9a90-500f4643de9d","system_id":"levelo_inurba_marseille","lat":43.29098,"lon":5.42649,"is_reserved":false,"is_disabled":true,"rental_uris":{"android":"levelo://app?vid=1feae83f-ad96-4e3f-9a90-500f4643de9d","ios":"levelo://app?vid=1feae83f-ad96-4e3f-9a90-500f4643de9d"},"vehicle_type_id":"4","last_reported":1732036139,"current_range_meters":0,"station_id":"","pricing_plan_id":"cebpf4jnsgd1na2vs0mg"},{"bike_id":"d5d89c8e-e1c0-44d3-943c-ad32cfd36d27","system_id":"levelo_inurba_marseille","lat":43.2842,"lon":5.34991,"is_reserved":false,"is_disabled":false,"rental_uris":{"android":"levelo://app?vid=d5d89c8e-e1c0-44d3-943c-ad32cfd36d27","ios":"levelo://app?vid=d5d89c8e-e1c0-44d3-943c-ad32cfd36d27"},"vehicle_type_id":"4","last_reported":1732036139,"current_range_meters":31200,"station_id":"ce4bhbh2rcd13ifvqepg","pricing_plan_id":"cebpf4jnsgd1na2vs0mg"},{"bike_id":"712c14ef-d6b1-4fc2-9130-25cddc19a39b","system_id":"levelo_inurba_marseille","lat":43.29421,"lon":5.38607,"is_reserved":false,"is_disabled":false,"rental_uris":{"android":"levelo://app?vid=712c14ef-d6b1-4fc2-9130-25cddc19a39b","ios":"levelo://app?vid=712c14ef-d6b1-4fc2-9130-25cddc19a39b"},"vehicle_type_id":"4","last_reported":1732036139,"current_range_meters":24800,"station_id":"ce4bh2h2rcd13ifvqdh0","pricing_plan_id":"cebpf4jnsgd1na2vs0mg"},{"bike_id":"c8fdb49c-ec3d-4f2a-a665-a6ce69689543","system_id":"levelo_inurba_marseille","lat":43.28703,"lon":5.39984,"is_reserved":false,"is_disabled":false,"rental_uris":{"android":"levelo://app?vid=c8fdb49c-ec3d-4f2a-a665-a6ce69689543","ios":"levelo://app?vid=c8fdb49c-ec3d-4f2a-a665-a6ce69689543"},"vehicle_type_id":"4","last_reported":1732036139,"current_range_meters":14400,"station_id":"ce4bho92rcd13ifvqh3g","pricing_plan_id":"cebpf4jnsgd1na2vs0mg"},{"bike_id":"09d0c9a4-1c9a-4ec8-b255-eb2867edcba4","system_id":"levelo_inurba_marseille","lat":43.28073,"lon":5.39623,"is_reserved":false,"is_disabled":true,"rental_uris":{"android":"levelo://app?vid=09d0c9a4-1c9a-4ec8-b255-eb2867edcba4","ios":"levelo://app?vid=09d0c9a4-1c9a-4ec8-b255-eb2867edcba4"},"vehicle_type_id":"4","last_reported":1732036139,"current_range_meters":18800,"station_id":"ce4bho12rcd13ifvqh2g","pricing_plan_id":"cebpf4jnsgd1na2vs0mg"},{"bike_id":"f7fb5b02-d59a-4a9b-bafd-8d6d2a91b9ad","system_id":"levelo_inurba_marseille","lat":43.25108,"lon":5.40323,"is_reserved":false,"is_disabled":false,"rental_uris":{"android":"levelo://app?vid=f7fb5b02-d59a-4a9b-bafd-8d6d2a91b9ad","ios":"levelo://app?vid=f7fb5b02-d59a-4a9b-bafd-8d6d2a91b9ad"},"vehicle_type_id":"4","last_reported":1732036139,"current_range_meters":33600,"station_id":"ce4bhlh2rcd13ifvqgig","pricing_plan_id":"cebpf4jnsgd1na2vs0mg"},{"bike_id":"1453fdae-ebe7-4e68-a828-fc537931e82c","system_id":"levelo_inurba_marseille","lat":43.24173,"lon":5.36403,"is_reserved":false,"is_disabled":false,"rental_uris":{"android":"levelo://app?vid=1453fdae-ebe7-4e68-a828-fc537931e82c","ios":"levelo://app?vid=1453fdae-ebe7-4e68-a828-fc537931e82c"},"vehicle_type_id":"4","last_reported":1732036139,"current_range_meters":6800,"station_id":"cpo36qri1sfpv3e86is0","pricing_plan_id":"cebpf4jnsgd1na2vs0mg"},{"bike_id":"5f0ff2c4-06fa-4fca-8c33-df3add0c7d83","system_id":"levelo_inurba_marseille","lat":43.23193,"lon":5.35557,"is_reserved":false,"is_disabled":false,"rental_uris":{"android":"levelo://app?vid=5f0ff2c4-06fa-4fca-8c33-df3add0c7d83","ios":"levelo://app?vid=5f0ff2c4-06fa-4fca-8c33-df3add0c7d83"},"vehicle_type_id":"4","last_reported":1732036139,"current_range_meters":28800,"station_id":"ce4bhu92rcd13ifvqi70","pricing_plan_id":"cebpf4jnsgd1na2vs0mg"},{"bike_id":"763aa97f-8462-4ab9-a2e5-c761e964dbba","system_id":"levelo_inurba_marseille","lat":43.33772,"lon":5.37497,"is_reserved":false,"is_disabled":true,"rental_uris":{"android":"levelo://app?vid=763aa97f-8462-4ab9-a2e5-c761e964dbba","ios":"levelo://app?vid=763aa97f-8462-4ab9-a2e5-c761e964dbba"},"vehicle_type_id":"4","last_reported":1732036139,"current_range_meters":35600,"station_id":"","pricing_plan_id":"cebpf4jnsgd1na2vs0mg"},