{"last_updated":1748286469,"ttl":60,"version":"2.2","data":{"bikes":[{"bike_id":"c0b9fd4f-e181-46ce-b0bf-f5119973334f","system_id":"levelo_inurba_marseille","lat":43.33771,"lon":5.37424,"is_reserved":false,"is_disabled":true,"rental_uris":{"android":"levelo://app?vid=c0b9fd4f-e181-46ce-b0bf-f5119973334f","ios":"levelo://app?vid=c0b9fd4f-e181-46ce-b0bf-f5119973334f"},"vehicle_type_id":"4","last_reported":1748286469,"current_range_meters":0,"station_id":"","pricing_plan_id":"cebpf4jnsgd1na2vs0mg"},{"bike_id":"68dd4df3-b4ab-477d-ba1f-083f8077ecbb","system_id":"levelo_inurba_marseille","lat":43.25639,"lon":5.37522,"is_reserved":false,"is_disabled":true,"rental_uris":{"android":"levelo://app?vid=68dd4df3-b4ab-477d-ba1f-083f8077ecbb","ios":"levelo://app?vid=68dd4df3-b4ab-477d-ba1f-083f8077ecbb"},"vehicle_type_id":"4","last_reported":1748286469,"current_range_meters":0,"station_id":"","pricing_plan_id":"cebpf4jnsgd1na2vs0mg"},{"bike_id":"7c7a4a80-74c5-4390-888e-19ef0412b19c","system_id":"levelo_inurba_marseille","lat":43.24612,"lon":5.40422,"is_reserved":false,"is_disabled":true,"rental_uris":{"android":"levelo://app?vid=7c7a4a80-74c5-4390-888e-19ef0412b19c","ios":"levelo://app?vid=7c7a4a80-74c5-4390-888e-19ef0412b19c"},"vehicle_type_id":"4","last_reported":1748286469,"current_range_meters":0,"station_id":"","pricing_plan_id":"cebpf4jnsgd1na2vs0mg"},{"bike_id":"3fe3d6c4-138a-47df-b6b4-e6f19e8f7d46","system_id":"levelo_inurba_marseille","lat":43.21411,"lon":5.34114,"is_reserved":false,"is_disabled":true,"rental_uris":{"android":"levelo://app?vid=3fe3d6c4-138a-47df-b6b4-e6f19e8f7d46","ios":"levelo://app?vid=3fe3d6c4-138a-47df-b6b4-e6f19e8f7d46"},"vehicle_type_id":"4","last_reported":1748286469,"current_range_meters":0,"station_id":"","pricing_plan_id":"cebpf4jnsgd1na2vs0mg"},{"bike_id":"fd133867-b5d2-4fd2-aa0a-382781ea3f5a","system_id":"levelo_inurba_marseille","lat":43.29097,"lon":5.43267,"is_reserved":false,"is_disabled":true,"rental_uris":{"android":"levelo://app?vid=fd133867-b5d2-4fd2-aa0a-382781ea3f5a","ios":"levelo://app?vid=fd133867-b5d2-4fd2-aa0a-382781ea3f5a"},"vehicle_type_id":"4","last_reported":1748286469,"current_range_meters":0,"station_id":"","pricing_plan_id":"cebpf4jnsgd1na2vs0mg"},{"bike_id":"15dcdbbd-a41e-43eb-9ed6-26ec15ce7a50","system_id":"levelo_inurba_marseille","lat":43.21411,"lon":5.34113,"is_reserved":false,"is_disabled":true,"rental_uris":{"android":"levelo://app?vid=15dcdbbd-a41e-43eb-9ed6-26ec15ce7a50","ios":"levelo://app?vid=15dcdbbd-a41e-43eb-9ed6-26ec15ce7a50"},"vehicle_type_id":"4","last_reported":1748286469,"current_range_meters":0,"station_id":"","pricing_plan_id":"cebpf4jnsgd1na2vs0mg"},{"bike_id":"f9fb40c0-1fcd-48cb-8e26-3f2dc0fb2451","system_id":"levelo_inurba_marseille","lat":43.33751,"lon":5.37509,"is_reserved":false,"is_disabled":true,"rental_uris":{"android":"levelo://app?vid=f9fb40c0-1fcd-48cb-8e26-3f2dc0fb2451","ios":"levelo://app?vid=f9fb40c0-1fcd-48cb-8e26-3f2dc0fb2451"},"vehicle_type_id":"4","last_reported":1748286469,"current_range_meters":0,"station_id":"","pricing_plan_id":"cebpf4jnsgd1na2vs0mg"},{"bike_id":"e9dd3aa4-b5e7-4480-926d-d7f537719bfa","system_id":"levelo_inurba_marseille","lat":43.230331,"lon":5.401847,"is_reserved":false,"is_disabled":true,"rental_uris":{"android":"levelo://app?vid=e9dd3aa4-b5e7-4480-926d-d7f537719bfa","ios":"levelo://app?vid=e9dd3aa4-b5e7-4480-926d-d7f537719bfa"},"vehicle_type_id":"4","last_reported":1748286469,"current_range_meters":0,"station_id":"","pricing_plan_id":"cebpf4jnsgd1na2vs0mg"},{"bike_id":"dcd075ea-b4af-4d6d-90b2-1236858b7bc1","system_id":"levelo_inurba_marseille","lat":43.27609,"lon":5.35873,"is_reserved":false,"is_disabled":true,"rental_uris":{"android":"levelo://app?vid=dcd075ea-b4af-4d6d-90b2-1236858b7bc1","ios":"levelo://app?vid=dcd075ea-b4af-4d6d-90b2-1236858b7bc1"},"vehicle_type_id":"4","last_reported":1748286469,"current_range_meters":0,"station_id":"","pricing_plan_id":"cebpf4jnsgd1na2vs0mg"},{"bike_id":"707f2066-754a-4ae8-85d2-6121e8e153c5","system_id":"levelo_inurba_marseille","lat":43.30929,"lon":5.4015,"is_reserved":false,"is_disabled":true,"rental_uris":{"android":"levelo://app?vid=707f2066-754a-4ae8-85d2-6121e8e153c5","ios":"levelo://app?vid=707f2066-754a-4ae8-85d2-6121e8e153c5"},"vehicle_type_id":"4","last_reported":1748286469,"current_range_meters":0,"station_id":"ce4bgvp2rcd13ifvqct0","pricing_plan_id":"cebpf4jnsgd1na2vs0mg"},{"bike_id":"79c3de81-542d-42eb-a6bc-a2f79cd2e8e4","system_id":"levelo_inurba_marseille","lat":43.26211,"lon":5.37441,"is_reserved":false,"is_disabled":true,"rental_uris":{"android":"levelo://app?vid=79c3de81-542d-42eb-a6bc-a2f79cd2e8e4","ios":"levelo://app?vid=79c3de81-542d-42eb-a6bc-a2f79cd2e8e4"},"vehicle_type_id":"4","last_reported":1748286469,"current_range_meters":0,"station_id":"ce4bhgp2rcd13ifvqfc0","pricing_plan_id":"cebpf4jnsgd1na2vs0mg"},{"bike_id":"fa9040cb-6f75-4844-b106-1e6202cc5853","system_id":"levelo_inurba_marseille","lat":43.299,"lon":5.43665,"is_reserved":false,"is_disabled":true,"rental_uris":{"android":"levelo://app?vid=fa9040cb-6f75-4844-b106-1e6202cc5853","ios":"levelo://app?vid=fa9040cb-6f75-4844-b106-1e6202cc5853"},"vehicle_type_id":"4","last_reported":1748286469,"current_range_meters":0,"station_id":"ce4bhpp2rcd13ifvqhfg","pricing_plan_id":"cebpf4jnsgd1na2vs0mg"},{"bike_id":"cdeaa374-71ec-4bf7-80a7-959fcdf40cb2","system_id":"levelo_inurba_marseille","lat":43.32368,"lon":5.38887,"is_reserved":false,"is_disabled":true,"rental_uris":{"android":"levelo://app?vid=cdeaa374-71ec-4bf7-80a7-959fcdf40cb2","ios":"levelo://app?vid=cdeaa374-71ec-4bf7-80a7-959fcdf40cb2"},"vehicle_type_id":"4","last_reported":1748286469,"current_range_meters":0,"station_id":"ce4bhqp2rcd13ifvqhog","pricing_plan_id":"cebpf4jnsgd1na2vs0mg"},{"bike_id":"0e389cfa-2641-4873-81e8-0333e6e5dece","system_id":"levelo_inurba_marseille","lat":43.29228,"lon":5.36076,"is_reserved":false,"is_disabled":true,"rental_uris":{"android":"levelo://app?vid=0e389cfa-2641-4873-81e8-0333e6e5dece","ios":"levelo://app?vid=0e389cfa-2641-4873-81e8-0333e6e5dece"},"vehicle_type_id":"4","last_reported":1748286469,"current_range_meters":400,"station_id":"ce4bhbh2rcd13ifvqeqg","pricing_plan_id":"cebpf4jnsgd1na2vs0mg"},{"bike_id":"3c4da755-f86c-41f0-94c8-175fbaf5657f","system_id":"levelo_inurba_marseille","lat":43.32342,"lon":5.406142,"is_reserved":false,"is_disabled":true,"rental_uris":{"android":"levelo://app?vid=3c4da755-f86c-41f0-94c8-175fbaf5657f","ios":"levelo://app?vid=3c4da755-f86c-41f0-94c8-175fbaf5657f"},"vehicle_type_id":"4","last_reported":1748286469,"current_range_meters":400,"station_id":"ce4bhq92rcd13ifvqhjg","pricing_plan_id":"cebpf4jnsgd1na2vs0mg"},{"bike_id":"32b62faf-807d-47e6-a398-5b5d66018cf0","system_id":"levelo_inurba_marseille","lat":43.27428,"lon":5.39417,"is_reserved":false,"is_disabled":true,"rental_uris":{"android":"levelo://app?vid=32b62faf-807d-47e6-a398-5b5d66018cf0","ios":"levelo://app?vid=32b62faf-807d-47e6-a398-5b5d66018cf0"},"vehicle_type_id":"4","last_reported":1748286469,"current_range_meters":800,"station_id":"ce4bhdp2rcd13ifvqf20","pricing_plan_id":"cebpf4jnsgd1na2vs0mg"},{"bike_id":"3581c28c-41f2-4cb7-b494-0448776c0438","system_id":"levelo_inurba_marseille","lat":43.29639,"lon":5.36039,"is_reserved":false,"is_disabled":true,"rental_uris":{"android":"levelo://app?vid=3581c28c-41f2-4cb7-b494-0448776c0438","ios":"levelo://app?vid=3581c28c-41f2-4cb7-b494-0448776c0438"},"vehicle_type_id":"4","last_reported":1748286469,"current_range_meters":1200,"station_id":"","pricing_plan_id":"cebpf4jnsgd1na2vs0mg"},{"bike_id":"3fb85001-888b-4639-8981-19ceb1111a17","system_id":"levelo_inurba_marseille","lat":43.29918,"lon":5.43644,"is_reserved":false,"is_disabled":true,"rental_uris":{"android":"levelo://app?vid=3fb85001-888b-4639-8981-19ceb1111a17","ios":"levelo://app?vid=3fb85001-888b-4639-8981-19ceb1111a17"},"vehicle_type_id":"4","last_reported":1748286469,"current_range_meters":1200,"station_id":"ce4bhpp2rcd13ifvqhfg","pricing_plan_id":"cebpf4jnsgd1na2vs0mg"},{"bike_id":"f07d1d13-9628-45df-a69f-b166d1f13860","system_id":"levelo_inurba_marseille","lat":43.30888,"lon":5.39644,"is_reserved":false,"is_disabled":true,"rental_uris":{"android":"levelo://app?vid=f07d1d13-9628-45df-a69f-b166d1f13860","ios":"levelo://app?vid=f07d1d13-9628-45df-a69f-b166d1f13860"},"vehicle_type_id":"4","last_reported":1748286469,"current_range_meters":1600,"station_id":"ce4bh012rcd13ifvqcv0","pricing_plan_id":"cebpf4jnsgd1na2vs0mg"},{"bike_id":"6f46d226-59e6-40b5-ad76-116cf95b77b9","system_id":"levelo_inurba_marseille","lat":43.30799,"lon":5.38168,"is_reserved":false,"is_disabled":false,"rental_uris":{"android":"levelo://app?vid=6f46d226-59e6-40b5-ad76-116cf95b77b9","ios":"levelo://app?vid=6f46d226-59e6-40b5-ad76-116cf95b77b9"},"vehicle_type_id":"4","last_reported":1748286469,"current_range_meters":2000,"station_id":"ce4bgt12rcd13ifvqce0","pricing_plan_id":"cebpf4jnsgd1na2vs0mg"},{"bike_id":"75a62514-5325-4787-beb2-8864c4f4cbfa","system_id":"levelo_inurba_marseille","lat":43.31691,"lon":5.4047,"is_reserved":false,"is_disabled":true,"rental_uris":{"android":"levelo://app?vid=75a62514-5325-4787-beb2-8864c4f4cbfa","ios":"levelo://app?vid=75a62514-5325-4787-beb2-8864c4f4cbfa"},"vehicle_type_id":"4","last_reported":1748286469,"current_range_meters":2000,"station_id":"ce4bh012rcd13ifvqd00","pricing_plan_id":"cebpf4jnsgd1na2vs0mg"},{"bike_id":"5c07b318-3b31-4553-b066-2492706a5b47","system_id":"levelo_inurba_marseille","lat":43.287059,"lon":5.373733,"is_reserved":false,"is_disabled":false,"rental_uris":{"android":"levelo://app?vid=5c07b318-3b31-4553-b066-2492706a5b47","ios":"levelo://app?vid=5c07b318-3b31-4553-b066-2492706a5b47"},"vehicle_type_id":"4","last_reported":1748286469,"current_range_meters":2800,"station_id":"ce4bh3p2rcd13ifvqdq0","pricing_plan_id":"cebpf4jnsgd1na2vs0mg"},{"bike_id":"03be0c81-caf7-4bea-a867-f5c9a652092d","system_id":"levelo_inurba_marseille","lat":43.29273,"lon":5.3844,"is_reserved":false,"is_disabled":false,"rental_uris":{"android":"levelo://app?vid=03be0c81-caf7-4bea-a867-f5c9a652092d","ios":"levelo://app?vid=03be0c81-caf7-4bea-a867-f5c9a652092d"},"vehicle_type_id":"4","last_reported":1748286469,"current_range_meters":2800,"station_id":"ce4bh692rcd13ifvqea0","pricing_plan_id":"cebpf4jnsgd1na2vs0mg"},{"bike_id":"a658c027-145b-4f1c-9c98-e375115041ca","system_id":"levelo_inurba_marseille","lat":43.29266,"lon":5.38431,"is_reserved":false,"is_disabled":false,"rental_uris":{"android":"levelo://app?vid=a658c027-145b-4f1c-9c98-e375115041ca","ios":"levelo://app?vid=a658c027-145b-4f1c-9c98-e375115041ca"},"vehicle_type_id":"4","last_reported":1748286469,"current_range_meters":3200,"station_id":"ce4bh692rcd13ifvqea0","pricing_plan_id":"cebpf4jnsgd1na2vs0mg"},{"bike_id":"dd4f743b-1b2a-4898-b3b3-05d161792f75","system_id":"levelo_inurba_marseille","lat":43.28276,"lon":5.35063,"is_reserved":false,"is_disabled":false,"rental_uris":{"android":"levelo://app?vid=dd4f743b-1b2a-4898-b3b3-05d161792f75","ios":"levelo://app?vid=dd4f743b-1b2a-4898-b3b3-05d161792f75"},"vehicle_type_id":"4","last_reported":1748286469,"current_range_meters":3200,"station_id":"ce4bhbp2rcd13ifvqerg","pricing_plan_id":"cebpf4jnsgd1na2vs0mg"},{"bike_id":"da453a88-f81b-4e0f-9781-5a7f6c1d364c","system_id":"levelo_inurba_marseille","lat":43.337499,"lon":5.374469,"is_reserved":false,"is_disabled":false,"rental_uris":{"android":"levelo://app?vid=da453a88-f81b-4e0f-9781-5a7f6c1d364c","ios":"levelo://app?vid=da453a88-f81b-4e0f-9781-5a7f6c1d364c"},"vehicle_type_id":"4","last_reported":1748286469,"current_range_meters":3600,"station_id":"","pricing_plan_id":"cebpf4jnsgd1na2vs0mg"},{"bike_id":"d9fa0449-e47c-4bbe-a91c-4939cab5d888","system_id":"levelo_inurba_marseille","lat":43.28522,"lon":5.42599,"is_reserved":false,"is_disabled":false,"rental_uris":{"android":"levelo://app?vid=d9fa0449-e47c-4bbe-a91c-4939cab5d888","ios":"levelo://app?vid=d9fa0449-e47c-4bbe-a91c-4939cab5d888"},"vehicle_type_id":"4","last_reported":1748286469,"current_range_meters":3600,"station_id":"","pricing_plan_id":"cebpf4jnsgd1na2vs0mg"},{"bike_id":"23f9fa98-7cbd-468c-a823-5a703cfbc29b","system_id":"levelo_inurba_marseille","lat":43.23152,"lon":5.43718,"is_reserved":false,"is_disabled":false,"rental_uris":{"android":"levelo://app?vid=23f9fa98-7cbd-468c-a823-5a703cfbc29b","ios":"levelo://app?vid=23f9fa98-7cbd-468c-a823-5a703cfbc29b"},"vehicle_type_id":"4","last_reported":1748286469,"current_range_meters":3600,"station_id":"ce4bhmp2rcd13ifvqgog","pricing_plan_id":"cebpf4jnsgd1na2vs0mg"},{"bike_id":"de98b99c-d2d9-4661-ae6e-584e4e4da074","system_id":"levelo_inurba_marseille","lat":43.30357,"lon":5.41873,"is_reserved":false,"is_disabled":false,"rental_uris":{"android":"levelo://app?vid=de98b99c-d2d9-4661-ae6e-584e4e4da074","ios":"levelo://app?vid=de98b99c-d2d9-4661-ae6e-584e4e4da074"},"vehicle_type_id":"4","last_reported":1748286469,"current_range_meters":3600,"station_id":"ce4bhop2rcd13ifvqh7g","pricing_plan_id":"cebpf4jnsgd1na2vs0mg"},{"bike_id":"297ad822-8f14-4f31-bb35-b1e84c96b30d","system_id":"levelo_inurba_marseille","lat":43.30654,"lon":5.4009,"is_reserved":false,"is_disabled":false,"rental_uris":{"android":"levelo://app?vid=297ad822-8f14-4f31-bb35-b1e84c96b30d","ios":"levelo://app?vid=297ad822-8f14-4f31-bb35-b1e84c96b30d"},"vehicle_type_id":"4","last_reported":1748286469,"current_range_meters":4000,"station_id":"ce4bh112rcd13ifvqda0","pricing_plan_id":"cebpf4jnsgd1na2vs0mg"},{"bike_id":"d1409ec6-ebcf-4af1-bd57-e7de0ac0a36c","system_id":"levelo_inurba_marseille","lat":43.28633,"lon":5.373503,"is_reserved":false,"is_disabled":false,"rental_uris":{"android":"levelo://app?vid=d1409ec6-ebcf-4af1-bd57-e7de0ac0a36c","ios":"levelo://app?vid=d1409ec6-ebcf-4af1-bd57-e7de0ac0a36c"},"vehicle_type_id":"4","last_reported":1748286469,"current_range_meters":4000,"station_id":"ce4bh412rcd13ifvqds0","pricing_plan_id":"cebpf4jnsgd1na2vs0mg"},{"bike_id":"9bde146c-592b-4dac-9009-c0fc38d6e566","system_id":"levelo_inurba_marseille","lat":43.29093,"lon":5.38135,"is_reserved":false,"is_disabled":false,"rental_uris":{"android":"levelo://app?vid=9bde146c-592b-4dac-9009-c0fc38d6e566","ios":"levelo://app?vid=9bde146c-592b-4dac-9009-c0fc38d6e566"},"vehicle_type_id":"4","last_reported":1748286469,"current_range_meters":4000,"station_id":"ce4bh512rcd13ifvqe2g","pricing_plan_id":"cebpf4jnsgd1na2vs0mg"},{"bike_id":"98ebf65e-e651-43eb-bbd4-161cddcbd829","system_id":"levelo_inurba_marseille","lat":43.284768,"lon":5.384156,"is_reserved":false,"is_disabled":false,"rental_uris":{"android":"levelo://app?vid=98ebf65e-e651-43eb-bbd4-161cddcbd829","ios":"levelo://app?vid=98ebf65e-e651-43eb-bbd4-161cddcbd829"},"vehicle_type_id":"4","last_reported":1748286469,"current_range_meters":4000,"station_id":"ce4bh512rcd13ifvqe3g","pricing_plan_id":"cebpf4jnsgd1na2vs0mg"},{"bike_id":"e23ea67a-4c1c-48d8-ada7-ab0b97d330e6","system_id":"levelo_inurba_marseille","lat":43.295335,"lon":5.385588,"is_reserved":false,"is_disabled":false,"rental_uris":{"android":"levelo://app?vid=e23ea67a-4c1c-48d8-ada7-ab0b97d330e6","ios":"levelo://app?vid=e23ea67a-4c1c-48d8-ada7-ab0b97d330e6"},"vehicle_type_id":"4","last_reported":1748286469,"current_range_meters":4400,"station_id":"ce4bgih2rcd13ifvqba0","pricing_plan_id":"cebpf4jnsgd1na2vs0mg"},{"bike_id":"05e2d07a-fc54-4958-840a-38938755cbf1","system_id":"levelo_inurba_marseille","lat":43.29731,"lon":5.37691,"is_reserved":false,"is_disabled":false,"rental_uris":{"android":"levelo://app?vid=05e2d07a-fc54-4958-840a-38938755cbf1","ios":"levelo://app?vid=05e2d07a-fc54-4958-840a-38938755cbf1"},"vehicle_type_id":"4","last_reported":1748286469,"current_range_meters":4400,"station_id":"ce4bgkh2rcd13ifvqbl0","pricing_plan_id":"cebpf4jnsgd1na2vs0mg"},{"bike_id":"c9d3a929-a374-445a-8c47-7b79d806920b","system_id":"levelo_inurba_marseille","lat":43.30132,"lon":5.39861,"is_reserved":false,"is_disabled":false,"rental_uris":{"android":"levelo://app?vid=c9d3a929-a374-445a-8c47-7b79d806920b","ios":"levelo://app?vid=c9d3a929-a374-445a-8c47-7b79d806920b"},"vehicle_type_id":"4","last_reported":1748286469,"current_range_meters":4400,"station_id":"ce4bh0h2rcd13ifvqd40","pricing_plan_id":"cebpf4jnsgd1na2vs0mg"},{"bike_id":"ac67ff9c-f8dc-407e-b33c-cb15641284ea","system_id":"levelo_inurba_marseille","lat":43.303035,"lon":5.392166,"is_reserved":false,"is_disabled":false,"rental_uris":{"android":"levelo://app?vid=ac67ff9c-f8dc-407e-b33c-cb15641284ea","ios":"levelo://app?vid=ac67ff9c-f8dc-407e-b33c-cb15641284ea"},"vehicle_type_id":"4","last_reported":1748286469,"current_range_meters":4800,"station_id":"ce4bgkh2rcd13ifvqbk0","pricing_plan_id":"cebpf4jnsgd1na2vs0mg"},{"bike_id":"a2b66580-f285-465f-b7e4-2de4af23fbed","system_id":"levelo_inurba_marseille","lat":43.29268,"lon":5.38446,"is_reserved":false,"is_disabled":false,"rental_uris":{"android":"levelo://app?vid=a2b66580-f285-465f-b7e4-2de4af23fbed","ios":"levelo://app?vid=a2b66580-f285-465f-b7e4-2de4af23fbed"},"vehicle_type_id":"4","last_reported":1748286469,"current_range_meters":4800,"station_id":"ce4bh692rcd13ifvqea0","pricing_plan_id":"cebpf4jnsgd1na2vs0mg"},{"bike_id":"dfdf77e0-4c22-42fd-a14d-ce66049f15db","system_id":"levelo_inurba_marseille","lat":43.26215,"lon":5.37441,"is_reserved":false,"is_disabled":false,"rental_uris":{"android":"levelo://app?vid=dfdf77e0-4c22-42fd-a14d-ce66049f15db","ios":"levelo://app?vid=dfdf77e0-4c22-42fd-a14d-ce66049f15db"},"vehicle_type_id":"4","last_reported":1748286469,"current_range_meters":4800,"station_id":"ce4bhgp2rcd13ifvqfc0","pricing_plan_id":"cebpf4jnsgd1na2vs0mg"},{"bike_id":"fbf44674-74d5-4106-bee3-4b7f0c029530","system_id":"levelo_inurba_marseille","lat":43.25569,"lon":5.38253,"is_reserved":false,"is_disabled":false,"rental_uris":{"android":"levelo://app?vid=fbf44674-74d5-4106-bee3-4b7f0c029530","ios":"levelo://app?vid=fbf44674-74d5-4106-bee3-4b7f0c029530"},"vehicle_type_id":"4","last_reported":1748286469,"current_range_meters":4800,"station_id":"ce4bhih2rcd13ifvqfs0","pricing_plan_id":"cebpf4jnsgd1na2vs0mg"},{"bike_id":"cb62924f-2311-4684-a177-51bc51698deb","system_id":"levelo_inurba_marseille","lat":43.28158,"lon":5.42643,"is_reserved":false,"is_disabled":false,"rental_uris":{"android":"levelo://app?vid=cb62924f-2311-4684-a177-51bc51698deb","ios":"levelo://app?vid=cb62924f-2311-4684-a177-51bc51698deb"},"vehicle_type_id":"4","last_reported":1748286469,"current_range_meters":4800,"station_id":"ce4bhnh2rcd13ifvqgug","pricing_plan_id":"cebpf4jnsgd1na2vs0mg"},{"bike_id":"ed3b489a-79a2-43c7-ab37-01542efc6dc9","system_id":"levelo_inurba_marseille","lat":43.32365,"lon":5.38879,"is_reserved":false,"is_disabled":false,"rental_uris":{"android":"levelo://app?vid=ed3b489a-79a2-43c7-ab37-01542efc6dc9","ios":"levelo://app?vid=ed3b489a-79a2-43c7-ab37-01542efc6dc9"},"vehicle_type_id":"4","last_reported":1748286469,"current_range_meters":4800,"station_id":"ce4bhqp2rcd13ifvqhog","pricing_plan_id":"cebpf4jnsgd1na2vs0mg"},{"bike_id":"6855135c-85c8-4d16-9178-8450739d31b2","system_id":"levelo_inurba_marseille","lat":43.31011,"lon":5.37927,"is_reserved":false,"is_disabled":false,"rental_uris":{"android":"levelo://app?vid=6855135c-85c8-4d16-9178-8450739d31b2","ios":"levelo://app?vid=6855135c-85c8-4d16-9178-8450739d31b2"},"vehicle_type_id":"4","last_reported":1748286469,"current_range_meters":5600,"station_id":"","pricing_plan_id":"cebpf4jnsgd1na2vs0mg"},{"bike_id":"d2f6b88b-979d-490c-a258-4fe2e1e819d8","system_id":"levelo_inurba_marseille","lat":43.29129,"lon":5.38102,"is_reserved":false,"is_disabled":false,"rental_uris":{"android":"levelo://app?vid=d2f6b88b-979d-490c-a258-4fe2e1e819d8","ios":"levelo://app?vid=d2f6b88b-979d-490c-a258-4fe2e1e819d8"},"vehicle_type_id":"4","last_reported":1748286469,"current_range_meters":5600,"station_id":"ce4bh512rcd13ifvqe2g","pricing_plan_id":"cebpf4jnsgd1na2vs0mg"},{"bike_id":"a3b17c5f-9e07-4165-8bbc-9a6c43c3ca10","system_id":"levelo_inurba_marseille","lat":43.27379,"lon":5.36256,"is_reserved":false,"is_disabled":false,"rental_uris":{"android":"levelo://app?vid=a3b17c5f-9e07-4165-8bbc-9a6c43c3ca10","ios":"levelo://app?vid=a3b17c5f-9e07-4165-8bbc-9a6c43c3ca10"},"vehicle_type_id":"4","last_reported":1748286469,"current_range_meters":5600,"station_id":"ce4bhbh2rcd13ifvqeo0","pricing_plan_id":"cebpf4jnsgd1na2vs0mg"},{"bike_id":"8d41e192-45cf-407c-965e-a4ccf8a3042c","system_id":"levelo_inurba_marseille","lat":43.27842,"lon":5.39207,"is_reserved":false,"is_disabled":false,"rental_uris":{"android":"levelo://app?vid=8d41e192-45cf-407c-965e-a4ccf8a3042c","ios":"levelo://app?vid=8d41e192-45cf-407c-965e-a4ccf8a3042c"},"vehicle_type_id":"4","last_reported":1748286469,"current_range_meters":5600,"station_id":"ce4bhjp2rcd13ifvqga0","pricing_plan_id":"cebpf4jnsgd1na2vs0mg"},{"bike_id":"f93ce947-e848-4762-9962-426f3826fd4c","system_id":"levelo_inurba_marseille","lat":43.24075,"lon":5.37687,"is_reserved":false,"is_disabled":false,"rental_uris":{"android":"levelo://app?vid=f93ce947-e848-4762-9962-426f3826fd4c","ios":"levelo://app?vid=f93ce947-e848-4762-9962-426f3826fd4c"},"vehicle_type_id":"4","last_reported":1748286469,"current_range_meters":5600,"station_id":"ce4bhnp2rcd13ifvqgvg","pricing_plan_id":"cebpf4jnsgd1na2vs0mg"},{"bike_id":"0b0dceeb-bff8-40e2-83ca-823611033ba6","system_id":"levelo_inurba_marseille","lat":43.31545,"lon":5.36875,"is_reserved":false,"is_disabled":false,"rental_uris":{"android":"levelo://app?vid=0b0dceeb-bff8-40e2-83ca-823611033ba6","ios":"levelo://app?vid=0b0dceeb-bff8-40e2-83ca-823611033ba6"},"vehicle_type_id":"4","last_reported":1748286469,"current_range_meters":6000,"station_id":"","pricing_plan_id":"cebpf4jnsgd1na2vs0mg"},{"bike_id":"6abb9ab4-3976-4e3e-b994-f2f72ee02055","system_id":"levelo_inurba_marseille","lat":43.31786,"lon":5.3671,"is_reserved":false,"is_disabled":false,"rental_uris":{"android":"levelo://app?vid=6abb9ab4-3976-4e3e-b994-f2f72ee02055","ios":"levelo://app?vid=6abb9ab4-3976-4e3e-b994-f2f72ee02055"},"vehicle_type_id":"4","last_reported":1748286469,"current_range_meters":6000,"station_id":"","pricing_plan_id":"cebpf4jnsgd1na2vs0mg"},{"bike_id":"694e8a0a-a4b9-416f-9def-bc6b9e775c51","system_id":"levelo_inurba_marseille","lat":43.30924,"lon":5.40153,"is_reserved":false,"is_disabled":false,"rental_uris":{"android":"levelo://app?vid=694e8a0a-a4b9-416f-9def-bc6b9e775c51","ios":"levelo://app?vid=694e8a0a-a4b9-416f-9def-bc6b9e775c51"},"vehicle_type_id":"4","last_reported":1748286469,"current_range_meters":6000,"station_id":"ce4bgvp2rcd13ifvqct0","pricing_plan_id":"cebpf4jnsgd1na2vs0mg"},{"bike_id":"67372b8b-ac37-4e4d-aab4-43f1ba5b0842","system_id":"levelo_inurba_marseille","lat":43.27621,"lon":5.36109,"is_reserved":false,"is_disabled":false,"rental_uris":{"android":"levelo://app?vid=67372b8b-ac37-4e4d-aab4-43f1ba5b0842","ios":"levelo://app?vid=67372b8b-ac37-4e4d-aab4-43f1ba5b0842"},"vehicle_type_id":"4","last_reported":1748286469,"current_range_meters":6400,"station_id":"ce4bgj92rcd13ifvqbe0","pricing_plan_id":"cebpf4jnsgd1na2vs0mg"},{"bike_id":"75f52138-d366-43ef-87ce-533c1de30806","system_id":"levelo_inurba_marseille","lat":43.30459,"lon":5.37905,"is_reserved":false,"is_disabled":false,"rental_uris":{"android":"levelo://app?vid=75f52138-d366-43ef-87ce-533c1de30806","ios":"levelo://app?vid=75f52138-d366-43ef-87ce-533c1de30806"},"vehicle_type_id":"4","last_reported":1748286469,"current_range_meters":6400,"station_id":"ce4bgup2rcd13ifvqcn0","pricing_plan_id":"cebpf4jnsgd1na2vs0mg"},{"bike_id":"9681f277-3b61-4a7d-89c0-e89c49ed3e77","system_id":"levelo_inurba_marseille","lat":43.30213,"lon":5.39487,"is_reserved":false,"is_disabled":false,"rental_uris":{"android":"levelo://app?vid=9681f277-3b61-4a7d-89c0-e89c49ed3e77","ios":"levelo://app?vid=9681f277-3b61-4a7d-89c0-e89c49ed3e77"},"vehicle_type_id":"4","last_reported":1748286469,"current_range_meters":6400,"station_id":"ce4bh0p2rcd13ifvqd70","pricing_plan_id":"cebpf4jnsgd1na2vs0mg"},{"bike_id":"9f53b6ef-4cb8-459a-88f6-c29669a8daea","system_id":"levelo_inurba_marseille","lat":43.28975,"lon":5.37832,"is_reserved":false,"is_disabled":false,"rental_uris":{"android":"levelo://app?vid=9f53b6ef-4cb8-459a-88f6-c29669a8daea","ios":"levelo://app?vid=9f53b6ef-4cb8-459a-88f6-c29669a8daea"},"vehicle_type_id":"4","last_reported":1748286469,"current_range_meters":6400,"station_id":"ce4bh9p2rcd13ifvqed0","pricing_plan_id":"cebpf4jnsgd1na2vs0mg"},{"bike_id":"c5e87fcc-d7a9-4d71-8aad-b79d39b7c275","system_id":"levelo_inurba_marseille","lat":43.2867,"lon":5.36348,"is_reserved":false,"is_disabled":false,"rental_uris":{"android":"levelo://app?vid=c5e87fcc-d7a9-4d71-8aad-b79d39b7c275","ios":"levelo://app?vid=c5e87fcc-d7a9-4d71-8aad-b79d39b7c275"},"vehicle_type_id":"4","last_reported":1748286469,"current_range_meters":6400,"station_id":"ce4bhah2rcd13ifvqej0","pricing_plan_id":"cebpf4jnsgd1na2vs0mg"},{"bike_id":"20aedc1a-3258-494a-9b0e-5afc4945dd89","system_id":"levelo_inurba_marseille","lat":43.23184,"lon":5.39982,"is_reserved":false,"is_disabled":false,"rental_uris":{"android":"levelo://app?vid=20aedc1a-3258-494a-9b0e-5afc4945dd89","ios":"levelo://app?vid=20aedc1a-3258-494a-9b0e-5afc4945dd89"},"vehicle_type_id":"4","last_reported":1748286469,"current_range_meters":6400,"station_id":"ce4bhn12rcd13ifvqgqg","pricing_plan_id":"cebpf4jnsgd1na2vs0mg"},{"bike_id":"f1672d1c-0696-4898-920d-5cf5b7ec99d9","system_id":"levelo_inurba_marseille","lat":43.27988,"lon":5.40032,"is_reserved":false,"is_disabled":false,"rental_uris":{"android":"levelo://app?vid=f1672d1c-0696-4898-920d-5cf5b7ec99d9","ios":"levelo://app?vid=f1672d1c-0696-4898-920d-5cf5b7ec99d9"},"vehicle_type_id":"4","last_reported":1748286469,"current_range_meters":6400,"station_id":"ce4bho92rcd13ifvqh4g","pricing_plan_id":"cebpf4jnsgd1na2vs0mg"},{"bike_id":"ef604360-b884-47a4-ba34-367e7e6701f0","system_id":"levelo_inurba_marseille","lat":43.30358,"lon":5.41877,"is_reserved":false,"is_disabled":false,"rental_uris":{"android":"levelo://app?vid=ef604360-b884-47a4-ba34-367e7e6701f0","ios":"levelo://app?vid=ef604360-b884-47a4-ba34-367e7e6701f0"},"vehicle_type_id":"4","last_reported":1748286469,"current_range_meters":6400,"station_id":"ce4bhop2rcd13ifvqh7g","pricing_plan_id":"cebpf4jnsgd1na2vs0mg"},{"bike_id":"ab485184-dee6-4278-8ed8-78cb97c31dd5","system_id":"levelo_inurba_marseille","lat":43.2921,"lon":5.35824,"is_reserved":false,"is_disabled":false,"rental_uris":{"android":"levelo://app?vid=ab485184-dee6-4278-8ed8-78cb97c31dd5","ios":"levelo://app?vid=ab485184-dee6-4278-8ed8-78cb97c31dd5"},"vehicle_type_id":"4","last_reported":1748286469,"current_range_meters":6800,"station_id":"","pricing_plan_id":"cebpf4jnsgd1na2vs0mg"},{"bike_id":"1c52a0af-e680-4b6c-b7ed-618bdbcd143b","system_id":"levelo_inurba_marseille","lat":43.30949,"lon":5.4013,"is_reserved":false,"is_disabled":false,"rental_uris":{"android":"levelo://app?vid=1c52a0af-e680-4b6c-b7ed-618bdbcd143b","ios":"levelo://app?vid=1c52a0af-e680-4b6c-b7ed-618bdbcd143b"},"vehicle_type_id":"4","last_reported":1748286469,"current_range_meters":6800,"station_id":"ce4bgvp2rcd13ifvqct0","pricing_plan_id":"cebpf4jnsgd1na2vs0mg"},{"bike_id":"690a5da2-284c-46fd-a769-02a37c7f03ed","system_id":"levelo_inurba_marseille","lat":43.29091,"lon":5.38123,"is_reserved":false,"is_disabled":false,"rental_uris":{"android":"levelo://app?vid=690a5da2-284c-46fd-a769-02a37c7f03ed","ios":"levelo://app?vid=690a5da2-284c-46fd-a769-02a37c7f03ed"},"vehicle_type_id":"4","last_reported":1748286469,"current_range_meters":6800,"station_id":"ce4bh512rcd13ifvqe2g","pricing_plan_id":"cebpf4jnsgd1na2vs0mg"},{"bike_id":"18270e23-9cae-49ca-8da7-c155ddf311ad","system_id":"levelo_inurba_marseille","lat":43.27579,"lon":5.36034,"is_reserved":false,"is_disabled":false,"rental_uris":{"android":"levelo://app?vid=18270e23-9cae-49ca-8da7-c155ddf311ad","ios":"levelo://app?vid=18270e23-9cae-49ca-8da7-c155ddf311ad"},"vehicle_type_id":"4","last_reported":1748286469,"current_range_meters":6800,"station_id":"ce4bha12rcd13ifvqef0","pricing_plan_id":"cebpf4jnsgd1na2vs0mg"},{"bike_id":"5abb8a77-fbf0-4d21-805b-29790cff0e49","system_id":"levelo_inurba_marseille","lat":43.31096,"lon":5.42434,"is_reserved":false,"is_disabled":false,"rental_uris":{"android":"levelo://app?vid=5abb8a77-fbf0-4d21-805b-29790cff0e49","ios":"levelo://app?vid=5abb8a77-fbf0-4d21-805b-29790cff0e49"},"vehicle_type_id":"4","last_reported":1748286469,"current_range_meters":6800,"station_id":"ce4bhp92rcd13ifvqhag","pricing_plan_id":"cebpf4jnsgd1na2vs0mg"},{"bike_id":"dabc077c-bf8d-431d-a5ea-dcd441e9b7b1","system_id":"levelo_inurba_marseille","lat":43.24903,"lon":5.39707,"is_reserved":false,"is_disabled":false,"rental_uris":{"android":"levelo://app?vid=dabc077c-bf8d-431d-a5ea-dcd441e9b7b1","ios":"levelo://app?vid=dabc077c-bf8d-431d-a5ea-dcd441e9b7b1"},"vehicle_type_id":"4","last_reported":1748286469,"current_range_meters":7200,"station_id":"","pricing_plan_id":"cebpf4jnsgd1na2vs0mg"},{"bike_id":"6b74d4bd-18fd-4a0c-8c6c-0f315913d09b","system_id":"levelo_inurba_marseille","lat":43.26209,"lon":5.37446,"is_reserved":false,"is_disabled":false,"rental_uris":{"android":"levelo://app?vid=6b74d4bd-18fd-4a0c-8c6c-0f315913d09b","ios":"levelo://app?vid=6b74d4bd-18fd-4a0c-8c6c-0f315913d09b"},"vehicle_type_id":"4","last_reported":1748286469,"current_range_meters":7200,"station_id":"ce4bhgp2rcd13ifvqfc0","pricing_plan_id":"cebpf4jnsgd1na2vs0mg"},{"bike_id":"5b4f9509-86a0-4766-926e-3f6b8b495d73","system_id":"levelo_inurba_marseille","lat":43.27818,"lon":5.40712,"is_reserved":false,"is_disabled":false,"rental_uris":{"android":"levelo://app?vid=5b4f9509-86a0-4766-926e-3f6b8b495d73","ios":"levelo://app?vid=5b4f9509-86a0-4766-926e-3f6b8b495d73"},"vehicle_type_id":"4","last_reported":1748286469,"current_range_meters":7200,"station_id":"ce4bhnh2rcd13ifvqgtg","pricing_plan_id":"cebpf4jnsgd1na2vs0mg"},{"bike_id":"c06bf07d-b289-44ad-9bac-ffc53ec550c3","system_id":"levelo_inurba_marseille","lat":43.32343,"lon":5.40618,"is_reserved":false,"is_disabled":false,"rental_uris":{"android":"levelo://app?vid=c06bf07d-b289-44ad-9bac-ffc53ec550c3","ios":"levelo://app?vid=c06bf07d-b289-44ad-9bac-ffc53ec550c3"},"vehicle_type_id":"4","last_reported":1748286469,"current_range_meters":7200,"station_id":"ce4bhq92rcd13ifvqhjg","pricing_plan_id":"cebpf4jnsgd1na2vs0mg"},{"bike_id":"8affe605-0128-44a5-8e6e-e2d5af3bcd52","system_id":"levelo_inurba_marseille","lat":43.27604,"lon":5.36121,"is_reserved":false,"is_disabled":false,"rental_uris":{"android":"levelo://app?vid=8affe605-0128-44a5-8e6e-e2d5af3bcd52","ios":"levelo://app?vid=8affe605-0128-44a5-8e6e-e2d5af3bcd52"},"vehicle_type_id":"4","last_reported":1748286469,"current_range_meters":8000,"station_id":"ce4bgj92rcd13ifvqbe0","pricing_plan_id":"cebpf4jnsgd1na2vs0mg"},{"bike_id":"49f380fc-cb00-4f83-967c-68c1d7a1ccbf","system_id":"levelo_inurba_marseille","lat":43.30787,"lon":5.37643,"is_reserved":false,"is_disabled":false,"rental_uris":{"android":"levelo://app?vid=49f380fc-cb00-4f83-967c-68c1d7a1ccbf","ios":"levelo://app?vid=49f380fc-cb00-4f83-967c-68c1d7a1ccbf"},"vehicle_type_id":"4","last_reported":1748286469,"current_range_meters":8000,"station_id":"ce4bgv92rcd13ifvqcq0","pricing_plan_id":"cebpf4jnsgd1na2vs0mg"},{"bike_id":"3d5cbef3-45ac-4469-94ed-d29c0fcde010","system_id":"levelo_inurba_marseille","lat":43.28945,"lon":5.36403,"is_reserved":false,"is_disabled":false,"rental_uris":{"android":"levelo://app?vid=3d5cbef3-45ac-4469-94ed-d29c0fcde010","ios":"levelo://app?vid=3d5cbef3-45ac-4469-94ed-d29c0fcde010"},"vehicle_type_id":"4","last_reported":1748286469,"current_range_meters":8000,"station_id":"ce4bhc92rcd13ifvqetg","pricing_plan_id":"cebpf4jnsgd1na2vs0mg"},{"bike_id":"e9496718-b841-4999-823d-28c5bee5d6f1","system_id":"levelo_inurba_marseille","lat":43.26546,"lon":5.38984,"is_reserved":false,"is_disabled":false,"rental_uris":{"android":"levelo://app?vid=e9496718-b841-4999-823d-28c5bee5d6f1","ios":"levelo://app?vid=e9496718-b841-4999-823d-28c5bee5d6f1"},"vehicle_type_id":"4","last_reported":1748286469,"current_range_meters":8000,"station_id":"ce4bhe12rcd13ifvqf30","pricing_plan_id":"cebpf4jnsgd1na2vs0mg"},{"bike_id":"e1a05f52-41b6-4905-a906-7e3ecbe8ddfd","system_id":"levelo_inurba_marseille","lat":43.25108,"lon":5.40318,"is_reserved":false,"is_disabled":false,"rental_uris":{"android":"levelo://app?vid=e1a05f52-41b6-4905-a906-7e3ecbe8ddfd","ios":"levelo://app?vid=e1a05f52-41b6-4905-a906-7e3ecbe8ddfd"},"vehicle_type_id":"4","last_reported":1748286469,"current_range_meters":8000,"station_id":"ce4bhlh2rcd13ifvqgig","pricing_plan_id":"cebpf4jnsgd1na2vs0mg"},{"bike_id":"5e3a421e-cf49-47cf-a7dd-90c41fc5520c","system_id":"levelo_inurba_marseille","lat":43.25091,"lon":5.39515,"is_reserved":false,"is_disabled":false,"rental_uris":{"android":"levelo://app?vid=5e3a421e-cf49-47cf-a7dd-90c41fc5520c","ios":"levelo://app?vid=5e3a421e-cf49-47cf-a7dd-90c41fc5520c"},"vehicle_type_id":"4","last_reported":1748286469,"current_range_meters":8000,"station_id":"ce4bhm12rcd13ifvqgkg","pricing_plan_id":"cebpf4jnsgd1na2vs0mg"},{"bike_id":"f8df2e97-c68d-41bd-945a-99495cf612d7","system_id":"levelo_inurba_marseille","lat":43.23196,"lon":5.39995,"is_reserved":false,"is_disabled":false,"rental_uris":{"android":"levelo://app?vid=f8df2e97-c68d-41bd-945a-99495cf612d7","ios":"levelo://app?vid=f8df2e97-c68d-41bd-945a-99495cf612d7"},"vehicle_type_id":"4","last_reported":1748286469,"current_range_meters":8000,"station_id":"ce4bhn12rcd13ifvqgqg","pricing_plan_id":"cebpf4jnsgd1na2vs0mg"},{"bike_id":"02df8f1c-f2fa-44e6-b542-2b07f6d8c528","system_id":"levelo_inurba_marseille","lat":43.28075,"lon":5.39654,"is_reserved":false,"is_disabled":false,"rental_uris":{"android":"levelo://app?vid=02df8f1c-f2fa-44e6-b542-2b07f6d8c528","ios":"levelo://app?vid=02df8f1c-f2fa-44e6-b542-2b07f6d8c528"},"vehicle_type_id":"4","last_reported":1748286469,"current_range_meters":8000,"station_id":"ce4bho12rcd13ifvqh2g","pricing_plan_id":"cebpf4jnsgd1na2vs0mg"},{"bike_id":"cf194408-e44f-4ff4-9685-66efb8a79c3d","system_id":"levelo_inurba_marseille","lat":43.241646,"lon":5.363906,"is_reserved":false,"is_disabled":false,"rental_uris":{"android":"levelo://app?vid=cf194408-e44f-4ff4-9685-66efb8a79c3d","ios":"levelo://app?vid=cf194408-e44f-4ff4-9685-66efb8a79c3d"},"vehicle_type_id":"4","last_reported":1748286469,"current_range_meters":8000,"station_id":"cpo36qri1sfpv3e86is0","pricing_plan_id":"cebpf4jnsgd1na2vs0mg"},{"bike_id":"efd698cb-2450-498f-9f0b-bfc662548e61","system_id":"levelo_inurba_marseille","lat":43.26554,"lon":5.40324,"is_reserved":false,"is_disabled":false,"rental_uris":{"android":"levelo://app?vid=efd698cb-2450-498f-9f0b-bfc662548e61","ios":"levelo://app?vid=efd698cb-2450-498f-9f0b-bfc662548e61"},"vehicle_type_id":"4","last_reported":1748286469,"current_range_meters":8400,"station_id":"","pricing_plan_id":"cebpf4jnsgd1na2vs0mg"},{"bike_id":"6b1e6fdc-6d53-4f01-a1fa-6638d227094f","system_id":"levelo_inurba_marseille","lat":43.24666,"lon":5.38159,"is_reserved":false,"is_disabled":false,"rental_uris":{"android":"levelo://app?vid=6b1e6fdc-6d53-4f01-a1fa-6638d227094f","ios":"levelo://app?vid=6b1e6fdc-6d53-4f01-a1fa-6638d227094f"},"vehicle_type_id":"4","last_reported":1748286469,"current_range_meters":8400,"station_id":"","pricing_plan_id":"cebpf4jnsgd1na2vs0mg"},{"bike_id":"d328b393-4635-4ce9-afd2-e36f2a11611e","system_id":"levelo_inurba_marseille","lat":43.26023,"lon":5.41739,"is_reserved":false,"is_disabled":false,"rental_uris":{"android":"levelo://app?vid=d328b393-4635-4ce9-afd2-e36f2a11611e","ios":"levelo://app?vid=d328b393-4635-4ce9-afd2-e36f2a11611e"},"vehicle_type_id":"4","last_reported":1748286469,"current_range_meters":8400,"station_id":"","pricing_plan_id":"cebpf4jnsgd1na2vs0mg"},{"bike_id":"9db12a7c-f305-4021-ace1-ab46a8630b4c","system_id":"levelo_inurba_marseille","lat":43.24674,"lon":5.38138,"is_reserved":false,"is_disabled":false,"rental_uris":{"android":"levelo://app?vid=9db12a7c-f305-4021-ace1-ab46a8630b4c","ios":"levelo://app?vid=9db12a7c-f305-4021-ace1-ab46a8630b4c"},"vehicle_type_id":"4","last_reported":1748286469,"current_range_meters":8400,"station_id":"ce4bhih2rcd13ifvqfr0","pricing_plan_id":"cebpf4jnsgd1na2vs0mg"},{"bike_id":"561b23d3-bd73-468d-bff5-6de23349fd52","system_id":"levelo_inurba_marseille","lat":43.27936,"lon":5.41044,"is_reserved":false,"is_disabled":false,"rental_uris":{"android":"levelo://app?vid=561b23d3-bd73-468d-bff5-6de23349fd52","ios":"levelo://app?vid=561b23d3-bd73-468d-bff5-6de23349fd52"},"vehicle_type_id":"4","last_reported":1748286469,"current_range_meters":8400,"station_id":"ce4bhnp2rcd13ifvqh0g","pricing_plan_id":"cebpf4jnsgd1na2vs0mg"},{"bike_id":"fc56555b-396d-4667-b896-0ad86036e39e","system_id":"levelo_inurba_marseille","lat":43.259104,"lon":5.380326,"is_reserved":false,"is_disabled":false,"rental_uris":{"android":"levelo://app?vid=fc56555b-396d-4667-b896-0ad86036e39e","ios":"levelo://app?vid=fc56555b-396d-4667-b896-0ad86036e39e"},"vehicle_type_id":"4","last_reported":1748286469,"current_range_meters":8800,"station_id":"","pricing_plan_id":"cebpf4jnsgd1na2vs0mg"},{"bike_id":"a4aef2b9-b7e8-4e2d-8340-592d28bc6c85","system_id":"levelo_inurba_marseille","lat":43.337654,"lon":5.37434,"is_reserved":false,"is_disabled":false,"rental_uris":{"android":"levelo://app?vid=a4aef2b9-b7e8-4e2d-8340-592d28bc6c85","ios":"levelo://app?vid=a4aef2b9-b7e8-4e2d-8340-592d28bc6c85"},"vehicle_type_id":"4","last_reported":1748286469,"current_range_meters":8800,"station_id":"","pricing_plan_id":"cebpf4jnsgd1na2vs0mg"},{"bike_id":"d9e198c8-ab07-4277-8145-77e1f6d12383","system_id":"levelo_inurba_marseille","lat":43.26207,"lon":5.37448,"is_reserved":false,"is_disabled":false,"rental_uris":{"android":"levelo://app?vid=d9e198c8-ab07-4277-8145-77e1f6d12383","ios":"levelo://app?vid=d9e198c8-ab07-4277-8145-77e1f6d12383"},"vehicle_type_id":"4","last_reported":1748286469,"current_range_meters":8800,"station_id":"ce4bhgp2rcd13ifvqfc0","pricing_plan_id":"cebpf4jnsgd1na2vs0mg"},{"bike_id":"4ffabbb9-8f8c-4877-95e2-3ff2dda7c24e","system_id":"levelo_inurba_marseille","lat":43.25869,"lon":5.39895,"is_reserved":false,"is_disabled":false,"rental_uris":{"android":"levelo://app?vid=4ffabbb9-8f8c-4877-95e2-3ff2dda7c24e","ios":"levelo://app?vid=4ffabbb9-8f8c-4877-95e2-3ff2dda7c24e"},"vehicle_type_id":"4","last_reported":1748286469,"current_range_meters":8800,"station_id":"ce4bhl92rcd13ifvqghg","pricing_plan_id":"cebpf4jnsgd1na2vs0mg"},{"bike_id":"a70f517f-c4e8-4bf2-95cb-85cb5c3f2caa","system_id":"levelo_inurba_marseille","lat":43.27493,"lon":5.42447,"is_reserved":false,"is_disabled":false,"rental_uris":{"android":"levelo://app?vid=a70f517f-c4e8-4bf2-95cb-85cb5c3f2caa","ios":"levelo://app?vid=a70f517f-c4e8-4bf2-95cb-85cb5c3f2caa"},"vehicle_type_id":"4","last_reported":1748286469,"current_range_meters":8800,"station_id":"ce4bhn92rcd13ifvqgrg","pricing_plan_id":"cebpf4jnsgd1na2vs0mg"},{"bike_id":"755099d0-d77b-4fc5-a6f3-ef8634799310","system_id":"levelo_inurba_marseille","lat":43.21753,"lon":5.34597,"is_reserved":false,"is_disabled":false,"rental_uris":{"android":"levelo://app?vid=755099d0-d77b-4fc5-a6f3-ef8634799310","ios":"levelo://app?vid=755099d0-d77b-4fc5-a6f3-ef8634799310"},"vehicle_type_id":"4","last_reported":1748286469,"current_range_meters":8800,"station_id":"st_cvj6r9ubvosntc0bgbag","pricing_plan_id":"cebpf4jnsgd1na2vs0mg"},{"bike_id":"b744080c-dd77-486d-9609-00c9cf60c1ad","system_id":"levelo_inurba_marseille","lat":43.23617,"lon":5.39198,"is_reserved":false,"is_disabled":false,"rental_uris":{"android":"levelo://app?vid=b744080c-dd77-486d-9609-00c9cf60c1ad","ios":"levelo://app?vid=b744080c-dd77-486d-9609-00c9cf60c1ad"},"vehicle_type_id":"4","last_reported":1748286469,"current_range_meters":9200,"station_id":"","pricing_plan_id":"cebpf4jnsgd1na2vs0mg"},{"bike_id":"5cb86f28-c0eb-4953-b066-f91dd9420135","system_id":"levelo_inurba_marseille","lat":43.31066,"lon":5.3836,"is_reserved":false,"is_disabled":false,"rental_uris":{"android":"levelo://app?vid=5cb86f28-c0eb-4953-b066-f91dd9420135","ios":"levelo://app?vid=5cb86f28-c0eb-4953-b066-f91dd9420135"},"vehicle_type_id":"4","last_reported":1748286469,"current_range_meters":9200,"station_id":"ce4bgv92rcd13ifvqcr0","pricing_plan_id":"cebpf4jnsgd1na2vs0mg"},{"bike_id":"1cd94d4a-0ad1-418a-bf7f-c1ae80d4112b","system_id":"levelo_inurba_marseille","lat":43.23963,"lon":5.36624,"is_reserved":false,"is_disabled":false,"rental_uris":{"android":"levelo://app?vid=1cd94d4a-0ad1-418a-bf7f-c1ae80d4112b","ios":"levelo://app?vid=1cd94d4a-0ad1-418a-bf7f-c1ae80d4112b"},"vehicle_type_id":"4","last_reported":1748286469,"current_range_meters":9200,"station_id":"ce4bhi12rcd13ifvqfp0","pricing_plan_id":"cebpf4jnsgd1na2vs0mg"},{"bike_id":"3fad9f6c-d63e-429a-a4d4-9ca3ebe16f8b","system_id":"levelo_inurba_marseille","lat":43.27998,"lon":5.40026,"is_reserved":false,"is_disabled":false,"rental_uris":{"android":"levelo://app?vid=3fad9f6c-d63e-429a-a4d4-9ca3ebe16f8b","ios":"levelo://app?vid=3fad9f6c-d63e-429a-a4d4-9ca3ebe16f8b"},"vehicle_type_id":"4","last_reported":1748286469,"current_range_meters":9200,"station_id":"ce4bho92rcd13ifvqh4g","pricing_plan_id":"cebpf4jnsgd1na2vs0mg"},{"bike_id":"6a4612f8-d511-472f-9784-e69bac545256","system_id":"levelo_inurba_marseille","lat":43.29016,"lon":5.36628,"is_reserved":false,"is_disabled":false,"rental_uris":{"android":"levelo://app?vid=6a4612f8-d511-472f-9784-e69bac545256","ios":"levelo://app?vid=6a4612f8-d511-472f-9784-e69bac545256"},"vehicle_type_id":"4","last_reported":1748286469,"current_range_meters":9600,"station_id":"","pricing_plan_id":"cebpf4jnsgd1na2vs0mg"},{"bike_id":"c185ea79-8e13-4878-b80c-11c83617757c","system_id":"levelo_inurba_marseille","lat":43.31373,"lon":5.38493,"is_reserved":false,"is_disabled":false,"rental_uris":{"android":"levelo://app?vid=c185ea79-8e13-4878-b80c-11c83617757c","ios":"levelo://app?vid=c185ea79-8e13-4878-b80c-11c83617757c"},"vehicle_type_id":"4","last_reported":1748286469,"current_range_meters":9600,"station_id":"ce4bgt92rcd13ifvqcf0","pricing_plan_id":"cebpf4jnsgd1na2vs0mg"},{"bike_id":"da9abf43-9e8e-414e-93bd-7f8104d0a10c","system_id":"levelo_inurba_marseille","lat":43.29258,"lon":5.4091,"is_reserved":false,"is_disabled":false,"rental_uris":{"android":"levelo://app?vid=da9abf43-9e8e-414e-93bd-7f8104d0a10c","ios":"levelo://app?vid=da9abf43-9e8e-414e-93bd-7f8104d0a10c"},"vehicle_type_id":"4","last_reported":1748286469,"current_range_meters":9600,"station_id":"ce4bh192rcd13ifvqdc0","pricing_plan_id":"cebpf4jnsgd1na2vs0mg"},{"bike_id":"6cdfa6cf-d9f6-4bbd-97ff-9cb2e625f44b","system_id":"levelo_inurba_marseille","lat":43.292664,"lon":5.384418,"is_reserved":false,"is_disabled":false,"rental_uris":{"android":"levelo://app?vid=6cdfa6cf-d9f6-4bbd-97ff-9cb2e625f44b","ios":"levelo://app?vid=6cdfa6cf-d9f6-4bbd-97ff-9cb2e625f44b"},"vehicle_type_id":"4","last_reported":1748286469,"current_range_meters":9600,"station_id":"ce4bh692rcd13ifvqea0","pricing_plan_id":"cebpf4jnsgd1na2vs0mg"},{"bike_id":"e0c25e07-4c7a-4f3c-b21c-026342f4ce53","system_id":"levelo_inurba_marseille","lat":43.23951,"lon":5.36668,"is_reserved":false,"is_disabled":false,"rental_uris":{"android":"levelo://app?vid=e0c25e07-4c7a-4f3c-b21c-026342f4ce53","ios":"levelo://app?vid=e0c25e07-4c7a-4f3c-b21c-026342f4ce53"},"vehicle_type_id":"4","last_reported":1748286469,"current_range_meters":9600,"station_id":"ce4bhi12rcd13ifvqfp0","pricing_plan_id":"cebpf4jnsgd1na2vs0mg"},{"bike_id":"10fc9317-6641-4d09-a506-4d4fa26e7f60","system_id":"levelo_inurba_marseille","lat":43.28,"lon":5.41661,"is_reserved":false,"is_disabled":false,"rental_uris":{"android":"levelo://app?vid=10fc9317-6641-4d09-a506-4d4fa26e7f60","ios":"levelo://app?vid=10fc9317-6641-4d09-a506-4d4fa26e7f60"},"vehicle_type_id":"4","last_reported":1748286469,"current_range_meters":9600,"station_id":"ce4bho12rcd13ifvqh1g","pricing_plan_id":"cebpf4jnsgd1na2vs0mg"},{"bike_id":"761918e0-d6a0-4f40-96ce-babda69bc7f4","system_id":"levelo_inurba_marseille","lat":43.22967,"lon":5.35381,"is_reserved":false,"is_disabled":false,"rental_uris":{"android":"levelo://app?vid=761918e0-d6a0-4f40-96ce-babda69bc7f4","ios":"levelo://app?vid=761918e0-d6a0-4f40-96ce-babda69bc7f4"},"vehicle_type_id":"4","last_reported":1748286469,"current_range_meters":9600,"station_id":"cpo3532slgdg3j2ikp40","pricing_plan_id":"cebpf4jnsgd1na2vs0mg"},{"bike_id":"6d863ba8-0dbd-4f26-9a6d-b2da92f3c132","system_id":"levelo_inurba_marseille","lat":43.29805,"lon":5.38107,"is_reserved":false,"is_disabled":false,"rental_uris":{"android":"levelo://app?vid=6d863ba8-0dbd-4f26-9a6d-b2da92f3c132","ios":"levelo://app?vid=6d863ba8-0dbd-4f26-9a6d-b2da92f3c132"},"vehicle_type_id":"4","last_reported":1748286469,"current_range_meters":10000,"station_id":"ce4bgip2rcd13ifvqbb0","pricing_plan_id":"cebpf4jnsgd1na2vs0mg"},{"bike_id":"31518a60-e644-4a65-a466-d52cea385012","system_id":"levelo_inurba_marseille","lat":43.26498,"lon":5.39553,"is_reserved":false,"is_disabled":false,"rental_uris":{"android":"levelo://app?vid=31518a60-e644-4a65-a466-d52cea385012","ios":"levelo://app?vid=31518a60-e644-4a65-a466-d52cea385012"},"vehicle_type_id":"4","last_reported":1748286469,"current_range_meters":10000,"station_id":"ce4bhi12rcd13ifvqfq0","pricing_plan_id":"cebpf4jnsgd1na2vs0mg"},{"bike_id":"1329b30f-e67c-40ef-a2db-f75a9a989910","system_id":"levelo_inurba_marseille","lat":43.24662,"lon":5.38162,"is_reserved":false,"is_disabled":false,"rental_uris":{"android":"levelo://app?vid=1329b30f-e67c-40ef-a2db-f75a9a989910","ios":"levelo://app?vid=1329b30f-e67c-40ef-a2db-f75a9a989910"},"vehicle_type_id":"4","last_reported":1748286469,"current_range_meters":10000,"station_id":"ce4bhih2rcd13ifvqfr0","pricing_plan_id":"cebpf4jnsgd1na2vs0mg"},{"bike_id":"25c963c4-753b-48a7-b098-97c60bc4c391","system_id":"levelo_inurba_marseille","lat":43.31687,"lon":5.40472,"is_reserved":false,"is_disabled":false,"rental_uris":{"android":"levelo://app?vid=25c963c4-753b-48a7-b098-97c60bc4c391","ios":"levelo://app?vid=25c963c4-753b-48a7-b098-97c60bc4c391"},"vehicle_type_id":"4","last_reported":1748286469,"current_range_meters":10800,"station_id":"ce4bh012rcd13ifvqd00","pricing_plan_id":"cebpf4jnsgd1na2vs0mg"},{"bike_id":"ab1cae86-b883-4456-8b2d-200edf42dfb7","system_id":"levelo_inurba_marseille","lat":43.29422,"lon":5.38634,"is_reserved":false,"is_disabled":false,"rental_uris":{"android":"levelo://app?vid=ab1cae86-b883-4456-8b2d-200edf42dfb7","ios":"levelo://app?vid=ab1cae86-b883-4456-8b2d-200edf42dfb7"},"vehicle_type_id":"4","last_reported":1748286469,"current_range_meters":10800,"station_id":"ce4bh2h2rcd13ifvqdh0","pricing_plan_id":"cebpf4jnsgd1na2vs0mg"},{"bike_id":"a402c378-dfaa-4462-9e67-b86b421b384b","system_id":"levelo_inurba_marseille","lat":43.26681,"lon":5.38264,"is_reserved":false,"is_disabled":false,"rental_uris":{"android":"levelo://app?vid=a402c378-dfaa-4462-9e67-b86b421b384b","ios":"levelo://app?vid=a402c378-dfaa-4462-9e67-b86b421b384b"},"vehicle_type_id":"4","last_reported":1748286469,"current_range_meters":10800,"station_id":"ce4bhg92rcd13ifvqf90","pricing_plan_id":"cebpf4jnsgd1na2vs0mg"},{"bike_id":"4661e59f-4017-457b-8d40-084f59302350","system_id":"levelo_inurba_marseille","lat":43.23196,"lon":5.39989,"is_reserved":false,"is_disabled":false,"rental_uris":{"android":"levelo://app?vid=4661e59f-4017-457b-8d40-084f59302350","ios":"levelo://app?vid=4661e59f-4017-457b-8d40-084f59302350"},"vehicle_type_id":"4","last_reported":1748286469,"current_range_meters":10800,"station_id":"ce4bhn12rcd13ifvqgqg","pricing_plan_id":"cebpf4jnsgd1na2vs0mg"},{"bike_id":"993eb098-22d6-4283-b606-cd3f5e47a834","system_id":"levelo_inurba_marseille","lat":43.27949,"lon":5.41035,"is_reserved":false,"is_disabled":false,"rental_uris":{"android":"levelo://app?vid=993eb098-22d6-4283-b606-cd3f5e47a834","ios":"levelo://app?vid=993eb098-22d6-4283-b606-cd3f5e47a834"},"vehicle_type_id":"4","last_reported":1748286469,"current_range_meters":10800,"station_id":"ce4bhnp2rcd13ifvqh0g","pricing_plan_id":"cebpf4jnsgd1na2vs0mg"},{"bike_id":"7e401798-b5f9-4698-a965-fed1f1a8d96c","system_id":"levelo_inurba_marseille","lat":43.28438,"lon":5.39191,"is_reserved":false,"is_disabled":false,"rental_uris":{"android":"levelo://app?vid=7e401798-b5f9-4698-a965-fed1f1a8d96c","ios":"levelo://app?vid=7e401798-b5f9-4698-a965-fed1f1a8d96c"},"vehicle_type_id":"4","last_reported":1748286469,"current_range_meters":10800,"station_id":"ce4bhoh2rcd13ifvqh5g","pricing_plan_id":"cebpf4jnsgd1na2vs0mg"},{"bike_id":"64fb7333-1aba-43e3-9bd9-f38a08a6bab6","system_id":"levelo_inurba_marseille","lat":43.28605,"lon":5.37068,"is_reserved":false,"is_disabled":false,"rental_uris":{"android":"levelo://app?vid=64fb7333-1aba-43e3-9bd9-f38a08a6bab6","ios":"levelo://app?vid=64fb7333-1aba-43e3-9bd9-f38a08a6bab6"},"vehicle_type_id":"4","last_reported":1748286469,"current_range_meters":10800,"station_id":"ce4bht12rcd13ifvqi60","pricing_plan_id":"cebpf4jnsgd1na2vs0mg"},{"bike_id":"8e4a49fc-046a-47af-9ebc-7573f797bec1","system_id":"levelo_inurba_marseille","lat":43.29791,"lon":5.39346,"is_reserved":false,"is_disabled":false,"rental_uris":{"android":"levelo://app?vid=8e4a49fc-046a-47af-9ebc-7573f797bec1","ios":"levelo://app?vid=8e4a49fc-046a-47af-9ebc-7573f797bec1"},"vehicle_type_id":"4","last_reported":1748286469,"current_range_meters":10800,"station_id":"chh1huq6cuj3fo74tm60","pricing_plan_id":"cebpf4jnsgd1na2vs0mg"},{"bike_id":"1a0998e5-8bb9-474f-a827-53cad24c9e8f","system_id":"levelo_inurba_marseille","lat":43.3204,"lon":5.44956,"is_reserved":false,"is_disabled":false,"rental_uris":{"android":"levelo://app?vid=1a0998e5-8bb9-474f-a827-53cad24c9e8f","ios":"levelo://app?vid=1a0998e5-8bb9-474f-a827-53cad24c9e8f"},"vehicle_type_id":"4","last_reported":1748286469,"current_range_meters":11200,"station_id":"","pricing_plan_id":"cebpf4jnsgd1na2vs0mg"},{"bike_id":"105849da-5a2f-4eda-9c36-1906963bc3d4","system_id":"levelo_inurba_marseille","lat":43.26559,"lon":5.4032,"is_reserved":false,"is_disabled":false,"rental_uris":{"android":"levelo://app?vid=105849da-5a2f-4eda-9c36-1906963bc3d4","ios":"levelo://app?vid=105849da-5a2f-4eda-9c36-1906963bc3d4"},"vehicle_type_id":"4","last_reported":1748286469,"current_range_meters":11200,"station_id":"","pricing_plan_id":"cebpf4jnsgd1na2vs0mg"},{"bike_id":"ed7c79f0-c730-45e5-a644-de3c10db3919","system_id":"levelo_inurba_marseille","lat":43.31373,"lon":5.38498,"is_reserved":false,"is_disabled":false,"rental_uris":{"android":"levelo://app?vid=ed7c79f0-c730-45e5-a644-de3c10db3919","ios":"levelo://app?vid=ed7c79f0-c730-45e5-a644-de3c10db3919"},"vehicle_type_id":"4","last_reported":1748286469,"current_range_meters":11200,"station_id":"ce4bgt92rcd13ifvqcf0","pricing_plan_id":"cebpf4jnsgd1na2vs0mg"},{"bike_id":"1b1bab21-37f3-4bfa-985c-f8093da0db87","system_id":"levelo_inurba_marseille","lat":43.30326,"lon":5.40439,"is_reserved":false,"is_disabled":false,"rental_uris":{"android":"levelo://app?vid=1b1bab21-37f3-4bfa-985c-f8093da0db87","ios":"levelo://app?vid=1b1bab21-37f3-4bfa-985c-f8093da0db87"},"vehicle_type_id":"4","last_reported":1748286469,"current_range_meters":11200,"station_id":"ce4bh012rcd13ifvqd10","pricing_plan_id":"cebpf4jnsgd1na2vs0mg"},{"bike_id":"2094f2a8-70d2-4274-8a98-5d4822b22e17","system_id":"levelo_inurba_marseille","lat":43.29572,"lon":5.39983,"is_reserved":false,"is_disabled":false,"rental_uris":{"android":"levelo://app?vid=2094f2a8-70d2-4274-8a98-5d4822b22e17","ios":"levelo://app?vid=2094f2a8-70d2-4274-8a98-5d4822b22e17"},"vehicle_type_id":"4","last_reported":1748286469,"current_range_meters":11200,"station_id":"ce4bh312rcd13ifvqdj0","pricing_plan_id":"cebpf4jnsgd1na2vs0mg"},{"bike_id":"660d4034-94b0-40e9-a4e8-c46bbb983e04","system_id":"levelo_inurba_marseille","lat":43.29266,"lon":5.3846,"is_reserved":false,"is_disabled":false,"rental_uris":{"android":"levelo://app?vid=660d4034-94b0-40e9-a4e8-c46bbb983e04","ios":"levelo://app?vid=660d4034-94b0-40e9-a4e8-c46bbb983e04"},"vehicle_type_id":"4","last_reported":1748286469,"current_range_meters":11200,"station_id":"ce4bh692rcd13ifvqea0","pricing_plan_id":"cebpf4jnsgd1na2vs0mg"},{"bike_id":"1f624b1a-3bd6-490b-92ef-a2a56d8a436e","system_id":"levelo_inurba_marseille","lat":43.23975,"lon":5.36629,"is_reserved":false,"is_disabled":false,"rental_uris":{"android":"levelo://app?vid=1f624b1a-3bd6-490b-92ef-a2a56d8a436e","ios":"levelo://app?vid=1f624b1a-3bd6-490b-92ef-a2a56d8a436e"},"vehicle_type_id":"4","last_reported":1748286469,"current_range_meters":11200,"station_id":"ce4bhi12rcd13ifvqfp0","pricing_plan_id":"cebpf4jnsgd1na2vs0mg"},{"bike_id":"ae6e6868-2635-4f49-b7c1-b03759c58ec7","system_id":"levelo_inurba_marseille","lat":43.27279,"lon":5.41594,"is_reserved":false,"is_disabled":false,"rental_uris":{"android":"levelo://app?vid=ae6e6868-2635-4f49-b7c1-b03759c58ec7","ios":"levelo://app?vid=ae6e6868-2635-4f49-b7c1-b03759c58ec7"},"vehicle_type_id":"4","last_reported":1748286469,"current_range_meters":11600,"station_id":"","pricing_plan_id":"cebpf4jnsgd1na2vs0mg"},{"bike_id":"34fff8c5-a201-414f-b7a4-b52d5144c306","system_id":"levelo_inurba_marseille","lat":43.254969,"lon":5.37649,"is_reserved":false,"is_disabled":false,"rental_uris":{"android":"levelo://app?vid=34fff8c5-a201-414f-b7a4-b52d5144c306","ios":"levelo://app?vid=34fff8c5-a201-414f-b7a4-b52d5144c306"},"vehicle_type_id":"4","last_reported":1748286469,"current_range_meters":11600,"station_id":"","pricing_plan_id":"cebpf4jnsgd1na2vs0mg"},{"bike_id":"0f448a0c-f774-4fbb-8fdf-0f39585202e2","system_id":"levelo_inurba_marseille","lat":43.29799,"lon":5.38107,"is_reserved":false,"is_disabled":false,"rental_uris":{"android":"levelo://app?vid=0f448a0c-f774-4fbb-8fdf-0f39585202e2","ios":"levelo://app?vid=0f448a0c-f774-4fbb-8fdf-0f39585202e2"},"vehicle_type_id":"4","last_reported":1748286469,"current_range_meters":11600,"station_id":"ce4bgip2rcd13ifvqbb0","pricing_plan_id":"cebpf4jnsgd1na2vs0mg"},{"bike_id":"debf7465-6d8f-4084-9ed6-dc19f127ce03","system_id":"levelo_inurba_marseille","lat":43.30924,"lon":5.40147,"is_reserved":false,"is_disabled":false,"rental_uris":{"android":"levelo://app?vid=debf7465-6d8f-4084-9ed6-dc19f127ce03","ios":"levelo://app?vid=debf7465-6d8f-4084-9ed6-dc19f127ce03"},"vehicle_type_id":"4","last_reported":1748286469,"current_range_meters":11600,"station_id":"ce4bgvp2rcd13ifvqct0","pricing_plan_id":"cebpf4jnsgd1na2vs0mg"},{"bike_id":"559a91be-6830-4327-b41e-f4b8efb9f124","system_id":"levelo_inurba_marseille","lat":43.28414,"lon":5.37504,"is_reserved":false,"is_disabled":false,"rental_uris":{"android":"levelo://app?vid=559a91be-6830-4327-b41e-f4b8efb9f124","ios":"levelo://app?vid=559a91be-6830-4327-b41e-f4b8efb9f124"},"vehicle_type_id":"4","last_reported":1748286469,"current_range_meters":11600,"station_id":"ce4bh412rcd13ifvqds0","pricing_plan_id":"cebpf4jnsgd1na2vs0mg"},{"bike_id":"a6f20edd-ab51-44a8-9632-48294bdef716","system_id":"levelo_inurba_marseille","lat":43.28286,"lon":5.382628,"is_reserved":false,"is_disabled":false,"rental_uris":{"android":"levelo://app?vid=a6f20edd-ab51-44a8-9632-48294bdef716","ios":"levelo://app?vid=a6f20edd-ab51-44a8-9632-48294bdef716"},"vehicle_type_id":"4","last_reported":1748286469,"current_range_meters":11600,"station_id":"ce4bh9p2rcd13ifvqec0","pricing_plan_id":"cebpf4jnsgd1na2vs0mg"},{"bike_id":"0debc554-72e6-4b6b-a9f6-30d6b4d3ceda","system_id":"levelo_inurba_marseille","lat":43.34152,"lon":5.409,"is_reserved":false,"is_disabled":false,"rental_uris":{"android":"levelo://app?vid=0debc554-72e6-4b6b-a9f6-30d6b4d3ceda","ios":"levelo://app?vid=0debc554-72e6-4b6b-a9f6-30d6b4d3ceda"},"vehicle_type_id":"4","last_reported":1748286469,"current_range_meters":11600,"station_id":"ce4bhqh2rcd13ifvqhlg","pricing_plan_id":"cebpf4jnsgd1na2vs0mg"},{"bike_id":"5148f8b2-1ecb-4c76-b37d-928f8d5cde64","system_id":"levelo_inurba_marseille","lat":43.32317,"lon":5.36782,"is_reserved":false,"is_disabled":false,"rental_uris":{"android":"levelo://app?vid=5148f8b2-1ecb-4c76-b37d-928f8d5cde64","ios":"levelo://app?vid=5148f8b2-1ecb-4c76-b37d-928f8d5cde64"},"vehicle_type_id":"4","last_reported":1748286469,"current_range_meters":11600,"station_id":"ce4bhsh2rcd13ifvqi2g","pricing_plan_id":"cebpf4jnsgd1na2vs0mg"},{"bike_id":"2b11c958-97d9-4807-b6f6-51cd0b20227e","system_id":"levelo_inurba_marseille","lat":43.318,"lon":5.37287,"is_reserved":false,"is_disabled":false,"rental_uris":{"android":"levelo://app?vid=2b11c958-97d9-4807-b6f6-51cd0b20227e","ios":"levelo://app?vid=2b11c958-97d9-4807-b6f6-51cd0b20227e"},"vehicle_type_id":"4","last_reported":1748286469,"current_range_meters":12000,"station_id":"","pricing_plan_id":"cebpf4jnsgd1na2vs0mg"},{"bike_id":"4c49c207-c013-422b-b89c-b33b3bbf27a1","system_id":"levelo_inurba_marseille","lat":43.29198,"lon":5.39322,"is_reserved":false,"is_disabled":false,"rental_uris":{"android":"levelo://app?vid=4c49c207-c013-422b-b89c-b33b3bbf27a1","ios":"levelo://app?vid=4c49c207-c013-422b-b89c-b33b3bbf27a1"},"vehicle_type_id":"4","last_reported":1748286469,"current_range_meters":12000,"station_id":"ce4bh192rcd13ifvqdd0","pricing_plan_id":"cebpf4jnsgd1na2vs0mg"},{"bike_id":"8e41926c-798d-44ff-ac8c-3bd552d22470","system_id":"levelo_inurba_marseille","lat":43.28424,"lon":5.34982,"is_reserved":false,"is_disabled":false,"rental_uris":{"android":"levelo://app?vid=8e41926c-798d-44ff-ac8c-3bd552d22470","ios":"levelo://app?vid=8e41926c-798d-44ff-ac8c-3bd552d22470"},"vehicle_type_id":"4","last_reported":1748286469,"current_range_meters":12000,"station_id":"ce4bhbh2rcd13ifvqepg","pricing_plan_id":"cebpf4jnsgd1na2vs0mg"},{"bike_id":"10b19120-4ddc-4b40-86f1-7903b54c88a2","system_id":"levelo_inurba_marseille","lat":43.279116,"lon":5.395748,"is_reserved":false,"is_disabled":false,"rental_uris":{"android":"levelo://app?vid=10b19120-4ddc-4b40-86f1-7903b54c88a2","ios":"levelo://app?vid=10b19120-4ddc-4b40-86f1-7903b54c88a2"},"vehicle_type_id":"4","last_reported":1748286469,"current_range_meters":12000,"station_id":"ce4bhf92rcd13ifvqf40","pricing_plan_id":"cebpf4jnsgd1na2vs0mg"},{"bike_id":"e3ca188a-03d8-490d-a49d-09a17dc07dc1","system_id":"levelo_inurba_marseille","lat":43.24658,"lon":5.38901,"is_reserved":false,"is_disabled":false,"rental_uris":{"android":"levelo://app?vid=e3ca188a-03d8-490d-a49d-09a17dc07dc1","ios":"levelo://app?vid=e3ca188a-03d8-490d-a49d-09a17dc07dc1"},"vehicle_type_id":"4","last_reported":1748286469,"current_range_meters":12000,"station_id":"ce4bhg12rcd13ifvqf60","pricing_plan_id":"cebpf4jnsgd1na2vs0mg"},{"bike_id":"7fd97da6-d9c8-4bc4-98c2-284876cff3ab","system_id":"levelo_inurba_marseille","lat":43.26202,"lon":5.3793,"is_reserved":false,"is_disabled":false,"rental_uris":{"android":"levelo://app?vid=7fd97da6-d9c8-4bc4-98c2-284876cff3ab","ios":"levelo://app?vid=7fd97da6-d9c8-4bc4-98c2-284876cff3ab"},"vehicle_type_id":"4","last_reported":1748286469,"current_range_meters":12000,"station_id":"ce4bhjp2rcd13ifvqg90","pricing_plan_id":"cebpf4jnsgd1na2vs0mg"},{"bike_id":"8a45606e-2096-4a22-88d7-26c191e9986d","system_id":"levelo_inurba_marseille","lat":43.33009,"lon":5.3906,"is_reserved":false,"is_disabled":false,"rental_uris":{"android":"levelo://app?vid=8a45606e-2096-4a22-88d7-26c191e9986d","ios":"levelo://app?vid=8a45606e-2096-4a22-88d7-26c191e9986d"},"vehicle_type_id":"4","last_reported":1748286469,"current_range_meters":12000,"station_id":"ce4bhr92rcd13ifvqhrg","pricing_plan_id":"cebpf4jnsgd1na2vs0mg"},{"bike_id":"a1ad37e9-65f1-44b3-b04a-e507016277ae","system_id":"levelo_inurba_marseille","lat":43.30934,"lon":5.40145,"is_reserved":false,"is_disabled":false,"rental_uris":{"android":"levelo://app?vid=a1ad37e9-65f1-44b3-b04a-e507016277ae","ios":"levelo://app?vid=a1ad37e9-65f1-44b3-b04a-e507016277ae"},"vehicle_type_id":"4","last_reported":1748286469,"current_range_meters":12400,"station_id":"ce4bgvp2rcd13ifvqct0","pricing_plan_id":"cebpf4jnsgd1na2vs0mg"},{"bike_id":"dc14c348-e737-4600-a44a-ad35f765402b","system_id":"levelo_inurba_marseille","lat":43.30896,"lon":5.39678,"is_reserved":false,"is_disabled":false,"rental_uris":{"android":"levelo://app?vid=dc14c348-e737-4600-a44a-ad35f765402b","ios":"levelo://app?vid=dc14c348-e737-4600-a44a-ad35f765402b"},"vehicle_type_id":"4","last_reported":1748286469,"current_range_meters":12400,"station_id":"ce4bh012rcd13ifvqcv0","pricing_plan_id":"cebpf4jnsgd1na2vs0mg"},{"bike_id":"f1f53005-e0f5-4dc4-88ed-6d8cb280ea64","system_id":"levelo_inurba_marseille","lat":43.2901,"lon":5.38154,"is_reserved":false,"is_disabled":false,"rental_uris":{"android":"levelo://app?vid=f1f53005-e0f5-4dc4-88ed-6d8cb280ea64","ios":"levelo://app?vid=f1f53005-e0f5-4dc4-88ed-6d8cb280ea64"},"vehicle_type_id":"4","last_reported":1748286469,"current_range_meters":12400,"station_id":"ce4bh4p2rcd13ifvqe1g","pricing_plan_id":"cebpf4jnsgd1na2vs0mg"},{"bike_id":"7858cbcf-1fde-4c49-9970-4c3a7d36e63f","system_id":"levelo_inurba_marseille","lat":43.29269,"lon":5.3845,"is_reserved":false,"is_disabled":false,"rental_uris":{"android":"levelo://app?vid=7858cbcf-1fde-4c49-9970-4c3a7d36e63f","ios":"levelo://app?vid=7858cbcf-1fde-4c49-9970-4c3a7d36e63f"},"vehicle_type_id":"4","last_reported":1748286469,"current_range_meters":12400,"station_id":"ce4bh692rcd13ifvqea0","pricing_plan_id":"cebpf4jnsgd1na2vs0mg"},{"bike_id":"8f3c92ec-8231-4872-8829-03752b0a82dc","system_id":"levelo_inurba_marseille","lat":43.29267,"lon":5.38441,"is_reserved":false,"is_disabled":false,"rental_uris":{"android":"levelo://app?vid=8f3c92ec-8231-4872-8829-03752b0a82dc","ios":"levelo://app?vid=8f3c92ec-8231-4872-8829-03752b0a82dc"},"vehicle_type_id":"4","last_reported":1748286469,"current_range_meters":12400,"station_id":"ce4bh692rcd13ifvqea0","pricing_plan_id":"cebpf4jnsgd1na2vs0mg"},{"bike_id":"3f855aa9-a03a-4d28-bbc8-2f3b26d07315","system_id":"levelo_inurba_marseille","lat":43.22928,"lon":5.35375,"is_reserved":false,"is_disabled":false,"rental_uris":{"android":"levelo://app?vid=3f855aa9-a03a-4d28-bbc8-2f3b26d07315","ios":"levelo://app?vid=3f855aa9-a03a-4d28-bbc8-2f3b26d07315"},"vehicle_type_id":"4","last_reported":1748286469,"current_range_meters":12400,"station_id":"cpo3532slgdg3j2ikp40","pricing_plan_id":"cebpf4jnsgd1na2vs0mg"},{"bike_id":"8e4efc6a-4d56-4785-a95e-40867644e79d","system_id":"levelo_inurba_marseille","lat":43.30332,"lon":5.39691,"is_reserved":false,"is_disabled":false,"rental_uris":{"android":"levelo://app?vid=8e4efc6a-4d56-4785-a95e-40867644e79d","ios":"levelo://app?vid=8e4efc6a-4d56-4785-a95e-40867644e79d"},"vehicle_type_id":"4","last_reported":1748286469,"current_range_meters":12800,"station_id":"","pricing_plan_id":"cebpf4jnsgd1na2vs0mg"},{"bike_id":"20a9dcd4-8414-4031-8b09-5ad2d0d50767","system_id":"levelo_inurba_marseille","lat":43.30211,"lon":5.39476,"is_reserved":false,"is_disabled":false,"rental_uris":{"android":"levelo://app?vid=20a9dcd4-8414-4031-8b09-5ad2d0d50767","ios":"levelo://app?vid=20a9dcd4-8414-4031-8b09-5ad2d0d50767"},"vehicle_type_id":"4","last_reported":1748286469,"current_range_meters":12800,"station_id":"ce4bh0p2rcd13ifvqd70","pricing_plan_id":"cebpf4jnsgd1na2vs0mg"},{"bike_id":"06357a04-3c6d-4c3d-9e5e-c3887619bbf4","system_id":"levelo_inurba_marseille","lat":43.28408,"lon":5.37525,"is_reserved":false,"is_disabled":false,"rental_uris":{"android":"levelo://app?vid=06357a04-3c6d-4c3d-9e5e-c3887619bbf4","ios":"levelo://app?vid=06357a04-3c6d-4c3d-9e5e-c3887619bbf4"},"vehicle_type_id":"4","last_reported":1748286469,"current_range_meters":12800,"station_id":"ce4bh412rcd13ifvqds0","pricing_plan_id":"cebpf4jnsgd1na2vs0mg"},{"bike_id":"e03a0d5e-b227-420d-969f-f1f548321079","system_id":"levelo_inurba_marseille","lat":43.28906,"lon":5.36684,"is_reserved":false,"is_disabled":false,"rental_uris":{"android":"levelo://app?vid=e03a0d5e-b227-420d-969f-f1f548321079","ios":"levelo://app?vid=e03a0d5e-b227-420d-969f-f1f548321079"},"vehicle_type_id":"4","last_reported":1748286469,"current_range_meters":12800,"station_id":"ce4bhap2rcd13ifvqek0","pricing_plan_id":"cebpf4jnsgd1na2vs0mg"},{"bike_id":"6a5a8b52-5f11-4f11-b968-c0a527f77f5a","system_id":"levelo_inurba_marseille","lat":43.25866,"lon":5.39899,"is_reserved":false,"is_disabled":false,"rental_uris":{"android":"levelo://app?vid=6a5a8b52-5f11-4f11-b968-c0a527f77f5a","ios":"levelo://app?vid=6a5a8b52-5f11-4f11-b968-c0a527f77f5a"},"vehicle_type_id":"4","last_reported":1748286469,"current_range_meters":12800,"station_id":"ce4bhl92rcd13ifvqghg","pricing_plan_id":"cebpf4jnsgd1na2vs0mg"},{"bike_id":"1f8867d4-3da3-4cd5-bb6a-d6ac7f2a8058","system_id":"levelo_inurba_marseille","lat":43.32583,"lon":5.41425,"is_reserved":false,"is_disabled":false,"rental_uris":{"android":"levelo://app?vid=1f8867d4-3da3-4cd5-bb6a-d6ac7f2a8058","ios":"levelo://app?vid=1f8867d4-3da3-4cd5-bb6a-d6ac7f2a8058"},"vehicle_type_id":"4","last_reported":1748286469,"current_range_meters":12800,"station_id":"ce4bhq12rcd13ifvqhhg","pricing_plan_id":"cebpf4jnsgd1na2vs0mg"},{"bike_id":"42468a61-16bf-4710-9b9b-05de4aa301eb","system_id":"levelo_inurba_marseille","lat":43.26808,"lon":5.40262,"is_reserved":false,"is_disabled":false,"rental_uris":{"android":"levelo://app?vid=42468a61-16bf-4710-9b9b-05de4aa301eb","ios":"levelo://app?vid=42468a61-16bf-4710-9b9b-05de4aa301eb"},"vehicle_type_id":"4","last_reported":1748286469,"current_range_meters":12800,"station_id":"ce501612rcd8frsf0b60","pricing_plan_id":"cebpf4jnsgd1na2vs0mg"},{"bike_id":"b5fbbce1-d584-478f-8320-afbac1d23b0a","system_id":"levelo_inurba_marseille","lat":43.30733,"lon":5.42439,"is_reserved":false,"is_disabled":false,"rental_uris":{"android":"levelo://app?vid=b5fbbce1-d584-478f-8320-afbac1d23b0a","ios":"levelo://app?vid=b5fbbce1-d584-478f-8320-afbac1d23b0a"},"vehicle_type_id":"4","last_reported":1748286469,"current_range_meters":12800,"station_id":"st_cvj6ca6bvosntc0bfgr0","pricing_plan_id":"cebpf4jnsgd1na2vs0mg"},{"bike_id":"53521363-a2c3-4973-aadf-1c8ed7b9a8b9","system_id":"levelo_inurba_marseille","lat":43.303064,"lon":5.369057,"is_reserved":false,"is_disabled":false,"rental_uris":{"android":"levelo://app?vid=53521363-a2c3-4973-aadf-1c8ed7b9a8b9","ios":"levelo://app?vid=53521363-a2c3-4973-aadf-1c8ed7b9a8b9"},"vehicle_type_id":"4","last_reported":1748286469,"current_range_meters":13600,"station_id":"ce4bgqh2rcd13ifvqc5g","pricing_plan_id":"cebpf4jnsgd1na2vs0mg"},{"bike_id":"005b921c-a881-478a-9b2a-1d5ec799e28d","system_id":"levelo_inurba_marseille","lat":43.30322,"lon":5.40435,"is_reserved":false,"is_disabled":false,"rental_uris":{"android":"levelo://app?vid=005b921c-a881-478a-9b2a-1d5ec799e28d","ios":"levelo://app?vid=005b921c-a881-478a-9b2a-1d5ec799e28d"},"vehicle_type_id":"4","last_reported":1748286469,"current_range_meters":13600,"station_id":"ce4bh012rcd13ifvqd10","pricing_plan_id":"cebpf4jnsgd1na2vs0mg"},{"bike_id":"994f2fa1-9f62-40ef-974f-3324a97b2459","system_id":"levelo_inurba_marseille","lat":43.306402,"lon":5.400938,"is_reserved":false,"is_disabled":false,"rental_uris":{"android":"levelo://app?vid=994f2fa1-9f62-40ef-974f-3324a97b2459","ios":"levelo://app?vid=994f2fa1-9f62-40ef-974f-3324a97b2459"},"vehicle_type_id":"4","last_reported":1748286469,"current_range_meters":13600,"station_id":"ce4bh112rcd13ifvqda0","pricing_plan_id":"cebpf4jnsgd1na2vs0mg"},{"bike_id":"c5ec5b05-7117-4532-8d9b-c4a1214ffb61","system_id":"levelo_inurba_marseille","lat":43.30641,"lon":5.40059,"is_reserved":false,"is_disabled":false,"rental_uris":{"android":"levelo://app?vid=c5ec5b05-7117-4532-8d9b-c4a1214ffb61","ios":"levelo://app?vid=c5ec5b05-7117-4532-8d9b-c4a1214ffb61"},"vehicle_type_id":"4","last_reported":1748286469,"current_range_meters":13600,"station_id":"ce4bh112rcd13ifvqda0","pricing_plan_id":"cebpf4jnsgd1na2vs0mg"},{"bike_id":"77a32bdb-1266-4c74-8ffd-1671b7fd9bc5","system_id":"levelo_inurba_marseille","lat":43.2954,"lon":5.39055,"is_reserved":false,"is_disabled":false,"rental_uris":{"android":"levelo://app?vid=77a32bdb-1266-4c74-8ffd-1671b7fd9bc5","ios":"levelo://app?vid=77a32bdb-1266-4c74-8ffd-1671b7fd9bc5"},"vehicle_type_id":"4","last_reported":1748286469,"current_range_meters":13600,"station_id":"ce4bh3p2rcd13ifvqdp0","pricing_plan_id":"cebpf4jnsgd1na2vs0mg"},{"bike_id":"811a842e-fc03-4000-855b-6cde7a42b22a","system_id":"levelo_inurba_marseille","lat":43.27463,"lon":5.38382,"is_reserved":false,"is_disabled":false,"rental_uris":{"android":"levelo://app?vid=811a842e-fc03-4000-855b-6cde7a42b22a","ios":"levelo://app?vid=811a842e-fc03-4000-855b-6cde7a42b22a"},"vehicle_type_id":"4","last_reported":1748286469,"current_range_meters":13600,"station_id":"ce4bhh92rcd13ifvqfi0","pricing_plan_id":"cebpf4jnsgd1na2vs0mg"},{"bike_id":"1a775a5e-1792-4706-b4f6-ec50ef749d53","system_id":"levelo_inurba_marseille","lat":43.255796,"lon":5.38223,"is_reserved":false,"is_disabled":false,"rental_uris":{"android":"levelo://app?vid=1a775a5e-1792-4706-b4f6-ec50ef749d53","ios":"levelo://app?vid=1a775a5e-1792-4706-b4f6-ec50ef749d53"},"vehicle_type_id":"4","last_reported":1748286469,"current_range_meters":13600,"station_id":"ce4bhih2rcd13ifvqfs0","pricing_plan_id":"cebpf4jnsgd1na2vs0mg"},{"bike_id":"91778dc6-5ac3-4d73-a11f-9b1ddc717184","system_id":"levelo_inurba_marseille","lat":43.23181,"lon":5.39987,"is_reserved":false,"is_disabled":false,"rental_uris":{"android":"levelo://app?vid=91778dc6-5ac3-4d73-a11f-9b1ddc717184","ios":"levelo://app?vid=91778dc6-5ac3-4d73-a11f-9b1ddc717184"},"vehicle_type_id":"4","last_reported":1748286469,"current_range_meters":13600,"station_id":"ce4bhn12rcd13ifvqgqg","pricing_plan_id":"cebpf4jnsgd1na2vs0mg"},{"bike_id":"a081d46c-da93-479a-b86e-a4de0185f93e","system_id":"levelo_inurba_marseille","lat":43.29554,"lon":5.42292,"is_reserved":false,"is_disabled":false,"rental_uris":{"android":"levelo://app?vid=a081d46c-da93-479a-b86e-a4de0185f93e","ios":"levelo://app?vid=a081d46c-da93-479a-b86e-a4de0185f93e"},"vehicle_type_id":"4","last_reported":1748286469,"current_range_meters":13600,"station_id":"ce4bhph2rcd13ifvqhdg","pricing_plan_id":"cebpf4jnsgd1na2vs0mg"},{"bike_id":"f043e868-ac9b-4cff-a3e5-9167c8c997d9","system_id":"levelo_inurba_marseille","lat":43.217528,"lon":5.346003,"is_reserved":false,"is_disabled":false,"rental_uris":{"android":"levelo://app?vid=f043e868-ac9b-4cff-a3e5-9167c8c997d9","ios":"levelo://app?vid=f043e868-ac9b-4cff-a3e5-9167c8c997d9"},"vehicle_type_id":"4","last_reported":1748286469,"current_range_meters":14000,"station_id":"","pricing_plan_id":"cebpf4jnsgd1na2vs0mg"},{"bike_id":"f5b1aa50-af32-4b67-af03-fc8d46feddb5","system_id":"levelo_inurba_marseille","lat":43.292694,"lon":5.401271,"is_reserved":false,"is_disabled":false,"rental_uris":{"android":"levelo://app?vid=f5b1aa50-af32-4b67-af03-fc8d46feddb5","ios":"levelo://app?vid=f5b1aa50-af32-4b67-af03-fc8d46feddb5"},"vehicle_type_id":"4","last_reported":1748286469,"current_range_meters":14000,"station_id":"","pricing_plan_id":"cebpf4jnsgd1na2vs0mg"},{"bike_id":"0237028e-a193-4fdd-a735-03c8dd5fe1e9","system_id":"levelo_inurba_marseille","lat":43.30425,"lon":5.38892,"is_reserved":false,"is_disabled":false,"rental_uris":{"android":"levelo://app?vid=0237028e-a193-4fdd-a735-03c8dd5fe1e9","ios":"levelo://app?vid=0237028e-a193-4fdd-a735-03c8dd5fe1e9"},"vehicle_type_id":"4","last_reported":1748286469,"current_range_meters":14000,"station_id":"ce4bgk12rcd13ifvqbi0","pricing_plan_id":"cebpf4jnsgd1na2vs0mg"},{"bike_id":"892ebb6d-3d8b-45d2-9e2f-8bc34d10d083","system_id":"levelo_inurba_marseille","lat":43.28729,"lon":5.37377,"is_reserved":false,"is_disabled":false,"rental_uris":{"android":"levelo://app?vid=892ebb6d-3d8b-45d2-9e2f-8bc34d10d083","ios":"levelo://app?vid=892ebb6d-3d8b-45d2-9e2f-8bc34d10d083"},"vehicle_type_id":"4","last_reported":1748286469,"current_range_meters":14000,"station_id":"ce4bh3p2rcd13ifvqdq0","pricing_plan_id":"cebpf4jnsgd1na2vs0mg"},{"bike_id":"d4a4ea53-7419-4488-8660-dfa08353d9a1","system_id":"levelo_inurba_marseille","lat":43.28039,"lon":5.36948,"is_reserved":false,"is_disabled":false,"rental_uris":{"android":"levelo://app?vid=d4a4ea53-7419-4488-8660-dfa08353d9a1","ios":"levelo://app?vid=d4a4ea53-7419-4488-8660-dfa08353d9a1"},"vehicle_type_id":"4","last_reported":1748286469,"current_range_meters":14000,"station_id":"ce4bha12rcd13ifvqef0","pricing_plan_id":"cebpf4jnsgd1na2vs0mg"},{"bike_id":"64acca1d-f81c-4fe5-95f0-c3391ec49104","system_id":"levelo_inurba_marseille","lat":43.26555,"lon":5.37284,"is_reserved":false,"is_disabled":false,"rental_uris":{"android":"levelo://app?vid=64acca1d-f81c-4fe5-95f0-c3391ec49104","ios":"levelo://app?vid=64acca1d-f81c-4fe5-95f0-c3391ec49104"},"vehicle_type_id":"4","last_reported":1748286469,"current_range_meters":14000,"station_id":"ce4bhg12rcd13ifvqf70","pricing_plan_id":"cebpf4jnsgd1na2vs0mg"},{"bike_id":"b92c5ab3-58da-48e6-a472-b396542d4017","system_id":"levelo_inurba_marseille","lat":43.25493,"lon":5.37657,"is_reserved":false,"is_disabled":false,"rental_uris":{"android":"levelo://app?vid=b92c5ab3-58da-48e6-a472-b396542d4017","ios":"levelo://app?vid=b92c5ab3-58da-48e6-a472-b396542d4017"},"vehicle_type_id":"4","last_reported":1748286469,"current_range_meters":14000,"station_id":"ce4bhh12rcd13ifvqff0","pricing_plan_id":"cebpf4jnsgd1na2vs0mg"},{"bike_id":"1b93f618-501a-441a-ac25-2913e761841a","system_id":"levelo_inurba_marseille","lat":43.330453,"lon":5.390253,"is_reserved":false,"is_disabled":false,"rental_uris":{"android":"levelo://app?vid=1b93f618-501a-441a-ac25-2913e761841a","ios":"levelo://app?vid=1b93f618-501a-441a-ac25-2913e761841a"},"vehicle_type_id":"4","last_reported":1748286469,"current_range_meters":14000,"station_id":"ce4bhr92rcd13ifvqhrg","pricing_plan_id":"cebpf4jnsgd1na2vs0mg"},{"bike_id":"e6c65de3-7d92-4979-809c-6677188473c0","system_id":"levelo_inurba_marseille","lat":43.337684,"lon":5.37432,"is_reserved":false,"is_disabled":false,"rental_uris":{"android":"levelo://app?vid=e6c65de3-7d92-4979-809c-6677188473c0","ios":"levelo://app?vid=e6c65de3-7d92-4979-809c-6677188473c0"},"vehicle_type_id":"4","last_reported":1748286469,"current_range_meters":14400,"station_id":"","pricing_plan_id":"cebpf4jnsgd1na2vs0mg"},{"bike_id":"6ef27e84-462a-46f9-afe5-e09b209cc7f0","system_id":"levelo_inurba_marseille","lat":43.3311,"lon":5.36206,"is_reserved":false,"is_disabled":false,"rental_uris":{"android":"levelo://app?vid=6ef27e84-462a-46f9-afe5-e09b209cc7f0","ios":"levelo://app?vid=6ef27e84-462a-46f9-afe5-e09b209cc7f0"},"vehicle_type_id":"4","last_reported":1748286469,"current_range_meters":14400,"station_id":"","pricing_plan_id":"cebpf4jnsgd1na2vs0mg"},{"bike_id":"eb060acd-d403-4c33-9f13-e709466da355","system_id":"levelo_inurba_marseille","lat":43.296143,"lon":5.377079,"is_reserved":false,"is_disabled":false,"rental_uris":{"android":"levelo://app?vid=eb060acd-d403-4c33-9f13-e709466da355","ios":"levelo://app?vid=eb060acd-d403-4c33-9f13-e709466da355"},"vehicle_type_id":"4","last_reported":1748286469,"current_range_meters":14400,"station_id":"","pricing_plan_id":"cebpf4jnsgd1na2vs0mg"},{"bike_id":"e859116d-604c-4755-8dff-49decb48f9e9","system_id":"levelo_inurba_marseille","lat":43.254986,"lon":5.37645,"is_reserved":false,"is_disabled":false,"rental_uris":{"android":"levelo://app?vid=e859116d-604c-4755-8dff-49decb48f9e9","ios":"levelo://app?vid=e859116d-604c-4755-8dff-49decb48f9e9"},"vehicle_type_id":"4","last_reported":1748286469,"current_range_meters":14400,"station_id":"","pricing_plan_id":"cebpf4jnsgd1na2vs0mg"},{"bike_id":"5e1b09e4-1e2c-4761-818d-b8aa091c623f","system_id":"levelo_inurba_marseille","lat":43.2969,"lon":5.37309,"is_reserved":false,"is_disabled":false,"rental_uris":{"android":"levelo://app?vid=5e1b09e4-1e2c-4761-818d-b8aa091c623f","ios":"levelo://app?vid=5e1b09e4-1e2c-4761-818d-b8aa091c623f"},"vehicle_type_id":"4","last_reported":1748286469,"current_range_meters":14400,"station_id":"ce4bgk12rcd13ifvqbj0","pricing_plan_id":"cebpf4jnsgd1na2vs0mg"},{"bike_id":"cdd31df2-29f3-4be6-85a3-15f707379932","system_id":"levelo_inurba_marseille","lat":43.26026,"lon":5.37549,"is_reserved":false,"is_disabled":false,"rental_uris":{"android":"levelo://app?vid=cdd31df2-29f3-4be6-85a3-15f707379932","ios":"levelo://app?vid=cdd31df2-29f3-4be6-85a3-15f707379932"},"vehicle_type_id":"4","last_reported":1748286469,"current_range_meters":14400,"station_id":"ce4bhgh2rcd13ifvqfa0","pricing_plan_id":"cebpf4jnsgd1na2vs0mg"},{"bike_id":"8c0269bb-f3e9-4202-bdef-2816f24b6c68","system_id":"levelo_inurba_marseille","lat":43.30792,"lon":5.43524,"is_reserved":false,"is_disabled":false,"rental_uris":{"android":"levelo://app?vid=8c0269bb-f3e9-4202-bdef-2816f24b6c68","ios":"levelo://app?vid=8c0269bb-f3e9-4202-bdef-2816f24b6c68"},"vehicle_type_id":"4","last_reported":1748286469,"current_range_meters":14400,"station_id":"ce4bhph2rcd13ifvqheg","pricing_plan_id":"cebpf4jnsgd1na2vs0mg"},{"bike_id":"bd2cb543-f800-4ab9-9028-a6266aed8a7b","system_id":"levelo_inurba_marseille","lat":43.28723,"lon":5.36099,"is_reserved":false,"is_disabled":false,"rental_uris":{"android":"levelo://app?vid=bd2cb543-f800-4ab9-9028-a6266aed8a7b","ios":"levelo://app?vid=bd2cb543-f800-4ab9-9028-a6266aed8a7b"},"vehicle_type_id":"4","last_reported":1748286469,"current_range_meters":14400,"station_id":"cki0cbj6b192h4jlfktg","pricing_plan_id":"cebpf4jnsgd1na2vs0mg"},{"bike_id":"1a1870e2-b5ca-41dd-a4b7-5143c0bbe515","system_id":"levelo_inurba_marseille","lat":43.22931,"lon":5.35377,"is_reserved":false,"is_disabled":false,"rental_uris":{"android":"levelo://app?vid=1a1870e2-b5ca-41dd-a4b7-5143c0bbe515","ios":"levelo://app?vid=1a1870e2-b5ca-41dd-a4b7-5143c0bbe515"},"vehicle_type_id":"4","last_reported":1748286469,"current_range_meters":14400,"station_id":"cpo3532slgdg3j2ikp40","pricing_plan_id":"cebpf4jnsgd1na2vs0mg"},{"bike_id":"2a046dee-b3af-48c9-9659-b7d30ba20af5","system_id":"levelo_inurba_marseille","lat":43.24335,"lon":5.38001,"is_reserved":false,"is_disabled":false,"rental_uris":{"android":"levelo://app?vid=2a046dee-b3af-48c9-9659-b7d30ba20af5","ios":"levelo://app?vid=2a046dee-b3af-48c9-9659-b7d30ba20af5"},"vehicle_type_id":"4","last_reported":1748286469,"current_range_meters":14800,"station_id":"","pricing_plan_id":"cebpf4jnsgd1na2vs0mg"},{"bike_id":"3be1c968-eb16-47a2-ac33-87103ec110c7","system_id":"levelo_inurba_marseille","lat":43.28844,"lon":5.3583,"is_reserved":false,"is_disabled":false,"rental_uris":{"android":"levelo://app?vid=3be1c968-eb16-47a2-ac33-87103ec110c7","ios":"levelo://app?vid=3be1c968-eb16-47a2-ac33-87103ec110c7"},"vehicle_type_id":"4","last_reported":1748286469,"current_range_meters":14800,"station_id":"ce4bhb12rcd13ifvqem0","pricing_plan_id":"cebpf4jnsgd1na2vs0mg"},{"bike_id":"48cd0317-1c6f-4804-9cd1-21cb1ebe5af3","system_id":"levelo_inurba_marseille","lat":43.25508,"lon":5.37632,"is_reserved":false,"is_disabled":false,"rental_uris":{"android":"levelo://app?vid=48cd0317-1c6f-4804-9cd1-21cb1ebe5af3","ios":"levelo://app?vid=48cd0317-1c6f-4804-9cd1-21cb1ebe5af3"},"vehicle_type_id":"4","last_reported":1748286469,"current_range_meters":14800,"station_id":"ce4bhh12rcd13ifvqff0","pricing_plan_id":"cebpf4jnsgd1na2vs0mg"},{"bike_id":"d5da7f3a-4011-49ff-8618-92d087aebed0","system_id":"levelo_inurba_marseille","lat":43.24562,"lon":5.3953,"is_reserved":false,"is_disabled":false,"rental_uris":{"android":"levelo://app?vid=d5da7f3a-4011-49ff-8618-92d087aebed0","ios":"levelo://app?vid=d5da7f3a-4011-49ff-8618-92d087aebed0"},"vehicle_type_id":"4","last_reported":1748286469,"current_range_meters":14800,"station_id":"ce4bhlp2rcd13ifvqgjg","pricing_plan_id":"cebpf4jnsgd1na2vs0mg"},{"bike_id":"9458102f-44d9-4b87-9099-7b8efc417476","system_id":"levelo_inurba_marseille","lat":43.2979,"lon":5.39337,"is_reserved":false,"is_disabled":false,"rental_uris":{"android":"levelo://app?vid=9458102f-44d9-4b87-9099-7b8efc417476","ios":"levelo://app?vid=9458102f-44d9-4b87-9099-7b8efc417476"},"vehicle_type_id":"4","last_reported":1748286469,"current_range_meters":14800,"station_id":"chh1huq6cuj3fo74tm60","pricing_plan_id":"cebpf4jnsgd1na2vs0mg"},{"bike_id":"6b482028-512e-4dbe-b943-3138dd0f6f46","system_id":"levelo_inurba_marseille","lat":43.29689,"lon":5.36881,"is_reserved":false,"is_disabled":false,"rental_uris":{"android":"levelo://app?vid=6b482028-512e-4dbe-b943-3138dd0f6f46","ios":"levelo://app?vid=6b482028-512e-4dbe-b943-3138dd0f6f46"},"vehicle_type_id":"4","last_reported":1748286469,"current_range_meters":15200,"station_id":"","pricing_plan_id":"cebpf4jnsgd1na2vs0mg"},{"bike_id":"cf873593-679c-4235-882e-d30565fc33d1","system_id":"levelo_inurba_marseille","lat":43.28702,"lon":5.37387,"is_reserved":false,"is_disabled":false,"rental_uris":{"android":"levelo://app?vid=cf873593-679c-4235-882e-d30565fc33d1","ios":"levelo://app?vid=cf873593-679c-4235-882e-d30565fc33d1"},"vehicle_type_id":"4","last_reported":1748286469,"current_range_meters":15200,"station_id":"ce4bh3p2rcd13ifvqdq0","pricing_plan_id":"cebpf4jnsgd1na2vs0mg"},{"bike_id":"0aa7a9c7-4985-4484-8767-4009cf0eace8","system_id":"levelo_inurba_marseille","lat":43.28039,"lon":5.36942,"is_reserved":false,"is_disabled":false,"rental_uris":{"android":"levelo://app?vid=0aa7a9c7-4985-4484-8767-4009cf0eace8","ios":"levelo://app?vid=0aa7a9c7-4985-4484-8767-4009cf0eace8"},"vehicle_type_id":"4","last_reported":1748286469,"current_range_meters":15200,"station_id":"ce4bha12rcd13ifvqef0","pricing_plan_id":"cebpf4jnsgd1na2vs0mg"},{"bike_id":"0d5c4ec3-9207-4149-b556-49f090f13f2e","system_id":"levelo_inurba_marseille","lat":43.28929,"lon":5.36392,"is_reserved":false,"is_disabled":false,"rental_uris":{"android":"levelo://app?vid=0d5c4ec3-9207-4149-b556-49f090f13f2e","ios":"levelo://app?vid=0d5c4ec3-9207-4149-b556-49f090f13f2e"},"vehicle_type_id":"4","last_reported":1748286469,"current_range_meters":15200,"station_id":"ce4bhc92rcd13ifvqetg","pricing_plan_id":"cebpf4jnsgd1na2vs0mg"},{"bike_id":"84b87cf2-03a6-425c-bfaa-cfbd8e240e6f","system_id":"levelo_inurba_marseille","lat":43.265765,"lon":5.389982,"is_reserved":false,"is_disabled":false,"rental_uris":{"android":"levelo://app?vid=84b87cf2-03a6-425c-bfaa-cfbd8e240e6f","ios":"levelo://app?vid=84b87cf2-03a6-425c-bfaa-cfbd8e240e6f"},"vehicle_type_id":"4","last_reported":1748286469,"current_range_meters":15200,"station_id":"ce4bhe12rcd13ifvqf30","pricing_plan_id":"cebpf4jnsgd1na2vs0mg"},{"bike_id":"52da6684-0a1f-4e5c-8d8b-49dd7abe2c17","system_id":"levelo_inurba_marseille","lat":43.23188,"lon":5.39982,"is_reserved":false,"is_disabled":false,"rental_uris":{"android":"levelo://app?vid=52da6684-0a1f-4e5c-8d8b-49dd7abe2c17","ios":"levelo://app?vid=52da6684-0a1f-4e5c-8d8b-49dd7abe2c17"},"vehicle_type_id":"4","last_reported":1748286469,"current_range_meters":15200,"station_id":"ce4bhn12rcd13ifvqgqg","pricing_plan_id":"cebpf4jnsgd1na2vs0mg"},{"bike_id":"ceb81090-b40e-47dd-bc35-8598d269ef58","system_id":"levelo_inurba_marseille","lat":43.26663,"lon":5.38431,"is_reserved":false,"is_disabled":false,"rental_uris":{"android":"levelo://app?vid=ceb81090-b40e-47dd-bc35-8598d269ef58","ios":"levelo://app?vid=ceb81090-b40e-47dd-bc35-8598d269ef58"},"vehicle_type_id":"4","last_reported":1748286469,"current_range_meters":16000,"station_id":"","pricing_plan_id":"cebpf4jnsgd1na2vs0mg"},{"bike_id":"02503cd7-e932-4e46-86c1-b1e41eea17dd","system_id":"levelo_inurba_marseille","lat":43.29798,"lon":5.38099,"is_reserved":false,"is_disabled":false,"rental_uris":{"android":"levelo://app?vid=02503cd7-e932-4e46-86c1-b1e41eea17dd","ios":"levelo://app?vid=02503cd7-e932-4e46-86c1-b1e41eea17dd"},"vehicle_type_id":"4","last_reported":1748286469,"current_range_meters":16000,"station_id":"ce4bgip2rcd13ifvqbb0","pricing_plan_id":"cebpf4jnsgd1na2vs0mg"},{"bike_id":"73d8c092-b847-4ba5-af66-22a9047bede3","system_id":"levelo_inurba_marseille","lat":43.29706,"lon":5.37699,"is_reserved":false,"is_disabled":false,"rental_uris":{"android":"levelo://app?vid=73d8c092-b847-4ba5-af66-22a9047bede3","ios":"levelo://app?vid=73d8c092-b847-4ba5-af66-22a9047bede3"},"vehicle_type_id":"4","last_reported":1748286469,"current_range_meters":16000,"station_id":"ce4bgkh2rcd13ifvqbl0","pricing_plan_id":"cebpf4jnsgd1na2vs0mg"},{"bike_id":"af038e77-5321-4743-93dc-0b9e8c2519e2","system_id":"levelo_inurba_marseille","lat":43.297058,"lon":5.366037,"is_reserved":false,"is_disabled":false,"rental_uris":{"android":"levelo://app?vid=af038e77-5321-4743-93dc-0b9e8c2519e2","ios":"levelo://app?vid=af038e77-5321-4743-93dc-0b9e8c2519e2"},"vehicle_type_id":"4","last_reported":1748286469,"current_range_meters":16000,"station_id":"ce4bgn12rcd13ifvqbt0","pricing_plan_id":"cebpf4jnsgd1na2vs0mg"},{"bike_id":"1c986ff8-644a-4c7b-8bcb-c1157e314082","system_id":"levelo_inurba_marseille","lat":43.2903,"lon":5.38639,"is_reserved":false,"is_disabled":false,"rental_uris":{"android":"levelo://app?vid=1c986ff8-644a-4c7b-8bcb-c1157e314082","ios":"levelo://app?vid=1c986ff8-644a-4c7b-8bcb-c1157e314082"},"vehicle_type_id":"4","last_reported":1748286469,"current_range_meters":16000,"station_id":"ce4bh4p2rcd13ifvqe0g","pricing_plan_id":"cebpf4jnsgd1na2vs0mg"},{"bike_id":"a0ac8f68-85f5-4737-82e6-b8cffea2a0c2","system_id":"levelo_inurba_marseille","lat":43.28658,"lon":5.36357,"is_reserved":false,"is_disabled":false,"rental_uris":{"android":"levelo://app?vid=a0ac8f68-85f5-4737-82e6-b8cffea2a0c2","ios":"levelo://app?vid=a0ac8f68-85f5-4737-82e6-b8cffea2a0c2"},"vehicle_type_id":"4","last_reported":1748286469,"current_range_meters":16000,"station_id":"ce4bhah2rcd13ifvqej0","pricing_plan_id":"cebpf4jnsgd1na2vs0mg"},{"bike_id":"d5033ddc-5ca9-4bd2-87ef-7396c15a8dc0","system_id":"levelo_inurba_marseille","lat":43.26214,"lon":5.37439,"is_reserved":false,"is_disabled":false,"rental_uris":{"android":"levelo://app?vid=d5033ddc-5ca9-4bd2-87ef-7396c15a8dc0","ios":"levelo://app?vid=d5033ddc-5ca9-4bd2-87ef-7396c15a8dc0"},"vehicle_type_id":"4","last_reported":1748286469,"current_range_meters":16000,"station_id":"ce4bhgp2rcd13ifvqfc0","pricing_plan_id":"cebpf4jnsgd1na2vs0mg"},{"bike_id":"a37d7072-fa8d-48ce-882a-f8346c36ab41","system_id":"levelo_inurba_marseille","lat":43.23322,"lon":5.36169,"is_reserved":false,"is_disabled":false,"rental_uris":{"android":"levelo://app?vid=a37d7072-fa8d-48ce-882a-f8346c36ab41","ios":"levelo://app?vid=a37d7072-fa8d-48ce-882a-f8346c36ab41"},"vehicle_type_id":"4","last_reported":1748286469,"current_range_meters":16400,"station_id":"","pricing_plan_id":"cebpf4jnsgd1na2vs0mg"},{"bike_id":"7e9a5916-5dd4-47a0-819e-c8f8dbbe9d74","system_id":"levelo_inurba_marseille","lat":43.22968,"lon":5.35404,"is_reserved":false,"is_disabled":false,"rental_uris":{"android":"levelo://app?vid=7e9a5916-5dd4-47a0-819e-c8f8dbbe9d74","ios":"levelo://app?vid=7e9a5916-5dd4-47a0-819e-c8f8dbbe9d74"},"vehicle_type_id":"4","last_reported":1748286469,"current_range_meters":16400,"station_id":"","pricing_plan_id":"cebpf4jnsgd1na2vs0mg"},{"bike_id":"f8440d74-6946-4cc3-835a-107397f711e7","system_id":"levelo_inurba_marseille","lat":43.284062,"lon":5.37518,"is_reserved":false,"is_disabled":false,"rental_uris":{"android":"levelo://app?vid=f8440d74-6946-4cc3-835a-107397f711e7","ios":"levelo://app?vid=f8440d74-6946-4cc3-835a-107397f711e7"},"vehicle_type_id":"4","last_reported":1748286469,"current_range_meters":16400,"station_id":"ce4bh412rcd13ifvqds0","pricing_plan_id":"cebpf4jnsgd1na2vs0mg"},{"bike_id":"e54a37d7-0b8f-4a8e-ada3-f57136b30871","system_id":"levelo_inurba_marseille","lat":43.28414,"lon":5.37512,"is_reserved":false,"is_disabled":false,"rental_uris":{"android":"levelo://app?vid=e54a37d7-0b8f-4a8e-ada3-f57136b30871","ios":"levelo://app?vid=e54a37d7-0b8f-4a8e-ada3-f57136b30871"},"vehicle_type_id":"4","last_reported":1748286469,"current_range_meters":16400,"station_id":"ce4bh412rcd13ifvqds0","pricing_plan_id":"cebpf4jnsgd1na2vs0mg"},{"bike_id":"5dc44964-0ee9-4379-94ad-ee9fab25c121","system_id":"levelo_inurba_marseille","lat":43.26554,"lon":5.37283,"is_reserved":false,"is_disabled":false,"rental_uris":{"android":"levelo://app?vid=5dc44964-0ee9-4379-94ad-ee9fab25c121","ios":"levelo://app?vid=5dc44964-0ee9-4379-94ad-ee9fab25c121"},"vehicle_type_id":"4","last_reported":1748286469,"current_range_meters":16400,"station_id":"ce4bhg12rcd13ifvqf70","pricing_plan_id":"cebpf4jnsgd1na2vs0mg"},{"bike_id":"24695fcc-1634-4887-9a04-00f71eb609f0","system_id":"levelo_inurba_marseille","lat":43.23185,"lon":5.40006,"is_reserved":false,"is_disabled":false,"rental_uris":{"android":"levelo://app?vid=24695fcc-1634-4887-9a04-00f71eb609f0","ios":"levelo://app?vid=24695fcc-1634-4887-9a04-00f71eb609f0"},"vehicle_type_id":"4","last_reported":1748286469,"current_range_meters":16400,"station_id":"ce4bhn12rcd13ifvqgqg","pricing_plan_id":"cebpf4jnsgd1na2vs0mg"},{"bike_id":"a3a1e2f8-c082-4657-9cf8-ceb282e14a71","system_id":"levelo_inurba_marseille","lat":43.23197,"lon":5.39992,"is_reserved":false,"is_disabled":false,"rental_uris":{"android":"levelo://app?vid=a3a1e2f8-c082-4657-9cf8-ceb282e14a71","ios":"levelo://app?vid=a3a1e2f8-c082-4657-9cf8-ceb282e14a71"},"vehicle_type_id":"4","last_reported":1748286469,"current_range_meters":16400,"station_id":"ce4bhn12rcd13ifvqgqg","pricing_plan_id":"cebpf4jnsgd1na2vs0mg"},{"bike_id":"d8c872d6-8d4b-44ba-bea9-e8b9a4d5bbb7","system_id":"levelo_inurba_marseille","lat":43.27825,"lon":5.40688,"is_reserved":false,"is_disabled":false,"rental_uris":{"android":"levelo://app?vid=d8c872d6-8d4b-44ba-bea9-e8b9a4d5bbb7","ios":"levelo://app?vid=d8c872d6-8d4b-44ba-bea9-e8b9a4d5bbb7"},"vehicle_type_id":"4","last_reported":1748286469,"current_range_meters":16400,"station_id":"ce4bhnh2rcd13ifvqgtg","pricing_plan_id":"cebpf4jnsgd1na2vs0mg"},{"bike_id":"6908cc89-c3e9-4116-954e-dc2fdd09dc97","system_id":"levelo_inurba_marseille","lat":43.28448,"lon":5.39171,"is_reserved":false,"is_disabled":false,"rental_uris":{"android":"levelo://app?vid=6908cc89-c3e9-4116-954e-dc2fdd09dc97","ios":"levelo://app?vid=6908cc89-c3e9-4116-954e-dc2fdd09dc97"},"vehicle_type_id":"4","last_reported":1748286469,"current_range_meters":16400,"station_id":"ce4bhoh2rcd13ifvqh5g","pricing_plan_id":"cebpf4jnsgd1na2vs0mg"},{"bike_id":"30e949a6-9a21-45c6-8b78-d17c7d943515","system_id":"levelo_inurba_marseille","lat":43.26805,"lon":5.40277,"is_reserved":false,"is_disabled":false,"rental_uris":{"android":"levelo://app?vid=30e949a6-9a21-45c6-8b78-d17c7d943515","ios":"levelo://app?vid=30e949a6-9a21-45c6-8b78-d17c7d943515"},"vehicle_type_id":"4","last_reported":1748286469,"current_range_meters":16400,"station_id":"ce501612rcd8frsf0b60","pricing_plan_id":"cebpf4jnsgd1na2vs0mg"},{"bike_id":"6d93b40b-61f9-4db6-9105-28c2ac1cb474","system_id":"levelo_inurba_marseille","lat":43.27617,"lon":5.36085,"is_reserved":false,"is_disabled":false,"rental_uris":{"android":"levelo://app?vid=6d93b40b-61f9-4db6-9105-28c2ac1cb474","ios":"levelo://app?vid=6d93b40b-61f9-4db6-9105-28c2ac1cb474"},"vehicle_type_id":"4","last_reported":1748286469,"current_range_meters":16800,"station_id":"ce4bgj92rcd13ifvqbe0","pricing_plan_id":"cebpf4jnsgd1na2vs0mg"},{"bike_id":"22162bc2-30bf-45e2-a74f-669316d3a304","system_id":"levelo_inurba_marseille","lat":43.29804,"lon":5.403928,"is_reserved":false,"is_disabled":false,"rental_uris":{"android":"levelo://app?vid=22162bc2-30bf-45e2-a74f-669316d3a304","ios":"levelo://app?vid=22162bc2-30bf-45e2-a74f-669316d3a304"},"vehicle_type_id":"4","last_reported":1748286469,"current_range_meters":16800,"station_id":"ce4bh112rcd13ifvqd90","pricing_plan_id":"cebpf4jnsgd1na2vs0mg"},{"bike_id":"6d78c794-5960-45cf-8357-00701a047b0f","system_id":"levelo_inurba_marseille","lat":43.28415,"lon":5.37519,"is_reserved":false,"is_disabled":false,"rental_uris":{"android":"levelo://app?vid=6d78c794-5960-45cf-8357-00701a047b0f","ios":"levelo://app?vid=6d78c794-5960-45cf-8357-00701a047b0f"},"vehicle_type_id":"4","last_reported":1748286469,"current_range_meters":16800,"station_id":"ce4bh412rcd13ifvqds0","pricing_plan_id":"cebpf4jnsgd1na2vs0mg"},{"bike_id":"684db25c-d090-4d79-8b73-4fb7e0b2353f","system_id":"levelo_inurba_marseille","lat":43.27803,"lon":5.40725,"is_reserved":false,"is_disabled":false,"rental_uris":{"android":"levelo://app?vid=684db25c-d090-4d79-8b73-4fb7e0b2353f","ios":"levelo://app?vid=684db25c-d090-4d79-8b73-4fb7e0b2353f"},"vehicle_type_id":"4","last_reported":1748286469,"current_range_meters":16800,"station_id":"ce4bhnh2rcd13ifvqgtg","pricing_plan_id":"cebpf4jnsgd1na2vs0mg"},{"bike_id":"5ef36308-6ad7-4297-98b9-b15ad37f4875","system_id":"levelo_inurba_marseille","lat":43.29519,"lon":5.39407,"is_reserved":false,"is_disabled":false,"rental_uris":{"android":"levelo://app?vid=5ef36308-6ad7-4297-98b9-b15ad37f4875","ios":"levelo://app?vid=5ef36308-6ad7-4297-98b9-b15ad37f4875"},"vehicle_type_id":"4","last_reported":1748286469,"current_range_meters":17200,"station_id":"ce4bh292rcd13ifvqdf0","pricing_plan_id":"cebpf4jnsgd1na2vs0mg"},{"bike_id":"0812a805-2df6-4736-8468-69d8fcf86d2d","system_id":"levelo_inurba_marseille","lat":43.2738,"lon":5.36256,"is_reserved":false,"is_disabled":false,"rental_uris":{"android":"levelo://app?vid=0812a805-2df6-4736-8468-69d8fcf86d2d","ios":"levelo://app?vid=0812a805-2df6-4736-8468-69d8fcf86d2d"},"vehicle_type_id":"4","last_reported":1748286469,"current_range_meters":17200,"station_id":"ce4bhbh2rcd13ifvqeo0","pricing_plan_id":"cebpf4jnsgd1na2vs0mg"},{"bike_id":"1d048543-7271-404b-a1b7-09a437638eea","system_id":"levelo_inurba_marseille","lat":43.28614,"lon":5.35106,"is_reserved":false,"is_disabled":false,"rental_uris":{"android":"levelo://app?vid=1d048543-7271-404b-a1b7-09a437638eea","ios":"levelo://app?vid=1d048543-7271-404b-a1b7-09a437638eea"},"vehicle_type_id":"4","last_reported":1748286469,"current_range_meters":17200,"station_id":"ce4bhch2rcd13ifvqeug","pricing_plan_id":"cebpf4jnsgd1na2vs0mg"},{"bike_id":"fa4db432-72c8-4f57-8e49-99a768fb1fe0","system_id":"levelo_inurba_marseille","lat":43.27556,"lon":5.3843,"is_reserved":false,"is_disabled":false,"rental_uris":{"android":"levelo://app?vid=fa4db432-72c8-4f57-8e49-99a768fb1fe0","ios":"levelo://app?vid=fa4db432-72c8-4f57-8e49-99a768fb1fe0"},"vehicle_type_id":"4","last_reported":1748286469,"current_range_meters":17200,"station_id":"ce4bhh92rcd13ifvqfi0","pricing_plan_id":"cebpf4jnsgd1na2vs0mg"},{"bike_id":"9198b550-c5cf-463c-bb76-767cf162342b","system_id":"levelo_inurba_marseille","lat":43.25571,"lon":5.38248,"is_reserved":false,"is_disabled":false,"rental_uris":{"android":"levelo://app?vid=9198b550-c5cf-463c-bb76-767cf162342b","ios":"levelo://app?vid=9198b550-c5cf-463c-bb76-767cf162342b"},"vehicle_type_id":"4","last_reported":1748286469,"current_range_meters":17200,"station_id":"ce4bhih2rcd13ifvqfs0","pricing_plan_id":"cebpf4jnsgd1na2vs0mg"},{"bike_id":"6f8ff3fe-9bb4-4e82-9b38-3978b50af32a","system_id":"levelo_inurba_marseille","lat":43.25724,"lon":5.41112,"is_reserved":false,"is_disabled":false,"rental_uris":{"android":"levelo://app?vid=6f8ff3fe-9bb4-4e82-9b38-3978b50af32a","ios":"levelo://app?vid=6f8ff3fe-9bb4-4e82-9b38-3978b50af32a"},"vehicle_type_id":"4","last_reported":1748286469,"current_range_meters":17200,"station_id":"ce4bhkp2rcd13ifvqgd0","pricing_plan_id":"cebpf4jnsgd1na2vs0mg"},{"bike_id":"bb2cdf19-9333-4e3a-ad34-562f6e067f35","system_id":"levelo_inurba_marseille","lat":43.25086,"lon":5.39525,"is_reserved":false,"is_disabled":false,"rental_uris":{"android":"levelo://app?vid=bb2cdf19-9333-4e3a-ad34-562f6e067f35","ios":"levelo://app?vid=bb2cdf19-9333-4e3a-ad34-562f6e067f35"},"vehicle_type_id":"4","last_reported":1748286469,"current_range_meters":17200,"station_id":"ce4bhm12rcd13ifvqgkg","pricing_plan_id":"cebpf4jnsgd1na2vs0mg"},{"bike_id":"a40588ee-00f9-4620-a7e7-03b577ebbb6e","system_id":"levelo_inurba_marseille","lat":43.23189,"lon":5.3999,"is_reserved":false,"is_disabled":false,"rental_uris":{"android":"levelo://app?vid=a40588ee-00f9-4620-a7e7-03b577ebbb6e","ios":"levelo://app?vid=a40588ee-00f9-4620-a7e7-03b577ebbb6e"},"vehicle_type_id":"4","last_reported":1748286469,"current_range_meters":17200,"station_id":"ce4bhn12rcd13ifvqgqg","pricing_plan_id":"cebpf4jnsgd1na2vs0mg"},{"bike_id":"05e8dbf3-05b0-483f-9b67-35f878ee6570","system_id":"levelo_inurba_marseille","lat":43.30413,"lon":5.41304,"is_reserved":false,"is_disabled":false,"rental_uris":{"android":"levelo://app?vid=05e8dbf3-05b0-483f-9b67-35f878ee6570","ios":"levelo://app?vid=05e8dbf3-05b0-483f-9b67-35f878ee6570"},"vehicle_type_id":"4","last_reported":1748286469,"current_range_meters":17200,"station_id":"ce4bhop2rcd13ifvqh8g","pricing_plan_id":"cebpf4jnsgd1na2vs0mg"},{"bike_id":"b366d453-fea4-4ccf-bb7f-4bf47263c2f9","system_id":"levelo_inurba_marseille","lat":43.29789,"lon":5.39337,"is_reserved":false,"is_disabled":false,"rental_uris":{"android":"levelo://app?vid=b366d453-fea4-4ccf-bb7f-4bf47263c2f9","ios":"levelo://app?vid=b366d453-fea4-4ccf-bb7f-4bf47263c2f9"},"vehicle_type_id":"4","last_reported":1748286469,"current_range_meters":17200,"station_id":"chh1huq6cuj3fo74tm60","pricing_plan_id":"cebpf4jnsgd1na2vs0mg"},{"bike_id":"2296b000-9418-4e25-b3a0-ff6599969b36","system_id":"levelo_inurba_marseille","lat":43.28824,"lon":5.35263,"is_reserved":false,"is_disabled":false,"rental_uris":{"android":"levelo://app?vid=2296b000-9418-4e25-b3a0-ff6599969b36","ios":"levelo://app?vid=2296b000-9418-4e25-b3a0-ff6599969b36"},"vehicle_type_id":"4","last_reported":1748286469,"current_range_meters":17600,"station_id":"","pricing_plan_id":"cebpf4jnsgd1na2vs0mg"},{"bike_id":"4c233101-8c18-4198-82ed-33f9dcb3d429","system_id":"levelo_inurba_marseille","lat":43.30259,"lon":5.40089,"is_reserved":false,"is_disabled":false,"rental_uris":{"android":"levelo://app?vid=4c233101-8c18-4198-82ed-33f9dcb3d429","ios":"levelo://app?vid=4c233101-8c18-4198-82ed-33f9dcb3d429"},"vehicle_type_id":"4","last_reported":1748286469,"current_range_meters":17600,"station_id":"ce4bgvh2rcd13ifvqcs0","pricing_plan_id":"cebpf4jnsgd1na2vs0mg"},{"bike_id":"bdb29c3a-29c1-4446-9406-1f3254ab60da","system_id":"levelo_inurba_marseille","lat":43.29631,"lon":5.40599,"is_reserved":false,"is_disabled":false,"rental_uris":{"android":"levelo://app?vid=bdb29c3a-29c1-4446-9406-1f3254ab60da","ios":"levelo://app?vid=bdb29c3a-29c1-4446-9406-1f3254ab60da"},"vehicle_type_id":"4","last_reported":1748286469,"current_range_meters":17600,"station_id":"ce4bh0h2rcd13ifvqd60","pricing_plan_id":"cebpf4jnsgd1na2vs0mg"},{"bike_id":"3d19b2c3-2505-40ed-97d1-64639b138ef5","system_id":"levelo_inurba_marseille","lat":43.29263,"lon":5.38449,"is_reserved":false,"is_disabled":false,"rental_uris":{"android":"levelo://app?vid=3d19b2c3-2505-40ed-97d1-64639b138ef5","ios":"levelo://app?vid=3d19b2c3-2505-40ed-97d1-64639b138ef5"},"vehicle_type_id":"4","last_reported":1748286469,"current_range_meters":17600,"station_id":"ce4bh692rcd13ifvqea0","pricing_plan_id":"cebpf4jnsgd1na2vs0mg"},{"bike_id":"1b38bffa-3f4d-4233-b64a-987aec520d26","system_id":"levelo_inurba_marseille","lat":43.28105,"lon":5.37841,"is_reserved":false,"is_disabled":false,"rental_uris":{"android":"levelo://app?vid=1b38bffa-3f4d-4233-b64a-987aec520d26","ios":"levelo://app?vid=1b38bffa-3f4d-4233-b64a-987aec520d26"},"vehicle_type_id":"4","last_reported":1748286469,"current_range_meters":17600,"station_id":"ce4bha12rcd13ifvqee0","pricing_plan_id":"cebpf4jnsgd1na2vs0mg"},{"bike_id":"101270e8-fe03-456d-9430-c0aca8509d09","system_id":"levelo_inurba_marseille","lat":43.25504,"lon":5.3765,"is_reserved":false,"is_disabled":false,"rental_uris":{"android":"levelo://app?vid=101270e8-fe03-456d-9430-c0aca8509d09","ios":"levelo://app?vid=101270e8-fe03-456d-9430-c0aca8509d09"},"vehicle_type_id":"4","last_reported":1748286469,"current_range_meters":17600,"station_id":"ce4bhh12rcd13ifvqff0","pricing_plan_id":"cebpf4jnsgd1na2vs0mg"},{"bike_id":"095b1f89-1cd8-47e0-9824-5b873dc9401a","system_id":"levelo_inurba_marseille","lat":43.28,"lon":5.40013,"is_reserved":false,"is_disabled":false,"rental_uris":{"android":"levelo://app?vid=095b1f89-1cd8-47e0-9824-5b873dc9401a","ios":"levelo://app?vid=095b1f89-1cd8-47e0-9824-5b873dc9401a"},"vehicle_type_id":"4","last_reported":1748286469,"current_range_meters":17600,"station_id":"ce4bho92rcd13ifvqh4g","pricing_plan_id":"cebpf4jnsgd1na2vs0mg"},{"bike_id":"ed9e8328-9b0e-4866-bc2d-964362a5c260","system_id":"levelo_inurba_marseille","lat":43.30148,"lon":5.38076,"is_reserved":false,"is_disabled":false,"rental_uris":{"android":"levelo://app?vid=ed9e8328-9b0e-4866-bc2d-964362a5c260","ios":"levelo://app?vid=ed9e8328-9b0e-4866-bc2d-964362a5c260"},