{"last_updated":1761376160,"ttl":60,"version":"2.2","data":{"bikes":[{"bike_id":"ab451abc-88c7-4576-a77c-6789969e9dae","system_id":"levelo_inurba_marseille","lat":43.22925,"lon":5.35386,"is_reserved":false,"is_disabled":false,"rental_uris":{"android":"levelo://app?vid=ab451abc-88c7-4576-a77c-6789969e9dae","ios":"levelo://app?vid=ab451abc-88c7-4576-a77c-6789969e9dae"},"vehicle_type_id":"4","last_reported":1761376161,"current_range_meters":3200,"station_id":"cpo3532slgdg3j2ikp40","pricing_plan_id":"cebpf4jnsgd1na2vs0mg"},{"bike_id":"da1861dd-fba9-4602-8d99-e1c7f4d78b87","system_id":"levelo_inurba_marseille","lat":43.298673,"lon":5.397352,"is_reserved":false,"is_disabled":false,"rental_uris":{"android":"levelo://app?vid=da1861dd-fba9-4602-8d99-e1c7f4d78b87","ios":"levelo://app?vid=da1861dd-fba9-4602-8d99-e1c7f4d78b87"},"vehicle_type_id":"4","last_reported":1761376161,"current_range_meters":3200,"station_id":"ce4bh0h2rcd13ifvqd50","pricing_plan_id":"cebpf4jnsgd1na2vs0mg"},{"bike_id":"4d5267d3-0fb3-4a46-b8bb-7d6dacaada47","system_id":"levelo_inurba_marseille","lat":43.31331,"lon":5.39689,"is_reserved":false,"is_disabled":false,"rental_uris":{"android":"levelo://app?vid=4d5267d3-0fb3-4a46-b8bb-7d6dacaada47","ios":"levelo://app?vid=4d5267d3-0fb3-4a46-b8bb-7d6dacaada47"},"vehicle_type_id":"4","last_reported":1761376161,"current_range_meters":3200,"station_id":"ce4bgvp2rcd13ifvqcu0","pricing_plan_id":"cebpf4jnsgd1na2vs0mg"},{"bike_id":"ed5592f6-738f-424e-b1c7-4090ab91b445","system_id":"levelo_inurba_marseille","lat":43.21187,"lon":5.35091,"is_reserved":false,"is_disabled":false,"rental_uris":{"android":"levelo://app?vid=ed5592f6-738f-424e-b1c7-4090ab91b445","ios":"levelo://app?vid=ed5592f6-738f-424e-b1c7-4090ab91b445"},"vehicle_type_id":"4","last_reported":1761376161,"current_range_meters":3600,"station_id":"st_cvj6sg6p6f1abm77japg","pricing_plan_id":"cebpf4jnsgd1na2vs0mg"},{"bike_id":"1cf570c7-1724-4b95-9963-1b39dfb32ee3","system_id":"levelo_inurba_marseille","lat":43.263765,"lon":5.387529,"is_reserved":false,"is_disabled":false,"rental_uris":{"android":"levelo://app?vid=1cf570c7-1724-4b95-9963-1b39dfb32ee3","ios":"levelo://app?vid=1cf570c7-1724-4b95-9963-1b39dfb32ee3"},"vehicle_type_id":"4","last_reported":1761376161,"current_range_meters":3600,"station_id":"","pricing_plan_id":"cebpf4jnsgd1na2vs0mg"},{"bike_id":"7546f470-e2c9-46ad-b638-733b3092a9dc","system_id":"levelo_inurba_marseille","lat":43.22537,"lon":5.34856,"is_reserved":false,"is_disabled":false,"rental_uris":{"android":"levelo://app?vid=7546f470-e2c9-46ad-b638-733b3092a9dc","ios":"levelo://app?vid=7546f470-e2c9-46ad-b638-733b3092a9dc"},"vehicle_type_id":"4","last_reported":1761376161,"current_range_meters":3600,"station_id":"","pricing_plan_id":"cebpf4jnsgd1na2vs0mg"},{"bike_id":"f7d4a0a7-0ab2-4a1c-b334-8ede8ee7f68d","system_id":"levelo_inurba_marseille","lat":43.2917,"lon":5.37162,"is_reserved":false,"is_disabled":false,"rental_uris":{"android":"levelo://app?vid=f7d4a0a7-0ab2-4a1c-b334-8ede8ee7f68d","ios":"levelo://app?vid=f7d4a0a7-0ab2-4a1c-b334-8ede8ee7f68d"},"vehicle_type_id":"4","last_reported":1761376161,"current_range_meters":3600,"station_id":"ce4bha92rcd13ifvqeh0","pricing_plan_id":"cebpf4jnsgd1na2vs0mg"},{"bike_id":"7a7b5695-8ee4-40ae-9a5d-cb68d504012d","system_id":"levelo_inurba_marseille","lat":43.231457,"lon":5.43717,"is_reserved":false,"is_disabled":false,"rental_uris":{"android":"levelo://app?vid=7a7b5695-8ee4-40ae-9a5d-cb68d504012d","ios":"levelo://app?vid=7a7b5695-8ee4-40ae-9a5d-cb68d504012d"},"vehicle_type_id":"4","last_reported":1761376161,"current_range_meters":4000,"station_id":"ce4bhmp2rcd13ifvqgog","pricing_plan_id":"cebpf4jnsgd1na2vs0mg"},{"bike_id":"439fc728-11a4-4510-abac-a3db1c9498ce","system_id":"levelo_inurba_marseille","lat":43.298515,"lon":5.362835,"is_reserved":false,"is_disabled":false,"rental_uris":{"android":"levelo://app?vid=439fc728-11a4-4510-abac-a3db1c9498ce","ios":"levelo://app?vid=439fc728-11a4-4510-abac-a3db1c9498ce"},"vehicle_type_id":"4","last_reported":1761376161,"current_range_meters":4400,"station_id":"ce4bgpp2rcd13ifvqc3g","pricing_plan_id":"cebpf4jnsgd1na2vs0mg"},{"bike_id":"89bb1f52-648f-42bf-ab38-085cb512383d","system_id":"levelo_inurba_marseille","lat":43.3015,"lon":5.38109,"is_reserved":false,"is_disabled":true,"rental_uris":{"android":"levelo://app?vid=89bb1f52-648f-42bf-ab38-085cb512383d","ios":"levelo://app?vid=89bb1f52-648f-42bf-ab38-085cb512383d"},"vehicle_type_id":"4","last_reported":1761376161,"current_range_meters":4400,"station_id":"ce4bgjp2rcd13ifvqbh0","pricing_plan_id":"cebpf4jnsgd1na2vs0mg"},{"bike_id":"e6d54427-79c0-4cbc-b2dc-aab7281da2a6","system_id":"levelo_inurba_marseille","lat":43.28492,"lon":5.38414,"is_reserved":false,"is_disabled":false,"rental_uris":{"android":"levelo://app?vid=e6d54427-79c0-4cbc-b2dc-aab7281da2a6","ios":"levelo://app?vid=e6d54427-79c0-4cbc-b2dc-aab7281da2a6"},"vehicle_type_id":"4","last_reported":1761376161,"current_range_meters":4800,"station_id":"ce4bh512rcd13ifvqe3g","pricing_plan_id":"cebpf4jnsgd1na2vs0mg"},{"bike_id":"ec9665a2-32ab-42b2-9bdf-cf94d158a9c2","system_id":"levelo_inurba_marseille","lat":43.30118,"lon":5.37088,"is_reserved":false,"is_disabled":false,"rental_uris":{"android":"levelo://app?vid=ec9665a2-32ab-42b2-9bdf-cf94d158a9c2","ios":"levelo://app?vid=ec9665a2-32ab-42b2-9bdf-cf94d158a9c2"},"vehicle_type_id":"4","last_reported":1761376161,"current_range_meters":4800,"station_id":"","pricing_plan_id":"cebpf4jnsgd1na2vs0mg"},{"bike_id":"3e4783b6-28d8-4737-a4ef-6a1b0da02476","system_id":"levelo_inurba_marseille","lat":43.294482,"lon":5.40721,"is_reserved":false,"is_disabled":false,"rental_uris":{"android":"levelo://app?vid=3e4783b6-28d8-4737-a4ef-6a1b0da02476","ios":"levelo://app?vid=3e4783b6-28d8-4737-a4ef-6a1b0da02476"},"vehicle_type_id":"4","last_reported":1761376161,"current_range_meters":5600,"station_id":"","pricing_plan_id":"cebpf4jnsgd1na2vs0mg"},{"bike_id":"75eebb0f-2447-4bf8-b846-45b5b359059b","system_id":"levelo_inurba_marseille","lat":43.33781,"lon":5.37485,"is_reserved":false,"is_disabled":false,"rental_uris":{"android":"levelo://app?vid=75eebb0f-2447-4bf8-b846-45b5b359059b","ios":"levelo://app?vid=75eebb0f-2447-4bf8-b846-45b5b359059b"},"vehicle_type_id":"4","last_reported":1761376161,"current_range_meters":5600,"station_id":"","pricing_plan_id":"cebpf4jnsgd1na2vs0mg"},{"bike_id":"22edc331-bab5-40d8-9c45-d0595c93610e","system_id":"levelo_inurba_marseille","lat":43.30148,"lon":5.38082,"is_reserved":false,"is_disabled":false,"rental_uris":{"android":"levelo://app?vid=22edc331-bab5-40d8-9c45-d0595c93610e","ios":"levelo://app?vid=22edc331-bab5-40d8-9c45-d0595c93610e"},"vehicle_type_id":"4","last_reported":1761376161,"current_range_meters":6000,"station_id":"ce4bgjp2rcd13ifvqbh0","pricing_plan_id":"cebpf4jnsgd1na2vs0mg"},{"bike_id":"0ac2a14e-cebb-44ce-a399-5d0c00a8bbdf","system_id":"levelo_inurba_marseille","lat":43.303015,"lon":5.392215,"is_reserved":false,"is_disabled":false,"rental_uris":{"android":"levelo://app?vid=0ac2a14e-cebb-44ce-a399-5d0c00a8bbdf","ios":"levelo://app?vid=0ac2a14e-cebb-44ce-a399-5d0c00a8bbdf"},"vehicle_type_id":"4","last_reported":1761376161,"current_range_meters":6400,"station_id":"","pricing_plan_id":"cebpf4jnsgd1na2vs0mg"},{"bike_id":"00fd3c6a-780c-49dc-9993-d4de69c9b57a","system_id":"levelo_inurba_marseille","lat":43.31056,"lon":5.37388,"is_reserved":false,"is_disabled":false,"rental_uris":{"android":"levelo://app?vid=00fd3c6a-780c-49dc-9993-d4de69c9b57a","ios":"levelo://app?vid=00fd3c6a-780c-49dc-9993-d4de69c9b57a"},"vehicle_type_id":"4","last_reported":1761376161,"current_range_meters":6400,"station_id":"","pricing_plan_id":"cebpf4jnsgd1na2vs0mg"},{"bike_id":"3bf5a735-28b1-4d8f-bd94-e964a47d4c10","system_id":"levelo_inurba_marseille","lat":43.282214,"lon":5.39068,"is_reserved":false,"is_disabled":false,"rental_uris":{"android":"levelo://app?vid=3bf5a735-28b1-4d8f-bd94-e964a47d4c10","ios":"levelo://app?vid=3bf5a735-28b1-4d8f-bd94-e964a47d4c10"},"vehicle_type_id":"4","last_reported":1761376161,"current_range_meters":6400,"station_id":"ce4bhn92rcd13ifvqgsg","pricing_plan_id":"cebpf4jnsgd1na2vs0mg"},{"bike_id":"323bf2de-3bb4-4b4c-b330-b19ea807dbf5","system_id":"levelo_inurba_marseille","lat":43.32989,"lon":5.42953,"is_reserved":false,"is_disabled":false,"rental_uris":{"android":"levelo://app?vid=323bf2de-3bb4-4b4c-b330-b19ea807dbf5","ios":"levelo://app?vid=323bf2de-3bb4-4b4c-b330-b19ea807dbf5"},"vehicle_type_id":"4","last_reported":1761376161,"current_range_meters":6400,"station_id":"","pricing_plan_id":"cebpf4jnsgd1na2vs0mg"},{"bike_id":"17bd9fff-f8a7-45af-8120-cab272292f42","system_id":"levelo_inurba_marseille","lat":43.284809,"lon":5.483999,"is_reserved":false,"is_disabled":false,"rental_uris":{"android":"levelo://app?vid=17bd9fff-f8a7-45af-8120-cab272292f42","ios":"levelo://app?vid=17bd9fff-f8a7-45af-8120-cab272292f42"},"vehicle_type_id":"4","last_reported":1761376161,"current_range_meters":6400,"station_id":"st_d3svhcjqgbts73a3dn0g","pricing_plan_id":"cebpf4jnsgd1na2vs0mg"},{"bike_id":"9bfed83c-4a67-448a-b6b2-0cdeb6d04c62","system_id":"levelo_inurba_marseille","lat":43.21201,"lon":5.35057,"is_reserved":false,"is_disabled":false,"rental_uris":{"android":"levelo://app?vid=9bfed83c-4a67-448a-b6b2-0cdeb6d04c62","ios":"levelo://app?vid=9bfed83c-4a67-448a-b6b2-0cdeb6d04c62"},"vehicle_type_id":"4","last_reported":1761376161,"current_range_meters":6800,"station_id":"st_cvj6sg6p6f1abm77japg","pricing_plan_id":"cebpf4jnsgd1na2vs0mg"},{"bike_id":"125aaab3-17f9-406a-a3d2-673388c14ebd","system_id":"levelo_inurba_marseille","lat":43.30247,"lon":5.40057,"is_reserved":false,"is_disabled":false,"rental_uris":{"android":"levelo://app?vid=125aaab3-17f9-406a-a3d2-673388c14ebd","ios":"levelo://app?vid=125aaab3-17f9-406a-a3d2-673388c14ebd"},"vehicle_type_id":"4","last_reported":1761376161,"current_range_meters":6800,"station_id":"ce4bgvh2rcd13ifvqcs0","pricing_plan_id":"cebpf4jnsgd1na2vs0mg"},{"bike_id":"60ee768e-a80f-4185-bb91-1d0a89831466","system_id":"levelo_inurba_marseille","lat":43.27056,"lon":5.38291,"is_reserved":false,"is_disabled":false,"rental_uris":{"android":"levelo://app?vid=60ee768e-a80f-4185-bb91-1d0a89831466","ios":"levelo://app?vid=60ee768e-a80f-4185-bb91-1d0a89831466"},"vehicle_type_id":"4","last_reported":1761376161,"current_range_meters":6800,"station_id":"st_d3n2fo6cfp8s73cte1j0","pricing_plan_id":"cebpf4jnsgd1na2vs0mg"},{"bike_id":"a763322a-34e0-4e4a-abb0-0561413fbf77","system_id":"levelo_inurba_marseille","lat":43.25073,"lon":5.39518,"is_reserved":false,"is_disabled":false,"rental_uris":{"android":"levelo://app?vid=a763322a-34e0-4e4a-abb0-0561413fbf77","ios":"levelo://app?vid=a763322a-34e0-4e4a-abb0-0561413fbf77"},"vehicle_type_id":"4","last_reported":1761376161,"current_range_meters":7200,"station_id":"ce4bhm12rcd13ifvqgkg","pricing_plan_id":"cebpf4jnsgd1na2vs0mg"},{"bike_id":"bf52d227-e2e6-4e46-bfde-44cbb96d7d45","system_id":"levelo_inurba_marseille","lat":43.21184,"lon":5.35072,"is_reserved":false,"is_disabled":false,"rental_uris":{"android":"levelo://app?vid=bf52d227-e2e6-4e46-bfde-44cbb96d7d45","ios":"levelo://app?vid=bf52d227-e2e6-4e46-bfde-44cbb96d7d45"},"vehicle_type_id":"4","last_reported":1761376161,"current_range_meters":7200,"station_id":"st_cvj6sg6p6f1abm77japg","pricing_plan_id":"cebpf4jnsgd1na2vs0mg"},{"bike_id":"a76db62c-c861-425f-a8f6-d7aca5f80ba1","system_id":"levelo_inurba_marseille","lat":43.288522,"lon":5.358496,"is_reserved":false,"is_disabled":false,"rental_uris":{"android":"levelo://app?vid=a76db62c-c861-425f-a8f6-d7aca5f80ba1","ios":"levelo://app?vid=a76db62c-c861-425f-a8f6-d7aca5f80ba1"},"vehicle_type_id":"4","last_reported":1761376161,"current_range_meters":8000,"station_id":"ce4bhb12rcd13ifvqem0","pricing_plan_id":"cebpf4jnsgd1na2vs0mg"},{"bike_id":"bda0b0e2-dc52-45b2-a051-652b9e996651","system_id":"levelo_inurba_marseille","lat":43.30417,"lon":5.39752,"is_reserved":false,"is_disabled":true,"rental_uris":{"android":"levelo://app?vid=bda0b0e2-dc52-45b2-a051-652b9e996651","ios":"levelo://app?vid=bda0b0e2-dc52-45b2-a051-652b9e996651"},"vehicle_type_id":"4","last_reported":1761376161,"current_range_meters":8000,"station_id":"ce4bh092rcd13ifvqd20","pricing_plan_id":"cebpf4jnsgd1na2vs0mg"},{"bike_id":"d975aed4-7f3f-4a52-b26e-c170167e5b17","system_id":"levelo_inurba_marseille","lat":43.27289,"lon":5.39113,"is_reserved":false,"is_disabled":false,"rental_uris":{"android":"levelo://app?vid=d975aed4-7f3f-4a52-b26e-c170167e5b17","ios":"levelo://app?vid=d975aed4-7f3f-4a52-b26e-c170167e5b17"},"vehicle_type_id":"4","last_reported":1761376161,"current_range_meters":8000,"station_id":"ce4bhgp2rcd13ifvqfe0","pricing_plan_id":"cebpf4jnsgd1na2vs0mg"},{"bike_id":"b9764ed2-f91a-421e-b54e-d7527bd8af22","system_id":"levelo_inurba_marseille","lat":43.29811,"lon":5.36588,"is_reserved":false,"is_disabled":false,"rental_uris":{"android":"levelo://app?vid=b9764ed2-f91a-421e-b54e-d7527bd8af22","ios":"levelo://app?vid=b9764ed2-f91a-421e-b54e-d7527bd8af22"},"vehicle_type_id":"4","last_reported":1761376161,"current_range_meters":8000,"station_id":"","pricing_plan_id":"cebpf4jnsgd1na2vs0mg"},{"bike_id":"8bcacd78-80de-4026-af75-b37ebe3030fe","system_id":"levelo_inurba_marseille","lat":43.334756,"lon":5.404255,"is_reserved":false,"is_disabled":false,"rental_uris":{"android":"levelo://app?vid=8bcacd78-80de-4026-af75-b37ebe3030fe","ios":"levelo://app?vid=8bcacd78-80de-4026-af75-b37ebe3030fe"},"vehicle_type_id":"4","last_reported":1761376161,"current_range_meters":8000,"station_id":"","pricing_plan_id":"cebpf4jnsgd1na2vs0mg"},{"bike_id":"775dccad-261d-474c-a693-df999f60a284","system_id":"levelo_inurba_marseille","lat":43.292526,"lon":5.409027,"is_reserved":false,"is_disabled":false,"rental_uris":{"android":"levelo://app?vid=775dccad-261d-474c-a693-df999f60a284","ios":"levelo://app?vid=775dccad-261d-474c-a693-df999f60a284"},"vehicle_type_id":"4","last_reported":1761376161,"current_range_meters":8400,"station_id":"ce4bh192rcd13ifvqdc0","pricing_plan_id":"cebpf4jnsgd1na2vs0mg"},{"bike_id":"2842f5fd-7b05-4b47-909c-5ee54d7d3bc5","system_id":"levelo_inurba_marseille","lat":43.32466,"lon":5.42832,"is_reserved":false,"is_disabled":false,"rental_uris":{"android":"levelo://app?vid=2842f5fd-7b05-4b47-909c-5ee54d7d3bc5","ios":"levelo://app?vid=2842f5fd-7b05-4b47-909c-5ee54d7d3bc5"},"vehicle_type_id":"4","last_reported":1761376161,"current_range_meters":8400,"station_id":"","pricing_plan_id":"cebpf4jnsgd1na2vs0mg"},{"bike_id":"9881c788-42a8-46f5-8ccc-580a73583155","system_id":"levelo_inurba_marseille","lat":43.32075,"lon":5.40901,"is_reserved":false,"is_disabled":false,"rental_uris":{"android":"levelo://app?vid=9881c788-42a8-46f5-8ccc-580a73583155","ios":"levelo://app?vid=9881c788-42a8-46f5-8ccc-580a73583155"},"vehicle_type_id":"4","last_reported":1761376161,"current_range_meters":8400,"station_id":"","pricing_plan_id":"cebpf4jnsgd1na2vs0mg"},{"bike_id":"d6f3fead-56c5-4eef-8b9f-2a96494ed0c3","system_id":"levelo_inurba_marseille","lat":43.24566,"lon":5.39529,"is_reserved":false,"is_disabled":false,"rental_uris":{"android":"levelo://app?vid=d6f3fead-56c5-4eef-8b9f-2a96494ed0c3","ios":"levelo://app?vid=d6f3fead-56c5-4eef-8b9f-2a96494ed0c3"},"vehicle_type_id":"4","last_reported":1761376161,"current_range_meters":8800,"station_id":"ce4bhlp2rcd13ifvqgjg","pricing_plan_id":"cebpf4jnsgd1na2vs0mg"},{"bike_id":"8d4adca4-750d-443e-9c59-453dc72944f8","system_id":"levelo_inurba_marseille","lat":43.29319,"lon":5.37194,"is_reserved":false,"is_disabled":false,"rental_uris":{"android":"levelo://app?vid=8d4adca4-750d-443e-9c59-453dc72944f8","ios":"levelo://app?vid=8d4adca4-750d-443e-9c59-453dc72944f8"},"vehicle_type_id":"4","last_reported":1761376161,"current_range_meters":8800,"station_id":"ce4bgh92rcd13ifvqb40","pricing_plan_id":"cebpf4jnsgd1na2vs0mg"},{"bike_id":"c91491a6-50b3-4a5f-8e6b-63afb7874f1f","system_id":"levelo_inurba_marseille","lat":43.28033,"lon":5.36926,"is_reserved":false,"is_disabled":false,"rental_uris":{"android":"levelo://app?vid=c91491a6-50b3-4a5f-8e6b-63afb7874f1f","ios":"levelo://app?vid=c91491a6-50b3-4a5f-8e6b-63afb7874f1f"},"vehicle_type_id":"4","last_reported":1761376161,"current_range_meters":9200,"station_id":"ce4bha12rcd13ifvqef0","pricing_plan_id":"cebpf4jnsgd1na2vs0mg"},{"bike_id":"2ea49922-2074-4613-aa64-a997e98a287e","system_id":"levelo_inurba_marseille","lat":43.307307,"lon":5.424362,"is_reserved":false,"is_disabled":false,"rental_uris":{"android":"levelo://app?vid=2ea49922-2074-4613-aa64-a997e98a287e","ios":"levelo://app?vid=2ea49922-2074-4613-aa64-a997e98a287e"},"vehicle_type_id":"4","last_reported":1761376161,"current_range_meters":9200,"station_id":"st_cvj6ca6bvosntc0bfgr0","pricing_plan_id":"cebpf4jnsgd1na2vs0mg"},{"bike_id":"db94d1e3-d6ad-4bc0-b456-0d49f128a641","system_id":"levelo_inurba_marseille","lat":43.30211,"lon":5.37084,"is_reserved":false,"is_disabled":false,"rental_uris":{"android":"levelo://app?vid=db94d1e3-d6ad-4bc0-b456-0d49f128a641","ios":"levelo://app?vid=db94d1e3-d6ad-4bc0-b456-0d49f128a641"},"vehicle_type_id":"4","last_reported":1761376161,"current_range_meters":9200,"station_id":"","pricing_plan_id":"cebpf4jnsgd1na2vs0mg"},{"bike_id":"e35e1247-2ec0-4206-a360-6aaa534a130f","system_id":"levelo_inurba_marseille","lat":43.284798,"lon":5.483879,"is_reserved":false,"is_disabled":false,"rental_uris":{"android":"levelo://app?vid=e35e1247-2ec0-4206-a360-6aaa534a130f","ios":"levelo://app?vid=e35e1247-2ec0-4206-a360-6aaa534a130f"},"vehicle_type_id":"4","last_reported":1761376161,"current_range_meters":9200,"station_id":"st_d3svhcjqgbts73a3dn0g","pricing_plan_id":"cebpf4jnsgd1na2vs0mg"},{"bike_id":"703a42a4-401c-4f14-91da-be447fbb6e06","system_id":"levelo_inurba_marseille","lat":43.301578,"lon":5.380724,"is_reserved":false,"is_disabled":false,"rental_uris":{"android":"levelo://app?vid=703a42a4-401c-4f14-91da-be447fbb6e06","ios":"levelo://app?vid=703a42a4-401c-4f14-91da-be447fbb6e06"},"vehicle_type_id":"4","last_reported":1761376161,"current_range_meters":9200,"station_id":"ce4bgjp2rcd13ifvqbh0","pricing_plan_id":"cebpf4jnsgd1na2vs0mg"},{"bike_id":"5f9debc0-c360-4a2e-b517-592e9a0c2818","system_id":"levelo_inurba_marseille","lat":43.32951,"lon":5.4278,"is_reserved":false,"is_disabled":false,"rental_uris":{"android":"levelo://app?vid=5f9debc0-c360-4a2e-b517-592e9a0c2818","ios":"levelo://app?vid=5f9debc0-c360-4a2e-b517-592e9a0c2818"},"vehicle_type_id":"4","last_reported":1761376161,"current_range_meters":9600,"station_id":"","pricing_plan_id":"cebpf4jnsgd1na2vs0mg"},{"bike_id":"408e1aa4-ba69-4988-8857-9cb927f6b99f","system_id":"levelo_inurba_marseille","lat":43.24145,"lon":5.39732,"is_reserved":false,"is_disabled":false,"rental_uris":{"android":"levelo://app?vid=408e1aa4-ba69-4988-8857-9cb927f6b99f","ios":"levelo://app?vid=408e1aa4-ba69-4988-8857-9cb927f6b99f"},"vehicle_type_id":"4","last_reported":1761376161,"current_range_meters":9600,"station_id":"ce4bhn12rcd13ifvqgpg","pricing_plan_id":"cebpf4jnsgd1na2vs0mg"},{"bike_id":"8db996a9-a123-4ae0-bf2e-1c6a4eded6ba","system_id":"levelo_inurba_marseille","lat":43.265739,"lon":5.390152,"is_reserved":false,"is_disabled":false,"rental_uris":{"android":"levelo://app?vid=8db996a9-a123-4ae0-bf2e-1c6a4eded6ba","ios":"levelo://app?vid=8db996a9-a123-4ae0-bf2e-1c6a4eded6ba"},"vehicle_type_id":"4","last_reported":1761376161,"current_range_meters":10000,"station_id":"ce4bhe12rcd13ifvqf30","pricing_plan_id":"cebpf4jnsgd1na2vs0mg"},{"bike_id":"9f5c956e-6fb9-4327-b965-b9c59c52aef2","system_id":"levelo_inurba_marseille","lat":43.302562,"lon":5.400575,"is_reserved":false,"is_disabled":false,"rental_uris":{"android":"levelo://app?vid=9f5c956e-6fb9-4327-b965-b9c59c52aef2","ios":"levelo://app?vid=9f5c956e-6fb9-4327-b965-b9c59c52aef2"},"vehicle_type_id":"4","last_reported":1761376161,"current_range_meters":10000,"station_id":"ce4bgvh2rcd13ifvqcs0","pricing_plan_id":"cebpf4jnsgd1na2vs0mg"},{"bike_id":"20ed8898-129d-47a9-8640-6e442dec20cd","system_id":"levelo_inurba_marseille","lat":43.284176,"lon":5.375091,"is_reserved":false,"is_disabled":false,"rental_uris":{"android":"levelo://app?vid=20ed8898-129d-47a9-8640-6e442dec20cd","ios":"levelo://app?vid=20ed8898-129d-47a9-8640-6e442dec20cd"},"vehicle_type_id":"4","last_reported":1761376161,"current_range_meters":10000,"station_id":"ce4bh412rcd13ifvqds0","pricing_plan_id":"cebpf4jnsgd1na2vs0mg"},{"bike_id":"6b307c52-f33b-4885-85a6-9bac6592bb3d","system_id":"levelo_inurba_marseille","lat":43.21172,"lon":5.35087,"is_reserved":false,"is_disabled":false,"rental_uris":{"android":"levelo://app?vid=6b307c52-f33b-4885-85a6-9bac6592bb3d","ios":"levelo://app?vid=6b307c52-f33b-4885-85a6-9bac6592bb3d"},"vehicle_type_id":"4","last_reported":1761376161,"current_range_meters":10000,"station_id":"st_cvj6sg6p6f1abm77japg","pricing_plan_id":"cebpf4jnsgd1na2vs0mg"},{"bike_id":"73019415-679c-46df-bd2d-1b42534d9724","system_id":"levelo_inurba_marseille","lat":43.264221,"lon":5.373764,"is_reserved":false,"is_disabled":false,"rental_uris":{"android":"levelo://app?vid=73019415-679c-46df-bd2d-1b42534d9724","ios":"levelo://app?vid=73019415-679c-46df-bd2d-1b42534d9724"},"vehicle_type_id":"4","last_reported":1761376161,"current_range_meters":10000,"station_id":"","pricing_plan_id":"cebpf4jnsgd1na2vs0mg"},{"bike_id":"32ce9492-4637-4d6e-a292-cd351db28377","system_id":"levelo_inurba_marseille","lat":43.31106,"lon":5.37037,"is_reserved":false,"is_disabled":false,"rental_uris":{"android":"levelo://app?vid=32ce9492-4637-4d6e-a292-cd351db28377","ios":"levelo://app?vid=32ce9492-4637-4d6e-a292-cd351db28377"},"vehicle_type_id":"4","last_reported":1761376161,"current_range_meters":10800,"station_id":"","pricing_plan_id":"cebpf4jnsgd1na2vs0mg"},{"bike_id":"25b77d4a-c657-4f7c-be8c-daf6c7bed861","system_id":"levelo_inurba_marseille","lat":43.287,"lon":5.373821,"is_reserved":false,"is_disabled":false,"rental_uris":{"android":"levelo://app?vid=25b77d4a-c657-4f7c-be8c-daf6c7bed861","ios":"levelo://app?vid=25b77d4a-c657-4f7c-be8c-daf6c7bed861"},"vehicle_type_id":"4","last_reported":1761376161,"current_range_meters":10800,"station_id":"ce4bh3p2rcd13ifvqdq0","pricing_plan_id":"cebpf4jnsgd1na2vs0mg"},{"bike_id":"5a753e64-b9ab-4258-baac-3e5dbb098814","system_id":"levelo_inurba_marseille","lat":43.26939,"lon":5.38647,"is_reserved":false,"is_disabled":false,"rental_uris":{"android":"levelo://app?vid=5a753e64-b9ab-4258-baac-3e5dbb098814","ios":"levelo://app?vid=5a753e64-b9ab-4258-baac-3e5dbb098814"},"vehicle_type_id":"4","last_reported":1761376161,"current_range_meters":10800,"station_id":"ce4bhh92rcd13ifvqfh0","pricing_plan_id":"cebpf4jnsgd1na2vs0mg"},{"bike_id":"ad50cdc6-14ac-4ee0-8fca-5cde66c278a9","system_id":"levelo_inurba_marseille","lat":43.24075,"lon":5.377641,"is_reserved":false,"is_disabled":false,"rental_uris":{"android":"levelo://app?vid=ad50cdc6-14ac-4ee0-8fca-5cde66c278a9","ios":"levelo://app?vid=ad50cdc6-14ac-4ee0-8fca-5cde66c278a9"},"vehicle_type_id":"4","last_reported":1761376161,"current_range_meters":10800,"station_id":"ce4bhnp2rcd13ifvqgvg","pricing_plan_id":"cebpf4jnsgd1na2vs0mg"},{"bike_id":"a11dedbb-3b3a-4b61-b8c7-440069f095e5","system_id":"levelo_inurba_marseille","lat":43.24387,"lon":5.37069,"is_reserved":false,"is_disabled":true,"rental_uris":{"android":"levelo://app?vid=a11dedbb-3b3a-4b61-b8c7-440069f095e5","ios":"levelo://app?vid=a11dedbb-3b3a-4b61-b8c7-440069f095e5"},"vehicle_type_id":"4","last_reported":1761376161,"current_range_meters":10800,"station_id":"ce4bhhh2rcd13ifvqfk0","pricing_plan_id":"cebpf4jnsgd1na2vs0mg"},{"bike_id":"6398fd05-47e5-41f8-95bf-116d17d1d757","system_id":"levelo_inurba_marseille","lat":43.292603,"lon":5.384447,"is_reserved":false,"is_disabled":false,"rental_uris":{"android":"levelo://app?vid=6398fd05-47e5-41f8-95bf-116d17d1d757","ios":"levelo://app?vid=6398fd05-47e5-41f8-95bf-116d17d1d757"},"vehicle_type_id":"4","last_reported":1761376161,"current_range_meters":11200,"station_id":"","pricing_plan_id":"cebpf4jnsgd1na2vs0mg"},{"bike_id":"4f5c5045-2f2c-4ab7-ad8b-eeba1d52fe66","system_id":"levelo_inurba_marseille","lat":43.31072,"lon":5.37436,"is_reserved":false,"is_disabled":false,"rental_uris":{"android":"levelo://app?vid=4f5c5045-2f2c-4ab7-ad8b-eeba1d52fe66","ios":"levelo://app?vid=4f5c5045-2f2c-4ab7-ad8b-eeba1d52fe66"},"vehicle_type_id":"4","last_reported":1761376161,"current_range_meters":11200,"station_id":"","pricing_plan_id":"cebpf4jnsgd1na2vs0mg"},{"bike_id":"7500a3dd-b234-4be4-9528-263d9ac5fbb0","system_id":"levelo_inurba_marseille","lat":43.272,"lon":5.39198,"is_reserved":false,"is_disabled":false,"rental_uris":{"android":"levelo://app?vid=7500a3dd-b234-4be4-9528-263d9ac5fbb0","ios":"levelo://app?vid=7500a3dd-b234-4be4-9528-263d9ac5fbb0"},"vehicle_type_id":"4","last_reported":1761376161,"current_range_meters":11200,"station_id":"ce4bhhp2rcd13ifvqfm0","pricing_plan_id":"cebpf4jnsgd1na2vs0mg"},{"bike_id":"e94f57f2-601c-4cad-a187-6e953770aa25","system_id":"levelo_inurba_marseille","lat":43.31169,"lon":5.37902,"is_reserved":false,"is_disabled":false,"rental_uris":{"android":"levelo://app?vid=e94f57f2-601c-4cad-a187-6e953770aa25","ios":"levelo://app?vid=e94f57f2-601c-4cad-a187-6e953770aa25"},"vehicle_type_id":"4","last_reported":1761376161,"current_range_meters":11200,"station_id":"","pricing_plan_id":"cebpf4jnsgd1na2vs0mg"},{"bike_id":"db538fcf-3842-41b6-a98e-d8b4a6da20a0","system_id":"levelo_inurba_marseille","lat":43.28053,"lon":5.36932,"is_reserved":false,"is_disabled":false,"rental_uris":{"android":"levelo://app?vid=db538fcf-3842-41b6-a98e-d8b4a6da20a0","ios":"levelo://app?vid=db538fcf-3842-41b6-a98e-d8b4a6da20a0"},"vehicle_type_id":"4","last_reported":1761376161,"current_range_meters":11600,"station_id":"ce4bha12rcd13ifvqef0","pricing_plan_id":"cebpf4jnsgd1na2vs0mg"},{"bike_id":"fb7b5adf-91f4-4a05-ace2-e594ea9c65a7","system_id":"levelo_inurba_marseille","lat":43.28676,"lon":5.37205,"is_reserved":false,"is_disabled":false,"rental_uris":{"android":"levelo://app?vid=fb7b5adf-91f4-4a05-ace2-e594ea9c65a7","ios":"levelo://app?vid=fb7b5adf-91f4-4a05-ace2-e594ea9c65a7"},"vehicle_type_id":"4","last_reported":1761376161,"current_range_meters":11600,"station_id":"ce4bh3p2rcd13ifvqdq0","pricing_plan_id":"cebpf4jnsgd1na2vs0mg"},{"bike_id":"0e775326-9424-4509-b821-67d859cd7b25","system_id":"levelo_inurba_marseille","lat":43.26022,"lon":5.37548,"is_reserved":false,"is_disabled":false,"rental_uris":{"android":"levelo://app?vid=0e775326-9424-4509-b821-67d859cd7b25","ios":"levelo://app?vid=0e775326-9424-4509-b821-67d859cd7b25"},"vehicle_type_id":"4","last_reported":1761376161,"current_range_meters":11600,"station_id":"ce4bhgh2rcd13ifvqfa0","pricing_plan_id":"cebpf4jnsgd1na2vs0mg"},{"bike_id":"fd056f45-cb13-4448-88a4-8b75b326a45e","system_id":"levelo_inurba_marseille","lat":43.28724,"lon":5.37361,"is_reserved":false,"is_disabled":false,"rental_uris":{"android":"levelo://app?vid=fd056f45-cb13-4448-88a4-8b75b326a45e","ios":"levelo://app?vid=fd056f45-cb13-4448-88a4-8b75b326a45e"},"vehicle_type_id":"4","last_reported":1761376161,"current_range_meters":11600,"station_id":"ce4bh3p2rcd13ifvqdq0","pricing_plan_id":"cebpf4jnsgd1na2vs0mg"},{"bike_id":"69599b97-b573-4868-ae16-9bda40c9248f","system_id":"levelo_inurba_marseille","lat":43.21188,"lon":5.35097,"is_reserved":false,"is_disabled":false,"rental_uris":{"android":"levelo://app?vid=69599b97-b573-4868-ae16-9bda40c9248f","ios":"levelo://app?vid=69599b97-b573-4868-ae16-9bda40c9248f"},"vehicle_type_id":"4","last_reported":1761376161,"current_range_meters":12000,"station_id":"st_cvj6sg6p6f1abm77japg","pricing_plan_id":"cebpf4jnsgd1na2vs0mg"},{"bike_id":"9aedbe0c-258f-4102-92b8-57be50b3e5c7","system_id":"levelo_inurba_marseille","lat":43.30311,"lon":5.3689,"is_reserved":false,"is_disabled":false,"rental_uris":{"android":"levelo://app?vid=9aedbe0c-258f-4102-92b8-57be50b3e5c7","ios":"levelo://app?vid=9aedbe0c-258f-4102-92b8-57be50b3e5c7"},"vehicle_type_id":"4","last_reported":1761376161,"current_range_meters":12000,"station_id":"ce4bgqh2rcd13ifvqc5g","pricing_plan_id":"cebpf4jnsgd1na2vs0mg"},{"bike_id":"a7f11d08-358d-4175-ae4c-11718eec7509","system_id":"levelo_inurba_marseille","lat":43.24386,"lon":5.37053,"is_reserved":false,"is_disabled":true,"rental_uris":{"android":"levelo://app?vid=a7f11d08-358d-4175-ae4c-11718eec7509","ios":"levelo://app?vid=a7f11d08-358d-4175-ae4c-11718eec7509"},"vehicle_type_id":"4","last_reported":1761376161,"current_range_meters":12800,"station_id":"ce4bhhh2rcd13ifvqfk0","pricing_plan_id":"cebpf4jnsgd1na2vs0mg"},{"bike_id":"5c0e1fad-1092-45f4-930f-73335d46d836","system_id":"levelo_inurba_marseille","lat":43.29772,"lon":5.38072,"is_reserved":false,"is_disabled":true,"rental_uris":{"android":"levelo://app?vid=5c0e1fad-1092-45f4-930f-73335d46d836","ios":"levelo://app?vid=5c0e1fad-1092-45f4-930f-73335d46d836"},"vehicle_type_id":"4","last_reported":1761376161,"current_range_meters":12800,"station_id":"ce4bgip2rcd13ifvqbb0","pricing_plan_id":"cebpf4jnsgd1na2vs0mg"},{"bike_id":"6861ce85-77a9-4d2e-a905-a525940c7a22","system_id":"levelo_inurba_marseille","lat":43.24672,"lon":5.38151,"is_reserved":false,"is_disabled":false,"rental_uris":{"android":"levelo://app?vid=6861ce85-77a9-4d2e-a905-a525940c7a22","ios":"levelo://app?vid=6861ce85-77a9-4d2e-a905-a525940c7a22"},"vehicle_type_id":"4","last_reported":1761376161,"current_range_meters":12800,"station_id":"ce4bhih2rcd13ifvqfr0","pricing_plan_id":"cebpf4jnsgd1na2vs0mg"},{"bike_id":"81b94419-83df-4ae7-90f3-9dcb9f3cf82e","system_id":"levelo_inurba_marseille","lat":43.28845,"lon":5.35835,"is_reserved":false,"is_disabled":false,"rental_uris":{"android":"levelo://app?vid=81b94419-83df-4ae7-90f3-9dcb9f3cf82e","ios":"levelo://app?vid=81b94419-83df-4ae7-90f3-9dcb9f3cf82e"},"vehicle_type_id":"4","last_reported":1761376161,"current_range_meters":12800,"station_id":"ce4bhb12rcd13ifvqem0","pricing_plan_id":"cebpf4jnsgd1na2vs0mg"},{"bike_id":"9d964ec4-c537-4f1d-b21c-451d3f46b1bf","system_id":"levelo_inurba_marseille","lat":43.299058,"lon":5.378456,"is_reserved":false,"is_disabled":false,"rental_uris":{"android":"levelo://app?vid=9d964ec4-c537-4f1d-b21c-451d3f46b1bf","ios":"levelo://app?vid=9d964ec4-c537-4f1d-b21c-451d3f46b1bf"},"vehicle_type_id":"4","last_reported":1761376161,"current_range_meters":12800,"station_id":"","pricing_plan_id":"cebpf4jnsgd1na2vs0mg"},{"bike_id":"8bb9b9b2-ef61-4380-9454-94dba01fa5e4","system_id":"levelo_inurba_marseille","lat":43.30128,"lon":5.3877,"is_reserved":false,"is_disabled":false,"rental_uris":{"android":"levelo://app?vid=8bb9b9b2-ef61-4380-9454-94dba01fa5e4","ios":"levelo://app?vid=8bb9b9b2-ef61-4380-9454-94dba01fa5e4"},"vehicle_type_id":"4","last_reported":1761376161,"current_range_meters":13600,"station_id":"ce4bghh2rcd13ifvqb60","pricing_plan_id":"cebpf4jnsgd1na2vs0mg"},{"bike_id":"72595d14-8f84-4de5-a9ab-f8151c131960","system_id":"levelo_inurba_marseille","lat":43.229265,"lon":5.353743,"is_reserved":false,"is_disabled":false,"rental_uris":{"android":"levelo://app?vid=72595d14-8f84-4de5-a9ab-f8151c131960","ios":"levelo://app?vid=72595d14-8f84-4de5-a9ab-f8151c131960"},"vehicle_type_id":"4","last_reported":1761376161,"current_range_meters":13600,"station_id":"cpo3532slgdg3j2ikp40","pricing_plan_id":"cebpf4jnsgd1na2vs0mg"},{"bike_id":"8be6a47c-9542-4fed-8109-f6d91a0f2b3f","system_id":"levelo_inurba_marseille","lat":43.29174,"lon":5.37161,"is_reserved":false,"is_disabled":false,"rental_uris":{"android":"levelo://app?vid=8be6a47c-9542-4fed-8109-f6d91a0f2b3f","ios":"levelo://app?vid=8be6a47c-9542-4fed-8109-f6d91a0f2b3f"},"vehicle_type_id":"4","last_reported":1761376161,"current_range_meters":13600,"station_id":"ce4bha92rcd13ifvqeh0","pricing_plan_id":"cebpf4jnsgd1na2vs0mg"},{"bike_id":"1cdd8bc9-f9e0-4ba2-9866-1e5022ad2214","system_id":"levelo_inurba_marseille","lat":43.297073,"lon":5.37699,"is_reserved":false,"is_disabled":false,"rental_uris":{"android":"levelo://app?vid=1cdd8bc9-f9e0-4ba2-9866-1e5022ad2214","ios":"levelo://app?vid=1cdd8bc9-f9e0-4ba2-9866-1e5022ad2214"},"vehicle_type_id":"4","last_reported":1761376161,"current_range_meters":13600,"station_id":"ce4bgkh2rcd13ifvqbl0","pricing_plan_id":"cebpf4jnsgd1na2vs0mg"},{"bike_id":"485e1ddb-2fb3-4abf-bebc-4706d14f7355","system_id":"levelo_inurba_marseille","lat":43.24649,"lon":5.38886,"is_reserved":false,"is_disabled":true,"rental_uris":{"android":"levelo://app?vid=485e1ddb-2fb3-4abf-bebc-4706d14f7355","ios":"levelo://app?vid=485e1ddb-2fb3-4abf-bebc-4706d14f7355"},"vehicle_type_id":"4","last_reported":1761376161,"current_range_meters":14000,"station_id":"ce4bhg12rcd13ifvqf60","pricing_plan_id":"cebpf4jnsgd1na2vs0mg"},{"bike_id":"cd510e37-9078-40a8-91e5-9a2c8d62ac8a","system_id":"levelo_inurba_marseille","lat":43.29018,"lon":5.38597,"is_reserved":false,"is_disabled":true,"rental_uris":{"android":"levelo://app?vid=cd510e37-9078-40a8-91e5-9a2c8d62ac8a","ios":"levelo://app?vid=cd510e37-9078-40a8-91e5-9a2c8d62ac8a"},"vehicle_type_id":"4","last_reported":1761376161,"current_range_meters":14000,"station_id":"ce4bh4p2rcd13ifvqe0g","pricing_plan_id":"cebpf4jnsgd1na2vs0mg"},{"bike_id":"fef40594-8de0-44aa-a3c1-2116955da244","system_id":"levelo_inurba_marseille","lat":43.2618,"lon":5.41695,"is_reserved":false,"is_disabled":false,"rental_uris":{"android":"levelo://app?vid=fef40594-8de0-44aa-a3c1-2116955da244","ios":"levelo://app?vid=fef40594-8de0-44aa-a3c1-2116955da244"},"vehicle_type_id":"4","last_reported":1761376161,"current_range_meters":14000,"station_id":"","pricing_plan_id":"cebpf4jnsgd1na2vs0mg"},{"bike_id":"a2b7b42c-99ef-4248-b343-c83b4ee2ce18","system_id":"levelo_inurba_marseille","lat":43.32471,"lon":5.3659,"is_reserved":false,"is_disabled":false,"rental_uris":{"android":"levelo://app?vid=a2b7b42c-99ef-4248-b343-c83b4ee2ce18","ios":"levelo://app?vid=a2b7b42c-99ef-4248-b343-c83b4ee2ce18"},"vehicle_type_id":"4","last_reported":1761376161,"current_range_meters":14000,"station_id":"ce4bhs12rcd13ifvqhvg","pricing_plan_id":"cebpf4jnsgd1na2vs0mg"},{"bike_id":"e0d0a98f-800c-47e4-8fdb-4430b581fafc","system_id":"levelo_inurba_marseille","lat":43.30158,"lon":5.38085,"is_reserved":false,"is_disabled":false,"rental_uris":{"android":"levelo://app?vid=e0d0a98f-800c-47e4-8fdb-4430b581fafc","ios":"levelo://app?vid=e0d0a98f-800c-47e4-8fdb-4430b581fafc"},"vehicle_type_id":"4","last_reported":1761376161,"current_range_meters":14000,"station_id":"ce4bgjp2rcd13ifvqbh0","pricing_plan_id":"cebpf4jnsgd1na2vs0mg"},{"bike_id":"e1d05531-bc5b-42c2-b668-1c49ad26d333","system_id":"levelo_inurba_marseille","lat":43.33769,"lon":5.37426,"is_reserved":false,"is_disabled":false,"rental_uris":{"android":"levelo://app?vid=e1d05531-bc5b-42c2-b668-1c49ad26d333","ios":"levelo://app?vid=e1d05531-bc5b-42c2-b668-1c49ad26d333"},"vehicle_type_id":"4","last_reported":1761376161,"current_range_meters":14400,"station_id":"","pricing_plan_id":"cebpf4jnsgd1na2vs0mg"},{"bike_id":"4f6d245d-0277-4f24-8760-3d192a819e3d","system_id":"levelo_inurba_marseille","lat":43.27226,"lon":5.40968,"is_reserved":false,"is_disabled":false,"rental_uris":{"android":"levelo://app?vid=4f6d245d-0277-4f24-8760-3d192a819e3d","ios":"levelo://app?vid=4f6d245d-0277-4f24-8760-3d192a819e3d"},"vehicle_type_id":"4","last_reported":1761376161,"current_range_meters":14400,"station_id":"ce4bhl12rcd13ifvqgf0","pricing_plan_id":"cebpf4jnsgd1na2vs0mg"},{"bike_id":"75f8a0ca-7b09-4a87-b0ac-4f678de545b5","system_id":"levelo_inurba_marseille","lat":43.30897,"lon":5.37188,"is_reserved":false,"is_disabled":false,"rental_uris":{"android":"levelo://app?vid=75f8a0ca-7b09-4a87-b0ac-4f678de545b5","ios":"levelo://app?vid=75f8a0ca-7b09-4a87-b0ac-4f678de545b5"},"vehicle_type_id":"4","last_reported":1761376161,"current_range_meters":14400,"station_id":"ce4bguh2rcd13ifvqckg","pricing_plan_id":"cebpf4jnsgd1na2vs0mg"},{"bike_id":"9edc84e3-9381-449a-9b63-db9657d4217a","system_id":"levelo_inurba_marseille","lat":43.30236,"lon":5.40055,"is_reserved":false,"is_disabled":false,"rental_uris":{"android":"levelo://app?vid=9edc84e3-9381-449a-9b63-db9657d4217a","ios":"levelo://app?vid=9edc84e3-9381-449a-9b63-db9657d4217a"},"vehicle_type_id":"4","last_reported":1761376161,"current_range_meters":14400,"station_id":"ce4bgvh2rcd13ifvqcs0","pricing_plan_id":"cebpf4jnsgd1na2vs0mg"},{"bike_id":"386a9c87-6707-4c56-9410-3952ef242f20","system_id":"levelo_inurba_marseille","lat":43.24075,"lon":5.3776,"is_reserved":false,"is_disabled":false,"rental_uris":{"android":"levelo://app?vid=386a9c87-6707-4c56-9410-3952ef242f20","ios":"levelo://app?vid=386a9c87-6707-4c56-9410-3952ef242f20"},"vehicle_type_id":"4","last_reported":1761376161,"current_range_meters":14800,"station_id":"ce4bhnp2rcd13ifvqgvg","pricing_plan_id":"cebpf4jnsgd1na2vs0mg"},{"bike_id":"b6559af0-e31e-415b-92a3-0988f7fc43ef","system_id":"levelo_inurba_marseille","lat":43.284141,"lon":5.375172,"is_reserved":false,"is_disabled":true,"rental_uris":{"android":"levelo://app?vid=b6559af0-e31e-415b-92a3-0988f7fc43ef","ios":"levelo://app?vid=b6559af0-e31e-415b-92a3-0988f7fc43ef"},"vehicle_type_id":"4","last_reported":1761376161,"current_range_meters":14800,"station_id":"","pricing_plan_id":"cebpf4jnsgd1na2vs0mg"},{"bike_id":"d4f34596-cd96-4004-af96-068144e0795b","system_id":"levelo_inurba_marseille","lat":43.306831,"lon":5.422326,"is_reserved":false,"is_disabled":false,"rental_uris":{"android":"levelo://app?vid=d4f34596-cd96-4004-af96-068144e0795b","ios":"levelo://app?vid=d4f34596-cd96-4004-af96-068144e0795b"},"vehicle_type_id":"4","last_reported":1761376161,"current_range_meters":14800,"station_id":"","pricing_plan_id":"cebpf4jnsgd1na2vs0mg"},{"bike_id":"86ccf30d-b0d9-4b12-9a3f-af50a6dfc731","system_id":"levelo_inurba_marseille","lat":43.315438,"lon":5.387891,"is_reserved":false,"is_disabled":false,"rental_uris":{"android":"levelo://app?vid=86ccf30d-b0d9-4b12-9a3f-af50a6dfc731","ios":"levelo://app?vid=86ccf30d-b0d9-4b12-9a3f-af50a6dfc731"},"vehicle_type_id":"4","last_reported":1761376161,"current_range_meters":14800,"station_id":"","pricing_plan_id":"cebpf4jnsgd1na2vs0mg"},{"bike_id":"76c00503-65b5-4e88-9b6d-70c827af9cb0","system_id":"levelo_inurba_marseille","lat":43.29259,"lon":5.40866,"is_reserved":false,"is_disabled":false,"rental_uris":{"android":"levelo://app?vid=76c00503-65b5-4e88-9b6d-70c827af9cb0","ios":"levelo://app?vid=76c00503-65b5-4e88-9b6d-70c827af9cb0"},"vehicle_type_id":"4","last_reported":1761376161,"current_range_meters":14800,"station_id":"ce4bh192rcd13ifvqdc0","pricing_plan_id":"cebpf4jnsgd1na2vs0mg"},{"bike_id":"865ad4a2-11e8-481e-bcab-fdc1248184cd","system_id":"levelo_inurba_marseille","lat":43.30906,"lon":5.40164,"is_reserved":false,"is_disabled":false,"rental_uris":{"android":"levelo://app?vid=865ad4a2-11e8-481e-bcab-fdc1248184cd","ios":"levelo://app?vid=865ad4a2-11e8-481e-bcab-fdc1248184cd"},"vehicle_type_id":"4","last_reported":1761376161,"current_range_meters":15200,"station_id":"ce4bgvp2rcd13ifvqct0","pricing_plan_id":"cebpf4jnsgd1na2vs0mg"},{"bike_id":"43117888-69d1-4bc6-a73a-697554e4a08e","system_id":"levelo_inurba_marseille","lat":43.252605,"lon":5.37802,"is_reserved":false,"is_disabled":false,"rental_uris":{"android":"levelo://app?vid=43117888-69d1-4bc6-a73a-697554e4a08e","ios":"levelo://app?vid=43117888-69d1-4bc6-a73a-697554e4a08e"},"vehicle_type_id":"4","last_reported":1761376161,"current_range_meters":15200,"station_id":"","pricing_plan_id":"cebpf4jnsgd1na2vs0mg"},{"bike_id":"bfaea6f8-ccc6-44a7-83a6-9d7d9a7e60cc","system_id":"levelo_inurba_marseille","lat":43.26388,"lon":5.39779,"is_reserved":false,"is_disabled":false,"rental_uris":{"android":"levelo://app?vid=bfaea6f8-ccc6-44a7-83a6-9d7d9a7e60cc","ios":"levelo://app?vid=bfaea6f8-ccc6-44a7-83a6-9d7d9a7e60cc"},"vehicle_type_id":"4","last_reported":1761376161,"current_range_meters":15200,"station_id":"","pricing_plan_id":"cebpf4jnsgd1na2vs0mg"},{"bike_id":"5e51b837-4cd9-49b3-b363-642e818f61a9","system_id":"levelo_inurba_marseille","lat":43.29972,"lon":5.3853,"is_reserved":false,"is_disabled":true,"rental_uris":{"android":"levelo://app?vid=5e51b837-4cd9-49b3-b363-642e818f61a9","ios":"levelo://app?vid=5e51b837-4cd9-49b3-b363-642e818f61a9"},"vehicle_type_id":"4","last_reported":1761376161,"current_range_meters":15200,"station_id":"ce4bgj92rcd13ifvqbd0","pricing_plan_id":"cebpf4jnsgd1na2vs0mg"},{"bike_id":"8e92164c-deff-4fbd-9f4e-43ff81933572","system_id":"levelo_inurba_marseille","lat":43.298351,"lon":5.420127,"is_reserved":false,"is_disabled":false,"rental_uris":{"android":"levelo://app?vid=8e92164c-deff-4fbd-9f4e-43ff81933572","ios":"levelo://app?vid=8e92164c-deff-4fbd-9f4e-43ff81933572"},"vehicle_type_id":"4","last_reported":1761376161,"current_range_meters":15200,"station_id":"","pricing_plan_id":"cebpf4jnsgd1na2vs0mg"},{"bike_id":"fd299768-fe13-44d3-b946-8a9dd46215c3","system_id":"levelo_inurba_marseille","lat":43.245447,"lon":5.39521,"is_reserved":false,"is_disabled":false,"rental_uris":{"android":"levelo://app?vid=fd299768-fe13-44d3-b946-8a9dd46215c3","ios":"levelo://app?vid=fd299768-fe13-44d3-b946-8a9dd46215c3"},"vehicle_type_id":"4","last_reported":1761376161,"current_range_meters":16000,"station_id":"ce4bhlp2rcd13ifvqgjg","pricing_plan_id":"cebpf4jnsgd1na2vs0mg"},{"bike_id":"6acf9db3-111e-42b7-abc7-49b6d014c164","system_id":"levelo_inurba_marseille","lat":43.28426,"lon":5.39185,"is_reserved":false,"is_disabled":false,"rental_uris":{"android":"levelo://app?vid=6acf9db3-111e-42b7-abc7-49b6d014c164","ios":"levelo://app?vid=6acf9db3-111e-42b7-abc7-49b6d014c164"},"vehicle_type_id":"4","last_reported":1761376161,"current_range_meters":16000,"station_id":"ce4bhoh2rcd13ifvqh5g","pricing_plan_id":"cebpf4jnsgd1na2vs0mg"},{"bike_id":"fbe50a91-8778-42f9-a045-27c2c88ac2e7","system_id":"levelo_inurba_marseille","lat":43.29749,"lon":5.42775,"is_reserved":false,"is_disabled":false,"rental_uris":{"android":"levelo://app?vid=fbe50a91-8778-42f9-a045-27c2c88ac2e7","ios":"levelo://app?vid=fbe50a91-8778-42f9-a045-27c2c88ac2e7"},"vehicle_type_id":"4","last_reported":1761376161,"current_range_meters":16000,"station_id":"st_d3md5207bmas73dh9klg","pricing_plan_id":"cebpf4jnsgd1na2vs0mg"},{"bike_id":"48736ec0-1351-48ef-b390-a2f65d2bfc4e","system_id":"levelo_inurba_marseille","lat":43.27196,"lon":5.39165,"is_reserved":false,"is_disabled":false,"rental_uris":{"android":"levelo://app?vid=48736ec0-1351-48ef-b390-a2f65d2bfc4e","ios":"levelo://app?vid=48736ec0-1351-48ef-b390-a2f65d2bfc4e"},"vehicle_type_id":"4","last_reported":1761376161,"current_range_meters":16000,"station_id":"ce4bhhp2rcd13ifvqfm0","pricing_plan_id":"cebpf4jnsgd1na2vs0mg"},{"bike_id":"872912e2-779b-4f95-8301-307048c20270","system_id":"levelo_inurba_marseille","lat":43.21187,"lon":5.35071,"is_reserved":false,"is_disabled":false,"rental_uris":{"android":"levelo://app?vid=872912e2-779b-4f95-8301-307048c20270","ios":"levelo://app?vid=872912e2-779b-4f95-8301-307048c20270"},"vehicle_type_id":"4","last_reported":1761376161,"current_range_meters":16400,"station_id":"","pricing_plan_id":"cebpf4jnsgd1na2vs0mg"},{"bike_id":"dab36927-4328-48fa-bffb-145a737de07e","system_id":"levelo_inurba_marseille","lat":43.308003,"lon":5.435183,"is_reserved":false,"is_disabled":true,"rental_uris":{"android":"levelo://app?vid=dab36927-4328-48fa-bffb-145a737de07e","ios":"levelo://app?vid=dab36927-4328-48fa-bffb-145a737de07e"},"vehicle_type_id":"4","last_reported":1761376161,"current_range_meters":16400,"station_id":"ce4bhph2rcd13ifvqheg","pricing_plan_id":"cebpf4jnsgd1na2vs0mg"},{"bike_id":"36ef565d-595c-4fe5-832e-9069968fcd08","system_id":"levelo_inurba_marseille","lat":43.32501,"lon":5.41454,"is_reserved":false,"is_disabled":true,"rental_uris":{"android":"levelo://app?vid=36ef565d-595c-4fe5-832e-9069968fcd08","ios":"levelo://app?vid=36ef565d-595c-4fe5-832e-9069968fcd08"},"vehicle_type_id":"4","last_reported":1761376161,"current_range_meters":16400,"station_id":"ce4bhq12rcd13ifvqhhg","pricing_plan_id":"cebpf4jnsgd1na2vs0mg"},{"bike_id":"de4560c0-6f43-49b3-9b02-2b7ef171787b","system_id":"levelo_inurba_marseille","lat":43.2783,"lon":5.392133,"is_reserved":false,"is_disabled":false,"rental_uris":{"android":"levelo://app?vid=de4560c0-6f43-49b3-9b02-2b7ef171787b","ios":"levelo://app?vid=de4560c0-6f43-49b3-9b02-2b7ef171787b"},"vehicle_type_id":"4","last_reported":1761376161,"current_range_meters":16400,"station_id":"ce4bhjp2rcd13ifvqga0","pricing_plan_id":"cebpf4jnsgd1na2vs0mg"},{"bike_id":"71787e4e-d3cf-499c-936d-7a403f4f2fac","system_id":"levelo_inurba_marseille","lat":43.28403,"lon":5.37537,"is_reserved":false,"is_disabled":false,"rental_uris":{"android":"levelo://app?vid=71787e4e-d3cf-499c-936d-7a403f4f2fac","ios":"levelo://app?vid=71787e4e-d3cf-499c-936d-7a403f4f2fac"},"vehicle_type_id":"4","last_reported":1761376161,"current_range_meters":16400,"station_id":"ce4bh412rcd13ifvqds0","pricing_plan_id":"cebpf4jnsgd1na2vs0mg"},{"bike_id":"3cfa595b-cff3-48e4-9ef0-78ef1b9568f9","system_id":"levelo_inurba_marseille","lat":43.29019,"lon":5.38144,"is_reserved":false,"is_disabled":false,"rental_uris":{"android":"levelo://app?vid=3cfa595b-cff3-48e4-9ef0-78ef1b9568f9","ios":"levelo://app?vid=3cfa595b-cff3-48e4-9ef0-78ef1b9568f9"},"vehicle_type_id":"4","last_reported":1761376161,"current_range_meters":16400,"station_id":"ce4bh4p2rcd13ifvqe1g","pricing_plan_id":"cebpf4jnsgd1na2vs0mg"},{"bike_id":"d03f3636-16e3-4275-8b6e-75e5a75cfef1","system_id":"levelo_inurba_marseille","lat":43.265548,"lon":5.37296,"is_reserved":false,"is_disabled":false,"rental_uris":{"android":"levelo://app?vid=d03f3636-16e3-4275-8b6e-75e5a75cfef1","ios":"levelo://app?vid=d03f3636-16e3-4275-8b6e-75e5a75cfef1"},"vehicle_type_id":"4","last_reported":1761376161,"current_range_meters":16400,"station_id":"ce4bhg12rcd13ifvqf70","pricing_plan_id":"cebpf4jnsgd1na2vs0mg"},{"bike_id":"fbc51a66-9f5b-4793-bf47-376ff7c8c289","system_id":"levelo_inurba_marseille","lat":43.21189,"lon":5.35084,"is_reserved":false,"is_disabled":false,"rental_uris":{"android":"levelo://app?vid=fbc51a66-9f5b-4793-bf47-376ff7c8c289","ios":"levelo://app?vid=fbc51a66-9f5b-4793-bf47-376ff7c8c289"},"vehicle_type_id":"4","last_reported":1761376161,"current_range_meters":16400,"station_id":"st_cvj6sg6p6f1abm77japg","pricing_plan_id":"cebpf4jnsgd1na2vs0mg"},{"bike_id":"8c35a7e4-8378-4fdf-b42f-02e88b6199ca","system_id":"levelo_inurba_marseille","lat":43.321071,"lon":5.367915,"is_reserved":false,"is_disabled":false,"rental_uris":{"android":"levelo://app?vid=8c35a7e4-8378-4fdf-b42f-02e88b6199ca","ios":"levelo://app?vid=8c35a7e4-8378-4fdf-b42f-02e88b6199ca"},"vehicle_type_id":"4","last_reported":1761376161,"current_range_meters":16400,"station_id":"ce4bhrh2rcd13ifvqhug","pricing_plan_id":"cebpf4jnsgd1na2vs0mg"},{"bike_id":"1d5c5072-8e34-45fe-bb03-36f2abeddfda","system_id":"levelo_inurba_marseille","lat":43.31045,"lon":5.38366,"is_reserved":false,"is_disabled":false,"rental_uris":{"android":"levelo://app?vid=1d5c5072-8e34-45fe-bb03-36f2abeddfda","ios":"levelo://app?vid=1d5c5072-8e34-45fe-bb03-36f2abeddfda"},"vehicle_type_id":"4","last_reported":1761376161,"current_range_meters":16400,"station_id":"ce4bgv92rcd13ifvqcr0","pricing_plan_id":"cebpf4jnsgd1na2vs0mg"},{"bike_id":"7d241f67-998d-4bea-bf2e-da3fc48c2d55","system_id":"levelo_inurba_marseille","lat":43.3086,"lon":5.39624,"is_reserved":false,"is_disabled":false,"rental_uris":{"android":"levelo://app?vid=7d241f67-998d-4bea-bf2e-da3fc48c2d55","ios":"levelo://app?vid=7d241f67-998d-4bea-bf2e-da3fc48c2d55"},"vehicle_type_id":"4","last_reported":1761376161,"current_range_meters":16400,"station_id":"","pricing_plan_id":"cebpf4jnsgd1na2vs0mg"},{"bike_id":"8e1001bf-14bf-4add-9e80-532070c873ea","system_id":"levelo_inurba_marseille","lat":43.255752,"lon":5.382365,"is_reserved":false,"is_disabled":false,"rental_uris":{"android":"levelo://app?vid=8e1001bf-14bf-4add-9e80-532070c873ea","ios":"levelo://app?vid=8e1001bf-14bf-4add-9e80-532070c873ea"},"vehicle_type_id":"4","last_reported":1761376161,"current_range_meters":16800,"station_id":"ce4bhih2rcd13ifvqfs0","pricing_plan_id":"cebpf4jnsgd1na2vs0mg"},{"bike_id":"2d5419ca-8955-4cc2-bf16-13223323293b","system_id":"levelo_inurba_marseille","lat":43.26194,"lon":5.37473,"is_reserved":false,"is_disabled":true,"rental_uris":{"android":"levelo://app?vid=2d5419ca-8955-4cc2-bf16-13223323293b","ios":"levelo://app?vid=2d5419ca-8955-4cc2-bf16-13223323293b"},"vehicle_type_id":"4","last_reported":1761376161,"current_range_meters":16800,"station_id":"ce4bhgp2rcd13ifvqfc0","pricing_plan_id":"cebpf4jnsgd1na2vs0mg"},{"bike_id":"8c4ade53-28b6-421a-8b0a-4b851571fed4","system_id":"levelo_inurba_marseille","lat":43.25334,"lon":5.42175,"is_reserved":false,"is_disabled":false,"rental_uris":{"android":"levelo://app?vid=8c4ade53-28b6-421a-8b0a-4b851571fed4","ios":"levelo://app?vid=8c4ade53-28b6-421a-8b0a-4b851571fed4"},"vehicle_type_id":"4","last_reported":1761376161,"current_range_meters":16800,"station_id":"st_d2m65c5bi1j21697t3ng","pricing_plan_id":"cebpf4jnsgd1na2vs0mg"},{"bike_id":"edd2c541-eaf2-4a50-a0de-142f364b01dc","system_id":"levelo_inurba_marseille","lat":43.31264,"lon":5.37766,"is_reserved":false,"is_disabled":false,"rental_uris":{"android":"levelo://app?vid=edd2c541-eaf2-4a50-a0de-142f364b01dc","ios":"levelo://app?vid=edd2c541-eaf2-4a50-a0de-142f364b01dc"},"vehicle_type_id":"4","last_reported":1761376161,"current_range_meters":17200,"station_id":"","pricing_plan_id":"cebpf4jnsgd1na2vs0mg"},{"bike_id":"51f6b392-8d0d-41b5-9bf6-76a949608beb","system_id":"levelo_inurba_marseille","lat":43.25347,"lon":5.42184,"is_reserved":false,"is_disabled":false,"rental_uris":{"android":"levelo://app?vid=51f6b392-8d0d-41b5-9bf6-76a949608beb","ios":"levelo://app?vid=51f6b392-8d0d-41b5-9bf6-76a949608beb"},"vehicle_type_id":"4","last_reported":1761376161,"current_range_meters":17200,"station_id":"st_d2m65c5bi1j21697t3ng","pricing_plan_id":"cebpf4jnsgd1na2vs0mg"},{"bike_id":"13b3eb64-d4e6-4e28-8619-4e151007bc28","system_id":"levelo_inurba_marseille","lat":43.28463,"lon":5.38423,"is_reserved":false,"is_disabled":false,"rental_uris":{"android":"levelo://app?vid=13b3eb64-d4e6-4e28-8619-4e151007bc28","ios":"levelo://app?vid=13b3eb64-d4e6-4e28-8619-4e151007bc28"},"vehicle_type_id":"4","last_reported":1761376161,"current_range_meters":17200,"station_id":"ce4bh512rcd13ifvqe3g","pricing_plan_id":"cebpf4jnsgd1na2vs0mg"},{"bike_id":"db19020b-f4c5-4a0b-8bd4-423971868d20","system_id":"levelo_inurba_marseille","lat":43.287002,"lon":5.399614,"is_reserved":false,"is_disabled":false,"rental_uris":{"android":"levelo://app?vid=db19020b-f4c5-4a0b-8bd4-423971868d20","ios":"levelo://app?vid=db19020b-f4c5-4a0b-8bd4-423971868d20"},"vehicle_type_id":"4","last_reported":1761376161,"current_range_meters":17200,"station_id":"ce4bho92rcd13ifvqh3g","pricing_plan_id":"cebpf4jnsgd1na2vs0mg"},{"bike_id":"6cf2b315-d1ee-4e24-a665-250fae4ab05f","system_id":"levelo_inurba_marseille","lat":43.31291,"lon":5.3755,"is_reserved":false,"is_disabled":true,"rental_uris":{"android":"levelo://app?vid=6cf2b315-d1ee-4e24-a665-250fae4ab05f","ios":"levelo://app?vid=6cf2b315-d1ee-4e24-a665-250fae4ab05f"},"vehicle_type_id":"4","last_reported":1761376161,"current_range_meters":17200,"station_id":"","pricing_plan_id":"cebpf4jnsgd1na2vs0mg"},{"bike_id":"4a6de441-8f9b-4688-b114-a3e786dd1355","system_id":"levelo_inurba_marseille","lat":43.30215,"lon":5.38793,"is_reserved":false,"is_disabled":false,"rental_uris":{"android":"levelo://app?vid=4a6de441-8f9b-4688-b114-a3e786dd1355","ios":"levelo://app?vid=4a6de441-8f9b-4688-b114-a3e786dd1355"},"vehicle_type_id":"4","last_reported":1761376161,"current_range_meters":17200,"station_id":"","pricing_plan_id":"cebpf4jnsgd1na2vs0mg"},{"bike_id":"f80eb215-e383-44d9-b70b-57dea902f641","system_id":"levelo_inurba_marseille","lat":43.29631,"lon":5.40607,"is_reserved":false,"is_disabled":false,"rental_uris":{"android":"levelo://app?vid=f80eb215-e383-44d9-b70b-57dea902f641","ios":"levelo://app?vid=f80eb215-e383-44d9-b70b-57dea902f641"},"vehicle_type_id":"4","last_reported":1761376161,"current_range_meters":17200,"station_id":"ce4bh0h2rcd13ifvqd60","pricing_plan_id":"cebpf4jnsgd1na2vs0mg"},{"bike_id":"dd65a463-a31b-485b-8670-75393dab59b2","system_id":"levelo_inurba_marseille","lat":43.26593,"lon":5.39003,"is_reserved":false,"is_disabled":false,"rental_uris":{"android":"levelo://app?vid=dd65a463-a31b-485b-8670-75393dab59b2","ios":"levelo://app?vid=dd65a463-a31b-485b-8670-75393dab59b2"},"vehicle_type_id":"4","last_reported":1761376161,"current_range_meters":17200,"station_id":"ce4bhe12rcd13ifvqf30","pricing_plan_id":"cebpf4jnsgd1na2vs0mg"},{"bike_id":"c2615fa8-f906-4e05-937e-772259bb2874","system_id":"levelo_inurba_marseille","lat":43.246323,"lon":5.43155,"is_reserved":false,"is_disabled":false,"rental_uris":{"android":"levelo://app?vid=c2615fa8-f906-4e05-937e-772259bb2874","ios":"levelo://app?vid=c2615fa8-f906-4e05-937e-772259bb2874"},"vehicle_type_id":"4","last_reported":1761376161,"current_range_meters":17600,"station_id":"st_d2m6c4gdas8pm72e190g","pricing_plan_id":"cebpf4jnsgd1na2vs0mg"},{"bike_id":"40fed290-3dea-4c73-bf2e-af05de8161fd","system_id":"levelo_inurba_marseille","lat":43.32111,"lon":5.36746,"is_reserved":false,"is_disabled":false,"rental_uris":{"android":"levelo://app?vid=40fed290-3dea-4c73-bf2e-af05de8161fd","ios":"levelo://app?vid=40fed290-3dea-4c73-bf2e-af05de8161fd"},"vehicle_type_id":"4","last_reported":1761376161,"current_range_meters":17600,"station_id":"ce4bhrh2rcd13ifvqhug","pricing_plan_id":"cebpf4jnsgd1na2vs0mg"},{"bike_id":"294a3f34-361b-4c46-9333-ce2708bba8b2","system_id":"levelo_inurba_marseille","lat":43.3171,"lon":5.36928,"is_reserved":false,"is_disabled":false,"rental_uris":{"android":"levelo://app?vid=294a3f34-361b-4c46-9333-ce2708bba8b2","ios":"levelo://app?vid=294a3f34-361b-4c46-9333-ce2708bba8b2"},"vehicle_type_id":"4","last_reported":1761376161,"current_range_meters":17600,"station_id":"","pricing_plan_id":"cebpf4jnsgd1na2vs0mg"},{"bike_id":"bc805b80-3097-410f-b503-9e60f016e0de","system_id":"levelo_inurba_marseille","lat":43.27199,"lon":5.39189,"is_reserved":false,"is_disabled":true,"rental_uris":{"android":"levelo://app?vid=bc805b80-3097-410f-b503-9e60f016e0de","ios":"levelo://app?vid=bc805b80-3097-410f-b503-9e60f016e0de"},"vehicle_type_id":"4","last_reported":1761376161,"current_range_meters":17600,"station_id":"ce4bhhp2rcd13ifvqfm0","pricing_plan_id":"cebpf4jnsgd1na2vs0mg"},{"bike_id":"fd46aa96-062c-4cd2-9a1f-20678c2e71e6","system_id":"levelo_inurba_marseille","lat":43.30137,"lon":5.38084,"is_reserved":false,"is_disabled":false,"rental_uris":{"android":"levelo://app?vid=fd46aa96-062c-4cd2-9a1f-20678c2e71e6","ios":"levelo://app?vid=fd46aa96-062c-4cd2-9a1f-20678c2e71e6"},"vehicle_type_id":"4","last_reported":1761376161,"current_range_meters":17600,"station_id":"ce4bgjp2rcd13ifvqbh0","pricing_plan_id":"cebpf4jnsgd1na2vs0mg"},{"bike_id":"ed4ba838-cde1-4942-88b8-455470fe528f","system_id":"levelo_inurba_marseille","lat":43.23963,"lon":5.36631,"is_reserved":false,"is_disabled":false,"rental_uris":{"android":"levelo://app?vid=ed4ba838-cde1-4942-88b8-455470fe528f","ios":"levelo://app?vid=ed4ba838-cde1-4942-88b8-455470fe528f"},"vehicle_type_id":"4","last_reported":1761376161,"current_range_meters":18000,"station_id":"ce4bhi12rcd13ifvqfp0","pricing_plan_id":"cebpf4jnsgd1na2vs0mg"},{"bike_id":"0144bdf2-84a6-45ad-976a-ea6fd3101d41","system_id":"levelo_inurba_marseille","lat":43.32097,"lon":5.36777,"is_reserved":false,"is_disabled":false,"rental_uris":{"android":"levelo://app?vid=0144bdf2-84a6-45ad-976a-ea6fd3101d41","ios":"levelo://app?vid=0144bdf2-84a6-45ad-976a-ea6fd3101d41"},"vehicle_type_id":"4","last_reported":1761376161,"current_range_meters":18000,"station_id":"ce4bhrh2rcd13ifvqhug","pricing_plan_id":"cebpf4jnsgd1na2vs0mg"},{"bike_id":"96355da0-b94f-4c40-9a2a-71fb60bf76b8","system_id":"levelo_inurba_marseille","lat":43.29499,"lon":5.39419,"is_reserved":false,"is_disabled":true,"rental_uris":{"android":"levelo://app?vid=96355da0-b94f-4c40-9a2a-71fb60bf76b8","ios":"levelo://app?vid=96355da0-b94f-4c40-9a2a-71fb60bf76b8"},"vehicle_type_id":"4","last_reported":1761376161,"current_range_meters":18000,"station_id":"ce4bh292rcd13ifvqdf0","pricing_plan_id":"cebpf4jnsgd1na2vs0mg"},{"bike_id":"a7f883ab-2769-43da-937c-354e091269f7","system_id":"levelo_inurba_marseille","lat":43.2319,"lon":5.35551,"is_reserved":false,"is_disabled":false,"rental_uris":{"android":"levelo://app?vid=a7f883ab-2769-43da-937c-354e091269f7","ios":"levelo://app?vid=a7f883ab-2769-43da-937c-354e091269f7"},"vehicle_type_id":"4","last_reported":1761376161,"current_range_meters":18000,"station_id":"ce4bhu92rcd13ifvqi70","pricing_plan_id":"cebpf4jnsgd1na2vs0mg"},{"bike_id":"1c67937c-475a-4e4e-a691-b63d91404557","system_id":"levelo_inurba_marseille","lat":43.2869,"lon":5.40005,"is_reserved":false,"is_disabled":false,"rental_uris":{"android":"levelo://app?vid=1c67937c-475a-4e4e-a691-b63d91404557","ios":"levelo://app?vid=1c67937c-475a-4e4e-a691-b63d91404557"},"vehicle_type_id":"4","last_reported":1761376161,"current_range_meters":18000,"station_id":"ce4bho92rcd13ifvqh3g","pricing_plan_id":"cebpf4jnsgd1na2vs0mg"},{"bike_id":"de4c9d67-aa03-439a-a821-c7b9a613d790","system_id":"levelo_inurba_marseille","lat":43.21208,"lon":5.35067,"is_reserved":false,"is_disabled":false,"rental_uris":{"android":"levelo://app?vid=de4c9d67-aa03-439a-a821-c7b9a613d790","ios":"levelo://app?vid=de4c9d67-aa03-439a-a821-c7b9a613d790"},"vehicle_type_id":"4","last_reported":1761376161,"current_range_meters":18000,"station_id":"st_cvj6sg6p6f1abm77japg","pricing_plan_id":"cebpf4jnsgd1na2vs0mg"},{"bike_id":"effc4a6a-9a91-4958-ad6b-7be55c02b098","system_id":"levelo_inurba_marseille","lat":43.27796,"lon":5.37647,"is_reserved":false,"is_disabled":false,"rental_uris":{"android":"levelo://app?vid=effc4a6a-9a91-4958-ad6b-7be55c02b098","ios":"levelo://app?vid=effc4a6a-9a91-4958-ad6b-7be55c02b098"},"vehicle_type_id":"4","last_reported":1761376161,"current_range_meters":18000,"station_id":"","pricing_plan_id":"cebpf4jnsgd1na2vs0mg"},{"bike_id":"151681fe-d6da-478a-be81-1ca5e6442b9c","system_id":"levelo_inurba_marseille","lat":43.27099,"lon":5.40241,"is_reserved":false,"is_disabled":false,"rental_uris":{"android":"levelo://app?vid=151681fe-d6da-478a-be81-1ca5e6442b9c","ios":"levelo://app?vid=151681fe-d6da-478a-be81-1ca5e6442b9c"},"vehicle_type_id":"4","last_reported":1761376161,"current_range_meters":18000,"station_id":"ce4bhk92rcd13ifvqgc0","pricing_plan_id":"cebpf4jnsgd1na2vs0mg"},{"bike_id":"29b38a45-3e07-40c1-b8b1-5f85b487711f","system_id":"levelo_inurba_marseille","lat":43.31222,"lon":5.40411,"is_reserved":false,"is_disabled":false,"rental_uris":{"android":"levelo://app?vid=29b38a45-3e07-40c1-b8b1-5f85b487711f","ios":"levelo://app?vid=29b38a45-3e07-40c1-b8b1-5f85b487711f"},"vehicle_type_id":"4","last_reported":1761376161,"current_range_meters":18800,"station_id":"","pricing_plan_id":"cebpf4jnsgd1na2vs0mg"},{"bike_id":"908af8c0-ab62-4e8c-8850-94d622d2f020","system_id":"levelo_inurba_marseille","lat":43.30803,"lon":5.38136,"is_reserved":false,"is_disabled":false,"rental_uris":{"android":"levelo://app?vid=908af8c0-ab62-4e8c-8850-94d622d2f020","ios":"levelo://app?vid=908af8c0-ab62-4e8c-8850-94d622d2f020"},"vehicle_type_id":"4","last_reported":1761376161,"current_range_meters":18800,"station_id":"ce4bgt12rcd13ifvqce0","pricing_plan_id":"cebpf4jnsgd1na2vs0mg"},{"bike_id":"66676914-43b1-410a-bdb0-037adbd6b428","system_id":"levelo_inurba_marseille","lat":43.289343,"lon":5.36634,"is_reserved":false,"is_disabled":false,"rental_uris":{"android":"levelo://app?vid=66676914-43b1-410a-bdb0-037adbd6b428","ios":"levelo://app?vid=66676914-43b1-410a-bdb0-037adbd6b428"},"vehicle_type_id":"4","last_reported":1761376161,"current_range_meters":18800,"station_id":"ce4bhap2rcd13ifvqek0","pricing_plan_id":"cebpf4jnsgd1na2vs0mg"},{"bike_id":"ab04f3bb-a3d7-42f0-86b5-4d39e2fe3a17","system_id":"levelo_inurba_marseille","lat":43.28709,"lon":5.39969,"is_reserved":false,"is_disabled":false,"rental_uris":{"android":"levelo://app?vid=ab04f3bb-a3d7-42f0-86b5-4d39e2fe3a17","ios":"levelo://app?vid=ab04f3bb-a3d7-42f0-86b5-4d39e2fe3a17"},"vehicle_type_id":"4","last_reported":1761376161,"current_range_meters":18800,"station_id":"ce4bho92rcd13ifvqh3g","pricing_plan_id":"cebpf4jnsgd1na2vs0mg"},{"bike_id":"e4746a2d-9cd3-46c8-bf0e-3a10fdb16ced","system_id":"levelo_inurba_marseille","lat":43.32347,"lon":5.36734,"is_reserved":false,"is_disabled":false,"rental_uris":{"android":"levelo://app?vid=e4746a2d-9cd3-46c8-bf0e-3a10fdb16ced","ios":"levelo://app?vid=e4746a2d-9cd3-46c8-bf0e-3a10fdb16ced"},"vehicle_type_id":"4","last_reported":1761376161,"current_range_meters":18800,"station_id":"ce4bhsh2rcd13ifvqi2g","pricing_plan_id":"cebpf4jnsgd1na2vs0mg"},{"bike_id":"eea83aba-5f2f-40d4-9307-fa632a8482f7","system_id":"levelo_inurba_marseille","lat":43.27487,"lon":5.42456,"is_reserved":false,"is_disabled":false,"rental_uris":{"android":"levelo://app?vid=eea83aba-5f2f-40d4-9307-fa632a8482f7","ios":"levelo://app?vid=eea83aba-5f2f-40d4-9307-fa632a8482f7"},"vehicle_type_id":"4","last_reported":1761376161,"current_range_meters":18800,"station_id":"ce4bhn92rcd13ifvqgrg","pricing_plan_id":"cebpf4jnsgd1na2vs0mg"},{"bike_id":"896f2a82-1098-47c0-affd-3d2fa4d77465","system_id":"levelo_inurba_marseille","lat":43.262238,"lon":5.404501,"is_reserved":false,"is_disabled":false,"rental_uris":{"android":"levelo://app?vid=896f2a82-1098-47c0-affd-3d2fa4d77465","ios":"levelo://app?vid=896f2a82-1098-47c0-affd-3d2fa4d77465"},"vehicle_type_id":"4","last_reported":1761376161,"current_range_meters":18800,"station_id":"ce4bhmh2rcd13ifvqgmg","pricing_plan_id":"cebpf4jnsgd1na2vs0mg"},{"bike_id":"c0b81f28-bbba-4247-a74b-c55a34b31846","system_id":"levelo_inurba_marseille","lat":43.33258,"lon":5.41086,"is_reserved":false,"is_disabled":false,"rental_uris":{"android":"levelo://app?vid=c0b81f28-bbba-4247-a74b-c55a34b31846","ios":"levelo://app?vid=c0b81f28-bbba-4247-a74b-c55a34b31846"},"vehicle_type_id":"4","last_reported":1761376161,"current_range_meters":19200,"station_id":"","pricing_plan_id":"cebpf4jnsgd1na2vs0mg"},{"bike_id":"fc74c03f-6810-4b94-8149-477bae3888a5","system_id":"levelo_inurba_marseille","lat":43.29815,"lon":5.44065,"is_reserved":false,"is_disabled":false,"rental_uris":{"android":"levelo://app?vid=fc74c03f-6810-4b94-8149-477bae3888a5","ios":"levelo://app?vid=fc74c03f-6810-4b94-8149-477bae3888a5"},"vehicle_type_id":"4","last_reported":1761376161,"current_range_meters":19200,"station_id":"st_d3jp68qikq2c7381ktn0","pricing_plan_id":"cebpf4jnsgd1na2vs0mg"},{"bike_id":"70b890fb-66b4-4468-94d4-91a87de2351c","system_id":"levelo_inurba_marseille","lat":43.29958,"lon":5.41316,"is_reserved":false,"is_disabled":false,"rental_uris":{"android":"levelo://app?vid=70b890fb-66b4-4468-94d4-91a87de2351c","ios":"levelo://app?vid=70b890fb-66b4-4468-94d4-91a87de2351c"},"vehicle_type_id":"4","last_reported":1761376161,"current_range_meters":19200,"station_id":"ce4bhp12rcd13ifvqh9g","pricing_plan_id":"cebpf4jnsgd1na2vs0mg"},{"bike_id":"a420fe42-d929-4f02-8db6-f1518becc2c4","system_id":"levelo_inurba_marseille","lat":43.23196,"lon":5.35557,"is_reserved":false,"is_disabled":false,"rental_uris":{"android":"levelo://app?vid=a420fe42-d929-4f02-8db6-f1518becc2c4","ios":"levelo://app?vid=a420fe42-d929-4f02-8db6-f1518becc2c4"},"vehicle_type_id":"4","last_reported":1761376161,"current_range_meters":19200,"station_id":"ce4bhu92rcd13ifvqi70","pricing_plan_id":"cebpf4jnsgd1na2vs0mg"},{"bike_id":"20be5c95-61ce-407d-a7b7-25702e8a2c0e","system_id":"levelo_inurba_marseille","lat":43.31059,"lon":5.38367,"is_reserved":false,"is_disabled":false,"rental_uris":{"android":"levelo://app?vid=20be5c95-61ce-407d-a7b7-25702e8a2c0e","ios":"levelo://app?vid=20be5c95-61ce-407d-a7b7-25702e8a2c0e"},"vehicle_type_id":"4","last_reported":1761376161,"current_range_meters":19200,"station_id":"ce4bgv92rcd13ifvqcr0","pricing_plan_id":"cebpf4jnsgd1na2vs0mg"},{"bike_id":"74546168-aafc-4fc6-824e-fd7787db6ac1","system_id":"levelo_inurba_marseille","lat":43.22919,"lon":5.3538,"is_reserved":false,"is_disabled":false,"rental_uris":{"android":"levelo://app?vid=74546168-aafc-4fc6-824e-fd7787db6ac1","ios":"levelo://app?vid=74546168-aafc-4fc6-824e-fd7787db6ac1"},"vehicle_type_id":"4","last_reported":1761376161,"current_range_meters":19200,"station_id":"cpo3532slgdg3j2ikp40","pricing_plan_id":"cebpf4jnsgd1na2vs0mg"},{"bike_id":"5d69f09f-f23a-4cc9-9b0e-7badeab810a8","system_id":"levelo_inurba_marseille","lat":43.2987,"lon":5.38906,"is_reserved":false,"is_disabled":true,"rental_uris":{"android":"levelo://app?vid=5d69f09f-f23a-4cc9-9b0e-7badeab810a8","ios":"levelo://app?vid=5d69f09f-f23a-4cc9-9b0e-7badeab810a8"},"vehicle_type_id":"4","last_reported":1761376161,"current_range_meters":19200,"station_id":"ce4bh392rcd13ifvqdl0","pricing_plan_id":"cebpf4jnsgd1na2vs0mg"},{"bike_id":"e27978ca-c412-4b12-aa1c-cfdf44476df5","system_id":"levelo_inurba_marseille","lat":43.30152,"lon":5.38075,"is_reserved":false,"is_disabled":false,"rental_uris":{"android":"levelo://app?vid=e27978ca-c412-4b12-aa1c-cfdf44476df5","ios":"levelo://app?vid=e27978ca-c412-4b12-aa1c-cfdf44476df5"},"vehicle_type_id":"4","last_reported":1761376161,"current_range_meters":19200,"station_id":"ce4bgjp2rcd13ifvqbh0","pricing_plan_id":"cebpf4jnsgd1na2vs0mg"},{"bike_id":"7fb3971e-84b0-4ac6-82fb-b4ca6cdec2ab","system_id":"levelo_inurba_marseille","lat":43.294853,"lon":5.433118,"is_reserved":false,"is_disabled":false,"rental_uris":{"android":"levelo://app?vid=7fb3971e-84b0-4ac6-82fb-b4ca6cdec2ab","ios":"levelo://app?vid=7fb3971e-84b0-4ac6-82fb-b4ca6cdec2ab"},"vehicle_type_id":"4","last_reported":1761376161,"current_range_meters":19200,"station_id":"st_d3j5ugp08ojc73fj9d10","pricing_plan_id":"cebpf4jnsgd1na2vs0mg"},{"bike_id":"f72a00f1-1fed-4f6c-b4b5-8473dfdb4606","system_id":"levelo_inurba_marseille","lat":43.29676,"lon":5.40376,"is_reserved":false,"is_disabled":false,"rental_uris":{"android":"levelo://app?vid=f72a00f1-1fed-4f6c-b4b5-8473dfdb4606","ios":"levelo://app?vid=f72a00f1-1fed-4f6c-b4b5-8473dfdb4606"},"vehicle_type_id":"4","last_reported":1761376161,"current_range_meters":19200,"station_id":"","pricing_plan_id":"cebpf4jnsgd1na2vs0mg"},{"bike_id":"38a064e1-0c23-4c21-963f-8d817112a18f","system_id":"levelo_inurba_marseille","lat":43.28393,"lon":5.39907,"is_reserved":false,"is_disabled":false,"rental_uris":{"android":"levelo://app?vid=38a064e1-0c23-4c21-963f-8d817112a18f","ios":"levelo://app?vid=38a064e1-0c23-4c21-963f-8d817112a18f"},"vehicle_type_id":"4","last_reported":1761376161,"current_range_meters":19200,"station_id":"","pricing_plan_id":"cebpf4jnsgd1na2vs0mg"},{"bike_id":"ef10ee54-25ea-4d98-9dde-a598e6649151","system_id":"levelo_inurba_marseille","lat":43.30252,"lon":5.40073,"is_reserved":false,"is_disabled":false,"rental_uris":{"android":"levelo://app?vid=ef10ee54-25ea-4d98-9dde-a598e6649151","ios":"levelo://app?vid=ef10ee54-25ea-4d98-9dde-a598e6649151"},"vehicle_type_id":"4","last_reported":1761376161,"current_range_meters":19200,"station_id":"ce4bgvh2rcd13ifvqcs0","pricing_plan_id":"cebpf4jnsgd1na2vs0mg"},{"bike_id":"35ba6624-0b29-4866-9077-fd1a056468fd","system_id":"levelo_inurba_marseille","lat":43.25092,"lon":5.39512,"is_reserved":false,"is_disabled":false,"rental_uris":{"android":"levelo://app?vid=35ba6624-0b29-4866-9077-fd1a056468fd","ios":"levelo://app?vid=35ba6624-0b29-4866-9077-fd1a056468fd"},"vehicle_type_id":"4","last_reported":1761376161,"current_range_meters":19200,"station_id":"ce4bhm12rcd13ifvqgkg","pricing_plan_id":"cebpf4jnsgd1na2vs0mg"},{"bike_id":"e4ccce50-4824-4895-aa8c-033835526f23","system_id":"levelo_inurba_marseille","lat":43.318812,"lon":5.399888,"is_reserved":false,"is_disabled":false,"rental_uris":{"android":"levelo://app?vid=e4ccce50-4824-4895-aa8c-033835526f23","ios":"levelo://app?vid=e4ccce50-4824-4895-aa8c-033835526f23"},"vehicle_type_id":"4","last_reported":1761376161,"current_range_meters":19200,"station_id":"","pricing_plan_id":"cebpf4jnsgd1na2vs0mg"},{"bike_id":"5a59e2a8-2bf8-4ca6-ac7b-01073a97b00e","system_id":"levelo_inurba_marseille","lat":43.308877,"lon":5.371727,"is_reserved":false,"is_disabled":false,"rental_uris":{"android":"levelo://app?vid=5a59e2a8-2bf8-4ca6-ac7b-01073a97b00e","ios":"levelo://app?vid=5a59e2a8-2bf8-4ca6-ac7b-01073a97b00e"},"vehicle_type_id":"4","last_reported":1761376161,"current_range_meters":19600,"station_id":"ce4bguh2rcd13ifvqckg","pricing_plan_id":"cebpf4jnsgd1na2vs0mg"},{"bike_id":"3da36b46-32f0-4723-8f3b-8cba39a84287","system_id":"levelo_inurba_marseille","lat":43.243937,"lon":5.370478,"is_reserved":false,"is_disabled":false,"rental_uris":{"android":"levelo://app?vid=3da36b46-32f0-4723-8f3b-8cba39a84287","ios":"levelo://app?vid=3da36b46-32f0-4723-8f3b-8cba39a84287"},"vehicle_type_id":"4","last_reported":1761376161,"current_range_meters":19600,"station_id":"ce4bhhh2rcd13ifvqfk0","pricing_plan_id":"cebpf4jnsgd1na2vs0mg"},{"bike_id":"7a1f0acd-1244-4b4f-acb5-2a9135a9ddc1","system_id":"levelo_inurba_marseille","lat":43.310791,"lon":5.383504,"is_reserved":false,"is_disabled":false,"rental_uris":{"android":"levelo://app?vid=7a1f0acd-1244-4b4f-acb5-2a9135a9ddc1","ios":"levelo://app?vid=7a1f0acd-1244-4b4f-acb5-2a9135a9ddc1"},"vehicle_type_id":"4","last_reported":1761376161,"current_range_meters":20000,"station_id":"ce4bgv92rcd13ifvqcr0","pricing_plan_id":"cebpf4jnsgd1na2vs0mg"},{"bike_id":"91d5c914-2907-4403-b239-a8e651a7b844","system_id":"levelo_inurba_marseille","lat":43.29749,"lon":5.37624,"is_reserved":false,"is_disabled":true,"rental_uris":{"android":"levelo://app?vid=91d5c914-2907-4403-b239-a8e651a7b844","ios":"levelo://app?vid=91d5c914-2907-4403-b239-a8e651a7b844"},"vehicle_type_id":"4","last_reported":1761376161,"current_range_meters":20000,"station_id":"","pricing_plan_id":"cebpf4jnsgd1na2vs0mg"},{"bike_id":"d4f6cd6f-2e03-4d52-87e2-774301b94d7f","system_id":"levelo_inurba_marseille","lat":43.211984,"lon":5.350691,"is_reserved":false,"is_disabled":false,"rental_uris":{"android":"levelo://app?vid=d4f6cd6f-2e03-4d52-87e2-774301b94d7f","ios":"levelo://app?vid=d4f6cd6f-2e03-4d52-87e2-774301b94d7f"},"vehicle_type_id":"4","last_reported":1761376161,"current_range_meters":20000,"station_id":"st_cvj6sg6p6f1abm77japg","pricing_plan_id":"cebpf4jnsgd1na2vs0mg"},{"bike_id":"82c54f9e-bcd7-4c6d-9b18-44ec0fadd322","system_id":"levelo_inurba_marseille","lat":43.3157,"lon":5.38437,"is_reserved":false,"is_disabled":false,"rental_uris":{"android":"levelo://app?vid=82c54f9e-bcd7-4c6d-9b18-44ec0fadd322","ios":"levelo://app?vid=82c54f9e-bcd7-4c6d-9b18-44ec0fadd322"},"vehicle_type_id":"4","last_reported":1761376161,"current_range_meters":20000,"station_id":"","pricing_plan_id":"cebpf4jnsgd1na2vs0mg"},{"bike_id":"7eb022a6-4096-41f8-85cd-5ee0a4d1a3b2","system_id":"levelo_inurba_marseille","lat":43.31744,"lon":5.40418,"is_reserved":false,"is_disabled":true,"rental_uris":{"android":"levelo://app?vid=7eb022a6-4096-41f8-85cd-5ee0a4d1a3b2","ios":"levelo://app?vid=7eb022a6-4096-41f8-85cd-5ee0a4d1a3b2"},"vehicle_type_id":"4","last_reported":1761376161,"current_range_meters":20000,"station_id":"","pricing_plan_id":"cebpf4jnsgd1na2vs0mg"},{"bike_id":"6775d557-4f3e-44bd-9cde-fbd8a3143346","system_id":"levelo_inurba_marseille","lat":43.30136,"lon":5.38082,"is_reserved":false,"is_disabled":false,"rental_uris":{"android":"levelo://app?vid=6775d557-4f3e-44bd-9cde-fbd8a3143346","ios":"levelo://app?vid=6775d557-4f3e-44bd-9cde-fbd8a3143346"},"vehicle_type_id":"4","last_reported":1761376161,"current_range_meters":20000,"station_id":"ce4bgjp2rcd13ifvqbh0","pricing_plan_id":"cebpf4jnsgd1na2vs0mg"},{"bike_id":"b8c3d528-dc46-48a5-b03b-d77e8c96a3a6","system_id":"levelo_inurba_marseille","lat":43.29246,"lon":5.38445,"is_reserved":false,"is_disabled":false,"rental_uris":{"android":"levelo://app?vid=b8c3d528-dc46-48a5-b03b-d77e8c96a3a6","ios":"levelo://app?vid=b8c3d528-dc46-48a5-b03b-d77e8c96a3a6"},"vehicle_type_id":"4","last_reported":1761376161,"current_range_meters":20000,"station_id":"ce4bh692rcd13ifvqea0","pricing_plan_id":"cebpf4jnsgd1na2vs0mg"},{"bike_id":"fd182024-bbeb-44de-9425-5579975bc12e","system_id":"levelo_inurba_marseille","lat":43.29615,"lon":5.40591,"is_reserved":false,"is_disabled":false,"rental_uris":{"android":"levelo://app?vid=fd182024-bbeb-44de-9425-5579975bc12e","ios":"levelo://app?vid=fd182024-bbeb-44de-9425-5579975bc12e"},"vehicle_type_id":"4","last_reported":1761376161,"current_range_meters":20000,"station_id":"ce4bh0h2rcd13ifvqd60","pricing_plan_id":"cebpf4jnsgd1na2vs0mg"},{"bike_id":"e90ff1ca-a6ac-42e7-9927-ded229b29c6a","system_id":"levelo_inurba_marseille","lat":43.33095,"lon":5.41692,"is_reserved":false,"is_disabled":false,"rental_uris":{"android":"levelo://app?vid=e90ff1ca-a6ac-42e7-9927-ded229b29c6a","ios":"levelo://app?vid=e90ff1ca-a6ac-42e7-9927-ded229b29c6a"},"vehicle_type_id":"4","last_reported":1761376161,"current_range_meters":20000,"station_id":"","pricing_plan_id":"cebpf4jnsgd1na2vs0mg"},{"bike_id":"188a624f-c3de-4e19-ba14-2fcb217e13cc","system_id":"levelo_inurba_marseille","lat":43.25822,"lon":5.39435,"is_reserved":false,"is_disabled":false,"rental_uris":{"android":"levelo://app?vid=188a624f-c3de-4e19-ba14-2fcb217e13cc","ios":"levelo://app?vid=188a624f-c3de-4e19-ba14-2fcb217e13cc"},"vehicle_type_id":"4","last_reported":1761376161,"current_range_meters":20400,"station_id":"ce4bhip2rcd13ifvqft0","pricing_plan_id":"cebpf4jnsgd1na2vs0mg"},{"bike_id":"8847af5d-c1ad-4d8d-a5c1-273c3b41c105","system_id":"levelo_inurba_marseille","lat":43.32256,"lon":5.41932,"is_reserved":false,"is_disabled":false,"rental_uris":{"android":"levelo://app?vid=8847af5d-c1ad-4d8d-a5c1-273c3b41c105","ios":"levelo://app?vid=8847af5d-c1ad-4d8d-a5c1-273c3b41c105"},"vehicle_type_id":"4","last_reported":1761376161,"current_range_meters":20400,"station_id":"","pricing_plan_id":"cebpf4jnsgd1na2vs0mg"},{"bike_id":"d0988aa1-ebb4-4b7d-9c08-2c87493af145","system_id":"levelo_inurba_marseille","lat":43.28473,"lon":5.35873,"is_reserved":false,"is_disabled":false,"rental_uris":{"android":"levelo://app?vid=d0988aa1-ebb4-4b7d-9c08-2c87493af145","ios":"levelo://app?vid=d0988aa1-ebb4-4b7d-9c08-2c87493af145"},"vehicle_type_id":"4","last_reported":1761376161,"current_range_meters":20400,"station_id":"ce4bhah2rcd13ifvqei0","pricing_plan_id":"cebpf4jnsgd1na2vs0mg"},{"bike_id":"8da4a3b5-0e4d-4f98-86c5-ad9fc278755a","system_id":"levelo_inurba_marseille","lat":43.27823,"lon":5.40737,"is_reserved":false,"is_disabled":false,"rental_uris":{"android":"levelo://app?vid=8da4a3b5-0e4d-4f98-86c5-ad9fc278755a","ios":"levelo://app?vid=8da4a3b5-0e4d-4f98-86c5-ad9fc278755a"},"vehicle_type_id":"4","last_reported":1761376161,"current_range_meters":20400,"station_id":"ce4bhnh2rcd13ifvqgtg","pricing_plan_id":"cebpf4jnsgd1na2vs0mg"},{"bike_id":"eb50a63b-d42b-40ff-a7d6-cffb5a5c1555","system_id":"levelo_inurba_marseille","lat":43.29236,"lon":5.38445,"is_reserved":false,"is_disabled":true,"rental_uris":{"android":"levelo://app?vid=eb50a63b-d42b-40ff-a7d6-cffb5a5c1555","ios":"levelo://app?vid=eb50a63b-d42b-40ff-a7d6-cffb5a5c1555"},"vehicle_type_id":"4","last_reported":1761376161,"current_range_meters":20400,"station_id":"ce4bh692rcd13ifvqea0","pricing_plan_id":"cebpf4jnsgd1na2vs0mg"},{"bike_id":"67f8857f-0853-46d2-b9ef-96c5ce2639bc","system_id":"levelo_inurba_marseille","lat":43.23047,"lon":5.355,"is_reserved":false,"is_disabled":false,"rental_uris":{"android":"levelo://app?vid=67f8857f-0853-46d2-b9ef-96c5ce2639bc","ios":"levelo://app?vid=67f8857f-0853-46d2-b9ef-96c5ce2639bc"},"vehicle_type_id":"4","last_reported":1761376161,"current_range_meters":20400,"station_id":"cpo3342slgdg3j2ifvpg","pricing_plan_id":"cebpf4jnsgd1na2vs0mg"},{"bike_id":"d5dfaebc-363f-4601-b26a-6e9c4f1c2b4b","system_id":"levelo_inurba_marseille","lat":43.21183,"lon":5.35062,"is_reserved":false,"is_disabled":false,"rental_uris":{"android":"levelo://app?vid=d5dfaebc-363f-4601-b26a-6e9c4f1c2b4b","ios":"levelo://app?vid=d5dfaebc-363f-4601-b26a-6e9c4f1c2b4b"},"vehicle_type_id":"4","last_reported":1761376161,"current_range_meters":20400,"station_id":"st_cvj6sg6p6f1abm77japg","pricing_plan_id":"cebpf4jnsgd1na2vs0mg"},{"bike_id":"b4a58be7-078f-4a20-a7d5-be89215205b6","system_id":"levelo_inurba_marseille","lat":43.31265,"lon":5.4017,"is_reserved":false,"is_disabled":false,"rental_uris":{"android":"levelo://app?vid=b4a58be7-078f-4a20-a7d5-be89215205b6","ios":"levelo://app?vid=b4a58be7-078f-4a20-a7d5-be89215205b6"},"vehicle_type_id":"4","last_reported":1761376161,"current_range_meters":20400,"station_id":"ce4bh092rcd13ifvqd30","pricing_plan_id":"cebpf4jnsgd1na2vs0mg"},{"bike_id":"d3cc7656-8e75-4784-83f0-bcb556deaa8f","system_id":"levelo_inurba_marseille","lat":43.301569,"lon":5.380719,"is_reserved":false,"is_disabled":false,"rental_uris":{"android":"levelo://app?vid=d3cc7656-8e75-4784-83f0-bcb556deaa8f","ios":"levelo://app?vid=d3cc7656-8e75-4784-83f0-bcb556deaa8f"},"vehicle_type_id":"4","last_reported":1761376161,"current_range_meters":20400,"station_id":"ce4bgjp2rcd13ifvqbh0","pricing_plan_id":"cebpf4jnsgd1na2vs0mg"},{"bike_id":"df32a8bf-ca8a-481f-a891-94f4bf44442f","system_id":"levelo_inurba_marseille","lat":43.29978,"lon":5.37357,"is_reserved":false,"is_disabled":false,"rental_uris":{"android":"levelo://app?vid=df32a8bf-ca8a-481f-a891-94f4bf44442f","ios":"levelo://app?vid=df32a8bf-ca8a-481f-a891-94f4bf44442f"},"vehicle_type_id":"4","last_reported":1761376161,"current_range_meters":20400,"station_id":"","pricing_plan_id":"cebpf4jnsgd1na2vs0mg"},{"bike_id":"8da2ca0b-ddf1-46ec-83eb-1e1fef1cc801","system_id":"levelo_inurba_marseille","lat":43.31521,"lon":5.37238,"is_reserved":false,"is_disabled":false,"rental_uris":{"android":"levelo://app?vid=8da2ca0b-ddf1-46ec-83eb-1e1fef1cc801","ios":"levelo://app?vid=8da2ca0b-ddf1-46ec-83eb-1e1fef1cc801"},"vehicle_type_id":"4","last_reported":1761376161,"current_range_meters":20800,"station_id":"ce4bgt12rcd13ifvqcd0","pricing_plan_id":"cebpf4jnsgd1na2vs0mg"},{"bike_id":"1a941277-2e63-4624-8f42-ffde5fbf41f3","system_id":"levelo_inurba_marseille","lat":43.31517,"lon":5.37328,"is_reserved":false,"is_disabled":false,"rental_uris":{"android":"levelo://app?vid=1a941277-2e63-4624-8f42-ffde5fbf41f3","ios":"levelo://app?vid=1a941277-2e63-4624-8f42-ffde5fbf41f3"},"vehicle_type_id":"4","last_reported":1761376161,"current_range_meters":20800,"station_id":"ce4bgt12rcd13ifvqcd0","pricing_plan_id":"cebpf4jnsgd1na2vs0mg"},{"bike_id":"4523805d-fdbc-4806-b0f4-e33753ead855","system_id":"levelo_inurba_marseille","lat":43.29506,"lon":5.3941,"is_reserved":false,"is_disabled":true,"rental_uris":{"android":"levelo://app?vid=4523805d-fdbc-4806-b0f4-e33753ead855","ios":"levelo://app?vid=4523805d-fdbc-4806-b0f4-e33753ead855"},"vehicle_type_id":"4","last_reported":1761376161,"current_range_meters":20800,"station_id":"ce4bh292rcd13ifvqdf0","pricing_plan_id":"cebpf4jnsgd1na2vs0mg"},{"bike_id":"6b9db57d-809a-425a-99a4-37c9ded5a97f","system_id":"levelo_inurba_marseille","lat":43.30884,"lon":5.39611,"is_reserved":false,"is_disabled":false,"rental_uris":{"android":"levelo://app?vid=6b9db57d-809a-425a-99a4-37c9ded5a97f","ios":"levelo://app?vid=6b9db57d-809a-425a-99a4-37c9ded5a97f"},"vehicle_type_id":"4","last_reported":1761376161,"current_range_meters":20800,"station_id":"ce4bh012rcd13ifvqcv0","pricing_plan_id":"cebpf4jnsgd1na2vs0mg"},{"bike_id":"625c303a-5985-4c01-88ed-6c57959cc4b8","system_id":"levelo_inurba_marseille","lat":43.23172,"lon":5.39988,"is_reserved":false,"is_disabled":false,"rental_uris":{"android":"levelo://app?vid=625c303a-5985-4c01-88ed-6c57959cc4b8","ios":"levelo://app?vid=625c303a-5985-4c01-88ed-6c57959cc4b8"},"vehicle_type_id":"4","last_reported":1761376161,"current_range_meters":20800,"station_id":"ce4bhn12rcd13ifvqgqg","pricing_plan_id":"cebpf4jnsgd1na2vs0mg"},{"bike_id":"218c6e0a-6fdf-41f2-9f9c-52da1cbef58a","system_id":"levelo_inurba_marseille","lat":43.323533,"lon":5.367388,"is_reserved":false,"is_disabled":false,"rental_uris":{"android":"levelo://app?vid=218c6e0a-6fdf-41f2-9f9c-52da1cbef58a","ios":"levelo://app?vid=218c6e0a-6fdf-41f2-9f9c-52da1cbef58a"},"vehicle_type_id":"4","last_reported":1761376161,"current_range_meters":20800,"station_id":"ce4bhsh2rcd13ifvqi2g","pricing_plan_id":"cebpf4jnsgd1na2vs0mg"},{"bike_id":"64b75b4a-3497-4861-8cc2-90dd62cd9f5e","system_id":"levelo_inurba_marseille","lat":43.29485,"lon":5.43328,"is_reserved":false,"is_disabled":false,"rental_uris":{"android":"levelo://app?vid=64b75b4a-3497-4861-8cc2-90dd62cd9f5e","ios":"levelo://app?vid=64b75b4a-3497-4861-8cc2-90dd62cd9f5e"},"vehicle_type_id":"4","last_reported":1761376161,"current_range_meters":20800,"station_id":"st_d3j5ugp08ojc73fj9d10","pricing_plan_id":"cebpf4jnsgd1na2vs0mg"},{"bike_id":"2e2b579b-2bf4-4e28-969f-bf817846c248","system_id":"levelo_inurba_marseille","lat":43.270651,"lon":5.382935,"is_reserved":false,"is_disabled":false,"rental_uris":{"android":"levelo://app?vid=2e2b579b-2bf4-4e28-969f-bf817846c248","ios":"levelo://app?vid=2e2b579b-2bf4-4e28-969f-bf817846c248"},"vehicle_type_id":"4","last_reported":1761376161,"current_range_meters":20800,"station_id":"st_d3n2fo6cfp8s73cte1j0","pricing_plan_id":"cebpf4jnsgd1na2vs0mg"},{"bike_id":"89f4f3ce-a685-4501-a7a3-6246ae9cb18d","system_id":"levelo_inurba_marseille","lat":43.2795,"lon":5.41054,"is_reserved":false,"is_disabled":false,"rental_uris":{"android":"levelo://app?vid=89f4f3ce-a685-4501-a7a3-6246ae9cb18d","ios":"levelo://app?vid=89f4f3ce-a685-4501-a7a3-6246ae9cb18d"},"vehicle_type_id":"4","last_reported":1761376161,"current_range_meters":20800,"station_id":"ce4bhnp2rcd13ifvqh0g","pricing_plan_id":"cebpf4jnsgd1na2vs0mg"},{"bike_id":"bdf74eea-e435-4c5a-b075-08dd768d73bf","system_id":"levelo_inurba_marseille","lat":43.303265,"lon":5.404474,"is_reserved":false,"is_disabled":true,"rental_uris":{"android":"levelo://app?vid=bdf74eea-e435-4c5a-b075-08dd768d73bf","ios":"levelo://app?vid=bdf74eea-e435-4c5a-b075-08dd768d73bf"},"vehicle_type_id":"4","last_reported":1761376161,"current_range_meters":21600,"station_id":"","pricing_plan_id":"cebpf4jnsgd1na2vs0mg"},{"bike_id":"cb9458d8-02a0-4dea-aece-e20aead1c206","system_id":"levelo_inurba_marseille","lat":43.28473,"lon":5.35865,"is_reserved":false,"is_disabled":false,"rental_uris":{"android":"levelo://app?vid=cb9458d8-02a0-4dea-aece-e20aead1c206","ios":"levelo://app?vid=cb9458d8-02a0-4dea-aece-e20aead1c206"},"vehicle_type_id":"4","last_reported":1761376161,"current_range_meters":21600,"station_id":"ce4bhah2rcd13ifvqei0","pricing_plan_id":"cebpf4jnsgd1na2vs0mg"},{"bike_id":"7b64abc3-f291-4b00-acac-282d2810c9c2","system_id":"levelo_inurba_marseille","lat":43.29958,"lon":5.37029,"is_reserved":false,"is_disabled":false,"rental_uris":{"android":"levelo://app?vid=7b64abc3-f291-4b00-acac-282d2810c9c2","ios":"levelo://app?vid=7b64abc3-f291-4b00-acac-282d2810c9c2"},"vehicle_type_id":"4","last_reported":1761376161,"current_range_meters":21600,"station_id":"","pricing_plan_id":"cebpf4jnsgd1na2vs0mg"},{"bike_id":"1eac0aa7-2b82-4118-bb70-4582cf563475","system_id":"levelo_inurba_marseille","lat":43.28478,"lon":5.48382,"is_reserved":false,"is_disabled":false,"rental_uris":{"android":"levelo://app?vid=1eac0aa7-2b82-4118-bb70-4582cf563475","ios":"levelo://app?vid=1eac0aa7-2b82-4118-bb70-4582cf563475"},"vehicle_type_id":"4","last_reported":1761376161,"current_range_meters":21600,"station_id":"st_d3svhcjqgbts73a3dn0g","pricing_plan_id":"cebpf4jnsgd1na2vs0mg"},{"bike_id":"9b501ffc-da42-4dae-9189-5ec7537987c0","system_id":"levelo_inurba_marseille","lat":43.309026,"lon":5.381883,"is_reserved":false,"is_disabled":false,"rental_uris":{"android":"levelo://app?vid=9b501ffc-da42-4dae-9189-5ec7537987c0","ios":"levelo://app?vid=9b501ffc-da42-4dae-9189-5ec7537987c0"},"vehicle_type_id":"4","last_reported":1761376161,"current_range_meters":21600,"station_id":"ce4bgt12rcd13ifvqce0","pricing_plan_id":"cebpf4jnsgd1na2vs0mg"},{"bike_id":"9438d25a-696a-4f3d-8b88-3dbb46e80b4d","system_id":"levelo_inurba_marseille","lat":43.3148,"lon":5.373065,"is_reserved":false,"is_disabled":false,"rental_uris":{"android":"levelo://app?vid=9438d25a-696a-4f3d-8b88-3dbb46e80b4d","ios":"levelo://app?vid=9438d25a-696a-4f3d-8b88-3dbb46e80b4d"},"vehicle_type_id":"4","last_reported":1761376161,"current_range_meters":21600,"station_id":"ce4bgt12rcd13ifvqcd0","pricing_plan_id":"cebpf4jnsgd1na2vs0mg"},{"bike_id":"adb7125f-497e-4ea5-8b8e-0e6cd28e9d17","system_id":"levelo_inurba_marseille","lat":43.25332,"lon":5.42145,"is_reserved":false,"is_disabled":false,"rental_uris":{"android":"levelo://app?vid=adb7125f-497e-4ea5-8b8e-0e6cd28e9d17","ios":"levelo://app?vid=adb7125f-497e-4ea5-8b8e-0e6cd28e9d17"},"vehicle_type_id":"4","last_reported":1761376161,"current_range_meters":21600,"station_id":"st_d2m65c5bi1j21697t3ng","pricing_plan_id":"cebpf4jnsgd1na2vs0mg"},{"bike_id":"2183fa59-9c24-4d41-9a64-afd6f6906a61","system_id":"levelo_inurba_marseille","lat":43.292488,"lon":5.408999,"is_reserved":false,"is_disabled":false,"rental_uris":{"android":"levelo://app?vid=2183fa59-9c24-4d41-9a64-afd6f6906a61","ios":"levelo://app?vid=2183fa59-9c24-4d41-9a64-afd6f6906a61"},"vehicle_type_id":"4","last_reported":1761376161,"current_range_meters":21600,"station_id":"ce4bh192rcd13ifvqdc0","pricing_plan_id":"cebpf4jnsgd1na2vs0mg"},{"bike_id":"68230254-d1f7-4d27-8bbf-5b0bf2c99e14","system_id":"levelo_inurba_marseille","lat":43.30359,"lon":5.38639,"is_reserved":false,"is_disabled":false,"rental_uris":{"android":"levelo://app?vid=68230254-d1f7-4d27-8bbf-5b0bf2c99e14","ios":"levelo://app?vid=68230254-d1f7-4d27-8bbf-5b0bf2c99e14"},"vehicle_type_id":"4","last_reported":1761376161,"current_range_meters":21600,"station_id":"","pricing_plan_id":"cebpf4jnsgd1na2vs0mg"},{"bike_id":"c124d4a0-9e47-48ec-ad7a-ea36eb6e5d35","system_id":"levelo_inurba_marseille","lat":43.24396,"lon":5.37042,"is_reserved":false,"is_disabled":false,"rental_uris":{"android":"levelo://app?vid=c124d4a0-9e47-48ec-ad7a-ea36eb6e5d35","ios":"levelo://app?vid=c124d4a0-9e47-48ec-ad7a-ea36eb6e5d35"},"vehicle_type_id":"4","last_reported":1761376161,"current_range_meters":21600,"station_id":"ce4bhhh2rcd13ifvqfk0","pricing_plan_id":"cebpf4jnsgd1na2vs0mg"},{"bike_id":"50422f4e-3c9e-4bf3-802a-e3507df47a14","system_id":"levelo_inurba_marseille","lat":43.211957,"lon":5.350733,"is_reserved":false,"is_disabled":false,"rental_uris":{"android":"levelo://app?vid=50422f4e-3c9e-4bf3-802a-e3507df47a14","ios":"levelo://app?vid=50422f4e-3c9e-4bf3-802a-e3507df47a14"},"vehicle_type_id":"4","last_reported":1761376161,"current_range_meters":22000,"station_id":"st_cvj6sg6p6f1abm77japg","pricing_plan_id":"cebpf4jnsgd1na2vs0mg"},{"bike_id":"74caa548-3cc4-428c-abce-673ea7a5e8db","system_id":"levelo_inurba_marseille","lat":43.31106,"lon":5.3776,"is_reserved":false,"is_disabled":false,"rental_uris":{"android":"levelo://app?vid=74caa548-3cc4-428c-abce-673ea7a5e8db","ios":"levelo://app?vid=74caa548-3cc4-428c-abce-673ea7a5e8db"},"vehicle_type_id":"4","last_reported":1761376161,"current_range_meters":22000,"station_id":"ce4bgt92rcd13ifvqcg0","pricing_plan_id":"cebpf4jnsgd1na2vs0mg"},{"bike_id":"2148beeb-8cf8-4ebe-a3cc-23a26b0cfcc0","system_id":"levelo_inurba_marseille","lat":43.286087,"lon":5.351057,"is_reserved":false,"is_disabled":false,"rental_uris":{"android":"levelo://app?vid=2148beeb-8cf8-4ebe-a3cc-23a26b0cfcc0","ios":"levelo://app?vid=2148beeb-8cf8-4ebe-a3cc-23a26b0cfcc0"},"vehicle_type_id":"4","last_reported":1761376161,"current_range_meters":22000,"station_id":"ce4bhch2rcd13ifvqeug","pricing_plan_id":"cebpf4jnsgd1na2vs0mg"},{"bike_id":"f0c8f63c-c438-4056-b6aa-a16cbb70ea32","system_id":"levelo_inurba_marseille","lat":43.26564,"lon":5.39622,"is_reserved":false,"is_disabled":false,"rental_uris":{"android":"levelo://app?vid=f0c8f63c-c438-4056-b6aa-a16cbb70ea32","ios":"levelo://app?vid=f0c8f63c-c438-4056-b6aa-a16cbb70ea32"},"vehicle_type_id":"4","last_reported":1761376161,"current_range_meters":22400,"station_id":"","pricing_plan_id":"cebpf4jnsgd1na2vs0mg"},{"bike_id":"9cae943c-80b4-49df-b0db-20a5e41c1c47","system_id":"levelo_inurba_marseille","lat":43.26555,"lon":5.37306,"is_reserved":false,"is_disabled":false,"rental_uris":{"android":"levelo://app?vid=9cae943c-80b4-49df-b0db-20a5e41c1c47","ios":"levelo://app?vid=9cae943c-80b4-49df-b0db-20a5e41c1c47"},"vehicle_type_id":"4","last_reported":1761376161,"current_range_meters":22400,"station_id":"ce4bhg12rcd13ifvqf70","pricing_plan_id":"cebpf4jnsgd1na2vs0mg"},{"bike_id":"ad2eb16d-171f-4922-8350-60a1f0eac4a9","system_id":"levelo_inurba_marseille","lat":43.24389,"lon":5.37057,"is_reserved":false,"is_disabled":false,"rental_uris":{"android":"levelo://app?vid=ad2eb16d-171f-4922-8350-60a1f0eac4a9","ios":"levelo://app?vid=ad2eb16d-171f-4922-8350-60a1f0eac4a9"},"vehicle_type_id":"4","last_reported":1761376161,"current_range_meters":22800,"station_id":"ce4bhhh2rcd13ifvqfk0","pricing_plan_id":"cebpf4jnsgd1na2vs0mg"},{"bike_id":"d59368d9-144f-4796-bd7d-352ae186ec05","system_id":"levelo_inurba_marseille","lat":43.23782,"lon":5.3663,"is_reserved":false,"is_disabled":false,"rental_uris":{"android":"levelo://app?vid=d59368d9-144f-4796-bd7d-352ae186ec05","ios":"levelo://app?vid=d59368d9-144f-4796-bd7d-352ae186ec05"},"vehicle_type_id":"4","last_reported":1761376161,"current_range_meters":22800,"station_id":"st_d3nk18o9ro0c73en2l3g","pricing_plan_id":"cebpf4jnsgd1na2vs0mg"},{"bike_id":"3eff32f5-96a8-4d68-be91-893a0ef0fceb","system_id":"levelo_inurba_marseille","lat":43.29014,"lon":5.38145,"is_reserved":false,"is_disabled":false,"rental_uris":{"android":"levelo://app?vid=3eff32f5-96a8-4d68-be91-893a0ef0fceb","ios":"levelo://app?vid=3eff32f5-96a8-4d68-be91-893a0ef0fceb"},"vehicle_type_id":"4","last_reported":1761376161,"current_range_meters":22800,"station_id":"ce4bh4p2rcd13ifvqe1g","pricing_plan_id":"cebpf4jnsgd1na2vs0mg"},{"bike_id":"23a5d0aa-7719-44d2-a690-00ab0c894cad","system_id":"levelo_inurba_marseille","lat":43.32285,"lon":5.38264,"is_reserved":false,"is_disabled":false,"rental_uris":{"android":"levelo://app?vid=23a5d0aa-7719-44d2-a690-00ab0c894cad","ios":"levelo://app?vid=23a5d0aa-7719-44d2-a690-00ab0c894cad"},"vehicle_type_id":"4","last_reported":1761376161,"current_range_meters":22800,"station_id":"ce4bhr12rcd13ifvqhqg","pricing_plan_id":"cebpf4jnsgd1na2vs0mg"},{"bike_id":"bc21c965-16b6-4789-9266-2f575ce7c9e8","system_id":"levelo_inurba_marseille","lat":43.25339,"lon":5.42173,"is_reserved":false,"is_disabled":false,"rental_uris":{"android":"levelo://app?vid=bc21c965-16b6-4789-9266-2f575ce7c9e8","ios":"levelo://app?vid=bc21c965-16b6-4789-9266-2f575ce7c9e8"},"vehicle_type_id":"4","last_reported":1761376161,"current_range_meters":22800,"station_id":"st_d2m65c5bi1j21697t3ng","pricing_plan_id":"cebpf4jnsgd1na2vs0mg"},{"bike_id":"9ab3b90f-adc0-4bc3-984f-81cebbcdb0b6","system_id":"levelo_inurba_marseille","lat":43.301443,"lon":5.381012,"is_reserved":false,"is_disabled":false,"rental_uris":{"android":"levelo://app?vid=9ab3b90f-adc0-4bc3-984f-81cebbcdb0b6","ios":"levelo://app?vid=9ab3b90f-adc0-4bc3-984f-81cebbcdb0b6"},"vehicle_type_id":"4","last_reported":1761376161,"current_range_meters":22800,"station_id":"ce4bgjp2rcd13ifvqbh0","pricing_plan_id":"cebpf4jnsgd1na2vs0mg"},{"bike_id":"35df44a1-0058-4f7c-b4d8-d3996058e5c3","system_id":"levelo_inurba_marseille","lat":43.25817,"lon":5.39431,"is_reserved":false,"is_disabled":false,"rental_uris":{"android":"levelo://app?vid=35df44a1-0058-4f7c-b4d8-d3996058e5c3","ios":"levelo://app?vid=35df44a1-0058-4f7c-b4d8-d3996058e5c3"},"vehicle_type_id":"4","last_reported":1761376161,"current_range_meters":22800,"station_id":"ce4bhip2rcd13ifvqft0","pricing_plan_id":"cebpf4jnsgd1na2vs0mg"},{"bike_id":"1c2bb86e-5225-475c-949f-b9bd2db59d0a","system_id":"levelo_inurba_marseille","lat":43.27209,"lon":5.39179,"is_reserved":false,"is_disabled":false,"rental_uris":{"android":"levelo://app?vid=1c2bb86e-5225-475c-949f-b9bd2db59d0a","ios":"levelo://app?vid=1c2bb86e-5225-475c-949f-b9bd2db59d0a"},"vehicle_type_id":"4","last_reported":1761376161,"current_range_meters":22800,"station_id":"ce4bhhp2rcd13ifvqfm0","pricing_plan_id":"cebpf4jnsgd1na2vs0mg"},{"bike_id":"c1364006-f000-425c-a550-41ca9a2383c2","system_id":"levelo_inurba_marseille","lat":43.295696,"lon":5.399837,"is_reserved":false,"is_disabled":false,"rental_uris":{"android":"levelo://app?vid=c1364006-f000-425c-a550-41ca9a2383c2","ios":"levelo://app?vid=c1364006-f000-425c-a550-41ca9a2383c2"},"vehicle_type_id":"4","last_reported":1761376161,"current_range_meters":23200,"station_id":"ce4bh312rcd13ifvqdj0","pricing_plan_id":"cebpf4jnsgd1na2vs0mg"},{"bike_id":"4b2470c3-b35c-4c2c-98d3-5077ed70f58d","system_id":"levelo_inurba_marseille","lat":43.28259,"lon":5.35058,"is_reserved":false,"is_disabled":false,"rental_uris":{"android":"levelo://app?vid=4b2470c3-b35c-4c2c-98d3-5077ed70f58d","ios":"levelo://app?vid=4b2470c3-b35c-4c2c-98d3-5077ed70f58d"},"vehicle_type_id":"4","last_reported":1761376161,"current_range_meters":23200,"station_id":"ce4bhbp2rcd13ifvqerg","pricing_plan_id":"cebpf4jnsgd1na2vs0mg"},{"bike_id":"b1f59ed4-d374-4e97-b0f2-ace3eb2b9423","system_id":"levelo_inurba_marseille","lat":43.27529,"lon":5.42427,"is_reserved":false,"is_disabled":false,"rental_uris":{"android":"levelo://app?vid=b1f59ed4-d374-4e97-b0f2-ace3eb2b9423","ios":"levelo://app?vid=b1f59ed4-d374-4e97-b0f2-ace3eb2b9423"},"vehicle_type_id":"4","last_reported":1761376161,"current_range_meters":23200,"station_id":"ce4bhn92rcd13ifvqgrg","pricing_plan_id":"cebpf4jnsgd1na2vs0mg"},{"bike_id":"a49196e4-1c08-4fcf-a919-8b4e4ffc6b78","system_id":"levelo_inurba_marseille","lat":43.24645,"lon":5.38158,"is_reserved":false,"is_disabled":false,"rental_uris":{"android":"levelo://app?vid=a49196e4-1c08-4fcf-a919-8b4e4ffc6b78","ios":"levelo://app?vid=a49196e4-1c08-4fcf-a919-8b4e4ffc6b78"},"vehicle_type_id":"4","last_reported":1761376161,"current_range_meters":24000,"station_id":"ce4bhih2rcd13ifvqfr0","pricing_plan_id":"cebpf4jnsgd1na2vs0mg"},{"bike_id":"e4cdd185-f7a3-4bf5-88a3-e106cbe6fd56","system_id":"levelo_inurba_marseille","lat":43.27201,"lon":5.39185,"is_reserved":false,"is_disabled":false,"rental_uris":{"android":"levelo://app?vid=e4cdd185-f7a3-4bf5-88a3-e106cbe6fd56","ios":"levelo://app?vid=e4cdd185-f7a3-4bf5-88a3-e106cbe6fd56"},"vehicle_type_id":"4","last_reported":1761376161,"current_range_meters":24000,"station_id":"ce4bhhp2rcd13ifvqfm0","pricing_plan_id":"cebpf4jnsgd1na2vs0mg"},{"bike_id":"8ec42884-d525-4fe2-a539-f80109f23719","system_id":"levelo_inurba_marseille","lat":43.30887,"lon":5.37192,"is_reserved":false,"is_disabled":false,"rental_uris":{"android":"levelo://app?vid=8ec42884-d525-4fe2-a539-f80109f23719","ios":"levelo://app?vid=8ec42884-d525-4fe2-a539-f80109f23719"},"vehicle_type_id":"4","last_reported":1761376161,"current_range_meters":24000,"station_id":"ce4bguh2rcd13ifvqckg","pricing_plan_id":"cebpf4jnsgd1na2vs0mg"},{"bike_id":"7556ed2b-2d16-47d4-b1a4-6aeb246b0d68","system_id":"levelo_inurba_marseille","lat":43.26927,"lon":5.3891,"is_reserved":false,"is_disabled":false,"rental_uris":{"android":"levelo://app?vid=7556ed2b-2d16-47d4-b1a4-6aeb246b0d68","ios":"levelo://app?vid=7556ed2b-2d16-47d4-b1a4-6aeb246b0d68"},"vehicle_type_id":"4","last_reported":1761376161,"current_range_meters":24000,"station_id":"ce4bhhh2rcd13ifvqfl0","pricing_plan_id":"cebpf4jnsgd1na2vs0mg"},{"bike_id":"b223c2ec-c618-485b-b65c-09069add52e9","system_id":"levelo_inurba_marseille","lat":43.24805,"lon":5.37468,"is_reserved":false,"is_disabled":false,"rental_uris":{"android":"levelo://app?vid=b223c2ec-c618-485b-b65c-09069add52e9","ios":"levelo://app?vid=b223c2ec-c618-485b-b65c-09069add52e9"},"vehicle_type_id":"4","last_reported":1761376161,"current_range_meters":24400,"station_id":"ce4bhgh2rcd13ifvqfb0","pricing_plan_id":"cebpf4jnsgd1na2vs0mg"},{"bike_id":"f8258dcf-0403-4ee4-b4af-cd10a798a9b0","system_id":"levelo_inurba_marseille","lat":43.30878,"lon":5.37195,"is_reserved":false,"is_disabled":false,"rental_uris":{"android":"levelo://app?vid=f8258dcf-0403-4ee4-b4af-cd10a798a9b0","ios":"levelo://app?vid=f8258dcf-0403-4ee4-b4af-cd10a798a9b0"},"vehicle_type_id":"4","last_reported":1761376161,"current_range_meters":24400,"station_id":"ce4bguh2rcd13ifvqckg","pricing_plan_id":"cebpf4jnsgd1na2vs0mg"},{"bike_id":"2a43009c-5abc-4b7e-9483-1eb4af709a45","system_id":"levelo_inurba_marseille","lat":43.30144,"lon":5.38077,"is_reserved":false,"is_disabled":false,"rental_uris":{"android":"levelo://app?vid=2a43009c-5abc-4b7e-9483-1eb4af709a45","ios":"levelo://app?vid=2a43009c-5abc-4b7e-9483-1eb4af709a45"},"vehicle_type_id":"4","last_reported":1761376161,"current_range_meters":24400,"station_id":"ce4bgjp2rcd13ifvqbh0","pricing_plan_id":"cebpf4jnsgd1na2vs0mg"},{"bike_id":"8f5c3197-c223-412b-88eb-bee3f4507288","system_id":"levelo_inurba_marseille","lat":43.29927,"lon":5.36933,"is_reserved":false,"is_disabled":false,"rental_uris":{"android":"levelo://app?vid=8f5c3197-c223-412b-88eb-bee3f4507288","ios":"levelo://app?vid=8f5c3197-c223-412b-88eb-bee3f4507288"},"vehicle_type_id":"4","last_reported":1761376161,"current_range_meters":24400,"station_id":"","pricing_plan_id":"cebpf4jnsgd1na2vs0mg"},{"bike_id":"73026eb1-a58b-41fa-9f24-450a6c6d6ea2","system_id":"levelo_inurba_marseille","lat":43.31355,"lon":5.37917,"is_reserved":false,"is_disabled":true,"rental_uris":{"android":"levelo://app?vid=73026eb1-a58b-41fa-9f24-450a6c6d6ea2","ios":"levelo://app?vid=73026eb1-a58b-41fa-9f24-450a6c6d6ea2"},"vehicle_type_id":"4","last_reported":1761376161,"current_range_meters":24400,"station_id":"","pricing_plan_id":"cebpf4jnsgd1na2vs0mg"},{"bike_id":"7bd956e3-3093-4cfd-836b-f523022d3ee4","system_id":"levelo_inurba_marseille","lat":43.30133,"lon":5.38075,"is_reserved":false,"is_disabled":false,"rental_uris":{"android":"levelo://app?vid=7bd956e3-3093-4cfd-836b-f523022d3ee4","ios":"levelo://app?vid=7bd956e3-3093-4cfd-836b-f523022d3ee4"},"vehicle_type_id":"4","last_reported":1761376161,"current_range_meters":24400,"station_id":"ce4bgjp2rcd13ifvqbh0","pricing_plan_id":"cebpf4jnsgd1na2vs0mg"},{"bike_id":"6206c79a-22b0-4e01-9b32-aa9107ac3341","system_id":"levelo_inurba_marseille","lat":43.306606,"lon":5.400954,"is_reserved":false,"is_disabled":false,"rental_uris":{"android":"levelo://app?vid=6206c79a-22b0-4e01-9b32-aa9107ac3341","ios":"levelo://app?vid=6206c79a-22b0-4e01-9b32-aa9107ac3341"},"vehicle_type_id":"4","last_reported":1761376161,"current_range_meters":24800,"station_id":"ce4bh112rcd13ifvqda0","pricing_plan_id":"cebpf4jnsgd1na2vs0mg"},{"bike_id":"eb8f9d4e-69d3-4f74-80db-998f016ed926","system_id":"levelo_inurba_marseille","lat":43.32362,"lon":5.38886,"is_reserved":false,"is_disabled":false,"rental_uris":{"android":"levelo://app?vid=eb8f9d4e-69d3-4f74-80db-998f016ed926","ios":"levelo://app?vid=eb8f9d4e-69d3-4f74-80db-998f016ed926"},"vehicle_type_id":"4","last_reported":1761376161,"current_range_meters":24800,"station_id":"ce4bhqp2rcd13ifvqhog","pricing_plan_id":"cebpf4jnsgd1na2vs0mg"},{"bike_id":"609e8845-7ae3-4c4f-97f5-856dd3a8b490","system_id":"levelo_inurba_marseille","lat":43.288657,"lon":5.425125,"is_reserved":false,"is_disabled":false,"rental_uris":{"android":"levelo://app?vid=609e8845-7ae3-4c4f-97f5-856dd3a8b490","ios":"levelo://app?vid=609e8845-7ae3-4c4f-97f5-856dd3a8b490"},"vehicle_type_id":"4","last_reported":1761376161,"current_range_meters":24800,"station_id":"st_d3b462108ojc7389ooeg","pricing_plan_id":"cebpf4jnsgd1na2vs0mg"},{"bike_id":"cf2fa07e-8524-46e8-aff2-b8adced862e5","system_id":"levelo_inurba_marseille","lat":43.30209,"lon":5.39455,"is_reserved":false,"is_disabled":false,"rental_uris":{"android":"levelo://app?vid=cf2fa07e-8524-46e8-aff2-b8adced862e5","ios":"levelo://app?vid=cf2fa07e-8524-46e8-aff2-b8adced862e5"},"vehicle_type_id":"4","last_reported":1761376161,"current_range_meters":24800,"station_id":"ce4bh0p2rcd13ifvqd70","pricing_plan_id":"cebpf4jnsgd1na2vs0mg"},{"bike_id":"be836a37-286a-4f16-81af-a5d0434952bf","system_id":"levelo_inurba_marseille","lat":43.23191,"lon":5.35587,"is_reserved":false,"is_disabled":false,"rental_uris":{"android":"levelo://app?vid=be836a37-286a-4f16-81af-a5d0434952bf","ios":"levelo://app?vid=be836a37-286a-4f16-81af-a5d0434952bf"},