{"last_updated":1692378340,"ttl":30,"version":"2.2","data":{"bikes":[{"bike_id":"f22ca441-4e4e-4660-b824-b2f46943e54d","system_id":"levelo_inurba_marseille","lat":43.312239,"lon":5.368562,"is_reserved":false,"is_disabled":false,"rental_uris":{"android":"levelo://app?vid=f22ca441-4e4e-4660-b824-b2f46943e54d","ios":"levelo://app?vid=f22ca441-4e4e-4660-b824-b2f46943e54d"},"vehicle_type_id":"4","last_reported":1692378346,"current_range_meters":31200,"station_id":"ce4bgl92rcd13ifvqbq0","pricing_plan_id":"free"},{"bike_id":"ab2db4bc-6ce1-469e-a260-56e9f88e9e9c","system_id":"levelo_inurba_marseille","lat":43.309076,"lon":5.368465,"is_reserved":false,"is_disabled":false,"rental_uris":{"android":"levelo://app?vid=ab2db4bc-6ce1-469e-a260-56e9f88e9e9c","ios":"levelo://app?vid=ab2db4bc-6ce1-469e-a260-56e9f88e9e9c"},"vehicle_type_id":"4","last_reported":1692378346,"current_range_meters":3600,"station_id":"ce4bgn92rcd13ifvqbvg","pricing_plan_id":"free"},{"bike_id":"8f35ebe8-4027-4aab-ae6b-d10aeb93cf0f","system_id":"levelo_inurba_marseille","lat":43.314811,"lon":5.373104,"is_reserved":false,"is_disabled":false,"rental_uris":{"android":"levelo://app?vid=8f35ebe8-4027-4aab-ae6b-d10aeb93cf0f","ios":"levelo://app?vid=8f35ebe8-4027-4aab-ae6b-d10aeb93cf0f"},"vehicle_type_id":"4","last_reported":1692378346,"current_range_meters":0,"station_id":"ce4bgt12rcd13ifvqcd0","pricing_plan_id":"free"},{"bike_id":"4bd7319c-7f55-40a8-bc40-964934385f40","system_id":"levelo_inurba_marseille","lat":43.309039,"lon":5.371797,"is_reserved":false,"is_disabled":false,"rental_uris":{"android":"levelo://app?vid=4bd7319c-7f55-40a8-bc40-964934385f40","ios":"levelo://app?vid=4bd7319c-7f55-40a8-bc40-964934385f40"},"vehicle_type_id":"4","last_reported":1692378346,"current_range_meters":10400,"station_id":"ce4bguh2rcd13ifvqckg","pricing_plan_id":"free"},{"bike_id":"8e282257-5c1b-47f9-8bd4-e61679c24a4a","system_id":"levelo_inurba_marseille","lat":43.30699,"lon":5.372,"is_reserved":false,"is_disabled":false,"rental_uris":{"android":"levelo://app?vid=8e282257-5c1b-47f9-8bd4-e61679c24a4a","ios":"levelo://app?vid=8e282257-5c1b-47f9-8bd4-e61679c24a4a"},"vehicle_type_id":"4","last_reported":1692378346,"current_range_meters":12800,"station_id":"","pricing_plan_id":"free"},{"bike_id":"a5fd047b-a5dd-4c62-9885-6bfff79bc0b8","system_id":"levelo_inurba_marseille","lat":43.305706,"lon":5.365654,"is_reserved":false,"is_disabled":false,"rental_uris":{"android":"levelo://app?vid=a5fd047b-a5dd-4c62-9885-6bfff79bc0b8","ios":"levelo://app?vid=a5fd047b-a5dd-4c62-9885-6bfff79bc0b8"},"vehicle_type_id":"4","last_reported":1692378346,"current_range_meters":0,"station_id":"ce4bgs12rcd13ifvqcag","pricing_plan_id":"free"},{"bike_id":"386ed8e3-b71e-4f68-86af-202c5b76503e","system_id":"levelo_inurba_marseille","lat":43.3053,"lon":5.36699,"is_reserved":false,"is_disabled":false,"rental_uris":{"android":"levelo://app?vid=386ed8e3-b71e-4f68-86af-202c5b76503e","ios":"levelo://app?vid=386ed8e3-b71e-4f68-86af-202c5b76503e"},"vehicle_type_id":"4","last_reported":1692378346,"current_range_meters":29600,"station_id":"ce4bgrp2rcd13ifvqc9g","pricing_plan_id":"free"},{"bike_id":"9fbe6e18-d192-44c2-98b5-cafb68b41aa4","system_id":"levelo_inurba_marseille","lat":43.3054,"lon":5.36524,"is_reserved":false,"is_disabled":false,"rental_uris":{"android":"levelo://app?vid=9fbe6e18-d192-44c2-98b5-cafb68b41aa4","ios":"levelo://app?vid=9fbe6e18-d192-44c2-98b5-cafb68b41aa4"},"vehicle_type_id":"4","last_reported":1692378346,"current_range_meters":15200,"station_id":"ce4bgs12rcd13ifvqcag","pricing_plan_id":"free"},{"bike_id":"10a89fe8-8b0f-46ad-a6e4-7f133dbec55e","system_id":"levelo_inurba_marseille","lat":43.305989,"lon":5.37225,"is_reserved":false,"is_disabled":false,"rental_uris":{"android":"levelo://app?vid=10a89fe8-8b0f-46ad-a6e4-7f133dbec55e","ios":"levelo://app?vid=10a89fe8-8b0f-46ad-a6e4-7f133dbec55e"},"vehicle_type_id":"4","last_reported":1692378346,"current_range_meters":24800,"station_id":"ce4bgqh2rcd13ifvqc4g","pricing_plan_id":"free"},{"bike_id":"174fba8f-bf54-4ba9-95db-bff0adda9f46","system_id":"levelo_inurba_marseille","lat":43.305989,"lon":5.37225,"is_reserved":false,"is_disabled":false,"rental_uris":{"android":"levelo://app?vid=174fba8f-bf54-4ba9-95db-bff0adda9f46","ios":"levelo://app?vid=174fba8f-bf54-4ba9-95db-bff0adda9f46"},"vehicle_type_id":"4","last_reported":1692378346,"current_range_meters":6400,"station_id":"ce4bgqh2rcd13ifvqc4g","pricing_plan_id":"free"},{"bike_id":"53640608-da62-4512-b58d-327b7044bc34","system_id":"levelo_inurba_marseille","lat":43.305989,"lon":5.37225,"is_reserved":false,"is_disabled":false,"rental_uris":{"android":"levelo://app?vid=53640608-da62-4512-b58d-327b7044bc34","ios":"levelo://app?vid=53640608-da62-4512-b58d-327b7044bc34"},"vehicle_type_id":"4","last_reported":1692378346,"current_range_meters":28800,"station_id":"ce4bgqh2rcd13ifvqc4g","pricing_plan_id":"free"},{"bike_id":"e52b37a0-2ba8-4ad3-b2cc-bf6674cc56fd","system_id":"levelo_inurba_marseille","lat":43.30601,"lon":5.37231,"is_reserved":false,"is_disabled":false,"rental_uris":{"android":"levelo://app?vid=e52b37a0-2ba8-4ad3-b2cc-bf6674cc56fd","ios":"levelo://app?vid=e52b37a0-2ba8-4ad3-b2cc-bf6674cc56fd"},"vehicle_type_id":"4","last_reported":1692378346,"current_range_meters":7200,"station_id":"","pricing_plan_id":"free"},{"bike_id":"44e0670a-5278-4279-8aed-2557c96147f4","system_id":"levelo_inurba_marseille","lat":43.31707,"lon":5.37721,"is_reserved":false,"is_disabled":false,"rental_uris":{"android":"levelo://app?vid=44e0670a-5278-4279-8aed-2557c96147f4","ios":"levelo://app?vid=44e0670a-5278-4279-8aed-2557c96147f4"},"vehicle_type_id":"4","last_reported":1692378346,"current_range_meters":30000,"station_id":"","pricing_plan_id":"free"},{"bike_id":"7d29ee12-7a22-4bde-b74c-f2aaeee845c7","system_id":"levelo_inurba_marseille","lat":43.31531,"lon":5.38019,"is_reserved":false,"is_disabled":false,"rental_uris":{"android":"levelo://app?vid=7d29ee12-7a22-4bde-b74c-f2aaeee845c7","ios":"levelo://app?vid=7d29ee12-7a22-4bde-b74c-f2aaeee845c7"},"vehicle_type_id":"4","last_reported":1692378346,"current_range_meters":20000,"station_id":"ce4bhsp2rcd13ifvqi50","pricing_plan_id":"free"},{"bike_id":"5430a4c1-0ff0-4869-a63d-92258e673308","system_id":"levelo_inurba_marseille","lat":43.31541,"lon":5.38017,"is_reserved":false,"is_disabled":false,"rental_uris":{"android":"levelo://app?vid=5430a4c1-0ff0-4869-a63d-92258e673308","ios":"levelo://app?vid=5430a4c1-0ff0-4869-a63d-92258e673308"},"vehicle_type_id":"4","last_reported":1692378346,"current_range_meters":14800,"station_id":"ce4bhsp2rcd13ifvqi50","pricing_plan_id":"free"},{"bike_id":"28b8c7fd-4c88-403f-9814-975b1d0e7007","system_id":"levelo_inurba_marseille","lat":43.315293,"lon":5.380349,"is_reserved":false,"is_disabled":false,"rental_uris":{"android":"levelo://app?vid=28b8c7fd-4c88-403f-9814-975b1d0e7007","ios":"levelo://app?vid=28b8c7fd-4c88-403f-9814-975b1d0e7007"},"vehicle_type_id":"4","last_reported":1692378346,"current_range_meters":29200,"station_id":"ce4bhsp2rcd13ifvqi50","pricing_plan_id":"free"},{"bike_id":"2ea97f1a-1347-4738-a08b-7b9e24416fd8","system_id":"levelo_inurba_marseille","lat":43.31538,"lon":5.38024,"is_reserved":false,"is_disabled":false,"rental_uris":{"android":"levelo://app?vid=2ea97f1a-1347-4738-a08b-7b9e24416fd8","ios":"levelo://app?vid=2ea97f1a-1347-4738-a08b-7b9e24416fd8"},"vehicle_type_id":"4","last_reported":1692378346,"current_range_meters":22000,"station_id":"ce4bhsp2rcd13ifvqi50","pricing_plan_id":"free"},{"bike_id":"a6651547-d993-431a-9bb2-3389a1270c4d","system_id":"levelo_inurba_marseille","lat":43.31534,"lon":5.38028,"is_reserved":false,"is_disabled":false,"rental_uris":{"android":"levelo://app?vid=a6651547-d993-431a-9bb2-3389a1270c4d","ios":"levelo://app?vid=a6651547-d993-431a-9bb2-3389a1270c4d"},"vehicle_type_id":"4","last_reported":1692378346,"current_range_meters":29600,"station_id":"ce4bhsp2rcd13ifvqi50","pricing_plan_id":"free"},{"bike_id":"bfd18b81-7891-4c2a-9875-8c3cac67fc01","system_id":"levelo_inurba_marseille","lat":43.315293,"lon":5.380349,"is_reserved":false,"is_disabled":false,"rental_uris":{"android":"levelo://app?vid=bfd18b81-7891-4c2a-9875-8c3cac67fc01","ios":"levelo://app?vid=bfd18b81-7891-4c2a-9875-8c3cac67fc01"},"vehicle_type_id":"4","last_reported":1692378346,"current_range_meters":30400,"station_id":"ce4bhsp2rcd13ifvqi50","pricing_plan_id":"free"},{"bike_id":"9832dd4b-2667-44f0-9976-83ab3a5462c8","system_id":"levelo_inurba_marseille","lat":43.315293,"lon":5.380349,"is_reserved":false,"is_disabled":false,"rental_uris":{"android":"levelo://app?vid=9832dd4b-2667-44f0-9976-83ab3a5462c8","ios":"levelo://app?vid=9832dd4b-2667-44f0-9976-83ab3a5462c8"},"vehicle_type_id":"4","last_reported":1692378346,"current_range_meters":26800,"station_id":"ce4bhsp2rcd13ifvqi50","pricing_plan_id":"free"},{"bike_id":"b1ce8c2f-d585-4193-8765-0ab0d3fd8f86","system_id":"levelo_inurba_marseille","lat":43.31537,"lon":5.38031,"is_reserved":false,"is_disabled":false,"rental_uris":{"android":"levelo://app?vid=b1ce8c2f-d585-4193-8765-0ab0d3fd8f86","ios":"levelo://app?vid=b1ce8c2f-d585-4193-8765-0ab0d3fd8f86"},"vehicle_type_id":"4","last_reported":1692378346,"current_range_meters":18800,"station_id":"ce4bhsp2rcd13ifvqi50","pricing_plan_id":"free"},{"bike_id":"ae206411-eaa8-4ac8-9636-8149e80af6c8","system_id":"levelo_inurba_marseille","lat":43.315408,"lon":5.380318,"is_reserved":false,"is_disabled":false,"rental_uris":{"android":"levelo://app?vid=ae206411-eaa8-4ac8-9636-8149e80af6c8","ios":"levelo://app?vid=ae206411-eaa8-4ac8-9636-8149e80af6c8"},"vehicle_type_id":"4","last_reported":1692378346,"current_range_meters":20000,"station_id":"ce4bhsp2rcd13ifvqi50","pricing_plan_id":"free"},{"bike_id":"58d8d104-8d3f-4976-99f8-939c4abc52f7","system_id":"levelo_inurba_marseille","lat":43.31534,"lon":5.38038,"is_reserved":false,"is_disabled":false,"rental_uris":{"android":"levelo://app?vid=58d8d104-8d3f-4976-99f8-939c4abc52f7","ios":"levelo://app?vid=58d8d104-8d3f-4976-99f8-939c4abc52f7"},"vehicle_type_id":"4","last_reported":1692378346,"current_range_meters":14400,"station_id":"ce4bhsp2rcd13ifvqi50","pricing_plan_id":"free"},{"bike_id":"b34a65ec-ec0e-41ec-8ced-801b10068c3e","system_id":"levelo_inurba_marseille","lat":43.315293,"lon":5.380349,"is_reserved":false,"is_disabled":false,"rental_uris":{"android":"levelo://app?vid=b34a65ec-ec0e-41ec-8ced-801b10068c3e","ios":"levelo://app?vid=b34a65ec-ec0e-41ec-8ced-801b10068c3e"},"vehicle_type_id":"4","last_reported":1692378346,"current_range_meters":17600,"station_id":"ce4bhsp2rcd13ifvqi50","pricing_plan_id":"free"},{"bike_id":"025621e3-a363-49eb-bb9d-fad86ab5d7a7","system_id":"levelo_inurba_marseille","lat":43.308012,"lon":5.381511,"is_reserved":false,"is_disabled":false,"rental_uris":{"android":"levelo://app?vid=025621e3-a363-49eb-bb9d-fad86ab5d7a7","ios":"levelo://app?vid=025621e3-a363-49eb-bb9d-fad86ab5d7a7"},"vehicle_type_id":"4","last_reported":1692378346,"current_range_meters":5200,"station_id":"ce4bgt12rcd13ifvqce0","pricing_plan_id":"free"},{"bike_id":"9b6cc1d1-936f-4719-8a9c-47266106e1fd","system_id":"levelo_inurba_marseille","lat":43.304606,"lon":5.379026,"is_reserved":false,"is_disabled":false,"rental_uris":{"android":"levelo://app?vid=9b6cc1d1-936f-4719-8a9c-47266106e1fd","ios":"levelo://app?vid=9b6cc1d1-936f-4719-8a9c-47266106e1fd"},"vehicle_type_id":"4","last_reported":1692378346,"current_range_meters":17600,"station_id":"ce4bgup2rcd13ifvqcn0","pricing_plan_id":"free"},{"bike_id":"4fe81bae-7c6c-4dae-a3e8-e2f85145d5e5","system_id":"levelo_inurba_marseille","lat":43.302668,"lon":5.377099,"is_reserved":false,"is_disabled":false,"rental_uris":{"android":"levelo://app?vid=4fe81bae-7c6c-4dae-a3e8-e2f85145d5e5","ios":"levelo://app?vid=4fe81bae-7c6c-4dae-a3e8-e2f85145d5e5"},"vehicle_type_id":"4","last_reported":1692378346,"current_range_meters":8400,"station_id":"","pricing_plan_id":"free"},{"bike_id":"8f9423b6-2f75-4d37-9601-472d76ede970","system_id":"levelo_inurba_marseille","lat":43.31364,"lon":5.38468,"is_reserved":false,"is_disabled":false,"rental_uris":{"android":"levelo://app?vid=8f9423b6-2f75-4d37-9601-472d76ede970","ios":"levelo://app?vid=8f9423b6-2f75-4d37-9601-472d76ede970"},"vehicle_type_id":"4","last_reported":1692378346,"current_range_meters":11600,"station_id":"ce4bgt92rcd13ifvqcf0","pricing_plan_id":"free"},{"bike_id":"d75a167f-0ca6-4af3-be05-4bcd72389906","system_id":"levelo_inurba_marseille","lat":43.29968,"lon":5.37173,"is_reserved":false,"is_disabled":false,"rental_uris":{"android":"levelo://app?vid=d75a167f-0ca6-4af3-be05-4bcd72389906","ios":"levelo://app?vid=d75a167f-0ca6-4af3-be05-4bcd72389906"},"vehicle_type_id":"4","last_reported":1692378346,"current_range_meters":11600,"station_id":"ce4bgr92rcd13ifvqc7g","pricing_plan_id":"free"},{"bike_id":"8bcf6690-be5c-4b1e-8512-b735f86baa93","system_id":"levelo_inurba_marseille","lat":43.298433,"lon":5.362774,"is_reserved":false,"is_disabled":false,"rental_uris":{"android":"levelo://app?vid=8bcf6690-be5c-4b1e-8512-b735f86baa93","ios":"levelo://app?vid=8bcf6690-be5c-4b1e-8512-b735f86baa93"},"vehicle_type_id":"4","last_reported":1692378346,"current_range_meters":30000,"station_id":"ce4bgpp2rcd13ifvqc3g","pricing_plan_id":"free"},{"bike_id":"7b61efc9-454b-4bc0-9158-4205d4699352","system_id":"levelo_inurba_marseille","lat":43.299243,"lon":5.37481,"is_reserved":false,"is_disabled":false,"rental_uris":{"android":"levelo://app?vid=7b61efc9-454b-4bc0-9158-4205d4699352","ios":"levelo://app?vid=7b61efc9-454b-4bc0-9158-4205d4699352"},"vehicle_type_id":"4","last_reported":1692378346,"current_range_meters":19600,"station_id":"ce4bgjh2rcd13ifvqbg0","pricing_plan_id":"free"},{"bike_id":"d584c4b9-5193-4247-88c7-67f95c65cef2","system_id":"levelo_inurba_marseille","lat":43.29841,"lon":5.36265,"is_reserved":false,"is_disabled":false,"rental_uris":{"android":"levelo://app?vid=d584c4b9-5193-4247-88c7-67f95c65cef2","ios":"levelo://app?vid=d584c4b9-5193-4247-88c7-67f95c65cef2"},"vehicle_type_id":"4","last_reported":1692378346,"current_range_meters":1200,"station_id":"","pricing_plan_id":"free"},{"bike_id":"30988f8c-72a3-4a70-9de3-6a957a988f26","system_id":"levelo_inurba_marseille","lat":43.2984,"lon":5.36267,"is_reserved":false,"is_disabled":false,"rental_uris":{"android":"levelo://app?vid=30988f8c-72a3-4a70-9de3-6a957a988f26","ios":"levelo://app?vid=30988f8c-72a3-4a70-9de3-6a957a988f26"},"vehicle_type_id":"4","last_reported":1692378346,"current_range_meters":17200,"station_id":"","pricing_plan_id":"free"},{"bike_id":"68937a50-86c9-4219-9423-55419e607d7f","system_id":"levelo_inurba_marseille","lat":43.299243,"lon":5.37481,"is_reserved":false,"is_disabled":false,"rental_uris":{"android":"levelo://app?vid=68937a50-86c9-4219-9423-55419e607d7f","ios":"levelo://app?vid=68937a50-86c9-4219-9423-55419e607d7f"},"vehicle_type_id":"4","last_reported":1692378346,"current_range_meters":20800,"station_id":"ce4bgjh2rcd13ifvqbg0","pricing_plan_id":"free"},{"bike_id":"5b5c8cae-b425-4976-9ba8-5ae205664d6b","system_id":"levelo_inurba_marseille","lat":43.32289,"lon":5.38254,"is_reserved":false,"is_disabled":false,"rental_uris":{"android":"levelo://app?vid=5b5c8cae-b425-4976-9ba8-5ae205664d6b","ios":"levelo://app?vid=5b5c8cae-b425-4976-9ba8-5ae205664d6b"},"vehicle_type_id":"4","last_reported":1692378346,"current_range_meters":23600,"station_id":"ce4bhr12rcd13ifvqhqg","pricing_plan_id":"free"},{"bike_id":"5f91fc7d-0833-4a7c-a0d8-21ec0ad5455a","system_id":"levelo_inurba_marseille","lat":43.32289,"lon":5.38257,"is_reserved":false,"is_disabled":false,"rental_uris":{"android":"levelo://app?vid=5f91fc7d-0833-4a7c-a0d8-21ec0ad5455a","ios":"levelo://app?vid=5f91fc7d-0833-4a7c-a0d8-21ec0ad5455a"},"vehicle_type_id":"4","last_reported":1692378346,"current_range_meters":25200,"station_id":"ce4bhr12rcd13ifvqhqg","pricing_plan_id":"free"},{"bike_id":"67c43f86-fcb6-41cc-8957-c0d7033c94b6","system_id":"levelo_inurba_marseille","lat":43.32288,"lon":5.38261,"is_reserved":false,"is_disabled":false,"rental_uris":{"android":"levelo://app?vid=67c43f86-fcb6-41cc-8957-c0d7033c94b6","ios":"levelo://app?vid=67c43f86-fcb6-41cc-8957-c0d7033c94b6"},"vehicle_type_id":"4","last_reported":1692378346,"current_range_meters":22800,"station_id":"ce4bhr12rcd13ifvqhqg","pricing_plan_id":"free"},{"bike_id":"15120a69-1dc0-488d-b5dc-3813b3f3db2b","system_id":"levelo_inurba_marseille","lat":43.32292,"lon":5.3826,"is_reserved":false,"is_disabled":false,"rental_uris":{"android":"levelo://app?vid=15120a69-1dc0-488d-b5dc-3813b3f3db2b","ios":"levelo://app?vid=15120a69-1dc0-488d-b5dc-3813b3f3db2b"},"vehicle_type_id":"4","last_reported":1692378346,"current_range_meters":1600,"station_id":"ce4bhr12rcd13ifvqhqg","pricing_plan_id":"free"},{"bike_id":"673200d6-9c00-4797-bd65-06254571f6fe","system_id":"levelo_inurba_marseille","lat":43.32289,"lon":5.38267,"is_reserved":false,"is_disabled":false,"rental_uris":{"android":"levelo://app?vid=673200d6-9c00-4797-bd65-06254571f6fe","ios":"levelo://app?vid=673200d6-9c00-4797-bd65-06254571f6fe"},"vehicle_type_id":"4","last_reported":1692378346,"current_range_meters":27600,"station_id":"ce4bhr12rcd13ifvqhqg","pricing_plan_id":"free"},{"bike_id":"b9784bc4-a1f4-4e7b-a996-3746dcc4c656","system_id":"levelo_inurba_marseille","lat":43.32284,"lon":5.38278,"is_reserved":false,"is_disabled":false,"rental_uris":{"android":"levelo://app?vid=b9784bc4-a1f4-4e7b-a996-3746dcc4c656","ios":"levelo://app?vid=b9784bc4-a1f4-4e7b-a996-3746dcc4c656"},"vehicle_type_id":"4","last_reported":1692378346,"current_range_meters":14400,"station_id":"ce4bhr12rcd13ifvqhqg","pricing_plan_id":"free"},{"bike_id":"20066552-063e-4d3e-9e10-e0e8a6d2c838","system_id":"levelo_inurba_marseille","lat":43.32292,"lon":5.38269,"is_reserved":false,"is_disabled":false,"rental_uris":{"android":"levelo://app?vid=20066552-063e-4d3e-9e10-e0e8a6d2c838","ios":"levelo://app?vid=20066552-063e-4d3e-9e10-e0e8a6d2c838"},"vehicle_type_id":"4","last_reported":1692378346,"current_range_meters":6400,"station_id":"ce4bhr12rcd13ifvqhqg","pricing_plan_id":"free"},{"bike_id":"a1f7b084-f437-4e0c-8b20-334f54c48d59","system_id":"levelo_inurba_marseille","lat":43.32288,"lon":5.38274,"is_reserved":false,"is_disabled":false,"rental_uris":{"android":"levelo://app?vid=a1f7b084-f437-4e0c-8b20-334f54c48d59","ios":"levelo://app?vid=a1f7b084-f437-4e0c-8b20-334f54c48d59"},"vehicle_type_id":"4","last_reported":1692378346,"current_range_meters":22800,"station_id":"ce4bhr12rcd13ifvqhqg","pricing_plan_id":"free"},{"bike_id":"dfeeac75-820a-4455-804e-e17b713a5fe3","system_id":"levelo_inurba_marseille","lat":43.32828,"lon":5.36683,"is_reserved":false,"is_disabled":false,"rental_uris":{"android":"levelo://app?vid=dfeeac75-820a-4455-804e-e17b713a5fe3","ios":"levelo://app?vid=dfeeac75-820a-4455-804e-e17b713a5fe3"},"vehicle_type_id":"4","last_reported":1692378346,"current_range_meters":6000,"station_id":"ce4bhs92rcd13ifvqi0g","pricing_plan_id":"free"},{"bike_id":"e3a21d07-f446-4608-85be-12a81574bffc","system_id":"levelo_inurba_marseille","lat":43.32828,"lon":5.36676,"is_reserved":false,"is_disabled":false,"rental_uris":{"android":"levelo://app?vid=e3a21d07-f446-4608-85be-12a81574bffc","ios":"levelo://app?vid=e3a21d07-f446-4608-85be-12a81574bffc"},"vehicle_type_id":"4","last_reported":1692378346,"current_range_meters":20400,"station_id":"ce4bhs92rcd13ifvqi0g","pricing_plan_id":"free"},{"bike_id":"ebf9e0b0-bdba-46f0-81fb-f6661582b8ff","system_id":"levelo_inurba_marseille","lat":43.32831,"lon":5.36696,"is_reserved":false,"is_disabled":false,"rental_uris":{"android":"levelo://app?vid=ebf9e0b0-bdba-46f0-81fb-f6661582b8ff","ios":"levelo://app?vid=ebf9e0b0-bdba-46f0-81fb-f6661582b8ff"},"vehicle_type_id":"4","last_reported":1692378346,"current_range_meters":20400,"station_id":"ce4bhs92rcd13ifvqi0g","pricing_plan_id":"free"},{"bike_id":"6c09ece3-fe71-4fe5-a01c-e1589bb6a40e","system_id":"levelo_inurba_marseille","lat":43.32831,"lon":5.36685,"is_reserved":false,"is_disabled":false,"rental_uris":{"android":"levelo://app?vid=6c09ece3-fe71-4fe5-a01c-e1589bb6a40e","ios":"levelo://app?vid=6c09ece3-fe71-4fe5-a01c-e1589bb6a40e"},"vehicle_type_id":"4","last_reported":1692378346,"current_range_meters":26000,"station_id":"ce4bhs92rcd13ifvqi0g","pricing_plan_id":"free"},{"bike_id":"e497c6d1-2ef3-4aff-9066-18e73333d94c","system_id":"levelo_inurba_marseille","lat":43.328371,"lon":5.366909,"is_reserved":false,"is_disabled":false,"rental_uris":{"android":"levelo://app?vid=e497c6d1-2ef3-4aff-9066-18e73333d94c","ios":"levelo://app?vid=e497c6d1-2ef3-4aff-9066-18e73333d94c"},"vehicle_type_id":"4","last_reported":1692378346,"current_range_meters":8800,"station_id":"ce4bhs92rcd13ifvqi0g","pricing_plan_id":"free"},{"bike_id":"ad0c54be-ae08-44ca-b65f-8f9054904a23","system_id":"levelo_inurba_marseille","lat":43.328371,"lon":5.366909,"is_reserved":false,"is_disabled":false,"rental_uris":{"android":"levelo://app?vid=ad0c54be-ae08-44ca-b65f-8f9054904a23","ios":"levelo://app?vid=ad0c54be-ae08-44ca-b65f-8f9054904a23"},"vehicle_type_id":"4","last_reported":1692378346,"current_range_meters":15200,"station_id":"ce4bhs92rcd13ifvqi0g","pricing_plan_id":"free"},{"bike_id":"dd789220-e7b5-42c1-b9dc-dc4243148021","system_id":"levelo_inurba_marseille","lat":43.297163,"lon":5.365866,"is_reserved":false,"is_disabled":false,"rental_uris":{"android":"levelo://app?vid=dd789220-e7b5-42c1-b9dc-dc4243148021","ios":"levelo://app?vid=dd789220-e7b5-42c1-b9dc-dc4243148021"},"vehicle_type_id":"4","last_reported":1692378346,"current_range_meters":31200,"station_id":"ce4bgn12rcd13ifvqbt0","pricing_plan_id":"free"},{"bike_id":"d76eeb08-b0bd-407a-bdda-d0b1158bed33","system_id":"levelo_inurba_marseille","lat":43.297163,"lon":5.365866,"is_reserved":false,"is_disabled":false,"rental_uris":{"android":"levelo://app?vid=d76eeb08-b0bd-407a-bdda-d0b1158bed33","ios":"levelo://app?vid=d76eeb08-b0bd-407a-bdda-d0b1158bed33"},"vehicle_type_id":"4","last_reported":1692378346,"current_range_meters":27200,"station_id":"ce4bgn12rcd13ifvqbt0","pricing_plan_id":"free"},{"bike_id":"d3139180-8ba9-4c91-b6e4-8baae3c22113","system_id":"levelo_inurba_marseille","lat":43.296131,"lon":5.370773,"is_reserved":false,"is_disabled":false,"rental_uris":{"android":"levelo://app?vid=d3139180-8ba9-4c91-b6e4-8baae3c22113","ios":"levelo://app?vid=d3139180-8ba9-4c91-b6e4-8baae3c22113"},"vehicle_type_id":"4","last_reported":1692378346,"current_range_meters":31200,"station_id":"ce4bgnh2rcd13ifvqc0g","pricing_plan_id":"free"},{"bike_id":"bb155e93-116e-494a-9911-2df351c7dae8","system_id":"levelo_inurba_marseille","lat":43.296131,"lon":5.370791,"is_reserved":false,"is_disabled":false,"rental_uris":{"android":"levelo://app?vid=bb155e93-116e-494a-9911-2df351c7dae8","ios":"levelo://app?vid=bb155e93-116e-494a-9911-2df351c7dae8"},"vehicle_type_id":"4","last_reported":1692378346,"current_range_meters":30000,"station_id":"ce4bgnh2rcd13ifvqc0g","pricing_plan_id":"free"},{"bike_id":"3a871f9b-5684-4406-a385-1c2413f058de","system_id":"levelo_inurba_marseille","lat":43.29573,"lon":5.367355,"is_reserved":false,"is_disabled":false,"rental_uris":{"android":"levelo://app?vid=3a871f9b-5684-4406-a385-1c2413f058de","ios":"levelo://app?vid=3a871f9b-5684-4406-a385-1c2413f058de"},"vehicle_type_id":"4","last_reported":1692378346,"current_range_meters":31200,"station_id":"ce4bgph2rcd13ifvqc2g","pricing_plan_id":"free"},{"bike_id":"707c6d53-015b-4a99-909b-e6d871137208","system_id":"levelo_inurba_marseille","lat":43.299028,"lon":5.381509,"is_reserved":false,"is_disabled":false,"rental_uris":{"android":"levelo://app?vid=707c6d53-015b-4a99-909b-e6d871137208","ios":"levelo://app?vid=707c6d53-015b-4a99-909b-e6d871137208"},"vehicle_type_id":"4","last_reported":1692378346,"current_range_meters":31200,"station_id":"ce4bgj12rcd13ifvqbc0","pricing_plan_id":"free"},{"bike_id":"79dc4e06-be8b-4950-921a-0ee29a869cba","system_id":"levelo_inurba_marseille","lat":43.299028,"lon":5.381509,"is_reserved":false,"is_disabled":false,"rental_uris":{"android":"levelo://app?vid=79dc4e06-be8b-4950-921a-0ee29a869cba","ios":"levelo://app?vid=79dc4e06-be8b-4950-921a-0ee29a869cba"},"vehicle_type_id":"4","last_reported":1692378346,"current_range_meters":30800,"station_id":"ce4bgj12rcd13ifvqbc0","pricing_plan_id":"free"},{"bike_id":"7e216c7f-1ab0-42c6-8a53-f6343995fc2f","system_id":"levelo_inurba_marseille","lat":43.30951,"lon":5.39026,"is_reserved":false,"is_disabled":false,"rental_uris":{"android":"levelo://app?vid=7e216c7f-1ab0-42c6-8a53-f6343995fc2f","ios":"levelo://app?vid=7e216c7f-1ab0-42c6-8a53-f6343995fc2f"},"vehicle_type_id":"4","last_reported":1692378346,"current_range_meters":15200,"station_id":"ce4bgup2rcd13ifvqco0","pricing_plan_id":"free"},{"bike_id":"d17c8aec-2343-44ea-b212-9d6b770fa54b","system_id":"levelo_inurba_marseille","lat":43.299028,"lon":5.381509,"is_reserved":false,"is_disabled":false,"rental_uris":{"android":"levelo://app?vid=d17c8aec-2343-44ea-b212-9d6b770fa54b","ios":"levelo://app?vid=d17c8aec-2343-44ea-b212-9d6b770fa54b"},"vehicle_type_id":"4","last_reported":1692378346,"current_range_meters":28800,"station_id":"ce4bgj12rcd13ifvqbc0","pricing_plan_id":"free"},{"bike_id":"12f0eaf9-ce09-445d-ba0e-bc97f6a12928","system_id":"levelo_inurba_marseille","lat":43.299028,"lon":5.381509,"is_reserved":false,"is_disabled":false,"rental_uris":{"android":"levelo://app?vid=12f0eaf9-ce09-445d-ba0e-bc97f6a12928","ios":"levelo://app?vid=12f0eaf9-ce09-445d-ba0e-bc97f6a12928"},"vehicle_type_id":"4","last_reported":1692378346,"current_range_meters":12000,"station_id":"ce4bgj12rcd13ifvqbc0","pricing_plan_id":"free"},{"bike_id":"eb12f345-09da-4495-9a5d-ee11d1f4e0fb","system_id":"levelo_inurba_marseille","lat":43.309589,"lon":5.390258,"is_reserved":false,"is_disabled":false,"rental_uris":{"android":"levelo://app?vid=eb12f345-09da-4495-9a5d-ee11d1f4e0fb","ios":"levelo://app?vid=eb12f345-09da-4495-9a5d-ee11d1f4e0fb"},"vehicle_type_id":"4","last_reported":1692378346,"current_range_meters":9600,"station_id":"ce4bgup2rcd13ifvqco0","pricing_plan_id":"free"},{"bike_id":"6635f32a-5d1b-48d2-9f9b-4626d01b984e","system_id":"levelo_inurba_marseille","lat":43.317557,"lon":5.390173,"is_reserved":false,"is_disabled":false,"rental_uris":{"android":"levelo://app?vid=6635f32a-5d1b-48d2-9f9b-4626d01b984e","ios":"levelo://app?vid=6635f32a-5d1b-48d2-9f9b-4626d01b984e"},"vehicle_type_id":"4","last_reported":1692378346,"current_range_meters":30400,"station_id":"ce4bhqp2rcd13ifvqhng","pricing_plan_id":"free"},{"bike_id":"733fca04-614b-4fae-906b-8689324fd10d","system_id":"levelo_inurba_marseille","lat":43.317557,"lon":5.390173,"is_reserved":false,"is_disabled":false,"rental_uris":{"android":"levelo://app?vid=733fca04-614b-4fae-906b-8689324fd10d","ios":"levelo://app?vid=733fca04-614b-4fae-906b-8689324fd10d"},"vehicle_type_id":"4","last_reported":1692378346,"current_range_meters":20400,"station_id":"ce4bhqp2rcd13ifvqhng","pricing_plan_id":"free"},{"bike_id":"4f24963e-dca1-4377-b8df-3aa1ab7b166f","system_id":"levelo_inurba_marseille","lat":43.30432,"lon":5.38881,"is_reserved":false,"is_disabled":false,"rental_uris":{"android":"levelo://app?vid=4f24963e-dca1-4377-b8df-3aa1ab7b166f","ios":"levelo://app?vid=4f24963e-dca1-4377-b8df-3aa1ab7b166f"},"vehicle_type_id":"4","last_reported":1692378346,"current_range_meters":14400,"station_id":"ce4bgk12rcd13ifvqbi0","pricing_plan_id":"free"},{"bike_id":"ce32fc55-9e9b-493a-8445-66a09a051db3","system_id":"levelo_inurba_marseille","lat":43.29628,"lon":5.37717,"is_reserved":false,"is_disabled":false,"rental_uris":{"android":"levelo://app?vid=ce32fc55-9e9b-493a-8445-66a09a051db3","ios":"levelo://app?vid=ce32fc55-9e9b-493a-8445-66a09a051db3"},"vehicle_type_id":"4","last_reported":1692378346,"current_range_meters":23200,"station_id":"ce4bgi92rcd13ifvqb90","pricing_plan_id":"free"},{"bike_id":"a4df99ce-0488-49dd-a888-94686f562e88","system_id":"levelo_inurba_marseille","lat":43.295748,"lon":5.37522,"is_reserved":false,"is_disabled":false,"rental_uris":{"android":"levelo://app?vid=a4df99ce-0488-49dd-a888-94686f562e88","ios":"levelo://app?vid=a4df99ce-0488-49dd-a888-94686f562e88"},"vehicle_type_id":"4","last_reported":1692378346,"current_range_meters":27600,"station_id":"ce4bgh92rcd13ifvqb50","pricing_plan_id":"free"},{"bike_id":"e4a7549a-42b9-4721-af72-017efe460890","system_id":"levelo_inurba_marseille","lat":43.30427,"lon":5.38902,"is_reserved":false,"is_disabled":false,"rental_uris":{"android":"levelo://app?vid=e4a7549a-42b9-4721-af72-017efe460890","ios":"levelo://app?vid=e4a7549a-42b9-4721-af72-017efe460890"},"vehicle_type_id":"4","last_reported":1692378346,"current_range_meters":400,"station_id":"ce4bgk12rcd13ifvqbi0","pricing_plan_id":"free"},{"bike_id":"50eef60f-a7cd-4240-b0f9-73e5e03c41e1","system_id":"levelo_inurba_marseille","lat":43.299707,"lon":5.384859,"is_reserved":false,"is_disabled":false,"rental_uris":{"android":"levelo://app?vid=50eef60f-a7cd-4240-b0f9-73e5e03c41e1","ios":"levelo://app?vid=50eef60f-a7cd-4240-b0f9-73e5e03c41e1"},"vehicle_type_id":"4","last_reported":1692378346,"current_range_meters":15200,"station_id":"ce4bgj92rcd13ifvqbd0","pricing_plan_id":"free"},{"bike_id":"4314cd19-09e7-4af1-900a-88512d095e20","system_id":"levelo_inurba_marseille","lat":43.32363,"lon":5.38876,"is_reserved":false,"is_disabled":false,"rental_uris":{"android":"levelo://app?vid=4314cd19-09e7-4af1-900a-88512d095e20","ios":"levelo://app?vid=4314cd19-09e7-4af1-900a-88512d095e20"},"vehicle_type_id":"4","last_reported":1692378346,"current_range_meters":12000,"station_id":"ce4bhqp2rcd13ifvqhog","pricing_plan_id":"free"},{"bike_id":"63396931-3c86-400b-9cfa-e42c81141461","system_id":"levelo_inurba_marseille","lat":43.32359,"lon":5.3888,"is_reserved":false,"is_disabled":false,"rental_uris":{"android":"levelo://app?vid=63396931-3c86-400b-9cfa-e42c81141461","ios":"levelo://app?vid=63396931-3c86-400b-9cfa-e42c81141461"},"vehicle_type_id":"4","last_reported":1692378346,"current_range_meters":14400,"station_id":"ce4bhqp2rcd13ifvqhog","pricing_plan_id":"free"},{"bike_id":"32a579f4-a77e-4089-9137-3fc22c8afa17","system_id":"levelo_inurba_marseille","lat":43.32364,"lon":5.38879,"is_reserved":false,"is_disabled":false,"rental_uris":{"android":"levelo://app?vid=32a579f4-a77e-4089-9137-3fc22c8afa17","ios":"levelo://app?vid=32a579f4-a77e-4089-9137-3fc22c8afa17"},"vehicle_type_id":"4","last_reported":1692378346,"current_range_meters":21200,"station_id":"ce4bhqp2rcd13ifvqhog","pricing_plan_id":"free"},{"bike_id":"450b6384-3b45-4695-a86b-848539f6da31","system_id":"levelo_inurba_marseille","lat":43.32363,"lon":5.3888,"is_reserved":false,"is_disabled":false,"rental_uris":{"android":"levelo://app?vid=450b6384-3b45-4695-a86b-848539f6da31","ios":"levelo://app?vid=450b6384-3b45-4695-a86b-848539f6da31"},"vehicle_type_id":"4","last_reported":1692378346,"current_range_meters":13200,"station_id":"ce4bhqp2rcd13ifvqhog","pricing_plan_id":"free"},{"bike_id":"55f08f4d-333e-4077-9882-16e72e12ddbf","system_id":"levelo_inurba_marseille","lat":43.32369,"lon":5.38878,"is_reserved":false,"is_disabled":false,"rental_uris":{"android":"levelo://app?vid=55f08f4d-333e-4077-9882-16e72e12ddbf","ios":"levelo://app?vid=55f08f4d-333e-4077-9882-16e72e12ddbf"},"vehicle_type_id":"4","last_reported":1692378346,"current_range_meters":9600,"station_id":"ce4bhqp2rcd13ifvqhog","pricing_plan_id":"free"},{"bike_id":"6b6cba89-d2b8-44bb-8454-5df08cf65f67","system_id":"levelo_inurba_marseille","lat":43.32369,"lon":5.3888,"is_reserved":false,"is_disabled":false,"rental_uris":{"android":"levelo://app?vid=6b6cba89-d2b8-44bb-8454-5df08cf65f67","ios":"levelo://app?vid=6b6cba89-d2b8-44bb-8454-5df08cf65f67"},"vehicle_type_id":"4","last_reported":1692378346,"current_range_meters":17200,"station_id":"ce4bhqp2rcd13ifvqhog","pricing_plan_id":"free"},{"bike_id":"810e5c4e-cfbd-4fb4-b6d8-02289cde4c80","system_id":"levelo_inurba_marseille","lat":43.32365,"lon":5.38885,"is_reserved":false,"is_disabled":false,"rental_uris":{"android":"levelo://app?vid=810e5c4e-cfbd-4fb4-b6d8-02289cde4c80","ios":"levelo://app?vid=810e5c4e-cfbd-4fb4-b6d8-02289cde4c80"},"vehicle_type_id":"4","last_reported":1692378346,"current_range_meters":17200,"station_id":"ce4bhqp2rcd13ifvqhog","pricing_plan_id":"free"},{"bike_id":"0b218697-402e-427c-8cbb-e52d50dc36a4","system_id":"levelo_inurba_marseille","lat":43.32364,"lon":5.38886,"is_reserved":false,"is_disabled":false,"rental_uris":{"android":"levelo://app?vid=0b218697-402e-427c-8cbb-e52d50dc36a4","ios":"levelo://app?vid=0b218697-402e-427c-8cbb-e52d50dc36a4"},"vehicle_type_id":"4","last_reported":1692378346,"current_range_meters":4400,"station_id":"ce4bhqp2rcd13ifvqhog","pricing_plan_id":"free"},{"bike_id":"909a379e-ab57-499e-bb42-20641b8d6320","system_id":"levelo_inurba_marseille","lat":43.293114,"lon":5.371721,"is_reserved":false,"is_disabled":false,"rental_uris":{"android":"levelo://app?vid=909a379e-ab57-499e-bb42-20641b8d6320","ios":"levelo://app?vid=909a379e-ab57-499e-bb42-20641b8d6320"},"vehicle_type_id":"4","last_reported":1692378346,"current_range_meters":22800,"station_id":"ce4bgh92rcd13ifvqb40","pricing_plan_id":"free"},{"bike_id":"38fef587-7cc5-4800-b069-87b8f296a10a","system_id":"levelo_inurba_marseille","lat":43.293009,"lon":5.374584,"is_reserved":false,"is_disabled":false,"rental_uris":{"android":"levelo://app?vid=38fef587-7cc5-4800-b069-87b8f296a10a","ios":"levelo://app?vid=38fef587-7cc5-4800-b069-87b8f296a10a"},"vehicle_type_id":"4","last_reported":1692378346,"current_range_meters":31200,"station_id":"ce4bgi12rcd13ifvqb70","pricing_plan_id":"free"},{"bike_id":"84a6bd46-b4a1-48fa-a1e7-162590b6f0ac","system_id":"levelo_inurba_marseille","lat":43.30308,"lon":5.39203,"is_reserved":false,"is_disabled":false,"rental_uris":{"android":"levelo://app?vid=84a6bd46-b4a1-48fa-a1e7-162590b6f0ac","ios":"levelo://app?vid=84a6bd46-b4a1-48fa-a1e7-162590b6f0ac"},"vehicle_type_id":"4","last_reported":1692378346,"current_range_meters":0,"station_id":"ce4bgkh2rcd13ifvqbk0","pricing_plan_id":"free"},{"bike_id":"99fc7230-a485-421c-b7dd-840bc254123f","system_id":"levelo_inurba_marseille","lat":43.30307,"lon":5.39205,"is_reserved":false,"is_disabled":false,"rental_uris":{"android":"levelo://app?vid=99fc7230-a485-421c-b7dd-840bc254123f","ios":"levelo://app?vid=99fc7230-a485-421c-b7dd-840bc254123f"},"vehicle_type_id":"4","last_reported":1692378346,"current_range_meters":22000,"station_id":"ce4bgkh2rcd13ifvqbk0","pricing_plan_id":"free"},{"bike_id":"feb38787-73ae-4732-bc4f-fc195b30eba5","system_id":"levelo_inurba_marseille","lat":43.30305,"lon":5.39205,"is_reserved":false,"is_disabled":false,"rental_uris":{"android":"levelo://app?vid=feb38787-73ae-4732-bc4f-fc195b30eba5","ios":"levelo://app?vid=feb38787-73ae-4732-bc4f-fc195b30eba5"},"vehicle_type_id":"4","last_reported":1692378346,"current_range_meters":18000,"station_id":"ce4bgkh2rcd13ifvqbk0","pricing_plan_id":"free"},{"bike_id":"cd192ed3-57c9-42b9-b333-70d58b85fc94","system_id":"levelo_inurba_marseille","lat":43.30303,"lon":5.39206,"is_reserved":false,"is_disabled":false,"rental_uris":{"android":"levelo://app?vid=cd192ed3-57c9-42b9-b333-70d58b85fc94","ios":"levelo://app?vid=cd192ed3-57c9-42b9-b333-70d58b85fc94"},"vehicle_type_id":"4","last_reported":1692378346,"current_range_meters":23200,"station_id":"ce4bgkh2rcd13ifvqbk0","pricing_plan_id":"free"},{"bike_id":"f33bddd8-58c5-45b0-a0bc-d03fef7ee321","system_id":"levelo_inurba_marseille","lat":43.30311,"lon":5.39212,"is_reserved":false,"is_disabled":false,"rental_uris":{"android":"levelo://app?vid=f33bddd8-58c5-45b0-a0bc-d03fef7ee321","ios":"levelo://app?vid=f33bddd8-58c5-45b0-a0bc-d03fef7ee321"},"vehicle_type_id":"4","last_reported":1692378346,"current_range_meters":18400,"station_id":"ce4bgkh2rcd13ifvqbk0","pricing_plan_id":"free"},{"bike_id":"a1094178-847b-4cfb-bc4e-ad6a984631c0","system_id":"levelo_inurba_marseille","lat":43.30306,"lon":5.3921,"is_reserved":false,"is_disabled":false,"rental_uris":{"android":"levelo://app?vid=a1094178-847b-4cfb-bc4e-ad6a984631c0","ios":"levelo://app?vid=a1094178-847b-4cfb-bc4e-ad6a984631c0"},"vehicle_type_id":"4","last_reported":1692378346,"current_range_meters":21200,"station_id":"ce4bgkh2rcd13ifvqbk0","pricing_plan_id":"free"},{"bike_id":"12d54be1-18da-49cd-b15b-d0eca2016e26","system_id":"levelo_inurba_marseille","lat":43.303069,"lon":5.392117,"is_reserved":false,"is_disabled":false,"rental_uris":{"android":"levelo://app?vid=12d54be1-18da-49cd-b15b-d0eca2016e26","ios":"levelo://app?vid=12d54be1-18da-49cd-b15b-d0eca2016e26"},"vehicle_type_id":"4","last_reported":1692378346,"current_range_meters":21200,"station_id":"ce4bgkh2rcd13ifvqbk0","pricing_plan_id":"free"},{"bike_id":"15520365-4d9e-40f7-b965-9ff6972820ba","system_id":"levelo_inurba_marseille","lat":43.2923,"lon":5.36064,"is_reserved":false,"is_disabled":false,"rental_uris":{"android":"levelo://app?vid=15520365-4d9e-40f7-b965-9ff6972820ba","ios":"levelo://app?vid=15520365-4d9e-40f7-b965-9ff6972820ba"},"vehicle_type_id":"4","last_reported":1692378346,"current_range_meters":6000,"station_id":"ce4bhbh2rcd13ifvqeqg","pricing_plan_id":"free"},{"bike_id":"85300b13-b199-4774-8ce7-c7add18c3205","system_id":"levelo_inurba_marseille","lat":43.292239,"lon":5.360809,"is_reserved":false,"is_disabled":false,"rental_uris":{"android":"levelo://app?vid=85300b13-b199-4774-8ce7-c7add18c3205","ios":"levelo://app?vid=85300b13-b199-4774-8ce7-c7add18c3205"},"vehicle_type_id":"4","last_reported":1692378346,"current_range_meters":18000,"station_id":"","pricing_plan_id":"free"},{"bike_id":"cf60415b-adc2-420f-aaba-7e881acf811c","system_id":"levelo_inurba_marseille","lat":43.292,"lon":5.35876,"is_reserved":false,"is_disabled":false,"rental_uris":{"android":"levelo://app?vid=cf60415b-adc2-420f-aaba-7e881acf811c","ios":"levelo://app?vid=cf60415b-adc2-420f-aaba-7e881acf811c"},"vehicle_type_id":"4","last_reported":1692378346,"current_range_meters":13600,"station_id":"ce4bhb12rcd13ifvqel0","pricing_plan_id":"free"},{"bike_id":"02185431-0e5a-4ffc-ab84-e1e92d2d608a","system_id":"levelo_inurba_marseille","lat":43.31325,"lon":5.39684,"is_reserved":false,"is_disabled":false,"rental_uris":{"android":"levelo://app?vid=02185431-0e5a-4ffc-ab84-e1e92d2d608a","ios":"levelo://app?vid=02185431-0e5a-4ffc-ab84-e1e92d2d608a"},"vehicle_type_id":"4","last_reported":1692378346,"current_range_meters":9600,"station_id":"ce4bgvp2rcd13ifvqcu0","pricing_plan_id":"free"},{"bike_id":"647f75c9-f16a-4780-b654-c3aba5519296","system_id":"levelo_inurba_marseille","lat":43.31324,"lon":5.39686,"is_reserved":false,"is_disabled":false,"rental_uris":{"android":"levelo://app?vid=647f75c9-f16a-4780-b654-c3aba5519296","ios":"levelo://app?vid=647f75c9-f16a-4780-b654-c3aba5519296"},"vehicle_type_id":"4","last_reported":1692378346,"current_range_meters":2800,"station_id":"ce4bgvp2rcd13ifvqcu0","pricing_plan_id":"free"},{"bike_id":"f8e22b43-9b04-48fe-b796-2d8d3e42740f","system_id":"levelo_inurba_marseille","lat":43.313291,"lon":5.396838,"is_reserved":false,"is_disabled":false,"rental_uris":{"android":"levelo://app?vid=f8e22b43-9b04-48fe-b796-2d8d3e42740f","ios":"levelo://app?vid=f8e22b43-9b04-48fe-b796-2d8d3e42740f"},"vehicle_type_id":"4","last_reported":1692378346,"current_range_meters":10400,"station_id":"ce4bgvp2rcd13ifvqcu0","pricing_plan_id":"free"},{"bike_id":"86965b09-edd7-4ca8-a197-017720962da1","system_id":"levelo_inurba_marseille","lat":43.291994,"lon":5.357886,"is_reserved":false,"is_disabled":false,"rental_uris":{"android":"levelo://app?vid=86965b09-edd7-4ca8-a197-017720962da1","ios":"levelo://app?vid=86965b09-edd7-4ca8-a197-017720962da1"},"vehicle_type_id":"4","last_reported":1692378346,"current_range_meters":27600,"station_id":"ce4bhb12rcd13ifvqel0","pricing_plan_id":"free"},{"bike_id":"06f86498-6775-4973-9214-3b4805fb7ecd","system_id":"levelo_inurba_marseille","lat":43.31332,"lon":5.39689,"is_reserved":false,"is_disabled":false,"rental_uris":{"android":"levelo://app?vid=06f86498-6775-4973-9214-3b4805fb7ecd","ios":"levelo://app?vid=06f86498-6775-4973-9214-3b4805fb7ecd"},"vehicle_type_id":"4","last_reported":1692378346,"current_range_meters":4800,"station_id":"ce4bgvp2rcd13ifvqcu0","pricing_plan_id":"free"},{"bike_id":"b3511cb4-2eb7-40d6-93ab-21c564320fcb","system_id":"levelo_inurba_marseille","lat":43.31333,"lon":5.39696,"is_reserved":false,"is_disabled":false,"rental_uris":{"android":"levelo://app?vid=b3511cb4-2eb7-40d6-93ab-21c564320fcb","ios":"levelo://app?vid=b3511cb4-2eb7-40d6-93ab-21c564320fcb"},"vehicle_type_id":"4","last_reported":1692378346,"current_range_meters":22400,"station_id":"ce4bgvp2rcd13ifvqcu0","pricing_plan_id":"free"},{"bike_id":"8c55fc3f-2c15-498c-94e1-a52e927693e1","system_id":"levelo_inurba_marseille","lat":43.30886,"lon":5.39652,"is_reserved":false,"is_disabled":false,"rental_uris":{"android":"levelo://app?vid=8c55fc3f-2c15-498c-94e1-a52e927693e1","ios":"levelo://app?vid=8c55fc3f-2c15-498c-94e1-a52e927693e1"},"vehicle_type_id":"4","last_reported":1692378346,"current_range_meters":2800,"station_id":"ce4bh012rcd13ifvqcv0","pricing_plan_id":"free"},{"bike_id":"ea161879-0abf-460c-9cc3-88aff6b391f3","system_id":"levelo_inurba_marseille","lat":43.308928,"lon":5.396577,"is_reserved":false,"is_disabled":false,"rental_uris":{"android":"levelo://app?vid=ea161879-0abf-460c-9cc3-88aff6b391f3","ios":"levelo://app?vid=ea161879-0abf-460c-9cc3-88aff6b391f3"},"vehicle_type_id":"4","last_reported":1692378346,"current_range_meters":10000,"station_id":"ce4bh012rcd13ifvqcv0","pricing_plan_id":"free"},{"bike_id":"6b659c73-de87-4e1b-a1aa-ea6f5b010cb3","system_id":"levelo_inurba_marseille","lat":43.29529,"lon":5.385581,"is_reserved":false,"is_disabled":false,"rental_uris":{"android":"levelo://app?vid=6b659c73-de87-4e1b-a1aa-ea6f5b010cb3","ios":"levelo://app?vid=6b659c73-de87-4e1b-a1aa-ea6f5b010cb3"},"vehicle_type_id":"4","last_reported":1692378346,"current_range_meters":21600,"station_id":"ce4bgih2rcd13ifvqba0","pricing_plan_id":"free"},{"bike_id":"cb0e247e-fa0c-4cd1-bf00-d0d25d64d9bc","system_id":"levelo_inurba_marseille","lat":43.29532,"lon":5.38541,"is_reserved":false,"is_disabled":false,"rental_uris":{"android":"levelo://app?vid=cb0e247e-fa0c-4cd1-bf00-d0d25d64d9bc","ios":"levelo://app?vid=cb0e247e-fa0c-4cd1-bf00-d0d25d64d9bc"},"vehicle_type_id":"4","last_reported":1692378346,"current_range_meters":28000,"station_id":"","pricing_plan_id":"free"},{"bike_id":"821280a9-2cb2-4853-a4ec-5e1d61367da3","system_id":"levelo_inurba_marseille","lat":43.29529,"lon":5.385581,"is_reserved":false,"is_disabled":false,"rental_uris":{"android":"levelo://app?vid=821280a9-2cb2-4853-a4ec-5e1d61367da3","ios":"levelo://app?vid=821280a9-2cb2-4853-a4ec-5e1d61367da3"},"vehicle_type_id":"4","last_reported":1692378346,"current_range_meters":13200,"station_id":"ce4bgih2rcd13ifvqba0","pricing_plan_id":"free"},{"bike_id":"9dadb830-191f-42b3-bc86-787e7eb07cb2","system_id":"levelo_inurba_marseille","lat":43.29529,"lon":5.385581,"is_reserved":false,"is_disabled":false,"rental_uris":{"android":"levelo://app?vid=9dadb830-191f-42b3-bc86-787e7eb07cb2","ios":"levelo://app?vid=9dadb830-191f-42b3-bc86-787e7eb07cb2"},"vehicle_type_id":"4","last_reported":1692378346,"current_range_meters":0,"station_id":"ce4bgih2rcd13ifvqba0","pricing_plan_id":"free"},{"bike_id":"50a533c3-a31f-40cf-b607-361bc061713a","system_id":"levelo_inurba_marseille","lat":43.302008,"lon":5.394694,"is_reserved":false,"is_disabled":false,"rental_uris":{"android":"levelo://app?vid=50a533c3-a31f-40cf-b607-361bc061713a","ios":"levelo://app?vid=50a533c3-a31f-40cf-b607-361bc061713a"},"vehicle_type_id":"4","last_reported":1692378346,"current_range_meters":0,"station_id":"ce4bh0p2rcd13ifvqd70","pricing_plan_id":"free"},{"bike_id":"6fe99bc5-39ec-4606-abb2-2e75f422ba38","system_id":"levelo_inurba_marseille","lat":43.302008,"lon":5.394694,"is_reserved":false,"is_disabled":false,"rental_uris":{"android":"levelo://app?vid=6fe99bc5-39ec-4606-abb2-2e75f422ba38","ios":"levelo://app?vid=6fe99bc5-39ec-4606-abb2-2e75f422ba38"},"vehicle_type_id":"4","last_reported":1692378346,"current_range_meters":1600,"station_id":"ce4bh0p2rcd13ifvqd70","pricing_plan_id":"free"},{"bike_id":"3f7f0b92-af5d-4620-94d7-bdaf549ffa48","system_id":"levelo_inurba_marseille","lat":43.294153,"lon":5.386305,"is_reserved":false,"is_disabled":false,"rental_uris":{"android":"levelo://app?vid=3f7f0b92-af5d-4620-94d7-bdaf549ffa48","ios":"levelo://app?vid=3f7f0b92-af5d-4620-94d7-bdaf549ffa48"},"vehicle_type_id":"4","last_reported":1692378346,"current_range_meters":29600,"station_id":"ce4bh2h2rcd13ifvqdh0","pricing_plan_id":"free"},{"bike_id":"af445658-89a2-47e1-9e9d-b406c9ae07c9","system_id":"levelo_inurba_marseille","lat":43.29426,"lon":5.38616,"is_reserved":false,"is_disabled":false,"rental_uris":{"android":"levelo://app?vid=af445658-89a2-47e1-9e9d-b406c9ae07c9","ios":"levelo://app?vid=af445658-89a2-47e1-9e9d-b406c9ae07c9"},"vehicle_type_id":"4","last_reported":1692378346,"current_range_meters":2400,"station_id":"ce4bh2h2rcd13ifvqdh0","pricing_plan_id":"free"},{"bike_id":"e4053899-a2f9-474e-8f13-b2122ff7414b","system_id":"levelo_inurba_marseille","lat":43.286961,"lon":5.373785,"is_reserved":false,"is_disabled":false,"rental_uris":{"android":"levelo://app?vid=e4053899-a2f9-474e-8f13-b2122ff7414b","ios":"levelo://app?vid=e4053899-a2f9-474e-8f13-b2122ff7414b"},"vehicle_type_id":"4","last_reported":1692378346,"current_range_meters":15600,"station_id":"ce4bh3p2rcd13ifvqdq0","pricing_plan_id":"free"},{"bike_id":"0efd717f-e234-40bb-9b77-785360aba2fc","system_id":"levelo_inurba_marseille","lat":43.2942,"lon":5.38623,"is_reserved":false,"is_disabled":false,"rental_uris":{"android":"levelo://app?vid=0efd717f-e234-40bb-9b77-785360aba2fc","ios":"levelo://app?vid=0efd717f-e234-40bb-9b77-785360aba2fc"},"vehicle_type_id":"4","last_reported":1692378346,"current_range_meters":19600,"station_id":"ce4bh2h2rcd13ifvqdh0","pricing_plan_id":"free"},{"bike_id":"6afb71a9-d6bb-4cb2-bc13-05556cf553d6","system_id":"levelo_inurba_marseille","lat":43.29417,"lon":5.38625,"is_reserved":false,"is_disabled":false,"rental_uris":{"android":"levelo://app?vid=6afb71a9-d6bb-4cb2-bc13-05556cf553d6","ios":"levelo://app?vid=6afb71a9-d6bb-4cb2-bc13-05556cf553d6"},"vehicle_type_id":"4","last_reported":1692378346,"current_range_meters":14400,"station_id":"ce4bh2h2rcd13ifvqdh0","pricing_plan_id":"free"},{"bike_id":"5ac179f2-9725-463c-8bbf-4572e59e52e5","system_id":"levelo_inurba_marseille","lat":43.29415,"lon":5.38627,"is_reserved":false,"is_disabled":false,"rental_uris":{"android":"levelo://app?vid=5ac179f2-9725-463c-8bbf-4572e59e52e5","ios":"levelo://app?vid=5ac179f2-9725-463c-8bbf-4572e59e52e5"},"vehicle_type_id":"4","last_reported":1692378346,"current_range_meters":400,"station_id":"ce4bh2h2rcd13ifvqdh0","pricing_plan_id":"free"},{"bike_id":"e8224e94-71d5-4a19-b922-eaaa697c8aa7","system_id":"levelo_inurba_marseille","lat":43.29415,"lon":5.38631,"is_reserved":false,"is_disabled":false,"rental_uris":{"android":"levelo://app?vid=e8224e94-71d5-4a19-b922-eaaa697c8aa7","ios":"levelo://app?vid=e8224e94-71d5-4a19-b922-eaaa697c8aa7"},"vehicle_type_id":"4","last_reported":1692378346,"current_range_meters":28800,"station_id":"ce4bh2h2rcd13ifvqdh0","pricing_plan_id":"free"},{"bike_id":"7311708a-7902-4ec3-b963-07be72fe6097","system_id":"levelo_inurba_marseille","lat":43.289184,"lon":5.366408,"is_reserved":false,"is_disabled":false,"rental_uris":{"android":"levelo://app?vid=7311708a-7902-4ec3-b963-07be72fe6097","ios":"levelo://app?vid=7311708a-7902-4ec3-b963-07be72fe6097"},"vehicle_type_id":"4","last_reported":1692378346,"current_range_meters":6400,"station_id":"ce4bhap2rcd13ifvqek0","pricing_plan_id":"free"},{"bike_id":"901b61dd-e32a-4573-9495-0db8692d9977","system_id":"levelo_inurba_marseille","lat":43.29411,"lon":5.386283,"is_reserved":false,"is_disabled":false,"rental_uris":{"android":"levelo://app?vid=901b61dd-e32a-4573-9495-0db8692d9977","ios":"levelo://app?vid=901b61dd-e32a-4573-9495-0db8692d9977"},"vehicle_type_id":"4","last_reported":1692378346,"current_range_meters":12400,"station_id":"ce4bh2h2rcd13ifvqdh0","pricing_plan_id":"free"},{"bike_id":"9bfcc6af-bac9-4047-bb41-6246d3377f9d","system_id":"levelo_inurba_marseille","lat":43.289184,"lon":5.366408,"is_reserved":false,"is_disabled":false,"rental_uris":{"android":"levelo://app?vid=9bfcc6af-bac9-4047-bb41-6246d3377f9d","ios":"levelo://app?vid=9bfcc6af-bac9-4047-bb41-6246d3377f9d"},"vehicle_type_id":"4","last_reported":1692378346,"current_range_meters":6800,"station_id":"ce4bhap2rcd13ifvqek0","pricing_plan_id":"free"},{"bike_id":"5c9dd2ae-19b7-4555-86d4-1a90e486ea10","system_id":"levelo_inurba_marseille","lat":43.29021,"lon":5.35671,"is_reserved":false,"is_disabled":false,"rental_uris":{"android":"levelo://app?vid=5c9dd2ae-19b7-4555-86d4-1a90e486ea10","ios":"levelo://app?vid=5c9dd2ae-19b7-4555-86d4-1a90e486ea10"},"vehicle_type_id":"4","last_reported":1692378346,"current_range_meters":31200,"station_id":"","pricing_plan_id":"free"},{"bike_id":"bde2c1a3-8e80-4852-bd28-253cd508bcdf","system_id":"levelo_inurba_marseille","lat":43.292642,"lon":5.384254,"is_reserved":false,"is_disabled":false,"rental_uris":{"android":"levelo://app?vid=bde2c1a3-8e80-4852-bd28-253cd508bcdf","ios":"levelo://app?vid=bde2c1a3-8e80-4852-bd28-253cd508bcdf"},"vehicle_type_id":"4","last_reported":1692378346,"current_range_meters":25600,"station_id":"ce4bh692rcd13ifvqea0","pricing_plan_id":"free"},{"bike_id":"3cbf2c94-848e-4271-a8bf-426dc1cca8bb","system_id":"levelo_inurba_marseille","lat":43.292642,"lon":5.384254,"is_reserved":false,"is_disabled":false,"rental_uris":{"android":"levelo://app?vid=3cbf2c94-848e-4271-a8bf-426dc1cca8bb","ios":"levelo://app?vid=3cbf2c94-848e-4271-a8bf-426dc1cca8bb"},"vehicle_type_id":"4","last_reported":1692378346,"current_range_meters":2800,"station_id":"ce4bh692rcd13ifvqea0","pricing_plan_id":"free"},{"bike_id":"b16f0b2d-e639-4ced-97e4-1fd4b5097a04","system_id":"levelo_inurba_marseille","lat":43.29269,"lon":5.38447,"is_reserved":false,"is_disabled":false,"rental_uris":{"android":"levelo://app?vid=b16f0b2d-e639-4ced-97e4-1fd4b5097a04","ios":"levelo://app?vid=b16f0b2d-e639-4ced-97e4-1fd4b5097a04"},"vehicle_type_id":"4","last_reported":1692378346,"current_range_meters":17600,"station_id":"ce4bh692rcd13ifvqea0","pricing_plan_id":"free"},{"bike_id":"314ed839-9f06-4bc3-8f71-733399f4a57d","system_id":"levelo_inurba_marseille","lat":43.292642,"lon":5.384254,"is_reserved":false,"is_disabled":false,"rental_uris":{"android":"levelo://app?vid=314ed839-9f06-4bc3-8f71-733399f4a57d","ios":"levelo://app?vid=314ed839-9f06-4bc3-8f71-733399f4a57d"},"vehicle_type_id":"4","last_reported":1692378346,"current_range_meters":6400,"station_id":"ce4bh692rcd13ifvqea0","pricing_plan_id":"free"},{"bike_id":"ee6169e7-305c-48b3-9bc0-ac90e4868c39","system_id":"levelo_inurba_marseille","lat":43.33044,"lon":5.38913,"is_reserved":false,"is_disabled":false,"rental_uris":{"android":"levelo://app?vid=ee6169e7-305c-48b3-9bc0-ac90e4868c39","ios":"levelo://app?vid=ee6169e7-305c-48b3-9bc0-ac90e4868c39"},"vehicle_type_id":"4","last_reported":1692378346,"current_range_meters":16800,"station_id":"ce4bhr92rcd13ifvqhrg","pricing_plan_id":"free"},{"bike_id":"410da3a3-af11-4edd-873a-b3e04b9f528b","system_id":"levelo_inurba_marseille","lat":43.33044,"lon":5.38914,"is_reserved":false,"is_disabled":false,"rental_uris":{"android":"levelo://app?vid=410da3a3-af11-4edd-873a-b3e04b9f528b","ios":"levelo://app?vid=410da3a3-af11-4edd-873a-b3e04b9f528b"},"vehicle_type_id":"4","last_reported":1692378346,"current_range_meters":6000,"station_id":"ce4bhr92rcd13ifvqhrg","pricing_plan_id":"free"},{"bike_id":"c469a654-8bc0-472a-9fe6-9ff6216d0dba","system_id":"levelo_inurba_marseille","lat":43.290103,"lon":5.356114,"is_reserved":false,"is_disabled":false,"rental_uris":{"android":"levelo://app?vid=c469a654-8bc0-472a-9fe6-9ff6216d0dba","ios":"levelo://app?vid=c469a654-8bc0-472a-9fe6-9ff6216d0dba"},"vehicle_type_id":"4","last_reported":1692378346,"current_range_meters":30800,"station_id":"ce4bhb92rcd13ifvqen0","pricing_plan_id":"free"},{"bike_id":"10c4aadc-2085-4f35-8ff3-9ac4fdb75221","system_id":"levelo_inurba_marseille","lat":43.33046,"lon":5.38914,"is_reserved":false,"is_disabled":false,"rental_uris":{"android":"levelo://app?vid=10c4aadc-2085-4f35-8ff3-9ac4fdb75221","ios":"levelo://app?vid=10c4aadc-2085-4f35-8ff3-9ac4fdb75221"},"vehicle_type_id":"4","last_reported":1692378346,"current_range_meters":24000,"station_id":"ce4bhr92rcd13ifvqhrg","pricing_plan_id":"free"},{"bike_id":"8e3b6476-1ad3-40eb-9152-bb68005555c2","system_id":"levelo_inurba_marseille","lat":43.290103,"lon":5.356114,"is_reserved":false,"is_disabled":false,"rental_uris":{"android":"levelo://app?vid=8e3b6476-1ad3-40eb-9152-bb68005555c2","ios":"levelo://app?vid=8e3b6476-1ad3-40eb-9152-bb68005555c2"},"vehicle_type_id":"4","last_reported":1692378346,"current_range_meters":31200,"station_id":"ce4bhb92rcd13ifvqen0","pricing_plan_id":"free"},{"bike_id":"c6ec8e73-698b-4653-b428-4d749707bf95","system_id":"levelo_inurba_marseille","lat":43.33046,"lon":5.38917,"is_reserved":false,"is_disabled":false,"rental_uris":{"android":"levelo://app?vid=c6ec8e73-698b-4653-b428-4d749707bf95","ios":"levelo://app?vid=c6ec8e73-698b-4653-b428-4d749707bf95"},"vehicle_type_id":"4","last_reported":1692378346,"current_range_meters":14400,"station_id":"ce4bhr92rcd13ifvqhrg","pricing_plan_id":"free"},{"bike_id":"0bcb9604-a522-478f-9d85-59bb39eb6a04","system_id":"levelo_inurba_marseille","lat":43.290104,"lon":5.356111,"is_reserved":false,"is_disabled":false,"rental_uris":{"android":"levelo://app?vid=0bcb9604-a522-478f-9d85-59bb39eb6a04","ios":"levelo://app?vid=0bcb9604-a522-478f-9d85-59bb39eb6a04"},"vehicle_type_id":"4","last_reported":1692378346,"current_range_meters":30800,"station_id":"ce4bhb92rcd13ifvqen0","pricing_plan_id":"free"},{"bike_id":"e17c71d4-fc9a-4ba6-a1eb-e9daef1ac72f","system_id":"levelo_inurba_marseille","lat":43.33045,"lon":5.3892,"is_reserved":false,"is_disabled":false,"rental_uris":{"android":"levelo://app?vid=e17c71d4-fc9a-4ba6-a1eb-e9daef1ac72f","ios":"levelo://app?vid=e17c71d4-fc9a-4ba6-a1eb-e9daef1ac72f"},"vehicle_type_id":"4","last_reported":1692378346,"current_range_meters":28000,"station_id":"ce4bhr92rcd13ifvqhrg","pricing_plan_id":"free"},{"bike_id":"74d1fc3d-9260-4e68-b7e0-06d742b4a971","system_id":"levelo_inurba_marseille","lat":43.290103,"lon":5.356114,"is_reserved":false,"is_disabled":false,"rental_uris":{"android":"levelo://app?vid=74d1fc3d-9260-4e68-b7e0-06d742b4a971","ios":"levelo://app?vid=74d1fc3d-9260-4e68-b7e0-06d742b4a971"},"vehicle_type_id":"4","last_reported":1692378346,"current_range_meters":15200,"station_id":"ce4bhb92rcd13ifvqen0","pricing_plan_id":"free"},{"bike_id":"05a435a6-3097-4f21-ba91-7b2f8513cb9c","system_id":"levelo_inurba_marseille","lat":43.29006,"lon":5.35611,"is_reserved":false,"is_disabled":false,"rental_uris":{"android":"levelo://app?vid=05a435a6-3097-4f21-ba91-7b2f8513cb9c","ios":"levelo://app?vid=05a435a6-3097-4f21-ba91-7b2f8513cb9c"},"vehicle_type_id":"4","last_reported":1692378346,"current_range_meters":31200,"station_id":"ce4bhb92rcd13ifvqen0","pricing_plan_id":"free"},{"bike_id":"d226b518-a121-407d-bce0-7a5e54a61ab0","system_id":"levelo_inurba_marseille","lat":43.290104,"lon":5.356111,"is_reserved":false,"is_disabled":false,"rental_uris":{"android":"levelo://app?vid=d226b518-a121-407d-bce0-7a5e54a61ab0","ios":"levelo://app?vid=d226b518-a121-407d-bce0-7a5e54a61ab0"},"vehicle_type_id":"4","last_reported":1692378346,"current_range_meters":23200,"station_id":"ce4bhb92rcd13ifvqen0","pricing_plan_id":"free"},{"bike_id":"744af631-9308-4f4a-95a4-e577973aa0e3","system_id":"levelo_inurba_marseille","lat":43.29003,"lon":5.35621,"is_reserved":false,"is_disabled":false,"rental_uris":{"android":"levelo://app?vid=744af631-9308-4f4a-95a4-e577973aa0e3","ios":"levelo://app?vid=744af631-9308-4f4a-95a4-e577973aa0e3"},"vehicle_type_id":"4","last_reported":1692378346,"current_range_meters":31200,"station_id":"ce4bhb92rcd13ifvqen0","pricing_plan_id":"free"},{"bike_id":"78f1a325-e5b4-4a72-bb0e-b29d3285ba24","system_id":"levelo_inurba_marseille","lat":43.290104,"lon":5.356111,"is_reserved":false,"is_disabled":false,"rental_uris":{"android":"levelo://app?vid=78f1a325-e5b4-4a72-bb0e-b29d3285ba24","ios":"levelo://app?vid=78f1a325-e5b4-4a72-bb0e-b29d3285ba24"},"vehicle_type_id":"4","last_reported":1692378346,"current_range_meters":31600,"station_id":"ce4bhb92rcd13ifvqen0","pricing_plan_id":"free"},{"bike_id":"82dc0bf3-7fec-405e-aa54-b6b75af611ca","system_id":"levelo_inurba_marseille","lat":43.290104,"lon":5.356111,"is_reserved":false,"is_disabled":false,"rental_uris":{"android":"levelo://app?vid=82dc0bf3-7fec-405e-aa54-b6b75af611ca","ios":"levelo://app?vid=82dc0bf3-7fec-405e-aa54-b6b75af611ca"},"vehicle_type_id":"4","last_reported":1692378346,"current_range_meters":24000,"station_id":"ce4bhb92rcd13ifvqen0","pricing_plan_id":"free"},{"bike_id":"5ffafdb8-1884-4944-87fe-fee7ccddd79d","system_id":"levelo_inurba_marseille","lat":43.29004,"lon":5.3561,"is_reserved":false,"is_disabled":false,"rental_uris":{"android":"levelo://app?vid=5ffafdb8-1884-4944-87fe-fee7ccddd79d","ios":"levelo://app?vid=5ffafdb8-1884-4944-87fe-fee7ccddd79d"},"vehicle_type_id":"4","last_reported":1692378346,"current_range_meters":16000,"station_id":"ce4bhb92rcd13ifvqen0","pricing_plan_id":"free"},{"bike_id":"d5bfa686-a079-4e8a-837b-5ab270a5e2d6","system_id":"levelo_inurba_marseille","lat":43.290104,"lon":5.356111,"is_reserved":false,"is_disabled":false,"rental_uris":{"android":"levelo://app?vid=d5bfa686-a079-4e8a-837b-5ab270a5e2d6","ios":"levelo://app?vid=d5bfa686-a079-4e8a-837b-5ab270a5e2d6"},"vehicle_type_id":"4","last_reported":1692378346,"current_range_meters":16400,"station_id":"ce4bhb92rcd13ifvqen0","pricing_plan_id":"free"},{"bike_id":"abd5aceb-1d25-4b78-b33a-c7f8e8089695","system_id":"levelo_inurba_marseille","lat":43.290103,"lon":5.356114,"is_reserved":false,"is_disabled":false,"rental_uris":{"android":"levelo://app?vid=abd5aceb-1d25-4b78-b33a-c7f8e8089695","ios":"levelo://app?vid=abd5aceb-1d25-4b78-b33a-c7f8e8089695"},"vehicle_type_id":"4","last_reported":1692378346,"current_range_meters":17200,"station_id":"ce4bhb92rcd13ifvqen0","pricing_plan_id":"free"},{"bike_id":"19379a48-7db1-4f9b-9b36-a034f26beb7c","system_id":"levelo_inurba_marseille","lat":43.290103,"lon":5.356114,"is_reserved":false,"is_disabled":false,"rental_uris":{"android":"levelo://app?vid=19379a48-7db1-4f9b-9b36-a034f26beb7c","ios":"levelo://app?vid=19379a48-7db1-4f9b-9b36-a034f26beb7c"},"vehicle_type_id":"4","last_reported":1692378346,"current_range_meters":31200,"station_id":"ce4bhb92rcd13ifvqen0","pricing_plan_id":"free"},{"bike_id":"72a4e4f3-6159-46de-96aa-bfd0935d5038","system_id":"levelo_inurba_marseille","lat":43.290103,"lon":5.356114,"is_reserved":false,"is_disabled":false,"rental_uris":{"android":"levelo://app?vid=72a4e4f3-6159-46de-96aa-bfd0935d5038","ios":"levelo://app?vid=72a4e4f3-6159-46de-96aa-bfd0935d5038"},"vehicle_type_id":"4","last_reported":1692378346,"current_range_meters":7200,"station_id":"ce4bhb92rcd13ifvqen0","pricing_plan_id":"free"},{"bike_id":"bab7e64d-7786-44e2-8506-66ed7ab5e495","system_id":"levelo_inurba_marseille","lat":43.290995,"lon":5.381361,"is_reserved":false,"is_disabled":false,"rental_uris":{"android":"levelo://app?vid=bab7e64d-7786-44e2-8506-66ed7ab5e495","ios":"levelo://app?vid=bab7e64d-7786-44e2-8506-66ed7ab5e495"},"vehicle_type_id":"4","last_reported":1692378346,"current_range_meters":30400,"station_id":"ce4bh512rcd13ifvqe2g","pricing_plan_id":"free"},{"bike_id":"e7e8ab2c-07a6-4d31-ae31-280e99b5c86c","system_id":"levelo_inurba_marseille","lat":43.289741,"lon":5.378306,"is_reserved":false,"is_disabled":false,"rental_uris":{"android":"levelo://app?vid=e7e8ab2c-07a6-4d31-ae31-280e99b5c86c","ios":"levelo://app?vid=e7e8ab2c-07a6-4d31-ae31-280e99b5c86c"},"vehicle_type_id":"4","last_reported":1692378346,"current_range_meters":30000,"station_id":"ce4bh9p2rcd13ifvqed0","pricing_plan_id":"free"},{"bike_id":"0a9bd810-6801-498c-be0b-ffb5260deb18","system_id":"levelo_inurba_marseille","lat":43.289741,"lon":5.378306,"is_reserved":false,"is_disabled":false,"rental_uris":{"android":"levelo://app?vid=0a9bd810-6801-498c-be0b-ffb5260deb18","ios":"levelo://app?vid=0a9bd810-6801-498c-be0b-ffb5260deb18"},"vehicle_type_id":"4","last_reported":1692378346,"current_range_meters":14000,"station_id":"ce4bh9p2rcd13ifvqed0","pricing_plan_id":"free"},{"bike_id":"764bc354-dd60-4c4c-afd7-9823ed42e18b","system_id":"levelo_inurba_marseille","lat":43.28856,"lon":5.358371,"is_reserved":false,"is_disabled":false,"rental_uris":{"android":"levelo://app?vid=764bc354-dd60-4c4c-afd7-9823ed42e18b","ios":"levelo://app?vid=764bc354-dd60-4c4c-afd7-9823ed42e18b"},"vehicle_type_id":"4","last_reported":1692378346,"current_range_meters":31200,"station_id":"ce4bhb12rcd13ifvqem0","pricing_plan_id":"free"},{"bike_id":"1bb90f98-aeb8-4ce5-b768-e1293c6cab5e","system_id":"levelo_inurba_marseille","lat":43.28856,"lon":5.358371,"is_reserved":false,"is_disabled":false,"rental_uris":{"android":"levelo://app?vid=1bb90f98-aeb8-4ce5-b768-e1293c6cab5e","ios":"levelo://app?vid=1bb90f98-aeb8-4ce5-b768-e1293c6cab5e"},"vehicle_type_id":"4","last_reported":1692378346,"current_range_meters":29200,"station_id":"ce4bhb12rcd13ifvqem0","pricing_plan_id":"free"},{"bike_id":"7b852790-a570-49f6-bbce-82b8410fe79a","system_id":"levelo_inurba_marseille","lat":43.28856,"lon":5.358371,"is_reserved":false,"is_disabled":false,"rental_uris":{"android":"levelo://app?vid=7b852790-a570-49f6-bbce-82b8410fe79a","ios":"levelo://app?vid=7b852790-a570-49f6-bbce-82b8410fe79a"},"vehicle_type_id":"4","last_reported":1692378346,"current_range_meters":23200,"station_id":"ce4bhb12rcd13ifvqem0","pricing_plan_id":"free"},{"bike_id":"270fa677-9c96-40f8-9aba-2acbac0d994c","system_id":"levelo_inurba_marseille","lat":43.33751,"lon":5.3746,"is_reserved":false,"is_disabled":false,"rental_uris":{"android":"levelo://app?vid=270fa677-9c96-40f8-9aba-2acbac0d994c","ios":"levelo://app?vid=270fa677-9c96-40f8-9aba-2acbac0d994c"},"vehicle_type_id":"4","last_reported":1692378346,"current_range_meters":28000,"station_id":"","pricing_plan_id":"free"},{"bike_id":"27641e66-ec3d-4eb8-bfa4-409c5d26ccc6","system_id":"levelo_inurba_marseille","lat":43.30644,"lon":5.4008,"is_reserved":false,"is_disabled":false,"rental_uris":{"android":"levelo://app?vid=27641e66-ec3d-4eb8-bfa4-409c5d26ccc6","ios":"levelo://app?vid=27641e66-ec3d-4eb8-bfa4-409c5d26ccc6"},"vehicle_type_id":"4","last_reported":1692378346,"current_range_meters":22000,"station_id":"ce4bh112rcd13ifvqda0","pricing_plan_id":"free"},{"bike_id":"57742d9a-3623-48a4-830f-a7cafa29bc30","system_id":"levelo_inurba_marseille","lat":43.30642,"lon":5.401031,"is_reserved":false,"is_disabled":false,"rental_uris":{"android":"levelo://app?vid=57742d9a-3623-48a4-830f-a7cafa29bc30","ios":"levelo://app?vid=57742d9a-3623-48a4-830f-a7cafa29bc30"},"vehicle_type_id":"4","last_reported":1692378346,"current_range_meters":13200,"station_id":"ce4bh112rcd13ifvqda0","pricing_plan_id":"free"},{"bike_id":"659bb0fc-5eee-4d17-8b26-b2d8f51a3bff","system_id":"levelo_inurba_marseille","lat":43.30645,"lon":5.40088,"is_reserved":false,"is_disabled":false,"rental_uris":{"android":"levelo://app?vid=659bb0fc-5eee-4d17-8b26-b2d8f51a3bff","ios":"levelo://app?vid=659bb0fc-5eee-4d17-8b26-b2d8f51a3bff"},"vehicle_type_id":"4","last_reported":1692378346,"current_range_meters":1200,"station_id":"ce4bh112rcd13ifvqda0","pricing_plan_id":"free"},{"bike_id":"99d343dd-7199-48b8-9178-823f2da8e4aa","system_id":"levelo_inurba_marseille","lat":43.337656,"lon":5.374589,"is_reserved":false,"is_disabled":false,"rental_uris":{"android":"levelo://app?vid=99d343dd-7199-48b8-9178-823f2da8e4aa","ios":"levelo://app?vid=99d343dd-7199-48b8-9178-823f2da8e4aa"},"vehicle_type_id":"4","last_reported":1692378346,"current_range_meters":26400,"station_id":"","pricing_plan_id":"free"},{"bike_id":"43adbc6f-3d34-4b4d-86c2-c6e6a14a9eb9","system_id":"levelo_inurba_marseille","lat":43.30646,"lon":5.40094,"is_reserved":false,"is_disabled":false,"rental_uris":{"android":"levelo://app?vid=43adbc6f-3d34-4b4d-86c2-c6e6a14a9eb9","ios":"levelo://app?vid=43adbc6f-3d34-4b4d-86c2-c6e6a14a9eb9"},"vehicle_type_id":"4","last_reported":1692378346,"current_range_meters":30000,"station_id":"ce4bh112rcd13ifvqda0","pricing_plan_id":"free"},{"bike_id":"b9d0a7ca-1101-40e5-8fe2-992224a4ca31","system_id":"levelo_inurba_marseille","lat":43.30645,"lon":5.40099,"is_reserved":false,"is_disabled":false,"rental_uris":{"android":"levelo://app?vid=b9d0a7ca-1101-40e5-8fe2-992224a4ca31","ios":"levelo://app?vid=b9d0a7ca-1101-40e5-8fe2-992224a4ca31"},"vehicle_type_id":"4","last_reported":1692378346,"current_range_meters":20000,"station_id":"ce4bh112rcd13ifvqda0","pricing_plan_id":"free"},{"bike_id":"5d695507-9b22-4ee7-ad38-d8626200e350","system_id":"levelo_inurba_marseille","lat":43.301117,"lon":5.398795,"is_reserved":false,"is_disabled":false,"rental_uris":{"android":"levelo://app?vid=5d695507-9b22-4ee7-ad38-d8626200e350","ios":"levelo://app?vid=5d695507-9b22-4ee7-ad38-d8626200e350"},"vehicle_type_id":"4","last_reported":1692378346,"current_range_meters":5600,"station_id":"ce4bh0h2rcd13ifvqd40","pricing_plan_id":"free"},{"bike_id":"412cb928-5192-4b22-bd85-0d824745d8cb","system_id":"levelo_inurba_marseille","lat":43.301117,"lon":5.398795,"is_reserved":false,"is_disabled":false,"rental_uris":{"android":"levelo://app?vid=412cb928-5192-4b22-bd85-0d824745d8cb","ios":"levelo://app?vid=412cb928-5192-4b22-bd85-0d824745d8cb"},"vehicle_type_id":"4","last_reported":1692378346,"current_range_meters":7200,"station_id":"ce4bh0h2rcd13ifvqd40","pricing_plan_id":"free"},{"bike_id":"ecd3f587-b74f-4c15-a0c3-5519e4dbd364","system_id":"levelo_inurba_marseille","lat":43.30127,"lon":5.39866,"is_reserved":false,"is_disabled":false,"rental_uris":{"android":"levelo://app?vid=ecd3f587-b74f-4c15-a0c3-5519e4dbd364","ios":"levelo://app?vid=ecd3f587-b74f-4c15-a0c3-5519e4dbd364"},"vehicle_type_id":"4","last_reported":1692378346,"current_range_meters":10400,"station_id":"ce4bh0h2rcd13ifvqd40","pricing_plan_id":"free"},{"bike_id":"b48c2468-9d77-44ad-9084-d255a3b7a821","system_id":"levelo_inurba_marseille","lat":43.286961,"lon":5.373785,"is_reserved":false,"is_disabled":false,"rental_uris":{"android":"levelo://app?vid=b48c2468-9d77-44ad-9084-d255a3b7a821","ios":"levelo://app?vid=b48c2468-9d77-44ad-9084-d255a3b7a821"},"vehicle_type_id":"4","last_reported":1692378346,"current_range_meters":0,"station_id":"ce4bh3p2rcd13ifvqdq0","pricing_plan_id":"free"},{"bike_id":"524724ee-ed22-4827-9042-b09c081b87be","system_id":"levelo_inurba_marseille","lat":43.286961,"lon":5.373785,"is_reserved":false,"is_disabled":false,"rental_uris":{"android":"levelo://app?vid=524724ee-ed22-4827-9042-b09c081b87be","ios":"levelo://app?vid=524724ee-ed22-4827-9042-b09c081b87be"},"vehicle_type_id":"4","last_reported":1692378346,"current_range_meters":17600,"station_id":"ce4bh3p2rcd13ifvqdq0","pricing_plan_id":"free"},{"bike_id":"19d4613e-7bc8-4803-a8c8-888d5604c864","system_id":"levelo_inurba_marseille","lat":43.286961,"lon":5.373785,"is_reserved":false,"is_disabled":false,"rental_uris":{"android":"levelo://app?vid=19d4613e-7bc8-4803-a8c8-888d5604c864","ios":"levelo://app?vid=19d4613e-7bc8-4803-a8c8-888d5604c864"},"vehicle_type_id":"4","last_reported":1692378346,"current_range_meters":8400,"station_id":"ce4bh3p2rcd13ifvqdq0","pricing_plan_id":"free"},{"bike_id":"75199276-b705-4ad7-b6a9-49aeaa84628a","system_id":"levelo_inurba_marseille","lat":43.286591,"lon":5.363346,"is_reserved":false,"is_disabled":false,"rental_uris":{"android":"levelo://app?vid=75199276-b705-4ad7-b6a9-49aeaa84628a","ios":"levelo://app?vid=75199276-b705-4ad7-b6a9-49aeaa84628a"},"vehicle_type_id":"4","last_reported":1692378346,"current_range_meters":29200,"station_id":"ce4bhah2rcd13ifvqej0","pricing_plan_id":"free"},{"bike_id":"1e5afc51-5ae6-4a2d-b3ff-07735515f03d","system_id":"levelo_inurba_marseille","lat":43.295194,"lon":5.39397,"is_reserved":false,"is_disabled":false,"rental_uris":{"android":"levelo://app?vid=1e5afc51-5ae6-4a2d-b3ff-07735515f03d","ios":"levelo://app?vid=1e5afc51-5ae6-4a2d-b3ff-07735515f03d"},"vehicle_type_id":"4","last_reported":1692378346,"current_range_meters":13200,"station_id":"ce4bh292rcd13ifvqdf0","pricing_plan_id":"free"},{"bike_id":"9204b716-866b-4966-950e-b71b22580c16","system_id":"levelo_inurba_marseille","lat":43.286961,"lon":5.373785,"is_reserved":false,"is_disabled":false,"rental_uris":{"android":"levelo://app?vid=9204b716-866b-4966-950e-b71b22580c16","ios":"levelo://app?vid=9204b716-866b-4966-950e-b71b22580c16"},"vehicle_type_id":"4","last_reported":1692378346,"current_range_meters":20000,"station_id":"ce4bh3p2rcd13ifvqdq0","pricing_plan_id":"free"},{"bike_id":"7c32e423-6d16-46cd-a508-b84c5cd9935b","system_id":"levelo_inurba_marseille","lat":43.295194,"lon":5.39397,"is_reserved":false,"is_disabled":false,"rental_uris":{"android":"levelo://app?vid=7c32e423-6d16-46cd-a508-b84c5cd9935b","ios":"levelo://app?vid=7c32e423-6d16-46cd-a508-b84c5cd9935b"},"vehicle_type_id":"4","last_reported":1692378346,"current_range_meters":11200,"station_id":"ce4bh292rcd13ifvqdf0","pricing_plan_id":"free"},{"bike_id":"92e32c94-fcea-4385-b154-b9bfe813bb1b","system_id":"levelo_inurba_marseille","lat":43.302759,"lon":5.400793,"is_reserved":false,"is_disabled":false,"rental_uris":{"android":"levelo://app?vid=92e32c94-fcea-4385-b154-b9bfe813bb1b","ios":"levelo://app?vid=92e32c94-fcea-4385-b154-b9bfe813bb1b"},"vehicle_type_id":"4","last_reported":1692378346,"current_range_meters":28800,"station_id":"ce4bgvh2rcd13ifvqcs0","pricing_plan_id":"free"},{"bike_id":"878ce2cf-76e9-4394-891c-097d74346851","system_id":"levelo_inurba_marseille","lat":43.302759,"lon":5.400793,"is_reserved":false,"is_disabled":false,"rental_uris":{"android":"levelo://app?vid=878ce2cf-76e9-4394-891c-097d74346851","ios":"levelo://app?vid=878ce2cf-76e9-4394-891c-097d74346851"},"vehicle_type_id":"4","last_reported":1692378346,"current_range_meters":30400,"station_id":"ce4bgvh2rcd13ifvqcs0","pricing_plan_id":"free"},{"bike_id":"d2131f5b-04af-49a6-a45e-e0ed40f3ddb9","system_id":"levelo_inurba_marseille","lat":43.302759,"lon":5.400793,"is_reserved":false,"is_disabled":false,"rental_uris":{"android":"levelo://app?vid=d2131f5b-04af-49a6-a45e-e0ed40f3ddb9","ios":"levelo://app?vid=d2131f5b-04af-49a6-a45e-e0ed40f3ddb9"},"vehicle_type_id":"4","last_reported":1692378346,"current_range_meters":20000,"station_id":"ce4bgvh2rcd13ifvqcs0","pricing_plan_id":"free"},{"bike_id":"692d5e06-1f52-4581-99d7-4bee97ed723b","system_id":"levelo_inurba_marseille","lat":43.302545,"lon":5.400824,"is_reserved":false,"is_disabled":false,"rental_uris":{"android":"levelo://app?vid=692d5e06-1f52-4581-99d7-4bee97ed723b","ios":"levelo://app?vid=692d5e06-1f52-4581-99d7-4bee97ed723b"},"vehicle_type_id":"4","last_reported":1692378346,"current_range_meters":8000,"station_id":"","pricing_plan_id":"free"},{"bike_id":"6a644975-8ba2-4d27-9e03-d93c47094266","system_id":"levelo_inurba_marseille","lat":43.286039,"lon":5.370679,"is_reserved":false,"is_disabled":false,"rental_uris":{"android":"levelo://app?vid=6a644975-8ba2-4d27-9e03-d93c47094266","ios":"levelo://app?vid=6a644975-8ba2-4d27-9e03-d93c47094266"},"vehicle_type_id":"4","last_reported":1692378346,"current_range_meters":31200,"station_id":"ce4bht12rcd13ifvqi60","pricing_plan_id":"free"},{"bike_id":"86e45201-91f5-4a0e-8471-6587ac1879ea","system_id":"levelo_inurba_marseille","lat":43.286039,"lon":5.370679,"is_reserved":false,"is_disabled":false,"rental_uris":{"android":"levelo://app?vid=86e45201-91f5-4a0e-8471-6587ac1879ea","ios":"levelo://app?vid=86e45201-91f5-4a0e-8471-6587ac1879ea"},"vehicle_type_id":"4","last_reported":1692378346,"current_range_meters":20000,"station_id":"ce4bht12rcd13ifvqi60","pricing_plan_id":"free"},{"bike_id":"6af65aae-9f07-4756-90fa-ce74876a7d49","system_id":"levelo_inurba_marseille","lat":43.286039,"lon":5.370679,"is_reserved":false,"is_disabled":false,"rental_uris":{"android":"levelo://app?vid=6af65aae-9f07-4756-90fa-ce74876a7d49","ios":"levelo://app?vid=6af65aae-9f07-4756-90fa-ce74876a7d49"},"vehicle_type_id":"4","last_reported":1692378346,"current_range_meters":24800,"station_id":"ce4bht12rcd13ifvqi60","pricing_plan_id":"free"},{"bike_id":"185211a9-625e-4e67-bd5e-fbc85cb558b5","system_id":"levelo_inurba_marseille","lat":43.286039,"lon":5.370679,"is_reserved":false,"is_disabled":false,"rental_uris":{"android":"levelo://app?vid=185211a9-625e-4e67-bd5e-fbc85cb558b5","ios":"levelo://app?vid=185211a9-625e-4e67-bd5e-fbc85cb558b5"},"vehicle_type_id":"4","last_reported":1692378346,"current_range_meters":19600,"station_id":"ce4bht12rcd13ifvqi60","pricing_plan_id":"free"},{"bike_id":"c4580212-7503-4b80-b4ee-084938da1d5e","system_id":"levelo_inurba_marseille","lat":43.286039,"lon":5.370679,"is_reserved":false,"is_disabled":false,"rental_uris":{"android":"levelo://app?vid=c4580212-7503-4b80-b4ee-084938da1d5e","ios":"levelo://app?vid=c4580212-7503-4b80-b4ee-084938da1d5e"},"vehicle_type_id":"4","last_reported":1692378346,"current_range_meters":31600,"station_id":"ce4bht12rcd13ifvqi60","pricing_plan_id":"free"},{"bike_id":"3ee45d83-7bca-41d7-8979-ec4a0293ec8b","system_id":"levelo_inurba_marseille","lat":43.286039,"lon":5.370681,"is_reserved":false,"is_disabled":false,"rental_uris":{"android":"levelo://app?vid=3ee45d83-7bca-41d7-8979-ec4a0293ec8b","ios":"levelo://app?vid=3ee45d83-7bca-41d7-8979-ec4a0293ec8b"},"vehicle_type_id":"4","last_reported":1692378346,"current_range_meters":29200,"station_id":"ce4bht12rcd13ifvqi60","pricing_plan_id":"free"},{"bike_id":"e2dd72a4-3c74-42df-bef3-9c68e873972d","system_id":"levelo_inurba_marseille","lat":43.287184,"lon":5.37937,"is_reserved":false,"is_disabled":false,"rental_uris":{"android":"levelo://app?vid=e2dd72a4-3c74-42df-bef3-9c68e873972d","ios":"levelo://app?vid=e2dd72a4-3c74-42df-bef3-9c68e873972d"},"vehicle_type_id":"4","last_reported":1692378346,"current_range_meters":0,"station_id":"ce4bh9p2rcd13ifvqec0","pricing_plan_id":"free"},{"bike_id":"7da9e437-1e79-4b5f-9ab0-65254ac17dd7","system_id":"levelo_inurba_marseille","lat":43.31643,"lon":5.40436,"is_reserved":false,"is_disabled":false,"rental_uris":{"android":"levelo://app?vid=7da9e437-1e79-4b5f-9ab0-65254ac17dd7","ios":"levelo://app?vid=7da9e437-1e79-4b5f-9ab0-65254ac17dd7"},"vehicle_type_id":"4","last_reported":1692378346,"current_range_meters":30000,"station_id":"ce4bh012rcd13ifvqd00","pricing_plan_id":"free"},{"bike_id":"9e0bf66e-f202-4ea3-bb3a-4853da3c549f","system_id":"levelo_inurba_marseille","lat":43.29211,"lon":5.39319,"is_reserved":false,"is_disabled":false,"rental_uris":{"android":"levelo://app?vid=9e0bf66e-f202-4ea3-bb3a-4853da3c549f","ios":"levelo://app?vid=9e0bf66e-f202-4ea3-bb3a-4853da3c549f"},"vehicle_type_id":"4","last_reported":1692378346,"current_range_meters":7200,"station_id":"ce4bh192rcd13ifvqdd0","pricing_plan_id":"free"},{"bike_id":"ee42680d-4445-4fee-9c60-95fdd77b3e8c","system_id":"levelo_inurba_marseille","lat":43.29198,"lon":5.39314,"is_reserved":false,"is_disabled":false,"rental_uris":{"android":"levelo://app?vid=ee42680d-4445-4fee-9c60-95fdd77b3e8c","ios":"levelo://app?vid=ee42680d-4445-4fee-9c60-95fdd77b3e8c"},"vehicle_type_id":"4","last_reported":1692378346,"current_range_meters":21200,"station_id":"ce4bh192rcd13ifvqdd0","pricing_plan_id":"free"},{"bike_id":"8bb2fa72-b09a-434e-a673-007380e2eb70","system_id":"levelo_inurba_marseille","lat":43.284538,"lon":5.358657,"is_reserved":false,"is_disabled":false,"rental_uris":{"android":"levelo://app?vid=8bb2fa72-b09a-434e-a673-007380e2eb70","ios":"levelo://app?vid=8bb2fa72-b09a-434e-a673-007380e2eb70"},"vehicle_type_id":"4","last_reported":1692378346,"current_range_meters":28000,"station_id":"ce4bhah2rcd13ifvqei0","pricing_plan_id":"free"},{"bike_id":"4b79a743-64df-405a-849e-64c11708b042","system_id":"levelo_inurba_marseille","lat":43.28623,"lon":5.35108,"is_reserved":false,"is_disabled":false,"rental_uris":{"android":"levelo://app?vid=4b79a743-64df-405a-849e-64c11708b042","ios":"levelo://app?vid=4b79a743-64df-405a-849e-64c11708b042"},"vehicle_type_id":"4","last_reported":1692378346,"current_range_meters":31200,"station_id":"ce4bhch2rcd13ifvqeug","pricing_plan_id":"free"},{"bike_id":"14f54cd7-af3b-49f5-b9b2-f280c119e715","system_id":"levelo_inurba_marseille","lat":43.28442,"lon":5.37511,"is_reserved":false,"is_disabled":false,"rental_uris":{"android":"levelo://app?vid=14f54cd7-af3b-49f5-b9b2-f280c119e715","ios":"levelo://app?vid=14f54cd7-af3b-49f5-b9b2-f280c119e715"},"vehicle_type_id":"4","last_reported":1692378346,"current_range_meters":18000,"station_id":"ce4bh412rcd13ifvqds0","pricing_plan_id":"free"},{"bike_id":"4c628d7d-0f4a-433c-9e8e-3b6ca068234b","system_id":"levelo_inurba_marseille","lat":43.28622,"lon":5.35097,"is_reserved":false,"is_disabled":false,"rental_uris":{"android":"levelo://app?vid=4c628d7d-0f4a-433c-9e8e-3b6ca068234b","ios":"levelo://app?vid=4c628d7d-0f4a-433c-9e8e-3b6ca068234b"},"vehicle_type_id":"4","last_reported":1692378346,"current_range_meters":27600,"station_id":"ce4bhch2rcd13ifvqeug","pricing_plan_id":"free"},{"bike_id":"eae85b0a-ded6-4282-8892-3f9bf17c7fd4","system_id":"levelo_inurba_marseille","lat":43.28618,"lon":5.35107,"is_reserved":false,"is_disabled":false,"rental_uris":{"android":"levelo://app?vid=eae85b0a-ded6-4282-8892-3f9bf17c7fd4","ios":"levelo://app?vid=eae85b0a-ded6-4282-8892-3f9bf17c7fd4"},"vehicle_type_id":"4","last_reported":1692378346,"current_range_meters":18800,"station_id":"ce4bhch2rcd13ifvqeug","pricing_plan_id":"free"},{"bike_id":"45b73794-40da-485e-85aa-03dd3f9b124a","system_id":"levelo_inurba_marseille","lat":43.28616,"lon":5.35104,"is_reserved":false,"is_disabled":false,"rental_uris":{"android":"levelo://app?vid=45b73794-40da-485e-85aa-03dd3f9b124a","ios":"levelo://app?vid=45b73794-40da-485e-85aa-03dd3f9b124a"},"vehicle_type_id":"4","last_reported":1692378346,"current_range_meters":18000,"station_id":"ce4bhch2rcd13ifvqeug","pricing_plan_id":"free"},{"bike_id":"634f02f7-87c2-478a-ae51-faa98d8ae846","system_id":"levelo_inurba_marseille","lat":43.28617,"lon":5.351,"is_reserved":false,"is_disabled":false,"rental_uris":{"android":"levelo://app?vid=634f02f7-87c2-478a-ae51-faa98d8ae846","ios":"levelo://app?vid=634f02f7-87c2-478a-ae51-faa98d8ae846"},"vehicle_type_id":"4","last_reported":1692378346,"current_range_meters":28400,"station_id":"ce4bhch2rcd13ifvqeug","pricing_plan_id":"free"},{"bike_id":"9078e016-5b59-4d58-b3a9-c7c611e1e35f","system_id":"levelo_inurba_marseille","lat":43.28616,"lon":5.35103,"is_reserved":false,"is_disabled":false,"rental_uris":{"android":"levelo://app?vid=9078e016-5b59-4d58-b3a9-c7c611e1e35f","ios":"levelo://app?vid=9078e016-5b59-4d58-b3a9-c7c611e1e35f"},"vehicle_type_id":"4","last_reported":1692378346,"current_range_meters":30000,"station_id":"ce4bhch2rcd13ifvqeug","pricing_plan_id":"free"},{"bike_id":"35eec3a1-aa54-4990-8eb4-78e6c0dd24d0","system_id":"levelo_inurba_marseille","lat":43.285856,"lon":5.350771,"is_reserved":false,"is_disabled":false,"rental_uris":{"android":"levelo://app?vid=35eec3a1-aa54-4990-8eb4-78e6c0dd24d0","ios":"levelo://app?vid=35eec3a1-aa54-4990-8eb4-78e6c0dd24d0"},"vehicle_type_id":"4","last_reported":1692378346,"current_range_meters":15200,"station_id":"ce4bhch2rcd13ifvqeug","pricing_plan_id":"free"},{"bike_id":"ddd0b29d-387e-4b54-88d7-1164646a8d82","system_id":"levelo_inurba_marseille","lat":43.28614,"lon":5.35106,"is_reserved":false,"is_disabled":false,"rental_uris":{"android":"levelo://app?vid=ddd0b29d-387e-4b54-88d7-1164646a8d82","ios":"levelo://app?vid=ddd0b29d-387e-4b54-88d7-1164646a8d82"},"vehicle_type_id":"4","last_reported":1692378346,"current_range_meters":30800,"station_id":"ce4bhch2rcd13ifvqeug","pricing_plan_id":"free"},{"bike_id":"90d32c9e-76c1-4a8b-8d91-bd1df1b7362a","system_id":"levelo_inurba_marseille","lat":43.28614,"lon":5.35101,"is_reserved":false,"is_disabled":false,"rental_uris":{"android":"levelo://app?vid=90d32c9e-76c1-4a8b-8d91-bd1df1b7362a","ios":"levelo://app?vid=90d32c9e-76c1-4a8b-8d91-bd1df1b7362a"},"vehicle_type_id":"4","last_reported":1692378346,"current_range_meters":31200,"station_id":"ce4bhch2rcd13ifvqeug","pricing_plan_id":"free"},{"bike_id":"44802cab-ee73-460b-ace4-5f45606226cc","system_id":"levelo_inurba_marseille","lat":43.28613,"lon":5.35098,"is_reserved":false,"is_disabled":false,"rental_uris":{"android":"levelo://app?vid=44802cab-ee73-460b-ace4-5f45606226cc","ios":"levelo://app?vid=44802cab-ee73-460b-ace4-5f45606226cc"},"vehicle_type_id":"4","last_reported":1692378346,"current_range_meters":31200,"station_id":"ce4bhch2rcd13ifvqeug","pricing_plan_id":"free"},{"bike_id":"fcf01e60-fd11-4dbb-b673-ee180ee2c0f8","system_id":"levelo_inurba_marseille","lat":43.28612,"lon":5.35101,"is_reserved":false,"is_disabled":false,"rental_uris":{"android":"levelo://app?vid=fcf01e60-fd11-4dbb-b673-ee180ee2c0f8","ios":"levelo://app?vid=fcf01e60-fd11-4dbb-b673-ee180ee2c0f8"},"vehicle_type_id":"4","last_reported":1692378346,"current_range_meters":13200,"station_id":"ce4bhch2rcd13ifvqeug","pricing_plan_id":"free"},{"bike_id":"2363d3b5-6c15-401a-a59c-ee80bd4af927","system_id":"levelo_inurba_marseille","lat":43.28415,"lon":5.37522,"is_reserved":false,"is_disabled":false,"rental_uris":{"android":"levelo://app?vid=2363d3b5-6c15-401a-a59c-ee80bd4af927","ios":"levelo://app?vid=2363d3b5-6c15-401a-a59c-ee80bd4af927"},"vehicle_type_id":"4","last_reported":1692378346,"current_range_meters":24000,"station_id":"ce4bh412rcd13ifvqds0","pricing_plan_id":"free"},{"bike_id":"8ade5a8c-3bbc-4d85-9716-bebf03f8a37d","system_id":"levelo_inurba_marseille","lat":43.295713,"lon":5.399639,"is_reserved":false,"is_disabled":false,"rental_uris":{"android":"levelo://app?vid=8ade5a8c-3bbc-4d85-9716-bebf03f8a37d","ios":"levelo://app?vid=8ade5a8c-3bbc-4d85-9716-bebf03f8a37d"},"vehicle_type_id":"4","last_reported":1692378346,"current_range_meters":8800,"station_id":"ce4bh312rcd13ifvqdj0","pricing_plan_id":"free"},{"bike_id":"c1123b5c-466c-4cb8-9991-bc42a9412c9e","system_id":"levelo_inurba_marseille","lat":43.28406,"lon":5.3752,"is_reserved":false,"is_disabled":false,"rental_uris":{"android":"levelo://app?vid=c1123b5c-466c-4cb8-9991-bc42a9412c9e","ios":"levelo://app?vid=c1123b5c-466c-4cb8-9991-bc42a9412c9e"},"vehicle_type_id":"4","last_reported":1692378346,"current_range_meters":15600,"station_id":"ce4bh412rcd13ifvqds0","pricing_plan_id":"free"},{"bike_id":"11ed6462-155a-4a1c-9236-a3254dcc05fb","system_id":"levelo_inurba_marseille","lat":43.295713,"lon":5.399639,"is_reserved":false,"is_disabled":false,"rental_uris":{"android":"levelo://app?vid=11ed6462-155a-4a1c-9236-a3254dcc05fb","ios":"levelo://app?vid=11ed6462-155a-4a1c-9236-a3254dcc05fb"},"vehicle_type_id":"4","last_reported":1692378346,"current_range_meters":13600,"station_id":"ce4bh312rcd13ifvqdj0","pricing_plan_id":"free"},{"bike_id":"ccc36326-221e-45b8-af05-d846fc10968d","system_id":"levelo_inurba_marseille","lat":43.295787,"lon":5.399863,"is_reserved":false,"is_disabled":false,"rental_uris":{"android":"levelo://app?vid=ccc36326-221e-45b8-af05-d846fc10968d","ios":"levelo://app?vid=ccc36326-221e-45b8-af05-d846fc10968d"},"vehicle_type_id":"4","last_reported":1692378346,"current_range_meters":22800,"station_id":"","pricing_plan_id":"free"},{"bike_id":"0c18e999-47da-4f4d-bcc0-9d57b3fbc434","system_id":"levelo_inurba_marseille","lat":43.28393,"lon":5.37529,"is_reserved":false,"is_disabled":false,"rental_uris":{"android":"levelo://app?vid=0c18e999-47da-4f4d-bcc0-9d57b3fbc434","ios":"levelo://app?vid=0c18e999-47da-4f4d-bcc0-9d57b3fbc434"},"vehicle_type_id":"4","last_reported":1692378346,"current_range_meters":0,"station_id":"ce4bh412rcd13ifvqds0","pricing_plan_id":"free"},{"bike_id":"abcd8a17-5c98-4936-bec8-0aef4c38b155","system_id":"levelo_inurba_marseille","lat":43.31882,"lon":5.40737,"is_reserved":false,"is_disabled":false,"rental_uris":{"android":"levelo://app?vid=abcd8a17-5c98-4936-bec8-0aef4c38b155","ios":"levelo://app?vid=abcd8a17-5c98-4936-bec8-0aef4c38b155"},"vehicle_type_id":"4","last_reported":1692378346,"current_range_meters":14000,"station_id":"ce4bhq12rcd13ifvqhig","pricing_plan_id":"free"},{"bike_id":"6fb36002-bc24-427c-a16e-585470e55deb","system_id":"levelo_inurba_marseille","lat":43.32567,"lon":5.4043,"is_reserved":false,"is_disabled":false,"rental_uris":{"android":"levelo://app?vid=6fb36002-bc24-427c-a16e-585470e55deb","ios":"levelo://app?vid=6fb36002-bc24-427c-a16e-585470e55deb"},"vehicle_type_id":"4","last_reported":1692378346,"current_range_meters":21600,"station_id":"","pricing_plan_id":"free"},{"bike_id":"2b6e4f1f-91fa-42a5-a3b6-501bb8fcb217","system_id":"levelo_inurba_marseille","lat":43.288527,"lon":5.39305,"is_reserved":false,"is_disabled":false,"rental_uris":{"android":"levelo://app?vid=2b6e4f1f-91fa-42a5-a3b6-501bb8fcb217","ios":"levelo://app?vid=2b6e4f1f-91fa-42a5-a3b6-501bb8fcb217"},"vehicle_type_id":"4","last_reported":1692378346,"current_range_meters":28400,"station_id":"","pricing_plan_id":"free"},{"bike_id":"e4000e43-8c14-4159-834c-6277fb8ab6e2","system_id":"levelo_inurba_marseille","lat":43.288501,"lon":5.393087,"is_reserved":false,"is_disabled":false,"rental_uris":{"android":"levelo://app?vid=e4000e43-8c14-4159-834c-6277fb8ab6e2","ios":"levelo://app?vid=e4000e43-8c14-4159-834c-6277fb8ab6e2"},"vehicle_type_id":"4","last_reported":1692378346,"current_range_meters":8800,"station_id":"ce4bh2p2rcd13ifvqdi0","pricing_plan_id":"free"},{"bike_id":"23f5f11c-1631-4826-9b70-90ab56e6e026","system_id":"levelo_inurba_marseille","lat":43.32386,"lon":5.40642,"is_reserved":false,"is_disabled":false,"rental_uris":{"android":"levelo://app?vid=23f5f11c-1631-4826-9b70-90ab56e6e026","ios":"levelo://app?vid=23f5f11c-1631-4826-9b70-90ab56e6e026"},"vehicle_type_id":"4","last_reported":1692378346,"current_range_meters":8400,"station_id":"ce4bhq92rcd13ifvqhjg","pricing_plan_id":"free"},{"bike_id":"34e93036-8269-4147-9a56-0b863794b704","system_id":"levelo_inurba_marseille","lat":43.283498,"lon":5.380948,"is_reserved":false,"is_disabled":false,"rental_uris":{"android":"levelo://app?vid=34e93036-8269-4147-9a56-0b863794b704","ios":"levelo://app?vid=34e93036-8269-4147-9a56-0b863794b704"},"vehicle_type_id":"4","last_reported":1692378346,"current_range_meters":18800,"station_id":"ce4bh412rcd13ifvqdr0","pricing_plan_id":"free"},{"bike_id":"18f20116-83e1-4e9b-8ab9-59d3ba65d563","system_id":"levelo_inurba_marseille","lat":43.28426,"lon":5.34992,"is_reserved":false,"is_disabled":false,"rental_uris":{"android":"levelo://app?vid=18f20116-83e1-4e9b-8ab9-59d3ba65d563","ios":"levelo://app?vid=18f20116-83e1-4e9b-8ab9-59d3ba65d563"},"vehicle_type_id":"4","last_reported":1692378346,"current_range_meters":18000,"station_id":"ce4bhbh2rcd13ifvqepg","pricing_plan_id":"free"},{"bike_id":"10b4cd5c-25bb-4297-839f-3ead540766ac","system_id":"levelo_inurba_marseille","lat":43.28426,"lon":5.34991,"is_reserved":false,"is_disabled":false,"rental_uris":{"android":"levelo://app?vid=10b4cd5c-25bb-4297-839f-3ead540766ac","ios":"levelo://app?vid=10b4cd5c-25bb-4297-839f-3ead540766ac"},"vehicle_type_id":"4","last_reported":1692378346,"current_range_meters":15200,"station_id":"ce4bhbh2rcd13ifvqepg","pricing_plan_id":"free"},{"bike_id":"f7885aaa-ed9e-407f-a989-ef5a96c9933f","system_id":"levelo_inurba_marseille","lat":43.284219,"lon":5.3497,"is_reserved":false,"is_disabled":false,"rental_uris":{"android":"levelo://app?vid=f7885aaa-ed9e-407f-a989-ef5a96c9933f","ios":"levelo://app?vid=f7885aaa-ed9e-407f-a989-ef5a96c9933f"},"vehicle_type_id":"4","last_reported":1692378346,"current_range_meters":31600,"station_id":"ce4bhbh2rcd13ifvqepg","pricing_plan_id":"free"},{"bike_id":"6cd6afce-a16f-45a0-b5a6-84ec94057dcf","system_id":"levelo_inurba_marseille","lat":43.284217,"lon":5.349697,"is_reserved":false,"is_disabled":false,"rental_uris":{"android":"levelo://app?vid=6cd6afce-a16f-45a0-b5a6-84ec94057dcf","ios":"levelo://app?vid=6cd6afce-a16f-45a0-b5a6-84ec94057dcf"},"vehicle_type_id":"4","last_reported":1692378346,"current_range_meters":31200,"station_id":"ce4bhbh2rcd13ifvqepg","pricing_plan_id":"free"},{"bike_id":"9593cde2-abbc-42c5-bbbb-921eb29f8f80","system_id":"levelo_inurba_marseille","lat":43.284217,"lon":5.349697,"is_reserved":false,"is_disabled":false,"rental_uris":{"android":"levelo://app?vid=9593cde2-abbc-42c5-bbbb-921eb29f8f80","ios":"levelo://app?vid=9593cde2-abbc-42c5-bbbb-921eb29f8f80"},"vehicle_type_id":"4","last_reported":1692378346,"current_range_meters":28000,"station_id":"ce4bhbh2rcd13ifvqepg","pricing_plan_id":"free"},{"bike_id":"b587097a-787b-4f0b-8b6b-d16f7f5ed313","system_id":"levelo_inurba_marseille","lat":43.284219,"lon":5.3497,"is_reserved":false,"is_disabled":false,"rental_uris":{"android":"levelo://app?vid=b587097a-787b-4f0b-8b6b-d16f7f5ed313","ios":"levelo://app?vid=b587097a-787b-4f0b-8b6b-d16f7f5ed313"},"vehicle_type_id":"4","last_reported":1692378346,"current_range_meters":21200,"station_id":"ce4bhbh2rcd13ifvqepg","pricing_plan_id":"free"},{"bike_id":"e7cfd9be-79f7-4434-9e08-04203349c477","system_id":"levelo_inurba_marseille","lat":43.284219,"lon":5.3497,"is_reserved":false,"is_disabled":false,"rental_uris":{"android":"levelo://app?vid=e7cfd9be-79f7-4434-9e08-04203349c477","ios":"levelo://app?vid=e7cfd9be-79f7-4434-9e08-04203349c477"},"vehicle_type_id":"4","last_reported":1692378346,"current_range_meters":31200,"station_id":"ce4bhbh2rcd13ifvqepg","pricing_plan_id":"free"},{"bike_id":"710361f0-ab42-4b80-bac2-b5dd7dbb08e6","system_id":"levelo_inurba_marseille","lat":43.284217,"lon":5.349697,"is_reserved":false,"is_disabled":false,"rental_uris":{"android":"levelo://app?vid=710361f0-ab42-4b80-bac2-b5dd7dbb08e6","ios":"levelo://app?vid=710361f0-ab42-4b80-bac2-b5dd7dbb08e6"},"vehicle_type_id":"4","last_reported":1692378346,"current_range_meters":23200,"station_id":"ce4bhbh2rcd13ifvqepg","pricing_plan_id":"free"},{"bike_id":"0acefed2-c5d1-4341-a74d-631172cc9326","system_id":"levelo_inurba_marseille","lat":43.284219,"lon":5.3497,"is_reserved":false,"is_disabled":false,"rental_uris":{"android":"levelo://app?vid=0acefed2-c5d1-4341-a74d-631172cc9326","ios":"levelo://app?vid=0acefed2-c5d1-4341-a74d-631172cc9326"},"vehicle_type_id":"4","last_reported":1692378346,"current_range_meters":31200,"station_id":"ce4bhbh2rcd13ifvqepg","pricing_plan_id":"free"},{"bike_id":"b0ae84a8-5be3-42e1-bf93-6a5f4ba3290a","system_id":"levelo_inurba_marseille","lat":43.284219,"lon":5.3497,"is_reserved":false,"is_disabled":false,"rental_uris":{"android":"levelo://app?vid=b0ae84a8-5be3-42e1-bf93-6a5f4ba3290a","ios":"levelo://app?vid=b0ae84a8-5be3-42e1-bf93-6a5f4ba3290a"},"vehicle_type_id":"4","last_reported":1692378346,"current_range_meters":30400,"station_id":"ce4bhbh2rcd13ifvqepg","pricing_plan_id":"free"},{"bike_id":"e712a0c8-e1cf-49d0-a165-3606498a8fa3","system_id":"levelo_inurba_marseille","lat":43.28426,"lon":5.3498,"is_reserved":false,"is_disabled":false,"rental_uris":{"android":"levelo://app?vid=e712a0c8-e1cf-49d0-a165-3606498a8fa3","ios":"levelo://app?vid=e712a0c8-e1cf-49d0-a165-3606498a8fa3"},"vehicle_type_id":"4","last_reported":1692378346,"current_range_meters":18000,"station_id":"ce4bhbh2rcd13ifvqepg","pricing_plan_id":"free"},{"bike_id":"f21a3daf-1268-4188-9d2a-61d7b2b3ebf8","system_id":"levelo_inurba_marseille","lat":43.28423,"lon":5.34989,"is_reserved":false,"is_disabled":false,"rental_uris":{"android":"levelo://app?vid=f21a3daf-1268-4188-9d2a-61d7b2b3ebf8","ios":"levelo://app?vid=f21a3daf-1268-4188-9d2a-61d7b2b3ebf8"},"vehicle_type_id":"4","last_reported":1692378346,"current_range_meters":23200,"station_id":"ce4bhbh2rcd13ifvqepg","pricing_plan_id":"free"},{"bike_id":"f2866c5e-7ee3-4aef-bbe3-3a666b5710bb","system_id":"levelo_inurba_marseille","lat":43.284217,"lon":5.349697,"is_reserved":false,"is_disabled":false,"rental_uris":{"android":"levelo://app?vid=f2866c5e-7ee3-4aef-bbe3-3a666b5710bb","ios":"levelo://app?vid=f2866c5e-7ee3-4aef-bbe3-3a666b5710bb"},"vehicle_type_id":"4","last_reported":1692378346,"current_range_meters":31600,"station_id":"ce4bhbh2rcd13ifvqepg","pricing_plan_id":"free"},{"bike_id":"61c2cf0b-883d-4d6f-ab57-f0fb67f53757","system_id":"levelo_inurba_marseille","lat":43.28422,"lon":5.34986,"is_reserved":false,"is_disabled":false,"rental_uris":{"android":"levelo://app?vid=61c2cf0b-883d-4d6f-ab57-f0fb67f53757","ios":"levelo://app?vid=61c2cf0b-883d-4d6f-ab57-f0fb67f53757"},"vehicle_type_id":"4","last_reported":1692378346,"current_range_meters":25600,"station_id":"ce4bhbh2rcd13ifvqepg","pricing_plan_id":"free"},{"bike_id":"adf20b51-77ec-49b8-b8db-c29069ee46cc","system_id":"levelo_inurba_marseille","lat":43.28422,"lon":5.34985,"is_reserved":false,"is_disabled":false,"rental_uris":{"android":"levelo://app?vid=adf20b51-77ec-49b8-b8db-c29069ee46cc","ios":"levelo://app?vid=adf20b51-77ec-49b8-b8db-c29069ee46cc"},"vehicle_type_id":"4","last_reported":1692378346,"current_range_meters":27600,"station_id":"ce4bhbh2rcd13ifvqepg","pricing_plan_id":"free"},{"bike_id":"9d2c659d-5192-4524-94c8-b6a25d3b5731","system_id":"levelo_inurba_marseille","lat":43.284217,"lon":5.349697,"is_reserved":false,"is_disabled":false,"rental_uris":{"android":"levelo://app?vid=9d2c659d-5192-4524-94c8-b6a25d3b5731","ios":"levelo://app?vid=9d2c659d-5192-4524-94c8-b6a25d3b5731"},"vehicle_type_id":"4","last_reported":1692378346,"current_range_meters":31200,"station_id":"ce4bhbh2rcd13ifvqepg","pricing_plan_id":"free"},{"bike_id":"702dfd74-d981-432c-b05c-a84bce3464c4","system_id":"levelo_inurba_marseille","lat":43.284219,"lon":5.3497,"is_reserved":false,"is_disabled":false,"rental_uris":{"android":"levelo://app?vid=702dfd74-d981-432c-b05c-a84bce3464c4","ios":"levelo://app?vid=702dfd74-d981-432c-b05c-a84bce3464c4"},"vehicle_type_id":"4","last_reported":1692378346,"current_range_meters":31200,"station_id":"ce4bhbh2rcd13ifvqepg","pricing_plan_id":"free"},{"bike_id":"54c15eab-99e6-4366-9d2d-114b5f91930e","system_id":"levelo_inurba_marseille","lat":43.284219,"lon":5.3497,"is_reserved":false,"is_disabled":false,"rental_uris":{"android":"levelo://app?vid=54c15eab-99e6-4366-9d2d-114b5f91930e","ios":"levelo://app?vid=54c15eab-99e6-4366-9d2d-114b5f91930e"},"vehicle_type_id":"4","last_reported":1692378346,"current_range_meters":24800,"station_id":"ce4bhbh2rcd13ifvqepg","pricing_plan_id":"free"},{"bike_id":"c5296132-5288-412d-afff-214983088e9a","system_id":"levelo_inurba_marseille","lat":43.28425,"lon":5.34974,"is_reserved":false,"is_disabled":false,"rental_uris":{"android":"levelo://app?vid=c5296132-5288-412d-afff-214983088e9a","ios":"levelo://app?vid=c5296132-5288-412d-afff-214983088e9a"},"vehicle_type_id":"4","last_reported":1692378346,"current_range_meters":28800,"station_id":"ce4bhbh2rcd13ifvqepg","pricing_plan_id":"free"},{"bike_id":"3e280431-8f7a-42e7-af54-87077f954e19","system_id":"levelo_inurba_marseille","lat":43.28422,"lon":5.34983,"is_reserved":false,"is_disabled":false,"rental_uris":{"android":"levelo://app?vid=3e280431-8f7a-42e7-af54-87077f954e19","ios":"levelo://app?vid=3e280431-8f7a-42e7-af54-87077f954e19"},"vehicle_type_id":"4","last_reported":1692378346,"current_range_meters":31200,"station_id":"ce4bhbh2rcd13ifvqepg","pricing_plan_id":"free"},{"bike_id":"c3343812-ebb2-4488-88de-99e713acef16","system_id":"levelo_inurba_marseille","lat":43.284219,"lon":5.3497,"is_reserved":false,"is_disabled":false,"rental_uris":{"android":"levelo://app?vid=c3343812-ebb2-4488-88de-99e713acef16","ios":"levelo://app?vid=c3343812-ebb2-4488-88de-99e713acef16"},"vehicle_type_id":"4","last_reported":1692378346,"current_range_meters":16400,"station_id":"ce4bhbh2rcd13ifvqepg","pricing_plan_id":"free"},{"bike_id":"86f7612b-b76d-459f-a712-079e4a5f360e","system_id":"levelo_inurba_marseille","lat":43.284219,"lon":5.3497,"is_reserved":false,"is_disabled":false,"rental_uris":{"android":"levelo://app?vid=86f7612b-b76d-459f-a712-079e4a5f360e","ios":"levelo://app?vid=86f7612b-b76d-459f-a712-079e4a5f360e"},"vehicle_type_id":"4","last_reported":1692378346,"current_range_meters":31200,"station_id":"ce4bhbh2rcd13ifvqepg","pricing_plan_id":"free"},{"bike_id":"ede9ae7f-93c6-4a5a-9368-1a2d0da3c2db","system_id":"levelo_inurba_marseille","lat":43.284219,"lon":5.3497,"is_reserved":false,"is_disabled":false,"rental_uris":{"android":"levelo://app?vid=ede9ae7f-93c6-4a5a-9368-1a2d0da3c2db","ios":"levelo://app?vid=ede9ae7f-93c6-4a5a-9368-1a2d0da3c2db"},"vehicle_type_id":"4","last_reported":1692378346,"current_range_meters":31600,"station_id":"ce4bhbh2rcd13ifvqepg","pricing_plan_id":"free"},{"bike_id":"f47ad214-e2a2-450a-bef4-2ce46870ca6c","system_id":"levelo_inurba_marseille","lat":43.284217,"lon":5.349697,"is_reserved":false,"is_disabled":false,"rental_uris":{"android":"levelo://app?vid=f47ad214-e2a2-450a-bef4-2ce46870ca6c","ios":"levelo://app?vid=f47ad214-e2a2-450a-bef4-2ce46870ca6c"},"vehicle_type_id":"4","last_reported":1692378346,"current_range_meters":31600,"station_id":"ce4bhbh2rcd13ifvqepg","pricing_plan_id":"free"},{"bike_id":"6cab3871-ba4d-4335-875d-412142c5f965","system_id":"levelo_inurba_marseille","lat":43.284219,"lon":5.3497,"is_reserved":false,"is_disabled":false,"rental_uris":{"android":"levelo://app?vid=6cab3871-ba4d-4335-875d-412142c5f965","ios":"levelo://app?vid=6cab3871-ba4d-4335-875d-412142c5f965"},"vehicle_type_id":"4","last_reported":1692378346,"current_range_meters":17600,"station_id":"ce4bhbh2rcd13ifvqepg","pricing_plan_id":"free"},{"bike_id":"bc5cf335-09f3-4349-98a7-750c31b60a5d","system_id":"levelo_inurba_marseille","lat":43.28419,"lon":5.34979,"is_reserved":false,"is_disabled":false,"rental_uris":{"android":"levelo://app?vid=bc5cf335-09f3-4349-98a7-750c31b60a5d","ios":"levelo://app?vid=bc5cf335-09f3-4349-98a7-750c31b60a5d"},"vehicle_type_id":"4","last_reported":1692378346,"current_range_meters":26000,"station_id":"ce4bhbh2rcd13ifvqepg","pricing_plan_id":"free"},{"bike_id":"01d789ce-04e9-4853-a759-a18df6428da7","system_id":"levelo_inurba_marseille","lat":43.284217,"lon":5.349697,"is_reserved":false,"is_disabled":false,"rental_uris":{"android":"levelo://app?vid=01d789ce-04e9-4853-a759-a18df6428da7","ios":"levelo://app?vid=01d789ce-04e9-4853-a759-a18df6428da7"},"vehicle_type_id":"4","last_reported":1692378346,"current_range_meters":22400,"station_id":"ce4bhbh2rcd13ifvqepg","pricing_plan_id":"free"},{"bike_id":"9fc5e2cf-6669-42d1-aa6e-683bcf249b55","system_id":"levelo_inurba_marseille","lat":43.28417,"lon":5.34976,"is_reserved":false,"is_disabled":false,"rental_uris":{"android":"levelo://app?vid=9fc5e2cf-6669-42d1-aa6e-683bcf249b55","ios":"levelo://app?vid=9fc5e2cf-6669-42d1-aa6e-683bcf249b55"},"vehicle_type_id":"4","last_reported":1692378346,"current_range_meters":12800,"station_id":"ce4bhbh2rcd13ifvqepg","pricing_plan_id":"free"},{"bike_id":"45fe16f5-1326-4f39-b49f-e368e13d781a","system_id":"levelo_inurba_marseille","lat":43.283494,"lon":5.380945,"is_reserved":false,"is_disabled":false,"rental_uris":{"android":"levelo://app?vid=45fe16f5-1326-4f39-b49f-e368e13d781a","ios":"levelo://app?vid=45fe16f5-1326-4f39-b49f-e368e13d781a"},"vehicle_type_id":"4","last_reported":1692378346,"current_range_meters":6400,"station_id":"ce4bh412rcd13ifvqdr0","pricing_plan_id":"free"},{"bike_id":"5cec26ac-344f-432b-af34-450b75305b9b","system_id":"levelo_inurba_marseille","lat":43.292724,"lon":5.401131,"is_reserved":false,"is_disabled":false,"rental_uris":{"android":"levelo://app?vid=5cec26ac-344f-432b-af34-450b75305b9b","ios":"levelo://app?vid=5cec26ac-344f-432b-af34-450b75305b9b"},"vehicle_type_id":"4","last_reported":1692378346,"current_range_meters":31200,"station_id":"ce4bh312rcd13ifvqdk0","pricing_plan_id":"free"},{"bike_id":"88940920-727e-47f8-bee6-24feedff1167","system_id":"levelo_inurba_marseille","lat":43.282754,"lon":5.350519,"is_reserved":false,"is_disabled":false,"rental_uris":{"android":"levelo://app?vid=88940920-727e-47f8-bee6-24feedff1167","ios":"levelo://app?vid=88940920-727e-47f8-bee6-24feedff1167"},"vehicle_type_id":"4","last_reported":1692378346,"current_range_meters":30800,"station_id":"ce4bhbp2rcd13ifvqerg","pricing_plan_id":"free"},