{"last_updated":1747725048,"ttl":60,"version":"2.2","data":{"bikes":[{"bike_id":"d24616ee-ec1f-4230-b901-f178a8577177","system_id":"levelo_inurba_marseille","lat":43.32046,"lon":5.41536,"is_reserved":false,"is_disabled":false,"rental_uris":{"android":"levelo://app?vid=d24616ee-ec1f-4230-b901-f178a8577177","ios":"levelo://app?vid=d24616ee-ec1f-4230-b901-f178a8577177"},"vehicle_type_id":"4","last_reported":1747725048,"current_range_meters":2800,"station_id":"ce4bhq92rcd13ifvqhkg","pricing_plan_id":"cebpf4jnsgd1na2vs0mg"},{"bike_id":"56a8c683-922a-4e30-a1df-0e1e23b261be","system_id":"levelo_inurba_marseille","lat":43.25727,"lon":5.41105,"is_reserved":false,"is_disabled":false,"rental_uris":{"android":"levelo://app?vid=56a8c683-922a-4e30-a1df-0e1e23b261be","ios":"levelo://app?vid=56a8c683-922a-4e30-a1df-0e1e23b261be"},"vehicle_type_id":"4","last_reported":1747725048,"current_range_meters":3200,"station_id":"ce4bhkp2rcd13ifvqgd0","pricing_plan_id":"cebpf4jnsgd1na2vs0mg"},{"bike_id":"0eb7f958-813c-4599-a947-cc188a070eb3","system_id":"levelo_inurba_marseille","lat":43.25121,"lon":5.40329,"is_reserved":false,"is_disabled":false,"rental_uris":{"android":"levelo://app?vid=0eb7f958-813c-4599-a947-cc188a070eb3","ios":"levelo://app?vid=0eb7f958-813c-4599-a947-cc188a070eb3"},"vehicle_type_id":"4","last_reported":1747725048,"current_range_meters":3200,"station_id":"ce4bhlh2rcd13ifvqgig","pricing_plan_id":"cebpf4jnsgd1na2vs0mg"},{"bike_id":"1b136d29-9e9c-4723-8b83-b409e818f7bf","system_id":"levelo_inurba_marseille","lat":43.211848,"lon":5.350951,"is_reserved":false,"is_disabled":false,"rental_uris":{"android":"levelo://app?vid=1b136d29-9e9c-4723-8b83-b409e818f7bf","ios":"levelo://app?vid=1b136d29-9e9c-4723-8b83-b409e818f7bf"},"vehicle_type_id":"4","last_reported":1747725048,"current_range_meters":3600,"station_id":"st_cvj6sg6p6f1abm77japg","pricing_plan_id":"cebpf4jnsgd1na2vs0mg"},{"bike_id":"9098acce-4a9e-40d8-ba71-76f7509c9d2b","system_id":"levelo_inurba_marseille","lat":43.26562,"lon":5.37299,"is_reserved":false,"is_disabled":false,"rental_uris":{"android":"levelo://app?vid=9098acce-4a9e-40d8-ba71-76f7509c9d2b","ios":"levelo://app?vid=9098acce-4a9e-40d8-ba71-76f7509c9d2b"},"vehicle_type_id":"4","last_reported":1747725048,"current_range_meters":3600,"station_id":"ce4bhg12rcd13ifvqf70","pricing_plan_id":"cebpf4jnsgd1na2vs0mg"},{"bike_id":"f3c14c67-0b6c-499c-9e94-b6e2efb69007","system_id":"levelo_inurba_marseille","lat":43.31759,"lon":5.39007,"is_reserved":false,"is_disabled":false,"rental_uris":{"android":"levelo://app?vid=f3c14c67-0b6c-499c-9e94-b6e2efb69007","ios":"levelo://app?vid=f3c14c67-0b6c-499c-9e94-b6e2efb69007"},"vehicle_type_id":"4","last_reported":1747725048,"current_range_meters":3600,"station_id":"ce4bhqp2rcd13ifvqhng","pricing_plan_id":"cebpf4jnsgd1na2vs0mg"},{"bike_id":"14312a4f-5518-4993-ba17-b9a97fb5ebf1","system_id":"levelo_inurba_marseille","lat":43.28942,"lon":5.39617,"is_reserved":false,"is_disabled":false,"rental_uris":{"android":"levelo://app?vid=14312a4f-5518-4993-ba17-b9a97fb5ebf1","ios":"levelo://app?vid=14312a4f-5518-4993-ba17-b9a97fb5ebf1"},"vehicle_type_id":"4","last_reported":1747725048,"current_range_meters":4000,"station_id":"ce4bh3h2rcd13ifvqdn0","pricing_plan_id":"cebpf4jnsgd1na2vs0mg"},{"bike_id":"0959ff5e-5955-4215-8723-80a097bacc26","system_id":"levelo_inurba_marseille","lat":43.27812,"lon":5.40728,"is_reserved":false,"is_disabled":false,"rental_uris":{"android":"levelo://app?vid=0959ff5e-5955-4215-8723-80a097bacc26","ios":"levelo://app?vid=0959ff5e-5955-4215-8723-80a097bacc26"},"vehicle_type_id":"4","last_reported":1747725048,"current_range_meters":4000,"station_id":"ce4bhnh2rcd13ifvqgtg","pricing_plan_id":"cebpf4jnsgd1na2vs0mg"},{"bike_id":"f40652e2-30a0-431e-b1f1-4d9fe84a8149","system_id":"levelo_inurba_marseille","lat":43.27388,"lon":5.36248,"is_reserved":false,"is_disabled":false,"rental_uris":{"android":"levelo://app?vid=f40652e2-30a0-431e-b1f1-4d9fe84a8149","ios":"levelo://app?vid=f40652e2-30a0-431e-b1f1-4d9fe84a8149"},"vehicle_type_id":"4","last_reported":1747725048,"current_range_meters":4400,"station_id":"ce4bhbh2rcd13ifvqeo0","pricing_plan_id":"cebpf4jnsgd1na2vs0mg"},{"bike_id":"fefa3ad1-29a6-4d50-af49-b905b6a48898","system_id":"levelo_inurba_marseille","lat":43.281454,"lon":5.426572,"is_reserved":false,"is_disabled":false,"rental_uris":{"android":"levelo://app?vid=fefa3ad1-29a6-4d50-af49-b905b6a48898","ios":"levelo://app?vid=fefa3ad1-29a6-4d50-af49-b905b6a48898"},"vehicle_type_id":"4","last_reported":1747725048,"current_range_meters":4400,"station_id":"ce4bhnh2rcd13ifvqgug","pricing_plan_id":"cebpf4jnsgd1na2vs0mg"},{"bike_id":"e111fb48-6c9b-41ea-aa49-b2df8dd08e29","system_id":"levelo_inurba_marseille","lat":43.26815,"lon":5.40226,"is_reserved":false,"is_disabled":true,"rental_uris":{"android":"levelo://app?vid=e111fb48-6c9b-41ea-aa49-b2df8dd08e29","ios":"levelo://app?vid=e111fb48-6c9b-41ea-aa49-b2df8dd08e29"},"vehicle_type_id":"4","last_reported":1747725048,"current_range_meters":4400,"station_id":"ce501612rcd8frsf0b60","pricing_plan_id":"cebpf4jnsgd1na2vs0mg"},{"bike_id":"eb4265db-e94f-44a7-9ef3-b8d7e8192ada","system_id":"levelo_inurba_marseille","lat":43.30455,"lon":5.37888,"is_reserved":false,"is_disabled":false,"rental_uris":{"android":"levelo://app?vid=eb4265db-e94f-44a7-9ef3-b8d7e8192ada","ios":"levelo://app?vid=eb4265db-e94f-44a7-9ef3-b8d7e8192ada"},"vehicle_type_id":"4","last_reported":1747725048,"current_range_meters":4400,"station_id":"ce4bgup2rcd13ifvqcn0","pricing_plan_id":"cebpf4jnsgd1na2vs0mg"},{"bike_id":"998398f5-02c4-467a-a7e0-c3cdb04cdee4","system_id":"levelo_inurba_marseille","lat":43.27499,"lon":5.42451,"is_reserved":false,"is_disabled":false,"rental_uris":{"android":"levelo://app?vid=998398f5-02c4-467a-a7e0-c3cdb04cdee4","ios":"levelo://app?vid=998398f5-02c4-467a-a7e0-c3cdb04cdee4"},"vehicle_type_id":"4","last_reported":1747725048,"current_range_meters":4400,"station_id":"ce4bhn92rcd13ifvqgrg","pricing_plan_id":"cebpf4jnsgd1na2vs0mg"},{"bike_id":"b273e346-9696-47ea-9d57-caa0247d35d8","system_id":"levelo_inurba_marseille","lat":43.29772,"lon":5.37106,"is_reserved":false,"is_disabled":false,"rental_uris":{"android":"levelo://app?vid=b273e346-9696-47ea-9d57-caa0247d35d8","ios":"levelo://app?vid=b273e346-9696-47ea-9d57-caa0247d35d8"},"vehicle_type_id":"4","last_reported":1747725048,"current_range_meters":4400,"station_id":"ce4bgop2rcd13ifvqc1g","pricing_plan_id":"cebpf4jnsgd1na2vs0mg"},{"bike_id":"0814fc28-7c82-4444-bf57-b7589c01a901","system_id":"levelo_inurba_marseille","lat":43.24998,"lon":5.38937,"is_reserved":false,"is_disabled":false,"rental_uris":{"android":"levelo://app?vid=0814fc28-7c82-4444-bf57-b7589c01a901","ios":"levelo://app?vid=0814fc28-7c82-4444-bf57-b7589c01a901"},"vehicle_type_id":"4","last_reported":1747725048,"current_range_meters":4800,"station_id":"ce4bhgp2rcd13ifvqfd0","pricing_plan_id":"cebpf4jnsgd1na2vs0mg"},{"bike_id":"92a6af25-c13e-41f1-9234-7144ec89b7a9","system_id":"levelo_inurba_marseille","lat":43.23193,"lon":5.40004,"is_reserved":false,"is_disabled":false,"rental_uris":{"android":"levelo://app?vid=92a6af25-c13e-41f1-9234-7144ec89b7a9","ios":"levelo://app?vid=92a6af25-c13e-41f1-9234-7144ec89b7a9"},"vehicle_type_id":"4","last_reported":1747725048,"current_range_meters":4800,"station_id":"ce4bhn12rcd13ifvqgqg","pricing_plan_id":"cebpf4jnsgd1na2vs0mg"},{"bike_id":"9ae48e25-eddd-4760-b976-a176149d9bad","system_id":"levelo_inurba_marseille","lat":43.287113,"lon":5.373833,"is_reserved":false,"is_disabled":true,"rental_uris":{"android":"levelo://app?vid=9ae48e25-eddd-4760-b976-a176149d9bad","ios":"levelo://app?vid=9ae48e25-eddd-4760-b976-a176149d9bad"},"vehicle_type_id":"4","last_reported":1747725048,"current_range_meters":5600,"station_id":"ce4bh3p2rcd13ifvqdq0","pricing_plan_id":"cebpf4jnsgd1na2vs0mg"},{"bike_id":"982e835a-23cc-4182-94df-df5223ff6084","system_id":"levelo_inurba_marseille","lat":43.272149,"lon":5.390231,"is_reserved":false,"is_disabled":false,"rental_uris":{"android":"levelo://app?vid=982e835a-23cc-4182-94df-df5223ff6084","ios":"levelo://app?vid=982e835a-23cc-4182-94df-df5223ff6084"},"vehicle_type_id":"4","last_reported":1747725048,"current_range_meters":6000,"station_id":"ce4bhh92rcd13ifvqfh0","pricing_plan_id":"cebpf4jnsgd1na2vs0mg"},{"bike_id":"60769808-915e-4876-a1c0-775dd721fe3a","system_id":"levelo_inurba_marseille","lat":43.217515,"lon":5.346033,"is_reserved":false,"is_disabled":false,"rental_uris":{"android":"levelo://app?vid=60769808-915e-4876-a1c0-775dd721fe3a","ios":"levelo://app?vid=60769808-915e-4876-a1c0-775dd721fe3a"},"vehicle_type_id":"4","last_reported":1747725048,"current_range_meters":6000,"station_id":"","pricing_plan_id":"cebpf4jnsgd1na2vs0mg"},{"bike_id":"bc97ff83-1377-4348-b955-54f41842d990","system_id":"levelo_inurba_marseille","lat":43.27323,"lon":5.39069,"is_reserved":false,"is_disabled":false,"rental_uris":{"android":"levelo://app?vid=bc97ff83-1377-4348-b955-54f41842d990","ios":"levelo://app?vid=bc97ff83-1377-4348-b955-54f41842d990"},"vehicle_type_id":"4","last_reported":1747725048,"current_range_meters":6000,"station_id":"ce4bhgp2rcd13ifvqfe0","pricing_plan_id":"cebpf4jnsgd1na2vs0mg"},{"bike_id":"7e57c655-a436-4f6a-b2f3-b4b39d87eb80","system_id":"levelo_inurba_marseille","lat":43.243983,"lon":5.370611,"is_reserved":false,"is_disabled":false,"rental_uris":{"android":"levelo://app?vid=7e57c655-a436-4f6a-b2f3-b4b39d87eb80","ios":"levelo://app?vid=7e57c655-a436-4f6a-b2f3-b4b39d87eb80"},"vehicle_type_id":"4","last_reported":1747725048,"current_range_meters":6000,"station_id":"ce4bhhh2rcd13ifvqfk0","pricing_plan_id":"cebpf4jnsgd1na2vs0mg"},{"bike_id":"cf2e5c45-aac0-4784-a8f5-2a28a2e32c91","system_id":"levelo_inurba_marseille","lat":43.27178,"lon":5.40998,"is_reserved":false,"is_disabled":false,"rental_uris":{"android":"levelo://app?vid=cf2e5c45-aac0-4784-a8f5-2a28a2e32c91","ios":"levelo://app?vid=cf2e5c45-aac0-4784-a8f5-2a28a2e32c91"},"vehicle_type_id":"4","last_reported":1747725048,"current_range_meters":6000,"station_id":"ce4bhl12rcd13ifvqgf0","pricing_plan_id":"cebpf4jnsgd1na2vs0mg"},{"bike_id":"9058608d-adf5-45da-b283-4068c6dc0fe2","system_id":"levelo_inurba_marseille","lat":43.27901,"lon":5.38004,"is_reserved":false,"is_disabled":false,"rental_uris":{"android":"levelo://app?vid=9058608d-adf5-45da-b283-4068c6dc0fe2","ios":"levelo://app?vid=9058608d-adf5-45da-b283-4068c6dc0fe2"},"vehicle_type_id":"4","last_reported":1747725048,"current_range_meters":6000,"station_id":"ce4bhf92rcd13ifvqf50","pricing_plan_id":"cebpf4jnsgd1na2vs0mg"},{"bike_id":"06751f58-0752-4da0-916c-c8f2a0371e39","system_id":"levelo_inurba_marseille","lat":43.31213,"lon":5.36854,"is_reserved":false,"is_disabled":false,"rental_uris":{"android":"levelo://app?vid=06751f58-0752-4da0-916c-c8f2a0371e39","ios":"levelo://app?vid=06751f58-0752-4da0-916c-c8f2a0371e39"},"vehicle_type_id":"4","last_reported":1747725048,"current_range_meters":6400,"station_id":"ce4bgl92rcd13ifvqbq0","pricing_plan_id":"cebpf4jnsgd1na2vs0mg"},{"bike_id":"cd0abfa0-3b69-4a4c-ab6e-7a790bdead4f","system_id":"levelo_inurba_marseille","lat":43.25925,"lon":5.40891,"is_reserved":false,"is_disabled":false,"rental_uris":{"android":"levelo://app?vid=cd0abfa0-3b69-4a4c-ab6e-7a790bdead4f","ios":"levelo://app?vid=cd0abfa0-3b69-4a4c-ab6e-7a790bdead4f"},"vehicle_type_id":"4","last_reported":1747725048,"current_range_meters":6400,"station_id":"ce4bhm92rcd13ifvqglg","pricing_plan_id":"cebpf4jnsgd1na2vs0mg"},{"bike_id":"39623d61-4997-4363-9c6e-29c93d49b3fe","system_id":"levelo_inurba_marseille","lat":43.30127,"lon":5.37389,"is_reserved":false,"is_disabled":false,"rental_uris":{"android":"levelo://app?vid=39623d61-4997-4363-9c6e-29c93d49b3fe","ios":"levelo://app?vid=39623d61-4997-4363-9c6e-29c93d49b3fe"},"vehicle_type_id":"4","last_reported":1747725048,"current_range_meters":6400,"station_id":"ce4bgs92rcd13ifvqcc0","pricing_plan_id":"cebpf4jnsgd1na2vs0mg"},{"bike_id":"5a585b4e-47a9-416c-a173-084754acffd0","system_id":"levelo_inurba_marseille","lat":43.24691,"lon":5.38144,"is_reserved":false,"is_disabled":false,"rental_uris":{"android":"levelo://app?vid=5a585b4e-47a9-416c-a173-084754acffd0","ios":"levelo://app?vid=5a585b4e-47a9-416c-a173-084754acffd0"},"vehicle_type_id":"4","last_reported":1747725048,"current_range_meters":6800,"station_id":"ce4bhih2rcd13ifvqfr0","pricing_plan_id":"cebpf4jnsgd1na2vs0mg"},{"bike_id":"606f724a-1c53-443b-9378-c589b2767e9c","system_id":"levelo_inurba_marseille","lat":43.26489,"lon":5.39557,"is_reserved":false,"is_disabled":false,"rental_uris":{"android":"levelo://app?vid=606f724a-1c53-443b-9378-c589b2767e9c","ios":"levelo://app?vid=606f724a-1c53-443b-9378-c589b2767e9c"},"vehicle_type_id":"4","last_reported":1747725048,"current_range_meters":6800,"station_id":"ce4bhi12rcd13ifvqfq0","pricing_plan_id":"cebpf4jnsgd1na2vs0mg"},{"bike_id":"64366d8d-3020-466a-9cf8-d38ef48e57f9","system_id":"levelo_inurba_marseille","lat":43.25582,"lon":5.38244,"is_reserved":false,"is_disabled":false,"rental_uris":{"android":"levelo://app?vid=64366d8d-3020-466a-9cf8-d38ef48e57f9","ios":"levelo://app?vid=64366d8d-3020-466a-9cf8-d38ef48e57f9"},"vehicle_type_id":"4","last_reported":1747725048,"current_range_meters":6800,"station_id":"ce4bhih2rcd13ifvqfs0","pricing_plan_id":"cebpf4jnsgd1na2vs0mg"},{"bike_id":"fec41bef-30b7-4816-93d7-8a16b0838a5d","system_id":"levelo_inurba_marseille","lat":43.25,"lon":5.38957,"is_reserved":false,"is_disabled":false,"rental_uris":{"android":"levelo://app?vid=fec41bef-30b7-4816-93d7-8a16b0838a5d","ios":"levelo://app?vid=fec41bef-30b7-4816-93d7-8a16b0838a5d"},"vehicle_type_id":"4","last_reported":1747725048,"current_range_meters":6800,"station_id":"ce4bhgp2rcd13ifvqfd0","pricing_plan_id":"cebpf4jnsgd1na2vs0mg"},{"bike_id":"9a3e70fd-99d0-4bdf-9dd4-5b9cb46ce461","system_id":"levelo_inurba_marseille","lat":43.27436,"lon":5.39411,"is_reserved":false,"is_disabled":false,"rental_uris":{"android":"levelo://app?vid=9a3e70fd-99d0-4bdf-9dd4-5b9cb46ce461","ios":"levelo://app?vid=9a3e70fd-99d0-4bdf-9dd4-5b9cb46ce461"},"vehicle_type_id":"4","last_reported":1747725048,"current_range_meters":6800,"station_id":"ce4bhdp2rcd13ifvqf20","pricing_plan_id":"cebpf4jnsgd1na2vs0mg"},{"bike_id":"814e2930-a412-47af-849d-26da2abc07f6","system_id":"levelo_inurba_marseille","lat":43.27844,"lon":5.40708,"is_reserved":false,"is_disabled":true,"rental_uris":{"android":"levelo://app?vid=814e2930-a412-47af-849d-26da2abc07f6","ios":"levelo://app?vid=814e2930-a412-47af-849d-26da2abc07f6"},"vehicle_type_id":"4","last_reported":1747725048,"current_range_meters":6800,"station_id":"ce4bhnh2rcd13ifvqgtg","pricing_plan_id":"cebpf4jnsgd1na2vs0mg"},{"bike_id":"fdbcb080-de86-408c-b4a8-7300b93393a6","system_id":"levelo_inurba_marseille","lat":43.231869,"lon":5.39989,"is_reserved":false,"is_disabled":false,"rental_uris":{"android":"levelo://app?vid=fdbcb080-de86-408c-b4a8-7300b93393a6","ios":"levelo://app?vid=fdbcb080-de86-408c-b4a8-7300b93393a6"},"vehicle_type_id":"4","last_reported":1747725048,"current_range_meters":7200,"station_id":"ce4bhn12rcd13ifvqgqg","pricing_plan_id":"cebpf4jnsgd1na2vs0mg"},{"bike_id":"e64e36d1-c3e7-4427-9260-70ac75fa0a1c","system_id":"levelo_inurba_marseille","lat":43.2992,"lon":5.401965,"is_reserved":false,"is_disabled":false,"rental_uris":{"android":"levelo://app?vid=e64e36d1-c3e7-4427-9260-70ac75fa0a1c","ios":"levelo://app?vid=e64e36d1-c3e7-4427-9260-70ac75fa0a1c"},"vehicle_type_id":"4","last_reported":1747725048,"current_range_meters":7200,"station_id":"","pricing_plan_id":"cebpf4jnsgd1na2vs0mg"},{"bike_id":"fba7f66d-b595-4e90-9541-6f5f2d3bed8a","system_id":"levelo_inurba_marseille","lat":43.29044,"lon":5.39946,"is_reserved":false,"is_disabled":false,"rental_uris":{"android":"levelo://app?vid=fba7f66d-b595-4e90-9541-6f5f2d3bed8a","ios":"levelo://app?vid=fba7f66d-b595-4e90-9541-6f5f2d3bed8a"},"vehicle_type_id":"4","last_reported":1747725048,"current_range_meters":7200,"station_id":"ce4bh392rcd13ifvqdm0","pricing_plan_id":"cebpf4jnsgd1na2vs0mg"},{"bike_id":"ffce2354-c5bb-4af1-9b67-348b3c65784e","system_id":"levelo_inurba_marseille","lat":43.29065,"lon":5.37143,"is_reserved":false,"is_disabled":false,"rental_uris":{"android":"levelo://app?vid=ffce2354-c5bb-4af1-9b67-348b3c65784e","ios":"levelo://app?vid=ffce2354-c5bb-4af1-9b67-348b3c65784e"},"vehicle_type_id":"4","last_reported":1747725048,"current_range_meters":7200,"station_id":"ce4bh5p2rcd13ifvqe4g","pricing_plan_id":"cebpf4jnsgd1na2vs0mg"},{"bike_id":"20bee342-4a3f-4f34-940d-bb6cf00d52ae","system_id":"levelo_inurba_marseille","lat":43.26657,"lon":5.38628,"is_reserved":false,"is_disabled":false,"rental_uris":{"android":"levelo://app?vid=20bee342-4a3f-4f34-940d-bb6cf00d52ae","ios":"levelo://app?vid=20bee342-4a3f-4f34-940d-bb6cf00d52ae"},"vehicle_type_id":"4","last_reported":1747725048,"current_range_meters":7200,"station_id":"","pricing_plan_id":"cebpf4jnsgd1na2vs0mg"},{"bike_id":"6889e011-c4a7-4b40-b6d7-e1fde3581e3d","system_id":"levelo_inurba_marseille","lat":43.292785,"lon":5.401449,"is_reserved":false,"is_disabled":false,"rental_uris":{"android":"levelo://app?vid=6889e011-c4a7-4b40-b6d7-e1fde3581e3d","ios":"levelo://app?vid=6889e011-c4a7-4b40-b6d7-e1fde3581e3d"},"vehicle_type_id":"4","last_reported":1747725048,"current_range_meters":7200,"station_id":"ce4bh312rcd13ifvqdk0","pricing_plan_id":"cebpf4jnsgd1na2vs0mg"},{"bike_id":"06e452b4-00bd-4194-8cf0-97e51cbae02e","system_id":"levelo_inurba_marseille","lat":43.23185,"lon":5.39991,"is_reserved":false,"is_disabled":false,"rental_uris":{"android":"levelo://app?vid=06e452b4-00bd-4194-8cf0-97e51cbae02e","ios":"levelo://app?vid=06e452b4-00bd-4194-8cf0-97e51cbae02e"},"vehicle_type_id":"4","last_reported":1747725048,"current_range_meters":8000,"station_id":"ce4bhn12rcd13ifvqgqg","pricing_plan_id":"cebpf4jnsgd1na2vs0mg"},{"bike_id":"a283b2fd-ff3f-48d1-abab-7a3c52921152","system_id":"levelo_inurba_marseille","lat":43.28141,"lon":5.42658,"is_reserved":false,"is_disabled":false,"rental_uris":{"android":"levelo://app?vid=a283b2fd-ff3f-48d1-abab-7a3c52921152","ios":"levelo://app?vid=a283b2fd-ff3f-48d1-abab-7a3c52921152"},"vehicle_type_id":"4","last_reported":1747725048,"current_range_meters":8000,"station_id":"ce4bhnh2rcd13ifvqgug","pricing_plan_id":"cebpf4jnsgd1na2vs0mg"},{"bike_id":"aef55318-ae08-44cc-b6b7-8ec9f0287ed6","system_id":"levelo_inurba_marseille","lat":43.2928,"lon":5.3685,"is_reserved":false,"is_disabled":false,"rental_uris":{"android":"levelo://app?vid=aef55318-ae08-44cc-b6b7-8ec9f0287ed6","ios":"levelo://app?vid=aef55318-ae08-44cc-b6b7-8ec9f0287ed6"},"vehicle_type_id":"4","last_reported":1747725048,"current_range_meters":8000,"station_id":"ce4bhbp2rcd13ifvqesg","pricing_plan_id":"cebpf4jnsgd1na2vs0mg"},{"bike_id":"ece1ade1-74a1-4510-9756-1459f9cff1be","system_id":"levelo_inurba_marseille","lat":43.22524,"lon":5.34779,"is_reserved":false,"is_disabled":true,"rental_uris":{"android":"levelo://app?vid=ece1ade1-74a1-4510-9756-1459f9cff1be","ios":"levelo://app?vid=ece1ade1-74a1-4510-9756-1459f9cff1be"},"vehicle_type_id":"4","last_reported":1747725048,"current_range_meters":8000,"station_id":"st_cvj5dfep6f1abm77gieg","pricing_plan_id":"cebpf4jnsgd1na2vs0mg"},{"bike_id":"b3944199-ab4f-438e-bb79-49dc0a01620e","system_id":"levelo_inurba_marseille","lat":43.25937,"lon":5.40904,"is_reserved":false,"is_disabled":false,"rental_uris":{"android":"levelo://app?vid=b3944199-ab4f-438e-bb79-49dc0a01620e","ios":"levelo://app?vid=b3944199-ab4f-438e-bb79-49dc0a01620e"},"vehicle_type_id":"4","last_reported":1747725048,"current_range_meters":8000,"station_id":"ce4bhm92rcd13ifvqglg","pricing_plan_id":"cebpf4jnsgd1na2vs0mg"},{"bike_id":"ffe6d238-6026-4e0e-a599-949c46ef6d5a","system_id":"levelo_inurba_marseille","lat":43.25101,"lon":5.40316,"is_reserved":false,"is_disabled":false,"rental_uris":{"android":"levelo://app?vid=ffe6d238-6026-4e0e-a599-949c46ef6d5a","ios":"levelo://app?vid=ffe6d238-6026-4e0e-a599-949c46ef6d5a"},"vehicle_type_id":"4","last_reported":1747725048,"current_range_meters":8000,"station_id":"ce4bhlh2rcd13ifvqgig","pricing_plan_id":"cebpf4jnsgd1na2vs0mg"},{"bike_id":"5b8269ca-1ea3-45eb-852b-4e0880dce35d","system_id":"levelo_inurba_marseille","lat":43.29044,"lon":5.39939,"is_reserved":false,"is_disabled":false,"rental_uris":{"android":"levelo://app?vid=5b8269ca-1ea3-45eb-852b-4e0880dce35d","ios":"levelo://app?vid=5b8269ca-1ea3-45eb-852b-4e0880dce35d"},"vehicle_type_id":"4","last_reported":1747725048,"current_range_meters":8000,"station_id":"ce4bh392rcd13ifvqdm0","pricing_plan_id":"cebpf4jnsgd1na2vs0mg"},{"bike_id":"bcbdbd69-7be8-42f8-a855-a4358565de8f","system_id":"levelo_inurba_marseille","lat":43.27622,"lon":5.41517,"is_reserved":false,"is_disabled":false,"rental_uris":{"android":"levelo://app?vid=bcbdbd69-7be8-42f8-a855-a4358565de8f","ios":"levelo://app?vid=bcbdbd69-7be8-42f8-a855-a4358565de8f"},"vehicle_type_id":"4","last_reported":1747725048,"current_range_meters":8400,"station_id":"","pricing_plan_id":"cebpf4jnsgd1na2vs0mg"},{"bike_id":"0bee8310-e3c6-4566-aecb-00d86829bb71","system_id":"levelo_inurba_marseille","lat":43.28153,"lon":5.42646,"is_reserved":false,"is_disabled":false,"rental_uris":{"android":"levelo://app?vid=0bee8310-e3c6-4566-aecb-00d86829bb71","ios":"levelo://app?vid=0bee8310-e3c6-4566-aecb-00d86829bb71"},"vehicle_type_id":"4","last_reported":1747725048,"current_range_meters":8400,"station_id":"ce4bhnh2rcd13ifvqgug","pricing_plan_id":"cebpf4jnsgd1na2vs0mg"},{"bike_id":"cfa3f564-cabc-4c20-89cc-7b7bf55d8880","system_id":"levelo_inurba_marseille","lat":43.31343,"lon":5.36717,"is_reserved":false,"is_disabled":false,"rental_uris":{"android":"levelo://app?vid=cfa3f564-cabc-4c20-89cc-7b7bf55d8880","ios":"levelo://app?vid=cfa3f564-cabc-4c20-89cc-7b7bf55d8880"},"vehicle_type_id":"4","last_reported":1747725048,"current_range_meters":8400,"station_id":"ce4bgr92rcd13ifvqc6g","pricing_plan_id":"cebpf4jnsgd1na2vs0mg"},{"bike_id":"b2a8a085-4afe-4995-b62f-39dc8b761b89","system_id":"levelo_inurba_marseille","lat":43.21191,"lon":5.35088,"is_reserved":false,"is_disabled":false,"rental_uris":{"android":"levelo://app?vid=b2a8a085-4afe-4995-b62f-39dc8b761b89","ios":"levelo://app?vid=b2a8a085-4afe-4995-b62f-39dc8b761b89"},"vehicle_type_id":"4","last_reported":1747725048,"current_range_meters":8400,"station_id":"st_cvj6sg6p6f1abm77japg","pricing_plan_id":"cebpf4jnsgd1na2vs0mg"},{"bike_id":"000341d6-d7c5-4900-82e6-1c31d3e75f46","system_id":"levelo_inurba_marseille","lat":43.25102,"lon":5.40358,"is_reserved":false,"is_disabled":false,"rental_uris":{"android":"levelo://app?vid=000341d6-d7c5-4900-82e6-1c31d3e75f46","ios":"levelo://app?vid=000341d6-d7c5-4900-82e6-1c31d3e75f46"},"vehicle_type_id":"4","last_reported":1747725048,"current_range_meters":8400,"station_id":"ce4bhlh2rcd13ifvqgig","pricing_plan_id":"cebpf4jnsgd1na2vs0mg"},{"bike_id":"82b7f009-bd5b-4d9b-a74a-f4d218e30cc4","system_id":"levelo_inurba_marseille","lat":43.29282,"lon":5.40079,"is_reserved":false,"is_disabled":false,"rental_uris":{"android":"levelo://app?vid=82b7f009-bd5b-4d9b-a74a-f4d218e30cc4","ios":"levelo://app?vid=82b7f009-bd5b-4d9b-a74a-f4d218e30cc4"},"vehicle_type_id":"4","last_reported":1747725048,"current_range_meters":8800,"station_id":"ce4bh312rcd13ifvqdk0","pricing_plan_id":"cebpf4jnsgd1na2vs0mg"},{"bike_id":"8f0f531d-6a65-4647-8a6f-baa3d982f42f","system_id":"levelo_inurba_marseille","lat":43.28113,"lon":5.42573,"is_reserved":false,"is_disabled":false,"rental_uris":{"android":"levelo://app?vid=8f0f531d-6a65-4647-8a6f-baa3d982f42f","ios":"levelo://app?vid=8f0f531d-6a65-4647-8a6f-baa3d982f42f"},"vehicle_type_id":"4","last_reported":1747725048,"current_range_meters":8800,"station_id":"","pricing_plan_id":"cebpf4jnsgd1na2vs0mg"},{"bike_id":"30e83d1f-dc16-42e8-aa4e-eb241671740b","system_id":"levelo_inurba_marseille","lat":43.30139,"lon":5.38084,"is_reserved":false,"is_disabled":false,"rental_uris":{"android":"levelo://app?vid=30e83d1f-dc16-42e8-aa4e-eb241671740b","ios":"levelo://app?vid=30e83d1f-dc16-42e8-aa4e-eb241671740b"},"vehicle_type_id":"4","last_reported":1747725048,"current_range_meters":8800,"station_id":"ce4bgjp2rcd13ifvqbh0","pricing_plan_id":"cebpf4jnsgd1na2vs0mg"},{"bike_id":"011e955e-272a-445e-aec6-3b9f42a80f8e","system_id":"levelo_inurba_marseille","lat":43.33772,"lon":5.37466,"is_reserved":false,"is_disabled":false,"rental_uris":{"android":"levelo://app?vid=011e955e-272a-445e-aec6-3b9f42a80f8e","ios":"levelo://app?vid=011e955e-272a-445e-aec6-3b9f42a80f8e"},"vehicle_type_id":"4","last_reported":1747725048,"current_range_meters":8800,"station_id":"","pricing_plan_id":"cebpf4jnsgd1na2vs0mg"},{"bike_id":"a5bcf3ab-5daa-4dec-898b-27b2e944e103","system_id":"levelo_inurba_marseille","lat":43.27287,"lon":5.41051,"is_reserved":false,"is_disabled":false,"rental_uris":{"android":"levelo://app?vid=a5bcf3ab-5daa-4dec-898b-27b2e944e103","ios":"levelo://app?vid=a5bcf3ab-5daa-4dec-898b-27b2e944e103"},"vehicle_type_id":"4","last_reported":1747725048,"current_range_meters":8800,"station_id":"","pricing_plan_id":"cebpf4jnsgd1na2vs0mg"},{"bike_id":"354a0e28-b4d3-418f-8c9d-98b9a3eeb2b4","system_id":"levelo_inurba_marseille","lat":43.29619,"lon":5.37155,"is_reserved":false,"is_disabled":false,"rental_uris":{"android":"levelo://app?vid=354a0e28-b4d3-418f-8c9d-98b9a3eeb2b4","ios":"levelo://app?vid=354a0e28-b4d3-418f-8c9d-98b9a3eeb2b4"},"vehicle_type_id":"4","last_reported":1747725048,"current_range_meters":8800,"station_id":"ce4bgnh2rcd13ifvqc0g","pricing_plan_id":"cebpf4jnsgd1na2vs0mg"},{"bike_id":"146bb8d3-6985-41d9-b04c-26988395e154","system_id":"levelo_inurba_marseille","lat":43.30146,"lon":5.38066,"is_reserved":false,"is_disabled":false,"rental_uris":{"android":"levelo://app?vid=146bb8d3-6985-41d9-b04c-26988395e154","ios":"levelo://app?vid=146bb8d3-6985-41d9-b04c-26988395e154"},"vehicle_type_id":"4","last_reported":1747725048,"current_range_meters":8800,"station_id":"ce4bgjp2rcd13ifvqbh0","pricing_plan_id":"cebpf4jnsgd1na2vs0mg"},{"bike_id":"b7818455-a4e2-4ee4-9041-cdaccd7dec78","system_id":"levelo_inurba_marseille","lat":43.31496,"lon":5.3725,"is_reserved":false,"is_disabled":false,"rental_uris":{"android":"levelo://app?vid=b7818455-a4e2-4ee4-9041-cdaccd7dec78","ios":"levelo://app?vid=b7818455-a4e2-4ee4-9041-cdaccd7dec78"},"vehicle_type_id":"4","last_reported":1747725048,"current_range_meters":8800,"station_id":"ce4bgt12rcd13ifvqcd0","pricing_plan_id":"cebpf4jnsgd1na2vs0mg"},{"bike_id":"ae92f61d-1120-4f68-9f8d-d0db94492c15","system_id":"levelo_inurba_marseille","lat":43.27195,"lon":5.40973,"is_reserved":false,"is_disabled":false,"rental_uris":{"android":"levelo://app?vid=ae92f61d-1120-4f68-9f8d-d0db94492c15","ios":"levelo://app?vid=ae92f61d-1120-4f68-9f8d-d0db94492c15"},"vehicle_type_id":"4","last_reported":1747725048,"current_range_meters":8800,"station_id":"ce4bhl12rcd13ifvqgf0","pricing_plan_id":"cebpf4jnsgd1na2vs0mg"},{"bike_id":"118ea294-71d7-4c59-9497-ddc50e03d40b","system_id":"levelo_inurba_marseille","lat":43.30467,"lon":5.37906,"is_reserved":false,"is_disabled":false,"rental_uris":{"android":"levelo://app?vid=118ea294-71d7-4c59-9497-ddc50e03d40b","ios":"levelo://app?vid=118ea294-71d7-4c59-9497-ddc50e03d40b"},"vehicle_type_id":"4","last_reported":1747725048,"current_range_meters":8800,"station_id":"ce4bgup2rcd13ifvqcn0","pricing_plan_id":"cebpf4jnsgd1na2vs0mg"},{"bike_id":"0cc5aea8-ca97-4b8f-9152-d3df43b082fd","system_id":"levelo_inurba_marseille","lat":43.23185,"lon":5.39983,"is_reserved":false,"is_disabled":false,"rental_uris":{"android":"levelo://app?vid=0cc5aea8-ca97-4b8f-9152-d3df43b082fd","ios":"levelo://app?vid=0cc5aea8-ca97-4b8f-9152-d3df43b082fd"},"vehicle_type_id":"4","last_reported":1747725048,"current_range_meters":8800,"station_id":"ce4bhn12rcd13ifvqgqg","pricing_plan_id":"cebpf4jnsgd1na2vs0mg"},{"bike_id":"c076ad54-d589-4eeb-ac51-e1376a33ec39","system_id":"levelo_inurba_marseille","lat":43.295454,"lon":5.42302,"is_reserved":false,"is_disabled":false,"rental_uris":{"android":"levelo://app?vid=c076ad54-d589-4eeb-ac51-e1376a33ec39","ios":"levelo://app?vid=c076ad54-d589-4eeb-ac51-e1376a33ec39"},"vehicle_type_id":"4","last_reported":1747725048,"current_range_meters":8800,"station_id":"ce4bhph2rcd13ifvqhdg","pricing_plan_id":"cebpf4jnsgd1na2vs0mg"},{"bike_id":"8ba9ad83-e492-4e4a-af89-95ed8a5a5a2a","system_id":"levelo_inurba_marseille","lat":43.30148,"lon":5.37414,"is_reserved":false,"is_disabled":false,"rental_uris":{"android":"levelo://app?vid=8ba9ad83-e492-4e4a-af89-95ed8a5a5a2a","ios":"levelo://app?vid=8ba9ad83-e492-4e4a-af89-95ed8a5a5a2a"},"vehicle_type_id":"4","last_reported":1747725048,"current_range_meters":10000,"station_id":"ce4bgs92rcd13ifvqcc0","pricing_plan_id":"cebpf4jnsgd1na2vs0mg"},{"bike_id":"7ddabab5-fb9d-431e-bb65-ee4d4e122759","system_id":"levelo_inurba_marseille","lat":43.28157,"lon":5.42666,"is_reserved":false,"is_disabled":false,"rental_uris":{"android":"levelo://app?vid=7ddabab5-fb9d-431e-bb65-ee4d4e122759","ios":"levelo://app?vid=7ddabab5-fb9d-431e-bb65-ee4d4e122759"},"vehicle_type_id":"4","last_reported":1747725048,"current_range_meters":9200,"station_id":"ce4bhnh2rcd13ifvqgug","pricing_plan_id":"cebpf4jnsgd1na2vs0mg"},{"bike_id":"093b6932-1258-4f69-b30b-1eb3048a3cc6","system_id":"levelo_inurba_marseille","lat":43.28937,"lon":5.36638,"is_reserved":false,"is_disabled":false,"rental_uris":{"android":"levelo://app?vid=093b6932-1258-4f69-b30b-1eb3048a3cc6","ios":"levelo://app?vid=093b6932-1258-4f69-b30b-1eb3048a3cc6"},"vehicle_type_id":"4","last_reported":1747725048,"current_range_meters":9200,"station_id":"ce4bhap2rcd13ifvqek0","pricing_plan_id":"cebpf4jnsgd1na2vs0mg"},{"bike_id":"572c97ee-0da0-4be5-a2ce-28eff65f3ef1","system_id":"levelo_inurba_marseille","lat":43.33722,"lon":5.37465,"is_reserved":false,"is_disabled":false,"rental_uris":{"android":"levelo://app?vid=572c97ee-0da0-4be5-a2ce-28eff65f3ef1","ios":"levelo://app?vid=572c97ee-0da0-4be5-a2ce-28eff65f3ef1"},"vehicle_type_id":"4","last_reported":1747725048,"current_range_meters":9200,"station_id":"","pricing_plan_id":"cebpf4jnsgd1na2vs0mg"},{"bike_id":"68944906-2bed-4069-92e3-fb4361342be4","system_id":"levelo_inurba_marseille","lat":43.29096,"lon":5.38148,"is_reserved":false,"is_disabled":false,"rental_uris":{"android":"levelo://app?vid=68944906-2bed-4069-92e3-fb4361342be4","ios":"levelo://app?vid=68944906-2bed-4069-92e3-fb4361342be4"},"vehicle_type_id":"4","last_reported":1747725048,"current_range_meters":9200,"station_id":"ce4bh512rcd13ifvqe2g","pricing_plan_id":"cebpf4jnsgd1na2vs0mg"},{"bike_id":"8d91a467-443b-401e-bb33-c6f87a96e75a","system_id":"levelo_inurba_marseille","lat":43.29561,"lon":5.37557,"is_reserved":false,"is_disabled":true,"rental_uris":{"android":"levelo://app?vid=8d91a467-443b-401e-bb33-c6f87a96e75a","ios":"levelo://app?vid=8d91a467-443b-401e-bb33-c6f87a96e75a"},"vehicle_type_id":"4","last_reported":1747725048,"current_range_meters":9200,"station_id":"ce4bgh92rcd13ifvqb50","pricing_plan_id":"cebpf4jnsgd1na2vs0mg"},{"bike_id":"85eaca89-9437-48d0-9bca-a254337b88db","system_id":"levelo_inurba_marseille","lat":43.27466,"lon":5.40956,"is_reserved":false,"is_disabled":false,"rental_uris":{"android":"levelo://app?vid=85eaca89-9437-48d0-9bca-a254337b88db","ios":"levelo://app?vid=85eaca89-9437-48d0-9bca-a254337b88db"},"vehicle_type_id":"4","last_reported":1747725048,"current_range_meters":9200,"station_id":"","pricing_plan_id":"cebpf4jnsgd1na2vs0mg"},{"bike_id":"5f96d315-d5d0-4273-9916-2739433976e2","system_id":"levelo_inurba_marseille","lat":43.30535,"lon":5.36552,"is_reserved":false,"is_disabled":false,"rental_uris":{"android":"levelo://app?vid=5f96d315-d5d0-4273-9916-2739433976e2","ios":"levelo://app?vid=5f96d315-d5d0-4273-9916-2739433976e2"},"vehicle_type_id":"4","last_reported":1747725048,"current_range_meters":9200,"station_id":"ce4bgs12rcd13ifvqcag","pricing_plan_id":"cebpf4jnsgd1na2vs0mg"},{"bike_id":"bf0f734e-7db4-4909-bee4-1c076f1b6d92","system_id":"levelo_inurba_marseille","lat":43.28154,"lon":5.42642,"is_reserved":false,"is_disabled":false,"rental_uris":{"android":"levelo://app?vid=bf0f734e-7db4-4909-bee4-1c076f1b6d92","ios":"levelo://app?vid=bf0f734e-7db4-4909-bee4-1c076f1b6d92"},"vehicle_type_id":"4","last_reported":1747725048,"current_range_meters":9200,"station_id":"ce4bhnh2rcd13ifvqgug","pricing_plan_id":"cebpf4jnsgd1na2vs0mg"},{"bike_id":"036c4f97-0478-4fa6-ab36-1f59c942ed12","system_id":"levelo_inurba_marseille","lat":43.24065,"lon":5.37584,"is_reserved":false,"is_disabled":false,"rental_uris":{"android":"levelo://app?vid=036c4f97-0478-4fa6-ab36-1f59c942ed12","ios":"levelo://app?vid=036c4f97-0478-4fa6-ab36-1f59c942ed12"},"vehicle_type_id":"4","last_reported":1747725048,"current_range_meters":9200,"station_id":"","pricing_plan_id":"cebpf4jnsgd1na2vs0mg"},{"bike_id":"05c63458-b601-4e4e-ab26-7a54ca437048","system_id":"levelo_inurba_marseille","lat":43.29553,"lon":5.42271,"is_reserved":false,"is_disabled":false,"rental_uris":{"android":"levelo://app?vid=05c63458-b601-4e4e-ab26-7a54ca437048","ios":"levelo://app?vid=05c63458-b601-4e4e-ab26-7a54ca437048"},"vehicle_type_id":"4","last_reported":1747725048,"current_range_meters":9200,"station_id":"ce4bhph2rcd13ifvqhdg","pricing_plan_id":"cebpf4jnsgd1na2vs0mg"},{"bike_id":"2170cd3f-65ab-4b4f-b2d9-7b5dc0722083","system_id":"levelo_inurba_marseille","lat":43.28098,"lon":5.40195,"is_reserved":false,"is_disabled":false,"rental_uris":{"android":"levelo://app?vid=2170cd3f-65ab-4b4f-b2d9-7b5dc0722083","ios":"levelo://app?vid=2170cd3f-65ab-4b4f-b2d9-7b5dc0722083"},"vehicle_type_id":"4","last_reported":1747725048,"current_range_meters":9600,"station_id":"","pricing_plan_id":"cebpf4jnsgd1na2vs0mg"},{"bike_id":"dbf8222a-eea0-42f0-80c2-a4791ac4ed58","system_id":"levelo_inurba_marseille","lat":43.250044,"lon":5.389387,"is_reserved":false,"is_disabled":false,"rental_uris":{"android":"levelo://app?vid=dbf8222a-eea0-42f0-80c2-a4791ac4ed58","ios":"levelo://app?vid=dbf8222a-eea0-42f0-80c2-a4791ac4ed58"},"vehicle_type_id":"4","last_reported":1747725048,"current_range_meters":9600,"station_id":"ce4bhgp2rcd13ifvqfd0","pricing_plan_id":"cebpf4jnsgd1na2vs0mg"},{"bike_id":"7b4ebcee-a823-442f-a8fb-bd9eabc7a6ed","system_id":"levelo_inurba_marseille","lat":43.25097,"lon":5.3883,"is_reserved":false,"is_disabled":false,"rental_uris":{"android":"levelo://app?vid=7b4ebcee-a823-442f-a8fb-bd9eabc7a6ed","ios":"levelo://app?vid=7b4ebcee-a823-442f-a8fb-bd9eabc7a6ed"},"vehicle_type_id":"4","last_reported":1747725048,"current_range_meters":9600,"station_id":"","pricing_plan_id":"cebpf4jnsgd1na2vs0mg"},{"bike_id":"4b4ec30a-5019-4306-ad90-2b94bab06dcd","system_id":"levelo_inurba_marseille","lat":43.3007,"lon":5.36584,"is_reserved":false,"is_disabled":true,"rental_uris":{"android":"levelo://app?vid=4b4ec30a-5019-4306-ad90-2b94bab06dcd","ios":"levelo://app?vid=4b4ec30a-5019-4306-ad90-2b94bab06dcd"},"vehicle_type_id":"4","last_reported":1747725048,"current_range_meters":9600,"station_id":"","pricing_plan_id":"cebpf4jnsgd1na2vs0mg"},{"bike_id":"08129706-0840-4cc7-a7e9-4dbc2d7407ba","system_id":"levelo_inurba_marseille","lat":43.231905,"lon":5.399858,"is_reserved":false,"is_disabled":false,"rental_uris":{"android":"levelo://app?vid=08129706-0840-4cc7-a7e9-4dbc2d7407ba","ios":"levelo://app?vid=08129706-0840-4cc7-a7e9-4dbc2d7407ba"},"vehicle_type_id":"4","last_reported":1747725048,"current_range_meters":9600,"station_id":"ce4bhn12rcd13ifvqgqg","pricing_plan_id":"cebpf4jnsgd1na2vs0mg"},{"bike_id":"4be0c667-10fb-4d0d-a527-4a1530a211d3","system_id":"levelo_inurba_marseille","lat":43.31487,"lon":5.37283,"is_reserved":false,"is_disabled":false,"rental_uris":{"android":"levelo://app?vid=4be0c667-10fb-4d0d-a527-4a1530a211d3","ios":"levelo://app?vid=4be0c667-10fb-4d0d-a527-4a1530a211d3"},"vehicle_type_id":"4","last_reported":1747725048,"current_range_meters":9600,"station_id":"ce4bgt12rcd13ifvqcd0","pricing_plan_id":"cebpf4jnsgd1na2vs0mg"},{"bike_id":"79d7510d-667c-4488-a218-889e19bca0d7","system_id":"levelo_inurba_marseille","lat":43.30606,"lon":5.39339,"is_reserved":false,"is_disabled":false,"rental_uris":{"android":"levelo://app?vid=79d7510d-667c-4488-a218-889e19bca0d7","ios":"levelo://app?vid=79d7510d-667c-4488-a218-889e19bca0d7"},"vehicle_type_id":"4","last_reported":1747725048,"current_range_meters":9600,"station_id":"ce4bh0p2rcd13ifvqd80","pricing_plan_id":"cebpf4jnsgd1na2vs0mg"},{"bike_id":"b5945e35-cad6-41ad-afbf-524857b4df24","system_id":"levelo_inurba_marseille","lat":43.30915,"lon":5.36847,"is_reserved":false,"is_disabled":false,"rental_uris":{"android":"levelo://app?vid=b5945e35-cad6-41ad-afbf-524857b4df24","ios":"levelo://app?vid=b5945e35-cad6-41ad-afbf-524857b4df24"},"vehicle_type_id":"4","last_reported":1747725048,"current_range_meters":8400,"station_id":"ce4bgn92rcd13ifvqbvg","pricing_plan_id":"cebpf4jnsgd1na2vs0mg"},{"bike_id":"27e2e700-c978-4d72-8e0b-9608485d555f","system_id":"levelo_inurba_marseille","lat":43.24071,"lon":5.3776,"is_reserved":false,"is_disabled":false,"rental_uris":{"android":"levelo://app?vid=27e2e700-c978-4d72-8e0b-9608485d555f","ios":"levelo://app?vid=27e2e700-c978-4d72-8e0b-9608485d555f"},"vehicle_type_id":"4","last_reported":1747725048,"current_range_meters":10000,"station_id":"ce4bhnp2rcd13ifvqgvg","pricing_plan_id":"cebpf4jnsgd1na2vs0mg"},{"bike_id":"02fc1184-206c-48c4-a5e6-80d0158ace74","system_id":"levelo_inurba_marseille","lat":43.303507,"lon":5.369143,"is_reserved":false,"is_disabled":true,"rental_uris":{"android":"levelo://app?vid=02fc1184-206c-48c4-a5e6-80d0158ace74","ios":"levelo://app?vid=02fc1184-206c-48c4-a5e6-80d0158ace74"},"vehicle_type_id":"4","last_reported":1747725048,"current_range_meters":10000,"station_id":"ce4bgqh2rcd13ifvqc5g","pricing_plan_id":"cebpf4jnsgd1na2vs0mg"},{"bike_id":"0767dbbf-ed3c-4904-92d7-716004b3e1f9","system_id":"levelo_inurba_marseille","lat":43.25606,"lon":5.38205,"is_reserved":false,"is_disabled":true,"rental_uris":{"android":"levelo://app?vid=0767dbbf-ed3c-4904-92d7-716004b3e1f9","ios":"levelo://app?vid=0767dbbf-ed3c-4904-92d7-716004b3e1f9"},"vehicle_type_id":"4","last_reported":1747725048,"current_range_meters":10000,"station_id":"ce4bhih2rcd13ifvqfs0","pricing_plan_id":"cebpf4jnsgd1na2vs0mg"},{"bike_id":"bffbaf88-357a-4e87-a68c-a9a27a6e01e6","system_id":"levelo_inurba_marseille","lat":43.262239,"lon":5.421332,"is_reserved":false,"is_disabled":false,"rental_uris":{"android":"levelo://app?vid=bffbaf88-357a-4e87-a68c-a9a27a6e01e6","ios":"levelo://app?vid=bffbaf88-357a-4e87-a68c-a9a27a6e01e6"},"vehicle_type_id":"4","last_reported":1747725048,"current_range_meters":10000,"station_id":"","pricing_plan_id":"cebpf4jnsgd1na2vs0mg"},{"bike_id":"a824fbd1-e4ac-448d-8615-1ee649070018","system_id":"levelo_inurba_marseille","lat":43.286142,"lon":5.370671,"is_reserved":false,"is_disabled":false,"rental_uris":{"android":"levelo://app?vid=a824fbd1-e4ac-448d-8615-1ee649070018","ios":"levelo://app?vid=a824fbd1-e4ac-448d-8615-1ee649070018"},"vehicle_type_id":"4","last_reported":1747725048,"current_range_meters":10000,"station_id":"ce4bht12rcd13ifvqi60","pricing_plan_id":"cebpf4jnsgd1na2vs0mg"},{"bike_id":"dfd77888-4b05-4bef-b6c1-e88c778fc2d9","system_id":"levelo_inurba_marseille","lat":43.309291,"lon":5.39026,"is_reserved":false,"is_disabled":false,"rental_uris":{"android":"levelo://app?vid=dfd77888-4b05-4bef-b6c1-e88c778fc2d9","ios":"levelo://app?vid=dfd77888-4b05-4bef-b6c1-e88c778fc2d9"},"vehicle_type_id":"4","last_reported":1747725048,"current_range_meters":10000,"station_id":"ce4bgup2rcd13ifvqco0","pricing_plan_id":"cebpf4jnsgd1na2vs0mg"},{"bike_id":"204d1b88-2cc3-469d-bac1-db71361fd818","system_id":"levelo_inurba_marseille","lat":43.290266,"lon":5.386516,"is_reserved":false,"is_disabled":false,"rental_uris":{"android":"levelo://app?vid=204d1b88-2cc3-469d-bac1-db71361fd818","ios":"levelo://app?vid=204d1b88-2cc3-469d-bac1-db71361fd818"},"vehicle_type_id":"4","last_reported":1747725048,"current_range_meters":10000,"station_id":"ce4bh4p2rcd13ifvqe0g","pricing_plan_id":"cebpf4jnsgd1na2vs0mg"},{"bike_id":"c593c977-908d-4076-b168-bc8d2b225ace","system_id":"levelo_inurba_marseille","lat":43.29533,"lon":5.3855,"is_reserved":false,"is_disabled":false,"rental_uris":{"android":"levelo://app?vid=c593c977-908d-4076-b168-bc8d2b225ace","ios":"levelo://app?vid=c593c977-908d-4076-b168-bc8d2b225ace"},"vehicle_type_id":"4","last_reported":1747725048,"current_range_meters":10000,"station_id":"ce4bgih2rcd13ifvqba0","pricing_plan_id":"cebpf4jnsgd1na2vs0mg"},{"bike_id":"598900bc-cc96-46f3-b8f9-32958f862dd5","system_id":"levelo_inurba_marseille","lat":43.30407,"lon":5.36784,"is_reserved":false,"is_disabled":false,"rental_uris":{"android":"levelo://app?vid=598900bc-cc96-46f3-b8f9-32958f862dd5","ios":"levelo://app?vid=598900bc-cc96-46f3-b8f9-32958f862dd5"},"vehicle_type_id":"4","last_reported":1747725048,"current_range_meters":10800,"station_id":"","pricing_plan_id":"cebpf4jnsgd1na2vs0mg"},{"bike_id":"a5069c23-eea7-40f4-9d9a-11b963aa48ad","system_id":"levelo_inurba_marseille","lat":43.2318,"lon":5.39985,"is_reserved":false,"is_disabled":false,"rental_uris":{"android":"levelo://app?vid=a5069c23-eea7-40f4-9d9a-11b963aa48ad","ios":"levelo://app?vid=a5069c23-eea7-40f4-9d9a-11b963aa48ad"},"vehicle_type_id":"4","last_reported":1747725048,"current_range_meters":10800,"station_id":"ce4bhn12rcd13ifvqgqg","pricing_plan_id":"cebpf4jnsgd1na2vs0mg"},{"bike_id":"47c34096-bf44-4219-abe9-6ec11ce4f381","system_id":"levelo_inurba_marseille","lat":43.28614,"lon":5.35102,"is_reserved":false,"is_disabled":false,"rental_uris":{"android":"levelo://app?vid=47c34096-bf44-4219-abe9-6ec11ce4f381","ios":"levelo://app?vid=47c34096-bf44-4219-abe9-6ec11ce4f381"},"vehicle_type_id":"4","last_reported":1747725048,"current_range_meters":10800,"station_id":"ce4bhch2rcd13ifvqeug","pricing_plan_id":"cebpf4jnsgd1na2vs0mg"},{"bike_id":"654c7adc-287a-44c4-b56d-62e9c130ac61","system_id":"levelo_inurba_marseille","lat":43.30167,"lon":5.381,"is_reserved":false,"is_disabled":false,"rental_uris":{"android":"levelo://app?vid=654c7adc-287a-44c4-b56d-62e9c130ac61","ios":"levelo://app?vid=654c7adc-287a-44c4-b56d-62e9c130ac61"},"vehicle_type_id":"4","last_reported":1747725048,"current_range_meters":10800,"station_id":"ce4bgjp2rcd13ifvqbh0","pricing_plan_id":"cebpf4jnsgd1na2vs0mg"},{"bike_id":"f295336c-744a-4aae-827e-8817c128646f","system_id":"levelo_inurba_marseille","lat":43.26956,"lon":5.38634,"is_reserved":false,"is_disabled":false,"rental_uris":{"android":"levelo://app?vid=f295336c-744a-4aae-827e-8817c128646f","ios":"levelo://app?vid=f295336c-744a-4aae-827e-8817c128646f"},"vehicle_type_id":"4","last_reported":1747725048,"current_range_meters":10800,"station_id":"ce4bhh92rcd13ifvqfh0","pricing_plan_id":"cebpf4jnsgd1na2vs0mg"},{"bike_id":"e5bc9628-512c-4a3e-9e68-a0daa7735d3f","system_id":"levelo_inurba_marseille","lat":43.29167,"lon":5.37166,"is_reserved":false,"is_disabled":false,"rental_uris":{"android":"levelo://app?vid=e5bc9628-512c-4a3e-9e68-a0daa7735d3f","ios":"levelo://app?vid=e5bc9628-512c-4a3e-9e68-a0daa7735d3f"},"vehicle_type_id":"4","last_reported":1747725048,"current_range_meters":14800,"station_id":"ce4bha92rcd13ifvqeh0","pricing_plan_id":"cebpf4jnsgd1na2vs0mg"},{"bike_id":"b7cb1705-6b5a-49c6-8905-4f8177d4379a","system_id":"levelo_inurba_marseille","lat":43.23193,"lon":5.39975,"is_reserved":false,"is_disabled":false,"rental_uris":{"android":"levelo://app?vid=b7cb1705-6b5a-49c6-8905-4f8177d4379a","ios":"levelo://app?vid=b7cb1705-6b5a-49c6-8905-4f8177d4379a"},"vehicle_type_id":"4","last_reported":1747725048,"current_range_meters":11200,"station_id":"ce4bhn12rcd13ifvqgqg","pricing_plan_id":"cebpf4jnsgd1na2vs0mg"},{"bike_id":"f9bd452a-300d-4454-890a-c716cf8ab1c5","system_id":"levelo_inurba_marseille","lat":43.250081,"lon":5.389316,"is_reserved":false,"is_disabled":false,"rental_uris":{"android":"levelo://app?vid=f9bd452a-300d-4454-890a-c716cf8ab1c5","ios":"levelo://app?vid=f9bd452a-300d-4454-890a-c716cf8ab1c5"},"vehicle_type_id":"4","last_reported":1747725048,"current_range_meters":11200,"station_id":"ce4bhgp2rcd13ifvqfd0","pricing_plan_id":"cebpf4jnsgd1na2vs0mg"},{"bike_id":"bca5fcbc-3c53-4bb3-9196-4ebb9a210b53","system_id":"levelo_inurba_marseille","lat":43.240776,"lon":5.377593,"is_reserved":false,"is_disabled":false,"rental_uris":{"android":"levelo://app?vid=bca5fcbc-3c53-4bb3-9196-4ebb9a210b53","ios":"levelo://app?vid=bca5fcbc-3c53-4bb3-9196-4ebb9a210b53"},"vehicle_type_id":"4","last_reported":1747725048,"current_range_meters":11200,"station_id":"ce4bhnp2rcd13ifvqgvg","pricing_plan_id":"cebpf4jnsgd1na2vs0mg"},{"bike_id":"e2949ef0-3c11-4124-a58e-7b7c61e4d70a","system_id":"levelo_inurba_marseille","lat":43.301452,"lon":5.374142,"is_reserved":false,"is_disabled":false,"rental_uris":{"android":"levelo://app?vid=e2949ef0-3c11-4124-a58e-7b7c61e4d70a","ios":"levelo://app?vid=e2949ef0-3c11-4124-a58e-7b7c61e4d70a"},"vehicle_type_id":"4","last_reported":1747725048,"current_range_meters":11600,"station_id":"","pricing_plan_id":"cebpf4jnsgd1na2vs0mg"},{"bike_id":"98804e99-9bed-4363-a5ff-1489de79ae3d","system_id":"levelo_inurba_marseille","lat":43.28144,"lon":5.42624,"is_reserved":false,"is_disabled":true,"rental_uris":{"android":"levelo://app?vid=98804e99-9bed-4363-a5ff-1489de79ae3d","ios":"levelo://app?vid=98804e99-9bed-4363-a5ff-1489de79ae3d"},"vehicle_type_id":"4","last_reported":1747725048,"current_range_meters":11600,"station_id":"ce4bhnh2rcd13ifvqgug","pricing_plan_id":"cebpf4jnsgd1na2vs0mg"},{"bike_id":"67230f1d-ebb5-40cd-942e-509d2e1520be","system_id":"levelo_inurba_marseille","lat":43.31355,"lon":5.36701,"is_reserved":false,"is_disabled":false,"rental_uris":{"android":"levelo://app?vid=67230f1d-ebb5-40cd-942e-509d2e1520be","ios":"levelo://app?vid=67230f1d-ebb5-40cd-942e-509d2e1520be"},"vehicle_type_id":"4","last_reported":1747725048,"current_range_meters":11600,"station_id":"ce4bgr92rcd13ifvqc6g","pricing_plan_id":"cebpf4jnsgd1na2vs0mg"},{"bike_id":"9d6086ec-ec32-4859-b681-32584f8ea175","system_id":"levelo_inurba_marseille","lat":43.30792,"lon":5.3764,"is_reserved":false,"is_disabled":false,"rental_uris":{"android":"levelo://app?vid=9d6086ec-ec32-4859-b681-32584f8ea175","ios":"levelo://app?vid=9d6086ec-ec32-4859-b681-32584f8ea175"},"vehicle_type_id":"4","last_reported":1747725048,"current_range_meters":11600,"station_id":"ce4bgv92rcd13ifvqcq0","pricing_plan_id":"cebpf4jnsgd1na2vs0mg"},{"bike_id":"54311972-c1c3-43fe-a9d5-076326b8e0c1","system_id":"levelo_inurba_marseille","lat":43.304535,"lon":5.379029,"is_reserved":false,"is_disabled":true,"rental_uris":{"android":"levelo://app?vid=54311972-c1c3-43fe-a9d5-076326b8e0c1","ios":"levelo://app?vid=54311972-c1c3-43fe-a9d5-076326b8e0c1"},"vehicle_type_id":"4","last_reported":1747725048,"current_range_meters":11600,"station_id":"ce4bgup2rcd13ifvqcn0","pricing_plan_id":"cebpf4jnsgd1na2vs0mg"},{"bike_id":"58edc354-c183-4da4-b527-1ba0f2d395e0","system_id":"levelo_inurba_marseille","lat":43.27682,"lon":5.35731,"is_reserved":false,"is_disabled":false,"rental_uris":{"android":"levelo://app?vid=58edc354-c183-4da4-b527-1ba0f2d395e0","ios":"levelo://app?vid=58edc354-c183-4da4-b527-1ba0f2d395e0"},"vehicle_type_id":"4","last_reported":1747725048,"current_range_meters":12000,"station_id":"","pricing_plan_id":"cebpf4jnsgd1na2vs0mg"},{"bike_id":"e8162579-a5ad-485f-ad83-fec8a2ebe7e1","system_id":"levelo_inurba_marseille","lat":43.26826,"lon":5.39099,"is_reserved":false,"is_disabled":false,"rental_uris":{"android":"levelo://app?vid=e8162579-a5ad-485f-ad83-fec8a2ebe7e1","ios":"levelo://app?vid=e8162579-a5ad-485f-ad83-fec8a2ebe7e1"},"vehicle_type_id":"4","last_reported":1747725048,"current_range_meters":12000,"station_id":"","pricing_plan_id":"cebpf4jnsgd1na2vs0mg"},{"bike_id":"14deafd8-1db0-49e1-97f7-2c5e2151f248","system_id":"levelo_inurba_marseille","lat":43.30272,"lon":5.37688,"is_reserved":false,"is_disabled":false,"rental_uris":{"android":"levelo://app?vid=14deafd8-1db0-49e1-97f7-2c5e2151f248","ios":"levelo://app?vid=14deafd8-1db0-49e1-97f7-2c5e2151f248"},"vehicle_type_id":"4","last_reported":1747725048,"current_range_meters":12000,"station_id":"ce4bguh2rcd13ifvqcj0","pricing_plan_id":"cebpf4jnsgd1na2vs0mg"},{"bike_id":"33e5cbd5-31c8-4fa0-9d70-cf685e1c2a15","system_id":"levelo_inurba_marseille","lat":43.25153,"lon":5.4034,"is_reserved":false,"is_disabled":false,"rental_uris":{"android":"levelo://app?vid=33e5cbd5-31c8-4fa0-9d70-cf685e1c2a15","ios":"levelo://app?vid=33e5cbd5-31c8-4fa0-9d70-cf685e1c2a15"},"vehicle_type_id":"4","last_reported":1747725048,"current_range_meters":12000,"station_id":"","pricing_plan_id":"cebpf4jnsgd1na2vs0mg"},{"bike_id":"30c28efc-d98b-4cca-88d9-646d31f87d29","system_id":"levelo_inurba_marseille","lat":43.3053,"lon":5.38405,"is_reserved":false,"is_disabled":false,"rental_uris":{"android":"levelo://app?vid=30c28efc-d98b-4cca-88d9-646d31f87d29","ios":"levelo://app?vid=30c28efc-d98b-4cca-88d9-646d31f87d29"},"vehicle_type_id":"4","last_reported":1747725048,"current_range_meters":12000,"station_id":"ce4bgg92rcd13ifvqb30","pricing_plan_id":"cebpf4jnsgd1na2vs0mg"},{"bike_id":"59b8a132-4666-485c-b6ad-3e889f0d9322","system_id":"levelo_inurba_marseille","lat":43.254989,"lon":5.3765,"is_reserved":false,"is_disabled":false,"rental_uris":{"android":"levelo://app?vid=59b8a132-4666-485c-b6ad-3e889f0d9322","ios":"levelo://app?vid=59b8a132-4666-485c-b6ad-3e889f0d9322"},"vehicle_type_id":"4","last_reported":1747725048,"current_range_meters":12000,"station_id":"ce4bhh12rcd13ifvqff0","pricing_plan_id":"cebpf4jnsgd1na2vs0mg"},{"bike_id":"288d48b1-cf16-4053-9043-8e9eb4a12a93","system_id":"levelo_inurba_marseille","lat":43.26692,"lon":5.38274,"is_reserved":false,"is_disabled":false,"rental_uris":{"android":"levelo://app?vid=288d48b1-cf16-4053-9043-8e9eb4a12a93","ios":"levelo://app?vid=288d48b1-cf16-4053-9043-8e9eb4a12a93"},"vehicle_type_id":"4","last_reported":1747725048,"current_range_meters":12000,"station_id":"ce4bhg92rcd13ifvqf90","pricing_plan_id":"cebpf4jnsgd1na2vs0mg"},{"bike_id":"211d782c-93fe-44fc-931b-5c466bfda976","system_id":"levelo_inurba_marseille","lat":43.26949,"lon":5.38624,"is_reserved":false,"is_disabled":false,"rental_uris":{"android":"levelo://app?vid=211d782c-93fe-44fc-931b-5c466bfda976","ios":"levelo://app?vid=211d782c-93fe-44fc-931b-5c466bfda976"},"vehicle_type_id":"4","last_reported":1747725048,"current_range_meters":12400,"station_id":"ce4bhh92rcd13ifvqfh0","pricing_plan_id":"cebpf4jnsgd1na2vs0mg"},{"bike_id":"d1d4e898-7db2-4469-82a8-cd34a4d9d9a4","system_id":"levelo_inurba_marseille","lat":43.24077,"lon":5.37756,"is_reserved":false,"is_disabled":false,"rental_uris":{"android":"levelo://app?vid=d1d4e898-7db2-4469-82a8-cd34a4d9d9a4","ios":"levelo://app?vid=d1d4e898-7db2-4469-82a8-cd34a4d9d9a4"},"vehicle_type_id":"4","last_reported":1747725048,"current_range_meters":12400,"station_id":"ce4bhnp2rcd13ifvqgvg","pricing_plan_id":"cebpf4jnsgd1na2vs0mg"},{"bike_id":"46e5be8c-2f7d-43a7-b945-dd9d3618ca5d","system_id":"levelo_inurba_marseille","lat":43.30272,"lon":5.37698,"is_reserved":false,"is_disabled":false,"rental_uris":{"android":"levelo://app?vid=46e5be8c-2f7d-43a7-b945-dd9d3618ca5d","ios":"levelo://app?vid=46e5be8c-2f7d-43a7-b945-dd9d3618ca5d"},"vehicle_type_id":"4","last_reported":1747725048,"current_range_meters":12400,"station_id":"ce4bguh2rcd13ifvqcj0","pricing_plan_id":"cebpf4jnsgd1na2vs0mg"},{"bike_id":"9cf85ad0-a085-4ec9-8c50-87d1aa7786da","system_id":"levelo_inurba_marseille","lat":43.30148,"lon":5.38092,"is_reserved":false,"is_disabled":false,"rental_uris":{"android":"levelo://app?vid=9cf85ad0-a085-4ec9-8c50-87d1aa7786da","ios":"levelo://app?vid=9cf85ad0-a085-4ec9-8c50-87d1aa7786da"},"vehicle_type_id":"4","last_reported":1747725048,"current_range_meters":12400,"station_id":"ce4bgjp2rcd13ifvqbh0","pricing_plan_id":"cebpf4jnsgd1na2vs0mg"},{"bike_id":"46b8d967-5e1d-4884-8a0b-5ddff9a90472","system_id":"levelo_inurba_marseille","lat":43.32051,"lon":5.41544,"is_reserved":false,"is_disabled":false,"rental_uris":{"android":"levelo://app?vid=46b8d967-5e1d-4884-8a0b-5ddff9a90472","ios":"levelo://app?vid=46b8d967-5e1d-4884-8a0b-5ddff9a90472"},"vehicle_type_id":"4","last_reported":1747725048,"current_range_meters":12400,"station_id":"ce4bhq92rcd13ifvqhkg","pricing_plan_id":"cebpf4jnsgd1na2vs0mg"},{"bike_id":"0bb1a3c2-612b-44cc-9629-375e4296d6ae","system_id":"levelo_inurba_marseille","lat":43.26956,"lon":5.386325,"is_reserved":false,"is_disabled":false,"rental_uris":{"android":"levelo://app?vid=0bb1a3c2-612b-44cc-9629-375e4296d6ae","ios":"levelo://app?vid=0bb1a3c2-612b-44cc-9629-375e4296d6ae"},"vehicle_type_id":"4","last_reported":1747725048,"current_range_meters":12400,"station_id":"ce4bhh92rcd13ifvqfh0","pricing_plan_id":"cebpf4jnsgd1na2vs0mg"},{"bike_id":"43631b8b-bb21-4d5b-9b04-700076cfff0c","system_id":"levelo_inurba_marseille","lat":43.26678,"lon":5.38268,"is_reserved":false,"is_disabled":false,"rental_uris":{"android":"levelo://app?vid=43631b8b-bb21-4d5b-9b04-700076cfff0c","ios":"levelo://app?vid=43631b8b-bb21-4d5b-9b04-700076cfff0c"},"vehicle_type_id":"4","last_reported":1747725048,"current_range_meters":12800,"station_id":"ce4bhg92rcd13ifvqf90","pricing_plan_id":"cebpf4jnsgd1na2vs0mg"},{"bike_id":"e2e3a6f6-0f08-4185-b27b-75bc9500a96d","system_id":"levelo_inurba_marseille","lat":43.21185,"lon":5.35099,"is_reserved":false,"is_disabled":false,"rental_uris":{"android":"levelo://app?vid=e2e3a6f6-0f08-4185-b27b-75bc9500a96d","ios":"levelo://app?vid=e2e3a6f6-0f08-4185-b27b-75bc9500a96d"},"vehicle_type_id":"4","last_reported":1747725048,"current_range_meters":12800,"station_id":"st_cvj6sg6p6f1abm77japg","pricing_plan_id":"cebpf4jnsgd1na2vs0mg"},{"bike_id":"ce4d1ffa-876e-4dab-b1eb-9b411a2a1967","system_id":"levelo_inurba_marseille","lat":43.278116,"lon":5.407348,"is_reserved":false,"is_disabled":false,"rental_uris":{"android":"levelo://app?vid=ce4d1ffa-876e-4dab-b1eb-9b411a2a1967","ios":"levelo://app?vid=ce4d1ffa-876e-4dab-b1eb-9b411a2a1967"},"vehicle_type_id":"4","last_reported":1747725048,"current_range_meters":12800,"station_id":"ce4bhnh2rcd13ifvqgtg","pricing_plan_id":"cebpf4jnsgd1na2vs0mg"},{"bike_id":"2aeaf632-8f44-4284-bf3b-9782c3bf4f04","system_id":"levelo_inurba_marseille","lat":43.27184,"lon":5.40972,"is_reserved":false,"is_disabled":false,"rental_uris":{"android":"levelo://app?vid=2aeaf632-8f44-4284-bf3b-9782c3bf4f04","ios":"levelo://app?vid=2aeaf632-8f44-4284-bf3b-9782c3bf4f04"},"vehicle_type_id":"4","last_reported":1747725048,"current_range_meters":13600,"station_id":"ce4bhl12rcd13ifvqgf0","pricing_plan_id":"cebpf4jnsgd1na2vs0mg"},{"bike_id":"a6a422d9-bc76-42bd-af58-134484a1f87f","system_id":"levelo_inurba_marseille","lat":43.25019,"lon":5.38946,"is_reserved":false,"is_disabled":false,"rental_uris":{"android":"levelo://app?vid=a6a422d9-bc76-42bd-af58-134484a1f87f","ios":"levelo://app?vid=a6a422d9-bc76-42bd-af58-134484a1f87f"},"vehicle_type_id":"4","last_reported":1747725048,"current_range_meters":13600,"station_id":"ce4bhgp2rcd13ifvqfd0","pricing_plan_id":"cebpf4jnsgd1na2vs0mg"},{"bike_id":"66cc3dea-5bed-4d8d-a002-6935971dd586","system_id":"levelo_inurba_marseille","lat":43.30173,"lon":5.38072,"is_reserved":false,"is_disabled":false,"rental_uris":{"android":"levelo://app?vid=66cc3dea-5bed-4d8d-a002-6935971dd586","ios":"levelo://app?vid=66cc3dea-5bed-4d8d-a002-6935971dd586"},"vehicle_type_id":"4","last_reported":1747725048,"current_range_meters":13600,"station_id":"ce4bgjp2rcd13ifvqbh0","pricing_plan_id":"cebpf4jnsgd1na2vs0mg"},{"bike_id":"3552fbf2-b43a-446f-93f5-d695fc251b73","system_id":"levelo_inurba_marseille","lat":43.25178,"lon":5.37519,"is_reserved":false,"is_disabled":false,"rental_uris":{"android":"levelo://app?vid=3552fbf2-b43a-446f-93f5-d695fc251b73","ios":"levelo://app?vid=3552fbf2-b43a-446f-93f5-d695fc251b73"},"vehicle_type_id":"4","last_reported":1747725048,"current_range_meters":13600,"station_id":"","pricing_plan_id":"cebpf4jnsgd1na2vs0mg"},{"bike_id":"c3c11b11-8507-45b4-bd48-1e3bdd46fbbe","system_id":"levelo_inurba_marseille","lat":43.23184,"lon":5.40001,"is_reserved":false,"is_disabled":false,"rental_uris":{"android":"levelo://app?vid=c3c11b11-8507-45b4-bd48-1e3bdd46fbbe","ios":"levelo://app?vid=c3c11b11-8507-45b4-bd48-1e3bdd46fbbe"},"vehicle_type_id":"4","last_reported":1747725048,"current_range_meters":13600,"station_id":"ce4bhn12rcd13ifvqgqg","pricing_plan_id":"cebpf4jnsgd1na2vs0mg"},{"bike_id":"3a030d24-ac3d-4a21-bc46-75097b405c49","system_id":"levelo_inurba_marseille","lat":43.30355,"lon":5.4187,"is_reserved":false,"is_disabled":false,"rental_uris":{"android":"levelo://app?vid=3a030d24-ac3d-4a21-bc46-75097b405c49","ios":"levelo://app?vid=3a030d24-ac3d-4a21-bc46-75097b405c49"},"vehicle_type_id":"4","last_reported":1747725048,"current_range_meters":14000,"station_id":"ce4bhop2rcd13ifvqh7g","pricing_plan_id":"cebpf4jnsgd1na2vs0mg"},{"bike_id":"971fc3c8-e765-452e-a7f2-ed2f1afcaaa3","system_id":"levelo_inurba_marseille","lat":43.311241,"lon":5.377645,"is_reserved":false,"is_disabled":false,"rental_uris":{"android":"levelo://app?vid=971fc3c8-e765-452e-a7f2-ed2f1afcaaa3","ios":"levelo://app?vid=971fc3c8-e765-452e-a7f2-ed2f1afcaaa3"},"vehicle_type_id":"4","last_reported":1747725048,"current_range_meters":14000,"station_id":"ce4bgt92rcd13ifvqcg0","pricing_plan_id":"cebpf4jnsgd1na2vs0mg"},{"bike_id":"98a6af6c-4e2f-4f75-b744-fe7062c9d3a4","system_id":"levelo_inurba_marseille","lat":43.25936,"lon":5.40891,"is_reserved":false,"is_disabled":false,"rental_uris":{"android":"levelo://app?vid=98a6af6c-4e2f-4f75-b744-fe7062c9d3a4","ios":"levelo://app?vid=98a6af6c-4e2f-4f75-b744-fe7062c9d3a4"},"vehicle_type_id":"4","last_reported":1747725048,"current_range_meters":14000,"station_id":"ce4bhm92rcd13ifvqglg","pricing_plan_id":"cebpf4jnsgd1na2vs0mg"},{"bike_id":"33790735-6b85-4edc-981e-75cfd415e29a","system_id":"levelo_inurba_marseille","lat":43.30142,"lon":5.38793,"is_reserved":false,"is_disabled":true,"rental_uris":{"android":"levelo://app?vid=33790735-6b85-4edc-981e-75cfd415e29a","ios":"levelo://app?vid=33790735-6b85-4edc-981e-75cfd415e29a"},"vehicle_type_id":"4","last_reported":1747725048,"current_range_meters":14000,"station_id":"ce4bghh2rcd13ifvqb60","pricing_plan_id":"cebpf4jnsgd1na2vs0mg"},{"bike_id":"1e0be349-75ac-43ce-a2c7-9ea54df984f0","system_id":"levelo_inurba_marseille","lat":43.30372,"lon":5.42475,"is_reserved":false,"is_disabled":false,"rental_uris":{"android":"levelo://app?vid=1e0be349-75ac-43ce-a2c7-9ea54df984f0","ios":"levelo://app?vid=1e0be349-75ac-43ce-a2c7-9ea54df984f0"},"vehicle_type_id":"4","last_reported":1747725048,"current_range_meters":14000,"station_id":"ce4bhoh2rcd13ifvqh6g","pricing_plan_id":"cebpf4jnsgd1na2vs0mg"},{"bike_id":"6386b301-5c5b-41dc-9be6-064d845d26a2","system_id":"levelo_inurba_marseille","lat":43.28615,"lon":5.40656,"is_reserved":false,"is_disabled":false,"rental_uris":{"android":"levelo://app?vid=6386b301-5c5b-41dc-9be6-064d845d26a2","ios":"levelo://app?vid=6386b301-5c5b-41dc-9be6-064d845d26a2"},"vehicle_type_id":"4","last_reported":1747725048,"current_range_meters":14000,"station_id":"","pricing_plan_id":"cebpf4jnsgd1na2vs0mg"},{"bike_id":"a5f241f5-5f56-4773-b4f4-368dd15e3cca","system_id":"levelo_inurba_marseille","lat":43.32357,"lon":5.38852,"is_reserved":false,"is_disabled":false,"rental_uris":{"android":"levelo://app?vid=a5f241f5-5f56-4773-b4f4-368dd15e3cca","ios":"levelo://app?vid=a5f241f5-5f56-4773-b4f4-368dd15e3cca"},"vehicle_type_id":"4","last_reported":1747725048,"current_range_meters":14400,"station_id":"ce4bhqp2rcd13ifvqhog","pricing_plan_id":"cebpf4jnsgd1na2vs0mg"},{"bike_id":"adada8aa-9de5-4209-aa92-c524578d1587","system_id":"levelo_inurba_marseille","lat":43.29167,"lon":5.37164,"is_reserved":false,"is_disabled":false,"rental_uris":{"android":"levelo://app?vid=adada8aa-9de5-4209-aa92-c524578d1587","ios":"levelo://app?vid=adada8aa-9de5-4209-aa92-c524578d1587"},"vehicle_type_id":"4","last_reported":1747725048,"current_range_meters":14400,"station_id":"ce4bha92rcd13ifvqeh0","pricing_plan_id":"cebpf4jnsgd1na2vs0mg"},{"bike_id":"901d18ec-442b-4311-be09-c99faa5dda47","system_id":"levelo_inurba_marseille","lat":43.299793,"lon":5.37173,"is_reserved":false,"is_disabled":true,"rental_uris":{"android":"levelo://app?vid=901d18ec-442b-4311-be09-c99faa5dda47","ios":"levelo://app?vid=901d18ec-442b-4311-be09-c99faa5dda47"},"vehicle_type_id":"4","last_reported":1747725048,"current_range_meters":14400,"station_id":"ce4bgr92rcd13ifvqc7g","pricing_plan_id":"cebpf4jnsgd1na2vs0mg"},{"bike_id":"4f13f9f9-16ff-4a15-947b-39be74fa93cd","system_id":"levelo_inurba_marseille","lat":43.25928,"lon":5.40905,"is_reserved":false,"is_disabled":false,"rental_uris":{"android":"levelo://app?vid=4f13f9f9-16ff-4a15-947b-39be74fa93cd","ios":"levelo://app?vid=4f13f9f9-16ff-4a15-947b-39be74fa93cd"},"vehicle_type_id":"4","last_reported":1747725048,"current_range_meters":14400,"station_id":"ce4bhm92rcd13ifvqglg","pricing_plan_id":"cebpf4jnsgd1na2vs0mg"},{"bike_id":"0c75e290-2f49-4428-9202-02a35670787a","system_id":"levelo_inurba_marseille","lat":43.23187,"lon":5.39988,"is_reserved":false,"is_disabled":false,"rental_uris":{"android":"levelo://app?vid=0c75e290-2f49-4428-9202-02a35670787a","ios":"levelo://app?vid=0c75e290-2f49-4428-9202-02a35670787a"},"vehicle_type_id":"4","last_reported":1747725048,"current_range_meters":14400,"station_id":"ce4bhn12rcd13ifvqgqg","pricing_plan_id":"cebpf4jnsgd1na2vs0mg"},{"bike_id":"b94136ba-f5fa-4a01-90e5-14c64bd7ac3f","system_id":"levelo_inurba_marseille","lat":43.297104,"lon":5.376879,"is_reserved":false,"is_disabled":false,"rental_uris":{"android":"levelo://app?vid=b94136ba-f5fa-4a01-90e5-14c64bd7ac3f","ios":"levelo://app?vid=b94136ba-f5fa-4a01-90e5-14c64bd7ac3f"},"vehicle_type_id":"4","last_reported":1747725048,"current_range_meters":14400,"station_id":"ce4bgkh2rcd13ifvqbl0","pricing_plan_id":"cebpf4jnsgd1na2vs0mg"},{"bike_id":"ef24fb0c-db74-4c0c-8c90-5cf92ab0b471","system_id":"levelo_inurba_marseille","lat":43.29264,"lon":5.40889,"is_reserved":false,"is_disabled":false,"rental_uris":{"android":"levelo://app?vid=ef24fb0c-db74-4c0c-8c90-5cf92ab0b471","ios":"levelo://app?vid=ef24fb0c-db74-4c0c-8c90-5cf92ab0b471"},"vehicle_type_id":"4","last_reported":1747725048,"current_range_meters":14800,"station_id":"ce4bh192rcd13ifvqdc0","pricing_plan_id":"cebpf4jnsgd1na2vs0mg"},{"bike_id":"c64832ea-cbd0-47ba-a7f9-dddb8ed879b4","system_id":"levelo_inurba_marseille","lat":43.305377,"lon":5.365617,"is_reserved":false,"is_disabled":false,"rental_uris":{"android":"levelo://app?vid=c64832ea-cbd0-47ba-a7f9-dddb8ed879b4","ios":"levelo://app?vid=c64832ea-cbd0-47ba-a7f9-dddb8ed879b4"},"vehicle_type_id":"4","last_reported":1747725048,"current_range_meters":14800,"station_id":"ce4bgs12rcd13ifvqcag","pricing_plan_id":"cebpf4jnsgd1na2vs0mg"},{"bike_id":"2360e01b-c52d-4f5a-9885-8dcf40588104","system_id":"levelo_inurba_marseille","lat":43.292476,"lon":5.409105,"is_reserved":false,"is_disabled":false,"rental_uris":{"android":"levelo://app?vid=2360e01b-c52d-4f5a-9885-8dcf40588104","ios":"levelo://app?vid=2360e01b-c52d-4f5a-9885-8dcf40588104"},"vehicle_type_id":"4","last_reported":1747725048,"current_range_meters":14800,"station_id":"ce4bh192rcd13ifvqdc0","pricing_plan_id":"cebpf4jnsgd1na2vs0mg"},{"bike_id":"8da7c00b-5199-431e-9e81-0f430be4a158","system_id":"levelo_inurba_marseille","lat":43.30148,"lon":5.38059,"is_reserved":false,"is_disabled":false,"rental_uris":{"android":"levelo://app?vid=8da7c00b-5199-431e-9e81-0f430be4a158","ios":"levelo://app?vid=8da7c00b-5199-431e-9e81-0f430be4a158"},"vehicle_type_id":"4","last_reported":1747725048,"current_range_meters":15200,"station_id":"ce4bgjp2rcd13ifvqbh0","pricing_plan_id":"cebpf4jnsgd1na2vs0mg"},{"bike_id":"5bd747b9-d1db-4842-90ba-63d0c9ee9e0b","system_id":"levelo_inurba_marseille","lat":43.24165,"lon":5.36398,"is_reserved":false,"is_disabled":false,"rental_uris":{"android":"levelo://app?vid=5bd747b9-d1db-4842-90ba-63d0c9ee9e0b","ios":"levelo://app?vid=5bd747b9-d1db-4842-90ba-63d0c9ee9e0b"},"vehicle_type_id":"4","last_reported":1747725048,"current_range_meters":15200,"station_id":"cpo36qri1sfpv3e86is0","pricing_plan_id":"cebpf4jnsgd1na2vs0mg"},{"bike_id":"b209cd27-532c-40f1-a5bf-f25f6c308ae9","system_id":"levelo_inurba_marseille","lat":43.288743,"lon":5.393057,"is_reserved":false,"is_disabled":true,"rental_uris":{"android":"levelo://app?vid=b209cd27-532c-40f1-a5bf-f25f6c308ae9","ios":"levelo://app?vid=b209cd27-532c-40f1-a5bf-f25f6c308ae9"},"vehicle_type_id":"4","last_reported":1747725048,"current_range_meters":15200,"station_id":"ce4bh2p2rcd13ifvqdi0","pricing_plan_id":"cebpf4jnsgd1na2vs0mg"},{"bike_id":"e1d57822-ecc8-4c43-b3f2-6f5adecafb55","system_id":"levelo_inurba_marseille","lat":43.25085,"lon":5.39505,"is_reserved":false,"is_disabled":false,"rental_uris":{"android":"levelo://app?vid=e1d57822-ecc8-4c43-b3f2-6f5adecafb55","ios":"levelo://app?vid=e1d57822-ecc8-4c43-b3f2-6f5adecafb55"},"vehicle_type_id":"4","last_reported":1747725048,"current_range_meters":15200,"station_id":"ce4bhm12rcd13ifvqgkg","pricing_plan_id":"cebpf4jnsgd1na2vs0mg"},{"bike_id":"c4fc221d-06d4-48bc-91cf-16d7e89fdb10","system_id":"levelo_inurba_marseille","lat":43.2593,"lon":5.40886,"is_reserved":false,"is_disabled":false,"rental_uris":{"android":"levelo://app?vid=c4fc221d-06d4-48bc-91cf-16d7e89fdb10","ios":"levelo://app?vid=c4fc221d-06d4-48bc-91cf-16d7e89fdb10"},"vehicle_type_id":"4","last_reported":1747725048,"current_range_meters":15200,"station_id":"ce4bhm92rcd13ifvqglg","pricing_plan_id":"cebpf4jnsgd1na2vs0mg"},{"bike_id":"3db1d010-48a6-49be-97c6-2133fb8ee162","system_id":"levelo_inurba_marseille","lat":43.29973,"lon":5.38492,"is_reserved":false,"is_disabled":true,"rental_uris":{"android":"levelo://app?vid=3db1d010-48a6-49be-97c6-2133fb8ee162","ios":"levelo://app?vid=3db1d010-48a6-49be-97c6-2133fb8ee162"},"vehicle_type_id":"4","last_reported":1747725048,"current_range_meters":15200,"station_id":"ce4bgj92rcd13ifvqbd0","pricing_plan_id":"cebpf4jnsgd1na2vs0mg"},{"bike_id":"77ae2670-5f4a-4f82-a74a-99848315064b","system_id":"levelo_inurba_marseille","lat":43.3032,"lon":5.40452,"is_reserved":false,"is_disabled":true,"rental_uris":{"android":"levelo://app?vid=77ae2670-5f4a-4f82-a74a-99848315064b","ios":"levelo://app?vid=77ae2670-5f4a-4f82-a74a-99848315064b"},"vehicle_type_id":"4","last_reported":1747725048,"current_range_meters":15200,"station_id":"ce4bh012rcd13ifvqd10","pricing_plan_id":"cebpf4jnsgd1na2vs0mg"},{"bike_id":"bfadeaec-216b-47d1-99b4-74d81f9ee763","system_id":"levelo_inurba_marseille","lat":43.321123,"lon":5.367826,"is_reserved":false,"is_disabled":false,"rental_uris":{"android":"levelo://app?vid=bfadeaec-216b-47d1-99b4-74d81f9ee763","ios":"levelo://app?vid=bfadeaec-216b-47d1-99b4-74d81f9ee763"},"vehicle_type_id":"4","last_reported":1747725048,"current_range_meters":15200,"station_id":"ce4bhrh2rcd13ifvqhug","pricing_plan_id":"cebpf4jnsgd1na2vs0mg"},{"bike_id":"283403a0-596c-4a94-85e1-66d88d547369","system_id":"levelo_inurba_marseille","lat":43.29265,"lon":5.40905,"is_reserved":false,"is_disabled":false,"rental_uris":{"android":"levelo://app?vid=283403a0-596c-4a94-85e1-66d88d547369","ios":"levelo://app?vid=283403a0-596c-4a94-85e1-66d88d547369"},"vehicle_type_id":"4","last_reported":1747725048,"current_range_meters":16000,"station_id":"ce4bh192rcd13ifvqdc0","pricing_plan_id":"cebpf4jnsgd1na2vs0mg"},{"bike_id":"89aa982a-1064-4caf-9f27-a406639c93a9","system_id":"levelo_inurba_marseille","lat":43.2903,"lon":5.38649,"is_reserved":false,"is_disabled":false,"rental_uris":{"android":"levelo://app?vid=89aa982a-1064-4caf-9f27-a406639c93a9","ios":"levelo://app?vid=89aa982a-1064-4caf-9f27-a406639c93a9"},"vehicle_type_id":"4","last_reported":1747725048,"current_range_meters":16000,"station_id":"ce4bh4p2rcd13ifvqe0g","pricing_plan_id":"cebpf4jnsgd1na2vs0mg"},{"bike_id":"44d38386-9914-4ca4-99cb-7eb9d3314468","system_id":"levelo_inurba_marseille","lat":43.25937,"lon":5.40903,"is_reserved":false,"is_disabled":false,"rental_uris":{"android":"levelo://app?vid=44d38386-9914-4ca4-99cb-7eb9d3314468","ios":"levelo://app?vid=44d38386-9914-4ca4-99cb-7eb9d3314468"},"vehicle_type_id":"4","last_reported":1747725048,"current_range_meters":16000,"station_id":"ce4bhm92rcd13ifvqglg","pricing_plan_id":"cebpf4jnsgd1na2vs0mg"},{"bike_id":"95bbb5b0-4ebd-4505-a979-31f090674af1","system_id":"levelo_inurba_marseille","lat":43.29264,"lon":5.37621,"is_reserved":false,"is_disabled":false,"rental_uris":{"android":"levelo://app?vid=95bbb5b0-4ebd-4505-a979-31f090674af1","ios":"levelo://app?vid=95bbb5b0-4ebd-4505-a979-31f090674af1"},"vehicle_type_id":"4","last_reported":1747725048,"current_range_meters":16000,"station_id":"ce4bgi12rcd13ifvqb80","pricing_plan_id":"cebpf4jnsgd1na2vs0mg"},{"bike_id":"17008679-5b7b-4904-b0a5-a1a99ad3c945","system_id":"levelo_inurba_marseille","lat":43.29537,"lon":5.374923,"is_reserved":false,"is_disabled":true,"rental_uris":{"android":"levelo://app?vid=17008679-5b7b-4904-b0a5-a1a99ad3c945","ios":"levelo://app?vid=17008679-5b7b-4904-b0a5-a1a99ad3c945"},"vehicle_type_id":"4","last_reported":1747725048,"current_range_meters":16000,"station_id":"ce4bgkp2rcd13ifvqbmg","pricing_plan_id":"cebpf4jnsgd1na2vs0mg"},{"bike_id":"11b5de7a-a227-4e71-ae55-20ddb6c911ed","system_id":"levelo_inurba_marseille","lat":43.33609,"lon":5.41026,"is_reserved":false,"is_disabled":false,"rental_uris":{"android":"levelo://app?vid=11b5de7a-a227-4e71-ae55-20ddb6c911ed","ios":"levelo://app?vid=11b5de7a-a227-4e71-ae55-20ddb6c911ed"},"vehicle_type_id":"4","last_reported":1747725048,"current_range_meters":16000,"station_id":"ce4bhqh2rcd13ifvqhmg","pricing_plan_id":"cebpf4jnsgd1na2vs0mg"},{"bike_id":"dc80936a-51b4-4ef9-b71e-e259b58f2ac3","system_id":"levelo_inurba_marseille","lat":43.23184,"lon":5.39997,"is_reserved":false,"is_disabled":false,"rental_uris":{"android":"levelo://app?vid=dc80936a-51b4-4ef9-b71e-e259b58f2ac3","ios":"levelo://app?vid=dc80936a-51b4-4ef9-b71e-e259b58f2ac3"},"vehicle_type_id":"4","last_reported":1747725048,"current_range_meters":16000,"station_id":"ce4bhn12rcd13ifvqgqg","pricing_plan_id":"cebpf4jnsgd1na2vs0mg"},{"bike_id":"28c554a5-7272-45ce-9456-c02948158cfa","system_id":"levelo_inurba_marseille","lat":43.290434,"lon":5.39953,"is_reserved":false,"is_disabled":false,"rental_uris":{"android":"levelo://app?vid=28c554a5-7272-45ce-9456-c02948158cfa","ios":"levelo://app?vid=28c554a5-7272-45ce-9456-c02948158cfa"},"vehicle_type_id":"4","last_reported":1747725048,"current_range_meters":16000,"station_id":"ce4bh392rcd13ifvqdm0","pricing_plan_id":"cebpf4jnsgd1na2vs0mg"},{"bike_id":"3592927e-bdbe-4e67-99a2-1ba7f5aedb0d","system_id":"levelo_inurba_marseille","lat":43.29285,"lon":5.40151,"is_reserved":false,"is_disabled":false,"rental_uris":{"android":"levelo://app?vid=3592927e-bdbe-4e67-99a2-1ba7f5aedb0d","ios":"levelo://app?vid=3592927e-bdbe-4e67-99a2-1ba7f5aedb0d"},"vehicle_type_id":"4","last_reported":1747725048,"current_range_meters":16000,"station_id":"ce4bh312rcd13ifvqdk0","pricing_plan_id":"cebpf4jnsgd1na2vs0mg"},{"bike_id":"7e053555-9d33-4a74-9b33-70ec85fc4206","system_id":"levelo_inurba_marseille","lat":43.30334,"lon":5.36899,"is_reserved":false,"is_disabled":false,"rental_uris":{"android":"levelo://app?vid=7e053555-9d33-4a74-9b33-70ec85fc4206","ios":"levelo://app?vid=7e053555-9d33-4a74-9b33-70ec85fc4206"},"vehicle_type_id":"4","last_reported":1747725048,"current_range_meters":16000,"station_id":"ce4bgqh2rcd13ifvqc5g","pricing_plan_id":"cebpf4jnsgd1na2vs0mg"},{"bike_id":"93d4c5cb-fc0c-4f68-b5ea-27011cb40d8e","system_id":"levelo_inurba_marseille","lat":43.24068,"lon":5.37734,"is_reserved":false,"is_disabled":false,"rental_uris":{"android":"levelo://app?vid=93d4c5cb-fc0c-4f68-b5ea-27011cb40d8e","ios":"levelo://app?vid=93d4c5cb-fc0c-4f68-b5ea-27011cb40d8e"},"vehicle_type_id":"4","last_reported":1747725048,"current_range_meters":16400,"station_id":"ce4bhnp2rcd13ifvqgvg","pricing_plan_id":"cebpf4jnsgd1na2vs0mg"},{"bike_id":"e59e5f45-9513-445e-bc33-b808576c4008","system_id":"levelo_inurba_marseille","lat":43.29046,"lon":5.39941,"is_reserved":false,"is_disabled":false,"rental_uris":{"android":"levelo://app?vid=e59e5f45-9513-445e-bc33-b808576c4008","ios":"levelo://app?vid=e59e5f45-9513-445e-bc33-b808576c4008"},"vehicle_type_id":"4","last_reported":1747725048,"current_range_meters":16400,"station_id":"ce4bh392rcd13ifvqdm0","pricing_plan_id":"cebpf4jnsgd1na2vs0mg"},{"bike_id":"77f7e876-98e3-49f3-9c97-aac0b263a574","system_id":"levelo_inurba_marseille","lat":43.244,"lon":5.3706,"is_reserved":false,"is_disabled":false,"rental_uris":{"android":"levelo://app?vid=77f7e876-98e3-49f3-9c97-aac0b263a574","ios":"levelo://app?vid=77f7e876-98e3-49f3-9c97-aac0b263a574"},"vehicle_type_id":"4","last_reported":1747725048,"current_range_meters":16400,"station_id":"ce4bhhh2rcd13ifvqfk0","pricing_plan_id":"cebpf4jnsgd1na2vs0mg"},{"bike_id":"0841bf35-cc9a-4f9a-bb52-a92cd75a1667","system_id":"levelo_inurba_marseille","lat":43.29293,"lon":5.37441,"is_reserved":false,"is_disabled":false,"rental_uris":{"android":"levelo://app?vid=0841bf35-cc9a-4f9a-bb52-a92cd75a1667","ios":"levelo://app?vid=0841bf35-cc9a-4f9a-bb52-a92cd75a1667"},"vehicle_type_id":"4","last_reported":1747725048,"current_range_meters":16400,"station_id":"ce4bgi12rcd13ifvqb70","pricing_plan_id":"cebpf4jnsgd1na2vs0mg"},{"bike_id":"e075f9e3-0c32-42d3-832d-61789fa7a28d","system_id":"levelo_inurba_marseille","lat":43.24076,"lon":5.3775,"is_reserved":false,"is_disabled":false,"rental_uris":{"android":"levelo://app?vid=e075f9e3-0c32-42d3-832d-61789fa7a28d","ios":"levelo://app?vid=e075f9e3-0c32-42d3-832d-61789fa7a28d"},"vehicle_type_id":"4","last_reported":1747725048,"current_range_meters":16400,"station_id":"ce4bhnp2rcd13ifvqgvg","pricing_plan_id":"cebpf4jnsgd1na2vs0mg"},{"bike_id":"9ec8a79a-ec99-4796-9d5e-b05577d4c17a","system_id":"levelo_inurba_marseille","lat":43.323423,"lon":5.40615,"is_reserved":false,"is_disabled":true,"rental_uris":{"android":"levelo://app?vid=9ec8a79a-ec99-4796-9d5e-b05577d4c17a","ios":"levelo://app?vid=9ec8a79a-ec99-4796-9d5e-b05577d4c17a"},"vehicle_type_id":"4","last_reported":1747725048,"current_range_meters":16400,"station_id":"ce4bhq92rcd13ifvqhjg","pricing_plan_id":"cebpf4jnsgd1na2vs0mg"},{"bike_id":"6547db8a-ad9f-4159-80e7-a3e02a0fb5ef","system_id":"levelo_inurba_marseille","lat":43.29843,"lon":5.36273,"is_reserved":false,"is_disabled":false,"rental_uris":{"android":"levelo://app?vid=6547db8a-ad9f-4159-80e7-a3e02a0fb5ef","ios":"levelo://app?vid=6547db8a-ad9f-4159-80e7-a3e02a0fb5ef"},"vehicle_type_id":"4","last_reported":1747725048,"current_range_meters":16800,"station_id":"ce4bgpp2rcd13ifvqc3g","pricing_plan_id":"cebpf4jnsgd1na2vs0mg"},{"bike_id":"af0ff74c-30a5-4503-8550-d0b70b4ad3b0","system_id":"levelo_inurba_marseille","lat":43.31352,"lon":5.36711,"is_reserved":false,"is_disabled":false,"rental_uris":{"android":"levelo://app?vid=af0ff74c-30a5-4503-8550-d0b70b4ad3b0","ios":"levelo://app?vid=af0ff74c-30a5-4503-8550-d0b70b4ad3b0"},"vehicle_type_id":"4","last_reported":1747725048,"current_range_meters":16800,"station_id":"ce4bgr92rcd13ifvqc6g","pricing_plan_id":"cebpf4jnsgd1na2vs0mg"},{"bike_id":"697a9b19-19cf-408f-a646-3bcdb4d31625","system_id":"levelo_inurba_marseille","lat":43.24679,"lon":5.38181,"is_reserved":false,"is_disabled":false,"rental_uris":{"android":"levelo://app?vid=697a9b19-19cf-408f-a646-3bcdb4d31625","ios":"levelo://app?vid=697a9b19-19cf-408f-a646-3bcdb4d31625"},"vehicle_type_id":"4","last_reported":1747725048,"current_range_meters":16800,"station_id":"ce4bhih2rcd13ifvqfr0","pricing_plan_id":"cebpf4jnsgd1na2vs0mg"},{"bike_id":"b5a4e322-4d33-4131-bc99-ff63c34a40de","system_id":"levelo_inurba_marseille","lat":43.30134,"lon":5.38075,"is_reserved":false,"is_disabled":false,"rental_uris":{"android":"levelo://app?vid=b5a4e322-4d33-4131-bc99-ff63c34a40de","ios":"levelo://app?vid=b5a4e322-4d33-4131-bc99-ff63c34a40de"},"vehicle_type_id":"4","last_reported":1747725048,"current_range_meters":16800,"station_id":"ce4bgjp2rcd13ifvqbh0","pricing_plan_id":"cebpf4jnsgd1na2vs0mg"},{"bike_id":"fdb9f268-8cee-4283-a606-01b48b95487a","system_id":"levelo_inurba_marseille","lat":43.284345,"lon":5.349876,"is_reserved":false,"is_disabled":true,"rental_uris":{"android":"levelo://app?vid=fdb9f268-8cee-4283-a606-01b48b95487a","ios":"levelo://app?vid=fdb9f268-8cee-4283-a606-01b48b95487a"},"vehicle_type_id":"4","last_reported":1747725048,"current_range_meters":16800,"station_id":"","pricing_plan_id":"cebpf4jnsgd1na2vs0mg"},{"bike_id":"b527facc-d5b0-44c4-b551-18fc4985201a","system_id":"levelo_inurba_marseille","lat":43.31208,"lon":5.3682,"is_reserved":false,"is_disabled":false,"rental_uris":{"android":"levelo://app?vid=b527facc-d5b0-44c4-b551-18fc4985201a","ios":"levelo://app?vid=b527facc-d5b0-44c4-b551-18fc4985201a"},"vehicle_type_id":"4","last_reported":1747725048,"current_range_meters":16800,"station_id":"ce4bgl92rcd13ifvqbq0","pricing_plan_id":"cebpf4jnsgd1na2vs0mg"},{"bike_id":"18c0878a-8caa-48a1-b8c5-12dc58136a1e","system_id":"levelo_inurba_marseille","lat":43.27072,"lon":5.42269,"is_reserved":false,"is_disabled":true,"rental_uris":{"android":"levelo://app?vid=18c0878a-8caa-48a1-b8c5-12dc58136a1e","ios":"levelo://app?vid=18c0878a-8caa-48a1-b8c5-12dc58136a1e"},"vehicle_type_id":"4","last_reported":1747725048,"current_range_meters":17200,"station_id":"ce4bhk92rcd13ifvqgb0","pricing_plan_id":"cebpf4jnsgd1na2vs0mg"},{"bike_id":"aa048516-7dde-4588-8581-150fd54aee39","system_id":"levelo_inurba_marseille","lat":43.24809,"lon":5.37454,"is_reserved":false,"is_disabled":false,"rental_uris":{"android":"levelo://app?vid=aa048516-7dde-4588-8581-150fd54aee39","ios":"levelo://app?vid=aa048516-7dde-4588-8581-150fd54aee39"},"vehicle_type_id":"4","last_reported":1747725048,"current_range_meters":17200,"station_id":"ce4bhgh2rcd13ifvqfb0","pricing_plan_id":"cebpf4jnsgd1na2vs0mg"},{"bike_id":"9a4bbd17-99bd-4347-bd31-e7103b100aa8","system_id":"levelo_inurba_marseille","lat":43.25938,"lon":5.40899,"is_reserved":false,"is_disabled":false,"rental_uris":{"android":"levelo://app?vid=9a4bbd17-99bd-4347-bd31-e7103b100aa8","ios":"levelo://app?vid=9a4bbd17-99bd-4347-bd31-e7103b100aa8"},"vehicle_type_id":"4","last_reported":1747725048,"current_range_meters":17200,"station_id":"ce4bhm92rcd13ifvqglg","pricing_plan_id":"cebpf4jnsgd1na2vs0mg"},{"bike_id":"faaab6c3-82a2-4d1f-90bc-5ea83f5bc686","system_id":"levelo_inurba_marseille","lat":43.30888,"lon":5.39648,"is_reserved":false,"is_disabled":false,"rental_uris":{"android":"levelo://app?vid=faaab6c3-82a2-4d1f-90bc-5ea83f5bc686","ios":"levelo://app?vid=faaab6c3-82a2-4d1f-90bc-5ea83f5bc686"},"vehicle_type_id":"4","last_reported":1747725048,"current_range_meters":17200,"station_id":"ce4bh012rcd13ifvqcv0","pricing_plan_id":"cebpf4jnsgd1na2vs0mg"},{"bike_id":"5765434c-77b5-41b5-8b14-b978e4d6dd10","system_id":"levelo_inurba_marseille","lat":43.211981,"lon":5.35084,"is_reserved":false,"is_disabled":false,"rental_uris":{"android":"levelo://app?vid=5765434c-77b5-41b5-8b14-b978e4d6dd10","ios":"levelo://app?vid=5765434c-77b5-41b5-8b14-b978e4d6dd10"},"vehicle_type_id":"4","last_reported":1747725048,"current_range_meters":17200,"station_id":"st_cvj6sg6p6f1abm77japg","pricing_plan_id":"cebpf4jnsgd1na2vs0mg"},{"bike_id":"d22b0fd0-78a6-46fc-aad8-ce2ca2a629e3","system_id":"levelo_inurba_marseille","lat":43.21185,"lon":5.35095,"is_reserved":false,"is_disabled":false,"rental_uris":{"android":"levelo://app?vid=d22b0fd0-78a6-46fc-aad8-ce2ca2a629e3","ios":"levelo://app?vid=d22b0fd0-78a6-46fc-aad8-ce2ca2a629e3"},"vehicle_type_id":"4","last_reported":1747725048,"current_range_meters":17200,"station_id":"st_cvj6sg6p6f1abm77japg","pricing_plan_id":"cebpf4jnsgd1na2vs0mg"},{"bike_id":"3c1aaa9c-ad52-4ae3-a683-90cab683ac2e","system_id":"levelo_inurba_marseille","lat":43.23186,"lon":5.39977,"is_reserved":false,"is_disabled":false,"rental_uris":{"android":"levelo://app?vid=3c1aaa9c-ad52-4ae3-a683-90cab683ac2e","ios":"levelo://app?vid=3c1aaa9c-ad52-4ae3-a683-90cab683ac2e"},"vehicle_type_id":"4","last_reported":1747725048,"current_range_meters":17200,"station_id":"ce4bhn12rcd13ifvqgqg","pricing_plan_id":"cebpf4jnsgd1na2vs0mg"},{"bike_id":"d5d5460d-2785-4a91-b4cc-ddbbef780d1f","system_id":"levelo_inurba_marseille","lat":43.27976,"lon":5.38738,"is_reserved":false,"is_disabled":false,"rental_uris":{"android":"levelo://app?vid=d5d5460d-2785-4a91-b4cc-ddbbef780d1f","ios":"levelo://app?vid=d5d5460d-2785-4a91-b4cc-ddbbef780d1f"},"vehicle_type_id":"4","last_reported":1747725048,"current_range_meters":17200,"station_id":"ce4bhg12rcd13ifvqf80","pricing_plan_id":"cebpf4jnsgd1na2vs0mg"},{"bike_id":"34c26ef0-be8e-41d3-803c-7fdb689c8e24","system_id":"levelo_inurba_marseille","lat":43.2937,"lon":5.37835,"is_reserved":false,"is_disabled":false,"rental_uris":{"android":"levelo://app?vid=34c26ef0-be8e-41d3-803c-7fdb689c8e24","ios":"levelo://app?vid=34c26ef0-be8e-41d3-803c-7fdb689c8e24"},"vehicle_type_id":"4","last_reported":1747725048,"current_range_meters":17200,"station_id":"ce4bgjh2rcd13ifvqbf0","pricing_plan_id":"cebpf4jnsgd1na2vs0mg"},{"bike_id":"1ab14a22-64fc-4e05-9bc7-71c47c2434aa","system_id":"levelo_inurba_marseille","lat":43.29581,"lon":5.39973,"is_reserved":false,"is_disabled":false,"rental_uris":{"android":"levelo://app?vid=1ab14a22-64fc-4e05-9bc7-71c47c2434aa","ios":"levelo://app?vid=1ab14a22-64fc-4e05-9bc7-71c47c2434aa"},"vehicle_type_id":"4","last_reported":1747725048,"current_range_meters":17200,"station_id":"ce4bh312rcd13ifvqdj0","pricing_plan_id":"cebpf4jnsgd1na2vs0mg"},{"bike_id":"92b296c8-7e64-4258-b0c3-40c83deae028","system_id":"levelo_inurba_marseille","lat":43.25953,"lon":5.409,"is_reserved":false,"is_disabled":false,"rental_uris":{"android":"levelo://app?vid=92b296c8-7e64-4258-b0c3-40c83deae028","ios":"levelo://app?vid=92b296c8-7e64-4258-b0c3-40c83deae028"},"vehicle_type_id":"4","last_reported":1747725048,"current_range_meters":17600,"station_id":"ce4bhm92rcd13ifvqglg","pricing_plan_id":"cebpf4jnsgd1na2vs0mg"},{"bike_id":"4baa4ef2-f6e2-4570-ad63-549ecddf907c","system_id":"levelo_inurba_marseille","lat":43.24174,"lon":5.39723,"is_reserved":false,"is_disabled":false,"rental_uris":{"android":"levelo://app?vid=4baa4ef2-f6e2-4570-ad63-549ecddf907c","ios":"levelo://app?vid=4baa4ef2-f6e2-4570-ad63-549ecddf907c"},"vehicle_type_id":"4","last_reported":1747725048,"current_range_meters":17600,"station_id":"ce4bhn12rcd13ifvqgpg","pricing_plan_id":"cebpf4jnsgd1na2vs0mg"},{"bike_id":"07646ddd-2a2b-4dd4-9b59-d381148169b1","system_id":"levelo_inurba_marseille","lat":43.30151,"lon":5.38085,"is_reserved":false,"is_disabled":false,"rental_uris":{"android":"levelo://app?vid=07646ddd-2a2b-4dd4-9b59-d381148169b1","ios":"levelo://app?vid=07646ddd-2a2b-4dd4-9b59-d381148169b1"},"vehicle_type_id":"4","last_reported":1747725048,"current_range_meters":17600,"station_id":"ce4bgjp2rcd13ifvqbh0","pricing_plan_id":"cebpf4jnsgd1na2vs0mg"},{"bike_id":"87e7bc5e-db0f-423c-8aff-9df688bbf3bc","system_id":"levelo_inurba_marseille","lat":43.248118,"lon":5.374584,"is_reserved":false,"is_disabled":false,"rental_uris":{"android":"levelo://app?vid=87e7bc5e-db0f-423c-8aff-9df688bbf3bc","ios":"levelo://app?vid=87e7bc5e-db0f-423c-8aff-9df688bbf3bc"},"vehicle_type_id":"4","last_reported":1747725048,"current_range_meters":17600,"station_id":"ce4bhgh2rcd13ifvqfb0","pricing_plan_id":"cebpf4jnsgd1na2vs0mg"},{"bike_id":"a253706b-1cb9-4ca4-9560-173eeb92ac1f","system_id":"levelo_inurba_marseille","lat":43.307877,"lon":5.435213,"is_reserved":false,"is_disabled":false,"rental_uris":{"android":"levelo://app?vid=a253706b-1cb9-4ca4-9560-173eeb92ac1f","ios":"levelo://app?vid=a253706b-1cb9-4ca4-9560-173eeb92ac1f"},"vehicle_type_id":"4","last_reported":1747725048,"current_range_meters":17600,"station_id":"ce4bhph2rcd13ifvqheg","pricing_plan_id":"cebpf4jnsgd1na2vs0mg"},{"bike_id":"24dc12dd-e0a1-4ccc-b473-486d35ddca69","system_id":"levelo_inurba_marseille","lat":43.317113,"lon":5.437097,"is_reserved":false,"is_disabled":false,"rental_uris":{"android":"levelo://app?vid=24dc12dd-e0a1-4ccc-b473-486d35ddca69","ios":"levelo://app?vid=24dc12dd-e0a1-4ccc-b473-486d35ddca69"},"vehicle_type_id":"4","last_reported":1747725048,"current_range_meters":18000,"station_id":"ce4bhp92rcd13ifvqhcg","pricing_plan_id":"cebpf4jnsgd1na2vs0mg"},{"bike_id":"4087717d-3758-40b3-aba6-6248bfdfe049","system_id":"levelo_inurba_marseille","lat":43.2926,"lon":5.3762,"is_reserved":false,"is_disabled":false,"rental_uris":{"android":"levelo://app?vid=4087717d-3758-40b3-aba6-6248bfdfe049","ios":"levelo://app?vid=4087717d-3758-40b3-aba6-6248bfdfe049"},"vehicle_type_id":"4","last_reported":1747725048,"current_range_meters":18000,"station_id":"ce4bgi12rcd13ifvqb80","pricing_plan_id":"cebpf4jnsgd1na2vs0mg"},{"bike_id":"2b05efec-f35a-49c5-be9c-7c36226c668d","system_id":"levelo_inurba_marseille","lat":43.28981,"lon":5.37817,"is_reserved":false,"is_disabled":false,"rental_uris":{"android":"levelo://app?vid=2b05efec-f35a-49c5-be9c-7c36226c668d","ios":"levelo://app?vid=2b05efec-f35a-49c5-be9c-7c36226c668d"},"vehicle_type_id":"4","last_reported":1747725048,"current_range_meters":18000,"station_id":"ce4bh9p2rcd13ifvqed0","pricing_plan_id":"cebpf4jnsgd1na2vs0mg"},{"bike_id":"6a9d5527-3f34-4c74-b999-170d01d1d369","system_id":"levelo_inurba_marseille","lat":43.27315,"lon":5.39092,"is_reserved":false,"is_disabled":false,"rental_uris":{"android":"levelo://app?vid=6a9d5527-3f34-4c74-b999-170d01d1d369","ios":"levelo://app?vid=6a9d5527-3f34-4c74-b999-170d01d1d369"},"vehicle_type_id":"4","last_reported":1747725048,"current_range_meters":18000,"station_id":"ce4bhgp2rcd13ifvqfe0","pricing_plan_id":"cebpf4jnsgd1na2vs0mg"},{"bike_id":"22c8c395-4354-4dcd-933b-3476fcbe31aa","system_id":"levelo_inurba_marseille","lat":43.26227,"lon":5.4045,"is_reserved":false,"is_disabled":false,"rental_uris":{"android":"levelo://app?vid=22c8c395-4354-4dcd-933b-3476fcbe31aa","ios":"levelo://app?vid=22c8c395-4354-4dcd-933b-3476fcbe31aa"},"vehicle_type_id":"4","last_reported":1747725048,"current_range_meters":18000,"station_id":"ce4bhmh2rcd13ifvqgmg","pricing_plan_id":"cebpf4jnsgd1na2vs0mg"},{"bike_id":"c7bb0dfb-9f56-4d16-bd41-669f02cf50ad","system_id":"levelo_inurba_marseille","lat":43.303193,"lon":5.404437,"is_reserved":false,"is_disabled":true,"rental_uris":{"android":"levelo://app?vid=c7bb0dfb-9f56-4d16-bd41-669f02cf50ad","ios":"levelo://app?vid=c7bb0dfb-9f56-4d16-bd41-669f02cf50ad"},"vehicle_type_id":"4","last_reported":1747725048,"current_range_meters":18000,"station_id":"ce4bh012rcd13ifvqd10","pricing_plan_id":"cebpf4jnsgd1na2vs0mg"},{"bike_id":"663106d9-3d8f-4347-ae89-d8e356470262","system_id":"levelo_inurba_marseille","lat":43.287183,"lon":5.361143,"is_reserved":false,"is_disabled":true,"rental_uris":{"android":"levelo://app?vid=663106d9-3d8f-4347-ae89-d8e356470262","ios":"levelo://app?vid=663106d9-3d8f-4347-ae89-d8e356470262"},"vehicle_type_id":"4","last_reported":1747725048,"current_range_meters":18000,"station_id":"cki0cbj6b192h4jlfktg","pricing_plan_id":"cebpf4jnsgd1na2vs0mg"},{"bike_id":"037b5955-abb1-4a15-a12f-7adf4c1b330f","system_id":"levelo_inurba_marseille","lat":43.30457,"lon":5.37896,"is_reserved":false,"is_disabled":false,"rental_uris":{"android":"levelo://app?vid=037b5955-abb1-4a15-a12f-7adf4c1b330f","ios":"levelo://app?vid=037b5955-abb1-4a15-a12f-7adf4c1b330f"},"vehicle_type_id":"4","last_reported":1747725048,"current_range_meters":18800,"station_id":"ce4bgup2rcd13ifvqcn0","pricing_plan_id":"cebpf4jnsgd1na2vs0mg"},{"bike_id":"0fff9fb1-fc84-48c6-8ab5-8a9c77b239b4","system_id":"levelo_inurba_marseille","lat":43.25119,"lon":5.40342,"is_reserved":false,"is_disabled":false,"rental_uris":{"android":"levelo://app?vid=0fff9fb1-fc84-48c6-8ab5-8a9c77b239b4","ios":"levelo://app?vid=0fff9fb1-fc84-48c6-8ab5-8a9c77b239b4"},"vehicle_type_id":"4","last_reported":1747725048,"current_range_meters":18800,"station_id":"ce4bhlh2rcd13ifvqgig","pricing_plan_id":"cebpf4jnsgd1na2vs0mg"},{"bike_id":"d9aaf1a2-4106-41f1-bdb5-227fd13f0c43","system_id":"levelo_inurba_marseille","lat":43.31131,"lon":5.37748,"is_reserved":false,"is_disabled":false,"rental_uris":{"android":"levelo://app?vid=d9aaf1a2-4106-41f1-bdb5-227fd13f0c43","ios":"levelo://app?vid=d9aaf1a2-4106-41f1-bdb5-227fd13f0c43"},"vehicle_type_id":"4","last_reported":1747725048,"current_range_meters":18800,"station_id":"ce4bgt92rcd13ifvqcg0","pricing_plan_id":"cebpf4jnsgd1na2vs0mg"},{"bike_id":"a6e135f2-19a5-49b1-b746-d9f5706741ce","system_id":"levelo_inurba_marseille","lat":43.24074,"lon":5.37753,"is_reserved":false,"is_disabled":false,"rental_uris":{"android":"levelo://app?vid=a6e135f2-19a5-49b1-b746-d9f5706741ce","ios":"levelo://app?vid=a6e135f2-19a5-49b1-b746-d9f5706741ce"},"vehicle_type_id":"4","last_reported":1747725048,"current_range_meters":18800,"station_id":"ce4bhnp2rcd13ifvqgvg","pricing_plan_id":"cebpf4jnsgd1na2vs0mg"},{"bike_id":"5186d6e2-aa7d-46de-85a1-6ef890f33037","system_id":"levelo_inurba_marseille","lat":43.276378,"lon":5.395038,"is_reserved":false,"is_disabled":false,"rental_uris":{"android":"levelo://app?vid=5186d6e2-aa7d-46de-85a1-6ef890f33037","ios":"levelo://app?vid=5186d6e2-aa7d-46de-85a1-6ef890f33037"},"vehicle_type_id":"4","last_reported":1747725048,"current_range_meters":18800,"station_id":"ce4bh8p2rcd13ifvqeb0","pricing_plan_id":"cebpf4jnsgd1na2vs0mg"},{"bike_id":"6ed8eb2e-4617-409f-9e20-3e97dffc3b6a","system_id":"levelo_inurba_marseille","lat":43.29041,"lon":5.39977,"is_reserved":false,"is_disabled":false,"rental_uris":{"android":"levelo://app?vid=6ed8eb2e-4617-409f-9e20-3e97dffc3b6a","ios":"levelo://app?vid=6ed8eb2e-4617-409f-9e20-3e97dffc3b6a"},"vehicle_type_id":"4","last_reported":1747725048,"current_range_meters":18800,"station_id":"ce4bh392rcd13ifvqdm0","pricing_plan_id":"cebpf4jnsgd1na2vs0mg"},{"bike_id":"1ee8299b-1f88-40a6-9ac4-616ffea8b5c1","system_id":"levelo_inurba_marseille","lat":43.25932,"lon":5.40903,"is_reserved":false,"is_disabled":false,"rental_uris":{"android":"levelo://app?vid=1ee8299b-1f88-40a6-9ac4-616ffea8b5c1","ios":"levelo://app?vid=1ee8299b-1f88-40a6-9ac4-616ffea8b5c1"},"vehicle_type_id":"4","last_reported":1747725048,"current_range_meters":18800,"station_id":"ce4bhm92rcd13ifvqglg","pricing_plan_id":"cebpf4jnsgd1na2vs0mg"},{"bike_id":"17fec4a5-ad1f-40a5-936b-4b7f0fd14820","system_id":"levelo_inurba_marseille","lat":43.26801,"lon":5.39411,"is_reserved":false,"is_disabled":false,"rental_uris":{"android":"levelo://app?vid=17fec4a5-ad1f-40a5-936b-4b7f0fd14820","ios":"levelo://app?vid=17fec4a5-ad1f-40a5-936b-4b7f0fd14820"},"vehicle_type_id":"4","last_reported":1747725048,"current_range_meters":18800,"station_id":"ce4bhh12rcd13ifvqfg0","pricing_plan_id":"cebpf4jnsgd1na2vs0mg"},{"bike_id":"3bdb3b46-4aef-48b5-9943-cf5596d4d5ea","system_id":"levelo_inurba_marseille","lat":43.29052,"lon":5.40026,"is_reserved":false,"is_disabled":false,"rental_uris":{"android":"levelo://app?vid=3bdb3b46-4aef-48b5-9943-cf5596d4d5ea","ios":"levelo://app?vid=3bdb3b46-4aef-48b5-9943-cf5596d4d5ea"},"vehicle_type_id":"4","last_reported":1747725048,"current_range_meters":18800,"station_id":"","pricing_plan_id":"cebpf4jnsgd1na2vs0mg"},{"bike_id":"9579f262-111b-4c4b-a4c5-05d052b410d0","system_id":"levelo_inurba_marseille","lat":43.33607,"lon":5.41029,"is_reserved":false,"is_disabled":false,"rental_uris":{"android":"levelo://app?vid=9579f262-111b-4c4b-a4c5-05d052b410d0","ios":"levelo://app?vid=9579f262-111b-4c4b-a4c5-05d052b410d0"},"vehicle_type_id":"4","last_reported":1747725048,"current_range_meters":19200,"station_id":"ce4bhqh2rcd13ifvqhmg","pricing_plan_id":"cebpf4jnsgd1na2vs0mg"},{"bike_id":"75a553c5-d489-4944-addf-59be89c2a440","system_id":"levelo_inurba_marseille","lat":43.28947,"lon":5.36415,"is_reserved":false,"is_disabled":true,"rental_uris":{"android":"levelo://app?vid=75a553c5-d489-4944-addf-59be89c2a440","ios":"levelo://app?vid=75a553c5-d489-4944-addf-59be89c2a440"},"vehicle_type_id":"4","last_reported":1747725048,"current_range_meters":19200,"station_id":"ce4bhc92rcd13ifvqetg","pricing_plan_id":"cebpf4jnsgd1na2vs0mg"},{"bike_id":"38203ac2-e88c-47dc-a7a0-e05d6a16fea9","system_id":"levelo_inurba_marseille","lat":43.24095,"lon":5.37775,"is_reserved":false,"is_disabled":false,"rental_uris":{"android":"levelo://app?vid=38203ac2-e88c-47dc-a7a0-e05d6a16fea9","ios":"levelo://app?vid=38203ac2-e88c-47dc-a7a0-e05d6a16fea9"},"vehicle_type_id":"4","last_reported":1747725048,"current_range_meters":19200,"station_id":"ce4bhnp2rcd13ifvqgvg","pricing_plan_id":"cebpf4jnsgd1na2vs0mg"},{"bike_id":"a3830faf-6ba4-4ea5-8de5-91cbf435bca9","system_id":"levelo_inurba_marseille","lat":43.25909,"lon":5.40873,"is_reserved":false,"is_disabled":false,"rental_uris":{"android":"levelo://app?vid=a3830faf-6ba4-4ea5-8de5-91cbf435bca9","ios":"levelo://app?vid=a3830faf-6ba4-4ea5-8de5-91cbf435bca9"},"vehicle_type_id":"4","last_reported":1747725048,"current_range_meters":19200,"station_id":"ce4bhm92rcd13ifvqglg","pricing_plan_id":"cebpf4jnsgd1na2vs0mg"},{"bike_id":"ad645217-e0a8-4df1-8194-00de8bf8e3a5","system_id":"levelo_inurba_marseille","lat":43.313031,"lon":5.383648,"is_reserved":false,"is_disabled":false,"rental_uris":{"android":"levelo://app?vid=ad645217-e0a8-4df1-8194-00de8bf8e3a5","ios":"levelo://app?vid=ad645217-e0a8-4df1-8194-00de8bf8e3a5"},"vehicle_type_id":"4","last_reported":1747725048,"current_range_meters":19200,"station_id":"","pricing_plan_id":"cebpf4jnsgd1na2vs0mg"},{"bike_id":"1fea3aa0-bd2e-49a7-a54a-ab620f502330","system_id":"levelo_inurba_marseille","lat":43.29259,"lon":5.40108,"is_reserved":false,"is_disabled":false,"rental_uris":{"android":"levelo://app?vid=1fea3aa0-bd2e-49a7-a54a-ab620f502330","ios":"levelo://app?vid=1fea3aa0-bd2e-49a7-a54a-ab620f502330"},"vehicle_type_id":"4","last_reported":1747725048,"current_range_meters":19200,"station_id":"ce4bh312rcd13ifvqdk0","pricing_plan_id":"cebpf4jnsgd1na2vs0mg"},{"bike_id":"8c78dcb7-bee9-4503-a907-32b30257bf9d","system_id":"levelo_inurba_marseille","lat":43.27915,"lon":5.39565,"is_reserved":false,"is_disabled":false,"rental_uris":{"android":"levelo://app?vid=8c78dcb7-bee9-4503-a907-32b30257bf9d","ios":"levelo://app?vid=8c78dcb7-bee9-4503-a907-32b30257bf9d"},"vehicle_type_id":"4","last_reported":1747725048,"current_range_meters":19600,"station_id":"ce4bhf92rcd13ifvqf40","pricing_plan_id":"cebpf4jnsgd1na2vs0mg"},{"bike_id":"23e03e03-1bdb-46d3-ad4e-9958a18c2ffc","system_id":"levelo_inurba_marseille","lat":43.2781,"lon":5.407112,"is_reserved":false,"is_disabled":false,"rental_uris":{"android":"levelo://app?vid=23e03e03-1bdb-46d3-ad4e-9958a18c2ffc","ios":"levelo://app?vid=23e03e03-1bdb-46d3-ad4e-9958a18c2ffc"},"vehicle_type_id":"4","last_reported":1747725048,"current_range_meters":19600,"station_id":"ce4bhnh2rcd13ifvqgtg","pricing_plan_id":"cebpf4jnsgd1na2vs0mg"},{"bike_id":"f0a38abf-28b1-41ba-b535-f5bd164ccf1b","system_id":"levelo_inurba_marseille","lat":43.26567,"lon":5.38996,"is_reserved":false,"is_disabled":false,"rental_uris":{"android":"levelo://app?vid=f0a38abf-28b1-41ba-b535-f5bd164ccf1b","ios":"levelo://app?vid=f0a38abf-28b1-41ba-b535-f5bd164ccf1b"},"vehicle_type_id":"4","last_reported":1747725048,"current_range_meters":19600,"station_id":"ce4bhe12rcd13ifvqf30","pricing_plan_id":"cebpf4jnsgd1na2vs0mg"},{"bike_id":"f7662c72-7b73-4bd8-a2af-bcea477ed2d6","system_id":"levelo_inurba_marseille","lat":43.27836,"lon":5.40699,"is_reserved":false,"is_disabled":false,"rental_uris":{"android":"levelo://app?vid=f7662c72-7b73-4bd8-a2af-bcea477ed2d6","ios":"levelo://app?vid=f7662c72-7b73-4bd8-a2af-bcea477ed2d6"},"vehicle_type_id":"4","last_reported":1747725048,"current_range_meters":19600,"station_id":"ce4bhnh2rcd13ifvqgtg","pricing_plan_id":"cebpf4jnsgd1na2vs0mg"},{"bike_id":"a033c6d8-5a8f-4551-9a74-b4f10acffaec","system_id":"levelo_inurba_marseille","lat":43.32363,"lon":5.36736,"is_reserved":false,"is_disabled":false,"rental_uris":{"android":"levelo://app?vid=a033c6d8-5a8f-4551-9a74-b4f10acffaec","ios":"levelo://app?vid=a033c6d8-5a8f-4551-9a74-b4f10acffaec"},"vehicle_type_id":"4","last_reported":1747725048,"current_range_meters":19600,"station_id":"ce4bhsh2rcd13ifvqi2g","pricing_plan_id":"cebpf4jnsgd1na2vs0mg"},{"bike_id":"8da44370-a435-48f7-9bf8-4043a5db973f","system_id":"levelo_inurba_marseille","lat":43.26096,"lon":5.37856,"is_reserved":false,"is_disabled":true,"rental_uris":{"android":"levelo://app?vid=8da44370-a435-48f7-9bf8-4043a5db973f","ios":"levelo://app?vid=8da44370-a435-48f7-9bf8-4043a5db973f"},"vehicle_type_id":"4","last_reported":1747725048,"current_range_meters":19600,"station_id":"","pricing_plan_id":"cebpf4jnsgd1na2vs0mg"},{"bike_id":"581aa3ff-5f3b-459a-8211-341711b90b03","system_id":"levelo_inurba_marseille","lat":43.32046,"lon":5.41541,"is_reserved":false,"is_disabled":false,"rental_uris":{"android":"levelo://app?vid=581aa3ff-5f3b-459a-8211-341711b90b03","ios":"levelo://app?vid=581aa3ff-5f3b-459a-8211-341711b90b03"},"vehicle_type_id":"4","last_reported":1747725048,"current_range_meters":19600,"station_id":"ce4bhq92rcd13ifvqhkg","pricing_plan_id":"cebpf4jnsgd1na2vs0mg"},{"bike_id":"475e2f38-2844-4c15-947e-98a85e897d54","system_id":"levelo_inurba_marseille","lat":43.31115,"lon":5.377497,"is_reserved":false,"is_disabled":false,"rental_uris":{"android":"levelo://app?vid=475e2f38-2844-4c15-947e-98a85e897d54","ios":"levelo://app?vid=475e2f38-2844-4c15-947e-98a85e897d54"},"vehicle_type_id":"4","last_reported":1747725048,"current_range_meters":19600,"station_id":"ce4bgt92rcd13ifvqcg0","pricing_plan_id":"cebpf4jnsgd1na2vs0mg"},{"bike_id":"869cfffe-2f4a-4c85-8893-bc8d2c15d749","system_id":"levelo_inurba_marseille","lat":43.2926,"lon":5.40897,"is_reserved":false,"is_disabled":false,"rental_uris":{"android":"levelo://app?vid=869cfffe-2f4a-4c85-8893-bc8d2c15d749","ios":"levelo://app?vid=869cfffe-2f4a-4c85-8893-bc8d2c15d749"},"vehicle_type_id":"4","last_reported":1747725048,"current_range_meters":19600,"station_id":"ce4bh192rcd13ifvqdc0","pricing_plan_id":"cebpf4jnsgd1na2vs0mg"},{"bike_id":"d2a7227d-c6f1-4a91-b0e5-1e3ec030b44a","system_id":"levelo_inurba_marseille","lat":43.290283,"lon":5.399642,"is_reserved":false,"is_disabled":false,"rental_uris":{"android":"levelo://app?vid=d2a7227d-c6f1-4a91-b0e5-1e3ec030b44a","ios":"levelo://app?vid=d2a7227d-c6f1-4a91-b0e5-1e3ec030b44a"},"vehicle_type_id":"4","last_reported":1747725048,"current_range_meters":19600,"station_id":"ce4bh392rcd13ifvqdm0","pricing_plan_id":"cebpf4jnsgd1na2vs0mg"},{"bike_id":"fab461d9-873a-424d-8ecd-2ee88fe26ed5","system_id":"levelo_inurba_marseille","lat":43.28862,"lon":5.393367,"is_reserved":false,"is_disabled":true,"rental_uris":{"android":"levelo://app?vid=fab461d9-873a-424d-8ecd-2ee88fe26ed5","ios":"levelo://app?vid=fab461d9-873a-424d-8ecd-2ee88fe26ed5"},"vehicle_type_id":"4","last_reported":1747725048,"current_range_meters":20000,"station_id":"ce4bh2p2rcd13ifvqdi0","pricing_plan_id":"cebpf4jnsgd1na2vs0mg"},{"bike_id":"c94b2a38-ca1e-406e-b55e-66541b44c934","system_id":"levelo_inurba_marseille","lat":43.248056,"lon":5.37454,"is_reserved":false,"is_disabled":false,"rental_uris":{"android":"levelo://app?vid=c94b2a38-ca1e-406e-b55e-66541b44c934","ios":"levelo://app?vid=c94b2a38-ca1e-406e-b55e-66541b44c934"},"vehicle_type_id":"4","last_reported":1747725048,"current_range_meters":20000,"station_id":"ce4bhgh2rcd13ifvqfb0","pricing_plan_id":"cebpf4jnsgd1na2vs0mg"},{"bike_id":"03894b77-634b-47b5-8617-30c70128a7b6","system_id":"levelo_inurba_marseille","lat":43.31887,"lon":5.40739,"is_reserved":false,"is_disabled":false,"rental_uris":{"android":"levelo://app?vid=03894b77-634b-47b5-8617-30c70128a7b6","ios":"levelo://app?vid=03894b77-634b-47b5-8617-30c70128a7b6"},"vehicle_type_id":"4","last_reported":1747725048,"current_range_meters":20000,"station_id":"ce4bhq12rcd13ifvqhig","pricing_plan_id":"cebpf4jnsgd1na2vs0mg"},{"bike_id":"c151098a-1f8d-4fca-8935-14e1aeb32a06","system_id":"levelo_inurba_marseille","lat":43.26116,"lon":5.41473,"is_reserved":false,"is_disabled":false,"rental_uris":{"android":"levelo://app?vid=c151098a-1f8d-4fca-8935-14e1aeb32a06","ios":"levelo://app?vid=c151098a-1f8d-4fca-8935-14e1aeb32a06"},