{"last_updated":1774255404,"ttl":60,"version":"2.2","data":{"bikes":[{"bike_id":"19f77db5-ab10-4714-9cd7-53f80a67133e","system_id":"levelo_inurba_marseille","lat":43.3096,"lon":5.43885,"is_reserved":false,"is_disabled":false,"rental_uris":{"android":"levelo://app?vid=19f77db5-ab10-4714-9cd7-53f80a67133e","ios":"levelo://app?vid=19f77db5-ab10-4714-9cd7-53f80a67133e"},"vehicle_type_id":"4","last_reported":1774255405,"current_range_meters":2800,"station_id":"","pricing_plan_id":"cebpf4jnsgd1na2vs0mg"},{"bike_id":"5487f2c1-c4a8-4daf-8490-88d7b84744cf","system_id":"levelo_inurba_marseille","lat":43.30302,"lon":5.36914,"is_reserved":false,"is_disabled":false,"rental_uris":{"android":"levelo://app?vid=5487f2c1-c4a8-4daf-8490-88d7b84744cf","ios":"levelo://app?vid=5487f2c1-c4a8-4daf-8490-88d7b84744cf"},"vehicle_type_id":"4","last_reported":1774255405,"current_range_meters":2800,"station_id":"ce4bgqh2rcd13ifvqc5g","pricing_plan_id":"cebpf4jnsgd1na2vs0mg"},{"bike_id":"d18f3a0e-8f3c-43b0-884b-89e34c61aa43","system_id":"levelo_inurba_marseille","lat":43.2989,"lon":5.43675,"is_reserved":false,"is_disabled":false,"rental_uris":{"android":"levelo://app?vid=d18f3a0e-8f3c-43b0-884b-89e34c61aa43","ios":"levelo://app?vid=d18f3a0e-8f3c-43b0-884b-89e34c61aa43"},"vehicle_type_id":"4","last_reported":1774255405,"current_range_meters":2800,"station_id":"ce4bhpp2rcd13ifvqhfg","pricing_plan_id":"cebpf4jnsgd1na2vs0mg"},{"bike_id":"af07f7df-969c-4993-9e20-b428c205dbc5","system_id":"levelo_inurba_marseille","lat":43.31116,"lon":5.37767,"is_reserved":false,"is_disabled":false,"rental_uris":{"android":"levelo://app?vid=af07f7df-969c-4993-9e20-b428c205dbc5","ios":"levelo://app?vid=af07f7df-969c-4993-9e20-b428c205dbc5"},"vehicle_type_id":"4","last_reported":1774255405,"current_range_meters":2800,"station_id":"ce4bgt92rcd13ifvqcg0","pricing_plan_id":"cebpf4jnsgd1na2vs0mg"},{"bike_id":"d923587d-57b9-469a-9850-939c4afe7bba","system_id":"levelo_inurba_marseille","lat":43.29572,"lon":5.37501,"is_reserved":false,"is_disabled":false,"rental_uris":{"android":"levelo://app?vid=d923587d-57b9-469a-9850-939c4afe7bba","ios":"levelo://app?vid=d923587d-57b9-469a-9850-939c4afe7bba"},"vehicle_type_id":"4","last_reported":1774255405,"current_range_meters":3200,"station_id":"ce4bgh92rcd13ifvqb50","pricing_plan_id":"cebpf4jnsgd1na2vs0mg"},{"bike_id":"409b9423-1e52-4645-9748-8ec662e3a729","system_id":"levelo_inurba_marseille","lat":43.27188,"lon":5.39186,"is_reserved":false,"is_disabled":false,"rental_uris":{"android":"levelo://app?vid=409b9423-1e52-4645-9748-8ec662e3a729","ios":"levelo://app?vid=409b9423-1e52-4645-9748-8ec662e3a729"},"vehicle_type_id":"4","last_reported":1774255405,"current_range_meters":3200,"station_id":"ce4bhhp2rcd13ifvqfm0","pricing_plan_id":"cebpf4jnsgd1na2vs0mg"},{"bike_id":"5279ae73-ba15-425b-a429-7232ec96a43c","system_id":"levelo_inurba_marseille","lat":43.30554,"lon":5.36703,"is_reserved":false,"is_disabled":false,"rental_uris":{"android":"levelo://app?vid=5279ae73-ba15-425b-a429-7232ec96a43c","ios":"levelo://app?vid=5279ae73-ba15-425b-a429-7232ec96a43c"},"vehicle_type_id":"4","last_reported":1774255405,"current_range_meters":3200,"station_id":"ce4bgrp2rcd13ifvqc9g","pricing_plan_id":"cebpf4jnsgd1na2vs0mg"},{"bike_id":"72553241-4827-4871-af90-04674b06b5ef","system_id":"levelo_inurba_marseille","lat":43.25964,"lon":5.4088,"is_reserved":false,"is_disabled":false,"rental_uris":{"android":"levelo://app?vid=72553241-4827-4871-af90-04674b06b5ef","ios":"levelo://app?vid=72553241-4827-4871-af90-04674b06b5ef"},"vehicle_type_id":"4","last_reported":1774255405,"current_range_meters":3200,"station_id":"ce4bhm92rcd13ifvqglg","pricing_plan_id":"cebpf4jnsgd1na2vs0mg"},{"bike_id":"9ac19f5a-2d91-49e2-9865-15d7ab4a9b38","system_id":"levelo_inurba_marseille","lat":43.23143,"lon":5.43727,"is_reserved":false,"is_disabled":false,"rental_uris":{"android":"levelo://app?vid=9ac19f5a-2d91-49e2-9865-15d7ab4a9b38","ios":"levelo://app?vid=9ac19f5a-2d91-49e2-9865-15d7ab4a9b38"},"vehicle_type_id":"4","last_reported":1774255405,"current_range_meters":3200,"station_id":"ce4bhmp2rcd13ifvqgog","pricing_plan_id":"cebpf4jnsgd1na2vs0mg"},{"bike_id":"9fe250c2-5255-4b78-9351-e828815bc85d","system_id":"levelo_inurba_marseille","lat":43.21764,"lon":5.34591,"is_reserved":false,"is_disabled":false,"rental_uris":{"android":"levelo://app?vid=9fe250c2-5255-4b78-9351-e828815bc85d","ios":"levelo://app?vid=9fe250c2-5255-4b78-9351-e828815bc85d"},"vehicle_type_id":"4","last_reported":1774255405,"current_range_meters":3200,"station_id":"st_cvj6r9ubvosntc0bgbag","pricing_plan_id":"cebpf4jnsgd1na2vs0mg"},{"bike_id":"b84ed3d3-a1f2-4779-83a4-243d3e771c5d","system_id":"levelo_inurba_marseille","lat":43.28481,"lon":5.48384,"is_reserved":false,"is_disabled":false,"rental_uris":{"android":"levelo://app?vid=b84ed3d3-a1f2-4779-83a4-243d3e771c5d","ios":"levelo://app?vid=b84ed3d3-a1f2-4779-83a4-243d3e771c5d"},"vehicle_type_id":"4","last_reported":1774255405,"current_range_meters":3200,"station_id":"","pricing_plan_id":"cebpf4jnsgd1na2vs0mg"},{"bike_id":"2a95faca-d187-48cc-aa2a-ac67863a9ade","system_id":"levelo_inurba_marseille","lat":43.32141,"lon":5.3676,"is_reserved":false,"is_disabled":false,"rental_uris":{"android":"levelo://app?vid=2a95faca-d187-48cc-aa2a-ac67863a9ade","ios":"levelo://app?vid=2a95faca-d187-48cc-aa2a-ac67863a9ade"},"vehicle_type_id":"4","last_reported":1774255405,"current_range_meters":3200,"station_id":"ce4bhrh2rcd13ifvqhug","pricing_plan_id":"cebpf4jnsgd1na2vs0mg"},{"bike_id":"ffc5c7ba-ab5f-488e-bc40-7fd99b8834be","system_id":"levelo_inurba_marseille","lat":43.29922,"lon":5.4366,"is_reserved":false,"is_disabled":false,"rental_uris":{"android":"levelo://app?vid=ffc5c7ba-ab5f-488e-bc40-7fd99b8834be","ios":"levelo://app?vid=ffc5c7ba-ab5f-488e-bc40-7fd99b8834be"},"vehicle_type_id":"4","last_reported":1774255405,"current_range_meters":3200,"station_id":"ce4bhpp2rcd13ifvqhfg","pricing_plan_id":"cebpf4jnsgd1na2vs0mg"},{"bike_id":"a2c716b5-5ea8-433a-a645-09c193dba0e7","system_id":"levelo_inurba_marseille","lat":43.27378,"lon":5.36234,"is_reserved":false,"is_disabled":true,"rental_uris":{"android":"levelo://app?vid=a2c716b5-5ea8-433a-a645-09c193dba0e7","ios":"levelo://app?vid=a2c716b5-5ea8-433a-a645-09c193dba0e7"},"vehicle_type_id":"4","last_reported":1774255405,"current_range_meters":3600,"station_id":"ce4bhbh2rcd13ifvqeo0","pricing_plan_id":"cebpf4jnsgd1na2vs0mg"},{"bike_id":"51f131c4-ef31-4b4b-8c65-e146531127bd","system_id":"levelo_inurba_marseille","lat":43.2293,"lon":5.35382,"is_reserved":false,"is_disabled":false,"rental_uris":{"android":"levelo://app?vid=51f131c4-ef31-4b4b-8c65-e146531127bd","ios":"levelo://app?vid=51f131c4-ef31-4b4b-8c65-e146531127bd"},"vehicle_type_id":"4","last_reported":1774255405,"current_range_meters":3600,"station_id":"cpo3532slgdg3j2ikp40","pricing_plan_id":"cebpf4jnsgd1na2vs0mg"},{"bike_id":"284430d8-fa85-4e0f-b9df-c67560d01792","system_id":"levelo_inurba_marseille","lat":43.30925,"lon":5.36807,"is_reserved":false,"is_disabled":false,"rental_uris":{"android":"levelo://app?vid=284430d8-fa85-4e0f-b9df-c67560d01792","ios":"levelo://app?vid=284430d8-fa85-4e0f-b9df-c67560d01792"},"vehicle_type_id":"4","last_reported":1774255405,"current_range_meters":3600,"station_id":"ce4bgn92rcd13ifvqbvg","pricing_plan_id":"cebpf4jnsgd1na2vs0mg"},{"bike_id":"6c012d9f-7148-4e7c-9d03-ef4872115150","system_id":"levelo_inurba_marseille","lat":43.32578,"lon":5.37475,"is_reserved":false,"is_disabled":false,"rental_uris":{"android":"levelo://app?vid=6c012d9f-7148-4e7c-9d03-ef4872115150","ios":"levelo://app?vid=6c012d9f-7148-4e7c-9d03-ef4872115150"},"vehicle_type_id":"4","last_reported":1774255405,"current_range_meters":3600,"station_id":"","pricing_plan_id":"cebpf4jnsgd1na2vs0mg"},{"bike_id":"b74ca8d1-73b5-4326-86f3-ca099f3d3c7c","system_id":"levelo_inurba_marseille","lat":43.25581,"lon":5.38227,"is_reserved":false,"is_disabled":false,"rental_uris":{"android":"levelo://app?vid=b74ca8d1-73b5-4326-86f3-ca099f3d3c7c","ios":"levelo://app?vid=b74ca8d1-73b5-4326-86f3-ca099f3d3c7c"},"vehicle_type_id":"4","last_reported":1774255405,"current_range_meters":3600,"station_id":"ce4bhih2rcd13ifvqfs0","pricing_plan_id":"cebpf4jnsgd1na2vs0mg"},{"bike_id":"6a47d317-60e9-476a-b4ae-9dfa48bef6ce","system_id":"levelo_inurba_marseille","lat":43.2781,"lon":5.40718,"is_reserved":false,"is_disabled":false,"rental_uris":{"android":"levelo://app?vid=6a47d317-60e9-476a-b4ae-9dfa48bef6ce","ios":"levelo://app?vid=6a47d317-60e9-476a-b4ae-9dfa48bef6ce"},"vehicle_type_id":"4","last_reported":1774255405,"current_range_meters":4000,"station_id":"ce4bhnh2rcd13ifvqgtg","pricing_plan_id":"cebpf4jnsgd1na2vs0mg"},{"bike_id":"5f95f9b4-19f8-400e-b1ec-eab38822553e","system_id":"levelo_inurba_marseille","lat":43.30142,"lon":5.37408,"is_reserved":false,"is_disabled":false,"rental_uris":{"android":"levelo://app?vid=5f95f9b4-19f8-400e-b1ec-eab38822553e","ios":"levelo://app?vid=5f95f9b4-19f8-400e-b1ec-eab38822553e"},"vehicle_type_id":"4","last_reported":1774255405,"current_range_meters":4000,"station_id":"ce4bgs92rcd13ifvqcc0","pricing_plan_id":"cebpf4jnsgd1na2vs0mg"},{"bike_id":"58272079-75fe-421c-9640-50fa2c642724","system_id":"levelo_inurba_marseille","lat":43.298956,"lon":5.397345,"is_reserved":false,"is_disabled":false,"rental_uris":{"android":"levelo://app?vid=58272079-75fe-421c-9640-50fa2c642724","ios":"levelo://app?vid=58272079-75fe-421c-9640-50fa2c642724"},"vehicle_type_id":"4","last_reported":1774255405,"current_range_meters":4000,"station_id":"ce4bh0h2rcd13ifvqd50","pricing_plan_id":"cebpf4jnsgd1na2vs0mg"},{"bike_id":"05cba970-79c4-41f6-b1cb-52e36f228958","system_id":"levelo_inurba_marseille","lat":43.24159,"lon":5.36416,"is_reserved":false,"is_disabled":false,"rental_uris":{"android":"levelo://app?vid=05cba970-79c4-41f6-b1cb-52e36f228958","ios":"levelo://app?vid=05cba970-79c4-41f6-b1cb-52e36f228958"},"vehicle_type_id":"4","last_reported":1774255405,"current_range_meters":4000,"station_id":"cpo36qri1sfpv3e86is0","pricing_plan_id":"cebpf4jnsgd1na2vs0mg"},{"bike_id":"2edeafa3-dc91-4ba3-9dc2-0595e9872527","system_id":"levelo_inurba_marseille","lat":43.29562,"lon":5.39956,"is_reserved":false,"is_disabled":false,"rental_uris":{"android":"levelo://app?vid=2edeafa3-dc91-4ba3-9dc2-0595e9872527","ios":"levelo://app?vid=2edeafa3-dc91-4ba3-9dc2-0595e9872527"},"vehicle_type_id":"4","last_reported":1774255405,"current_range_meters":4000,"station_id":"ce4bh312rcd13ifvqdj0","pricing_plan_id":"cebpf4jnsgd1na2vs0mg"},{"bike_id":"d1c30872-9b01-4883-88db-d4e8a37fb7cc","system_id":"levelo_inurba_marseille","lat":43.33605,"lon":5.41036,"is_reserved":false,"is_disabled":false,"rental_uris":{"android":"levelo://app?vid=d1c30872-9b01-4883-88db-d4e8a37fb7cc","ios":"levelo://app?vid=d1c30872-9b01-4883-88db-d4e8a37fb7cc"},"vehicle_type_id":"4","last_reported":1774255405,"current_range_meters":4000,"station_id":"ce4bhqh2rcd13ifvqhmg","pricing_plan_id":"cebpf4jnsgd1na2vs0mg"},{"bike_id":"57d5ddfe-b0cd-49c8-aa47-fce2350232e5","system_id":"levelo_inurba_marseille","lat":43.231505,"lon":5.437301,"is_reserved":false,"is_disabled":false,"rental_uris":{"android":"levelo://app?vid=57d5ddfe-b0cd-49c8-aa47-fce2350232e5","ios":"levelo://app?vid=57d5ddfe-b0cd-49c8-aa47-fce2350232e5"},"vehicle_type_id":"4","last_reported":1774255405,"current_range_meters":4000,"station_id":"ce4bhmp2rcd13ifvqgog","pricing_plan_id":"cebpf4jnsgd1na2vs0mg"},{"bike_id":"4a08ea02-f339-41b8-9d8b-5268c800245e","system_id":"levelo_inurba_marseille","lat":43.24142,"lon":5.36869,"is_reserved":false,"is_disabled":false,"rental_uris":{"android":"levelo://app?vid=4a08ea02-f339-41b8-9d8b-5268c800245e","ios":"levelo://app?vid=4a08ea02-f339-41b8-9d8b-5268c800245e"},"vehicle_type_id":"4","last_reported":1774255405,"current_range_meters":4000,"station_id":"","pricing_plan_id":"cebpf4jnsgd1na2vs0mg"},{"bike_id":"778b596d-e8db-47bc-a930-78084f735712","system_id":"levelo_inurba_marseille","lat":43.24996,"lon":5.38891,"is_reserved":false,"is_disabled":true,"rental_uris":{"android":"levelo://app?vid=778b596d-e8db-47bc-a930-78084f735712","ios":"levelo://app?vid=778b596d-e8db-47bc-a930-78084f735712"},"vehicle_type_id":"4","last_reported":1774255405,"current_range_meters":4000,"station_id":"ce4bhgp2rcd13ifvqfd0","pricing_plan_id":"cebpf4jnsgd1na2vs0mg"},{"bike_id":"be3c7827-08af-4504-95ed-25f44c48fdc4","system_id":"levelo_inurba_marseille","lat":43.25595,"lon":5.3822,"is_reserved":false,"is_disabled":false,"rental_uris":{"android":"levelo://app?vid=be3c7827-08af-4504-95ed-25f44c48fdc4","ios":"levelo://app?vid=be3c7827-08af-4504-95ed-25f44c48fdc4"},"vehicle_type_id":"4","last_reported":1774255405,"current_range_meters":4000,"station_id":"ce4bhih2rcd13ifvqfs0","pricing_plan_id":"cebpf4jnsgd1na2vs0mg"},{"bike_id":"deb4d43c-e639-4f91-a09a-8f7ec3cc3424","system_id":"levelo_inurba_marseille","lat":43.32101,"lon":5.36786,"is_reserved":false,"is_disabled":false,"rental_uris":{"android":"levelo://app?vid=deb4d43c-e639-4f91-a09a-8f7ec3cc3424","ios":"levelo://app?vid=deb4d43c-e639-4f91-a09a-8f7ec3cc3424"},"vehicle_type_id":"4","last_reported":1774255405,"current_range_meters":4000,"station_id":"ce4bhrh2rcd13ifvqhug","pricing_plan_id":"cebpf4jnsgd1na2vs0mg"},{"bike_id":"89884c11-0089-40c9-b4c8-cc026115fb44","system_id":"levelo_inurba_marseille","lat":43.26924,"lon":5.42038,"is_reserved":false,"is_disabled":false,"rental_uris":{"android":"levelo://app?vid=89884c11-0089-40c9-b4c8-cc026115fb44","ios":"levelo://app?vid=89884c11-0089-40c9-b4c8-cc026115fb44"},"vehicle_type_id":"4","last_reported":1774255405,"current_range_meters":4000,"station_id":"","pricing_plan_id":"cebpf4jnsgd1na2vs0mg"},{"bike_id":"ef6fe333-2bcc-470e-baa6-9f7f62a03a32","system_id":"levelo_inurba_marseille","lat":43.25959,"lon":5.40892,"is_reserved":false,"is_disabled":false,"rental_uris":{"android":"levelo://app?vid=ef6fe333-2bcc-470e-baa6-9f7f62a03a32","ios":"levelo://app?vid=ef6fe333-2bcc-470e-baa6-9f7f62a03a32"},"vehicle_type_id":"4","last_reported":1774255405,"current_range_meters":4000,"station_id":"ce4bhm92rcd13ifvqglg","pricing_plan_id":"cebpf4jnsgd1na2vs0mg"},{"bike_id":"895b6d9a-f6b2-4744-8c30-184547b1b37e","system_id":"levelo_inurba_marseille","lat":43.28153,"lon":5.42637,"is_reserved":false,"is_disabled":false,"rental_uris":{"android":"levelo://app?vid=895b6d9a-f6b2-4744-8c30-184547b1b37e","ios":"levelo://app?vid=895b6d9a-f6b2-4744-8c30-184547b1b37e"},"vehicle_type_id":"4","last_reported":1774255405,"current_range_meters":4400,"station_id":"ce4bhnh2rcd13ifvqgug","pricing_plan_id":"cebpf4jnsgd1na2vs0mg"},{"bike_id":"e84a625b-41e0-4533-82a4-cbfef9892d14","system_id":"levelo_inurba_marseille","lat":43.29254,"lon":5.36813,"is_reserved":false,"is_disabled":false,"rental_uris":{"android":"levelo://app?vid=e84a625b-41e0-4533-82a4-cbfef9892d14","ios":"levelo://app?vid=e84a625b-41e0-4533-82a4-cbfef9892d14"},"vehicle_type_id":"4","last_reported":1774255405,"current_range_meters":4400,"station_id":"ce4bhbp2rcd13ifvqesg","pricing_plan_id":"cebpf4jnsgd1na2vs0mg"},{"bike_id":"926980e7-6e9b-4c45-a007-9ac0bf89dc56","system_id":"levelo_inurba_marseille","lat":43.31578,"lon":5.44525,"is_reserved":false,"is_disabled":false,"rental_uris":{"android":"levelo://app?vid=926980e7-6e9b-4c45-a007-9ac0bf89dc56","ios":"levelo://app?vid=926980e7-6e9b-4c45-a007-9ac0bf89dc56"},"vehicle_type_id":"4","last_reported":1774255405,"current_range_meters":4400,"station_id":"","pricing_plan_id":"cebpf4jnsgd1na2vs0mg"},{"bike_id":"259cfa92-d03c-4233-b3f1-e9c84b224ffe","system_id":"levelo_inurba_marseille","lat":43.25492,"lon":5.37655,"is_reserved":false,"is_disabled":true,"rental_uris":{"android":"levelo://app?vid=259cfa92-d03c-4233-b3f1-e9c84b224ffe","ios":"levelo://app?vid=259cfa92-d03c-4233-b3f1-e9c84b224ffe"},"vehicle_type_id":"4","last_reported":1774255405,"current_range_meters":4400,"station_id":"ce4bhh12rcd13ifvqff0","pricing_plan_id":"cebpf4jnsgd1na2vs0mg"},{"bike_id":"efc0a0af-be66-4cb2-ac5a-8462289738e0","system_id":"levelo_inurba_marseille","lat":43.30168,"lon":5.37402,"is_reserved":false,"is_disabled":false,"rental_uris":{"android":"levelo://app?vid=efc0a0af-be66-4cb2-ac5a-8462289738e0","ios":"levelo://app?vid=efc0a0af-be66-4cb2-ac5a-8462289738e0"},"vehicle_type_id":"4","last_reported":1774255405,"current_range_meters":4400,"station_id":"ce4bgs92rcd13ifvqcc0","pricing_plan_id":"cebpf4jnsgd1na2vs0mg"},{"bike_id":"56ea6f0f-dcc4-41e9-b9a8-6abc95e97d3b","system_id":"levelo_inurba_marseille","lat":43.26788,"lon":5.39412,"is_reserved":false,"is_disabled":false,"rental_uris":{"android":"levelo://app?vid=56ea6f0f-dcc4-41e9-b9a8-6abc95e97d3b","ios":"levelo://app?vid=56ea6f0f-dcc4-41e9-b9a8-6abc95e97d3b"},"vehicle_type_id":"4","last_reported":1774255405,"current_range_meters":4400,"station_id":"ce4bhh12rcd13ifvqfg0","pricing_plan_id":"cebpf4jnsgd1na2vs0mg"},{"bike_id":"1bc9b99c-e328-46fe-8e83-31d5610c02f4","system_id":"levelo_inurba_marseille","lat":43.30919,"lon":5.36836,"is_reserved":false,"is_disabled":false,"rental_uris":{"android":"levelo://app?vid=1bc9b99c-e328-46fe-8e83-31d5610c02f4","ios":"levelo://app?vid=1bc9b99c-e328-46fe-8e83-31d5610c02f4"},"vehicle_type_id":"4","last_reported":1774255405,"current_range_meters":4400,"station_id":"ce4bgn92rcd13ifvqbvg","pricing_plan_id":"cebpf4jnsgd1na2vs0mg"},{"bike_id":"a46c1a3e-d474-4222-bd24-8cb832e27d76","system_id":"levelo_inurba_marseille","lat":43.29734,"lon":5.36394,"is_reserved":false,"is_disabled":false,"rental_uris":{"android":"levelo://app?vid=a46c1a3e-d474-4222-bd24-8cb832e27d76","ios":"levelo://app?vid=a46c1a3e-d474-4222-bd24-8cb832e27d76"},"vehicle_type_id":"4","last_reported":1774255405,"current_range_meters":4400,"station_id":"","pricing_plan_id":"cebpf4jnsgd1na2vs0mg"},{"bike_id":"ccc122d5-0f73-440d-82d8-c85e38ab19ee","system_id":"levelo_inurba_marseille","lat":43.29072,"lon":5.37173,"is_reserved":false,"is_disabled":false,"rental_uris":{"android":"levelo://app?vid=ccc122d5-0f73-440d-82d8-c85e38ab19ee","ios":"levelo://app?vid=ccc122d5-0f73-440d-82d8-c85e38ab19ee"},"vehicle_type_id":"4","last_reported":1774255405,"current_range_meters":4400,"station_id":"ce4bh5p2rcd13ifvqe4g","pricing_plan_id":"cebpf4jnsgd1na2vs0mg"},{"bike_id":"de5321e8-e165-493e-afc2-967177828427","system_id":"levelo_inurba_marseille","lat":43.29712,"lon":5.37689,"is_reserved":false,"is_disabled":false,"rental_uris":{"android":"levelo://app?vid=de5321e8-e165-493e-afc2-967177828427","ios":"levelo://app?vid=de5321e8-e165-493e-afc2-967177828427"},"vehicle_type_id":"4","last_reported":1774255405,"current_range_meters":4400,"station_id":"ce4bgkh2rcd13ifvqbl0","pricing_plan_id":"cebpf4jnsgd1na2vs0mg"},{"bike_id":"0f7c298a-a08e-4395-bfea-f985c0a19cba","system_id":"levelo_inurba_marseille","lat":43.23957,"lon":5.36626,"is_reserved":false,"is_disabled":true,"rental_uris":{"android":"levelo://app?vid=0f7c298a-a08e-4395-bfea-f985c0a19cba","ios":"levelo://app?vid=0f7c298a-a08e-4395-bfea-f985c0a19cba"},"vehicle_type_id":"4","last_reported":1774255405,"current_range_meters":4800,"station_id":"ce4bhi12rcd13ifvqfp0","pricing_plan_id":"cebpf4jnsgd1na2vs0mg"},{"bike_id":"ee3ff2c5-8eb9-460a-936f-029a2d3bd45f","system_id":"levelo_inurba_marseille","lat":43.28896,"lon":5.43344,"is_reserved":false,"is_disabled":false,"rental_uris":{"android":"levelo://app?vid=ee3ff2c5-8eb9-460a-936f-029a2d3bd45f","ios":"levelo://app?vid=ee3ff2c5-8eb9-460a-936f-029a2d3bd45f"},"vehicle_type_id":"4","last_reported":1774255405,"current_range_meters":4800,"station_id":"","pricing_plan_id":"cebpf4jnsgd1na2vs0mg"},{"bike_id":"01cfe32f-5b84-4dfe-b2cb-158eb4cdb5d6","system_id":"levelo_inurba_marseille","lat":43.24164,"lon":5.36396,"is_reserved":false,"is_disabled":false,"rental_uris":{"android":"levelo://app?vid=01cfe32f-5b84-4dfe-b2cb-158eb4cdb5d6","ios":"levelo://app?vid=01cfe32f-5b84-4dfe-b2cb-158eb4cdb5d6"},"vehicle_type_id":"4","last_reported":1774255405,"current_range_meters":4800,"station_id":"cpo36qri1sfpv3e86is0","pricing_plan_id":"cebpf4jnsgd1na2vs0mg"},{"bike_id":"975f548d-0a44-425e-8b97-3d3cfd22ac27","system_id":"levelo_inurba_marseille","lat":43.30148,"lon":5.3741,"is_reserved":false,"is_disabled":false,"rental_uris":{"android":"levelo://app?vid=975f548d-0a44-425e-8b97-3d3cfd22ac27","ios":"levelo://app?vid=975f548d-0a44-425e-8b97-3d3cfd22ac27"},"vehicle_type_id":"4","last_reported":1774255405,"current_range_meters":4800,"station_id":"ce4bgs92rcd13ifvqcc0","pricing_plan_id":"cebpf4jnsgd1na2vs0mg"},{"bike_id":"a2e76477-93e9-48dd-8270-48327ce43a17","system_id":"levelo_inurba_marseille","lat":43.299713,"lon":5.384892,"is_reserved":false,"is_disabled":false,"rental_uris":{"android":"levelo://app?vid=a2e76477-93e9-48dd-8270-48327ce43a17","ios":"levelo://app?vid=a2e76477-93e9-48dd-8270-48327ce43a17"},"vehicle_type_id":"4","last_reported":1774255405,"current_range_meters":4800,"station_id":"ce4bgj92rcd13ifvqbd0","pricing_plan_id":"cebpf4jnsgd1na2vs0mg"},{"bike_id":"00560f09-8ead-439c-a384-e1807bc0a84c","system_id":"levelo_inurba_marseille","lat":43.28479,"lon":5.48399,"is_reserved":false,"is_disabled":false,"rental_uris":{"android":"levelo://app?vid=00560f09-8ead-439c-a384-e1807bc0a84c","ios":"levelo://app?vid=00560f09-8ead-439c-a384-e1807bc0a84c"},"vehicle_type_id":"4","last_reported":1774255405,"current_range_meters":4800,"station_id":"","pricing_plan_id":"cebpf4jnsgd1na2vs0mg"},{"bike_id":"08e2668f-4662-4e23-b00f-e4b6907f2fbe","system_id":"levelo_inurba_marseille","lat":43.32113,"lon":5.36762,"is_reserved":false,"is_disabled":false,"rental_uris":{"android":"levelo://app?vid=08e2668f-4662-4e23-b00f-e4b6907f2fbe","ios":"levelo://app?vid=08e2668f-4662-4e23-b00f-e4b6907f2fbe"},"vehicle_type_id":"4","last_reported":1774255405,"current_range_meters":4800,"station_id":"ce4bhrh2rcd13ifvqhug","pricing_plan_id":"cebpf4jnsgd1na2vs0mg"},{"bike_id":"b4391a28-ef69-456a-9daf-3a357aac299d","system_id":"levelo_inurba_marseille","lat":43.27979,"lon":5.41057,"is_reserved":false,"is_disabled":false,"rental_uris":{"android":"levelo://app?vid=b4391a28-ef69-456a-9daf-3a357aac299d","ios":"levelo://app?vid=b4391a28-ef69-456a-9daf-3a357aac299d"},"vehicle_type_id":"4","last_reported":1774255405,"current_range_meters":4800,"station_id":"ce4bhnp2rcd13ifvqh0g","pricing_plan_id":"cebpf4jnsgd1na2vs0mg"},{"bike_id":"b07b35f6-6c38-4e4b-a09a-89a6e8c411c4","system_id":"levelo_inurba_marseille","lat":43.26711,"lon":5.38254,"is_reserved":false,"is_disabled":false,"rental_uris":{"android":"levelo://app?vid=b07b35f6-6c38-4e4b-a09a-89a6e8c411c4","ios":"levelo://app?vid=b07b35f6-6c38-4e4b-a09a-89a6e8c411c4"},"vehicle_type_id":"4","last_reported":1774255405,"current_range_meters":4800,"station_id":"ce4bhg92rcd13ifvqf90","pricing_plan_id":"cebpf4jnsgd1na2vs0mg"},{"bike_id":"432a856f-1f72-4a3d-9b71-75facdeb9b47","system_id":"levelo_inurba_marseille","lat":43.29774,"lon":5.3853,"is_reserved":false,"is_disabled":false,"rental_uris":{"android":"levelo://app?vid=432a856f-1f72-4a3d-9b71-75facdeb9b47","ios":"levelo://app?vid=432a856f-1f72-4a3d-9b71-75facdeb9b47"},"vehicle_type_id":"4","last_reported":1774255405,"current_range_meters":4800,"station_id":"","pricing_plan_id":"cebpf4jnsgd1na2vs0mg"},{"bike_id":"661b2819-8097-434b-a0ea-67806e92a138","system_id":"levelo_inurba_marseille","lat":43.33543,"lon":5.37464,"is_reserved":false,"is_disabled":false,"rental_uris":{"android":"levelo://app?vid=661b2819-8097-434b-a0ea-67806e92a138","ios":"levelo://app?vid=661b2819-8097-434b-a0ea-67806e92a138"},"vehicle_type_id":"4","last_reported":1774255405,"current_range_meters":4800,"station_id":"st_d46tts09ee8s73dlu43g","pricing_plan_id":"cebpf4jnsgd1na2vs0mg"},{"bike_id":"78e524e6-bbe9-4c3c-b6c1-fed601f669fe","system_id":"levelo_inurba_marseille","lat":43.29902,"lon":5.38137,"is_reserved":false,"is_disabled":false,"rental_uris":{"android":"levelo://app?vid=78e524e6-bbe9-4c3c-b6c1-fed601f669fe","ios":"levelo://app?vid=78e524e6-bbe9-4c3c-b6c1-fed601f669fe"},"vehicle_type_id":"4","last_reported":1774255405,"current_range_meters":5600,"station_id":"ce4bgj12rcd13ifvqbc0","pricing_plan_id":"cebpf4jnsgd1na2vs0mg"},{"bike_id":"0360abf6-c26e-48db-b5ad-eef701d56d92","system_id":"levelo_inurba_marseille","lat":43.29275,"lon":5.36855,"is_reserved":false,"is_disabled":false,"rental_uris":{"android":"levelo://app?vid=0360abf6-c26e-48db-b5ad-eef701d56d92","ios":"levelo://app?vid=0360abf6-c26e-48db-b5ad-eef701d56d92"},"vehicle_type_id":"4","last_reported":1774255405,"current_range_meters":6000,"station_id":"ce4bhbp2rcd13ifvqesg","pricing_plan_id":"cebpf4jnsgd1na2vs0mg"},{"bike_id":"852e3c3a-4453-46ff-a2b2-74a5435cf211","system_id":"levelo_inurba_marseille","lat":43.29562,"lon":5.37516,"is_reserved":false,"is_disabled":false,"rental_uris":{"android":"levelo://app?vid=852e3c3a-4453-46ff-a2b2-74a5435cf211","ios":"levelo://app?vid=852e3c3a-4453-46ff-a2b2-74a5435cf211"},"vehicle_type_id":"4","last_reported":1774255405,"current_range_meters":6000,"station_id":"ce4bgh92rcd13ifvqb50","pricing_plan_id":"cebpf4jnsgd1na2vs0mg"},{"bike_id":"1a1a7c55-ee9f-457e-9d2b-7662e3b1f44b","system_id":"levelo_inurba_marseille","lat":43.24637,"lon":5.43495,"is_reserved":false,"is_disabled":true,"rental_uris":{"android":"levelo://app?vid=1a1a7c55-ee9f-457e-9d2b-7662e3b1f44b","ios":"levelo://app?vid=1a1a7c55-ee9f-457e-9d2b-7662e3b1f44b"},"vehicle_type_id":"4","last_reported":1774255405,"current_range_meters":6000,"station_id":"","pricing_plan_id":"cebpf4jnsgd1na2vs0mg"},{"bike_id":"b23e52e9-a876-459e-8724-e0215296ea00","system_id":"levelo_inurba_marseille","lat":43.28482,"lon":5.48393,"is_reserved":false,"is_disabled":true,"rental_uris":{"android":"levelo://app?vid=b23e52e9-a876-459e-8724-e0215296ea00","ios":"levelo://app?vid=b23e52e9-a876-459e-8724-e0215296ea00"},"vehicle_type_id":"4","last_reported":1774255405,"current_range_meters":6000,"station_id":"","pricing_plan_id":"cebpf4jnsgd1na2vs0mg"},{"bike_id":"5a3d3df4-d923-46fc-bdfe-9820e3b28092","system_id":"levelo_inurba_marseille","lat":43.27344,"lon":5.39121,"is_reserved":false,"is_disabled":true,"rental_uris":{"android":"levelo://app?vid=5a3d3df4-d923-46fc-bdfe-9820e3b28092","ios":"levelo://app?vid=5a3d3df4-d923-46fc-bdfe-9820e3b28092"},"vehicle_type_id":"4","last_reported":1774255405,"current_range_meters":6000,"station_id":"","pricing_plan_id":"cebpf4jnsgd1na2vs0mg"},{"bike_id":"fa87ce26-5306-414f-98c9-1e3509ad90c0","system_id":"levelo_inurba_marseille","lat":43.24635,"lon":5.39319,"is_reserved":false,"is_disabled":false,"rental_uris":{"android":"levelo://app?vid=fa87ce26-5306-414f-98c9-1e3509ad90c0","ios":"levelo://app?vid=fa87ce26-5306-414f-98c9-1e3509ad90c0"},"vehicle_type_id":"4","last_reported":1774255405,"current_range_meters":6000,"station_id":"","pricing_plan_id":"cebpf4jnsgd1na2vs0mg"},{"bike_id":"48d411e4-772b-45b0-bfb9-68ff0b412584","system_id":"levelo_inurba_marseille","lat":43.30277,"lon":5.37684,"is_reserved":false,"is_disabled":false,"rental_uris":{"android":"levelo://app?vid=48d411e4-772b-45b0-bfb9-68ff0b412584","ios":"levelo://app?vid=48d411e4-772b-45b0-bfb9-68ff0b412584"},"vehicle_type_id":"4","last_reported":1774255405,"current_range_meters":6000,"station_id":"ce4bguh2rcd13ifvqcj0","pricing_plan_id":"cebpf4jnsgd1na2vs0mg"},{"bike_id":"c4e93c83-ceac-4b01-9e87-4ff9fc43ee21","system_id":"levelo_inurba_marseille","lat":43.28116,"lon":5.37845,"is_reserved":false,"is_disabled":false,"rental_uris":{"android":"levelo://app?vid=c4e93c83-ceac-4b01-9e87-4ff9fc43ee21","ios":"levelo://app?vid=c4e93c83-ceac-4b01-9e87-4ff9fc43ee21"},"vehicle_type_id":"4","last_reported":1774255405,"current_range_meters":6000,"station_id":"ce4bha12rcd13ifvqee0","pricing_plan_id":"cebpf4jnsgd1na2vs0mg"},{"bike_id":"a4f39a67-3696-48fd-8a89-c4635ecafbbb","system_id":"levelo_inurba_marseille","lat":43.28962,"lon":5.36666,"is_reserved":false,"is_disabled":false,"rental_uris":{"android":"levelo://app?vid=a4f39a67-3696-48fd-8a89-c4635ecafbbb","ios":"levelo://app?vid=a4f39a67-3696-48fd-8a89-c4635ecafbbb"},"vehicle_type_id":"4","last_reported":1774255405,"current_range_meters":6000,"station_id":"ce4bhap2rcd13ifvqek0","pricing_plan_id":"cebpf4jnsgd1na2vs0mg"},{"bike_id":"58a4b0d7-f43b-449e-8d2e-e05a79e437e2","system_id":"levelo_inurba_marseille","lat":43.292609,"lon":5.376234,"is_reserved":false,"is_disabled":false,"rental_uris":{"android":"levelo://app?vid=58a4b0d7-f43b-449e-8d2e-e05a79e437e2","ios":"levelo://app?vid=58a4b0d7-f43b-449e-8d2e-e05a79e437e2"},"vehicle_type_id":"4","last_reported":1774255405,"current_range_meters":6400,"station_id":"","pricing_plan_id":"cebpf4jnsgd1na2vs0mg"},{"bike_id":"c177e44f-a994-462a-b1ea-fc1ba55ad8e0","system_id":"levelo_inurba_marseille","lat":43.2389,"lon":5.37458,"is_reserved":false,"is_disabled":false,"rental_uris":{"android":"levelo://app?vid=c177e44f-a994-462a-b1ea-fc1ba55ad8e0","ios":"levelo://app?vid=c177e44f-a994-462a-b1ea-fc1ba55ad8e0"},"vehicle_type_id":"4","last_reported":1774255405,"current_range_meters":6400,"station_id":"st_d6sm7csbq4hs73f8fpjg","pricing_plan_id":"cebpf4jnsgd1na2vs0mg"},{"bike_id":"5deb8dc6-6919-4738-b0a7-dc6990800975","system_id":"levelo_inurba_marseille","lat":43.30314,"lon":5.36897,"is_reserved":false,"is_disabled":false,"rental_uris":{"android":"levelo://app?vid=5deb8dc6-6919-4738-b0a7-dc6990800975","ios":"levelo://app?vid=5deb8dc6-6919-4738-b0a7-dc6990800975"},"vehicle_type_id":"4","last_reported":1774255405,"current_range_meters":6400,"station_id":"ce4bgqh2rcd13ifvqc5g","pricing_plan_id":"cebpf4jnsgd1na2vs0mg"},{"bike_id":"af8d2a67-5765-4d25-9890-717868ce4def","system_id":"levelo_inurba_marseille","lat":43.26983,"lon":5.40294,"is_reserved":false,"is_disabled":false,"rental_uris":{"android":"levelo://app?vid=af8d2a67-5765-4d25-9890-717868ce4def","ios":"levelo://app?vid=af8d2a67-5765-4d25-9890-717868ce4def"},"vehicle_type_id":"4","last_reported":1774255405,"current_range_meters":6400,"station_id":"cjm6bp8fraef2m0cb0m0","pricing_plan_id":"cebpf4jnsgd1na2vs0mg"},{"bike_id":"59321f14-433b-4cf5-9c44-c849c11ff505","system_id":"levelo_inurba_marseille","lat":43.28927,"lon":5.36622,"is_reserved":false,"is_disabled":false,"rental_uris":{"android":"levelo://app?vid=59321f14-433b-4cf5-9c44-c849c11ff505","ios":"levelo://app?vid=59321f14-433b-4cf5-9c44-c849c11ff505"},"vehicle_type_id":"4","last_reported":1774255405,"current_range_meters":6400,"station_id":"ce4bhap2rcd13ifvqek0","pricing_plan_id":"cebpf4jnsgd1na2vs0mg"},{"bike_id":"5028ba17-7b50-45f3-93b1-269967ba3efd","system_id":"levelo_inurba_marseille","lat":43.26401,"lon":5.41052,"is_reserved":false,"is_disabled":false,"rental_uris":{"android":"levelo://app?vid=5028ba17-7b50-45f3-93b1-269967ba3efd","ios":"levelo://app?vid=5028ba17-7b50-45f3-93b1-269967ba3efd"},"vehicle_type_id":"4","last_reported":1774255405,"current_range_meters":6400,"station_id":"st_d4e5ca6na9uc73bfl5fg","pricing_plan_id":"cebpf4jnsgd1na2vs0mg"},{"bike_id":"47e512d5-1878-4adf-80cb-1a328722cfab","system_id":"levelo_inurba_marseille","lat":43.313269,"lon":5.396816,"is_reserved":false,"is_disabled":false,"rental_uris":{"android":"levelo://app?vid=47e512d5-1878-4adf-80cb-1a328722cfab","ios":"levelo://app?vid=47e512d5-1878-4adf-80cb-1a328722cfab"},"vehicle_type_id":"4","last_reported":1774255405,"current_range_meters":6400,"station_id":"ce4bgvp2rcd13ifvqcu0","pricing_plan_id":"cebpf4jnsgd1na2vs0mg"},{"bike_id":"6f3fdbf9-917f-421d-aa86-02187d7ba65c","system_id":"levelo_inurba_marseille","lat":43.28476,"lon":5.48399,"is_reserved":false,"is_disabled":false,"rental_uris":{"android":"levelo://app?vid=6f3fdbf9-917f-421d-aa86-02187d7ba65c","ios":"levelo://app?vid=6f3fdbf9-917f-421d-aa86-02187d7ba65c"},"vehicle_type_id":"4","last_reported":1774255405,"current_range_meters":6400,"station_id":"st_d3svhcjqgbts73a3dn0g","pricing_plan_id":"cebpf4jnsgd1na2vs0mg"},{"bike_id":"617f3e0b-0796-44d9-a757-00a3bec45be0","system_id":"levelo_inurba_marseille","lat":43.306,"lon":5.37231,"is_reserved":false,"is_disabled":false,"rental_uris":{"android":"levelo://app?vid=617f3e0b-0796-44d9-a757-00a3bec45be0","ios":"levelo://app?vid=617f3e0b-0796-44d9-a757-00a3bec45be0"},"vehicle_type_id":"4","last_reported":1774255405,"current_range_meters":6400,"station_id":"ce4bgqh2rcd13ifvqc4g","pricing_plan_id":"cebpf4jnsgd1na2vs0mg"},{"bike_id":"b7ba0e58-bef0-47a7-bd3b-64bf72ecf131","system_id":"levelo_inurba_marseille","lat":43.32978,"lon":5.36677,"is_reserved":false,"is_disabled":false,"rental_uris":{"android":"levelo://app?vid=b7ba0e58-bef0-47a7-bd3b-64bf72ecf131","ios":"levelo://app?vid=b7ba0e58-bef0-47a7-bd3b-64bf72ecf131"},"vehicle_type_id":"4","last_reported":1774255405,"current_range_meters":6400,"station_id":"","pricing_plan_id":"cebpf4jnsgd1na2vs0mg"},{"bike_id":"9453e579-87d8-475b-9a7d-0c3671abf86b","system_id":"levelo_inurba_marseille","lat":43.321,"lon":5.36783,"is_reserved":false,"is_disabled":false,"rental_uris":{"android":"levelo://app?vid=9453e579-87d8-475b-9a7d-0c3671abf86b","ios":"levelo://app?vid=9453e579-87d8-475b-9a7d-0c3671abf86b"},"vehicle_type_id":"4","last_reported":1774255405,"current_range_meters":6800,"station_id":"ce4bhrh2rcd13ifvqhug","pricing_plan_id":"cebpf4jnsgd1na2vs0mg"},{"bike_id":"fd272130-c927-4158-bcb9-10b59182f14c","system_id":"levelo_inurba_marseille","lat":43.2897,"lon":5.37831,"is_reserved":false,"is_disabled":false,"rental_uris":{"android":"levelo://app?vid=fd272130-c927-4158-bcb9-10b59182f14c","ios":"levelo://app?vid=fd272130-c927-4158-bcb9-10b59182f14c"},"vehicle_type_id":"4","last_reported":1774255405,"current_range_meters":6800,"station_id":"ce4bh9p2rcd13ifvqed0","pricing_plan_id":"cebpf4jnsgd1na2vs0mg"},{"bike_id":"3eb2f1eb-3afb-4c52-a889-fba9ff58baff","system_id":"levelo_inurba_marseille","lat":43.29571,"lon":5.37507,"is_reserved":false,"is_disabled":false,"rental_uris":{"android":"levelo://app?vid=3eb2f1eb-3afb-4c52-a889-fba9ff58baff","ios":"levelo://app?vid=3eb2f1eb-3afb-4c52-a889-fba9ff58baff"},"vehicle_type_id":"4","last_reported":1774255405,"current_range_meters":6800,"station_id":"ce4bgh92rcd13ifvqb50","pricing_plan_id":"cebpf4jnsgd1na2vs0mg"},{"bike_id":"c014e25b-916c-4a5d-af7e-ac4159658caf","system_id":"levelo_inurba_marseille","lat":43.305483,"lon":5.367317,"is_reserved":false,"is_disabled":false,"rental_uris":{"android":"levelo://app?vid=c014e25b-916c-4a5d-af7e-ac4159658caf","ios":"levelo://app?vid=c014e25b-916c-4a5d-af7e-ac4159658caf"},"vehicle_type_id":"4","last_reported":1774255405,"current_range_meters":6800,"station_id":"st_d4a7ka997mjs738ck50g","pricing_plan_id":"cebpf4jnsgd1na2vs0mg"},{"bike_id":"c319c396-ded0-4613-96c4-014debe5887b","system_id":"levelo_inurba_marseille","lat":43.2668,"lon":5.38267,"is_reserved":false,"is_disabled":false,"rental_uris":{"android":"levelo://app?vid=c319c396-ded0-4613-96c4-014debe5887b","ios":"levelo://app?vid=c319c396-ded0-4613-96c4-014debe5887b"},"vehicle_type_id":"4","last_reported":1774255405,"current_range_meters":6800,"station_id":"ce4bhg92rcd13ifvqf90","pricing_plan_id":"cebpf4jnsgd1na2vs0mg"},{"bike_id":"11bb5a53-0116-4f22-8c60-badba7ab667b","system_id":"levelo_inurba_marseille","lat":43.23896,"lon":5.37472,"is_reserved":false,"is_disabled":true,"rental_uris":{"android":"levelo://app?vid=11bb5a53-0116-4f22-8c60-badba7ab667b","ios":"levelo://app?vid=11bb5a53-0116-4f22-8c60-badba7ab667b"},"vehicle_type_id":"4","last_reported":1774255405,"current_range_meters":7200,"station_id":"st_d6sm7csbq4hs73f8fpjg","pricing_plan_id":"cebpf4jnsgd1na2vs0mg"},{"bike_id":"1cb34757-0bff-4f1a-9192-1aa8e3e422a1","system_id":"levelo_inurba_marseille","lat":43.29599,"lon":5.36744,"is_reserved":false,"is_disabled":true,"rental_uris":{"android":"levelo://app?vid=1cb34757-0bff-4f1a-9192-1aa8e3e422a1","ios":"levelo://app?vid=1cb34757-0bff-4f1a-9192-1aa8e3e422a1"},"vehicle_type_id":"4","last_reported":1774255405,"current_range_meters":7200,"station_id":"ce4bgph2rcd13ifvqc2g","pricing_plan_id":"cebpf4jnsgd1na2vs0mg"},{"bike_id":"f9c57d50-832a-477c-9c7f-1e7c12d972b0","system_id":"levelo_inurba_marseille","lat":43.25084,"lon":5.39531,"is_reserved":false,"is_disabled":true,"rental_uris":{"android":"levelo://app?vid=f9c57d50-832a-477c-9c7f-1e7c12d972b0","ios":"levelo://app?vid=f9c57d50-832a-477c-9c7f-1e7c12d972b0"},"vehicle_type_id":"4","last_reported":1774255405,"current_range_meters":7200,"station_id":"ce4bhm12rcd13ifvqgkg","pricing_plan_id":"cebpf4jnsgd1na2vs0mg"},{"bike_id":"324b534a-5a66-48dd-a06b-a023356721c5","system_id":"levelo_inurba_marseille","lat":43.23888,"lon":5.37456,"is_reserved":false,"is_disabled":false,"rental_uris":{"android":"levelo://app?vid=324b534a-5a66-48dd-a06b-a023356721c5","ios":"levelo://app?vid=324b534a-5a66-48dd-a06b-a023356721c5"},"vehicle_type_id":"4","last_reported":1774255405,"current_range_meters":7200,"station_id":"st_d6sm7csbq4hs73f8fpjg","pricing_plan_id":"cebpf4jnsgd1na2vs0mg"},{"bike_id":"1468e695-5861-447c-af04-32b0bd11c0dd","system_id":"levelo_inurba_marseille","lat":43.30486,"lon":5.37904,"is_reserved":false,"is_disabled":false,"rental_uris":{"android":"levelo://app?vid=1468e695-5861-447c-af04-32b0bd11c0dd","ios":"levelo://app?vid=1468e695-5861-447c-af04-32b0bd11c0dd"},"vehicle_type_id":"4","last_reported":1774255405,"current_range_meters":7200,"station_id":"","pricing_plan_id":"cebpf4jnsgd1na2vs0mg"},{"bike_id":"0f88d6b7-883f-4b13-98ff-b1b3b7d422a5","system_id":"levelo_inurba_marseille","lat":43.2593,"lon":5.40901,"is_reserved":false,"is_disabled":true,"rental_uris":{"android":"levelo://app?vid=0f88d6b7-883f-4b13-98ff-b1b3b7d422a5","ios":"levelo://app?vid=0f88d6b7-883f-4b13-98ff-b1b3b7d422a5"},"vehicle_type_id":"4","last_reported":1774255405,"current_range_meters":7200,"station_id":"ce4bhm92rcd13ifvqglg","pricing_plan_id":"cebpf4jnsgd1na2vs0mg"},{"bike_id":"c02b37de-fbe5-405f-8d43-8dbb09d582de","system_id":"levelo_inurba_marseille","lat":43.29643,"lon":5.39814,"is_reserved":false,"is_disabled":false,"rental_uris":{"android":"levelo://app?vid=c02b37de-fbe5-405f-8d43-8dbb09d582de","ios":"levelo://app?vid=c02b37de-fbe5-405f-8d43-8dbb09d582de"},"vehicle_type_id":"4","last_reported":1774255405,"current_range_meters":7200,"station_id":"","pricing_plan_id":"cebpf4jnsgd1na2vs0mg"},{"bike_id":"462a1cdd-980f-4d75-accd-0f62886214c9","system_id":"levelo_inurba_marseille","lat":43.28212,"lon":5.40835,"is_reserved":false,"is_disabled":false,"rental_uris":{"android":"levelo://app?vid=462a1cdd-980f-4d75-accd-0f62886214c9","ios":"levelo://app?vid=462a1cdd-980f-4d75-accd-0f62886214c9"},"vehicle_type_id":"4","last_reported":1774255405,"current_range_meters":7200,"station_id":"","pricing_plan_id":"cebpf4jnsgd1na2vs0mg"},{"bike_id":"85d6ab11-5518-4ccd-91e4-dbdc93e9ebe9","system_id":"levelo_inurba_marseille","lat":43.2853,"lon":5.44093,"is_reserved":false,"is_disabled":false,"rental_uris":{"android":"levelo://app?vid=85d6ab11-5518-4ccd-91e4-dbdc93e9ebe9","ios":"levelo://app?vid=85d6ab11-5518-4ccd-91e4-dbdc93e9ebe9"},"vehicle_type_id":"4","last_reported":1774255405,"current_range_meters":7200,"station_id":"st_d3j3df2ikq2c7380ej80","pricing_plan_id":"cebpf4jnsgd1na2vs0mg"},{"bike_id":"19816687-f443-4a5d-b7aa-e3cfd2cb0259","system_id":"levelo_inurba_marseille","lat":43.31454,"lon":5.44544,"is_reserved":false,"is_disabled":false,"rental_uris":{"android":"levelo://app?vid=19816687-f443-4a5d-b7aa-e3cfd2cb0259","ios":"levelo://app?vid=19816687-f443-4a5d-b7aa-e3cfd2cb0259"},"vehicle_type_id":"4","last_reported":1774255405,"current_range_meters":8000,"station_id":"","pricing_plan_id":"cebpf4jnsgd1na2vs0mg"},{"bike_id":"7d0e7181-3a70-4370-9354-bef3948a92c8","system_id":"levelo_inurba_marseille","lat":43.29959,"lon":5.41327,"is_reserved":false,"is_disabled":false,"rental_uris":{"android":"levelo://app?vid=7d0e7181-3a70-4370-9354-bef3948a92c8","ios":"levelo://app?vid=7d0e7181-3a70-4370-9354-bef3948a92c8"},"vehicle_type_id":"4","last_reported":1774255405,"current_range_meters":8000,"station_id":"ce4bhp12rcd13ifvqh9g","pricing_plan_id":"cebpf4jnsgd1na2vs0mg"},{"bike_id":"e9abe7b9-09ba-4dfb-a8aa-146a432eb13f","system_id":"levelo_inurba_marseille","lat":43.31708,"lon":5.4371,"is_reserved":false,"is_disabled":false,"rental_uris":{"android":"levelo://app?vid=e9abe7b9-09ba-4dfb-a8aa-146a432eb13f","ios":"levelo://app?vid=e9abe7b9-09ba-4dfb-a8aa-146a432eb13f"},"vehicle_type_id":"4","last_reported":1774255405,"current_range_meters":8000,"station_id":"ce4bhp92rcd13ifvqhcg","pricing_plan_id":"cebpf4jnsgd1na2vs0mg"},{"bike_id":"5986e308-401d-4d25-8c0b-1810717c4afd","system_id":"levelo_inurba_marseille","lat":43.27051,"lon":5.40269,"is_reserved":false,"is_disabled":false,"rental_uris":{"android":"levelo://app?vid=5986e308-401d-4d25-8c0b-1810717c4afd","ios":"levelo://app?vid=5986e308-401d-4d25-8c0b-1810717c4afd"},"vehicle_type_id":"4","last_reported":1774255405,"current_range_meters":8000,"station_id":"ce4bhk92rcd13ifvqgc0","pricing_plan_id":"cebpf4jnsgd1na2vs0mg"},{"bike_id":"6d8d09fd-043e-40dd-92de-c6d036fa5ea9","system_id":"levelo_inurba_marseille","lat":43.28911,"lon":5.38375,"is_reserved":false,"is_disabled":true,"rental_uris":{"android":"levelo://app?vid=6d8d09fd-043e-40dd-92de-c6d036fa5ea9","ios":"levelo://app?vid=6d8d09fd-043e-40dd-92de-c6d036fa5ea9"},"vehicle_type_id":"4","last_reported":1774255405,"current_range_meters":8000,"station_id":"ce4bh612rcd13ifvqe6g","pricing_plan_id":"cebpf4jnsgd1na2vs0mg"},{"bike_id":"8310aa65-ac67-4592-b812-f63970cb0af3","system_id":"levelo_inurba_marseille","lat":43.32112,"lon":5.36782,"is_reserved":false,"is_disabled":false,"rental_uris":{"android":"levelo://app?vid=8310aa65-ac67-4592-b812-f63970cb0af3","ios":"levelo://app?vid=8310aa65-ac67-4592-b812-f63970cb0af3"},"vehicle_type_id":"4","last_reported":1774255405,"current_range_meters":8000,"station_id":"ce4bhrh2rcd13ifvqhug","pricing_plan_id":"cebpf4jnsgd1na2vs0mg"},{"bike_id":"0209d106-1ff2-473b-a452-9536b05c02ee","system_id":"levelo_inurba_marseille","lat":43.24979,"lon":5.38932,"is_reserved":false,"is_disabled":false,"rental_uris":{"android":"levelo://app?vid=0209d106-1ff2-473b-a452-9536b05c02ee","ios":"levelo://app?vid=0209d106-1ff2-473b-a452-9536b05c02ee"},"vehicle_type_id":"4","last_reported":1774255405,"current_range_meters":8000,"station_id":"ce4bhgp2rcd13ifvqfd0","pricing_plan_id":"cebpf4jnsgd1na2vs0mg"},{"bike_id":"ffb98fb8-da98-43fb-9eac-ddb2ee1141c2","system_id":"levelo_inurba_marseille","lat":43.24632,"lon":5.41664,"is_reserved":false,"is_disabled":false,"rental_uris":{"android":"levelo://app?vid=ffb98fb8-da98-43fb-9eac-ddb2ee1141c2","ios":"levelo://app?vid=ffb98fb8-da98-43fb-9eac-ddb2ee1141c2"},"vehicle_type_id":"4","last_reported":1774255405,"current_range_meters":8000,"station_id":"","pricing_plan_id":"cebpf4jnsgd1na2vs0mg"},{"bike_id":"b044a4d1-3370-4e1e-b498-4fd04daa337d","system_id":"levelo_inurba_marseille","lat":43.2536,"lon":5.42179,"is_reserved":false,"is_disabled":true,"rental_uris":{"android":"levelo://app?vid=b044a4d1-3370-4e1e-b498-4fd04daa337d","ios":"levelo://app?vid=b044a4d1-3370-4e1e-b498-4fd04daa337d"},"vehicle_type_id":"4","last_reported":1774255405,"current_range_meters":8000,"station_id":"st_d2m65c5bi1j21697t3ng","pricing_plan_id":"cebpf4jnsgd1na2vs0mg"},{"bike_id":"bfb0634b-6d12-40ea-bdce-9a82a42412aa","system_id":"levelo_inurba_marseille","lat":43.28697,"lon":5.46671,"is_reserved":false,"is_disabled":false,"rental_uris":{"android":"levelo://app?vid=bfb0634b-6d12-40ea-bdce-9a82a42412aa","ios":"levelo://app?vid=bfb0634b-6d12-40ea-bdce-9a82a42412aa"},"vehicle_type_id":"4","last_reported":1774255405,"current_range_meters":8000,"station_id":"st_d6tc3vkotcvc738tfjhg","pricing_plan_id":"cebpf4jnsgd1na2vs0mg"},{"bike_id":"4a3f9282-9eb4-4064-9268-3f2f0c3a3be3","system_id":"levelo_inurba_marseille","lat":43.311202,"lon":5.377716,"is_reserved":false,"is_disabled":true,"rental_uris":{"android":"levelo://app?vid=4a3f9282-9eb4-4064-9268-3f2f0c3a3be3","ios":"levelo://app?vid=4a3f9282-9eb4-4064-9268-3f2f0c3a3be3"},"vehicle_type_id":"4","last_reported":1774255405,"current_range_meters":8000,"station_id":"ce4bgr92rcd13ifvqc6g","pricing_plan_id":"cebpf4jnsgd1na2vs0mg"},{"bike_id":"b4e3c67c-f90b-4df3-b77f-027a1e987b93","system_id":"levelo_inurba_marseille","lat":43.30964,"lon":5.39037,"is_reserved":false,"is_disabled":false,"rental_uris":{"android":"levelo://app?vid=b4e3c67c-f90b-4df3-b77f-027a1e987b93","ios":"levelo://app?vid=b4e3c67c-f90b-4df3-b77f-027a1e987b93"},"vehicle_type_id":"4","last_reported":1774255405,"current_range_meters":8000,"station_id":"ce4bgup2rcd13ifvqco0","pricing_plan_id":"cebpf4jnsgd1na2vs0mg"},{"bike_id":"67e67001-80d5-4cc7-aa6f-c499ffe5f745","system_id":"levelo_inurba_marseille","lat":43.27972,"lon":5.40023,"is_reserved":false,"is_disabled":true,"rental_uris":{"android":"levelo://app?vid=67e67001-80d5-4cc7-aa6f-c499ffe5f745","ios":"levelo://app?vid=67e67001-80d5-4cc7-aa6f-c499ffe5f745"},"vehicle_type_id":"4","last_reported":1774255405,"current_range_meters":8000,"station_id":"ce4bho92rcd13ifvqh4g","pricing_plan_id":"cebpf4jnsgd1na2vs0mg"},{"bike_id":"ad21c532-5cad-4447-bcad-7b36c46cde3c","system_id":"levelo_inurba_marseille","lat":43.30554,"lon":5.36692,"is_reserved":false,"is_disabled":false,"rental_uris":{"android":"levelo://app?vid=ad21c532-5cad-4447-bcad-7b36c46cde3c","ios":"levelo://app?vid=ad21c532-5cad-4447-bcad-7b36c46cde3c"},"vehicle_type_id":"4","last_reported":1774255405,"current_range_meters":8000,"station_id":"ce4bgrp2rcd13ifvqc9g","pricing_plan_id":"cebpf4jnsgd1na2vs0mg"},{"bike_id":"c01d59f6-c28c-4580-85cb-2166e83480a9","system_id":"levelo_inurba_marseille","lat":43.30133,"lon":5.3879,"is_reserved":false,"is_disabled":true,"rental_uris":{"android":"levelo://app?vid=c01d59f6-c28c-4580-85cb-2166e83480a9","ios":"levelo://app?vid=c01d59f6-c28c-4580-85cb-2166e83480a9"},"vehicle_type_id":"4","last_reported":1774255405,"current_range_meters":8400,"station_id":"ce4bghh2rcd13ifvqb60","pricing_plan_id":"cebpf4jnsgd1na2vs0mg"},{"bike_id":"aa237c62-8f60-457a-9efa-b3fbcb7af5f7","system_id":"levelo_inurba_marseille","lat":43.27503,"lon":5.41575,"is_reserved":false,"is_disabled":false,"rental_uris":{"android":"levelo://app?vid=aa237c62-8f60-457a-9efa-b3fbcb7af5f7","ios":"levelo://app?vid=aa237c62-8f60-457a-9efa-b3fbcb7af5f7"},"vehicle_type_id":"4","last_reported":1774255405,"current_range_meters":8400,"station_id":"st_d6im8g6chgec73a5pndg","pricing_plan_id":"cebpf4jnsgd1na2vs0mg"},{"bike_id":"8c1c8195-ea4b-4bdc-adcb-ba3b3fad322f","system_id":"levelo_inurba_marseille","lat":43.28703,"lon":5.46686,"is_reserved":false,"is_disabled":false,"rental_uris":{"android":"levelo://app?vid=8c1c8195-ea4b-4bdc-adcb-ba3b3fad322f","ios":"levelo://app?vid=8c1c8195-ea4b-4bdc-adcb-ba3b3fad322f"},"vehicle_type_id":"4","last_reported":1774255405,"current_range_meters":8400,"station_id":"st_d6tc3vkotcvc738tfjhg","pricing_plan_id":"cebpf4jnsgd1na2vs0mg"},{"bike_id":"da454263-2967-4a4d-b266-9c2165d924e8","system_id":"levelo_inurba_marseille","lat":43.29587,"lon":5.39948,"is_reserved":false,"is_disabled":true,"rental_uris":{"android":"levelo://app?vid=da454263-2967-4a4d-b266-9c2165d924e8","ios":"levelo://app?vid=da454263-2967-4a4d-b266-9c2165d924e8"},"vehicle_type_id":"4","last_reported":1774255405,"current_range_meters":8400,"station_id":"ce4bh312rcd13ifvqdj0","pricing_plan_id":"cebpf4jnsgd1na2vs0mg"},{"bike_id":"29f49a32-ba08-40ef-839e-89650b416d04","system_id":"levelo_inurba_marseille","lat":43.31033,"lon":5.37883,"is_reserved":false,"is_disabled":false,"rental_uris":{"android":"levelo://app?vid=29f49a32-ba08-40ef-839e-89650b416d04","ios":"levelo://app?vid=29f49a32-ba08-40ef-839e-89650b416d04"},"vehicle_type_id":"4","last_reported":1774255405,"current_range_meters":8400,"station_id":"","pricing_plan_id":"cebpf4jnsgd1na2vs0mg"},{"bike_id":"01408631-542f-4416-b793-8c09827eec32","system_id":"levelo_inurba_marseille","lat":43.29848,"lon":5.36288,"is_reserved":false,"is_disabled":false,"rental_uris":{"android":"levelo://app?vid=01408631-542f-4416-b793-8c09827eec32","ios":"levelo://app?vid=01408631-542f-4416-b793-8c09827eec32"},"vehicle_type_id":"4","last_reported":1774255405,"current_range_meters":8400,"station_id":"ce4bgpp2rcd13ifvqc3g","pricing_plan_id":"cebpf4jnsgd1na2vs0mg"},{"bike_id":"0bcf1425-a782-4131-8255-c0539bd0be29","system_id":"levelo_inurba_marseille","lat":43.31234,"lon":5.36829,"is_reserved":false,"is_disabled":false,"rental_uris":{"android":"levelo://app?vid=0bcf1425-a782-4131-8255-c0539bd0be29","ios":"levelo://app?vid=0bcf1425-a782-4131-8255-c0539bd0be29"},"vehicle_type_id":"4","last_reported":1774255405,"current_range_meters":8400,"station_id":"ce4bgl92rcd13ifvqbq0","pricing_plan_id":"cebpf4jnsgd1na2vs0mg"},{"bike_id":"bafc255f-f570-4b03-a1ea-14f1ea1a31cf","system_id":"levelo_inurba_marseille","lat":43.31248,"lon":5.36833,"is_reserved":false,"is_disabled":false,"rental_uris":{"android":"levelo://app?vid=bafc255f-f570-4b03-a1ea-14f1ea1a31cf","ios":"levelo://app?vid=bafc255f-f570-4b03-a1ea-14f1ea1a31cf"},"vehicle_type_id":"4","last_reported":1774255405,"current_range_meters":8400,"station_id":"ce4bgl92rcd13ifvqbq0","pricing_plan_id":"cebpf4jnsgd1na2vs0mg"},{"bike_id":"6979a6fb-10a0-43cf-8c47-6569f8ddef35","system_id":"levelo_inurba_marseille","lat":43.32116,"lon":5.36797,"is_reserved":false,"is_disabled":false,"rental_uris":{"android":"levelo://app?vid=6979a6fb-10a0-43cf-8c47-6569f8ddef35","ios":"levelo://app?vid=6979a6fb-10a0-43cf-8c47-6569f8ddef35"},"vehicle_type_id":"4","last_reported":1774255405,"current_range_meters":8400,"station_id":"ce4bhrh2rcd13ifvqhug","pricing_plan_id":"cebpf4jnsgd1na2vs0mg"},{"bike_id":"6a361988-483c-4fea-b668-fae45fefb959","system_id":"levelo_inurba_marseille","lat":43.32108,"lon":5.36772,"is_reserved":false,"is_disabled":false,"rental_uris":{"android":"levelo://app?vid=6a361988-483c-4fea-b668-fae45fefb959","ios":"levelo://app?vid=6a361988-483c-4fea-b668-fae45fefb959"},"vehicle_type_id":"4","last_reported":1774255405,"current_range_meters":8800,"station_id":"ce4bhrh2rcd13ifvqhug","pricing_plan_id":"cebpf4jnsgd1na2vs0mg"},{"bike_id":"a9fcd02c-7b6b-4ad8-a39d-d88606ee3ac0","system_id":"levelo_inurba_marseille","lat":43.25005,"lon":5.3891,"is_reserved":false,"is_disabled":true,"rental_uris":{"android":"levelo://app?vid=a9fcd02c-7b6b-4ad8-a39d-d88606ee3ac0","ios":"levelo://app?vid=a9fcd02c-7b6b-4ad8-a39d-d88606ee3ac0"},"vehicle_type_id":"4","last_reported":1774255405,"current_range_meters":8800,"station_id":"ce4bhgp2rcd13ifvqfd0","pricing_plan_id":"cebpf4jnsgd1na2vs0mg"},{"bike_id":"1d0f3067-7ca2-4fbd-8b40-b921c6748a4a","system_id":"levelo_inurba_marseille","lat":43.28473,"lon":5.48386,"is_reserved":false,"is_disabled":false,"rental_uris":{"android":"levelo://app?vid=1d0f3067-7ca2-4fbd-8b40-b921c6748a4a","ios":"levelo://app?vid=1d0f3067-7ca2-4fbd-8b40-b921c6748a4a"},"vehicle_type_id":"4","last_reported":1774255405,"current_range_meters":8800,"station_id":"","pricing_plan_id":"cebpf4jnsgd1na2vs0mg"},{"bike_id":"b9b8140a-3f40-4142-9fbe-f8ad688546b9","system_id":"levelo_inurba_marseille","lat":43.27066,"lon":5.383,"is_reserved":false,"is_disabled":false,"rental_uris":{"android":"levelo://app?vid=b9b8140a-3f40-4142-9fbe-f8ad688546b9","ios":"levelo://app?vid=b9b8140a-3f40-4142-9fbe-f8ad688546b9"},"vehicle_type_id":"4","last_reported":1774255405,"current_range_meters":8800,"station_id":"st_d3n2fo6cfp8s73cte1j0","pricing_plan_id":"cebpf4jnsgd1na2vs0mg"},{"bike_id":"976e595c-88b1-4f7c-a5b9-8ef6bed8c12a","system_id":"levelo_inurba_marseille","lat":43.26379,"lon":5.41053,"is_reserved":false,"is_disabled":false,"rental_uris":{"android":"levelo://app?vid=976e595c-88b1-4f7c-a5b9-8ef6bed8c12a","ios":"levelo://app?vid=976e595c-88b1-4f7c-a5b9-8ef6bed8c12a"},"vehicle_type_id":"4","last_reported":1774255405,"current_range_meters":8800,"station_id":"st_d4e5ca6na9uc73bfl5fg","pricing_plan_id":"cebpf4jnsgd1na2vs0mg"},{"bike_id":"bbb20be4-a4e3-4756-bf9e-de6efa0abbb9","system_id":"levelo_inurba_marseille","lat":43.29247,"lon":5.42596,"is_reserved":false,"is_disabled":false,"rental_uris":{"android":"levelo://app?vid=bbb20be4-a4e3-4756-bf9e-de6efa0abbb9","ios":"levelo://app?vid=bbb20be4-a4e3-4756-bf9e-de6efa0abbb9"},"vehicle_type_id":"4","last_reported":1774255405,"current_range_meters":8800,"station_id":"","pricing_plan_id":"cebpf4jnsgd1na2vs0mg"},{"bike_id":"f554888c-9515-430c-b3e9-327a4cc15db0","system_id":"levelo_inurba_marseille","lat":43.2964,"lon":5.42423,"is_reserved":false,"is_disabled":false,"rental_uris":{"android":"levelo://app?vid=f554888c-9515-430c-b3e9-327a4cc15db0","ios":"levelo://app?vid=f554888c-9515-430c-b3e9-327a4cc15db0"},"vehicle_type_id":"4","last_reported":1774255405,"current_range_meters":8800,"station_id":"","pricing_plan_id":"cebpf4jnsgd1na2vs0mg"},{"bike_id":"16bbeb22-0cd7-4868-bd10-6b421b5f52a3","system_id":"levelo_inurba_marseille","lat":43.29581,"lon":5.37521,"is_reserved":false,"is_disabled":false,"rental_uris":{"android":"levelo://app?vid=16bbeb22-0cd7-4868-bd10-6b421b5f52a3","ios":"levelo://app?vid=16bbeb22-0cd7-4868-bd10-6b421b5f52a3"},"vehicle_type_id":"4","last_reported":1774255405,"current_range_meters":8800,"station_id":"ce4bgh92rcd13ifvqb50","pricing_plan_id":"cebpf4jnsgd1na2vs0mg"},{"bike_id":"c0ede030-ab9a-4615-a9c7-01479ac5ac50","system_id":"levelo_inurba_marseille","lat":43.26692,"lon":5.38271,"is_reserved":false,"is_disabled":true,"rental_uris":{"android":"levelo://app?vid=c0ede030-ab9a-4615-a9c7-01479ac5ac50","ios":"levelo://app?vid=c0ede030-ab9a-4615-a9c7-01479ac5ac50"},"vehicle_type_id":"4","last_reported":1774255405,"current_range_meters":8800,"station_id":"ce4bhg92rcd13ifvqf90","pricing_plan_id":"cebpf4jnsgd1na2vs0mg"},{"bike_id":"edaa494a-4360-47b4-975b-ccf6d6b743ca","system_id":"levelo_inurba_marseille","lat":43.29606,"lon":5.36553,"is_reserved":false,"is_disabled":false,"rental_uris":{"android":"levelo://app?vid=edaa494a-4360-47b4-975b-ccf6d6b743ca","ios":"levelo://app?vid=edaa494a-4360-47b4-975b-ccf6d6b743ca"},"vehicle_type_id":"4","last_reported":1774255405,"current_range_meters":8800,"station_id":"","pricing_plan_id":"cebpf4jnsgd1na2vs0mg"},{"bike_id":"0db4ac49-fcf3-461c-9fa4-dcadad77be36","system_id":"levelo_inurba_marseille","lat":43.33606,"lon":5.41031,"is_reserved":false,"is_disabled":false,"rental_uris":{"android":"levelo://app?vid=0db4ac49-fcf3-461c-9fa4-dcadad77be36","ios":"levelo://app?vid=0db4ac49-fcf3-461c-9fa4-dcadad77be36"},"vehicle_type_id":"4","last_reported":1774255405,"current_range_meters":8800,"station_id":"ce4bhqh2rcd13ifvqhmg","pricing_plan_id":"cebpf4jnsgd1na2vs0mg"},{"bike_id":"dc4338ee-efeb-4b27-905c-a93d68ba89e8","system_id":"levelo_inurba_marseille","lat":43.25928,"lon":5.40919,"is_reserved":false,"is_disabled":false,"rental_uris":{"android":"levelo://app?vid=dc4338ee-efeb-4b27-905c-a93d68ba89e8","ios":"levelo://app?vid=dc4338ee-efeb-4b27-905c-a93d68ba89e8"},"vehicle_type_id":"4","last_reported":1774255405,"current_range_meters":8800,"station_id":"ce4bhm92rcd13ifvqglg","pricing_plan_id":"cebpf4jnsgd1na2vs0mg"},{"bike_id":"87cab354-e36c-4dc9-949d-1832434988fa","system_id":"levelo_inurba_marseille","lat":43.31299,"lon":5.38414,"is_reserved":false,"is_disabled":false,"rental_uris":{"android":"levelo://app?vid=87cab354-e36c-4dc9-949d-1832434988fa","ios":"levelo://app?vid=87cab354-e36c-4dc9-949d-1832434988fa"},"vehicle_type_id":"4","last_reported":1774255405,"current_range_meters":8800,"station_id":"","pricing_plan_id":"cebpf4jnsgd1na2vs0mg"},{"bike_id":"fcade1c8-56bf-46fe-a2c2-d4e3b3dbceae","system_id":"levelo_inurba_marseille","lat":43.31256,"lon":5.36838,"is_reserved":false,"is_disabled":false,"rental_uris":{"android":"levelo://app?vid=fcade1c8-56bf-46fe-a2c2-d4e3b3dbceae","ios":"levelo://app?vid=fcade1c8-56bf-46fe-a2c2-d4e3b3dbceae"},"vehicle_type_id":"4","last_reported":1774255405,"current_range_meters":8800,"station_id":"ce4bgl92rcd13ifvqbq0","pricing_plan_id":"cebpf4jnsgd1na2vs0mg"},{"bike_id":"4d88734a-162e-4307-92a3-61e5ee7aa63f","system_id":"levelo_inurba_marseille","lat":43.29205,"lon":5.42586,"is_reserved":false,"is_disabled":false,"rental_uris":{"android":"levelo://app?vid=4d88734a-162e-4307-92a3-61e5ee7aa63f","ios":"levelo://app?vid=4d88734a-162e-4307-92a3-61e5ee7aa63f"},"vehicle_type_id":"4","last_reported":1774255405,"current_range_meters":8800,"station_id":"","pricing_plan_id":"cebpf4jnsgd1na2vs0mg"},{"bike_id":"d89b1915-483d-4d09-b44a-47b8df915eef","system_id":"levelo_inurba_marseille","lat":43.23091,"lon":5.3549,"is_reserved":false,"is_disabled":false,"rental_uris":{"android":"levelo://app?vid=d89b1915-483d-4d09-b44a-47b8df915eef","ios":"levelo://app?vid=d89b1915-483d-4d09-b44a-47b8df915eef"},"vehicle_type_id":"4","last_reported":1774255405,"current_range_meters":8800,"station_id":"cpo3342slgdg3j2ifvpg","pricing_plan_id":"cebpf4jnsgd1na2vs0mg"},{"bike_id":"c1af2eca-cb1d-451f-a2e9-025bc5e4557d","system_id":"levelo_inurba_marseille","lat":43.302,"lon":5.366,"is_reserved":false,"is_disabled":false,"rental_uris":{"android":"levelo://app?vid=c1af2eca-cb1d-451f-a2e9-025bc5e4557d","ios":"levelo://app?vid=c1af2eca-cb1d-451f-a2e9-025bc5e4557d"},"vehicle_type_id":"4","last_reported":1774255405,"current_range_meters":8800,"station_id":"ce4bgrh2rcd13ifvqc8g","pricing_plan_id":"cebpf4jnsgd1na2vs0mg"},{"bike_id":"b537dc5a-120e-4eaa-b083-34362b649c7f","system_id":"levelo_inurba_marseille","lat":43.30135,"lon":5.39864,"is_reserved":false,"is_disabled":true,"rental_uris":{"android":"levelo://app?vid=b537dc5a-120e-4eaa-b083-34362b649c7f","ios":"levelo://app?vid=b537dc5a-120e-4eaa-b083-34362b649c7f"},"vehicle_type_id":"4","last_reported":1774255405,"current_range_meters":9200,"station_id":"ce4bh0h2rcd13ifvqd40","pricing_plan_id":"cebpf4jnsgd1na2vs0mg"},{"bike_id":"c22725b4-9ea3-4b53-a2e5-b6027b014749","system_id":"levelo_inurba_marseille","lat":43.29254,"lon":5.40896,"is_reserved":false,"is_disabled":false,"rental_uris":{"android":"levelo://app?vid=c22725b4-9ea3-4b53-a2e5-b6027b014749","ios":"levelo://app?vid=c22725b4-9ea3-4b53-a2e5-b6027b014749"},"vehicle_type_id":"4","last_reported":1774255405,"current_range_meters":9200,"station_id":"ce4bh192rcd13ifvqdc0","pricing_plan_id":"cebpf4jnsgd1na2vs0mg"},{"bike_id":"7d57cb77-2191-40c3-b57a-baa532486115","system_id":"levelo_inurba_marseille","lat":43.26569,"lon":5.38993,"is_reserved":false,"is_disabled":true,"rental_uris":{"android":"levelo://app?vid=7d57cb77-2191-40c3-b57a-baa532486115","ios":"levelo://app?vid=7d57cb77-2191-40c3-b57a-baa532486115"},"vehicle_type_id":"4","last_reported":1774255405,"current_range_meters":9200,"station_id":"ce4bhe12rcd13ifvqf30","pricing_plan_id":"cebpf4jnsgd1na2vs0mg"},{"bike_id":"62e6ad63-f8ab-424d-a647-4590518900b9","system_id":"levelo_inurba_marseille","lat":43.26677,"lon":5.38275,"is_reserved":false,"is_disabled":false,"rental_uris":{"android":"levelo://app?vid=62e6ad63-f8ab-424d-a647-4590518900b9","ios":"levelo://app?vid=62e6ad63-f8ab-424d-a647-4590518900b9"},"vehicle_type_id":"4","last_reported":1774255405,"current_range_meters":9200,"station_id":"ce4bhg92rcd13ifvqf90","pricing_plan_id":"cebpf4jnsgd1na2vs0mg"},{"bike_id":"e41c893a-4032-48f3-bf3a-8efcbfe1465c","system_id":"levelo_inurba_marseille","lat":43.25833,"lon":5.39447,"is_reserved":false,"is_disabled":true,"rental_uris":{"android":"levelo://app?vid=e41c893a-4032-48f3-bf3a-8efcbfe1465c","ios":"levelo://app?vid=e41c893a-4032-48f3-bf3a-8efcbfe1465c"},"vehicle_type_id":"4","last_reported":1774255405,"current_range_meters":9200,"station_id":"ce4bhip2rcd13ifvqft0","pricing_plan_id":"cebpf4jnsgd1na2vs0mg"},{"bike_id":"9ab74394-56f3-484b-8bb9-1bd5f661fe28","system_id":"levelo_inurba_marseille","lat":43.28966,"lon":5.37857,"is_reserved":false,"is_disabled":true,"rental_uris":{"android":"levelo://app?vid=9ab74394-56f3-484b-8bb9-1bd5f661fe28","ios":"levelo://app?vid=9ab74394-56f3-484b-8bb9-1bd5f661fe28"},"vehicle_type_id":"4","last_reported":1774255405,"current_range_meters":9200,"station_id":"ce4bh9p2rcd13ifvqed0","pricing_plan_id":"cebpf4jnsgd1na2vs0mg"},{"bike_id":"5cca4b32-612b-471f-a02d-66912cbe70ff","system_id":"levelo_inurba_marseille","lat":43.21113,"lon":5.35017,"is_reserved":false,"is_disabled":true,"rental_uris":{"android":"levelo://app?vid=5cca4b32-612b-471f-a02d-66912cbe70ff","ios":"levelo://app?vid=5cca4b32-612b-471f-a02d-66912cbe70ff"},"vehicle_type_id":"4","last_reported":1774255405,"current_range_meters":9200,"station_id":"","pricing_plan_id":"cebpf4jnsgd1na2vs0mg"},{"bike_id":"72999db3-62c4-4d6b-9c7f-3129997c7dc6","system_id":"levelo_inurba_marseille","lat":43.28133,"lon":5.40954,"is_reserved":false,"is_disabled":false,"rental_uris":{"android":"levelo://app?vid=72999db3-62c4-4d6b-9c7f-3129997c7dc6","ios":"levelo://app?vid=72999db3-62c4-4d6b-9c7f-3129997c7dc6"},"vehicle_type_id":"4","last_reported":1774255405,"current_range_meters":9200,"station_id":"","pricing_plan_id":"cebpf4jnsgd1na2vs0mg"},{"bike_id":"193bce28-fa90-4f40-bbcb-d2de6628a478","system_id":"levelo_inurba_marseille","lat":43.30496,"lon":5.37896,"is_reserved":false,"is_disabled":false,"rental_uris":{"android":"levelo://app?vid=193bce28-fa90-4f40-bbcb-d2de6628a478","ios":"levelo://app?vid=193bce28-fa90-4f40-bbcb-d2de6628a478"},"vehicle_type_id":"4","last_reported":1774255405,"current_range_meters":9200,"station_id":"","pricing_plan_id":"cebpf4jnsgd1na2vs0mg"},{"bike_id":"3447cb79-bcea-4e0e-a6e2-fb4871ba01b4","system_id":"levelo_inurba_marseille","lat":43.24718,"lon":5.39243,"is_reserved":false,"is_disabled":false,"rental_uris":{"android":"levelo://app?vid=3447cb79-bcea-4e0e-a6e2-fb4871ba01b4","ios":"levelo://app?vid=3447cb79-bcea-4e0e-a6e2-fb4871ba01b4"},"vehicle_type_id":"4","last_reported":1774255405,"current_range_meters":9200,"station_id":"","pricing_plan_id":"cebpf4jnsgd1na2vs0mg"},{"bike_id":"f910acab-e234-4475-91c9-ec3fea6d1bf3","system_id":"levelo_inurba_marseille","lat":43.29896,"lon":5.43658,"is_reserved":false,"is_disabled":false,"rental_uris":{"android":"levelo://app?vid=f910acab-e234-4475-91c9-ec3fea6d1bf3","ios":"levelo://app?vid=f910acab-e234-4475-91c9-ec3fea6d1bf3"},"vehicle_type_id":"4","last_reported":1774255405,"current_range_meters":9600,"station_id":"ce4bhpp2rcd13ifvqhfg","pricing_plan_id":"cebpf4jnsgd1na2vs0mg"},{"bike_id":"67848c75-4172-4111-b1c5-e28e5d5a11e6","system_id":"levelo_inurba_marseille","lat":43.30959,"lon":5.39026,"is_reserved":false,"is_disabled":false,"rental_uris":{"android":"levelo://app?vid=67848c75-4172-4111-b1c5-e28e5d5a11e6","ios":"levelo://app?vid=67848c75-4172-4111-b1c5-e28e5d5a11e6"},"vehicle_type_id":"4","last_reported":1774255405,"current_range_meters":9600,"station_id":"ce4bgup2rcd13ifvqco0","pricing_plan_id":"cebpf4jnsgd1na2vs0mg"},{"bike_id":"53410926-52e7-418d-9bc3-bd6e5425754b","system_id":"levelo_inurba_marseille","lat":43.29246,"lon":5.40892,"is_reserved":false,"is_disabled":false,"rental_uris":{"android":"levelo://app?vid=53410926-52e7-418d-9bc3-bd6e5425754b","ios":"levelo://app?vid=53410926-52e7-418d-9bc3-bd6e5425754b"},"vehicle_type_id":"4","last_reported":1774255405,"current_range_meters":9600,"station_id":"ce4bh192rcd13ifvqdc0","pricing_plan_id":"cebpf4jnsgd1na2vs0mg"},{"bike_id":"96201215-f19d-4cb6-b417-f98daeb8da6a","system_id":"levelo_inurba_marseille","lat":43.3203,"lon":5.41578,"is_reserved":false,"is_disabled":true,"rental_uris":{"android":"levelo://app?vid=96201215-f19d-4cb6-b417-f98daeb8da6a","ios":"levelo://app?vid=96201215-f19d-4cb6-b417-f98daeb8da6a"},"vehicle_type_id":"4","last_reported":1774255405,"current_range_meters":9600,"station_id":"ce4bhq92rcd13ifvqhkg","pricing_plan_id":"cebpf4jnsgd1na2vs0mg"},{"bike_id":"daa92092-fa3c-40dd-873e-1bdb49edd140","system_id":"levelo_inurba_marseille","lat":43.3115,"lon":5.37772,"is_reserved":false,"is_disabled":false,"rental_uris":{"android":"levelo://app?vid=daa92092-fa3c-40dd-873e-1bdb49edd140","ios":"levelo://app?vid=daa92092-fa3c-40dd-873e-1bdb49edd140"},"vehicle_type_id":"4","last_reported":1774255405,"current_range_meters":9600,"station_id":"ce4bgt92rcd13ifvqcg0","pricing_plan_id":"cebpf4jnsgd1na2vs0mg"},{"bike_id":"e170ef5d-9bf7-4819-b73c-64a65fb50f3b","system_id":"levelo_inurba_marseille","lat":43.24077,"lon":5.37751,"is_reserved":false,"is_disabled":false,"rental_uris":{"android":"levelo://app?vid=e170ef5d-9bf7-4819-b73c-64a65fb50f3b","ios":"levelo://app?vid=e170ef5d-9bf7-4819-b73c-64a65fb50f3b"},"vehicle_type_id":"4","last_reported":1774255405,"current_range_meters":9600,"station_id":"ce4bhnp2rcd13ifvqgvg","pricing_plan_id":"cebpf4jnsgd1na2vs0mg"},{"bike_id":"113bdd0b-34d4-40b5-8f93-c39528d91365","system_id":"levelo_inurba_marseille","lat":43.29721,"lon":5.37874,"is_reserved":false,"is_disabled":false,"rental_uris":{"android":"levelo://app?vid=113bdd0b-34d4-40b5-8f93-c39528d91365","ios":"levelo://app?vid=113bdd0b-34d4-40b5-8f93-c39528d91365"},"vehicle_type_id":"4","last_reported":1774255405,"current_range_meters":9600,"station_id":"ce4bgh92rcd13ifvqb50","pricing_plan_id":"cebpf4jnsgd1na2vs0mg"},{"bike_id":"29fff00a-5aa2-43e2-850f-3499802f9339","system_id":"levelo_inurba_marseille","lat":43.30146,"lon":5.38066,"is_reserved":false,"is_disabled":false,"rental_uris":{"android":"levelo://app?vid=29fff00a-5aa2-43e2-850f-3499802f9339","ios":"levelo://app?vid=29fff00a-5aa2-43e2-850f-3499802f9339"},"vehicle_type_id":"4","last_reported":1774255405,"current_range_meters":9600,"station_id":"ce4bgjp2rcd13ifvqbh0","pricing_plan_id":"cebpf4jnsgd1na2vs0mg"},{"bike_id":"ec96a519-7590-4811-b590-59ad03b7daed","system_id":"levelo_inurba_marseille","lat":43.25938,"lon":5.40907,"is_reserved":false,"is_disabled":false,"rental_uris":{"android":"levelo://app?vid=ec96a519-7590-4811-b590-59ad03b7daed","ios":"levelo://app?vid=ec96a519-7590-4811-b590-59ad03b7daed"},"vehicle_type_id":"4","last_reported":1774255405,"current_range_meters":9600,"station_id":"ce4bhm92rcd13ifvqglg","pricing_plan_id":"cebpf4jnsgd1na2vs0mg"},{"bike_id":"a02254bd-c448-428c-84b3-b84d0f3bfc68","system_id":"levelo_inurba_marseille","lat":43.2417,"lon":5.364,"is_reserved":false,"is_disabled":false,"rental_uris":{"android":"levelo://app?vid=a02254bd-c448-428c-84b3-b84d0f3bfc68","ios":"levelo://app?vid=a02254bd-c448-428c-84b3-b84d0f3bfc68"},"vehicle_type_id":"4","last_reported":1774255405,"current_range_meters":9600,"station_id":"cpo36qri1sfpv3e86is0","pricing_plan_id":"cebpf4jnsgd1na2vs0mg"},{"bike_id":"ec1f0639-98bb-4301-bf6a-13e89c5e2ccc","system_id":"levelo_inurba_marseille","lat":43.31399,"lon":5.36753,"is_reserved":false,"is_disabled":false,"rental_uris":{"android":"levelo://app?vid=ec1f0639-98bb-4301-bf6a-13e89c5e2ccc","ios":"levelo://app?vid=ec1f0639-98bb-4301-bf6a-13e89c5e2ccc"},"vehicle_type_id":"4","last_reported":1774255405,"current_range_meters":9600,"station_id":"ce4bgr92rcd13ifvqc6g","pricing_plan_id":"cebpf4jnsgd1na2vs0mg"},{"bike_id":"823ce9da-d856-4f2e-ad32-95cc89d2c5cd","system_id":"levelo_inurba_marseille","lat":43.29617,"lon":5.37746,"is_reserved":false,"is_disabled":true,"rental_uris":{"android":"levelo://app?vid=823ce9da-d856-4f2e-ad32-95cc89d2c5cd","ios":"levelo://app?vid=823ce9da-d856-4f2e-ad32-95cc89d2c5cd"},"vehicle_type_id":"4","last_reported":1774255405,"current_range_meters":10000,"station_id":"ce4bgi92rcd13ifvqb90","pricing_plan_id":"cebpf4jnsgd1na2vs0mg"},{"bike_id":"e08e8c7b-c061-4f26-8aac-2916c55e5386","system_id":"levelo_inurba_marseille","lat":43.31379,"lon":5.38495,"is_reserved":false,"is_disabled":false,"rental_uris":{"android":"levelo://app?vid=e08e8c7b-c061-4f26-8aac-2916c55e5386","ios":"levelo://app?vid=e08e8c7b-c061-4f26-8aac-2916c55e5386"},"vehicle_type_id":"4","last_reported":1774255405,"current_range_meters":10000,"station_id":"ce4bgt92rcd13ifvqcf0","pricing_plan_id":"cebpf4jnsgd1na2vs0mg"},{"bike_id":"6421968e-f213-4684-9a04-75e8f728c12c","system_id":"levelo_inurba_marseille","lat":43.27493,"lon":5.42456,"is_reserved":false,"is_disabled":false,"rental_uris":{"android":"levelo://app?vid=6421968e-f213-4684-9a04-75e8f728c12c","ios":"levelo://app?vid=6421968e-f213-4684-9a04-75e8f728c12c"},"vehicle_type_id":"4","last_reported":1774255405,"current_range_meters":10000,"station_id":"","pricing_plan_id":"cebpf4jnsgd1na2vs0mg"},{"bike_id":"13d81c3e-583d-4170-96b6-142a87e2f0b0","system_id":"levelo_inurba_marseille","lat":43.28483,"lon":5.48405,"is_reserved":false,"is_disabled":false,"rental_uris":{"android":"levelo://app?vid=13d81c3e-583d-4170-96b6-142a87e2f0b0","ios":"levelo://app?vid=13d81c3e-583d-4170-96b6-142a87e2f0b0"},"vehicle_type_id":"4","last_reported":1774255405,"current_range_meters":10000,"station_id":"st_d3svhcjqgbts73a3dn0g","pricing_plan_id":"cebpf4jnsgd1na2vs0mg"},{"bike_id":"d5a56776-d664-4531-80d7-d120a534ac36","system_id":"levelo_inurba_marseille","lat":43.32661,"lon":5.40997,"is_reserved":false,"is_disabled":false,"rental_uris":{"android":"levelo://app?vid=d5a56776-d664-4531-80d7-d120a534ac36","ios":"levelo://app?vid=d5a56776-d664-4531-80d7-d120a534ac36"},"vehicle_type_id":"4","last_reported":1774255405,"current_range_meters":10000,"station_id":"ce4bhpp2rcd13ifvqhgg","pricing_plan_id":"cebpf4jnsgd1na2vs0mg"},{"bike_id":"7e03e45c-d69c-4371-8267-aa26cde43729","system_id":"levelo_inurba_marseille","lat":43.25583,"lon":5.38233,"is_reserved":false,"is_disabled":true,"rental_uris":{"android":"levelo://app?vid=7e03e45c-d69c-4371-8267-aa26cde43729","ios":"levelo://app?vid=7e03e45c-d69c-4371-8267-aa26cde43729"},"vehicle_type_id":"4","last_reported":1774255405,"current_range_meters":10000,"station_id":"ce4bhih2rcd13ifvqfs0","pricing_plan_id":"cebpf4jnsgd1na2vs0mg"},{"bike_id":"6711ca2b-9a4e-46b1-892e-1007cc2a656e","system_id":"levelo_inurba_marseille","lat":43.28538,"lon":5.44128,"is_reserved":false,"is_disabled":false,"rental_uris":{"android":"levelo://app?vid=6711ca2b-9a4e-46b1-892e-1007cc2a656e","ios":"levelo://app?vid=6711ca2b-9a4e-46b1-892e-1007cc2a656e"},"vehicle_type_id":"4","last_reported":1774255405,"current_range_meters":10000,"station_id":"st_d3j3df2ikq2c7380ej80","pricing_plan_id":"cebpf4jnsgd1na2vs0mg"},{"bike_id":"295d2fa8-4106-478d-8168-0961e395cea1","system_id":"levelo_inurba_marseille","lat":43.26782,"lon":5.3941,"is_reserved":false,"is_disabled":true,"rental_uris":{"android":"levelo://app?vid=295d2fa8-4106-478d-8168-0961e395cea1","ios":"levelo://app?vid=295d2fa8-4106-478d-8168-0961e395cea1"},"vehicle_type_id":"4","last_reported":1774255405,"current_range_meters":10000,"station_id":"ce4bhh12rcd13ifvqfg0","pricing_plan_id":"cebpf4jnsgd1na2vs0mg"},{"bike_id":"301d2ddd-8d0e-4858-b628-0981a10864f9","system_id":"levelo_inurba_marseille","lat":43.30553,"lon":5.36694,"is_reserved":false,"is_disabled":false,"rental_uris":{"android":"levelo://app?vid=301d2ddd-8d0e-4858-b628-0981a10864f9","ios":"levelo://app?vid=301d2ddd-8d0e-4858-b628-0981a10864f9"},"vehicle_type_id":"4","last_reported":1774255405,"current_range_meters":10800,"station_id":"ce4bgrp2rcd13ifvqc9g","pricing_plan_id":"cebpf4jnsgd1na2vs0mg"},{"bike_id":"cb6f9d55-044f-4b41-a0c4-e3da4e421b9e","system_id":"levelo_inurba_marseille","lat":43.27053,"lon":5.40272,"is_reserved":false,"is_disabled":false,"rental_uris":{"android":"levelo://app?vid=cb6f9d55-044f-4b41-a0c4-e3da4e421b9e","ios":"levelo://app?vid=cb6f9d55-044f-4b41-a0c4-e3da4e421b9e"},"vehicle_type_id":"4","last_reported":1774255405,"current_range_meters":10800,"station_id":"ce4bhk92rcd13ifvqgc0","pricing_plan_id":"cebpf4jnsgd1na2vs0mg"},{"bike_id":"b4bd60d6-d657-4d29-a6ad-eb404614cc16","system_id":"levelo_inurba_marseille","lat":43.28738,"lon":5.35228,"is_reserved":false,"is_disabled":false,"rental_uris":{"android":"levelo://app?vid=b4bd60d6-d657-4d29-a6ad-eb404614cc16","ios":"levelo://app?vid=b4bd60d6-d657-4d29-a6ad-eb404614cc16"},"vehicle_type_id":"4","last_reported":1774255405,"current_range_meters":10800,"station_id":"","pricing_plan_id":"cebpf4jnsgd1na2vs0mg"},{"bike_id":"8db2cf9d-2a14-485a-8b25-cd8ac8776499","system_id":"levelo_inurba_marseille","lat":43.27996,"lon":5.41666,"is_reserved":false,"is_disabled":false,"rental_uris":{"android":"levelo://app?vid=8db2cf9d-2a14-485a-8b25-cd8ac8776499","ios":"levelo://app?vid=8db2cf9d-2a14-485a-8b25-cd8ac8776499"},"vehicle_type_id":"4","last_reported":1774255405,"current_range_meters":10800,"station_id":"ce4bho12rcd13ifvqh1g","pricing_plan_id":"cebpf4jnsgd1na2vs0mg"},{"bike_id":"1291424a-cf01-47aa-9647-ecefa90bc8e9","system_id":"levelo_inurba_marseille","lat":43.30128,"lon":5.38791,"is_reserved":false,"is_disabled":false,"rental_uris":{"android":"levelo://app?vid=1291424a-cf01-47aa-9647-ecefa90bc8e9","ios":"levelo://app?vid=1291424a-cf01-47aa-9647-ecefa90bc8e9"},"vehicle_type_id":"4","last_reported":1774255405,"current_range_meters":10800,"station_id":"ce4bghh2rcd13ifvqb60","pricing_plan_id":"cebpf4jnsgd1na2vs0mg"},{"bike_id":"34626e01-cc86-4c92-b6b2-0a10b25993e7","system_id":"levelo_inurba_marseille","lat":43.28613,"lon":5.35101,"is_reserved":false,"is_disabled":true,"rental_uris":{"android":"levelo://app?vid=34626e01-cc86-4c92-b6b2-0a10b25993e7","ios":"levelo://app?vid=34626e01-cc86-4c92-b6b2-0a10b25993e7"},"vehicle_type_id":"4","last_reported":1774255405,"current_range_meters":10800,"station_id":"ce4bhch2rcd13ifvqeug","pricing_plan_id":"cebpf4jnsgd1na2vs0mg"},{"bike_id":"8112e75c-8a75-4054-a1d8-35a40991c946","system_id":"levelo_inurba_marseille","lat":43.30915,"lon":5.36826,"is_reserved":false,"is_disabled":false,"rental_uris":{"android":"levelo://app?vid=8112e75c-8a75-4054-a1d8-35a40991c946","ios":"levelo://app?vid=8112e75c-8a75-4054-a1d8-35a40991c946"},"vehicle_type_id":"4","last_reported":1774255405,"current_range_meters":10800,"station_id":"ce4bgn92rcd13ifvqbvg","pricing_plan_id":"cebpf4jnsgd1na2vs0mg"},{"bike_id":"ca4e314c-bf2f-4e93-89c6-79cfa26245c3","system_id":"levelo_inurba_marseille","lat":43.28975,"lon":5.39643,"is_reserved":false,"is_disabled":true,"rental_uris":{"android":"levelo://app?vid=ca4e314c-bf2f-4e93-89c6-79cfa26245c3","ios":"levelo://app?vid=ca4e314c-bf2f-4e93-89c6-79cfa26245c3"},"vehicle_type_id":"4","last_reported":1774255405,"current_range_meters":10800,"station_id":"ce4bh3h2rcd13ifvqdn0","pricing_plan_id":"cebpf4jnsgd1na2vs0mg"},{"bike_id":"bb42b823-8d98-45ea-a640-4b600f4390fb","system_id":"levelo_inurba_marseille","lat":43.29041,"lon":5.40002,"is_reserved":false,"is_disabled":false,"rental_uris":{"android":"levelo://app?vid=bb42b823-8d98-45ea-a640-4b600f4390fb","ios":"levelo://app?vid=bb42b823-8d98-45ea-a640-4b600f4390fb"},"vehicle_type_id":"4","last_reported":1774255405,"current_range_meters":10800,"station_id":"ce4bh392rcd13ifvqdm0","pricing_plan_id":"cebpf4jnsgd1na2vs0mg"},{"bike_id":"08dde683-3e32-4087-af17-68be06efd4e7","system_id":"levelo_inurba_marseille","lat":43.29961,"lon":5.38496,"is_reserved":false,"is_disabled":true,"rental_uris":{"android":"levelo://app?vid=08dde683-3e32-4087-af17-68be06efd4e7","ios":"levelo://app?vid=08dde683-3e32-4087-af17-68be06efd4e7"},"vehicle_type_id":"4","last_reported":1774255405,"current_range_meters":10800,"station_id":"ce4bgj92rcd13ifvqbd0","pricing_plan_id":"cebpf4jnsgd1na2vs0mg"},{"bike_id":"aaa1d136-1c1c-44f1-bc66-e2e631aac66d","system_id":"levelo_inurba_marseille","lat":43.23162,"lon":5.43704,"is_reserved":false,"is_disabled":false,"rental_uris":{"android":"levelo://app?vid=aaa1d136-1c1c-44f1-bc66-e2e631aac66d","ios":"levelo://app?vid=aaa1d136-1c1c-44f1-bc66-e2e631aac66d"},"vehicle_type_id":"4","last_reported":1774255405,"current_range_meters":10800,"station_id":"ce4bhmp2rcd13ifvqgog","pricing_plan_id":"cebpf4jnsgd1na2vs0mg"},{"bike_id":"ea9db53e-585d-4dba-bc07-44d7ca1d660f","system_id":"levelo_inurba_marseille","lat":43.24072,"lon":5.37751,"is_reserved":false,"is_disabled":false,"rental_uris":{"android":"levelo://app?vid=ea9db53e-585d-4dba-bc07-44d7ca1d660f","ios":"levelo://app?vid=ea9db53e-585d-4dba-bc07-44d7ca1d660f"},"vehicle_type_id":"4","last_reported":1774255405,"current_range_meters":10800,"station_id":"ce4bhnp2rcd13ifvqgvg","pricing_plan_id":"cebpf4jnsgd1na2vs0mg"},{"bike_id":"5e31ae38-72b7-4ffc-903d-985b09a9164e","system_id":"levelo_inurba_marseille","lat":43.30129,"lon":5.38781,"is_reserved":false,"is_disabled":false,"rental_uris":{"android":"levelo://app?vid=5e31ae38-72b7-4ffc-903d-985b09a9164e","ios":"levelo://app?vid=5e31ae38-72b7-4ffc-903d-985b09a9164e"},"vehicle_type_id":"4","last_reported":1774255405,"current_range_meters":10800,"station_id":"ce4bghh2rcd13ifvqb60","pricing_plan_id":"cebpf4jnsgd1na2vs0mg"},{"bike_id":"65796f61-6565-41d7-91dc-b49b10c8cf9b","system_id":"levelo_inurba_marseille","lat":43.28342,"lon":5.38098,"is_reserved":false,"is_disabled":false,"rental_uris":{"android":"levelo://app?vid=65796f61-6565-41d7-91dc-b49b10c8cf9b","ios":"levelo://app?vid=65796f61-6565-41d7-91dc-b49b10c8cf9b"},"vehicle_type_id":"4","last_reported":1774255405,"current_range_meters":10800,"station_id":"ce4bh412rcd13ifvqdr0","pricing_plan_id":"cebpf4jnsgd1na2vs0mg"},{"bike_id":"186de664-6fc1-4c62-ab0a-d80981eff632","system_id":"levelo_inurba_marseille","lat":43.33721,"lon":5.39179,"is_reserved":false,"is_disabled":false,"rental_uris":{"android":"levelo://app?vid=186de664-6fc1-4c62-ab0a-d80981eff632","ios":"levelo://app?vid=186de664-6fc1-4c62-ab0a-d80981eff632"},"vehicle_type_id":"4","last_reported":1774255405,"current_range_meters":10800,"station_id":"ce4bhr92rcd13ifvqhsg","pricing_plan_id":"cebpf4jnsgd1na2vs0mg"},{"bike_id":"a79c45b1-79f1-44cc-8779-97834666c50b","system_id":"levelo_inurba_marseille","lat":43.26938,"lon":5.38915,"is_reserved":false,"is_disabled":false,"rental_uris":{"android":"levelo://app?vid=a79c45b1-79f1-44cc-8779-97834666c50b","ios":"levelo://app?vid=a79c45b1-79f1-44cc-8779-97834666c50b"},"vehicle_type_id":"4","last_reported":1774255405,"current_range_meters":10800,"station_id":"ce4bhhh2rcd13ifvqfl0","pricing_plan_id":"cebpf4jnsgd1na2vs0mg"},{"bike_id":"4dff7f75-9dd0-46fc-b3b7-8ff5fb0ae744","system_id":"levelo_inurba_marseille","lat":43.31353,"lon":5.36725,"is_reserved":false,"is_disabled":false,"rental_uris":{"android":"levelo://app?vid=4dff7f75-9dd0-46fc-b3b7-8ff5fb0ae744","ios":"levelo://app?vid=4dff7f75-9dd0-46fc-b3b7-8ff5fb0ae744"},"vehicle_type_id":"4","last_reported":1774255405,"current_range_meters":10800,"station_id":"ce4bgr92rcd13ifvqc6g","pricing_plan_id":"cebpf4jnsgd1na2vs0mg"},{"bike_id":"40906df4-17dd-4d9f-ac1f-0880c5eb117e","system_id":"levelo_inurba_marseille","lat":43.32352,"lon":5.36767,"is_reserved":false,"is_disabled":false,"rental_uris":{"android":"levelo://app?vid=40906df4-17dd-4d9f-ac1f-0880c5eb117e","ios":"levelo://app?vid=40906df4-17dd-4d9f-ac1f-0880c5eb117e"},"vehicle_type_id":"4","last_reported":1774255405,"current_range_meters":11200,"station_id":"ce4bhsh2rcd13ifvqi2g","pricing_plan_id":"cebpf4jnsgd1na2vs0mg"},{"bike_id":"a14d2edd-85c5-4116-8db5-355e3fb2ddbe","system_id":"levelo_inurba_marseille","lat":43.33539,"lon":5.37465,"is_reserved":false,"is_disabled":false,"rental_uris":{"android":"levelo://app?vid=a14d2edd-85c5-4116-8db5-355e3fb2ddbe","ios":"levelo://app?vid=a14d2edd-85c5-4116-8db5-355e3fb2ddbe"},"vehicle_type_id":"4","last_reported":1774255405,"current_range_meters":11200,"station_id":"st_d46tts09ee8s73dlu43g","pricing_plan_id":"cebpf4jnsgd1na2vs0mg"},{"bike_id":"258ecf01-b367-4a76-ac49-bc64b3305074","system_id":"levelo_inurba_marseille","lat":43.29968,"lon":5.36505,"is_reserved":false,"is_disabled":false,"rental_uris":{"android":"levelo://app?vid=258ecf01-b367-4a76-ac49-bc64b3305074","ios":"levelo://app?vid=258ecf01-b367-4a76-ac49-bc64b3305074"},"vehicle_type_id":"4","last_reported":1774255405,"current_range_meters":11200,"station_id":"ce4bgm92rcd13ifvqbr0","pricing_plan_id":"cebpf4jnsgd1na2vs0mg"},{"bike_id":"445a363e-6635-4c6f-9d9b-6ed1d223c4e8","system_id":"levelo_inurba_marseille","lat":43.29559,"lon":5.43895,"is_reserved":false,"is_disabled":false,"rental_uris":{"android":"levelo://app?vid=445a363e-6635-4c6f-9d9b-6ed1d223c4e8","ios":"levelo://app?vid=445a363e-6635-4c6f-9d9b-6ed1d223c4e8"},"vehicle_type_id":"4","last_reported":1774255405,"current_range_meters":11200,"station_id":"","pricing_plan_id":"cebpf4jnsgd1na2vs0mg"},{"bike_id":"ba3022d7-e9b1-41e9-87b5-e8d444428181","system_id":"levelo_inurba_marseille","lat":43.29986,"lon":5.37151,"is_reserved":false,"is_disabled":false,"rental_uris":{"android":"levelo://app?vid=ba3022d7-e9b1-41e9-87b5-e8d444428181","ios":"levelo://app?vid=ba3022d7-e9b1-41e9-87b5-e8d444428181"},"vehicle_type_id":"4","last_reported":1774255405,"current_range_meters":11200,"station_id":"ce4bgr92rcd13ifvqc7g","pricing_plan_id":"cebpf4jnsgd1na2vs0mg"},{"bike_id":"bc8433fb-2ae3-4f65-a681-78d9ea89d90e","system_id":"levelo_inurba_marseille","lat":43.23898,"lon":5.37467,"is_reserved":false,"is_disabled":true,"rental_uris":{"android":"levelo://app?vid=bc8433fb-2ae3-4f65-a681-78d9ea89d90e","ios":"levelo://app?vid=bc8433fb-2ae3-4f65-a681-78d9ea89d90e"},"vehicle_type_id":"4","last_reported":1774255405,"current_range_meters":11200,"station_id":"st_d6sm7csbq4hs73f8fpjg","pricing_plan_id":"cebpf4jnsgd1na2vs0mg"},{"bike_id":"22198e4c-05a9-4135-822e-fed3eb0a0767","system_id":"levelo_inurba_marseille","lat":43.24008,"lon":5.36261,"is_reserved":false,"is_disabled":false,"rental_uris":{"android":"levelo://app?vid=22198e4c-05a9-4135-822e-fed3eb0a0767","ios":"levelo://app?vid=22198e4c-05a9-4135-822e-fed3eb0a0767"},"vehicle_type_id":"4","last_reported":1774255405,"current_range_meters":11200,"station_id":"","pricing_plan_id":"cebpf4jnsgd1na2vs0mg"},{"bike_id":"89203ec0-a1cc-4e75-8d71-8606ce08ca74","system_id":"levelo_inurba_marseille","lat":43.30304,"lon":5.39216,"is_reserved":false,"is_disabled":false,"rental_uris":{"android":"levelo://app?vid=89203ec0-a1cc-4e75-8d71-8606ce08ca74","ios":"levelo://app?vid=89203ec0-a1cc-4e75-8d71-8606ce08ca74"},"vehicle_type_id":"4","last_reported":1774255405,"current_range_meters":11200,"station_id":"ce4bgkh2rcd13ifvqbk0","pricing_plan_id":"cebpf4jnsgd1na2vs0mg"},{"bike_id":"f3dccb27-25f8-415f-8a8c-207408b72398","system_id":"levelo_inurba_marseille","lat":43.32073,"lon":5.36727,"is_reserved":false,"is_disabled":false,"rental_uris":{"android":"levelo://app?vid=f3dccb27-25f8-415f-8a8c-207408b72398","ios":"levelo://app?vid=f3dccb27-25f8-415f-8a8c-207408b72398"},"vehicle_type_id":"4","last_reported":1774255405,"current_range_meters":11200,"station_id":"ce4bhrh2rcd13ifvqhug","pricing_plan_id":"cebpf4jnsgd1na2vs0mg"},{"bike_id":"ddc3505b-79b6-494c-9ffa-89ba14eace13","system_id":"levelo_inurba_marseille","lat":43.26572,"lon":5.39027,"is_reserved":false,"is_disabled":false,"rental_uris":{"android":"levelo://app?vid=ddc3505b-79b6-494c-9ffa-89ba14eace13","ios":"levelo://app?vid=ddc3505b-79b6-494c-9ffa-89ba14eace13"},"vehicle_type_id":"4","last_reported":1774255405,"current_range_meters":11200,"station_id":"ce4bhe12rcd13ifvqf30","pricing_plan_id":"cebpf4jnsgd1na2vs0mg"},{"bike_id":"4a4c5b02-3826-46bf-ab56-d7070d2a92cf","system_id":"levelo_inurba_marseille","lat":43.27196,"lon":5.39137,"is_reserved":false,"is_disabled":true,"rental_uris":{"android":"levelo://app?vid=4a4c5b02-3826-46bf-ab56-d7070d2a92cf","ios":"levelo://app?vid=4a4c5b02-3826-46bf-ab56-d7070d2a92cf"},"vehicle_type_id":"4","last_reported":1774255405,"current_range_meters":11200,"station_id":"ce4bhhp2rcd13ifvqfm0","pricing_plan_id":"cebpf4jnsgd1na2vs0mg"},{"bike_id":"8d8566de-f03a-4e5e-aa8c-ad2e3c17ab03","system_id":"levelo_inurba_marseille","lat":43.3156,"lon":5.37309,"is_reserved":false,"is_disabled":false,"rental_uris":{"android":"levelo://app?vid=8d8566de-f03a-4e5e-aa8c-ad2e3c17ab03","ios":"levelo://app?vid=8d8566de-f03a-4e5e-aa8c-ad2e3c17ab03"},"vehicle_type_id":"4","last_reported":1774255405,"current_range_meters":11200,"station_id":"","pricing_plan_id":"cebpf4jnsgd1na2vs0mg"},{"bike_id":"1206b80d-08df-4dbc-999c-48aabe775d89","system_id":"levelo_inurba_marseille","lat":43.30317,"lon":5.44977,"is_reserved":false,"is_disabled":false,"rental_uris":{"android":"levelo://app?vid=1206b80d-08df-4dbc-999c-48aabe775d89","ios":"levelo://app?vid=1206b80d-08df-4dbc-999c-48aabe775d89"},"vehicle_type_id":"4","last_reported":1774255405,"current_range_meters":11200,"station_id":"","pricing_plan_id":"cebpf4jnsgd1na2vs0mg"},{"bike_id":"2ad78ba9-fa9c-45b1-9aaa-5aa50345ef16","system_id":"levelo_inurba_marseille","lat":43.25943,"lon":5.40899,"is_reserved":false,"is_disabled":false,"rental_uris":{"android":"levelo://app?vid=2ad78ba9-fa9c-45b1-9aaa-5aa50345ef16","ios":"levelo://app?vid=2ad78ba9-fa9c-45b1-9aaa-5aa50345ef16"},"vehicle_type_id":"4","last_reported":1774255405,"current_range_meters":11200,"station_id":"ce4bhm92rcd13ifvqglg","pricing_plan_id":"cebpf4jnsgd1na2vs0mg"},{"bike_id":"efe811b6-5e10-4e8c-9e59-a484522fb832","system_id":"levelo_inurba_marseille","lat":43.25582,"lon":5.38232,"is_reserved":false,"is_disabled":false,"rental_uris":{"android":"levelo://app?vid=efe811b6-5e10-4e8c-9e59-a484522fb832","ios":"levelo://app?vid=efe811b6-5e10-4e8c-9e59-a484522fb832"},"vehicle_type_id":"4","last_reported":1774255405,"current_range_meters":11600,"station_id":"ce4bhih2rcd13ifvqfs0","pricing_plan_id":"cebpf4jnsgd1na2vs0mg"},{"bike_id":"0532bc68-6e09-4402-b669-047c6d5ea80b","system_id":"levelo_inurba_marseille","lat":43.30439,"lon":5.36787,"is_reserved":false,"is_disabled":false,"rental_uris":{"android":"levelo://app?vid=0532bc68-6e09-4402-b669-047c6d5ea80b","ios":"levelo://app?vid=0532bc68-6e09-4402-b669-047c6d5ea80b"},"vehicle_type_id":"4","last_reported":1774255405,"current_range_meters":11600,"station_id":"ce4bgrp2rcd13ifvqc9g","pricing_plan_id":"cebpf4jnsgd1na2vs0mg"},{"bike_id":"0fd033e4-5a1d-40d1-a80c-98a43294da01","system_id":"levelo_inurba_marseille","lat":43.23791,"lon":5.36649,"is_reserved":false,"is_disabled":true,"rental_uris":{"android":"levelo://app?vid=0fd033e4-5a1d-40d1-a80c-98a43294da01","ios":"levelo://app?vid=0fd033e4-5a1d-40d1-a80c-98a43294da01"},"vehicle_type_id":"4","last_reported":1774255405,"current_range_meters":11600,"station_id":"st_d3nk18o9ro0c73en2l3g","pricing_plan_id":"cebpf4jnsgd1na2vs0mg"},{"bike_id":"4ce98637-072f-4197-bd69-11f207a88eab","system_id":"levelo_inurba_marseille","lat":43.28496,"lon":5.47279,"is_reserved":false,"is_disabled":false,"rental_uris":{"android":"levelo://app?vid=4ce98637-072f-4197-bd69-11f207a88eab","ios":"levelo://app?vid=4ce98637-072f-4197-bd69-11f207a88eab"},"vehicle_type_id":"4","last_reported":1774255405,"current_range_meters":11600,"station_id":"","pricing_plan_id":"cebpf4jnsgd1na2vs0mg"},{"bike_id":"e56ca87f-9a62-4945-851d-08427ea44054","system_id":"levelo_inurba_marseille","lat":43.27373,"lon":5.39111,"is_reserved":false,"is_disabled":false,"rental_uris":{"android":"levelo://app?vid=e56ca87f-9a62-4945-851d-08427ea44054","ios":"levelo://app?vid=e56ca87f-9a62-4945-851d-08427ea44054"},"vehicle_type_id":"4","last_reported":1774255405,"current_range_meters":11600,"station_id":"ce4bhgp2rcd13ifvqfe0","pricing_plan_id":"cebpf4jnsgd1na2vs0mg"},{"bike_id":"b3e6391c-0b9f-490a-a50e-4367f27b0aff","system_id":"levelo_inurba_marseille","lat":43.27061,"lon":5.38312,"is_reserved":false,"is_disabled":false,"rental_uris":{"android":"levelo://app?vid=b3e6391c-0b9f-490a-a50e-4367f27b0aff","ios":"levelo://app?vid=b3e6391c-0b9f-490a-a50e-4367f27b0aff"},"vehicle_type_id":"4","last_reported":1774255405,"current_range_meters":11600,"station_id":"st_d3n2fo6cfp8s73cte1j0","pricing_plan_id":"cebpf4jnsgd1na2vs0mg"},{"bike_id":"03de066e-76f7-4061-86fd-4299f0e7442e","system_id":"levelo_inurba_marseille","lat":43.23156,"lon":5.43659,"is_reserved":false,"is_disabled":false,"rental_uris":{"android":"levelo://app?vid=03de066e-76f7-4061-86fd-4299f0e7442e","ios":"levelo://app?vid=03de066e-76f7-4061-86fd-4299f0e7442e"},"vehicle_type_id":"4","last_reported":1774255405,"current_range_meters":11600,"station_id":"ce4bhmp2rcd13ifvqgog","pricing_plan_id":"cebpf4jnsgd1na2vs0mg"},{"bike_id":"49fb7aa9-b687-4c02-8d9f-0863cc1498c9","system_id":"levelo_inurba_marseille","lat":43.29904,"lon":5.37477,"is_reserved":false,"is_disabled":false,"rental_uris":{"android":"levelo://app?vid=49fb7aa9-b687-4c02-8d9f-0863cc1498c9","ios":"levelo://app?vid=49fb7aa9-b687-4c02-8d9f-0863cc1498c9"},"vehicle_type_id":"4","last_reported":1774255405,"current_range_meters":11600,"station_id":"ce4bgjh2rcd13ifvqbg0","pricing_plan_id":"cebpf4jnsgd1na2vs0mg"},{"bike_id":"6c670ebc-bb36-453a-831e-2342a81aa497","system_id":"levelo_inurba_marseille","lat":43.30959,"lon":5.39036,"is_reserved":false,"is_disabled":false,"rental_uris":{"android":"levelo://app?vid=6c670ebc-bb36-453a-831e-2342a81aa497","ios":"levelo://app?vid=6c670ebc-bb36-453a-831e-2342a81aa497"},"vehicle_type_id":"4","last_reported":1774255405,"current_range_meters":12000,"station_id":"ce4bgup2rcd13ifvqco0","pricing_plan_id":"cebpf4jnsgd1na2vs0mg"},{"bike_id":"66a43d55-32c7-48fb-b013-3d7574d12857","system_id":"levelo_inurba_marseille","lat":43.25021,"lon":5.38927,"is_reserved":false,"is_disabled":true,"rental_uris":{"android":"levelo://app?vid=66a43d55-32c7-48fb-b013-3d7574d12857","ios":"levelo://app?vid=66a43d55-32c7-48fb-b013-3d7574d12857"},"vehicle_type_id":"4","last_reported":1774255405,"current_range_meters":12000,"station_id":"ce4bhgp2rcd13ifvqfd0","pricing_plan_id":"cebpf4jnsgd1na2vs0mg"},{"bike_id":"22a24422-8367-44e3-afc2-fd1672c2c7f5","system_id":"levelo_inurba_marseille","lat":43.28472,"lon":5.48396,"is_reserved":false,"is_disabled":false,"rental_uris":{"android":"levelo://app?vid=22a24422-8367-44e3-afc2-fd1672c2c7f5","ios":"levelo://app?vid=22a24422-8367-44e3-afc2-fd1672c2c7f5"},"vehicle_type_id":"4","last_reported":1774255405,"current_range_meters":12000,"station_id":"","pricing_plan_id":"cebpf4jnsgd1na2vs0mg"},{"bike_id":"b66bea14-92e1-4e62-b5ef-aa4f090efca6","system_id":"levelo_inurba_marseille","lat":43.30462,"lon":5.3791,"is_reserved":false,"is_disabled":false,"rental_uris":{"android":"levelo://app?vid=b66bea14-92e1-4e62-b5ef-aa4f090efca6","ios":"levelo://app?vid=b66bea14-92e1-4e62-b5ef-aa4f090efca6"},"vehicle_type_id":"4","last_reported":1774255405,"current_range_meters":12000,"station_id":"ce4bgup2rcd13ifvqcn0","pricing_plan_id":"cebpf4jnsgd1na2vs0mg"},{"bike_id":"2f5b6265-483e-47d4-831c-32860cec290b","system_id":"levelo_inurba_marseille","lat":43.29572,"lon":5.42278,"is_reserved":false,"is_disabled":false,"rental_uris":{"android":"levelo://app?vid=2f5b6265-483e-47d4-831c-32860cec290b","ios":"levelo://app?vid=2f5b6265-483e-47d4-831c-32860cec290b"},"vehicle_type_id":"4","last_reported":1774255405,"current_range_meters":12000,"station_id":"ce4bhph2rcd13ifvqhdg","pricing_plan_id":"cebpf4jnsgd1na2vs0mg"},{"bike_id":"cbe143e8-3e8d-46c8-8239-3389a4661d28","system_id":"levelo_inurba_marseille","lat":43.30305,"lon":5.3694,"is_reserved":false,"is_disabled":false,"rental_uris":{"android":"levelo://app?vid=cbe143e8-3e8d-46c8-8239-3389a4661d28","ios":"levelo://app?vid=cbe143e8-3e8d-46c8-8239-3389a4661d28"},"vehicle_type_id":"4","last_reported":1774255405,"current_range_meters":12000,"station_id":"ce4bgqh2rcd13ifvqc5g","pricing_plan_id":"cebpf4jnsgd1na2vs0mg"},{"bike_id":"75d3faa8-0304-4eca-9bc0-30a99e6e4a5e","system_id":"levelo_inurba_marseille","lat":43.22536,"lon":5.34839,"is_reserved":false,"is_disabled":true,"rental_uris":{"android":"levelo://app?vid=75d3faa8-0304-4eca-9bc0-30a99e6e4a5e","ios":"levelo://app?vid=75d3faa8-0304-4eca-9bc0-30a99e6e4a5e"},"vehicle_type_id":"4","last_reported":1774255405,"current_range_meters":12000,"station_id":"st_cvj5dfep6f1abm77gieg","pricing_plan_id":"cebpf4jnsgd1na2vs0mg"},{"bike_id":"d863a2e2-1eab-4b4f-996e-6ede44988661","system_id":"levelo_inurba_marseille","lat":43.30785,"lon":5.3765,"is_reserved":false,"is_disabled":false,"rental_uris":{"android":"levelo://app?vid=d863a2e2-1eab-4b4f-996e-6ede44988661","ios":"levelo://app?vid=d863a2e2-1eab-4b4f-996e-6ede44988661"},"vehicle_type_id":"4","last_reported":1774255405,"current_range_meters":12000,"station_id":"ce4bgv92rcd13ifvqcq0","pricing_plan_id":"cebpf4jnsgd1na2vs0mg"},{"bike_id":"c72b7fd2-e680-4892-b230-2090babbdf59","system_id":"levelo_inurba_marseille","lat":43.31425,"lon":5.40361,"is_reserved":false,"is_disabled":false,"rental_uris":{"android":"levelo://app?vid=c72b7fd2-e680-4892-b230-2090babbdf59","ios":"levelo://app?vid=c72b7fd2-e680-4892-b230-2090babbdf59"},"vehicle_type_id":"4","last_reported":1774255405,"current_range_meters":12000,"station_id":"","pricing_plan_id":"cebpf4jnsgd1na2vs0mg"},{"bike_id":"43bd9f61-7579-47d3-86b0-f7694257f2c4","system_id":"levelo_inurba_marseille","lat":43.23384,"lon":5.41265,"is_reserved":false,"is_disabled":false,"rental_uris":{"android":"levelo://app?vid=43bd9f61-7579-47d3-86b0-f7694257f2c4","ios":"levelo://app?vid=43bd9f61-7579-47d3-86b0-f7694257f2c4"},"vehicle_type_id":"4","last_reported":1774255405,"current_range_meters":12000,"station_id":"","pricing_plan_id":"cebpf4jnsgd1na2vs0mg"},{"bike_id":"0e2f4137-e82a-401c-945f-6a1c7c098239","system_id":"levelo_inurba_marseille","lat":43.29618,"lon":5.37142,"is_reserved":false,"is_disabled":false,"rental_uris":{"android":"levelo://app?vid=0e2f4137-e82a-401c-945f-6a1c7c098239","ios":"levelo://app?vid=0e2f4137-e82a-401c-945f-6a1c7c098239"},"vehicle_type_id":"4","last_reported":1774255405,"current_range_meters":12400,"station_id":"ce4bgnh2rcd13ifvqc0g","pricing_plan_id":"cebpf4jnsgd1na2vs0mg"},{"bike_id":"b75036ac-d81d-4bfd-a9c8-a051a6ff39fe","system_id":"levelo_inurba_marseille","lat":43.28529,"lon":5.44126,"is_reserved":false,"is_disabled":false,"rental_uris":{"android":"levelo://app?vid=b75036ac-d81d-4bfd-a9c8-a051a6ff39fe","ios":"levelo://app?vid=b75036ac-d81d-4bfd-a9c8-a051a6ff39fe"},"vehicle_type_id":"4","last_reported":1774255405,"current_range_meters":12400,"station_id":"st_d3j3df2ikq2c7380ej80","pricing_plan_id":"cebpf4jnsgd1na2vs0mg"},{"bike_id":"e4739c25-dd1d-43da-9941-56dfa51da56f","system_id":"levelo_inurba_marseille","lat":43.24464,"lon":5.42536,"is_reserved":false,"is_disabled":false,"rental_uris":{"android":"levelo://app?vid=e4739c25-dd1d-43da-9941-56dfa51da56f","ios":"levelo://app?vid=e4739c25-dd1d-43da-9941-56dfa51da56f"},"vehicle_type_id":"4","last_reported":1774255405,"current_range_meters":12400,"station_id":"st_d4a3vfp97mjs738cd8kg","pricing_plan_id":"cebpf4jnsgd1na2vs0mg"},{"bike_id":"992d461f-8839-4086-b27a-9edc1d38b03d","system_id":"levelo_inurba_marseille","lat":43.33514,"lon":5.37439,"is_reserved":false,"is_disabled":false,"rental_uris":{"android":"levelo://app?vid=992d461f-8839-4086-b27a-9edc1d38b03d","ios":"levelo://app?vid=992d461f-8839-4086-b27a-9edc1d38b03d"},"vehicle_type_id":"4","last_reported":1774255405,"current_range_meters":12400,"station_id":"","pricing_plan_id":"cebpf4jnsgd1na2vs0mg"},{"bike_id":"17b6291a-b600-49d3-9437-0d985b9a42cc","system_id":"levelo_inurba_marseille","lat":43.30293,"lon":5.36905,"is_reserved":false,"is_disabled":false,"rental_uris":{"android":"levelo://app?vid=17b6291a-b600-49d3-9437-0d985b9a42cc","ios":"levelo://app?vid=17b6291a-b600-49d3-9437-0d985b9a42cc"},"vehicle_type_id":"4","last_reported":1774255405,"current_range_meters":12400,"station_id":"ce4bgqh2rcd13ifvqc5g","pricing_plan_id":"cebpf4jnsgd1na2vs0mg"},{"bike_id":"5b04a8eb-740f-490b-a007-53c597dc6ddc","system_id":"levelo_inurba_marseille","lat":43.30549,"lon":5.36504,"is_reserved":false,"is_disabled":false,"rental_uris":{"android":"levelo://app?vid=5b04a8eb-740f-490b-a007-53c597dc6ddc","ios":"levelo://app?vid=5b04a8eb-740f-490b-a007-53c597dc6ddc"},"vehicle_type_id":"4","last_reported":1774255405,"current_range_meters":12400,"station_id":"ce4bgs12rcd13ifvqcag","pricing_plan_id":"cebpf4jnsgd1na2vs0mg"},{"bike_id":"6b8acac9-ccf3-4647-89ff-89fbb46b6df8","system_id":"levelo_inurba_marseille","lat":43.30313,"lon":5.45077,"is_reserved":false,"is_disabled":false,"rental_uris":{"android":"levelo://app?vid=6b8acac9-ccf3-4647-89ff-89fbb46b6df8","ios":"levelo://app?vid=6b8acac9-ccf3-4647-89ff-89fbb46b6df8"},"vehicle_type_id":"4","last_reported":1774255405,"current_range_meters":12400,"station_id":"","pricing_plan_id":"cebpf4jnsgd1na2vs0mg"},{"bike_id":"66071a2b-b2ee-4a77-b65d-976f06c79310","system_id":"levelo_inurba_marseille","lat":43.26384,"lon":5.41062,"is_reserved":false,"is_disabled":false,"rental_uris":{"android":"levelo://app?vid=66071a2b-b2ee-4a77-b65d-976f06c79310","ios":"levelo://app?vid=66071a2b-b2ee-4a77-b65d-976f06c79310"},"vehicle_type_id":"4","last_reported":1774255405,"current_range_meters":12400,"station_id":"st_d4e5ca6na9uc73bfl5fg","pricing_plan_id":"cebpf4jnsgd1na2vs0mg"},{"bike_id":"f14b1331-1104-40bc-a906-98c5f0462208","system_id":"levelo_inurba_marseille","lat":43.29676,"lon":5.37303,"is_reserved":false,"is_disabled":false,"rental_uris":{"android":"levelo://app?vid=f14b1331-1104-40bc-a906-98c5f0462208","ios":"levelo://app?vid=f14b1331-1104-40bc-a906-98c5f0462208"},"vehicle_type_id":"4","last_reported":1774255405,"current_range_meters":12400,"station_id":"ce4bgk12rcd13ifvqbj0","pricing_plan_id":"cebpf4jnsgd1na2vs0mg"},{"bike_id":"0c48dd8c-0cdf-4988-95dd-31b05278dc56","system_id":"levelo_inurba_marseille","lat":43.23786,"lon":5.36635,"is_reserved":false,"is_disabled":false,"rental_uris":{"android":"levelo://app?vid=0c48dd8c-0cdf-4988-95dd-31b05278dc56","ios":"levelo://app?vid=0c48dd8c-0cdf-4988-95dd-31b05278dc56"},"vehicle_type_id":"4","last_reported":1774255405,"current_range_meters":12400,"station_id":"st_d3nk18o9ro0c73en2l3g","pricing_plan_id":"cebpf4jnsgd1na2vs0mg"},{"bike_id":"18f25b74-ebab-486a-b432-3c03e3ef09ee","system_id":"levelo_inurba_marseille","lat":43.28501,"lon":5.48424,"is_reserved":false,"is_disabled":false,"rental_uris":{"android":"levelo://app?vid=18f25b74-ebab-486a-b432-3c03e3ef09ee","ios":"levelo://app?vid=18f25b74-ebab-486a-b432-3c03e3ef09ee"},"vehicle_type_id":"4","last_reported":1774255405,"current_range_meters":12400,"station_id":"","pricing_plan_id":"cebpf4jnsgd1na2vs0mg"},{"bike_id":"5016f481-c4f2-49ee-b195-5a686f3fce52","system_id":"levelo_inurba_marseille","lat":43.288522,"lon":5.358479,"is_reserved":false,"is_disabled":true,"rental_uris":{"android":"levelo://app?vid=5016f481-c4f2-49ee-b195-5a686f3fce52","ios":"levelo://app?vid=5016f481-c4f2-49ee-b195-5a686f3fce52"},"vehicle_type_id":"4","last_reported":1774255405,"current_range_meters":12800,"station_id":"","pricing_plan_id":"cebpf4jnsgd1na2vs0mg"},{"bike_id":"fdd8bf84-b2fe-4508-9572-06ea662fa5ac","system_id":"levelo_inurba_marseille","lat":43.28479,"lon":5.48398,"is_reserved":false,"is_disabled":false,"rental_uris":{"android":"levelo://app?vid=fdd8bf84-b2fe-4508-9572-06ea662fa5ac","ios":"levelo://app?vid=fdd8bf84-b2fe-4508-9572-06ea662fa5ac"},"vehicle_type_id":"4","last_reported":1774255405,"current_range_meters":12800,"station_id":"","pricing_plan_id":"cebpf4jnsgd1na2vs0mg"},{"bike_id":"96e579ec-159d-4d4a-81b0-fe699969cb15","system_id":"levelo_inurba_marseille","lat":43.27614,"lon":5.36111,"is_reserved":false,"is_disabled":true,"rental_uris":{"android":"levelo://app?vid=96e579ec-159d-4d4a-81b0-fe699969cb15","ios":"levelo://app?vid=96e579ec-159d-4d4a-81b0-fe699969cb15"},"vehicle_type_id":"4","last_reported":1774255405,"current_range_meters":12800,"station_id":"ce4bgj92rcd13ifvqbe0","pricing_plan_id":"cebpf4jnsgd1na2vs0mg"},{"bike_id":"a74048a6-1eeb-4114-a45f-cff9c9cdc1a9","system_id":"levelo_inurba_marseille","lat":43.32474,"lon":5.36576,"is_reserved":false,"is_disabled":false,"rental_uris":{"android":"levelo://app?vid=a74048a6-1eeb-4114-a45f-cff9c9cdc1a9","ios":"levelo://app?vid=a74048a6-1eeb-4114-a45f-cff9c9cdc1a9"},"vehicle_type_id":"4","last_reported":1774255405,"current_range_meters":12800,"station_id":"ce4bhs12rcd13ifvqhvg","pricing_plan_id":"cebpf4jnsgd1na2vs0mg"},{"bike_id":"af2906ab-d0d5-47c4-a299-ec3fc01cdcd6","system_id":"levelo_inurba_marseille","lat":43.29577,"lon":5.37551,"is_reserved":false,"is_disabled":false,"rental_uris":{"android":"levelo://app?vid=af2906ab-d0d5-47c4-a299-ec3fc01cdcd6","ios":"levelo://app?vid=af2906ab-d0d5-47c4-a299-ec3fc01cdcd6"},"vehicle_type_id":"4","last_reported":1774255405,"current_range_meters":12800,"station_id":"ce4bgh92rcd13ifvqb50","pricing_plan_id":"cebpf4jnsgd1na2vs0mg"},{"bike_id":"f7f1894c-daf2-4259-865f-2e81d02f8cdf","system_id":"levelo_inurba_marseille","lat":43.30163,"lon":5.3808,"is_reserved":false,"is_disabled":false,"rental_uris":{"android":"levelo://app?vid=f7f1894c-daf2-4259-865f-2e81d02f8cdf","ios":"levelo://app?vid=f7f1894c-daf2-4259-865f-2e81d02f8cdf"},"vehicle_type_id":"4","last_reported":1774255405,"current_range_meters":12800,"station_id":"ce4bgjp2rcd13ifvqbh0","pricing_plan_id":"cebpf4jnsgd1na2vs0mg"},