{"last_updated":1745161713,"ttl":60,"version":"2.2","data":{"bikes":[{"bike_id":"7dcdef15-1980-4995-904f-86bb708bb2e7","system_id":"levelo_inurba_marseille","lat":43.25113,"lon":5.40327,"is_reserved":false,"is_disabled":false,"rental_uris":{"android":"levelo://app?vid=7dcdef15-1980-4995-904f-86bb708bb2e7","ios":"levelo://app?vid=7dcdef15-1980-4995-904f-86bb708bb2e7"},"vehicle_type_id":"4","last_reported":1745161713,"current_range_meters":2800,"station_id":"ce4bhlh2rcd13ifvqgig","pricing_plan_id":"cebpf4jnsgd1na2vs0mg"},{"bike_id":"c42c97dc-851b-476d-ba23-67d0582febc0","system_id":"levelo_inurba_marseille","lat":43.30325,"lon":5.40441,"is_reserved":false,"is_disabled":true,"rental_uris":{"android":"levelo://app?vid=c42c97dc-851b-476d-ba23-67d0582febc0","ios":"levelo://app?vid=c42c97dc-851b-476d-ba23-67d0582febc0"},"vehicle_type_id":"4","last_reported":1745161713,"current_range_meters":2800,"station_id":"ce4bh012rcd13ifvqd10","pricing_plan_id":"cebpf4jnsgd1na2vs0mg"},{"bike_id":"19ada103-4cbd-4062-a809-34f5987a7a6d","system_id":"levelo_inurba_marseille","lat":43.268059,"lon":5.389026,"is_reserved":false,"is_disabled":false,"rental_uris":{"android":"levelo://app?vid=19ada103-4cbd-4062-a809-34f5987a7a6d","ios":"levelo://app?vid=19ada103-4cbd-4062-a809-34f5987a7a6d"},"vehicle_type_id":"4","last_reported":1745161713,"current_range_meters":3200,"station_id":"","pricing_plan_id":"cebpf4jnsgd1na2vs0mg"},{"bike_id":"9c6ee1fa-20aa-4874-9fc8-1581d2d9eb4f","system_id":"levelo_inurba_marseille","lat":43.23053,"lon":5.3549,"is_reserved":false,"is_disabled":false,"rental_uris":{"android":"levelo://app?vid=9c6ee1fa-20aa-4874-9fc8-1581d2d9eb4f","ios":"levelo://app?vid=9c6ee1fa-20aa-4874-9fc8-1581d2d9eb4f"},"vehicle_type_id":"4","last_reported":1745161713,"current_range_meters":2800,"station_id":"cpo3342slgdg3j2ifvpg","pricing_plan_id":"cebpf4jnsgd1na2vs0mg"},{"bike_id":"8d015a2b-4362-4be4-a9f6-efc44718a61d","system_id":"levelo_inurba_marseille","lat":43.27379,"lon":5.36274,"is_reserved":false,"is_disabled":false,"rental_uris":{"android":"levelo://app?vid=8d015a2b-4362-4be4-a9f6-efc44718a61d","ios":"levelo://app?vid=8d015a2b-4362-4be4-a9f6-efc44718a61d"},"vehicle_type_id":"4","last_reported":1745161713,"current_range_meters":3200,"station_id":"ce4bhbh2rcd13ifvqeo0","pricing_plan_id":"cebpf4jnsgd1na2vs0mg"},{"bike_id":"395dccdf-a72f-4fa7-9770-fac1e68f2727","system_id":"levelo_inurba_marseille","lat":43.225037,"lon":5.347843,"is_reserved":false,"is_disabled":false,"rental_uris":{"android":"levelo://app?vid=395dccdf-a72f-4fa7-9770-fac1e68f2727","ios":"levelo://app?vid=395dccdf-a72f-4fa7-9770-fac1e68f2727"},"vehicle_type_id":"4","last_reported":1745161713,"current_range_meters":3200,"station_id":"st_cvj6r9ubvosntc0bgbag","pricing_plan_id":"cebpf4jnsgd1na2vs0mg"},{"bike_id":"f009b47e-0755-4248-b466-f85fa5eb4e68","system_id":"levelo_inurba_marseille","lat":43.33047,"lon":5.39036,"is_reserved":false,"is_disabled":false,"rental_uris":{"android":"levelo://app?vid=f009b47e-0755-4248-b466-f85fa5eb4e68","ios":"levelo://app?vid=f009b47e-0755-4248-b466-f85fa5eb4e68"},"vehicle_type_id":"4","last_reported":1745161713,"current_range_meters":3200,"station_id":"ce4bhr92rcd13ifvqhrg","pricing_plan_id":"cebpf4jnsgd1na2vs0mg"},{"bike_id":"343741ce-b6e0-4268-bd0c-f04814ad7588","system_id":"levelo_inurba_marseille","lat":43.2509,"lon":5.39521,"is_reserved":false,"is_disabled":false,"rental_uris":{"android":"levelo://app?vid=343741ce-b6e0-4268-bd0c-f04814ad7588","ios":"levelo://app?vid=343741ce-b6e0-4268-bd0c-f04814ad7588"},"vehicle_type_id":"4","last_reported":1745161713,"current_range_meters":3200,"station_id":"ce4bhm12rcd13ifvqgkg","pricing_plan_id":"cebpf4jnsgd1na2vs0mg"},{"bike_id":"3740a375-ddda-457a-9122-2f92964bd121","system_id":"levelo_inurba_marseille","lat":43.29969,"lon":5.38494,"is_reserved":false,"is_disabled":false,"rental_uris":{"android":"levelo://app?vid=3740a375-ddda-457a-9122-2f92964bd121","ios":"levelo://app?vid=3740a375-ddda-457a-9122-2f92964bd121"},"vehicle_type_id":"4","last_reported":1745161713,"current_range_meters":3200,"station_id":"ce4bgj92rcd13ifvqbd0","pricing_plan_id":"cebpf4jnsgd1na2vs0mg"},{"bike_id":"af7a8cfa-c698-42ac-a718-5da882347959","system_id":"levelo_inurba_marseille","lat":43.25694,"lon":5.41122,"is_reserved":false,"is_disabled":false,"rental_uris":{"android":"levelo://app?vid=af7a8cfa-c698-42ac-a718-5da882347959","ios":"levelo://app?vid=af7a8cfa-c698-42ac-a718-5da882347959"},"vehicle_type_id":"4","last_reported":1745161713,"current_range_meters":3200,"station_id":"ce4bhkp2rcd13ifvqgd0","pricing_plan_id":"cebpf4jnsgd1na2vs0mg"},{"bike_id":"4cdb0a0f-6366-43af-85c7-3c43d75a4386","system_id":"levelo_inurba_marseille","lat":43.32033,"lon":5.36777,"is_reserved":false,"is_disabled":false,"rental_uris":{"android":"levelo://app?vid=4cdb0a0f-6366-43af-85c7-3c43d75a4386","ios":"levelo://app?vid=4cdb0a0f-6366-43af-85c7-3c43d75a4386"},"vehicle_type_id":"4","last_reported":1745161713,"current_range_meters":3200,"station_id":"","pricing_plan_id":"cebpf4jnsgd1na2vs0mg"},{"bike_id":"066f1a3f-2f55-42ac-aa57-b561bb82f13e","system_id":"levelo_inurba_marseille","lat":43.3085,"lon":5.37367,"is_reserved":false,"is_disabled":false,"rental_uris":{"android":"levelo://app?vid=066f1a3f-2f55-42ac-aa57-b561bb82f13e","ios":"levelo://app?vid=066f1a3f-2f55-42ac-aa57-b561bb82f13e"},"vehicle_type_id":"4","last_reported":1745161713,"current_range_meters":3600,"station_id":"","pricing_plan_id":"cebpf4jnsgd1na2vs0mg"},{"bike_id":"e3224750-ec92-4cd9-8d8b-c70fc45f9081","system_id":"levelo_inurba_marseille","lat":43.25578,"lon":5.3824,"is_reserved":false,"is_disabled":false,"rental_uris":{"android":"levelo://app?vid=e3224750-ec92-4cd9-8d8b-c70fc45f9081","ios":"levelo://app?vid=e3224750-ec92-4cd9-8d8b-c70fc45f9081"},"vehicle_type_id":"4","last_reported":1745161713,"current_range_meters":3600,"station_id":"ce4bhih2rcd13ifvqfs0","pricing_plan_id":"cebpf4jnsgd1na2vs0mg"},{"bike_id":"23c66dcd-f638-42db-afdf-53644f741f18","system_id":"levelo_inurba_marseille","lat":43.22934,"lon":5.35376,"is_reserved":false,"is_disabled":false,"rental_uris":{"android":"levelo://app?vid=23c66dcd-f638-42db-afdf-53644f741f18","ios":"levelo://app?vid=23c66dcd-f638-42db-afdf-53644f741f18"},"vehicle_type_id":"4","last_reported":1745161713,"current_range_meters":3600,"station_id":"cpo3532slgdg3j2ikp40","pricing_plan_id":"cebpf4jnsgd1na2vs0mg"},{"bike_id":"805f75d3-ef48-453a-82be-cc015260a354","system_id":"levelo_inurba_marseille","lat":43.27971,"lon":5.38738,"is_reserved":false,"is_disabled":false,"rental_uris":{"android":"levelo://app?vid=805f75d3-ef48-453a-82be-cc015260a354","ios":"levelo://app?vid=805f75d3-ef48-453a-82be-cc015260a354"},"vehicle_type_id":"4","last_reported":1745161713,"current_range_meters":3200,"station_id":"ce4bhg12rcd13ifvqf80","pricing_plan_id":"cebpf4jnsgd1na2vs0mg"},{"bike_id":"f3a4e01b-c701-4986-a10e-513f5743d1b1","system_id":"levelo_inurba_marseille","lat":43.26551,"lon":5.37287,"is_reserved":false,"is_disabled":false,"rental_uris":{"android":"levelo://app?vid=f3a4e01b-c701-4986-a10e-513f5743d1b1","ios":"levelo://app?vid=f3a4e01b-c701-4986-a10e-513f5743d1b1"},"vehicle_type_id":"4","last_reported":1745161713,"current_range_meters":3600,"station_id":"ce4bhg12rcd13ifvqf70","pricing_plan_id":"cebpf4jnsgd1na2vs0mg"},{"bike_id":"005cdcd7-422a-49d3-9228-ff5ae35af3ad","system_id":"levelo_inurba_marseille","lat":43.30298,"lon":5.36889,"is_reserved":false,"is_disabled":false,"rental_uris":{"android":"levelo://app?vid=005cdcd7-422a-49d3-9228-ff5ae35af3ad","ios":"levelo://app?vid=005cdcd7-422a-49d3-9228-ff5ae35af3ad"},"vehicle_type_id":"4","last_reported":1745161713,"current_range_meters":3600,"station_id":"ce4bgqh2rcd13ifvqc5g","pricing_plan_id":"cebpf4jnsgd1na2vs0mg"},{"bike_id":"a0ddb0a5-f7f0-4281-aa27-9e82747cc573","system_id":"levelo_inurba_marseille","lat":43.33754,"lon":5.37491,"is_reserved":false,"is_disabled":false,"rental_uris":{"android":"levelo://app?vid=a0ddb0a5-f7f0-4281-aa27-9e82747cc573","ios":"levelo://app?vid=a0ddb0a5-f7f0-4281-aa27-9e82747cc573"},"vehicle_type_id":"4","last_reported":1745161713,"current_range_meters":3600,"station_id":"","pricing_plan_id":"cebpf4jnsgd1na2vs0mg"},{"bike_id":"35ecb0f7-0fef-4a5a-b735-e3b0004eb1b3","system_id":"levelo_inurba_marseille","lat":43.23155,"lon":5.43715,"is_reserved":false,"is_disabled":false,"rental_uris":{"android":"levelo://app?vid=35ecb0f7-0fef-4a5a-b735-e3b0004eb1b3","ios":"levelo://app?vid=35ecb0f7-0fef-4a5a-b735-e3b0004eb1b3"},"vehicle_type_id":"4","last_reported":1745161713,"current_range_meters":4000,"station_id":"ce4bhmp2rcd13ifvqgog","pricing_plan_id":"cebpf4jnsgd1na2vs0mg"},{"bike_id":"9fe8c14c-2d24-41b2-9662-956cdf9f075c","system_id":"levelo_inurba_marseille","lat":43.24478,"lon":5.3692,"is_reserved":false,"is_disabled":false,"rental_uris":{"android":"levelo://app?vid=9fe8c14c-2d24-41b2-9662-956cdf9f075c","ios":"levelo://app?vid=9fe8c14c-2d24-41b2-9662-956cdf9f075c"},"vehicle_type_id":"4","last_reported":1745161713,"current_range_meters":4000,"station_id":"","pricing_plan_id":"cebpf4jnsgd1na2vs0mg"},{"bike_id":"3cfa57b5-4113-4f83-9207-b01cc7fcfec0","system_id":"levelo_inurba_marseille","lat":43.27326,"lon":5.39074,"is_reserved":false,"is_disabled":false,"rental_uris":{"android":"levelo://app?vid=3cfa57b5-4113-4f83-9207-b01cc7fcfec0","ios":"levelo://app?vid=3cfa57b5-4113-4f83-9207-b01cc7fcfec0"},"vehicle_type_id":"4","last_reported":1745161713,"current_range_meters":3600,"station_id":"ce4bhgp2rcd13ifvqfe0","pricing_plan_id":"cebpf4jnsgd1na2vs0mg"},{"bike_id":"bdb0af5e-f1a4-4b4a-831e-019f5c36e387","system_id":"levelo_inurba_marseille","lat":43.28992,"lon":5.3561,"is_reserved":false,"is_disabled":true,"rental_uris":{"android":"levelo://app?vid=bdb0af5e-f1a4-4b4a-831e-019f5c36e387","ios":"levelo://app?vid=bdb0af5e-f1a4-4b4a-831e-019f5c36e387"},"vehicle_type_id":"4","last_reported":1745161713,"current_range_meters":4000,"station_id":"ce4bhb92rcd13ifvqen0","pricing_plan_id":"cebpf4jnsgd1na2vs0mg"},{"bike_id":"f49fc85a-b78f-4dfa-a083-41b72e4d454b","system_id":"levelo_inurba_marseille","lat":43.25498,"lon":5.37648,"is_reserved":false,"is_disabled":false,"rental_uris":{"android":"levelo://app?vid=f49fc85a-b78f-4dfa-a083-41b72e4d454b","ios":"levelo://app?vid=f49fc85a-b78f-4dfa-a083-41b72e4d454b"},"vehicle_type_id":"4","last_reported":1745161713,"current_range_meters":4000,"station_id":"ce4bhh12rcd13ifvqff0","pricing_plan_id":"cebpf4jnsgd1na2vs0mg"},{"bike_id":"09237ae1-c36f-486d-91a1-0a5e4772d609","system_id":"levelo_inurba_marseille","lat":43.26199,"lon":5.37932,"is_reserved":false,"is_disabled":false,"rental_uris":{"android":"levelo://app?vid=09237ae1-c36f-486d-91a1-0a5e4772d609","ios":"levelo://app?vid=09237ae1-c36f-486d-91a1-0a5e4772d609"},"vehicle_type_id":"4","last_reported":1745161713,"current_range_meters":3600,"station_id":"ce4bhjp2rcd13ifvqg90","pricing_plan_id":"cebpf4jnsgd1na2vs0mg"},{"bike_id":"ab42e793-35c0-4a52-a3f6-ac07eb6ffa88","system_id":"levelo_inurba_marseille","lat":43.23198,"lon":5.35562,"is_reserved":false,"is_disabled":true,"rental_uris":{"android":"levelo://app?vid=ab42e793-35c0-4a52-a3f6-ac07eb6ffa88","ios":"levelo://app?vid=ab42e793-35c0-4a52-a3f6-ac07eb6ffa88"},"vehicle_type_id":"4","last_reported":1745161713,"current_range_meters":4000,"station_id":"ce4bhu92rcd13ifvqi70","pricing_plan_id":"cebpf4jnsgd1na2vs0mg"},{"bike_id":"7f3a103b-5efc-4cdd-a301-317ee6d6859d","system_id":"levelo_inurba_marseille","lat":43.30309,"lon":5.36885,"is_reserved":false,"is_disabled":false,"rental_uris":{"android":"levelo://app?vid=7f3a103b-5efc-4cdd-a301-317ee6d6859d","ios":"levelo://app?vid=7f3a103b-5efc-4cdd-a301-317ee6d6859d"},"vehicle_type_id":"4","last_reported":1745161713,"current_range_meters":4000,"station_id":"ce4bgqh2rcd13ifvqc5g","pricing_plan_id":"cebpf4jnsgd1na2vs0mg"},{"bike_id":"f8173a74-79e8-4f4c-a64f-9430092658ff","system_id":"levelo_inurba_marseille","lat":43.25094,"lon":5.39516,"is_reserved":false,"is_disabled":false,"rental_uris":{"android":"levelo://app?vid=f8173a74-79e8-4f4c-a64f-9430092658ff","ios":"levelo://app?vid=f8173a74-79e8-4f4c-a64f-9430092658ff"},"vehicle_type_id":"4","last_reported":1745161713,"current_range_meters":4000,"station_id":"ce4bhm12rcd13ifvqgkg","pricing_plan_id":"cebpf4jnsgd1na2vs0mg"},{"bike_id":"4bd48082-80d8-4414-b3e6-c30fac0c4d79","system_id":"levelo_inurba_marseille","lat":43.29804,"lon":5.4039,"is_reserved":false,"is_disabled":false,"rental_uris":{"android":"levelo://app?vid=4bd48082-80d8-4414-b3e6-c30fac0c4d79","ios":"levelo://app?vid=4bd48082-80d8-4414-b3e6-c30fac0c4d79"},"vehicle_type_id":"4","last_reported":1745161713,"current_range_meters":4000,"station_id":"ce4bh112rcd13ifvqd90","pricing_plan_id":"cebpf4jnsgd1na2vs0mg"},{"bike_id":"699f7ceb-ea45-4f93-ad98-0ca8979d022b","system_id":"levelo_inurba_marseille","lat":43.22932,"lon":5.35376,"is_reserved":false,"is_disabled":false,"rental_uris":{"android":"levelo://app?vid=699f7ceb-ea45-4f93-ad98-0ca8979d022b","ios":"levelo://app?vid=699f7ceb-ea45-4f93-ad98-0ca8979d022b"},"vehicle_type_id":"4","last_reported":1745161713,"current_range_meters":4400,"station_id":"cpo3532slgdg3j2ikp40","pricing_plan_id":"cebpf4jnsgd1na2vs0mg"},{"bike_id":"35f0a6e1-f9a9-47ee-bab6-2641cdd8ae57","system_id":"levelo_inurba_marseille","lat":43.27325,"lon":5.3914,"is_reserved":false,"is_disabled":true,"rental_uris":{"android":"levelo://app?vid=35f0a6e1-f9a9-47ee-bab6-2641cdd8ae57","ios":"levelo://app?vid=35f0a6e1-f9a9-47ee-bab6-2641cdd8ae57"},"vehicle_type_id":"4","last_reported":1745161713,"current_range_meters":4400,"station_id":"ce4bhgp2rcd13ifvqfe0","pricing_plan_id":"cebpf4jnsgd1na2vs0mg"},{"bike_id":"74cc7379-07d0-4cda-8772-fedc5f2fd325","system_id":"levelo_inurba_marseille","lat":43.30377,"lon":5.4248,"is_reserved":false,"is_disabled":false,"rental_uris":{"android":"levelo://app?vid=74cc7379-07d0-4cda-8772-fedc5f2fd325","ios":"levelo://app?vid=74cc7379-07d0-4cda-8772-fedc5f2fd325"},"vehicle_type_id":"4","last_reported":1745161713,"current_range_meters":4400,"station_id":"ce4bhoh2rcd13ifvqh6g","pricing_plan_id":"cebpf4jnsgd1na2vs0mg"},{"bike_id":"362e2e8f-c00a-4a59-bc05-bf732da51e85","system_id":"levelo_inurba_marseille","lat":43.255,"lon":5.3765,"is_reserved":false,"is_disabled":false,"rental_uris":{"android":"levelo://app?vid=362e2e8f-c00a-4a59-bc05-bf732da51e85","ios":"levelo://app?vid=362e2e8f-c00a-4a59-bc05-bf732da51e85"},"vehicle_type_id":"4","last_reported":1745161713,"current_range_meters":4400,"station_id":"ce4bhh12rcd13ifvqff0","pricing_plan_id":"cebpf4jnsgd1na2vs0mg"},{"bike_id":"22583896-a653-48d4-8b37-6cfca0e7be93","system_id":"levelo_inurba_marseille","lat":43.21195,"lon":5.35069,"is_reserved":false,"is_disabled":false,"rental_uris":{"android":"levelo://app?vid=22583896-a653-48d4-8b37-6cfca0e7be93","ios":"levelo://app?vid=22583896-a653-48d4-8b37-6cfca0e7be93"},"vehicle_type_id":"4","last_reported":1745161713,"current_range_meters":4400,"station_id":"st_cvj6sg6p6f1abm77japg","pricing_plan_id":"cebpf4jnsgd1na2vs0mg"},{"bike_id":"2fc4de0f-bdf0-4b97-8f6e-c969e799d072","system_id":"levelo_inurba_marseille","lat":43.211896,"lon":5.35062,"is_reserved":false,"is_disabled":false,"rental_uris":{"android":"levelo://app?vid=2fc4de0f-bdf0-4b97-8f6e-c969e799d072","ios":"levelo://app?vid=2fc4de0f-bdf0-4b97-8f6e-c969e799d072"},"vehicle_type_id":"4","last_reported":1745161713,"current_range_meters":4400,"station_id":"st_cvj6sg6p6f1abm77japg","pricing_plan_id":"cebpf4jnsgd1na2vs0mg"},{"bike_id":"354ef76f-4401-4243-993e-9e35cec3e0e3","system_id":"levelo_inurba_marseille","lat":43.28095,"lon":5.37833,"is_reserved":false,"is_disabled":false,"rental_uris":{"android":"levelo://app?vid=354ef76f-4401-4243-993e-9e35cec3e0e3","ios":"levelo://app?vid=354ef76f-4401-4243-993e-9e35cec3e0e3"},"vehicle_type_id":"4","last_reported":1745161713,"current_range_meters":4800,"station_id":"ce4bha12rcd13ifvqee0","pricing_plan_id":"cebpf4jnsgd1na2vs0mg"},{"bike_id":"96486a73-6174-4fee-94a5-38fa6568e374","system_id":"levelo_inurba_marseille","lat":43.29039,"lon":5.37562,"is_reserved":false,"is_disabled":false,"rental_uris":{"android":"levelo://app?vid=96486a73-6174-4fee-94a5-38fa6568e374","ios":"levelo://app?vid=96486a73-6174-4fee-94a5-38fa6568e374"},"vehicle_type_id":"4","last_reported":1745161713,"current_range_meters":4400,"station_id":"ce4bh692rcd13ifvqe90","pricing_plan_id":"cebpf4jnsgd1na2vs0mg"},{"bike_id":"80e399c6-ea35-4e48-b798-aa559a4f8c6d","system_id":"levelo_inurba_marseille","lat":43.27373,"lon":5.36242,"is_reserved":false,"is_disabled":false,"rental_uris":{"android":"levelo://app?vid=80e399c6-ea35-4e48-b798-aa559a4f8c6d","ios":"levelo://app?vid=80e399c6-ea35-4e48-b798-aa559a4f8c6d"},"vehicle_type_id":"4","last_reported":1745161713,"current_range_meters":4800,"station_id":"ce4bhbh2rcd13ifvqeo0","pricing_plan_id":"cebpf4jnsgd1na2vs0mg"},{"bike_id":"23806b15-5fc9-415b-9304-88c9c9c92074","system_id":"levelo_inurba_marseille","lat":43.28931,"lon":5.38385,"is_reserved":false,"is_disabled":false,"rental_uris":{"android":"levelo://app?vid=23806b15-5fc9-415b-9304-88c9c9c92074","ios":"levelo://app?vid=23806b15-5fc9-415b-9304-88c9c9c92074"},"vehicle_type_id":"4","last_reported":1745161713,"current_range_meters":4400,"station_id":"ce4bh612rcd13ifvqe6g","pricing_plan_id":"cebpf4jnsgd1na2vs0mg"},{"bike_id":"cf9ef38c-e26f-4577-beb2-4bbb872d5e7e","system_id":"levelo_inurba_marseille","lat":43.25109,"lon":5.40329,"is_reserved":false,"is_disabled":false,"rental_uris":{"android":"levelo://app?vid=cf9ef38c-e26f-4577-beb2-4bbb872d5e7e","ios":"levelo://app?vid=cf9ef38c-e26f-4577-beb2-4bbb872d5e7e"},"vehicle_type_id":"4","last_reported":1745161713,"current_range_meters":4800,"station_id":"ce4bhlh2rcd13ifvqgig","pricing_plan_id":"cebpf4jnsgd1na2vs0mg"},{"bike_id":"88d0468a-6b50-40af-82f9-f3b38434dc7e","system_id":"levelo_inurba_marseille","lat":43.30333,"lon":5.40436,"is_reserved":false,"is_disabled":false,"rental_uris":{"android":"levelo://app?vid=88d0468a-6b50-40af-82f9-f3b38434dc7e","ios":"levelo://app?vid=88d0468a-6b50-40af-82f9-f3b38434dc7e"},"vehicle_type_id":"4","last_reported":1745161713,"current_range_meters":5600,"station_id":"ce4bh012rcd13ifvqd10","pricing_plan_id":"cebpf4jnsgd1na2vs0mg"},{"bike_id":"ce9316f1-4e5d-44d9-bb59-250fa12aa52d","system_id":"levelo_inurba_marseille","lat":43.28404,"lon":5.37516,"is_reserved":false,"is_disabled":false,"rental_uris":{"android":"levelo://app?vid=ce9316f1-4e5d-44d9-bb59-250fa12aa52d","ios":"levelo://app?vid=ce9316f1-4e5d-44d9-bb59-250fa12aa52d"},"vehicle_type_id":"4","last_reported":1745161713,"current_range_meters":4800,"station_id":"ce4bh412rcd13ifvqds0","pricing_plan_id":"cebpf4jnsgd1na2vs0mg"},{"bike_id":"f62e104c-1b5e-4cef-9eb3-5f61d855667e","system_id":"levelo_inurba_marseille","lat":43.25578,"lon":5.38232,"is_reserved":false,"is_disabled":false,"rental_uris":{"android":"levelo://app?vid=f62e104c-1b5e-4cef-9eb3-5f61d855667e","ios":"levelo://app?vid=f62e104c-1b5e-4cef-9eb3-5f61d855667e"},"vehicle_type_id":"4","last_reported":1745161713,"current_range_meters":5600,"station_id":"ce4bhih2rcd13ifvqfs0","pricing_plan_id":"cebpf4jnsgd1na2vs0mg"},{"bike_id":"7919eff9-1f32-4e6c-8a42-1fea05cfe983","system_id":"levelo_inurba_marseille","lat":43.27365,"lon":5.36241,"is_reserved":false,"is_disabled":false,"rental_uris":{"android":"levelo://app?vid=7919eff9-1f32-4e6c-8a42-1fea05cfe983","ios":"levelo://app?vid=7919eff9-1f32-4e6c-8a42-1fea05cfe983"},"vehicle_type_id":"4","last_reported":1745161713,"current_range_meters":5600,"station_id":"ce4bhbh2rcd13ifvqeo0","pricing_plan_id":"cebpf4jnsgd1na2vs0mg"},{"bike_id":"1ff048bf-100b-4128-a900-c26f679411f6","system_id":"levelo_inurba_marseille","lat":43.28612,"lon":5.35094,"is_reserved":false,"is_disabled":false,"rental_uris":{"android":"levelo://app?vid=1ff048bf-100b-4128-a900-c26f679411f6","ios":"levelo://app?vid=1ff048bf-100b-4128-a900-c26f679411f6"},"vehicle_type_id":"4","last_reported":1745161713,"current_range_meters":6000,"station_id":"ce4bhch2rcd13ifvqeug","pricing_plan_id":"cebpf4jnsgd1na2vs0mg"},{"bike_id":"cecd7c84-becb-41c3-9869-71d934006a59","system_id":"levelo_inurba_marseille","lat":43.274,"lon":5.36269,"is_reserved":false,"is_disabled":false,"rental_uris":{"android":"levelo://app?vid=cecd7c84-becb-41c3-9869-71d934006a59","ios":"levelo://app?vid=cecd7c84-becb-41c3-9869-71d934006a59"},"vehicle_type_id":"4","last_reported":1745161713,"current_range_meters":5600,"station_id":"ce4bhbh2rcd13ifvqeo0","pricing_plan_id":"cebpf4jnsgd1na2vs0mg"},{"bike_id":"b52a1751-28c1-4412-9819-bb1cff38059d","system_id":"levelo_inurba_marseille","lat":43.25561,"lon":5.40648,"is_reserved":false,"is_disabled":false,"rental_uris":{"android":"levelo://app?vid=b52a1751-28c1-4412-9819-bb1cff38059d","ios":"levelo://app?vid=b52a1751-28c1-4412-9819-bb1cff38059d"},"vehicle_type_id":"4","last_reported":1745161713,"current_range_meters":5600,"station_id":"","pricing_plan_id":"cebpf4jnsgd1na2vs0mg"},{"bike_id":"678f1e0b-45a7-49c4-a37d-77f46fc091f6","system_id":"levelo_inurba_marseille","lat":43.29615,"lon":5.37716,"is_reserved":false,"is_disabled":false,"rental_uris":{"android":"levelo://app?vid=678f1e0b-45a7-49c4-a37d-77f46fc091f6","ios":"levelo://app?vid=678f1e0b-45a7-49c4-a37d-77f46fc091f6"},"vehicle_type_id":"4","last_reported":1745161713,"current_range_meters":5600,"station_id":"ce4bgi92rcd13ifvqb90","pricing_plan_id":"cebpf4jnsgd1na2vs0mg"},{"bike_id":"51d83fb9-f5ca-41e1-b520-23bc99173c99","system_id":"levelo_inurba_marseille","lat":43.27326,"lon":5.3909,"is_reserved":false,"is_disabled":false,"rental_uris":{"android":"levelo://app?vid=51d83fb9-f5ca-41e1-b520-23bc99173c99","ios":"levelo://app?vid=51d83fb9-f5ca-41e1-b520-23bc99173c99"},"vehicle_type_id":"4","last_reported":1745161713,"current_range_meters":5600,"station_id":"ce4bhgp2rcd13ifvqfe0","pricing_plan_id":"cebpf4jnsgd1na2vs0mg"},{"bike_id":"02c4515e-0b29-46f3-830a-074bdd18b487","system_id":"levelo_inurba_marseille","lat":43.24651,"lon":5.38891,"is_reserved":false,"is_disabled":false,"rental_uris":{"android":"levelo://app?vid=02c4515e-0b29-46f3-830a-074bdd18b487","ios":"levelo://app?vid=02c4515e-0b29-46f3-830a-074bdd18b487"},"vehicle_type_id":"4","last_reported":1745161713,"current_range_meters":4800,"station_id":"ce4bhg12rcd13ifvqf60","pricing_plan_id":"cebpf4jnsgd1na2vs0mg"},{"bike_id":"10901109-dd8b-4da9-9837-2ccd5b1c4427","system_id":"levelo_inurba_marseille","lat":43.23185,"lon":5.40003,"is_reserved":false,"is_disabled":false,"rental_uris":{"android":"levelo://app?vid=10901109-dd8b-4da9-9837-2ccd5b1c4427","ios":"levelo://app?vid=10901109-dd8b-4da9-9837-2ccd5b1c4427"},"vehicle_type_id":"4","last_reported":1745161713,"current_range_meters":5600,"station_id":"ce4bhn12rcd13ifvqgqg","pricing_plan_id":"cebpf4jnsgd1na2vs0mg"},{"bike_id":"6deec77a-9f8d-4652-bcb7-2119d2b0a13a","system_id":"levelo_inurba_marseille","lat":43.23969,"lon":5.3663,"is_reserved":false,"is_disabled":false,"rental_uris":{"android":"levelo://app?vid=6deec77a-9f8d-4652-bcb7-2119d2b0a13a","ios":"levelo://app?vid=6deec77a-9f8d-4652-bcb7-2119d2b0a13a"},"vehicle_type_id":"4","last_reported":1745161713,"current_range_meters":6000,"station_id":"ce4bhi12rcd13ifvqfp0","pricing_plan_id":"cebpf4jnsgd1na2vs0mg"},{"bike_id":"20672d1a-f2ec-42de-9325-cfac644e7cfd","system_id":"levelo_inurba_marseille","lat":43.2842,"lon":5.34972,"is_reserved":false,"is_disabled":false,"rental_uris":{"android":"levelo://app?vid=20672d1a-f2ec-42de-9325-cfac644e7cfd","ios":"levelo://app?vid=20672d1a-f2ec-42de-9325-cfac644e7cfd"},"vehicle_type_id":"4","last_reported":1745161713,"current_range_meters":7200,"station_id":"ce4bhbh2rcd13ifvqepg","pricing_plan_id":"cebpf4jnsgd1na2vs0mg"},{"bike_id":"501b1c56-b5c3-4cfb-932f-a774c7db70f2","system_id":"levelo_inurba_marseille","lat":43.265472,"lon":5.372858,"is_reserved":false,"is_disabled":true,"rental_uris":{"android":"levelo://app?vid=501b1c56-b5c3-4cfb-932f-a774c7db70f2","ios":"levelo://app?vid=501b1c56-b5c3-4cfb-932f-a774c7db70f2"},"vehicle_type_id":"4","last_reported":1745161713,"current_range_meters":6000,"station_id":"ce4bhap2rcd13ifvqek0","pricing_plan_id":"cebpf4jnsgd1na2vs0mg"},{"bike_id":"7637bd3f-cd53-46eb-8b5a-acdbfb72f527","system_id":"levelo_inurba_marseille","lat":43.24074,"lon":5.3776,"is_reserved":false,"is_disabled":false,"rental_uris":{"android":"levelo://app?vid=7637bd3f-cd53-46eb-8b5a-acdbfb72f527","ios":"levelo://app?vid=7637bd3f-cd53-46eb-8b5a-acdbfb72f527"},"vehicle_type_id":"4","last_reported":1745161713,"current_range_meters":6000,"station_id":"ce4bhnp2rcd13ifvqgvg","pricing_plan_id":"cebpf4jnsgd1na2vs0mg"},{"bike_id":"5408893a-d5c2-40b9-9edc-e0accbddde84","system_id":"levelo_inurba_marseille","lat":43.273757,"lon":5.362571,"is_reserved":false,"is_disabled":false,"rental_uris":{"android":"levelo://app?vid=5408893a-d5c2-40b9-9edc-e0accbddde84","ios":"levelo://app?vid=5408893a-d5c2-40b9-9edc-e0accbddde84"},"vehicle_type_id":"4","last_reported":1745161713,"current_range_meters":6000,"station_id":"ce4bhbh2rcd13ifvqeo0","pricing_plan_id":"cebpf4jnsgd1na2vs0mg"},{"bike_id":"2f47305b-54be-41e9-bba6-683afebefc5e","system_id":"levelo_inurba_marseille","lat":43.25496,"lon":5.37647,"is_reserved":false,"is_disabled":false,"rental_uris":{"android":"levelo://app?vid=2f47305b-54be-41e9-bba6-683afebefc5e","ios":"levelo://app?vid=2f47305b-54be-41e9-bba6-683afebefc5e"},"vehicle_type_id":"4","last_reported":1745161713,"current_range_meters":6400,"station_id":"ce4bhh12rcd13ifvqff0","pricing_plan_id":"cebpf4jnsgd1na2vs0mg"},{"bike_id":"656ac081-c121-4824-81a4-fa92b7720ed4","system_id":"levelo_inurba_marseille","lat":43.23191,"lon":5.35562,"is_reserved":false,"is_disabled":false,"rental_uris":{"android":"levelo://app?vid=656ac081-c121-4824-81a4-fa92b7720ed4","ios":"levelo://app?vid=656ac081-c121-4824-81a4-fa92b7720ed4"},"vehicle_type_id":"4","last_reported":1745161713,"current_range_meters":6400,"station_id":"ce4bhu92rcd13ifvqi70","pricing_plan_id":"cebpf4jnsgd1na2vs0mg"},{"bike_id":"e45737d8-4e0b-4db0-a45b-0b9936d251c2","system_id":"levelo_inurba_marseille","lat":43.27387,"lon":5.36279,"is_reserved":false,"is_disabled":false,"rental_uris":{"android":"levelo://app?vid=e45737d8-4e0b-4db0-a45b-0b9936d251c2","ios":"levelo://app?vid=e45737d8-4e0b-4db0-a45b-0b9936d251c2"},"vehicle_type_id":"4","last_reported":1745161713,"current_range_meters":6400,"station_id":"ce4bhbh2rcd13ifvqeo0","pricing_plan_id":"cebpf4jnsgd1na2vs0mg"},{"bike_id":"186380b9-3dab-457b-b648-71d123fa0368","system_id":"levelo_inurba_marseille","lat":43.25105,"lon":5.40343,"is_reserved":false,"is_disabled":true,"rental_uris":{"android":"levelo://app?vid=186380b9-3dab-457b-b648-71d123fa0368","ios":"levelo://app?vid=186380b9-3dab-457b-b648-71d123fa0368"},"vehicle_type_id":"4","last_reported":1745161713,"current_range_meters":6400,"station_id":"ce4bhlh2rcd13ifvqgig","pricing_plan_id":"cebpf4jnsgd1na2vs0mg"},{"bike_id":"8a95b270-4876-4a83-ba2d-534c70dc510e","system_id":"levelo_inurba_marseille","lat":43.25866,"lon":5.399,"is_reserved":false,"is_disabled":true,"rental_uris":{"android":"levelo://app?vid=8a95b270-4876-4a83-ba2d-534c70dc510e","ios":"levelo://app?vid=8a95b270-4876-4a83-ba2d-534c70dc510e"},"vehicle_type_id":"4","last_reported":1745161713,"current_range_meters":6400,"station_id":"ce4bhl92rcd13ifvqghg","pricing_plan_id":"cebpf4jnsgd1na2vs0mg"},{"bike_id":"d2ba4413-c35f-41b1-8baf-f83e6001a359","system_id":"levelo_inurba_marseille","lat":43.2903,"lon":5.38648,"is_reserved":false,"is_disabled":true,"rental_uris":{"android":"levelo://app?vid=d2ba4413-c35f-41b1-8baf-f83e6001a359","ios":"levelo://app?vid=d2ba4413-c35f-41b1-8baf-f83e6001a359"},"vehicle_type_id":"4","last_reported":1745161713,"current_range_meters":6400,"station_id":"ce4bh4p2rcd13ifvqe0g","pricing_plan_id":"cebpf4jnsgd1na2vs0mg"},{"bike_id":"8a2f5b40-79de-4753-92a1-8bba8a337839","system_id":"levelo_inurba_marseille","lat":43.3237,"lon":5.3889,"is_reserved":false,"is_disabled":false,"rental_uris":{"android":"levelo://app?vid=8a2f5b40-79de-4753-92a1-8bba8a337839","ios":"levelo://app?vid=8a2f5b40-79de-4753-92a1-8bba8a337839"},"vehicle_type_id":"4","last_reported":1745161713,"current_range_meters":6400,"station_id":"ce4bhqp2rcd13ifvqhog","pricing_plan_id":"cebpf4jnsgd1na2vs0mg"},{"bike_id":"4f7d7a48-9ed4-49ae-98c3-6d5ae3d0a41a","system_id":"levelo_inurba_marseille","lat":43.22955,"lon":5.35401,"is_reserved":false,"is_disabled":false,"rental_uris":{"android":"levelo://app?vid=4f7d7a48-9ed4-49ae-98c3-6d5ae3d0a41a","ios":"levelo://app?vid=4f7d7a48-9ed4-49ae-98c3-6d5ae3d0a41a"},"vehicle_type_id":"4","last_reported":1745161713,"current_range_meters":6400,"station_id":"cpo3532slgdg3j2ikp40","pricing_plan_id":"cebpf4jnsgd1na2vs0mg"},{"bike_id":"6c8fea83-d68c-45bd-a6b3-295640f99de8","system_id":"levelo_inurba_marseille","lat":43.31726,"lon":5.42397,"is_reserved":false,"is_disabled":false,"rental_uris":{"android":"levelo://app?vid=6c8fea83-d68c-45bd-a6b3-295640f99de8","ios":"levelo://app?vid=6c8fea83-d68c-45bd-a6b3-295640f99de8"},"vehicle_type_id":"4","last_reported":1745161713,"current_range_meters":6800,"station_id":"ce4bhp92rcd13ifvqhbg","pricing_plan_id":"cebpf4jnsgd1na2vs0mg"},{"bike_id":"f7f1f42c-c2d4-4db0-bdc5-9a6561d0db10","system_id":"levelo_inurba_marseille","lat":43.29622,"lon":5.37164,"is_reserved":false,"is_disabled":false,"rental_uris":{"android":"levelo://app?vid=f7f1f42c-c2d4-4db0-bdc5-9a6561d0db10","ios":"levelo://app?vid=f7f1f42c-c2d4-4db0-bdc5-9a6561d0db10"},"vehicle_type_id":"4","last_reported":1745161713,"current_range_meters":6400,"station_id":"ce4bgnh2rcd13ifvqc0g","pricing_plan_id":"cebpf4jnsgd1na2vs0mg"},{"bike_id":"1eaca8f5-0017-418a-9bfc-52185bf67513","system_id":"levelo_inurba_marseille","lat":43.33721,"lon":5.39184,"is_reserved":false,"is_disabled":false,"rental_uris":{"android":"levelo://app?vid=1eaca8f5-0017-418a-9bfc-52185bf67513","ios":"levelo://app?vid=1eaca8f5-0017-418a-9bfc-52185bf67513"},"vehicle_type_id":"4","last_reported":1745161713,"current_range_meters":6800,"station_id":"ce4bhr92rcd13ifvqhsg","pricing_plan_id":"cebpf4jnsgd1na2vs0mg"},{"bike_id":"065840ce-8f53-4b21-8716-8b1ed5d25669","system_id":"levelo_inurba_marseille","lat":43.241,"lon":5.37761,"is_reserved":false,"is_disabled":false,"rental_uris":{"android":"levelo://app?vid=065840ce-8f53-4b21-8716-8b1ed5d25669","ios":"levelo://app?vid=065840ce-8f53-4b21-8716-8b1ed5d25669"},"vehicle_type_id":"4","last_reported":1745161713,"current_range_meters":6800,"station_id":"ce4bhnp2rcd13ifvqgvg","pricing_plan_id":"cebpf4jnsgd1na2vs0mg"},{"bike_id":"9b0ec8eb-f454-4089-a408-904efbf07130","system_id":"levelo_inurba_marseille","lat":43.23192,"lon":5.35552,"is_reserved":false,"is_disabled":false,"rental_uris":{"android":"levelo://app?vid=9b0ec8eb-f454-4089-a408-904efbf07130","ios":"levelo://app?vid=9b0ec8eb-f454-4089-a408-904efbf07130"},"vehicle_type_id":"4","last_reported":1745161713,"current_range_meters":6800,"station_id":"ce4bhu92rcd13ifvqi70","pricing_plan_id":"cebpf4jnsgd1na2vs0mg"},{"bike_id":"ed31bf60-28a9-4aa9-b1aa-0dafeec55598","system_id":"levelo_inurba_marseille","lat":43.27375,"lon":5.36267,"is_reserved":false,"is_disabled":false,"rental_uris":{"android":"levelo://app?vid=ed31bf60-28a9-4aa9-b1aa-0dafeec55598","ios":"levelo://app?vid=ed31bf60-28a9-4aa9-b1aa-0dafeec55598"},"vehicle_type_id":"4","last_reported":1745161713,"current_range_meters":6800,"station_id":"ce4bhbh2rcd13ifvqeo0","pricing_plan_id":"cebpf4jnsgd1na2vs0mg"},{"bike_id":"096fd3fd-edf0-4b83-b193-fc03203f24da","system_id":"levelo_inurba_marseille","lat":43.241683,"lon":5.363973,"is_reserved":false,"is_disabled":false,"rental_uris":{"android":"levelo://app?vid=096fd3fd-edf0-4b83-b193-fc03203f24da","ios":"levelo://app?vid=096fd3fd-edf0-4b83-b193-fc03203f24da"},"vehicle_type_id":"4","last_reported":1745161713,"current_range_meters":0,"station_id":"cpo36qri1sfpv3e86is0","pricing_plan_id":"cebpf4jnsgd1na2vs0mg"},{"bike_id":"f8266a8e-1bd9-4182-b247-939bdafbb72c","system_id":"levelo_inurba_marseille","lat":43.30468,"lon":5.37899,"is_reserved":false,"is_disabled":true,"rental_uris":{"android":"levelo://app?vid=f8266a8e-1bd9-4182-b247-939bdafbb72c","ios":"levelo://app?vid=f8266a8e-1bd9-4182-b247-939bdafbb72c"},"vehicle_type_id":"4","last_reported":1745161713,"current_range_meters":6800,"station_id":"ce4bgup2rcd13ifvqcn0","pricing_plan_id":"cebpf4jnsgd1na2vs0mg"},{"bike_id":"af3ebe80-a4a6-455c-b098-551b46797597","system_id":"levelo_inurba_marseille","lat":43.301392,"lon":5.374159,"is_reserved":false,"is_disabled":false,"rental_uris":{"android":"levelo://app?vid=af3ebe80-a4a6-455c-b098-551b46797597","ios":"levelo://app?vid=af3ebe80-a4a6-455c-b098-551b46797597"},"vehicle_type_id":"4","last_reported":1745161713,"current_range_meters":6800,"station_id":"ce4bgs92rcd13ifvqcc0","pricing_plan_id":"cebpf4jnsgd1na2vs0mg"},{"bike_id":"beb0d3c0-549a-4a90-8320-da73ac782083","system_id":"levelo_inurba_marseille","lat":43.23057,"lon":5.35487,"is_reserved":false,"is_disabled":false,"rental_uris":{"android":"levelo://app?vid=beb0d3c0-549a-4a90-8320-da73ac782083","ios":"levelo://app?vid=beb0d3c0-549a-4a90-8320-da73ac782083"},"vehicle_type_id":"4","last_reported":1745161713,"current_range_meters":7200,"station_id":"cpo3342slgdg3j2ifvpg","pricing_plan_id":"cebpf4jnsgd1na2vs0mg"},{"bike_id":"967fc5c2-2d8c-40dc-b0d8-39b0debd9469","system_id":"levelo_inurba_marseille","lat":43.23086,"lon":5.35518,"is_reserved":false,"is_disabled":false,"rental_uris":{"android":"levelo://app?vid=967fc5c2-2d8c-40dc-b0d8-39b0debd9469","ios":"levelo://app?vid=967fc5c2-2d8c-40dc-b0d8-39b0debd9469"},"vehicle_type_id":"4","last_reported":1745161713,"current_range_meters":7200,"station_id":"cpo3342slgdg3j2ifvpg","pricing_plan_id":"cebpf4jnsgd1na2vs0mg"},{"bike_id":"99c3a2c7-de62-4cef-b2aa-0b2d1198d16f","system_id":"levelo_inurba_marseille","lat":43.31075,"lon":5.38367,"is_reserved":false,"is_disabled":false,"rental_uris":{"android":"levelo://app?vid=99c3a2c7-de62-4cef-b2aa-0b2d1198d16f","ios":"levelo://app?vid=99c3a2c7-de62-4cef-b2aa-0b2d1198d16f"},"vehicle_type_id":"4","last_reported":1745161713,"current_range_meters":7200,"station_id":"ce4bgv92rcd13ifvqcr0","pricing_plan_id":"cebpf4jnsgd1na2vs0mg"},{"bike_id":"f30bfaeb-c00b-4dcd-a9ce-200ed6c7405b","system_id":"levelo_inurba_marseille","lat":43.29401,"lon":5.41259,"is_reserved":false,"is_disabled":false,"rental_uris":{"android":"levelo://app?vid=f30bfaeb-c00b-4dcd-a9ce-200ed6c7405b","ios":"levelo://app?vid=f30bfaeb-c00b-4dcd-a9ce-200ed6c7405b"},"vehicle_type_id":"4","last_reported":1745161713,"current_range_meters":7200,"station_id":"","pricing_plan_id":"cebpf4jnsgd1na2vs0mg"},{"bike_id":"1965f819-3778-4654-96e5-aaaf9c36cc08","system_id":"levelo_inurba_marseille","lat":43.30375,"lon":5.42479,"is_reserved":false,"is_disabled":false,"rental_uris":{"android":"levelo://app?vid=1965f819-3778-4654-96e5-aaaf9c36cc08","ios":"levelo://app?vid=1965f819-3778-4654-96e5-aaaf9c36cc08"},"vehicle_type_id":"4","last_reported":1745161713,"current_range_meters":7200,"station_id":"ce4bhoh2rcd13ifvqh6g","pricing_plan_id":"cebpf4jnsgd1na2vs0mg"},{"bike_id":"63c506ae-38b5-4d09-8fb7-b221bd456a61","system_id":"levelo_inurba_marseille","lat":43.25087,"lon":5.39522,"is_reserved":false,"is_disabled":false,"rental_uris":{"android":"levelo://app?vid=63c506ae-38b5-4d09-8fb7-b221bd456a61","ios":"levelo://app?vid=63c506ae-38b5-4d09-8fb7-b221bd456a61"},"vehicle_type_id":"4","last_reported":1745161713,"current_range_meters":7200,"station_id":"ce4bhm12rcd13ifvqgkg","pricing_plan_id":"cebpf4jnsgd1na2vs0mg"},{"bike_id":"358e1f20-d875-48ca-9d8c-02d4bc4fc797","system_id":"levelo_inurba_marseille","lat":43.33746,"lon":5.39189,"is_reserved":false,"is_disabled":false,"rental_uris":{"android":"levelo://app?vid=358e1f20-d875-48ca-9d8c-02d4bc4fc797","ios":"levelo://app?vid=358e1f20-d875-48ca-9d8c-02d4bc4fc797"},"vehicle_type_id":"4","last_reported":1745161713,"current_range_meters":7200,"station_id":"ce4bhr92rcd13ifvqhsg","pricing_plan_id":"cebpf4jnsgd1na2vs0mg"},{"bike_id":"39743838-f2c5-4ac1-919e-6d449f3a4c32","system_id":"levelo_inurba_marseille","lat":43.27574,"lon":5.3843,"is_reserved":false,"is_disabled":false,"rental_uris":{"android":"levelo://app?vid=39743838-f2c5-4ac1-919e-6d449f3a4c32","ios":"levelo://app?vid=39743838-f2c5-4ac1-919e-6d449f3a4c32"},"vehicle_type_id":"4","last_reported":1745161713,"current_range_meters":7200,"station_id":"ce4bhh92rcd13ifvqfi0","pricing_plan_id":"cebpf4jnsgd1na2vs0mg"},{"bike_id":"a969d1ed-77d3-4189-b5a7-0bf8cf90d349","system_id":"levelo_inurba_marseille","lat":43.231953,"lon":5.35554,"is_reserved":false,"is_disabled":false,"rental_uris":{"android":"levelo://app?vid=a969d1ed-77d3-4189-b5a7-0bf8cf90d349","ios":"levelo://app?vid=a969d1ed-77d3-4189-b5a7-0bf8cf90d349"},"vehicle_type_id":"4","last_reported":1745161713,"current_range_meters":7200,"station_id":"ce4bhu92rcd13ifvqi70","pricing_plan_id":"cebpf4jnsgd1na2vs0mg"},{"bike_id":"931800f0-f5ae-42dc-9401-5ef75e1edc12","system_id":"levelo_inurba_marseille","lat":43.27374,"lon":5.41398,"is_reserved":false,"is_disabled":false,"rental_uris":{"android":"levelo://app?vid=931800f0-f5ae-42dc-9401-5ef75e1edc12","ios":"levelo://app?vid=931800f0-f5ae-42dc-9401-5ef75e1edc12"},"vehicle_type_id":"4","last_reported":1745161713,"current_range_meters":7200,"station_id":"","pricing_plan_id":"cebpf4jnsgd1na2vs0mg"},{"bike_id":"e970a77c-97b4-4b75-8155-7044bacc8b02","system_id":"levelo_inurba_marseille","lat":43.25112,"lon":5.40324,"is_reserved":false,"is_disabled":false,"rental_uris":{"android":"levelo://app?vid=e970a77c-97b4-4b75-8155-7044bacc8b02","ios":"levelo://app?vid=e970a77c-97b4-4b75-8155-7044bacc8b02"},"vehicle_type_id":"4","last_reported":1745161713,"current_range_meters":8000,"station_id":"ce4bhlh2rcd13ifvqgig","pricing_plan_id":"cebpf4jnsgd1na2vs0mg"},{"bike_id":"6b2a2f68-fd74-4a24-a495-23dd8d3467f4","system_id":"levelo_inurba_marseille","lat":43.21194,"lon":5.35072,"is_reserved":false,"is_disabled":false,"rental_uris":{"android":"levelo://app?vid=6b2a2f68-fd74-4a24-a495-23dd8d3467f4","ios":"levelo://app?vid=6b2a2f68-fd74-4a24-a495-23dd8d3467f4"},"vehicle_type_id":"4","last_reported":1745161713,"current_range_meters":8000,"station_id":"st_cvj6sg6p6f1abm77japg","pricing_plan_id":"cebpf4jnsgd1na2vs0mg"},{"bike_id":"bb67c96f-4e51-4829-af34-07fdb4a73af6","system_id":"levelo_inurba_marseille","lat":43.2293,"lon":5.35378,"is_reserved":false,"is_disabled":false,"rental_uris":{"android":"levelo://app?vid=bb67c96f-4e51-4829-af34-07fdb4a73af6","ios":"levelo://app?vid=bb67c96f-4e51-4829-af34-07fdb4a73af6"},"vehicle_type_id":"4","last_reported":1745161713,"current_range_meters":8000,"station_id":"cpo3532slgdg3j2ikp40","pricing_plan_id":"cebpf4jnsgd1na2vs0mg"},{"bike_id":"8c0ab829-6fa9-4954-be46-be68d624bc94","system_id":"levelo_inurba_marseille","lat":43.25146,"lon":5.403073,"is_reserved":false,"is_disabled":false,"rental_uris":{"android":"levelo://app?vid=8c0ab829-6fa9-4954-be46-be68d624bc94","ios":"levelo://app?vid=8c0ab829-6fa9-4954-be46-be68d624bc94"},"vehicle_type_id":"4","last_reported":1745161713,"current_range_meters":8000,"station_id":"ce4bhlh2rcd13ifvqgig","pricing_plan_id":"cebpf4jnsgd1na2vs0mg"},{"bike_id":"322fbf36-4a06-4f07-824d-f7f43bffca5d","system_id":"levelo_inurba_marseille","lat":43.25114,"lon":5.4032,"is_reserved":false,"is_disabled":false,"rental_uris":{"android":"levelo://app?vid=322fbf36-4a06-4f07-824d-f7f43bffca5d","ios":"levelo://app?vid=322fbf36-4a06-4f07-824d-f7f43bffca5d"},"vehicle_type_id":"4","last_reported":1745161713,"current_range_meters":8000,"station_id":"ce4bhlh2rcd13ifvqgig","pricing_plan_id":"cebpf4jnsgd1na2vs0mg"},{"bike_id":"1e0e5d8d-33bc-4979-bc7e-9520f24e6714","system_id":"levelo_inurba_marseille","lat":43.24797,"lon":5.37454,"is_reserved":false,"is_disabled":false,"rental_uris":{"android":"levelo://app?vid=1e0e5d8d-33bc-4979-bc7e-9520f24e6714","ios":"levelo://app?vid=1e0e5d8d-33bc-4979-bc7e-9520f24e6714"},"vehicle_type_id":"4","last_reported":1745161713,"current_range_meters":8000,"station_id":"ce4bhgh2rcd13ifvqfb0","pricing_plan_id":"cebpf4jnsgd1na2vs0mg"},{"bike_id":"28dc7f47-8ab8-4419-ad97-a9a42cee2b96","system_id":"levelo_inurba_marseille","lat":43.23068,"lon":5.35488,"is_reserved":false,"is_disabled":false,"rental_uris":{"android":"levelo://app?vid=28dc7f47-8ab8-4419-ad97-a9a42cee2b96","ios":"levelo://app?vid=28dc7f47-8ab8-4419-ad97-a9a42cee2b96"},"vehicle_type_id":"4","last_reported":1745161713,"current_range_meters":8400,"station_id":"cpo3342slgdg3j2ifvpg","pricing_plan_id":"cebpf4jnsgd1na2vs0mg"},{"bike_id":"8add90be-7694-4829-ba13-0c5919aef581","system_id":"levelo_inurba_marseille","lat":43.29565,"lon":5.37386,"is_reserved":false,"is_disabled":false,"rental_uris":{"android":"levelo://app?vid=8add90be-7694-4829-ba13-0c5919aef581","ios":"levelo://app?vid=8add90be-7694-4829-ba13-0c5919aef581"},"vehicle_type_id":"4","last_reported":1745161713,"current_range_meters":8400,"station_id":"","pricing_plan_id":"cebpf4jnsgd1na2vs0mg"},{"bike_id":"1dd83efe-9c06-4ba9-b397-e46e1459d28f","system_id":"levelo_inurba_marseille","lat":43.21193,"lon":5.35073,"is_reserved":false,"is_disabled":false,"rental_uris":{"android":"levelo://app?vid=1dd83efe-9c06-4ba9-b397-e46e1459d28f","ios":"levelo://app?vid=1dd83efe-9c06-4ba9-b397-e46e1459d28f"},"vehicle_type_id":"4","last_reported":1745161713,"current_range_meters":8400,"station_id":"st_cvj6sg6p6f1abm77japg","pricing_plan_id":"cebpf4jnsgd1na2vs0mg"},{"bike_id":"ab9be9a2-b412-4e12-b774-0ac14e1c75f2","system_id":"levelo_inurba_marseille","lat":43.231968,"lon":5.355494,"is_reserved":false,"is_disabled":false,"rental_uris":{"android":"levelo://app?vid=ab9be9a2-b412-4e12-b774-0ac14e1c75f2","ios":"levelo://app?vid=ab9be9a2-b412-4e12-b774-0ac14e1c75f2"},"vehicle_type_id":"4","last_reported":1745161713,"current_range_meters":8400,"station_id":"ce4bhu92rcd13ifvqi70","pricing_plan_id":"cebpf4jnsgd1na2vs0mg"},{"bike_id":"6df1d7ed-a891-4ac4-8c00-6a253ba703c7","system_id":"levelo_inurba_marseille","lat":43.21189,"lon":5.3507,"is_reserved":false,"is_disabled":false,"rental_uris":{"android":"levelo://app?vid=6df1d7ed-a891-4ac4-8c00-6a253ba703c7","ios":"levelo://app?vid=6df1d7ed-a891-4ac4-8c00-6a253ba703c7"},"vehicle_type_id":"4","last_reported":1745161713,"current_range_meters":8400,"station_id":"st_cvj6sg6p6f1abm77japg","pricing_plan_id":"cebpf4jnsgd1na2vs0mg"},{"bike_id":"9387d934-923a-4c1b-8184-86ace281b3c4","system_id":"levelo_inurba_marseille","lat":43.30146,"lon":5.38068,"is_reserved":false,"is_disabled":false,"rental_uris":{"android":"levelo://app?vid=9387d934-923a-4c1b-8184-86ace281b3c4","ios":"levelo://app?vid=9387d934-923a-4c1b-8184-86ace281b3c4"},"vehicle_type_id":"4","last_reported":1745161713,"current_range_meters":8400,"station_id":"ce4bgjp2rcd13ifvqbh0","pricing_plan_id":"cebpf4jnsgd1na2vs0mg"},{"bike_id":"f0b6af0d-1cbf-47a3-af07-dab09fabbbf0","system_id":"levelo_inurba_marseille","lat":43.23193,"lon":5.3556,"is_reserved":false,"is_disabled":false,"rental_uris":{"android":"levelo://app?vid=f0b6af0d-1cbf-47a3-af07-dab09fabbbf0","ios":"levelo://app?vid=f0b6af0d-1cbf-47a3-af07-dab09fabbbf0"},"vehicle_type_id":"4","last_reported":1745161713,"current_range_meters":8400,"station_id":"ce4bhu92rcd13ifvqi70","pricing_plan_id":"cebpf4jnsgd1na2vs0mg"},{"bike_id":"07acfd16-9bd7-4b8a-9f3d-9cc7b996176b","system_id":"levelo_inurba_marseille","lat":43.301422,"lon":5.3742,"is_reserved":false,"is_disabled":false,"rental_uris":{"android":"levelo://app?vid=07acfd16-9bd7-4b8a-9f3d-9cc7b996176b","ios":"levelo://app?vid=07acfd16-9bd7-4b8a-9f3d-9cc7b996176b"},"vehicle_type_id":"4","last_reported":1745161713,"current_range_meters":8000,"station_id":"ce4bgs92rcd13ifvqcc0","pricing_plan_id":"cebpf4jnsgd1na2vs0mg"},{"bike_id":"138d6608-886e-4863-a664-7df6e5cc9a47","system_id":"levelo_inurba_marseille","lat":43.32637,"lon":5.42204,"is_reserved":false,"is_disabled":false,"rental_uris":{"android":"levelo://app?vid=138d6608-886e-4863-a664-7df6e5cc9a47","ios":"levelo://app?vid=138d6608-886e-4863-a664-7df6e5cc9a47"},"vehicle_type_id":"4","last_reported":1745161713,"current_range_meters":8400,"station_id":"","pricing_plan_id":"cebpf4jnsgd1na2vs0mg"},{"bike_id":"954c0ac0-1f5a-4f75-9237-6b98acc0aa2a","system_id":"levelo_inurba_marseille","lat":43.22933,"lon":5.35391,"is_reserved":false,"is_disabled":false,"rental_uris":{"android":"levelo://app?vid=954c0ac0-1f5a-4f75-9237-6b98acc0aa2a","ios":"levelo://app?vid=954c0ac0-1f5a-4f75-9237-6b98acc0aa2a"},"vehicle_type_id":"4","last_reported":1745161713,"current_range_meters":8400,"station_id":"cpo3532slgdg3j2ikp40","pricing_plan_id":"cebpf4jnsgd1na2vs0mg"},{"bike_id":"29e031c2-7244-49df-9e48-86e8cb798c9e","system_id":"levelo_inurba_marseille","lat":43.29042,"lon":5.39973,"is_reserved":false,"is_disabled":false,"rental_uris":{"android":"levelo://app?vid=29e031c2-7244-49df-9e48-86e8cb798c9e","ios":"levelo://app?vid=29e031c2-7244-49df-9e48-86e8cb798c9e"},"vehicle_type_id":"4","last_reported":1745161713,"current_range_meters":8400,"station_id":"ce4bh392rcd13ifvqdm0","pricing_plan_id":"cebpf4jnsgd1na2vs0mg"},{"bike_id":"97e50bb0-9a70-481b-b370-e509345e710a","system_id":"levelo_inurba_marseille","lat":43.2803,"lon":5.36942,"is_reserved":false,"is_disabled":true,"rental_uris":{"android":"levelo://app?vid=97e50bb0-9a70-481b-b370-e509345e710a","ios":"levelo://app?vid=97e50bb0-9a70-481b-b370-e509345e710a"},"vehicle_type_id":"4","last_reported":1745161713,"current_range_meters":8800,"station_id":"ce4bha12rcd13ifvqef0","pricing_plan_id":"cebpf4jnsgd1na2vs0mg"},{"bike_id":"a22bb51d-efdb-45db-b265-a23e7975af7d","system_id":"levelo_inurba_marseille","lat":43.24674,"lon":5.38154,"is_reserved":false,"is_disabled":false,"rental_uris":{"android":"levelo://app?vid=a22bb51d-efdb-45db-b265-a23e7975af7d","ios":"levelo://app?vid=a22bb51d-efdb-45db-b265-a23e7975af7d"},"vehicle_type_id":"4","last_reported":1745161713,"current_range_meters":8800,"station_id":"ce4bhih2rcd13ifvqfr0","pricing_plan_id":"cebpf4jnsgd1na2vs0mg"},{"bike_id":"329e6399-029e-41ea-92d1-8dd93f89cfc0","system_id":"levelo_inurba_marseille","lat":43.25113,"lon":5.40319,"is_reserved":false,"is_disabled":false,"rental_uris":{"android":"levelo://app?vid=329e6399-029e-41ea-92d1-8dd93f89cfc0","ios":"levelo://app?vid=329e6399-029e-41ea-92d1-8dd93f89cfc0"},"vehicle_type_id":"4","last_reported":1745161713,"current_range_meters":8800,"station_id":"ce4bhlh2rcd13ifvqgig","pricing_plan_id":"cebpf4jnsgd1na2vs0mg"},{"bike_id":"95853074-b537-41ba-ac25-ab40a0dd6b14","system_id":"levelo_inurba_marseille","lat":43.25503,"lon":5.37649,"is_reserved":false,"is_disabled":false,"rental_uris":{"android":"levelo://app?vid=95853074-b537-41ba-ac25-ab40a0dd6b14","ios":"levelo://app?vid=95853074-b537-41ba-ac25-ab40a0dd6b14"},"vehicle_type_id":"4","last_reported":1745161713,"current_range_meters":8400,"station_id":"ce4bhh12rcd13ifvqff0","pricing_plan_id":"cebpf4jnsgd1na2vs0mg"},{"bike_id":"36ac02ba-2835-48d7-9d54-047188b88f77","system_id":"levelo_inurba_marseille","lat":43.24209,"lon":5.39724,"is_reserved":false,"is_disabled":false,"rental_uris":{"android":"levelo://app?vid=36ac02ba-2835-48d7-9d54-047188b88f77","ios":"levelo://app?vid=36ac02ba-2835-48d7-9d54-047188b88f77"},"vehicle_type_id":"4","last_reported":1745161713,"current_range_meters":8800,"station_id":"ce4bhn12rcd13ifvqgpg","pricing_plan_id":"cebpf4jnsgd1na2vs0mg"},{"bike_id":"285030d6-f083-48bd-8121-727034c26e04","system_id":"levelo_inurba_marseille","lat":43.231456,"lon":5.437063,"is_reserved":false,"is_disabled":false,"rental_uris":{"android":"levelo://app?vid=285030d6-f083-48bd-8121-727034c26e04","ios":"levelo://app?vid=285030d6-f083-48bd-8121-727034c26e04"},"vehicle_type_id":"4","last_reported":1745161713,"current_range_meters":8800,"station_id":"ce4bhhp2rcd13ifvqfm0","pricing_plan_id":"cebpf4jnsgd1na2vs0mg"},{"bike_id":"cdd7853c-3eb9-42b0-9fba-b58051b34441","system_id":"levelo_inurba_marseille","lat":43.21746,"lon":5.34601,"is_reserved":false,"is_disabled":true,"rental_uris":{"android":"levelo://app?vid=cdd7853c-3eb9-42b0-9fba-b58051b34441","ios":"levelo://app?vid=cdd7853c-3eb9-42b0-9fba-b58051b34441"},"vehicle_type_id":"4","last_reported":1745161713,"current_range_meters":8800,"station_id":"st_cvj6r9ubvosntc0bgbag","pricing_plan_id":"cebpf4jnsgd1na2vs0mg"},{"bike_id":"ee77508c-6f9d-400c-9442-6494c8451c48","system_id":"levelo_inurba_marseille","lat":43.25144,"lon":5.40331,"is_reserved":false,"is_disabled":false,"rental_uris":{"android":"levelo://app?vid=ee77508c-6f9d-400c-9442-6494c8451c48","ios":"levelo://app?vid=ee77508c-6f9d-400c-9442-6494c8451c48"},"vehicle_type_id":"4","last_reported":1745161713,"current_range_meters":8800,"station_id":"ce4bhlh2rcd13ifvqgig","pricing_plan_id":"cebpf4jnsgd1na2vs0mg"},{"bike_id":"8a3401e6-5f82-46ee-bdf2-d36c21e1ff2f","system_id":"levelo_inurba_marseille","lat":43.21198,"lon":5.35092,"is_reserved":false,"is_disabled":false,"rental_uris":{"android":"levelo://app?vid=8a3401e6-5f82-46ee-bdf2-d36c21e1ff2f","ios":"levelo://app?vid=8a3401e6-5f82-46ee-bdf2-d36c21e1ff2f"},"vehicle_type_id":"4","last_reported":1745161713,"current_range_meters":8800,"station_id":"st_cvj6sg6p6f1abm77japg","pricing_plan_id":"cebpf4jnsgd1na2vs0mg"},{"bike_id":"8de88ebe-197d-4d7e-b00e-817916f526d5","system_id":"levelo_inurba_marseille","lat":43.27988,"lon":5.41641,"is_reserved":false,"is_disabled":false,"rental_uris":{"android":"levelo://app?vid=8de88ebe-197d-4d7e-b00e-817916f526d5","ios":"levelo://app?vid=8de88ebe-197d-4d7e-b00e-817916f526d5"},"vehicle_type_id":"4","last_reported":1745161713,"current_range_meters":8800,"station_id":"ce4bho12rcd13ifvqh1g","pricing_plan_id":"cebpf4jnsgd1na2vs0mg"},{"bike_id":"83737fdd-005d-403e-8fa2-1644fc83261a","system_id":"levelo_inurba_marseille","lat":43.30985,"lon":5.39001,"is_reserved":false,"is_disabled":false,"rental_uris":{"android":"levelo://app?vid=83737fdd-005d-403e-8fa2-1644fc83261a","ios":"levelo://app?vid=83737fdd-005d-403e-8fa2-1644fc83261a"},"vehicle_type_id":"4","last_reported":1745161713,"current_range_meters":8800,"station_id":"ce4bgup2rcd13ifvqco0","pricing_plan_id":"cebpf4jnsgd1na2vs0mg"},{"bike_id":"70b6b29a-6d83-460b-bd27-e86a3209e93e","system_id":"levelo_inurba_marseille","lat":43.26571,"lon":5.37306,"is_reserved":false,"is_disabled":false,"rental_uris":{"android":"levelo://app?vid=70b6b29a-6d83-460b-bd27-e86a3209e93e","ios":"levelo://app?vid=70b6b29a-6d83-460b-bd27-e86a3209e93e"},"vehicle_type_id":"4","last_reported":1745161713,"current_range_meters":8800,"station_id":"ce4bhg12rcd13ifvqf70","pricing_plan_id":"cebpf4jnsgd1na2vs0mg"},{"bike_id":"6565ca44-2e63-4f42-a847-09fa2bdb37f3","system_id":"levelo_inurba_marseille","lat":43.32004,"lon":5.38144,"is_reserved":false,"is_disabled":true,"rental_uris":{"android":"levelo://app?vid=6565ca44-2e63-4f42-a847-09fa2bdb37f3","ios":"levelo://app?vid=6565ca44-2e63-4f42-a847-09fa2bdb37f3"},"vehicle_type_id":"4","last_reported":1745161713,"current_range_meters":8800,"station_id":"ce4bhr12rcd13ifvqhpg","pricing_plan_id":"cebpf4jnsgd1na2vs0mg"},{"bike_id":"6206e6a9-f1c1-4e31-b9e3-93d6c9ccc8bd","system_id":"levelo_inurba_marseille","lat":43.30978,"lon":5.39038,"is_reserved":false,"is_disabled":false,"rental_uris":{"android":"levelo://app?vid=6206e6a9-f1c1-4e31-b9e3-93d6c9ccc8bd","ios":"levelo://app?vid=6206e6a9-f1c1-4e31-b9e3-93d6c9ccc8bd"},"vehicle_type_id":"4","last_reported":1745161713,"current_range_meters":8800,"station_id":"ce4bgup2rcd13ifvqco0","pricing_plan_id":"cebpf4jnsgd1na2vs0mg"},{"bike_id":"527bf01d-a7a9-4a02-a922-63e7e0d2d3b5","system_id":"levelo_inurba_marseille","lat":43.29717,"lon":5.37699,"is_reserved":false,"is_disabled":false,"rental_uris":{"android":"levelo://app?vid=527bf01d-a7a9-4a02-a922-63e7e0d2d3b5","ios":"levelo://app?vid=527bf01d-a7a9-4a02-a922-63e7e0d2d3b5"},"vehicle_type_id":"4","last_reported":1745161713,"current_range_meters":8400,"station_id":"ce4bgkh2rcd13ifvqbl0","pricing_plan_id":"cebpf4jnsgd1na2vs0mg"},{"bike_id":"92cbb69b-4a73-4c22-a8a1-5fbcd1a89023","system_id":"levelo_inurba_marseille","lat":43.28,"lon":5.4001,"is_reserved":false,"is_disabled":false,"rental_uris":{"android":"levelo://app?vid=92cbb69b-4a73-4c22-a8a1-5fbcd1a89023","ios":"levelo://app?vid=92cbb69b-4a73-4c22-a8a1-5fbcd1a89023"},"vehicle_type_id":"4","last_reported":1745161713,"current_range_meters":9200,"station_id":"ce4bho92rcd13ifvqh4g","pricing_plan_id":"cebpf4jnsgd1na2vs0mg"},{"bike_id":"24213b37-b766-4d9c-a174-f6bf34920497","system_id":"levelo_inurba_marseille","lat":43.28469,"lon":5.384178,"is_reserved":false,"is_disabled":false,"rental_uris":{"android":"levelo://app?vid=24213b37-b766-4d9c-a174-f6bf34920497","ios":"levelo://app?vid=24213b37-b766-4d9c-a174-f6bf34920497"},"vehicle_type_id":"4","last_reported":1745161713,"current_range_meters":9200,"station_id":"ce4bh512rcd13ifvqe3g","pricing_plan_id":"cebpf4jnsgd1na2vs0mg"},{"bike_id":"290a0d1e-eb99-4294-9794-15daca4cbdff","system_id":"levelo_inurba_marseille","lat":43.309061,"lon":5.368411,"is_reserved":false,"is_disabled":false,"rental_uris":{"android":"levelo://app?vid=290a0d1e-eb99-4294-9794-15daca4cbdff","ios":"levelo://app?vid=290a0d1e-eb99-4294-9794-15daca4cbdff"},"vehicle_type_id":"4","last_reported":1745161713,"current_range_meters":8800,"station_id":"ce4bgth2rcd13ifvqch0","pricing_plan_id":"cebpf4jnsgd1na2vs0mg"},{"bike_id":"1b64a06c-8c3f-4044-b435-0c5447524fd5","system_id":"levelo_inurba_marseille","lat":43.28701,"lon":5.37397,"is_reserved":false,"is_disabled":true,"rental_uris":{"android":"levelo://app?vid=1b64a06c-8c3f-4044-b435-0c5447524fd5","ios":"levelo://app?vid=1b64a06c-8c3f-4044-b435-0c5447524fd5"},"vehicle_type_id":"4","last_reported":1745161713,"current_range_meters":9200,"station_id":"ce4bh3p2rcd13ifvqdq0","pricing_plan_id":"cebpf4jnsgd1na2vs0mg"},{"bike_id":"05b3d330-0c2d-464f-925c-8f172d906042","system_id":"levelo_inurba_marseille","lat":43.26227,"lon":5.37453,"is_reserved":false,"is_disabled":false,"rental_uris":{"android":"levelo://app?vid=05b3d330-0c2d-464f-925c-8f172d906042","ios":"levelo://app?vid=05b3d330-0c2d-464f-925c-8f172d906042"},"vehicle_type_id":"4","last_reported":1745161713,"current_range_meters":9200,"station_id":"ce4bhgp2rcd13ifvqfc0","pricing_plan_id":"cebpf4jnsgd1na2vs0mg"},{"bike_id":"1493f1f0-e65b-4572-bece-268af21b27f4","system_id":"levelo_inurba_marseille","lat":43.28274,"lon":5.35051,"is_reserved":false,"is_disabled":false,"rental_uris":{"android":"levelo://app?vid=1493f1f0-e65b-4572-bece-268af21b27f4","ios":"levelo://app?vid=1493f1f0-e65b-4572-bece-268af21b27f4"},"vehicle_type_id":"4","last_reported":1745161713,"current_range_meters":8800,"station_id":"ce4bhbp2rcd13ifvqerg","pricing_plan_id":"cebpf4jnsgd1na2vs0mg"},{"bike_id":"126553b9-40d1-4883-a41d-140aec70f9f3","system_id":"levelo_inurba_marseille","lat":43.21189,"lon":5.35069,"is_reserved":false,"is_disabled":false,"rental_uris":{"android":"levelo://app?vid=126553b9-40d1-4883-a41d-140aec70f9f3","ios":"levelo://app?vid=126553b9-40d1-4883-a41d-140aec70f9f3"},"vehicle_type_id":"4","last_reported":1745161713,"current_range_meters":9200,"station_id":"st_cvj6sg6p6f1abm77japg","pricing_plan_id":"cebpf4jnsgd1na2vs0mg"},{"bike_id":"d0395819-ea40-46d3-acfe-3a01d6c396c0","system_id":"levelo_inurba_marseille","lat":43.23021,"lon":5.3955,"is_reserved":false,"is_disabled":true,"rental_uris":{"android":"levelo://app?vid=d0395819-ea40-46d3-acfe-3a01d6c396c0","ios":"levelo://app?vid=d0395819-ea40-46d3-acfe-3a01d6c396c0"},"vehicle_type_id":"4","last_reported":1745161713,"current_range_meters":9200,"station_id":"ce4bhn12rcd13ifvqgqg","pricing_plan_id":"cebpf4jnsgd1na2vs0mg"},{"bike_id":"bd3afca0-6bff-4714-94e2-33133b2ddb99","system_id":"levelo_inurba_marseille","lat":43.24644,"lon":5.38892,"is_reserved":false,"is_disabled":false,"rental_uris":{"android":"levelo://app?vid=bd3afca0-6bff-4714-94e2-33133b2ddb99","ios":"levelo://app?vid=bd3afca0-6bff-4714-94e2-33133b2ddb99"},"vehicle_type_id":"4","last_reported":1745161713,"current_range_meters":9600,"station_id":"ce4bhg12rcd13ifvqf60","pricing_plan_id":"cebpf4jnsgd1na2vs0mg"},{"bike_id":"4e6892ef-dbe3-43e4-bc69-b2da5d802c90","system_id":"levelo_inurba_marseille","lat":43.27376,"lon":5.36236,"is_reserved":false,"is_disabled":true,"rental_uris":{"android":"levelo://app?vid=4e6892ef-dbe3-43e4-bc69-b2da5d802c90","ios":"levelo://app?vid=4e6892ef-dbe3-43e4-bc69-b2da5d802c90"},"vehicle_type_id":"4","last_reported":1745161713,"current_range_meters":9600,"station_id":"ce4bhbh2rcd13ifvqeo0","pricing_plan_id":"cebpf4jnsgd1na2vs0mg"},{"bike_id":"c6eb518d-f8e2-4c5c-8098-b5d751548fcd","system_id":"levelo_inurba_marseille","lat":43.25958,"lon":5.40916,"is_reserved":false,"is_disabled":false,"rental_uris":{"android":"levelo://app?vid=c6eb518d-f8e2-4c5c-8098-b5d751548fcd","ios":"levelo://app?vid=c6eb518d-f8e2-4c5c-8098-b5d751548fcd"},"vehicle_type_id":"4","last_reported":1745161713,"current_range_meters":9600,"station_id":"ce4bhm92rcd13ifvqglg","pricing_plan_id":"cebpf4jnsgd1na2vs0mg"},{"bike_id":"7f545bbc-a0a7-4368-8a07-6a6863048111","system_id":"levelo_inurba_marseille","lat":43.22934,"lon":5.35378,"is_reserved":false,"is_disabled":false,"rental_uris":{"android":"levelo://app?vid=7f545bbc-a0a7-4368-8a07-6a6863048111","ios":"levelo://app?vid=7f545bbc-a0a7-4368-8a07-6a6863048111"},"vehicle_type_id":"4","last_reported":1745161713,"current_range_meters":9600,"station_id":"cpo3532slgdg3j2ikp40","pricing_plan_id":"cebpf4jnsgd1na2vs0mg"},{"bike_id":"527fac75-0783-4b2c-bd4e-07f2f2fee902","system_id":"levelo_inurba_marseille","lat":43.31121,"lon":5.37804,"is_reserved":false,"is_disabled":true,"rental_uris":{"android":"levelo://app?vid=527fac75-0783-4b2c-bd4e-07f2f2fee902","ios":"levelo://app?vid=527fac75-0783-4b2c-bd4e-07f2f2fee902"},"vehicle_type_id":"4","last_reported":1745161713,"current_range_meters":9600,"station_id":"ce4bgt92rcd13ifvqcg0","pricing_plan_id":"cebpf4jnsgd1na2vs0mg"},{"bike_id":"c826257d-0843-48fc-83d8-8751c2f11f63","system_id":"levelo_inurba_marseille","lat":43.24388,"lon":5.370709,"is_reserved":false,"is_disabled":false,"rental_uris":{"android":"levelo://app?vid=c826257d-0843-48fc-83d8-8751c2f11f63","ios":"levelo://app?vid=c826257d-0843-48fc-83d8-8751c2f11f63"},"vehicle_type_id":"4","last_reported":1745161713,"current_range_meters":9600,"station_id":"ce4bhhh2rcd13ifvqfk0","pricing_plan_id":"cebpf4jnsgd1na2vs0mg"},{"bike_id":"19f0cf23-7fea-42e6-bfd6-fdfe90864b80","system_id":"levelo_inurba_marseille","lat":43.28668,"lon":5.3866,"is_reserved":false,"is_disabled":false,"rental_uris":{"android":"levelo://app?vid=19f0cf23-7fea-42e6-bfd6-fdfe90864b80","ios":"levelo://app?vid=19f0cf23-7fea-42e6-bfd6-fdfe90864b80"},"vehicle_type_id":"4","last_reported":1745161713,"current_range_meters":9600,"station_id":"ce4bh492rcd13ifvqdug","pricing_plan_id":"cebpf4jnsgd1na2vs0mg"},{"bike_id":"04cf0ab7-d841-4686-a526-0bb9c69ab862","system_id":"levelo_inurba_marseille","lat":43.28428,"lon":5.34986,"is_reserved":false,"is_disabled":false,"rental_uris":{"android":"levelo://app?vid=04cf0ab7-d841-4686-a526-0bb9c69ab862","ios":"levelo://app?vid=04cf0ab7-d841-4686-a526-0bb9c69ab862"},"vehicle_type_id":"4","last_reported":1745161713,"current_range_meters":9600,"station_id":"ce4bhbh2rcd13ifvqepg","pricing_plan_id":"cebpf4jnsgd1na2vs0mg"},{"bike_id":"30cb0f72-fc8a-4fbb-890b-1bea3b1ebbda","system_id":"levelo_inurba_marseille","lat":43.301316,"lon":5.387906,"is_reserved":false,"is_disabled":false,"rental_uris":{"android":"levelo://app?vid=30cb0f72-fc8a-4fbb-890b-1bea3b1ebbda","ios":"levelo://app?vid=30cb0f72-fc8a-4fbb-890b-1bea3b1ebbda"},"vehicle_type_id":"4","last_reported":1745161713,"current_range_meters":6400,"station_id":"ce4bghh2rcd13ifvqb60","pricing_plan_id":"cebpf4jnsgd1na2vs0mg"},{"bike_id":"d068efa8-1bae-4b1b-a452-7aabcf2e2f9e","system_id":"levelo_inurba_marseille","lat":43.27621,"lon":5.36105,"is_reserved":false,"is_disabled":false,"rental_uris":{"android":"levelo://app?vid=d068efa8-1bae-4b1b-a452-7aabcf2e2f9e","ios":"levelo://app?vid=d068efa8-1bae-4b1b-a452-7aabcf2e2f9e"},"vehicle_type_id":"4","last_reported":1745161713,"current_range_meters":10000,"station_id":"ce4bgj92rcd13ifvqbe0","pricing_plan_id":"cebpf4jnsgd1na2vs0mg"},{"bike_id":"6019b3a9-be6c-4063-92bb-dfdce576086f","system_id":"levelo_inurba_marseille","lat":43.23067,"lon":5.35511,"is_reserved":false,"is_disabled":false,"rental_uris":{"android":"levelo://app?vid=6019b3a9-be6c-4063-92bb-dfdce576086f","ios":"levelo://app?vid=6019b3a9-be6c-4063-92bb-dfdce576086f"},"vehicle_type_id":"4","last_reported":1745161713,"current_range_meters":10000,"station_id":"cpo3342slgdg3j2ifvpg","pricing_plan_id":"cebpf4jnsgd1na2vs0mg"},{"bike_id":"1886fb80-2895-40f7-844d-7933f5d904dc","system_id":"levelo_inurba_marseille","lat":43.27878,"lon":5.3931,"is_reserved":false,"is_disabled":false,"rental_uris":{"android":"levelo://app?vid=1886fb80-2895-40f7-844d-7933f5d904dc","ios":"levelo://app?vid=1886fb80-2895-40f7-844d-7933f5d904dc"},"vehicle_type_id":"4","last_reported":1745161713,"current_range_meters":10000,"station_id":"","pricing_plan_id":"cebpf4jnsgd1na2vs0mg"},{"bike_id":"6276c712-dc71-4137-9a44-e63299fa20b2","system_id":"levelo_inurba_marseille","lat":43.28613,"lon":5.37064,"is_reserved":false,"is_disabled":false,"rental_uris":{"android":"levelo://app?vid=6276c712-dc71-4137-9a44-e63299fa20b2","ios":"levelo://app?vid=6276c712-dc71-4137-9a44-e63299fa20b2"},"vehicle_type_id":"4","last_reported":1745161713,"current_range_meters":10800,"station_id":"ce4bht12rcd13ifvqi60","pricing_plan_id":"cebpf4jnsgd1na2vs0mg"},{"bike_id":"d177bdcb-ba4d-4c2e-8899-f6b0f9af395c","system_id":"levelo_inurba_marseille","lat":43.25961,"lon":5.40909,"is_reserved":false,"is_disabled":false,"rental_uris":{"android":"levelo://app?vid=d177bdcb-ba4d-4c2e-8899-f6b0f9af395c","ios":"levelo://app?vid=d177bdcb-ba4d-4c2e-8899-f6b0f9af395c"},"vehicle_type_id":"4","last_reported":1745161713,"current_range_meters":10800,"station_id":"ce4bhm92rcd13ifvqglg","pricing_plan_id":"cebpf4jnsgd1na2vs0mg"},{"bike_id":"d8754dce-3ce6-4f68-ba47-f64cfc8b26ab","system_id":"levelo_inurba_marseille","lat":43.23119,"lon":5.35256,"is_reserved":false,"is_disabled":false,"rental_uris":{"android":"levelo://app?vid=d8754dce-3ce6-4f68-ba47-f64cfc8b26ab","ios":"levelo://app?vid=d8754dce-3ce6-4f68-ba47-f64cfc8b26ab"},"vehicle_type_id":"4","last_reported":1745161713,"current_range_meters":10800,"station_id":"","pricing_plan_id":"cebpf4jnsgd1na2vs0mg"},{"bike_id":"33399c5a-7b71-4ae2-a964-55b2f2e618d0","system_id":"levelo_inurba_marseille","lat":43.30208,"lon":5.36558,"is_reserved":false,"is_disabled":true,"rental_uris":{"android":"levelo://app?vid=33399c5a-7b71-4ae2-a964-55b2f2e618d0","ios":"levelo://app?vid=33399c5a-7b71-4ae2-a964-55b2f2e618d0"},"vehicle_type_id":"4","last_reported":1745161713,"current_range_meters":10800,"station_id":"","pricing_plan_id":"cebpf4jnsgd1na2vs0mg"},{"bike_id":"6a1d1132-46b0-450b-9750-e3f9954022a6","system_id":"levelo_inurba_marseille","lat":43.26186,"lon":5.37441,"is_reserved":false,"is_disabled":false,"rental_uris":{"android":"levelo://app?vid=6a1d1132-46b0-450b-9750-e3f9954022a6","ios":"levelo://app?vid=6a1d1132-46b0-450b-9750-e3f9954022a6"},"vehicle_type_id":"4","last_reported":1745161713,"current_range_meters":10800,"station_id":"ce4bhgp2rcd13ifvqfc0","pricing_plan_id":"cebpf4jnsgd1na2vs0mg"},{"bike_id":"b97ce828-3921-4096-9ec4-e15abd2f92c0","system_id":"levelo_inurba_marseille","lat":43.25561,"lon":5.38226,"is_reserved":false,"is_disabled":false,"rental_uris":{"android":"levelo://app?vid=b97ce828-3921-4096-9ec4-e15abd2f92c0","ios":"levelo://app?vid=b97ce828-3921-4096-9ec4-e15abd2f92c0"},"vehicle_type_id":"4","last_reported":1745161713,"current_range_meters":10800,"station_id":"ce4bhih2rcd13ifvqfs0","pricing_plan_id":"cebpf4jnsgd1na2vs0mg"},{"bike_id":"b576a982-2452-41eb-b39f-6f9a8a22c424","system_id":"levelo_inurba_marseille","lat":43.29601,"lon":5.37721,"is_reserved":false,"is_disabled":false,"rental_uris":{"android":"levelo://app?vid=b576a982-2452-41eb-b39f-6f9a8a22c424","ios":"levelo://app?vid=b576a982-2452-41eb-b39f-6f9a8a22c424"},"vehicle_type_id":"4","last_reported":1745161713,"current_range_meters":11200,"station_id":"ce4bgi92rcd13ifvqb90","pricing_plan_id":"cebpf4jnsgd1na2vs0mg"},{"bike_id":"d64c3fc5-3b20-424d-a9df-83c170571095","system_id":"levelo_inurba_marseille","lat":43.23064,"lon":5.35492,"is_reserved":false,"is_disabled":false,"rental_uris":{"android":"levelo://app?vid=d64c3fc5-3b20-424d-a9df-83c170571095","ios":"levelo://app?vid=d64c3fc5-3b20-424d-a9df-83c170571095"},"vehicle_type_id":"4","last_reported":1745161713,"current_range_meters":11200,"station_id":"cpo3342slgdg3j2ifvpg","pricing_plan_id":"cebpf4jnsgd1na2vs0mg"},{"bike_id":"2b843171-b4df-4c49-9232-768ff583915c","system_id":"levelo_inurba_marseille","lat":43.262135,"lon":5.374407,"is_reserved":false,"is_disabled":false,"rental_uris":{"android":"levelo://app?vid=2b843171-b4df-4c49-9232-768ff583915c","ios":"levelo://app?vid=2b843171-b4df-4c49-9232-768ff583915c"},"vehicle_type_id":"4","last_reported":1745161713,"current_range_meters":11200,"station_id":"ce4bhgp2rcd13ifvqfc0","pricing_plan_id":"cebpf4jnsgd1na2vs0mg"},{"bike_id":"cc4e8daf-8846-4035-942b-a36b9137d061","system_id":"levelo_inurba_marseille","lat":43.25497,"lon":5.37664,"is_reserved":false,"is_disabled":true,"rental_uris":{"android":"levelo://app?vid=cc4e8daf-8846-4035-942b-a36b9137d061","ios":"levelo://app?vid=cc4e8daf-8846-4035-942b-a36b9137d061"},"vehicle_type_id":"4","last_reported":1745161713,"current_range_meters":11200,"station_id":"ce4bhh12rcd13ifvqff0","pricing_plan_id":"cebpf4jnsgd1na2vs0mg"},{"bike_id":"d5ef647d-00ca-43ce-8de2-a9826ded3f15","system_id":"levelo_inurba_marseille","lat":43.21197,"lon":5.35085,"is_reserved":false,"is_disabled":false,"rental_uris":{"android":"levelo://app?vid=d5ef647d-00ca-43ce-8de2-a9826ded3f15","ios":"levelo://app?vid=d5ef647d-00ca-43ce-8de2-a9826ded3f15"},"vehicle_type_id":"4","last_reported":1745161713,"current_range_meters":11200,"station_id":"st_cvj6sg6p6f1abm77japg","pricing_plan_id":"cebpf4jnsgd1na2vs0mg"},{"bike_id":"ba0a7324-5c9e-436b-8c75-92b4094301c4","system_id":"levelo_inurba_marseille","lat":43.29617,"lon":5.37731,"is_reserved":false,"is_disabled":false,"rental_uris":{"android":"levelo://app?vid=ba0a7324-5c9e-436b-8c75-92b4094301c4","ios":"levelo://app?vid=ba0a7324-5c9e-436b-8c75-92b4094301c4"},"vehicle_type_id":"4","last_reported":1745161713,"current_range_meters":11600,"station_id":"ce4bgi92rcd13ifvqb90","pricing_plan_id":"cebpf4jnsgd1na2vs0mg"},{"bike_id":"ae17d8e0-ce7d-4cd2-935d-08c7072122c5","system_id":"levelo_inurba_marseille","lat":43.24796,"lon":5.37459,"is_reserved":false,"is_disabled":false,"rental_uris":{"android":"levelo://app?vid=ae17d8e0-ce7d-4cd2-935d-08c7072122c5","ios":"levelo://app?vid=ae17d8e0-ce7d-4cd2-935d-08c7072122c5"},"vehicle_type_id":"4","last_reported":1745161713,"current_range_meters":11600,"station_id":"ce4bhgh2rcd13ifvqfb0","pricing_plan_id":"cebpf4jnsgd1na2vs0mg"},{"bike_id":"971744e8-47eb-447f-ba14-74c806d13cbb","system_id":"levelo_inurba_marseille","lat":43.25493,"lon":5.37643,"is_reserved":false,"is_disabled":false,"rental_uris":{"android":"levelo://app?vid=971744e8-47eb-447f-ba14-74c806d13cbb","ios":"levelo://app?vid=971744e8-47eb-447f-ba14-74c806d13cbb"},"vehicle_type_id":"4","last_reported":1745161713,"current_range_meters":11600,"station_id":"ce4bhh12rcd13ifvqff0","pricing_plan_id":"cebpf4jnsgd1na2vs0mg"},{"bike_id":"448ee928-9c64-409d-a14f-a917d05204a9","system_id":"levelo_inurba_marseille","lat":43.33605,"lon":5.41025,"is_reserved":false,"is_disabled":false,"rental_uris":{"android":"levelo://app?vid=448ee928-9c64-409d-a14f-a917d05204a9","ios":"levelo://app?vid=448ee928-9c64-409d-a14f-a917d05204a9"},"vehicle_type_id":"4","last_reported":1745161713,"current_range_meters":11600,"station_id":"ce4bhqh2rcd13ifvqhmg","pricing_plan_id":"cebpf4jnsgd1na2vs0mg"},{"bike_id":"c598b968-b7f1-48f0-950d-66c2c315d1e2","system_id":"levelo_inurba_marseille","lat":43.276663,"lon":5.388732,"is_reserved":false,"is_disabled":false,"rental_uris":{"android":"levelo://app?vid=c598b968-b7f1-48f0-950d-66c2c315d1e2","ios":"levelo://app?vid=c598b968-b7f1-48f0-950d-66c2c315d1e2"},"vehicle_type_id":"4","last_reported":1745161713,"current_range_meters":11600,"station_id":"ce4bhi12rcd13ifvqfo0","pricing_plan_id":"cebpf4jnsgd1na2vs0mg"},{"bike_id":"3c68d4af-f244-4d5b-a673-170645748e37","system_id":"levelo_inurba_marseille","lat":43.27679,"lon":5.39806,"is_reserved":false,"is_disabled":false,"rental_uris":{"android":"levelo://app?vid=3c68d4af-f244-4d5b-a673-170645748e37","ios":"levelo://app?vid=3c68d4af-f244-4d5b-a673-170645748e37"},"vehicle_type_id":"4","last_reported":1745161713,"current_range_meters":12000,"station_id":"","pricing_plan_id":"cebpf4jnsgd1na2vs0mg"},{"bike_id":"4fed0922-b841-485c-aae6-95e60cd03b08","system_id":"levelo_inurba_marseille","lat":43.31165,"lon":5.367462,"is_reserved":false,"is_disabled":false,"rental_uris":{"android":"levelo://app?vid=4fed0922-b841-485c-aae6-95e60cd03b08","ios":"levelo://app?vid=4fed0922-b841-485c-aae6-95e60cd03b08"},"vehicle_type_id":"4","last_reported":1745161713,"current_range_meters":11600,"station_id":"ce4bhdp2rcd13ifvqf20","pricing_plan_id":"cebpf4jnsgd1na2vs0mg"},{"bike_id":"f6b06603-46d7-458b-9dc9-fbc0bce785af","system_id":"levelo_inurba_marseille","lat":43.25112,"lon":5.40357,"is_reserved":false,"is_disabled":false,"rental_uris":{"android":"levelo://app?vid=f6b06603-46d7-458b-9dc9-fbc0bce785af","ios":"levelo://app?vid=f6b06603-46d7-458b-9dc9-fbc0bce785af"},"vehicle_type_id":"4","last_reported":1745161713,"current_range_meters":12000,"station_id":"ce4bhlh2rcd13ifvqgig","pricing_plan_id":"cebpf4jnsgd1na2vs0mg"},{"bike_id":"3c2a0f9a-8222-4e30-a345-069c98ea26d9","system_id":"levelo_inurba_marseille","lat":43.29795,"lon":5.37112,"is_reserved":false,"is_disabled":false,"rental_uris":{"android":"levelo://app?vid=3c2a0f9a-8222-4e30-a345-069c98ea26d9","ios":"levelo://app?vid=3c2a0f9a-8222-4e30-a345-069c98ea26d9"},"vehicle_type_id":"4","last_reported":1745161713,"current_range_meters":12000,"station_id":"ce4bgop2rcd13ifvqc1g","pricing_plan_id":"cebpf4jnsgd1na2vs0mg"},{"bike_id":"76678597-c23c-47ef-be2d-dc8ee6c4aa59","system_id":"levelo_inurba_marseille","lat":43.27497,"lon":5.42463,"is_reserved":false,"is_disabled":false,"rental_uris":{"android":"levelo://app?vid=76678597-c23c-47ef-be2d-dc8ee6c4aa59","ios":"levelo://app?vid=76678597-c23c-47ef-be2d-dc8ee6c4aa59"},"vehicle_type_id":"4","last_reported":1745161713,"current_range_meters":12400,"station_id":"ce4bhn92rcd13ifvqgrg","pricing_plan_id":"cebpf4jnsgd1na2vs0mg"},{"bike_id":"020ab4c3-fdbf-4671-8ebd-0c9003633bcb","system_id":"levelo_inurba_marseille","lat":43.24397,"lon":5.37057,"is_reserved":false,"is_disabled":false,"rental_uris":{"android":"levelo://app?vid=020ab4c3-fdbf-4671-8ebd-0c9003633bcb","ios":"levelo://app?vid=020ab4c3-fdbf-4671-8ebd-0c9003633bcb"},"vehicle_type_id":"4","last_reported":1745161713,"current_range_meters":12400,"station_id":"ce4bhhh2rcd13ifvqfk0","pricing_plan_id":"cebpf4jnsgd1na2vs0mg"},{"bike_id":"7cfc78d2-c544-44c2-8cc8-48c3f907db5b","system_id":"levelo_inurba_marseille","lat":43.26224,"lon":5.40446,"is_reserved":false,"is_disabled":false,"rental_uris":{"android":"levelo://app?vid=7cfc78d2-c544-44c2-8cc8-48c3f907db5b","ios":"levelo://app?vid=7cfc78d2-c544-44c2-8cc8-48c3f907db5b"},"vehicle_type_id":"4","last_reported":1745161713,"current_range_meters":12400,"station_id":"ce4bhmh2rcd13ifvqgmg","pricing_plan_id":"cebpf4jnsgd1na2vs0mg"},{"bike_id":"59216526-d01c-4d77-b6e3-a6c766976571","system_id":"levelo_inurba_marseille","lat":43.22507,"lon":5.34783,"is_reserved":false,"is_disabled":false,"rental_uris":{"android":"levelo://app?vid=59216526-d01c-4d77-b6e3-a6c766976571","ios":"levelo://app?vid=59216526-d01c-4d77-b6e3-a6c766976571"},"vehicle_type_id":"4","last_reported":1745161713,"current_range_meters":12400,"station_id":"st_cvj5dfep6f1abm77gieg","pricing_plan_id":"cebpf4jnsgd1na2vs0mg"},{"bike_id":"5801a3ca-80c0-4f04-85da-122046aa79e1","system_id":"levelo_inurba_marseille","lat":43.2902,"lon":5.43837,"is_reserved":false,"is_disabled":false,"rental_uris":{"android":"levelo://app?vid=5801a3ca-80c0-4f04-85da-122046aa79e1","ios":"levelo://app?vid=5801a3ca-80c0-4f04-85da-122046aa79e1"},"vehicle_type_id":"4","last_reported":1745161713,"current_range_meters":12800,"station_id":"","pricing_plan_id":"cebpf4jnsgd1na2vs0mg"},{"bike_id":"9f1246a7-6121-4dfb-b19d-be14127ddd08","system_id":"levelo_inurba_marseille","lat":43.23065,"lon":5.35493,"is_reserved":false,"is_disabled":false,"rental_uris":{"android":"levelo://app?vid=9f1246a7-6121-4dfb-b19d-be14127ddd08","ios":"levelo://app?vid=9f1246a7-6121-4dfb-b19d-be14127ddd08"},"vehicle_type_id":"4","last_reported":1745161713,"current_range_meters":12800,"station_id":"cpo3342slgdg3j2ifvpg","pricing_plan_id":"cebpf4jnsgd1na2vs0mg"},{"bike_id":"d5bf3e51-83b4-419b-b784-58ab0f4a9ad2","system_id":"levelo_inurba_marseille","lat":43.211888,"lon":5.350678,"is_reserved":false,"is_disabled":false,"rental_uris":{"android":"levelo://app?vid=d5bf3e51-83b4-419b-b784-58ab0f4a9ad2","ios":"levelo://app?vid=d5bf3e51-83b4-419b-b784-58ab0f4a9ad2"},"vehicle_type_id":"4","last_reported":1745161713,"current_range_meters":12800,"station_id":"st_cvj6sg6p6f1abm77japg","pricing_plan_id":"cebpf4jnsgd1na2vs0mg"},{"bike_id":"1a9e54c9-365c-43c3-a09c-512905b1182d","system_id":"levelo_inurba_marseille","lat":43.21199,"lon":5.35084,"is_reserved":false,"is_disabled":false,"rental_uris":{"android":"levelo://app?vid=1a9e54c9-365c-43c3-a09c-512905b1182d","ios":"levelo://app?vid=1a9e54c9-365c-43c3-a09c-512905b1182d"},"vehicle_type_id":"4","last_reported":1745161713,"current_range_meters":12800,"station_id":"st_cvj6sg6p6f1abm77japg","pricing_plan_id":"cebpf4jnsgd1na2vs0mg"},{"bike_id":"5fd8ff23-5005-4693-a9db-471eff4c1202","system_id":"levelo_inurba_marseille","lat":43.24798,"lon":5.3745,"is_reserved":false,"is_disabled":false,"rental_uris":{"android":"levelo://app?vid=5fd8ff23-5005-4693-a9db-471eff4c1202","ios":"levelo://app?vid=5fd8ff23-5005-4693-a9db-471eff4c1202"},"vehicle_type_id":"4","last_reported":1745161713,"current_range_meters":12800,"station_id":"ce4bhgh2rcd13ifvqfb0","pricing_plan_id":"cebpf4jnsgd1na2vs0mg"},{"bike_id":"617756b7-107f-4f5b-864a-8264044dd35b","system_id":"levelo_inurba_marseille","lat":43.284821,"lon":5.384114,"is_reserved":false,"is_disabled":false,"rental_uris":{"android":"levelo://app?vid=617756b7-107f-4f5b-864a-8264044dd35b","ios":"levelo://app?vid=617756b7-107f-4f5b-864a-8264044dd35b"},"vehicle_type_id":"4","last_reported":1745161713,"current_range_meters":12800,"station_id":"ce4bh512rcd13ifvqe3g","pricing_plan_id":"cebpf4jnsgd1na2vs0mg"},{"bike_id":"f01fc261-033f-49c7-b09e-b9967362bd76","system_id":"levelo_inurba_marseille","lat":43.28852,"lon":5.35898,"is_reserved":false,"is_disabled":true,"rental_uris":{"android":"levelo://app?vid=f01fc261-033f-49c7-b09e-b9967362bd76","ios":"levelo://app?vid=f01fc261-033f-49c7-b09e-b9967362bd76"},"vehicle_type_id":"4","last_reported":1745161713,"current_range_meters":12800,"station_id":"ce4bhb12rcd13ifvqem0","pricing_plan_id":"cebpf4jnsgd1na2vs0mg"},{"bike_id":"a3dd9a0b-1e95-49bd-9b52-a761b312f104","system_id":"levelo_inurba_marseille","lat":43.25579,"lon":5.3824,"is_reserved":false,"is_disabled":false,"rental_uris":{"android":"levelo://app?vid=a3dd9a0b-1e95-49bd-9b52-a761b312f104","ios":"levelo://app?vid=a3dd9a0b-1e95-49bd-9b52-a761b312f104"},"vehicle_type_id":"4","last_reported":1745161713,"current_range_meters":13600,"station_id":"ce4bhih2rcd13ifvqfs0","pricing_plan_id":"cebpf4jnsgd1na2vs0mg"},{"bike_id":"ebbfc5f6-2ff7-47c7-afc9-131a167b722e","system_id":"levelo_inurba_marseille","lat":43.27379,"lon":5.36248,"is_reserved":false,"is_disabled":false,"rental_uris":{"android":"levelo://app?vid=ebbfc5f6-2ff7-47c7-afc9-131a167b722e","ios":"levelo://app?vid=ebbfc5f6-2ff7-47c7-afc9-131a167b722e"},"vehicle_type_id":"4","last_reported":1745161713,"current_range_meters":13600,"station_id":"ce4bhbh2rcd13ifvqeo0","pricing_plan_id":"cebpf4jnsgd1na2vs0mg"},{"bike_id":"6019390b-7088-4c04-b80b-2acf1cb29041","system_id":"levelo_inurba_marseille","lat":43.29391,"lon":5.4124,"is_reserved":false,"is_disabled":false,"rental_uris":{"android":"levelo://app?vid=6019390b-7088-4c04-b80b-2acf1cb29041","ios":"levelo://app?vid=6019390b-7088-4c04-b80b-2acf1cb29041"},"vehicle_type_id":"4","last_reported":1745161713,"current_range_meters":13600,"station_id":"","pricing_plan_id":"cebpf4jnsgd1na2vs0mg"},{"bike_id":"4fd87317-4923-494a-a05e-56c3cadf7c8e","system_id":"levelo_inurba_marseille","lat":43.22495,"lon":5.34786,"is_reserved":false,"is_disabled":false,"rental_uris":{"android":"levelo://app?vid=4fd87317-4923-494a-a05e-56c3cadf7c8e","ios":"levelo://app?vid=4fd87317-4923-494a-a05e-56c3cadf7c8e"},"vehicle_type_id":"4","last_reported":1745161713,"current_range_meters":13600,"station_id":"","pricing_plan_id":"cebpf4jnsgd1na2vs0mg"},{"bike_id":"cab64969-2640-47ee-abb9-f11afb1f3a59","system_id":"levelo_inurba_marseille","lat":43.28616,"lon":5.35097,"is_reserved":false,"is_disabled":true,"rental_uris":{"android":"levelo://app?vid=cab64969-2640-47ee-abb9-f11afb1f3a59","ios":"levelo://app?vid=cab64969-2640-47ee-abb9-f11afb1f3a59"},"vehicle_type_id":"4","last_reported":1745161713,"current_range_meters":13600,"station_id":"ce4bhch2rcd13ifvqeug","pricing_plan_id":"cebpf4jnsgd1na2vs0mg"},{"bike_id":"635327bc-d280-4676-9818-c1af3e76102c","system_id":"levelo_inurba_marseille","lat":43.21191,"lon":5.35082,"is_reserved":false,"is_disabled":false,"rental_uris":{"android":"levelo://app?vid=635327bc-d280-4676-9818-c1af3e76102c","ios":"levelo://app?vid=635327bc-d280-4676-9818-c1af3e76102c"},"vehicle_type_id":"4","last_reported":1745161713,"current_range_meters":13600,"station_id":"st_cvj6sg6p6f1abm77japg","pricing_plan_id":"cebpf4jnsgd1na2vs0mg"},{"bike_id":"ce034b4a-bb67-4c72-856c-a0c7ed4c8b8f","system_id":"levelo_inurba_marseille","lat":43.23457,"lon":5.35928,"is_reserved":false,"is_disabled":false,"rental_uris":{"android":"levelo://app?vid=ce034b4a-bb67-4c72-856c-a0c7ed4c8b8f","ios":"levelo://app?vid=ce034b4a-bb67-4c72-856c-a0c7ed4c8b8f"},"vehicle_type_id":"4","last_reported":1745161713,"current_range_meters":13600,"station_id":"","pricing_plan_id":"cebpf4jnsgd1na2vs0mg"},{"bike_id":"8791819b-3cea-4f57-bb6a-cf9e074dfed7","system_id":"levelo_inurba_marseille","lat":43.23057,"lon":5.3549,"is_reserved":false,"is_disabled":false,"rental_uris":{"android":"levelo://app?vid=8791819b-3cea-4f57-bb6a-cf9e074dfed7","ios":"levelo://app?vid=8791819b-3cea-4f57-bb6a-cf9e074dfed7"},"vehicle_type_id":"4","last_reported":1745161713,"current_range_meters":13600,"station_id":"cpo3342slgdg3j2ifvpg","pricing_plan_id":"cebpf4jnsgd1na2vs0mg"},{"bike_id":"14726bda-85cc-425d-a557-d79450b59b17","system_id":"levelo_inurba_marseille","lat":43.27384,"lon":5.3626,"is_reserved":false,"is_disabled":false,"rental_uris":{"android":"levelo://app?vid=14726bda-85cc-425d-a557-d79450b59b17","ios":"levelo://app?vid=14726bda-85cc-425d-a557-d79450b59b17"},"vehicle_type_id":"4","last_reported":1745161713,"current_range_meters":13600,"station_id":"ce4bhbh2rcd13ifvqeo0","pricing_plan_id":"cebpf4jnsgd1na2vs0mg"},{"bike_id":"4e0feb4b-9af5-4c5c-a215-eabded87c4f9","system_id":"levelo_inurba_marseille","lat":43.23195,"lon":5.35549,"is_reserved":false,"is_disabled":false,"rental_uris":{"android":"levelo://app?vid=4e0feb4b-9af5-4c5c-a215-eabded87c4f9","ios":"levelo://app?vid=4e0feb4b-9af5-4c5c-a215-eabded87c4f9"},"vehicle_type_id":"4","last_reported":1745161713,"current_range_meters":13600,"station_id":"ce4bhu92rcd13ifvqi70","pricing_plan_id":"cebpf4jnsgd1na2vs0mg"},{"bike_id":"e653e066-2807-4514-8a61-d3a7d53ac289","system_id":"levelo_inurba_marseille","lat":43.22491,"lon":5.34788,"is_reserved":false,"is_disabled":false,"rental_uris":{"android":"levelo://app?vid=e653e066-2807-4514-8a61-d3a7d53ac289","ios":"levelo://app?vid=e653e066-2807-4514-8a61-d3a7d53ac289"},"vehicle_type_id":"4","last_reported":1745161713,"current_range_meters":13600,"station_id":"st_cvj5dfep6f1abm77gieg","pricing_plan_id":"cebpf4jnsgd1na2vs0mg"},{"bike_id":"4bf7e046-1026-4b5b-a65a-849de2177241","system_id":"levelo_inurba_marseille","lat":43.25089,"lon":5.39516,"is_reserved":false,"is_disabled":false,"rental_uris":{"android":"levelo://app?vid=4bf7e046-1026-4b5b-a65a-849de2177241","ios":"levelo://app?vid=4bf7e046-1026-4b5b-a65a-849de2177241"},"vehicle_type_id":"4","last_reported":1745161713,"current_range_meters":14000,"station_id":"ce4bhm12rcd13ifvqgkg","pricing_plan_id":"cebpf4jnsgd1na2vs0mg"},{"bike_id":"cbf7d151-4588-4128-ae1c-ee61f4143499","system_id":"levelo_inurba_marseille","lat":43.25584,"lon":5.38237,"is_reserved":false,"is_disabled":false,"rental_uris":{"android":"levelo://app?vid=cbf7d151-4588-4128-ae1c-ee61f4143499","ios":"levelo://app?vid=cbf7d151-4588-4128-ae1c-ee61f4143499"},"vehicle_type_id":"4","last_reported":1745161713,"current_range_meters":14000,"station_id":"ce4bhih2rcd13ifvqfs0","pricing_plan_id":"cebpf4jnsgd1na2vs0mg"},{"bike_id":"50720bbe-5512-41d7-86e0-3df313b565c6","system_id":"levelo_inurba_marseille","lat":43.32358,"lon":5.38892,"is_reserved":false,"is_disabled":true,"rental_uris":{"android":"levelo://app?vid=50720bbe-5512-41d7-86e0-3df313b565c6","ios":"levelo://app?vid=50720bbe-5512-41d7-86e0-3df313b565c6"},"vehicle_type_id":"4","last_reported":1745161713,"current_range_meters":14000,"station_id":"ce4bhqp2rcd13ifvqhog","pricing_plan_id":"cebpf4jnsgd1na2vs0mg"},{"bike_id":"80b55b8f-4b91-4662-b23c-f0419d420337","system_id":"levelo_inurba_marseille","lat":43.2307,"lon":5.35497,"is_reserved":false,"is_disabled":false,"rental_uris":{"android":"levelo://app?vid=80b55b8f-4b91-4662-b23c-f0419d420337","ios":"levelo://app?vid=80b55b8f-4b91-4662-b23c-f0419d420337"},"vehicle_type_id":"4","last_reported":1745161713,"current_range_meters":14000,"station_id":"cpo3342slgdg3j2ifvpg","pricing_plan_id":"cebpf4jnsgd1na2vs0mg"},{"bike_id":"da802735-9ca0-449c-ba23-399578f87b43","system_id":"levelo_inurba_marseille","lat":43.25498,"lon":5.37649,"is_reserved":false,"is_disabled":false,"rental_uris":{"android":"levelo://app?vid=da802735-9ca0-449c-ba23-399578f87b43","ios":"levelo://app?vid=da802735-9ca0-449c-ba23-399578f87b43"},"vehicle_type_id":"4","last_reported":1745161713,"current_range_meters":14000,"station_id":"ce4bhh12rcd13ifvqff0","pricing_plan_id":"cebpf4jnsgd1na2vs0mg"},{"bike_id":"222d893b-0514-4b38-aa03-fd67131c5ae9","system_id":"levelo_inurba_marseille","lat":43.26565,"lon":5.39011,"is_reserved":false,"is_disabled":false,"rental_uris":{"android":"levelo://app?vid=222d893b-0514-4b38-aa03-fd67131c5ae9","ios":"levelo://app?vid=222d893b-0514-4b38-aa03-fd67131c5ae9"},"vehicle_type_id":"4","last_reported":1745161713,"current_range_meters":14000,"station_id":"ce4bhe12rcd13ifvqf30","pricing_plan_id":"cebpf4jnsgd1na2vs0mg"},{"bike_id":"13ce5ff4-9cb9-4709-a8b3-5235d81b0cab","system_id":"levelo_inurba_marseille","lat":43.25578,"lon":5.3823,"is_reserved":false,"is_disabled":false,"rental_uris":{"android":"levelo://app?vid=13ce5ff4-9cb9-4709-a8b3-5235d81b0cab","ios":"levelo://app?vid=13ce5ff4-9cb9-4709-a8b3-5235d81b0cab"},"vehicle_type_id":"4","last_reported":1745161713,"current_range_meters":14400,"station_id":"ce4bhih2rcd13ifvqfs0","pricing_plan_id":"cebpf4jnsgd1na2vs0mg"},{"bike_id":"d53e964c-f934-484c-a259-3e8f23cdd819","system_id":"levelo_inurba_marseille","lat":43.33728,"lon":5.39204,"is_reserved":false,"is_disabled":false,"rental_uris":{"android":"levelo://app?vid=d53e964c-f934-484c-a259-3e8f23cdd819","ios":"levelo://app?vid=d53e964c-f934-484c-a259-3e8f23cdd819"},"vehicle_type_id":"4","last_reported":1745161713,"current_range_meters":14400,"station_id":"ce4bhr92rcd13ifvqhsg","pricing_plan_id":"cebpf4jnsgd1na2vs0mg"},{"bike_id":"aa4956c6-6845-4783-8776-ee4b88f920ec","system_id":"levelo_inurba_marseille","lat":43.28633,"lon":5.37064,"is_reserved":false,"is_disabled":true,"rental_uris":{"android":"levelo://app?vid=aa4956c6-6845-4783-8776-ee4b88f920ec","ios":"levelo://app?vid=aa4956c6-6845-4783-8776-ee4b88f920ec"},"vehicle_type_id":"4","last_reported":1745161713,"current_range_meters":14400,"station_id":"ce4bht12rcd13ifvqi60","pricing_plan_id":"cebpf4jnsgd1na2vs0mg"},{"bike_id":"e2d7df0f-042e-4484-b711-0788101d2fd1","system_id":"levelo_inurba_marseille","lat":43.284155,"lon":5.349636,"is_reserved":false,"is_disabled":false,"rental_uris":{"android":"levelo://app?vid=e2d7df0f-042e-4484-b711-0788101d2fd1","ios":"levelo://app?vid=e2d7df0f-042e-4484-b711-0788101d2fd1"},"vehicle_type_id":"4","last_reported":1745161713,"current_range_meters":14400,"station_id":"ce4bh392rcd13ifvqdl0","pricing_plan_id":"cebpf4jnsgd1na2vs0mg"},{"bike_id":"fd7b62fd-08dc-496b-b3b0-e5c739d45afd","system_id":"levelo_inurba_marseille","lat":43.25493,"lon":5.37646,"is_reserved":false,"is_disabled":false,"rental_uris":{"android":"levelo://app?vid=fd7b62fd-08dc-496b-b3b0-e5c739d45afd","ios":"levelo://app?vid=fd7b62fd-08dc-496b-b3b0-e5c739d45afd"},"vehicle_type_id":"4","last_reported":1745161713,"current_range_meters":14400,"station_id":"ce4bhh12rcd13ifvqff0","pricing_plan_id":"cebpf4jnsgd1na2vs0mg"},{"bike_id":"f7027e6a-48d2-4cae-b50c-97b01f670552","system_id":"levelo_inurba_marseille","lat":43.23963,"lon":5.36626,"is_reserved":false,"is_disabled":false,"rental_uris":{"android":"levelo://app?vid=f7027e6a-48d2-4cae-b50c-97b01f670552","ios":"levelo://app?vid=f7027e6a-48d2-4cae-b50c-97b01f670552"},"vehicle_type_id":"4","last_reported":1745161713,"current_range_meters":14400,"station_id":"ce4bhi12rcd13ifvqfp0","pricing_plan_id":"cebpf4jnsgd1na2vs0mg"},{"bike_id":"3ee2278f-b2c7-4c83-87ed-ccc9c98b8936","system_id":"levelo_inurba_marseille","lat":43.29899,"lon":5.43674,"is_reserved":false,"is_disabled":false,"rental_uris":{"android":"levelo://app?vid=3ee2278f-b2c7-4c83-87ed-ccc9c98b8936","ios":"levelo://app?vid=3ee2278f-b2c7-4c83-87ed-ccc9c98b8936"},"vehicle_type_id":"4","last_reported":1745161713,"current_range_meters":14400,"station_id":"ce4bhpp2rcd13ifvqhfg","pricing_plan_id":"cebpf4jnsgd1na2vs0mg"},{"bike_id":"3f2fccb2-46ab-4328-aef6-4dfa413c0518","system_id":"levelo_inurba_marseille","lat":43.26232,"lon":5.37451,"is_reserved":false,"is_disabled":false,"rental_uris":{"android":"levelo://app?vid=3f2fccb2-46ab-4328-aef6-4dfa413c0518","ios":"levelo://app?vid=3f2fccb2-46ab-4328-aef6-4dfa413c0518"},"vehicle_type_id":"4","last_reported":1745161713,"current_range_meters":14800,"station_id":"ce4bhgp2rcd13ifvqfc0","pricing_plan_id":"cebpf4jnsgd1na2vs0mg"},{"bike_id":"8feff888-7314-4d6c-b956-a2eebf071ebb","system_id":"levelo_inurba_marseille","lat":43.28464,"lon":5.3588,"is_reserved":false,"is_disabled":false,"rental_uris":{"android":"levelo://app?vid=8feff888-7314-4d6c-b956-a2eebf071ebb","ios":"levelo://app?vid=8feff888-7314-4d6c-b956-a2eebf071ebb"},"vehicle_type_id":"4","last_reported":1745161713,"current_range_meters":15200,"station_id":"ce4bhah2rcd13ifvqei0","pricing_plan_id":"cebpf4jnsgd1na2vs0mg"},{"bike_id":"d66f2fbf-84c1-4006-a003-d92ef3aa9479","system_id":"levelo_inurba_marseille","lat":43.23196,"lon":5.35536,"is_reserved":false,"is_disabled":false,"rental_uris":{"android":"levelo://app?vid=d66f2fbf-84c1-4006-a003-d92ef3aa9479","ios":"levelo://app?vid=d66f2fbf-84c1-4006-a003-d92ef3aa9479"},"vehicle_type_id":"4","last_reported":1745161713,"current_range_meters":15200,"station_id":"ce4bhu92rcd13ifvqi70","pricing_plan_id":"cebpf4jnsgd1na2vs0mg"},{"bike_id":"386c0466-92a0-4b14-84ad-ceae0ada9e40","system_id":"levelo_inurba_marseille","lat":43.30906,"lon":5.36847,"is_reserved":false,"is_disabled":true,"rental_uris":{"android":"levelo://app?vid=386c0466-92a0-4b14-84ad-ceae0ada9e40","ios":"levelo://app?vid=386c0466-92a0-4b14-84ad-ceae0ada9e40"},"vehicle_type_id":"4","last_reported":1745161713,"current_range_meters":16000,"station_id":"ce4bgn92rcd13ifvqbvg","pricing_plan_id":"cebpf4jnsgd1na2vs0mg"},{"bike_id":"54333f71-3852-4e7b-b374-b14e492e4962","system_id":"levelo_inurba_marseille","lat":43.30456,"lon":5.41263,"is_reserved":false,"is_disabled":true,"rental_uris":{"android":"levelo://app?vid=54333f71-3852-4e7b-b374-b14e492e4962","ios":"levelo://app?vid=54333f71-3852-4e7b-b374-b14e492e4962"},"vehicle_type_id":"4","last_reported":1745161713,"current_range_meters":16000,"station_id":"ce4bhop2rcd13ifvqh8g","pricing_plan_id":"cebpf4jnsgd1na2vs0mg"},{"bike_id":"cb04d036-524e-497d-b1e8-d53251979b05","system_id":"levelo_inurba_marseille","lat":43.29872,"lon":5.39751,"is_reserved":false,"is_disabled":true,"rental_uris":{"android":"levelo://app?vid=cb04d036-524e-497d-b1e8-d53251979b05","ios":"levelo://app?vid=cb04d036-524e-497d-b1e8-d53251979b05"},"vehicle_type_id":"4","last_reported":1745161713,"current_range_meters":16000,"station_id":"ce4bh0h2rcd13ifvqd50","pricing_plan_id":"cebpf4jnsgd1na2vs0mg"},{"bike_id":"2bb99097-c26f-4681-bb95-3fe5a7ff6560","system_id":"levelo_inurba_marseille","lat":43.25501,"lon":5.37652,"is_reserved":false,"is_disabled":false,"rental_uris":{"android":"levelo://app?vid=2bb99097-c26f-4681-bb95-3fe5a7ff6560","ios":"levelo://app?vid=2bb99097-c26f-4681-bb95-3fe5a7ff6560"},"vehicle_type_id":"4","last_reported":1745161713,"current_range_meters":14800,"station_id":"ce4bhh12rcd13ifvqff0","pricing_plan_id":"cebpf4jnsgd1na2vs0mg"},{"bike_id":"7d29063e-cc47-43de-9fe3-33b900004d65","system_id":"levelo_inurba_marseille","lat":43.21197,"lon":5.3506,"is_reserved":false,"is_disabled":false,"rental_uris":{"android":"levelo://app?vid=7d29063e-cc47-43de-9fe3-33b900004d65","ios":"levelo://app?vid=7d29063e-cc47-43de-9fe3-33b900004d65"},"vehicle_type_id":"4","last_reported":1745161713,"current_range_meters":16000,"station_id":"st_cvj6sg6p6f1abm77japg","pricing_plan_id":"cebpf4jnsgd1na2vs0mg"},{"bike_id":"8605282b-b417-44ef-b921-2c93f06b4d14","system_id":"levelo_inurba_marseille","lat":43.2511,"lon":5.40339,"is_reserved":false,"is_disabled":false,"rental_uris":{"android":"levelo://app?vid=8605282b-b417-44ef-b921-2c93f06b4d14","ios":"levelo://app?vid=8605282b-b417-44ef-b921-2c93f06b4d14"},"vehicle_type_id":"4","last_reported":1745161713,"current_range_meters":16000,"station_id":"ce4bhlh2rcd13ifvqgig","pricing_plan_id":"cebpf4jnsgd1na2vs0mg"},{"bike_id":"0b7ea343-ecd6-44fb-8ab7-563e744b2947","system_id":"levelo_inurba_marseille","lat":43.27998,"lon":5.40011,"is_reserved":false,"is_disabled":false,"rental_uris":{"android":"levelo://app?vid=0b7ea343-ecd6-44fb-8ab7-563e744b2947","ios":"levelo://app?vid=0b7ea343-ecd6-44fb-8ab7-563e744b2947"},"vehicle_type_id":"4","last_reported":1745161713,"current_range_meters":16400,"station_id":"ce4bho92rcd13ifvqh4g","pricing_plan_id":"cebpf4jnsgd1na2vs0mg"},{"bike_id":"6cb32928-af13-438c-897b-314f762f58e9","system_id":"levelo_inurba_marseille","lat":43.24662,"lon":5.38885,"is_reserved":false,"is_disabled":false,"rental_uris":{"android":"levelo://app?vid=6cb32928-af13-438c-897b-314f762f58e9","ios":"levelo://app?vid=6cb32928-af13-438c-897b-314f762f58e9"},"vehicle_type_id":"4","last_reported":1745161713,"current_range_meters":16800,"station_id":"ce4bhg12rcd13ifvqf60","pricing_plan_id":"cebpf4jnsgd1na2vs0mg"},{"bike_id":"b157dc81-51c5-45f3-a677-9e9c3cf6283b","system_id":"levelo_inurba_marseille","lat":43.30683,"lon":5.37201,"is_reserved":false,"is_disabled":false,"rental_uris":{"android":"levelo://app?vid=b157dc81-51c5-45f3-a677-9e9c3cf6283b","ios":"levelo://app?vid=b157dc81-51c5-45f3-a677-9e9c3cf6283b"},"vehicle_type_id":"4","last_reported":1745161713,"current_range_meters":16400,"station_id":"","pricing_plan_id":"cebpf4jnsgd1na2vs0mg"},{"bike_id":"1a5f2cec-6354-428d-a667-d2081b30c7f2","system_id":"levelo_inurba_marseille","lat":43.27693,"lon":5.39823,"is_reserved":false,"is_disabled":false,"rental_uris":{"android":"levelo://app?vid=1a5f2cec-6354-428d-a667-d2081b30c7f2","ios":"levelo://app?vid=1a5f2cec-6354-428d-a667-d2081b30c7f2"},"vehicle_type_id":"4","last_reported":1745161713,"current_range_meters":16400,"station_id":"","pricing_plan_id":"cebpf4jnsgd1na2vs0mg"},{"bike_id":"9cd66f20-0974-44a3-a00c-3af08e74ebf2","system_id":"levelo_inurba_marseille","lat":43.260253,"lon":5.417419,"is_reserved":false,"is_disabled":false,"rental_uris":{"android":"levelo://app?vid=9cd66f20-0974-44a3-a00c-3af08e74ebf2","ios":"levelo://app?vid=9cd66f20-0974-44a3-a00c-3af08e74ebf2"},"vehicle_type_id":"4","last_reported":1745161713,"current_range_meters":16400,"station_id":"","pricing_plan_id":"cebpf4jnsgd1na2vs0mg"},{"bike_id":"cc015b0e-d256-409b-bfae-d243633a1e3e","system_id":"levelo_inurba_marseille","lat":43.22943,"lon":5.35393,"is_reserved":false,"is_disabled":false,"rental_uris":{"android":"levelo://app?vid=cc015b0e-d256-409b-bfae-d243633a1e3e","ios":"levelo://app?vid=cc015b0e-d256-409b-bfae-d243633a1e3e"},"vehicle_type_id":"4","last_reported":1745161713,"current_range_meters":16400,"station_id":"cpo3532slgdg3j2ikp40","pricing_plan_id":"cebpf4jnsgd1na2vs0mg"},{"bike_id":"d43d8234-6161-4365-a37d-75602a393c45","system_id":"levelo_inurba_marseille","lat":43.27619,"lon":5.36099,"is_reserved":false,"is_disabled":false,"rental_uris":{"android":"levelo://app?vid=d43d8234-6161-4365-a37d-75602a393c45","ios":"levelo://app?vid=d43d8234-6161-4365-a37d-75602a393c45"},"vehicle_type_id":"4","last_reported":1745161713,"current_range_meters":16400,"station_id":"ce4bgj92rcd13ifvqbe0","pricing_plan_id":"cebpf4jnsgd1na2vs0mg"},{"bike_id":"721f595d-f057-44ac-ac8d-4aec1bc01567","system_id":"levelo_inurba_marseille","lat":43.25108,"lon":5.40321,"is_reserved":false,"is_disabled":false,"rental_uris":{"android":"levelo://app?vid=721f595d-f057-44ac-ac8d-4aec1bc01567","ios":"levelo://app?vid=721f595d-f057-44ac-ac8d-4aec1bc01567"},"vehicle_type_id":"4","last_reported":1745161713,"current_range_meters":16800,"station_id":"ce4bhlh2rcd13ifvqgig","pricing_plan_id":"cebpf4jnsgd1na2vs0mg"},{"bike_id":"5069dd58-c0a4-4a82-89c4-361b75ac07f9","system_id":"levelo_inurba_marseille","lat":43.25581,"lon":5.38232,"is_reserved":false,"is_disabled":false,"rental_uris":{"android":"levelo://app?vid=5069dd58-c0a4-4a82-89c4-361b75ac07f9","ios":"levelo://app?vid=5069dd58-c0a4-4a82-89c4-361b75ac07f9"},"vehicle_type_id":"4","last_reported":1745161713,"current_range_meters":16800,"station_id":"ce4bhih2rcd13ifvqfs0","pricing_plan_id":"cebpf4jnsgd1na2vs0mg"},{"bike_id":"f36c50e9-99a2-48ac-ba24-bbee1a1c2a9b","system_id":"levelo_inurba_marseille","lat":43.23196,"lon":5.40029,"is_reserved":false,"is_disabled":false,"rental_uris":{"android":"levelo://app?vid=f36c50e9-99a2-48ac-ba24-bbee1a1c2a9b","ios":"levelo://app?vid=f36c50e9-99a2-48ac-ba24-bbee1a1c2a9b"},"vehicle_type_id":"4","last_reported":1745161713,"current_range_meters":16800,"station_id":"ce4bhn12rcd13ifvqgqg","pricing_plan_id":"cebpf4jnsgd1na2vs0mg"},{"bike_id":"08a6e4eb-f0ad-4ddf-ad16-bb6a287aacbf","system_id":"levelo_inurba_marseille","lat":43.28727,"lon":5.37938,"is_reserved":false,"is_disabled":false,"rental_uris":{"android":"levelo://app?vid=08a6e4eb-f0ad-4ddf-ad16-bb6a287aacbf","ios":"levelo://app?vid=08a6e4eb-f0ad-4ddf-ad16-bb6a287aacbf"},"vehicle_type_id":"4","last_reported":1745161713,"current_range_meters":16400,"station_id":"ce4bh9p2rcd13ifvqec0","pricing_plan_id":"cebpf4jnsgd1na2vs0mg"},{"bike_id":"57332b25-e487-4c64-b4bc-c9ac655171cf","system_id":"levelo_inurba_marseille","lat":43.2736,"lon":5.36218,"is_reserved":false,"is_disabled":false,"rental_uris":{"android":"levelo://app?vid=57332b25-e487-4c64-b4bc-c9ac655171cf","ios":"levelo://app?vid=57332b25-e487-4c64-b4bc-c9ac655171cf"},"vehicle_type_id":"4","last_reported":1745161713,"current_range_meters":16800,"station_id":"ce4bhbh2rcd13ifvqeo0","pricing_plan_id":"cebpf4jnsgd1na2vs0mg"},{"bike_id":"fa0e2da6-a784-405b-a63a-e123918df129","system_id":"levelo_inurba_marseille","lat":43.27395,"lon":5.36264,"is_reserved":false,"is_disabled":false,"rental_uris":{"android":"levelo://app?vid=fa0e2da6-a784-405b-a63a-e123918df129","ios":"levelo://app?vid=fa0e2da6-a784-405b-a63a-e123918df129"},"vehicle_type_id":"4","last_reported":1745161713,"current_range_meters":16800,"station_id":"ce4bhbh2rcd13ifvqeo0","pricing_plan_id":"cebpf4jnsgd1na2vs0mg"},{"bike_id":"7ec0fce2-6c90-4831-b2d2-fadbbebc0278","system_id":"levelo_inurba_marseille","lat":43.26217,"lon":5.37446,"is_reserved":false,"is_disabled":false,"rental_uris":{"android":"levelo://app?vid=7ec0fce2-6c90-4831-b2d2-fadbbebc0278","ios":"levelo://app?vid=7ec0fce2-6c90-4831-b2d2-fadbbebc0278"},"vehicle_type_id":"4","last_reported":1745161713,"current_range_meters":16800,"station_id":"ce4bhgp2rcd13ifvqfc0","pricing_plan_id":"cebpf4jnsgd1na2vs0mg"},{"bike_id":"c4fc050b-7c58-4380-8033-ffe242748317","system_id":"levelo_inurba_marseille","lat":43.29503,"lon":5.39383,"is_reserved":false,"is_disabled":true,"rental_uris":{"android":"levelo://app?vid=c4fc050b-7c58-4380-8033-ffe242748317","ios":"levelo://app?vid=c4fc050b-7c58-4380-8033-ffe242748317"},"vehicle_type_id":"4","last_reported":1745161713,"current_range_meters":17200,"station_id":"ce4bh292rcd13ifvqdf0","pricing_plan_id":"cebpf4jnsgd1na2vs0mg"},{"bike_id":"0de80fe7-f9ac-4f62-a4bb-d2d3e2f66040","system_id":"levelo_inurba_marseille","lat":43.217464,"lon":5.346021,"is_reserved":false,"is_disabled":false,"rental_uris":{"android":"levelo://app?vid=0de80fe7-f9ac-4f62-a4bb-d2d3e2f66040","ios":"levelo://app?vid=0de80fe7-f9ac-4f62-a4bb-d2d3e2f66040"},"vehicle_type_id":"4","last_reported":1745161713,"current_range_meters":17200,"station_id":"","pricing_plan_id":"cebpf4jnsgd1na2vs0mg"},{"bike_id":"b2cb167b-9d77-462d-96ad-2bb19da82ab9","system_id":"levelo_inurba_marseille","lat":43.248047,"lon":5.374575,"is_reserved":false,"is_disabled":false,"rental_uris":{"android":"levelo://app?vid=b2cb167b-9d77-462d-96ad-2bb19da82ab9","ios":"levelo://app?vid=b2cb167b-9d77-462d-96ad-2bb19da82ab9"},"vehicle_type_id":"4","last_reported":1745161713,"current_range_meters":17600,"station_id":"","pricing_plan_id":"cebpf4jnsgd1na2vs0mg"},{"bike_id":"14aa5634-cccd-46db-a638-6f36ff4f4d85","system_id":"levelo_inurba_marseille","lat":43.2294,"lon":5.35397,"is_reserved":false,"is_disabled":false,"rental_uris":{"android":"levelo://app?vid=14aa5634-cccd-46db-a638-6f36ff4f4d85","ios":"levelo://app?vid=14aa5634-cccd-46db-a638-6f36ff4f4d85"},"vehicle_type_id":"4","last_reported":1745161713,"current_range_meters":17200,"station_id":"cpo3532slgdg3j2ikp40","pricing_plan_id":"cebpf4jnsgd1na2vs0mg"},{"bike_id":"e73d4967-6342-4e68-8e2c-6c9eec8eb214","system_id":"levelo_inurba_marseille","lat":43.27501,"lon":5.42457,"is_reserved":false,"is_disabled":false,"rental_uris":{"android":"levelo://app?vid=e73d4967-6342-4e68-8e2c-6c9eec8eb214","ios":"levelo://app?vid=e73d4967-6342-4e68-8e2c-6c9eec8eb214"},"vehicle_type_id":"4","last_reported":1745161713,"current_range_meters":17200,"station_id":"ce4bhn92rcd13ifvqgrg","pricing_plan_id":"cebpf4jnsgd1na2vs0mg"},{"bike_id":"b63b7a5e-a38c-41b2-b8ca-03dcb2ce1a70","system_id":"levelo_inurba_marseille","lat":43.25111,"lon":5.39469,"is_reserved":false,"is_disabled":true,"rental_uris":{"android":"levelo://app?vid=b63b7a5e-a38c-41b2-b8ca-03dcb2ce1a70","ios":"levelo://app?vid=b63b7a5e-a38c-41b2-b8ca-03dcb2ce1a70"},"vehicle_type_id":"4","last_reported":1745161713,"current_range_meters":17200,"station_id":"ce4bhm12rcd13ifvqgkg","pricing_plan_id":"cebpf4jnsgd1na2vs0mg"},{"bike_id":"bbfd1c7d-9e4c-4288-9919-ff9fa7a14056","system_id":"levelo_inurba_marseille","lat":43.21738,"lon":5.34604,"is_reserved":false,"is_disabled":true,"rental_uris":{"android":"levelo://app?vid=bbfd1c7d-9e4c-4288-9919-ff9fa7a14056","ios":"levelo://app?vid=bbfd1c7d-9e4c-4288-9919-ff9fa7a14056"},"vehicle_type_id":"4","last_reported":1745161713,"current_range_meters":17200,"station_id":"st_cvj6r9ubvosntc0bgbag","pricing_plan_id":"cebpf4jnsgd1na2vs0mg"},{"bike_id":"0634ab8f-4bc2-4bc1-bab2-60f860ed18e5","system_id":"levelo_inurba_marseille","lat":43.265598,"lon":5.372835,"is_reserved":false,"is_disabled":false,"rental_uris":{"android":"levelo://app?vid=0634ab8f-4bc2-4bc1-bab2-60f860ed18e5","ios":"levelo://app?vid=0634ab8f-4bc2-4bc1-bab2-60f860ed18e5"},