{"last_updated":1781306827,"ttl":60,"version":"2.2","data":{"bikes":[{"bike_id":"ec12d144-24c8-4071-abf6-197e520eae96","system_id":"levelo_inurba_marseille","lat":43.337444,"lon":5.374475,"is_reserved":false,"is_disabled":false,"rental_uris":{"android":"levelo://app?vid=ec12d144-24c8-4071-abf6-197e520eae96","ios":"levelo://app?vid=ec12d144-24c8-4071-abf6-197e520eae96"},"vehicle_type_id":"4","last_reported":1781306827,"current_range_meters":0,"station_id":"","pricing_plan_id":"cebpf4jnsgd1na2vs0mg"},{"bike_id":"82e40a8e-6a39-46e2-aa69-66c475f3eb1b","system_id":"levelo_inurba_marseille","lat":43.30451,"lon":5.38867,"is_reserved":false,"is_disabled":false,"rental_uris":{"android":"levelo://app?vid=82e40a8e-6a39-46e2-aa69-66c475f3eb1b","ios":"levelo://app?vid=82e40a8e-6a39-46e2-aa69-66c475f3eb1b"},"vehicle_type_id":"4","last_reported":1781306827,"current_range_meters":2800,"station_id":"ce4bgk12rcd13ifvqbi0","pricing_plan_id":"cebpf4jnsgd1na2vs0mg"},{"bike_id":"2b93ae1e-aed2-4f09-a1d5-207d27d2dd0d","system_id":"levelo_inurba_marseille","lat":43.24502,"lon":5.42507,"is_reserved":false,"is_disabled":false,"rental_uris":{"android":"levelo://app?vid=2b93ae1e-aed2-4f09-a1d5-207d27d2dd0d","ios":"levelo://app?vid=2b93ae1e-aed2-4f09-a1d5-207d27d2dd0d"},"vehicle_type_id":"4","last_reported":1781306827,"current_range_meters":2800,"station_id":"st_d4a3vfp97mjs738cd8kg","pricing_plan_id":"cebpf4jnsgd1na2vs0mg"},{"bike_id":"7c307ebc-aea8-4c74-801b-203d11055b3c","system_id":"levelo_inurba_marseille","lat":43.29919,"lon":5.42763,"is_reserved":false,"is_disabled":false,"rental_uris":{"android":"levelo://app?vid=7c307ebc-aea8-4c74-801b-203d11055b3c","ios":"levelo://app?vid=7c307ebc-aea8-4c74-801b-203d11055b3c"},"vehicle_type_id":"4","last_reported":1781306827,"current_range_meters":2800,"station_id":"","pricing_plan_id":"cebpf4jnsgd1na2vs0mg"},{"bike_id":"c365ad60-649e-4557-99c1-e200c21a2923","system_id":"levelo_inurba_marseille","lat":43.28614,"lon":5.35105,"is_reserved":false,"is_disabled":false,"rental_uris":{"android":"levelo://app?vid=c365ad60-649e-4557-99c1-e200c21a2923","ios":"levelo://app?vid=c365ad60-649e-4557-99c1-e200c21a2923"},"vehicle_type_id":"4","last_reported":1781306827,"current_range_meters":2800,"station_id":"ce4bhch2rcd13ifvqeug","pricing_plan_id":"cebpf4jnsgd1na2vs0mg"},{"bike_id":"2fe78ccb-070f-432a-a7e8-216efa06d701","system_id":"levelo_inurba_marseille","lat":43.28579,"lon":5.42976,"is_reserved":false,"is_disabled":false,"rental_uris":{"android":"levelo://app?vid=2fe78ccb-070f-432a-a7e8-216efa06d701","ios":"levelo://app?vid=2fe78ccb-070f-432a-a7e8-216efa06d701"},"vehicle_type_id":"4","last_reported":1781306827,"current_range_meters":2800,"station_id":"","pricing_plan_id":"cebpf4jnsgd1na2vs0mg"},{"bike_id":"b867be92-d2f0-4542-9e90-9b0ff4cf1450","system_id":"levelo_inurba_marseille","lat":43.3043,"lon":5.38898,"is_reserved":false,"is_disabled":false,"rental_uris":{"android":"levelo://app?vid=b867be92-d2f0-4542-9e90-9b0ff4cf1450","ios":"levelo://app?vid=b867be92-d2f0-4542-9e90-9b0ff4cf1450"},"vehicle_type_id":"4","last_reported":1781306827,"current_range_meters":2800,"station_id":"ce4bgk12rcd13ifvqbi0","pricing_plan_id":"cebpf4jnsgd1na2vs0mg"},{"bike_id":"bde8bc53-6079-427f-9bc4-78d438be8c2b","system_id":"levelo_inurba_marseille","lat":43.29192,"lon":5.39328,"is_reserved":false,"is_disabled":false,"rental_uris":{"android":"levelo://app?vid=bde8bc53-6079-427f-9bc4-78d438be8c2b","ios":"levelo://app?vid=bde8bc53-6079-427f-9bc4-78d438be8c2b"},"vehicle_type_id":"4","last_reported":1781306827,"current_range_meters":2800,"station_id":"ce4bh192rcd13ifvqdd0","pricing_plan_id":"cebpf4jnsgd1na2vs0mg"},{"bike_id":"5c69a1b7-5c44-4371-bb6d-21f545feea40","system_id":"levelo_inurba_marseille","lat":43.29263,"lon":5.38447,"is_reserved":false,"is_disabled":false,"rental_uris":{"android":"levelo://app?vid=5c69a1b7-5c44-4371-bb6d-21f545feea40","ios":"levelo://app?vid=5c69a1b7-5c44-4371-bb6d-21f545feea40"},"vehicle_type_id":"4","last_reported":1781306827,"current_range_meters":2800,"station_id":"ce4bh692rcd13ifvqea0","pricing_plan_id":"cebpf4jnsgd1na2vs0mg"},{"bike_id":"11eab373-7d93-4bf9-ac55-040066b1b025","system_id":"levelo_inurba_marseille","lat":43.24151,"lon":5.39721,"is_reserved":false,"is_disabled":false,"rental_uris":{"android":"levelo://app?vid=11eab373-7d93-4bf9-ac55-040066b1b025","ios":"levelo://app?vid=11eab373-7d93-4bf9-ac55-040066b1b025"},"vehicle_type_id":"4","last_reported":1781306827,"current_range_meters":2800,"station_id":"ce4bhn12rcd13ifvqgpg","pricing_plan_id":"cebpf4jnsgd1na2vs0mg"},{"bike_id":"d85159cc-5412-4ec7-a2aa-ba7268a83cd9","system_id":"levelo_inurba_marseille","lat":43.286085,"lon":5.398671,"is_reserved":false,"is_disabled":false,"rental_uris":{"android":"levelo://app?vid=d85159cc-5412-4ec7-a2aa-ba7268a83cd9","ios":"levelo://app?vid=d85159cc-5412-4ec7-a2aa-ba7268a83cd9"},"vehicle_type_id":"4","last_reported":1781306827,"current_range_meters":2800,"station_id":"st_d4a7ka997mjs738ck50g","pricing_plan_id":"cebpf4jnsgd1na2vs0mg"},{"bike_id":"8682f4e8-0798-4b4f-8fef-c4dc002ea1c8","system_id":"levelo_inurba_marseille","lat":43.29147,"lon":5.46117,"is_reserved":false,"is_disabled":false,"rental_uris":{"android":"levelo://app?vid=8682f4e8-0798-4b4f-8fef-c4dc002ea1c8","ios":"levelo://app?vid=8682f4e8-0798-4b4f-8fef-c4dc002ea1c8"},"vehicle_type_id":"4","last_reported":1781306827,"current_range_meters":2800,"station_id":"","pricing_plan_id":"cebpf4jnsgd1na2vs0mg"},{"bike_id":"75248494-6e46-4c4b-92d2-9db9ddbe9016","system_id":"levelo_inurba_marseille","lat":43.28476,"lon":5.48398,"is_reserved":false,"is_disabled":false,"rental_uris":{"android":"levelo://app?vid=75248494-6e46-4c4b-92d2-9db9ddbe9016","ios":"levelo://app?vid=75248494-6e46-4c4b-92d2-9db9ddbe9016"},"vehicle_type_id":"4","last_reported":1781306827,"current_range_meters":2800,"station_id":"st_d3svhcjqgbts73a3dn0g","pricing_plan_id":"cebpf4jnsgd1na2vs0mg"},{"bike_id":"02779e87-7950-4b3e-a0cb-69ad55469255","system_id":"levelo_inurba_marseille","lat":43.30912,"lon":5.38282,"is_reserved":false,"is_disabled":false,"rental_uris":{"android":"levelo://app?vid=02779e87-7950-4b3e-a0cb-69ad55469255","ios":"levelo://app?vid=02779e87-7950-4b3e-a0cb-69ad55469255"},"vehicle_type_id":"4","last_reported":1781306827,"current_range_meters":2800,"station_id":"","pricing_plan_id":"cebpf4jnsgd1na2vs0mg"},{"bike_id":"756be92d-af1c-49d9-ae9a-ff6fd4662f11","system_id":"levelo_inurba_marseille","lat":43.28691,"lon":5.40002,"is_reserved":false,"is_disabled":false,"rental_uris":{"android":"levelo://app?vid=756be92d-af1c-49d9-ae9a-ff6fd4662f11","ios":"levelo://app?vid=756be92d-af1c-49d9-ae9a-ff6fd4662f11"},"vehicle_type_id":"4","last_reported":1781306827,"current_range_meters":2800,"station_id":"ce4bho92rcd13ifvqh3g","pricing_plan_id":"cebpf4jnsgd1na2vs0mg"},{"bike_id":"b10e7d08-29a9-481b-bca9-123d84c5931d","system_id":"levelo_inurba_marseille","lat":43.28344,"lon":5.381,"is_reserved":false,"is_disabled":false,"rental_uris":{"android":"levelo://app?vid=b10e7d08-29a9-481b-bca9-123d84c5931d","ios":"levelo://app?vid=b10e7d08-29a9-481b-bca9-123d84c5931d"},"vehicle_type_id":"4","last_reported":1781306827,"current_range_meters":2800,"station_id":"ce4bh412rcd13ifvqdr0","pricing_plan_id":"cebpf4jnsgd1na2vs0mg"},{"bike_id":"192118a2-c336-48c0-9abc-895d30ddfa45","system_id":"levelo_inurba_marseille","lat":43.27835,"lon":5.40699,"is_reserved":false,"is_disabled":false,"rental_uris":{"android":"levelo://app?vid=192118a2-c336-48c0-9abc-895d30ddfa45","ios":"levelo://app?vid=192118a2-c336-48c0-9abc-895d30ddfa45"},"vehicle_type_id":"4","last_reported":1781306827,"current_range_meters":3200,"station_id":"ce4bhnh2rcd13ifvqgtg","pricing_plan_id":"cebpf4jnsgd1na2vs0mg"},{"bike_id":"cfca987a-456e-47df-a095-b63382c88e43","system_id":"levelo_inurba_marseille","lat":43.23196,"lon":5.35555,"is_reserved":false,"is_disabled":false,"rental_uris":{"android":"levelo://app?vid=cfca987a-456e-47df-a095-b63382c88e43","ios":"levelo://app?vid=cfca987a-456e-47df-a095-b63382c88e43"},"vehicle_type_id":"4","last_reported":1781306827,"current_range_meters":3200,"station_id":"ce4bhu92rcd13ifvqi70","pricing_plan_id":"cebpf4jnsgd1na2vs0mg"},{"bike_id":"2a192182-021b-439d-a0e2-993561972500","system_id":"levelo_inurba_marseille","lat":43.225345,"lon":5.348271,"is_reserved":false,"is_disabled":false,"rental_uris":{"android":"levelo://app?vid=2a192182-021b-439d-a0e2-993561972500","ios":"levelo://app?vid=2a192182-021b-439d-a0e2-993561972500"},"vehicle_type_id":"4","last_reported":1781306827,"current_range_meters":3200,"station_id":"st_cvj5dfep6f1abm77gieg","pricing_plan_id":"cebpf4jnsgd1na2vs0mg"},{"bike_id":"01f860ca-36c4-4404-9cb6-bb46ea7607a1","system_id":"levelo_inurba_marseille","lat":43.28849,"lon":5.39316,"is_reserved":false,"is_disabled":false,"rental_uris":{"android":"levelo://app?vid=01f860ca-36c4-4404-9cb6-bb46ea7607a1","ios":"levelo://app?vid=01f860ca-36c4-4404-9cb6-bb46ea7607a1"},"vehicle_type_id":"4","last_reported":1781306827,"current_range_meters":3200,"station_id":"ce4bh2p2rcd13ifvqdi0","pricing_plan_id":"cebpf4jnsgd1na2vs0mg"},{"bike_id":"ee62bb71-0b13-474e-a3e7-f54e7b9d1d69","system_id":"levelo_inurba_marseille","lat":43.30427,"lon":5.38891,"is_reserved":false,"is_disabled":false,"rental_uris":{"android":"levelo://app?vid=ee62bb71-0b13-474e-a3e7-f54e7b9d1d69","ios":"levelo://app?vid=ee62bb71-0b13-474e-a3e7-f54e7b9d1d69"},"vehicle_type_id":"4","last_reported":1781306827,"current_range_meters":3200,"station_id":"ce4bgk12rcd13ifvqbi0","pricing_plan_id":"cebpf4jnsgd1na2vs0mg"},{"bike_id":"f6f4f86c-9b37-4ce7-9093-9ca625094014","system_id":"levelo_inurba_marseille","lat":43.28792,"lon":5.42518,"is_reserved":false,"is_disabled":false,"rental_uris":{"android":"levelo://app?vid=f6f4f86c-9b37-4ce7-9093-9ca625094014","ios":"levelo://app?vid=f6f4f86c-9b37-4ce7-9093-9ca625094014"},"vehicle_type_id":"4","last_reported":1781306827,"current_range_meters":3200,"station_id":"","pricing_plan_id":"cebpf4jnsgd1na2vs0mg"},{"bike_id":"34126a7b-6d6e-4d85-8cf6-3f63eb99c1b1","system_id":"levelo_inurba_marseille","lat":43.28425,"lon":5.34996,"is_reserved":false,"is_disabled":false,"rental_uris":{"android":"levelo://app?vid=34126a7b-6d6e-4d85-8cf6-3f63eb99c1b1","ios":"levelo://app?vid=34126a7b-6d6e-4d85-8cf6-3f63eb99c1b1"},"vehicle_type_id":"4","last_reported":1781306827,"current_range_meters":3200,"station_id":"ce4bhbh2rcd13ifvqepg","pricing_plan_id":"cebpf4jnsgd1na2vs0mg"},{"bike_id":"3643eb2e-b0e4-40f6-9aa2-b567c4963540","system_id":"levelo_inurba_marseille","lat":43.32141,"lon":5.36741,"is_reserved":false,"is_disabled":false,"rental_uris":{"android":"levelo://app?vid=3643eb2e-b0e4-40f6-9aa2-b567c4963540","ios":"levelo://app?vid=3643eb2e-b0e4-40f6-9aa2-b567c4963540"},"vehicle_type_id":"4","last_reported":1781306827,"current_range_meters":3200,"station_id":"","pricing_plan_id":"cebpf4jnsgd1na2vs0mg"},{"bike_id":"f63e0e69-6a54-4e19-8d8e-f67680de3ed1","system_id":"levelo_inurba_marseille","lat":43.24627,"lon":5.43149,"is_reserved":false,"is_disabled":false,"rental_uris":{"android":"levelo://app?vid=f63e0e69-6a54-4e19-8d8e-f67680de3ed1","ios":"levelo://app?vid=f63e0e69-6a54-4e19-8d8e-f67680de3ed1"},"vehicle_type_id":"4","last_reported":1781306827,"current_range_meters":3200,"station_id":"st_d2m6c4gdas8pm72e190g","pricing_plan_id":"cebpf4jnsgd1na2vs0mg"},{"bike_id":"7a113760-3338-4c83-bed5-18e0dbb25fcb","system_id":"levelo_inurba_marseille","lat":43.290919,"lon":5.381387,"is_reserved":false,"is_disabled":false,"rental_uris":{"android":"levelo://app?vid=7a113760-3338-4c83-bed5-18e0dbb25fcb","ios":"levelo://app?vid=7a113760-3338-4c83-bed5-18e0dbb25fcb"},"vehicle_type_id":"4","last_reported":1781306827,"current_range_meters":3200,"station_id":"ce4bh512rcd13ifvqe2g","pricing_plan_id":"cebpf4jnsgd1na2vs0mg"},{"bike_id":"f1a562e5-8cff-449a-bdbb-a7b0c70c969e","system_id":"levelo_inurba_marseille","lat":43.28997,"lon":5.38193,"is_reserved":false,"is_disabled":true,"rental_uris":{"android":"levelo://app?vid=f1a562e5-8cff-449a-bdbb-a7b0c70c969e","ios":"levelo://app?vid=f1a562e5-8cff-449a-bdbb-a7b0c70c969e"},"vehicle_type_id":"4","last_reported":1781306827,"current_range_meters":3200,"station_id":"ce4bh4p2rcd13ifvqe1g","pricing_plan_id":"cebpf4jnsgd1na2vs0mg"},{"bike_id":"96a2301d-98f0-40ef-b639-148406f75f30","system_id":"levelo_inurba_marseille","lat":43.28268,"lon":5.35065,"is_reserved":false,"is_disabled":false,"rental_uris":{"android":"levelo://app?vid=96a2301d-98f0-40ef-b639-148406f75f30","ios":"levelo://app?vid=96a2301d-98f0-40ef-b639-148406f75f30"},"vehicle_type_id":"4","last_reported":1781306827,"current_range_meters":3200,"station_id":"ce4bhbp2rcd13ifvqerg","pricing_plan_id":"cebpf4jnsgd1na2vs0mg"},{"bike_id":"d19832b8-bd51-424f-ae83-469ec048e285","system_id":"levelo_inurba_marseille","lat":43.2707,"lon":5.42283,"is_reserved":false,"is_disabled":false,"rental_uris":{"android":"levelo://app?vid=d19832b8-bd51-424f-ae83-469ec048e285","ios":"levelo://app?vid=d19832b8-bd51-424f-ae83-469ec048e285"},"vehicle_type_id":"4","last_reported":1781306827,"current_range_meters":3200,"station_id":"ce4bhk92rcd13ifvqgb0","pricing_plan_id":"cebpf4jnsgd1na2vs0mg"},{"bike_id":"3a44773b-a64a-45f6-9197-56969bf49878","system_id":"levelo_inurba_marseille","lat":43.29719,"lon":5.37036,"is_reserved":false,"is_disabled":false,"rental_uris":{"android":"levelo://app?vid=3a44773b-a64a-45f6-9197-56969bf49878","ios":"levelo://app?vid=3a44773b-a64a-45f6-9197-56969bf49878"},"vehicle_type_id":"4","last_reported":1781306827,"current_range_meters":3200,"station_id":"","pricing_plan_id":"cebpf4jnsgd1na2vs0mg"},{"bike_id":"15fc56fc-294c-406d-b298-e6517f81b737","system_id":"levelo_inurba_marseille","lat":43.2465,"lon":5.43165,"is_reserved":false,"is_disabled":false,"rental_uris":{"android":"levelo://app?vid=15fc56fc-294c-406d-b298-e6517f81b737","ios":"levelo://app?vid=15fc56fc-294c-406d-b298-e6517f81b737"},"vehicle_type_id":"4","last_reported":1781306827,"current_range_meters":3200,"station_id":"st_d2m6c4gdas8pm72e190g","pricing_plan_id":"cebpf4jnsgd1na2vs0mg"},{"bike_id":"bd8e8f33-12b1-4c8d-8011-a25262fca44e","system_id":"levelo_inurba_marseille","lat":43.32491,"lon":5.38303,"is_reserved":false,"is_disabled":false,"rental_uris":{"android":"levelo://app?vid=bd8e8f33-12b1-4c8d-8011-a25262fca44e","ios":"levelo://app?vid=bd8e8f33-12b1-4c8d-8011-a25262fca44e"},"vehicle_type_id":"4","last_reported":1781306827,"current_range_meters":3200,"station_id":"st_d4asgbiv49dc73anf9m0","pricing_plan_id":"cebpf4jnsgd1na2vs0mg"},{"bike_id":"20180008-0fab-4f33-a5a2-b7acc37bb9cf","system_id":"levelo_inurba_marseille","lat":43.24665,"lon":5.3964,"is_reserved":false,"is_disabled":false,"rental_uris":{"android":"levelo://app?vid=20180008-0fab-4f33-a5a2-b7acc37bb9cf","ios":"levelo://app?vid=20180008-0fab-4f33-a5a2-b7acc37bb9cf"},"vehicle_type_id":"4","last_reported":1781306827,"current_range_meters":3600,"station_id":"","pricing_plan_id":"cebpf4jnsgd1na2vs0mg"},{"bike_id":"a6f4d74e-9063-4fb3-91a9-763457332147","system_id":"levelo_inurba_marseille","lat":43.270584,"lon":5.383113,"is_reserved":false,"is_disabled":false,"rental_uris":{"android":"levelo://app?vid=a6f4d74e-9063-4fb3-91a9-763457332147","ios":"levelo://app?vid=a6f4d74e-9063-4fb3-91a9-763457332147"},"vehicle_type_id":"4","last_reported":1781306827,"current_range_meters":3600,"station_id":"st_d3n2fo6cfp8s73cte1j0","pricing_plan_id":"cebpf4jnsgd1na2vs0mg"},{"bike_id":"b71af7c2-4d98-4630-86ae-a4a165ba23e9","system_id":"levelo_inurba_marseille","lat":43.28874,"lon":5.37647,"is_reserved":false,"is_disabled":false,"rental_uris":{"android":"levelo://app?vid=b71af7c2-4d98-4630-86ae-a4a165ba23e9","ios":"levelo://app?vid=b71af7c2-4d98-4630-86ae-a4a165ba23e9"},"vehicle_type_id":"4","last_reported":1781306827,"current_range_meters":3600,"station_id":"","pricing_plan_id":"cebpf4jnsgd1na2vs0mg"},{"bike_id":"b2381a57-23cb-4170-be24-8f9c7a09c53a","system_id":"levelo_inurba_marseille","lat":43.30906,"lon":5.36836,"is_reserved":false,"is_disabled":false,"rental_uris":{"android":"levelo://app?vid=b2381a57-23cb-4170-be24-8f9c7a09c53a","ios":"levelo://app?vid=b2381a57-23cb-4170-be24-8f9c7a09c53a"},"vehicle_type_id":"4","last_reported":1781306827,"current_range_meters":3600,"station_id":"ce4bgn92rcd13ifvqbvg","pricing_plan_id":"cebpf4jnsgd1na2vs0mg"},{"bike_id":"1962cd80-1948-45bd-a5c0-ff35fc23ed03","system_id":"levelo_inurba_marseille","lat":43.28463,"lon":5.38489,"is_reserved":false,"is_disabled":true,"rental_uris":{"android":"levelo://app?vid=1962cd80-1948-45bd-a5c0-ff35fc23ed03","ios":"levelo://app?vid=1962cd80-1948-45bd-a5c0-ff35fc23ed03"},"vehicle_type_id":"4","last_reported":1781306827,"current_range_meters":3600,"station_id":"","pricing_plan_id":"cebpf4jnsgd1na2vs0mg"},{"bike_id":"35fd3bba-f953-494c-a66b-6bdf2b9bea1d","system_id":"levelo_inurba_marseille","lat":43.30368,"lon":5.42515,"is_reserved":false,"is_disabled":false,"rental_uris":{"android":"levelo://app?vid=35fd3bba-f953-494c-a66b-6bdf2b9bea1d","ios":"levelo://app?vid=35fd3bba-f953-494c-a66b-6bdf2b9bea1d"},"vehicle_type_id":"4","last_reported":1781306827,"current_range_meters":3600,"station_id":"ce4bhoh2rcd13ifvqh6g","pricing_plan_id":"cebpf4jnsgd1na2vs0mg"},{"bike_id":"a90bbcb8-06c1-42c2-8c69-f41f53024121","system_id":"levelo_inurba_marseille","lat":43.31114,"lon":5.37772,"is_reserved":false,"is_disabled":false,"rental_uris":{"android":"levelo://app?vid=a90bbcb8-06c1-42c2-8c69-f41f53024121","ios":"levelo://app?vid=a90bbcb8-06c1-42c2-8c69-f41f53024121"},"vehicle_type_id":"4","last_reported":1781306827,"current_range_meters":3600,"station_id":"ce4bgt92rcd13ifvqcg0","pricing_plan_id":"cebpf4jnsgd1na2vs0mg"},{"bike_id":"93905b3e-4afd-4708-80da-9ac19c217a13","system_id":"levelo_inurba_marseille","lat":43.28347,"lon":5.38112,"is_reserved":false,"is_disabled":false,"rental_uris":{"android":"levelo://app?vid=93905b3e-4afd-4708-80da-9ac19c217a13","ios":"levelo://app?vid=93905b3e-4afd-4708-80da-9ac19c217a13"},"vehicle_type_id":"4","last_reported":1781306827,"current_range_meters":3600,"station_id":"ce4bh412rcd13ifvqdr0","pricing_plan_id":"cebpf4jnsgd1na2vs0mg"},{"bike_id":"e5b43339-bbd8-4d33-8c4f-6e3f3606379f","system_id":"levelo_inurba_marseille","lat":43.309477,"lon":5.390298,"is_reserved":false,"is_disabled":false,"rental_uris":{"android":"levelo://app?vid=e5b43339-bbd8-4d33-8c4f-6e3f3606379f","ios":"levelo://app?vid=e5b43339-bbd8-4d33-8c4f-6e3f3606379f"},"vehicle_type_id":"4","last_reported":1781306827,"current_range_meters":3600,"station_id":"ce4bgup2rcd13ifvqco0","pricing_plan_id":"cebpf4jnsgd1na2vs0mg"},{"bike_id":"5ae0aa1c-a10f-43de-80d3-1b24c826bd91","system_id":"levelo_inurba_marseille","lat":43.30276,"lon":5.37732,"is_reserved":false,"is_disabled":false,"rental_uris":{"android":"levelo://app?vid=5ae0aa1c-a10f-43de-80d3-1b24c826bd91","ios":"levelo://app?vid=5ae0aa1c-a10f-43de-80d3-1b24c826bd91"},"vehicle_type_id":"4","last_reported":1781306827,"current_range_meters":3600,"station_id":"ce4bguh2rcd13ifvqcj0","pricing_plan_id":"cebpf4jnsgd1na2vs0mg"},{"bike_id":"8b6b68f1-e508-4aca-8408-2e25b4d6ced5","system_id":"levelo_inurba_marseille","lat":43.21198,"lon":5.35068,"is_reserved":false,"is_disabled":false,"rental_uris":{"android":"levelo://app?vid=8b6b68f1-e508-4aca-8408-2e25b4d6ced5","ios":"levelo://app?vid=8b6b68f1-e508-4aca-8408-2e25b4d6ced5"},"vehicle_type_id":"4","last_reported":1781306827,"current_range_meters":3600,"station_id":"st_cvj6sg6p6f1abm77japg","pricing_plan_id":"cebpf4jnsgd1na2vs0mg"},{"bike_id":"40de0209-043c-4ed6-84c3-7ac1da5cf58d","system_id":"levelo_inurba_marseille","lat":43.32095,"lon":5.36788,"is_reserved":false,"is_disabled":false,"rental_uris":{"android":"levelo://app?vid=40de0209-043c-4ed6-84c3-7ac1da5cf58d","ios":"levelo://app?vid=40de0209-043c-4ed6-84c3-7ac1da5cf58d"},"vehicle_type_id":"4","last_reported":1781306827,"current_range_meters":3600,"station_id":"ce4bhrh2rcd13ifvqhug","pricing_plan_id":"cebpf4jnsgd1na2vs0mg"},{"bike_id":"aa5e46d9-0b78-4d46-8ce3-bb217dce7736","system_id":"levelo_inurba_marseille","lat":43.28611,"lon":5.39878,"is_reserved":false,"is_disabled":false,"rental_uris":{"android":"levelo://app?vid=aa5e46d9-0b78-4d46-8ce3-bb217dce7736","ios":"levelo://app?vid=aa5e46d9-0b78-4d46-8ce3-bb217dce7736"},"vehicle_type_id":"4","last_reported":1781306827,"current_range_meters":3600,"station_id":"st_d4a7ka997mjs738ck50g","pricing_plan_id":"cebpf4jnsgd1na2vs0mg"},{"bike_id":"271cd7da-398e-4d0a-8e25-6b30b4e77843","system_id":"levelo_inurba_marseille","lat":43.2873,"lon":5.37943,"is_reserved":false,"is_disabled":false,"rental_uris":{"android":"levelo://app?vid=271cd7da-398e-4d0a-8e25-6b30b4e77843","ios":"levelo://app?vid=271cd7da-398e-4d0a-8e25-6b30b4e77843"},"vehicle_type_id":"4","last_reported":1781306827,"current_range_meters":3600,"station_id":"ce4bh9p2rcd13ifvqec0","pricing_plan_id":"cebpf4jnsgd1na2vs0mg"},{"bike_id":"3922a396-c5f6-4a26-bc3c-50942816827d","system_id":"levelo_inurba_marseille","lat":43.26179,"lon":5.40389,"is_reserved":false,"is_disabled":false,"rental_uris":{"android":"levelo://app?vid=3922a396-c5f6-4a26-bc3c-50942816827d","ios":"levelo://app?vid=3922a396-c5f6-4a26-bc3c-50942816827d"},"vehicle_type_id":"4","last_reported":1781306827,"current_range_meters":3600,"station_id":"","pricing_plan_id":"cebpf4jnsgd1na2vs0mg"},{"bike_id":"4efb1857-7c3c-4f03-b985-34f4958b46fe","system_id":"levelo_inurba_marseille","lat":43.28943,"lon":5.36652,"is_reserved":false,"is_disabled":false,"rental_uris":{"android":"levelo://app?vid=4efb1857-7c3c-4f03-b985-34f4958b46fe","ios":"levelo://app?vid=4efb1857-7c3c-4f03-b985-34f4958b46fe"},"vehicle_type_id":"4","last_reported":1781306827,"current_range_meters":3600,"station_id":"ce4bhap2rcd13ifvqek0","pricing_plan_id":"cebpf4jnsgd1na2vs0mg"},{"bike_id":"91127671-348d-48fa-8e16-debe2eed689f","system_id":"levelo_inurba_marseille","lat":43.27794,"lon":5.39271,"is_reserved":false,"is_disabled":false,"rental_uris":{"android":"levelo://app?vid=91127671-348d-48fa-8e16-debe2eed689f","ios":"levelo://app?vid=91127671-348d-48fa-8e16-debe2eed689f"},"vehicle_type_id":"4","last_reported":1781306827,"current_range_meters":3600,"station_id":"","pricing_plan_id":"cebpf4jnsgd1na2vs0mg"},{"bike_id":"e91b8690-fabb-4d10-a5ac-e1b97d9d8712","system_id":"levelo_inurba_marseille","lat":43.306,"lon":5.37228,"is_reserved":false,"is_disabled":false,"rental_uris":{"android":"levelo://app?vid=e91b8690-fabb-4d10-a5ac-e1b97d9d8712","ios":"levelo://app?vid=e91b8690-fabb-4d10-a5ac-e1b97d9d8712"},"vehicle_type_id":"4","last_reported":1781306827,"current_range_meters":3600,"station_id":"ce4bgqh2rcd13ifvqc4g","pricing_plan_id":"cebpf4jnsgd1na2vs0mg"},{"bike_id":"9630d3ba-86dc-4eac-8fb4-727bd51e94df","system_id":"levelo_inurba_marseille","lat":43.30933,"lon":5.40143,"is_reserved":false,"is_disabled":false,"rental_uris":{"android":"levelo://app?vid=9630d3ba-86dc-4eac-8fb4-727bd51e94df","ios":"levelo://app?vid=9630d3ba-86dc-4eac-8fb4-727bd51e94df"},"vehicle_type_id":"4","last_reported":1781306827,"current_range_meters":3600,"station_id":"ce4bgvp2rcd13ifvqct0","pricing_plan_id":"cebpf4jnsgd1na2vs0mg"},{"bike_id":"7b5684ba-17bf-4260-b129-c7302c65a905","system_id":"levelo_inurba_marseille","lat":43.29486,"lon":5.43315,"is_reserved":false,"is_disabled":false,"rental_uris":{"android":"levelo://app?vid=7b5684ba-17bf-4260-b129-c7302c65a905","ios":"levelo://app?vid=7b5684ba-17bf-4260-b129-c7302c65a905"},"vehicle_type_id":"4","last_reported":1781306827,"current_range_meters":3600,"station_id":"st_d3j5ugp08ojc73fj9d10","pricing_plan_id":"cebpf4jnsgd1na2vs0mg"},{"bike_id":"d96d04db-3a46-41d7-a5cf-29ee2408a116","system_id":"levelo_inurba_marseille","lat":43.23969,"lon":5.36621,"is_reserved":false,"is_disabled":false,"rental_uris":{"android":"levelo://app?vid=d96d04db-3a46-41d7-a5cf-29ee2408a116","ios":"levelo://app?vid=d96d04db-3a46-41d7-a5cf-29ee2408a116"},"vehicle_type_id":"4","last_reported":1781306827,"current_range_meters":3600,"station_id":"ce4bhi12rcd13ifvqfp0","pricing_plan_id":"cebpf4jnsgd1na2vs0mg"},{"bike_id":"b3f8ff46-4f47-48d6-877b-cd338d21d8e5","system_id":"levelo_inurba_marseille","lat":43.29869,"lon":5.39748,"is_reserved":false,"is_disabled":false,"rental_uris":{"android":"levelo://app?vid=b3f8ff46-4f47-48d6-877b-cd338d21d8e5","ios":"levelo://app?vid=b3f8ff46-4f47-48d6-877b-cd338d21d8e5"},"vehicle_type_id":"4","last_reported":1781306827,"current_range_meters":4000,"station_id":"ce4bh0h2rcd13ifvqd50","pricing_plan_id":"cebpf4jnsgd1na2vs0mg"},{"bike_id":"0c58f677-2e75-48d6-94f4-b08765968ce1","system_id":"levelo_inurba_marseille","lat":43.29617,"lon":5.40607,"is_reserved":false,"is_disabled":false,"rental_uris":{"android":"levelo://app?vid=0c58f677-2e75-48d6-94f4-b08765968ce1","ios":"levelo://app?vid=0c58f677-2e75-48d6-94f4-b08765968ce1"},"vehicle_type_id":"4","last_reported":1781306827,"current_range_meters":4000,"station_id":"ce4bh0h2rcd13ifvqd60","pricing_plan_id":"cebpf4jnsgd1na2vs0mg"},{"bike_id":"251f2ed3-be7d-4e96-8818-497dd3d98d48","system_id":"levelo_inurba_marseille","lat":43.3132,"lon":5.39713,"is_reserved":false,"is_disabled":false,"rental_uris":{"android":"levelo://app?vid=251f2ed3-be7d-4e96-8818-497dd3d98d48","ios":"levelo://app?vid=251f2ed3-be7d-4e96-8818-497dd3d98d48"},"vehicle_type_id":"4","last_reported":1781306827,"current_range_meters":4000,"station_id":"ce4bgvp2rcd13ifvqcu0","pricing_plan_id":"cebpf4jnsgd1na2vs0mg"},{"bike_id":"b83be4d3-06f4-4b3e-9ba2-a6d47abaf96e","system_id":"levelo_inurba_marseille","lat":43.29264,"lon":5.37612,"is_reserved":false,"is_disabled":true,"rental_uris":{"android":"levelo://app?vid=b83be4d3-06f4-4b3e-9ba2-a6d47abaf96e","ios":"levelo://app?vid=b83be4d3-06f4-4b3e-9ba2-a6d47abaf96e"},"vehicle_type_id":"4","last_reported":1781306827,"current_range_meters":4000,"station_id":"ce4bgi12rcd13ifvqb80","pricing_plan_id":"cebpf4jnsgd1na2vs0mg"},{"bike_id":"71e673c1-4feb-446e-b58c-e0535f27ae14","system_id":"levelo_inurba_marseille","lat":43.31753,"lon":5.39033,"is_reserved":false,"is_disabled":false,"rental_uris":{"android":"levelo://app?vid=71e673c1-4feb-446e-b58c-e0535f27ae14","ios":"levelo://app?vid=71e673c1-4feb-446e-b58c-e0535f27ae14"},"vehicle_type_id":"4","last_reported":1781306827,"current_range_meters":4000,"station_id":"ce4bhqp2rcd13ifvqhng","pricing_plan_id":"cebpf4jnsgd1na2vs0mg"},{"bike_id":"318c2327-cd61-4b3a-8efa-5ff92eb9038b","system_id":"levelo_inurba_marseille","lat":43.34756,"lon":5.3664,"is_reserved":false,"is_disabled":false,"rental_uris":{"android":"levelo://app?vid=318c2327-cd61-4b3a-8efa-5ff92eb9038b","ios":"levelo://app?vid=318c2327-cd61-4b3a-8efa-5ff92eb9038b"},"vehicle_type_id":"4","last_reported":1781306827,"current_range_meters":4000,"station_id":"","pricing_plan_id":"cebpf4jnsgd1na2vs0mg"},{"bike_id":"696ffd7d-90f2-4962-a226-c170e838fc3a","system_id":"levelo_inurba_marseille","lat":43.23789,"lon":5.36641,"is_reserved":false,"is_disabled":false,"rental_uris":{"android":"levelo://app?vid=696ffd7d-90f2-4962-a226-c170e838fc3a","ios":"levelo://app?vid=696ffd7d-90f2-4962-a226-c170e838fc3a"},"vehicle_type_id":"4","last_reported":1781306827,"current_range_meters":4000,"station_id":"st_d3nk18o9ro0c73en2l3g","pricing_plan_id":"cebpf4jnsgd1na2vs0mg"},{"bike_id":"8bf99202-0aa0-4c45-a06d-a3fa999fbea6","system_id":"levelo_inurba_marseille","lat":43.31135,"lon":5.37121,"is_reserved":false,"is_disabled":true,"rental_uris":{"android":"levelo://app?vid=8bf99202-0aa0-4c45-a06d-a3fa999fbea6","ios":"levelo://app?vid=8bf99202-0aa0-4c45-a06d-a3fa999fbea6"},"vehicle_type_id":"4","last_reported":1781306827,"current_range_meters":4000,"station_id":"","pricing_plan_id":"cebpf4jnsgd1na2vs0mg"},{"bike_id":"f7698676-1932-4dbf-ab9d-6c907c9bbe14","system_id":"levelo_inurba_marseille","lat":43.31886,"lon":5.37143,"is_reserved":false,"is_disabled":false,"rental_uris":{"android":"levelo://app?vid=f7698676-1932-4dbf-ab9d-6c907c9bbe14","ios":"levelo://app?vid=f7698676-1932-4dbf-ab9d-6c907c9bbe14"},"vehicle_type_id":"4","last_reported":1781306827,"current_range_meters":4000,"station_id":"","pricing_plan_id":"cebpf4jnsgd1na2vs0mg"},{"bike_id":"8afeb7a8-b686-4611-8220-2ade2d33c717","system_id":"levelo_inurba_marseille","lat":43.2961,"lon":5.37716,"is_reserved":false,"is_disabled":true,"rental_uris":{"android":"levelo://app?vid=8afeb7a8-b686-4611-8220-2ade2d33c717","ios":"levelo://app?vid=8afeb7a8-b686-4611-8220-2ade2d33c717"},"vehicle_type_id":"4","last_reported":1781306827,"current_range_meters":4000,"station_id":"ce4bgi92rcd13ifvqb90","pricing_plan_id":"cebpf4jnsgd1na2vs0mg"},{"bike_id":"edd7f6cf-c00d-4334-ba4f-ddda86c6a12e","system_id":"levelo_inurba_marseille","lat":43.30283,"lon":5.37731,"is_reserved":false,"is_disabled":false,"rental_uris":{"android":"levelo://app?vid=edd7f6cf-c00d-4334-ba4f-ddda86c6a12e","ios":"levelo://app?vid=edd7f6cf-c00d-4334-ba4f-ddda86c6a12e"},"vehicle_type_id":"4","last_reported":1781306827,"current_range_meters":4000,"station_id":"ce4bguh2rcd13ifvqcj0","pricing_plan_id":"cebpf4jnsgd1na2vs0mg"},{"bike_id":"899fc967-7875-4bbe-9778-4c7d3ea1d62e","system_id":"levelo_inurba_marseille","lat":43.29096,"lon":5.38814,"is_reserved":false,"is_disabled":false,"rental_uris":{"android":"levelo://app?vid=899fc967-7875-4bbe-9778-4c7d3ea1d62e","ios":"levelo://app?vid=899fc967-7875-4bbe-9778-4c7d3ea1d62e"},"vehicle_type_id":"4","last_reported":1781306827,"current_range_meters":4000,"station_id":"","pricing_plan_id":"cebpf4jnsgd1na2vs0mg"},{"bike_id":"52e0ca30-f6db-4b40-a595-fe3e1b7ca10e","system_id":"levelo_inurba_marseille","lat":43.25094,"lon":5.40342,"is_reserved":false,"is_disabled":true,"rental_uris":{"android":"levelo://app?vid=52e0ca30-f6db-4b40-a595-fe3e1b7ca10e","ios":"levelo://app?vid=52e0ca30-f6db-4b40-a595-fe3e1b7ca10e"},"vehicle_type_id":"4","last_reported":1781306827,"current_range_meters":4400,"station_id":"ce4bhlh2rcd13ifvqgig","pricing_plan_id":"cebpf4jnsgd1na2vs0mg"},{"bike_id":"30c9ae55-382c-4ceb-bd1f-7141c74316c2","system_id":"levelo_inurba_marseille","lat":43.29883,"lon":5.39744,"is_reserved":false,"is_disabled":false,"rental_uris":{"android":"levelo://app?vid=30c9ae55-382c-4ceb-bd1f-7141c74316c2","ios":"levelo://app?vid=30c9ae55-382c-4ceb-bd1f-7141c74316c2"},"vehicle_type_id":"4","last_reported":1781306827,"current_range_meters":4400,"station_id":"ce4bh0h2rcd13ifvqd50","pricing_plan_id":"cebpf4jnsgd1na2vs0mg"},{"bike_id":"116e7e79-df73-459e-bb6d-922ab4ccb8bd","system_id":"levelo_inurba_marseille","lat":43.2119,"lon":5.3508,"is_reserved":false,"is_disabled":false,"rental_uris":{"android":"levelo://app?vid=116e7e79-df73-459e-bb6d-922ab4ccb8bd","ios":"levelo://app?vid=116e7e79-df73-459e-bb6d-922ab4ccb8bd"},"vehicle_type_id":"4","last_reported":1781306827,"current_range_meters":4400,"station_id":"st_cvj6sg6p6f1abm77japg","pricing_plan_id":"cebpf4jnsgd1na2vs0mg"},{"bike_id":"35106298-0896-41b5-a402-74907c9d3bd3","system_id":"levelo_inurba_marseille","lat":43.31893,"lon":5.36804,"is_reserved":false,"is_disabled":false,"rental_uris":{"android":"levelo://app?vid=35106298-0896-41b5-a402-74907c9d3bd3","ios":"levelo://app?vid=35106298-0896-41b5-a402-74907c9d3bd3"},"vehicle_type_id":"4","last_reported":1781306827,"current_range_meters":4400,"station_id":"st_d6o2h0d0559c73evc1b0","pricing_plan_id":"cebpf4jnsgd1na2vs0mg"},{"bike_id":"0d1f6c8f-daf5-49b7-b85d-39b65c9ed163","system_id":"levelo_inurba_marseille","lat":43.31404,"lon":5.36708,"is_reserved":false,"is_disabled":false,"rental_uris":{"android":"levelo://app?vid=0d1f6c8f-daf5-49b7-b85d-39b65c9ed163","ios":"levelo://app?vid=0d1f6c8f-daf5-49b7-b85d-39b65c9ed163"},"vehicle_type_id":"4","last_reported":1781306827,"current_range_meters":4400,"station_id":"ce4bgr92rcd13ifvqc6g","pricing_plan_id":"cebpf4jnsgd1na2vs0mg"},{"bike_id":"08fbc0bc-0d78-4646-a316-9a416607340a","system_id":"levelo_inurba_marseille","lat":43.25332,"lon":5.42175,"is_reserved":false,"is_disabled":false,"rental_uris":{"android":"levelo://app?vid=08fbc0bc-0d78-4646-a316-9a416607340a","ios":"levelo://app?vid=08fbc0bc-0d78-4646-a316-9a416607340a"},"vehicle_type_id":"4","last_reported":1781306827,"current_range_meters":4400,"station_id":"st_d2m65c5bi1j21697t3ng","pricing_plan_id":"cebpf4jnsgd1na2vs0mg"},{"bike_id":"96174645-2e42-4501-ae7f-4acc6bad8c30","system_id":"levelo_inurba_marseille","lat":43.324847,"lon":5.36582,"is_reserved":false,"is_disabled":false,"rental_uris":{"android":"levelo://app?vid=96174645-2e42-4501-ae7f-4acc6bad8c30","ios":"levelo://app?vid=96174645-2e42-4501-ae7f-4acc6bad8c30"},"vehicle_type_id":"4","last_reported":1781306827,"current_range_meters":4400,"station_id":"ce4bhs12rcd13ifvqhvg","pricing_plan_id":"cebpf4jnsgd1na2vs0mg"},{"bike_id":"d9bbcfa4-a44d-4020-b0df-d2651b3bdf41","system_id":"levelo_inurba_marseille","lat":43.21193,"lon":5.3507,"is_reserved":false,"is_disabled":false,"rental_uris":{"android":"levelo://app?vid=d9bbcfa4-a44d-4020-b0df-d2651b3bdf41","ios":"levelo://app?vid=d9bbcfa4-a44d-4020-b0df-d2651b3bdf41"},"vehicle_type_id":"4","last_reported":1781306827,"current_range_meters":4400,"station_id":"st_cvj6sg6p6f1abm77japg","pricing_plan_id":"cebpf4jnsgd1na2vs0mg"},{"bike_id":"24f02d56-4cb2-4734-b396-c4353be9b86c","system_id":"levelo_inurba_marseille","lat":43.3212,"lon":5.3677,"is_reserved":false,"is_disabled":false,"rental_uris":{"android":"levelo://app?vid=24f02d56-4cb2-4734-b396-c4353be9b86c","ios":"levelo://app?vid=24f02d56-4cb2-4734-b396-c4353be9b86c"},"vehicle_type_id":"4","last_reported":1781306827,"current_range_meters":4400,"station_id":"ce4bhrh2rcd13ifvqhug","pricing_plan_id":"cebpf4jnsgd1na2vs0mg"},{"bike_id":"a848a5d1-feb4-4560-89e7-b2ad298b123f","system_id":"levelo_inurba_marseille","lat":43.24626,"lon":5.43152,"is_reserved":false,"is_disabled":false,"rental_uris":{"android":"levelo://app?vid=a848a5d1-feb4-4560-89e7-b2ad298b123f","ios":"levelo://app?vid=a848a5d1-feb4-4560-89e7-b2ad298b123f"},"vehicle_type_id":"4","last_reported":1781306827,"current_range_meters":4400,"station_id":"st_d2m6c4gdas8pm72e190g","pricing_plan_id":"cebpf4jnsgd1na2vs0mg"},{"bike_id":"3eabbc96-3126-4ab2-9db8-b9c78a7ec335","system_id":"levelo_inurba_marseille","lat":43.29248,"lon":5.40915,"is_reserved":false,"is_disabled":false,"rental_uris":{"android":"levelo://app?vid=3eabbc96-3126-4ab2-9db8-b9c78a7ec335","ios":"levelo://app?vid=3eabbc96-3126-4ab2-9db8-b9c78a7ec335"},"vehicle_type_id":"4","last_reported":1781306827,"current_range_meters":4400,"station_id":"ce4bh192rcd13ifvqdc0","pricing_plan_id":"cebpf4jnsgd1na2vs0mg"},{"bike_id":"b4c0f195-58a3-456c-9ed4-e0663f1468e6","system_id":"levelo_inurba_marseille","lat":43.28267,"lon":5.37398,"is_reserved":false,"is_disabled":false,"rental_uris":{"android":"levelo://app?vid=b4c0f195-58a3-456c-9ed4-e0663f1468e6","ios":"levelo://app?vid=b4c0f195-58a3-456c-9ed4-e0663f1468e6"},"vehicle_type_id":"4","last_reported":1781306827,"current_range_meters":4400,"station_id":"","pricing_plan_id":"cebpf4jnsgd1na2vs0mg"},{"bike_id":"3eb1ee37-e347-41f2-8d65-873e103ae57e","system_id":"levelo_inurba_marseille","lat":43.26518,"lon":5.39552,"is_reserved":false,"is_disabled":false,"rental_uris":{"android":"levelo://app?vid=3eb1ee37-e347-41f2-8d65-873e103ae57e","ios":"levelo://app?vid=3eb1ee37-e347-41f2-8d65-873e103ae57e"},"vehicle_type_id":"4","last_reported":1781306827,"current_range_meters":4400,"station_id":"ce4bhi12rcd13ifvqfq0","pricing_plan_id":"cebpf4jnsgd1na2vs0mg"},{"bike_id":"f67ad162-59a7-4930-b91f-53ea1831b39d","system_id":"levelo_inurba_marseille","lat":43.30438,"lon":5.38888,"is_reserved":false,"is_disabled":false,"rental_uris":{"android":"levelo://app?vid=f67ad162-59a7-4930-b91f-53ea1831b39d","ios":"levelo://app?vid=f67ad162-59a7-4930-b91f-53ea1831b39d"},"vehicle_type_id":"4","last_reported":1781306827,"current_range_meters":4400,"station_id":"ce4bgk12rcd13ifvqbi0","pricing_plan_id":"cebpf4jnsgd1na2vs0mg"},{"bike_id":"c7003374-df0a-4adf-a763-b7ffcb27c463","system_id":"levelo_inurba_marseille","lat":43.28489,"lon":5.48395,"is_reserved":false,"is_disabled":false,"rental_uris":{"android":"levelo://app?vid=c7003374-df0a-4adf-a763-b7ffcb27c463","ios":"levelo://app?vid=c7003374-df0a-4adf-a763-b7ffcb27c463"},"vehicle_type_id":"4","last_reported":1781306827,"current_range_meters":4400,"station_id":"st_d3svhcjqgbts73a3dn0g","pricing_plan_id":"cebpf4jnsgd1na2vs0mg"},{"bike_id":"750d545d-9962-42b9-9a8e-d0d1cf1bbc44","system_id":"levelo_inurba_marseille","lat":43.25517,"lon":5.37675,"is_reserved":false,"is_disabled":false,"rental_uris":{"android":"levelo://app?vid=750d545d-9962-42b9-9a8e-d0d1cf1bbc44","ios":"levelo://app?vid=750d545d-9962-42b9-9a8e-d0d1cf1bbc44"},"vehicle_type_id":"4","last_reported":1781306827,"current_range_meters":4400,"station_id":"ce4bhh12rcd13ifvqff0","pricing_plan_id":"cebpf4jnsgd1na2vs0mg"},{"bike_id":"95a6a820-080c-4047-9edc-2eab85cc3ea0","system_id":"levelo_inurba_marseille","lat":43.31248,"lon":5.37277,"is_reserved":false,"is_disabled":false,"rental_uris":{"android":"levelo://app?vid=95a6a820-080c-4047-9edc-2eab85cc3ea0","ios":"levelo://app?vid=95a6a820-080c-4047-9edc-2eab85cc3ea0"},"vehicle_type_id":"4","last_reported":1781306827,"current_range_meters":4400,"station_id":"","pricing_plan_id":"cebpf4jnsgd1na2vs0mg"},{"bike_id":"e0fb7790-fc4b-48ae-9343-41c3d25bad58","system_id":"levelo_inurba_marseille","lat":43.279713,"lon":5.387462,"is_reserved":false,"is_disabled":false,"rental_uris":{"android":"levelo://app?vid=e0fb7790-fc4b-48ae-9343-41c3d25bad58","ios":"levelo://app?vid=e0fb7790-fc4b-48ae-9343-41c3d25bad58"},"vehicle_type_id":"4","last_reported":1781306827,"current_range_meters":4400,"station_id":"ce4bhg12rcd13ifvqf80","pricing_plan_id":"cebpf4jnsgd1na2vs0mg"},{"bike_id":"57ef147f-97c4-4530-822d-985460b5cb6b","system_id":"levelo_inurba_marseille","lat":43.27921,"lon":5.39576,"is_reserved":false,"is_disabled":false,"rental_uris":{"android":"levelo://app?vid=57ef147f-97c4-4530-822d-985460b5cb6b","ios":"levelo://app?vid=57ef147f-97c4-4530-822d-985460b5cb6b"},"vehicle_type_id":"4","last_reported":1781306827,"current_range_meters":4400,"station_id":"ce4bhf92rcd13ifvqf40","pricing_plan_id":"cebpf4jnsgd1na2vs0mg"},{"bike_id":"bd718fbc-6c15-424a-b9e9-01c3e4e7991c","system_id":"levelo_inurba_marseille","lat":43.2756,"lon":5.3844,"is_reserved":false,"is_disabled":false,"rental_uris":{"android":"levelo://app?vid=bd718fbc-6c15-424a-b9e9-01c3e4e7991c","ios":"levelo://app?vid=bd718fbc-6c15-424a-b9e9-01c3e4e7991c"},"vehicle_type_id":"4","last_reported":1781306827,"current_range_meters":4800,"station_id":"ce4bhh92rcd13ifvqfi0","pricing_plan_id":"cebpf4jnsgd1na2vs0mg"},{"bike_id":"8140e6e9-1ff4-412a-b716-f8751d9410d8","system_id":"levelo_inurba_marseille","lat":43.27577,"lon":5.38436,"is_reserved":false,"is_disabled":false,"rental_uris":{"android":"levelo://app?vid=8140e6e9-1ff4-412a-b716-f8751d9410d8","ios":"levelo://app?vid=8140e6e9-1ff4-412a-b716-f8751d9410d8"},"vehicle_type_id":"4","last_reported":1781306827,"current_range_meters":4800,"station_id":"ce4bhh92rcd13ifvqfi0","pricing_plan_id":"cebpf4jnsgd1na2vs0mg"},{"bike_id":"41eb6a40-5c9c-4ae0-95cb-ec8052428c3d","system_id":"levelo_inurba_marseille","lat":43.26056,"lon":5.394,"is_reserved":false,"is_disabled":false,"rental_uris":{"android":"levelo://app?vid=41eb6a40-5c9c-4ae0-95cb-ec8052428c3d","ios":"levelo://app?vid=41eb6a40-5c9c-4ae0-95cb-ec8052428c3d"},"vehicle_type_id":"4","last_reported":1781306827,"current_range_meters":4800,"station_id":"ce4bhh92rcd13ifvqfj0","pricing_plan_id":"cebpf4jnsgd1na2vs0mg"},{"bike_id":"497db4fe-414c-4f3e-9d03-238169542317","system_id":"levelo_inurba_marseille","lat":43.35113,"lon":5.35025,"is_reserved":false,"is_disabled":false,"rental_uris":{"android":"levelo://app?vid=497db4fe-414c-4f3e-9d03-238169542317","ios":"levelo://app?vid=497db4fe-414c-4f3e-9d03-238169542317"},"vehicle_type_id":"4","last_reported":1781306827,"current_range_meters":4800,"station_id":"","pricing_plan_id":"cebpf4jnsgd1na2vs0mg"},{"bike_id":"9355951e-b041-446b-b93e-73dce11071c1","system_id":"levelo_inurba_marseille","lat":43.3031,"lon":5.37344,"is_reserved":false,"is_disabled":false,"rental_uris":{"android":"levelo://app?vid=9355951e-b041-446b-b93e-73dce11071c1","ios":"levelo://app?vid=9355951e-b041-446b-b93e-73dce11071c1"},"vehicle_type_id":"4","last_reported":1781306827,"current_range_meters":4800,"station_id":"","pricing_plan_id":"cebpf4jnsgd1na2vs0mg"},{"bike_id":"4865a1c5-afe2-4dda-8194-f69b08d22f31","system_id":"levelo_inurba_marseille","lat":43.25578,"lon":5.38247,"is_reserved":false,"is_disabled":false,"rental_uris":{"android":"levelo://app?vid=4865a1c5-afe2-4dda-8194-f69b08d22f31","ios":"levelo://app?vid=4865a1c5-afe2-4dda-8194-f69b08d22f31"},"vehicle_type_id":"4","last_reported":1781306827,"current_range_meters":4800,"station_id":"ce4bhih2rcd13ifvqfs0","pricing_plan_id":"cebpf4jnsgd1na2vs0mg"},{"bike_id":"0c9bd055-30c5-4b98-ad2b-fdeb82975133","system_id":"levelo_inurba_marseille","lat":43.30897,"lon":5.37189,"is_reserved":false,"is_disabled":false,"rental_uris":{"android":"levelo://app?vid=0c9bd055-30c5-4b98-ad2b-fdeb82975133","ios":"levelo://app?vid=0c9bd055-30c5-4b98-ad2b-fdeb82975133"},"vehicle_type_id":"4","last_reported":1781306827,"current_range_meters":4800,"station_id":"ce4bguh2rcd13ifvqckg","pricing_plan_id":"cebpf4jnsgd1na2vs0mg"},{"bike_id":"fd669dfc-7287-4adf-a887-51f8f2e4074e","system_id":"levelo_inurba_marseille","lat":43.30145,"lon":5.37424,"is_reserved":false,"is_disabled":false,"rental_uris":{"android":"levelo://app?vid=fd669dfc-7287-4adf-a887-51f8f2e4074e","ios":"levelo://app?vid=fd669dfc-7287-4adf-a887-51f8f2e4074e"},"vehicle_type_id":"4","last_reported":1781306827,"current_range_meters":4800,"station_id":"ce4bgs92rcd13ifvqcc0","pricing_plan_id":"cebpf4jnsgd1na2vs0mg"},{"bike_id":"fe8f3141-5b11-4f0d-84a9-36fd3591fd78","system_id":"levelo_inurba_marseille","lat":43.29841,"lon":5.36269,"is_reserved":false,"is_disabled":false,"rental_uris":{"android":"levelo://app?vid=fe8f3141-5b11-4f0d-84a9-36fd3591fd78","ios":"levelo://app?vid=fe8f3141-5b11-4f0d-84a9-36fd3591fd78"},"vehicle_type_id":"4","last_reported":1781306827,"current_range_meters":4800,"station_id":"ce4bgpp2rcd13ifvqc3g","pricing_plan_id":"cebpf4jnsgd1na2vs0mg"},{"bike_id":"0e737488-eea1-4c79-a09b-4e4182d3e90a","system_id":"levelo_inurba_marseille","lat":43.26232,"lon":5.38762,"is_reserved":false,"is_disabled":false,"rental_uris":{"android":"levelo://app?vid=0e737488-eea1-4c79-a09b-4e4182d3e90a","ios":"levelo://app?vid=0e737488-eea1-4c79-a09b-4e4182d3e90a"},"vehicle_type_id":"4","last_reported":1781306827,"current_range_meters":4800,"station_id":"st_d8gjfg747rts73coq3b0","pricing_plan_id":"cebpf4jnsgd1na2vs0mg"},{"bike_id":"193e1006-9335-49a8-bba4-d06d716c1154","system_id":"levelo_inurba_marseille","lat":43.32057,"lon":5.36783,"is_reserved":false,"is_disabled":false,"rental_uris":{"android":"levelo://app?vid=193e1006-9335-49a8-bba4-d06d716c1154","ios":"levelo://app?vid=193e1006-9335-49a8-bba4-d06d716c1154"},"vehicle_type_id":"4","last_reported":1781306827,"current_range_meters":4800,"station_id":"ce4bhrh2rcd13ifvqhug","pricing_plan_id":"cebpf4jnsgd1na2vs0mg"},{"bike_id":"6edb1571-ff0e-41be-86f6-ab57a8172f99","system_id":"levelo_inurba_marseille","lat":43.32074,"lon":5.36802,"is_reserved":false,"is_disabled":false,"rental_uris":{"android":"levelo://app?vid=6edb1571-ff0e-41be-86f6-ab57a8172f99","ios":"levelo://app?vid=6edb1571-ff0e-41be-86f6-ab57a8172f99"},"vehicle_type_id":"4","last_reported":1781306827,"current_range_meters":4800,"station_id":"ce4bhrh2rcd13ifvqhug","pricing_plan_id":"cebpf4jnsgd1na2vs0mg"},{"bike_id":"38627ee6-9714-422f-bdc9-5486b8d9b174","system_id":"levelo_inurba_marseille","lat":43.28942,"lon":5.36639,"is_reserved":false,"is_disabled":false,"rental_uris":{"android":"levelo://app?vid=38627ee6-9714-422f-bdc9-5486b8d9b174","ios":"levelo://app?vid=38627ee6-9714-422f-bdc9-5486b8d9b174"},"vehicle_type_id":"4","last_reported":1781306827,"current_range_meters":4800,"station_id":"ce4bhap2rcd13ifvqek0","pricing_plan_id":"cebpf4jnsgd1na2vs0mg"},{"bike_id":"8a9f3474-1ba5-4fc3-b4e6-1d2f8579f9d1","system_id":"levelo_inurba_marseille","lat":43.26551,"lon":5.39048,"is_reserved":false,"is_disabled":true,"rental_uris":{"android":"levelo://app?vid=8a9f3474-1ba5-4fc3-b4e6-1d2f8579f9d1","ios":"levelo://app?vid=8a9f3474-1ba5-4fc3-b4e6-1d2f8579f9d1"},"vehicle_type_id":"4","last_reported":1781306827,"current_range_meters":4800,"station_id":"ce4bhe12rcd13ifvqf30","pricing_plan_id":"cebpf4jnsgd1na2vs0mg"},{"bike_id":"1345c154-16ee-4ed3-b4f1-947a1b328d12","system_id":"levelo_inurba_marseille","lat":43.26235,"lon":5.38758,"is_reserved":false,"is_disabled":false,"rental_uris":{"android":"levelo://app?vid=1345c154-16ee-4ed3-b4f1-947a1b328d12","ios":"levelo://app?vid=1345c154-16ee-4ed3-b4f1-947a1b328d12"},"vehicle_type_id":"4","last_reported":1781306827,"current_range_meters":4800,"station_id":"st_d8gjfg747rts73coq3b0","pricing_plan_id":"cebpf4jnsgd1na2vs0mg"},{"bike_id":"5959399d-2a5a-4619-a6df-91439cbfbae4","system_id":"levelo_inurba_marseille","lat":43.27068,"lon":5.38301,"is_reserved":false,"is_disabled":false,"rental_uris":{"android":"levelo://app?vid=5959399d-2a5a-4619-a6df-91439cbfbae4","ios":"levelo://app?vid=5959399d-2a5a-4619-a6df-91439cbfbae4"},"vehicle_type_id":"4","last_reported":1781306827,"current_range_meters":4800,"station_id":"st_d3n2fo6cfp8s73cte1j0","pricing_plan_id":"cebpf4jnsgd1na2vs0mg"},{"bike_id":"7717390a-9f55-4678-b2a5-ba0a73b8a548","system_id":"levelo_inurba_marseille","lat":43.31585,"lon":5.36959,"is_reserved":false,"is_disabled":false,"rental_uris":{"android":"levelo://app?vid=7717390a-9f55-4678-b2a5-ba0a73b8a548","ios":"levelo://app?vid=7717390a-9f55-4678-b2a5-ba0a73b8a548"},"vehicle_type_id":"4","last_reported":1781306827,"current_range_meters":4800,"station_id":"","pricing_plan_id":"cebpf4jnsgd1na2vs0mg"},{"bike_id":"7a4ba46c-6362-49a8-982a-a4ee92fd7529","system_id":"levelo_inurba_marseille","lat":43.26943,"lon":5.36985,"is_reserved":false,"is_disabled":false,"rental_uris":{"android":"levelo://app?vid=7a4ba46c-6362-49a8-982a-a4ee92fd7529","ios":"levelo://app?vid=7a4ba46c-6362-49a8-982a-a4ee92fd7529"},"vehicle_type_id":"4","last_reported":1781306827,"current_range_meters":4800,"station_id":"","pricing_plan_id":"cebpf4jnsgd1na2vs0mg"},{"bike_id":"ce86ad0d-2516-41c3-93cf-80eaec34f5df","system_id":"levelo_inurba_marseille","lat":43.28359,"lon":5.38124,"is_reserved":false,"is_disabled":false,"rental_uris":{"android":"levelo://app?vid=ce86ad0d-2516-41c3-93cf-80eaec34f5df","ios":"levelo://app?vid=ce86ad0d-2516-41c3-93cf-80eaec34f5df"},"vehicle_type_id":"4","last_reported":1781306827,"current_range_meters":4800,"station_id":"ce4bh412rcd13ifvqdr0","pricing_plan_id":"cebpf4jnsgd1na2vs0mg"},{"bike_id":"ee494397-ad1c-4b5e-80ed-9cc6e888762d","system_id":"levelo_inurba_marseille","lat":43.31898,"lon":5.42481,"is_reserved":false,"is_disabled":false,"rental_uris":{"android":"levelo://app?vid=ee494397-ad1c-4b5e-80ed-9cc6e888762d","ios":"levelo://app?vid=ee494397-ad1c-4b5e-80ed-9cc6e888762d"},"vehicle_type_id":"4","last_reported":1781306827,"current_range_meters":4800,"station_id":"","pricing_plan_id":"cebpf4jnsgd1na2vs0mg"},{"bike_id":"76ff20aa-c2bd-4fa2-8dca-7099f4d9bbe6","system_id":"levelo_inurba_marseille","lat":43.21177,"lon":5.35065,"is_reserved":false,"is_disabled":false,"rental_uris":{"android":"levelo://app?vid=76ff20aa-c2bd-4fa2-8dca-7099f4d9bbe6","ios":"levelo://app?vid=76ff20aa-c2bd-4fa2-8dca-7099f4d9bbe6"},"vehicle_type_id":"4","last_reported":1781306827,"current_range_meters":4800,"station_id":"st_cvj6sg6p6f1abm77japg","pricing_plan_id":"cebpf4jnsgd1na2vs0mg"},{"bike_id":"190298f8-155f-480c-805d-a9055da3c578","system_id":"levelo_inurba_marseille","lat":43.29186,"lon":5.39322,"is_reserved":false,"is_disabled":false,"rental_uris":{"android":"levelo://app?vid=190298f8-155f-480c-805d-a9055da3c578","ios":"levelo://app?vid=190298f8-155f-480c-805d-a9055da3c578"},"vehicle_type_id":"4","last_reported":1781306827,"current_range_meters":4800,"station_id":"ce4bh192rcd13ifvqdd0","pricing_plan_id":"cebpf4jnsgd1na2vs0mg"},{"bike_id":"a70cc9d0-8c18-4493-8a97-b7df9d495e9b","system_id":"levelo_inurba_marseille","lat":43.25109,"lon":5.40305,"is_reserved":false,"is_disabled":false,"rental_uris":{"android":"levelo://app?vid=a70cc9d0-8c18-4493-8a97-b7df9d495e9b","ios":"levelo://app?vid=a70cc9d0-8c18-4493-8a97-b7df9d495e9b"},"vehicle_type_id":"4","last_reported":1781306827,"current_range_meters":4800,"station_id":"ce4bhlh2rcd13ifvqgig","pricing_plan_id":"cebpf4jnsgd1na2vs0mg"},{"bike_id":"6859e872-f5de-49b6-9665-a4075fb23877","system_id":"levelo_inurba_marseille","lat":43.29444,"lon":5.39749,"is_reserved":false,"is_disabled":false,"rental_uris":{"android":"levelo://app?vid=6859e872-f5de-49b6-9665-a4075fb23877","ios":"levelo://app?vid=6859e872-f5de-49b6-9665-a4075fb23877"},"vehicle_type_id":"4","last_reported":1781306827,"current_range_meters":5600,"station_id":"ce4bh3h2rcd13ifvqdo0","pricing_plan_id":"cebpf4jnsgd1na2vs0mg"},{"bike_id":"4bbd9026-ac9b-4dc1-97ad-6610089734db","system_id":"levelo_inurba_marseille","lat":43.31569,"lon":5.38819,"is_reserved":false,"is_disabled":false,"rental_uris":{"android":"levelo://app?vid=4bbd9026-ac9b-4dc1-97ad-6610089734db","ios":"levelo://app?vid=4bbd9026-ac9b-4dc1-97ad-6610089734db"},"vehicle_type_id":"4","last_reported":1781306827,"current_range_meters":5600,"station_id":"","pricing_plan_id":"cebpf4jnsgd1na2vs0mg"},{"bike_id":"f7a00853-d0d2-4b3e-9319-84b1c278835c","system_id":"levelo_inurba_marseille","lat":43.29876,"lon":5.38916,"is_reserved":false,"is_disabled":false,"rental_uris":{"android":"levelo://app?vid=f7a00853-d0d2-4b3e-9319-84b1c278835c","ios":"levelo://app?vid=f7a00853-d0d2-4b3e-9319-84b1c278835c"},"vehicle_type_id":"4","last_reported":1781306827,"current_range_meters":5600,"station_id":"ce4bh392rcd13ifvqdl0","pricing_plan_id":"cebpf4jnsgd1na2vs0mg"},{"bike_id":"90e1db8a-23ec-4931-bb6e-5f2d09599f7a","system_id":"levelo_inurba_marseille","lat":43.279647,"lon":5.387401,"is_reserved":false,"is_disabled":false,"rental_uris":{"android":"levelo://app?vid=90e1db8a-23ec-4931-bb6e-5f2d09599f7a","ios":"levelo://app?vid=90e1db8a-23ec-4931-bb6e-5f2d09599f7a"},"vehicle_type_id":"4","last_reported":1781306827,"current_range_meters":5600,"station_id":"ce4bhg12rcd13ifvqf80","pricing_plan_id":"cebpf4jnsgd1na2vs0mg"},{"bike_id":"ea97e60e-4181-45fb-93e9-aec30c6471ba","system_id":"levelo_inurba_marseille","lat":43.29385,"lon":5.39866,"is_reserved":false,"is_disabled":false,"rental_uris":{"android":"levelo://app?vid=ea97e60e-4181-45fb-93e9-aec30c6471ba","ios":"levelo://app?vid=ea97e60e-4181-45fb-93e9-aec30c6471ba"},"vehicle_type_id":"4","last_reported":1781306827,"current_range_meters":5600,"station_id":"","pricing_plan_id":"cebpf4jnsgd1na2vs0mg"},{"bike_id":"5868bc47-e30d-49b5-b51a-7a8a5eb4eb1b","system_id":"levelo_inurba_marseille","lat":43.31508,"lon":5.37272,"is_reserved":false,"is_disabled":false,"rental_uris":{"android":"levelo://app?vid=5868bc47-e30d-49b5-b51a-7a8a5eb4eb1b","ios":"levelo://app?vid=5868bc47-e30d-49b5-b51a-7a8a5eb4eb1b"},"vehicle_type_id":"4","last_reported":1781306827,"current_range_meters":5600,"station_id":"ce4bgt12rcd13ifvqcd0","pricing_plan_id":"cebpf4jnsgd1na2vs0mg"},{"bike_id":"b105e559-ad92-41ad-9bdf-4bd2f454dd68","system_id":"levelo_inurba_marseille","lat":43.30148,"lon":5.44962,"is_reserved":false,"is_disabled":false,"rental_uris":{"android":"levelo://app?vid=b105e559-ad92-41ad-9bdf-4bd2f454dd68","ios":"levelo://app?vid=b105e559-ad92-41ad-9bdf-4bd2f454dd68"},"vehicle_type_id":"4","last_reported":1781306827,"current_range_meters":5600,"station_id":"","pricing_plan_id":"cebpf4jnsgd1na2vs0mg"},{"bike_id":"48a1118a-f7e6-40e6-9008-e75804c90e76","system_id":"levelo_inurba_marseille","lat":43.2407,"lon":5.3775,"is_reserved":false,"is_disabled":false,"rental_uris":{"android":"levelo://app?vid=48a1118a-f7e6-40e6-9008-e75804c90e76","ios":"levelo://app?vid=48a1118a-f7e6-40e6-9008-e75804c90e76"},"vehicle_type_id":"4","last_reported":1781306827,"current_range_meters":5600,"station_id":"ce4bhnp2rcd13ifvqgvg","pricing_plan_id":"cebpf4jnsgd1na2vs0mg"},{"bike_id":"5bc93fa4-047c-40e2-94fd-52abf60188ac","system_id":"levelo_inurba_marseille","lat":43.25088,"lon":5.39525,"is_reserved":false,"is_disabled":false,"rental_uris":{"android":"levelo://app?vid=5bc93fa4-047c-40e2-94fd-52abf60188ac","ios":"levelo://app?vid=5bc93fa4-047c-40e2-94fd-52abf60188ac"},"vehicle_type_id":"4","last_reported":1781306827,"current_range_meters":5600,"station_id":"ce4bhm12rcd13ifvqgkg","pricing_plan_id":"cebpf4jnsgd1na2vs0mg"},{"bike_id":"246ae3dc-a47d-4d5c-b55b-33a21570cec9","system_id":"levelo_inurba_marseille","lat":43.29551,"lon":5.39989,"is_reserved":false,"is_disabled":false,"rental_uris":{"android":"levelo://app?vid=246ae3dc-a47d-4d5c-b55b-33a21570cec9","ios":"levelo://app?vid=246ae3dc-a47d-4d5c-b55b-33a21570cec9"},"vehicle_type_id":"4","last_reported":1781306827,"current_range_meters":5600,"station_id":"ce4bh312rcd13ifvqdj0","pricing_plan_id":"cebpf4jnsgd1na2vs0mg"},{"bike_id":"6c149b80-daf1-4dc6-b899-1e8147e8b6f7","system_id":"levelo_inurba_marseille","lat":43.25106,"lon":5.40412,"is_reserved":false,"is_disabled":false,"rental_uris":{"android":"levelo://app?vid=6c149b80-daf1-4dc6-b899-1e8147e8b6f7","ios":"levelo://app?vid=6c149b80-daf1-4dc6-b899-1e8147e8b6f7"},"vehicle_type_id":"4","last_reported":1781306827,"current_range_meters":5600,"station_id":"","pricing_plan_id":"cebpf4jnsgd1na2vs0mg"},{"bike_id":"a4b5c841-081f-4864-9ad4-e1c7a6e60416","system_id":"levelo_inurba_marseille","lat":43.23791,"lon":5.36627,"is_reserved":false,"is_disabled":true,"rental_uris":{"android":"levelo://app?vid=a4b5c841-081f-4864-9ad4-e1c7a6e60416","ios":"levelo://app?vid=a4b5c841-081f-4864-9ad4-e1c7a6e60416"},"vehicle_type_id":"4","last_reported":1781306827,"current_range_meters":5600,"station_id":"st_d3nk18o9ro0c73en2l3g","pricing_plan_id":"cebpf4jnsgd1na2vs0mg"},{"bike_id":"b154e503-5e6b-4b2c-aea8-7afe1c19122c","system_id":"levelo_inurba_marseille","lat":43.2811,"lon":5.42647,"is_reserved":false,"is_disabled":false,"rental_uris":{"android":"levelo://app?vid=b154e503-5e6b-4b2c-aea8-7afe1c19122c","ios":"levelo://app?vid=b154e503-5e6b-4b2c-aea8-7afe1c19122c"},"vehicle_type_id":"4","last_reported":1781306827,"current_range_meters":5600,"station_id":"ce4bhnh2rcd13ifvqgug","pricing_plan_id":"cebpf4jnsgd1na2vs0mg"},{"bike_id":"263da845-97bb-476a-b58b-c1db1ba25e78","system_id":"levelo_inurba_marseille","lat":43.28691,"lon":5.40013,"is_reserved":false,"is_disabled":false,"rental_uris":{"android":"levelo://app?vid=263da845-97bb-476a-b58b-c1db1ba25e78","ios":"levelo://app?vid=263da845-97bb-476a-b58b-c1db1ba25e78"},"vehicle_type_id":"4","last_reported":1781306827,"current_range_meters":5600,"station_id":"ce4bho92rcd13ifvqh3g","pricing_plan_id":"cebpf4jnsgd1na2vs0mg"},{"bike_id":"91081416-995f-4cde-839b-8273592953c5","system_id":"levelo_inurba_marseille","lat":43.28723,"lon":5.36097,"is_reserved":false,"is_disabled":false,"rental_uris":{"android":"levelo://app?vid=91081416-995f-4cde-839b-8273592953c5","ios":"levelo://app?vid=91081416-995f-4cde-839b-8273592953c5"},"vehicle_type_id":"4","last_reported":1781306827,"current_range_meters":6000,"station_id":"cki0cbj6b192h4jlfktg","pricing_plan_id":"cebpf4jnsgd1na2vs0mg"},{"bike_id":"ba9e662c-c195-4d37-b478-8ff41eecf68d","system_id":"levelo_inurba_marseille","lat":43.29444,"lon":5.39759,"is_reserved":false,"is_disabled":false,"rental_uris":{"android":"levelo://app?vid=ba9e662c-c195-4d37-b478-8ff41eecf68d","ios":"levelo://app?vid=ba9e662c-c195-4d37-b478-8ff41eecf68d"},"vehicle_type_id":"4","last_reported":1781306827,"current_range_meters":6000,"station_id":"ce4bh3h2rcd13ifvqdo0","pricing_plan_id":"cebpf4jnsgd1na2vs0mg"},{"bike_id":"d39db183-6bf7-420a-96f5-b25822544857","system_id":"levelo_inurba_marseille","lat":43.32353,"lon":5.36743,"is_reserved":false,"is_disabled":false,"rental_uris":{"android":"levelo://app?vid=d39db183-6bf7-420a-96f5-b25822544857","ios":"levelo://app?vid=d39db183-6bf7-420a-96f5-b25822544857"},"vehicle_type_id":"4","last_reported":1781306827,"current_range_meters":6000,"station_id":"ce4bhsh2rcd13ifvqi2g","pricing_plan_id":"cebpf4jnsgd1na2vs0mg"},{"bike_id":"1c444fa9-9def-4999-8bc4-4a6c72c5f742","system_id":"levelo_inurba_marseille","lat":43.26014,"lon":5.37544,"is_reserved":false,"is_disabled":false,"rental_uris":{"android":"levelo://app?vid=1c444fa9-9def-4999-8bc4-4a6c72c5f742","ios":"levelo://app?vid=1c444fa9-9def-4999-8bc4-4a6c72c5f742"},"vehicle_type_id":"4","last_reported":1781306827,"current_range_meters":6000,"station_id":"ce4bhgh2rcd13ifvqfa0","pricing_plan_id":"cebpf4jnsgd1na2vs0mg"},{"bike_id":"8549ed76-d067-4e8e-8122-bf5cc7918ab0","system_id":"levelo_inurba_marseille","lat":43.27825,"lon":5.40715,"is_reserved":false,"is_disabled":false,"rental_uris":{"android":"levelo://app?vid=8549ed76-d067-4e8e-8122-bf5cc7918ab0","ios":"levelo://app?vid=8549ed76-d067-4e8e-8122-bf5cc7918ab0"},"vehicle_type_id":"4","last_reported":1781306827,"current_range_meters":6000,"station_id":"ce4bhnh2rcd13ifvqgtg","pricing_plan_id":"cebpf4jnsgd1na2vs0mg"},{"bike_id":"ef95c250-9b06-45a5-a042-179938269e70","system_id":"levelo_inurba_marseille","lat":43.29186,"lon":5.39328,"is_reserved":false,"is_disabled":false,"rental_uris":{"android":"levelo://app?vid=ef95c250-9b06-45a5-a042-179938269e70","ios":"levelo://app?vid=ef95c250-9b06-45a5-a042-179938269e70"},"vehicle_type_id":"4","last_reported":1781306827,"current_range_meters":6000,"station_id":"ce4bh192rcd13ifvqdd0","pricing_plan_id":"cebpf4jnsgd1na2vs0mg"},{"bike_id":"1ca3a914-a55c-4637-a9ca-4ffd36fbecad","system_id":"levelo_inurba_marseille","lat":43.262214,"lon":5.387661,"is_reserved":false,"is_disabled":true,"rental_uris":{"android":"levelo://app?vid=1ca3a914-a55c-4637-a9ca-4ffd36fbecad","ios":"levelo://app?vid=1ca3a914-a55c-4637-a9ca-4ffd36fbecad"},"vehicle_type_id":"4","last_reported":1781306827,"current_range_meters":6000,"station_id":"st_d8gjfg747rts73coq3b0","pricing_plan_id":"cebpf4jnsgd1na2vs0mg"},{"bike_id":"44a5ef51-d680-412c-83f6-10778670a0fe","system_id":"levelo_inurba_marseille","lat":43.24807,"lon":5.37446,"is_reserved":false,"is_disabled":false,"rental_uris":{"android":"levelo://app?vid=44a5ef51-d680-412c-83f6-10778670a0fe","ios":"levelo://app?vid=44a5ef51-d680-412c-83f6-10778670a0fe"},"vehicle_type_id":"4","last_reported":1781306827,"current_range_meters":6000,"station_id":"ce4bhgh2rcd13ifvqfb0","pricing_plan_id":"cebpf4jnsgd1na2vs0mg"},{"bike_id":"ccc6ea07-81c8-4111-91e4-1100441ffcc8","system_id":"levelo_inurba_marseille","lat":43.28852,"lon":5.42524,"is_reserved":false,"is_disabled":false,"rental_uris":{"android":"levelo://app?vid=ccc6ea07-81c8-4111-91e4-1100441ffcc8","ios":"levelo://app?vid=ccc6ea07-81c8-4111-91e4-1100441ffcc8"},"vehicle_type_id":"4","last_reported":1781306827,"current_range_meters":6000,"station_id":"st_d3b462108ojc7389ooeg","pricing_plan_id":"cebpf4jnsgd1na2vs0mg"},{"bike_id":"5fe816be-adb0-4ccc-a8a6-ac6bd0711409","system_id":"levelo_inurba_marseille","lat":43.24939,"lon":5.40496,"is_reserved":false,"is_disabled":false,"rental_uris":{"android":"levelo://app?vid=5fe816be-adb0-4ccc-a8a6-ac6bd0711409","ios":"levelo://app?vid=5fe816be-adb0-4ccc-a8a6-ac6bd0711409"},"vehicle_type_id":"4","last_reported":1781306827,"current_range_meters":6000,"station_id":"st_d2ngiaodas8pm72gd1h0","pricing_plan_id":"cebpf4jnsgd1na2vs0mg"},{"bike_id":"a318bc01-9889-445e-ad9e-b36118278119","system_id":"levelo_inurba_marseille","lat":43.28613,"lon":5.35101,"is_reserved":false,"is_disabled":true,"rental_uris":{"android":"levelo://app?vid=a318bc01-9889-445e-ad9e-b36118278119","ios":"levelo://app?vid=a318bc01-9889-445e-ad9e-b36118278119"},"vehicle_type_id":"4","last_reported":1781306827,"current_range_meters":6000,"station_id":"ce4bhch2rcd13ifvqeug","pricing_plan_id":"cebpf4jnsgd1na2vs0mg"},{"bike_id":"6df7054b-12fc-4820-90eb-30a94928fe3f","system_id":"levelo_inurba_marseille","lat":43.2379,"lon":5.36641,"is_reserved":false,"is_disabled":false,"rental_uris":{"android":"levelo://app?vid=6df7054b-12fc-4820-90eb-30a94928fe3f","ios":"levelo://app?vid=6df7054b-12fc-4820-90eb-30a94928fe3f"},"vehicle_type_id":"4","last_reported":1781306827,"current_range_meters":6000,"station_id":"st_d3nk18o9ro0c73en2l3g","pricing_plan_id":"cebpf4jnsgd1na2vs0mg"},{"bike_id":"3ea61c54-5ae4-4ec5-8d1e-95c813254f6e","system_id":"levelo_inurba_marseille","lat":43.24459,"lon":5.42534,"is_reserved":false,"is_disabled":false,"rental_uris":{"android":"levelo://app?vid=3ea61c54-5ae4-4ec5-8d1e-95c813254f6e","ios":"levelo://app?vid=3ea61c54-5ae4-4ec5-8d1e-95c813254f6e"},"vehicle_type_id":"4","last_reported":1781306827,"current_range_meters":6000,"station_id":"st_d4a3vfp97mjs738cd8kg","pricing_plan_id":"cebpf4jnsgd1na2vs0mg"},{"bike_id":"7c56fbf2-b06b-4ad4-bd6e-fb0ad9ba401c","system_id":"levelo_inurba_marseille","lat":43.28702,"lon":5.37959,"is_reserved":false,"is_disabled":true,"rental_uris":{"android":"levelo://app?vid=7c56fbf2-b06b-4ad4-bd6e-fb0ad9ba401c","ios":"levelo://app?vid=7c56fbf2-b06b-4ad4-bd6e-fb0ad9ba401c"},"vehicle_type_id":"4","last_reported":1781306827,"current_range_meters":6400,"station_id":"ce4bh9p2rcd13ifvqec0","pricing_plan_id":"cebpf4jnsgd1na2vs0mg"},{"bike_id":"58e38786-a619-47c4-8493-e9a168bebca4","system_id":"levelo_inurba_marseille","lat":43.30143,"lon":5.38812,"is_reserved":false,"is_disabled":false,"rental_uris":{"android":"levelo://app?vid=58e38786-a619-47c4-8493-e9a168bebca4","ios":"levelo://app?vid=58e38786-a619-47c4-8493-e9a168bebca4"},"vehicle_type_id":"4","last_reported":1781306827,"current_range_meters":6400,"station_id":"ce4bghh2rcd13ifvqb60","pricing_plan_id":"cebpf4jnsgd1na2vs0mg"},{"bike_id":"d6f0960d-8a26-4d7f-93a9-7161f0913d8b","system_id":"levelo_inurba_marseille","lat":43.25515,"lon":5.37655,"is_reserved":false,"is_disabled":false,"rental_uris":{"android":"levelo://app?vid=d6f0960d-8a26-4d7f-93a9-7161f0913d8b","ios":"levelo://app?vid=d6f0960d-8a26-4d7f-93a9-7161f0913d8b"},"vehicle_type_id":"4","last_reported":1781306827,"current_range_meters":6400,"station_id":"ce4bhh12rcd13ifvqff0","pricing_plan_id":"cebpf4jnsgd1na2vs0mg"},{"bike_id":"f312a474-3688-43e4-8515-a784a5c48528","system_id":"levelo_inurba_marseille","lat":43.2118,"lon":5.35071,"is_reserved":false,"is_disabled":true,"rental_uris":{"android":"levelo://app?vid=f312a474-3688-43e4-8515-a784a5c48528","ios":"levelo://app?vid=f312a474-3688-43e4-8515-a784a5c48528"},"vehicle_type_id":"4","last_reported":1781306827,"current_range_meters":6400,"station_id":"st_cvj6sg6p6f1abm77japg","pricing_plan_id":"cebpf4jnsgd1na2vs0mg"},{"bike_id":"2e8ce59b-b694-478c-936c-bb1374f707b7","system_id":"levelo_inurba_marseille","lat":43.28663,"lon":5.36356,"is_reserved":false,"is_disabled":false,"rental_uris":{"android":"levelo://app?vid=2e8ce59b-b694-478c-936c-bb1374f707b7","ios":"levelo://app?vid=2e8ce59b-b694-478c-936c-bb1374f707b7"},"vehicle_type_id":"4","last_reported":1781306827,"current_range_meters":6400,"station_id":"ce4bhah2rcd13ifvqej0","pricing_plan_id":"cebpf4jnsgd1na2vs0mg"},{"bike_id":"a0d2ac5f-fff6-43f6-831d-dfa81e9c3981","system_id":"levelo_inurba_marseille","lat":43.29596,"lon":5.36421,"is_reserved":false,"is_disabled":false,"rental_uris":{"android":"levelo://app?vid=a0d2ac5f-fff6-43f6-831d-dfa81e9c3981","ios":"levelo://app?vid=a0d2ac5f-fff6-43f6-831d-dfa81e9c3981"},"vehicle_type_id":"4","last_reported":1781306827,"current_range_meters":6400,"station_id":"","pricing_plan_id":"cebpf4jnsgd1na2vs0mg"},{"bike_id":"0c866fd6-b5f6-4453-95cd-f3b0069af732","system_id":"levelo_inurba_marseille","lat":43.2795,"lon":5.38728,"is_reserved":false,"is_disabled":false,"rental_uris":{"android":"levelo://app?vid=0c866fd6-b5f6-4453-95cd-f3b0069af732","ios":"levelo://app?vid=0c866fd6-b5f6-4453-95cd-f3b0069af732"},"vehicle_type_id":"4","last_reported":1781306827,"current_range_meters":6400,"station_id":"ce4bhg12rcd13ifvqf80","pricing_plan_id":"cebpf4jnsgd1na2vs0mg"},{"bike_id":"2d65b860-94da-4574-a20f-82b65ca5f84b","system_id":"levelo_inurba_marseille","lat":43.22547,"lon":5.41644,"is_reserved":false,"is_disabled":false,"rental_uris":{"android":"levelo://app?vid=2d65b860-94da-4574-a20f-82b65ca5f84b","ios":"levelo://app?vid=2d65b860-94da-4574-a20f-82b65ca5f84b"},"vehicle_type_id":"4","last_reported":1781306827,"current_range_meters":6400,"station_id":"st_d2o4gvlbi1j2169b742g","pricing_plan_id":"cebpf4jnsgd1na2vs0mg"},{"bike_id":"f57ddc5d-b3ad-43f3-bbc4-226ea7be866d","system_id":"levelo_inurba_marseille","lat":43.29853,"lon":5.42272,"is_reserved":false,"is_disabled":false,"rental_uris":{"android":"levelo://app?vid=f57ddc5d-b3ad-43f3-bbc4-226ea7be866d","ios":"levelo://app?vid=f57ddc5d-b3ad-43f3-bbc4-226ea7be866d"},"vehicle_type_id":"4","last_reported":1781306827,"current_range_meters":6400,"station_id":"","pricing_plan_id":"cebpf4jnsgd1na2vs0mg"},{"bike_id":"45d51823-30bc-4b8b-8e1b-1a9a55481c8e","system_id":"levelo_inurba_marseille","lat":43.27493,"lon":5.4245,"is_reserved":false,"is_disabled":false,"rental_uris":{"android":"levelo://app?vid=45d51823-30bc-4b8b-8e1b-1a9a55481c8e","ios":"levelo://app?vid=45d51823-30bc-4b8b-8e1b-1a9a55481c8e"},"vehicle_type_id":"4","last_reported":1781306827,"current_range_meters":6400,"station_id":"ce4bhn92rcd13ifvqgrg","pricing_plan_id":"cebpf4jnsgd1na2vs0mg"},{"bike_id":"fb2a1f7d-f7e9-4d12-bb3c-32e8cd55f82d","system_id":"levelo_inurba_marseille","lat":43.29068,"lon":5.4426,"is_reserved":false,"is_disabled":false,"rental_uris":{"android":"levelo://app?vid=fb2a1f7d-f7e9-4d12-bb3c-32e8cd55f82d","ios":"levelo://app?vid=fb2a1f7d-f7e9-4d12-bb3c-32e8cd55f82d"},"vehicle_type_id":"4","last_reported":1781306827,"current_range_meters":6400,"station_id":"","pricing_plan_id":"cebpf4jnsgd1na2vs0mg"},{"bike_id":"3cb9a99c-8475-44b5-a414-f58b937c5317","system_id":"levelo_inurba_marseille","lat":43.28446,"lon":5.35898,"is_reserved":false,"is_disabled":false,"rental_uris":{"android":"levelo://app?vid=3cb9a99c-8475-44b5-a414-f58b937c5317","ios":"levelo://app?vid=3cb9a99c-8475-44b5-a414-f58b937c5317"},"vehicle_type_id":"4","last_reported":1781306827,"current_range_meters":6400,"station_id":"ce4bhah2rcd13ifvqei0","pricing_plan_id":"cebpf4jnsgd1na2vs0mg"},{"bike_id":"5ab25b28-e35d-4f10-9ca9-7d658cce4ea9","system_id":"levelo_inurba_marseille","lat":43.28931,"lon":5.384,"is_reserved":false,"is_disabled":true,"rental_uris":{"android":"levelo://app?vid=5ab25b28-e35d-4f10-9ca9-7d658cce4ea9","ios":"levelo://app?vid=5ab25b28-e35d-4f10-9ca9-7d658cce4ea9"},"vehicle_type_id":"4","last_reported":1781306827,"current_range_meters":6400,"station_id":"ce4bh612rcd13ifvqe6g","pricing_plan_id":"cebpf4jnsgd1na2vs0mg"},{"bike_id":"0861ae41-ee4b-4f20-9f21-8200b0c33b42","system_id":"levelo_inurba_marseille","lat":43.27773,"lon":5.35564,"is_reserved":false,"is_disabled":false,"rental_uris":{"android":"levelo://app?vid=0861ae41-ee4b-4f20-9f21-8200b0c33b42","ios":"levelo://app?vid=0861ae41-ee4b-4f20-9f21-8200b0c33b42"},"vehicle_type_id":"4","last_reported":1781306827,"current_range_meters":6400,"station_id":"","pricing_plan_id":"cebpf4jnsgd1na2vs0mg"},{"bike_id":"7af5dc62-7a31-4d7c-a26c-927a2cb82321","system_id":"levelo_inurba_marseille","lat":43.32102,"lon":5.36769,"is_reserved":false,"is_disabled":false,"rental_uris":{"android":"levelo://app?vid=7af5dc62-7a31-4d7c-a26c-927a2cb82321","ios":"levelo://app?vid=7af5dc62-7a31-4d7c-a26c-927a2cb82321"},"vehicle_type_id":"4","last_reported":1781306827,"current_range_meters":6400,"station_id":"ce4bhrh2rcd13ifvqhug","pricing_plan_id":"cebpf4jnsgd1na2vs0mg"},{"bike_id":"b3b7196a-305a-43e5-9bc8-19295b30a571","system_id":"levelo_inurba_marseille","lat":43.30421,"lon":5.41274,"is_reserved":false,"is_disabled":false,"rental_uris":{"android":"levelo://app?vid=b3b7196a-305a-43e5-9bc8-19295b30a571","ios":"levelo://app?vid=b3b7196a-305a-43e5-9bc8-19295b30a571"},"vehicle_type_id":"4","last_reported":1781306827,"current_range_meters":6400,"station_id":"ce4bhop2rcd13ifvqh8g","pricing_plan_id":"cebpf4jnsgd1na2vs0mg"},{"bike_id":"29f89edd-ea47-4769-ba03-c94739969a4f","system_id":"levelo_inurba_marseille","lat":43.29392,"lon":5.40178,"is_reserved":false,"is_disabled":false,"rental_uris":{"android":"levelo://app?vid=29f89edd-ea47-4769-ba03-c94739969a4f","ios":"levelo://app?vid=29f89edd-ea47-4769-ba03-c94739969a4f"},"vehicle_type_id":"4","last_reported":1781306827,"current_range_meters":6400,"station_id":"","pricing_plan_id":"cebpf4jnsgd1na2vs0mg"},{"bike_id":"c017a8ae-85a7-45a6-aa4f-da9efc8013ea","system_id":"levelo_inurba_marseille","lat":43.24805,"lon":5.37476,"is_reserved":false,"is_disabled":false,"rental_uris":{"android":"levelo://app?vid=c017a8ae-85a7-45a6-aa4f-da9efc8013ea","ios":"levelo://app?vid=c017a8ae-85a7-45a6-aa4f-da9efc8013ea"},"vehicle_type_id":"4","last_reported":1781306827,"current_range_meters":6400,"station_id":"ce4bhgh2rcd13ifvqfb0","pricing_plan_id":"cebpf4jnsgd1na2vs0mg"},{"bike_id":"9e36cfa1-09fe-4bd5-9827-624ec281fd82","system_id":"levelo_inurba_marseille","lat":43.26043,"lon":5.37556,"is_reserved":false,"is_disabled":false,"rental_uris":{"android":"levelo://app?vid=9e36cfa1-09fe-4bd5-9827-624ec281fd82","ios":"levelo://app?vid=9e36cfa1-09fe-4bd5-9827-624ec281fd82"},"vehicle_type_id":"4","last_reported":1781306827,"current_range_meters":6400,"station_id":"ce4bhgh2rcd13ifvqfa0","pricing_plan_id":"cebpf4jnsgd1na2vs0mg"},{"bike_id":"e0c10e55-c1c0-4b1a-8229-5aece6714586","system_id":"levelo_inurba_marseille","lat":43.24662,"lon":5.38165,"is_reserved":false,"is_disabled":false,"rental_uris":{"android":"levelo://app?vid=e0c10e55-c1c0-4b1a-8229-5aece6714586","ios":"levelo://app?vid=e0c10e55-c1c0-4b1a-8229-5aece6714586"},"vehicle_type_id":"4","last_reported":1781306827,"current_range_meters":6400,"station_id":"ce4bhih2rcd13ifvqfr0","pricing_plan_id":"cebpf4jnsgd1na2vs0mg"},{"bike_id":"61b7a27c-4633-4433-8d95-fae8968731e7","system_id":"levelo_inurba_marseille","lat":43.27509,"lon":5.41562,"is_reserved":false,"is_disabled":false,"rental_uris":{"android":"levelo://app?vid=61b7a27c-4633-4433-8d95-fae8968731e7","ios":"levelo://app?vid=61b7a27c-4633-4433-8d95-fae8968731e7"},"vehicle_type_id":"4","last_reported":1781306827,"current_range_meters":6400,"station_id":"st_d6im8g6chgec73a5pndg","pricing_plan_id":"cebpf4jnsgd1na2vs0mg"},{"bike_id":"5fbc918e-7c0b-4613-801a-915405738794","system_id":"levelo_inurba_marseille","lat":43.2756,"lon":5.38436,"is_reserved":false,"is_disabled":false,"rental_uris":{"android":"levelo://app?vid=5fbc918e-7c0b-4613-801a-915405738794","ios":"levelo://app?vid=5fbc918e-7c0b-4613-801a-915405738794"},"vehicle_type_id":"4","last_reported":1781306827,"current_range_meters":6400,"station_id":"ce4bhh92rcd13ifvqfi0","pricing_plan_id":"cebpf4jnsgd1na2vs0mg"},{"bike_id":"7694d9f0-ae51-41f3-a7f0-57162982459e","system_id":"levelo_inurba_marseille","lat":43.30867,"lon":5.39662,"is_reserved":false,"is_disabled":false,"rental_uris":{"android":"levelo://app?vid=7694d9f0-ae51-41f3-a7f0-57162982459e","ios":"levelo://app?vid=7694d9f0-ae51-41f3-a7f0-57162982459e"},"vehicle_type_id":"4","last_reported":1781306827,"current_range_meters":6400,"station_id":"ce4bh012rcd13ifvqcv0","pricing_plan_id":"cebpf4jnsgd1na2vs0mg"},{"bike_id":"67d79504-0563-4610-907f-80e12b8075dc","system_id":"levelo_inurba_marseille","lat":43.24398,"lon":5.37063,"is_reserved":false,"is_disabled":false,"rental_uris":{"android":"levelo://app?vid=67d79504-0563-4610-907f-80e12b8075dc","ios":"levelo://app?vid=67d79504-0563-4610-907f-80e12b8075dc"},"vehicle_type_id":"4","last_reported":1781306827,"current_range_meters":6800,"station_id":"ce4bhhh2rcd13ifvqfk0","pricing_plan_id":"cebpf4jnsgd1na2vs0mg"},{"bike_id":"f4bd0ae9-9a5e-4f7b-b865-f24efdefb544","system_id":"levelo_inurba_marseille","lat":43.31176,"lon":5.38741,"is_reserved":false,"is_disabled":false,"rental_uris":{"android":"levelo://app?vid=f4bd0ae9-9a5e-4f7b-b865-f24efdefb544","ios":"levelo://app?vid=f4bd0ae9-9a5e-4f7b-b865-f24efdefb544"},"vehicle_type_id":"4","last_reported":1781306827,"current_range_meters":6800,"station_id":"","pricing_plan_id":"cebpf4jnsgd1na2vs0mg"},{"bike_id":"a5e77653-46b7-42be-ae06-dd075d05a062","system_id":"levelo_inurba_marseille","lat":43.32482,"lon":5.36571,"is_reserved":false,"is_disabled":false,"rental_uris":{"android":"levelo://app?vid=a5e77653-46b7-42be-ae06-dd075d05a062","ios":"levelo://app?vid=a5e77653-46b7-42be-ae06-dd075d05a062"},"vehicle_type_id":"4","last_reported":1781306827,"current_range_meters":6800,"station_id":"ce4bhs12rcd13ifvqhvg","pricing_plan_id":"cebpf4jnsgd1na2vs0mg"},{"bike_id":"932afb10-d230-406f-a6e2-098fe36a2de4","system_id":"levelo_inurba_marseille","lat":43.25316,"lon":5.422,"is_reserved":false,"is_disabled":false,"rental_uris":{"android":"levelo://app?vid=932afb10-d230-406f-a6e2-098fe36a2de4","ios":"levelo://app?vid=932afb10-d230-406f-a6e2-098fe36a2de4"},"vehicle_type_id":"4","last_reported":1781306827,"current_range_meters":6800,"station_id":"st_d2m65c5bi1j21697t3ng","pricing_plan_id":"cebpf4jnsgd1na2vs0mg"},{"bike_id":"7ec5ac6c-1ad1-484e-b1ac-0dd6240aeac8","system_id":"levelo_inurba_marseille","lat":43.32089,"lon":5.36806,"is_reserved":false,"is_disabled":false,"rental_uris":{"android":"levelo://app?vid=7ec5ac6c-1ad1-484e-b1ac-0dd6240aeac8","ios":"levelo://app?vid=7ec5ac6c-1ad1-484e-b1ac-0dd6240aeac8"},"vehicle_type_id":"4","last_reported":1781306827,"current_range_meters":6800,"station_id":"ce4bhrh2rcd13ifvqhug","pricing_plan_id":"cebpf4jnsgd1na2vs0mg"},{"bike_id":"e48341ff-c3a9-4403-8a03-efe3196284a2","system_id":"levelo_inurba_marseille","lat":43.30292,"lon":5.39222,"is_reserved":false,"is_disabled":false,"rental_uris":{"android":"levelo://app?vid=e48341ff-c3a9-4403-8a03-efe3196284a2","ios":"levelo://app?vid=e48341ff-c3a9-4403-8a03-efe3196284a2"},"vehicle_type_id":"4","last_reported":1781306827,"current_range_meters":6800,"station_id":"ce4bgkh2rcd13ifvqbk0","pricing_plan_id":"cebpf4jnsgd1na2vs0mg"},{"bike_id":"925c1e70-5a7e-4c96-b774-c6af84642d7b","system_id":"levelo_inurba_marseille","lat":43.25117,"lon":5.40322,"is_reserved":false,"is_disabled":false,"rental_uris":{"android":"levelo://app?vid=925c1e70-5a7e-4c96-b774-c6af84642d7b","ios":"levelo://app?vid=925c1e70-5a7e-4c96-b774-c6af84642d7b"},"vehicle_type_id":"4","last_reported":1781306827,"current_range_meters":6800,"station_id":"ce4bhlh2rcd13ifvqgig","pricing_plan_id":"cebpf4jnsgd1na2vs0mg"},{"bike_id":"641f7e7c-96b1-4542-9c7d-7c36bcfd4993","system_id":"levelo_inurba_marseille","lat":43.28658,"lon":5.36377,"is_reserved":false,"is_disabled":false,"rental_uris":{"android":"levelo://app?vid=641f7e7c-96b1-4542-9c7d-7c36bcfd4993","ios":"levelo://app?vid=641f7e7c-96b1-4542-9c7d-7c36bcfd4993"},"vehicle_type_id":"4","last_reported":1781306827,"current_range_meters":6800,"station_id":"ce4bhah2rcd13ifvqej0","pricing_plan_id":"cebpf4jnsgd1na2vs0mg"},{"bike_id":"cf2ecc12-f863-46e8-a4d9-61a8831aafb1","system_id":"levelo_inurba_marseille","lat":43.28703,"lon":5.39992,"is_reserved":false,"is_disabled":false,"rental_uris":{"android":"levelo://app?vid=cf2ecc12-f863-46e8-a4d9-61a8831aafb1","ios":"levelo://app?vid=cf2ecc12-f863-46e8-a4d9-61a8831aafb1"},"vehicle_type_id":"4","last_reported":1781306827,"current_range_meters":6800,"station_id":"ce4bho92rcd13ifvqh3g","pricing_plan_id":"cebpf4jnsgd1na2vs0mg"},{"bike_id":"0c3e00b0-1145-4a94-9a9d-eabaea8f21a5","system_id":"levelo_inurba_marseille","lat":43.29027,"lon":5.39985,"is_reserved":false,"is_disabled":false,"rental_uris":{"android":"levelo://app?vid=0c3e00b0-1145-4a94-9a9d-eabaea8f21a5","ios":"levelo://app?vid=0c3e00b0-1145-4a94-9a9d-eabaea8f21a5"},"vehicle_type_id":"4","last_reported":1781306827,"current_range_meters":6800,"station_id":"ce4bh392rcd13ifvqdm0","pricing_plan_id":"cebpf4jnsgd1na2vs0mg"},{"bike_id":"6823f9a2-8013-4e26-94c8-72b20fcbdb61","system_id":"levelo_inurba_marseille","lat":43.30312,"lon":5.40448,"is_reserved":false,"is_disabled":false,"rental_uris":{"android":"levelo://app?vid=6823f9a2-8013-4e26-94c8-72b20fcbdb61","ios":"levelo://app?vid=6823f9a2-8013-4e26-94c8-72b20fcbdb61"},"vehicle_type_id":"4","last_reported":1781306827,"current_range_meters":6800,"station_id":"ce4bh012rcd13ifvqd10","pricing_plan_id":"cebpf4jnsgd1na2vs0mg"},{"bike_id":"051f88e0-4e5f-4e8b-b12b-757e976783e6","system_id":"levelo_inurba_marseille","lat":43.31892,"lon":5.36807,"is_reserved":false,"is_disabled":false,"rental_uris":{"android":"levelo://app?vid=051f88e0-4e5f-4e8b-b12b-757e976783e6","ios":"levelo://app?vid=051f88e0-4e5f-4e8b-b12b-757e976783e6"},"vehicle_type_id":"4","last_reported":1781306827,"current_range_meters":6800,"station_id":"st_d6o2h0d0559c73evc1b0","pricing_plan_id":"cebpf4jnsgd1na2vs0mg"},{"bike_id":"44739cda-8548-44ca-a768-3f8bdd5bb9de","system_id":"levelo_inurba_marseille","lat":43.27903,"lon":5.3802,"is_reserved":false,"is_disabled":false,"rental_uris":{"android":"levelo://app?vid=44739cda-8548-44ca-a768-3f8bdd5bb9de","ios":"levelo://app?vid=44739cda-8548-44ca-a768-3f8bdd5bb9de"},"vehicle_type_id":"4","last_reported":1781306827,"current_range_meters":6800,"station_id":"ce4bhf92rcd13ifvqf50","pricing_plan_id":"cebpf4jnsgd1na2vs0mg"},{"bike_id":"29866fdf-8b3b-4d01-acd8-1c5cee78560c","system_id":"levelo_inurba_marseille","lat":43.24389,"lon":5.37047,"is_reserved":false,"is_disabled":false,"rental_uris":{"android":"levelo://app?vid=29866fdf-8b3b-4d01-acd8-1c5cee78560c","ios":"levelo://app?vid=29866fdf-8b3b-4d01-acd8-1c5cee78560c"},"vehicle_type_id":"4","last_reported":1781306827,"current_range_meters":6800,"station_id":"ce4bhhh2rcd13ifvqfk0","pricing_plan_id":"cebpf4jnsgd1na2vs0mg"},{"bike_id":"a48ddd59-740a-46d1-a488-52db0b6c8054","system_id":"levelo_inurba_marseille","lat":43.24166,"lon":5.39726,"is_reserved":false,"is_disabled":false,"rental_uris":{"android":"levelo://app?vid=a48ddd59-740a-46d1-a488-52db0b6c8054","ios":"levelo://app?vid=a48ddd59-740a-46d1-a488-52db0b6c8054"},"vehicle_type_id":"4","last_reported":1781306827,"current_range_meters":6800,"station_id":"ce4bhn12rcd13ifvqgpg","pricing_plan_id":"cebpf4jnsgd1na2vs0mg"},{"bike_id":"f96f9850-1fa1-4da0-b9b2-06c64b7f75d3","system_id":"levelo_inurba_marseille","lat":43.26,"lon":5.37577,"is_reserved":false,"is_disabled":false,"rental_uris":{"android":"levelo://app?vid=f96f9850-1fa1-4da0-b9b2-06c64b7f75d3","ios":"levelo://app?vid=f96f9850-1fa1-4da0-b9b2-06c64b7f75d3"},"vehicle_type_id":"4","last_reported":1781306827,"current_range_meters":6800,"station_id":"ce4bhgh2rcd13ifvqfa0","pricing_plan_id":"cebpf4jnsgd1na2vs0mg"},{"bike_id":"9baebc47-9a21-445a-b575-5e8cc4ed7549","system_id":"levelo_inurba_marseille","lat":43.28478,"lon":5.4841,"is_reserved":false,"is_disabled":false,"rental_uris":{"android":"levelo://app?vid=9baebc47-9a21-445a-b575-5e8cc4ed7549","ios":"levelo://app?vid=9baebc47-9a21-445a-b575-5e8cc4ed7549"},"vehicle_type_id":"4","last_reported":1781306827,"current_range_meters":6800,"station_id":"st_d3svhcjqgbts73a3dn0g","pricing_plan_id":"cebpf4jnsgd1na2vs0mg"},{"bike_id":"061433e0-cf7b-41ae-be17-7be0fa3d4e1c","system_id":"levelo_inurba_marseille","lat":43.24792,"lon":5.37454,"is_reserved":false,"is_disabled":false,"rental_uris":{"android":"levelo://app?vid=061433e0-cf7b-41ae-be17-7be0fa3d4e1c","ios":"levelo://app?vid=061433e0-cf7b-41ae-be17-7be0fa3d4e1c"},"vehicle_type_id":"4","last_reported":1781306827,"current_range_meters":6800,"station_id":"ce4bhgh2rcd13ifvqfb0","pricing_plan_id":"cebpf4jnsgd1na2vs0mg"},{"bike_id":"f1f3da79-9b74-41a2-b703-068c935cdd85","system_id":"levelo_inurba_marseille","lat":43.2963,"lon":5.40611,"is_reserved":false,"is_disabled":false,"rental_uris":{"android":"levelo://app?vid=f1f3da79-9b74-41a2-b703-068c935cdd85","ios":"levelo://app?vid=f1f3da79-9b74-41a2-b703-068c935cdd85"},"vehicle_type_id":"4","last_reported":1781306827,"current_range_meters":6800,"station_id":"ce4bh0h2rcd13ifvqd60","pricing_plan_id":"cebpf4jnsgd1na2vs0mg"},{"bike_id":"cdaa4188-ec22-4134-8a24-557ae2e107d4","system_id":"levelo_inurba_marseille","lat":43.29019,"lon":5.38629,"is_reserved":false,"is_disabled":true,"rental_uris":{"android":"levelo://app?vid=cdaa4188-ec22-4134-8a24-557ae2e107d4","ios":"levelo://app?vid=cdaa4188-ec22-4134-8a24-557ae2e107d4"},"vehicle_type_id":"4","last_reported":1781306827,"current_range_meters":6800,"station_id":"ce4bh4p2rcd13ifvqe0g","pricing_plan_id":"cebpf4jnsgd1na2vs0mg"},{"bike_id":"ed1b8ea2-ecf3-46da-8352-26963074c835","system_id":"levelo_inurba_marseille","lat":43.24472,"lon":5.42543,"is_reserved":false,"is_disabled":false,"rental_uris":{"android":"levelo://app?vid=ed1b8ea2-ecf3-46da-8352-26963074c835","ios":"levelo://app?vid=ed1b8ea2-ecf3-46da-8352-26963074c835"},"vehicle_type_id":"4","last_reported":1781306827,"current_range_meters":6800,"station_id":"st_d4a3vfp97mjs738cd8kg","pricing_plan_id":"cebpf4jnsgd1na2vs0mg"},{"bike_id":"eb0b23fc-9dcf-4718-970f-dcc64ecbed5d","system_id":"levelo_inurba_marseille","lat":43.310556,"lon":5.371568,"is_reserved":false,"is_disabled":false,"rental_uris":{"android":"levelo://app?vid=eb0b23fc-9dcf-4718-970f-dcc64ecbed5d","ios":"levelo://app?vid=eb0b23fc-9dcf-4718-970f-dcc64ecbed5d"},"vehicle_type_id":"4","last_reported":1781306827,"current_range_meters":6800,"station_id":"st_d4kl2rp97mjs73e7tdfg","pricing_plan_id":"cebpf4jnsgd1na2vs0mg"},{"bike_id":"deaa129f-e1ec-4b70-89be-08228923086d","system_id":"levelo_inurba_marseille","lat":43.27059,"lon":5.38311,"is_reserved":false,"is_disabled":false,"rental_uris":{"android":"levelo://app?vid=deaa129f-e1ec-4b70-89be-08228923086d","ios":"levelo://app?vid=deaa129f-e1ec-4b70-89be-08228923086d"},"vehicle_type_id":"4","last_reported":1781306827,"current_range_meters":6800,"station_id":"st_d3n2fo6cfp8s73cte1j0","pricing_plan_id":"cebpf4jnsgd1na2vs0mg"},{"bike_id":"c40c4ead-d8dd-4ab4-8b7c-8c735c9c1613","system_id":"levelo_inurba_marseille","lat":43.31924,"lon":5.36825,"is_reserved":false,"is_disabled":false,"rental_uris":{"android":"levelo://app?vid=c40c4ead-d8dd-4ab4-8b7c-8c735c9c1613","ios":"levelo://app?vid=c40c4ead-d8dd-4ab4-8b7c-8c735c9c1613"},"vehicle_type_id":"4","last_reported":1781306827,"current_range_meters":6800,"station_id":"st_d6o2h0d0559c73evc1b0","pricing_plan_id":"cebpf4jnsgd1na2vs0mg"},{"bike_id":"ccef7772-8059-4e3a-88cf-a0002be85477","system_id":"levelo_inurba_marseille","lat":43.27935,"lon":5.41051,"is_reserved":false,"is_disabled":false,"rental_uris":{"android":"levelo://app?vid=ccef7772-8059-4e3a-88cf-a0002be85477","ios":"levelo://app?vid=ccef7772-8059-4e3a-88cf-a0002be85477"},"vehicle_type_id":"4","last_reported":1781306827,"current_range_meters":6800,"station_id":"ce4bhnp2rcd13ifvqh0g","pricing_plan_id":"cebpf4jnsgd1na2vs0mg"},{"bike_id":"78f96ec0-3651-40e0-9064-540398d155f5","system_id":"levelo_inurba_marseille","lat":43.24459,"lon":5.42554,"is_reserved":false,"is_disabled":false,"rental_uris":{"android":"levelo://app?vid=78f96ec0-3651-40e0-9064-540398d155f5","ios":"levelo://app?vid=78f96ec0-3651-40e0-9064-540398d155f5"},"vehicle_type_id":"4","last_reported":1781306827,"current_range_meters":6800,"station_id":"st_d4a3vfp97mjs738cd8kg","pricing_plan_id":"cebpf4jnsgd1na2vs0mg"},{"bike_id":"9f069751-295a-496b-b19c-281f4491a5fd","system_id":"levelo_inurba_marseille","lat":43.35074,"lon":5.3506,"is_reserved":false,"is_disabled":false,"rental_uris":{"android":"levelo://app?vid=9f069751-295a-496b-b19c-281f4491a5fd","ios":"levelo://app?vid=9f069751-295a-496b-b19c-281f4491a5fd"},"vehicle_type_id":"4","last_reported":1781306827,"current_range_meters":7200,"station_id":"","pricing_plan_id":"cebpf4jnsgd1na2vs0mg"},{"bike_id":"db775758-d98c-416a-b7d1-5bd50c21d14d","system_id":"levelo_inurba_marseille","lat":43.30787,"lon":5.37657,"is_reserved":false,"is_disabled":false,"rental_uris":{"android":"levelo://app?vid=db775758-d98c-416a-b7d1-5bd50c21d14d","ios":"levelo://app?vid=db775758-d98c-416a-b7d1-5bd50c21d14d"},"vehicle_type_id":"4","last_reported":1781306827,"current_range_meters":7200,"station_id":"ce4bgv92rcd13ifvqcq0","pricing_plan_id":"cebpf4jnsgd1na2vs0mg"},{"bike_id":"40d12a24-cf28-4a6d-87fd-6bb64cea15d1","system_id":"levelo_inurba_marseille","lat":43.26536,"lon":5.37319,"is_reserved":false,"is_disabled":false,"rental_uris":{"android":"levelo://app?vid=40d12a24-cf28-4a6d-87fd-6bb64cea15d1","ios":"levelo://app?vid=40d12a24-cf28-4a6d-87fd-6bb64cea15d1"},"vehicle_type_id":"4","last_reported":1781306827,"current_range_meters":7200,"station_id":"ce4bhg12rcd13ifvqf70","pricing_plan_id":"cebpf4jnsgd1na2vs0mg"},{"bike_id":"44577758-9781-4e26-a98a-6f13509dbbf8","system_id":"levelo_inurba_marseille","lat":43.33721,"lon":5.39173,"is_reserved":false,"is_disabled":false,"rental_uris":{"android":"levelo://app?vid=44577758-9781-4e26-a98a-6f13509dbbf8","ios":"levelo://app?vid=44577758-9781-4e26-a98a-6f13509dbbf8"},"vehicle_type_id":"4","last_reported":1781306827,"current_range_meters":7200,"station_id":"ce4bhr92rcd13ifvqhsg","pricing_plan_id":"cebpf4jnsgd1na2vs0mg"},{"bike_id":"6a27404a-fd45-46ef-b0c6-d19df52b0472","system_id":"levelo_inurba_marseille","lat":43.3007,"lon":5.37753,"is_reserved":false,"is_disabled":false,"rental_uris":{"android":"levelo://app?vid=6a27404a-fd45-46ef-b0c6-d19df52b0472","ios":"levelo://app?vid=6a27404a-fd45-46ef-b0c6-d19df52b0472"},"vehicle_type_id":"4","last_reported":1781306827,"current_range_meters":7200,"station_id":"","pricing_plan_id":"cebpf4jnsgd1na2vs0mg"},{"bike_id":"a88c18f7-a05b-424b-a2e6-87c48e40dd60","system_id":"levelo_inurba_marseille","lat":43.23881,"lon":5.3749,"is_reserved":false,"is_disabled":true,"rental_uris":{"android":"levelo://app?vid=a88c18f7-a05b-424b-a2e6-87c48e40dd60","ios":"levelo://app?vid=a88c18f7-a05b-424b-a2e6-87c48e40dd60"},"vehicle_type_id":"4","last_reported":1781306827,"current_range_meters":7200,"station_id":"st_d6sm7csbq4hs73f8fpjg","pricing_plan_id":"cebpf4jnsgd1na2vs0mg"},{"bike_id":"0af28dff-10e3-45c2-abfc-a6abed270ace","system_id":"levelo_inurba_marseille","lat":43.33728,"lon":5.39188,"is_reserved":false,"is_disabled":false,"rental_uris":{"android":"levelo://app?vid=0af28dff-10e3-45c2-abfc-a6abed270ace","ios":"levelo://app?vid=0af28dff-10e3-45c2-abfc-a6abed270ace"},"vehicle_type_id":"4","last_reported":1781306827,"current_range_meters":7200,"station_id":"ce4bhr92rcd13ifvqhsg","pricing_plan_id":"cebpf4jnsgd1na2vs0mg"},{"bike_id":"b75b860e-f642-4d57-ae10-a57f8b9673f2","system_id":"levelo_inurba_marseille","lat":43.26232,"lon":5.38775,"is_reserved":false,"is_disabled":false,"rental_uris":{"android":"levelo://app?vid=b75b860e-f642-4d57-ae10-a57f8b9673f2","ios":"levelo://app?vid=b75b860e-f642-4d57-ae10-a57f8b9673f2"},"vehicle_type_id":"4","last_reported":1781306827,"current_range_meters":7200,"station_id":"st_d8gjfg747rts73coq3b0","pricing_plan_id":"cebpf4jnsgd1na2vs0mg"},{"bike_id":"1bd36802-444b-47b8-b6d5-5854caf6a4a9","system_id":"levelo_inurba_marseille","lat":43.31486,"lon":5.37286,"is_reserved":false,"is_disabled":false,"rental_uris":{"android":"levelo://app?vid=1bd36802-444b-47b8-b6d5-5854caf6a4a9","ios":"levelo://app?vid=1bd36802-444b-47b8-b6d5-5854caf6a4a9"},"vehicle_type_id":"4","last_reported":1781306827,"current_range_meters":7200,"station_id":"ce4bgt12rcd13ifvqcd0","pricing_plan_id":"cebpf4jnsgd1na2vs0mg"},{"bike_id":"61abc050-794c-43f3-96ae-15565612cd1b","system_id":"levelo_inurba_marseille","lat":43.28683,"lon":5.4668,"is_reserved":false,"is_disabled":false,"rental_uris":{"android":"levelo://app?vid=61abc050-794c-43f3-96ae-15565612cd1b","ios":"levelo://app?vid=61abc050-794c-43f3-96ae-15565612cd1b"},"vehicle_type_id":"4","last_reported":1781306827,"current_range_meters":7200,"station_id":"st_d6tc3vkotcvc738tfjhg","pricing_plan_id":"cebpf4jnsgd1na2vs0mg"},{"bike_id":"5fa0803f-a07a-4a76-ad02-b61eab93f34b","system_id":"levelo_inurba_marseille","lat":43.30367,"lon":5.42474,"is_reserved":false,"is_disabled":false,"rental_uris":{"android":"levelo://app?vid=5fa0803f-a07a-4a76-ad02-b61eab93f34b","ios":"levelo://app?vid=5fa0803f-a07a-4a76-ad02-b61eab93f34b"},"vehicle_type_id":"4","last_reported":1781306827,"current_range_meters":7200,"station_id":"ce4bhoh2rcd13ifvqh6g","pricing_plan_id":"cebpf4jnsgd1na2vs0mg"},{"bike_id":"75a8d4bb-5b93-4cf3-8f56-e58ee660da96","system_id":"levelo_inurba_marseille","lat":43.24195,"lon":5.40813,"is_reserved":false,"is_disabled":false,"rental_uris":{"android":"levelo://app?vid=75a8d4bb-5b93-4cf3-8f56-e58ee660da96","ios":"levelo://app?vid=75a8d4bb-5b93-4cf3-8f56-e58ee660da96"},"vehicle_type_id":"4","last_reported":1781306827,"current_range_meters":7200,"station_id":"","pricing_plan_id":"cebpf4jnsgd1na2vs0mg"},{"bike_id":"1d05166d-0083-4b14-8ed6-6c71625aa291","system_id":"levelo_inurba_marseille","lat":43.2963,"lon":5.40603,"is_reserved":false,"is_disabled":false,"rental_uris":{"android":"levelo://app?vid=1d05166d-0083-4b14-8ed6-6c71625aa291","ios":"levelo://app?vid=1d05166d-0083-4b14-8ed6-6c71625aa291"},"vehicle_type_id":"4","last_reported":1781306827,"current_range_meters":7200,"station_id":"ce4bh0h2rcd13ifvqd60","pricing_plan_id":"cebpf4jnsgd1na2vs0mg"},{"bike_id":"8973ed0e-0f1d-4b17-8f92-c0a250fe8e91","system_id":"levelo_inurba_marseille","lat":43.27944,"lon":5.4105,"is_reserved":false,"is_disabled":false,"rental_uris":{"android":"levelo://app?vid=8973ed0e-0f1d-4b17-8f92-c0a250fe8e91","ios":"levelo://app?vid=8973ed0e-0f1d-4b17-8f92-c0a250fe8e91"},"vehicle_type_id":"4","last_reported":1781306827,"current_range_meters":7200,"station_id":"ce4bhnp2rcd13ifvqh0g","pricing_plan_id":"cebpf4jnsgd1na2vs0mg"},{"bike_id":"1f4cf7cf-98e2-40ce-8e0b-c74ae682295d","system_id":"levelo_inurba_marseille","lat":43.26234,"lon":5.38776,"is_reserved":false,"is_disabled":false,"rental_uris":{"android":"levelo://app?vid=1f4cf7cf-98e2-40ce-8e0b-c74ae682295d","ios":"levelo://app?vid=1f4cf7cf-98e2-40ce-8e0b-c74ae682295d"},"vehicle_type_id":"4","last_reported":1781306827,"current_range_meters":7200,"station_id":"st_d8gjfg747rts73coq3b0","pricing_plan_id":"cebpf4jnsgd1na2vs0mg"},{"bike_id":"f389c322-123d-4144-915a-383855424cea","system_id":"levelo_inurba_marseille","lat":43.24393,"lon":5.37062,"is_reserved":false,"is_disabled":false,"rental_uris":{"android":"levelo://app?vid=f389c322-123d-4144-915a-383855424cea","ios":"levelo://app?vid=f389c322-123d-4144-915a-383855424cea"},"vehicle_type_id":"4","last_reported":1781306827,"current_range_meters":7200,"station_id":"ce4bhhh2rcd13ifvqfk0","pricing_plan_id":"cebpf4jnsgd1na2vs0mg"},{"bike_id":"4d77753f-2320-404c-93a2-094e7eff83c5","system_id":"levelo_inurba_marseille","lat":43.28717,"lon":5.37401,"is_reserved":false,"is_disabled":false,"rental_uris":{"android":"levelo://app?vid=4d77753f-2320-404c-93a2-094e7eff83c5","ios":"levelo://app?vid=4d77753f-2320-404c-93a2-094e7eff83c5"},"vehicle_type_id":"4","last_reported":1781306827,"current_range_meters":7200,"station_id":"ce4bh3p2rcd13ifvqdq0","pricing_plan_id":"cebpf4jnsgd1na2vs0mg"},{"bike_id":"01974ce9-2ce7-4184-9698-03768bec9bb4","system_id":"levelo_inurba_marseille","lat":43.28657,"lon":5.46662,"is_reserved":false,"is_disabled":false,"rental_uris":{"android":"levelo://app?vid=01974ce9-2ce7-4184-9698-03768bec9bb4","ios":"levelo://app?vid=01974ce9-2ce7-4184-9698-03768bec9bb4"},"vehicle_type_id":"4","last_reported":1781306827,"current_range_meters":7200,"station_id":"st_d6tc3vkotcvc738tfjhg","pricing_plan_id":"cebpf4jnsgd1na2vs0mg"},{"bike_id":"1fdd923e-e961-41f9-8f3c-11f5303c0850","system_id":"levelo_inurba_marseille","lat":43.28688,"lon":5.37431,"is_reserved":false,"is_disabled":false,"rental_uris":{"android":"levelo://app?vid=1fdd923e-e961-41f9-8f3c-11f5303c0850","ios":"levelo://app?vid=1fdd923e-e961-41f9-8f3c-11f5303c0850"},"vehicle_type_id":"4","last_reported":1781306827,"current_range_meters":7200,"station_id":"ce4bh3p2rcd13ifvqdq0","pricing_plan_id":"cebpf4jnsgd1na2vs0mg"},{"bike_id":"56755ef0-e3dd-41e7-b22a-2d1a1dbf7b67","system_id":"levelo_inurba_marseille","lat":43.28433,"lon":5.39181,"is_reserved":false,"is_disabled":false,"rental_uris":{"android":"levelo://app?vid=56755ef0-e3dd-41e7-b22a-2d1a1dbf7b67","ios":"levelo://app?vid=56755ef0-e3dd-41e7-b22a-2d1a1dbf7b67"},"vehicle_type_id":"4","last_reported":1781306827,"current_range_meters":7200,"station_id":"ce4bhoh2rcd13ifvqh5g","pricing_plan_id":"cebpf4jnsgd1na2vs0mg"},{"bike_id":"6238fcf5-9640-4daf-a7e9-dad5928f2be9","system_id":"levelo_inurba_marseille","lat":43.24804,"lon":5.37437,"is_reserved":false,"is_disabled":false,"rental_uris":{"android":"levelo://app?vid=6238fcf5-9640-4daf-a7e9-dad5928f2be9","ios":"levelo://app?vid=6238fcf5-9640-4daf-a7e9-dad5928f2be9"},"vehicle_type_id":"4","last_reported":1781306827,"current_range_meters":7200,"station_id":"ce4bhgh2rcd13ifvqfb0","pricing_plan_id":"cebpf4jnsgd1na2vs0mg"},{"bike_id":"eda98293-5c91-4dae-89c6-486a45b00f60","system_id":"levelo_inurba_marseille","lat":43.23274,"lon":5.40081,"is_reserved":false,"is_disabled":false,"rental_uris":{"android":"levelo://app?vid=eda98293-5c91-4dae-89c6-486a45b00f60","ios":"levelo://app?vid=eda98293-5c91-4dae-89c6-486a45b00f60"},"vehicle_type_id":"4","last_reported":1781306827,"current_range_meters":7200,"station_id":"","pricing_plan_id":"cebpf4jnsgd1na2vs0mg"},{"bike_id":"797e24e5-5618-48a3-94d0-34692fe24545","system_id":"levelo_inurba_marseille","lat":43.28033,"lon":5.3694,"is_reserved":false,"is_disabled":false,"rental_uris":{"android":"levelo://app?vid=797e24e5-5618-48a3-94d0-34692fe24545","ios":"levelo://app?vid=797e24e5-5618-48a3-94d0-34692fe24545"},"vehicle_type_id":"4","last_reported":1781306827,"current_range_meters":7200,"station_id":"ce4bha12rcd13ifvqef0","pricing_plan_id":"cebpf4jnsgd1na2vs0mg"},{"bike_id":"dc8c31a5-8c85-464e-91d8-ea1cdf0fe35b","system_id":"levelo_inurba_marseille","lat":43.287,"lon":5.37385,"is_reserved":false,"is_disabled":false,"rental_uris":{"android":"levelo://app?vid=dc8c31a5-8c85-464e-91d8-ea1cdf0fe35b","ios":"levelo://app?vid=dc8c31a5-8c85-464e-91d8-ea1cdf0fe35b"},"vehicle_type_id":"4","last_reported":1781306827,"current_range_meters":7200,"station_id":"ce4bh3p2rcd13ifvqdq0","pricing_plan_id":"cebpf4jnsgd1na2vs0mg"},{"bike_id":"6e4387d7-bd16-4a30-af78-71416e460c6d","system_id":"levelo_inurba_marseille","lat":43.30842,"lon":5.38393,"is_reserved":false,"is_disabled":false,"rental_uris":{"android":"levelo://app?vid=6e4387d7-bd16-4a30-af78-71416e460c6d","ios":"levelo://app?vid=6e4387d7-bd16-4a30-af78-71416e460c6d"},"vehicle_type_id":"4","last_reported":1781306827,"current_range_meters":7200,"station_id":"","pricing_plan_id":"cebpf4jnsgd1na2vs0mg"},{"bike_id":"8854a21d-50cd-40be-bdc9-545e52082ad0","system_id":"levelo_inurba_marseille","lat":43.29236,"lon":5.40178,"is_reserved":false,"is_disabled":false,"rental_uris":{"android":"levelo://app?vid=8854a21d-50cd-40be-bdc9-545e52082ad0","ios":"levelo://app?vid=8854a21d-50cd-40be-bdc9-545e52082ad0"},"vehicle_type_id":"4","last_reported":1781306827,"current_range_meters":7200,"station_id":"","pricing_plan_id":"cebpf4jnsgd1na2vs0mg"},{"bike_id":"c204c8ea-e90e-4d5e-9e5f-316b4c7758ae","system_id":"levelo_inurba_marseille","lat":43.3094,"lon":5.40136,"is_reserved":false,"is_disabled":false,"rental_uris":{"android":"levelo://app?vid=c204c8ea-e90e-4d5e-9e5f-316b4c7758ae","ios":"levelo://app?vid=c204c8ea-e90e-4d5e-9e5f-316b4c7758ae"},"vehicle_type_id":"4","last_reported":1781306827,"current_range_meters":7200,"station_id":"ce4bgvp2rcd13ifvqct0","pricing_plan_id":"cebpf4jnsgd1na2vs0mg"},{"bike_id":"2f5a2eb1-a60a-4fe8-a5aa-002259731410","system_id":"levelo_inurba_marseille","lat":43.31034,"lon":5.37193,"is_reserved":false,"is_disabled":true,"rental_uris":{"android":"levelo://app?vid=2f5a2eb1-a60a-4fe8-a5aa-002259731410","ios":"levelo://app?vid=2f5a2eb1-a60a-4fe8-a5aa-002259731410"},"vehicle_type_id":"4","last_reported":1781306827,"current_range_meters":7200,"station_id":"st_d4kl2rp97mjs73e7tdfg","pricing_plan_id":"cebpf4jnsgd1na2vs0mg"},{"bike_id":"9e5dca86-cea8-4464-8ef4-356b17b3a843","system_id":"levelo_inurba_marseille","lat":43.28844,"lon":5.39311,"is_reserved":false,"is_disabled":false,"rental_uris":{"android":"levelo://app?vid=9e5dca86-cea8-4464-8ef4-356b17b3a843","ios":"levelo://app?vid=9e5dca86-cea8-4464-8ef4-356b17b3a843"},"vehicle_type_id":"4","last_reported":1781306827,"current_range_meters":7200,"station_id":"ce4bh2p2rcd13ifvqdi0","pricing_plan_id":"cebpf4jnsgd1na2vs0mg"},{"bike_id":"f479e9f1-5d34-46d9-9066-4efc22ee1f5b","system_id":"levelo_inurba_marseille","lat":43.30909,"lon":5.36857,"is_reserved":false,"is_disabled":false,"rental_uris":{"android":"levelo://app?vid=f479e9f1-5d34-46d9-9066-4efc22ee1f5b","ios":"levelo://app?vid=f479e9f1-5d34-46d9-9066-4efc22ee1f5b"},"vehicle_type_id":"4","last_reported":1781306827,"current_range_meters":8000,"station_id":"ce4bgn92rcd13ifvqbvg","pricing_plan_id":"cebpf4jnsgd1na2vs0mg"},{"bike_id":"da432fb5-0134-4993-b664-f65204a9d37e","system_id":"levelo_inurba_marseille","lat":43.28841,"lon":5.39341,"is_reserved":false,"is_disabled":false,"rental_uris":{"android":"levelo://app?vid=da432fb5-0134-4993-b664-f65204a9d37e","ios":"levelo://app?vid=da432fb5-0134-4993-b664-f65204a9d37e"},"vehicle_type_id":"4","last_reported":1781306827,"current_range_meters":8000,"station_id":"ce4bh2p2rcd13ifvqdi0","pricing_plan_id":"cebpf4jnsgd1na2vs0mg"},{"bike_id":"d43d82bc-dd66-4ccb-ba98-7fe9c5e7c015","system_id":"levelo_inurba_marseille","lat":43.27213,"lon":5.39176,"is_reserved":false,"is_disabled":true,"rental_uris":{"android":"levelo://app?vid=d43d82bc-dd66-4ccb-ba98-7fe9c5e7c015","ios":"levelo://app?vid=d43d82bc-dd66-4ccb-ba98-7fe9c5e7c015"},"vehicle_type_id":"4","last_reported":1781306827,"current_range_meters":8000,"station_id":"ce4bhhp2rcd13ifvqfm0","pricing_plan_id":"cebpf4jnsgd1na2vs0mg"},{"bike_id":"98c0a183-7ee6-4b0b-b809-46c8824508e7","system_id":"levelo_inurba_marseille","lat":43.29604,"lon":5.41924,"is_reserved":false,"is_disabled":false,"rental_uris":{"android":"levelo://app?vid=98c0a183-7ee6-4b0b-b809-46c8824508e7","ios":"levelo://app?vid=98c0a183-7ee6-4b0b-b809-46c8824508e7"},"vehicle_type_id":"4","last_reported":1781306827,"current_range_meters":8000,"station_id":"","pricing_plan_id":"cebpf4jnsgd1na2vs0mg"},{"bike_id":"e11cf748-cc6d-47e4-833d-e64ff9ff791f","system_id":"levelo_inurba_marseille","lat":43.295716,"lon":5.399759,"is_reserved":false,"is_disabled":false,"rental_uris":{"android":"levelo://app?vid=e11cf748-cc6d-47e4-833d-e64ff9ff791f","ios":"levelo://app?vid=e11cf748-cc6d-47e4-833d-e64ff9ff791f"},"vehicle_type_id":"4","last_reported":1781306827,"current_range_meters":8000,"station_id":"ce4bh312rcd13ifvqdj0","pricing_plan_id":"cebpf4jnsgd1na2vs0mg"},{"bike_id":"b94500b0-c8e7-4697-a363-e6426899264d","system_id":"levelo_inurba_marseille","lat":43.26355,"lon":5.41088,"is_reserved":false,"is_disabled":false,"rental_uris":{"android":"levelo://app?vid=b94500b0-c8e7-4697-a363-e6426899264d","ios":"levelo://app?vid=b94500b0-c8e7-4697-a363-e6426899264d"},"vehicle_type_id":"4","last_reported":1781306827,"current_range_meters":8000,"station_id":"st_d4e5ca6na9uc73bfl5fg","pricing_plan_id":"cebpf4jnsgd1na2vs0mg"},{"bike_id":"5b5ea2fb-3ba8-4c10-841c-ca34891a615c","system_id":"levelo_inurba_marseille","lat":43.29339,"lon":5.3638,"is_reserved":false,"is_disabled":false,"rental_uris":{"android":"levelo://app?vid=5b5ea2fb-3ba8-4c10-841c-ca34891a615c","ios":"levelo://app?vid=5b5ea2fb-3ba8-4c10-841c-ca34891a615c"},"vehicle_type_id":"4","last_reported":1781306827,"current_range_meters":8000,"station_id":"","pricing_plan_id":"cebpf4jnsgd1na2vs0mg"},{"bike_id":"a303e4db-b9ba-4d63-9eff-f7e5a8e536c2","system_id":"levelo_inurba_marseille","lat":43.28035,"lon":5.40895,"is_reserved":false,"is_disabled":false,"rental_uris":{"android":"levelo://app?vid=a303e4db-b9ba-4d63-9eff-f7e5a8e536c2","ios":"levelo://app?vid=a303e4db-b9ba-4d63-9eff-f7e5a8e536c2"},"vehicle_type_id":"4","last_reported":1781306827,"current_range_meters":8000,"station_id":"","pricing_plan_id":"cebpf4jnsgd1na2vs0mg"},{"bike_id":"8a9787a5-9a28-427a-a205-4aa9d9212c91","system_id":"levelo_inurba_marseille","lat":43.2882,"lon":5.35556,"is_reserved":false,"is_disabled":false,"rental_uris":{"android":"levelo://app?vid=8a9787a5-9a28-427a-a205-4aa9d9212c91","ios":"levelo://app?vid=8a9787a5-9a28-427a-a205-4aa9d9212c91"},