{"last_updated":1736420849,"ttl":60,"version":"2.2","data":{"bikes":[{"bike_id":"dd9e4985-c802-454b-a5ad-227d583dd231","system_id":"levelo_inurba_marseille","lat":43.22933,"lon":5.3538,"is_reserved":false,"is_disabled":false,"rental_uris":{"android":"levelo://app?vid=dd9e4985-c802-454b-a5ad-227d583dd231","ios":"levelo://app?vid=dd9e4985-c802-454b-a5ad-227d583dd231"},"vehicle_type_id":"4","last_reported":1736420849,"current_range_meters":20400,"station_id":"cpo3532slgdg3j2ikp40","pricing_plan_id":"cebpf4jnsgd1na2vs0mg"},{"bike_id":"1f61e0c5-62cc-4017-b649-6ba787e77087","system_id":"levelo_inurba_marseille","lat":43.29,"lon":5.35609,"is_reserved":false,"is_disabled":false,"rental_uris":{"android":"levelo://app?vid=1f61e0c5-62cc-4017-b649-6ba787e77087","ios":"levelo://app?vid=1f61e0c5-62cc-4017-b649-6ba787e77087"},"vehicle_type_id":"4","last_reported":1736420849,"current_range_meters":38400,"station_id":"ce4bhb92rcd13ifvqen0","pricing_plan_id":"cebpf4jnsgd1na2vs0mg"},{"bike_id":"a25a5b77-7dae-442f-8ce1-fed5ac52b7bc","system_id":"levelo_inurba_marseille","lat":43.24606,"lon":5.381,"is_reserved":false,"is_disabled":false,"rental_uris":{"android":"levelo://app?vid=a25a5b77-7dae-442f-8ce1-fed5ac52b7bc","ios":"levelo://app?vid=a25a5b77-7dae-442f-8ce1-fed5ac52b7bc"},"vehicle_type_id":"4","last_reported":1736420849,"current_range_meters":11600,"station_id":"ce4bhih2rcd13ifvqfr0","pricing_plan_id":"cebpf4jnsgd1na2vs0mg"},{"bike_id":"bd79f785-a877-4813-8d8f-22c9692def75","system_id":"levelo_inurba_marseille","lat":43.30537,"lon":5.36717,"is_reserved":false,"is_disabled":false,"rental_uris":{"android":"levelo://app?vid=bd79f785-a877-4813-8d8f-22c9692def75","ios":"levelo://app?vid=bd79f785-a877-4813-8d8f-22c9692def75"},"vehicle_type_id":"4","last_reported":1736420849,"current_range_meters":38800,"station_id":"ce4bgrp2rcd13ifvqc9g","pricing_plan_id":"cebpf4jnsgd1na2vs0mg"},{"bike_id":"079a2489-d193-414b-8b47-82e93bfb4b65","system_id":"levelo_inurba_marseille","lat":43.28901,"lon":5.38004,"is_reserved":false,"is_disabled":false,"rental_uris":{"android":"levelo://app?vid=079a2489-d193-414b-8b47-82e93bfb4b65","ios":"levelo://app?vid=079a2489-d193-414b-8b47-82e93bfb4b65"},"vehicle_type_id":"4","last_reported":1736420849,"current_range_meters":33200,"station_id":"","pricing_plan_id":"cebpf4jnsgd1na2vs0mg"},{"bike_id":"38b313e7-9a2f-452f-bdb8-d453ae7237a3","system_id":"levelo_inurba_marseille","lat":43.275,"lon":5.42466,"is_reserved":false,"is_disabled":false,"rental_uris":{"android":"levelo://app?vid=38b313e7-9a2f-452f-bdb8-d453ae7237a3","ios":"levelo://app?vid=38b313e7-9a2f-452f-bdb8-d453ae7237a3"},"vehicle_type_id":"4","last_reported":1736420849,"current_range_meters":38800,"station_id":"ce4bhn92rcd13ifvqgrg","pricing_plan_id":"cebpf4jnsgd1na2vs0mg"},{"bike_id":"e2d53db8-d93b-4c95-b584-3d29df9b1325","system_id":"levelo_inurba_marseille","lat":43.32484,"lon":5.36574,"is_reserved":false,"is_disabled":false,"rental_uris":{"android":"levelo://app?vid=e2d53db8-d93b-4c95-b584-3d29df9b1325","ios":"levelo://app?vid=e2d53db8-d93b-4c95-b584-3d29df9b1325"},"vehicle_type_id":"4","last_reported":1736420849,"current_range_meters":35600,"station_id":"ce4bhs12rcd13ifvqhvg","pricing_plan_id":"cebpf4jnsgd1na2vs0mg"},{"bike_id":"c25da445-2bd6-4668-92d8-67b9db836116","system_id":"levelo_inurba_marseille","lat":43.30588,"lon":5.37619,"is_reserved":false,"is_disabled":true,"rental_uris":{"android":"levelo://app?vid=c25da445-2bd6-4668-92d8-67b9db836116","ios":"levelo://app?vid=c25da445-2bd6-4668-92d8-67b9db836116"},"vehicle_type_id":"4","last_reported":1736420849,"current_range_meters":1200,"station_id":"","pricing_plan_id":"cebpf4jnsgd1na2vs0mg"},{"bike_id":"c8455dc2-c557-4a77-bde0-6d761dfe1ac1","system_id":"levelo_inurba_marseille","lat":43.27807,"lon":5.40739,"is_reserved":false,"is_disabled":false,"rental_uris":{"android":"levelo://app?vid=c8455dc2-c557-4a77-bde0-6d761dfe1ac1","ios":"levelo://app?vid=c8455dc2-c557-4a77-bde0-6d761dfe1ac1"},"vehicle_type_id":"4","last_reported":1736420849,"current_range_meters":36800,"station_id":"ce4bhnh2rcd13ifvqgtg","pricing_plan_id":"cebpf4jnsgd1na2vs0mg"},{"bike_id":"051ee3d7-17a2-401e-9bd5-08261edf66ab","system_id":"levelo_inurba_marseille","lat":43.2595,"lon":5.40849,"is_reserved":false,"is_disabled":false,"rental_uris":{"android":"levelo://app?vid=051ee3d7-17a2-401e-9bd5-08261edf66ab","ios":"levelo://app?vid=051ee3d7-17a2-401e-9bd5-08261edf66ab"},"vehicle_type_id":"4","last_reported":1736420849,"current_range_meters":22400,"station_id":"ce4bhm92rcd13ifvqglg","pricing_plan_id":"cebpf4jnsgd1na2vs0mg"},{"bike_id":"89b3ad15-3316-4a7f-a04e-7776dd6ff918","system_id":"levelo_inurba_marseille","lat":43.30952,"lon":5.39054,"is_reserved":false,"is_disabled":false,"rental_uris":{"android":"levelo://app?vid=89b3ad15-3316-4a7f-a04e-7776dd6ff918","ios":"levelo://app?vid=89b3ad15-3316-4a7f-a04e-7776dd6ff918"},"vehicle_type_id":"4","last_reported":1736420849,"current_range_meters":38800,"station_id":"ce4bgup2rcd13ifvqco0","pricing_plan_id":"cebpf4jnsgd1na2vs0mg"},{"bike_id":"784c114c-6b4b-4d66-8437-8a364b7d7999","system_id":"levelo_inurba_marseille","lat":43.33695,"lon":5.39203,"is_reserved":false,"is_disabled":false,"rental_uris":{"android":"levelo://app?vid=784c114c-6b4b-4d66-8437-8a364b7d7999","ios":"levelo://app?vid=784c114c-6b4b-4d66-8437-8a364b7d7999"},"vehicle_type_id":"4","last_reported":1736420849,"current_range_meters":30400,"station_id":"ce4bhr92rcd13ifvqhsg","pricing_plan_id":"cebpf4jnsgd1na2vs0mg"},{"bike_id":"bf887147-63c1-446c-9415-5e82581b5a97","system_id":"levelo_inurba_marseille","lat":43.30257,"lon":5.37739,"is_reserved":false,"is_disabled":false,"rental_uris":{"android":"levelo://app?vid=bf887147-63c1-446c-9415-5e82581b5a97","ios":"levelo://app?vid=bf887147-63c1-446c-9415-5e82581b5a97"},"vehicle_type_id":"4","last_reported":1736420849,"current_range_meters":38800,"station_id":"ce4bguh2rcd13ifvqcj0","pricing_plan_id":"cebpf4jnsgd1na2vs0mg"},{"bike_id":"fb46dcbd-ef43-4c2a-ae49-18369731c7a3","system_id":"levelo_inurba_marseille","lat":43.24529,"lon":5.38042,"is_reserved":false,"is_disabled":false,"rental_uris":{"android":"levelo://app?vid=fb46dcbd-ef43-4c2a-ae49-18369731c7a3","ios":"levelo://app?vid=fb46dcbd-ef43-4c2a-ae49-18369731c7a3"},"vehicle_type_id":"4","last_reported":1736420849,"current_range_meters":25200,"station_id":"","pricing_plan_id":"cebpf4jnsgd1na2vs0mg"},{"bike_id":"16177650-5100-49b9-9b1c-714eb844e65d","system_id":"levelo_inurba_marseille","lat":43.29294,"lon":5.37447,"is_reserved":false,"is_disabled":false,"rental_uris":{"android":"levelo://app?vid=16177650-5100-49b9-9b1c-714eb844e65d","ios":"levelo://app?vid=16177650-5100-49b9-9b1c-714eb844e65d"},"vehicle_type_id":"4","last_reported":1736420849,"current_range_meters":39200,"station_id":"ce4bgi12rcd13ifvqb70","pricing_plan_id":"cebpf4jnsgd1na2vs0mg"},{"bike_id":"ece82557-6569-4215-9027-5b44a37fe52e","system_id":"levelo_inurba_marseille","lat":43.29124,"lon":5.37978,"is_reserved":false,"is_disabled":true,"rental_uris":{"android":"levelo://app?vid=ece82557-6569-4215-9027-5b44a37fe52e","ios":"levelo://app?vid=ece82557-6569-4215-9027-5b44a37fe52e"},"vehicle_type_id":"4","last_reported":1736420849,"current_range_meters":0,"station_id":"","pricing_plan_id":"cebpf4jnsgd1na2vs0mg"},{"bike_id":"27867ec6-dc38-4e93-906a-9fa049ef4236","system_id":"levelo_inurba_marseille","lat":43.30537,"lon":5.36701,"is_reserved":false,"is_disabled":false,"rental_uris":{"android":"levelo://app?vid=27867ec6-dc38-4e93-906a-9fa049ef4236","ios":"levelo://app?vid=27867ec6-dc38-4e93-906a-9fa049ef4236"},"vehicle_type_id":"4","last_reported":1736420849,"current_range_meters":39200,"station_id":"ce4bgrp2rcd13ifvqc9g","pricing_plan_id":"cebpf4jnsgd1na2vs0mg"},{"bike_id":"8d526d6f-8142-465d-9fcd-842b36057e72","system_id":"levelo_inurba_marseille","lat":43.30097,"lon":5.39089,"is_reserved":false,"is_disabled":false,"rental_uris":{"android":"levelo://app?vid=8d526d6f-8142-465d-9fcd-842b36057e72","ios":"levelo://app?vid=8d526d6f-8142-465d-9fcd-842b36057e72"},"vehicle_type_id":"4","last_reported":1736420849,"current_range_meters":30400,"station_id":"ce4bh192rcd13ifvqdb0","pricing_plan_id":"cebpf4jnsgd1na2vs0mg"},{"bike_id":"1fee3b5e-4ccd-4ec7-919c-c7ad2a7db682","system_id":"levelo_inurba_marseille","lat":43.25081,"lon":5.39525,"is_reserved":false,"is_disabled":false,"rental_uris":{"android":"levelo://app?vid=1fee3b5e-4ccd-4ec7-919c-c7ad2a7db682","ios":"levelo://app?vid=1fee3b5e-4ccd-4ec7-919c-c7ad2a7db682"},"vehicle_type_id":"4","last_reported":1736420849,"current_range_meters":8400,"station_id":"ce4bhm12rcd13ifvqgkg","pricing_plan_id":"cebpf4jnsgd1na2vs0mg"},{"bike_id":"004c2ac5-7f25-4e48-8a80-9a02537f6ba6","system_id":"levelo_inurba_marseille","lat":43.32096,"lon":5.36777,"is_reserved":false,"is_disabled":false,"rental_uris":{"android":"levelo://app?vid=004c2ac5-7f25-4e48-8a80-9a02537f6ba6","ios":"levelo://app?vid=004c2ac5-7f25-4e48-8a80-9a02537f6ba6"},"vehicle_type_id":"4","last_reported":1736420849,"current_range_meters":13600,"station_id":"ce4bhrh2rcd13ifvqhug","pricing_plan_id":"cebpf4jnsgd1na2vs0mg"},{"bike_id":"8bd999a3-1eff-4ddc-85f4-bc9b4d27feb6","system_id":"levelo_inurba_marseille","lat":43.26197,"lon":5.37935,"is_reserved":false,"is_disabled":false,"rental_uris":{"android":"levelo://app?vid=8bd999a3-1eff-4ddc-85f4-bc9b4d27feb6","ios":"levelo://app?vid=8bd999a3-1eff-4ddc-85f4-bc9b4d27feb6"},"vehicle_type_id":"4","last_reported":1736420849,"current_range_meters":38800,"station_id":"ce4bhjp2rcd13ifvqg90","pricing_plan_id":"cebpf4jnsgd1na2vs0mg"},{"bike_id":"c8c55803-c026-4dab-b790-5025d96c580c","system_id":"levelo_inurba_marseille","lat":43.30521,"lon":5.36545,"is_reserved":false,"is_disabled":false,"rental_uris":{"android":"levelo://app?vid=c8c55803-c026-4dab-b790-5025d96c580c","ios":"levelo://app?vid=c8c55803-c026-4dab-b790-5025d96c580c"},"vehicle_type_id":"4","last_reported":1736420849,"current_range_meters":26800,"station_id":"ce4bgs12rcd13ifvqcag","pricing_plan_id":"cebpf4jnsgd1na2vs0mg"},{"bike_id":"ae3cabaa-d3a4-4e82-9c2d-04374c66ce1d","system_id":"levelo_inurba_marseille","lat":43.31119,"lon":5.37805,"is_reserved":false,"is_disabled":false,"rental_uris":{"android":"levelo://app?vid=ae3cabaa-d3a4-4e82-9c2d-04374c66ce1d","ios":"levelo://app?vid=ae3cabaa-d3a4-4e82-9c2d-04374c66ce1d"},"vehicle_type_id":"4","last_reported":1736420849,"current_range_meters":32000,"station_id":"ce4bgt12rcd13ifvqcd0","pricing_plan_id":"cebpf4jnsgd1na2vs0mg"},{"bike_id":"99ed20f4-03db-4a39-a00a-188ecb3fb63a","system_id":"levelo_inurba_marseille","lat":43.23151,"lon":5.43719,"is_reserved":false,"is_disabled":false,"rental_uris":{"android":"levelo://app?vid=99ed20f4-03db-4a39-a00a-188ecb3fb63a","ios":"levelo://app?vid=99ed20f4-03db-4a39-a00a-188ecb3fb63a"},"vehicle_type_id":"4","last_reported":1736420849,"current_range_meters":9600,"station_id":"ce4bhmp2rcd13ifvqgog","pricing_plan_id":"cebpf4jnsgd1na2vs0mg"},{"bike_id":"7e2cb16e-abcd-40ff-b2a9-ee4f3bdf6a2a","system_id":"levelo_inurba_marseille","lat":43.30956,"lon":5.39065,"is_reserved":false,"is_disabled":false,"rental_uris":{"android":"levelo://app?vid=7e2cb16e-abcd-40ff-b2a9-ee4f3bdf6a2a","ios":"levelo://app?vid=7e2cb16e-abcd-40ff-b2a9-ee4f3bdf6a2a"},"vehicle_type_id":"4","last_reported":1736420849,"current_range_meters":29600,"station_id":"ce4bgup2rcd13ifvqco0","pricing_plan_id":"cebpf4jnsgd1na2vs0mg"},{"bike_id":"8716db54-126d-408a-8960-149e8432745d","system_id":"levelo_inurba_marseille","lat":43.25924,"lon":5.40912,"is_reserved":false,"is_disabled":false,"rental_uris":{"android":"levelo://app?vid=8716db54-126d-408a-8960-149e8432745d","ios":"levelo://app?vid=8716db54-126d-408a-8960-149e8432745d"},"vehicle_type_id":"4","last_reported":1736420849,"current_range_meters":35200,"station_id":"ce4bhm92rcd13ifvqglg","pricing_plan_id":"cebpf4jnsgd1na2vs0mg"},{"bike_id":"a586b1c5-ff92-4ce3-8228-e8db3edcd1f2","system_id":"levelo_inurba_marseille","lat":43.29699,"lon":5.37707,"is_reserved":false,"is_disabled":false,"rental_uris":{"android":"levelo://app?vid=a586b1c5-ff92-4ce3-8228-e8db3edcd1f2","ios":"levelo://app?vid=a586b1c5-ff92-4ce3-8228-e8db3edcd1f2"},"vehicle_type_id":"4","last_reported":1736420849,"current_range_meters":38000,"station_id":"ce4bgkh2rcd13ifvqbl0","pricing_plan_id":"cebpf4jnsgd1na2vs0mg"},{"bike_id":"5158af03-8545-4910-a50e-0ae3124d9ea5","system_id":"levelo_inurba_marseille","lat":43.29004,"lon":5.38129,"is_reserved":false,"is_disabled":false,"rental_uris":{"android":"levelo://app?vid=5158af03-8545-4910-a50e-0ae3124d9ea5","ios":"levelo://app?vid=5158af03-8545-4910-a50e-0ae3124d9ea5"},"vehicle_type_id":"4","last_reported":1736420849,"current_range_meters":37600,"station_id":"ce4bh4p2rcd13ifvqe1g","pricing_plan_id":"cebpf4jnsgd1na2vs0mg"},{"bike_id":"50f8ee15-cb32-4521-b4fa-58b41ff9f783","system_id":"levelo_inurba_marseille","lat":43.27488,"lon":5.4246,"is_reserved":false,"is_disabled":false,"rental_uris":{"android":"levelo://app?vid=50f8ee15-cb32-4521-b4fa-58b41ff9f783","ios":"levelo://app?vid=50f8ee15-cb32-4521-b4fa-58b41ff9f783"},"vehicle_type_id":"4","last_reported":1736420849,"current_range_meters":19600,"station_id":"ce4bhn92rcd13ifvqgrg","pricing_plan_id":"cebpf4jnsgd1na2vs0mg"},{"bike_id":"6fa4a0b7-3bc7-4cab-82aa-608d21b68d70","system_id":"levelo_inurba_marseille","lat":43.33017,"lon":5.39049,"is_reserved":false,"is_disabled":false,"rental_uris":{"android":"levelo://app?vid=6fa4a0b7-3bc7-4cab-82aa-608d21b68d70","ios":"levelo://app?vid=6fa4a0b7-3bc7-4cab-82aa-608d21b68d70"},"vehicle_type_id":"4","last_reported":1736420849,"current_range_meters":38000,"station_id":"ce4bhr92rcd13ifvqhrg","pricing_plan_id":"cebpf4jnsgd1na2vs0mg"},{"bike_id":"e64ccaa1-341f-4e45-98d3-5478b7337fac","system_id":"levelo_inurba_marseille","lat":43.27509,"lon":5.42462,"is_reserved":false,"is_disabled":false,"rental_uris":{"android":"levelo://app?vid=e64ccaa1-341f-4e45-98d3-5478b7337fac","ios":"levelo://app?vid=e64ccaa1-341f-4e45-98d3-5478b7337fac"},"vehicle_type_id":"4","last_reported":1736420849,"current_range_meters":24400,"station_id":"ce4bhn92rcd13ifvqgrg","pricing_plan_id":"cebpf4jnsgd1na2vs0mg"},{"bike_id":"a8590d32-7496-4f75-b01a-36bc4c7215dc","system_id":"levelo_inurba_marseille","lat":43.25108,"lon":5.4035,"is_reserved":false,"is_disabled":false,"rental_uris":{"android":"levelo://app?vid=a8590d32-7496-4f75-b01a-36bc4c7215dc","ios":"levelo://app?vid=a8590d32-7496-4f75-b01a-36bc4c7215dc"},"vehicle_type_id":"4","last_reported":1736420849,"current_range_meters":24400,"station_id":"ce4bhlh2rcd13ifvqgig","pricing_plan_id":"cebpf4jnsgd1na2vs0mg"},{"bike_id":"7dbfaf48-d8ed-490a-9aa7-fe6e528a238b","system_id":"levelo_inurba_marseille","lat":43.29309,"lon":5.37145,"is_reserved":false,"is_disabled":false,"rental_uris":{"android":"levelo://app?vid=7dbfaf48-d8ed-490a-9aa7-fe6e528a238b","ios":"levelo://app?vid=7dbfaf48-d8ed-490a-9aa7-fe6e528a238b"},"vehicle_type_id":"4","last_reported":1736420849,"current_range_meters":29600,"station_id":"ce4bgh92rcd13ifvqb40","pricing_plan_id":"cebpf4jnsgd1na2vs0mg"},{"bike_id":"0548464b-ef06-42b9-8259-a8997dec7927","system_id":"levelo_inurba_marseille","lat":43.29363,"lon":5.37853,"is_reserved":false,"is_disabled":false,"rental_uris":{"android":"levelo://app?vid=0548464b-ef06-42b9-8259-a8997dec7927","ios":"levelo://app?vid=0548464b-ef06-42b9-8259-a8997dec7927"},"vehicle_type_id":"4","last_reported":1736420849,"current_range_meters":38800,"station_id":"ce4bgjh2rcd13ifvqbf0","pricing_plan_id":"cebpf4jnsgd1na2vs0mg"},{"bike_id":"feeeae9a-4bcc-477a-bc8c-e9391fa8aedd","system_id":"levelo_inurba_marseille","lat":43.29179,"lon":5.39318,"is_reserved":false,"is_disabled":true,"rental_uris":{"android":"levelo://app?vid=feeeae9a-4bcc-477a-bc8c-e9391fa8aedd","ios":"levelo://app?vid=feeeae9a-4bcc-477a-bc8c-e9391fa8aedd"},"vehicle_type_id":"4","last_reported":1736420849,"current_range_meters":0,"station_id":"ce4bh192rcd13ifvqdd0","pricing_plan_id":"cebpf4jnsgd1na2vs0mg"},{"bike_id":"bbb42691-618e-438b-93dc-2acd2c34e075","system_id":"levelo_inurba_marseille","lat":43.30808,"lon":5.43524,"is_reserved":false,"is_disabled":false,"rental_uris":{"android":"levelo://app?vid=bbb42691-618e-438b-93dc-2acd2c34e075","ios":"levelo://app?vid=bbb42691-618e-438b-93dc-2acd2c34e075"},"vehicle_type_id":"4","last_reported":1736420849,"current_range_meters":38400,"station_id":"ce4bhph2rcd13ifvqheg","pricing_plan_id":"cebpf4jnsgd1na2vs0mg"},{"bike_id":"dbe4d7d2-95f9-4a28-b000-f9ac7c3f52eb","system_id":"levelo_inurba_marseille","lat":43.29174,"lon":5.39372,"is_reserved":false,"is_disabled":true,"rental_uris":{"android":"levelo://app?vid=dbe4d7d2-95f9-4a28-b000-f9ac7c3f52eb","ios":"levelo://app?vid=dbe4d7d2-95f9-4a28-b000-f9ac7c3f52eb"},"vehicle_type_id":"4","last_reported":1736420849,"current_range_meters":0,"station_id":"","pricing_plan_id":"cebpf4jnsgd1na2vs0mg"},{"bike_id":"b02ae6ee-06d8-4b9f-9872-c8fcf9b7576a","system_id":"levelo_inurba_marseille","lat":43.30573,"lon":5.36536,"is_reserved":false,"is_disabled":false,"rental_uris":{"android":"levelo://app?vid=b02ae6ee-06d8-4b9f-9872-c8fcf9b7576a","ios":"levelo://app?vid=b02ae6ee-06d8-4b9f-9872-c8fcf9b7576a"},"vehicle_type_id":"4","last_reported":1736420849,"current_range_meters":20000,"station_id":"ce4bgs12rcd13ifvqcag","pricing_plan_id":"cebpf4jnsgd1na2vs0mg"},{"bike_id":"5fa377fe-eb3b-4c5f-ab50-699e5f8d5bb0","system_id":"levelo_inurba_marseille","lat":43.26787,"lon":5.39436,"is_reserved":false,"is_disabled":false,"rental_uris":{"android":"levelo://app?vid=5fa377fe-eb3b-4c5f-ab50-699e5f8d5bb0","ios":"levelo://app?vid=5fa377fe-eb3b-4c5f-ab50-699e5f8d5bb0"},"vehicle_type_id":"4","last_reported":1736420849,"current_range_meters":38800,"station_id":"ce4bhh12rcd13ifvqfg0","pricing_plan_id":"cebpf4jnsgd1na2vs0mg"},{"bike_id":"850c8c32-31ea-45fe-8c48-610c59d15175","system_id":"levelo_inurba_marseille","lat":43.25583,"lon":5.38251,"is_reserved":false,"is_disabled":false,"rental_uris":{"android":"levelo://app?vid=850c8c32-31ea-45fe-8c48-610c59d15175","ios":"levelo://app?vid=850c8c32-31ea-45fe-8c48-610c59d15175"},"vehicle_type_id":"4","last_reported":1736420849,"current_range_meters":26800,"station_id":"ce4bhih2rcd13ifvqfs0","pricing_plan_id":"cebpf4jnsgd1na2vs0mg"},{"bike_id":"88d3281d-3774-4453-a399-da9a7778c29e","system_id":"levelo_inurba_marseille","lat":43.26562,"lon":5.39058,"is_reserved":false,"is_disabled":false,"rental_uris":{"android":"levelo://app?vid=88d3281d-3774-4453-a399-da9a7778c29e","ios":"levelo://app?vid=88d3281d-3774-4453-a399-da9a7778c29e"},"vehicle_type_id":"4","last_reported":1736420849,"current_range_meters":38800,"station_id":"ce4bhe12rcd13ifvqf30","pricing_plan_id":"cebpf4jnsgd1na2vs0mg"},{"bike_id":"e5410bec-fb17-4f9c-8010-02da077ef2ca","system_id":"levelo_inurba_marseille","lat":43.2802,"lon":5.38765,"is_reserved":false,"is_disabled":false,"rental_uris":{"android":"levelo://app?vid=e5410bec-fb17-4f9c-8010-02da077ef2ca","ios":"levelo://app?vid=e5410bec-fb17-4f9c-8010-02da077ef2ca"},"vehicle_type_id":"4","last_reported":1736420849,"current_range_meters":6000,"station_id":"","pricing_plan_id":"cebpf4jnsgd1na2vs0mg"},{"bike_id":"e9b1302c-9612-4751-a40f-ab029a63718c","system_id":"levelo_inurba_marseille","lat":43.29526,"lon":5.39051,"is_reserved":false,"is_disabled":false,"rental_uris":{"android":"levelo://app?vid=e9b1302c-9612-4751-a40f-ab029a63718c","ios":"levelo://app?vid=e9b1302c-9612-4751-a40f-ab029a63718c"},"vehicle_type_id":"4","last_reported":1736420849,"current_range_meters":39200,"station_id":"ce4bh3p2rcd13ifvqdp0","pricing_plan_id":"cebpf4jnsgd1na2vs0mg"},{"bike_id":"a816258e-3246-4099-b421-3c9b784b731d","system_id":"levelo_inurba_marseille","lat":43.24203,"lon":5.39693,"is_reserved":false,"is_disabled":false,"rental_uris":{"android":"levelo://app?vid=a816258e-3246-4099-b421-3c9b784b731d","ios":"levelo://app?vid=a816258e-3246-4099-b421-3c9b784b731d"},"vehicle_type_id":"4","last_reported":1736420849,"current_range_meters":38800,"station_id":"ce4bhn12rcd13ifvqgpg","pricing_plan_id":"cebpf4jnsgd1na2vs0mg"},{"bike_id":"fa4e1d94-57a7-4fd9-8196-d235d2c57bf0","system_id":"levelo_inurba_marseille","lat":43.30538,"lon":5.36703,"is_reserved":false,"is_disabled":false,"rental_uris":{"android":"levelo://app?vid=fa4e1d94-57a7-4fd9-8196-d235d2c57bf0","ios":"levelo://app?vid=fa4e1d94-57a7-4fd9-8196-d235d2c57bf0"},"vehicle_type_id":"4","last_reported":1736420849,"current_range_meters":39200,"station_id":"ce4bgrp2rcd13ifvqc9g","pricing_plan_id":"cebpf4jnsgd1na2vs0mg"},{"bike_id":"19569f5a-d0dd-4bc0-9181-4a1431159a72","system_id":"levelo_inurba_marseille","lat":43.31073,"lon":5.38364,"is_reserved":false,"is_disabled":false,"rental_uris":{"android":"levelo://app?vid=19569f5a-d0dd-4bc0-9181-4a1431159a72","ios":"levelo://app?vid=19569f5a-d0dd-4bc0-9181-4a1431159a72"},"vehicle_type_id":"4","last_reported":1736420849,"current_range_meters":33600,"station_id":"ce4bgv92rcd13ifvqcr0","pricing_plan_id":"cebpf4jnsgd1na2vs0mg"},{"bike_id":"07acdbf0-e2f3-489b-bd42-61cb30669b29","system_id":"levelo_inurba_marseille","lat":43.27043,"lon":5.42303,"is_reserved":false,"is_disabled":false,"rental_uris":{"android":"levelo://app?vid=07acdbf0-e2f3-489b-bd42-61cb30669b29","ios":"levelo://app?vid=07acdbf0-e2f3-489b-bd42-61cb30669b29"},"vehicle_type_id":"4","last_reported":1736420849,"current_range_meters":39200,"station_id":"ce4bhk92rcd13ifvqgb0","pricing_plan_id":"cebpf4jnsgd1na2vs0mg"},{"bike_id":"ae870ab4-710e-4ed3-9af4-fcc88a5e6080","system_id":"levelo_inurba_marseille","lat":43.26934,"lon":5.38915,"is_reserved":false,"is_disabled":false,"rental_uris":{"android":"levelo://app?vid=ae870ab4-710e-4ed3-9af4-fcc88a5e6080","ios":"levelo://app?vid=ae870ab4-710e-4ed3-9af4-fcc88a5e6080"},"vehicle_type_id":"4","last_reported":1736420849,"current_range_meters":39200,"station_id":"ce4bhhh2rcd13ifvqfl0","pricing_plan_id":"cebpf4jnsgd1na2vs0mg"},{"bike_id":"074f581e-c7b5-47b2-a4b9-c284fa70c031","system_id":"levelo_inurba_marseille","lat":43.28475,"lon":5.38549,"is_reserved":false,"is_disabled":true,"rental_uris":{"android":"levelo://app?vid=074f581e-c7b5-47b2-a4b9-c284fa70c031","ios":"levelo://app?vid=074f581e-c7b5-47b2-a4b9-c284fa70c031"},"vehicle_type_id":"4","last_reported":1736420849,"current_range_meters":38800,"station_id":"ce4bh8p2rcd13ifvqeb0","pricing_plan_id":"cebpf4jnsgd1na2vs0mg"},{"bike_id":"efb0152a-cc22-4dc9-88b0-c5a8bb232f5a","system_id":"levelo_inurba_marseille","lat":43.26192,"lon":5.37936,"is_reserved":false,"is_disabled":false,"rental_uris":{"android":"levelo://app?vid=efb0152a-cc22-4dc9-88b0-c5a8bb232f5a","ios":"levelo://app?vid=efb0152a-cc22-4dc9-88b0-c5a8bb232f5a"},"vehicle_type_id":"4","last_reported":1736420849,"current_range_meters":30000,"station_id":"ce4bhjp2rcd13ifvqg90","pricing_plan_id":"cebpf4jnsgd1na2vs0mg"},{"bike_id":"1fe4de93-a972-46c6-bbc7-b129ab9b60fe","system_id":"levelo_inurba_marseille","lat":43.27481,"lon":5.42468,"is_reserved":false,"is_disabled":false,"rental_uris":{"android":"levelo://app?vid=1fe4de93-a972-46c6-bbc7-b129ab9b60fe","ios":"levelo://app?vid=1fe4de93-a972-46c6-bbc7-b129ab9b60fe"},"vehicle_type_id":"4","last_reported":1736420849,"current_range_meters":29600,"station_id":"ce4bhn92rcd13ifvqgrg","pricing_plan_id":"cebpf4jnsgd1na2vs0mg"},{"bike_id":"2efead72-824c-45ef-8cf3-b657af317181","system_id":"levelo_inurba_marseille","lat":43.29858,"lon":5.3628,"is_reserved":false,"is_disabled":false,"rental_uris":{"android":"levelo://app?vid=2efead72-824c-45ef-8cf3-b657af317181","ios":"levelo://app?vid=2efead72-824c-45ef-8cf3-b657af317181"},"vehicle_type_id":"4","last_reported":1736420849,"current_range_meters":38800,"station_id":"ce4bgpp2rcd13ifvqc3g","pricing_plan_id":"cebpf4jnsgd1na2vs0mg"},{"bike_id":"0c9f26e2-be7f-4990-af23-4023b9fc089b","system_id":"levelo_inurba_marseille","lat":43.31081,"lon":5.42439,"is_reserved":false,"is_disabled":false,"rental_uris":{"android":"levelo://app?vid=0c9f26e2-be7f-4990-af23-4023b9fc089b","ios":"levelo://app?vid=0c9f26e2-be7f-4990-af23-4023b9fc089b"},"vehicle_type_id":"4","last_reported":1736420849,"current_range_meters":38400,"station_id":"ce4bhp92rcd13ifvqhag","pricing_plan_id":"cebpf4jnsgd1na2vs0mg"},{"bike_id":"cc3bed21-e96e-474b-b4b9-68b02eb15345","system_id":"levelo_inurba_marseille","lat":43.272103,"lon":5.391792,"is_reserved":false,"is_disabled":false,"rental_uris":{"android":"levelo://app?vid=cc3bed21-e96e-474b-b4b9-68b02eb15345","ios":"levelo://app?vid=cc3bed21-e96e-474b-b4b9-68b02eb15345"},"vehicle_type_id":"4","last_reported":1736420849,"current_range_meters":30800,"station_id":"ce4bhhp2rcd13ifvqfm0","pricing_plan_id":"cebpf4jnsgd1na2vs0mg"},{"bike_id":"a58fb6b9-b1fe-4a4f-8eda-40694b677afb","system_id":"levelo_inurba_marseille","lat":43.30324,"lon":5.40427,"is_reserved":false,"is_disabled":true,"rental_uris":{"android":"levelo://app?vid=a58fb6b9-b1fe-4a4f-8eda-40694b677afb","ios":"levelo://app?vid=a58fb6b9-b1fe-4a4f-8eda-40694b677afb"},"vehicle_type_id":"4","last_reported":1736420849,"current_range_meters":31200,"station_id":"ce4bh012rcd13ifvqd10","pricing_plan_id":"cebpf4jnsgd1na2vs0mg"},{"bike_id":"bfe61413-0f2e-4c52-b47b-cd780543338a","system_id":"levelo_inurba_marseille","lat":43.27958,"lon":5.38738,"is_reserved":false,"is_disabled":false,"rental_uris":{"android":"levelo://app?vid=bfe61413-0f2e-4c52-b47b-cd780543338a","ios":"levelo://app?vid=bfe61413-0f2e-4c52-b47b-cd780543338a"},"vehicle_type_id":"4","last_reported":1736420849,"current_range_meters":39200,"station_id":"ce4bhg12rcd13ifvqf80","pricing_plan_id":"cebpf4jnsgd1na2vs0mg"},{"bike_id":"ef55feca-657c-488b-9e32-b2fe658b0af8","system_id":"levelo_inurba_marseille","lat":43.27227,"lon":5.39113,"is_reserved":false,"is_disabled":false,"rental_uris":{"android":"levelo://app?vid=ef55feca-657c-488b-9e32-b2fe658b0af8","ios":"levelo://app?vid=ef55feca-657c-488b-9e32-b2fe658b0af8"},"vehicle_type_id":"4","last_reported":1736420849,"current_range_meters":38800,"station_id":"","pricing_plan_id":"cebpf4jnsgd1na2vs0mg"},{"bike_id":"42d905c4-9ee2-4402-a796-7c4f27c94b70","system_id":"levelo_inurba_marseille","lat":43.29783,"lon":5.3811,"is_reserved":false,"is_disabled":true,"rental_uris":{"android":"levelo://app?vid=42d905c4-9ee2-4402-a796-7c4f27c94b70","ios":"levelo://app?vid=42d905c4-9ee2-4402-a796-7c4f27c94b70"},"vehicle_type_id":"4","last_reported":1736420849,"current_range_meters":12000,"station_id":"ce4bgip2rcd13ifvqbb0","pricing_plan_id":"cebpf4jnsgd1na2vs0mg"},{"bike_id":"9fd9a3de-90df-466c-8510-f29e450ec62b","system_id":"levelo_inurba_marseille","lat":43.31075,"lon":5.42436,"is_reserved":false,"is_disabled":true,"rental_uris":{"android":"levelo://app?vid=9fd9a3de-90df-466c-8510-f29e450ec62b","ios":"levelo://app?vid=9fd9a3de-90df-466c-8510-f29e450ec62b"},"vehicle_type_id":"4","last_reported":1736420849,"current_range_meters":14000,"station_id":"ce4bhp92rcd13ifvqhag","pricing_plan_id":"cebpf4jnsgd1na2vs0mg"},{"bike_id":"7e647b87-ee39-48c8-8a57-8ca415c7293d","system_id":"levelo_inurba_marseille","lat":43.23053,"lon":5.35508,"is_reserved":false,"is_disabled":false,"rental_uris":{"android":"levelo://app?vid=7e647b87-ee39-48c8-8a57-8ca415c7293d","ios":"levelo://app?vid=7e647b87-ee39-48c8-8a57-8ca415c7293d"},"vehicle_type_id":"4","last_reported":1736420849,"current_range_meters":34000,"station_id":"cpo3342slgdg3j2ifvpg","pricing_plan_id":"cebpf4jnsgd1na2vs0mg"},{"bike_id":"a0df9193-55f6-4a03-826a-744e803b6ed4","system_id":"levelo_inurba_marseille","lat":43.24661,"lon":5.38158,"is_reserved":false,"is_disabled":false,"rental_uris":{"android":"levelo://app?vid=a0df9193-55f6-4a03-826a-744e803b6ed4","ios":"levelo://app?vid=a0df9193-55f6-4a03-826a-744e803b6ed4"},"vehicle_type_id":"4","last_reported":1736420849,"current_range_meters":32800,"station_id":"ce4bhih2rcd13ifvqfr0","pricing_plan_id":"cebpf4jnsgd1na2vs0mg"},{"bike_id":"4d4cfebe-9e95-419f-8680-c73468cc35e1","system_id":"levelo_inurba_marseille","lat":43.29869,"lon":5.38919,"is_reserved":false,"is_disabled":false,"rental_uris":{"android":"levelo://app?vid=4d4cfebe-9e95-419f-8680-c73468cc35e1","ios":"levelo://app?vid=4d4cfebe-9e95-419f-8680-c73468cc35e1"},"vehicle_type_id":"4","last_reported":1736420849,"current_range_meters":30000,"station_id":"ce4bh392rcd13ifvqdl0","pricing_plan_id":"cebpf4jnsgd1na2vs0mg"},{"bike_id":"f3ac7703-aae0-4932-9e81-9257657457ab","system_id":"levelo_inurba_marseille","lat":43.23149,"lon":5.43725,"is_reserved":false,"is_disabled":false,"rental_uris":{"android":"levelo://app?vid=f3ac7703-aae0-4932-9e81-9257657457ab","ios":"levelo://app?vid=f3ac7703-aae0-4932-9e81-9257657457ab"},"vehicle_type_id":"4","last_reported":1736420849,"current_range_meters":20000,"station_id":"ce4bhmp2rcd13ifvqgog","pricing_plan_id":"cebpf4jnsgd1na2vs0mg"},{"bike_id":"00e9ae50-e0de-4a0b-82ae-9d2d5db35cee","system_id":"levelo_inurba_marseille","lat":43.2407,"lon":5.37728,"is_reserved":false,"is_disabled":false,"rental_uris":{"android":"levelo://app?vid=00e9ae50-e0de-4a0b-82ae-9d2d5db35cee","ios":"levelo://app?vid=00e9ae50-e0de-4a0b-82ae-9d2d5db35cee"},"vehicle_type_id":"4","last_reported":1736420849,"current_range_meters":30800,"station_id":"ce4bhnp2rcd13ifvqgvg","pricing_plan_id":"cebpf4jnsgd1na2vs0mg"},{"bike_id":"1f50cc2d-c6ef-46fb-9c7f-27b6608a6555","system_id":"levelo_inurba_marseille","lat":43.30909,"lon":5.36849,"is_reserved":false,"is_disabled":false,"rental_uris":{"android":"levelo://app?vid=1f50cc2d-c6ef-46fb-9c7f-27b6608a6555","ios":"levelo://app?vid=1f50cc2d-c6ef-46fb-9c7f-27b6608a6555"},"vehicle_type_id":"4","last_reported":1736420849,"current_range_meters":32000,"station_id":"ce4bgn92rcd13ifvqbvg","pricing_plan_id":"cebpf4jnsgd1na2vs0mg"},{"bike_id":"66262c96-b45c-4483-b296-8a78ef082310","system_id":"levelo_inurba_marseille","lat":43.30265,"lon":5.3773,"is_reserved":false,"is_disabled":false,"rental_uris":{"android":"levelo://app?vid=66262c96-b45c-4483-b296-8a78ef082310","ios":"levelo://app?vid=66262c96-b45c-4483-b296-8a78ef082310"},"vehicle_type_id":"4","last_reported":1736420849,"current_range_meters":38800,"station_id":"ce4bguh2rcd13ifvqcj0","pricing_plan_id":"cebpf4jnsgd1na2vs0mg"},{"bike_id":"696dfc92-138e-4d3e-aa18-06f2860b6345","system_id":"levelo_inurba_marseille","lat":43.28434,"lon":5.39203,"is_reserved":false,"is_disabled":false,"rental_uris":{"android":"levelo://app?vid=696dfc92-138e-4d3e-aa18-06f2860b6345","ios":"levelo://app?vid=696dfc92-138e-4d3e-aa18-06f2860b6345"},"vehicle_type_id":"4","last_reported":1736420849,"current_range_meters":28800,"station_id":"ce4bhoh2rcd13ifvqh5g","pricing_plan_id":"cebpf4jnsgd1na2vs0mg"},{"bike_id":"f5a2d5d9-5139-4022-974a-ebe6ea8afb5b","system_id":"levelo_inurba_marseille","lat":43.29303,"lon":5.3743,"is_reserved":false,"is_disabled":false,"rental_uris":{"android":"levelo://app?vid=f5a2d5d9-5139-4022-974a-ebe6ea8afb5b","ios":"levelo://app?vid=f5a2d5d9-5139-4022-974a-ebe6ea8afb5b"},"vehicle_type_id":"4","last_reported":1736420849,"current_range_meters":33600,"station_id":"ce4bgi12rcd13ifvqb70","pricing_plan_id":"cebpf4jnsgd1na2vs0mg"},{"bike_id":"b17e354d-d0e7-4d9c-af1f-e30ebce9a430","system_id":"levelo_inurba_marseille","lat":43.23186,"lon":5.3999,"is_reserved":false,"is_disabled":false,"rental_uris":{"android":"levelo://app?vid=b17e354d-d0e7-4d9c-af1f-e30ebce9a430","ios":"levelo://app?vid=b17e354d-d0e7-4d9c-af1f-e30ebce9a430"},"vehicle_type_id":"4","last_reported":1736420849,"current_range_meters":36800,"station_id":"ce4bhn12rcd13ifvqgqg","pricing_plan_id":"cebpf4jnsgd1na2vs0mg"},{"bike_id":"13cbce6c-172d-4fb0-8f36-08425c851344","system_id":"levelo_inurba_marseille","lat":43.30263,"lon":5.37736,"is_reserved":false,"is_disabled":false,"rental_uris":{"android":"levelo://app?vid=13cbce6c-172d-4fb0-8f36-08425c851344","ios":"levelo://app?vid=13cbce6c-172d-4fb0-8f36-08425c851344"},"vehicle_type_id":"4","last_reported":1736420849,"current_range_meters":10800,"station_id":"ce4bguh2rcd13ifvqcj0","pricing_plan_id":"cebpf4jnsgd1na2vs0mg"},{"bike_id":"defe14c8-101d-42df-98ac-c0730339c9b8","system_id":"levelo_inurba_marseille","lat":43.30545,"lon":5.38434,"is_reserved":false,"is_disabled":false,"rental_uris":{"android":"levelo://app?vid=defe14c8-101d-42df-98ac-c0730339c9b8","ios":"levelo://app?vid=defe14c8-101d-42df-98ac-c0730339c9b8"},"vehicle_type_id":"4","last_reported":1736420849,"current_range_meters":39200,"station_id":"ce4bgg92rcd13ifvqb30","pricing_plan_id":"cebpf4jnsgd1na2vs0mg"},{"bike_id":"2d1536de-ed9a-4813-bbd6-10bda74ca621","system_id":"levelo_inurba_marseille","lat":43.248036,"lon":5.374636,"is_reserved":false,"is_disabled":false,"rental_uris":{"android":"levelo://app?vid=2d1536de-ed9a-4813-bbd6-10bda74ca621","ios":"levelo://app?vid=2d1536de-ed9a-4813-bbd6-10bda74ca621"},"vehicle_type_id":"4","last_reported":1736420849,"current_range_meters":30000,"station_id":"ce4bhgh2rcd13ifvqfb0","pricing_plan_id":"cebpf4jnsgd1na2vs0mg"},{"bike_id":"61b53924-0e35-404c-b0a4-3fa2e5335468","system_id":"levelo_inurba_marseille","lat":43.31998,"lon":5.3817,"is_reserved":false,"is_disabled":false,"rental_uris":{"android":"levelo://app?vid=61b53924-0e35-404c-b0a4-3fa2e5335468","ios":"levelo://app?vid=61b53924-0e35-404c-b0a4-3fa2e5335468"},"vehicle_type_id":"4","last_reported":1736420849,"current_range_meters":14800,"station_id":"ce4bhr12rcd13ifvqhpg","pricing_plan_id":"cebpf4jnsgd1na2vs0mg"},{"bike_id":"80f089d1-6208-4daa-bf1d-e077f22470f1","system_id":"levelo_inurba_marseille","lat":43.3374,"lon":5.39178,"is_reserved":false,"is_disabled":false,"rental_uris":{"android":"levelo://app?vid=80f089d1-6208-4daa-bf1d-e077f22470f1","ios":"levelo://app?vid=80f089d1-6208-4daa-bf1d-e077f22470f1"},"vehicle_type_id":"4","last_reported":1736420849,"current_range_meters":19200,"station_id":"ce4bhr92rcd13ifvqhsg","pricing_plan_id":"cebpf4jnsgd1na2vs0mg"},{"bike_id":"f2bbc1a1-aa49-4a07-a943-e096fd2b0862","system_id":"levelo_inurba_marseille","lat":43.31886,"lon":5.40737,"is_reserved":false,"is_disabled":false,"rental_uris":{"android":"levelo://app?vid=f2bbc1a1-aa49-4a07-a943-e096fd2b0862","ios":"levelo://app?vid=f2bbc1a1-aa49-4a07-a943-e096fd2b0862"},"vehicle_type_id":"4","last_reported":1736420849,"current_range_meters":31200,"station_id":"ce4bhq12rcd13ifvqhig","pricing_plan_id":"cebpf4jnsgd1na2vs0mg"},{"bike_id":"2b814576-82ce-4758-abf3-c79e907188a0","system_id":"levelo_inurba_marseille","lat":43.29476,"lon":5.37612,"is_reserved":false,"is_disabled":false,"rental_uris":{"android":"levelo://app?vid=2b814576-82ce-4758-abf3-c79e907188a0","ios":"levelo://app?vid=2b814576-82ce-4758-abf3-c79e907188a0"},"vehicle_type_id":"4","last_reported":1736420849,"current_range_meters":8400,"station_id":"","pricing_plan_id":"cebpf4jnsgd1na2vs0mg"},{"bike_id":"43b6df46-0272-4aab-b9f4-9aeaa3b3cd38","system_id":"levelo_inurba_marseille","lat":43.27504,"lon":5.42453,"is_reserved":false,"is_disabled":false,"rental_uris":{"android":"levelo://app?vid=43b6df46-0272-4aab-b9f4-9aeaa3b3cd38","ios":"levelo://app?vid=43b6df46-0272-4aab-b9f4-9aeaa3b3cd38"},"vehicle_type_id":"4","last_reported":1736420849,"current_range_meters":34000,"station_id":"ce4bhn92rcd13ifvqgrg","pricing_plan_id":"cebpf4jnsgd1na2vs0mg"},{"bike_id":"ddb1db70-5f5e-4822-bff4-8a9bf7a75a8f","system_id":"levelo_inurba_marseille","lat":43.25116,"lon":5.40326,"is_reserved":false,"is_disabled":false,"rental_uris":{"android":"levelo://app?vid=ddb1db70-5f5e-4822-bff4-8a9bf7a75a8f","ios":"levelo://app?vid=ddb1db70-5f5e-4822-bff4-8a9bf7a75a8f"},"vehicle_type_id":"4","last_reported":1736420849,"current_range_meters":35600,"station_id":"ce4bhlh2rcd13ifvqgig","pricing_plan_id":"cebpf4jnsgd1na2vs0mg"},{"bike_id":"f2536309-8d2b-4ccd-86e1-4c168080c77c","system_id":"levelo_inurba_marseille","lat":43.2317,"lon":5.35579,"is_reserved":false,"is_disabled":false,"rental_uris":{"android":"levelo://app?vid=f2536309-8d2b-4ccd-86e1-4c168080c77c","ios":"levelo://app?vid=f2536309-8d2b-4ccd-86e1-4c168080c77c"},"vehicle_type_id":"4","last_reported":1736420849,"current_range_meters":8000,"station_id":"ce4bhu92rcd13ifvqi70","pricing_plan_id":"cebpf4jnsgd1na2vs0mg"},{"bike_id":"98acfbe9-5036-4f04-be90-e65f01ce50b5","system_id":"levelo_inurba_marseille","lat":43.24052,"lon":5.37697,"is_reserved":false,"is_disabled":false,"rental_uris":{"android":"levelo://app?vid=98acfbe9-5036-4f04-be90-e65f01ce50b5","ios":"levelo://app?vid=98acfbe9-5036-4f04-be90-e65f01ce50b5"},"vehicle_type_id":"4","last_reported":1736420849,"current_range_meters":24800,"station_id":"","pricing_plan_id":"cebpf4jnsgd1na2vs0mg"},{"bike_id":"6b640b87-7556-44b6-bc74-75d5376a29ae","system_id":"levelo_inurba_marseille","lat":43.31323,"lon":5.36763,"is_reserved":false,"is_disabled":false,"rental_uris":{"android":"levelo://app?vid=6b640b87-7556-44b6-bc74-75d5376a29ae","ios":"levelo://app?vid=6b640b87-7556-44b6-bc74-75d5376a29ae"},"vehicle_type_id":"4","last_reported":1736420849,"current_range_meters":30800,"station_id":"ce4bgr92rcd13ifvqc6g","pricing_plan_id":"cebpf4jnsgd1na2vs0mg"},{"bike_id":"ffcb1bb4-25a9-476e-bc20-220bb7fe8454","system_id":"levelo_inurba_marseille","lat":43.30088,"lon":5.39074,"is_reserved":false,"is_disabled":false,"rental_uris":{"android":"levelo://app?vid=ffcb1bb4-25a9-476e-bc20-220bb7fe8454","ios":"levelo://app?vid=ffcb1bb4-25a9-476e-bc20-220bb7fe8454"},"vehicle_type_id":"4","last_reported":1736420849,"current_range_meters":23200,"station_id":"ce4bh192rcd13ifvqdb0","pricing_plan_id":"cebpf4jnsgd1na2vs0mg"},{"bike_id":"f22dc914-cd15-4647-8a03-e5a6171f0700","system_id":"levelo_inurba_marseille","lat":43.29099,"lon":5.3815,"is_reserved":false,"is_disabled":true,"rental_uris":{"android":"levelo://app?vid=f22dc914-cd15-4647-8a03-e5a6171f0700","ios":"levelo://app?vid=f22dc914-cd15-4647-8a03-e5a6171f0700"},"vehicle_type_id":"4","last_reported":1736420849,"current_range_meters":9200,"station_id":"ce4bh512rcd13ifvqe2g","pricing_plan_id":"cebpf4jnsgd1na2vs0mg"},{"bike_id":"7525d5bc-d5cb-4998-a508-14f64c28c58c","system_id":"levelo_inurba_marseille","lat":43.25872,"lon":5.39898,"is_reserved":false,"is_disabled":false,"rental_uris":{"android":"levelo://app?vid=7525d5bc-d5cb-4998-a508-14f64c28c58c","ios":"levelo://app?vid=7525d5bc-d5cb-4998-a508-14f64c28c58c"},"vehicle_type_id":"4","last_reported":1736420849,"current_range_meters":28000,"station_id":"ce4bhl92rcd13ifvqghg","pricing_plan_id":"cebpf4jnsgd1na2vs0mg"},{"bike_id":"50cd9551-157c-452a-a15f-8bb908ddfe7f","system_id":"levelo_inurba_marseille","lat":43.27316,"lon":5.39098,"is_reserved":false,"is_disabled":false,"rental_uris":{"android":"levelo://app?vid=50cd9551-157c-452a-a15f-8bb908ddfe7f","ios":"levelo://app?vid=50cd9551-157c-452a-a15f-8bb908ddfe7f"},"vehicle_type_id":"4","last_reported":1736420849,"current_range_meters":39200,"station_id":"ce4bhgp2rcd13ifvqfe0","pricing_plan_id":"cebpf4jnsgd1na2vs0mg"},{"bike_id":"e1246cb0-3fbc-446f-a713-27a4cd20a567","system_id":"levelo_inurba_marseille","lat":43.2415,"lon":5.37917,"is_reserved":false,"is_disabled":false,"rental_uris":{"android":"levelo://app?vid=e1246cb0-3fbc-446f-a713-27a4cd20a567","ios":"levelo://app?vid=e1246cb0-3fbc-446f-a713-27a4cd20a567"},"vehicle_type_id":"4","last_reported":1736420849,"current_range_meters":38800,"station_id":"ce4bhm12rcd13ifvqgkg","pricing_plan_id":"cebpf4jnsgd1na2vs0mg"},{"bike_id":"2a407d21-ad21-4d71-b4a3-770b0dee88a0","system_id":"levelo_inurba_marseille","lat":43.26948,"lon":5.40249,"is_reserved":false,"is_disabled":false,"rental_uris":{"android":"levelo://app?vid=2a407d21-ad21-4d71-b4a3-770b0dee88a0","ios":"levelo://app?vid=2a407d21-ad21-4d71-b4a3-770b0dee88a0"},"vehicle_type_id":"4","last_reported":1736420849,"current_range_meters":12800,"station_id":"cjm6bp8fraef2m0cb0m0","pricing_plan_id":"cebpf4jnsgd1na2vs0mg"},{"bike_id":"a023b9e2-2413-4b3d-a218-b9727e7097b5","system_id":"levelo_inurba_marseille","lat":43.292991,"lon":5.374633,"is_reserved":false,"is_disabled":true,"rental_uris":{"android":"levelo://app?vid=a023b9e2-2413-4b3d-a218-b9727e7097b5","ios":"levelo://app?vid=a023b9e2-2413-4b3d-a218-b9727e7097b5"},"vehicle_type_id":"4","last_reported":1736420849,"current_range_meters":30000,"station_id":"ce4bgi12rcd13ifvqb70","pricing_plan_id":"cebpf4jnsgd1na2vs0mg"},{"bike_id":"e2deb1fa-2eca-4f57-8ae1-2f7041287333","system_id":"levelo_inurba_marseille","lat":43.30886,"lon":5.37197,"is_reserved":false,"is_disabled":false,"rental_uris":{"android":"levelo://app?vid=e2deb1fa-2eca-4f57-8ae1-2f7041287333","ios":"levelo://app?vid=e2deb1fa-2eca-4f57-8ae1-2f7041287333"},"vehicle_type_id":"4","last_reported":1736420849,"current_range_meters":32000,"station_id":"ce4bguh2rcd13ifvqckg","pricing_plan_id":"cebpf4jnsgd1na2vs0mg"},{"bike_id":"ccdaaa6c-81ef-4113-be28-76f9f82c6762","system_id":"levelo_inurba_marseille","lat":43.31372,"lon":5.36713,"is_reserved":false,"is_disabled":false,"rental_uris":{"android":"levelo://app?vid=ccdaaa6c-81ef-4113-be28-76f9f82c6762","ios":"levelo://app?vid=ccdaaa6c-81ef-4113-be28-76f9f82c6762"},"vehicle_type_id":"4","last_reported":1736420849,"current_range_meters":27600,"station_id":"ce4bgr92rcd13ifvqc6g","pricing_plan_id":"cebpf4jnsgd1na2vs0mg"},{"bike_id":"d5482fcd-354e-4663-9fd9-765b1ccf8cb2","system_id":"levelo_inurba_marseille","lat":43.27208,"lon":5.39203,"is_reserved":false,"is_disabled":false,"rental_uris":{"android":"levelo://app?vid=d5482fcd-354e-4663-9fd9-765b1ccf8cb2","ios":"levelo://app?vid=d5482fcd-354e-4663-9fd9-765b1ccf8cb2"},"vehicle_type_id":"4","last_reported":1736420849,"current_range_meters":38800,"station_id":"ce4bhhp2rcd13ifvqfm0","pricing_plan_id":"cebpf4jnsgd1na2vs0mg"},{"bike_id":"2a611997-d70e-4c6d-ac36-17e21435ec55","system_id":"levelo_inurba_marseille","lat":43.30517,"lon":5.3672,"is_reserved":false,"is_disabled":false,"rental_uris":{"android":"levelo://app?vid=2a611997-d70e-4c6d-ac36-17e21435ec55","ios":"levelo://app?vid=2a611997-d70e-4c6d-ac36-17e21435ec55"},"vehicle_type_id":"4","last_reported":1736420849,"current_range_meters":38800,"station_id":"ce4bgrp2rcd13ifvqc9g","pricing_plan_id":"cebpf4jnsgd1na2vs0mg"},{"bike_id":"99f5ae3a-2b4c-4d12-98ac-5a8c472778a4","system_id":"levelo_inurba_marseille","lat":43.28424,"lon":5.34996,"is_reserved":false,"is_disabled":false,"rental_uris":{"android":"levelo://app?vid=99f5ae3a-2b4c-4d12-98ac-5a8c472778a4","ios":"levelo://app?vid=99f5ae3a-2b4c-4d12-98ac-5a8c472778a4"},"vehicle_type_id":"4","last_reported":1736420849,"current_range_meters":38800,"station_id":"ce4bhbh2rcd13ifvqepg","pricing_plan_id":"cebpf4jnsgd1na2vs0mg"},{"bike_id":"151c1812-b542-4139-a8db-ce05d6a98531","system_id":"levelo_inurba_marseille","lat":43.32537,"lon":5.41441,"is_reserved":false,"is_disabled":false,"rental_uris":{"android":"levelo://app?vid=151c1812-b542-4139-a8db-ce05d6a98531","ios":"levelo://app?vid=151c1812-b542-4139-a8db-ce05d6a98531"},"vehicle_type_id":"4","last_reported":1736420849,"current_range_meters":38400,"station_id":"ce4bhq12rcd13ifvqhhg","pricing_plan_id":"cebpf4jnsgd1na2vs0mg"},{"bike_id":"a5f5b977-247f-4ea5-ae7e-a3c598bacc38","system_id":"levelo_inurba_marseille","lat":43.33621,"lon":5.41035,"is_reserved":false,"is_disabled":false,"rental_uris":{"android":"levelo://app?vid=a5f5b977-247f-4ea5-ae7e-a3c598bacc38","ios":"levelo://app?vid=a5f5b977-247f-4ea5-ae7e-a3c598bacc38"},"vehicle_type_id":"4","last_reported":1736420849,"current_range_meters":33200,"station_id":"ce4bhq12rcd13ifvqhhg","pricing_plan_id":"cebpf4jnsgd1na2vs0mg"},{"bike_id":"f23adad7-b016-45be-b88c-bb5fd076ec6c","system_id":"levelo_inurba_marseille","lat":43.24168,"lon":5.39737,"is_reserved":false,"is_disabled":false,"rental_uris":{"android":"levelo://app?vid=f23adad7-b016-45be-b88c-bb5fd076ec6c","ios":"levelo://app?vid=f23adad7-b016-45be-b88c-bb5fd076ec6c"},"vehicle_type_id":"4","last_reported":1736420849,"current_range_meters":38800,"station_id":"ce4bhn12rcd13ifvqgpg","pricing_plan_id":"cebpf4jnsgd1na2vs0mg"},{"bike_id":"4efd2084-9715-446a-aae8-df22bb0734d5","system_id":"levelo_inurba_marseille","lat":43.25931,"lon":5.40889,"is_reserved":false,"is_disabled":false,"rental_uris":{"android":"levelo://app?vid=4efd2084-9715-446a-aae8-df22bb0734d5","ios":"levelo://app?vid=4efd2084-9715-446a-aae8-df22bb0734d5"},"vehicle_type_id":"4","last_reported":1736420849,"current_range_meters":22800,"station_id":"ce4bhm92rcd13ifvqglg","pricing_plan_id":"cebpf4jnsgd1na2vs0mg"},{"bike_id":"d46a68f8-b986-416d-8e77-a5dfe66a0079","system_id":"levelo_inurba_marseille","lat":43.26793,"lon":5.39426,"is_reserved":false,"is_disabled":false,"rental_uris":{"android":"levelo://app?vid=d46a68f8-b986-416d-8e77-a5dfe66a0079","ios":"levelo://app?vid=d46a68f8-b986-416d-8e77-a5dfe66a0079"},"vehicle_type_id":"4","last_reported":1736420849,"current_range_meters":35200,"station_id":"ce4bhh12rcd13ifvqfg0","pricing_plan_id":"cebpf4jnsgd1na2vs0mg"},{"bike_id":"7a0a8a69-615c-43f3-a001-073b74f4a57b","system_id":"levelo_inurba_marseille","lat":43.255755,"lon":5.38236,"is_reserved":false,"is_disabled":false,"rental_uris":{"android":"levelo://app?vid=7a0a8a69-615c-43f3-a001-073b74f4a57b","ios":"levelo://app?vid=7a0a8a69-615c-43f3-a001-073b74f4a57b"},"vehicle_type_id":"4","last_reported":1736420849,"current_range_meters":30800,"station_id":"ce4bhih2rcd13ifvqfs0","pricing_plan_id":"cebpf4jnsgd1na2vs0mg"},{"bike_id":"1c7d6cb4-4214-4739-b9c6-f0c98c5f642c","system_id":"levelo_inurba_marseille","lat":43.27952,"lon":5.38718,"is_reserved":false,"is_disabled":false,"rental_uris":{"android":"levelo://app?vid=1c7d6cb4-4214-4739-b9c6-f0c98c5f642c","ios":"levelo://app?vid=1c7d6cb4-4214-4739-b9c6-f0c98c5f642c"},"vehicle_type_id":"4","last_reported":1736420849,"current_range_meters":8400,"station_id":"ce4bhg12rcd13ifvqf80","pricing_plan_id":"cebpf4jnsgd1na2vs0mg"},{"bike_id":"d03baa4e-a1ff-4dbb-aa3a-8f7610789178","system_id":"levelo_inurba_marseille","lat":43.33748,"lon":5.39193,"is_reserved":false,"is_disabled":false,"rental_uris":{"android":"levelo://app?vid=d03baa4e-a1ff-4dbb-aa3a-8f7610789178","ios":"levelo://app?vid=d03baa4e-a1ff-4dbb-aa3a-8f7610789178"},"vehicle_type_id":"4","last_reported":1736420849,"current_range_meters":38800,"station_id":"ce4bhr92rcd13ifvqhsg","pricing_plan_id":"cebpf4jnsgd1na2vs0mg"},{"bike_id":"9290f78d-cfa2-41e2-9b7a-4d29e8154a5e","system_id":"levelo_inurba_marseille","lat":43.24676,"lon":5.38148,"is_reserved":false,"is_disabled":false,"rental_uris":{"android":"levelo://app?vid=9290f78d-cfa2-41e2-9b7a-4d29e8154a5e","ios":"levelo://app?vid=9290f78d-cfa2-41e2-9b7a-4d29e8154a5e"},"vehicle_type_id":"4","last_reported":1736420849,"current_range_meters":39200,"station_id":"ce4bhih2rcd13ifvqfr0","pricing_plan_id":"cebpf4jnsgd1na2vs0mg"},{"bike_id":"7ec1bd9d-e77d-4bb3-8b40-80f099c5367b","system_id":"levelo_inurba_marseille","lat":43.26205,"lon":5.37939,"is_reserved":false,"is_disabled":false,"rental_uris":{"android":"levelo://app?vid=7ec1bd9d-e77d-4bb3-8b40-80f099c5367b","ios":"levelo://app?vid=7ec1bd9d-e77d-4bb3-8b40-80f099c5367b"},"vehicle_type_id":"4","last_reported":1736420849,"current_range_meters":25600,"station_id":"ce4bhjp2rcd13ifvqg90","pricing_plan_id":"cebpf4jnsgd1na2vs0mg"},{"bike_id":"e55df270-5810-4b23-940b-dee821cadcec","system_id":"levelo_inurba_marseille","lat":43.2669,"lon":5.38261,"is_reserved":false,"is_disabled":false,"rental_uris":{"android":"levelo://app?vid=e55df270-5810-4b23-940b-dee821cadcec","ios":"levelo://app?vid=e55df270-5810-4b23-940b-dee821cadcec"},"vehicle_type_id":"4","last_reported":1736420849,"current_range_meters":36000,"station_id":"ce4bhg92rcd13ifvqf90","pricing_plan_id":"cebpf4jnsgd1na2vs0mg"},{"bike_id":"6634f8bf-9d52-4118-86a1-d5dfb9f73ba8","system_id":"levelo_inurba_marseille","lat":43.28428,"lon":5.39198,"is_reserved":false,"is_disabled":true,"rental_uris":{"android":"levelo://app?vid=6634f8bf-9d52-4118-86a1-d5dfb9f73ba8","ios":"levelo://app?vid=6634f8bf-9d52-4118-86a1-d5dfb9f73ba8"},"vehicle_type_id":"4","last_reported":1736420849,"current_range_meters":36400,"station_id":"ce4bhoh2rcd13ifvqh5g","pricing_plan_id":"cebpf4jnsgd1na2vs0mg"},{"bike_id":"e4d86757-d46d-4ba6-ab5a-73f3e6916520","system_id":"levelo_inurba_marseille","lat":43.30529,"lon":5.36728,"is_reserved":false,"is_disabled":false,"rental_uris":{"android":"levelo://app?vid=e4d86757-d46d-4ba6-ab5a-73f3e6916520","ios":"levelo://app?vid=e4d86757-d46d-4ba6-ab5a-73f3e6916520"},"vehicle_type_id":"4","last_reported":1736420849,"current_range_meters":14000,"station_id":"ce4bgrp2rcd13ifvqc9g","pricing_plan_id":"cebpf4jnsgd1na2vs0mg"},{"bike_id":"0fea6bbf-4ad8-46bc-a953-fada6aea7b03","system_id":"levelo_inurba_marseille","lat":43.29376,"lon":5.37839,"is_reserved":false,"is_disabled":false,"rental_uris":{"android":"levelo://app?vid=0fea6bbf-4ad8-46bc-a953-fada6aea7b03","ios":"levelo://app?vid=0fea6bbf-4ad8-46bc-a953-fada6aea7b03"},"vehicle_type_id":"4","last_reported":1736420849,"current_range_meters":26000,"station_id":"ce4bgjh2rcd13ifvqbf0","pricing_plan_id":"cebpf4jnsgd1na2vs0mg"},{"bike_id":"0d1d6302-ab10-4437-a7c8-113a4d8a0f6d","system_id":"levelo_inurba_marseille","lat":43.27046,"lon":5.40299,"is_reserved":false,"is_disabled":false,"rental_uris":{"android":"levelo://app?vid=0d1d6302-ab10-4437-a7c8-113a4d8a0f6d","ios":"levelo://app?vid=0d1d6302-ab10-4437-a7c8-113a4d8a0f6d"},"vehicle_type_id":"4","last_reported":1736420849,"current_range_meters":28000,"station_id":"ce4bhk92rcd13ifvqgc0","pricing_plan_id":"cebpf4jnsgd1na2vs0mg"},{"bike_id":"526503e8-93a6-418c-be12-1eb1aa5129ec","system_id":"levelo_inurba_marseille","lat":43.29518,"lon":5.37515,"is_reserved":false,"is_disabled":false,"rental_uris":{"android":"levelo://app?vid=526503e8-93a6-418c-be12-1eb1aa5129ec","ios":"levelo://app?vid=526503e8-93a6-418c-be12-1eb1aa5129ec"},"vehicle_type_id":"4","last_reported":1736420849,"current_range_meters":22800,"station_id":"ce4bgkp2rcd13ifvqbmg","pricing_plan_id":"cebpf4jnsgd1na2vs0mg"},{"bike_id":"08a1d76c-d876-4ee7-8112-6d357f430da4","system_id":"levelo_inurba_marseille","lat":43.29367,"lon":5.37837,"is_reserved":false,"is_disabled":false,"rental_uris":{"android":"levelo://app?vid=08a1d76c-d876-4ee7-8112-6d357f430da4","ios":"levelo://app?vid=08a1d76c-d876-4ee7-8112-6d357f430da4"},"vehicle_type_id":"4","last_reported":1736420849,"current_range_meters":38800,"station_id":"ce4bgjh2rcd13ifvqbf0","pricing_plan_id":"cebpf4jnsgd1na2vs0mg"},{"bike_id":"e3487d63-f120-4e4c-a770-3d093ba1410b","system_id":"levelo_inurba_marseille","lat":43.23154,"lon":5.43722,"is_reserved":false,"is_disabled":false,"rental_uris":{"android":"levelo://app?vid=e3487d63-f120-4e4c-a770-3d093ba1410b","ios":"levelo://app?vid=e3487d63-f120-4e4c-a770-3d093ba1410b"},"vehicle_type_id":"4","last_reported":1736420849,"current_range_meters":30800,"station_id":"ce4bhmp2rcd13ifvqgog","pricing_plan_id":"cebpf4jnsgd1na2vs0mg"},{"bike_id":"e93f83ab-0e3e-4fd9-8d9e-6775678c8e02","system_id":"levelo_inurba_marseille","lat":43.33021,"lon":5.3904,"is_reserved":false,"is_disabled":false,"rental_uris":{"android":"levelo://app?vid=e93f83ab-0e3e-4fd9-8d9e-6775678c8e02","ios":"levelo://app?vid=e93f83ab-0e3e-4fd9-8d9e-6775678c8e02"},"vehicle_type_id":"4","last_reported":1736420849,"current_range_meters":37600,"station_id":"ce4bhr92rcd13ifvqhrg","pricing_plan_id":"cebpf4jnsgd1na2vs0mg"},{"bike_id":"223ebba9-c7e0-489f-8a8b-fee005d3e1cf","system_id":"levelo_inurba_marseille","lat":43.29961,"lon":5.41316,"is_reserved":false,"is_disabled":false,"rental_uris":{"android":"levelo://app?vid=223ebba9-c7e0-489f-8a8b-fee005d3e1cf","ios":"levelo://app?vid=223ebba9-c7e0-489f-8a8b-fee005d3e1cf"},"vehicle_type_id":"4","last_reported":1736420849,"current_range_meters":12400,"station_id":"ce4bhp12rcd13ifvqh9g","pricing_plan_id":"cebpf4jnsgd1na2vs0mg"},{"bike_id":"2a688222-c53a-43b7-8662-6814af84e9d9","system_id":"levelo_inurba_marseille","lat":43.25578,"lon":5.38233,"is_reserved":false,"is_disabled":false,"rental_uris":{"android":"levelo://app?vid=2a688222-c53a-43b7-8662-6814af84e9d9","ios":"levelo://app?vid=2a688222-c53a-43b7-8662-6814af84e9d9"},"vehicle_type_id":"4","last_reported":1736420849,"current_range_meters":29600,"station_id":"ce4bhih2rcd13ifvqfs0","pricing_plan_id":"cebpf4jnsgd1na2vs0mg"},{"bike_id":"de68c0ed-ca17-4377-aa01-b8161dea2dd1","system_id":"levelo_inurba_marseille","lat":43.30533,"lon":5.36722,"is_reserved":false,"is_disabled":false,"rental_uris":{"android":"levelo://app?vid=de68c0ed-ca17-4377-aa01-b8161dea2dd1","ios":"levelo://app?vid=de68c0ed-ca17-4377-aa01-b8161dea2dd1"},"vehicle_type_id":"4","last_reported":1736420849,"current_range_meters":36400,"station_id":"ce4bgrp2rcd13ifvqc9g","pricing_plan_id":"cebpf4jnsgd1na2vs0mg"},{"bike_id":"bb5f7b1b-fafb-45b0-a6b7-306e5a25c30d","system_id":"levelo_inurba_marseille","lat":43.23152,"lon":5.43736,"is_reserved":false,"is_disabled":false,"rental_uris":{"android":"levelo://app?vid=bb5f7b1b-fafb-45b0-a6b7-306e5a25c30d","ios":"levelo://app?vid=bb5f7b1b-fafb-45b0-a6b7-306e5a25c30d"},"vehicle_type_id":"4","last_reported":1736420849,"current_range_meters":39200,"station_id":"ce4bhmp2rcd13ifvqgog","pricing_plan_id":"cebpf4jnsgd1na2vs0mg"},{"bike_id":"945846a1-273e-4ff7-b4fa-22eab695956b","system_id":"levelo_inurba_marseille","lat":43.24064,"lon":5.37778,"is_reserved":false,"is_disabled":false,"rental_uris":{"android":"levelo://app?vid=945846a1-273e-4ff7-b4fa-22eab695956b","ios":"levelo://app?vid=945846a1-273e-4ff7-b4fa-22eab695956b"},"vehicle_type_id":"4","last_reported":1736420849,"current_range_meters":33600,"station_id":"ce4bhnp2rcd13ifvqgvg","pricing_plan_id":"cebpf4jnsgd1na2vs0mg"},{"bike_id":"8b39156c-3ea4-4869-b1d6-7c5c55ac828a","system_id":"levelo_inurba_marseille","lat":43.24062,"lon":5.37755,"is_reserved":false,"is_disabled":false,"rental_uris":{"android":"levelo://app?vid=8b39156c-3ea4-4869-b1d6-7c5c55ac828a","ios":"levelo://app?vid=8b39156c-3ea4-4869-b1d6-7c5c55ac828a"},"vehicle_type_id":"4","last_reported":1736420849,"current_range_meters":38800,"station_id":"ce4bhnp2rcd13ifvqgvg","pricing_plan_id":"cebpf4jnsgd1na2vs0mg"},{"bike_id":"1ae0215e-bc90-4e34-bdda-53b9bbc030b6","system_id":"levelo_inurba_marseille","lat":43.30221,"lon":5.40042,"is_reserved":false,"is_disabled":true,"rental_uris":{"android":"levelo://app?vid=1ae0215e-bc90-4e34-bdda-53b9bbc030b6","ios":"levelo://app?vid=1ae0215e-bc90-4e34-bdda-53b9bbc030b6"},"vehicle_type_id":"4","last_reported":1736420849,"current_range_meters":38800,"station_id":"ce4bgvh2rcd13ifvqcs0","pricing_plan_id":"cebpf4jnsgd1na2vs0mg"},{"bike_id":"02437e7d-10f5-49c7-946a-5618422e2781","system_id":"levelo_inurba_marseille","lat":43.29789,"lon":5.3706,"is_reserved":false,"is_disabled":false,"rental_uris":{"android":"levelo://app?vid=02437e7d-10f5-49c7-946a-5618422e2781","ios":"levelo://app?vid=02437e7d-10f5-49c7-946a-5618422e2781"},"vehicle_type_id":"4","last_reported":1736420849,"current_range_meters":38800,"station_id":"ce4bgop2rcd13ifvqc1g","pricing_plan_id":"cebpf4jnsgd1na2vs0mg"},{"bike_id":"494822bd-666e-4933-8362-e9915c3e969d","system_id":"levelo_inurba_marseille","lat":43.3018,"lon":5.38023,"is_reserved":false,"is_disabled":false,"rental_uris":{"android":"levelo://app?vid=494822bd-666e-4933-8362-e9915c3e969d","ios":"levelo://app?vid=494822bd-666e-4933-8362-e9915c3e969d"},"vehicle_type_id":"4","last_reported":1736420849,"current_range_meters":24800,"station_id":"","pricing_plan_id":"cebpf4jnsgd1na2vs0mg"},{"bike_id":"a5b17657-42e5-456b-bb59-7c63a1f42c97","system_id":"levelo_inurba_marseille","lat":43.23154,"lon":5.43717,"is_reserved":false,"is_disabled":false,"rental_uris":{"android":"levelo://app?vid=a5b17657-42e5-456b-bb59-7c63a1f42c97","ios":"levelo://app?vid=a5b17657-42e5-456b-bb59-7c63a1f42c97"},"vehicle_type_id":"4","last_reported":1736420849,"current_range_meters":33600,"station_id":"ce4bhmp2rcd13ifvqgog","pricing_plan_id":"cebpf4jnsgd1na2vs0mg"},{"bike_id":"37d8e1ef-d932-49d7-b893-49542cf44d13","system_id":"levelo_inurba_marseille","lat":43.32345,"lon":5.40629,"is_reserved":false,"is_disabled":true,"rental_uris":{"android":"levelo://app?vid=37d8e1ef-d932-49d7-b893-49542cf44d13","ios":"levelo://app?vid=37d8e1ef-d932-49d7-b893-49542cf44d13"},"vehicle_type_id":"4","last_reported":1736420849,"current_range_meters":0,"station_id":"ce4bhq92rcd13ifvqhjg","pricing_plan_id":"cebpf4jnsgd1na2vs0mg"},{"bike_id":"458c3d58-e6a5-4d1a-8df2-05d9cb3e0072","system_id":"levelo_inurba_marseille","lat":43.2556,"lon":5.38276,"is_reserved":false,"is_disabled":false,"rental_uris":{"android":"levelo://app?vid=458c3d58-e6a5-4d1a-8df2-05d9cb3e0072","ios":"levelo://app?vid=458c3d58-e6a5-4d1a-8df2-05d9cb3e0072"},"vehicle_type_id":"4","last_reported":1736420849,"current_range_meters":20800,"station_id":"ce4bhih2rcd13ifvqfs0","pricing_plan_id":"cebpf4jnsgd1na2vs0mg"},{"bike_id":"a467a94f-8770-4b09-a504-0c37799d605c","system_id":"levelo_inurba_marseille","lat":43.26946,"lon":5.40256,"is_reserved":false,"is_disabled":false,"rental_uris":{"android":"levelo://app?vid=a467a94f-8770-4b09-a504-0c37799d605c","ios":"levelo://app?vid=a467a94f-8770-4b09-a504-0c37799d605c"},"vehicle_type_id":"4","last_reported":1736420849,"current_range_meters":39200,"station_id":"cjm6bp8fraef2m0cb0m0","pricing_plan_id":"cebpf4jnsgd1na2vs0mg"},{"bike_id":"93c5a90b-5646-4017-9884-cb888d12aae9","system_id":"levelo_inurba_marseille","lat":43.30893,"lon":5.36888,"is_reserved":false,"is_disabled":false,"rental_uris":{"android":"levelo://app?vid=93c5a90b-5646-4017-9884-cb888d12aae9","ios":"levelo://app?vid=93c5a90b-5646-4017-9884-cb888d12aae9"},"vehicle_type_id":"4","last_reported":1736420849,"current_range_meters":28000,"station_id":"ce4bgn92rcd13ifvqbvg","pricing_plan_id":"cebpf4jnsgd1na2vs0mg"},{"bike_id":"e194d683-244e-41b7-bdb8-cea6d021a640","system_id":"levelo_inurba_marseille","lat":43.2731,"lon":5.39105,"is_reserved":false,"is_disabled":false,"rental_uris":{"android":"levelo://app?vid=e194d683-244e-41b7-bdb8-cea6d021a640","ios":"levelo://app?vid=e194d683-244e-41b7-bdb8-cea6d021a640"},"vehicle_type_id":"4","last_reported":1736420849,"current_range_meters":29600,"station_id":"ce4bhgp2rcd13ifvqfe0","pricing_plan_id":"cebpf4jnsgd1na2vs0mg"},{"bike_id":"263d3f02-c0ce-4595-baad-e0e05c6a3c4c","system_id":"levelo_inurba_marseille","lat":43.25577,"lon":5.38239,"is_reserved":false,"is_disabled":false,"rental_uris":{"android":"levelo://app?vid=263d3f02-c0ce-4595-baad-e0e05c6a3c4c","ios":"levelo://app?vid=263d3f02-c0ce-4595-baad-e0e05c6a3c4c"},"vehicle_type_id":"4","last_reported":1736420849,"current_range_meters":28400,"station_id":"ce4bhih2rcd13ifvqfs0","pricing_plan_id":"cebpf4jnsgd1na2vs0mg"},{"bike_id":"e162055e-04f8-4e16-85e5-e66d7339ffa3","system_id":"levelo_inurba_marseille","lat":43.26673,"lon":5.38269,"is_reserved":false,"is_disabled":false,"rental_uris":{"android":"levelo://app?vid=e162055e-04f8-4e16-85e5-e66d7339ffa3","ios":"levelo://app?vid=e162055e-04f8-4e16-85e5-e66d7339ffa3"},"vehicle_type_id":"4","last_reported":1736420849,"current_range_meters":30400,"station_id":"ce4bhg92rcd13ifvqf90","pricing_plan_id":"cebpf4jnsgd1na2vs0mg"},{"bike_id":"73506a2a-d06c-45de-92d0-b96c574a5cbc","system_id":"levelo_inurba_marseille","lat":43.2938,"lon":5.37863,"is_reserved":false,"is_disabled":false,"rental_uris":{"android":"levelo://app?vid=73506a2a-d06c-45de-92d0-b96c574a5cbc","ios":"levelo://app?vid=73506a2a-d06c-45de-92d0-b96c574a5cbc"},"vehicle_type_id":"4","last_reported":1736420849,"current_range_meters":30400,"station_id":"ce4bgjh2rcd13ifvqbf0","pricing_plan_id":"cebpf4jnsgd1na2vs0mg"},{"bike_id":"7ec64c56-d7b2-4267-8d29-78fce5b653ea","system_id":"levelo_inurba_marseille","lat":43.2998,"lon":5.37172,"is_reserved":false,"is_disabled":false,"rental_uris":{"android":"levelo://app?vid=7ec64c56-d7b2-4267-8d29-78fce5b653ea","ios":"levelo://app?vid=7ec64c56-d7b2-4267-8d29-78fce5b653ea"},"vehicle_type_id":"4","last_reported":1736420849,"current_range_meters":38800,"station_id":"ce4bgr92rcd13ifvqc7g","pricing_plan_id":"cebpf4jnsgd1na2vs0mg"},{"bike_id":"7cdfe5cb-2d56-48e1-be17-c9c1f3d2949e","system_id":"levelo_inurba_marseille","lat":43.27503,"lon":5.42465,"is_reserved":false,"is_disabled":false,"rental_uris":{"android":"levelo://app?vid=7cdfe5cb-2d56-48e1-be17-c9c1f3d2949e","ios":"levelo://app?vid=7cdfe5cb-2d56-48e1-be17-c9c1f3d2949e"},"vehicle_type_id":"4","last_reported":1736420849,"current_range_meters":27600,"station_id":"ce4bhn92rcd13ifvqgrg","pricing_plan_id":"cebpf4jnsgd1na2vs0mg"},{"bike_id":"f78f6930-2ded-4fbe-a7b6-76cb3ba02701","system_id":"levelo_inurba_marseille","lat":43.26935,"lon":5.40254,"is_reserved":false,"is_disabled":false,"rental_uris":{"android":"levelo://app?vid=f78f6930-2ded-4fbe-a7b6-76cb3ba02701","ios":"levelo://app?vid=f78f6930-2ded-4fbe-a7b6-76cb3ba02701"},"vehicle_type_id":"4","last_reported":1736420849,"current_range_meters":39200,"station_id":"cjm6bp8fraef2m0cb0m0","pricing_plan_id":"cebpf4jnsgd1na2vs0mg"},{"bike_id":"8e31379e-d2cf-485c-9315-17ecd57dce5b","system_id":"levelo_inurba_marseille","lat":43.27483,"lon":5.4246,"is_reserved":false,"is_disabled":false,"rental_uris":{"android":"levelo://app?vid=8e31379e-d2cf-485c-9315-17ecd57dce5b","ios":"levelo://app?vid=8e31379e-d2cf-485c-9315-17ecd57dce5b"},"vehicle_type_id":"4","last_reported":1736420849,"current_range_meters":36000,"station_id":"ce4bhn92rcd13ifvqgrg","pricing_plan_id":"cebpf4jnsgd1na2vs0mg"},{"bike_id":"7e024163-362a-4903-b3bb-61be5fa2e4cb","system_id":"levelo_inurba_marseille","lat":43.33781,"lon":5.3743,"is_reserved":false,"is_disabled":false,"rental_uris":{"android":"levelo://app?vid=7e024163-362a-4903-b3bb-61be5fa2e4cb","ios":"levelo://app?vid=7e024163-362a-4903-b3bb-61be5fa2e4cb"},"vehicle_type_id":"4","last_reported":1736420849,"current_range_meters":32000,"station_id":"","pricing_plan_id":"cebpf4jnsgd1na2vs0mg"},{"bike_id":"7277abf6-1732-4723-9bef-c0330eccd972","system_id":"levelo_inurba_marseille","lat":43.275,"lon":5.42467,"is_reserved":false,"is_disabled":false,"rental_uris":{"android":"levelo://app?vid=7277abf6-1732-4723-9bef-c0330eccd972","ios":"levelo://app?vid=7277abf6-1732-4723-9bef-c0330eccd972"},"vehicle_type_id":"4","last_reported":1736420849,"current_range_meters":35600,"station_id":"ce4bhn92rcd13ifvqgrg","pricing_plan_id":"cebpf4jnsgd1na2vs0mg"},{"bike_id":"3970e68e-52ba-4e6f-903c-459646ac6405","system_id":"levelo_inurba_marseille","lat":43.29555,"lon":5.37528,"is_reserved":false,"is_disabled":false,"rental_uris":{"android":"levelo://app?vid=3970e68e-52ba-4e6f-903c-459646ac6405","ios":"levelo://app?vid=3970e68e-52ba-4e6f-903c-459646ac6405"},"vehicle_type_id":"4","last_reported":1736420849,"current_range_meters":38400,"station_id":"ce4bgh92rcd13ifvqb50","pricing_plan_id":"cebpf4jnsgd1na2vs0mg"},{"bike_id":"36dc3b8f-35c2-4724-9be8-254949aa0f52","system_id":"levelo_inurba_marseille","lat":43.27418,"lon":5.39425,"is_reserved":false,"is_disabled":false,"rental_uris":{"android":"levelo://app?vid=36dc3b8f-35c2-4724-9be8-254949aa0f52","ios":"levelo://app?vid=36dc3b8f-35c2-4724-9be8-254949aa0f52"},"vehicle_type_id":"4","last_reported":1736420849,"current_range_meters":38000,"station_id":"ce4bhdp2rcd13ifvqf20","pricing_plan_id":"cebpf4jnsgd1na2vs0mg"},{"bike_id":"8caee6a7-a343-4e7e-92cc-a74facb40f4e","system_id":"levelo_inurba_marseille","lat":43.23165,"lon":5.43697,"is_reserved":false,"is_disabled":false,"rental_uris":{"android":"levelo://app?vid=8caee6a7-a343-4e7e-92cc-a74facb40f4e","ios":"levelo://app?vid=8caee6a7-a343-4e7e-92cc-a74facb40f4e"},"vehicle_type_id":"4","last_reported":1736420849,"current_range_meters":8800,"station_id":"ce4bhmp2rcd13ifvqgog","pricing_plan_id":"cebpf4jnsgd1na2vs0mg"},{"bike_id":"60ce1b70-e47d-4caf-abee-52e7d5bfe299","system_id":"levelo_inurba_marseille","lat":43.24629,"lon":5.38894,"is_reserved":false,"is_disabled":false,"rental_uris":{"android":"levelo://app?vid=60ce1b70-e47d-4caf-abee-52e7d5bfe299","ios":"levelo://app?vid=60ce1b70-e47d-4caf-abee-52e7d5bfe299"},"vehicle_type_id":"4","last_reported":1736420849,"current_range_meters":38400,"station_id":"ce4bhg12rcd13ifvqf60","pricing_plan_id":"cebpf4jnsgd1na2vs0mg"},{"bike_id":"453af443-818a-4987-b16c-8d007d0c1128","system_id":"levelo_inurba_marseille","lat":43.28717,"lon":5.37953,"is_reserved":false,"is_disabled":true,"rental_uris":{"android":"levelo://app?vid=453af443-818a-4987-b16c-8d007d0c1128","ios":"levelo://app?vid=453af443-818a-4987-b16c-8d007d0c1128"},"vehicle_type_id":"4","last_reported":1736420849,"current_range_meters":39200,"station_id":"ce4bh9p2rcd13ifvqec0","pricing_plan_id":"cebpf4jnsgd1na2vs0mg"},{"bike_id":"66471134-25e4-4211-abd7-23c33d84503b","system_id":"levelo_inurba_marseille","lat":43.25944,"lon":5.40936,"is_reserved":false,"is_disabled":false,"rental_uris":{"android":"levelo://app?vid=66471134-25e4-4211-abd7-23c33d84503b","ios":"levelo://app?vid=66471134-25e4-4211-abd7-23c33d84503b"},"vehicle_type_id":"4","last_reported":1736420849,"current_range_meters":38800,"station_id":"ce4bhm92rcd13ifvqglg","pricing_plan_id":"cebpf4jnsgd1na2vs0mg"},{"bike_id":"a04c750d-c2a3-4826-bb16-b9d8bd34b860","system_id":"levelo_inurba_marseille","lat":43.25574,"lon":5.38246,"is_reserved":false,"is_disabled":false,"rental_uris":{"android":"levelo://app?vid=a04c750d-c2a3-4826-bb16-b9d8bd34b860","ios":"levelo://app?vid=a04c750d-c2a3-4826-bb16-b9d8bd34b860"},"vehicle_type_id":"4","last_reported":1736420849,"current_range_meters":39200,"station_id":"ce4bhih2rcd13ifvqfs0","pricing_plan_id":"cebpf4jnsgd1na2vs0mg"},{"bike_id":"f20c0a9b-374a-4cc6-a353-46fd9813c452","system_id":"levelo_inurba_marseille","lat":43.29775,"lon":5.37092,"is_reserved":false,"is_disabled":false,"rental_uris":{"android":"levelo://app?vid=f20c0a9b-374a-4cc6-a353-46fd9813c452","ios":"levelo://app?vid=f20c0a9b-374a-4cc6-a353-46fd9813c452"},"vehicle_type_id":"4","last_reported":1736420849,"current_range_meters":37600,"station_id":"ce4bgop2rcd13ifvqc1g","pricing_plan_id":"cebpf4jnsgd1na2vs0mg"},{"bike_id":"eb9e7f11-40b0-4740-a3cf-085cd019d8d1","system_id":"levelo_inurba_marseille","lat":43.30159,"lon":5.38071,"is_reserved":false,"is_disabled":false,"rental_uris":{"android":"levelo://app?vid=eb9e7f11-40b0-4740-a3cf-085cd019d8d1","ios":"levelo://app?vid=eb9e7f11-40b0-4740-a3cf-085cd019d8d1"},"vehicle_type_id":"4","last_reported":1736420849,"current_range_meters":38800,"station_id":"ce4bgjp2rcd13ifvqbh0","pricing_plan_id":"cebpf4jnsgd1na2vs0mg"},{"bike_id":"0db5fb09-6d82-47a7-a227-f60d367170f3","system_id":"levelo_inurba_marseille","lat":43.30259,"lon":5.37736,"is_reserved":false,"is_disabled":false,"rental_uris":{"android":"levelo://app?vid=0db5fb09-6d82-47a7-a227-f60d367170f3","ios":"levelo://app?vid=0db5fb09-6d82-47a7-a227-f60d367170f3"},"vehicle_type_id":"4","last_reported":1736420849,"current_range_meters":32400,"station_id":"ce4bguh2rcd13ifvqcj0","pricing_plan_id":"cebpf4jnsgd1na2vs0mg"},{"bike_id":"6c9daffc-e174-4a9a-8b3e-30a6cf4027c8","system_id":"levelo_inurba_marseille","lat":43.32121,"lon":5.3679,"is_reserved":false,"is_disabled":false,"rental_uris":{"android":"levelo://app?vid=6c9daffc-e174-4a9a-8b3e-30a6cf4027c8","ios":"levelo://app?vid=6c9daffc-e174-4a9a-8b3e-30a6cf4027c8"},"vehicle_type_id":"4","last_reported":1736420849,"current_range_meters":16000,"station_id":"ce4bhrh2rcd13ifvqhug","pricing_plan_id":"cebpf4jnsgd1na2vs0mg"},{"bike_id":"93b7e7bc-917a-4253-af1e-71755c2c5a70","system_id":"levelo_inurba_marseille","lat":43.29611,"lon":5.3773,"is_reserved":false,"is_disabled":false,"rental_uris":{"android":"levelo://app?vid=93b7e7bc-917a-4253-af1e-71755c2c5a70","ios":"levelo://app?vid=93b7e7bc-917a-4253-af1e-71755c2c5a70"},"vehicle_type_id":"4","last_reported":1736420849,"current_range_meters":11200,"station_id":"ce4bgi92rcd13ifvqb90","pricing_plan_id":"cebpf4jnsgd1na2vs0mg"},{"bike_id":"355798b5-9f19-4468-ab35-5d5928887f31","system_id":"levelo_inurba_marseille","lat":43.26677,"lon":5.38281,"is_reserved":false,"is_disabled":false,"rental_uris":{"android":"levelo://app?vid=355798b5-9f19-4468-ab35-5d5928887f31","ios":"levelo://app?vid=355798b5-9f19-4468-ab35-5d5928887f31"},"vehicle_type_id":"4","last_reported":1736420849,"current_range_meters":20800,"station_id":"ce4bhg92rcd13ifvqf90","pricing_plan_id":"cebpf4jnsgd1na2vs0mg"},{"bike_id":"d827b32d-0edd-4b54-8864-fae38baa079a","system_id":"levelo_inurba_marseille","lat":43.25123,"lon":5.40323,"is_reserved":false,"is_disabled":true,"rental_uris":{"android":"levelo://app?vid=d827b32d-0edd-4b54-8864-fae38baa079a","ios":"levelo://app?vid=d827b32d-0edd-4b54-8864-fae38baa079a"},"vehicle_type_id":"4","last_reported":1736420849,"current_range_meters":6000,"station_id":"ce4bhlh2rcd13ifvqgig","pricing_plan_id":"cebpf4jnsgd1na2vs0mg"},{"bike_id":"aa93e012-148e-4dfc-80c5-c18401d721dd","system_id":"levelo_inurba_marseille","lat":43.279595,"lon":5.3872,"is_reserved":false,"is_disabled":false,"rental_uris":{"android":"levelo://app?vid=aa93e012-148e-4dfc-80c5-c18401d721dd","ios":"levelo://app?vid=aa93e012-148e-4dfc-80c5-c18401d721dd"},"vehicle_type_id":"4","last_reported":1736420849,"current_range_meters":38000,"station_id":"ce4bhg12rcd13ifvqf80","pricing_plan_id":"cebpf4jnsgd1na2vs0mg"},{"bike_id":"d3c94899-3482-4029-82e5-9d0dec4cd72b","system_id":"levelo_inurba_marseille","lat":43.29608,"lon":5.38087,"is_reserved":false,"is_disabled":false,"rental_uris":{"android":"levelo://app?vid=d3c94899-3482-4029-82e5-9d0dec4cd72b","ios":"levelo://app?vid=d3c94899-3482-4029-82e5-9d0dec4cd72b"},"vehicle_type_id":"4","last_reported":1736420849,"current_range_meters":28800,"station_id":"ce4bgl12rcd13ifvqbo0","pricing_plan_id":"cebpf4jnsgd1na2vs0mg"},{"bike_id":"02926ecf-df50-4e52-ba90-1fddadb6b51b","system_id":"levelo_inurba_marseille","lat":43.26189,"lon":5.3745,"is_reserved":false,"is_disabled":false,"rental_uris":{"android":"levelo://app?vid=02926ecf-df50-4e52-ba90-1fddadb6b51b","ios":"levelo://app?vid=02926ecf-df50-4e52-ba90-1fddadb6b51b"},"vehicle_type_id":"4","last_reported":1736420849,"current_range_meters":32000,"station_id":"ce4bhgp2rcd13ifvqfc0","pricing_plan_id":"cebpf4jnsgd1na2vs0mg"},{"bike_id":"546fbb96-800b-4f90-be23-b4f678471f8f","system_id":"levelo_inurba_marseille","lat":43.2558,"lon":5.38241,"is_reserved":false,"is_disabled":false,"rental_uris":{"android":"levelo://app?vid=546fbb96-800b-4f90-be23-b4f678471f8f","ios":"levelo://app?vid=546fbb96-800b-4f90-be23-b4f678471f8f"},"vehicle_type_id":"4","last_reported":1736420849,"current_range_meters":11200,"station_id":"ce4bhih2rcd13ifvqfs0","pricing_plan_id":"cebpf4jnsgd1na2vs0mg"},{"bike_id":"0ccade42-5a63-4395-8893-aa0d8196a166","system_id":"levelo_inurba_marseille","lat":43.30541,"lon":5.36717,"is_reserved":false,"is_disabled":false,"rental_uris":{"android":"levelo://app?vid=0ccade42-5a63-4395-8893-aa0d8196a166","ios":"levelo://app?vid=0ccade42-5a63-4395-8893-aa0d8196a166"},"vehicle_type_id":"4","last_reported":1736420849,"current_range_meters":27200,"station_id":"ce4bgrp2rcd13ifvqc9g","pricing_plan_id":"cebpf4jnsgd1na2vs0mg"},{"bike_id":"95d3448a-591f-493e-a463-7ae24e6b0478","system_id":"levelo_inurba_marseille","lat":43.3013,"lon":5.38795,"is_reserved":false,"is_disabled":true,"rental_uris":{"android":"levelo://app?vid=95d3448a-591f-493e-a463-7ae24e6b0478","ios":"levelo://app?vid=95d3448a-591f-493e-a463-7ae24e6b0478"},"vehicle_type_id":"4","last_reported":1736420849,"current_range_meters":15200,"station_id":"ce4bghh2rcd13ifvqb60","pricing_plan_id":"cebpf4jnsgd1na2vs0mg"},{"bike_id":"4be5cc74-abe4-43c5-988f-0649d8c9c89a","system_id":"levelo_inurba_marseille","lat":43.30531,"lon":5.38462,"is_reserved":false,"is_disabled":false,"rental_uris":{"android":"levelo://app?vid=4be5cc74-abe4-43c5-988f-0649d8c9c89a","ios":"levelo://app?vid=4be5cc74-abe4-43c5-988f-0649d8c9c89a"},"vehicle_type_id":"4","last_reported":1736420849,"current_range_meters":37600,"station_id":"ce4bgg92rcd13ifvqb30","pricing_plan_id":"cebpf4jnsgd1na2vs0mg"},{"bike_id":"173e31c8-c78f-4b3b-a308-9f47b47a0b39","system_id":"levelo_inurba_marseille","lat":43.3254,"lon":5.41453,"is_reserved":false,"is_disabled":false,"rental_uris":{"android":"levelo://app?vid=173e31c8-c78f-4b3b-a308-9f47b47a0b39","ios":"levelo://app?vid=173e31c8-c78f-4b3b-a308-9f47b47a0b39"},"vehicle_type_id":"4","last_reported":1736420849,"current_range_meters":26000,"station_id":"ce4bhq12rcd13ifvqhhg","pricing_plan_id":"cebpf4jnsgd1na2vs0mg"},{"bike_id":"507309ad-2c5e-4442-b16a-0a701fe1fda0","system_id":"levelo_inurba_marseille","lat":43.30536,"lon":5.36536,"is_reserved":false,"is_disabled":false,"rental_uris":{"android":"levelo://app?vid=507309ad-2c5e-4442-b16a-0a701fe1fda0","ios":"levelo://app?vid=507309ad-2c5e-4442-b16a-0a701fe1fda0"},"vehicle_type_id":"4","last_reported":1736420849,"current_range_meters":39200,"station_id":"ce4bgs12rcd13ifvqcag","pricing_plan_id":"cebpf4jnsgd1na2vs0mg"},{"bike_id":"1e2223a2-c032-49e7-8dbf-982df86a0520","system_id":"levelo_inurba_marseille","lat":43.229256,"lon":5.353809,"is_reserved":false,"is_disabled":false,"rental_uris":{"android":"levelo://app?vid=1e2223a2-c032-49e7-8dbf-982df86a0520","ios":"levelo://app?vid=1e2223a2-c032-49e7-8dbf-982df86a0520"},"vehicle_type_id":"4","last_reported":1736420849,"current_range_meters":36800,"station_id":"cpo3532slgdg3j2ikp40","pricing_plan_id":"cebpf4jnsgd1na2vs0mg"},{"bike_id":"85819100-b41b-421d-a481-465ea2f61a2a","system_id":"levelo_inurba_marseille","lat":43.266815,"lon":5.38264,"is_reserved":false,"is_disabled":false,"rental_uris":{"android":"levelo://app?vid=85819100-b41b-421d-a481-465ea2f61a2a","ios":"levelo://app?vid=85819100-b41b-421d-a481-465ea2f61a2a"},"vehicle_type_id":"4","last_reported":1736420849,"current_range_meters":36800,"station_id":"ce4bhg92rcd13ifvqf90","pricing_plan_id":"cebpf4jnsgd1na2vs0mg"},{"bike_id":"3aefb9c1-3e4a-487c-b413-b90ef97c7063","system_id":"levelo_inurba_marseille","lat":43.23149,"lon":5.43705,"is_reserved":false,"is_disabled":false,"rental_uris":{"android":"levelo://app?vid=3aefb9c1-3e4a-487c-b413-b90ef97c7063","ios":"levelo://app?vid=3aefb9c1-3e4a-487c-b413-b90ef97c7063"},"vehicle_type_id":"4","last_reported":1736420849,"current_range_meters":15200,"station_id":"ce4bhmp2rcd13ifvqgog","pricing_plan_id":"cebpf4jnsgd1na2vs0mg"},{"bike_id":"be8a233f-ad85-41b2-af03-bfa1e3033438","system_id":"levelo_inurba_marseille","lat":43.23189,"lon":5.35569,"is_reserved":false,"is_disabled":false,"rental_uris":{"android":"levelo://app?vid=be8a233f-ad85-41b2-af03-bfa1e3033438","ios":"levelo://app?vid=be8a233f-ad85-41b2-af03-bfa1e3033438"},"vehicle_type_id":"4","last_reported":1736420849,"current_range_meters":28400,"station_id":"ce4bhu92rcd13ifvqi70","pricing_plan_id":"cebpf4jnsgd1na2vs0mg"},{"bike_id":"b124ca2f-2fd0-4c56-960f-1b8a90949c3b","system_id":"levelo_inurba_marseille","lat":43.29529,"lon":5.37535,"is_reserved":false,"is_disabled":true,"rental_uris":{"android":"levelo://app?vid=b124ca2f-2fd0-4c56-960f-1b8a90949c3b","ios":"levelo://app?vid=b124ca2f-2fd0-4c56-960f-1b8a90949c3b"},"vehicle_type_id":"4","last_reported":1736420849,"current_range_meters":29600,"station_id":"ce4bgkp2rcd13ifvqbmg","pricing_plan_id":"cebpf4jnsgd1na2vs0mg"},{"bike_id":"ce0d4b53-1587-493b-9be1-60a77a2c352b","system_id":"levelo_inurba_marseille","lat":43.2749,"lon":5.42456,"is_reserved":false,"is_disabled":false,"rental_uris":{"android":"levelo://app?vid=ce0d4b53-1587-493b-9be1-60a77a2c352b","ios":"levelo://app?vid=ce0d4b53-1587-493b-9be1-60a77a2c352b"},"vehicle_type_id":"4","last_reported":1736420849,"current_range_meters":19600,"station_id":"ce4bhn92rcd13ifvqgrg","pricing_plan_id":"cebpf4jnsgd1na2vs0mg"},{"bike_id":"b36967c0-ebfd-4742-ab89-97d497aa528a","system_id":"levelo_inurba_marseille","lat":43.30535,"lon":5.36531,"is_reserved":false,"is_disabled":false,"rental_uris":{"android":"levelo://app?vid=b36967c0-ebfd-4742-ab89-97d497aa528a","ios":"levelo://app?vid=b36967c0-ebfd-4742-ab89-97d497aa528a"},"vehicle_type_id":"4","last_reported":1736420849,"current_range_meters":19600,"station_id":"ce4bgs12rcd13ifvqcag","pricing_plan_id":"cebpf4jnsgd1na2vs0mg"},{"bike_id":"999a3f14-cb9c-4c4e-a0f7-05efdccfcf6a","system_id":"levelo_inurba_marseille","lat":43.30426,"lon":5.38891,"is_reserved":false,"is_disabled":false,"rental_uris":{"android":"levelo://app?vid=999a3f14-cb9c-4c4e-a0f7-05efdccfcf6a","ios":"levelo://app?vid=999a3f14-cb9c-4c4e-a0f7-05efdccfcf6a"},"vehicle_type_id":"4","last_reported":1736420849,"current_range_meters":32000,"station_id":"ce4bgk12rcd13ifvqbi0","pricing_plan_id":"cebpf4jnsgd1na2vs0mg"},{"bike_id":"2555e9c2-41eb-42cc-8360-399e32805217","system_id":"levelo_inurba_marseille","lat":43.296018,"lon":5.377144,"is_reserved":false,"is_disabled":false,"rental_uris":{"android":"levelo://app?vid=2555e9c2-41eb-42cc-8360-399e32805217","ios":"levelo://app?vid=2555e9c2-41eb-42cc-8360-399e32805217"},"vehicle_type_id":"4","last_reported":1736420849,"current_range_meters":34800,"station_id":"ce4bgi92rcd13ifvqb90","pricing_plan_id":"cebpf4jnsgd1na2vs0mg"},{"bike_id":"3cebf9a3-0c25-460c-94d4-af04dc81215b","system_id":"levelo_inurba_marseille","lat":43.30915,"lon":5.36878,"is_reserved":false,"is_disabled":false,"rental_uris":{"android":"levelo://app?vid=3cebf9a3-0c25-460c-94d4-af04dc81215b","ios":"levelo://app?vid=3cebf9a3-0c25-460c-94d4-af04dc81215b"},"vehicle_type_id":"4","last_reported":1736420849,"current_range_meters":38800,"station_id":"ce4bgn92rcd13ifvqbvg","pricing_plan_id":"cebpf4jnsgd1na2vs0mg"},{"bike_id":"6ffba497-52f7-4a81-b005-bbbc3eee46b1","system_id":"levelo_inurba_marseille","lat":43.30176,"lon":5.38097,"is_reserved":false,"is_disabled":false,"rental_uris":{"android":"levelo://app?vid=6ffba497-52f7-4a81-b005-bbbc3eee46b1","ios":"levelo://app?vid=6ffba497-52f7-4a81-b005-bbbc3eee46b1"},"vehicle_type_id":"4","last_reported":1736420849,"current_range_meters":38800,"station_id":"ce4bgjp2rcd13ifvqbh0","pricing_plan_id":"cebpf4jnsgd1na2vs0mg"},{"bike_id":"a2cdc16c-2ab6-429a-9af3-90d7981a1f04","system_id":"levelo_inurba_marseille","lat":43.27901,"lon":5.38754,"is_reserved":false,"is_disabled":true,"rental_uris":{"android":"levelo://app?vid=a2cdc16c-2ab6-429a-9af3-90d7981a1f04","ios":"levelo://app?vid=a2cdc16c-2ab6-429a-9af3-90d7981a1f04"},"vehicle_type_id":"4","last_reported":1736420849,"current_range_meters":800,"station_id":"ce4bhg12rcd13ifvqf80","pricing_plan_id":"cebpf4jnsgd1na2vs0mg"},{"bike_id":"95470e6e-b0d7-401b-a3b6-29262b06cc5a","system_id":"levelo_inurba_marseille","lat":43.27062,"lon":5.42279,"is_reserved":false,"is_disabled":false,"rental_uris":{"android":"levelo://app?vid=95470e6e-b0d7-401b-a3b6-29262b06cc5a","ios":"levelo://app?vid=95470e6e-b0d7-401b-a3b6-29262b06cc5a"},"vehicle_type_id":"4","last_reported":1736420849,"current_range_meters":19600,"station_id":"ce4bhk92rcd13ifvqgb0","pricing_plan_id":"cebpf4jnsgd1na2vs0mg"},{"bike_id":"647494de-729d-4e34-815d-ff7d8e02c61a","system_id":"levelo_inurba_marseille","lat":43.32488,"lon":5.36556,"is_reserved":false,"is_disabled":false,"rental_uris":{"android":"levelo://app?vid=647494de-729d-4e34-815d-ff7d8e02c61a","ios":"levelo://app?vid=647494de-729d-4e34-815d-ff7d8e02c61a"},"vehicle_type_id":"4","last_reported":1736420849,"current_range_meters":10000,"station_id":"ce4bhs12rcd13ifvqhvg","pricing_plan_id":"cebpf4jnsgd1na2vs0mg"},{"bike_id":"93265df0-d8e5-4bed-a8e3-a42c7ea87a36","system_id":"levelo_inurba_marseille","lat":43.301344,"lon":5.38788,"is_reserved":false,"is_disabled":false,"rental_uris":{"android":"levelo://app?vid=93265df0-d8e5-4bed-a8e3-a42c7ea87a36","ios":"levelo://app?vid=93265df0-d8e5-4bed-a8e3-a42c7ea87a36"},"vehicle_type_id":"4","last_reported":1736420849,"current_range_meters":39200,"station_id":"ce4bhoh2rcd13ifvqh6g","pricing_plan_id":"cebpf4jnsgd1na2vs0mg"},{"bike_id":"0819326e-4c9e-46b6-a47f-46eef59e79b2","system_id":"levelo_inurba_marseille","lat":43.24074,"lon":5.37755,"is_reserved":false,"is_disabled":false,"rental_uris":{"android":"levelo://app?vid=0819326e-4c9e-46b6-a47f-46eef59e79b2","ios":"levelo://app?vid=0819326e-4c9e-46b6-a47f-46eef59e79b2"},"vehicle_type_id":"4","last_reported":1736420849,"current_range_meters":28800,"station_id":"ce4bhnp2rcd13ifvqgvg","pricing_plan_id":"cebpf4jnsgd1na2vs0mg"},{"bike_id":"ad28bd53-1c8c-44ea-9a1c-1e5a5b2498fe","system_id":"levelo_inurba_marseille","lat":43.24167,"lon":5.36428,"is_reserved":false,"is_disabled":false,"rental_uris":{"android":"levelo://app?vid=ad28bd53-1c8c-44ea-9a1c-1e5a5b2498fe","ios":"levelo://app?vid=ad28bd53-1c8c-44ea-9a1c-1e5a5b2498fe"},"vehicle_type_id":"4","last_reported":1736420849,"current_range_meters":16000,"station_id":"cpo36qri1sfpv3e86is0","pricing_plan_id":"cebpf4jnsgd1na2vs0mg"},{"bike_id":"d6054180-7e08-40b3-be75-7053335ecc80","system_id":"levelo_inurba_marseille","lat":43.24081,"lon":5.37783,"is_reserved":false,"is_disabled":false,"rental_uris":{"android":"levelo://app?vid=d6054180-7e08-40b3-be75-7053335ecc80","ios":"levelo://app?vid=d6054180-7e08-40b3-be75-7053335ecc80"},"vehicle_type_id":"4","last_reported":1736420849,"current_range_meters":16800,"station_id":"ce4bhnp2rcd13ifvqgvg","pricing_plan_id":"cebpf4jnsgd1na2vs0mg"},{"bike_id":"2d2fbc61-7484-43d8-82f1-4c77f4e113dc","system_id":"levelo_inurba_marseille","lat":43.24076,"lon":5.37743,"is_reserved":false,"is_disabled":false,"rental_uris":{"android":"levelo://app?vid=2d2fbc61-7484-43d8-82f1-4c77f4e113dc","ios":"levelo://app?vid=2d2fbc61-7484-43d8-82f1-4c77f4e113dc"},"vehicle_type_id":"4","last_reported":1736420849,"current_range_meters":22800,"station_id":"ce4bhnp2rcd13ifvqgvg","pricing_plan_id":"cebpf4jnsgd1na2vs0mg"},{"bike_id":"0dd0a80b-1aff-4226-84d4-440aab4fa95b","system_id":"levelo_inurba_marseille","lat":43.28428,"lon":5.39194,"is_reserved":false,"is_disabled":false,"rental_uris":{"android":"levelo://app?vid=0dd0a80b-1aff-4226-84d4-440aab4fa95b","ios":"levelo://app?vid=0dd0a80b-1aff-4226-84d4-440aab4fa95b"},"vehicle_type_id":"4","last_reported":1736420849,"current_range_meters":39200,"station_id":"ce4bhoh2rcd13ifvqh5g","pricing_plan_id":"cebpf4jnsgd1na2vs0mg"},{"bike_id":"beceaf1c-b3bb-4418-826f-ccba131c6a10","system_id":"levelo_inurba_marseille","lat":43.23135,"lon":5.43733,"is_reserved":false,"is_disabled":false,"rental_uris":{"android":"levelo://app?vid=beceaf1c-b3bb-4418-826f-ccba131c6a10","ios":"levelo://app?vid=beceaf1c-b3bb-4418-826f-ccba131c6a10"},"vehicle_type_id":"4","last_reported":1736420849,"current_range_meters":10000,"station_id":"ce4bhmp2rcd13ifvqgog","pricing_plan_id":"cebpf4jnsgd1na2vs0mg"},{"bike_id":"9bcae7af-95e3-4b06-81f9-4d94578b9668","system_id":"levelo_inurba_marseille","lat":43.23192,"lon":5.35555,"is_reserved":false,"is_disabled":false,"rental_uris":{"android":"levelo://app?vid=9bcae7af-95e3-4b06-81f9-4d94578b9668","ios":"levelo://app?vid=9bcae7af-95e3-4b06-81f9-4d94578b9668"},"vehicle_type_id":"4","last_reported":1736420849,"current_range_meters":28000,"station_id":"ce4bhu92rcd13ifvqi70","pricing_plan_id":"cebpf4jnsgd1na2vs0mg"},{"bike_id":"50cd5673-6836-4309-a193-16e51cb2408d","system_id":"levelo_inurba_marseille","lat":43.26649,"lon":5.38342,"is_reserved":false,"is_disabled":false,"rental_uris":{"android":"levelo://app?vid=50cd5673-6836-4309-a193-16e51cb2408d","ios":"levelo://app?vid=50cd5673-6836-4309-a193-16e51cb2408d"},"vehicle_type_id":"4","last_reported":1736420849,"current_range_meters":39200,"station_id":"ce4bhg92rcd13ifvqf90","pricing_plan_id":"cebpf4jnsgd1na2vs0mg"},{"bike_id":"da4214b8-8d8a-4a87-bce1-7a3deee9519b","system_id":"levelo_inurba_marseille","lat":43.30237,"lon":5.40071,"is_reserved":false,"is_disabled":true,"rental_uris":{"android":"levelo://app?vid=da4214b8-8d8a-4a87-bce1-7a3deee9519b","ios":"levelo://app?vid=da4214b8-8d8a-4a87-bce1-7a3deee9519b"},"vehicle_type_id":"4","last_reported":1736420849,"current_range_meters":38800,"station_id":"ce4bgvh2rcd13ifvqcs0","pricing_plan_id":"cebpf4jnsgd1na2vs0mg"},{"bike_id":"b8acbba0-a715-4ced-a2aa-0517db10ac9d","system_id":"levelo_inurba_marseille","lat":43.22929,"lon":5.35378,"is_reserved":false,"is_disabled":false,"rental_uris":{"android":"levelo://app?vid=b8acbba0-a715-4ced-a2aa-0517db10ac9d","ios":"levelo://app?vid=b8acbba0-a715-4ced-a2aa-0517db10ac9d"},"vehicle_type_id":"4","last_reported":1736420849,"current_range_meters":8000,"station_id":"cpo3532slgdg3j2ikp40","pricing_plan_id":"cebpf4jnsgd1na2vs0mg"},{"bike_id":"b450dfde-eda4-42e3-a726-8a34fd665df8","system_id":"levelo_inurba_marseille","lat":43.24097,"lon":5.37767,"is_reserved":false,"is_disabled":false,"rental_uris":{"android":"levelo://app?vid=b450dfde-eda4-42e3-a726-8a34fd665df8","ios":"levelo://app?vid=b450dfde-eda4-42e3-a726-8a34fd665df8"},"vehicle_type_id":"4","last_reported":1736420849,"current_range_meters":38800,"station_id":"ce4bhnp2rcd13ifvqgvg","pricing_plan_id":"cebpf4jnsgd1na2vs0mg"},{"bike_id":"7602b9db-fede-47ee-bd0b-311a54641a45","system_id":"levelo_inurba_marseille","lat":43.31897,"lon":5.40734,"is_reserved":false,"is_disabled":false,"rental_uris":{"android":"levelo://app?vid=7602b9db-fede-47ee-bd0b-311a54641a45","ios":"levelo://app?vid=7602b9db-fede-47ee-bd0b-311a54641a45"},"vehicle_type_id":"4","last_reported":1736420849,"current_range_meters":39200,"station_id":"ce4bhq12rcd13ifvqhig","pricing_plan_id":"cebpf4jnsgd1na2vs0mg"},{"bike_id":"377905ce-ff14-425c-a795-09de43f26e70","system_id":"levelo_inurba_marseille","lat":43.30543,"lon":5.36583,"is_reserved":false,"is_disabled":false,"rental_uris":{"android":"levelo://app?vid=377905ce-ff14-425c-a795-09de43f26e70","ios":"levelo://app?vid=377905ce-ff14-425c-a795-09de43f26e70"},"vehicle_type_id":"4","last_reported":1736420849,"current_range_meters":38800,"station_id":"ce4bgs12rcd13ifvqcag","pricing_plan_id":"cebpf4jnsgd1na2vs0mg"},{"bike_id":"eb93f2e2-4401-45ca-bc73-35fe97ee4740","system_id":"levelo_inurba_marseille","lat":43.29185,"lon":5.37141,"is_reserved":false,"is_disabled":false,"rental_uris":{"android":"levelo://app?vid=eb93f2e2-4401-45ca-bc73-35fe97ee4740","ios":"levelo://app?vid=eb93f2e2-4401-45ca-bc73-35fe97ee4740"},"vehicle_type_id":"4","last_reported":1736420849,"current_range_meters":12400,"station_id":"ce4bha92rcd13ifvqeh0","pricing_plan_id":"cebpf4jnsgd1na2vs0mg"},{"bike_id":"ca28c05e-bfc5-443c-b699-0afa6d6ec689","system_id":"levelo_inurba_marseille","lat":43.29862,"lon":5.36289,"is_reserved":false,"is_disabled":false,"rental_uris":{"android":"levelo://app?vid=ca28c05e-bfc5-443c-b699-0afa6d6ec689","ios":"levelo://app?vid=ca28c05e-bfc5-443c-b699-0afa6d6ec689"},"vehicle_type_id":"4","last_reported":1736420849,"current_range_meters":35600,"station_id":"ce4bgpp2rcd13ifvqc3g","pricing_plan_id":"cebpf4jnsgd1na2vs0mg"},{"bike_id":"9f45806b-0439-44e8-9147-35b59088d5f3","system_id":"levelo_inurba_marseille","lat":43.24118,"lon":5.36411,"is_reserved":false,"is_disabled":false,"rental_uris":{"android":"levelo://app?vid=9f45806b-0439-44e8-9147-35b59088d5f3","ios":"levelo://app?vid=9f45806b-0439-44e8-9147-35b59088d5f3"},"vehicle_type_id":"4","last_reported":1736420849,"current_range_meters":19600,"station_id":"cpo36qri1sfpv3e86is0","pricing_plan_id":"cebpf4jnsgd1na2vs0mg"},{"bike_id":"98c7696c-ad24-4497-8d84-0c788d79bd64","system_id":"levelo_inurba_marseille","lat":43.29531,"lon":5.39043,"is_reserved":false,"is_disabled":false,"rental_uris":{"android":"levelo://app?vid=98c7696c-ad24-4497-8d84-0c788d79bd64","ios":"levelo://app?vid=98c7696c-ad24-4497-8d84-0c788d79bd64"},"vehicle_type_id":"4","last_reported":1736420849,"current_range_meters":39200,"station_id":"ce4bh3p2rcd13ifvqdp0","pricing_plan_id":"cebpf4jnsgd1na2vs0mg"},{"bike_id":"51e1289c-d38f-4381-8c55-dbfcce3dba5d","system_id":"levelo_inurba_marseille","lat":43.30519,"lon":5.3671,"is_reserved":false,"is_disabled":false,"rental_uris":{"android":"levelo://app?vid=51e1289c-d38f-4381-8c55-dbfcce3dba5d","ios":"levelo://app?vid=51e1289c-d38f-4381-8c55-dbfcce3dba5d"},"vehicle_type_id":"4","last_reported":1736420849,"current_range_meters":9600,"station_id":"ce4bgrp2rcd13ifvqc9g","pricing_plan_id":"cebpf4jnsgd1na2vs0mg"},{"bike_id":"cbe92d03-2777-4ae3-81dc-f3efd3246f2c","system_id":"levelo_inurba_marseille","lat":43.24073,"lon":5.37716,"is_reserved":false,"is_disabled":false,"rental_uris":{"android":"levelo://app?vid=cbe92d03-2777-4ae3-81dc-f3efd3246f2c","ios":"levelo://app?vid=cbe92d03-2777-4ae3-81dc-f3efd3246f2c"},"vehicle_type_id":"4","last_reported":1736420849,"current_range_meters":38800,"station_id":"ce4bhnp2rcd13ifvqgvg","pricing_plan_id":"cebpf4jnsgd1na2vs0mg"},{"bike_id":"2ddf0b4e-4946-40bc-a978-e6a51aa2b80c","system_id":"levelo_inurba_marseille","lat":43.24668,"lon":5.38167,"is_reserved":false,"is_disabled":false,"rental_uris":{"android":"levelo://app?vid=2ddf0b4e-4946-40bc-a978-e6a51aa2b80c","ios":"levelo://app?vid=2ddf0b4e-4946-40bc-a978-e6a51aa2b80c"},"vehicle_type_id":"4","last_reported":1736420849,"current_range_meters":34000,"station_id":"ce4bhih2rcd13ifvqfr0","pricing_plan_id":"cebpf4jnsgd1na2vs0mg"},{"bike_id":"3108c230-0b71-48c3-ac34-2963912f8e96","system_id":"levelo_inurba_marseille","lat":43.25928,"lon":5.40912,"is_reserved":false,"is_disabled":false,"rental_uris":{"android":"levelo://app?vid=3108c230-0b71-48c3-ac34-2963912f8e96","ios":"levelo://app?vid=3108c230-0b71-48c3-ac34-2963912f8e96"},"vehicle_type_id":"4","last_reported":1736420849,"current_range_meters":16800,"station_id":"ce4bhm92rcd13ifvqglg","pricing_plan_id":"cebpf4jnsgd1na2vs0mg"},{"bike_id":"65180b60-f307-4f23-8346-bbe427ebab81","system_id":"levelo_inurba_marseille","lat":43.29568,"lon":5.37519,"is_reserved":false,"is_disabled":false,"rental_uris":{"android":"levelo://app?vid=65180b60-f307-4f23-8346-bbe427ebab81","ios":"levelo://app?vid=65180b60-f307-4f23-8346-bbe427ebab81"},"vehicle_type_id":"4","last_reported":1736420849,"current_range_meters":36800,"station_id":"ce4bgh92rcd13ifvqb50","pricing_plan_id":"cebpf4jnsgd1na2vs0mg"},{"bike_id":"ecc8656f-a10b-47c4-b999-50144c0165e6","system_id":"levelo_inurba_marseille","lat":43.24169,"lon":5.39727,"is_reserved":false,"is_disabled":false,"rental_uris":{"android":"levelo://app?vid=ecc8656f-a10b-47c4-b999-50144c0165e6","ios":"levelo://app?vid=ecc8656f-a10b-47c4-b999-50144c0165e6"},"vehicle_type_id":"4","last_reported":1736420849,"current_range_meters":30000,"station_id":"ce4bhn12rcd13ifvqgpg","pricing_plan_id":"cebpf4jnsgd1na2vs0mg"},{"bike_id":"503215c7-dc08-4f32-a869-ad81d7ec043d","system_id":"levelo_inurba_marseille","lat":43.28344,"lon":5.38668,"is_reserved":false,"is_disabled":true,"rental_uris":{"android":"levelo://app?vid=503215c7-dc08-4f32-a869-ad81d7ec043d","ios":"levelo://app?vid=503215c7-dc08-4f32-a869-ad81d7ec043d"},"vehicle_type_id":"4","last_reported":1736420849,"current_range_meters":38000,"station_id":"ce4bh492rcd13ifvqdvg","pricing_plan_id":"cebpf4jnsgd1na2vs0mg"},{"bike_id":"fa60361b-37c2-4ebf-8b7f-9230aea2c8c9","system_id":"levelo_inurba_marseille","lat":43.3053,"lon":5.38444,"is_reserved":false,"is_disabled":false,"rental_uris":{"android":"levelo://app?vid=fa60361b-37c2-4ebf-8b7f-9230aea2c8c9","ios":"levelo://app?vid=fa60361b-37c2-4ebf-8b7f-9230aea2c8c9"},"vehicle_type_id":"4","last_reported":1736420849,"current_range_meters":37600,"station_id":"ce4bgg92rcd13ifvqb30","pricing_plan_id":"cebpf4jnsgd1na2vs0mg"},{"bike_id":"0e0138d5-2c0f-49e0-a8b6-8972553e78ee","system_id":"levelo_inurba_marseille","lat":43.28714,"lon":5.37921,"is_reserved":false,"is_disabled":true,"rental_uris":{"android":"levelo://app?vid=0e0138d5-2c0f-49e0-a8b6-8972553e78ee","ios":"levelo://app?vid=0e0138d5-2c0f-49e0-a8b6-8972553e78ee"},"vehicle_type_id":"4","last_reported":1736420849,"current_range_meters":5600,"station_id":"ce4bh9p2rcd13ifvqec0","pricing_plan_id":"cebpf4jnsgd1na2vs0mg"},{"bike_id":"1ac6fa92-6460-4c97-bd37-7a48dd0eaf32","system_id":"levelo_inurba_marseille","lat":43.31752,"lon":5.39023,"is_reserved":false,"is_disabled":false,"rental_uris":{"android":"levelo://app?vid=1ac6fa92-6460-4c97-bd37-7a48dd0eaf32","ios":"levelo://app?vid=1ac6fa92-6460-4c97-bd37-7a48dd0eaf32"},"vehicle_type_id":"4","last_reported":1736420849,"current_range_meters":16400,"station_id":"ce4bhqp2rcd13ifvqhng","pricing_plan_id":"cebpf4jnsgd1na2vs0mg"},{"bike_id":"b9b8fdbf-6e31-4186-8b5e-7c6b0705272b","system_id":"levelo_inurba_marseille","lat":43.30926,"lon":5.36856,"is_reserved":false,"is_disabled":false,"rental_uris":{"android":"levelo://app?vid=b9b8fdbf-6e31-4186-8b5e-7c6b0705272b","ios":"levelo://app?vid=b9b8fdbf-6e31-4186-8b5e-7c6b0705272b"},"vehicle_type_id":"4","last_reported":1736420849,"current_range_meters":38000,"station_id":"ce4bgn92rcd13ifvqbvg","pricing_plan_id":"cebpf4jnsgd1na2vs0mg"},{"bike_id":"4b3b7c74-fc18-4d6d-adb1-c80ca9dfa8ab","system_id":"levelo_inurba_marseille","lat":43.28393,"lon":5.38217,"is_reserved":false,"is_disabled":true,"rental_uris":{"android":"levelo://app?vid=4b3b7c74-fc18-4d6d-adb1-c80ca9dfa8ab","ios":"levelo://app?vid=4b3b7c74-fc18-4d6d-adb1-c80ca9dfa8ab"},"vehicle_type_id":"4","last_reported":1736420849,"current_range_meters":0,"station_id":"","pricing_plan_id":"cebpf4jnsgd1na2vs0mg"},{"bike_id":"d30343e3-f962-4685-bbb8-0f94fa2fdcad","system_id":"levelo_inurba_marseille","lat":43.26675,"lon":5.38272,"is_reserved":false,"is_disabled":false,"rental_uris":{"android":"levelo://app?vid=d30343e3-f962-4685-bbb8-0f94fa2fdcad","ios":"levelo://app?vid=d30343e3-f962-4685-bbb8-0f94fa2fdcad"},"vehicle_type_id":"4","last_reported":1736420849,"current_range_meters":39200,"station_id":"ce4bhg92rcd13ifvqf90","pricing_plan_id":"cebpf4jnsgd1na2vs0mg"},{"bike_id":"a07a4011-1492-45a2-925a-e487957312af","system_id":"levelo_inurba_marseille","lat":43.30316,"lon":5.36908,"is_reserved":false,"is_disabled":false,"rental_uris":{"android":"levelo://app?vid=a07a4011-1492-45a2-925a-e487957312af","ios":"levelo://app?vid=a07a4011-1492-45a2-925a-e487957312af"},"vehicle_type_id":"4","last_reported":1736420849,"current_range_meters":29600,"station_id":"ce4bgqh2rcd13ifvqc5g","pricing_plan_id":"cebpf4jnsgd1na2vs0mg"},{"bike_id":"d5b30a6f-e9e6-43d2-9550-f7d6a0814539","system_id":"levelo_inurba_marseille","lat":43.24161,"lon":5.39741,"is_reserved":false,"is_disabled":false,"rental_uris":{"android":"levelo://app?vid=d5b30a6f-e9e6-43d2-9550-f7d6a0814539","ios":"levelo://app?vid=d5b30a6f-e9e6-43d2-9550-f7d6a0814539"},"vehicle_type_id":"4","last_reported":1736420849,"current_range_meters":20400,"station_id":"ce4bhn12rcd13ifvqgpg","pricing_plan_id":"cebpf4jnsgd1na2vs0mg"},{"bike_id":"8a3e6b18-2c2b-49ca-9f0a-506d1fa5a0a1","system_id":"levelo_inurba_marseille","lat":43.2756,"lon":5.3843,"is_reserved":false,"is_disabled":false,"rental_uris":{"android":"levelo://app?vid=8a3e6b18-2c2b-49ca-9f0a-506d1fa5a0a1","ios":"levelo://app?vid=8a3e6b18-2c2b-49ca-9f0a-506d1fa5a0a1"},"vehicle_type_id":"4","last_reported":1736420849,"current_range_meters":37600,"station_id":"ce4bhh92rcd13ifvqfi0","pricing_plan_id":"cebpf4jnsgd1na2vs0mg"},{"bike_id":"c4650abe-2e42-45cf-90e4-267e7cd97f44","system_id":"levelo_inurba_marseille","lat":43.29035,"lon":5.39974,"is_reserved":false,"is_disabled":true,"rental_uris":{"android":"levelo://app?vid=c4650abe-2e42-45cf-90e4-267e7cd97f44","ios":"levelo://app?vid=c4650abe-2e42-45cf-90e4-267e7cd97f44"},"vehicle_type_id":"4","last_reported":1736420849,"current_range_meters":0,"station_id":"ce4bh392rcd13ifvqdm0","pricing_plan_id":"cebpf4jnsgd1na2vs0mg"},{"bike_id":"8135505f-b027-489a-a796-7054b28ed992","system_id":"levelo_inurba_marseille","lat":43.30947,"lon":5.3903,"is_reserved":false,"is_disabled":true,"rental_uris":{"android":"levelo://app?vid=8135505f-b027-489a-a796-7054b28ed992","ios":"levelo://app?vid=8135505f-b027-489a-a796-7054b28ed992"},"vehicle_type_id":"4","last_reported":1736420849,"current_range_meters":34000,"station_id":"ce4bgup2rcd13ifvqco0","pricing_plan_id":"cebpf4jnsgd1na2vs0mg"},{"bike_id":"92357e15-6bc2-4320-b586-3fbe5f54d7ec","system_id":"levelo_inurba_marseille","lat":43.30591,"lon":5.37252,"is_reserved":false,"is_disabled":false,"rental_uris":{"android":"levelo://app?vid=92357e15-6bc2-4320-b586-3fbe5f54d7ec","ios":"levelo://app?vid=92357e15-6bc2-4320-b586-3fbe5f54d7ec"},"vehicle_type_id":"4","last_reported":1736420849,"current_range_meters":20000,"station_id":"ce4bgqh2rcd13ifvqc4g","pricing_plan_id":"cebpf4jnsgd1na2vs0mg"},{"bike_id":"10837590-8cff-4e9e-a42f-5348f2c9d3bc","system_id":"levelo_inurba_marseille","lat":43.26868,"lon":5.38911,"is_reserved":false,"is_disabled":true,"rental_uris":{"android":"levelo://app?vid=10837590-8cff-4e9e-a42f-5348f2c9d3bc","ios":"levelo://app?vid=10837590-8cff-4e9e-a42f-5348f2c9d3bc"},"vehicle_type_id":"4","last_reported":1736420849,"current_range_meters":0,"station_id":"","pricing_plan_id":"cebpf4jnsgd1na2vs0mg"},{"bike_id":"a887c3c7-6b78-4479-b0e7-46dc7a25181e","system_id":"levelo_inurba_marseille","lat":43.30536,"lon":5.36718,"is_reserved":false,"is_disabled":false,"rental_uris":{"android":"levelo://app?vid=a887c3c7-6b78-4479-b0e7-46dc7a25181e","ios":"levelo://app?vid=a887c3c7-6b78-4479-b0e7-46dc7a25181e"},"vehicle_type_id":"4","last_reported":1736420849,"current_range_meters":22400,"station_id":"ce4bgrp2rcd13ifvqc9g","pricing_plan_id":"cebpf4jnsgd1na2vs0mg"},{"bike_id":"531fc1b4-462d-4742-a76e-478608ba8c42","system_id":"levelo_inurba_marseille","lat":43.30131,"lon":5.39831,"is_reserved":false,"is_disabled":false,"rental_uris":{"android":"levelo://app?vid=531fc1b4-462d-4742-a76e-478608ba8c42","ios":"levelo://app?vid=531fc1b4-462d-4742-a76e-478608ba8c42"},"vehicle_type_id":"4","last_reported":1736420849,"current_range_meters":16000,"station_id":"ce4bh0h2rcd13ifvqd40","pricing_plan_id":"cebpf4jnsgd1na2vs0mg"},{"bike_id":"b9d90f1c-44e2-459b-80d9-37f91fa508d2","system_id":"levelo_inurba_marseille","lat":43.28932,"lon":5.39655,"is_reserved":false,"is_disabled":true,"rental_uris":{"android":"levelo://app?vid=b9d90f1c-44e2-459b-80d9-37f91fa508d2","ios":"levelo://app?vid=b9d90f1c-44e2-459b-80d9-37f91fa508d2"},"vehicle_type_id":"4","last_reported":1736420849,"current_range_meters":9600,"station_id":"ce4bh3h2rcd13ifvqdn0","pricing_plan_id":"cebpf4jnsgd1na2vs0mg"},{"bike_id":"9049cff3-bf64-4a4c-aa97-9a5871e0f4a0","system_id":"levelo_inurba_marseille","lat":43.23144,"lon":5.4371,"is_reserved":false,"is_disabled":false,"rental_uris":{"android":"levelo://app?vid=9049cff3-bf64-4a4c-aa97-9a5871e0f4a0","ios":"levelo://app?vid=9049cff3-bf64-4a4c-aa97-9a5871e0f4a0"},"vehicle_type_id":"4","last_reported":1736420849,"current_range_meters":9200,"station_id":"ce4bhmp2rcd13ifvqgog","pricing_plan_id":"cebpf4jnsgd1na2vs0mg"},{"bike_id":"65fa620c-cd34-47c2-8e25-36668566ad04","system_id":"levelo_inurba_marseille","lat":43.26499,"lon":5.39551,"is_reserved":false,"is_disabled":false,"rental_uris":{"android":"levelo://app?vid=65fa620c-cd34-47c2-8e25-36668566ad04","ios":"levelo://app?vid=65fa620c-cd34-47c2-8e25-36668566ad04"},"vehicle_type_id":"4","last_reported":1736420849,"current_range_meters":38800,"station_id":"ce4bhi12rcd13ifvqfq0","pricing_plan_id":"cebpf4jnsgd1na2vs0mg"},{"bike_id":"f470eec6-4323-4e88-a369-2382b3185dde","system_id":"levelo_inurba_marseille","lat":43.30534,"lon":5.36703,"is_reserved":false,"is_disabled":false,"rental_uris":{"android":"levelo://app?vid=f470eec6-4323-4e88-a369-2382b3185dde","ios":"levelo://app?vid=f470eec6-4323-4e88-a369-2382b3185dde"},"vehicle_type_id":"4","last_reported":1736420849,"current_range_meters":26000,"station_id":"ce4bgrp2rcd13ifvqc9g","pricing_plan_id":"cebpf4jnsgd1na2vs0mg"},{"bike_id":"4269a183-f036-450e-acd8-7aaa7c07cac6","system_id":"levelo_inurba_marseille","lat":43.25493,"lon":5.37651,"is_reserved":false,"is_disabled":false,"rental_uris":{"android":"levelo://app?vid=4269a183-f036-450e-acd8-7aaa7c07cac6","ios":"levelo://app?vid=4269a183-f036-450e-acd8-7aaa7c07cac6"},"vehicle_type_id":"4","last_reported":1736420849,"current_range_meters":38800,"station_id":"ce4bhh12rcd13ifvqff0","pricing_plan_id":"cebpf4jnsgd1na2vs0mg"},{"bike_id":"8f7bcd6a-3a57-4d9c-8dff-26b04bacdc89","system_id":"levelo_inurba_marseille","lat":43.31066,"lon":5.38367,"is_reserved":false,"is_disabled":false,"rental_uris":{"android":"levelo://app?vid=8f7bcd6a-3a57-4d9c-8dff-26b04bacdc89","ios":"levelo://app?vid=8f7bcd6a-3a57-4d9c-8dff-26b04bacdc89"},"vehicle_type_id":"4","last_reported":1736420849,"current_range_meters":19600,"station_id":"ce4bgv92rcd13ifvqcr0","pricing_plan_id":"cebpf4jnsgd1na2vs0mg"},