{"last_updated":1776908735,"ttl":60,"version":"2.2","data":{"bikes":[{"bike_id":"7aea2240-32f9-4c2f-acec-273ffe099474","system_id":"levelo_inurba_marseille","lat":43.24662,"lon":5.38163,"is_reserved":false,"is_disabled":false,"rental_uris":{"android":"levelo://app?vid=7aea2240-32f9-4c2f-acec-273ffe099474","ios":"levelo://app?vid=7aea2240-32f9-4c2f-acec-273ffe099474"},"vehicle_type_id":"4","last_reported":1776908735,"current_range_meters":2800,"station_id":"ce4bhih2rcd13ifvqfr0","pricing_plan_id":"cebpf4jnsgd1na2vs0mg"},{"bike_id":"57641b41-e2ca-4180-a530-d2fc960afd40","system_id":"levelo_inurba_marseille","lat":43.26678,"lon":5.38282,"is_reserved":false,"is_disabled":false,"rental_uris":{"android":"levelo://app?vid=57641b41-e2ca-4180-a530-d2fc960afd40","ios":"levelo://app?vid=57641b41-e2ca-4180-a530-d2fc960afd40"},"vehicle_type_id":"4","last_reported":1776908735,"current_range_meters":2800,"station_id":"ce4bhg92rcd13ifvqf90","pricing_plan_id":"cebpf4jnsgd1na2vs0mg"},{"bike_id":"3c89d143-3bfb-4753-a182-535ee5f95997","system_id":"levelo_inurba_marseille","lat":43.23199,"lon":5.40003,"is_reserved":false,"is_disabled":true,"rental_uris":{"android":"levelo://app?vid=3c89d143-3bfb-4753-a182-535ee5f95997","ios":"levelo://app?vid=3c89d143-3bfb-4753-a182-535ee5f95997"},"vehicle_type_id":"4","last_reported":1776908735,"current_range_meters":2800,"station_id":"ce4bhn12rcd13ifvqgqg","pricing_plan_id":"cebpf4jnsgd1na2vs0mg"},{"bike_id":"9dd85f68-b7c1-435c-8a61-5c7afe209e6c","system_id":"levelo_inurba_marseille","lat":43.29588,"lon":5.36774,"is_reserved":false,"is_disabled":false,"rental_uris":{"android":"levelo://app?vid=9dd85f68-b7c1-435c-8a61-5c7afe209e6c","ios":"levelo://app?vid=9dd85f68-b7c1-435c-8a61-5c7afe209e6c"},"vehicle_type_id":"4","last_reported":1776908735,"current_range_meters":2800,"station_id":"ce4bgph2rcd13ifvqc2g","pricing_plan_id":"cebpf4jnsgd1na2vs0mg"},{"bike_id":"b8ecd6af-cc0a-4926-b9cc-37652d45b66d","system_id":"levelo_inurba_marseille","lat":43.26364,"lon":5.4107,"is_reserved":false,"is_disabled":false,"rental_uris":{"android":"levelo://app?vid=b8ecd6af-cc0a-4926-b9cc-37652d45b66d","ios":"levelo://app?vid=b8ecd6af-cc0a-4926-b9cc-37652d45b66d"},"vehicle_type_id":"4","last_reported":1776908735,"current_range_meters":2800,"station_id":"st_d4e5ca6na9uc73bfl5fg","pricing_plan_id":"cebpf4jnsgd1na2vs0mg"},{"bike_id":"2b73fbdf-7127-4242-a167-3b8dbfe26e87","system_id":"levelo_inurba_marseille","lat":43.29316,"lon":5.372,"is_reserved":false,"is_disabled":true,"rental_uris":{"android":"levelo://app?vid=2b73fbdf-7127-4242-a167-3b8dbfe26e87","ios":"levelo://app?vid=2b73fbdf-7127-4242-a167-3b8dbfe26e87"},"vehicle_type_id":"4","last_reported":1776908735,"current_range_meters":3200,"station_id":"ce4bgh92rcd13ifvqb40","pricing_plan_id":"cebpf4jnsgd1na2vs0mg"},{"bike_id":"069f4a65-639b-4661-8c59-423fd490779a","system_id":"levelo_inurba_marseille","lat":43.31166,"lon":5.38702,"is_reserved":false,"is_disabled":false,"rental_uris":{"android":"levelo://app?vid=069f4a65-639b-4661-8c59-423fd490779a","ios":"levelo://app?vid=069f4a65-639b-4661-8c59-423fd490779a"},"vehicle_type_id":"4","last_reported":1776908735,"current_range_meters":3200,"station_id":"ce4bgv12rcd13ifvqcp0","pricing_plan_id":"cebpf4jnsgd1na2vs0mg"},{"bike_id":"2f688e4e-6e35-47e8-a9e9-52061c4c2044","system_id":"levelo_inurba_marseille","lat":43.24659,"lon":5.38169,"is_reserved":false,"is_disabled":false,"rental_uris":{"android":"levelo://app?vid=2f688e4e-6e35-47e8-a9e9-52061c4c2044","ios":"levelo://app?vid=2f688e4e-6e35-47e8-a9e9-52061c4c2044"},"vehicle_type_id":"4","last_reported":1776908735,"current_range_meters":3200,"station_id":"ce4bhih2rcd13ifvqfr0","pricing_plan_id":"cebpf4jnsgd1na2vs0mg"},{"bike_id":"a6be100e-f50b-4861-823d-12ab4b39e79a","system_id":"levelo_inurba_marseille","lat":43.24469,"lon":5.4255,"is_reserved":false,"is_disabled":false,"rental_uris":{"android":"levelo://app?vid=a6be100e-f50b-4861-823d-12ab4b39e79a","ios":"levelo://app?vid=a6be100e-f50b-4861-823d-12ab4b39e79a"},"vehicle_type_id":"4","last_reported":1776908735,"current_range_meters":3600,"station_id":"st_d4a3vfp97mjs738cd8kg","pricing_plan_id":"cebpf4jnsgd1na2vs0mg"},{"bike_id":"63dc8bdc-9afb-4d89-8dbc-6eca23d62090","system_id":"levelo_inurba_marseille","lat":43.30253,"lon":5.40087,"is_reserved":false,"is_disabled":false,"rental_uris":{"android":"levelo://app?vid=63dc8bdc-9afb-4d89-8dbc-6eca23d62090","ios":"levelo://app?vid=63dc8bdc-9afb-4d89-8dbc-6eca23d62090"},"vehicle_type_id":"4","last_reported":1776908735,"current_range_meters":3600,"station_id":"ce4bgvh2rcd13ifvqcs0","pricing_plan_id":"cebpf4jnsgd1na2vs0mg"},{"bike_id":"25074937-c15b-4836-8234-b64d8f6d939f","system_id":"levelo_inurba_marseille","lat":43.27428,"lon":5.39424,"is_reserved":false,"is_disabled":true,"rental_uris":{"android":"levelo://app?vid=25074937-c15b-4836-8234-b64d8f6d939f","ios":"levelo://app?vid=25074937-c15b-4836-8234-b64d8f6d939f"},"vehicle_type_id":"4","last_reported":1776908735,"current_range_meters":3600,"station_id":"ce4bhdp2rcd13ifvqf20","pricing_plan_id":"cebpf4jnsgd1na2vs0mg"},{"bike_id":"d9be86bb-6c4e-4c05-bc60-e02431cbb916","system_id":"levelo_inurba_marseille","lat":43.31913,"lon":5.36811,"is_reserved":false,"is_disabled":false,"rental_uris":{"android":"levelo://app?vid=d9be86bb-6c4e-4c05-bc60-e02431cbb916","ios":"levelo://app?vid=d9be86bb-6c4e-4c05-bc60-e02431cbb916"},"vehicle_type_id":"4","last_reported":1776908735,"current_range_meters":3600,"station_id":"st_d6o2h0d0559c73evc1b0","pricing_plan_id":"cebpf4jnsgd1na2vs0mg"},{"bike_id":"d204400f-8745-41a5-b8f3-30b0d4c8bfb2","system_id":"levelo_inurba_marseille","lat":43.31885,"lon":5.36751,"is_reserved":false,"is_disabled":false,"rental_uris":{"android":"levelo://app?vid=d204400f-8745-41a5-b8f3-30b0d4c8bfb2","ios":"levelo://app?vid=d204400f-8745-41a5-b8f3-30b0d4c8bfb2"},"vehicle_type_id":"4","last_reported":1776908735,"current_range_meters":3600,"station_id":"st_d6o2h0d0559c73evc1b0","pricing_plan_id":"cebpf4jnsgd1na2vs0mg"},{"bike_id":"ecad6050-1832-4468-8d69-7ed56849f7b0","system_id":"levelo_inurba_marseille","lat":43.31551,"lon":5.38025,"is_reserved":false,"is_disabled":false,"rental_uris":{"android":"levelo://app?vid=ecad6050-1832-4468-8d69-7ed56849f7b0","ios":"levelo://app?vid=ecad6050-1832-4468-8d69-7ed56849f7b0"},"vehicle_type_id":"4","last_reported":1776908735,"current_range_meters":3600,"station_id":"ce4bhsp2rcd13ifvqi50","pricing_plan_id":"cebpf4jnsgd1na2vs0mg"},{"bike_id":"7109d692-775c-445c-ba92-fa20dcb48f6e","system_id":"levelo_inurba_marseille","lat":43.29978,"lon":5.37476,"is_reserved":false,"is_disabled":false,"rental_uris":{"android":"levelo://app?vid=7109d692-775c-445c-ba92-fa20dcb48f6e","ios":"levelo://app?vid=7109d692-775c-445c-ba92-fa20dcb48f6e"},"vehicle_type_id":"4","last_reported":1776908735,"current_range_meters":4000,"station_id":"","pricing_plan_id":"cebpf4jnsgd1na2vs0mg"},{"bike_id":"f522d3b1-f8f1-4c00-9391-0ce99277bb1b","system_id":"levelo_inurba_marseille","lat":43.23385,"lon":5.41249,"is_reserved":false,"is_disabled":false,"rental_uris":{"android":"levelo://app?vid=f522d3b1-f8f1-4c00-9391-0ce99277bb1b","ios":"levelo://app?vid=f522d3b1-f8f1-4c00-9391-0ce99277bb1b"},"vehicle_type_id":"4","last_reported":1776908735,"current_range_meters":4000,"station_id":"st_d75pvndhf9lc73cqq3eg","pricing_plan_id":"cebpf4jnsgd1na2vs0mg"},{"bike_id":"3ddb5174-c50c-4964-ba54-898026491bc0","system_id":"levelo_inurba_marseille","lat":43.29875,"lon":5.38919,"is_reserved":false,"is_disabled":false,"rental_uris":{"android":"levelo://app?vid=3ddb5174-c50c-4964-ba54-898026491bc0","ios":"levelo://app?vid=3ddb5174-c50c-4964-ba54-898026491bc0"},"vehicle_type_id":"4","last_reported":1776908735,"current_range_meters":4000,"station_id":"ce4bh392rcd13ifvqdl0","pricing_plan_id":"cebpf4jnsgd1na2vs0mg"},{"bike_id":"58bd755a-5b41-4ec9-b3ef-fe4afc62b907","system_id":"levelo_inurba_marseille","lat":43.31326,"lon":5.39682,"is_reserved":false,"is_disabled":false,"rental_uris":{"android":"levelo://app?vid=58bd755a-5b41-4ec9-b3ef-fe4afc62b907","ios":"levelo://app?vid=58bd755a-5b41-4ec9-b3ef-fe4afc62b907"},"vehicle_type_id":"4","last_reported":1776908735,"current_range_meters":4000,"station_id":"ce4bgvp2rcd13ifvqcu0","pricing_plan_id":"cebpf4jnsgd1na2vs0mg"},{"bike_id":"70607026-6186-4a87-8881-b5bc80f348a4","system_id":"levelo_inurba_marseille","lat":43.30763,"lon":5.37147,"is_reserved":false,"is_disabled":false,"rental_uris":{"android":"levelo://app?vid=70607026-6186-4a87-8881-b5bc80f348a4","ios":"levelo://app?vid=70607026-6186-4a87-8881-b5bc80f348a4"},"vehicle_type_id":"4","last_reported":1776908735,"current_range_meters":4000,"station_id":"","pricing_plan_id":"cebpf4jnsgd1na2vs0mg"},{"bike_id":"94dd750c-b803-4852-8849-ece161b19e86","system_id":"levelo_inurba_marseille","lat":43.28482,"lon":5.48393,"is_reserved":false,"is_disabled":false,"rental_uris":{"android":"levelo://app?vid=94dd750c-b803-4852-8849-ece161b19e86","ios":"levelo://app?vid=94dd750c-b803-4852-8849-ece161b19e86"},"vehicle_type_id":"4","last_reported":1776908735,"current_range_meters":4000,"station_id":"st_d3svhcjqgbts73a3dn0g","pricing_plan_id":"cebpf4jnsgd1na2vs0mg"},{"bike_id":"a5932d33-7fe4-4ab5-ab73-558a4a420627","system_id":"levelo_inurba_marseille","lat":43.24464,"lon":5.40086,"is_reserved":false,"is_disabled":false,"rental_uris":{"android":"levelo://app?vid=a5932d33-7fe4-4ab5-ab73-558a4a420627","ios":"levelo://app?vid=a5932d33-7fe4-4ab5-ab73-558a4a420627"},"vehicle_type_id":"4","last_reported":1776908735,"current_range_meters":4000,"station_id":"","pricing_plan_id":"cebpf4jnsgd1na2vs0mg"},{"bike_id":"536fa38a-c1bc-4652-b1fd-ef3ff74def6b","system_id":"levelo_inurba_marseille","lat":43.28865,"lon":5.4252,"is_reserved":false,"is_disabled":false,"rental_uris":{"android":"levelo://app?vid=536fa38a-c1bc-4652-b1fd-ef3ff74def6b","ios":"levelo://app?vid=536fa38a-c1bc-4652-b1fd-ef3ff74def6b"},"vehicle_type_id":"4","last_reported":1776908735,"current_range_meters":4000,"station_id":"st_d3b462108ojc7389ooeg","pricing_plan_id":"cebpf4jnsgd1na2vs0mg"},{"bike_id":"5c4b69a3-9b3e-4c45-9257-b2493f6ffadd","system_id":"levelo_inurba_marseille","lat":43.290362,"lon":5.386428,"is_reserved":false,"is_disabled":false,"rental_uris":{"android":"levelo://app?vid=5c4b69a3-9b3e-4c45-9257-b2493f6ffadd","ios":"levelo://app?vid=5c4b69a3-9b3e-4c45-9257-b2493f6ffadd"},"vehicle_type_id":"4","last_reported":1776908735,"current_range_meters":4000,"station_id":"ce4bh4p2rcd13ifvqe0g","pricing_plan_id":"cebpf4jnsgd1na2vs0mg"},{"bike_id":"686ddd84-b72d-4279-9981-6bffd4fd5615","system_id":"levelo_inurba_marseille","lat":43.31202,"lon":5.38656,"is_reserved":false,"is_disabled":false,"rental_uris":{"android":"levelo://app?vid=686ddd84-b72d-4279-9981-6bffd4fd5615","ios":"levelo://app?vid=686ddd84-b72d-4279-9981-6bffd4fd5615"},"vehicle_type_id":"4","last_reported":1776908735,"current_range_meters":4400,"station_id":"","pricing_plan_id":"cebpf4jnsgd1na2vs0mg"},{"bike_id":"ab441cdc-9cd1-4c8e-b69e-34bb46fece34","system_id":"levelo_inurba_marseille","lat":43.29391,"lon":5.363,"is_reserved":false,"is_disabled":false,"rental_uris":{"android":"levelo://app?vid=ab441cdc-9cd1-4c8e-b69e-34bb46fece34","ios":"levelo://app?vid=ab441cdc-9cd1-4c8e-b69e-34bb46fece34"},"vehicle_type_id":"4","last_reported":1776908735,"current_range_meters":4400,"station_id":"","pricing_plan_id":"cebpf4jnsgd1na2vs0mg"},{"bike_id":"b913c996-50b1-4ff5-9c12-2c611f1d92ea","system_id":"levelo_inurba_marseille","lat":43.30417,"lon":5.39764,"is_reserved":false,"is_disabled":false,"rental_uris":{"android":"levelo://app?vid=b913c996-50b1-4ff5-9c12-2c611f1d92ea","ios":"levelo://app?vid=b913c996-50b1-4ff5-9c12-2c611f1d92ea"},"vehicle_type_id":"4","last_reported":1776908735,"current_range_meters":4400,"station_id":"ce4bh092rcd13ifvqd20","pricing_plan_id":"cebpf4jnsgd1na2vs0mg"},{"bike_id":"2d55dcb6-939b-4f02-b41f-c34266fa9e7a","system_id":"levelo_inurba_marseille","lat":43.29202,"lon":5.39339,"is_reserved":false,"is_disabled":true,"rental_uris":{"android":"levelo://app?vid=2d55dcb6-939b-4f02-b41f-c34266fa9e7a","ios":"levelo://app?vid=2d55dcb6-939b-4f02-b41f-c34266fa9e7a"},"vehicle_type_id":"4","last_reported":1776908735,"current_range_meters":4400,"station_id":"ce4bh192rcd13ifvqdd0","pricing_plan_id":"cebpf4jnsgd1na2vs0mg"},{"bike_id":"b6958d12-23c3-4d0c-9873-d937cd2dc935","system_id":"levelo_inurba_marseille","lat":43.30124,"lon":5.39851,"is_reserved":false,"is_disabled":false,"rental_uris":{"android":"levelo://app?vid=b6958d12-23c3-4d0c-9873-d937cd2dc935","ios":"levelo://app?vid=b6958d12-23c3-4d0c-9873-d937cd2dc935"},"vehicle_type_id":"4","last_reported":1776908735,"current_range_meters":4400,"station_id":"ce4bh0h2rcd13ifvqd40","pricing_plan_id":"cebpf4jnsgd1na2vs0mg"},{"bike_id":"f6c21f72-aefa-4006-9c21-83aaacd84dc9","system_id":"levelo_inurba_marseille","lat":43.23149,"lon":5.43698,"is_reserved":false,"is_disabled":false,"rental_uris":{"android":"levelo://app?vid=f6c21f72-aefa-4006-9c21-83aaacd84dc9","ios":"levelo://app?vid=f6c21f72-aefa-4006-9c21-83aaacd84dc9"},"vehicle_type_id":"4","last_reported":1776908735,"current_range_meters":4400,"station_id":"ce4bhmp2rcd13ifvqgog","pricing_plan_id":"cebpf4jnsgd1na2vs0mg"},{"bike_id":"21880da7-0211-4f59-ad3c-2038f9e18f83","system_id":"levelo_inurba_marseille","lat":43.28402,"lon":5.37511,"is_reserved":false,"is_disabled":false,"rental_uris":{"android":"levelo://app?vid=21880da7-0211-4f59-ad3c-2038f9e18f83","ios":"levelo://app?vid=21880da7-0211-4f59-ad3c-2038f9e18f83"},"vehicle_type_id":"4","last_reported":1776908735,"current_range_meters":4400,"station_id":"ce4bh412rcd13ifvqds0","pricing_plan_id":"cebpf4jnsgd1na2vs0mg"},{"bike_id":"5b333185-778b-45e4-874d-0e2e87eb3471","system_id":"levelo_inurba_marseille","lat":43.30944,"lon":5.40099,"is_reserved":false,"is_disabled":false,"rental_uris":{"android":"levelo://app?vid=5b333185-778b-45e4-874d-0e2e87eb3471","ios":"levelo://app?vid=5b333185-778b-45e4-874d-0e2e87eb3471"},"vehicle_type_id":"4","last_reported":1776908735,"current_range_meters":4400,"station_id":"ce4bgvp2rcd13ifvqct0","pricing_plan_id":"cebpf4jnsgd1na2vs0mg"},{"bike_id":"1b9f3033-b460-4e1f-a438-9ab71168e18f","system_id":"levelo_inurba_marseille","lat":43.28954,"lon":5.36637,"is_reserved":false,"is_disabled":false,"rental_uris":{"android":"levelo://app?vid=1b9f3033-b460-4e1f-a438-9ab71168e18f","ios":"levelo://app?vid=1b9f3033-b460-4e1f-a438-9ab71168e18f"},"vehicle_type_id":"4","last_reported":1776908735,"current_range_meters":4800,"station_id":"ce4bhap2rcd13ifvqek0","pricing_plan_id":"cebpf4jnsgd1na2vs0mg"},{"bike_id":"73d436be-8bb5-400c-b5b8-edfd7e8d5913","system_id":"levelo_inurba_marseille","lat":43.337444,"lon":5.374475,"is_reserved":false,"is_disabled":false,"rental_uris":{"android":"levelo://app?vid=73d436be-8bb5-400c-b5b8-edfd7e8d5913","ios":"levelo://app?vid=73d436be-8bb5-400c-b5b8-edfd7e8d5913"},"vehicle_type_id":"4","last_reported":1776908735,"current_range_meters":4800,"station_id":"ce4bhgp2rcd13ifvqfc0","pricing_plan_id":"cebpf4jnsgd1na2vs0mg"},{"bike_id":"04257b95-4499-46e1-a4e3-88ab526291ba","system_id":"levelo_inurba_marseille","lat":43.28471,"lon":5.48419,"is_reserved":false,"is_disabled":false,"rental_uris":{"android":"levelo://app?vid=04257b95-4499-46e1-a4e3-88ab526291ba","ios":"levelo://app?vid=04257b95-4499-46e1-a4e3-88ab526291ba"},"vehicle_type_id":"4","last_reported":1776908735,"current_range_meters":4800,"station_id":"","pricing_plan_id":"cebpf4jnsgd1na2vs0mg"},{"bike_id":"ff422c07-4472-471c-ab0d-dcb023acae97","system_id":"levelo_inurba_marseille","lat":43.30613,"lon":5.37151,"is_reserved":false,"is_disabled":false,"rental_uris":{"android":"levelo://app?vid=ff422c07-4472-471c-ab0d-dcb023acae97","ios":"levelo://app?vid=ff422c07-4472-471c-ab0d-dcb023acae97"},"vehicle_type_id":"4","last_reported":1776908735,"current_range_meters":4800,"station_id":"","pricing_plan_id":"cebpf4jnsgd1na2vs0mg"},{"bike_id":"53ac9b94-d2b8-401a-8133-9009372f217e","system_id":"levelo_inurba_marseille","lat":43.28463,"lon":5.48382,"is_reserved":false,"is_disabled":false,"rental_uris":{"android":"levelo://app?vid=53ac9b94-d2b8-401a-8133-9009372f217e","ios":"levelo://app?vid=53ac9b94-d2b8-401a-8133-9009372f217e"},"vehicle_type_id":"4","last_reported":1776908735,"current_range_meters":4800,"station_id":"","pricing_plan_id":"cebpf4jnsgd1na2vs0mg"},{"bike_id":"b6d0ba7f-995a-4330-bda6-34dd7197caa9","system_id":"levelo_inurba_marseille","lat":43.29023,"lon":5.38626,"is_reserved":false,"is_disabled":false,"rental_uris":{"android":"levelo://app?vid=b6d0ba7f-995a-4330-bda6-34dd7197caa9","ios":"levelo://app?vid=b6d0ba7f-995a-4330-bda6-34dd7197caa9"},"vehicle_type_id":"4","last_reported":1776908735,"current_range_meters":4800,"station_id":"ce4bh4p2rcd13ifvqe0g","pricing_plan_id":"cebpf4jnsgd1na2vs0mg"},{"bike_id":"07e126ce-d3f8-469f-ad9c-36d24e416b5a","system_id":"levelo_inurba_marseille","lat":43.26028,"lon":5.37547,"is_reserved":false,"is_disabled":false,"rental_uris":{"android":"levelo://app?vid=07e126ce-d3f8-469f-ad9c-36d24e416b5a","ios":"levelo://app?vid=07e126ce-d3f8-469f-ad9c-36d24e416b5a"},"vehicle_type_id":"4","last_reported":1776908735,"current_range_meters":4800,"station_id":"ce4bhgh2rcd13ifvqfa0","pricing_plan_id":"cebpf4jnsgd1na2vs0mg"},{"bike_id":"6ee75b1e-3389-452c-805f-052a7231f6b2","system_id":"levelo_inurba_marseille","lat":43.28883,"lon":5.42538,"is_reserved":false,"is_disabled":false,"rental_uris":{"android":"levelo://app?vid=6ee75b1e-3389-452c-805f-052a7231f6b2","ios":"levelo://app?vid=6ee75b1e-3389-452c-805f-052a7231f6b2"},"vehicle_type_id":"4","last_reported":1776908735,"current_range_meters":5600,"station_id":"st_d3b462108ojc7389ooeg","pricing_plan_id":"cebpf4jnsgd1na2vs0mg"},{"bike_id":"faf9535a-bce1-4796-967b-116ea7429902","system_id":"levelo_inurba_marseille","lat":43.29796,"lon":5.39359,"is_reserved":false,"is_disabled":false,"rental_uris":{"android":"levelo://app?vid=faf9535a-bce1-4796-967b-116ea7429902","ios":"levelo://app?vid=faf9535a-bce1-4796-967b-116ea7429902"},"vehicle_type_id":"4","last_reported":1776908735,"current_range_meters":5600,"station_id":"chh1huq6cuj3fo74tm60","pricing_plan_id":"cebpf4jnsgd1na2vs0mg"},{"bike_id":"46fcd30c-c87b-4d27-8e72-a965b5215561","system_id":"levelo_inurba_marseille","lat":43.30366,"lon":5.42492,"is_reserved":false,"is_disabled":false,"rental_uris":{"android":"levelo://app?vid=46fcd30c-c87b-4d27-8e72-a965b5215561","ios":"levelo://app?vid=46fcd30c-c87b-4d27-8e72-a965b5215561"},"vehicle_type_id":"4","last_reported":1776908735,"current_range_meters":5600,"station_id":"ce4bhoh2rcd13ifvqh6g","pricing_plan_id":"cebpf4jnsgd1na2vs0mg"},{"bike_id":"b2bfb9c8-e0a3-4e44-af92-523c8c772ac7","system_id":"levelo_inurba_marseille","lat":43.26688,"lon":5.38268,"is_reserved":false,"is_disabled":false,"rental_uris":{"android":"levelo://app?vid=b2bfb9c8-e0a3-4e44-af92-523c8c772ac7","ios":"levelo://app?vid=b2bfb9c8-e0a3-4e44-af92-523c8c772ac7"},"vehicle_type_id":"4","last_reported":1776908735,"current_range_meters":5600,"station_id":"ce4bhg92rcd13ifvqf90","pricing_plan_id":"cebpf4jnsgd1na2vs0mg"},{"bike_id":"97640678-22eb-456e-8a6b-8940edbd10ca","system_id":"levelo_inurba_marseille","lat":43.23921,"lon":5.41506,"is_reserved":false,"is_disabled":false,"rental_uris":{"android":"levelo://app?vid=97640678-22eb-456e-8a6b-8940edbd10ca","ios":"levelo://app?vid=97640678-22eb-456e-8a6b-8940edbd10ca"},"vehicle_type_id":"4","last_reported":1776908735,"current_range_meters":5600,"station_id":"","pricing_plan_id":"cebpf4jnsgd1na2vs0mg"},{"bike_id":"c48e9d29-935b-416a-b74e-c07a107d79d3","system_id":"levelo_inurba_marseille","lat":43.31726,"lon":5.42401,"is_reserved":false,"is_disabled":false,"rental_uris":{"android":"levelo://app?vid=c48e9d29-935b-416a-b74e-c07a107d79d3","ios":"levelo://app?vid=c48e9d29-935b-416a-b74e-c07a107d79d3"},"vehicle_type_id":"4","last_reported":1776908735,"current_range_meters":5600,"station_id":"ce4bhp92rcd13ifvqhbg","pricing_plan_id":"cebpf4jnsgd1na2vs0mg"},{"bike_id":"e894a4f9-57b8-404c-a053-fa8ff9222667","system_id":"levelo_inurba_marseille","lat":43.28587,"lon":5.39922,"is_reserved":false,"is_disabled":true,"rental_uris":{"android":"levelo://app?vid=e894a4f9-57b8-404c-a053-fa8ff9222667","ios":"levelo://app?vid=e894a4f9-57b8-404c-a053-fa8ff9222667"},"vehicle_type_id":"4","last_reported":1776908735,"current_range_meters":5600,"station_id":"st_d4a7ka997mjs738ck50g","pricing_plan_id":"cebpf4jnsgd1na2vs0mg"},{"bike_id":"1c4db81e-e54e-450a-b910-a202dc639503","system_id":"levelo_inurba_marseille","lat":43.28473,"lon":5.48407,"is_reserved":false,"is_disabled":false,"rental_uris":{"android":"levelo://app?vid=1c4db81e-e54e-450a-b910-a202dc639503","ios":"levelo://app?vid=1c4db81e-e54e-450a-b910-a202dc639503"},"vehicle_type_id":"4","last_reported":1776908735,"current_range_meters":6000,"station_id":"","pricing_plan_id":"cebpf4jnsgd1na2vs0mg"},{"bike_id":"8c33dcad-8792-4b7f-9ebc-77429e11d6b0","system_id":"levelo_inurba_marseille","lat":43.32496,"lon":5.36576,"is_reserved":false,"is_disabled":false,"rental_uris":{"android":"levelo://app?vid=8c33dcad-8792-4b7f-9ebc-77429e11d6b0","ios":"levelo://app?vid=8c33dcad-8792-4b7f-9ebc-77429e11d6b0"},"vehicle_type_id":"4","last_reported":1776908735,"current_range_meters":6000,"station_id":"ce4bhs12rcd13ifvqhvg","pricing_plan_id":"cebpf4jnsgd1na2vs0mg"},{"bike_id":"7b477510-f637-48a3-8d07-151b6fdaa492","system_id":"levelo_inurba_marseille","lat":43.30138,"lon":5.39884,"is_reserved":false,"is_disabled":false,"rental_uris":{"android":"levelo://app?vid=7b477510-f637-48a3-8d07-151b6fdaa492","ios":"levelo://app?vid=7b477510-f637-48a3-8d07-151b6fdaa492"},"vehicle_type_id":"4","last_reported":1776908735,"current_range_meters":6000,"station_id":"ce4bh0h2rcd13ifvqd40","pricing_plan_id":"cebpf4jnsgd1na2vs0mg"},{"bike_id":"fc83597b-c92a-4d6b-9ec3-85cccb5b70a7","system_id":"levelo_inurba_marseille","lat":43.31967,"lon":5.36821,"is_reserved":false,"is_disabled":false,"rental_uris":{"android":"levelo://app?vid=fc83597b-c92a-4d6b-9ec3-85cccb5b70a7","ios":"levelo://app?vid=fc83597b-c92a-4d6b-9ec3-85cccb5b70a7"},"vehicle_type_id":"4","last_reported":1776908735,"current_range_meters":6000,"station_id":"","pricing_plan_id":"cebpf4jnsgd1na2vs0mg"},{"bike_id":"1095ec62-1f22-4464-98d0-fa951422d62c","system_id":"levelo_inurba_marseille","lat":43.31494,"lon":5.37307,"is_reserved":false,"is_disabled":false,"rental_uris":{"android":"levelo://app?vid=1095ec62-1f22-4464-98d0-fa951422d62c","ios":"levelo://app?vid=1095ec62-1f22-4464-98d0-fa951422d62c"},"vehicle_type_id":"4","last_reported":1776908735,"current_range_meters":6000,"station_id":"ce4bgt12rcd13ifvqcd0","pricing_plan_id":"cebpf4jnsgd1na2vs0mg"},{"bike_id":"b0292b57-bc6e-4d3d-855f-2c85d8c85123","system_id":"levelo_inurba_marseille","lat":43.29321,"lon":5.36256,"is_reserved":false,"is_disabled":false,"rental_uris":{"android":"levelo://app?vid=b0292b57-bc6e-4d3d-855f-2c85d8c85123","ios":"levelo://app?vid=b0292b57-bc6e-4d3d-855f-2c85d8c85123"},"vehicle_type_id":"4","last_reported":1776908735,"current_range_meters":6000,"station_id":"","pricing_plan_id":"cebpf4jnsgd1na2vs0mg"},{"bike_id":"50918bbe-8b4a-4832-b89d-ffef40c798ba","system_id":"levelo_inurba_marseille","lat":43.32365,"lon":5.36758,"is_reserved":false,"is_disabled":false,"rental_uris":{"android":"levelo://app?vid=50918bbe-8b4a-4832-b89d-ffef40c798ba","ios":"levelo://app?vid=50918bbe-8b4a-4832-b89d-ffef40c798ba"},"vehicle_type_id":"4","last_reported":1776908735,"current_range_meters":6000,"station_id":"ce4bhsh2rcd13ifvqi2g","pricing_plan_id":"cebpf4jnsgd1na2vs0mg"},{"bike_id":"e0e4fac1-7277-43eb-bd52-3924959d00e0","system_id":"levelo_inurba_marseille","lat":43.30946,"lon":5.39658,"is_reserved":false,"is_disabled":false,"rental_uris":{"android":"levelo://app?vid=e0e4fac1-7277-43eb-bd52-3924959d00e0","ios":"levelo://app?vid=e0e4fac1-7277-43eb-bd52-3924959d00e0"},"vehicle_type_id":"4","last_reported":1776908735,"current_range_meters":6000,"station_id":"ce4bh012rcd13ifvqcv0","pricing_plan_id":"cebpf4jnsgd1na2vs0mg"},{"bike_id":"0618c7b6-2150-45b5-9647-727f3eefe639","system_id":"levelo_inurba_marseille","lat":43.2902,"lon":5.38645,"is_reserved":false,"is_disabled":false,"rental_uris":{"android":"levelo://app?vid=0618c7b6-2150-45b5-9647-727f3eefe639","ios":"levelo://app?vid=0618c7b6-2150-45b5-9647-727f3eefe639"},"vehicle_type_id":"4","last_reported":1776908735,"current_range_meters":6000,"station_id":"ce4bh4p2rcd13ifvqe0g","pricing_plan_id":"cebpf4jnsgd1na2vs0mg"},{"bike_id":"a94d236d-eba8-4733-81ef-6d7a05120d94","system_id":"levelo_inurba_marseille","lat":43.24866,"lon":5.39401,"is_reserved":false,"is_disabled":false,"rental_uris":{"android":"levelo://app?vid=a94d236d-eba8-4733-81ef-6d7a05120d94","ios":"levelo://app?vid=a94d236d-eba8-4733-81ef-6d7a05120d94"},"vehicle_type_id":"4","last_reported":1776908735,"current_range_meters":6000,"station_id":"","pricing_plan_id":"cebpf4jnsgd1na2vs0mg"},{"bike_id":"6a5bbe70-48a0-4392-9136-9a0675f9bf10","system_id":"levelo_inurba_marseille","lat":43.26578,"lon":5.40365,"is_reserved":false,"is_disabled":true,"rental_uris":{"android":"levelo://app?vid=6a5bbe70-48a0-4392-9136-9a0675f9bf10","ios":"levelo://app?vid=6a5bbe70-48a0-4392-9136-9a0675f9bf10"},"vehicle_type_id":"4","last_reported":1776908735,"current_range_meters":6000,"station_id":"ce4bhmp2rcd13ifvqgng","pricing_plan_id":"cebpf4jnsgd1na2vs0mg"},{"bike_id":"200436f4-b883-4d98-92b3-e96454fa6696","system_id":"levelo_inurba_marseille","lat":43.31727,"lon":5.40444,"is_reserved":false,"is_disabled":false,"rental_uris":{"android":"levelo://app?vid=200436f4-b883-4d98-92b3-e96454fa6696","ios":"levelo://app?vid=200436f4-b883-4d98-92b3-e96454fa6696"},"vehicle_type_id":"4","last_reported":1776908735,"current_range_meters":6000,"station_id":"ce4bh012rcd13ifvqd00","pricing_plan_id":"cebpf4jnsgd1na2vs0mg"},{"bike_id":"031edc34-ec0c-42fe-997e-5e9b2ec2a0bc","system_id":"levelo_inurba_marseille","lat":43.298,"lon":5.37119,"is_reserved":false,"is_disabled":false,"rental_uris":{"android":"levelo://app?vid=031edc34-ec0c-42fe-997e-5e9b2ec2a0bc","ios":"levelo://app?vid=031edc34-ec0c-42fe-997e-5e9b2ec2a0bc"},"vehicle_type_id":"4","last_reported":1776908735,"current_range_meters":6000,"station_id":"ce4bgop2rcd13ifvqc1g","pricing_plan_id":"cebpf4jnsgd1na2vs0mg"},{"bike_id":"6b23908a-27fc-400a-b1b6-9daa8d6ab014","system_id":"levelo_inurba_marseille","lat":43.33707,"lon":5.39819,"is_reserved":false,"is_disabled":false,"rental_uris":{"android":"levelo://app?vid=6b23908a-27fc-400a-b1b6-9daa8d6ab014","ios":"levelo://app?vid=6b23908a-27fc-400a-b1b6-9daa8d6ab014"},"vehicle_type_id":"4","last_reported":1776908735,"current_range_meters":6000,"station_id":"","pricing_plan_id":"cebpf4jnsgd1na2vs0mg"},{"bike_id":"ce2ca8dc-1450-460c-a671-43388b052d50","system_id":"levelo_inurba_marseille","lat":43.27064,"lon":5.38305,"is_reserved":false,"is_disabled":false,"rental_uris":{"android":"levelo://app?vid=ce2ca8dc-1450-460c-a671-43388b052d50","ios":"levelo://app?vid=ce2ca8dc-1450-460c-a671-43388b052d50"},"vehicle_type_id":"4","last_reported":1776908735,"current_range_meters":6000,"station_id":"st_d3n2fo6cfp8s73cte1j0","pricing_plan_id":"cebpf4jnsgd1na2vs0mg"},{"bike_id":"08f8f201-1512-4089-8d4e-a27faf29817c","system_id":"levelo_inurba_marseille","lat":43.29641,"lon":5.40611,"is_reserved":false,"is_disabled":false,"rental_uris":{"android":"levelo://app?vid=08f8f201-1512-4089-8d4e-a27faf29817c","ios":"levelo://app?vid=08f8f201-1512-4089-8d4e-a27faf29817c"},"vehicle_type_id":"4","last_reported":1776908735,"current_range_meters":6400,"station_id":"ce4bh0h2rcd13ifvqd60","pricing_plan_id":"cebpf4jnsgd1na2vs0mg"},{"bike_id":"1ac32573-35ca-4b15-a3f0-b178fc7d1a24","system_id":"levelo_inurba_marseille","lat":43.23362,"lon":5.41295,"is_reserved":false,"is_disabled":false,"rental_uris":{"android":"levelo://app?vid=1ac32573-35ca-4b15-a3f0-b178fc7d1a24","ios":"levelo://app?vid=1ac32573-35ca-4b15-a3f0-b178fc7d1a24"},"vehicle_type_id":"4","last_reported":1776908735,"current_range_meters":6400,"station_id":"","pricing_plan_id":"cebpf4jnsgd1na2vs0mg"},{"bike_id":"7185d8ec-9dc6-41c8-947f-9d3b0aaeb86b","system_id":"levelo_inurba_marseille","lat":43.23908,"lon":5.37595,"is_reserved":false,"is_disabled":true,"rental_uris":{"android":"levelo://app?vid=7185d8ec-9dc6-41c8-947f-9d3b0aaeb86b","ios":"levelo://app?vid=7185d8ec-9dc6-41c8-947f-9d3b0aaeb86b"},"vehicle_type_id":"4","last_reported":1776908735,"current_range_meters":6400,"station_id":"st_d6sm7csbq4hs73f8fpjg","pricing_plan_id":"cebpf4jnsgd1na2vs0mg"},{"bike_id":"8cf4aaef-20b2-4c4b-8fd6-8496f3f6c9d2","system_id":"levelo_inurba_marseille","lat":43.23961,"lon":5.36634,"is_reserved":false,"is_disabled":false,"rental_uris":{"android":"levelo://app?vid=8cf4aaef-20b2-4c4b-8fd6-8496f3f6c9d2","ios":"levelo://app?vid=8cf4aaef-20b2-4c4b-8fd6-8496f3f6c9d2"},"vehicle_type_id":"4","last_reported":1776908735,"current_range_meters":6400,"station_id":"ce4bhi12rcd13ifvqfp0","pricing_plan_id":"cebpf4jnsgd1na2vs0mg"},{"bike_id":"44265ec6-78a7-44ea-89be-666f82f76022","system_id":"levelo_inurba_marseille","lat":43.24652,"lon":5.38153,"is_reserved":false,"is_disabled":false,"rental_uris":{"android":"levelo://app?vid=44265ec6-78a7-44ea-89be-666f82f76022","ios":"levelo://app?vid=44265ec6-78a7-44ea-89be-666f82f76022"},"vehicle_type_id":"4","last_reported":1776908735,"current_range_meters":6400,"station_id":"ce4bhih2rcd13ifvqfr0","pricing_plan_id":"cebpf4jnsgd1na2vs0mg"},{"bike_id":"cfcc8dcf-6816-46a1-945d-fdf5ccf50752","system_id":"levelo_inurba_marseille","lat":43.30925,"lon":5.41187,"is_reserved":false,"is_disabled":false,"rental_uris":{"android":"levelo://app?vid=cfcc8dcf-6816-46a1-945d-fdf5ccf50752","ios":"levelo://app?vid=cfcc8dcf-6816-46a1-945d-fdf5ccf50752"},"vehicle_type_id":"4","last_reported":1776908735,"current_range_meters":6400,"station_id":"","pricing_plan_id":"cebpf4jnsgd1na2vs0mg"},{"bike_id":"0d8738c8-efd5-4f83-bedf-81eb9a1d6096","system_id":"levelo_inurba_marseille","lat":43.33166,"lon":5.36172,"is_reserved":false,"is_disabled":false,"rental_uris":{"android":"levelo://app?vid=0d8738c8-efd5-4f83-bedf-81eb9a1d6096","ios":"levelo://app?vid=0d8738c8-efd5-4f83-bedf-81eb9a1d6096"},"vehicle_type_id":"4","last_reported":1776908735,"current_range_meters":6400,"station_id":"","pricing_plan_id":"cebpf4jnsgd1na2vs0mg"},{"bike_id":"059b4ad8-665d-46df-9a3f-e9b9a20a1c99","system_id":"levelo_inurba_marseille","lat":43.33534,"lon":5.37463,"is_reserved":false,"is_disabled":false,"rental_uris":{"android":"levelo://app?vid=059b4ad8-665d-46df-9a3f-e9b9a20a1c99","ios":"levelo://app?vid=059b4ad8-665d-46df-9a3f-e9b9a20a1c99"},"vehicle_type_id":"4","last_reported":1776908735,"current_range_meters":6400,"station_id":"st_d46tts09ee8s73dlu43g","pricing_plan_id":"cebpf4jnsgd1na2vs0mg"},{"bike_id":"3975f7ad-77e0-46a9-aeda-f957df137c03","system_id":"levelo_inurba_marseille","lat":43.29525,"lon":5.39392,"is_reserved":false,"is_disabled":false,"rental_uris":{"android":"levelo://app?vid=3975f7ad-77e0-46a9-aeda-f957df137c03","ios":"levelo://app?vid=3975f7ad-77e0-46a9-aeda-f957df137c03"},"vehicle_type_id":"4","last_reported":1776908735,"current_range_meters":6800,"station_id":"ce4bh292rcd13ifvqdf0","pricing_plan_id":"cebpf4jnsgd1na2vs0mg"},{"bike_id":"c9ffcf5b-0fcf-4553-a8cd-7281b0960203","system_id":"levelo_inurba_marseille","lat":43.29898,"lon":5.39743,"is_reserved":false,"is_disabled":false,"rental_uris":{"android":"levelo://app?vid=c9ffcf5b-0fcf-4553-a8cd-7281b0960203","ios":"levelo://app?vid=c9ffcf5b-0fcf-4553-a8cd-7281b0960203"},"vehicle_type_id":"4","last_reported":1776908735,"current_range_meters":6800,"station_id":"ce4bh0h2rcd13ifvqd50","pricing_plan_id":"cebpf4jnsgd1na2vs0mg"},{"bike_id":"d029b96e-b789-40db-b6cf-9ba9a983048f","system_id":"levelo_inurba_marseille","lat":43.30131,"lon":5.38784,"is_reserved":false,"is_disabled":false,"rental_uris":{"android":"levelo://app?vid=d029b96e-b789-40db-b6cf-9ba9a983048f","ios":"levelo://app?vid=d029b96e-b789-40db-b6cf-9ba9a983048f"},"vehicle_type_id":"4","last_reported":1776908735,"current_range_meters":6800,"station_id":"ce4bghh2rcd13ifvqb60","pricing_plan_id":"cebpf4jnsgd1na2vs0mg"},{"bike_id":"f8d46f57-68ae-42a5-9479-ae67d8834276","system_id":"levelo_inurba_marseille","lat":43.3002,"lon":5.37079,"is_reserved":false,"is_disabled":false,"rental_uris":{"android":"levelo://app?vid=f8d46f57-68ae-42a5-9479-ae67d8834276","ios":"levelo://app?vid=f8d46f57-68ae-42a5-9479-ae67d8834276"},"vehicle_type_id":"4","last_reported":1776908735,"current_range_meters":6800,"station_id":"","pricing_plan_id":"cebpf4jnsgd1na2vs0mg"},{"bike_id":"2ac15ea7-1904-4a69-9f5e-f4cb7754354f","system_id":"levelo_inurba_marseille","lat":43.24089,"lon":5.37754,"is_reserved":false,"is_disabled":false,"rental_uris":{"android":"levelo://app?vid=2ac15ea7-1904-4a69-9f5e-f4cb7754354f","ios":"levelo://app?vid=2ac15ea7-1904-4a69-9f5e-f4cb7754354f"},"vehicle_type_id":"4","last_reported":1776908735,"current_range_meters":6800,"station_id":"ce4bhnp2rcd13ifvqgvg","pricing_plan_id":"cebpf4jnsgd1na2vs0mg"},{"bike_id":"bba4c96f-b983-48cb-95fc-2eea4c8d3345","system_id":"levelo_inurba_marseille","lat":43.29902,"lon":5.39736,"is_reserved":false,"is_disabled":false,"rental_uris":{"android":"levelo://app?vid=bba4c96f-b983-48cb-95fc-2eea4c8d3345","ios":"levelo://app?vid=bba4c96f-b983-48cb-95fc-2eea4c8d3345"},"vehicle_type_id":"4","last_reported":1776908735,"current_range_meters":6800,"station_id":"ce4bh0h2rcd13ifvqd50","pricing_plan_id":"cebpf4jnsgd1na2vs0mg"},{"bike_id":"706684ba-8b68-4a9d-afc2-2624b92f67e1","system_id":"levelo_inurba_marseille","lat":43.29027,"lon":5.3864,"is_reserved":false,"is_disabled":false,"rental_uris":{"android":"levelo://app?vid=706684ba-8b68-4a9d-afc2-2624b92f67e1","ios":"levelo://app?vid=706684ba-8b68-4a9d-afc2-2624b92f67e1"},"vehicle_type_id":"4","last_reported":1776908735,"current_range_meters":6800,"station_id":"ce4bh4p2rcd13ifvqe0g","pricing_plan_id":"cebpf4jnsgd1na2vs0mg"},{"bike_id":"679b07cb-ad86-4695-93f8-e7a36ab51714","system_id":"levelo_inurba_marseille","lat":43.301,"lon":5.39065,"is_reserved":false,"is_disabled":false,"rental_uris":{"android":"levelo://app?vid=679b07cb-ad86-4695-93f8-e7a36ab51714","ios":"levelo://app?vid=679b07cb-ad86-4695-93f8-e7a36ab51714"},"vehicle_type_id":"4","last_reported":1776908735,"current_range_meters":6800,"station_id":"ce4bh192rcd13ifvqdb0","pricing_plan_id":"cebpf4jnsgd1na2vs0mg"},{"bike_id":"aa3d5a99-64bb-4996-8662-bfd3c15dc0fe","system_id":"levelo_inurba_marseille","lat":43.30138,"lon":5.3988,"is_reserved":false,"is_disabled":false,"rental_uris":{"android":"levelo://app?vid=aa3d5a99-64bb-4996-8662-bfd3c15dc0fe","ios":"levelo://app?vid=aa3d5a99-64bb-4996-8662-bfd3c15dc0fe"},"vehicle_type_id":"4","last_reported":1776908735,"current_range_meters":6800,"station_id":"ce4bh0h2rcd13ifvqd40","pricing_plan_id":"cebpf4jnsgd1na2vs0mg"},{"bike_id":"09012acd-7e2a-4e46-b00e-3df38d87fafc","system_id":"levelo_inurba_marseille","lat":43.2488,"lon":5.40637,"is_reserved":false,"is_disabled":false,"rental_uris":{"android":"levelo://app?vid=09012acd-7e2a-4e46-b00e-3df38d87fafc","ios":"levelo://app?vid=09012acd-7e2a-4e46-b00e-3df38d87fafc"},"vehicle_type_id":"4","last_reported":1776908735,"current_range_meters":7200,"station_id":"","pricing_plan_id":"cebpf4jnsgd1na2vs0mg"},{"bike_id":"e07ad077-8f60-4f8b-a35d-a0d5627a7e51","system_id":"levelo_inurba_marseille","lat":43.28666,"lon":5.35133,"is_reserved":false,"is_disabled":false,"rental_uris":{"android":"levelo://app?vid=e07ad077-8f60-4f8b-a35d-a0d5627a7e51","ios":"levelo://app?vid=e07ad077-8f60-4f8b-a35d-a0d5627a7e51"},"vehicle_type_id":"4","last_reported":1776908735,"current_range_meters":7200,"station_id":"","pricing_plan_id":"cebpf4jnsgd1na2vs0mg"},{"bike_id":"87247efe-0d67-428d-8d7b-ad29b673e6e9","system_id":"levelo_inurba_marseille","lat":43.29569,"lon":5.36764,"is_reserved":false,"is_disabled":false,"rental_uris":{"android":"levelo://app?vid=87247efe-0d67-428d-8d7b-ad29b673e6e9","ios":"levelo://app?vid=87247efe-0d67-428d-8d7b-ad29b673e6e9"},"vehicle_type_id":"4","last_reported":1776908735,"current_range_meters":7200,"station_id":"ce4bgph2rcd13ifvqc2g","pricing_plan_id":"cebpf4jnsgd1na2vs0mg"},{"bike_id":"46a8898e-e5cc-4df4-ac09-f68a4ebd52a8","system_id":"levelo_inurba_marseille","lat":43.30132,"lon":5.38768,"is_reserved":false,"is_disabled":false,"rental_uris":{"android":"levelo://app?vid=46a8898e-e5cc-4df4-ac09-f68a4ebd52a8","ios":"levelo://app?vid=46a8898e-e5cc-4df4-ac09-f68a4ebd52a8"},"vehicle_type_id":"4","last_reported":1776908735,"current_range_meters":7200,"station_id":"ce4bghh2rcd13ifvqb60","pricing_plan_id":"cebpf4jnsgd1na2vs0mg"},{"bike_id":"16f7fe35-694a-4eb9-9cc6-4679694d07e2","system_id":"levelo_inurba_marseille","lat":43.31247,"lon":5.37935,"is_reserved":false,"is_disabled":false,"rental_uris":{"android":"levelo://app?vid=16f7fe35-694a-4eb9-9cc6-4679694d07e2","ios":"levelo://app?vid=16f7fe35-694a-4eb9-9cc6-4679694d07e2"},"vehicle_type_id":"4","last_reported":1776908735,"current_range_meters":7200,"station_id":"","pricing_plan_id":"cebpf4jnsgd1na2vs0mg"},{"bike_id":"fd090187-b3cd-49e0-82c6-b3817cf3be1b","system_id":"levelo_inurba_marseille","lat":43.2987,"lon":5.38569,"is_reserved":false,"is_disabled":false,"rental_uris":{"android":"levelo://app?vid=fd090187-b3cd-49e0-82c6-b3817cf3be1b","ios":"levelo://app?vid=fd090187-b3cd-49e0-82c6-b3817cf3be1b"},"vehicle_type_id":"4","last_reported":1776908735,"current_range_meters":7200,"station_id":"","pricing_plan_id":"cebpf4jnsgd1na2vs0mg"},{"bike_id":"051a3fbb-40c6-4e8b-baef-ba45b9fae62e","system_id":"levelo_inurba_marseille","lat":43.30093,"lon":5.39081,"is_reserved":false,"is_disabled":false,"rental_uris":{"android":"levelo://app?vid=051a3fbb-40c6-4e8b-baef-ba45b9fae62e","ios":"levelo://app?vid=051a3fbb-40c6-4e8b-baef-ba45b9fae62e"},"vehicle_type_id":"4","last_reported":1776908735,"current_range_meters":7200,"station_id":"ce4bh192rcd13ifvqdb0","pricing_plan_id":"cebpf4jnsgd1na2vs0mg"},{"bike_id":"54c80b36-69b8-4636-a29a-84bf73da2d24","system_id":"levelo_inurba_marseille","lat":43.29558,"lon":5.39954,"is_reserved":false,"is_disabled":false,"rental_uris":{"android":"levelo://app?vid=54c80b36-69b8-4636-a29a-84bf73da2d24","ios":"levelo://app?vid=54c80b36-69b8-4636-a29a-84bf73da2d24"},"vehicle_type_id":"4","last_reported":1776908735,"current_range_meters":7200,"station_id":"ce4bh312rcd13ifvqdj0","pricing_plan_id":"cebpf4jnsgd1na2vs0mg"},{"bike_id":"e61bc510-c262-4934-8f35-de99fc50a31e","system_id":"levelo_inurba_marseille","lat":43.30125,"lon":5.39849,"is_reserved":false,"is_disabled":false,"rental_uris":{"android":"levelo://app?vid=e61bc510-c262-4934-8f35-de99fc50a31e","ios":"levelo://app?vid=e61bc510-c262-4934-8f35-de99fc50a31e"},"vehicle_type_id":"4","last_reported":1776908735,"current_range_meters":7200,"station_id":"ce4bh0h2rcd13ifvqd40","pricing_plan_id":"cebpf4jnsgd1na2vs0mg"},{"bike_id":"c32b44e2-c9fc-43f0-98f4-d7a3693ec7d9","system_id":"levelo_inurba_marseille","lat":43.28967,"lon":5.37846,"is_reserved":false,"is_disabled":false,"rental_uris":{"android":"levelo://app?vid=c32b44e2-c9fc-43f0-98f4-d7a3693ec7d9","ios":"levelo://app?vid=c32b44e2-c9fc-43f0-98f4-d7a3693ec7d9"},"vehicle_type_id":"4","last_reported":1776908735,"current_range_meters":7200,"station_id":"ce4bh9p2rcd13ifvqed0","pricing_plan_id":"cebpf4jnsgd1na2vs0mg"},{"bike_id":"e8c9d71a-afbc-4c59-af4d-6ad77f1ebe3b","system_id":"levelo_inurba_marseille","lat":43.32727,"lon":5.36286,"is_reserved":false,"is_disabled":false,"rental_uris":{"android":"levelo://app?vid=e8c9d71a-afbc-4c59-af4d-6ad77f1ebe3b","ios":"levelo://app?vid=e8c9d71a-afbc-4c59-af4d-6ad77f1ebe3b"},"vehicle_type_id":"4","last_reported":1776908735,"current_range_meters":7200,"station_id":"","pricing_plan_id":"cebpf4jnsgd1na2vs0mg"},{"bike_id":"7bcf589d-1485-482c-947e-3b81d1633d3f","system_id":"levelo_inurba_marseille","lat":43.2636,"lon":5.41074,"is_reserved":false,"is_disabled":false,"rental_uris":{"android":"levelo://app?vid=7bcf589d-1485-482c-947e-3b81d1633d3f","ios":"levelo://app?vid=7bcf589d-1485-482c-947e-3b81d1633d3f"},"vehicle_type_id":"4","last_reported":1776908735,"current_range_meters":7200,"station_id":"st_d4e5ca6na9uc73bfl5fg","pricing_plan_id":"cebpf4jnsgd1na2vs0mg"},{"bike_id":"493c5cd0-8c21-4c6e-b6e2-4c97a78bd4db","system_id":"levelo_inurba_marseille","lat":43.28466,"lon":5.35896,"is_reserved":false,"is_disabled":true,"rental_uris":{"android":"levelo://app?vid=493c5cd0-8c21-4c6e-b6e2-4c97a78bd4db","ios":"levelo://app?vid=493c5cd0-8c21-4c6e-b6e2-4c97a78bd4db"},"vehicle_type_id":"4","last_reported":1776908735,"current_range_meters":8000,"station_id":"ce4bhah2rcd13ifvqei0","pricing_plan_id":"cebpf4jnsgd1na2vs0mg"},{"bike_id":"897ccc75-3e6d-4af3-94b6-7b8960c9a5e7","system_id":"levelo_inurba_marseille","lat":43.30659,"lon":5.40101,"is_reserved":false,"is_disabled":false,"rental_uris":{"android":"levelo://app?vid=897ccc75-3e6d-4af3-94b6-7b8960c9a5e7","ios":"levelo://app?vid=897ccc75-3e6d-4af3-94b6-7b8960c9a5e7"},"vehicle_type_id":"4","last_reported":1776908735,"current_range_meters":8000,"station_id":"ce4bh112rcd13ifvqda0","pricing_plan_id":"cebpf4jnsgd1na2vs0mg"},{"bike_id":"f8805338-a0fb-4da3-99b6-f4b9e9b5f265","system_id":"levelo_inurba_marseille","lat":43.29944,"lon":5.36522,"is_reserved":false,"is_disabled":false,"rental_uris":{"android":"levelo://app?vid=f8805338-a0fb-4da3-99b6-f4b9e9b5f265","ios":"levelo://app?vid=f8805338-a0fb-4da3-99b6-f4b9e9b5f265"},"vehicle_type_id":"4","last_reported":1776908735,"current_range_meters":8000,"station_id":"ce4bgm92rcd13ifvqbr0","pricing_plan_id":"cebpf4jnsgd1na2vs0mg"},{"bike_id":"1c21b5e4-18ba-4d77-b990-0019b8294ddb","system_id":"levelo_inurba_marseille","lat":43.26592,"lon":5.39634,"is_reserved":false,"is_disabled":false,"rental_uris":{"android":"levelo://app?vid=1c21b5e4-18ba-4d77-b990-0019b8294ddb","ios":"levelo://app?vid=1c21b5e4-18ba-4d77-b990-0019b8294ddb"},"vehicle_type_id":"4","last_reported":1776908735,"current_range_meters":8000,"station_id":"","pricing_plan_id":"cebpf4jnsgd1na2vs0mg"},{"bike_id":"f3a0e42d-d6f1-4b31-afb5-c4667c8f968c","system_id":"levelo_inurba_marseille","lat":43.29523,"lon":5.39052,"is_reserved":false,"is_disabled":false,"rental_uris":{"android":"levelo://app?vid=f3a0e42d-d6f1-4b31-afb5-c4667c8f968c","ios":"levelo://app?vid=f3a0e42d-d6f1-4b31-afb5-c4667c8f968c"},"vehicle_type_id":"4","last_reported":1776908735,"current_range_meters":8000,"station_id":"ce4bh3p2rcd13ifvqdp0","pricing_plan_id":"cebpf4jnsgd1na2vs0mg"},{"bike_id":"633f0f51-cd95-411c-a280-0b97188c6e3f","system_id":"levelo_inurba_marseille","lat":43.23965,"lon":5.36631,"is_reserved":false,"is_disabled":false,"rental_uris":{"android":"levelo://app?vid=633f0f51-cd95-411c-a280-0b97188c6e3f","ios":"levelo://app?vid=633f0f51-cd95-411c-a280-0b97188c6e3f"},"vehicle_type_id":"4","last_reported":1776908735,"current_range_meters":8000,"station_id":"ce4bhi12rcd13ifvqfp0","pricing_plan_id":"cebpf4jnsgd1na2vs0mg"},{"bike_id":"430109c1-63b9-4def-bcd8-94c740fa7480","system_id":"levelo_inurba_marseille","lat":43.28391,"lon":5.37556,"is_reserved":false,"is_disabled":false,"rental_uris":{"android":"levelo://app?vid=430109c1-63b9-4def-bcd8-94c740fa7480","ios":"levelo://app?vid=430109c1-63b9-4def-bcd8-94c740fa7480"},"vehicle_type_id":"4","last_reported":1776908735,"current_range_meters":8000,"station_id":"ce4bh412rcd13ifvqds0","pricing_plan_id":"cebpf4jnsgd1na2vs0mg"},{"bike_id":"27333076-abb5-4a9b-ac59-89b1742839cf","system_id":"levelo_inurba_marseille","lat":43.2872,"lon":5.37942,"is_reserved":false,"is_disabled":true,"rental_uris":{"android":"levelo://app?vid=27333076-abb5-4a9b-ac59-89b1742839cf","ios":"levelo://app?vid=27333076-abb5-4a9b-ac59-89b1742839cf"},"vehicle_type_id":"4","last_reported":1776908735,"current_range_meters":8000,"station_id":"ce4bh9p2rcd13ifvqec0","pricing_plan_id":"cebpf4jnsgd1na2vs0mg"},{"bike_id":"772652df-39a3-4a7d-ab76-86683fdc6511","system_id":"levelo_inurba_marseille","lat":43.28924,"lon":5.36887,"is_reserved":false,"is_disabled":false,"rental_uris":{"android":"levelo://app?vid=772652df-39a3-4a7d-ab76-86683fdc6511","ios":"levelo://app?vid=772652df-39a3-4a7d-ab76-86683fdc6511"},"vehicle_type_id":"4","last_reported":1776908735,"current_range_meters":8000,"station_id":"","pricing_plan_id":"cebpf4jnsgd1na2vs0mg"},{"bike_id":"f3f2b1b8-361c-439d-af6c-144b8f2b403b","system_id":"levelo_inurba_marseille","lat":43.30888,"lon":5.39644,"is_reserved":false,"is_disabled":false,"rental_uris":{"android":"levelo://app?vid=f3f2b1b8-361c-439d-af6c-144b8f2b403b","ios":"levelo://app?vid=f3f2b1b8-361c-439d-af6c-144b8f2b403b"},"vehicle_type_id":"4","last_reported":1776908735,"current_range_meters":8000,"station_id":"ce4bh012rcd13ifvqcv0","pricing_plan_id":"cebpf4jnsgd1na2vs0mg"},{"bike_id":"724e8b54-edea-47ab-9be6-0eaa6e8760fb","system_id":"levelo_inurba_marseille","lat":43.29624,"lon":5.40633,"is_reserved":false,"is_disabled":false,"rental_uris":{"android":"levelo://app?vid=724e8b54-edea-47ab-9be6-0eaa6e8760fb","ios":"levelo://app?vid=724e8b54-edea-47ab-9be6-0eaa6e8760fb"},"vehicle_type_id":"4","last_reported":1776908735,"current_range_meters":8400,"station_id":"ce4bh0h2rcd13ifvqd60","pricing_plan_id":"cebpf4jnsgd1na2vs0mg"},{"bike_id":"f12e7adc-c081-4652-9247-8637f1a7e34a","system_id":"levelo_inurba_marseille","lat":43.26562,"lon":5.39004,"is_reserved":false,"is_disabled":false,"rental_uris":{"android":"levelo://app?vid=f12e7adc-c081-4652-9247-8637f1a7e34a","ios":"levelo://app?vid=f12e7adc-c081-4652-9247-8637f1a7e34a"},"vehicle_type_id":"4","last_reported":1776908735,"current_range_meters":8400,"station_id":"ce4bhe12rcd13ifvqf30","pricing_plan_id":"cebpf4jnsgd1na2vs0mg"},{"bike_id":"97563811-de7e-4fb9-bbc8-59c1cb66a0eb","system_id":"levelo_inurba_marseille","lat":43.243839,"lon":5.370514,"is_reserved":false,"is_disabled":false,"rental_uris":{"android":"levelo://app?vid=97563811-de7e-4fb9-bbc8-59c1cb66a0eb","ios":"levelo://app?vid=97563811-de7e-4fb9-bbc8-59c1cb66a0eb"},"vehicle_type_id":"4","last_reported":1776908735,"current_range_meters":8400,"station_id":"ce4bhhh2rcd13ifvqfk0","pricing_plan_id":"cebpf4jnsgd1na2vs0mg"},{"bike_id":"d55b7166-12de-4bdf-8b05-1755f1067768","system_id":"levelo_inurba_marseille","lat":43.30145,"lon":5.39875,"is_reserved":false,"is_disabled":false,"rental_uris":{"android":"levelo://app?vid=d55b7166-12de-4bdf-8b05-1755f1067768","ios":"levelo://app?vid=d55b7166-12de-4bdf-8b05-1755f1067768"},"vehicle_type_id":"4","last_reported":1776908735,"current_range_meters":8400,"station_id":"ce4bh0h2rcd13ifvqd40","pricing_plan_id":"cebpf4jnsgd1na2vs0mg"},{"bike_id":"bd3c6b3e-d299-464a-9a96-a94e112dc80d","system_id":"levelo_inurba_marseille","lat":43.29862,"lon":5.36284,"is_reserved":false,"is_disabled":false,"rental_uris":{"android":"levelo://app?vid=bd3c6b3e-d299-464a-9a96-a94e112dc80d","ios":"levelo://app?vid=bd3c6b3e-d299-464a-9a96-a94e112dc80d"},"vehicle_type_id":"4","last_reported":1776908735,"current_range_meters":8400,"station_id":"ce4bgpp2rcd13ifvqc3g","pricing_plan_id":"cebpf4jnsgd1na2vs0mg"},{"bike_id":"205eefac-f379-49f9-b02e-ad048a493b05","system_id":"levelo_inurba_marseille","lat":43.27109,"lon":5.42562,"is_reserved":false,"is_disabled":false,"rental_uris":{"android":"levelo://app?vid=205eefac-f379-49f9-b02e-ad048a493b05","ios":"levelo://app?vid=205eefac-f379-49f9-b02e-ad048a493b05"},"vehicle_type_id":"4","last_reported":1776908735,"current_range_meters":8400,"station_id":"","pricing_plan_id":"cebpf4jnsgd1na2vs0mg"},{"bike_id":"500638d0-cf5c-4061-b413-99b5dc6f2377","system_id":"levelo_inurba_marseille","lat":43.27442,"lon":5.42505,"is_reserved":false,"is_disabled":false,"rental_uris":{"android":"levelo://app?vid=500638d0-cf5c-4061-b413-99b5dc6f2377","ios":"levelo://app?vid=500638d0-cf5c-4061-b413-99b5dc6f2377"},"vehicle_type_id":"4","last_reported":1776908735,"current_range_meters":8400,"station_id":"","pricing_plan_id":"cebpf4jnsgd1na2vs0mg"},{"bike_id":"4cd4bc1d-308f-4a56-ac8e-bdea4ad9bef4","system_id":"levelo_inurba_marseille","lat":43.29877,"lon":5.39715,"is_reserved":false,"is_disabled":true,"rental_uris":{"android":"levelo://app?vid=4cd4bc1d-308f-4a56-ac8e-bdea4ad9bef4","ios":"levelo://app?vid=4cd4bc1d-308f-4a56-ac8e-bdea4ad9bef4"},"vehicle_type_id":"4","last_reported":1776908735,"current_range_meters":8400,"station_id":"ce4bh0h2rcd13ifvqd50","pricing_plan_id":"cebpf4jnsgd1na2vs0mg"},{"bike_id":"852660e0-1e7a-4f6f-9df8-aa0dbe3c1c2f","system_id":"levelo_inurba_marseille","lat":43.28108,"lon":5.37855,"is_reserved":false,"is_disabled":false,"rental_uris":{"android":"levelo://app?vid=852660e0-1e7a-4f6f-9df8-aa0dbe3c1c2f","ios":"levelo://app?vid=852660e0-1e7a-4f6f-9df8-aa0dbe3c1c2f"},"vehicle_type_id":"4","last_reported":1776908735,"current_range_meters":8400,"station_id":"ce4bha12rcd13ifvqee0","pricing_plan_id":"cebpf4jnsgd1na2vs0mg"},{"bike_id":"8331af0f-100e-470f-9e36-7657fa113fe2","system_id":"levelo_inurba_marseille","lat":43.3128,"lon":5.36768,"is_reserved":false,"is_disabled":false,"rental_uris":{"android":"levelo://app?vid=8331af0f-100e-470f-9e36-7657fa113fe2","ios":"levelo://app?vid=8331af0f-100e-470f-9e36-7657fa113fe2"},"vehicle_type_id":"4","last_reported":1776908735,"current_range_meters":8400,"station_id":"","pricing_plan_id":"cebpf4jnsgd1na2vs0mg"},{"bike_id":"9c642c93-9d9f-4f71-8143-53448fb0043b","system_id":"levelo_inurba_marseille","lat":43.31499,"lon":5.37344,"is_reserved":false,"is_disabled":false,"rental_uris":{"android":"levelo://app?vid=9c642c93-9d9f-4f71-8143-53448fb0043b","ios":"levelo://app?vid=9c642c93-9d9f-4f71-8143-53448fb0043b"},"vehicle_type_id":"4","last_reported":1776908735,"current_range_meters":8400,"station_id":"ce4bgt12rcd13ifvqcd0","pricing_plan_id":"cebpf4jnsgd1na2vs0mg"},{"bike_id":"f22fab7c-d9ef-452e-9e0a-f53fca1bb2ad","system_id":"levelo_inurba_marseille","lat":43.29514,"lon":5.39036,"is_reserved":false,"is_disabled":false,"rental_uris":{"android":"levelo://app?vid=f22fab7c-d9ef-452e-9e0a-f53fca1bb2ad","ios":"levelo://app?vid=f22fab7c-d9ef-452e-9e0a-f53fca1bb2ad"},"vehicle_type_id":"4","last_reported":1776908735,"current_range_meters":8400,"station_id":"ce4bh3p2rcd13ifvqdp0","pricing_plan_id":"cebpf4jnsgd1na2vs0mg"},{"bike_id":"a56889e7-37d7-487e-a661-9c8461fe50da","system_id":"levelo_inurba_marseille","lat":43.30895,"lon":5.36863,"is_reserved":false,"is_disabled":false,"rental_uris":{"android":"levelo://app?vid=a56889e7-37d7-487e-a661-9c8461fe50da","ios":"levelo://app?vid=a56889e7-37d7-487e-a661-9c8461fe50da"},"vehicle_type_id":"4","last_reported":1776908735,"current_range_meters":8400,"station_id":"ce4bgn92rcd13ifvqbvg","pricing_plan_id":"cebpf4jnsgd1na2vs0mg"},{"bike_id":"88f890fb-d5ee-4423-9c7d-7bc75792c249","system_id":"levelo_inurba_marseille","lat":43.30362,"lon":5.42518,"is_reserved":false,"is_disabled":false,"rental_uris":{"android":"levelo://app?vid=88f890fb-d5ee-4423-9c7d-7bc75792c249","ios":"levelo://app?vid=88f890fb-d5ee-4423-9c7d-7bc75792c249"},"vehicle_type_id":"4","last_reported":1776908735,"current_range_meters":8400,"station_id":"","pricing_plan_id":"cebpf4jnsgd1na2vs0mg"},{"bike_id":"25931435-472d-4946-9b9a-fc67e50f018d","system_id":"levelo_inurba_marseille","lat":43.23008,"lon":5.44531,"is_reserved":false,"is_disabled":false,"rental_uris":{"android":"levelo://app?vid=25931435-472d-4946-9b9a-fc67e50f018d","ios":"levelo://app?vid=25931435-472d-4946-9b9a-fc67e50f018d"},"vehicle_type_id":"4","last_reported":1776908735,"current_range_meters":8400,"station_id":"","pricing_plan_id":"cebpf4jnsgd1na2vs0mg"},{"bike_id":"43551c7e-2e91-49bb-b9fd-9391ff299d13","system_id":"levelo_inurba_marseille","lat":43.23971,"lon":5.36626,"is_reserved":false,"is_disabled":false,"rental_uris":{"android":"levelo://app?vid=43551c7e-2e91-49bb-b9fd-9391ff299d13","ios":"levelo://app?vid=43551c7e-2e91-49bb-b9fd-9391ff299d13"},"vehicle_type_id":"4","last_reported":1776908735,"current_range_meters":8400,"station_id":"ce4bhi12rcd13ifvqfp0","pricing_plan_id":"cebpf4jnsgd1na2vs0mg"},{"bike_id":"e3e9e264-898c-4144-81c8-feef46976ec6","system_id":"levelo_inurba_marseille","lat":43.27527,"lon":5.39,"is_reserved":false,"is_disabled":false,"rental_uris":{"android":"levelo://app?vid=e3e9e264-898c-4144-81c8-feef46976ec6","ios":"levelo://app?vid=e3e9e264-898c-4144-81c8-feef46976ec6"},"vehicle_type_id":"4","last_reported":1776908735,"current_range_meters":8400,"station_id":"","pricing_plan_id":"cebpf4jnsgd1na2vs0mg"},{"bike_id":"736e479d-3971-4e55-8f1a-91d301591267","system_id":"levelo_inurba_marseille","lat":43.28681,"lon":5.38673,"is_reserved":false,"is_disabled":true,"rental_uris":{"android":"levelo://app?vid=736e479d-3971-4e55-8f1a-91d301591267","ios":"levelo://app?vid=736e479d-3971-4e55-8f1a-91d301591267"},"vehicle_type_id":"4","last_reported":1776908735,"current_range_meters":8800,"station_id":"ce4bh492rcd13ifvqdug","pricing_plan_id":"cebpf4jnsgd1na2vs0mg"},{"bike_id":"7815ddfa-84fd-4ae5-b67a-cd6d6508af90","system_id":"levelo_inurba_marseille","lat":43.28034,"lon":5.36969,"is_reserved":false,"is_disabled":false,"rental_uris":{"android":"levelo://app?vid=7815ddfa-84fd-4ae5-b67a-cd6d6508af90","ios":"levelo://app?vid=7815ddfa-84fd-4ae5-b67a-cd6d6508af90"},"vehicle_type_id":"4","last_reported":1776908735,"current_range_meters":8800,"station_id":"ce4bha12rcd13ifvqef0","pricing_plan_id":"cebpf4jnsgd1na2vs0mg"},{"bike_id":"c441ac0f-0681-4a6a-9621-66deda0d7cb8","system_id":"levelo_inurba_marseille","lat":43.312,"lon":5.38702,"is_reserved":false,"is_disabled":false,"rental_uris":{"android":"levelo://app?vid=c441ac0f-0681-4a6a-9621-66deda0d7cb8","ios":"levelo://app?vid=c441ac0f-0681-4a6a-9621-66deda0d7cb8"},"vehicle_type_id":"4","last_reported":1776908735,"current_range_meters":8800,"station_id":"ce4bgv12rcd13ifvqcp0","pricing_plan_id":"cebpf4jnsgd1na2vs0mg"},{"bike_id":"ed34d941-cc3a-4749-ac6a-5df2e0b4ce8e","system_id":"levelo_inurba_marseille","lat":43.29645,"lon":5.40632,"is_reserved":false,"is_disabled":false,"rental_uris":{"android":"levelo://app?vid=ed34d941-cc3a-4749-ac6a-5df2e0b4ce8e","ios":"levelo://app?vid=ed34d941-cc3a-4749-ac6a-5df2e0b4ce8e"},"vehicle_type_id":"4","last_reported":1776908735,"current_range_meters":8800,"station_id":"ce4bh0h2rcd13ifvqd60","pricing_plan_id":"cebpf4jnsgd1na2vs0mg"},{"bike_id":"f2ff52a7-1503-4a80-9a0e-a217d36469bb","system_id":"levelo_inurba_marseille","lat":43.31045,"lon":5.37189,"is_reserved":false,"is_disabled":false,"rental_uris":{"android":"levelo://app?vid=f2ff52a7-1503-4a80-9a0e-a217d36469bb","ios":"levelo://app?vid=f2ff52a7-1503-4a80-9a0e-a217d36469bb"},"vehicle_type_id":"4","last_reported":1776908735,"current_range_meters":8800,"station_id":"st_d4kl2rp97mjs73e7tdfg","pricing_plan_id":"cebpf4jnsgd1na2vs0mg"},{"bike_id":"0923929c-d272-4fa1-a3d9-8f4c7a6f830d","system_id":"levelo_inurba_marseille","lat":43.30814,"lon":5.38201,"is_reserved":false,"is_disabled":false,"rental_uris":{"android":"levelo://app?vid=0923929c-d272-4fa1-a3d9-8f4c7a6f830d","ios":"levelo://app?vid=0923929c-d272-4fa1-a3d9-8f4c7a6f830d"},"vehicle_type_id":"4","last_reported":1776908735,"current_range_meters":8800,"station_id":"ce4bgt12rcd13ifvqce0","pricing_plan_id":"cebpf4jnsgd1na2vs0mg"},{"bike_id":"745efcb8-73c4-4b8c-9732-ada2e0fa7c05","system_id":"levelo_inurba_marseille","lat":43.24663,"lon":5.38181,"is_reserved":false,"is_disabled":false,"rental_uris":{"android":"levelo://app?vid=745efcb8-73c4-4b8c-9732-ada2e0fa7c05","ios":"levelo://app?vid=745efcb8-73c4-4b8c-9732-ada2e0fa7c05"},"vehicle_type_id":"4","last_reported":1776908735,"current_range_meters":8800,"station_id":"ce4bhih2rcd13ifvqfr0","pricing_plan_id":"cebpf4jnsgd1na2vs0mg"},{"bike_id":"a818e876-466b-4087-9a15-ae897511a4f5","system_id":"levelo_inurba_marseille","lat":43.28954,"lon":5.39593,"is_reserved":false,"is_disabled":false,"rental_uris":{"android":"levelo://app?vid=a818e876-466b-4087-9a15-ae897511a4f5","ios":"levelo://app?vid=a818e876-466b-4087-9a15-ae897511a4f5"},"vehicle_type_id":"4","last_reported":1776908735,"current_range_meters":8800,"station_id":"ce4bh3h2rcd13ifvqdn0","pricing_plan_id":"cebpf4jnsgd1na2vs0mg"},{"bike_id":"f5c3a6a6-3609-40ad-9c49-87232dad5958","system_id":"levelo_inurba_marseille","lat":43.30591,"lon":5.39378,"is_reserved":false,"is_disabled":true,"rental_uris":{"android":"levelo://app?vid=f5c3a6a6-3609-40ad-9c49-87232dad5958","ios":"levelo://app?vid=f5c3a6a6-3609-40ad-9c49-87232dad5958"},"vehicle_type_id":"4","last_reported":1776908735,"current_range_meters":8800,"station_id":"ce4bh0p2rcd13ifvqd80","pricing_plan_id":"cebpf4jnsgd1na2vs0mg"},{"bike_id":"466b9cd9-0deb-4b9b-b01a-72f0529a774e","system_id":"levelo_inurba_marseille","lat":43.28398,"lon":5.37524,"is_reserved":false,"is_disabled":true,"rental_uris":{"android":"levelo://app?vid=466b9cd9-0deb-4b9b-b01a-72f0529a774e","ios":"levelo://app?vid=466b9cd9-0deb-4b9b-b01a-72f0529a774e"},"vehicle_type_id":"4","last_reported":1776908735,"current_range_meters":8800,"station_id":"ce4bh412rcd13ifvqds0","pricing_plan_id":"cebpf4jnsgd1na2vs0mg"},{"bike_id":"af4d6521-4d25-441b-b764-d83e008aff80","system_id":"levelo_inurba_marseille","lat":43.26574,"lon":5.37332,"is_reserved":false,"is_disabled":false,"rental_uris":{"android":"levelo://app?vid=af4d6521-4d25-441b-b764-d83e008aff80","ios":"levelo://app?vid=af4d6521-4d25-441b-b764-d83e008aff80"},"vehicle_type_id":"4","last_reported":1776908735,"current_range_meters":8800,"station_id":"ce4bhg12rcd13ifvqf70","pricing_plan_id":"cebpf4jnsgd1na2vs0mg"},{"bike_id":"61601d71-74e0-4e23-aaad-9705fd412fc8","system_id":"levelo_inurba_marseille","lat":43.29688,"lon":5.36975,"is_reserved":false,"is_disabled":false,"rental_uris":{"android":"levelo://app?vid=61601d71-74e0-4e23-aaad-9705fd412fc8","ios":"levelo://app?vid=61601d71-74e0-4e23-aaad-9705fd412fc8"},"vehicle_type_id":"4","last_reported":1776908735,"current_range_meters":8800,"station_id":"","pricing_plan_id":"cebpf4jnsgd1na2vs0mg"},{"bike_id":"52d848d3-e124-40a2-855d-fb7f07415aa4","system_id":"levelo_inurba_marseille","lat":43.284,"lon":5.37539,"is_reserved":false,"is_disabled":true,"rental_uris":{"android":"levelo://app?vid=52d848d3-e124-40a2-855d-fb7f07415aa4","ios":"levelo://app?vid=52d848d3-e124-40a2-855d-fb7f07415aa4"},"vehicle_type_id":"4","last_reported":1776908735,"current_range_meters":8800,"station_id":"ce4bh412rcd13ifvqds0","pricing_plan_id":"cebpf4jnsgd1na2vs0mg"},{"bike_id":"17fb3e47-14b1-4314-878b-2cda7fc0efbb","system_id":"levelo_inurba_marseille","lat":43.28849,"lon":5.35869,"is_reserved":false,"is_disabled":false,"rental_uris":{"android":"levelo://app?vid=17fb3e47-14b1-4314-878b-2cda7fc0efbb","ios":"levelo://app?vid=17fb3e47-14b1-4314-878b-2cda7fc0efbb"},"vehicle_type_id":"4","last_reported":1776908735,"current_range_meters":8800,"station_id":"ce4bhb12rcd13ifvqem0","pricing_plan_id":"cebpf4jnsgd1na2vs0mg"},{"bike_id":"b10e388b-a119-4b7b-87b2-c9ca007b4026","system_id":"levelo_inurba_marseille","lat":43.32611,"lon":5.35899,"is_reserved":false,"is_disabled":false,"rental_uris":{"android":"levelo://app?vid=b10e388b-a119-4b7b-87b2-c9ca007b4026","ios":"levelo://app?vid=b10e388b-a119-4b7b-87b2-c9ca007b4026"},"vehicle_type_id":"4","last_reported":1776908735,"current_range_meters":8800,"station_id":"","pricing_plan_id":"cebpf4jnsgd1na2vs0mg"},{"bike_id":"f0cf54c0-7cc8-416a-ae7a-aefa106e8047","system_id":"levelo_inurba_marseille","lat":43.28457,"lon":5.35887,"is_reserved":false,"is_disabled":false,"rental_uris":{"android":"levelo://app?vid=f0cf54c0-7cc8-416a-ae7a-aefa106e8047","ios":"levelo://app?vid=f0cf54c0-7cc8-416a-ae7a-aefa106e8047"},"vehicle_type_id":"4","last_reported":1776908735,"current_range_meters":8800,"station_id":"ce4bhah2rcd13ifvqei0","pricing_plan_id":"cebpf4jnsgd1na2vs0mg"},{"bike_id":"9c3677d0-627f-49f8-bd9c-64ba96ef4fce","system_id":"levelo_inurba_marseille","lat":43.28476,"lon":5.48403,"is_reserved":false,"is_disabled":false,"rental_uris":{"android":"levelo://app?vid=9c3677d0-627f-49f8-bd9c-64ba96ef4fce","ios":"levelo://app?vid=9c3677d0-627f-49f8-bd9c-64ba96ef4fce"},"vehicle_type_id":"4","last_reported":1776908735,"current_range_meters":8800,"station_id":"","pricing_plan_id":"cebpf4jnsgd1na2vs0mg"},{"bike_id":"b4108458-c341-4617-989e-4a0be97d88f3","system_id":"levelo_inurba_marseille","lat":43.30316,"lon":5.40443,"is_reserved":false,"is_disabled":false,"rental_uris":{"android":"levelo://app?vid=b4108458-c341-4617-989e-4a0be97d88f3","ios":"levelo://app?vid=b4108458-c341-4617-989e-4a0be97d88f3"},"vehicle_type_id":"4","last_reported":1776908735,"current_range_meters":8800,"station_id":"ce4bh012rcd13ifvqd10","pricing_plan_id":"cebpf4jnsgd1na2vs0mg"},{"bike_id":"222320c9-4af7-4425-b439-71fe0c5a1a7e","system_id":"levelo_inurba_marseille","lat":43.28929,"lon":5.38364,"is_reserved":false,"is_disabled":false,"rental_uris":{"android":"levelo://app?vid=222320c9-4af7-4425-b439-71fe0c5a1a7e","ios":"levelo://app?vid=222320c9-4af7-4425-b439-71fe0c5a1a7e"},"vehicle_type_id":"4","last_reported":1776908735,"current_range_meters":8800,"station_id":"ce4bh612rcd13ifvqe6g","pricing_plan_id":"cebpf4jnsgd1na2vs0mg"},{"bike_id":"2292da54-0557-4e28-b1cf-f46ef2000601","system_id":"levelo_inurba_marseille","lat":43.30307,"lon":5.36907,"is_reserved":false,"is_disabled":false,"rental_uris":{"android":"levelo://app?vid=2292da54-0557-4e28-b1cf-f46ef2000601","ios":"levelo://app?vid=2292da54-0557-4e28-b1cf-f46ef2000601"},"vehicle_type_id":"4","last_reported":1776908735,"current_range_meters":8800,"station_id":"ce4bgqh2rcd13ifvqc5g","pricing_plan_id":"cebpf4jnsgd1na2vs0mg"},{"bike_id":"fc63b1fa-8f2f-4e7d-937d-0a01f2225ceb","system_id":"levelo_inurba_marseille","lat":43.28408,"lon":5.37495,"is_reserved":false,"is_disabled":false,"rental_uris":{"android":"levelo://app?vid=fc63b1fa-8f2f-4e7d-937d-0a01f2225ceb","ios":"levelo://app?vid=fc63b1fa-8f2f-4e7d-937d-0a01f2225ceb"},"vehicle_type_id":"4","last_reported":1776908735,"current_range_meters":8800,"station_id":"ce4bh412rcd13ifvqds0","pricing_plan_id":"cebpf4jnsgd1na2vs0mg"},{"bike_id":"1f812c79-a1cc-4770-94e4-c447fae650ce","system_id":"levelo_inurba_marseille","lat":43.28595,"lon":5.3896,"is_reserved":false,"is_disabled":false,"rental_uris":{"android":"levelo://app?vid=1f812c79-a1cc-4770-94e4-c447fae650ce","ios":"levelo://app?vid=1f812c79-a1cc-4770-94e4-c447fae650ce"},"vehicle_type_id":"4","last_reported":1776908735,"current_range_meters":9200,"station_id":"","pricing_plan_id":"cebpf4jnsgd1na2vs0mg"},{"bike_id":"eaa56526-29a5-4cc4-abc0-c621dd30f9a4","system_id":"levelo_inurba_marseille","lat":43.29262,"lon":5.4268,"is_reserved":false,"is_disabled":false,"rental_uris":{"android":"levelo://app?vid=eaa56526-29a5-4cc4-abc0-c621dd30f9a4","ios":"levelo://app?vid=eaa56526-29a5-4cc4-abc0-c621dd30f9a4"},"vehicle_type_id":"4","last_reported":1776908735,"current_range_meters":9200,"station_id":"","pricing_plan_id":"cebpf4jnsgd1na2vs0mg"},{"bike_id":"aac8d525-8c84-436f-a81d-44f9bdecbbfc","system_id":"levelo_inurba_marseille","lat":43.25109,"lon":5.39606,"is_reserved":false,"is_disabled":false,"rental_uris":{"android":"levelo://app?vid=aac8d525-8c84-436f-a81d-44f9bdecbbfc","ios":"levelo://app?vid=aac8d525-8c84-436f-a81d-44f9bdecbbfc"},"vehicle_type_id":"4","last_reported":1776908735,"current_range_meters":9200,"station_id":"","pricing_plan_id":"cebpf4jnsgd1na2vs0mg"},{"bike_id":"03b714fc-d600-4ef7-a461-b7b6354d1f22","system_id":"levelo_inurba_marseille","lat":43.29559,"lon":5.39043,"is_reserved":false,"is_disabled":false,"rental_uris":{"android":"levelo://app?vid=03b714fc-d600-4ef7-a461-b7b6354d1f22","ios":"levelo://app?vid=03b714fc-d600-4ef7-a461-b7b6354d1f22"},"vehicle_type_id":"4","last_reported":1776908735,"current_range_meters":9200,"station_id":"ce4bh3p2rcd13ifvqdp0","pricing_plan_id":"cebpf4jnsgd1na2vs0mg"},{"bike_id":"fcf51bf8-7bd0-4289-aaac-a9a01c559fe1","system_id":"levelo_inurba_marseille","lat":43.29066,"lon":5.37137,"is_reserved":false,"is_disabled":false,"rental_uris":{"android":"levelo://app?vid=fcf51bf8-7bd0-4289-aaac-a9a01c559fe1","ios":"levelo://app?vid=fcf51bf8-7bd0-4289-aaac-a9a01c559fe1"},"vehicle_type_id":"4","last_reported":1776908735,"current_range_meters":9200,"station_id":"ce4bh5p2rcd13ifvqe4g","pricing_plan_id":"cebpf4jnsgd1na2vs0mg"},{"bike_id":"9e49397d-b15f-42ca-b438-81f289c696f0","system_id":"levelo_inurba_marseille","lat":43.23193,"lon":5.43691,"is_reserved":false,"is_disabled":true,"rental_uris":{"android":"levelo://app?vid=9e49397d-b15f-42ca-b438-81f289c696f0","ios":"levelo://app?vid=9e49397d-b15f-42ca-b438-81f289c696f0"},"vehicle_type_id":"4","last_reported":1776908735,"current_range_meters":9200,"station_id":"ce4bhmp2rcd13ifvqgog","pricing_plan_id":"cebpf4jnsgd1na2vs0mg"},{"bike_id":"c7041db6-efe9-470b-b3aa-61638cf7bac3","system_id":"levelo_inurba_marseille","lat":43.33559,"lon":5.37466,"is_reserved":false,"is_disabled":false,"rental_uris":{"android":"levelo://app?vid=c7041db6-efe9-470b-b3aa-61638cf7bac3","ios":"levelo://app?vid=c7041db6-efe9-470b-b3aa-61638cf7bac3"},"vehicle_type_id":"4","last_reported":1776908735,"current_range_meters":9200,"station_id":"st_d46tts09ee8s73dlu43g","pricing_plan_id":"cebpf4jnsgd1na2vs0mg"},{"bike_id":"fcc42d01-1493-4675-a533-2be77dfe199a","system_id":"levelo_inurba_marseille","lat":43.31174,"lon":5.38714,"is_reserved":false,"is_disabled":false,"rental_uris":{"android":"levelo://app?vid=fcc42d01-1493-4675-a533-2be77dfe199a","ios":"levelo://app?vid=fcc42d01-1493-4675-a533-2be77dfe199a"},"vehicle_type_id":"4","last_reported":1776908735,"current_range_meters":9200,"station_id":"ce4bgv12rcd13ifvqcp0","pricing_plan_id":"cebpf4jnsgd1na2vs0mg"},{"bike_id":"68e56175-b857-46c2-b84f-8591cfaf3283","system_id":"levelo_inurba_marseille","lat":43.23968,"lon":5.36618,"is_reserved":false,"is_disabled":false,"rental_uris":{"android":"levelo://app?vid=68e56175-b857-46c2-b84f-8591cfaf3283","ios":"levelo://app?vid=68e56175-b857-46c2-b84f-8591cfaf3283"},"vehicle_type_id":"4","last_reported":1776908735,"current_range_meters":9200,"station_id":"ce4bhi12rcd13ifvqfp0","pricing_plan_id":"cebpf4jnsgd1na2vs0mg"},{"bike_id":"e4bc85da-22e6-4adb-b330-13fae8ac96ce","system_id":"levelo_inurba_marseille","lat":43.31525,"lon":5.38325,"is_reserved":false,"is_disabled":false,"rental_uris":{"android":"levelo://app?vid=e4bc85da-22e6-4adb-b330-13fae8ac96ce","ios":"levelo://app?vid=e4bc85da-22e6-4adb-b330-13fae8ac96ce"},"vehicle_type_id":"4","last_reported":1776908735,"current_range_meters":9200,"station_id":"","pricing_plan_id":"cebpf4jnsgd1na2vs0mg"},{"bike_id":"ee892214-1b64-4c0b-825a-e2c528ef2745","system_id":"levelo_inurba_marseille","lat":43.31532,"lon":5.38037,"is_reserved":false,"is_disabled":false,"rental_uris":{"android":"levelo://app?vid=ee892214-1b64-4c0b-825a-e2c528ef2745","ios":"levelo://app?vid=ee892214-1b64-4c0b-825a-e2c528ef2745"},"vehicle_type_id":"4","last_reported":1776908735,"current_range_meters":9200,"station_id":"ce4bhsp2rcd13ifvqi50","pricing_plan_id":"cebpf4jnsgd1na2vs0mg"},{"bike_id":"c7ac0306-6afc-4781-8692-f962ddfe1a23","system_id":"levelo_inurba_marseille","lat":43.32351,"lon":5.36757,"is_reserved":false,"is_disabled":false,"rental_uris":{"android":"levelo://app?vid=c7ac0306-6afc-4781-8692-f962ddfe1a23","ios":"levelo://app?vid=c7ac0306-6afc-4781-8692-f962ddfe1a23"},"vehicle_type_id":"4","last_reported":1776908735,"current_range_meters":9200,"station_id":"ce4bhsh2rcd13ifvqi2g","pricing_plan_id":"cebpf4jnsgd1na2vs0mg"},{"bike_id":"0503e3ce-22a2-4b85-9440-1fd31bf7fc51","system_id":"levelo_inurba_marseille","lat":43.26204,"lon":5.41404,"is_reserved":false,"is_disabled":false,"rental_uris":{"android":"levelo://app?vid=0503e3ce-22a2-4b85-9440-1fd31bf7fc51","ios":"levelo://app?vid=0503e3ce-22a2-4b85-9440-1fd31bf7fc51"},"vehicle_type_id":"4","last_reported":1776908735,"current_range_meters":9200,"station_id":"","pricing_plan_id":"cebpf4jnsgd1na2vs0mg"},{"bike_id":"b7278edd-6d78-43d9-8515-5073ac6e8a1f","system_id":"levelo_inurba_marseille","lat":43.30785,"lon":5.38151,"is_reserved":false,"is_disabled":false,"rental_uris":{"android":"levelo://app?vid=b7278edd-6d78-43d9-8515-5073ac6e8a1f","ios":"levelo://app?vid=b7278edd-6d78-43d9-8515-5073ac6e8a1f"},"vehicle_type_id":"4","last_reported":1776908735,"current_range_meters":9600,"station_id":"ce4bgt12rcd13ifvqce0","pricing_plan_id":"cebpf4jnsgd1na2vs0mg"},{"bike_id":"b8f8d66f-2503-4e07-a7c5-6e97f6bb6d81","system_id":"levelo_inurba_marseille","lat":43.28152,"lon":5.42652,"is_reserved":false,"is_disabled":false,"rental_uris":{"android":"levelo://app?vid=b8f8d66f-2503-4e07-a7c5-6e97f6bb6d81","ios":"levelo://app?vid=b8f8d66f-2503-4e07-a7c5-6e97f6bb6d81"},"vehicle_type_id":"4","last_reported":1776908735,"current_range_meters":9600,"station_id":"ce4bhnh2rcd13ifvqgug","pricing_plan_id":"cebpf4jnsgd1na2vs0mg"},{"bike_id":"0f57f6fa-bc89-4215-a76c-5f96b1f6690f","system_id":"levelo_inurba_marseille","lat":43.2622,"lon":5.37476,"is_reserved":false,"is_disabled":false,"rental_uris":{"android":"levelo://app?vid=0f57f6fa-bc89-4215-a76c-5f96b1f6690f","ios":"levelo://app?vid=0f57f6fa-bc89-4215-a76c-5f96b1f6690f"},"vehicle_type_id":"4","last_reported":1776908735,"current_range_meters":9600,"station_id":"ce4bhgp2rcd13ifvqfc0","pricing_plan_id":"cebpf4jnsgd1na2vs0mg"},{"bike_id":"de907253-0474-465c-b317-e26adc645bf3","system_id":"levelo_inurba_marseille","lat":43.29874,"lon":5.39752,"is_reserved":false,"is_disabled":false,"rental_uris":{"android":"levelo://app?vid=de907253-0474-465c-b317-e26adc645bf3","ios":"levelo://app?vid=de907253-0474-465c-b317-e26adc645bf3"},"vehicle_type_id":"4","last_reported":1776908735,"current_range_meters":9600,"station_id":"ce4bh0h2rcd13ifvqd50","pricing_plan_id":"cebpf4jnsgd1na2vs0mg"},{"bike_id":"2250a80a-b728-44ae-a103-20defd92544b","system_id":"levelo_inurba_marseille","lat":43.2921,"lon":5.39328,"is_reserved":false,"is_disabled":false,"rental_uris":{"android":"levelo://app?vid=2250a80a-b728-44ae-a103-20defd92544b","ios":"levelo://app?vid=2250a80a-b728-44ae-a103-20defd92544b"},"vehicle_type_id":"4","last_reported":1776908735,"current_range_meters":9600,"station_id":"ce4bh192rcd13ifvqdd0","pricing_plan_id":"cebpf4jnsgd1na2vs0mg"},{"bike_id":"86c0f09d-1dbd-403b-a0a0-58cd2a50f9c7","system_id":"levelo_inurba_marseille","lat":43.30876,"lon":5.39643,"is_reserved":false,"is_disabled":false,"rental_uris":{"android":"levelo://app?vid=86c0f09d-1dbd-403b-a0a0-58cd2a50f9c7","ios":"levelo://app?vid=86c0f09d-1dbd-403b-a0a0-58cd2a50f9c7"},"vehicle_type_id":"4","last_reported":1776908735,"current_range_meters":9600,"station_id":"","pricing_plan_id":"cebpf4jnsgd1na2vs0mg"},{"bike_id":"f0d69e5a-f9ba-4bf6-8568-8a7e54ca5cfe","system_id":"levelo_inurba_marseille","lat":43.2573,"lon":5.41108,"is_reserved":false,"is_disabled":false,"rental_uris":{"android":"levelo://app?vid=f0d69e5a-f9ba-4bf6-8568-8a7e54ca5cfe","ios":"levelo://app?vid=f0d69e5a-f9ba-4bf6-8568-8a7e54ca5cfe"},"vehicle_type_id":"4","last_reported":1776908735,"current_range_meters":9600,"station_id":"ce4bhkp2rcd13ifvqgd0","pricing_plan_id":"cebpf4jnsgd1na2vs0mg"},{"bike_id":"4c59e750-bd32-470f-aabb-d5afbed24b9c","system_id":"levelo_inurba_marseille","lat":43.24821,"lon":5.37474,"is_reserved":false,"is_disabled":false,"rental_uris":{"android":"levelo://app?vid=4c59e750-bd32-470f-aabb-d5afbed24b9c","ios":"levelo://app?vid=4c59e750-bd32-470f-aabb-d5afbed24b9c"},"vehicle_type_id":"4","last_reported":1776908735,"current_range_meters":9600,"station_id":"ce4bhgh2rcd13ifvqfb0","pricing_plan_id":"cebpf4jnsgd1na2vs0mg"},{"bike_id":"3ab04e0a-3ab2-4266-b34a-546ec1625124","system_id":"levelo_inurba_marseille","lat":43.29849,"lon":5.36297,"is_reserved":false,"is_disabled":false,"rental_uris":{"android":"levelo://app?vid=3ab04e0a-3ab2-4266-b34a-546ec1625124","ios":"levelo://app?vid=3ab04e0a-3ab2-4266-b34a-546ec1625124"},"vehicle_type_id":"4","last_reported":1776908735,"current_range_meters":9600,"station_id":"ce4bgpp2rcd13ifvqc3g","pricing_plan_id":"cebpf4jnsgd1na2vs0mg"},{"bike_id":"3861474c-5c79-40a8-a73c-d543fa3a8ccd","system_id":"levelo_inurba_marseille","lat":43.24809,"lon":5.37467,"is_reserved":false,"is_disabled":false,"rental_uris":{"android":"levelo://app?vid=3861474c-5c79-40a8-a73c-d543fa3a8ccd","ios":"levelo://app?vid=3861474c-5c79-40a8-a73c-d543fa3a8ccd"},"vehicle_type_id":"4","last_reported":1776908735,"current_range_meters":9600,"station_id":"ce4bhgh2rcd13ifvqfb0","pricing_plan_id":"cebpf4jnsgd1na2vs0mg"},{"bike_id":"7c785f2f-fe9b-43b3-a93c-b64a4c8daf77","system_id":"levelo_inurba_marseille","lat":43.2976,"lon":5.42768,"is_reserved":false,"is_disabled":false,"rental_uris":{"android":"levelo://app?vid=7c785f2f-fe9b-43b3-a93c-b64a4c8daf77","ios":"levelo://app?vid=7c785f2f-fe9b-43b3-a93c-b64a4c8daf77"},"vehicle_type_id":"4","last_reported":1776908735,"current_range_meters":9600,"station_id":"st_d3md5207bmas73dh9klg","pricing_plan_id":"cebpf4jnsgd1na2vs0mg"},{"bike_id":"cc473834-7965-481c-b791-ae716297be6c","system_id":"levelo_inurba_marseille","lat":43.30215,"lon":5.39478,"is_reserved":false,"is_disabled":false,"rental_uris":{"android":"levelo://app?vid=cc473834-7965-481c-b791-ae716297be6c","ios":"levelo://app?vid=cc473834-7965-481c-b791-ae716297be6c"},"vehicle_type_id":"4","last_reported":1776908735,"current_range_meters":9600,"station_id":"ce4bh0p2rcd13ifvqd70","pricing_plan_id":"cebpf4jnsgd1na2vs0mg"},{"bike_id":"6843e882-7c36-4091-90e8-5bc86219a69e","system_id":"levelo_inurba_marseille","lat":43.30613,"lon":5.37219,"is_reserved":false,"is_disabled":false,"rental_uris":{"android":"levelo://app?vid=6843e882-7c36-4091-90e8-5bc86219a69e","ios":"levelo://app?vid=6843e882-7c36-4091-90e8-5bc86219a69e"},"vehicle_type_id":"4","last_reported":1776908735,"current_range_meters":9600,"station_id":"ce4bgqh2rcd13ifvqc4g","pricing_plan_id":"cebpf4jnsgd1na2vs0mg"},{"bike_id":"c366be47-591a-4881-84b3-6ecaca0c6af3","system_id":"levelo_inurba_marseille","lat":43.330238,"lon":5.390502,"is_reserved":false,"is_disabled":false,"rental_uris":{"android":"levelo://app?vid=c366be47-591a-4881-84b3-6ecaca0c6af3","ios":"levelo://app?vid=c366be47-591a-4881-84b3-6ecaca0c6af3"},"vehicle_type_id":"4","last_reported":1776908735,"current_range_meters":9600,"station_id":"","pricing_plan_id":"cebpf4jnsgd1na2vs0mg"},{"bike_id":"a44684de-5b58-4e58-8e3d-63bf5aaee796","system_id":"levelo_inurba_marseille","lat":43.27927,"lon":5.38687,"is_reserved":false,"is_disabled":false,"rental_uris":{"android":"levelo://app?vid=a44684de-5b58-4e58-8e3d-63bf5aaee796","ios":"levelo://app?vid=a44684de-5b58-4e58-8e3d-63bf5aaee796"},"vehicle_type_id":"4","last_reported":1776908735,"current_range_meters":9600,"station_id":"ce4bhg12rcd13ifvqf80","pricing_plan_id":"cebpf4jnsgd1na2vs0mg"},{"bike_id":"7a22a47e-4596-4649-8be4-4a2217722d57","system_id":"levelo_inurba_marseille","lat":43.24647,"lon":5.38192,"is_reserved":false,"is_disabled":false,"rental_uris":{"android":"levelo://app?vid=7a22a47e-4596-4649-8be4-4a2217722d57","ios":"levelo://app?vid=7a22a47e-4596-4649-8be4-4a2217722d57"},"vehicle_type_id":"4","last_reported":1776908735,"current_range_meters":9600,"station_id":"ce4bhih2rcd13ifvqfr0","pricing_plan_id":"cebpf4jnsgd1na2vs0mg"},{"bike_id":"7db8e5f3-3982-4808-8fb4-746a2f23f4b1","system_id":"levelo_inurba_marseille","lat":43.29342,"lon":5.4389,"is_reserved":false,"is_disabled":false,"rental_uris":{"android":"levelo://app?vid=7db8e5f3-3982-4808-8fb4-746a2f23f4b1","ios":"levelo://app?vid=7db8e5f3-3982-4808-8fb4-746a2f23f4b1"},"vehicle_type_id":"4","last_reported":1776908735,"current_range_meters":10000,"station_id":"","pricing_plan_id":"cebpf4jnsgd1na2vs0mg"},{"bike_id":"1dfb8304-4a5b-4c32-b67a-ccf966ce412e","system_id":"levelo_inurba_marseille","lat":43.30302,"lon":5.36892,"is_reserved":false,"is_disabled":true,"rental_uris":{"android":"levelo://app?vid=1dfb8304-4a5b-4c32-b67a-ccf966ce412e","ios":"levelo://app?vid=1dfb8304-4a5b-4c32-b67a-ccf966ce412e"},"vehicle_type_id":"4","last_reported":1776908735,"current_range_meters":10000,"station_id":"ce4bgqh2rcd13ifvqc5g","pricing_plan_id":"cebpf4jnsgd1na2vs0mg"},{"bike_id":"fc7363fe-b04d-489a-9727-90ca30e7bca6","system_id":"levelo_inurba_marseille","lat":43.32049,"lon":5.36766,"is_reserved":false,"is_disabled":false,"rental_uris":{"android":"levelo://app?vid=fc7363fe-b04d-489a-9727-90ca30e7bca6","ios":"levelo://app?vid=fc7363fe-b04d-489a-9727-90ca30e7bca6"},"vehicle_type_id":"4","last_reported":1776908735,"current_range_meters":10000,"station_id":"ce4bhrh2rcd13ifvqhug","pricing_plan_id":"cebpf4jnsgd1na2vs0mg"},{"bike_id":"75f433ca-3df0-4831-9633-bf7b5e16ebc1","system_id":"levelo_inurba_marseille","lat":43.30948,"lon":5.40092,"is_reserved":false,"is_disabled":false,"rental_uris":{"android":"levelo://app?vid=75f433ca-3df0-4831-9633-bf7b5e16ebc1","ios":"levelo://app?vid=75f433ca-3df0-4831-9633-bf7b5e16ebc1"},"vehicle_type_id":"4","last_reported":1776908735,"current_range_meters":10000,"station_id":"ce4bgvp2rcd13ifvqct0","pricing_plan_id":"cebpf4jnsgd1na2vs0mg"},{"bike_id":"1f68b41e-59e6-45c1-8843-64a039c566ec","system_id":"levelo_inurba_marseille","lat":43.27181,"lon":5.41004,"is_reserved":false,"is_disabled":false,"rental_uris":{"android":"levelo://app?vid=1f68b41e-59e6-45c1-8843-64a039c566ec","ios":"levelo://app?vid=1f68b41e-59e6-45c1-8843-64a039c566ec"},"vehicle_type_id":"4","last_reported":1776908735,"current_range_meters":10000,"station_id":"ce4bhl12rcd13ifvqgf0","pricing_plan_id":"cebpf4jnsgd1na2vs0mg"},{"bike_id":"6efae23b-4853-4978-a046-e2118aa389db","system_id":"levelo_inurba_marseille","lat":43.2946,"lon":5.38206,"is_reserved":false,"is_disabled":false,"rental_uris":{"android":"levelo://app?vid=6efae23b-4853-4978-a046-e2118aa389db","ios":"levelo://app?vid=6efae23b-4853-4978-a046-e2118aa389db"},"vehicle_type_id":"4","last_reported":1776908735,"current_range_meters":10000,"station_id":"","pricing_plan_id":"cebpf4jnsgd1na2vs0mg"},{"bike_id":"89cb976b-df3a-46fc-a9ef-0025de561630","system_id":"levelo_inurba_marseille","lat":43.29415,"lon":5.43377,"is_reserved":false,"is_disabled":false,"rental_uris":{"android":"levelo://app?vid=89cb976b-df3a-46fc-a9ef-0025de561630","ios":"levelo://app?vid=89cb976b-df3a-46fc-a9ef-0025de561630"},"vehicle_type_id":"4","last_reported":1776908735,"current_range_meters":10000,"station_id":"","pricing_plan_id":"cebpf4jnsgd1na2vs0mg"},{"bike_id":"a8aa9b10-b201-4335-86a5-69aaa3d0be38","system_id":"levelo_inurba_marseille","lat":43.28412,"lon":5.37503,"is_reserved":false,"is_disabled":false,"rental_uris":{"android":"levelo://app?vid=a8aa9b10-b201-4335-86a5-69aaa3d0be38","ios":"levelo://app?vid=a8aa9b10-b201-4335-86a5-69aaa3d0be38"},"vehicle_type_id":"4","last_reported":1776908735,"current_range_meters":10000,"station_id":"ce4bh412rcd13ifvqds0","pricing_plan_id":"cebpf4jnsgd1na2vs0mg"},{"bike_id":"3f693977-87ee-4bbd-b110-46e181cbb497","system_id":"levelo_inurba_marseille","lat":43.2456,"lon":5.43154,"is_reserved":false,"is_disabled":false,"rental_uris":{"android":"levelo://app?vid=3f693977-87ee-4bbd-b110-46e181cbb497","ios":"levelo://app?vid=3f693977-87ee-4bbd-b110-46e181cbb497"},"vehicle_type_id":"4","last_reported":1776908735,"current_range_meters":10000,"station_id":"st_d2m6c4gdas8pm72e190g","pricing_plan_id":"cebpf4jnsgd1na2vs0mg"},{"bike_id":"a15cdab9-680f-4286-8f38-4a3449c3e787","system_id":"levelo_inurba_marseille","lat":43.28153,"lon":5.4263,"is_reserved":false,"is_disabled":false,"rental_uris":{"android":"levelo://app?vid=a15cdab9-680f-4286-8f38-4a3449c3e787","ios":"levelo://app?vid=a15cdab9-680f-4286-8f38-4a3449c3e787"},"vehicle_type_id":"4","last_reported":1776908735,"current_range_meters":10000,"station_id":"ce4bhnh2rcd13ifvqgug","pricing_plan_id":"cebpf4jnsgd1na2vs0mg"},{"bike_id":"4751b1fb-03ae-479c-aec9-9a725be1e749","system_id":"levelo_inurba_marseille","lat":43.30653,"lon":5.40082,"is_reserved":false,"is_disabled":false,"rental_uris":{"android":"levelo://app?vid=4751b1fb-03ae-479c-aec9-9a725be1e749","ios":"levelo://app?vid=4751b1fb-03ae-479c-aec9-9a725be1e749"},"vehicle_type_id":"4","last_reported":1776908735,"current_range_meters":10000,"station_id":"ce4bh112rcd13ifvqda0","pricing_plan_id":"cebpf4jnsgd1na2vs0mg"},{"bike_id":"0d92b367-f5b2-46f2-a799-2ed212a6ebea","system_id":"levelo_inurba_marseille","lat":43.24645,"lon":5.4316,"is_reserved":false,"is_disabled":false,"rental_uris":{"android":"levelo://app?vid=0d92b367-f5b2-46f2-a799-2ed212a6ebea","ios":"levelo://app?vid=0d92b367-f5b2-46f2-a799-2ed212a6ebea"},"vehicle_type_id":"4","last_reported":1776908735,"current_range_meters":10000,"station_id":"st_d2m6c4gdas8pm72e190g","pricing_plan_id":"cebpf4jnsgd1na2vs0mg"},{"bike_id":"5ef16f64-4b3f-4d76-9893-44a121593e32","system_id":"levelo_inurba_marseille","lat":43.28841,"lon":5.35843,"is_reserved":false,"is_disabled":false,"rental_uris":{"android":"levelo://app?vid=5ef16f64-4b3f-4d76-9893-44a121593e32","ios":"levelo://app?vid=5ef16f64-4b3f-4d76-9893-44a121593e32"},"vehicle_type_id":"4","last_reported":1776908735,"current_range_meters":10000,"station_id":"ce4bhb12rcd13ifvqem0","pricing_plan_id":"cebpf4jnsgd1na2vs0mg"},{"bike_id":"1b96147a-0a00-444b-a6da-e7e56ca38fd6","system_id":"levelo_inurba_marseille","lat":43.29899,"lon":5.39728,"is_reserved":false,"is_disabled":false,"rental_uris":{"android":"levelo://app?vid=1b96147a-0a00-444b-a6da-e7e56ca38fd6","ios":"levelo://app?vid=1b96147a-0a00-444b-a6da-e7e56ca38fd6"},"vehicle_type_id":"4","last_reported":1776908735,"current_range_meters":10800,"station_id":"ce4bh0h2rcd13ifvqd50","pricing_plan_id":"cebpf4jnsgd1na2vs0mg"},{"bike_id":"b94479fe-5fb6-49b6-bbd0-4794bc39cdce","system_id":"levelo_inurba_marseille","lat":43.29186,"lon":5.35795,"is_reserved":false,"is_disabled":false,"rental_uris":{"android":"levelo://app?vid=b94479fe-5fb6-49b6-bbd0-4794bc39cdce","ios":"levelo://app?vid=b94479fe-5fb6-49b6-bbd0-4794bc39cdce"},"vehicle_type_id":"4","last_reported":1776908735,"current_range_meters":10800,"station_id":"ce4bhb12rcd13ifvqel0","pricing_plan_id":"cebpf4jnsgd1na2vs0mg"},{"bike_id":"d088911f-aeb5-4003-a7ea-8a92c9b216cf","system_id":"levelo_inurba_marseille","lat":43.29518,"lon":5.39034,"is_reserved":false,"is_disabled":true,"rental_uris":{"android":"levelo://app?vid=d088911f-aeb5-4003-a7ea-8a92c9b216cf","ios":"levelo://app?vid=d088911f-aeb5-4003-a7ea-8a92c9b216cf"},"vehicle_type_id":"4","last_reported":1776908735,"current_range_meters":10800,"station_id":"ce4bh3p2rcd13ifvqdp0","pricing_plan_id":"cebpf4jnsgd1na2vs0mg"},{"bike_id":"d0211983-1780-459c-9da0-768ca4cff401","system_id":"levelo_inurba_marseille","lat":43.257248,"lon":5.41118,"is_reserved":false,"is_disabled":false,"rental_uris":{"android":"levelo://app?vid=d0211983-1780-459c-9da0-768ca4cff401","ios":"levelo://app?vid=d0211983-1780-459c-9da0-768ca4cff401"},"vehicle_type_id":"4","last_reported":1776908735,"current_range_meters":10800,"station_id":"ce4bhkp2rcd13ifvqgd0","pricing_plan_id":"cebpf4jnsgd1na2vs0mg"},{"bike_id":"0e04dbd4-b985-4fd2-a030-d1422561b480","system_id":"levelo_inurba_marseille","lat":43.29534,"lon":5.38533,"is_reserved":false,"is_disabled":false,"rental_uris":{"android":"levelo://app?vid=0e04dbd4-b985-4fd2-a030-d1422561b480","ios":"levelo://app?vid=0e04dbd4-b985-4fd2-a030-d1422561b480"},"vehicle_type_id":"4","last_reported":1776908735,"current_range_meters":10800,"station_id":"ce4bgih2rcd13ifvqba0","pricing_plan_id":"cebpf4jnsgd1na2vs0mg"},{"bike_id":"35a6dbb5-1f6c-499d-b0dc-f3a5b44380bf","system_id":"levelo_inurba_marseille","lat":43.32484,"lon":5.38395,"is_reserved":false,"is_disabled":false,"rental_uris":{"android":"levelo://app?vid=35a6dbb5-1f6c-499d-b0dc-f3a5b44380bf","ios":"levelo://app?vid=35a6dbb5-1f6c-499d-b0dc-f3a5b44380bf"},"vehicle_type_id":"4","last_reported":1776908735,"current_range_meters":10800,"station_id":"st_d4asgbiv49dc73anf9m0","pricing_plan_id":"cebpf4jnsgd1na2vs0mg"},{"bike_id":"35a9c97c-b85e-449d-99bb-1116c761abbd","system_id":"levelo_inurba_marseille","lat":43.3234,"lon":5.36715,"is_reserved":false,"is_disabled":false,"rental_uris":{"android":"levelo://app?vid=35a9c97c-b85e-449d-99bb-1116c761abbd","ios":"levelo://app?vid=35a9c97c-b85e-449d-99bb-1116c761abbd"},"vehicle_type_id":"4","last_reported":1776908735,"current_range_meters":10800,"station_id":"ce4bhsh2rcd13ifvqi2g","pricing_plan_id":"cebpf4jnsgd1na2vs0mg"},{"bike_id":"873038f8-52d6-4618-968d-d955136c8dae","system_id":"levelo_inurba_marseille","lat":43.281,"lon":5.37836,"is_reserved":false,"is_disabled":true,"rental_uris":{"android":"levelo://app?vid=873038f8-52d6-4618-968d-d955136c8dae","ios":"levelo://app?vid=873038f8-52d6-4618-968d-d955136c8dae"},"vehicle_type_id":"4","last_reported":1776908735,"current_range_meters":10800,"station_id":"ce4bha12rcd13ifvqee0","pricing_plan_id":"cebpf4jnsgd1na2vs0mg"},{"bike_id":"0f8495bd-680c-438e-baa1-5ef6af45ed33","system_id":"levelo_inurba_marseille","lat":43.29577,"lon":5.39969,"is_reserved":false,"is_disabled":false,"rental_uris":{"android":"levelo://app?vid=0f8495bd-680c-438e-baa1-5ef6af45ed33","ios":"levelo://app?vid=0f8495bd-680c-438e-baa1-5ef6af45ed33"},"vehicle_type_id":"4","last_reported":1776908735,"current_range_meters":10800,"station_id":"ce4bh312rcd13ifvqdj0","pricing_plan_id":"cebpf4jnsgd1na2vs0mg"},{"bike_id":"91add120-1a2a-4b9a-8561-155065f2c657","system_id":"levelo_inurba_marseille","lat":43.27503,"lon":5.41605,"is_reserved":false,"is_disabled":false,"rental_uris":{"android":"levelo://app?vid=91add120-1a2a-4b9a-8561-155065f2c657","ios":"levelo://app?vid=91add120-1a2a-4b9a-8561-155065f2c657"},"vehicle_type_id":"4","last_reported":1776908735,"current_range_meters":10800,"station_id":"st_d6im8g6chgec73a5pndg","pricing_plan_id":"cebpf4jnsgd1na2vs0mg"},{"bike_id":"768abb91-8be4-4d81-b498-ec9507b98665","system_id":"levelo_inurba_marseille","lat":43.26391,"lon":5.42295,"is_reserved":false,"is_disabled":false,"rental_uris":{"android":"levelo://app?vid=768abb91-8be4-4d81-b498-ec9507b98665","ios":"levelo://app?vid=768abb91-8be4-4d81-b498-ec9507b98665"},"vehicle_type_id":"4","last_reported":1776908735,"current_range_meters":10800,"station_id":"","pricing_plan_id":"cebpf4jnsgd1na2vs0mg"},{"bike_id":"de8ad08c-e9c5-4972-b76b-dc51d1ce12a9","system_id":"levelo_inurba_marseille","lat":43.30125,"lon":5.38744,"is_reserved":false,"is_disabled":false,"rental_uris":{"android":"levelo://app?vid=de8ad08c-e9c5-4972-b76b-dc51d1ce12a9","ios":"levelo://app?vid=de8ad08c-e9c5-4972-b76b-dc51d1ce12a9"},"vehicle_type_id":"4","last_reported":1776908735,"current_range_meters":11200,"station_id":"ce4bghh2rcd13ifvqb60","pricing_plan_id":"cebpf4jnsgd1na2vs0mg"},{"bike_id":"85e24309-26e8-4c34-a121-2fe3c4012f4d","system_id":"levelo_inurba_marseille","lat":43.2927,"lon":5.40931,"is_reserved":false,"is_disabled":false,"rental_uris":{"android":"levelo://app?vid=85e24309-26e8-4c34-a121-2fe3c4012f4d","ios":"levelo://app?vid=85e24309-26e8-4c34-a121-2fe3c4012f4d"},"vehicle_type_id":"4","last_reported":1776908735,"current_range_meters":11200,"station_id":"ce4bh192rcd13ifvqdc0","pricing_plan_id":"cebpf4jnsgd1na2vs0mg"},{"bike_id":"ccf9364e-5060-405b-9427-da49c47aa005","system_id":"levelo_inurba_marseille","lat":43.33168,"lon":5.37632,"is_reserved":false,"is_disabled":false,"rental_uris":{"android":"levelo://app?vid=ccf9364e-5060-405b-9427-da49c47aa005","ios":"levelo://app?vid=ccf9364e-5060-405b-9427-da49c47aa005"},"vehicle_type_id":"4","last_reported":1776908735,"current_range_meters":11200,"station_id":"st_d46cu089ee8s73dldbu0","pricing_plan_id":"cebpf4jnsgd1na2vs0mg"},{"bike_id":"c4a6cf3f-a5b9-43d7-91d0-4da564433a66","system_id":"levelo_inurba_marseille","lat":43.30178,"lon":5.37417,"is_reserved":false,"is_disabled":false,"rental_uris":{"android":"levelo://app?vid=c4a6cf3f-a5b9-43d7-91d0-4da564433a66","ios":"levelo://app?vid=c4a6cf3f-a5b9-43d7-91d0-4da564433a66"},"vehicle_type_id":"4","last_reported":1776908735,"current_range_meters":11200,"station_id":"ce4bgs92rcd13ifvqcc0","pricing_plan_id":"cebpf4jnsgd1na2vs0mg"},{"bike_id":"d3ee5326-29bd-49b4-8d14-2cbd41904530","system_id":"levelo_inurba_marseille","lat":43.29971,"lon":5.41272,"is_reserved":false,"is_disabled":false,"rental_uris":{"android":"levelo://app?vid=d3ee5326-29bd-49b4-8d14-2cbd41904530","ios":"levelo://app?vid=d3ee5326-29bd-49b4-8d14-2cbd41904530"},"vehicle_type_id":"4","last_reported":1776908735,"current_range_meters":11200,"station_id":"ce4bhp12rcd13ifvqh9g","pricing_plan_id":"cebpf4jnsgd1na2vs0mg"},{"bike_id":"88cdbabc-96be-4529-bb14-a9b9d4fda4db","system_id":"levelo_inurba_marseille","lat":43.29357,"lon":5.37865,"is_reserved":false,"is_disabled":true,"rental_uris":{"android":"levelo://app?vid=88cdbabc-96be-4529-bb14-a9b9d4fda4db","ios":"levelo://app?vid=88cdbabc-96be-4529-bb14-a9b9d4fda4db"},"vehicle_type_id":"4","last_reported":1776908735,"current_range_meters":11200,"station_id":"ce4bgjh2rcd13ifvqbf0","pricing_plan_id":"cebpf4jnsgd1na2vs0mg"},{"bike_id":"ba0f19f9-bc38-4c7c-aba0-3dad327ba6be","system_id":"levelo_inurba_marseille","lat":43.31367,"lon":5.36753,"is_reserved":false,"is_disabled":false,"rental_uris":{"android":"levelo://app?vid=ba0f19f9-bc38-4c7c-aba0-3dad327ba6be","ios":"levelo://app?vid=ba0f19f9-bc38-4c7c-aba0-3dad327ba6be"},"vehicle_type_id":"4","last_reported":1776908735,"current_range_meters":11200,"station_id":"ce4bgr92rcd13ifvqc6g","pricing_plan_id":"cebpf4jnsgd1na2vs0mg"},{"bike_id":"584cdce0-810e-4b55-bd3b-08e2bfb93074","system_id":"levelo_inurba_marseille","lat":43.22572,"lon":5.41622,"is_reserved":false,"is_disabled":false,"rental_uris":{"android":"levelo://app?vid=584cdce0-810e-4b55-bd3b-08e2bfb93074","ios":"levelo://app?vid=584cdce0-810e-4b55-bd3b-08e2bfb93074"},"vehicle_type_id":"4","last_reported":1776908735,"current_range_meters":11200,"station_id":"st_d2o4gvlbi1j2169b742g","pricing_plan_id":"cebpf4jnsgd1na2vs0mg"},{"bike_id":"6efe3edf-5587-4f1f-bc5a-b23d6f180abd","system_id":"levelo_inurba_marseille","lat":43.31275,"lon":5.40139,"is_reserved":false,"is_disabled":false,"rental_uris":{"android":"levelo://app?vid=6efe3edf-5587-4f1f-bc5a-b23d6f180abd","ios":"levelo://app?vid=6efe3edf-5587-4f1f-bc5a-b23d6f180abd"},"vehicle_type_id":"4","last_reported":1776908735,"current_range_meters":11200,"station_id":"ce4bh092rcd13ifvqd30","pricing_plan_id":"cebpf4jnsgd1na2vs0mg"},{"bike_id":"ed6c751d-11aa-4980-9be5-d32dd24768fe","system_id":"levelo_inurba_marseille","lat":43.33175,"lon":5.37799,"is_reserved":false,"is_disabled":false,"rental_uris":{"android":"levelo://app?vid=ed6c751d-11aa-4980-9be5-d32dd24768fe","ios":"levelo://app?vid=ed6c751d-11aa-4980-9be5-d32dd24768fe"},"vehicle_type_id":"4","last_reported":1776908735,"current_range_meters":11200,"station_id":"","pricing_plan_id":"cebpf4jnsgd1na2vs0mg"},{"bike_id":"cdea9f40-487c-495c-b7fc-01bd672104c9","system_id":"levelo_inurba_marseille","lat":43.30449,"lon":5.38896,"is_reserved":false,"is_disabled":false,"rental_uris":{"android":"levelo://app?vid=cdea9f40-487c-495c-b7fc-01bd672104c9","ios":"levelo://app?vid=cdea9f40-487c-495c-b7fc-01bd672104c9"},"vehicle_type_id":"4","last_reported":1776908735,"current_range_meters":11200,"station_id":"ce4bgk12rcd13ifvqbi0","pricing_plan_id":"cebpf4jnsgd1na2vs0mg"},{"bike_id":"c2368943-d1d8-4d51-9ab6-795aff759156","system_id":"levelo_inurba_marseille","lat":43.30946,"lon":5.40176,"is_reserved":false,"is_disabled":false,"rental_uris":{"android":"levelo://app?vid=c2368943-d1d8-4d51-9ab6-795aff759156","ios":"levelo://app?vid=c2368943-d1d8-4d51-9ab6-795aff759156"},"vehicle_type_id":"4","last_reported":1776908735,"current_range_meters":11200,"station_id":"ce4bgvp2rcd13ifvqct0","pricing_plan_id":"cebpf4jnsgd1na2vs0mg"},{"bike_id":"ae583574-3b33-45b7-bcd2-256bebd82811","system_id":"levelo_inurba_marseille","lat":43.24167,"lon":5.36384,"is_reserved":false,"is_disabled":false,"rental_uris":{"android":"levelo://app?vid=ae583574-3b33-45b7-bcd2-256bebd82811","ios":"levelo://app?vid=ae583574-3b33-45b7-bcd2-256bebd82811"},"vehicle_type_id":"4","last_reported":1776908735,"current_range_meters":11200,"station_id":"cpo36qri1sfpv3e86is0","pricing_plan_id":"cebpf4jnsgd1na2vs0mg"},{"bike_id":"77bae04d-b155-4a06-9049-fda6a4b9e974","system_id":"levelo_inurba_marseille","lat":43.29147,"lon":5.42616,"is_reserved":false,"is_disabled":false,"rental_uris":{"android":"levelo://app?vid=77bae04d-b155-4a06-9049-fda6a4b9e974","ios":"levelo://app?vid=77bae04d-b155-4a06-9049-fda6a4b9e974"},"vehicle_type_id":"4","last_reported":1776908735,"current_range_meters":11600,"station_id":"","pricing_plan_id":"cebpf4jnsgd1na2vs0mg"},{"bike_id":"8db75b79-5718-462d-b907-a22490118526","system_id":"levelo_inurba_marseille","lat":43.27714,"lon":5.40694,"is_reserved":false,"is_disabled":false,"rental_uris":{"android":"levelo://app?vid=8db75b79-5718-462d-b907-a22490118526","ios":"levelo://app?vid=8db75b79-5718-462d-b907-a22490118526"},"vehicle_type_id":"4","last_reported":1776908735,"current_range_meters":11600,"station_id":"","pricing_plan_id":"cebpf4jnsgd1na2vs0mg"},{"bike_id":"e550c78d-b6eb-4600-86c5-369dce3159f6","system_id":"levelo_inurba_marseille","lat":43.2974,"lon":5.37651,"is_reserved":false,"is_disabled":true,"rental_uris":{"android":"levelo://app?vid=e550c78d-b6eb-4600-86c5-369dce3159f6","ios":"levelo://app?vid=e550c78d-b6eb-4600-86c5-369dce3159f6"},"vehicle_type_id":"4","last_reported":1776908735,"current_range_meters":11600,"station_id":"ce4bgkh2rcd13ifvqbl0","pricing_plan_id":"cebpf4jnsgd1na2vs0mg"},{"bike_id":"7c6fa40e-8389-43b7-8c6b-716314a80f78","system_id":"levelo_inurba_marseille","lat":43.28599,"lon":5.35153,"is_reserved":false,"is_disabled":false,"rental_uris":{"android":"levelo://app?vid=7c6fa40e-8389-43b7-8c6b-716314a80f78","ios":"levelo://app?vid=7c6fa40e-8389-43b7-8c6b-716314a80f78"},"vehicle_type_id":"4","last_reported":1776908735,"current_range_meters":11600,"station_id":"ce4bhch2rcd13ifvqeug","pricing_plan_id":"cebpf4jnsgd1na2vs0mg"},{"bike_id":"364ed96c-6125-49ae-9b44-28c3e4f3725d","system_id":"levelo_inurba_marseille","lat":43.28418,"lon":5.37513,"is_reserved":false,"is_disabled":false,"rental_uris":{"android":"levelo://app?vid=364ed96c-6125-49ae-9b44-28c3e4f3725d","ios":"levelo://app?vid=364ed96c-6125-49ae-9b44-28c3e4f3725d"},"vehicle_type_id":"4","last_reported":1776908735,"current_range_meters":11600,"station_id":"ce4bh412rcd13ifvqds0","pricing_plan_id":"cebpf4jnsgd1na2vs0mg"},{"bike_id":"c4a5ef90-f74d-49a3-b74b-84a99d6a57f2","system_id":"levelo_inurba_marseille","lat":43.29684,"lon":5.3729,"is_reserved":false,"is_disabled":false,"rental_uris":{"android":"levelo://app?vid=c4a5ef90-f74d-49a3-b74b-84a99d6a57f2","ios":"levelo://app?vid=c4a5ef90-f74d-49a3-b74b-84a99d6a57f2"},"vehicle_type_id":"4","last_reported":1776908735,"current_range_meters":11600,"station_id":"ce4bgk12rcd13ifvqbj0","pricing_plan_id":"cebpf4jnsgd1na2vs0mg"},{"bike_id":"dde4c430-04a3-4a52-a3ce-15eaddb2aeff","system_id":"levelo_inurba_marseille","lat":43.2119,"lon":5.35081,"is_reserved":false,"is_disabled":true,"rental_uris":{"android":"levelo://app?vid=dde4c430-04a3-4a52-a3ce-15eaddb2aeff","ios":"levelo://app?vid=dde4c430-04a3-4a52-a3ce-15eaddb2aeff"},"vehicle_type_id":"4","last_reported":1776908735,"current_range_meters":11600,"station_id":"st_cvj6sg6p6f1abm77japg","pricing_plan_id":"cebpf4jnsgd1na2vs0mg"},{"bike_id":"ec19aaad-2410-439f-9123-e83fa1c535f8","system_id":"levelo_inurba_marseille","lat":43.28278,"lon":5.37942,"is_reserved":false,"is_disabled":false,"rental_uris":{"android":"levelo://app?vid=ec19aaad-2410-439f-9123-e83fa1c535f8","ios":"levelo://app?vid=ec19aaad-2410-439f-9123-e83fa1c535f8"},"vehicle_type_id":"4","last_reported":1776908735,"current_range_meters":11600,"station_id":"","pricing_plan_id":"cebpf4jnsgd1na2vs0mg"},{"bike_id":"8f06b729-83f4-4a07-92f6-728ca260750a","system_id":"levelo_inurba_marseille","lat":43.2894,"lon":5.3664,"is_reserved":false,"is_disabled":false,"rental_uris":{"android":"levelo://app?vid=8f06b729-83f4-4a07-92f6-728ca260750a","ios":"levelo://app?vid=8f06b729-83f4-4a07-92f6-728ca260750a"},"vehicle_type_id":"4","last_reported":1776908735,"current_range_meters":11600,"station_id":"ce4bhap2rcd13ifvqek0","pricing_plan_id":"cebpf4jnsgd1na2vs0mg"},{"bike_id":"29b6e3d6-8141-49ac-b172-7724153324b6","system_id":"levelo_inurba_marseille","lat":43.32656,"lon":5.40995,"is_reserved":false,"is_disabled":false,"rental_uris":{"android":"levelo://app?vid=29b6e3d6-8141-49ac-b172-7724153324b6","ios":"levelo://app?vid=29b6e3d6-8141-49ac-b172-7724153324b6"},"vehicle_type_id":"4","last_reported":1776908735,"current_range_meters":11600,"station_id":"ce4bhpp2rcd13ifvqhgg","pricing_plan_id":"cebpf4jnsgd1na2vs0mg"},{"bike_id":"e3adb1c3-34d4-4386-865b-7eff54f3040d","system_id":"levelo_inurba_marseille","lat":43.24601,"lon":5.39578,"is_reserved":false,"is_disabled":false,"rental_uris":{"android":"levelo://app?vid=e3adb1c3-34d4-4386-865b-7eff54f3040d","ios":"levelo://app?vid=e3adb1c3-34d4-4386-865b-7eff54f3040d"},"vehicle_type_id":"4","last_reported":1776908735,"current_range_meters":11600,"station_id":"","pricing_plan_id":"cebpf4jnsgd1na2vs0mg"},{"bike_id":"203d0a0d-9d0b-4e0a-acae-b89f2840d2d9","system_id":"levelo_inurba_marseille","lat":43.29024,"lon":5.38618,"is_reserved":false,"is_disabled":false,"rental_uris":{"android":"levelo://app?vid=203d0a0d-9d0b-4e0a-acae-b89f2840d2d9","ios":"levelo://app?vid=203d0a0d-9d0b-4e0a-acae-b89f2840d2d9"},"vehicle_type_id":"4","last_reported":1776908735,"current_range_meters":11600,"station_id":"ce4bh4p2rcd13ifvqe0g","pricing_plan_id":"cebpf4jnsgd1na2vs0mg"},{"bike_id":"c229b819-8f7f-4038-88d6-89ea1d92aeee","system_id":"levelo_inurba_marseille","lat":43.23388,"lon":5.41243,"is_reserved":false,"is_disabled":false,"rental_uris":{"android":"levelo://app?vid=c229b819-8f7f-4038-88d6-89ea1d92aeee","ios":"levelo://app?vid=c229b819-8f7f-4038-88d6-89ea1d92aeee"},"vehicle_type_id":"4","last_reported":1776908735,"current_range_meters":11600,"station_id":"st_d75pvndhf9lc73cqq3eg","pricing_plan_id":"cebpf4jnsgd1na2vs0mg"},{"bike_id":"6d2f07aa-876a-4ba6-802b-bb4e36ed8022","system_id":"levelo_inurba_marseille","lat":43.28633,"lon":5.35047,"is_reserved":false,"is_disabled":false,"rental_uris":{"android":"levelo://app?vid=6d2f07aa-876a-4ba6-802b-bb4e36ed8022","ios":"levelo://app?vid=6d2f07aa-876a-4ba6-802b-bb4e36ed8022"},"vehicle_type_id":"4","last_reported":1776908735,"current_range_meters":12000,"station_id":"","pricing_plan_id":"cebpf4jnsgd1na2vs0mg"},{"bike_id":"e6cb6647-3e72-422a-86c7-56e5bf4979b7","system_id":"levelo_inurba_marseille","lat":43.287,"lon":5.46752,"is_reserved":false,"is_disabled":false,"rental_uris":{"android":"levelo://app?vid=e6cb6647-3e72-422a-86c7-56e5bf4979b7","ios":"levelo://app?vid=e6cb6647-3e72-422a-86c7-56e5bf4979b7"},"vehicle_type_id":"4","last_reported":1776908735,"current_range_meters":12000,"station_id":"st_d6tc3vkotcvc738tfjhg","pricing_plan_id":"cebpf4jnsgd1na2vs0mg"},{"bike_id":"e8d6ce3d-1aa9-47ef-9b48-93862ee5f7fd","system_id":"levelo_inurba_marseille","lat":43.21267,"lon":5.35417,"is_reserved":false,"is_disabled":false,"rental_uris":{"android":"levelo://app?vid=e8d6ce3d-1aa9-47ef-9b48-93862ee5f7fd","ios":"levelo://app?vid=e8d6ce3d-1aa9-47ef-9b48-93862ee5f7fd"},"vehicle_type_id":"4","last_reported":1776908735,"current_range_meters":12000,"station_id":"","pricing_plan_id":"cebpf4jnsgd1na2vs0mg"},{"bike_id":"f5b9740b-a3d3-4e27-b301-bbc8bab6d802","system_id":"levelo_inurba_marseille","lat":43.31042,"lon":5.37174,"is_reserved":false,"is_disabled":false,"rental_uris":{"android":"levelo://app?vid=f5b9740b-a3d3-4e27-b301-bbc8bab6d802","ios":"levelo://app?vid=f5b9740b-a3d3-4e27-b301-bbc8bab6d802"},"vehicle_type_id":"4","last_reported":1776908735,"current_range_meters":12000,"station_id":"st_d4kl2rp97mjs73e7tdfg","pricing_plan_id":"cebpf4jnsgd1na2vs0mg"},{"bike_id":"adf7eb2e-1e81-46f8-a2b4-f0374b3ac74e","system_id":"levelo_inurba_marseille","lat":43.246621,"lon":5.381643,"is_reserved":false,"is_disabled":false,"rental_uris":{"android":"levelo://app?vid=adf7eb2e-1e81-46f8-a2b4-f0374b3ac74e","ios":"levelo://app?vid=adf7eb2e-1e81-46f8-a2b4-f0374b3ac74e"},"vehicle_type_id":"4","last_reported":1776908735,"current_range_meters":12000,"station_id":"ce4bhih2rcd13ifvqfr0","pricing_plan_id":"cebpf4jnsgd1na2vs0mg"},