{"last_updated":1758409696,"ttl":60,"version":"2.2","data":{"bikes":[{"bike_id":"85c8e685-734d-4760-966b-86b771a65d9b","system_id":"levelo_inurba_marseille","lat":43.21192,"lon":5.35083,"is_reserved":false,"is_disabled":true,"rental_uris":{"android":"levelo://app?vid=85c8e685-734d-4760-966b-86b771a65d9b","ios":"levelo://app?vid=85c8e685-734d-4760-966b-86b771a65d9b"},"vehicle_type_id":"4","last_reported":1758409696,"current_range_meters":2800,"station_id":"st_cvj6sg6p6f1abm77japg","pricing_plan_id":"cebpf4jnsgd1na2vs0mg"},{"bike_id":"577d0e24-bf90-43b8-a759-bea08b7d7e19","system_id":"levelo_inurba_marseille","lat":43.21746,"lon":5.34601,"is_reserved":false,"is_disabled":true,"rental_uris":{"android":"levelo://app?vid=577d0e24-bf90-43b8-a759-bea08b7d7e19","ios":"levelo://app?vid=577d0e24-bf90-43b8-a759-bea08b7d7e19"},"vehicle_type_id":"4","last_reported":1758409696,"current_range_meters":2800,"station_id":"st_cvj6r9ubvosntc0bgbag","pricing_plan_id":"cebpf4jnsgd1na2vs0mg"},{"bike_id":"bf4a70a9-11a1-40f0-9ac4-fe19c24770ca","system_id":"levelo_inurba_marseille","lat":43.30058,"lon":5.375871,"is_reserved":false,"is_disabled":false,"rental_uris":{"android":"levelo://app?vid=bf4a70a9-11a1-40f0-9ac4-fe19c24770ca","ios":"levelo://app?vid=bf4a70a9-11a1-40f0-9ac4-fe19c24770ca"},"vehicle_type_id":"4","last_reported":1758409696,"current_range_meters":2800,"station_id":"","pricing_plan_id":"cebpf4jnsgd1na2vs0mg"},{"bike_id":"e942f984-8fe7-48d1-8f04-3806656b9996","system_id":"levelo_inurba_marseille","lat":43.33624,"lon":5.37908,"is_reserved":false,"is_disabled":false,"rental_uris":{"android":"levelo://app?vid=e942f984-8fe7-48d1-8f04-3806656b9996","ios":"levelo://app?vid=e942f984-8fe7-48d1-8f04-3806656b9996"},"vehicle_type_id":"4","last_reported":1758409696,"current_range_meters":3200,"station_id":"","pricing_plan_id":"cebpf4jnsgd1na2vs0mg"},{"bike_id":"618d815b-a5a1-4a7e-89ec-653134ae0a4f","system_id":"levelo_inurba_marseille","lat":43.211988,"lon":5.350891,"is_reserved":false,"is_disabled":false,"rental_uris":{"android":"levelo://app?vid=618d815b-a5a1-4a7e-89ec-653134ae0a4f","ios":"levelo://app?vid=618d815b-a5a1-4a7e-89ec-653134ae0a4f"},"vehicle_type_id":"4","last_reported":1758409696,"current_range_meters":3200,"station_id":"st_cvj6sg6p6f1abm77japg","pricing_plan_id":"cebpf4jnsgd1na2vs0mg"},{"bike_id":"f72993fa-0144-4fc4-9909-0eb89d3079e2","system_id":"levelo_inurba_marseille","lat":43.2835,"lon":5.38106,"is_reserved":false,"is_disabled":false,"rental_uris":{"android":"levelo://app?vid=f72993fa-0144-4fc4-9909-0eb89d3079e2","ios":"levelo://app?vid=f72993fa-0144-4fc4-9909-0eb89d3079e2"},"vehicle_type_id":"4","last_reported":1758409696,"current_range_meters":3200,"station_id":"ce4bh412rcd13ifvqdr0","pricing_plan_id":"cebpf4jnsgd1na2vs0mg"},{"bike_id":"2a86e35d-55c6-48bb-a705-df65b395ec7d","system_id":"levelo_inurba_marseille","lat":43.26035,"lon":5.37541,"is_reserved":false,"is_disabled":false,"rental_uris":{"android":"levelo://app?vid=2a86e35d-55c6-48bb-a705-df65b395ec7d","ios":"levelo://app?vid=2a86e35d-55c6-48bb-a705-df65b395ec7d"},"vehicle_type_id":"4","last_reported":1758409696,"current_range_meters":3200,"station_id":"ce4bhgh2rcd13ifvqfa0","pricing_plan_id":"cebpf4jnsgd1na2vs0mg"},{"bike_id":"fed9832d-df46-4e72-9e13-6c8aaa856894","system_id":"levelo_inurba_marseille","lat":43.29523,"lon":5.39045,"is_reserved":false,"is_disabled":false,"rental_uris":{"android":"levelo://app?vid=fed9832d-df46-4e72-9e13-6c8aaa856894","ios":"levelo://app?vid=fed9832d-df46-4e72-9e13-6c8aaa856894"},"vehicle_type_id":"4","last_reported":1758409696,"current_range_meters":3600,"station_id":"ce4bh3p2rcd13ifvqdp0","pricing_plan_id":"cebpf4jnsgd1na2vs0mg"},{"bike_id":"eb49604e-06c3-4e99-85f8-780ec4f8abc2","system_id":"levelo_inurba_marseille","lat":43.29533,"lon":5.39053,"is_reserved":false,"is_disabled":false,"rental_uris":{"android":"levelo://app?vid=eb49604e-06c3-4e99-85f8-780ec4f8abc2","ios":"levelo://app?vid=eb49604e-06c3-4e99-85f8-780ec4f8abc2"},"vehicle_type_id":"4","last_reported":1758409696,"current_range_meters":3600,"station_id":"ce4bh3p2rcd13ifvqdp0","pricing_plan_id":"cebpf4jnsgd1na2vs0mg"},{"bike_id":"90010aba-f5e4-4e5d-8823-acd8e56ec713","system_id":"levelo_inurba_marseille","lat":43.31168,"lon":5.38715,"is_reserved":false,"is_disabled":false,"rental_uris":{"android":"levelo://app?vid=90010aba-f5e4-4e5d-8823-acd8e56ec713","ios":"levelo://app?vid=90010aba-f5e4-4e5d-8823-acd8e56ec713"},"vehicle_type_id":"4","last_reported":1758409696,"current_range_meters":3600,"station_id":"ce4bgv12rcd13ifvqcp0","pricing_plan_id":"cebpf4jnsgd1na2vs0mg"},{"bike_id":"2f0c84be-e020-4960-9408-7685a02d0829","system_id":"levelo_inurba_marseille","lat":43.21753,"lon":5.34593,"is_reserved":false,"is_disabled":true,"rental_uris":{"android":"levelo://app?vid=2f0c84be-e020-4960-9408-7685a02d0829","ios":"levelo://app?vid=2f0c84be-e020-4960-9408-7685a02d0829"},"vehicle_type_id":"4","last_reported":1758409696,"current_range_meters":3600,"station_id":"st_cvj6r9ubvosntc0bgbag","pricing_plan_id":"cebpf4jnsgd1na2vs0mg"},{"bike_id":"9ca85602-51a1-4991-8eb8-fb5ef35be012","system_id":"levelo_inurba_marseille","lat":43.29275,"lon":5.38425,"is_reserved":false,"is_disabled":false,"rental_uris":{"android":"levelo://app?vid=9ca85602-51a1-4991-8eb8-fb5ef35be012","ios":"levelo://app?vid=9ca85602-51a1-4991-8eb8-fb5ef35be012"},"vehicle_type_id":"4","last_reported":1758409696,"current_range_meters":3600,"station_id":"ce4bh692rcd13ifvqea0","pricing_plan_id":"cebpf4jnsgd1na2vs0mg"},{"bike_id":"450431b5-8fcb-4adb-8b3f-bef61eaf2559","system_id":"levelo_inurba_marseille","lat":43.31673,"lon":5.40474,"is_reserved":false,"is_disabled":false,"rental_uris":{"android":"levelo://app?vid=450431b5-8fcb-4adb-8b3f-bef61eaf2559","ios":"levelo://app?vid=450431b5-8fcb-4adb-8b3f-bef61eaf2559"},"vehicle_type_id":"4","last_reported":1758409696,"current_range_meters":3600,"station_id":"ce4bh012rcd13ifvqd00","pricing_plan_id":"cebpf4jnsgd1na2vs0mg"},{"bike_id":"e27d698b-c3fc-4fa4-9a83-c3676fd5e764","system_id":"levelo_inurba_marseille","lat":43.25086,"lon":5.39524,"is_reserved":false,"is_disabled":false,"rental_uris":{"android":"levelo://app?vid=e27d698b-c3fc-4fa4-9a83-c3676fd5e764","ios":"levelo://app?vid=e27d698b-c3fc-4fa4-9a83-c3676fd5e764"},"vehicle_type_id":"4","last_reported":1758409696,"current_range_meters":4000,"station_id":"ce4bhm12rcd13ifvqgkg","pricing_plan_id":"cebpf4jnsgd1na2vs0mg"},{"bike_id":"cad97885-b582-49b2-8b83-0a6c3d079fc6","system_id":"levelo_inurba_marseille","lat":43.297018,"lon":5.365873,"is_reserved":false,"is_disabled":false,"rental_uris":{"android":"levelo://app?vid=cad97885-b582-49b2-8b83-0a6c3d079fc6","ios":"levelo://app?vid=cad97885-b582-49b2-8b83-0a6c3d079fc6"},"vehicle_type_id":"4","last_reported":1758409696,"current_range_meters":4000,"station_id":"ce4bgn12rcd13ifvqbt0","pricing_plan_id":"cebpf4jnsgd1na2vs0mg"},{"bike_id":"dd54508b-cebc-429e-947d-94cace74c022","system_id":"levelo_inurba_marseille","lat":43.23956,"lon":5.36613,"is_reserved":false,"is_disabled":true,"rental_uris":{"android":"levelo://app?vid=dd54508b-cebc-429e-947d-94cace74c022","ios":"levelo://app?vid=dd54508b-cebc-429e-947d-94cace74c022"},"vehicle_type_id":"4","last_reported":1758409696,"current_range_meters":4000,"station_id":"ce4bhi12rcd13ifvqfp0","pricing_plan_id":"cebpf4jnsgd1na2vs0mg"},{"bike_id":"b15d5981-3398-4a91-89ca-9eae45d32694","system_id":"levelo_inurba_marseille","lat":43.26031,"lon":5.37547,"is_reserved":false,"is_disabled":false,"rental_uris":{"android":"levelo://app?vid=b15d5981-3398-4a91-89ca-9eae45d32694","ios":"levelo://app?vid=b15d5981-3398-4a91-89ca-9eae45d32694"},"vehicle_type_id":"4","last_reported":1758409696,"current_range_meters":3600,"station_id":"ce4bhgh2rcd13ifvqfa0","pricing_plan_id":"cebpf4jnsgd1na2vs0mg"},{"bike_id":"430f0c91-0040-410e-920e-cfea50c57eed","system_id":"levelo_inurba_marseille","lat":43.29972,"lon":5.37174,"is_reserved":false,"is_disabled":false,"rental_uris":{"android":"levelo://app?vid=430f0c91-0040-410e-920e-cfea50c57eed","ios":"levelo://app?vid=430f0c91-0040-410e-920e-cfea50c57eed"},"vehicle_type_id":"4","last_reported":1758409696,"current_range_meters":4000,"station_id":"ce4bgr92rcd13ifvqc7g","pricing_plan_id":"cebpf4jnsgd1na2vs0mg"},{"bike_id":"89ad669e-dfc1-4dcd-8e38-ff3e23eee91a","system_id":"levelo_inurba_marseille","lat":43.31359,"lon":5.38488,"is_reserved":false,"is_disabled":false,"rental_uris":{"android":"levelo://app?vid=89ad669e-dfc1-4dcd-8e38-ff3e23eee91a","ios":"levelo://app?vid=89ad669e-dfc1-4dcd-8e38-ff3e23eee91a"},"vehicle_type_id":"4","last_reported":1758409696,"current_range_meters":4400,"station_id":"ce4bgt92rcd13ifvqcf0","pricing_plan_id":"cebpf4jnsgd1na2vs0mg"},{"bike_id":"0a9f8014-5026-4f92-b1d0-fba025dab529","system_id":"levelo_inurba_marseille","lat":43.26228,"lon":5.40454,"is_reserved":false,"is_disabled":false,"rental_uris":{"android":"levelo://app?vid=0a9f8014-5026-4f92-b1d0-fba025dab529","ios":"levelo://app?vid=0a9f8014-5026-4f92-b1d0-fba025dab529"},"vehicle_type_id":"4","last_reported":1758409696,"current_range_meters":4400,"station_id":"ce4bhmh2rcd13ifvqgmg","pricing_plan_id":"cebpf4jnsgd1na2vs0mg"},{"bike_id":"4a42c3a7-350b-4a49-9c56-c4b3d7531c94","system_id":"levelo_inurba_marseille","lat":43.305533,"lon":5.366949,"is_reserved":false,"is_disabled":false,"rental_uris":{"android":"levelo://app?vid=4a42c3a7-350b-4a49-9c56-c4b3d7531c94","ios":"levelo://app?vid=4a42c3a7-350b-4a49-9c56-c4b3d7531c94"},"vehicle_type_id":"4","last_reported":1758409696,"current_range_meters":4400,"station_id":"ce4bgrp2rcd13ifvqc9g","pricing_plan_id":"cebpf4jnsgd1na2vs0mg"},{"bike_id":"bb6db8d3-97a4-4e3c-8177-f028a7d3343c","system_id":"levelo_inurba_marseille","lat":43.28153,"lon":5.42647,"is_reserved":false,"is_disabled":false,"rental_uris":{"android":"levelo://app?vid=bb6db8d3-97a4-4e3c-8177-f028a7d3343c","ios":"levelo://app?vid=bb6db8d3-97a4-4e3c-8177-f028a7d3343c"},"vehicle_type_id":"4","last_reported":1758409696,"current_range_meters":4400,"station_id":"ce4bhnh2rcd13ifvqgug","pricing_plan_id":"cebpf4jnsgd1na2vs0mg"},{"bike_id":"a839ad44-e005-45b8-a739-b2e28337e6c7","system_id":"levelo_inurba_marseille","lat":43.29874,"lon":5.39734,"is_reserved":false,"is_disabled":true,"rental_uris":{"android":"levelo://app?vid=a839ad44-e005-45b8-a739-b2e28337e6c7","ios":"levelo://app?vid=a839ad44-e005-45b8-a739-b2e28337e6c7"},"vehicle_type_id":"4","last_reported":1758409696,"current_range_meters":4400,"station_id":"ce4bh0h2rcd13ifvqd50","pricing_plan_id":"cebpf4jnsgd1na2vs0mg"},{"bike_id":"c335242c-5b13-4182-b620-4229563beced","system_id":"levelo_inurba_marseille","lat":43.265685,"lon":5.390265,"is_reserved":false,"is_disabled":false,"rental_uris":{"android":"levelo://app?vid=c335242c-5b13-4182-b620-4229563beced","ios":"levelo://app?vid=c335242c-5b13-4182-b620-4229563beced"},"vehicle_type_id":"4","last_reported":1758409696,"current_range_meters":4400,"station_id":"","pricing_plan_id":"cebpf4jnsgd1na2vs0mg"},{"bike_id":"d2be9386-6c9d-4b60-a24a-cf52085ed618","system_id":"levelo_inurba_marseille","lat":43.31165,"lon":5.38717,"is_reserved":false,"is_disabled":false,"rental_uris":{"android":"levelo://app?vid=d2be9386-6c9d-4b60-a24a-cf52085ed618","ios":"levelo://app?vid=d2be9386-6c9d-4b60-a24a-cf52085ed618"},"vehicle_type_id":"4","last_reported":1758409696,"current_range_meters":4800,"station_id":"ce4bgv12rcd13ifvqcp0","pricing_plan_id":"cebpf4jnsgd1na2vs0mg"},{"bike_id":"7455ab18-939d-4b07-a4bf-5ce01d24b654","system_id":"levelo_inurba_marseille","lat":43.25224,"lon":5.42478,"is_reserved":false,"is_disabled":false,"rental_uris":{"android":"levelo://app?vid=7455ab18-939d-4b07-a4bf-5ce01d24b654","ios":"levelo://app?vid=7455ab18-939d-4b07-a4bf-5ce01d24b654"},"vehicle_type_id":"4","last_reported":1758409696,"current_range_meters":4800,"station_id":"","pricing_plan_id":"cebpf4jnsgd1na2vs0mg"},{"bike_id":"04ac4072-76af-404d-8a72-a8ffe8ae8fcc","system_id":"levelo_inurba_marseille","lat":43.32576,"lon":5.39188,"is_reserved":false,"is_disabled":true,"rental_uris":{"android":"levelo://app?vid=04ac4072-76af-404d-8a72-a8ffe8ae8fcc","ios":"levelo://app?vid=04ac4072-76af-404d-8a72-a8ffe8ae8fcc"},"vehicle_type_id":"4","last_reported":1758409696,"current_range_meters":4800,"station_id":"","pricing_plan_id":"cebpf4jnsgd1na2vs0mg"},{"bike_id":"843e4ea1-f22a-4a43-98ca-56987ee2a3f7","system_id":"levelo_inurba_marseille","lat":43.28154,"lon":5.4264,"is_reserved":false,"is_disabled":false,"rental_uris":{"android":"levelo://app?vid=843e4ea1-f22a-4a43-98ca-56987ee2a3f7","ios":"levelo://app?vid=843e4ea1-f22a-4a43-98ca-56987ee2a3f7"},"vehicle_type_id":"4","last_reported":1758409696,"current_range_meters":4800,"station_id":"ce4bhnh2rcd13ifvqgug","pricing_plan_id":"cebpf4jnsgd1na2vs0mg"},{"bike_id":"bf56b3f9-1f58-4c43-a376-7d5880956ccb","system_id":"levelo_inurba_marseille","lat":43.2841,"lon":5.37509,"is_reserved":false,"is_disabled":false,"rental_uris":{"android":"levelo://app?vid=bf56b3f9-1f58-4c43-a376-7d5880956ccb","ios":"levelo://app?vid=bf56b3f9-1f58-4c43-a376-7d5880956ccb"},"vehicle_type_id":"4","last_reported":1758409696,"current_range_meters":5600,"station_id":"ce4bh412rcd13ifvqds0","pricing_plan_id":"cebpf4jnsgd1na2vs0mg"},{"bike_id":"6dc49f8f-31b8-485c-b489-e3fd253e6676","system_id":"levelo_inurba_marseille","lat":43.326624,"lon":5.409913,"is_reserved":false,"is_disabled":true,"rental_uris":{"android":"levelo://app?vid=6dc49f8f-31b8-485c-b489-e3fd253e6676","ios":"levelo://app?vid=6dc49f8f-31b8-485c-b489-e3fd253e6676"},"vehicle_type_id":"4","last_reported":1758409696,"current_range_meters":5600,"station_id":"ce4bhpp2rcd13ifvqhgg","pricing_plan_id":"cebpf4jnsgd1na2vs0mg"},{"bike_id":"8392a63a-4303-4949-b9e1-a0749834bd8e","system_id":"levelo_inurba_marseille","lat":43.282709,"lon":5.350669,"is_reserved":false,"is_disabled":false,"rental_uris":{"android":"levelo://app?vid=8392a63a-4303-4949-b9e1-a0749834bd8e","ios":"levelo://app?vid=8392a63a-4303-4949-b9e1-a0749834bd8e"},"vehicle_type_id":"4","last_reported":1758409696,"current_range_meters":5600,"station_id":"ce4bhbp2rcd13ifvqerg","pricing_plan_id":"cebpf4jnsgd1na2vs0mg"},{"bike_id":"48808172-a4a4-4ced-9e0d-f19792da32b2","system_id":"levelo_inurba_marseille","lat":43.30148,"lon":5.38777,"is_reserved":false,"is_disabled":false,"rental_uris":{"android":"levelo://app?vid=48808172-a4a4-4ced-9e0d-f19792da32b2","ios":"levelo://app?vid=48808172-a4a4-4ced-9e0d-f19792da32b2"},"vehicle_type_id":"4","last_reported":1758409696,"current_range_meters":5600,"station_id":"ce4bghh2rcd13ifvqb60","pricing_plan_id":"cebpf4jnsgd1na2vs0mg"},{"bike_id":"bbbef1e9-be30-4f47-8900-23eb29d62082","system_id":"levelo_inurba_marseille","lat":43.301919,"lon":5.366189,"is_reserved":false,"is_disabled":false,"rental_uris":{"android":"levelo://app?vid=bbbef1e9-be30-4f47-8900-23eb29d62082","ios":"levelo://app?vid=bbbef1e9-be30-4f47-8900-23eb29d62082"},"vehicle_type_id":"4","last_reported":1758409696,"current_range_meters":5600,"station_id":"ce4bgrh2rcd13ifvqc8g","pricing_plan_id":"cebpf4jnsgd1na2vs0mg"},{"bike_id":"8851fb90-df00-406c-ba62-1fea398bdfaa","system_id":"levelo_inurba_marseille","lat":43.28967,"lon":5.37836,"is_reserved":false,"is_disabled":false,"rental_uris":{"android":"levelo://app?vid=8851fb90-df00-406c-ba62-1fea398bdfaa","ios":"levelo://app?vid=8851fb90-df00-406c-ba62-1fea398bdfaa"},"vehicle_type_id":"4","last_reported":1758409696,"current_range_meters":4800,"station_id":"ce4bh9p2rcd13ifvqed0","pricing_plan_id":"cebpf4jnsgd1na2vs0mg"},{"bike_id":"86af1abf-fd56-4b7c-bc8b-b1e4723ef3ad","system_id":"levelo_inurba_marseille","lat":43.29273,"lon":5.36849,"is_reserved":false,"is_disabled":false,"rental_uris":{"android":"levelo://app?vid=86af1abf-fd56-4b7c-bc8b-b1e4723ef3ad","ios":"levelo://app?vid=86af1abf-fd56-4b7c-bc8b-b1e4723ef3ad"},"vehicle_type_id":"4","last_reported":1758409696,"current_range_meters":5600,"station_id":"ce4bhbp2rcd13ifvqesg","pricing_plan_id":"cebpf4jnsgd1na2vs0mg"},{"bike_id":"4577a179-97b8-4c77-9969-11557aed3abb","system_id":"levelo_inurba_marseille","lat":43.29544,"lon":5.38546,"is_reserved":false,"is_disabled":false,"rental_uris":{"android":"levelo://app?vid=4577a179-97b8-4c77-9969-11557aed3abb","ios":"levelo://app?vid=4577a179-97b8-4c77-9969-11557aed3abb"},"vehicle_type_id":"4","last_reported":1758409696,"current_range_meters":6000,"station_id":"ce4bgih2rcd13ifvqba0","pricing_plan_id":"cebpf4jnsgd1na2vs0mg"},{"bike_id":"b5ef4ea7-aa9d-4d0b-809b-fa8a6dad2034","system_id":"levelo_inurba_marseille","lat":43.295369,"lon":5.385442,"is_reserved":false,"is_disabled":false,"rental_uris":{"android":"levelo://app?vid=b5ef4ea7-aa9d-4d0b-809b-fa8a6dad2034","ios":"levelo://app?vid=b5ef4ea7-aa9d-4d0b-809b-fa8a6dad2034"},"vehicle_type_id":"4","last_reported":1758409696,"current_range_meters":6000,"station_id":"ce4bgih2rcd13ifvqba0","pricing_plan_id":"cebpf4jnsgd1na2vs0mg"},{"bike_id":"fcde3ebe-4749-4d94-a8c9-b5036eaa4efe","system_id":"levelo_inurba_marseille","lat":43.2886,"lon":5.42523,"is_reserved":false,"is_disabled":false,"rental_uris":{"android":"levelo://app?vid=fcde3ebe-4749-4d94-a8c9-b5036eaa4efe","ios":"levelo://app?vid=fcde3ebe-4749-4d94-a8c9-b5036eaa4efe"},"vehicle_type_id":"4","last_reported":1758409696,"current_range_meters":6000,"station_id":"","pricing_plan_id":"cebpf4jnsgd1na2vs0mg"},{"bike_id":"e9727ed7-ce6b-4637-9a41-d3e7ac1c9b78","system_id":"levelo_inurba_marseille","lat":43.28104,"lon":5.3783,"is_reserved":false,"is_disabled":false,"rental_uris":{"android":"levelo://app?vid=e9727ed7-ce6b-4637-9a41-d3e7ac1c9b78","ios":"levelo://app?vid=e9727ed7-ce6b-4637-9a41-d3e7ac1c9b78"},"vehicle_type_id":"4","last_reported":1758409696,"current_range_meters":6000,"station_id":"ce4bha12rcd13ifvqee0","pricing_plan_id":"cebpf4jnsgd1na2vs0mg"},{"bike_id":"c5e2fc2b-f415-4dec-83d1-6ce7d98d1f70","system_id":"levelo_inurba_marseille","lat":43.29252,"lon":5.38421,"is_reserved":false,"is_disabled":false,"rental_uris":{"android":"levelo://app?vid=c5e2fc2b-f415-4dec-83d1-6ce7d98d1f70","ios":"levelo://app?vid=c5e2fc2b-f415-4dec-83d1-6ce7d98d1f70"},"vehicle_type_id":"4","last_reported":1758409696,"current_range_meters":6000,"station_id":"ce4bh692rcd13ifvqea0","pricing_plan_id":"cebpf4jnsgd1na2vs0mg"},{"bike_id":"e1065c32-ac19-477b-812a-39f964d50769","system_id":"levelo_inurba_marseille","lat":43.23195,"lon":5.35556,"is_reserved":false,"is_disabled":true,"rental_uris":{"android":"levelo://app?vid=e1065c32-ac19-477b-812a-39f964d50769","ios":"levelo://app?vid=e1065c32-ac19-477b-812a-39f964d50769"},"vehicle_type_id":"4","last_reported":1758409696,"current_range_meters":6400,"station_id":"ce4bhu92rcd13ifvqi70","pricing_plan_id":"cebpf4jnsgd1na2vs0mg"},{"bike_id":"90e8324f-ab5a-4b51-81a5-e116e7955ae7","system_id":"levelo_inurba_marseille","lat":43.26561,"lon":5.37259,"is_reserved":false,"is_disabled":true,"rental_uris":{"android":"levelo://app?vid=90e8324f-ab5a-4b51-81a5-e116e7955ae7","ios":"levelo://app?vid=90e8324f-ab5a-4b51-81a5-e116e7955ae7"},"vehicle_type_id":"4","last_reported":1758409696,"current_range_meters":6800,"station_id":"ce4bhg12rcd13ifvqf70","pricing_plan_id":"cebpf4jnsgd1na2vs0mg"},{"bike_id":"434619cd-8bc4-4ade-bfc4-062879abd7cd","system_id":"levelo_inurba_marseille","lat":43.2799,"lon":5.41667,"is_reserved":false,"is_disabled":false,"rental_uris":{"android":"levelo://app?vid=434619cd-8bc4-4ade-bfc4-062879abd7cd","ios":"levelo://app?vid=434619cd-8bc4-4ade-bfc4-062879abd7cd"},"vehicle_type_id":"4","last_reported":1758409696,"current_range_meters":6400,"station_id":"ce4bho12rcd13ifvqh1g","pricing_plan_id":"cebpf4jnsgd1na2vs0mg"},{"bike_id":"5bb42022-0e19-48bc-a5b4-218bb1d7482e","system_id":"levelo_inurba_marseille","lat":43.31279,"lon":5.37718,"is_reserved":false,"is_disabled":false,"rental_uris":{"android":"levelo://app?vid=5bb42022-0e19-48bc-a5b4-218bb1d7482e","ios":"levelo://app?vid=5bb42022-0e19-48bc-a5b4-218bb1d7482e"},"vehicle_type_id":"4","last_reported":1758409696,"current_range_meters":6400,"station_id":"","pricing_plan_id":"cebpf4jnsgd1na2vs0mg"},{"bike_id":"2de6f624-0a46-4788-a496-93b77ab95edd","system_id":"levelo_inurba_marseille","lat":43.25088,"lon":5.39524,"is_reserved":false,"is_disabled":false,"rental_uris":{"android":"levelo://app?vid=2de6f624-0a46-4788-a496-93b77ab95edd","ios":"levelo://app?vid=2de6f624-0a46-4788-a496-93b77ab95edd"},"vehicle_type_id":"4","last_reported":1758409696,"current_range_meters":6400,"station_id":"ce4bhm12rcd13ifvqgkg","pricing_plan_id":"cebpf4jnsgd1na2vs0mg"},{"bike_id":"0960e3dd-c358-4474-bd10-8223758e1f6b","system_id":"levelo_inurba_marseille","lat":43.296996,"lon":5.376855,"is_reserved":false,"is_disabled":false,"rental_uris":{"android":"levelo://app?vid=0960e3dd-c358-4474-bd10-8223758e1f6b","ios":"levelo://app?vid=0960e3dd-c358-4474-bd10-8223758e1f6b"},"vehicle_type_id":"4","last_reported":1758409696,"current_range_meters":6400,"station_id":"","pricing_plan_id":"cebpf4jnsgd1na2vs0mg"},{"bike_id":"3c9735e9-fd7e-4079-8199-725760347837","system_id":"levelo_inurba_marseille","lat":43.21188,"lon":5.35074,"is_reserved":false,"is_disabled":false,"rental_uris":{"android":"levelo://app?vid=3c9735e9-fd7e-4079-8199-725760347837","ios":"levelo://app?vid=3c9735e9-fd7e-4079-8199-725760347837"},"vehicle_type_id":"4","last_reported":1758409696,"current_range_meters":6800,"station_id":"st_cvj6sg6p6f1abm77japg","pricing_plan_id":"cebpf4jnsgd1na2vs0mg"},{"bike_id":"42d2ad08-46a4-4894-bf41-5d134f26112e","system_id":"levelo_inurba_marseille","lat":43.32337,"lon":5.40622,"is_reserved":false,"is_disabled":false,"rental_uris":{"android":"levelo://app?vid=42d2ad08-46a4-4894-bf41-5d134f26112e","ios":"levelo://app?vid=42d2ad08-46a4-4894-bf41-5d134f26112e"},"vehicle_type_id":"4","last_reported":1758409696,"current_range_meters":6800,"station_id":"ce4bhq92rcd13ifvqhjg","pricing_plan_id":"cebpf4jnsgd1na2vs0mg"},{"bike_id":"bf6e6d27-c09e-4725-9fbc-20073fd5a515","system_id":"levelo_inurba_marseille","lat":43.289376,"lon":5.396214,"is_reserved":false,"is_disabled":false,"rental_uris":{"android":"levelo://app?vid=bf6e6d27-c09e-4725-9fbc-20073fd5a515","ios":"levelo://app?vid=bf6e6d27-c09e-4725-9fbc-20073fd5a515"},"vehicle_type_id":"4","last_reported":1758409696,"current_range_meters":6800,"station_id":"","pricing_plan_id":"cebpf4jnsgd1na2vs0mg"},{"bike_id":"ffafabc5-3173-4be7-b9e2-c525d0350cfd","system_id":"levelo_inurba_marseille","lat":43.29521,"lon":5.39404,"is_reserved":false,"is_disabled":false,"rental_uris":{"android":"levelo://app?vid=ffafabc5-3173-4be7-b9e2-c525d0350cfd","ios":"levelo://app?vid=ffafabc5-3173-4be7-b9e2-c525d0350cfd"},"vehicle_type_id":"4","last_reported":1758409696,"current_range_meters":6800,"station_id":"ce4bh292rcd13ifvqdf0","pricing_plan_id":"cebpf4jnsgd1na2vs0mg"},{"bike_id":"1dbc6ff6-de1e-44f5-9332-c8820f81075d","system_id":"levelo_inurba_marseille","lat":43.21182,"lon":5.35071,"is_reserved":false,"is_disabled":true,"rental_uris":{"android":"levelo://app?vid=1dbc6ff6-de1e-44f5-9332-c8820f81075d","ios":"levelo://app?vid=1dbc6ff6-de1e-44f5-9332-c8820f81075d"},"vehicle_type_id":"4","last_reported":1758409696,"current_range_meters":7200,"station_id":"st_cvj6sg6p6f1abm77japg","pricing_plan_id":"cebpf4jnsgd1na2vs0mg"},{"bike_id":"27da7f62-4dee-47e6-a326-b31f3d316458","system_id":"levelo_inurba_marseille","lat":43.29275,"lon":5.38427,"is_reserved":false,"is_disabled":false,"rental_uris":{"android":"levelo://app?vid=27da7f62-4dee-47e6-a326-b31f3d316458","ios":"levelo://app?vid=27da7f62-4dee-47e6-a326-b31f3d316458"},"vehicle_type_id":"4","last_reported":1758409696,"current_range_meters":7200,"station_id":"ce4bh692rcd13ifvqea0","pricing_plan_id":"cebpf4jnsgd1na2vs0mg"},{"bike_id":"6dc399d9-e82c-48dc-8e9b-3bc49b28ea21","system_id":"levelo_inurba_marseille","lat":43.32363,"lon":5.36755,"is_reserved":false,"is_disabled":false,"rental_uris":{"android":"levelo://app?vid=6dc399d9-e82c-48dc-8e9b-3bc49b28ea21","ios":"levelo://app?vid=6dc399d9-e82c-48dc-8e9b-3bc49b28ea21"},"vehicle_type_id":"4","last_reported":1758409696,"current_range_meters":7200,"station_id":"ce4bhsh2rcd13ifvqi2g","pricing_plan_id":"cebpf4jnsgd1na2vs0mg"},{"bike_id":"b98e98bb-f9c6-4203-9444-d49df9f1d93a","system_id":"levelo_inurba_marseille","lat":43.26557,"lon":5.37304,"is_reserved":false,"is_disabled":false,"rental_uris":{"android":"levelo://app?vid=b98e98bb-f9c6-4203-9444-d49df9f1d93a","ios":"levelo://app?vid=b98e98bb-f9c6-4203-9444-d49df9f1d93a"},"vehicle_type_id":"4","last_reported":1758409696,"current_range_meters":7200,"station_id":"ce4bhg12rcd13ifvqf70","pricing_plan_id":"cebpf4jnsgd1na2vs0mg"},{"bike_id":"78a18b56-84dc-49f2-a9b1-5bbfde6eda3e","system_id":"levelo_inurba_marseille","lat":43.29968,"lon":5.38498,"is_reserved":false,"is_disabled":true,"rental_uris":{"android":"levelo://app?vid=78a18b56-84dc-49f2-a9b1-5bbfde6eda3e","ios":"levelo://app?vid=78a18b56-84dc-49f2-a9b1-5bbfde6eda3e"},"vehicle_type_id":"4","last_reported":1758409696,"current_range_meters":7200,"station_id":"ce4bgj92rcd13ifvqbd0","pricing_plan_id":"cebpf4jnsgd1na2vs0mg"},{"bike_id":"8ef3ec29-aa6e-4da6-a0b6-7b8011f6af66","system_id":"levelo_inurba_marseille","lat":43.30597,"lon":5.37231,"is_reserved":false,"is_disabled":false,"rental_uris":{"android":"levelo://app?vid=8ef3ec29-aa6e-4da6-a0b6-7b8011f6af66","ios":"levelo://app?vid=8ef3ec29-aa6e-4da6-a0b6-7b8011f6af66"},"vehicle_type_id":"4","last_reported":1758409696,"current_range_meters":7200,"station_id":"ce4bgqh2rcd13ifvqc4g","pricing_plan_id":"cebpf4jnsgd1na2vs0mg"},{"bike_id":"378477c6-6aad-4766-98f5-567e84496f31","system_id":"levelo_inurba_marseille","lat":43.23188,"lon":5.39974,"is_reserved":false,"is_disabled":false,"rental_uris":{"android":"levelo://app?vid=378477c6-6aad-4766-98f5-567e84496f31","ios":"levelo://app?vid=378477c6-6aad-4766-98f5-567e84496f31"},"vehicle_type_id":"4","last_reported":1758409696,"current_range_meters":7200,"station_id":"ce4bhn12rcd13ifvqgqg","pricing_plan_id":"cebpf4jnsgd1na2vs0mg"},{"bike_id":"c627b34a-8e81-4438-af3b-4fd0aab1c160","system_id":"levelo_inurba_marseille","lat":43.29661,"lon":5.36024,"is_reserved":false,"is_disabled":false,"rental_uris":{"android":"levelo://app?vid=c627b34a-8e81-4438-af3b-4fd0aab1c160","ios":"levelo://app?vid=c627b34a-8e81-4438-af3b-4fd0aab1c160"},"vehicle_type_id":"4","last_reported":1758409696,"current_range_meters":7200,"station_id":"","pricing_plan_id":"cebpf4jnsgd1na2vs0mg"},{"bike_id":"ab5b9659-77bc-417b-8f8b-7002662fbf28","system_id":"levelo_inurba_marseille","lat":43.2932,"lon":5.41154,"is_reserved":false,"is_disabled":false,"rental_uris":{"android":"levelo://app?vid=ab5b9659-77bc-417b-8f8b-7002662fbf28","ios":"levelo://app?vid=ab5b9659-77bc-417b-8f8b-7002662fbf28"},"vehicle_type_id":"4","last_reported":1758409696,"current_range_meters":7200,"station_id":"","pricing_plan_id":"cebpf4jnsgd1na2vs0mg"},{"bike_id":"7dd65b1b-fb7b-4087-9803-34d477de11ae","system_id":"levelo_inurba_marseille","lat":43.21213,"lon":5.35041,"is_reserved":false,"is_disabled":false,"rental_uris":{"android":"levelo://app?vid=7dd65b1b-fb7b-4087-9803-34d477de11ae","ios":"levelo://app?vid=7dd65b1b-fb7b-4087-9803-34d477de11ae"},"vehicle_type_id":"4","last_reported":1758409696,"current_range_meters":8000,"station_id":"","pricing_plan_id":"cebpf4jnsgd1na2vs0mg"},{"bike_id":"8aeeefec-2d30-4736-aa70-a28361a8c1f8","system_id":"levelo_inurba_marseille","lat":43.2962,"lon":5.37162,"is_reserved":false,"is_disabled":false,"rental_uris":{"android":"levelo://app?vid=8aeeefec-2d30-4736-aa70-a28361a8c1f8","ios":"levelo://app?vid=8aeeefec-2d30-4736-aa70-a28361a8c1f8"},"vehicle_type_id":"4","last_reported":1758409696,"current_range_meters":7200,"station_id":"ce4bgnh2rcd13ifvqc0g","pricing_plan_id":"cebpf4jnsgd1na2vs0mg"},{"bike_id":"c99baabd-a659-4707-ba94-29a5a2cc472c","system_id":"levelo_inurba_marseille","lat":43.28696,"lon":5.39992,"is_reserved":false,"is_disabled":false,"rental_uris":{"android":"levelo://app?vid=c99baabd-a659-4707-ba94-29a5a2cc472c","ios":"levelo://app?vid=c99baabd-a659-4707-ba94-29a5a2cc472c"},"vehicle_type_id":"4","last_reported":1758409696,"current_range_meters":8000,"station_id":"ce4bho92rcd13ifvqh3g","pricing_plan_id":"cebpf4jnsgd1na2vs0mg"},{"bike_id":"9bf6a3f6-c622-4d23-a942-3359a39ba2d3","system_id":"levelo_inurba_marseille","lat":43.2742,"lon":5.39412,"is_reserved":false,"is_disabled":false,"rental_uris":{"android":"levelo://app?vid=9bf6a3f6-c622-4d23-a942-3359a39ba2d3","ios":"levelo://app?vid=9bf6a3f6-c622-4d23-a942-3359a39ba2d3"},"vehicle_type_id":"4","last_reported":1758409696,"current_range_meters":8000,"station_id":"ce4bhdp2rcd13ifvqf20","pricing_plan_id":"cebpf4jnsgd1na2vs0mg"},{"bike_id":"3082f593-a5a6-48f9-afa8-383813f7af0b","system_id":"levelo_inurba_marseille","lat":43.217455,"lon":5.346082,"is_reserved":false,"is_disabled":true,"rental_uris":{"android":"levelo://app?vid=3082f593-a5a6-48f9-afa8-383813f7af0b","ios":"levelo://app?vid=3082f593-a5a6-48f9-afa8-383813f7af0b"},"vehicle_type_id":"4","last_reported":1758409696,"current_range_meters":8000,"station_id":"st_cvj6r9ubvosntc0bgbag","pricing_plan_id":"cebpf4jnsgd1na2vs0mg"},{"bike_id":"fef4f526-738c-4bdf-9109-073dfefdd587","system_id":"levelo_inurba_marseille","lat":43.24072,"lon":5.37763,"is_reserved":false,"is_disabled":false,"rental_uris":{"android":"levelo://app?vid=fef4f526-738c-4bdf-9109-073dfefdd587","ios":"levelo://app?vid=fef4f526-738c-4bdf-9109-073dfefdd587"},"vehicle_type_id":"4","last_reported":1758409696,"current_range_meters":6800,"station_id":"ce4bhnp2rcd13ifvqgvg","pricing_plan_id":"cebpf4jnsgd1na2vs0mg"},{"bike_id":"5a622093-c168-421d-adb4-a2950d0099e6","system_id":"levelo_inurba_marseille","lat":43.2807,"lon":5.39651,"is_reserved":false,"is_disabled":false,"rental_uris":{"android":"levelo://app?vid=5a622093-c168-421d-adb4-a2950d0099e6","ios":"levelo://app?vid=5a622093-c168-421d-adb4-a2950d0099e6"},"vehicle_type_id":"4","last_reported":1758409696,"current_range_meters":8400,"station_id":"ce4bho12rcd13ifvqh2g","pricing_plan_id":"cebpf4jnsgd1na2vs0mg"},{"bike_id":"41baa58b-5565-4fd7-a5ec-6197d1b151c4","system_id":"levelo_inurba_marseille","lat":43.279561,"lon":5.387391,"is_reserved":false,"is_disabled":false,"rental_uris":{"android":"levelo://app?vid=41baa58b-5565-4fd7-a5ec-6197d1b151c4","ios":"levelo://app?vid=41baa58b-5565-4fd7-a5ec-6197d1b151c4"},"vehicle_type_id":"4","last_reported":1758409696,"current_range_meters":9600,"station_id":"ce4bhg12rcd13ifvqf80","pricing_plan_id":"cebpf4jnsgd1na2vs0mg"},{"bike_id":"7e977cd1-cd3d-4f43-93d3-fe579cec95d8","system_id":"levelo_inurba_marseille","lat":43.29241,"lon":5.38441,"is_reserved":false,"is_disabled":false,"rental_uris":{"android":"levelo://app?vid=7e977cd1-cd3d-4f43-93d3-fe579cec95d8","ios":"levelo://app?vid=7e977cd1-cd3d-4f43-93d3-fe579cec95d8"},"vehicle_type_id":"4","last_reported":1758409696,"current_range_meters":8400,"station_id":"ce4bh692rcd13ifvqea0","pricing_plan_id":"cebpf4jnsgd1na2vs0mg"},{"bike_id":"53264fdb-d3ce-412c-9b54-11908fde133c","system_id":"levelo_inurba_marseille","lat":43.25868,"lon":5.39902,"is_reserved":false,"is_disabled":true,"rental_uris":{"android":"levelo://app?vid=53264fdb-d3ce-412c-9b54-11908fde133c","ios":"levelo://app?vid=53264fdb-d3ce-412c-9b54-11908fde133c"},"vehicle_type_id":"4","last_reported":1758409696,"current_range_meters":8400,"station_id":"ce4bhl92rcd13ifvqghg","pricing_plan_id":"cebpf4jnsgd1na2vs0mg"},{"bike_id":"12ed6c49-784d-4e90-9587-47eae4f126ab","system_id":"levelo_inurba_marseille","lat":43.217475,"lon":5.346092,"is_reserved":false,"is_disabled":true,"rental_uris":{"android":"levelo://app?vid=12ed6c49-784d-4e90-9587-47eae4f126ab","ios":"levelo://app?vid=12ed6c49-784d-4e90-9587-47eae4f126ab"},"vehicle_type_id":"4","last_reported":1758409696,"current_range_meters":8400,"station_id":"st_cvj6r9ubvosntc0bgbag","pricing_plan_id":"cebpf4jnsgd1na2vs0mg"},{"bike_id":"bae6a341-05a4-42de-a7f1-9bc3661cc432","system_id":"levelo_inurba_marseille","lat":43.29942,"lon":5.36559,"is_reserved":false,"is_disabled":false,"rental_uris":{"android":"levelo://app?vid=bae6a341-05a4-42de-a7f1-9bc3661cc432","ios":"levelo://app?vid=bae6a341-05a4-42de-a7f1-9bc3661cc432"},"vehicle_type_id":"4","last_reported":1758409696,"current_range_meters":8400,"station_id":"ce4bgm92rcd13ifvqbr0","pricing_plan_id":"cebpf4jnsgd1na2vs0mg"},{"bike_id":"dd539623-fc82-4cf4-be88-b71bea2ed7c1","system_id":"levelo_inurba_marseille","lat":43.27835,"lon":5.392,"is_reserved":false,"is_disabled":false,"rental_uris":{"android":"levelo://app?vid=dd539623-fc82-4cf4-be88-b71bea2ed7c1","ios":"levelo://app?vid=dd539623-fc82-4cf4-be88-b71bea2ed7c1"},"vehicle_type_id":"4","last_reported":1758409696,"current_range_meters":8400,"station_id":"ce4bhjp2rcd13ifvqga0","pricing_plan_id":"cebpf4jnsgd1na2vs0mg"},{"bike_id":"fcb3f6af-c7d4-4ccc-be82-7f951e8865a2","system_id":"levelo_inurba_marseille","lat":43.21192,"lon":5.35062,"is_reserved":false,"is_disabled":false,"rental_uris":{"android":"levelo://app?vid=fcb3f6af-c7d4-4ccc-be82-7f951e8865a2","ios":"levelo://app?vid=fcb3f6af-c7d4-4ccc-be82-7f951e8865a2"},"vehicle_type_id":"4","last_reported":1758409696,"current_range_meters":8800,"station_id":"st_cvj6sg6p6f1abm77japg","pricing_plan_id":"cebpf4jnsgd1na2vs0mg"},{"bike_id":"314afb76-e676-48b1-8d67-0c175e015d01","system_id":"levelo_inurba_marseille","lat":43.29592,"lon":5.37799,"is_reserved":false,"is_disabled":false,"rental_uris":{"android":"levelo://app?vid=314afb76-e676-48b1-8d67-0c175e015d01","ios":"levelo://app?vid=314afb76-e676-48b1-8d67-0c175e015d01"},"vehicle_type_id":"4","last_reported":1758409696,"current_range_meters":8800,"station_id":"ce4bgi92rcd13ifvqb90","pricing_plan_id":"cebpf4jnsgd1na2vs0mg"},{"bike_id":"aef4fc58-2ae1-4ee0-a5d1-88290ee70a83","system_id":"levelo_inurba_marseille","lat":43.28691,"lon":5.39966,"is_reserved":false,"is_disabled":false,"rental_uris":{"android":"levelo://app?vid=aef4fc58-2ae1-4ee0-a5d1-88290ee70a83","ios":"levelo://app?vid=aef4fc58-2ae1-4ee0-a5d1-88290ee70a83"},"vehicle_type_id":"4","last_reported":1758409696,"current_range_meters":8800,"station_id":"ce4bho92rcd13ifvqh3g","pricing_plan_id":"cebpf4jnsgd1na2vs0mg"},{"bike_id":"6aaf8b41-3263-4510-b17b-4d0c6fd88029","system_id":"levelo_inurba_marseille","lat":43.31365,"lon":5.38487,"is_reserved":false,"is_disabled":false,"rental_uris":{"android":"levelo://app?vid=6aaf8b41-3263-4510-b17b-4d0c6fd88029","ios":"levelo://app?vid=6aaf8b41-3263-4510-b17b-4d0c6fd88029"},"vehicle_type_id":"4","last_reported":1758409696,"current_range_meters":8800,"station_id":"ce4bgt92rcd13ifvqcf0","pricing_plan_id":"cebpf4jnsgd1na2vs0mg"},{"bike_id":"656f6f36-66c3-4704-ad25-d0be91a2dec3","system_id":"levelo_inurba_marseille","lat":43.25336,"lon":5.4218,"is_reserved":false,"is_disabled":false,"rental_uris":{"android":"levelo://app?vid=656f6f36-66c3-4704-ad25-d0be91a2dec3","ios":"levelo://app?vid=656f6f36-66c3-4704-ad25-d0be91a2dec3"},"vehicle_type_id":"4","last_reported":1758409696,"current_range_meters":8800,"station_id":"st_d2m65c5bi1j21697t3ng","pricing_plan_id":"cebpf4jnsgd1na2vs0mg"},{"bike_id":"575f379b-682e-45a6-a90b-e2da032a9ae0","system_id":"levelo_inurba_marseille","lat":43.21193,"lon":5.35067,"is_reserved":false,"is_disabled":false,"rental_uris":{"android":"levelo://app?vid=575f379b-682e-45a6-a90b-e2da032a9ae0","ios":"levelo://app?vid=575f379b-682e-45a6-a90b-e2da032a9ae0"},"vehicle_type_id":"4","last_reported":1758409696,"current_range_meters":8800,"station_id":"st_cvj6sg6p6f1abm77japg","pricing_plan_id":"cebpf4jnsgd1na2vs0mg"},{"bike_id":"342a202f-6e17-4424-8e62-b7d34fe97f1b","system_id":"levelo_inurba_marseille","lat":43.28705,"lon":5.3998,"is_reserved":false,"is_disabled":false,"rental_uris":{"android":"levelo://app?vid=342a202f-6e17-4424-8e62-b7d34fe97f1b","ios":"levelo://app?vid=342a202f-6e17-4424-8e62-b7d34fe97f1b"},"vehicle_type_id":"4","last_reported":1758409696,"current_range_meters":8800,"station_id":"ce4bho92rcd13ifvqh3g","pricing_plan_id":"cebpf4jnsgd1na2vs0mg"},{"bike_id":"2e8f9b38-d6d9-4d1f-8a5e-15b40667b03d","system_id":"levelo_inurba_marseille","lat":43.30188,"lon":5.36627,"is_reserved":false,"is_disabled":false,"rental_uris":{"android":"levelo://app?vid=2e8f9b38-d6d9-4d1f-8a5e-15b40667b03d","ios":"levelo://app?vid=2e8f9b38-d6d9-4d1f-8a5e-15b40667b03d"},"vehicle_type_id":"4","last_reported":1758409696,"current_range_meters":8800,"station_id":"ce4bgrh2rcd13ifvqc8g","pricing_plan_id":"cebpf4jnsgd1na2vs0mg"},{"bike_id":"0064b370-873b-4c46-b3c5-971e521f7c7c","system_id":"levelo_inurba_marseille","lat":43.292906,"lon":5.374648,"is_reserved":false,"is_disabled":false,"rental_uris":{"android":"levelo://app?vid=0064b370-873b-4c46-b3c5-971e521f7c7c","ios":"levelo://app?vid=0064b370-873b-4c46-b3c5-971e521f7c7c"},"vehicle_type_id":"4","last_reported":1758409696,"current_range_meters":9200,"station_id":"","pricing_plan_id":"cebpf4jnsgd1na2vs0mg"},{"bike_id":"fb995bc5-3894-4487-abcd-e5b9a8d3d3a0","system_id":"levelo_inurba_marseille","lat":43.24276,"lon":5.40266,"is_reserved":false,"is_disabled":false,"rental_uris":{"android":"levelo://app?vid=fb995bc5-3894-4487-abcd-e5b9a8d3d3a0","ios":"levelo://app?vid=fb995bc5-3894-4487-abcd-e5b9a8d3d3a0"},"vehicle_type_id":"4","last_reported":1758409696,"current_range_meters":9200,"station_id":"","pricing_plan_id":"cebpf4jnsgd1na2vs0mg"},{"bike_id":"5b84af94-a4d6-4b46-a63f-085ff5681f73","system_id":"levelo_inurba_marseille","lat":43.21188,"lon":5.35077,"is_reserved":false,"is_disabled":false,"rental_uris":{"android":"levelo://app?vid=5b84af94-a4d6-4b46-a63f-085ff5681f73","ios":"levelo://app?vid=5b84af94-a4d6-4b46-a63f-085ff5681f73"},"vehicle_type_id":"4","last_reported":1758409696,"current_range_meters":9200,"station_id":"st_cvj6sg6p6f1abm77japg","pricing_plan_id":"cebpf4jnsgd1na2vs0mg"},{"bike_id":"e6f59a7f-e88f-4d65-bed3-135ed8be6983","system_id":"levelo_inurba_marseille","lat":43.32551,"lon":5.39103,"is_reserved":false,"is_disabled":true,"rental_uris":{"android":"levelo://app?vid=e6f59a7f-e88f-4d65-bed3-135ed8be6983","ios":"levelo://app?vid=e6f59a7f-e88f-4d65-bed3-135ed8be6983"},"vehicle_type_id":"4","last_reported":1758409696,"current_range_meters":9200,"station_id":"","pricing_plan_id":"cebpf4jnsgd1na2vs0mg"},{"bike_id":"66d4afa6-14b4-41fa-86d4-7c7ac5d1107a","system_id":"levelo_inurba_marseille","lat":43.29526,"lon":5.38545,"is_reserved":false,"is_disabled":false,"rental_uris":{"android":"levelo://app?vid=66d4afa6-14b4-41fa-86d4-7c7ac5d1107a","ios":"levelo://app?vid=66d4afa6-14b4-41fa-86d4-7c7ac5d1107a"},"vehicle_type_id":"4","last_reported":1758409696,"current_range_meters":9200,"station_id":"ce4bgih2rcd13ifvqba0","pricing_plan_id":"cebpf4jnsgd1na2vs0mg"},{"bike_id":"617dca4b-4508-4d52-9e62-d583d919ac44","system_id":"levelo_inurba_marseille","lat":43.29746,"lon":5.371091,"is_reserved":false,"is_disabled":false,"rental_uris":{"android":"levelo://app?vid=617dca4b-4508-4d52-9e62-d583d919ac44","ios":"levelo://app?vid=617dca4b-4508-4d52-9e62-d583d919ac44"},"vehicle_type_id":"4","last_reported":1758409696,"current_range_meters":9200,"station_id":"ce4bgop2rcd13ifvqc1g","pricing_plan_id":"cebpf4jnsgd1na2vs0mg"},{"bike_id":"c585266a-2223-41b7-88c0-6a430537e561","system_id":"levelo_inurba_marseille","lat":43.29262,"lon":5.37629,"is_reserved":false,"is_disabled":false,"rental_uris":{"android":"levelo://app?vid=c585266a-2223-41b7-88c0-6a430537e561","ios":"levelo://app?vid=c585266a-2223-41b7-88c0-6a430537e561"},"vehicle_type_id":"4","last_reported":1758409696,"current_range_meters":9200,"station_id":"ce4bgi12rcd13ifvqb80","pricing_plan_id":"cebpf4jnsgd1na2vs0mg"},{"bike_id":"e64a2345-8fc5-4802-8251-a24110165246","system_id":"levelo_inurba_marseille","lat":43.29168,"lon":5.37167,"is_reserved":false,"is_disabled":false,"rental_uris":{"android":"levelo://app?vid=e64a2345-8fc5-4802-8251-a24110165246","ios":"levelo://app?vid=e64a2345-8fc5-4802-8251-a24110165246"},"vehicle_type_id":"4","last_reported":1758409696,"current_range_meters":6800,"station_id":"ce4bha92rcd13ifvqeh0","pricing_plan_id":"cebpf4jnsgd1na2vs0mg"},{"bike_id":"0319c100-5c9c-49b7-9f2a-421506d58186","system_id":"levelo_inurba_marseille","lat":43.32902,"lon":5.39064,"is_reserved":false,"is_disabled":true,"rental_uris":{"android":"levelo://app?vid=0319c100-5c9c-49b7-9f2a-421506d58186","ios":"levelo://app?vid=0319c100-5c9c-49b7-9f2a-421506d58186"},"vehicle_type_id":"4","last_reported":1758409696,"current_range_meters":9200,"station_id":"","pricing_plan_id":"cebpf4jnsgd1na2vs0mg"},{"bike_id":"2abcf519-3f73-4da5-9cb1-e48caef87f5e","system_id":"levelo_inurba_marseille","lat":43.29973,"lon":5.37175,"is_reserved":false,"is_disabled":false,"rental_uris":{"android":"levelo://app?vid=2abcf519-3f73-4da5-9cb1-e48caef87f5e","ios":"levelo://app?vid=2abcf519-3f73-4da5-9cb1-e48caef87f5e"},"vehicle_type_id":"4","last_reported":1758409696,"current_range_meters":7200,"station_id":"ce4bgr92rcd13ifvqc7g","pricing_plan_id":"cebpf4jnsgd1na2vs0mg"},{"bike_id":"3029b686-b0f7-4e5a-94b4-4bf86c442948","system_id":"levelo_inurba_marseille","lat":43.280327,"lon":5.369263,"is_reserved":false,"is_disabled":false,"rental_uris":{"android":"levelo://app?vid=3029b686-b0f7-4e5a-94b4-4bf86c442948","ios":"levelo://app?vid=3029b686-b0f7-4e5a-94b4-4bf86c442948"},"vehicle_type_id":"4","last_reported":1758409696,"current_range_meters":9200,"station_id":"ce4bha12rcd13ifvqef0","pricing_plan_id":"cebpf4jnsgd1na2vs0mg"},{"bike_id":"faa835b3-d00d-41f1-aa3d-6607edb99c24","system_id":"levelo_inurba_marseille","lat":43.29599,"lon":5.38103,"is_reserved":false,"is_disabled":false,"rental_uris":{"android":"levelo://app?vid=faa835b3-d00d-41f1-aa3d-6607edb99c24","ios":"levelo://app?vid=faa835b3-d00d-41f1-aa3d-6607edb99c24"},"vehicle_type_id":"4","last_reported":1758409696,"current_range_meters":10000,"station_id":"ce4bgl12rcd13ifvqbo0","pricing_plan_id":"cebpf4jnsgd1na2vs0mg"},{"bike_id":"2f4ba3c4-d560-4d54-af01-9eafbd4f5950","system_id":"levelo_inurba_marseille","lat":43.244,"lon":5.37056,"is_reserved":false,"is_disabled":true,"rental_uris":{"android":"levelo://app?vid=2f4ba3c4-d560-4d54-af01-9eafbd4f5950","ios":"levelo://app?vid=2f4ba3c4-d560-4d54-af01-9eafbd4f5950"},"vehicle_type_id":"4","last_reported":1758409696,"current_range_meters":9600,"station_id":"ce4bhhh2rcd13ifvqfk0","pricing_plan_id":"cebpf4jnsgd1na2vs0mg"},{"bike_id":"f9aa05d2-f255-42a1-a505-1d639fe38555","system_id":"levelo_inurba_marseille","lat":43.29934,"lon":5.38133,"is_reserved":false,"is_disabled":false,"rental_uris":{"android":"levelo://app?vid=f9aa05d2-f255-42a1-a505-1d639fe38555","ios":"levelo://app?vid=f9aa05d2-f255-42a1-a505-1d639fe38555"},"vehicle_type_id":"4","last_reported":1758409696,"current_range_meters":9200,"station_id":"ce4bgj12rcd13ifvqbc0","pricing_plan_id":"cebpf4jnsgd1na2vs0mg"},{"bike_id":"41d41162-c451-4e5f-8bcf-1c9a70c5510c","system_id":"levelo_inurba_marseille","lat":43.29595,"lon":5.37694,"is_reserved":false,"is_disabled":true,"rental_uris":{"android":"levelo://app?vid=41d41162-c451-4e5f-8bcf-1c9a70c5510c","ios":"levelo://app?vid=41d41162-c451-4e5f-8bcf-1c9a70c5510c"},"vehicle_type_id":"4","last_reported":1758409696,"current_range_meters":9600,"station_id":"ce4bgi92rcd13ifvqb90","pricing_plan_id":"cebpf4jnsgd1na2vs0mg"},{"bike_id":"52cec292-cc08-4fc7-a2e5-1d348bb4b3d3","system_id":"levelo_inurba_marseille","lat":43.2587,"lon":5.39899,"is_reserved":false,"is_disabled":false,"rental_uris":{"android":"levelo://app?vid=52cec292-cc08-4fc7-a2e5-1d348bb4b3d3","ios":"levelo://app?vid=52cec292-cc08-4fc7-a2e5-1d348bb4b3d3"},"vehicle_type_id":"4","last_reported":1758409696,"current_range_meters":9600,"station_id":"ce4bhl92rcd13ifvqghg","pricing_plan_id":"cebpf4jnsgd1na2vs0mg"},{"bike_id":"41d86c55-4349-470f-a20b-044229b1364c","system_id":"levelo_inurba_marseille","lat":43.29273,"lon":5.38437,"is_reserved":false,"is_disabled":false,"rental_uris":{"android":"levelo://app?vid=41d86c55-4349-470f-a20b-044229b1364c","ios":"levelo://app?vid=41d86c55-4349-470f-a20b-044229b1364c"},"vehicle_type_id":"4","last_reported":1758409696,"current_range_meters":9600,"station_id":"ce4bh692rcd13ifvqea0","pricing_plan_id":"cebpf4jnsgd1na2vs0mg"},{"bike_id":"3116075e-fa9b-423b-beef-aeee538d6e30","system_id":"levelo_inurba_marseille","lat":43.21743,"lon":5.34577,"is_reserved":false,"is_disabled":true,"rental_uris":{"android":"levelo://app?vid=3116075e-fa9b-423b-beef-aeee538d6e30","ios":"levelo://app?vid=3116075e-fa9b-423b-beef-aeee538d6e30"},"vehicle_type_id":"4","last_reported":1758409696,"current_range_meters":10000,"station_id":"st_cvj6r9ubvosntc0bgbag","pricing_plan_id":"cebpf4jnsgd1na2vs0mg"},{"bike_id":"c4706891-6ce1-4440-91ff-a3ecf2ff007e","system_id":"levelo_inurba_marseille","lat":43.26374,"lon":5.40075,"is_reserved":false,"is_disabled":false,"rental_uris":{"android":"levelo://app?vid=c4706891-6ce1-4440-91ff-a3ecf2ff007e","ios":"levelo://app?vid=c4706891-6ce1-4440-91ff-a3ecf2ff007e"},"vehicle_type_id":"4","last_reported":1758409696,"current_range_meters":10000,"station_id":"","pricing_plan_id":"cebpf4jnsgd1na2vs0mg"},{"bike_id":"98e8af00-4b83-49fb-a286-0d2396c92bd0","system_id":"levelo_inurba_marseille","lat":43.30885,"lon":5.36843,"is_reserved":false,"is_disabled":true,"rental_uris":{"android":"levelo://app?vid=98e8af00-4b83-49fb-a286-0d2396c92bd0","ios":"levelo://app?vid=98e8af00-4b83-49fb-a286-0d2396c92bd0"},"vehicle_type_id":"4","last_reported":1758409696,"current_range_meters":10000,"station_id":"ce4bgn92rcd13ifvqbvg","pricing_plan_id":"cebpf4jnsgd1na2vs0mg"},{"bike_id":"b766d582-d4f0-4f9a-9867-0ae0b8177870","system_id":"levelo_inurba_marseille","lat":43.21205,"lon":5.35052,"is_reserved":false,"is_disabled":false,"rental_uris":{"android":"levelo://app?vid=b766d582-d4f0-4f9a-9867-0ae0b8177870","ios":"levelo://app?vid=b766d582-d4f0-4f9a-9867-0ae0b8177870"},"vehicle_type_id":"4","last_reported":1758409696,"current_range_meters":10000,"station_id":"st_cvj6sg6p6f1abm77japg","pricing_plan_id":"cebpf4jnsgd1na2vs0mg"},{"bike_id":"83774ab6-916a-4512-bbb6-fffff61e684e","system_id":"levelo_inurba_marseille","lat":43.29035,"lon":5.39957,"is_reserved":false,"is_disabled":false,"rental_uris":{"android":"levelo://app?vid=83774ab6-916a-4512-bbb6-fffff61e684e","ios":"levelo://app?vid=83774ab6-916a-4512-bbb6-fffff61e684e"},"vehicle_type_id":"4","last_reported":1758409696,"current_range_meters":10000,"station_id":"ce4bh392rcd13ifvqdm0","pricing_plan_id":"cebpf4jnsgd1na2vs0mg"},{"bike_id":"8e625470-8e2f-4189-a3d9-b18c72ddc0de","system_id":"levelo_inurba_marseille","lat":43.28039,"lon":5.36941,"is_reserved":false,"is_disabled":false,"rental_uris":{"android":"levelo://app?vid=8e625470-8e2f-4189-a3d9-b18c72ddc0de","ios":"levelo://app?vid=8e625470-8e2f-4189-a3d9-b18c72ddc0de"},"vehicle_type_id":"4","last_reported":1758409696,"current_range_meters":10000,"station_id":"ce4bha12rcd13ifvqef0","pricing_plan_id":"cebpf4jnsgd1na2vs0mg"},{"bike_id":"9adec78f-4ce1-4961-83d4-96661034cd9c","system_id":"levelo_inurba_marseille","lat":43.24078,"lon":5.41336,"is_reserved":false,"is_disabled":false,"rental_uris":{"android":"levelo://app?vid=9adec78f-4ce1-4961-83d4-96661034cd9c","ios":"levelo://app?vid=9adec78f-4ce1-4961-83d4-96661034cd9c"},"vehicle_type_id":"4","last_reported":1758409696,"current_range_meters":10000,"station_id":"","pricing_plan_id":"cebpf4jnsgd1na2vs0mg"},{"bike_id":"1f5f1aea-0efa-4310-b0af-b5d79f6200fa","system_id":"levelo_inurba_marseille","lat":43.29553,"lon":5.42296,"is_reserved":false,"is_disabled":false,"rental_uris":{"android":"levelo://app?vid=1f5f1aea-0efa-4310-b0af-b5d79f6200fa","ios":"levelo://app?vid=1f5f1aea-0efa-4310-b0af-b5d79f6200fa"},"vehicle_type_id":"4","last_reported":1758409696,"current_range_meters":9600,"station_id":"ce4bhph2rcd13ifvqhdg","pricing_plan_id":"cebpf4jnsgd1na2vs0mg"},{"bike_id":"2c3e6b97-cac2-42d0-a444-0058f0086241","system_id":"levelo_inurba_marseille","lat":43.21752,"lon":5.34611,"is_reserved":false,"is_disabled":false,"rental_uris":{"android":"levelo://app?vid=2c3e6b97-cac2-42d0-a444-0058f0086241","ios":"levelo://app?vid=2c3e6b97-cac2-42d0-a444-0058f0086241"},"vehicle_type_id":"4","last_reported":1758409696,"current_range_meters":10800,"station_id":"st_cvj6r9ubvosntc0bgbag","pricing_plan_id":"cebpf4jnsgd1na2vs0mg"},{"bike_id":"83e60ad1-3b2a-4f4c-9159-acc63ad0d1e4","system_id":"levelo_inurba_marseille","lat":43.311408,"lon":5.384219,"is_reserved":false,"is_disabled":false,"rental_uris":{"android":"levelo://app?vid=83e60ad1-3b2a-4f4c-9159-acc63ad0d1e4","ios":"levelo://app?vid=83e60ad1-3b2a-4f4c-9159-acc63ad0d1e4"},"vehicle_type_id":"4","last_reported":1758409696,"current_range_meters":10800,"station_id":"","pricing_plan_id":"cebpf4jnsgd1na2vs0mg"},{"bike_id":"576f2039-00ac-4f2c-a68d-0faa97f37880","system_id":"levelo_inurba_marseille","lat":43.33179,"lon":5.39262,"is_reserved":false,"is_disabled":true,"rental_uris":{"android":"levelo://app?vid=576f2039-00ac-4f2c-a68d-0faa97f37880","ios":"levelo://app?vid=576f2039-00ac-4f2c-a68d-0faa97f37880"},"vehicle_type_id":"4","last_reported":1758409696,"current_range_meters":10800,"station_id":"","pricing_plan_id":"cebpf4jnsgd1na2vs0mg"},{"bike_id":"ce19734b-c251-4eaf-bf57-c69e821a93dd","system_id":"levelo_inurba_marseille","lat":43.28946,"lon":5.46547,"is_reserved":false,"is_disabled":false,"rental_uris":{"android":"levelo://app?vid=ce19734b-c251-4eaf-bf57-c69e821a93dd","ios":"levelo://app?vid=ce19734b-c251-4eaf-bf57-c69e821a93dd"},"vehicle_type_id":"4","last_reported":1758409696,"current_range_meters":10800,"station_id":"","pricing_plan_id":"cebpf4jnsgd1na2vs0mg"},{"bike_id":"66650072-091e-4113-8e9d-cbf292bc9046","system_id":"levelo_inurba_marseille","lat":43.29269,"lon":5.3843,"is_reserved":false,"is_disabled":false,"rental_uris":{"android":"levelo://app?vid=66650072-091e-4113-8e9d-cbf292bc9046","ios":"levelo://app?vid=66650072-091e-4113-8e9d-cbf292bc9046"},"vehicle_type_id":"4","last_reported":1758409696,"current_range_meters":10800,"station_id":"ce4bh692rcd13ifvqea0","pricing_plan_id":"cebpf4jnsgd1na2vs0mg"},{"bike_id":"e0350e70-2592-4f30-a29f-913a6972d66c","system_id":"levelo_inurba_marseille","lat":43.26193,"lon":5.40406,"is_reserved":false,"is_disabled":false,"rental_uris":{"android":"levelo://app?vid=e0350e70-2592-4f30-a29f-913a6972d66c","ios":"levelo://app?vid=e0350e70-2592-4f30-a29f-913a6972d66c"},"vehicle_type_id":"4","last_reported":1758409696,"current_range_meters":10800,"station_id":"ce4bhmh2rcd13ifvqgmg","pricing_plan_id":"cebpf4jnsgd1na2vs0mg"},{"bike_id":"5ea30a66-17b0-4337-9bd0-2d2dd9cb9f7c","system_id":"levelo_inurba_marseille","lat":43.3026,"lon":5.40078,"is_reserved":false,"is_disabled":false,"rental_uris":{"android":"levelo://app?vid=5ea30a66-17b0-4337-9bd0-2d2dd9cb9f7c","ios":"levelo://app?vid=5ea30a66-17b0-4337-9bd0-2d2dd9cb9f7c"},"vehicle_type_id":"4","last_reported":1758409696,"current_range_meters":10800,"station_id":"ce4bgvh2rcd13ifvqcs0","pricing_plan_id":"cebpf4jnsgd1na2vs0mg"},{"bike_id":"9d039b26-49d0-440b-9362-b10cc04f4e53","system_id":"levelo_inurba_marseille","lat":43.2978,"lon":5.39339,"is_reserved":false,"is_disabled":false,"rental_uris":{"android":"levelo://app?vid=9d039b26-49d0-440b-9362-b10cc04f4e53","ios":"levelo://app?vid=9d039b26-49d0-440b-9362-b10cc04f4e53"},"vehicle_type_id":"4","last_reported":1758409696,"current_range_meters":11200,"station_id":"chh1huq6cuj3fo74tm60","pricing_plan_id":"cebpf4jnsgd1na2vs0mg"},{"bike_id":"55f7bf54-3e4f-45c6-9fb0-11d5c0687c13","system_id":"levelo_inurba_marseille","lat":43.29526,"lon":5.38522,"is_reserved":false,"is_disabled":false,"rental_uris":{"android":"levelo://app?vid=55f7bf54-3e4f-45c6-9fb0-11d5c0687c13","ios":"levelo://app?vid=55f7bf54-3e4f-45c6-9fb0-11d5c0687c13"},"vehicle_type_id":"4","last_reported":1758409696,"current_range_meters":11200,"station_id":"ce4bgih2rcd13ifvqba0","pricing_plan_id":"cebpf4jnsgd1na2vs0mg"},{"bike_id":"418840c9-7f7b-4ec4-b7bd-3b0d3d1c7252","system_id":"levelo_inurba_marseille","lat":43.25727,"lon":5.41107,"is_reserved":false,"is_disabled":false,"rental_uris":{"android":"levelo://app?vid=418840c9-7f7b-4ec4-b7bd-3b0d3d1c7252","ios":"levelo://app?vid=418840c9-7f7b-4ec4-b7bd-3b0d3d1c7252"},"vehicle_type_id":"4","last_reported":1758409696,"current_range_meters":10800,"station_id":"ce4bhkp2rcd13ifvqgd0","pricing_plan_id":"cebpf4jnsgd1na2vs0mg"},{"bike_id":"ad8fe1e1-6954-4ec3-8244-6da7edfece72","system_id":"levelo_inurba_marseille","lat":43.29515,"lon":5.39052,"is_reserved":false,"is_disabled":false,"rental_uris":{"android":"levelo://app?vid=ad8fe1e1-6954-4ec3-8244-6da7edfece72","ios":"levelo://app?vid=ad8fe1e1-6954-4ec3-8244-6da7edfece72"},"vehicle_type_id":"4","last_reported":1758409696,"current_range_meters":11600,"station_id":"ce4bh3p2rcd13ifvqdp0","pricing_plan_id":"cebpf4jnsgd1na2vs0mg"},{"bike_id":"0f7caa9f-1d1a-40d7-9b4a-2f8720e63681","system_id":"levelo_inurba_marseille","lat":43.30847,"lon":5.37521,"is_reserved":false,"is_disabled":false,"rental_uris":{"android":"levelo://app?vid=0f7caa9f-1d1a-40d7-9b4a-2f8720e63681","ios":"levelo://app?vid=0f7caa9f-1d1a-40d7-9b4a-2f8720e63681"},"vehicle_type_id":"4","last_reported":1758409696,"current_range_meters":11600,"station_id":"","pricing_plan_id":"cebpf4jnsgd1na2vs0mg"},{"bike_id":"213f818a-2fc2-423a-8734-2921a1895f7c","system_id":"levelo_inurba_marseille","lat":43.21195,"lon":5.35058,"is_reserved":false,"is_disabled":false,"rental_uris":{"android":"levelo://app?vid=213f818a-2fc2-423a-8734-2921a1895f7c","ios":"levelo://app?vid=213f818a-2fc2-423a-8734-2921a1895f7c"},"vehicle_type_id":"4","last_reported":1758409696,"current_range_meters":11600,"station_id":"st_cvj6sg6p6f1abm77japg","pricing_plan_id":"cebpf4jnsgd1na2vs0mg"},{"bike_id":"2008bb15-8730-43a9-b9a1-5bd9c9ce9bf2","system_id":"levelo_inurba_marseille","lat":43.30641,"lon":5.401,"is_reserved":false,"is_disabled":false,"rental_uris":{"android":"levelo://app?vid=2008bb15-8730-43a9-b9a1-5bd9c9ce9bf2","ios":"levelo://app?vid=2008bb15-8730-43a9-b9a1-5bd9c9ce9bf2"},"vehicle_type_id":"4","last_reported":1758409696,"current_range_meters":11200,"station_id":"ce4bh112rcd13ifvqda0","pricing_plan_id":"cebpf4jnsgd1na2vs0mg"},{"bike_id":"fc3a9302-cd4d-42bd-99df-a26d7e173220","system_id":"levelo_inurba_marseille","lat":43.29613,"lon":5.40632,"is_reserved":false,"is_disabled":false,"rental_uris":{"android":"levelo://app?vid=fc3a9302-cd4d-42bd-99df-a26d7e173220","ios":"levelo://app?vid=fc3a9302-cd4d-42bd-99df-a26d7e173220"},"vehicle_type_id":"4","last_reported":1758409696,"current_range_meters":12000,"station_id":"ce4bh0h2rcd13ifvqd60","pricing_plan_id":"cebpf4jnsgd1na2vs0mg"},{"bike_id":"89b5ef92-46c0-4aa6-a228-7dfdbad8113d","system_id":"levelo_inurba_marseille","lat":43.29533,"lon":5.38523,"is_reserved":false,"is_disabled":false,"rental_uris":{"android":"levelo://app?vid=89b5ef92-46c0-4aa6-a228-7dfdbad8113d","ios":"levelo://app?vid=89b5ef92-46c0-4aa6-a228-7dfdbad8113d"},"vehicle_type_id":"4","last_reported":1758409696,"current_range_meters":11600,"station_id":"ce4bgih2rcd13ifvqba0","pricing_plan_id":"cebpf4jnsgd1na2vs0mg"},{"bike_id":"c1843d42-9f15-4235-8c7f-0c60147cb155","system_id":"levelo_inurba_marseille","lat":43.21202,"lon":5.35079,"is_reserved":false,"is_disabled":false,"rental_uris":{"android":"levelo://app?vid=c1843d42-9f15-4235-8c7f-0c60147cb155","ios":"levelo://app?vid=c1843d42-9f15-4235-8c7f-0c60147cb155"},"vehicle_type_id":"4","last_reported":1758409696,"current_range_meters":11600,"station_id":"st_cvj6sg6p6f1abm77japg","pricing_plan_id":"cebpf4jnsgd1na2vs0mg"},{"bike_id":"be1d288a-4bd5-4641-8f1b-5e507a7feddc","system_id":"levelo_inurba_marseille","lat":43.24183,"lon":5.39725,"is_reserved":false,"is_disabled":false,"rental_uris":{"android":"levelo://app?vid=be1d288a-4bd5-4641-8f1b-5e507a7feddc","ios":"levelo://app?vid=be1d288a-4bd5-4641-8f1b-5e507a7feddc"},"vehicle_type_id":"4","last_reported":1758409696,"current_range_meters":11600,"station_id":"ce4bhn12rcd13ifvqgpg","pricing_plan_id":"cebpf4jnsgd1na2vs0mg"},{"bike_id":"ccccdc43-e5aa-4ec3-8f51-225bc0f74ea1","system_id":"levelo_inurba_marseille","lat":43.2926,"lon":5.38448,"is_reserved":false,"is_disabled":false,"rental_uris":{"android":"levelo://app?vid=ccccdc43-e5aa-4ec3-8f51-225bc0f74ea1","ios":"levelo://app?vid=ccccdc43-e5aa-4ec3-8f51-225bc0f74ea1"},"vehicle_type_id":"4","last_reported":1758409696,"current_range_meters":11600,"station_id":"ce4bh692rcd13ifvqea0","pricing_plan_id":"cebpf4jnsgd1na2vs0mg"},{"bike_id":"dcf790cf-1f0e-4b7e-9146-ec6d35e442b2","system_id":"levelo_inurba_marseille","lat":43.30149,"lon":5.38074,"is_reserved":false,"is_disabled":false,"rental_uris":{"android":"levelo://app?vid=dcf790cf-1f0e-4b7e-9146-ec6d35e442b2","ios":"levelo://app?vid=dcf790cf-1f0e-4b7e-9146-ec6d35e442b2"},"vehicle_type_id":"4","last_reported":1758409696,"current_range_meters":11600,"station_id":"ce4bgjp2rcd13ifvqbh0","pricing_plan_id":"cebpf4jnsgd1na2vs0mg"},{"bike_id":"f8fd0178-d9ad-45fa-adc0-5ea22eef1f51","system_id":"levelo_inurba_marseille","lat":43.2511,"lon":5.40322,"is_reserved":false,"is_disabled":false,"rental_uris":{"android":"levelo://app?vid=f8fd0178-d9ad-45fa-adc0-5ea22eef1f51","ios":"levelo://app?vid=f8fd0178-d9ad-45fa-adc0-5ea22eef1f51"},"vehicle_type_id":"4","last_reported":1758409696,"current_range_meters":12000,"station_id":"ce4bhlh2rcd13ifvqgig","pricing_plan_id":"cebpf4jnsgd1na2vs0mg"},{"bike_id":"8e6747cf-b8c6-4cd7-bba9-81728939e96e","system_id":"levelo_inurba_marseille","lat":43.27815,"lon":5.40717,"is_reserved":false,"is_disabled":true,"rental_uris":{"android":"levelo://app?vid=8e6747cf-b8c6-4cd7-bba9-81728939e96e","ios":"levelo://app?vid=8e6747cf-b8c6-4cd7-bba9-81728939e96e"},"vehicle_type_id":"4","last_reported":1758409696,"current_range_meters":12000,"station_id":"ce4bhnh2rcd13ifvqgtg","pricing_plan_id":"cebpf4jnsgd1na2vs0mg"},{"bike_id":"55d1bc08-fd54-4a82-afc7-2adcaa7b1c4e","system_id":"levelo_inurba_marseille","lat":43.30037,"lon":5.37685,"is_reserved":false,"is_disabled":false,"rental_uris":{"android":"levelo://app?vid=55d1bc08-fd54-4a82-afc7-2adcaa7b1c4e","ios":"levelo://app?vid=55d1bc08-fd54-4a82-afc7-2adcaa7b1c4e"},"vehicle_type_id":"4","last_reported":1758409696,"current_range_meters":12000,"station_id":"","pricing_plan_id":"cebpf4jnsgd1na2vs0mg"},{"bike_id":"438ead59-de14-4fa0-a61d-03a70a4122ae","system_id":"levelo_inurba_marseille","lat":43.97288,"lon":4.89146,"is_reserved":false,"is_disabled":true,"rental_uris":{"android":"levelo://app?vid=438ead59-de14-4fa0-a61d-03a70a4122ae","ios":"levelo://app?vid=438ead59-de14-4fa0-a61d-03a70a4122ae"},"vehicle_type_id":"4","last_reported":1758409696,"current_range_meters":12000,"station_id":"","pricing_plan_id":"cebpf4jnsgd1na2vs0mg"},{"bike_id":"d701ffb6-d985-42e1-8545-ee350fa0185e","system_id":"levelo_inurba_marseille","lat":43.28608,"lon":5.37066,"is_reserved":false,"is_disabled":true,"rental_uris":{"android":"levelo://app?vid=d701ffb6-d985-42e1-8545-ee350fa0185e","ios":"levelo://app?vid=d701ffb6-d985-42e1-8545-ee350fa0185e"},"vehicle_type_id":"4","last_reported":1758409696,"current_range_meters":12400,"station_id":"ce4bht12rcd13ifvqi60","pricing_plan_id":"cebpf4jnsgd1na2vs0mg"},{"bike_id":"9637c146-59d7-436a-a4f3-e8022fe36949","system_id":"levelo_inurba_marseille","lat":43.211921,"lon":5.35075,"is_reserved":false,"is_disabled":false,"rental_uris":{"android":"levelo://app?vid=9637c146-59d7-436a-a4f3-e8022fe36949","ios":"levelo://app?vid=9637c146-59d7-436a-a4f3-e8022fe36949"},"vehicle_type_id":"4","last_reported":1758409696,"current_range_meters":12400,"station_id":"st_cvj6sg6p6f1abm77japg","pricing_plan_id":"cebpf4jnsgd1na2vs0mg"},{"bike_id":"b28536fb-1a1f-4c02-92d1-a68528fce61d","system_id":"levelo_inurba_marseille","lat":43.29319,"lon":5.37171,"is_reserved":false,"is_disabled":true,"rental_uris":{"android":"levelo://app?vid=b28536fb-1a1f-4c02-92d1-a68528fce61d","ios":"levelo://app?vid=b28536fb-1a1f-4c02-92d1-a68528fce61d"},"vehicle_type_id":"4","last_reported":1758409696,"current_range_meters":12400,"station_id":"ce4bgh92rcd13ifvqb40","pricing_plan_id":"cebpf4jnsgd1na2vs0mg"},{"bike_id":"daaf89e0-b11c-40ea-b8fb-8129ac2df5da","system_id":"levelo_inurba_marseille","lat":43.299063,"lon":5.38536,"is_reserved":false,"is_disabled":false,"rental_uris":{"android":"levelo://app?vid=daaf89e0-b11c-40ea-b8fb-8129ac2df5da","ios":"levelo://app?vid=daaf89e0-b11c-40ea-b8fb-8129ac2df5da"},"vehicle_type_id":"4","last_reported":1758409696,"current_range_meters":12400,"station_id":"","pricing_plan_id":"cebpf4jnsgd1na2vs0mg"},{"bike_id":"97893650-9a0c-47e4-baee-ec60bbc1b06d","system_id":"levelo_inurba_marseille","lat":43.25688,"lon":5.41049,"is_reserved":false,"is_disabled":true,"rental_uris":{"android":"levelo://app?vid=97893650-9a0c-47e4-baee-ec60bbc1b06d","ios":"levelo://app?vid=97893650-9a0c-47e4-baee-ec60bbc1b06d"},"vehicle_type_id":"4","last_reported":1758409696,"current_range_meters":12400,"station_id":"","pricing_plan_id":"cebpf4jnsgd1na2vs0mg"},{"bike_id":"52f5b0d4-a96d-4e85-952c-f82e4b24fdca","system_id":"levelo_inurba_marseille","lat":43.29521,"lon":5.38548,"is_reserved":false,"is_disabled":false,"rental_uris":{"android":"levelo://app?vid=52f5b0d4-a96d-4e85-952c-f82e4b24fdca","ios":"levelo://app?vid=52f5b0d4-a96d-4e85-952c-f82e4b24fdca"},"vehicle_type_id":"4","last_reported":1758409696,"current_range_meters":12400,"station_id":"ce4bgih2rcd13ifvqba0","pricing_plan_id":"cebpf4jnsgd1na2vs0mg"},{"bike_id":"a33a7d2b-3a19-4e17-8886-71256af367d3","system_id":"levelo_inurba_marseille","lat":43.28187,"lon":5.42625,"is_reserved":false,"is_disabled":true,"rental_uris":{"android":"levelo://app?vid=a33a7d2b-3a19-4e17-8886-71256af367d3","ios":"levelo://app?vid=a33a7d2b-3a19-4e17-8886-71256af367d3"},"vehicle_type_id":"4","last_reported":1758409696,"current_range_meters":12400,"station_id":"ce4bhnh2rcd13ifvqgug","pricing_plan_id":"cebpf4jnsgd1na2vs0mg"},{"bike_id":"2d82061a-a240-43d1-93a6-ab71cf777b3c","system_id":"levelo_inurba_marseille","lat":43.21177,"lon":5.35055,"is_reserved":false,"is_disabled":false,"rental_uris":{"android":"levelo://app?vid=2d82061a-a240-43d1-93a6-ab71cf777b3c","ios":"levelo://app?vid=2d82061a-a240-43d1-93a6-ab71cf777b3c"},"vehicle_type_id":"4","last_reported":1758409696,"current_range_meters":12400,"station_id":"st_cvj6sg6p6f1abm77japg","pricing_plan_id":"cebpf4jnsgd1na2vs0mg"},{"bike_id":"b7c6f36e-f7fb-47f1-a8d3-6d22e15035a0","system_id":"levelo_inurba_marseille","lat":43.25825,"lon":5.39438,"is_reserved":false,"is_disabled":false,"rental_uris":{"android":"levelo://app?vid=b7c6f36e-f7fb-47f1-a8d3-6d22e15035a0","ios":"levelo://app?vid=b7c6f36e-f7fb-47f1-a8d3-6d22e15035a0"},"vehicle_type_id":"4","last_reported":1758409696,"current_range_meters":12400,"station_id":"ce4bhip2rcd13ifvqft0","pricing_plan_id":"cebpf4jnsgd1na2vs0mg"},{"bike_id":"2015c1f2-c286-408a-b930-50d865ce0bb9","system_id":"levelo_inurba_marseille","lat":43.21187,"lon":5.35071,"is_reserved":false,"is_disabled":false,"rental_uris":{"android":"levelo://app?vid=2015c1f2-c286-408a-b930-50d865ce0bb9","ios":"levelo://app?vid=2015c1f2-c286-408a-b930-50d865ce0bb9"},"vehicle_type_id":"4","last_reported":1758409696,"current_range_meters":12400,"station_id":"st_cvj6sg6p6f1abm77japg","pricing_plan_id":"cebpf4jnsgd1na2vs0mg"},{"bike_id":"a07a513e-e5a9-4481-8592-d991379bc662","system_id":"levelo_inurba_marseille","lat":43.337536,"lon":5.374536,"is_reserved":false,"is_disabled":false,"rental_uris":{"android":"levelo://app?vid=a07a513e-e5a9-4481-8592-d991379bc662","ios":"levelo://app?vid=a07a513e-e5a9-4481-8592-d991379bc662"},"vehicle_type_id":"4","last_reported":1758409696,"current_range_meters":12400,"station_id":"","pricing_plan_id":"cebpf4jnsgd1na2vs0mg"},{"bike_id":"b6bd58bf-b64f-4e97-8264-562079d00a5e","system_id":"levelo_inurba_marseille","lat":43.30421,"lon":5.41291,"is_reserved":false,"is_disabled":false,"rental_uris":{"android":"levelo://app?vid=b6bd58bf-b64f-4e97-8264-562079d00a5e","ios":"levelo://app?vid=b6bd58bf-b64f-4e97-8264-562079d00a5e"},"vehicle_type_id":"4","last_reported":1758409696,"current_range_meters":12800,"station_id":"ce4bhop2rcd13ifvqh8g","pricing_plan_id":"cebpf4jnsgd1na2vs0mg"},{"bike_id":"475b2d1b-ae94-4177-a324-8a2f6da7c95f","system_id":"levelo_inurba_marseille","lat":43.31501,"lon":5.372876,"is_reserved":false,"is_disabled":false,"rental_uris":{"android":"levelo://app?vid=475b2d1b-ae94-4177-a324-8a2f6da7c95f","ios":"levelo://app?vid=475b2d1b-ae94-4177-a324-8a2f6da7c95f"},"vehicle_type_id":"4","last_reported":1758409696,"current_range_meters":12800,"station_id":"ce4bgt12rcd13ifvqcd0","pricing_plan_id":"cebpf4jnsgd1na2vs0mg"},{"bike_id":"06a35e9f-65c1-4116-a2b2-5c91d45667e8","system_id":"levelo_inurba_marseille","lat":43.241768,"lon":5.397365,"is_reserved":false,"is_disabled":false,"rental_uris":{"android":"levelo://app?vid=06a35e9f-65c1-4116-a2b2-5c91d45667e8","ios":"levelo://app?vid=06a35e9f-65c1-4116-a2b2-5c91d45667e8"},"vehicle_type_id":"4","last_reported":1758409696,"current_range_meters":12800,"station_id":"ce4bhn12rcd13ifvqgpg","pricing_plan_id":"cebpf4jnsgd1na2vs0mg"},{"bike_id":"77414249-1f78-4b2e-aa29-789893ea1742","system_id":"levelo_inurba_marseille","lat":43.28153,"lon":5.42639,"is_reserved":false,"is_disabled":true,"rental_uris":{"android":"levelo://app?vid=77414249-1f78-4b2e-aa29-789893ea1742","ios":"levelo://app?vid=77414249-1f78-4b2e-aa29-789893ea1742"},"vehicle_type_id":"4","last_reported":1758409696,"current_range_meters":12800,"station_id":"ce4bhnh2rcd13ifvqgug","pricing_plan_id":"cebpf4jnsgd1na2vs0mg"},{"bike_id":"0dc3e816-c8c6-41f8-8144-bb26d31dc560","system_id":"levelo_inurba_marseille","lat":43.30254,"lon":5.40075,"is_reserved":false,"is_disabled":false,"rental_uris":{"android":"levelo://app?vid=0dc3e816-c8c6-41f8-8144-bb26d31dc560","ios":"levelo://app?vid=0dc3e816-c8c6-41f8-8144-bb26d31dc560"},"vehicle_type_id":"4","last_reported":1758409696,"current_range_meters":12800,"station_id":"ce4bgvh2rcd13ifvqcs0","pricing_plan_id":"cebpf4jnsgd1na2vs0mg"},{"bike_id":"ae5ccd80-2896-4733-9148-6522e9bbfe0c","system_id":"levelo_inurba_marseille","lat":43.22561,"lon":5.41613,"is_reserved":false,"is_disabled":true,"rental_uris":{"android":"levelo://app?vid=ae5ccd80-2896-4733-9148-6522e9bbfe0c","ios":"levelo://app?vid=ae5ccd80-2896-4733-9148-6522e9bbfe0c"},"vehicle_type_id":"4","last_reported":1758409696,"current_range_meters":12800,"station_id":"st_d2o4gvlbi1j2169b742g","pricing_plan_id":"cebpf4jnsgd1na2vs0mg"},{"bike_id":"370fc90c-a927-4076-a43e-67d76b634da9","system_id":"levelo_inurba_marseille","lat":43.29522,"lon":5.39404,"is_reserved":false,"is_disabled":false,"rental_uris":{"android":"levelo://app?vid=370fc90c-a927-4076-a43e-67d76b634da9","ios":"levelo://app?vid=370fc90c-a927-4076-a43e-67d76b634da9"},"vehicle_type_id":"4","last_reported":1758409696,"current_range_meters":12800,"station_id":"ce4bh292rcd13ifvqdf0","pricing_plan_id":"cebpf4jnsgd1na2vs0mg"},{"bike_id":"8f90c6e9-c2a0-414b-a280-ed01b517d1e8","system_id":"levelo_inurba_marseille","lat":43.211886,"lon":5.350707,"is_reserved":false,"is_disabled":false,"rental_uris":{"android":"levelo://app?vid=8f90c6e9-c2a0-414b-a280-ed01b517d1e8","ios":"levelo://app?vid=8f90c6e9-c2a0-414b-a280-ed01b517d1e8"},"vehicle_type_id":"4","last_reported":1758409696,"current_range_meters":12800,"station_id":"st_cvj6sg6p6f1abm77japg","pricing_plan_id":"cebpf4jnsgd1na2vs0mg"},{"bike_id":"527cbfc9-ea8a-4822-bda0-e7e0d824b792","system_id":"levelo_inurba_marseille","lat":43.24667,"lon":5.38145,"is_reserved":false,"is_disabled":false,"rental_uris":{"android":"levelo://app?vid=527cbfc9-ea8a-4822-bda0-e7e0d824b792","ios":"levelo://app?vid=527cbfc9-ea8a-4822-bda0-e7e0d824b792"},"vehicle_type_id":"4","last_reported":1758409696,"current_range_meters":12800,"station_id":"ce4bhih2rcd13ifvqfr0","pricing_plan_id":"cebpf4jnsgd1na2vs0mg"},{"bike_id":"bcddcf39-e343-443b-9383-f47d441882a9","system_id":"levelo_inurba_marseille","lat":43.26569,"lon":5.37283,"is_reserved":false,"is_disabled":false,"rental_uris":{"android":"levelo://app?vid=bcddcf39-e343-443b-9383-f47d441882a9","ios":"levelo://app?vid=bcddcf39-e343-443b-9383-f47d441882a9"},"vehicle_type_id":"4","last_reported":1758409696,"current_range_meters":12800,"station_id":"ce4bhg12rcd13ifvqf70","pricing_plan_id":"cebpf4jnsgd1na2vs0mg"},{"bike_id":"e2a83df6-cfcf-478a-a9bc-359acb0e01bb","system_id":"levelo_inurba_marseille","lat":43.32656,"lon":5.40991,"is_reserved":false,"is_disabled":false,"rental_uris":{"android":"levelo://app?vid=e2a83df6-cfcf-478a-a9bc-359acb0e01bb","ios":"levelo://app?vid=e2a83df6-cfcf-478a-a9bc-359acb0e01bb"},"vehicle_type_id":"4","last_reported":1758409696,"current_range_meters":12800,"station_id":"ce4bhpp2rcd13ifvqhgg","pricing_plan_id":"cebpf4jnsgd1na2vs0mg"},{"bike_id":"f6d09edb-46c8-43ac-bc24-11a7161d11b8","system_id":"levelo_inurba_marseille","lat":43.31772,"lon":5.39015,"is_reserved":false,"is_disabled":false,"rental_uris":{"android":"levelo://app?vid=f6d09edb-46c8-43ac-bc24-11a7161d11b8","ios":"levelo://app?vid=f6d09edb-46c8-43ac-bc24-11a7161d11b8"},"vehicle_type_id":"4","last_reported":1758409696,"current_range_meters":12800,"station_id":"ce4bhqp2rcd13ifvqhng","pricing_plan_id":"cebpf4jnsgd1na2vs0mg"},{"bike_id":"534ff5b4-9e83-493b-9063-104ef0af4212","system_id":"levelo_inurba_marseille","lat":43.28006,"lon":5.4165,"is_reserved":false,"is_disabled":true,"rental_uris":{"android":"levelo://app?vid=534ff5b4-9e83-493b-9063-104ef0af4212","ios":"levelo://app?vid=534ff5b4-9e83-493b-9063-104ef0af4212"},"vehicle_type_id":"4","last_reported":1758409696,"current_range_meters":12800,"station_id":"ce4bho12rcd13ifvqh1g","pricing_plan_id":"cebpf4jnsgd1na2vs0mg"},{"bike_id":"e39ea4f7-b4a6-4c56-9336-3d91e112706c","system_id":"levelo_inurba_marseille","lat":43.30568,"lon":5.37228,"is_reserved":false,"is_disabled":false,"rental_uris":{"android":"levelo://app?vid=e39ea4f7-b4a6-4c56-9336-3d91e112706c","ios":"levelo://app?vid=e39ea4f7-b4a6-4c56-9336-3d91e112706c"},"vehicle_type_id":"4","last_reported":1758409696,"current_range_meters":13600,"station_id":"ce4bgqh2rcd13ifvqc4g","pricing_plan_id":"cebpf4jnsgd1na2vs0mg"},{"bike_id":"68adab37-f5ad-4072-b58a-fe6c68285ca6","system_id":"levelo_inurba_marseille","lat":43.306156,"lon":5.376638,"is_reserved":false,"is_disabled":false,"rental_uris":{"android":"levelo://app?vid=68adab37-f5ad-4072-b58a-fe6c68285ca6","ios":"levelo://app?vid=68adab37-f5ad-4072-b58a-fe6c68285ca6"},"vehicle_type_id":"4","last_reported":1758409696,"current_range_meters":13600,"station_id":"","pricing_plan_id":"cebpf4jnsgd1na2vs0mg"},{"bike_id":"4e63835f-8e3e-496c-b7b3-a081c3a98b33","system_id":"levelo_inurba_marseille","lat":43.2893,"lon":5.38389,"is_reserved":false,"is_disabled":false,"rental_uris":{"android":"levelo://app?vid=4e63835f-8e3e-496c-b7b3-a081c3a98b33","ios":"levelo://app?vid=4e63835f-8e3e-496c-b7b3-a081c3a98b33"},"vehicle_type_id":"4","last_reported":1758409696,"current_range_meters":14400,"station_id":"ce4bh612rcd13ifvqe6g","pricing_plan_id":"cebpf4jnsgd1na2vs0mg"},{"bike_id":"367889a4-f399-4fd6-80d4-126f75bc73e0","system_id":"levelo_inurba_marseille","lat":43.23961,"lon":5.36635,"is_reserved":false,"is_disabled":false,"rental_uris":{"android":"levelo://app?vid=367889a4-f399-4fd6-80d4-126f75bc73e0","ios":"levelo://app?vid=367889a4-f399-4fd6-80d4-126f75bc73e0"},"vehicle_type_id":"4","last_reported":1758409696,"current_range_meters":12800,"station_id":"ce4bhi12rcd13ifvqfp0","pricing_plan_id":"cebpf4jnsgd1na2vs0mg"},{"bike_id":"478c0b7a-18d2-4dd7-a5bf-7b13ae94df00","system_id":"levelo_inurba_marseille","lat":43.29188,"lon":5.39328,"is_reserved":false,"is_disabled":false,"rental_uris":{"android":"levelo://app?vid=478c0b7a-18d2-4dd7-a5bf-7b13ae94df00","ios":"levelo://app?vid=478c0b7a-18d2-4dd7-a5bf-7b13ae94df00"},"vehicle_type_id":"4","last_reported":1758409696,"current_range_meters":13600,"station_id":"ce4bh192rcd13ifvqdd0","pricing_plan_id":"cebpf4jnsgd1na2vs0mg"},{"bike_id":"48ee7499-f65f-4fd4-8047-6561214821b4","system_id":"levelo_inurba_marseille","lat":43.27916,"lon":5.3957,"is_reserved":false,"is_disabled":false,"rental_uris":{"android":"levelo://app?vid=48ee7499-f65f-4fd4-8047-6561214821b4","ios":"levelo://app?vid=48ee7499-f65f-4fd4-8047-6561214821b4"},"vehicle_type_id":"4","last_reported":1758409696,"current_range_meters":13600,"station_id":"ce4bhf92rcd13ifvqf40","pricing_plan_id":"cebpf4jnsgd1na2vs0mg"},{"bike_id":"c7189ddd-d7b8-4916-a264-a2e9e6a6993e","system_id":"levelo_inurba_marseille","lat":43.287028,"lon":5.399795,"is_reserved":false,"is_disabled":false,"rental_uris":{"android":"levelo://app?vid=c7189ddd-d7b8-4916-a264-a2e9e6a6993e","ios":"levelo://app?vid=c7189ddd-d7b8-4916-a264-a2e9e6a6993e"},"vehicle_type_id":"4","last_reported":1758409696,"current_range_meters":13600,"station_id":"ce4bho92rcd13ifvqh3g","pricing_plan_id":"cebpf4jnsgd1na2vs0mg"},{"bike_id":"5319fae8-be79-4d87-b5d0-b333eba32d6a","system_id":"levelo_inurba_marseille","lat":43.212007,"lon":5.350754,"is_reserved":false,"is_disabled":false,"rental_uris":{"android":"levelo://app?vid=5319fae8-be79-4d87-b5d0-b333eba32d6a","ios":"levelo://app?vid=5319fae8-be79-4d87-b5d0-b333eba32d6a"},"vehicle_type_id":"4","last_reported":1758409696,"current_range_meters":14000,"station_id":"st_cvj6sg6p6f1abm77japg","pricing_plan_id":"cebpf4jnsgd1na2vs0mg"},{"bike_id":"5d633773-c86d-4663-ae55-dfb6f9eda023","system_id":"levelo_inurba_marseille","lat":43.2593,"lon":5.40879,"is_reserved":false,"is_disabled":false,"rental_uris":{"android":"levelo://app?vid=5d633773-c86d-4663-ae55-dfb6f9eda023","ios":"levelo://app?vid=5d633773-c86d-4663-ae55-dfb6f9eda023"},"vehicle_type_id":"4","last_reported":1758409696,"current_range_meters":14400,"station_id":"","pricing_plan_id":"cebpf4jnsgd1na2vs0mg"},{"bike_id":"11d627cd-17b9-4286-ac8b-b38f918ecf7a","system_id":"levelo_inurba_marseille","lat":43.26554,"lon":5.37287,"is_reserved":false,"is_disabled":false,"rental_uris":{"android":"levelo://app?vid=11d627cd-17b9-4286-ac8b-b38f918ecf7a","ios":"levelo://app?vid=11d627cd-17b9-4286-ac8b-b38f918ecf7a"},"vehicle_type_id":"4","last_reported":1758409696,"current_range_meters":14400,"station_id":"ce4bhg12rcd13ifvqf70","pricing_plan_id":"cebpf4jnsgd1na2vs0mg"},{"bike_id":"43d57fd4-047e-4ac8-97e5-ec9b96239472","system_id":"levelo_inurba_marseille","lat":43.331229,"lon":5.397584,"is_reserved":false,"is_disabled":false,"rental_uris":{"android":"levelo://app?vid=43d57fd4-047e-4ac8-97e5-ec9b96239472","ios":"levelo://app?vid=43d57fd4-047e-4ac8-97e5-ec9b96239472"},"vehicle_type_id":"4","last_reported":1758409696,"current_range_meters":14400,"station_id":"","pricing_plan_id":"cebpf4jnsgd1na2vs0mg"},{"bike_id":"d801b961-8b0f-429d-9d3e-817010448aec","system_id":"levelo_inurba_marseille","lat":43.337632,"lon":5.374376,"is_reserved":false,"is_disabled":false,"rental_uris":{"android":"levelo://app?vid=d801b961-8b0f-429d-9d3e-817010448aec","ios":"levelo://app?vid=d801b961-8b0f-429d-9d3e-817010448aec"},"vehicle_type_id":"4","last_reported":1758409696,"current_range_meters":14800,"station_id":"","pricing_plan_id":"cebpf4jnsgd1na2vs0mg"},{"bike_id":"e75fcb4a-52ce-4ff9-9886-a74bc67c7613","system_id":"levelo_inurba_marseille","lat":43.29597,"lon":5.38089,"is_reserved":false,"is_disabled":false,"rental_uris":{"android":"levelo://app?vid=e75fcb4a-52ce-4ff9-9886-a74bc67c7613","ios":"levelo://app?vid=e75fcb4a-52ce-4ff9-9886-a74bc67c7613"},"vehicle_type_id":"4","last_reported":1758409696,"current_range_meters":14800,"station_id":"ce4bgl12rcd13ifvqbo0","pricing_plan_id":"cebpf4jnsgd1na2vs0mg"},{"bike_id":"1c2ec2b3-5fa4-4dad-b085-89cc349ccb29","system_id":"levelo_inurba_marseille","lat":43.31758,"lon":5.42342,"is_reserved":false,"is_disabled":false,"rental_uris":{"android":"levelo://app?vid=1c2ec2b3-5fa4-4dad-b085-89cc349ccb29","ios":"levelo://app?vid=1c2ec2b3-5fa4-4dad-b085-89cc349ccb29"},"vehicle_type_id":"4","last_reported":1758409696,"current_range_meters":14800,"station_id":"","pricing_plan_id":"cebpf4jnsgd1na2vs0mg"},{"bike_id":"b3fe673d-5eb2-48b9-b30d-5bb54294d7e6","system_id":"levelo_inurba_marseille","lat":43.32282,"lon":5.38284,"is_reserved":false,"is_disabled":false,"rental_uris":{"android":"levelo://app?vid=b3fe673d-5eb2-48b9-b30d-5bb54294d7e6","ios":"levelo://app?vid=b3fe673d-5eb2-48b9-b30d-5bb54294d7e6"},"vehicle_type_id":"4","last_reported":1758409696,"current_range_meters":14800,"station_id":"ce4bhr12rcd13ifvqhqg","pricing_plan_id":"cebpf4jnsgd1na2vs0mg"},{"bike_id":"e86cce24-0f21-4e0d-a094-2ca607577906","system_id":"levelo_inurba_marseille","lat":43.30132,"lon":5.38784,"is_reserved":false,"is_disabled":true,"rental_uris":{"android":"levelo://app?vid=e86cce24-0f21-4e0d-a094-2ca607577906","ios":"levelo://app?vid=e86cce24-0f21-4e0d-a094-2ca607577906"},"vehicle_type_id":"4","last_reported":1758409696,"current_range_meters":14800,"station_id":"ce4bghh2rcd13ifvqb60","pricing_plan_id":"cebpf4jnsgd1na2vs0mg"},{"bike_id":"41b7728a-6474-4fc2-8fbe-66ae06ce1d18","system_id":"levelo_inurba_marseille","lat":43.31361,"lon":5.3849,"is_reserved":false,"is_disabled":false,"rental_uris":{"android":"levelo://app?vid=41b7728a-6474-4fc2-8fbe-66ae06ce1d18","ios":"levelo://app?vid=41b7728a-6474-4fc2-8fbe-66ae06ce1d18"},"vehicle_type_id":"4","last_reported":1758409696,"current_range_meters":14400,"station_id":"ce4bgt92rcd13ifvqcf0","pricing_plan_id":"cebpf4jnsgd1na2vs0mg"},{"bike_id":"c42dfc80-02c2-4252-bc49-f21ebd69f1ff","system_id":"levelo_inurba_marseille","lat":43.29281,"lon":5.40116,"is_reserved":false,"is_disabled":false,"rental_uris":{"android":"levelo://app?vid=c42dfc80-02c2-4252-bc49-f21ebd69f1ff","ios":"levelo://app?vid=c42dfc80-02c2-4252-bc49-f21ebd69f1ff"},"vehicle_type_id":"4","last_reported":1758409696,"current_range_meters":14400,"station_id":"ce4bh312rcd13ifvqdk0","pricing_plan_id":"cebpf4jnsgd1na2vs0mg"},{"bike_id":"118b6d7e-3328-44e2-ae13-d04071b8c00f","system_id":"levelo_inurba_marseille","lat":43.21195,"lon":5.35078,"is_reserved":false,"is_disabled":false,"rental_uris":{"android":"levelo://app?vid=118b6d7e-3328-44e2-ae13-d04071b8c00f","ios":"levelo://app?vid=118b6d7e-3328-44e2-ae13-d04071b8c00f"},"vehicle_type_id":"4","last_reported":1758409696,"current_range_meters":15200,"station_id":"st_cvj6sg6p6f1abm77japg","pricing_plan_id":"cebpf4jnsgd1na2vs0mg"},{"bike_id":"a9cba043-e93d-4449-b080-8b3e9e227325","system_id":"levelo_inurba_marseille","lat":43.29636,"lon":5.40597,"is_reserved":false,"is_disabled":false,"rental_uris":{"android":"levelo://app?vid=a9cba043-e93d-4449-b080-8b3e9e227325","ios":"levelo://app?vid=a9cba043-e93d-4449-b080-8b3e9e227325"},"vehicle_type_id":"4","last_reported":1758409696,"current_range_meters":15200,"station_id":"ce4bh0h2rcd13ifvqd60","pricing_plan_id":"cebpf4jnsgd1na2vs0mg"},{"bike_id":"4f9db7f6-d72f-474f-a4c5-98df107b8c24","system_id":"levelo_inurba_marseille","lat":43.2903,"lon":5.37568,"is_reserved":false,"is_disabled":false,"rental_uris":{"android":"levelo://app?vid=4f9db7f6-d72f-474f-a4c5-98df107b8c24","ios":"levelo://app?vid=4f9db7f6-d72f-474f-a4c5-98df107b8c24"},"vehicle_type_id":"4","last_reported":1758409696,"current_range_meters":15200,"station_id":"ce4bh692rcd13ifvqe90","pricing_plan_id":"cebpf4jnsgd1na2vs0mg"},{"bike_id":"dee4c0cd-a9cc-4f5c-8de8-56cdcafefd39","system_id":"levelo_inurba_marseille","lat":43.29042,"lon":5.39964,"is_reserved":false,"is_disabled":false,"rental_uris":{"android":"levelo://app?vid=dee4c0cd-a9cc-4f5c-8de8-56cdcafefd39","ios":"levelo://app?vid=dee4c0cd-a9cc-4f5c-8de8-56cdcafefd39"},"vehicle_type_id":"4","last_reported":1758409696,"current_range_meters":15200,"station_id":"ce4bh392rcd13ifvqdm0","pricing_plan_id":"cebpf4jnsgd1na2vs0mg"},{"bike_id":"15609c4e-f589-422c-9a62-c8d2d4eb92fd","system_id":"levelo_inurba_marseille","lat":43.32987,"lon":5.38095,"is_reserved":false,"is_disabled":false,"rental_uris":{"android":"levelo://app?vid=15609c4e-f589-422c-9a62-c8d2d4eb92fd","ios":"levelo://app?vid=15609c4e-f589-422c-9a62-c8d2d4eb92fd"},"vehicle_type_id":"4","last_reported":1758409696,"current_range_meters":15200,"station_id":"","pricing_plan_id":"cebpf4jnsgd1na2vs0mg"},{"bike_id":"a3dd5643-8959-42a8-9dc5-8f9f14240a9b","system_id":"levelo_inurba_marseille","lat":43.29896,"lon":5.39723,"is_reserved":false,"is_disabled":false,"rental_uris":{"android":"levelo://app?vid=a3dd5643-8959-42a8-9dc5-8f9f14240a9b","ios":"levelo://app?vid=a3dd5643-8959-42a8-9dc5-8f9f14240a9b"},"vehicle_type_id":"4","last_reported":1758409696,"current_range_meters":15200,"station_id":"ce4bh0h2rcd13ifvqd50","pricing_plan_id":"cebpf4jnsgd1na2vs0mg"},{"bike_id":"8dc46dc1-37b4-4b6b-b7b0-af4fed770eb5","system_id":"levelo_inurba_marseille","lat":43.29554,"lon":5.42289,"is_reserved":false,"is_disabled":false,"rental_uris":{"android":"levelo://app?vid=8dc46dc1-37b4-4b6b-b7b0-af4fed770eb5","ios":"levelo://app?vid=8dc46dc1-37b4-4b6b-b7b0-af4fed770eb5"},"vehicle_type_id":"4","last_reported":1758409696,"current_range_meters":15200,"station_id":"ce4bhph2rcd13ifvqhdg","pricing_plan_id":"cebpf4jnsgd1na2vs0mg"},{"bike_id":"b50b3f20-48e3-4a43-9851-a7f905d9f977","system_id":"levelo_inurba_marseille","lat":43.30392,"lon":5.41852,"is_reserved":false,"is_disabled":false,"rental_uris":{"android":"levelo://app?vid=b50b3f20-48e3-4a43-9851-a7f905d9f977","ios":"levelo://app?vid=b50b3f20-48e3-4a43-9851-a7f905d9f977"},"vehicle_type_id":"4","last_reported":1758409696,"current_range_meters":16000,"station_id":"","pricing_plan_id":"cebpf4jnsgd1na2vs0mg"},{"bike_id":"d63360e2-1acd-43ad-bdbf-2c6557f2afbc","system_id":"levelo_inurba_marseille","lat":43.30249,"lon":5.40074,"is_reserved":false,"is_disabled":false,"rental_uris":{"android":"levelo://app?vid=d63360e2-1acd-43ad-bdbf-2c6557f2afbc","ios":"levelo://app?vid=d63360e2-1acd-43ad-bdbf-2c6557f2afbc"},"vehicle_type_id":"4","last_reported":1758409696,"current_range_meters":14800,"station_id":"ce4bgvh2rcd13ifvqcs0","pricing_plan_id":"cebpf4jnsgd1na2vs0mg"},{"bike_id":"e86857f8-f405-4657-b145-ec58ed187087","system_id":"levelo_inurba_marseille","lat":43.31484,"lon":5.3881,"is_reserved":false,"is_disabled":false,"rental_uris":{"android":"levelo://app?vid=e86857f8-f405-4657-b145-ec58ed187087","ios":"levelo://app?vid=e86857f8-f405-4657-b145-ec58ed187087"},"vehicle_type_id":"4","last_reported":1758409696,"current_range_meters":16000,"station_id":"ce4bgt92rcd13ifvqcf0","pricing_plan_id":"cebpf4jnsgd1na2vs0mg"},{"bike_id":"8d299856-4a91-4b85-9d43-9ca980918093","system_id":"levelo_inurba_marseille","lat":43.28481,"lon":5.38543,"is_reserved":false,"is_disabled":false,"rental_uris":{"android":"levelo://app?vid=8d299856-4a91-4b85-9d43-9ca980918093","ios":"levelo://app?vid=8d299856-4a91-4b85-9d43-9ca980918093"},"vehicle_type_id":"4","last_reported":1758409696,"current_range_meters":16000,"station_id":"ce4bh8p2rcd13ifvqeb0","pricing_plan_id":"cebpf4jnsgd1na2vs0mg"},{"bike_id":"49f291ba-2e2d-4bad-9ab0-dd517c6c6924","system_id":"levelo_inurba_marseille","lat":43.23179,"lon":5.39981,"is_reserved":false,"is_disabled":false,"rental_uris":{"android":"levelo://app?vid=49f291ba-2e2d-4bad-9ab0-dd517c6c6924","ios":"levelo://app?vid=49f291ba-2e2d-4bad-9ab0-dd517c6c6924"},"vehicle_type_id":"4","last_reported":1758409696,"current_range_meters":16000,"station_id":"ce4bhn12rcd13ifvqgqg","pricing_plan_id":"cebpf4jnsgd1na2vs0mg"},{"bike_id":"0bf01d9a-d8fc-4d31-94ac-fe2ac641ff9c","system_id":"levelo_inurba_marseille","lat":43.28713,"lon":5.39973,"is_reserved":false,"is_disabled":false,"rental_uris":{"android":"levelo://app?vid=0bf01d9a-d8fc-4d31-94ac-fe2ac641ff9c","ios":"levelo://app?vid=0bf01d9a-d8fc-4d31-94ac-fe2ac641ff9c"},"vehicle_type_id":"4","last_reported":1758409696,"current_range_meters":16000,"station_id":"ce4bho92rcd13ifvqh3g","pricing_plan_id":"cebpf4jnsgd1na2vs0mg"},{"bike_id":"ca297831-6796-4890-859f-84568f218867","system_id":"levelo_inurba_marseille","lat":43.29038,"lon":5.38636,"is_reserved":false,"is_disabled":false,"rental_uris":{"android":"levelo://app?vid=ca297831-6796-4890-859f-84568f218867","ios":"levelo://app?vid=ca297831-6796-4890-859f-84568f218867"},"vehicle_type_id":"4","last_reported":1758409696,"current_range_meters":16000,"station_id":"ce4bh4p2rcd13ifvqe0g","pricing_plan_id":"cebpf4jnsgd1na2vs0mg"},{"bike_id":"d2667e4e-8f97-413d-81b1-13a394c6285f","system_id":"levelo_inurba_marseille","lat":43.21741,"lon":5.346,"is_reserved":false,"is_disabled":true,"rental_uris":{"android":"levelo://app?vid=d2667e4e-8f97-413d-81b1-13a394c6285f","ios":"levelo://app?vid=d2667e4e-8f97-413d-81b1-13a394c6285f"},"vehicle_type_id":"4","last_reported":1758409696,"current_range_meters":16000,"station_id":"st_cvj6r9ubvosntc0bgbag","pricing_plan_id":"cebpf4jnsgd1na2vs0mg"},{"bike_id":"ad3b9a79-2fea-4743-a6da-194a3004707a","system_id":"levelo_inurba_marseille","lat":43.29379,"lon":5.37856,"is_reserved":false,"is_disabled":true,"rental_uris":{"android":"levelo://app?vid=ad3b9a79-2fea-4743-a6da-194a3004707a","ios":"levelo://app?vid=ad3b9a79-2fea-4743-a6da-194a3004707a"},"vehicle_type_id":"4","last_reported":1758409696,"current_range_meters":16000,"station_id":"ce4bgjh2rcd13ifvqbf0","pricing_plan_id":"cebpf4jnsgd1na2vs0mg"},{"bike_id":"394bbc81-dc66-4519-a76d-fc81a65cacf7","system_id":"levelo_inurba_marseille","lat":43.21194,"lon":5.35077,"is_reserved":false,"is_disabled":false,"rental_uris":{"android":"levelo://app?vid=394bbc81-dc66-4519-a76d-fc81a65cacf7","ios":"levelo://app?vid=394bbc81-dc66-4519-a76d-fc81a65cacf7"},"vehicle_type_id":"4","last_reported":1758409696,"current_range_meters":16000,"station_id":"st_cvj6sg6p6f1abm77japg","pricing_plan_id":"cebpf4jnsgd1na2vs0mg"},{"bike_id":"76bbf107-7ec5-4826-b296-ab629ecd14ab","system_id":"levelo_inurba_marseille","lat":43.29849,"lon":5.42076,"is_reserved":false,"is_disabled":false,"rental_uris":{"android":"levelo://app?vid=76bbf107-7ec5-4826-b296-ab629ecd14ab","ios":"levelo://app?vid=76bbf107-7ec5-4826-b296-ab629ecd14ab"},"vehicle_type_id":"4","last_reported":1758409696,"current_range_meters":16000,"station_id":"","pricing_plan_id":"cebpf4jnsgd1na2vs0mg"},{"bike_id":"5012c91b-a53c-4c5f-901c-26f9fc9d8566","system_id":"levelo_inurba_marseille","lat":43.31113,"lon":5.377531,"is_reserved":false,"is_disabled":false,"rental_uris":{"android":"levelo://app?vid=5012c91b-a53c-4c5f-901c-26f9fc9d8566","ios":"levelo://app?vid=5012c91b-a53c-4c5f-901c-26f9fc9d8566"},"vehicle_type_id":"4","last_reported":1758409696,"current_range_meters":16400,"station_id":"ce4bgt92rcd13ifvqcg0","pricing_plan_id":"cebpf4jnsgd1na2vs0mg"},{"bike_id":"7ce5fdda-700e-46b9-9bf0-f4b67d248c7b","system_id":"levelo_inurba_marseille","lat":43.28843,"lon":5.3932,"is_reserved":false,"is_disabled":false,"rental_uris":{"android":"levelo://app?vid=7ce5fdda-700e-46b9-9bf0-f4b67d248c7b","ios":"levelo://app?vid=7ce5fdda-700e-46b9-9bf0-f4b67d248c7b"},"vehicle_type_id":"4","last_reported":1758409696,"current_range_meters":16400,"station_id":"ce4bh2p2rcd13ifvqdi0","pricing_plan_id":"cebpf4jnsgd1na2vs0mg"},{"bike_id":"8aa5b788-3d94-452f-8a0e-8476ae6daeaa","system_id":"levelo_inurba_marseille","lat":43.2957,"lon":5.39968,"is_reserved":false,"is_disabled":false,"rental_uris":{"android":"levelo://app?vid=8aa5b788-3d94-452f-8a0e-8476ae6daeaa","ios":"levelo://app?vid=8aa5b788-3d94-452f-8a0e-8476ae6daeaa"},"vehicle_type_id":"4","last_reported":1758409696,"current_range_meters":16400,"station_id":"ce4bh312rcd13ifvqdj0","pricing_plan_id":"cebpf4jnsgd1na2vs0mg"},{"bike_id":"aaf6f317-6d40-4cf9-abdb-2776478eaf09","system_id":"levelo_inurba_marseille","lat":43.27839,"lon":5.39203,"is_reserved":false,"is_disabled":false,"rental_uris":{"android":"levelo://app?vid=aaf6f317-6d40-4cf9-abdb-2776478eaf09","ios":"levelo://app?vid=aaf6f317-6d40-4cf9-abdb-2776478eaf09"},"vehicle_type_id":"4","last_reported":1758409696,"current_range_meters":16400,"station_id":"ce4bhjp2rcd13ifvqga0","pricing_plan_id":"cebpf4jnsgd1na2vs0mg"},{"bike_id":"a5c5b295-b9cc-4e3e-beac-b7a58fa974a0","system_id":"levelo_inurba_marseille","lat":43.30798,"lon":5.38153,"is_reserved":false,"is_disabled":false,"rental_uris":{"android":"levelo://app?vid=a5c5b295-b9cc-4e3e-beac-b7a58fa974a0","ios":"levelo://app?vid=a5c5b295-b9cc-4e3e-beac-b7a58fa974a0"},"vehicle_type_id":"4","last_reported":1758409696,"current_range_meters":16400,"station_id":"ce4bgt12rcd13ifvqce0","pricing_plan_id":"cebpf4jnsgd1na2vs0mg"},{"bike_id":"14ab75aa-9981-4348-8134-6f7226aff1c1","system_id":"levelo_inurba_marseille","lat":43.31179,"lon":5.38708,"is_reserved":false,"is_disabled":false,"rental_uris":{"android":"levelo://app?vid=14ab75aa-9981-4348-8134-6f7226aff1c1","ios":"levelo://app?vid=14ab75aa-9981-4348-8134-6f7226aff1c1"},"vehicle_type_id":"4","last_reported":1758409696,"current_range_meters":16400,"station_id":"ce4bgv12rcd13ifvqcp0","pricing_plan_id":"cebpf4jnsgd1na2vs0mg"},{"bike_id":"2fd48440-3a07-479e-abf6-739745bcf86a","system_id":"levelo_inurba_marseille","lat":43.27922,"lon":5.39573,"is_reserved":false,"is_disabled":false,"rental_uris":{"android":"levelo://app?vid=2fd48440-3a07-479e-abf6-739745bcf86a","ios":"levelo://app?vid=2fd48440-3a07-479e-abf6-739745bcf86a"},"vehicle_type_id":"4","last_reported":1758409696,"current_range_meters":16400,"station_id":"ce4bhf92rcd13ifvqf40","pricing_plan_id":"cebpf4jnsgd1na2vs0mg"},{"bike_id":"363d99e5-837c-43c8-abcc-c80ef2e2786a","system_id":"levelo_inurba_marseille","lat":43.21211,"lon":5.3506,"is_reserved":false,"is_disabled":false,"rental_uris":{"android":"levelo://app?vid=363d99e5-837c-43c8-abcc-c80ef2e2786a","ios":"levelo://app?vid=363d99e5-837c-43c8-abcc-c80ef2e2786a"},"vehicle_type_id":"4","last_reported":1758409696,"current_range_meters":16400,"station_id":"st_cvj6sg6p6f1abm77japg","pricing_plan_id":"cebpf4jnsgd1na2vs0mg"},{"bike_id":"d676a77d-051f-4ddc-add9-7029da90ec26","system_id":"levelo_inurba_marseille","lat":43.29094,"lon":5.38155,"is_reserved":false,"is_disabled":false,"rental_uris":{"android":"levelo://app?vid=d676a77d-051f-4ddc-add9-7029da90ec26","ios":"levelo://app?vid=d676a77d-051f-4ddc-add9-7029da90ec26"},"vehicle_type_id":"4","last_reported":1758409696,"current_range_meters":16400,"station_id":"ce4bh512rcd13ifvqe2g","pricing_plan_id":"cebpf4jnsgd1na2vs0mg"},{"bike_id":"db1b2296-d34b-4635-bfc8-7b60d307cbc4","system_id":"levelo_inurba_marseille","lat":43.28276,"lon":5.35069,"is_reserved":false,"is_disabled":false,"rental_uris":{"android":"levelo://app?vid=db1b2296-d34b-4635-bfc8-7b60d307cbc4","ios":"levelo://app?vid=db1b2296-d34b-4635-bfc8-7b60d307cbc4"},"vehicle_type_id":"4","last_reported":1758409696,"current_range_meters":16800,"station_id":"ce4bhbp2rcd13ifvqerg","pricing_plan_id":"cebpf4jnsgd1na2vs0mg"},{"bike_id":"72fedb71-fe21-4697-b519-c3ffb52dd8d3","system_id":"levelo_inurba_marseille","lat":43.25584,"lon":5.38227,"is_reserved":false,"is_disabled":false,"rental_uris":{"android":"levelo://app?vid=72fedb71-fe21-4697-b519-c3ffb52dd8d3","ios":"levelo://app?vid=72fedb71-fe21-4697-b519-c3ffb52dd8d3"},"vehicle_type_id":"4","last_reported":1758409696,"current_range_meters":16800,"station_id":"ce4bhih2rcd13ifvqfs0","pricing_plan_id":"cebpf4jnsgd1na2vs0mg"},{"bike_id":"f5808199-fd42-497a-ba3e-70ace8101b55","system_id":"levelo_inurba_marseille","lat":43.29202,"lon":5.39315,"is_reserved":false,"is_disabled":false,"rental_uris":{"android":"levelo://app?vid=f5808199-fd42-497a-ba3e-70ace8101b55","ios":"levelo://app?vid=f5808199-fd42-497a-ba3e-70ace8101b55"},"vehicle_type_id":"4","last_reported":1758409696,"current_range_meters":16800,"station_id":"ce4bh192rcd13ifvqdd0","pricing_plan_id":"cebpf4jnsgd1na2vs0mg"},{"bike_id":"cf4fc547-0264-4b36-a02a-d8fa6408c998","system_id":"levelo_inurba_marseille","lat":43.2808,"lon":5.39654,"is_reserved":false,"is_disabled":false,"rental_uris":{"android":"levelo://app?vid=cf4fc547-0264-4b36-a02a-d8fa6408c998","ios":"levelo://app?vid=cf4fc547-0264-4b36-a02a-d8fa6408c998"},"vehicle_type_id":"4","last_reported":1758409696,"current_range_meters":16800,"station_id":"ce4bho12rcd13ifvqh2g","pricing_plan_id":"cebpf4jnsgd1na2vs0mg"},{"bike_id":"a8e72e83-9768-4b0b-81f6-cec0c80a86eb","system_id":"levelo_inurba_marseille","lat":43.307816,"lon":5.376485,"is_reserved":false,"is_disabled":false,"rental_uris":{"android":"levelo://app?vid=a8e72e83-9768-4b0b-81f6-cec0c80a86eb","ios":"levelo://app?vid=a8e72e83-9768-4b0b-81f6-cec0c80a86eb"},"vehicle_type_id":"4","last_reported":1758409696,"current_range_meters":17600,"station_id":"ce4bgjh2rcd13ifvqbg0","pricing_plan_id":"cebpf4jnsgd1na2vs0mg"},{"bike_id":"74f14d90-28b2-4e9d-b0d9-cba57e7c01d2","system_id":"levelo_inurba_marseille","lat":43.29567,"lon":5.39975,"is_reserved":false,"is_disabled":false,"rental_uris":{"android":"levelo://app?vid=74f14d90-28b2-4e9d-b0d9-cba57e7c01d2","ios":"levelo://app?vid=74f14d90-28b2-4e9d-b0d9-cba57e7c01d2"},"vehicle_type_id":"4","last_reported":1758409696,"current_range_meters":16800,"station_id":"ce4bh312rcd13ifvqdj0","pricing_plan_id":"cebpf4jnsgd1na2vs0mg"},{"bike_id":"a6c138d2-1a19-4ae6-bb9c-5e1b0cdabccf","system_id":"levelo_inurba_marseille","lat":43.30428,"lon":5.39748,"is_reserved":false,"is_disabled":false,"rental_uris":{"android":"levelo://app?vid=a6c138d2-1a19-4ae6-bb9c-5e1b0cdabccf","ios":"levelo://app?vid=a6c138d2-1a19-4ae6-bb9c-5e1b0cdabccf"},"vehicle_type_id":"4","last_reported":1758409696,"current_range_meters":16800,"station_id":"ce4bh092rcd13ifvqd20","pricing_plan_id":"cebpf4jnsgd1na2vs0mg"},{"bike_id":"75cdae86-aa3c-46f9-92bf-f3662c1063cf","system_id":"levelo_inurba_marseille","lat":43.33721,"lon":5.39173,"is_reserved":false,"is_disabled":false,"rental_uris":{"android":"levelo://app?vid=75cdae86-aa3c-46f9-92bf-f3662c1063cf","ios":"levelo://app?vid=75cdae86-aa3c-46f9-92bf-f3662c1063cf"},"vehicle_type_id":"4","last_reported":1758409696,"current_range_meters":16800,"station_id":"ce4bhr92rcd13ifvqhsg","pricing_plan_id":"cebpf4jnsgd1na2vs0mg"},{"bike_id":"15d3be60-a5b6-4082-863d-c62aff4e0104","system_id":"levelo_inurba_marseille","lat":43.31487,"lon":5.37303,"is_reserved":false,"is_disabled":false,"rental_uris":{"android":"levelo://app?vid=15d3be60-a5b6-4082-863d-c62aff4e0104","ios":"levelo://app?vid=15d3be60-a5b6-4082-863d-c62aff4e0104"},"vehicle_type_id":"4","last_reported":1758409696,"current_range_meters":16800,"station_id":"ce4bgt12rcd13ifvqcd0","pricing_plan_id":"cebpf4jnsgd1na2vs0mg"},{"bike_id":"20ef76b8-e1f0-47f7-9ba3-7dd4e7e78b57","system_id":"levelo_inurba_marseille","lat":43.27835,"lon":5.39199,"is_reserved":false,"is_disabled":false,"rental_uris":{"android":"levelo://app?vid=20ef76b8-e1f0-47f7-9ba3-7dd4e7e78b57","ios":"levelo://app?vid=20ef76b8-e1f0-47f7-9ba3-7dd4e7e78b57"},"vehicle_type_id":"4","last_reported":1758409696,"current_range_meters":16400,"station_id":"ce4bhjp2rcd13ifvqga0","pricing_plan_id":"cebpf4jnsgd1na2vs0mg"},{"bike_id":"5dcd08ef-6cb0-4321-bcd9-91bc78c512f0","system_id":"levelo_inurba_marseille","lat":43.2846,"lon":5.35879,"is_reserved":false,"is_disabled":false,"rental_uris":{"android":"levelo://app?vid=5dcd08ef-6cb0-4321-bcd9-91bc78c512f0","ios":"levelo://app?vid=5dcd08ef-6cb0-4321-bcd9-91bc78c512f0"},"vehicle_type_id":"4","last_reported":1758409696,"current_range_meters":16400,"station_id":"ce4bhah2rcd13ifvqei0","pricing_plan_id":"cebpf4jnsgd1na2vs0mg"},{"bike_id":"5338703c-1ed4-4d41-9a10-bfdbac39d683","system_id":"levelo_inurba_marseille","lat":43.29533,"lon":5.38533,"is_reserved":false,"is_disabled":false,"rental_uris":{"android":"levelo://app?vid=5338703c-1ed4-4d41-9a10-bfdbac39d683","ios":"levelo://app?vid=5338703c-1ed4-4d41-9a10-bfdbac39d683"},"vehicle_type_id":"4","last_reported":1758409696,"current_range_meters":16800,"station_id":"ce4bgih2rcd13ifvqba0","pricing_plan_id":"cebpf4jnsgd1na2vs0mg"},{"bike_id":"831c242d-c4b7-4153-bce5-fe29d0c2ebd6","system_id":"levelo_inurba_marseille","lat":43.30642,"lon":5.40074,"is_reserved":false,"is_disabled":false,"rental_uris":{"android":"levelo://app?vid=831c242d-c4b7-4153-bce5-fe29d0c2ebd6","ios":"levelo://app?vid=831c242d-c4b7-4153-bce5-fe29d0c2ebd6"},"vehicle_type_id":"4","last_reported":1758409696,"current_range_meters":16800,"station_id":"ce4bh112rcd13ifvqda0","pricing_plan_id":"cebpf4jnsgd1na2vs0mg"},{"bike_id":"11e6aa07-950e-4da1-b641-e5002824e56a","system_id":"levelo_inurba_marseille","lat":43.28966,"lon":5.37841,"is_reserved":false,"is_disabled":false,"rental_uris":{"android":"levelo://app?vid=11e6aa07-950e-4da1-b641-e5002824e56a","ios":"levelo://app?vid=11e6aa07-950e-4da1-b641-e5002824e56a"},"vehicle_type_id":"4","last_reported":1758409696,"current_range_meters":16800,"station_id":"ce4bh9p2rcd13ifvqed0","pricing_plan_id":"cebpf4jnsgd1na2vs0mg"},{"bike_id":"c6306dd5-de90-4065-b5df-5ae570388752","system_id":"levelo_inurba_marseille","lat":43.27919,"lon":5.39576,"is_reserved":false,"is_disabled":false,"rental_uris":{"android":"levelo://app?vid=c6306dd5-de90-4065-b5df-5ae570388752","ios":"levelo://app?vid=c6306dd5-de90-4065-b5df-5ae570388752"},"vehicle_type_id":"4","last_reported":1758409696,"current_range_meters":17200,"station_id":"ce4bhf92rcd13ifvqf40","pricing_plan_id":"cebpf4jnsgd1na2vs0mg"},{"bike_id":"eb0f9589-e279-4544-a325-26e7f8062d54","system_id":"levelo_inurba_marseille","lat":43.29693,"lon":5.37295,"is_reserved":false,"is_disabled":false,"rental_uris":{"android":"levelo://app?vid=eb0f9589-e279-4544-a325-26e7f8062d54","ios":"levelo://app?vid=eb0f9589-e279-4544-a325-26e7f8062d54"},"vehicle_type_id":"4","last_reported":1758409696,"current_range_meters":16800,"station_id":"ce4bgk12rcd13ifvqbj0","pricing_plan_id":"cebpf4jnsgd1na2vs0mg"},{"bike_id":"1be0e12d-c982-4197-8e20-7fc42fd9f189","system_id":"levelo_inurba_marseille","lat":43.31342,"lon":5.39701,"is_reserved":false,"is_disabled":false,"rental_uris":{"android":"levelo://app?vid=1be0e12d-c982-4197-8e20-7fc42fd9f189","ios":"levelo://app?vid=1be0e12d-c982-4197-8e20-7fc42fd9f189"},"vehicle_type_id":"4","last_reported":1758409696,"current_range_meters":17200,"station_id":"ce4bgvp2rcd13ifvqcu0","pricing_plan_id":"cebpf4jnsgd1na2vs0mg"},{"bike_id":"0065077e-a5db-4d04-9f01-0c947dd43c88","system_id":"levelo_inurba_marseille","lat":43.28938,"lon":5.36391,"is_reserved":false,"is_disabled":true,"rental_uris":{"android":"levelo://app?vid=0065077e-a5db-4d04-9f01-0c947dd43c88","ios":"levelo://app?vid=0065077e-a5db-4d04-9f01-0c947dd43c88"},"vehicle_type_id":"4","last_reported":1758409696,"current_range_meters":17200,"station_id":"ce4bhc92rcd13ifvqetg","pricing_plan_id":"cebpf4jnsgd1na2vs0mg"},{"bike_id":"6d0ef348-fd86-4c26-9096-d229d04ea986","system_id":"levelo_inurba_marseille","lat":43.279,"lon":5.40556,"is_reserved":false,"is_disabled":true,"rental_uris":{"android":"levelo://app?vid=6d0ef348-fd86-4c26-9096-d229d04ea986","ios":"levelo://app?vid=6d0ef348-fd86-4c26-9096-d229d04ea986"},"vehicle_type_id":"4","last_reported":1758409696,"current_range_meters":17600,"station_id":"","pricing_plan_id":"cebpf4jnsgd1na2vs0mg"},{"bike_id":"9176512c-2cc1-4df2-a8e0-6be514fbcdbf","system_id":"levelo_inurba_marseille","lat":43.33748,"lon":5.37465,"is_reserved":false,"is_disabled":false,"rental_uris":{"android":"levelo://app?vid=9176512c-2cc1-4df2-a8e0-6be514fbcdbf","ios":"levelo://app?vid=9176512c-2cc1-4df2-a8e0-6be514fbcdbf"},"vehicle_type_id":"4","last_reported":1758409696,"current_range_meters":17200,"station_id":"","pricing_plan_id":"cebpf4jnsgd1na2vs0mg"},{"bike_id":"a3a4206e-9698-40c4-99a7-c2a694b15382","system_id":"levelo_inurba_marseille","lat":43.2592,"lon":5.40905,"is_reserved":false,"is_disabled":false,"rental_uris":{"android":"levelo://app?vid=a3a4206e-9698-40c4-99a7-c2a694b15382","ios":"levelo://app?vid=a3a4206e-9698-40c4-99a7-c2a694b15382"},"vehicle_type_id":"4","last_reported":1758409696,"current_range_meters":17200,"station_id":"ce4bhm92rcd13ifvqglg","pricing_plan_id":"cebpf4jnsgd1na2vs0mg"},{"bike_id":"44c800cb-28ba-4fbd-960b-0db50e079abc","system_id":"levelo_inurba_marseille","lat":43.29526,"lon":5.38535,"is_reserved":false,"is_disabled":false,"rental_uris":{"android":"levelo://app?vid=44c800cb-28ba-4fbd-960b-0db50e079abc","ios":"levelo://app?vid=44c800cb-28ba-4fbd-960b-0db50e079abc"},"vehicle_type_id":"4","last_reported":1758409696,"current_range_meters":17200,"station_id":"ce4bgih2rcd13ifvqba0","pricing_plan_id":"cebpf4jnsgd1na2vs0mg"},