{"last_updated":1748243566,"ttl":60,"version":"2.2","data":{"bikes":[{"bike_id":"7a64ee88-a427-4341-aef9-ad40b9faadd0","system_id":"levelo_inurba_marseille","lat":43.2819,"lon":5.39064,"is_reserved":false,"is_disabled":false,"rental_uris":{"android":"levelo://app?vid=7a64ee88-a427-4341-aef9-ad40b9faadd0","ios":"levelo://app?vid=7a64ee88-a427-4341-aef9-ad40b9faadd0"},"vehicle_type_id":"4","last_reported":1748243566,"current_range_meters":2800,"station_id":"","pricing_plan_id":"cebpf4jnsgd1na2vs0mg"},{"bike_id":"d4e5e6cf-b801-46c6-a8f9-317659f874a9","system_id":"levelo_inurba_marseille","lat":43.2511,"lon":5.40326,"is_reserved":false,"is_disabled":false,"rental_uris":{"android":"levelo://app?vid=d4e5e6cf-b801-46c6-a8f9-317659f874a9","ios":"levelo://app?vid=d4e5e6cf-b801-46c6-a8f9-317659f874a9"},"vehicle_type_id":"4","last_reported":1748243566,"current_range_meters":2800,"station_id":"ce4bhlh2rcd13ifvqgig","pricing_plan_id":"cebpf4jnsgd1na2vs0mg"},{"bike_id":"bf312380-a99d-4d31-be71-ded1c0b8d112","system_id":"levelo_inurba_marseille","lat":43.27497,"lon":5.42449,"is_reserved":false,"is_disabled":false,"rental_uris":{"android":"levelo://app?vid=bf312380-a99d-4d31-be71-ded1c0b8d112","ios":"levelo://app?vid=bf312380-a99d-4d31-be71-ded1c0b8d112"},"vehicle_type_id":"4","last_reported":1748243566,"current_range_meters":2800,"station_id":"ce4bhn92rcd13ifvqgrg","pricing_plan_id":"cebpf4jnsgd1na2vs0mg"},{"bike_id":"b1b20d28-81d1-417e-b362-7126d798ae30","system_id":"levelo_inurba_marseille","lat":43.299368,"lon":5.365523,"is_reserved":false,"is_disabled":false,"rental_uris":{"android":"levelo://app?vid=b1b20d28-81d1-417e-b362-7126d798ae30","ios":"levelo://app?vid=b1b20d28-81d1-417e-b362-7126d798ae30"},"vehicle_type_id":"4","last_reported":1748243566,"current_range_meters":2800,"station_id":"ce4bgm92rcd13ifvqbr0","pricing_plan_id":"cebpf4jnsgd1na2vs0mg"},{"bike_id":"43948e8e-fb2f-4861-887a-9f2942244d51","system_id":"levelo_inurba_marseille","lat":43.29374,"lon":5.40243,"is_reserved":false,"is_disabled":false,"rental_uris":{"android":"levelo://app?vid=43948e8e-fb2f-4861-887a-9f2942244d51","ios":"levelo://app?vid=43948e8e-fb2f-4861-887a-9f2942244d51"},"vehicle_type_id":"4","last_reported":1748243566,"current_range_meters":3200,"station_id":"","pricing_plan_id":"cebpf4jnsgd1na2vs0mg"},{"bike_id":"18089c1e-9560-4732-888e-a795882eea5e","system_id":"levelo_inurba_marseille","lat":43.31349,"lon":5.36724,"is_reserved":false,"is_disabled":false,"rental_uris":{"android":"levelo://app?vid=18089c1e-9560-4732-888e-a795882eea5e","ios":"levelo://app?vid=18089c1e-9560-4732-888e-a795882eea5e"},"vehicle_type_id":"4","last_reported":1748243566,"current_range_meters":3200,"station_id":"ce4bgr92rcd13ifvqc6g","pricing_plan_id":"cebpf4jnsgd1na2vs0mg"},{"bike_id":"fd0953c8-7a6d-47d2-b492-80420409d735","system_id":"levelo_inurba_marseille","lat":43.2396,"lon":5.3663,"is_reserved":false,"is_disabled":false,"rental_uris":{"android":"levelo://app?vid=fd0953c8-7a6d-47d2-b492-80420409d735","ios":"levelo://app?vid=fd0953c8-7a6d-47d2-b492-80420409d735"},"vehicle_type_id":"4","last_reported":1748243566,"current_range_meters":3200,"station_id":"ce4bhi12rcd13ifvqfp0","pricing_plan_id":"cebpf4jnsgd1na2vs0mg"},{"bike_id":"208c522e-b6a0-4c05-b11c-a3bacee7af91","system_id":"levelo_inurba_marseille","lat":43.29809,"lon":5.38103,"is_reserved":false,"is_disabled":false,"rental_uris":{"android":"levelo://app?vid=208c522e-b6a0-4c05-b11c-a3bacee7af91","ios":"levelo://app?vid=208c522e-b6a0-4c05-b11c-a3bacee7af91"},"vehicle_type_id":"4","last_reported":1748243566,"current_range_meters":3200,"station_id":"ce4bgip2rcd13ifvqbb0","pricing_plan_id":"cebpf4jnsgd1na2vs0mg"},{"bike_id":"87dc1d45-464b-416b-81d6-10b093bfc1ae","system_id":"levelo_inurba_marseille","lat":43.270728,"lon":5.42291,"is_reserved":false,"is_disabled":false,"rental_uris":{"android":"levelo://app?vid=87dc1d45-464b-416b-81d6-10b093bfc1ae","ios":"levelo://app?vid=87dc1d45-464b-416b-81d6-10b093bfc1ae"},"vehicle_type_id":"4","last_reported":1748243566,"current_range_meters":3200,"station_id":"ce4bhk92rcd13ifvqgb0","pricing_plan_id":"cebpf4jnsgd1na2vs0mg"},{"bike_id":"2492633e-3c8b-4118-8fac-45c0165355c4","system_id":"levelo_inurba_marseille","lat":43.3134,"lon":5.36707,"is_reserved":false,"is_disabled":false,"rental_uris":{"android":"levelo://app?vid=2492633e-3c8b-4118-8fac-45c0165355c4","ios":"levelo://app?vid=2492633e-3c8b-4118-8fac-45c0165355c4"},"vehicle_type_id":"4","last_reported":1748243566,"current_range_meters":3200,"station_id":"ce4bgr92rcd13ifvqc6g","pricing_plan_id":"cebpf4jnsgd1na2vs0mg"},{"bike_id":"3581c28c-41f2-4cb7-b494-0448776c0438","system_id":"levelo_inurba_marseille","lat":43.296329,"lon":5.360392,"is_reserved":false,"is_disabled":false,"rental_uris":{"android":"levelo://app?vid=3581c28c-41f2-4cb7-b494-0448776c0438","ios":"levelo://app?vid=3581c28c-41f2-4cb7-b494-0448776c0438"},"vehicle_type_id":"4","last_reported":1748243566,"current_range_meters":3600,"station_id":"","pricing_plan_id":"cebpf4jnsgd1na2vs0mg"},{"bike_id":"0ddf2b5a-1565-4aab-be09-ecef369e20f0","system_id":"levelo_inurba_marseille","lat":43.298963,"lon":5.381193,"is_reserved":false,"is_disabled":false,"rental_uris":{"android":"levelo://app?vid=0ddf2b5a-1565-4aab-be09-ecef369e20f0","ios":"levelo://app?vid=0ddf2b5a-1565-4aab-be09-ecef369e20f0"},"vehicle_type_id":"4","last_reported":1748243566,"current_range_meters":3600,"station_id":"ce4bgj12rcd13ifvqbc0","pricing_plan_id":"cebpf4jnsgd1na2vs0mg"},{"bike_id":"84b1d1a2-2301-4f7e-8fde-ecd5a1274476","system_id":"levelo_inurba_marseille","lat":43.27078,"lon":5.42259,"is_reserved":false,"is_disabled":false,"rental_uris":{"android":"levelo://app?vid=84b1d1a2-2301-4f7e-8fde-ecd5a1274476","ios":"levelo://app?vid=84b1d1a2-2301-4f7e-8fde-ecd5a1274476"},"vehicle_type_id":"4","last_reported":1748243566,"current_range_meters":3600,"station_id":"ce4bhk92rcd13ifvqgb0","pricing_plan_id":"cebpf4jnsgd1na2vs0mg"},{"bike_id":"12ce5012-e749-4cdb-b2a6-14f8521b031f","system_id":"levelo_inurba_marseille","lat":43.273422,"lon":5.361547,"is_reserved":false,"is_disabled":false,"rental_uris":{"android":"levelo://app?vid=12ce5012-e749-4cdb-b2a6-14f8521b031f","ios":"levelo://app?vid=12ce5012-e749-4cdb-b2a6-14f8521b031f"},"vehicle_type_id":"4","last_reported":1748243566,"current_range_meters":3600,"station_id":"","pricing_plan_id":"cebpf4jnsgd1na2vs0mg"},{"bike_id":"0087d3e2-76af-4192-acae-b83fc9d34b4e","system_id":"levelo_inurba_marseille","lat":43.26497,"lon":5.39539,"is_reserved":false,"is_disabled":false,"rental_uris":{"android":"levelo://app?vid=0087d3e2-76af-4192-acae-b83fc9d34b4e","ios":"levelo://app?vid=0087d3e2-76af-4192-acae-b83fc9d34b4e"},"vehicle_type_id":"4","last_reported":1748243566,"current_range_meters":4000,"station_id":"ce4bhi12rcd13ifvqfq0","pricing_plan_id":"cebpf4jnsgd1na2vs0mg"},{"bike_id":"4d18815d-035b-4827-a51e-58638fcfdfa3","system_id":"levelo_inurba_marseille","lat":43.23192,"lon":5.39984,"is_reserved":false,"is_disabled":true,"rental_uris":{"android":"levelo://app?vid=4d18815d-035b-4827-a51e-58638fcfdfa3","ios":"levelo://app?vid=4d18815d-035b-4827-a51e-58638fcfdfa3"},"vehicle_type_id":"4","last_reported":1748243566,"current_range_meters":4000,"station_id":"ce4bhn12rcd13ifvqgqg","pricing_plan_id":"cebpf4jnsgd1na2vs0mg"},{"bike_id":"ae505e71-4490-4255-add0-3e38207d74a0","system_id":"levelo_inurba_marseille","lat":43.26955,"lon":5.38632,"is_reserved":false,"is_disabled":false,"rental_uris":{"android":"levelo://app?vid=ae505e71-4490-4255-add0-3e38207d74a0","ios":"levelo://app?vid=ae505e71-4490-4255-add0-3e38207d74a0"},"vehicle_type_id":"4","last_reported":1748243566,"current_range_meters":4000,"station_id":"ce4bhh92rcd13ifvqfh0","pricing_plan_id":"cebpf4jnsgd1na2vs0mg"},{"bike_id":"aac9c48f-b327-4918-8651-b52a28977ca9","system_id":"levelo_inurba_marseille","lat":43.30907,"lon":5.36839,"is_reserved":false,"is_disabled":false,"rental_uris":{"android":"levelo://app?vid=aac9c48f-b327-4918-8651-b52a28977ca9","ios":"levelo://app?vid=aac9c48f-b327-4918-8651-b52a28977ca9"},"vehicle_type_id":"4","last_reported":1748243566,"current_range_meters":4000,"station_id":"ce4bgn92rcd13ifvqbvg","pricing_plan_id":"cebpf4jnsgd1na2vs0mg"},{"bike_id":"8f53feaa-6d22-4532-84b5-f888071d715e","system_id":"levelo_inurba_marseille","lat":43.26566,"lon":5.39009,"is_reserved":false,"is_disabled":false,"rental_uris":{"android":"levelo://app?vid=8f53feaa-6d22-4532-84b5-f888071d715e","ios":"levelo://app?vid=8f53feaa-6d22-4532-84b5-f888071d715e"},"vehicle_type_id":"4","last_reported":1748243566,"current_range_meters":4000,"station_id":"ce4bhe12rcd13ifvqf30","pricing_plan_id":"cebpf4jnsgd1na2vs0mg"},{"bike_id":"88ac5a91-56d3-4573-b0f2-5c6bbb7d986b","system_id":"levelo_inurba_marseille","lat":43.2612,"lon":5.397,"is_reserved":false,"is_disabled":false,"rental_uris":{"android":"levelo://app?vid=88ac5a91-56d3-4573-b0f2-5c6bbb7d986b","ios":"levelo://app?vid=88ac5a91-56d3-4573-b0f2-5c6bbb7d986b"},"vehicle_type_id":"4","last_reported":1748243566,"current_range_meters":4000,"station_id":"","pricing_plan_id":"cebpf4jnsgd1na2vs0mg"},{"bike_id":"7095683f-3da8-4b38-bb14-4c6590f2ed62","system_id":"levelo_inurba_marseille","lat":43.24071,"lon":5.37763,"is_reserved":false,"is_disabled":false,"rental_uris":{"android":"levelo://app?vid=7095683f-3da8-4b38-bb14-4c6590f2ed62","ios":"levelo://app?vid=7095683f-3da8-4b38-bb14-4c6590f2ed62"},"vehicle_type_id":"4","last_reported":1748243566,"current_range_meters":4400,"station_id":"ce4bhnp2rcd13ifvqgvg","pricing_plan_id":"cebpf4jnsgd1na2vs0mg"},{"bike_id":"de07952d-a371-4493-9f81-56aee58c254b","system_id":"levelo_inurba_marseille","lat":43.29037,"lon":5.37571,"is_reserved":false,"is_disabled":false,"rental_uris":{"android":"levelo://app?vid=de07952d-a371-4493-9f81-56aee58c254b","ios":"levelo://app?vid=de07952d-a371-4493-9f81-56aee58c254b"},"vehicle_type_id":"4","last_reported":1748243566,"current_range_meters":4400,"station_id":"ce4bh692rcd13ifvqe90","pricing_plan_id":"cebpf4jnsgd1na2vs0mg"},{"bike_id":"aeb9ef90-389d-4ef3-899b-0a0feff09a32","system_id":"levelo_inurba_marseille","lat":43.313543,"lon":5.38041,"is_reserved":false,"is_disabled":false,"rental_uris":{"android":"levelo://app?vid=aeb9ef90-389d-4ef3-899b-0a0feff09a32","ios":"levelo://app?vid=aeb9ef90-389d-4ef3-899b-0a0feff09a32"},"vehicle_type_id":"4","last_reported":1748243566,"current_range_meters":4400,"station_id":"","pricing_plan_id":"cebpf4jnsgd1na2vs0mg"},{"bike_id":"bac4d4f2-cbac-4aef-88fb-c759c7b96d6f","system_id":"levelo_inurba_marseille","lat":43.26943,"lon":5.38636,"is_reserved":false,"is_disabled":true,"rental_uris":{"android":"levelo://app?vid=bac4d4f2-cbac-4aef-88fb-c759c7b96d6f","ios":"levelo://app?vid=bac4d4f2-cbac-4aef-88fb-c759c7b96d6f"},"vehicle_type_id":"4","last_reported":1748243566,"current_range_meters":4400,"station_id":"ce4bhh92rcd13ifvqfh0","pricing_plan_id":"cebpf4jnsgd1na2vs0mg"},{"bike_id":"8151f140-4793-4659-94aa-4a4bc4d7aec3","system_id":"levelo_inurba_marseille","lat":43.30125,"lon":5.37438,"is_reserved":false,"is_disabled":false,"rental_uris":{"android":"levelo://app?vid=8151f140-4793-4659-94aa-4a4bc4d7aec3","ios":"levelo://app?vid=8151f140-4793-4659-94aa-4a4bc4d7aec3"},"vehicle_type_id":"4","last_reported":1748243566,"current_range_meters":4400,"station_id":"ce4bgs92rcd13ifvqcc0","pricing_plan_id":"cebpf4jnsgd1na2vs0mg"},{"bike_id":"352a7e20-ea98-47e9-92de-6011e56fbab8","system_id":"levelo_inurba_marseille","lat":43.290991,"lon":5.381328,"is_reserved":false,"is_disabled":false,"rental_uris":{"android":"levelo://app?vid=352a7e20-ea98-47e9-92de-6011e56fbab8","ios":"levelo://app?vid=352a7e20-ea98-47e9-92de-6011e56fbab8"},"vehicle_type_id":"4","last_reported":1748243566,"current_range_meters":4800,"station_id":"ce4bh512rcd13ifvqe2g","pricing_plan_id":"cebpf4jnsgd1na2vs0mg"},{"bike_id":"fc8c72ad-ca61-42c6-ae90-f61b57e45328","system_id":"levelo_inurba_marseille","lat":43.27892,"lon":5.41856,"is_reserved":false,"is_disabled":false,"rental_uris":{"android":"levelo://app?vid=fc8c72ad-ca61-42c6-ae90-f61b57e45328","ios":"levelo://app?vid=fc8c72ad-ca61-42c6-ae90-f61b57e45328"},"vehicle_type_id":"4","last_reported":1748243566,"current_range_meters":4800,"station_id":"","pricing_plan_id":"cebpf4jnsgd1na2vs0mg"},{"bike_id":"0e615c4a-9509-4d8f-9886-8bdf9d3836c3","system_id":"levelo_inurba_marseille","lat":43.26925,"lon":5.38919,"is_reserved":false,"is_disabled":false,"rental_uris":{"android":"levelo://app?vid=0e615c4a-9509-4d8f-9886-8bdf9d3836c3","ios":"levelo://app?vid=0e615c4a-9509-4d8f-9886-8bdf9d3836c3"},"vehicle_type_id":"4","last_reported":1748243566,"current_range_meters":4800,"station_id":"ce4bhhh2rcd13ifvqfl0","pricing_plan_id":"cebpf4jnsgd1na2vs0mg"},{"bike_id":"572ea268-9256-4619-be00-bc85f00bafad","system_id":"levelo_inurba_marseille","lat":43.24151,"lon":5.36412,"is_reserved":false,"is_disabled":false,"rental_uris":{"android":"levelo://app?vid=572ea268-9256-4619-be00-bc85f00bafad","ios":"levelo://app?vid=572ea268-9256-4619-be00-bc85f00bafad"},"vehicle_type_id":"4","last_reported":1748243566,"current_range_meters":4800,"station_id":"cpo36qri1sfpv3e86is0","pricing_plan_id":"cebpf4jnsgd1na2vs0mg"},{"bike_id":"c0325048-56cb-433c-be41-493d0fd45953","system_id":"levelo_inurba_marseille","lat":43.29196,"lon":5.39324,"is_reserved":false,"is_disabled":false,"rental_uris":{"android":"levelo://app?vid=c0325048-56cb-433c-be41-493d0fd45953","ios":"levelo://app?vid=c0325048-56cb-433c-be41-493d0fd45953"},"vehicle_type_id":"4","last_reported":1748243566,"current_range_meters":4800,"station_id":"ce4bh192rcd13ifvqdd0","pricing_plan_id":"cebpf4jnsgd1na2vs0mg"},{"bike_id":"22e00032-1bd7-4be2-a425-b956a5212528","system_id":"levelo_inurba_marseille","lat":43.29372,"lon":5.37838,"is_reserved":false,"is_disabled":false,"rental_uris":{"android":"levelo://app?vid=22e00032-1bd7-4be2-a425-b956a5212528","ios":"levelo://app?vid=22e00032-1bd7-4be2-a425-b956a5212528"},"vehicle_type_id":"4","last_reported":1748243566,"current_range_meters":5600,"station_id":"ce4bgjh2rcd13ifvqbf0","pricing_plan_id":"cebpf4jnsgd1na2vs0mg"},{"bike_id":"be056168-c1af-471e-b724-1992cbce9c45","system_id":"levelo_inurba_marseille","lat":43.292629,"lon":5.401584,"is_reserved":false,"is_disabled":false,"rental_uris":{"android":"levelo://app?vid=be056168-c1af-471e-b724-1992cbce9c45","ios":"levelo://app?vid=be056168-c1af-471e-b724-1992cbce9c45"},"vehicle_type_id":"4","last_reported":1748243566,"current_range_meters":5600,"station_id":"ce4bh312rcd13ifvqdk0","pricing_plan_id":"cebpf4jnsgd1na2vs0mg"},{"bike_id":"04aff09d-30da-4fe9-81d9-495d0c5a354f","system_id":"levelo_inurba_marseille","lat":43.28942,"lon":5.39628,"is_reserved":false,"is_disabled":false,"rental_uris":{"android":"levelo://app?vid=04aff09d-30da-4fe9-81d9-495d0c5a354f","ios":"levelo://app?vid=04aff09d-30da-4fe9-81d9-495d0c5a354f"},"vehicle_type_id":"4","last_reported":1748243566,"current_range_meters":5600,"station_id":"ce4bh3h2rcd13ifvqdn0","pricing_plan_id":"cebpf4jnsgd1na2vs0mg"},{"bike_id":"6cfcf75c-780e-40f0-a07f-2f1d74871175","system_id":"levelo_inurba_marseille","lat":43.29775,"lon":5.37252,"is_reserved":false,"is_disabled":true,"rental_uris":{"android":"levelo://app?vid=6cfcf75c-780e-40f0-a07f-2f1d74871175","ios":"levelo://app?vid=6cfcf75c-780e-40f0-a07f-2f1d74871175"},"vehicle_type_id":"4","last_reported":1748243566,"current_range_meters":5600,"station_id":"","pricing_plan_id":"cebpf4jnsgd1na2vs0mg"},{"bike_id":"b72ccfd1-35cf-4b02-9c1a-90aef7c74e5f","system_id":"levelo_inurba_marseille","lat":43.24874,"lon":5.44189,"is_reserved":false,"is_disabled":false,"rental_uris":{"android":"levelo://app?vid=b72ccfd1-35cf-4b02-9c1a-90aef7c74e5f","ios":"levelo://app?vid=b72ccfd1-35cf-4b02-9c1a-90aef7c74e5f"},"vehicle_type_id":"4","last_reported":1748243566,"current_range_meters":5600,"station_id":"","pricing_plan_id":"cebpf4jnsgd1na2vs0mg"},{"bike_id":"da453a88-f81b-4e0f-9781-5a7f6c1d364c","system_id":"levelo_inurba_marseille","lat":43.337499,"lon":5.374469,"is_reserved":false,"is_disabled":false,"rental_uris":{"android":"levelo://app?vid=da453a88-f81b-4e0f-9781-5a7f6c1d364c","ios":"levelo://app?vid=da453a88-f81b-4e0f-9781-5a7f6c1d364c"},"vehicle_type_id":"4","last_reported":1748243566,"current_range_meters":6000,"station_id":"","pricing_plan_id":"cebpf4jnsgd1na2vs0mg"},{"bike_id":"9e63335a-2dc0-4a9e-b7c0-1f542d8ece3b","system_id":"levelo_inurba_marseille","lat":43.33184,"lon":5.37896,"is_reserved":false,"is_disabled":true,"rental_uris":{"android":"levelo://app?vid=9e63335a-2dc0-4a9e-b7c0-1f542d8ece3b","ios":"levelo://app?vid=9e63335a-2dc0-4a9e-b7c0-1f542d8ece3b"},"vehicle_type_id":"4","last_reported":1748243566,"current_range_meters":6000,"station_id":"","pricing_plan_id":"cebpf4jnsgd1na2vs0mg"},{"bike_id":"105d56f3-e8cf-41b8-b0d9-5038295cb631","system_id":"levelo_inurba_marseille","lat":43.21211,"lon":5.35051,"is_reserved":false,"is_disabled":false,"rental_uris":{"android":"levelo://app?vid=105d56f3-e8cf-41b8-b0d9-5038295cb631","ios":"levelo://app?vid=105d56f3-e8cf-41b8-b0d9-5038295cb631"},"vehicle_type_id":"4","last_reported":1748243566,"current_range_meters":6000,"station_id":"","pricing_plan_id":"cebpf4jnsgd1na2vs0mg"},{"bike_id":"b3836e6a-b05b-4ba7-ae61-833bde9258fe","system_id":"levelo_inurba_marseille","lat":43.32926,"lon":5.4519,"is_reserved":false,"is_disabled":false,"rental_uris":{"android":"levelo://app?vid=b3836e6a-b05b-4ba7-ae61-833bde9258fe","ios":"levelo://app?vid=b3836e6a-b05b-4ba7-ae61-833bde9258fe"},"vehicle_type_id":"4","last_reported":1748243566,"current_range_meters":6000,"station_id":"","pricing_plan_id":"cebpf4jnsgd1na2vs0mg"},{"bike_id":"22100108-0abe-44fd-a9c2-dcb431835f6e","system_id":"levelo_inurba_marseille","lat":43.24062,"lon":5.3774,"is_reserved":false,"is_disabled":false,"rental_uris":{"android":"levelo://app?vid=22100108-0abe-44fd-a9c2-dcb431835f6e","ios":"levelo://app?vid=22100108-0abe-44fd-a9c2-dcb431835f6e"},"vehicle_type_id":"4","last_reported":1748243566,"current_range_meters":6000,"station_id":"ce4bhnp2rcd13ifvqgvg","pricing_plan_id":"cebpf4jnsgd1na2vs0mg"},{"bike_id":"1fa18c39-4753-45db-903d-3dccf32547c4","system_id":"levelo_inurba_marseille","lat":43.27566,"lon":5.38412,"is_reserved":false,"is_disabled":false,"rental_uris":{"android":"levelo://app?vid=1fa18c39-4753-45db-903d-3dccf32547c4","ios":"levelo://app?vid=1fa18c39-4753-45db-903d-3dccf32547c4"},"vehicle_type_id":"4","last_reported":1748243566,"current_range_meters":6000,"station_id":"ce4bhh92rcd13ifvqfi0","pricing_plan_id":"cebpf4jnsgd1na2vs0mg"},{"bike_id":"e8fa7405-1174-4ec6-ac79-104273598283","system_id":"levelo_inurba_marseille","lat":43.30664,"lon":5.40091,"is_reserved":false,"is_disabled":true,"rental_uris":{"android":"levelo://app?vid=e8fa7405-1174-4ec6-ac79-104273598283","ios":"levelo://app?vid=e8fa7405-1174-4ec6-ac79-104273598283"},"vehicle_type_id":"4","last_reported":1748243566,"current_range_meters":6400,"station_id":"ce4bh112rcd13ifvqda0","pricing_plan_id":"cebpf4jnsgd1na2vs0mg"},{"bike_id":"94cb9274-b163-4d37-bc1b-7cf100d6894e","system_id":"levelo_inurba_marseille","lat":43.29038,"lon":5.39962,"is_reserved":false,"is_disabled":false,"rental_uris":{"android":"levelo://app?vid=94cb9274-b163-4d37-bc1b-7cf100d6894e","ios":"levelo://app?vid=94cb9274-b163-4d37-bc1b-7cf100d6894e"},"vehicle_type_id":"4","last_reported":1748243566,"current_range_meters":6400,"station_id":"ce4bh392rcd13ifvqdm0","pricing_plan_id":"cebpf4jnsgd1na2vs0mg"},{"bike_id":"0def6b0b-35dc-459f-b751-e982c557ed8a","system_id":"levelo_inurba_marseille","lat":43.30887,"lon":5.39656,"is_reserved":false,"is_disabled":false,"rental_uris":{"android":"levelo://app?vid=0def6b0b-35dc-459f-b751-e982c557ed8a","ios":"levelo://app?vid=0def6b0b-35dc-459f-b751-e982c557ed8a"},"vehicle_type_id":"4","last_reported":1748243566,"current_range_meters":6400,"station_id":"ce4bh012rcd13ifvqcv0","pricing_plan_id":"cebpf4jnsgd1na2vs0mg"},{"bike_id":"914408ff-827e-4cdd-9ef7-a8f527a43c05","system_id":"levelo_inurba_marseille","lat":43.29021,"lon":5.39978,"is_reserved":false,"is_disabled":false,"rental_uris":{"android":"levelo://app?vid=914408ff-827e-4cdd-9ef7-a8f527a43c05","ios":"levelo://app?vid=914408ff-827e-4cdd-9ef7-a8f527a43c05"},"vehicle_type_id":"4","last_reported":1748243566,"current_range_meters":6400,"station_id":"ce4bh392rcd13ifvqdm0","pricing_plan_id":"cebpf4jnsgd1na2vs0mg"},{"bike_id":"1da35f9f-f4ec-4f7e-81f7-49dd3c19bd7a","system_id":"levelo_inurba_marseille","lat":43.26465,"lon":5.41869,"is_reserved":false,"is_disabled":false,"rental_uris":{"android":"levelo://app?vid=1da35f9f-f4ec-4f7e-81f7-49dd3c19bd7a","ios":"levelo://app?vid=1da35f9f-f4ec-4f7e-81f7-49dd3c19bd7a"},"vehicle_type_id":"4","last_reported":1748243566,"current_range_meters":6400,"station_id":"","pricing_plan_id":"cebpf4jnsgd1na2vs0mg"},{"bike_id":"d9fa0449-e47c-4bbe-a91c-4939cab5d888","system_id":"levelo_inurba_marseille","lat":43.28537,"lon":5.42618,"is_reserved":false,"is_disabled":false,"rental_uris":{"android":"levelo://app?vid=d9fa0449-e47c-4bbe-a91c-4939cab5d888","ios":"levelo://app?vid=d9fa0449-e47c-4bbe-a91c-4939cab5d888"},"vehicle_type_id":"4","last_reported":1748243566,"current_range_meters":6400,"station_id":"","pricing_plan_id":"cebpf4jnsgd1na2vs0mg"},{"bike_id":"25f41b63-aaec-4dab-a12e-63816308bb92","system_id":"levelo_inurba_marseille","lat":43.29261,"lon":5.37631,"is_reserved":false,"is_disabled":false,"rental_uris":{"android":"levelo://app?vid=25f41b63-aaec-4dab-a12e-63816308bb92","ios":"levelo://app?vid=25f41b63-aaec-4dab-a12e-63816308bb92"},"vehicle_type_id":"4","last_reported":1748243566,"current_range_meters":6400,"station_id":"ce4bgi12rcd13ifvqb80","pricing_plan_id":"cebpf4jnsgd1na2vs0mg"},{"bike_id":"4c572631-4468-404e-b6c2-dd4a4b3174f2","system_id":"levelo_inurba_marseille","lat":43.288039,"lon":5.363367,"is_reserved":false,"is_disabled":false,"rental_uris":{"android":"levelo://app?vid=4c572631-4468-404e-b6c2-dd4a4b3174f2","ios":"levelo://app?vid=4c572631-4468-404e-b6c2-dd4a4b3174f2"},"vehicle_type_id":"4","last_reported":1748243566,"current_range_meters":6400,"station_id":"","pricing_plan_id":"cebpf4jnsgd1na2vs0mg"},{"bike_id":"c3289047-8b25-4e99-8a60-2e24493769f4","system_id":"levelo_inurba_marseille","lat":43.284768,"lon":5.384156,"is_reserved":false,"is_disabled":false,"rental_uris":{"android":"levelo://app?vid=c3289047-8b25-4e99-8a60-2e24493769f4","ios":"levelo://app?vid=c3289047-8b25-4e99-8a60-2e24493769f4"},"vehicle_type_id":"4","last_reported":1748243566,"current_range_meters":6400,"station_id":"ce4bh512rcd13ifvqe3g","pricing_plan_id":"cebpf4jnsgd1na2vs0mg"},{"bike_id":"2c9d32a3-1f55-40ab-91c2-a327cb27f43e","system_id":"levelo_inurba_marseille","lat":43.29842,"lon":5.36271,"is_reserved":false,"is_disabled":false,"rental_uris":{"android":"levelo://app?vid=2c9d32a3-1f55-40ab-91c2-a327cb27f43e","ios":"levelo://app?vid=2c9d32a3-1f55-40ab-91c2-a327cb27f43e"},"vehicle_type_id":"4","last_reported":1748243566,"current_range_meters":6400,"station_id":"ce4bgpp2rcd13ifvqc3g","pricing_plan_id":"cebpf4jnsgd1na2vs0mg"},{"bike_id":"c1450594-a07e-481e-8ce6-065c5ef09f24","system_id":"levelo_inurba_marseille","lat":43.246644,"lon":5.38179,"is_reserved":false,"is_disabled":true,"rental_uris":{"android":"levelo://app?vid=c1450594-a07e-481e-8ce6-065c5ef09f24","ios":"levelo://app?vid=c1450594-a07e-481e-8ce6-065c5ef09f24"},"vehicle_type_id":"4","last_reported":1748243566,"current_range_meters":6400,"station_id":"ce4bhih2rcd13ifvqfr0","pricing_plan_id":"cebpf4jnsgd1na2vs0mg"},{"bike_id":"dab7ee0d-f820-455c-89c6-13e25f106faf","system_id":"levelo_inurba_marseille","lat":43.32324,"lon":5.419985,"is_reserved":false,"is_disabled":false,"rental_uris":{"android":"levelo://app?vid=dab7ee0d-f820-455c-89c6-13e25f106faf","ios":"levelo://app?vid=dab7ee0d-f820-455c-89c6-13e25f106faf"},"vehicle_type_id":"4","last_reported":1748243566,"current_range_meters":6400,"station_id":"","pricing_plan_id":"cebpf4jnsgd1na2vs0mg"},{"bike_id":"64a5d3aa-73bc-4aa3-8aba-8805df2105bd","system_id":"levelo_inurba_marseille","lat":43.3361,"lon":5.41028,"is_reserved":false,"is_disabled":false,"rental_uris":{"android":"levelo://app?vid=64a5d3aa-73bc-4aa3-8aba-8805df2105bd","ios":"levelo://app?vid=64a5d3aa-73bc-4aa3-8aba-8805df2105bd"},"vehicle_type_id":"4","last_reported":1748243566,"current_range_meters":6800,"station_id":"ce4bhqh2rcd13ifvqhmg","pricing_plan_id":"cebpf4jnsgd1na2vs0mg"},{"bike_id":"985dfe2e-48ab-4438-8b44-7034bccf028e","system_id":"levelo_inurba_marseille","lat":43.27016,"lon":5.39851,"is_reserved":false,"is_disabled":false,"rental_uris":{"android":"levelo://app?vid=985dfe2e-48ab-4438-8b44-7034bccf028e","ios":"levelo://app?vid=985dfe2e-48ab-4438-8b44-7034bccf028e"},"vehicle_type_id":"4","last_reported":1748243566,"current_range_meters":6800,"station_id":"","pricing_plan_id":"cebpf4jnsgd1na2vs0mg"},{"bike_id":"5b71d3b8-bc70-4565-9235-21a1b8637fb4","system_id":"levelo_inurba_marseille","lat":43.29577,"lon":5.37519,"is_reserved":false,"is_disabled":false,"rental_uris":{"android":"levelo://app?vid=5b71d3b8-bc70-4565-9235-21a1b8637fb4","ios":"levelo://app?vid=5b71d3b8-bc70-4565-9235-21a1b8637fb4"},"vehicle_type_id":"4","last_reported":1748243566,"current_range_meters":6800,"station_id":"ce4bgh92rcd13ifvqb50","pricing_plan_id":"cebpf4jnsgd1na2vs0mg"},{"bike_id":"d7ab41ec-159d-4e91-ad66-69e96c91aacd","system_id":"levelo_inurba_marseille","lat":43.23051,"lon":5.35505,"is_reserved":false,"is_disabled":true,"rental_uris":{"android":"levelo://app?vid=d7ab41ec-159d-4e91-ad66-69e96c91aacd","ios":"levelo://app?vid=d7ab41ec-159d-4e91-ad66-69e96c91aacd"},"vehicle_type_id":"4","last_reported":1748243566,"current_range_meters":6800,"station_id":"cpo3342slgdg3j2ifvpg","pricing_plan_id":"cebpf4jnsgd1na2vs0mg"},{"bike_id":"764aa4a5-fdf1-45d2-8d85-f92b7302018b","system_id":"levelo_inurba_marseille","lat":43.32172,"lon":5.44026,"is_reserved":false,"is_disabled":false,"rental_uris":{"android":"levelo://app?vid=764aa4a5-fdf1-45d2-8d85-f92b7302018b","ios":"levelo://app?vid=764aa4a5-fdf1-45d2-8d85-f92b7302018b"},"vehicle_type_id":"4","last_reported":1748243566,"current_range_meters":6800,"station_id":"","pricing_plan_id":"cebpf4jnsgd1na2vs0mg"},{"bike_id":"c3693970-0173-4f48-86b7-b4226fbb898a","system_id":"levelo_inurba_marseille","lat":43.231993,"lon":5.355317,"is_reserved":false,"is_disabled":false,"rental_uris":{"android":"levelo://app?vid=c3693970-0173-4f48-86b7-b4226fbb898a","ios":"levelo://app?vid=c3693970-0173-4f48-86b7-b4226fbb898a"},"vehicle_type_id":"4","last_reported":1748243566,"current_range_meters":6800,"station_id":"ce4bhu92rcd13ifvqi70","pricing_plan_id":"cebpf4jnsgd1na2vs0mg"},{"bike_id":"fa6a6e8f-296a-427f-9c00-47b0c336089e","system_id":"levelo_inurba_marseille","lat":43.29722,"lon":5.37678,"is_reserved":false,"is_disabled":false,"rental_uris":{"android":"levelo://app?vid=fa6a6e8f-296a-427f-9c00-47b0c336089e","ios":"levelo://app?vid=fa6a6e8f-296a-427f-9c00-47b0c336089e"},"vehicle_type_id":"4","last_reported":1748243566,"current_range_meters":6800,"station_id":"ce4bgkh2rcd13ifvqbl0","pricing_plan_id":"cebpf4jnsgd1na2vs0mg"},{"bike_id":"28ad5a43-71ae-4916-8625-c7e16f455fcf","system_id":"levelo_inurba_marseille","lat":43.31123,"lon":5.37767,"is_reserved":false,"is_disabled":false,"rental_uris":{"android":"levelo://app?vid=28ad5a43-71ae-4916-8625-c7e16f455fcf","ios":"levelo://app?vid=28ad5a43-71ae-4916-8625-c7e16f455fcf"},"vehicle_type_id":"4","last_reported":1748243566,"current_range_meters":6800,"station_id":"ce4bgt92rcd13ifvqcg0","pricing_plan_id":"cebpf4jnsgd1na2vs0mg"},{"bike_id":"7a221bb0-523d-4645-a593-f95d4f3934b9","system_id":"levelo_inurba_marseille","lat":43.29914,"lon":5.3748,"is_reserved":false,"is_disabled":false,"rental_uris":{"android":"levelo://app?vid=7a221bb0-523d-4645-a593-f95d4f3934b9","ios":"levelo://app?vid=7a221bb0-523d-4645-a593-f95d4f3934b9"},"vehicle_type_id":"4","last_reported":1748243566,"current_range_meters":7200,"station_id":"ce4bgjh2rcd13ifvqbg0","pricing_plan_id":"cebpf4jnsgd1na2vs0mg"},{"bike_id":"485f273b-98d9-4b2a-82e0-7e0b44b2ede8","system_id":"levelo_inurba_marseille","lat":43.3015,"lon":5.38092,"is_reserved":false,"is_disabled":false,"rental_uris":{"android":"levelo://app?vid=485f273b-98d9-4b2a-82e0-7e0b44b2ede8","ios":"levelo://app?vid=485f273b-98d9-4b2a-82e0-7e0b44b2ede8"},"vehicle_type_id":"4","last_reported":1748243566,"current_range_meters":7200,"station_id":"ce4bgjp2rcd13ifvqbh0","pricing_plan_id":"cebpf4jnsgd1na2vs0mg"},{"bike_id":"2d2080cd-0b90-4e6b-aa5a-a3e0ebe96c09","system_id":"levelo_inurba_marseille","lat":43.2593,"lon":5.40908,"is_reserved":false,"is_disabled":false,"rental_uris":{"android":"levelo://app?vid=2d2080cd-0b90-4e6b-aa5a-a3e0ebe96c09","ios":"levelo://app?vid=2d2080cd-0b90-4e6b-aa5a-a3e0ebe96c09"},"vehicle_type_id":"4","last_reported":1748243566,"current_range_meters":7200,"station_id":"ce4bhm92rcd13ifvqglg","pricing_plan_id":"cebpf4jnsgd1na2vs0mg"},{"bike_id":"4639b282-bd40-44f7-b1b1-8cb07eca63b4","system_id":"levelo_inurba_marseille","lat":43.31336,"lon":5.36708,"is_reserved":false,"is_disabled":false,"rental_uris":{"android":"levelo://app?vid=4639b282-bd40-44f7-b1b1-8cb07eca63b4","ios":"levelo://app?vid=4639b282-bd40-44f7-b1b1-8cb07eca63b4"},"vehicle_type_id":"4","last_reported":1748243566,"current_range_meters":7200,"station_id":"","pricing_plan_id":"cebpf4jnsgd1na2vs0mg"},{"bike_id":"de3cecbf-8944-40d7-9fa8-1db7312de011","system_id":"levelo_inurba_marseille","lat":43.297325,"lon":5.377078,"is_reserved":false,"is_disabled":false,"rental_uris":{"android":"levelo://app?vid=de3cecbf-8944-40d7-9fa8-1db7312de011","ios":"levelo://app?vid=de3cecbf-8944-40d7-9fa8-1db7312de011"},"vehicle_type_id":"4","last_reported":1748243566,"current_range_meters":7200,"station_id":"ce4bgkh2rcd13ifvqbl0","pricing_plan_id":"cebpf4jnsgd1na2vs0mg"},{"bike_id":"35c1be24-0035-4177-8c61-3fd81160b0dc","system_id":"levelo_inurba_marseille","lat":43.30484,"lon":5.37904,"is_reserved":false,"is_disabled":false,"rental_uris":{"android":"levelo://app?vid=35c1be24-0035-4177-8c61-3fd81160b0dc","ios":"levelo://app?vid=35c1be24-0035-4177-8c61-3fd81160b0dc"},"vehicle_type_id":"4","last_reported":1748243566,"current_range_meters":8000,"station_id":"ce4bgup2rcd13ifvqcn0","pricing_plan_id":"cebpf4jnsgd1na2vs0mg"},{"bike_id":"750f6585-193a-4477-948c-580515d42c9e","system_id":"levelo_inurba_marseille","lat":43.32239,"lon":5.43945,"is_reserved":false,"is_disabled":false,"rental_uris":{"android":"levelo://app?vid=750f6585-193a-4477-948c-580515d42c9e","ios":"levelo://app?vid=750f6585-193a-4477-948c-580515d42c9e"},"vehicle_type_id":"4","last_reported":1748243566,"current_range_meters":8000,"station_id":"","pricing_plan_id":"cebpf4jnsgd1na2vs0mg"},{"bike_id":"6d706493-e8c9-4504-92f6-5c708d4b725d","system_id":"levelo_inurba_marseille","lat":43.24176,"lon":5.39725,"is_reserved":false,"is_disabled":false,"rental_uris":{"android":"levelo://app?vid=6d706493-e8c9-4504-92f6-5c708d4b725d","ios":"levelo://app?vid=6d706493-e8c9-4504-92f6-5c708d4b725d"},"vehicle_type_id":"4","last_reported":1748243566,"current_range_meters":8000,"station_id":"ce4bhn12rcd13ifvqgpg","pricing_plan_id":"cebpf4jnsgd1na2vs0mg"},{"bike_id":"59d7c488-d4f9-4dac-a2b6-02ab617f711b","system_id":"levelo_inurba_marseille","lat":43.32535,"lon":5.4145,"is_reserved":false,"is_disabled":false,"rental_uris":{"android":"levelo://app?vid=59d7c488-d4f9-4dac-a2b6-02ab617f711b","ios":"levelo://app?vid=59d7c488-d4f9-4dac-a2b6-02ab617f711b"},"vehicle_type_id":"4","last_reported":1748243566,"current_range_meters":8000,"station_id":"ce4bhq12rcd13ifvqhhg","pricing_plan_id":"cebpf4jnsgd1na2vs0mg"},{"bike_id":"6abb9ab4-3976-4e3e-b994-f2f72ee02055","system_id":"levelo_inurba_marseille","lat":43.31809,"lon":5.3676,"is_reserved":false,"is_disabled":false,"rental_uris":{"android":"levelo://app?vid=6abb9ab4-3976-4e3e-b994-f2f72ee02055","ios":"levelo://app?vid=6abb9ab4-3976-4e3e-b994-f2f72ee02055"},"vehicle_type_id":"4","last_reported":1748243566,"current_range_meters":8000,"station_id":"","pricing_plan_id":"cebpf4jnsgd1na2vs0mg"},{"bike_id":"7bfd42a5-f556-4c02-b736-d267632c0db3","system_id":"levelo_inurba_marseille","lat":43.25932,"lon":5.4091,"is_reserved":false,"is_disabled":false,"rental_uris":{"android":"levelo://app?vid=7bfd42a5-f556-4c02-b736-d267632c0db3","ios":"levelo://app?vid=7bfd42a5-f556-4c02-b736-d267632c0db3"},"vehicle_type_id":"4","last_reported":1748243566,"current_range_meters":8000,"station_id":"ce4bhm92rcd13ifvqglg","pricing_plan_id":"cebpf4jnsgd1na2vs0mg"},{"bike_id":"f87c886d-bd33-43f0-a47c-b7988cbc1ea1","system_id":"levelo_inurba_marseille","lat":43.27531,"lon":5.42632,"is_reserved":false,"is_disabled":false,"rental_uris":{"android":"levelo://app?vid=f87c886d-bd33-43f0-a47c-b7988cbc1ea1","ios":"levelo://app?vid=f87c886d-bd33-43f0-a47c-b7988cbc1ea1"},"vehicle_type_id":"4","last_reported":1748243566,"current_range_meters":8000,"station_id":"ce4bhn92rcd13ifvqgrg","pricing_plan_id":"cebpf4jnsgd1na2vs0mg"},{"bike_id":"203aa19c-5810-43bb-8440-63b0d6edbf94","system_id":"levelo_inurba_marseille","lat":43.24067,"lon":5.37741,"is_reserved":false,"is_disabled":false,"rental_uris":{"android":"levelo://app?vid=203aa19c-5810-43bb-8440-63b0d6edbf94","ios":"levelo://app?vid=203aa19c-5810-43bb-8440-63b0d6edbf94"},"vehicle_type_id":"4","last_reported":1748243566,"current_range_meters":8400,"station_id":"ce4bhnp2rcd13ifvqgvg","pricing_plan_id":"cebpf4jnsgd1na2vs0mg"},{"bike_id":"5e1a2b52-832e-47e4-b711-8790ea428275","system_id":"levelo_inurba_marseille","lat":43.3028,"lon":5.37712,"is_reserved":false,"is_disabled":false,"rental_uris":{"android":"levelo://app?vid=5e1a2b52-832e-47e4-b711-8790ea428275","ios":"levelo://app?vid=5e1a2b52-832e-47e4-b711-8790ea428275"},"vehicle_type_id":"4","last_reported":1748243566,"current_range_meters":8400,"station_id":"ce4bguh2rcd13ifvqcj0","pricing_plan_id":"cebpf4jnsgd1na2vs0mg"},{"bike_id":"14385614-0e67-46d0-b832-91cb5302b67a","system_id":"levelo_inurba_marseille","lat":43.28485,"lon":5.3843,"is_reserved":false,"is_disabled":false,"rental_uris":{"android":"levelo://app?vid=14385614-0e67-46d0-b832-91cb5302b67a","ios":"levelo://app?vid=14385614-0e67-46d0-b832-91cb5302b67a"},"vehicle_type_id":"4","last_reported":1748243566,"current_range_meters":8400,"station_id":"ce4bh512rcd13ifvqe3g","pricing_plan_id":"cebpf4jnsgd1na2vs0mg"},{"bike_id":"bacd4c20-50ed-4b9b-b143-2ec3a52fb7e6","system_id":"levelo_inurba_marseille","lat":43.24069,"lon":5.37763,"is_reserved":false,"is_disabled":false,"rental_uris":{"android":"levelo://app?vid=bacd4c20-50ed-4b9b-b143-2ec3a52fb7e6","ios":"levelo://app?vid=bacd4c20-50ed-4b9b-b143-2ec3a52fb7e6"},"vehicle_type_id":"4","last_reported":1748243566,"current_range_meters":8400,"station_id":"ce4bhnp2rcd13ifvqgvg","pricing_plan_id":"cebpf4jnsgd1na2vs0mg"},{"bike_id":"5abb8a77-fbf0-4d21-805b-29790cff0e49","system_id":"levelo_inurba_marseille","lat":43.310906,"lon":5.424577,"is_reserved":false,"is_disabled":false,"rental_uris":{"android":"levelo://app?vid=5abb8a77-fbf0-4d21-805b-29790cff0e49","ios":"levelo://app?vid=5abb8a77-fbf0-4d21-805b-29790cff0e49"},"vehicle_type_id":"4","last_reported":1748243566,"current_range_meters":8400,"station_id":"ce4bhp92rcd13ifvqhag","pricing_plan_id":"cebpf4jnsgd1na2vs0mg"},{"bike_id":"5c36638b-9d54-4bb5-98de-de7ea70ce913","system_id":"levelo_inurba_marseille","lat":43.299107,"lon":5.374643,"is_reserved":false,"is_disabled":false,"rental_uris":{"android":"levelo://app?vid=5c36638b-9d54-4bb5-98de-de7ea70ce913","ios":"levelo://app?vid=5c36638b-9d54-4bb5-98de-de7ea70ce913"},"vehicle_type_id":"4","last_reported":1748243566,"current_range_meters":8800,"station_id":"ce4bgjh2rcd13ifvqbg0","pricing_plan_id":"cebpf4jnsgd1na2vs0mg"},{"bike_id":"7f0b3323-77a1-43c6-a91f-7eae2ece8cc3","system_id":"levelo_inurba_marseille","lat":43.31652,"lon":5.38952,"is_reserved":false,"is_disabled":false,"rental_uris":{"android":"levelo://app?vid=7f0b3323-77a1-43c6-a91f-7eae2ece8cc3","ios":"levelo://app?vid=7f0b3323-77a1-43c6-a91f-7eae2ece8cc3"},"vehicle_type_id":"4","last_reported":1748243566,"current_range_meters":8800,"station_id":"","pricing_plan_id":"cebpf4jnsgd1na2vs0mg"},{"bike_id":"5e15febb-ae5f-47bf-a021-b162e172b4f7","system_id":"levelo_inurba_marseille","lat":43.313433,"lon":5.36719,"is_reserved":false,"is_disabled":false,"rental_uris":{"android":"levelo://app?vid=5e15febb-ae5f-47bf-a021-b162e172b4f7","ios":"levelo://app?vid=5e15febb-ae5f-47bf-a021-b162e172b4f7"},"vehicle_type_id":"4","last_reported":1748243566,"current_range_meters":8800,"station_id":"ce4bgr92rcd13ifvqc6g","pricing_plan_id":"cebpf4jnsgd1na2vs0mg"},{"bike_id":"f93b74c5-5226-4250-aaa8-c7e610f5fc0b","system_id":"levelo_inurba_marseille","lat":43.27052,"lon":5.42266,"is_reserved":false,"is_disabled":false,"rental_uris":{"android":"levelo://app?vid=f93b74c5-5226-4250-aaa8-c7e610f5fc0b","ios":"levelo://app?vid=f93b74c5-5226-4250-aaa8-c7e610f5fc0b"},"vehicle_type_id":"4","last_reported":1748243566,"current_range_meters":8800,"station_id":"ce4bhk92rcd13ifvqgb0","pricing_plan_id":"cebpf4jnsgd1na2vs0mg"},{"bike_id":"8deb7f69-279a-465b-beab-f18d0e028d15","system_id":"levelo_inurba_marseille","lat":43.24178,"lon":5.39725,"is_reserved":false,"is_disabled":false,"rental_uris":{"android":"levelo://app?vid=8deb7f69-279a-465b-beab-f18d0e028d15","ios":"levelo://app?vid=8deb7f69-279a-465b-beab-f18d0e028d15"},"vehicle_type_id":"4","last_reported":1748243566,"current_range_meters":8800,"station_id":"ce4bhn12rcd13ifvqgpg","pricing_plan_id":"cebpf4jnsgd1na2vs0mg"},{"bike_id":"54a3bbf5-ebe4-4594-9532-519c0897eb70","system_id":"levelo_inurba_marseille","lat":43.29961,"lon":5.41336,"is_reserved":false,"is_disabled":true,"rental_uris":{"android":"levelo://app?vid=54a3bbf5-ebe4-4594-9532-519c0897eb70","ios":"levelo://app?vid=54a3bbf5-ebe4-4594-9532-519c0897eb70"},"vehicle_type_id":"4","last_reported":1748243566,"current_range_meters":8800,"station_id":"ce4bhp12rcd13ifvqh9g","pricing_plan_id":"cebpf4jnsgd1na2vs0mg"},{"bike_id":"ad35d7fa-a2c3-4e55-aac0-809f81c12d57","system_id":"levelo_inurba_marseille","lat":43.23052,"lon":5.35491,"is_reserved":false,"is_disabled":false,"rental_uris":{"android":"levelo://app?vid=ad35d7fa-a2c3-4e55-aac0-809f81c12d57","ios":"levelo://app?vid=ad35d7fa-a2c3-4e55-aac0-809f81c12d57"},"vehicle_type_id":"4","last_reported":1748243566,"current_range_meters":8800,"station_id":"cpo3342slgdg3j2ifvpg","pricing_plan_id":"cebpf4jnsgd1na2vs0mg"},{"bike_id":"dabc077c-bf8d-431d-a5ea-dcd441e9b7b1","system_id":"levelo_inurba_marseille","lat":43.248767,"lon":5.397313,"is_reserved":false,"is_disabled":false,"rental_uris":{"android":"levelo://app?vid=dabc077c-bf8d-431d-a5ea-dcd441e9b7b1","ios":"levelo://app?vid=dabc077c-bf8d-431d-a5ea-dcd441e9b7b1"},"vehicle_type_id":"4","last_reported":1748243566,"current_range_meters":8800,"station_id":"","pricing_plan_id":"cebpf4jnsgd1na2vs0mg"},{"bike_id":"ab485184-dee6-4278-8ed8-78cb97c31dd5","system_id":"levelo_inurba_marseille","lat":43.2921,"lon":5.35824,"is_reserved":false,"is_disabled":false,"rental_uris":{"android":"levelo://app?vid=ab485184-dee6-4278-8ed8-78cb97c31dd5","ios":"levelo://app?vid=ab485184-dee6-4278-8ed8-78cb97c31dd5"},"vehicle_type_id":"4","last_reported":1748243566,"current_range_meters":9200,"station_id":"","pricing_plan_id":"cebpf4jnsgd1na2vs0mg"},{"bike_id":"353a630a-9b4f-430a-925a-bdc2fd854c85","system_id":"levelo_inurba_marseille","lat":43.27681,"lon":5.38872,"is_reserved":false,"is_disabled":false,"rental_uris":{"android":"levelo://app?vid=353a630a-9b4f-430a-925a-bdc2fd854c85","ios":"levelo://app?vid=353a630a-9b4f-430a-925a-bdc2fd854c85"},"vehicle_type_id":"4","last_reported":1748243566,"current_range_meters":8800,"station_id":"ce4bhi12rcd13ifvqfo0","pricing_plan_id":"cebpf4jnsgd1na2vs0mg"},{"bike_id":"e9496718-b841-4999-823d-28c5bee5d6f1","system_id":"levelo_inurba_marseille","lat":43.265275,"lon":5.390046,"is_reserved":false,"is_disabled":false,"rental_uris":{"android":"levelo://app?vid=e9496718-b841-4999-823d-28c5bee5d6f1","ios":"levelo://app?vid=e9496718-b841-4999-823d-28c5bee5d6f1"},"vehicle_type_id":"4","last_reported":1748243566,"current_range_meters":9200,"station_id":"ce4bhe12rcd13ifvqf30","pricing_plan_id":"cebpf4jnsgd1na2vs0mg"},{"bike_id":"01b79ba5-5fa2-4653-837e-af530ff92733","system_id":"levelo_inurba_marseille","lat":43.28485,"lon":5.38563,"is_reserved":false,"is_disabled":false,"rental_uris":{"android":"levelo://app?vid=01b79ba5-5fa2-4653-837e-af530ff92733","ios":"levelo://app?vid=01b79ba5-5fa2-4653-837e-af530ff92733"},"vehicle_type_id":"4","last_reported":1748243566,"current_range_meters":9200,"station_id":"ce4bh8p2rcd13ifvqeb0","pricing_plan_id":"cebpf4jnsgd1na2vs0mg"},{"bike_id":"473cdad8-e86f-436c-900c-612ff8b20c12","system_id":"levelo_inurba_marseille","lat":43.31717,"lon":5.43697,"is_reserved":false,"is_disabled":true,"rental_uris":{"android":"levelo://app?vid=473cdad8-e86f-436c-900c-612ff8b20c12","ios":"levelo://app?vid=473cdad8-e86f-436c-900c-612ff8b20c12"},"vehicle_type_id":"4","last_reported":1748243566,"current_range_meters":9200,"station_id":"ce4bhp92rcd13ifvqhcg","pricing_plan_id":"cebpf4jnsgd1na2vs0mg"},{"bike_id":"e2f40862-2dad-445f-a50b-597e397b87fc","system_id":"levelo_inurba_marseille","lat":43.26786,"lon":5.39417,"is_reserved":false,"is_disabled":false,"rental_uris":{"android":"levelo://app?vid=e2f40862-2dad-445f-a50b-597e397b87fc","ios":"levelo://app?vid=e2f40862-2dad-445f-a50b-597e397b87fc"},"vehicle_type_id":"4","last_reported":1748243566,"current_range_meters":9200,"station_id":"ce4bhh12rcd13ifvqfg0","pricing_plan_id":"cebpf4jnsgd1na2vs0mg"},{"bike_id":"5aa5e23d-21b2-41ca-9e77-c0c017f76361","system_id":"levelo_inurba_marseille","lat":43.23585,"lon":5.40345,"is_reserved":false,"is_disabled":false,"rental_uris":{"android":"levelo://app?vid=5aa5e23d-21b2-41ca-9e77-c0c017f76361","ios":"levelo://app?vid=5aa5e23d-21b2-41ca-9e77-c0c017f76361"},"vehicle_type_id":"4","last_reported":1748243566,"current_range_meters":9200,"station_id":"","pricing_plan_id":"cebpf4jnsgd1na2vs0mg"},{"bike_id":"78084e65-0f8a-4a63-bf1c-3fbde80b370d","system_id":"levelo_inurba_marseille","lat":43.29447,"lon":5.43377,"is_reserved":false,"is_disabled":true,"rental_uris":{"android":"levelo://app?vid=78084e65-0f8a-4a63-bf1c-3fbde80b370d","ios":"levelo://app?vid=78084e65-0f8a-4a63-bf1c-3fbde80b370d"},"vehicle_type_id":"4","last_reported":1748243566,"current_range_meters":9200,"station_id":"","pricing_plan_id":"cebpf4jnsgd1na2vs0mg"},{"bike_id":"31b4b7c8-e979-44c4-8095-d70dbfec09df","system_id":"levelo_inurba_marseille","lat":43.240826,"lon":5.378134,"is_reserved":false,"is_disabled":false,"rental_uris":{"android":"levelo://app?vid=31b4b7c8-e979-44c4-8095-d70dbfec09df","ios":"levelo://app?vid=31b4b7c8-e979-44c4-8095-d70dbfec09df"},"vehicle_type_id":"4","last_reported":1748243566,"current_range_meters":9200,"station_id":"ce4bhnp2rcd13ifvqgvg","pricing_plan_id":"cebpf4jnsgd1na2vs0mg"},{"bike_id":"b7f342b1-545e-4c5e-b129-846e65f7b1f2","system_id":"levelo_inurba_marseille","lat":43.25939,"lon":5.40879,"is_reserved":false,"is_disabled":false,"rental_uris":{"android":"levelo://app?vid=b7f342b1-545e-4c5e-b129-846e65f7b1f2","ios":"levelo://app?vid=b7f342b1-545e-4c5e-b129-846e65f7b1f2"},"vehicle_type_id":"4","last_reported":1748243566,"current_range_meters":9200,"station_id":"ce4bhm92rcd13ifvqglg","pricing_plan_id":"cebpf4jnsgd1na2vs0mg"},{"bike_id":"0a78a4cc-823b-4914-83c5-d2143f46dd25","system_id":"levelo_inurba_marseille","lat":43.30538,"lon":5.36708,"is_reserved":false,"is_disabled":false,"rental_uris":{"android":"levelo://app?vid=0a78a4cc-823b-4914-83c5-d2143f46dd25","ios":"levelo://app?vid=0a78a4cc-823b-4914-83c5-d2143f46dd25"},"vehicle_type_id":"4","last_reported":1748243566,"current_range_meters":9200,"station_id":"ce4bgrp2rcd13ifvqc9g","pricing_plan_id":"cebpf4jnsgd1na2vs0mg"},{"bike_id":"cc86d008-27da-409d-b63d-2d35d462ff29","system_id":"levelo_inurba_marseille","lat":43.31493,"lon":5.37294,"is_reserved":false,"is_disabled":false,"rental_uris":{"android":"levelo://app?vid=cc86d008-27da-409d-b63d-2d35d462ff29","ios":"levelo://app?vid=cc86d008-27da-409d-b63d-2d35d462ff29"},"vehicle_type_id":"4","last_reported":1748243566,"current_range_meters":9600,"station_id":"ce4bgt12rcd13ifvqcd0","pricing_plan_id":"cebpf4jnsgd1na2vs0mg"},{"bike_id":"e2f52d5d-b6cd-4da2-8cd9-2b6dbc708f3b","system_id":"levelo_inurba_marseille","lat":43.25501,"lon":5.3765,"is_reserved":false,"is_disabled":false,"rental_uris":{"android":"levelo://app?vid=e2f52d5d-b6cd-4da2-8cd9-2b6dbc708f3b","ios":"levelo://app?vid=e2f52d5d-b6cd-4da2-8cd9-2b6dbc708f3b"},"vehicle_type_id":"4","last_reported":1748243566,"current_range_meters":9600,"station_id":"ce4bhh12rcd13ifvqff0","pricing_plan_id":"cebpf4jnsgd1na2vs0mg"},{"bike_id":"4ecde69a-3a34-421d-8f3c-6a8fe1837c97","system_id":"levelo_inurba_marseille","lat":43.25711,"lon":5.4113,"is_reserved":false,"is_disabled":false,"rental_uris":{"android":"levelo://app?vid=4ecde69a-3a34-421d-8f3c-6a8fe1837c97","ios":"levelo://app?vid=4ecde69a-3a34-421d-8f3c-6a8fe1837c97"},"vehicle_type_id":"4","last_reported":1748243566,"current_range_meters":9600,"station_id":"ce4bhkp2rcd13ifvqgd0","pricing_plan_id":"cebpf4jnsgd1na2vs0mg"},{"bike_id":"5e5dac88-2958-4a06-9510-bdfbf9cef837","system_id":"levelo_inurba_marseille","lat":43.27191,"lon":5.40984,"is_reserved":false,"is_disabled":false,"rental_uris":{"android":"levelo://app?vid=5e5dac88-2958-4a06-9510-bdfbf9cef837","ios":"levelo://app?vid=5e5dac88-2958-4a06-9510-bdfbf9cef837"},"vehicle_type_id":"4","last_reported":1748243566,"current_range_meters":9600,"station_id":"ce4bhl12rcd13ifvqgf0","pricing_plan_id":"cebpf4jnsgd1na2vs0mg"},{"bike_id":"6a17cecb-9cd2-43e7-8c71-ebb38aa41cc3","system_id":"levelo_inurba_marseille","lat":43.24162,"lon":5.39726,"is_reserved":false,"is_disabled":false,"rental_uris":{"android":"levelo://app?vid=6a17cecb-9cd2-43e7-8c71-ebb38aa41cc3","ios":"levelo://app?vid=6a17cecb-9cd2-43e7-8c71-ebb38aa41cc3"},"vehicle_type_id":"4","last_reported":1748243566,"current_range_meters":9600,"station_id":"ce4bhn12rcd13ifvqgpg","pricing_plan_id":"cebpf4jnsgd1na2vs0mg"},{"bike_id":"e102a00b-c64f-4838-8003-1ff46d8012ab","system_id":"levelo_inurba_marseille","lat":43.241745,"lon":5.39734,"is_reserved":false,"is_disabled":false,"rental_uris":{"android":"levelo://app?vid=e102a00b-c64f-4838-8003-1ff46d8012ab","ios":"levelo://app?vid=e102a00b-c64f-4838-8003-1ff46d8012ab"},"vehicle_type_id":"4","last_reported":1748243566,"current_range_meters":9600,"station_id":"ce4bhn12rcd13ifvqgpg","pricing_plan_id":"cebpf4jnsgd1na2vs0mg"},{"bike_id":"26f61e91-715d-403f-a1f2-952a7f9b1eaa","system_id":"levelo_inurba_marseille","lat":43.30372,"lon":5.42485,"is_reserved":false,"is_disabled":false,"rental_uris":{"android":"levelo://app?vid=26f61e91-715d-403f-a1f2-952a7f9b1eaa","ios":"levelo://app?vid=26f61e91-715d-403f-a1f2-952a7f9b1eaa"},"vehicle_type_id":"4","last_reported":1748243566,"current_range_meters":9600,"station_id":"ce4bhoh2rcd13ifvqh6g","pricing_plan_id":"cebpf4jnsgd1na2vs0mg"},{"bike_id":"fc56555b-396d-4667-b896-0ad86036e39e","system_id":"levelo_inurba_marseille","lat":43.25914,"lon":5.38018,"is_reserved":false,"is_disabled":false,"rental_uris":{"android":"levelo://app?vid=fc56555b-396d-4667-b896-0ad86036e39e","ios":"levelo://app?vid=fc56555b-396d-4667-b896-0ad86036e39e"},"vehicle_type_id":"4","last_reported":1748243566,"current_range_meters":10000,"station_id":"","pricing_plan_id":"cebpf4jnsgd1na2vs0mg"},{"bike_id":"9af7864d-bf29-4fe8-823e-6832a30f7b66","system_id":"levelo_inurba_marseille","lat":43.31352,"lon":5.367,"is_reserved":false,"is_disabled":false,"rental_uris":{"android":"levelo://app?vid=9af7864d-bf29-4fe8-823e-6832a30f7b66","ios":"levelo://app?vid=9af7864d-bf29-4fe8-823e-6832a30f7b66"},"vehicle_type_id":"4","last_reported":1748243566,"current_range_meters":10000,"station_id":"","pricing_plan_id":"cebpf4jnsgd1na2vs0mg"},{"bike_id":"87328a9d-08c3-4299-97ac-da6e5c2d0542","system_id":"levelo_inurba_marseille","lat":43.31357,"lon":5.38489,"is_reserved":false,"is_disabled":false,"rental_uris":{"android":"levelo://app?vid=87328a9d-08c3-4299-97ac-da6e5c2d0542","ios":"levelo://app?vid=87328a9d-08c3-4299-97ac-da6e5c2d0542"},"vehicle_type_id":"4","last_reported":1748243566,"current_range_meters":10000,"station_id":"ce4bgt92rcd13ifvqcf0","pricing_plan_id":"cebpf4jnsgd1na2vs0mg"},{"bike_id":"beaf0989-9387-49d7-9373-eb6e84897a05","system_id":"levelo_inurba_marseille","lat":43.29298,"lon":5.37467,"is_reserved":false,"is_disabled":false,"rental_uris":{"android":"levelo://app?vid=beaf0989-9387-49d7-9373-eb6e84897a05","ios":"levelo://app?vid=beaf0989-9387-49d7-9373-eb6e84897a05"},"vehicle_type_id":"4","last_reported":1748243566,"current_range_meters":10000,"station_id":"ce4bgi12rcd13ifvqb70","pricing_plan_id":"cebpf4jnsgd1na2vs0mg"},{"bike_id":"efd698cb-2450-498f-9f0b-bfc662548e61","system_id":"levelo_inurba_marseille","lat":43.26552,"lon":5.40305,"is_reserved":false,"is_disabled":true,"rental_uris":{"android":"levelo://app?vid=efd698cb-2450-498f-9f0b-bfc662548e61","ios":"levelo://app?vid=efd698cb-2450-498f-9f0b-bfc662548e61"},"vehicle_type_id":"4","last_reported":1748243566,"current_range_meters":10000,"station_id":"","pricing_plan_id":"cebpf4jnsgd1na2vs0mg"},{"bike_id":"dc5af9f7-7931-47bb-b92a-d6d9da1ff218","system_id":"levelo_inurba_marseille","lat":43.26799,"lon":5.40271,"is_reserved":false,"is_disabled":false,"rental_uris":{"android":"levelo://app?vid=dc5af9f7-7931-47bb-b92a-d6d9da1ff218","ios":"levelo://app?vid=dc5af9f7-7931-47bb-b92a-d6d9da1ff218"},"vehicle_type_id":"4","last_reported":1748243566,"current_range_meters":10000,"station_id":"ce501612rcd8frsf0b60","pricing_plan_id":"cebpf4jnsgd1na2vs0mg"},{"bike_id":"faaa0643-dba9-40a9-8627-2c24953071f4","system_id":"levelo_inurba_marseille","lat":43.31353,"lon":5.36686,"is_reserved":false,"is_disabled":false,"rental_uris":{"android":"levelo://app?vid=faaa0643-dba9-40a9-8627-2c24953071f4","ios":"levelo://app?vid=faaa0643-dba9-40a9-8627-2c24953071f4"},"vehicle_type_id":"4","last_reported":1748243566,"current_range_meters":10000,"station_id":"ce4bgr92rcd13ifvqc6g","pricing_plan_id":"cebpf4jnsgd1na2vs0mg"},{"bike_id":"cb6b56c9-30b2-469c-a425-c7d6b5766ad3","system_id":"levelo_inurba_marseille","lat":43.30151,"lon":5.37399,"is_reserved":false,"is_disabled":false,"rental_uris":{"android":"levelo://app?vid=cb6b56c9-30b2-469c-a425-c7d6b5766ad3","ios":"levelo://app?vid=cb6b56c9-30b2-469c-a425-c7d6b5766ad3"},"vehicle_type_id":"4","last_reported":1748243566,"current_range_meters":10000,"station_id":"ce4bgs92rcd13ifvqcc0","pricing_plan_id":"cebpf4jnsgd1na2vs0mg"},{"bike_id":"253b3b17-68d6-420d-8d9a-7767e509688e","system_id":"levelo_inurba_marseille","lat":43.217413,"lon":5.345913,"is_reserved":false,"is_disabled":false,"rental_uris":{"android":"levelo://app?vid=253b3b17-68d6-420d-8d9a-7767e509688e","ios":"levelo://app?vid=253b3b17-68d6-420d-8d9a-7767e509688e"},"vehicle_type_id":"4","last_reported":1748243566,"current_range_meters":10800,"station_id":"st_cvj6r9ubvosntc0bgbag","pricing_plan_id":"cebpf4jnsgd1na2vs0mg"},{"bike_id":"a35c4fb8-0f2e-4b73-ac06-6b60bad237d6","system_id":"levelo_inurba_marseille","lat":43.2993,"lon":5.36545,"is_reserved":false,"is_disabled":false,"rental_uris":{"android":"levelo://app?vid=a35c4fb8-0f2e-4b73-ac06-6b60bad237d6","ios":"levelo://app?vid=a35c4fb8-0f2e-4b73-ac06-6b60bad237d6"},"vehicle_type_id":"4","last_reported":1748243566,"current_range_meters":10800,"station_id":"ce4bgm92rcd13ifvqbr0","pricing_plan_id":"cebpf4jnsgd1na2vs0mg"},{"bike_id":"f8ece8a7-cd0a-4684-ae25-2d276bd6187e","system_id":"levelo_inurba_marseille","lat":43.336167,"lon":5.410297,"is_reserved":false,"is_disabled":false,"rental_uris":{"android":"levelo://app?vid=f8ece8a7-cd0a-4684-ae25-2d276bd6187e","ios":"levelo://app?vid=f8ece8a7-cd0a-4684-ae25-2d276bd6187e"},"vehicle_type_id":"4","last_reported":1748243566,"current_range_meters":10800,"station_id":"ce4bhqh2rcd13ifvqhmg","pricing_plan_id":"cebpf4jnsgd1na2vs0mg"},{"bike_id":"f74b62a3-0027-4ff2-9db4-b7dd58a55387","system_id":"levelo_inurba_marseille","lat":43.26775,"lon":5.39445,"is_reserved":false,"is_disabled":false,"rental_uris":{"android":"levelo://app?vid=f74b62a3-0027-4ff2-9db4-b7dd58a55387","ios":"levelo://app?vid=f74b62a3-0027-4ff2-9db4-b7dd58a55387"},"vehicle_type_id":"4","last_reported":1748243566,"current_range_meters":10800,"station_id":"ce4bhh12rcd13ifvqfg0","pricing_plan_id":"cebpf4jnsgd1na2vs0mg"},{"bike_id":"40840570-4709-4fe6-9e92-829b201504df","system_id":"levelo_inurba_marseille","lat":43.25937,"lon":5.40895,"is_reserved":false,"is_disabled":false,"rental_uris":{"android":"levelo://app?vid=40840570-4709-4fe6-9e92-829b201504df","ios":"levelo://app?vid=40840570-4709-4fe6-9e92-829b201504df"},"vehicle_type_id":"4","last_reported":1748243566,"current_range_meters":10800,"station_id":"ce4bhm92rcd13ifvqglg","pricing_plan_id":"cebpf4jnsgd1na2vs0mg"},{"bike_id":"51e9562a-77d6-47f0-ad5a-9804bd84f0a9","system_id":"levelo_inurba_marseille","lat":43.26795,"lon":5.39411,"is_reserved":false,"is_disabled":false,"rental_uris":{"android":"levelo://app?vid=51e9562a-77d6-47f0-ad5a-9804bd84f0a9","ios":"levelo://app?vid=51e9562a-77d6-47f0-ad5a-9804bd84f0a9"},"vehicle_type_id":"4","last_reported":1748243566,"current_range_meters":10800,"station_id":"ce4bhh12rcd13ifvqfg0","pricing_plan_id":"cebpf4jnsgd1na2vs0mg"},{"bike_id":"874fba91-fbda-4288-b17f-8759eec81e80","system_id":"levelo_inurba_marseille","lat":43.270739,"lon":5.422785,"is_reserved":false,"is_disabled":false,"rental_uris":{"android":"levelo://app?vid=874fba91-fbda-4288-b17f-8759eec81e80","ios":"levelo://app?vid=874fba91-fbda-4288-b17f-8759eec81e80"},"vehicle_type_id":"4","last_reported":1748243566,"current_range_meters":10800,"station_id":"ce4bhk92rcd13ifvqgb0","pricing_plan_id":"cebpf4jnsgd1na2vs0mg"},{"bike_id":"7f6245ef-d0f2-4ab9-8064-6382017122da","system_id":"levelo_inurba_marseille","lat":43.30143,"lon":5.37419,"is_reserved":false,"is_disabled":false,"rental_uris":{"android":"levelo://app?vid=7f6245ef-d0f2-4ab9-8064-6382017122da","ios":"levelo://app?vid=7f6245ef-d0f2-4ab9-8064-6382017122da"},"vehicle_type_id":"4","last_reported":1748243566,"current_range_meters":11200,"station_id":"ce4bgs92rcd13ifvqcc0","pricing_plan_id":"cebpf4jnsgd1na2vs0mg"},{"bike_id":"a4aef2b9-b7e8-4e2d-8340-592d28bc6c85","system_id":"levelo_inurba_marseille","lat":43.337579,"lon":5.374318,"is_reserved":false,"is_disabled":false,"rental_uris":{"android":"levelo://app?vid=a4aef2b9-b7e8-4e2d-8340-592d28bc6c85","ios":"levelo://app?vid=a4aef2b9-b7e8-4e2d-8340-592d28bc6c85"},"vehicle_type_id":"4","last_reported":1748243566,"current_range_meters":11200,"station_id":"","pricing_plan_id":"cebpf4jnsgd1na2vs0mg"},{"bike_id":"e5040cc6-5912-44c1-a358-57f34154615c","system_id":"levelo_inurba_marseille","lat":43.28099,"lon":5.38659,"is_reserved":false,"is_disabled":false,"rental_uris":{"android":"levelo://app?vid=e5040cc6-5912-44c1-a358-57f34154615c","ios":"levelo://app?vid=e5040cc6-5912-44c1-a358-57f34154615c"},"vehicle_type_id":"4","last_reported":1748243566,"current_range_meters":11200,"station_id":"","pricing_plan_id":"cebpf4jnsgd1na2vs0mg"},{"bike_id":"41d795fd-6b15-4eca-98cc-80356500dbfe","system_id":"levelo_inurba_marseille","lat":43.24167,"lon":5.36391,"is_reserved":false,"is_disabled":false,"rental_uris":{"android":"levelo://app?vid=41d795fd-6b15-4eca-98cc-80356500dbfe","ios":"levelo://app?vid=41d795fd-6b15-4eca-98cc-80356500dbfe"},"vehicle_type_id":"4","last_reported":1748243566,"current_range_meters":11200,"station_id":"cpo36qri1sfpv3e86is0","pricing_plan_id":"cebpf4jnsgd1na2vs0mg"},{"bike_id":"f6c6d614-57aa-42d2-bd57-8b2141b94c79","system_id":"levelo_inurba_marseille","lat":43.25733,"lon":5.41029,"is_reserved":false,"is_disabled":false,"rental_uris":{"android":"levelo://app?vid=f6c6d614-57aa-42d2-bd57-8b2141b94c79","ios":"levelo://app?vid=f6c6d614-57aa-42d2-bd57-8b2141b94c79"},"vehicle_type_id":"4","last_reported":1748243566,"current_range_meters":11200,"station_id":"","pricing_plan_id":"cebpf4jnsgd1na2vs0mg"},{"bike_id":"78a0aef6-bc94-43bb-990d-1d2369aea1be","system_id":"levelo_inurba_marseille","lat":43.31762,"lon":5.390048,"is_reserved":false,"is_disabled":false,"rental_uris":{"android":"levelo://app?vid=78a0aef6-bc94-43bb-990d-1d2369aea1be","ios":"levelo://app?vid=78a0aef6-bc94-43bb-990d-1d2369aea1be"},"vehicle_type_id":"4","last_reported":1748243566,"current_range_meters":11200,"station_id":"ce4bhqp2rcd13ifvqhng","pricing_plan_id":"cebpf4jnsgd1na2vs0mg"},{"bike_id":"8ab12cac-df74-455c-9b48-b9737ec67d8c","system_id":"levelo_inurba_marseille","lat":43.30087,"lon":5.39088,"is_reserved":false,"is_disabled":false,"rental_uris":{"android":"levelo://app?vid=8ab12cac-df74-455c-9b48-b9737ec67d8c","ios":"levelo://app?vid=8ab12cac-df74-455c-9b48-b9737ec67d8c"},"vehicle_type_id":"4","last_reported":1748243566,"current_range_meters":11600,"station_id":"ce4bh192rcd13ifvqdb0","pricing_plan_id":"cebpf4jnsgd1na2vs0mg"},{"bike_id":"a51538e0-45e2-44c7-8fa6-e0f7e9ea0448","system_id":"levelo_inurba_marseille","lat":43.25824,"lon":5.39436,"is_reserved":false,"is_disabled":false,"rental_uris":{"android":"levelo://app?vid=a51538e0-45e2-44c7-8fa6-e0f7e9ea0448","ios":"levelo://app?vid=a51538e0-45e2-44c7-8fa6-e0f7e9ea0448"},"vehicle_type_id":"4","last_reported":1748243566,"current_range_meters":11600,"station_id":"ce4bhip2rcd13ifvqft0","pricing_plan_id":"cebpf4jnsgd1na2vs0mg"},{"bike_id":"924add45-a83a-41a1-a673-77cb07d56059","system_id":"levelo_inurba_marseille","lat":43.2962,"lon":5.37155,"is_reserved":false,"is_disabled":false,"rental_uris":{"android":"levelo://app?vid=924add45-a83a-41a1-a673-77cb07d56059","ios":"levelo://app?vid=924add45-a83a-41a1-a673-77cb07d56059"},"vehicle_type_id":"4","last_reported":1748243566,"current_range_meters":11600,"station_id":"ce4bgnh2rcd13ifvqc0g","pricing_plan_id":"cebpf4jnsgd1na2vs0mg"},{"bike_id":"7b6c550b-502c-48fb-bae9-2a9b5c68f87c","system_id":"levelo_inurba_marseille","lat":43.29563,"lon":5.37513,"is_reserved":false,"is_disabled":false,"rental_uris":{"android":"levelo://app?vid=7b6c550b-502c-48fb-bae9-2a9b5c68f87c","ios":"levelo://app?vid=7b6c550b-502c-48fb-bae9-2a9b5c68f87c"},"vehicle_type_id":"4","last_reported":1748243566,"current_range_meters":11600,"station_id":"ce4bgh92rcd13ifvqb50","pricing_plan_id":"cebpf4jnsgd1na2vs0mg"},{"bike_id":"b9bada9a-6619-4f1b-9280-c75d67537ac0","system_id":"levelo_inurba_marseille","lat":43.27566,"lon":5.38424,"is_reserved":false,"is_disabled":false,"rental_uris":{"android":"levelo://app?vid=b9bada9a-6619-4f1b-9280-c75d67537ac0","ios":"levelo://app?vid=b9bada9a-6619-4f1b-9280-c75d67537ac0"},"vehicle_type_id":"4","last_reported":1748243566,"current_range_meters":11600,"station_id":"ce4bhh92rcd13ifvqfi0","pricing_plan_id":"cebpf4jnsgd1na2vs0mg"},{"bike_id":"b6d50979-2cbe-4572-83a9-35365a60bd44","system_id":"levelo_inurba_marseille","lat":43.27033,"lon":5.3928,"is_reserved":false,"is_disabled":false,"rental_uris":{"android":"levelo://app?vid=b6d50979-2cbe-4572-83a9-35365a60bd44","ios":"levelo://app?vid=b6d50979-2cbe-4572-83a9-35365a60bd44"},"vehicle_type_id":"4","last_reported":1748243566,"current_range_meters":11600,"station_id":"","pricing_plan_id":"cebpf4jnsgd1na2vs0mg"},{"bike_id":"b744080c-dd77-486d-9609-00c9cf60c1ad","system_id":"levelo_inurba_marseille","lat":43.23692,"lon":5.39072,"is_reserved":false,"is_disabled":false,"rental_uris":{"android":"levelo://app?vid=b744080c-dd77-486d-9609-00c9cf60c1ad","ios":"levelo://app?vid=b744080c-dd77-486d-9609-00c9cf60c1ad"},"vehicle_type_id":"4","last_reported":1748243566,"current_range_meters":11600,"station_id":"","pricing_plan_id":"cebpf4jnsgd1na2vs0mg"},{"bike_id":"6a4612f8-d511-472f-9784-e69bac545256","system_id":"levelo_inurba_marseille","lat":43.29005,"lon":5.36638,"is_reserved":false,"is_disabled":false,"rental_uris":{"android":"levelo://app?vid=6a4612f8-d511-472f-9784-e69bac545256","ios":"levelo://app?vid=6a4612f8-d511-472f-9784-e69bac545256"},"vehicle_type_id":"4","last_reported":1748243566,"current_range_meters":11600,"station_id":"","pricing_plan_id":"cebpf4jnsgd1na2vs0mg"},{"bike_id":"0d11dd18-5808-4200-bccb-8c8f8f91874d","system_id":"levelo_inurba_marseille","lat":43.29093,"lon":5.38135,"is_reserved":false,"is_disabled":false,"rental_uris":{"android":"levelo://app?vid=0d11dd18-5808-4200-bccb-8c8f8f91874d","ios":"levelo://app?vid=0d11dd18-5808-4200-bccb-8c8f8f91874d"},"vehicle_type_id":"4","last_reported":1748243566,"current_range_meters":11600,"station_id":"ce4bh512rcd13ifvqe2g","pricing_plan_id":"cebpf4jnsgd1na2vs0mg"},{"bike_id":"ddb8bc9d-6b31-4f17-a2d0-f2da0cc7ec91","system_id":"levelo_inurba_marseille","lat":43.2959,"lon":5.36741,"is_reserved":false,"is_disabled":true,"rental_uris":{"android":"levelo://app?vid=ddb8bc9d-6b31-4f17-a2d0-f2da0cc7ec91","ios":"levelo://app?vid=ddb8bc9d-6b31-4f17-a2d0-f2da0cc7ec91"},"vehicle_type_id":"4","last_reported":1748243566,"current_range_meters":12000,"station_id":"ce4bgph2rcd13ifvqc2g","pricing_plan_id":"cebpf4jnsgd1na2vs0mg"},{"bike_id":"98a92623-d894-4819-8c8d-be28b1cae08f","system_id":"levelo_inurba_marseille","lat":43.25868,"lon":5.39893,"is_reserved":false,"is_disabled":false,"rental_uris":{"android":"levelo://app?vid=98a92623-d894-4819-8c8d-be28b1cae08f","ios":"levelo://app?vid=98a92623-d894-4819-8c8d-be28b1cae08f"},"vehicle_type_id":"4","last_reported":1748243566,"current_range_meters":12000,"station_id":"ce4bhl92rcd13ifvqghg","pricing_plan_id":"cebpf4jnsgd1na2vs0mg"},{"bike_id":"a1cad742-c462-4135-a3f0-0311fa3b7596","system_id":"levelo_inurba_marseille","lat":43.29297,"lon":5.37476,"is_reserved":false,"is_disabled":true,"rental_uris":{"android":"levelo://app?vid=a1cad742-c462-4135-a3f0-0311fa3b7596","ios":"levelo://app?vid=a1cad742-c462-4135-a3f0-0311fa3b7596"},"vehicle_type_id":"4","last_reported":1748243566,"current_range_meters":12000,"station_id":"ce4bgi12rcd13ifvqb70","pricing_plan_id":"cebpf4jnsgd1na2vs0mg"},{"bike_id":"88dab9a2-6899-4608-a445-e022c6d5109e","system_id":"levelo_inurba_marseille","lat":43.30141,"lon":5.380837,"is_reserved":false,"is_disabled":false,"rental_uris":{"android":"levelo://app?vid=88dab9a2-6899-4608-a445-e022c6d5109e","ios":"levelo://app?vid=88dab9a2-6899-4608-a445-e022c6d5109e"},"vehicle_type_id":"4","last_reported":1748243566,"current_range_meters":12000,"station_id":"ce4bgjp2rcd13ifvqbh0","pricing_plan_id":"cebpf4jnsgd1na2vs0mg"},{"bike_id":"a66fd331-46e1-43d0-aa14-90321cefe8e0","system_id":"levelo_inurba_marseille","lat":43.29832,"lon":5.36276,"is_reserved":false,"is_disabled":false,"rental_uris":{"android":"levelo://app?vid=a66fd331-46e1-43d0-aa14-90321cefe8e0","ios":"levelo://app?vid=a66fd331-46e1-43d0-aa14-90321cefe8e0"},"vehicle_type_id":"4","last_reported":1748243566,"current_range_meters":12000,"station_id":"ce4bgpp2rcd13ifvqc3g","pricing_plan_id":"cebpf4jnsgd1na2vs0mg"},{"bike_id":"f485071b-aec1-42ac-9c4f-7a8e291de321","system_id":"levelo_inurba_marseille","lat":43.27915,"lon":5.39582,"is_reserved":false,"is_disabled":true,"rental_uris":{"android":"levelo://app?vid=f485071b-aec1-42ac-9c4f-7a8e291de321","ios":"levelo://app?vid=f485071b-aec1-42ac-9c4f-7a8e291de321"},"vehicle_type_id":"4","last_reported":1748243566,"current_range_meters":12000,"station_id":"ce4bhf92rcd13ifvqf40","pricing_plan_id":"cebpf4jnsgd1na2vs0mg"},{"bike_id":"12e1822f-f545-40fa-999b-fee911cf5621","system_id":"levelo_inurba_marseille","lat":43.2408,"lon":5.37751,"is_reserved":false,"is_disabled":false,"rental_uris":{"android":"levelo://app?vid=12e1822f-f545-40fa-999b-fee911cf5621","ios":"levelo://app?vid=12e1822f-f545-40fa-999b-fee911cf5621"},"vehicle_type_id":"4","last_reported":1748243566,"current_range_meters":12000,"station_id":"ce4bhnp2rcd13ifvqgvg","pricing_plan_id":"cebpf4jnsgd1na2vs0mg"},{"bike_id":"805d3dee-4b6f-4551-aab1-1162fdabdd43","system_id":"levelo_inurba_marseille","lat":43.325398,"lon":5.414219,"is_reserved":false,"is_disabled":false,"rental_uris":{"android":"levelo://app?vid=805d3dee-4b6f-4551-aab1-1162fdabdd43","ios":"levelo://app?vid=805d3dee-4b6f-4551-aab1-1162fdabdd43"},"vehicle_type_id":"4","last_reported":1748243566,"current_range_meters":12000,"station_id":"ce4bhq12rcd13ifvqhhg","pricing_plan_id":"cebpf4jnsgd1na2vs0mg"},{"bike_id":"4a7d7e96-debe-4320-8027-fabdfe39cc52","system_id":"levelo_inurba_marseille","lat":43.31223,"lon":5.36846,"is_reserved":false,"is_disabled":false,"rental_uris":{"android":"levelo://app?vid=4a7d7e96-debe-4320-8027-fabdfe39cc52","ios":"levelo://app?vid=4a7d7e96-debe-4320-8027-fabdfe39cc52"},"vehicle_type_id":"4","last_reported":1748243566,"current_range_meters":12400,"station_id":"ce4bgl92rcd13ifvqbq0","pricing_plan_id":"cebpf4jnsgd1na2vs0mg"},{"bike_id":"7d3bd24a-e5f9-4754-8ec6-3ba44c9c4f5b","system_id":"levelo_inurba_marseille","lat":43.24795,"lon":5.37448,"is_reserved":false,"is_disabled":false,"rental_uris":{"android":"levelo://app?vid=7d3bd24a-e5f9-4754-8ec6-3ba44c9c4f5b","ios":"levelo://app?vid=7d3bd24a-e5f9-4754-8ec6-3ba44c9c4f5b"},"vehicle_type_id":"4","last_reported":1748243566,"current_range_meters":12400,"station_id":"ce4bhgh2rcd13ifvqfb0","pricing_plan_id":"cebpf4jnsgd1na2vs0mg"},{"bike_id":"e38b04f7-29c0-43e3-a304-e78ae32b0a4d","system_id":"levelo_inurba_marseille","lat":43.22502,"lon":5.34779,"is_reserved":false,"is_disabled":false,"rental_uris":{"android":"levelo://app?vid=e38b04f7-29c0-43e3-a304-e78ae32b0a4d","ios":"levelo://app?vid=e38b04f7-29c0-43e3-a304-e78ae32b0a4d"},"vehicle_type_id":"4","last_reported":1748243566,"current_range_meters":12400,"station_id":"","pricing_plan_id":"cebpf4jnsgd1na2vs0mg"},{"bike_id":"16ab6103-b803-493d-8f2a-dc69da196a97","system_id":"levelo_inurba_marseille","lat":43.27175,"lon":5.40997,"is_reserved":false,"is_disabled":false,"rental_uris":{"android":"levelo://app?vid=16ab6103-b803-493d-8f2a-dc69da196a97","ios":"levelo://app?vid=16ab6103-b803-493d-8f2a-dc69da196a97"},"vehicle_type_id":"4","last_reported":1748243566,"current_range_meters":12800,"station_id":"ce4bhl12rcd13ifvqgf0","pricing_plan_id":"cebpf4jnsgd1na2vs0mg"},{"bike_id":"18ffc3f0-f700-44a6-930b-8675a62b7c62","system_id":"levelo_inurba_marseille","lat":43.30797,"lon":5.37639,"is_reserved":false,"is_disabled":true,"rental_uris":{"android":"levelo://app?vid=18ffc3f0-f700-44a6-930b-8675a62b7c62","ios":"levelo://app?vid=18ffc3f0-f700-44a6-930b-8675a62b7c62"},"vehicle_type_id":"4","last_reported":1748243566,"current_range_meters":12800,"station_id":"ce4bgv92rcd13ifvqcq0","pricing_plan_id":"cebpf4jnsgd1na2vs0mg"},{"bike_id":"f0db987f-7a9b-45df-8e26-1d773e43b6e4","system_id":"levelo_inurba_marseille","lat":43.31715,"lon":5.43686,"is_reserved":false,"is_disabled":false,"rental_uris":{"android":"levelo://app?vid=f0db987f-7a9b-45df-8e26-1d773e43b6e4","ios":"levelo://app?vid=f0db987f-7a9b-45df-8e26-1d773e43b6e4"},"vehicle_type_id":"4","last_reported":1748243566,"current_range_meters":12800,"station_id":"ce4bhp92rcd13ifvqhcg","pricing_plan_id":"cebpf4jnsgd1na2vs0mg"},{"bike_id":"8dfc641a-9f73-4a81-9a41-1b7f6c84075c","system_id":"levelo_inurba_marseille","lat":43.25934,"lon":5.40905,"is_reserved":false,"is_disabled":false,"rental_uris":{"android":"levelo://app?vid=8dfc641a-9f73-4a81-9a41-1b7f6c84075c","ios":"levelo://app?vid=8dfc641a-9f73-4a81-9a41-1b7f6c84075c"},"vehicle_type_id":"4","last_reported":1748243566,"current_range_meters":12800,"station_id":"ce4bhm92rcd13ifvqglg","pricing_plan_id":"cebpf4jnsgd1na2vs0mg"},{"bike_id":"5148f8b2-1ecb-4c76-b37d-928f8d5cde64","system_id":"levelo_inurba_marseille","lat":43.32322,"lon":5.36795,"is_reserved":false,"is_disabled":false,"rental_uris":{"android":"levelo://app?vid=5148f8b2-1ecb-4c76-b37d-928f8d5cde64","ios":"levelo://app?vid=5148f8b2-1ecb-4c76-b37d-928f8d5cde64"},"vehicle_type_id":"4","last_reported":1748243566,"current_range_meters":12800,"station_id":"ce4bhsh2rcd13ifvqi2g","pricing_plan_id":"cebpf4jnsgd1na2vs0mg"},{"bike_id":"e956b18f-e1a9-45d6-9b33-46331f9d4700","system_id":"levelo_inurba_marseille","lat":43.32287,"lon":5.38275,"is_reserved":false,"is_disabled":false,"rental_uris":{"android":"levelo://app?vid=e956b18f-e1a9-45d6-9b33-46331f9d4700","ios":"levelo://app?vid=e956b18f-e1a9-45d6-9b33-46331f9d4700"},"vehicle_type_id":"4","last_reported":1748243566,"current_range_meters":12800,"station_id":"ce4bhr12rcd13ifvqhqg","pricing_plan_id":"cebpf4jnsgd1na2vs0mg"},{"bike_id":"4ef899f0-3200-4631-95b1-dadbaa04c417","system_id":"levelo_inurba_marseille","lat":43.29189,"lon":5.3579,"is_reserved":false,"is_disabled":true,"rental_uris":{"android":"levelo://app?vid=4ef899f0-3200-4631-95b1-dadbaa04c417","ios":"levelo://app?vid=4ef899f0-3200-4631-95b1-dadbaa04c417"},"vehicle_type_id":"4","last_reported":1748243566,"current_range_meters":12800,"station_id":"ce4bhb12rcd13ifvqel0","pricing_plan_id":"cebpf4jnsgd1na2vs0mg"},{"bike_id":"29bff24e-c898-49da-9ffa-90cdf1d535e8","system_id":"levelo_inurba_marseille","lat":43.29504,"lon":5.39384,"is_reserved":false,"is_disabled":true,"rental_uris":{"android":"levelo://app?vid=29bff24e-c898-49da-9ffa-90cdf1d535e8","ios":"levelo://app?vid=29bff24e-c898-49da-9ffa-90cdf1d535e8"},"vehicle_type_id":"4","last_reported":1748243566,"current_range_meters":12800,"station_id":"ce4bh292rcd13ifvqdf0","pricing_plan_id":"cebpf4jnsgd1na2vs0mg"},{"bike_id":"b4f55865-d2c7-4348-8cd8-a5f681fde877","system_id":"levelo_inurba_marseille","lat":43.29581,"lon":5.37512,"is_reserved":false,"is_disabled":true,"rental_uris":{"android":"levelo://app?vid=b4f55865-d2c7-4348-8cd8-a5f681fde877","ios":"levelo://app?vid=b4f55865-d2c7-4348-8cd8-a5f681fde877"},"vehicle_type_id":"4","last_reported":1748243566,"current_range_meters":12800,"station_id":"ce4bgh92rcd13ifvqb50","pricing_plan_id":"cebpf4jnsgd1na2vs0mg"},{"bike_id":"f05d834d-f458-4564-99f3-dbd191f77412","system_id":"levelo_inurba_marseille","lat":43.30906,"lon":5.36839,"is_reserved":false,"is_disabled":false,"rental_uris":{"android":"levelo://app?vid=f05d834d-f458-4564-99f3-dbd191f77412","ios":"levelo://app?vid=f05d834d-f458-4564-99f3-dbd191f77412"},"vehicle_type_id":"4","last_reported":1748243566,"current_range_meters":12800,"station_id":"ce4bgn92rcd13ifvqbvg","pricing_plan_id":"cebpf4jnsgd1na2vs0mg"},{"bike_id":"e6edbb3c-3cca-4f02-b483-734348479651","system_id":"levelo_inurba_marseille","lat":43.28966,"lon":5.36605,"is_reserved":false,"is_disabled":true,"rental_uris":{"android":"levelo://app?vid=e6edbb3c-3cca-4f02-b483-734348479651","ios":"levelo://app?vid=e6edbb3c-3cca-4f02-b483-734348479651"},"vehicle_type_id":"4","last_reported":1748243566,"current_range_meters":12800,"station_id":"","pricing_plan_id":"cebpf4jnsgd1na2vs0mg"},{"bike_id":"ad4cc76e-fd3a-48d0-a7cc-2ffd673a47e4","system_id":"levelo_inurba_marseille","lat":43.27993,"lon":5.40008,"is_reserved":false,"is_disabled":false,"rental_uris":{"android":"levelo://app?vid=ad4cc76e-fd3a-48d0-a7cc-2ffd673a47e4","ios":"levelo://app?vid=ad4cc76e-fd3a-48d0-a7cc-2ffd673a47e4"},"vehicle_type_id":"4","last_reported":1748243566,"current_range_meters":12800,"station_id":"ce4bho92rcd13ifvqh4g","pricing_plan_id":"cebpf4jnsgd1na2vs0mg"},{"bike_id":"530bbe3c-9943-40a0-b2ab-5031f93ebaf7","system_id":"levelo_inurba_marseille","lat":43.28725,"lon":5.37941,"is_reserved":false,"is_disabled":false,"rental_uris":{"android":"levelo://app?vid=530bbe3c-9943-40a0-b2ab-5031f93ebaf7","ios":"levelo://app?vid=530bbe3c-9943-40a0-b2ab-5031f93ebaf7"},"vehicle_type_id":"4","last_reported":1748243566,"current_range_meters":13600,"station_id":"ce4bh9p2rcd13ifvqec0","pricing_plan_id":"cebpf4jnsgd1na2vs0mg"},{"bike_id":"36fa0e2c-281e-441e-847d-b93503ba6146","system_id":"levelo_inurba_marseille","lat":43.28462,"lon":5.35883,"is_reserved":false,"is_disabled":true,"rental_uris":{"android":"levelo://app?vid=36fa0e2c-281e-441e-847d-b93503ba6146","ios":"levelo://app?vid=36fa0e2c-281e-441e-847d-b93503ba6146"},"vehicle_type_id":"4","last_reported":1748243566,"current_range_meters":13600,"station_id":"ce4bhah2rcd13ifvqei0","pricing_plan_id":"cebpf4jnsgd1na2vs0mg"},{"bike_id":"f9a19947-a09b-4fc8-b7b9-470c94f2c7c9","system_id":"levelo_inurba_marseille","lat":43.273187,"lon":5.390713,"is_reserved":false,"is_disabled":false,"rental_uris":{"android":"levelo://app?vid=f9a19947-a09b-4fc8-b7b9-470c94f2c7c9","ios":"levelo://app?vid=f9a19947-a09b-4fc8-b7b9-470c94f2c7c9"},"vehicle_type_id":"4","last_reported":1748243566,"current_range_meters":13600,"station_id":"","pricing_plan_id":"cebpf4jnsgd1na2vs0mg"},{"bike_id":"35070d47-8864-49c7-a023-dc0cc96b9ab6","system_id":"levelo_inurba_marseille","lat":43.230554,"lon":5.354949,"is_reserved":false,"is_disabled":false,"rental_uris":{"android":"levelo://app?vid=35070d47-8864-49c7-a023-dc0cc96b9ab6","ios":"levelo://app?vid=35070d47-8864-49c7-a023-dc0cc96b9ab6"},"vehicle_type_id":"4","last_reported":1748243566,"current_range_meters":13600,"station_id":"cpo3342slgdg3j2ifvpg","pricing_plan_id":"cebpf4jnsgd1na2vs0mg"},{"bike_id":"1a0998e5-8bb9-474f-a827-53cad24c9e8f","system_id":"levelo_inurba_marseille","lat":43.32044,"lon":5.44943,"is_reserved":false,"is_disabled":false,"rental_uris":{"android":"levelo://app?vid=1a0998e5-8bb9-474f-a827-53cad24c9e8f","ios":"levelo://app?vid=1a0998e5-8bb9-474f-a827-53cad24c9e8f"},"vehicle_type_id":"4","last_reported":1748243566,"current_range_meters":14000,"station_id":"","pricing_plan_id":"cebpf4jnsgd1na2vs0mg"},{"bike_id":"59eb87fc-e61b-47a0-a7d9-c2d22d0eae9d","system_id":"levelo_inurba_marseille","lat":43.29279,"lon":5.36842,"is_reserved":false,"is_disabled":false,"rental_uris":{"android":"levelo://app?vid=59eb87fc-e61b-47a0-a7d9-c2d22d0eae9d","ios":"levelo://app?vid=59eb87fc-e61b-47a0-a7d9-c2d22d0eae9d"},"vehicle_type_id":"4","last_reported":1748243566,"current_range_meters":14000,"station_id":"ce4bhbp2rcd13ifvqesg","pricing_plan_id":"cebpf4jnsgd1na2vs0mg"},{"bike_id":"393bb026-2978-44df-b6d2-3150874b2dc1","system_id":"levelo_inurba_marseille","lat":43.31715,"lon":5.37777,"is_reserved":false,"is_disabled":false,"rental_uris":{"android":"levelo://app?vid=393bb026-2978-44df-b6d2-3150874b2dc1","ios":"levelo://app?vid=393bb026-2978-44df-b6d2-3150874b2dc1"},"vehicle_type_id":"4","last_reported":1748243566,"current_range_meters":14000,"station_id":"ce4bgth2rcd13ifvqch0","pricing_plan_id":"cebpf4jnsgd1na2vs0mg"},{"bike_id":"068a5942-5c8a-49b5-a494-0d6e3bbd2837","system_id":"levelo_inurba_marseille","lat":43.33606,"lon":5.41028,"is_reserved":false,"is_disabled":false,"rental_uris":{"android":"levelo://app?vid=068a5942-5c8a-49b5-a494-0d6e3bbd2837","ios":"levelo://app?vid=068a5942-5c8a-49b5-a494-0d6e3bbd2837"},"vehicle_type_id":"4","last_reported":1748243566,"current_range_meters":14400,"station_id":"ce4bhqh2rcd13ifvqhmg","pricing_plan_id":"cebpf4jnsgd1na2vs0mg"},{"bike_id":"f6fc6e5f-406b-41a8-b87d-1f5013832b04","system_id":"levelo_inurba_marseille","lat":43.30187,"lon":5.3662,"is_reserved":false,"is_disabled":false,"rental_uris":{"android":"levelo://app?vid=f6fc6e5f-406b-41a8-b87d-1f5013832b04","ios":"levelo://app?vid=f6fc6e5f-406b-41a8-b87d-1f5013832b04"},"vehicle_type_id":"4","last_reported":1748243566,"current_range_meters":14400,"station_id":"ce4bgrh2rcd13ifvqc8g","pricing_plan_id":"cebpf4jnsgd1na2vs0mg"},{"bike_id":"ae6e6868-2635-4f49-b7c1-b03759c58ec7","system_id":"levelo_inurba_marseille","lat":43.27279,"lon":5.4159,"is_reserved":false,"is_disabled":false,"rental_uris":{"android":"levelo://app?vid=ae6e6868-2635-4f49-b7c1-b03759c58ec7","ios":"levelo://app?vid=ae6e6868-2635-4f49-b7c1-b03759c58ec7"},"vehicle_type_id":"4","last_reported":1748243566,"current_range_meters":14400,"station_id":"","pricing_plan_id":"cebpf4jnsgd1na2vs0mg"},{"bike_id":"49c1dc73-1887-4f54-9192-10595c8ff05c","system_id":"levelo_inurba_marseille","lat":43.2549,"lon":5.37644,"is_reserved":false,"is_disabled":false,"rental_uris":{"android":"levelo://app?vid=49c1dc73-1887-4f54-9192-10595c8ff05c","ios":"levelo://app?vid=49c1dc73-1887-4f54-9192-10595c8ff05c"},"vehicle_type_id":"4","last_reported":1748243566,"current_range_meters":14400,"station_id":"ce4bhh12rcd13ifvqff0","pricing_plan_id":"cebpf4jnsgd1na2vs0mg"},{"bike_id":"f8221895-ab5f-46e7-b177-153a00098359","system_id":"levelo_inurba_marseille","lat":43.21749,"lon":5.34593,"is_reserved":false,"is_disabled":true,"rental_uris":{"android":"levelo://app?vid=f8221895-ab5f-46e7-b177-153a00098359","ios":"levelo://app?vid=f8221895-ab5f-46e7-b177-153a00098359"},"vehicle_type_id":"4","last_reported":1748243566,"current_range_meters":14400,"station_id":"st_cvj6r9ubvosntc0bgbag","pricing_plan_id":"cebpf4jnsgd1na2vs0mg"},{"bike_id":"44610cd8-b077-45d9-a458-54e505c54b97","system_id":"levelo_inurba_marseille","lat":43.23959,"lon":5.3663,"is_reserved":false,"is_disabled":false,"rental_uris":{"android":"levelo://app?vid=44610cd8-b077-45d9-a458-54e505c54b97","ios":"levelo://app?vid=44610cd8-b077-45d9-a458-54e505c54b97"},"vehicle_type_id":"4","last_reported":1748243566,"current_range_meters":14400,"station_id":"ce4bhi12rcd13ifvqfp0","pricing_plan_id":"cebpf4jnsgd1na2vs0mg"},{"bike_id":"a67e4c02-d557-4a3a-8a80-21ea6330af26","system_id":"levelo_inurba_marseille","lat":43.24077,"lon":5.37759,"is_reserved":false,"is_disabled":false,"rental_uris":{"android":"levelo://app?vid=a67e4c02-d557-4a3a-8a80-21ea6330af26","ios":"levelo://app?vid=a67e4c02-d557-4a3a-8a80-21ea6330af26"},"vehicle_type_id":"4","last_reported":1748243566,"current_range_meters":14400,"station_id":"ce4bhnp2rcd13ifvqgvg","pricing_plan_id":"cebpf4jnsgd1na2vs0mg"},{"bike_id":"51c3179e-1a03-4290-b5f0-508e095adf86","system_id":"levelo_inurba_marseille","lat":43.30913,"lon":5.36852,"is_reserved":false,"is_disabled":false,"rental_uris":{"android":"levelo://app?vid=51c3179e-1a03-4290-b5f0-508e095adf86","ios":"levelo://app?vid=51c3179e-1a03-4290-b5f0-508e095adf86"},"vehicle_type_id":"4","last_reported":1748243566,"current_range_meters":14800,"station_id":"ce4bgn92rcd13ifvqbvg","pricing_plan_id":"cebpf4jnsgd1na2vs0mg"},{"bike_id":"8abaecc5-0ffe-44fc-b9f5-d4aa22e2835d","system_id":"levelo_inurba_marseille","lat":43.30905,"lon":5.36848,"is_reserved":false,"is_disabled":true,"rental_uris":{"android":"levelo://app?vid=8abaecc5-0ffe-44fc-b9f5-d4aa22e2835d","ios":"levelo://app?vid=8abaecc5-0ffe-44fc-b9f5-d4aa22e2835d"},"vehicle_type_id":"4","last_reported":1748243566,"current_range_meters":14800,"station_id":"ce4bgn92rcd13ifvqbvg","pricing_plan_id":"cebpf4jnsgd1na2vs0mg"},{"bike_id":"cfcd5e9a-4347-4cc0-8053-fd10233d20a6","system_id":"levelo_inurba_marseille","lat":43.2936,"lon":5.37837,"is_reserved":false,"is_disabled":false,"rental_uris":{"android":"levelo://app?vid=cfcd5e9a-4347-4cc0-8053-fd10233d20a6","ios":"levelo://app?vid=cfcd5e9a-4347-4cc0-8053-fd10233d20a6"},"vehicle_type_id":"4","last_reported":1748243566,"current_range_meters":14800,"station_id":"ce4bgjh2rcd13ifvqbf0","pricing_plan_id":"cebpf4jnsgd1na2vs0mg"},{"bike_id":"75b2f72e-19e0-4ea3-b7eb-b02e2ff3ee84","system_id":"levelo_inurba_marseille","lat":43.2757,"lon":5.38428,"is_reserved":false,"is_disabled":false,"rental_uris":{"android":"levelo://app?vid=75b2f72e-19e0-4ea3-b7eb-b02e2ff3ee84","ios":"levelo://app?vid=75b2f72e-19e0-4ea3-b7eb-b02e2ff3ee84"},"vehicle_type_id":"4","last_reported":1748243566,"current_range_meters":14800,"station_id":"ce4bhh92rcd13ifvqfi0","pricing_plan_id":"cebpf4jnsgd1na2vs0mg"},{"bike_id":"34ffc6fe-38af-4bc3-86c8-742ab3b6ded8","system_id":"levelo_inurba_marseille","lat":43.30329,"lon":5.40445,"is_reserved":false,"is_disabled":true,"rental_uris":{"android":"levelo://app?vid=34ffc6fe-38af-4bc3-86c8-742ab3b6ded8","ios":"levelo://app?vid=34ffc6fe-38af-4bc3-86c8-742ab3b6ded8"},"vehicle_type_id":"4","last_reported":1748243566,"current_range_meters":14800,"station_id":"ce4bh012rcd13ifvqd10","pricing_plan_id":"cebpf4jnsgd1na2vs0mg"},{"bike_id":"4dd97476-ee60-4e9f-85fe-5f6d47e0452a","system_id":"levelo_inurba_marseille","lat":43.32484,"lon":5.36564,"is_reserved":false,"is_disabled":false,"rental_uris":{"android":"levelo://app?vid=4dd97476-ee60-4e9f-85fe-5f6d47e0452a","ios":"levelo://app?vid=4dd97476-ee60-4e9f-85fe-5f6d47e0452a"},"vehicle_type_id":"4","last_reported":1748243566,"current_range_meters":14800,"station_id":"ce4bhs12rcd13ifvqhvg","pricing_plan_id":"cebpf4jnsgd1na2vs0mg"},{"bike_id":"b73fb798-5eef-47be-b230-d7813f569e50","system_id":"levelo_inurba_marseille","lat":43.2978,"lon":5.38122,"is_reserved":false,"is_disabled":true,"rental_uris":{"android":"levelo://app?vid=b73fb798-5eef-47be-b230-d7813f569e50","ios":"levelo://app?vid=b73fb798-5eef-47be-b230-d7813f569e50"},"vehicle_type_id":"4","last_reported":1748243566,"current_range_meters":15200,"station_id":"ce4bgip2rcd13ifvqbb0","pricing_plan_id":"cebpf4jnsgd1na2vs0mg"},{"bike_id":"4443286a-c1bd-478e-bb42-fb9895a5ff6c","system_id":"levelo_inurba_marseille","lat":43.26802,"lon":5.40271,"is_reserved":false,"is_disabled":false,"rental_uris":{"android":"levelo://app?vid=4443286a-c1bd-478e-bb42-fb9895a5ff6c","ios":"levelo://app?vid=4443286a-c1bd-478e-bb42-fb9895a5ff6c"},"vehicle_type_id":"4","last_reported":1748243566,"current_range_meters":15200,"station_id":"ce501612rcd8frsf0b60","pricing_plan_id":"cebpf4jnsgd1na2vs0mg"},{"bike_id":"b1eb3a72-30c0-4f8b-b129-72af4111c29c","system_id":"levelo_inurba_marseille","lat":43.26806,"lon":5.40275,"is_reserved":false,"is_disabled":false,"rental_uris":{"android":"levelo://app?vid=b1eb3a72-30c0-4f8b-b129-72af4111c29c","ios":"levelo://app?vid=b1eb3a72-30c0-4f8b-b129-72af4111c29c"},"vehicle_type_id":"4","last_reported":1748243566,"current_range_meters":15200,"station_id":"ce501612rcd8frsf0b60","pricing_plan_id":"cebpf4jnsgd1na2vs0mg"},{"bike_id":"e26cf5c8-af64-44d7-85cf-509799599d79","system_id":"levelo_inurba_marseille","lat":43.30307,"lon":5.36894,"is_reserved":false,"is_disabled":false,"rental_uris":{"android":"levelo://app?vid=e26cf5c8-af64-44d7-85cf-509799599d79","ios":"levelo://app?vid=e26cf5c8-af64-44d7-85cf-509799599d79"},"vehicle_type_id":"4","last_reported":1748243566,"current_range_meters":15200,"station_id":"ce4bgqh2rcd13ifvqc5g","pricing_plan_id":"cebpf4jnsgd1na2vs0mg"},{"bike_id":"3bd5dde3-1b3b-4124-95d2-e6ff2c3d3ad4","system_id":"levelo_inurba_marseille","lat":43.29263,"lon":5.37641,"is_reserved":false,"is_disabled":false,"rental_uris":{"android":"levelo://app?vid=3bd5dde3-1b3b-4124-95d2-e6ff2c3d3ad4","ios":"levelo://app?vid=3bd5dde3-1b3b-4124-95d2-e6ff2c3d3ad4"},"vehicle_type_id":"4","last_reported":1748243566,"current_range_meters":15200,"station_id":"ce4bgi12rcd13ifvqb80","pricing_plan_id":"cebpf4jnsgd1na2vs0mg"},{"bike_id":"87a1c70e-19f2-4a6f-af4c-58dbe3350997","system_id":"levelo_inurba_marseille","lat":43.32543,"lon":5.41431,"is_reserved":false,"is_disabled":false,"rental_uris":{"android":"levelo://app?vid=87a1c70e-19f2-4a6f-af4c-58dbe3350997","ios":"levelo://app?vid=87a1c70e-19f2-4a6f-af4c-58dbe3350997"},"vehicle_type_id":"4","last_reported":1748243566,"current_range_meters":15200,"station_id":"ce4bhq12rcd13ifvqhhg","pricing_plan_id":"cebpf4jnsgd1na2vs0mg"},{"bike_id":"9ca94ac2-b851-41db-a04b-0d74f369c598","system_id":"levelo_inurba_marseille","lat":43.3362,"lon":5.41015,"is_reserved":false,"is_disabled":false,"rental_uris":{"android":"levelo://app?vid=9ca94ac2-b851-41db-a04b-0d74f369c598","ios":"levelo://app?vid=9ca94ac2-b851-41db-a04b-0d74f369c598"},"vehicle_type_id":"4","last_reported":1748243566,"current_range_meters":16000,"station_id":"ce4bhqh2rcd13ifvqhmg","pricing_plan_id":"cebpf4jnsgd1na2vs0mg"},{"bike_id":"2cecad4d-9c64-43b7-b586-a5d1c808a7f0","system_id":"levelo_inurba_marseille","lat":43.309547,"lon":5.390198,"is_reserved":false,"is_disabled":false,"rental_uris":{"android":"levelo://app?vid=2cecad4d-9c64-43b7-b586-a5d1c808a7f0","ios":"levelo://app?vid=2cecad4d-9c64-43b7-b586-a5d1c808a7f0"},"vehicle_type_id":"4","last_reported":1748243566,"current_range_meters":16000,"station_id":"ce4bgup2rcd13ifvqco0","pricing_plan_id":"cebpf4jnsgd1na2vs0mg"},{"bike_id":"77e915c2-102e-4aae-a236-d9d43c13a376","system_id":"levelo_inurba_marseille","lat":43.30539,"lon":5.36555,"is_reserved":false,"is_disabled":false,"rental_uris":{"android":"levelo://app?vid=77e915c2-102e-4aae-a236-d9d43c13a376","ios":"levelo://app?vid=77e915c2-102e-4aae-a236-d9d43c13a376"},"vehicle_type_id":"4","last_reported":1748243566,"current_range_meters":16000,"station_id":"ce4bgs12rcd13ifvqcag","pricing_plan_id":"cebpf4jnsgd1na2vs0mg"},{"bike_id":"f78dbaec-0539-499d-bf77-edfba6763f09","system_id":"levelo_inurba_marseille","lat":43.30154,"lon":5.38073,"is_reserved":false,"is_disabled":false,"rental_uris":{"android":"levelo://app?vid=f78dbaec-0539-499d-bf77-edfba6763f09","ios":"levelo://app?vid=f78dbaec-0539-499d-bf77-edfba6763f09"},"vehicle_type_id":"4","last_reported":1748243566,"current_range_meters":16000,"station_id":"ce4bgjp2rcd13ifvqbh0","pricing_plan_id":"cebpf4jnsgd1na2vs0mg"},{"bike_id":"5835b5b0-33f0-4a92-aba8-2d23d2c21e8d","system_id":"levelo_inurba_marseille","lat":43.27377,"lon":5.36254,"is_reserved":false,"is_disabled":true,"rental_uris":{"android":"levelo://app?vid=5835b5b0-33f0-4a92-aba8-2d23d2c21e8d","ios":"levelo://app?vid=5835b5b0-33f0-4a92-aba8-2d23d2c21e8d"},"vehicle_type_id":"4","last_reported":1748243566,"current_range_meters":16000,"station_id":"ce4bhbh2rcd13ifvqeo0","pricing_plan_id":"cebpf4jnsgd1na2vs0mg"},{"bike_id":"c7f6985e-4ae6-44a7-9a4f-5818470e9c1a","system_id":"levelo_inurba_marseille","lat":43.30466,"lon":5.37913,"is_reserved":false,"is_disabled":false,"rental_uris":{"android":"levelo://app?vid=c7f6985e-4ae6-44a7-9a4f-5818470e9c1a","ios":"levelo://app?vid=c7f6985e-4ae6-44a7-9a4f-5818470e9c1a"},"vehicle_type_id":"4","last_reported":1748243566,"current_range_meters":16000,"station_id":"","pricing_plan_id":"cebpf4jnsgd1na2vs0mg"},{"bike_id":"1a775a5e-1792-4706-b4f6-ec50ef749d53","system_id":"levelo_inurba_marseille","lat":43.255796,"lon":5.38223,"is_reserved":false,"is_disabled":false,"rental_uris":{"android":"levelo://app?vid=1a775a5e-1792-4706-b4f6-ec50ef749d53","ios":"levelo://app?vid=1a775a5e-1792-4706-b4f6-ec50ef749d53"},"vehicle_type_id":"4","last_reported":1748243566,"current_range_meters":16000,"station_id":"ce4bhih2rcd13ifvqfs0","pricing_plan_id":"cebpf4jnsgd1na2vs0mg"},{"bike_id":"c00abe40-2113-4d29-8e72-a841dce58b38","system_id":"levelo_inurba_marseille","lat":43.285533,"lon":5.385019,"is_reserved":false,"is_disabled":false,"rental_uris":{"android":"levelo://app?vid=c00abe40-2113-4d29-8e72-a841dce58b38","ios":"levelo://app?vid=c00abe40-2113-4d29-8e72-a841dce58b38"},"vehicle_type_id":"4","last_reported":1748243566,"current_range_meters":16000,"station_id":"","pricing_plan_id":"cebpf4jnsgd1na2vs0mg"},{"bike_id":"5d9b1af1-f977-4a30-b2a5-33040eae71a9","system_id":"levelo_inurba_marseille","lat":43.22499,"lon":5.347793,"is_reserved":false,"is_disabled":false,"rental_uris":{"android":"levelo://app?vid=5d9b1af1-f977-4a30-b2a5-33040eae71a9","ios":"levelo://app?vid=5d9b1af1-f977-4a30-b2a5-33040eae71a9"},"vehicle_type_id":"4","last_reported":1748243566,"current_range_meters":16000,"station_id":"st_cvj5dfep6f1abm77gieg","pricing_plan_id":"cebpf4jnsgd1na2vs0mg"},{"bike_id":"02d93c50-d0c3-4eef-97b2-f7b19eca064f","system_id":"levelo_inurba_marseille","lat":43.290156,"lon":5.372668,"is_reserved":false,"is_disabled":true,"rental_uris":{"android":"levelo://app?vid=02d93c50-d0c3-4eef-97b2-f7b19eca064f","ios":"levelo://app?vid=02d93c50-d0c3-4eef-97b2-f7b19eca064f"},"vehicle_type_id":"4","last_reported":1748243566,"current_range_meters":16000,"station_id":"","pricing_plan_id":"cebpf4jnsgd1na2vs0mg"},{"bike_id":"f5b1aa50-af32-4b67-af03-fc8d46feddb5","system_id":"levelo_inurba_marseille","lat":43.292694,"lon":5.401271,"is_reserved":false,"is_disabled":false,"rental_uris":{"android":"levelo://app?vid=f5b1aa50-af32-4b67-af03-fc8d46feddb5","ios":"levelo://app?vid=f5b1aa50-af32-4b67-af03-fc8d46feddb5"},"vehicle_type_id":"4","last_reported":1748243566,"current_range_meters":16000,"station_id":"","pricing_plan_id":"cebpf4jnsgd1na2vs0mg"},{"bike_id":"e565e562-2c65-4430-a127-3bd3d57afe87","system_id":"levelo_inurba_marseille","lat":43.2558,"lon":5.38232,"is_reserved":false,"is_disabled":false,"rental_uris":{"android":"levelo://app?vid=e565e562-2c65-4430-a127-3bd3d57afe87","ios":"levelo://app?vid=e565e562-2c65-4430-a127-3bd3d57afe87"},"vehicle_type_id":"4","last_reported":1748243566,"current_range_meters":16000,"station_id":"ce4bhih2rcd13ifvqfs0","pricing_plan_id":"cebpf4jnsgd1na2vs0mg"},{"bike_id":"8f866f28-652c-407a-a963-692ff4451051","system_id":"levelo_inurba_marseille","lat":43.29171,"lon":5.37165,"is_reserved":false,"is_disabled":false,"rental_uris":{"android":"levelo://app?vid=8f866f28-652c-407a-a963-692ff4451051","ios":"levelo://app?vid=8f866f28-652c-407a-a963-692ff4451051"},"vehicle_type_id":"4","last_reported":1748243566,"current_range_meters":16400,"station_id":"ce4bha92rcd13ifvqeh0","pricing_plan_id":"cebpf4jnsgd1na2vs0mg"},{"bike_id":"829d5a7b-a281-4035-8670-d541acbf4ae1","system_id":"levelo_inurba_marseille","lat":43.2721,"lon":5.391863,"is_reserved":false,"is_disabled":true,"rental_uris":{"android":"levelo://app?vid=829d5a7b-a281-4035-8670-d541acbf4ae1","ios":"levelo://app?vid=829d5a7b-a281-4035-8670-d541acbf4ae1"},"vehicle_type_id":"4","last_reported":1748243566,"current_range_meters":16400,"station_id":"ce4bhhp2rcd13ifvqfm0","pricing_plan_id":"cebpf4jnsgd1na2vs0mg"},{"bike_id":"c636587a-4feb-4216-8bef-48c303a326c7","system_id":"levelo_inurba_marseille","lat":43.30476,"lon":5.37904,"is_reserved":false,"is_disabled":false,"rental_uris":{"android":"levelo://app?vid=c636587a-4feb-4216-8bef-48c303a326c7","ios":"levelo://app?vid=c636587a-4feb-4216-8bef-48c303a326c7"},"vehicle_type_id":"4","last_reported":1748243566,"current_range_meters":16400,"station_id":"","pricing_plan_id":"cebpf4jnsgd1na2vs0mg"},{"bike_id":"6ef27e84-462a-46f9-afe5-e09b209cc7f0","system_id":"levelo_inurba_marseille","lat":43.331164,"lon":5.36207,"is_reserved":false,"is_disabled":false,"rental_uris":{"android":"levelo://app?vid=6ef27e84-462a-46f9-afe5-e09b209cc7f0","ios":"levelo://app?vid=6ef27e84-462a-46f9-afe5-e09b209cc7f0"},"vehicle_type_id":"4","last_reported":1748243566,"current_range_meters":16400,"station_id":"","pricing_plan_id":"cebpf4jnsgd1na2vs0mg"},{"bike_id":"2c4ee241-6ad0-4afe-a181-32ff6f43068b","system_id":"levelo_inurba_marseille","lat":43.30903,"lon":5.36841,"is_reserved":false,"is_disabled":false,"rental_uris":{"android":"levelo://app?vid=2c4ee241-6ad0-4afe-a181-32ff6f43068b","ios":"levelo://app?vid=2c4ee241-6ad0-4afe-a181-32ff6f43068b"},"vehicle_type_id":"4","last_reported":1748243566,"current_range_meters":16400,"station_id":"ce4bgn92rcd13ifvqbvg","pricing_plan_id":"cebpf4jnsgd1na2vs0mg"},{"bike_id":"24490955-9c89-462e-bc37-df7b58699236","system_id":"levelo_inurba_marseille","lat":43.29101,"lon":5.38148,"is_reserved":false,"is_disabled":false,"rental_uris":{"android":"levelo://app?vid=24490955-9c89-462e-bc37-df7b58699236","ios":"levelo://app?vid=24490955-9c89-462e-bc37-df7b58699236"},"vehicle_type_id":"4","last_reported":1748243566,"current_range_meters":16400,"station_id":"ce4bh512rcd13ifvqe2g","pricing_plan_id":"cebpf4jnsgd1na2vs0mg"},{"bike_id":"3d27a785-46c6-42e2-8a18-1413f3a39002","system_id":"levelo_inurba_marseille","lat":43.29859,"lon":5.36257,"is_reserved":false,"is_disabled":false,"rental_uris":{"android":"levelo://app?vid=3d27a785-46c6-42e2-8a18-1413f3a39002","ios":"levelo://app?vid=3d27a785-46c6-42e2-8a18-1413f3a39002"},"vehicle_type_id":"4","last_reported":1748243566,"current_range_meters":16400,"station_id":"ce4bgpp2rcd13ifvqc3g","pricing_plan_id":"cebpf4jnsgd1na2vs0mg"},{"bike_id":"d5658925-7a88-4989-8de6-5e98b3f857f6","system_id":"levelo_inurba_marseille","lat":43.33604,"lon":5.41026,"is_reserved":false,"is_disabled":false,"rental_uris":{"android":"levelo://app?vid=d5658925-7a88-4989-8de6-5e98b3f857f6","ios":"levelo://app?vid=d5658925-7a88-4989-8de6-5e98b3f857f6"},"vehicle_type_id":"4","last_reported":1748243566,"current_range_meters":16400,"station_id":"ce4bhqh2rcd13ifvqhmg","pricing_plan_id":"cebpf4jnsgd1na2vs0mg"},{"bike_id":"031c9986-0df8-4f08-a1df-8f304d8df02c","system_id":"levelo_inurba_marseille","lat":43.26791,"lon":5.39407,"is_reserved":false,"is_disabled":false,"rental_uris":{"android":"levelo://app?vid=031c9986-0df8-4f08-a1df-8f304d8df02c","ios":"levelo://app?vid=031c9986-0df8-4f08-a1df-8f304d8df02c"},"vehicle_type_id":"4","last_reported":1748243566,"current_range_meters":16400,"station_id":"ce4bhh12rcd13ifvqfg0","pricing_plan_id":"cebpf4jnsgd1na2vs0mg"},{"bike_id":"c07b68dc-e27a-4cfa-9438-a79b9c09b01d","system_id":"levelo_inurba_marseille","lat":43.29032,"lon":5.37574,"is_reserved":false,"is_disabled":false,"rental_uris":{"android":"levelo://app?vid=c07b68dc-e27a-4cfa-9438-a79b9c09b01d","ios":"levelo://app?vid=c07b68dc-e27a-4cfa-9438-a79b9c09b01d"},"vehicle_type_id":"4","last_reported":1748243566,"current_range_meters":16400,"station_id":"ce4bh692rcd13ifvqe90","pricing_plan_id":"cebpf4jnsgd1na2vs0mg"},{"bike_id":"2a046dee-b3af-48c9-9659-b7d30ba20af5","system_id":"levelo_inurba_marseille","lat":43.243282,"lon":5.379971,"is_reserved":false,"is_disabled":false,"rental_uris":{"android":"levelo://app?vid=2a046dee-b3af-48c9-9659-b7d30ba20af5","ios":"levelo://app?vid=2a046dee-b3af-48c9-9659-b7d30ba20af5"},"vehicle_type_id":"4","last_reported":1748243566,"current_range_meters":16400,"station_id":"","pricing_plan_id":"cebpf4jnsgd1na2vs0mg"},{"bike_id":"e8ae71f9-c896-491c-9f79-889625e83f12","system_id":"levelo_inurba_marseille","lat":43.26056,"lon":5.39397,"is_reserved":false,"is_disabled":false,"rental_uris":{"android":"levelo://app?vid=e8ae71f9-c896-491c-9f79-889625e83f12","ios":"levelo://app?vid=e8ae71f9-c896-491c-9f79-889625e83f12"},"vehicle_type_id":"4","last_reported":1748243566,"current_range_meters":16400,"station_id":"ce4bhh92rcd13ifvqfj0","pricing_plan_id":"cebpf4jnsgd1na2vs0mg"},{"bike_id":"949664e4-ff0a-4d5d-be33-4d871ee08edc","system_id":"levelo_inurba_marseille","lat":43.23172,"lon":5.40006,"is_reserved":false,"is_disabled":true,"rental_uris":{"android":"levelo://app?vid=949664e4-ff0a-4d5d-be33-4d871ee08edc","ios":"levelo://app?vid=949664e4-ff0a-4d5d-be33-4d871ee08edc"},"vehicle_type_id":"4","last_reported":1748243566,"current_range_meters":16400,"station_id":"ce4bhn12rcd13ifvqgqg","pricing_plan_id":"cebpf4jnsgd1na2vs0mg"},{"bike_id":"6469c1ec-e92c-4087-b2e5-3e8c33cf21ab","system_id":"levelo_inurba_marseille","lat":43.29174,"lon":5.37144,"is_reserved":false,"is_disabled":false,"rental_uris":{"android":"levelo://app?vid=6469c1ec-e92c-4087-b2e5-3e8c33cf21ab","ios":"levelo://app?vid=6469c1ec-e92c-4087-b2e5-3e8c33cf21ab"},"vehicle_type_id":"4","last_reported":1748243566,"current_range_meters":16800,"station_id":"ce4bha92rcd13ifvqeh0","pricing_plan_id":"cebpf4jnsgd1na2vs0mg"},{"bike_id":"6a84eee3-edad-46fd-a8d6-679b97fdfe12","system_id":"levelo_inurba_marseille","lat":43.23053,"lon":5.35492,"is_reserved":false,"is_disabled":false,"rental_uris":{"android":"levelo://app?vid=6a84eee3-edad-46fd-a8d6-679b97fdfe12","ios":"levelo://app?vid=6a84eee3-edad-46fd-a8d6-679b97fdfe12"},"vehicle_type_id":"4","last_reported":1748243566,"current_range_meters":16800,"station_id":"cpo3342slgdg3j2ifvpg","pricing_plan_id":"cebpf4jnsgd1na2vs0mg"},{"bike_id":"10a871a0-db5e-4431-b162-353f0b92a468","system_id":"levelo_inurba_marseille","lat":43.26955,"lon":5.38636,"is_reserved":false,"is_disabled":false,"rental_uris":{"android":"levelo://app?vid=10a871a0-db5e-4431-b162-353f0b92a468","ios":"levelo://app?vid=10a871a0-db5e-4431-b162-353f0b92a468"},"vehicle_type_id":"4","last_reported":1748243566,"current_range_meters":16800,"station_id":"ce4bhh92rcd13ifvqfh0","pricing_plan_id":"cebpf4jnsgd1na2vs0mg"},{"bike_id":"49fd12f5-aef0-4a4b-82df-4e0f84c8e503","system_id":"levelo_inurba_marseille","lat":43.261788,"lon":5.404966,"is_reserved":false,"is_disabled":false,"rental_uris":{"android":"levelo://app?vid=49fd12f5-aef0-4a4b-82df-4e0f84c8e503","ios":"levelo://app?vid=49fd12f5-aef0-4a4b-82df-4e0f84c8e503"},"vehicle_type_id":"4","last_reported":1748243566,"current_range_meters":16800,"station_id":"ce4bhkp2rcd13ifvqgd0","pricing_plan_id":"cebpf4jnsgd1na2vs0mg"},{"bike_id":"8a99a3e8-693b-4453-958a-81741fce3f35","system_id":"levelo_inurba_marseille","lat":43.25946,"lon":5.40898,"is_reserved":false,"is_disabled":false,"rental_uris":{"android":"levelo://app?vid=8a99a3e8-693b-4453-958a-81741fce3f35","ios":"levelo://app?vid=8a99a3e8-693b-4453-958a-81741fce3f35"},"vehicle_type_id":"4","last_reported":1748243566,"current_range_meters":16800,"station_id":"ce4bhm92rcd13ifvqglg","pricing_plan_id":"cebpf4jnsgd1na2vs0mg"},{"bike_id":"e6c65de3-7d92-4979-809c-6677188473c0","system_id":"levelo_inurba_marseille","lat":43.337587,"lon":5.374316,"is_reserved":false,"is_disabled":false,"rental_uris":{"android":"levelo://app?vid=e6c65de3-7d92-4979-809c-6677188473c0","ios":"levelo://app?vid=e6c65de3-7d92-4979-809c-6677188473c0"},"vehicle_type_id":"4","last_reported":1748243566,"current_range_meters":16800,"station_id":"","pricing_plan_id":"cebpf4jnsgd1na2vs0mg"},{"bike_id":"b9c6f7aa-eeb7-4b50-8a0f-1842bd3705a6","system_id":"levelo_inurba_marseille","lat":43.25716,"lon":5.41064,"is_reserved":false,"is_disabled":false,"rental_uris":{"android":"levelo://app?vid=b9c6f7aa-eeb7-4b50-8a0f-1842bd3705a6","ios":"levelo://app?vid=b9c6f7aa-eeb7-4b50-8a0f-1842bd3705a6"},"vehicle_type_id":"4","last_reported":1748243566,"current_range_meters":16800,"station_id":"ce4bhkp2rcd13ifvqgd0","pricing_plan_id":"cebpf4jnsgd1na2vs0mg"},{"bike_id":"3b1381ba-6012-4323-8a4c-d536c160e653","system_id":"levelo_inurba_marseille","lat":43.2586,"lon":5.39895,"is_reserved":false,"is_disabled":true,"rental_uris":{"android":"levelo://app?vid=3b1381ba-6012-4323-8a4c-d536c160e653","ios":"levelo://app?vid=3b1381ba-6012-4323-8a4c-d536c160e653"},"vehicle_type_id":"4","last_reported":1748243566,"current_range_meters":16800,"station_id":"ce4bhl92rcd13ifvqghg","pricing_plan_id":"cebpf4jnsgd1na2vs0mg"},{"bike_id":"7d6141e7-0487-4e3b-a0ac-38c894941b43","system_id":"levelo_inurba_marseille","lat":43.31347,"lon":5.36702,"is_reserved":false,"is_disabled":false,"rental_uris":{"android":"levelo://app?vid=7d6141e7-0487-4e3b-a0ac-38c894941b43","ios":"levelo://app?vid=7d6141e7-0487-4e3b-a0ac-38c894941b43"},"vehicle_type_id":"4","last_reported":1748243566,"current_range_meters":16800,"station_id":"","pricing_plan_id":"cebpf4jnsgd1na2vs0mg"},{"bike_id":"85efa91f-972b-4823-9ff9-759601b0dd88","system_id":"levelo_inurba_marseille","lat":43.300765,"lon":5.40403,"is_reserved":false,"is_disabled":false,"rental_uris":{"android":"levelo://app?vid=85efa91f-972b-4823-9ff9-759601b0dd88","ios":"levelo://app?vid=85efa91f-972b-4823-9ff9-759601b0dd88"},"vehicle_type_id":"4","last_reported":1748243566,"current_range_meters":16800,"station_id":"","pricing_plan_id":"cebpf4jnsgd1na2vs0mg"},{"bike_id":"b924a3f3-43e7-4e62-9b05-a9055412a6ac","system_id":"levelo_inurba_marseille","lat":43.29703,"lon":5.36613,"is_reserved":false,"is_disabled":false,"rental_uris":{"android":"levelo://app?vid=b924a3f3-43e7-4e62-9b05-a9055412a6ac","ios":"levelo://app?vid=b924a3f3-43e7-4e62-9b05-a9055412a6ac"},"vehicle_type_id":"4","last_reported":1748243566,"current_range_meters":16800,"station_id":"ce4bgn12rcd13ifvqbt0","pricing_plan_id":"cebpf4jnsgd1na2vs0mg"},{"bike_id":"7c1d476f-d6d9-49be-9af4-dd93998d71fd","system_id":"levelo_inurba_marseille","lat":43.30532,"lon":5.367,"is_reserved":false,"is_disabled":false,"rental_uris":{"android":"levelo://app?vid=7c1d476f-d6d9-49be-9af4-dd93998d71fd","ios":"levelo://app?vid=7c1d476f-d6d9-49be-9af4-dd93998d71fd"},"vehicle_type_id":"4","last_reported":1748243566,"current_range_meters":16800,"station_id":"ce4bgrp2rcd13ifvqc9g","pricing_plan_id":"cebpf4jnsgd1na2vs0mg"},{"bike_id":"05bb6c29-bb10-4977-b456-549352f549ad","system_id":"levelo_inurba_marseille","lat":43.24175,"lon":5.39726,"is_reserved":false,"is_disabled":false,"rental_uris":{"android":"levelo://app?vid=05bb6c29-bb10-4977-b456-549352f549ad","ios":"levelo://app?vid=05bb6c29-bb10-4977-b456-549352f549ad"},"vehicle_type_id":"4","last_reported":1748243566,"current_range_meters":16800,"station_id":"ce4bhn12rcd13ifvqgpg","pricing_plan_id":"cebpf4jnsgd1na2vs0mg"},