{"last_updated":1728328007,"ttl":60,"version":"2.2","data":{"bikes":[{"bike_id":"57553b10-65c5-4902-93ea-d1debdf4f122","system_id":"levelo_inurba_marseille","lat":43.28275,"lon":5.35061,"is_reserved":false,"is_disabled":false,"rental_uris":{"android":"levelo://app?vid=57553b10-65c5-4902-93ea-d1debdf4f122","ios":"levelo://app?vid=57553b10-65c5-4902-93ea-d1debdf4f122"},"vehicle_type_id":"4","last_reported":1728328007,"current_range_meters":23200,"station_id":"ce4bhbp2rcd13ifvqerg","pricing_plan_id":"cebpf4jnsgd1na2vs0mg"},{"bike_id":"f388f7a0-ce81-424e-81ff-f56071b4276d","system_id":"levelo_inurba_marseille","lat":43.25726,"lon":5.41108,"is_reserved":false,"is_disabled":false,"rental_uris":{"android":"levelo://app?vid=f388f7a0-ce81-424e-81ff-f56071b4276d","ios":"levelo://app?vid=f388f7a0-ce81-424e-81ff-f56071b4276d"},"vehicle_type_id":"4","last_reported":1728328007,"current_range_meters":30400,"station_id":"ce4bhkp2rcd13ifvqgd0","pricing_plan_id":"cebpf4jnsgd1na2vs0mg"},{"bike_id":"9c4c72c6-a204-4ec6-b60f-4072f9a90ddd","system_id":"levelo_inurba_marseille","lat":43.2869,"lon":5.3739,"is_reserved":false,"is_disabled":false,"rental_uris":{"android":"levelo://app?vid=9c4c72c6-a204-4ec6-b60f-4072f9a90ddd","ios":"levelo://app?vid=9c4c72c6-a204-4ec6-b60f-4072f9a90ddd"},"vehicle_type_id":"4","last_reported":1728328007,"current_range_meters":7200,"station_id":"ce4bh3p2rcd13ifvqdq0","pricing_plan_id":"cebpf4jnsgd1na2vs0mg"},{"bike_id":"622610cf-c33e-4666-809d-03945b9f6931","system_id":"levelo_inurba_marseille","lat":43.25088,"lon":5.3951,"is_reserved":false,"is_disabled":false,"rental_uris":{"android":"levelo://app?vid=622610cf-c33e-4666-809d-03945b9f6931","ios":"levelo://app?vid=622610cf-c33e-4666-809d-03945b9f6931"},"vehicle_type_id":"4","last_reported":1728328007,"current_range_meters":20800,"station_id":"ce4bhm12rcd13ifvqgkg","pricing_plan_id":"cebpf4jnsgd1na2vs0mg"},{"bike_id":"66a22766-b56d-45f8-b6e5-c5b4f2a8a7a9","system_id":"levelo_inurba_marseille","lat":43.28676,"lon":5.38667,"is_reserved":false,"is_disabled":false,"rental_uris":{"android":"levelo://app?vid=66a22766-b56d-45f8-b6e5-c5b4f2a8a7a9","ios":"levelo://app?vid=66a22766-b56d-45f8-b6e5-c5b4f2a8a7a9"},"vehicle_type_id":"4","last_reported":1728328007,"current_range_meters":28800,"station_id":"ce4bh492rcd13ifvqdug","pricing_plan_id":"cebpf4jnsgd1na2vs0mg"},{"bike_id":"3edccbad-c604-40df-acb2-6e9d91b67298","system_id":"levelo_inurba_marseille","lat":43.23058,"lon":5.35486,"is_reserved":false,"is_disabled":false,"rental_uris":{"android":"levelo://app?vid=3edccbad-c604-40df-acb2-6e9d91b67298","ios":"levelo://app?vid=3edccbad-c604-40df-acb2-6e9d91b67298"},"vehicle_type_id":"4","last_reported":1728328007,"current_range_meters":19200,"station_id":"cpo3342slgdg3j2ifvpg","pricing_plan_id":"cebpf4jnsgd1na2vs0mg"},{"bike_id":"a989dcd4-4f7f-42a6-b472-767b8e02677c","system_id":"levelo_inurba_marseille","lat":43.28461,"lon":5.35884,"is_reserved":false,"is_disabled":false,"rental_uris":{"android":"levelo://app?vid=a989dcd4-4f7f-42a6-b472-767b8e02677c","ios":"levelo://app?vid=a989dcd4-4f7f-42a6-b472-767b8e02677c"},"vehicle_type_id":"4","last_reported":1728328007,"current_range_meters":28000,"station_id":"ce4bhah2rcd13ifvqei0","pricing_plan_id":"cebpf4jnsgd1na2vs0mg"},{"bike_id":"56d3a2c1-cbab-4447-a367-83dfb2dbdacd","system_id":"levelo_inurba_marseille","lat":43.30883,"lon":5.39663,"is_reserved":false,"is_disabled":false,"rental_uris":{"android":"levelo://app?vid=56d3a2c1-cbab-4447-a367-83dfb2dbdacd","ios":"levelo://app?vid=56d3a2c1-cbab-4447-a367-83dfb2dbdacd"},"vehicle_type_id":"4","last_reported":1728328007,"current_range_meters":11600,"station_id":"ce4bh012rcd13ifvqcv0","pricing_plan_id":"cebpf4jnsgd1na2vs0mg"},{"bike_id":"76961a04-ec29-4f75-9343-f7fa8901c9d4","system_id":"levelo_inurba_marseille","lat":43.31359,"lon":5.38504,"is_reserved":false,"is_disabled":false,"rental_uris":{"android":"levelo://app?vid=76961a04-ec29-4f75-9343-f7fa8901c9d4","ios":"levelo://app?vid=76961a04-ec29-4f75-9343-f7fa8901c9d4"},"vehicle_type_id":"4","last_reported":1728328007,"current_range_meters":22800,"station_id":"ce4bgt92rcd13ifvqcf0","pricing_plan_id":"cebpf4jnsgd1na2vs0mg"},{"bike_id":"ce2b5b5e-0d3c-420d-8ee4-1f35a392d8d5","system_id":"levelo_inurba_marseille","lat":43.29782,"lon":5.39339,"is_reserved":false,"is_disabled":false,"rental_uris":{"android":"levelo://app?vid=ce2b5b5e-0d3c-420d-8ee4-1f35a392d8d5","ios":"levelo://app?vid=ce2b5b5e-0d3c-420d-8ee4-1f35a392d8d5"},"vehicle_type_id":"4","last_reported":1728328007,"current_range_meters":38800,"station_id":"chh1huq6cuj3fo74tm60","pricing_plan_id":"cebpf4jnsgd1na2vs0mg"},{"bike_id":"8434a2ed-fd19-4b2c-bbfe-47639a7e5620","system_id":"levelo_inurba_marseille","lat":43.28116,"lon":5.40183,"is_reserved":false,"is_disabled":false,"rental_uris":{"android":"levelo://app?vid=8434a2ed-fd19-4b2c-bbfe-47639a7e5620","ios":"levelo://app?vid=8434a2ed-fd19-4b2c-bbfe-47639a7e5620"},"vehicle_type_id":"4","last_reported":1728328007,"current_range_meters":28000,"station_id":"ce4bhip2rcd13ifvqft0","pricing_plan_id":"cebpf4jnsgd1na2vs0mg"},{"bike_id":"194545a4-9a17-410e-84e8-f3516539e740","system_id":"levelo_inurba_marseille","lat":43.28271,"lon":5.3507,"is_reserved":false,"is_disabled":false,"rental_uris":{"android":"levelo://app?vid=194545a4-9a17-410e-84e8-f3516539e740","ios":"levelo://app?vid=194545a4-9a17-410e-84e8-f3516539e740"},"vehicle_type_id":"4","last_reported":1728328007,"current_range_meters":38800,"station_id":"ce4bhbp2rcd13ifvqerg","pricing_plan_id":"cebpf4jnsgd1na2vs0mg"},{"bike_id":"16c52e8b-36b9-4e33-9149-6046d7ca6a07","system_id":"levelo_inurba_marseille","lat":43.29025,"lon":5.38633,"is_reserved":false,"is_disabled":false,"rental_uris":{"android":"levelo://app?vid=16c52e8b-36b9-4e33-9149-6046d7ca6a07","ios":"levelo://app?vid=16c52e8b-36b9-4e33-9149-6046d7ca6a07"},"vehicle_type_id":"4","last_reported":1728328007,"current_range_meters":27200,"station_id":"ce4bh4p2rcd13ifvqe0g","pricing_plan_id":"cebpf4jnsgd1na2vs0mg"},{"bike_id":"f98bb40f-d960-4bc7-9e7b-61a1204a6147","system_id":"levelo_inurba_marseille","lat":43.30175,"lon":5.36632,"is_reserved":false,"is_disabled":false,"rental_uris":{"android":"levelo://app?vid=f98bb40f-d960-4bc7-9e7b-61a1204a6147","ios":"levelo://app?vid=f98bb40f-d960-4bc7-9e7b-61a1204a6147"},"vehicle_type_id":"4","last_reported":1728328007,"current_range_meters":30800,"station_id":"ce4bgrh2rcd13ifvqc8g","pricing_plan_id":"cebpf4jnsgd1na2vs0mg"},{"bike_id":"5cbc9c45-d090-40f0-bf46-98bb0454ae1f","system_id":"levelo_inurba_marseille","lat":43.29193,"lon":5.39315,"is_reserved":false,"is_disabled":false,"rental_uris":{"android":"levelo://app?vid=5cbc9c45-d090-40f0-bf46-98bb0454ae1f","ios":"levelo://app?vid=5cbc9c45-d090-40f0-bf46-98bb0454ae1f"},"vehicle_type_id":"4","last_reported":1728328007,"current_range_meters":39200,"station_id":"ce4bh192rcd13ifvqdd0","pricing_plan_id":"cebpf4jnsgd1na2vs0mg"},{"bike_id":"750fdf43-1998-4e3d-adf4-8eefb4129a51","system_id":"levelo_inurba_marseille","lat":43.29416,"lon":5.38327,"is_reserved":false,"is_disabled":false,"rental_uris":{"android":"levelo://app?vid=750fdf43-1998-4e3d-adf4-8eefb4129a51","ios":"levelo://app?vid=750fdf43-1998-4e3d-adf4-8eefb4129a51"},"vehicle_type_id":"4","last_reported":1728328007,"current_range_meters":17200,"station_id":"","pricing_plan_id":"cebpf4jnsgd1na2vs0mg"},{"bike_id":"11b35691-6b69-4e44-9896-778a89c5f594","system_id":"levelo_inurba_marseille","lat":43.28864,"lon":5.35866,"is_reserved":false,"is_disabled":false,"rental_uris":{"android":"levelo://app?vid=11b35691-6b69-4e44-9896-778a89c5f594","ios":"levelo://app?vid=11b35691-6b69-4e44-9896-778a89c5f594"},"vehicle_type_id":"4","last_reported":1728328007,"current_range_meters":28400,"station_id":"ce4bhb12rcd13ifvqem0","pricing_plan_id":"cebpf4jnsgd1na2vs0mg"},{"bike_id":"81b07a05-4c57-4e76-99d6-5f6e3acbb201","system_id":"levelo_inurba_marseille","lat":43.23066,"lon":5.35494,"is_reserved":false,"is_disabled":false,"rental_uris":{"android":"levelo://app?vid=81b07a05-4c57-4e76-99d6-5f6e3acbb201","ios":"levelo://app?vid=81b07a05-4c57-4e76-99d6-5f6e3acbb201"},"vehicle_type_id":"4","last_reported":1728328007,"current_range_meters":10800,"station_id":"cpo3342slgdg3j2ifvpg","pricing_plan_id":"cebpf4jnsgd1na2vs0mg"},{"bike_id":"aaae3be1-8185-47a1-8d93-c54c28339735","system_id":"levelo_inurba_marseille","lat":43.28939,"lon":5.36643,"is_reserved":false,"is_disabled":false,"rental_uris":{"android":"levelo://app?vid=aaae3be1-8185-47a1-8d93-c54c28339735","ios":"levelo://app?vid=aaae3be1-8185-47a1-8d93-c54c28339735"},"vehicle_type_id":"4","last_reported":1728328007,"current_range_meters":12400,"station_id":"ce4bhap2rcd13ifvqek0","pricing_plan_id":"cebpf4jnsgd1na2vs0mg"},{"bike_id":"f6f735b2-2c7f-4bda-80c2-a88a32bd651a","system_id":"levelo_inurba_marseille","lat":43.28457,"lon":5.35895,"is_reserved":false,"is_disabled":false,"rental_uris":{"android":"levelo://app?vid=f6f735b2-2c7f-4bda-80c2-a88a32bd651a","ios":"levelo://app?vid=f6f735b2-2c7f-4bda-80c2-a88a32bd651a"},"vehicle_type_id":"4","last_reported":1728328007,"current_range_meters":8400,"station_id":"ce4bhah2rcd13ifvqei0","pricing_plan_id":"cebpf4jnsgd1na2vs0mg"},{"bike_id":"570f40ce-cdeb-4a84-8845-afbb8d96aa53","system_id":"levelo_inurba_marseille","lat":43.29579,"lon":5.36742,"is_reserved":false,"is_disabled":false,"rental_uris":{"android":"levelo://app?vid=570f40ce-cdeb-4a84-8845-afbb8d96aa53","ios":"levelo://app?vid=570f40ce-cdeb-4a84-8845-afbb8d96aa53"},"vehicle_type_id":"4","last_reported":1728328007,"current_range_meters":16800,"station_id":"ce4bgph2rcd13ifvqc2g","pricing_plan_id":"cebpf4jnsgd1na2vs0mg"},{"bike_id":"6d824c34-2351-420f-af18-9b4cc7237903","system_id":"levelo_inurba_marseille","lat":43.30907,"lon":5.36846,"is_reserved":false,"is_disabled":false,"rental_uris":{"android":"levelo://app?vid=6d824c34-2351-420f-af18-9b4cc7237903","ios":"levelo://app?vid=6d824c34-2351-420f-af18-9b4cc7237903"},"vehicle_type_id":"4","last_reported":1728328007,"current_range_meters":30400,"station_id":"ce4bgn92rcd13ifvqbvg","pricing_plan_id":"cebpf4jnsgd1na2vs0mg"},{"bike_id":"c2dbe9fe-42fc-49ee-8f65-625ce0153505","system_id":"levelo_inurba_marseille","lat":43.28724,"lon":5.3609,"is_reserved":false,"is_disabled":false,"rental_uris":{"android":"levelo://app?vid=c2dbe9fe-42fc-49ee-8f65-625ce0153505","ios":"levelo://app?vid=c2dbe9fe-42fc-49ee-8f65-625ce0153505"},"vehicle_type_id":"4","last_reported":1728328007,"current_range_meters":16800,"station_id":"cki0cbj6b192h4jlfktg","pricing_plan_id":"cebpf4jnsgd1na2vs0mg"},{"bike_id":"663d807d-5236-4795-8907-d41427101515","system_id":"levelo_inurba_marseille","lat":43.33028,"lon":5.39042,"is_reserved":false,"is_disabled":false,"rental_uris":{"android":"levelo://app?vid=663d807d-5236-4795-8907-d41427101515","ios":"levelo://app?vid=663d807d-5236-4795-8907-d41427101515"},"vehicle_type_id":"4","last_reported":1728328007,"current_range_meters":38000,"station_id":"ce4bhr92rcd13ifvqhrg","pricing_plan_id":"cebpf4jnsgd1na2vs0mg"},{"bike_id":"0190a491-52c0-46a5-be20-b72d156a36de","system_id":"levelo_inurba_marseille","lat":43.31275,"lon":5.40169,"is_reserved":false,"is_disabled":false,"rental_uris":{"android":"levelo://app?vid=0190a491-52c0-46a5-be20-b72d156a36de","ios":"levelo://app?vid=0190a491-52c0-46a5-be20-b72d156a36de"},"vehicle_type_id":"4","last_reported":1728328007,"current_range_meters":36400,"station_id":"ce4bh092rcd13ifvqd30","pricing_plan_id":"cebpf4jnsgd1na2vs0mg"},{"bike_id":"57200848-7607-401d-a589-e41c66a9c601","system_id":"levelo_inurba_marseille","lat":43.31361,"lon":5.38496,"is_reserved":false,"is_disabled":false,"rental_uris":{"android":"levelo://app?vid=57200848-7607-401d-a589-e41c66a9c601","ios":"levelo://app?vid=57200848-7607-401d-a589-e41c66a9c601"},"vehicle_type_id":"4","last_reported":1728328007,"current_range_meters":26000,"station_id":"ce4bgt92rcd13ifvqcf0","pricing_plan_id":"cebpf4jnsgd1na2vs0mg"},{"bike_id":"d29b1d89-d57b-40ba-a552-3e8915573720","system_id":"levelo_inurba_marseille","lat":43.2872,"lon":5.37946,"is_reserved":false,"is_disabled":false,"rental_uris":{"android":"levelo://app?vid=d29b1d89-d57b-40ba-a552-3e8915573720","ios":"levelo://app?vid=d29b1d89-d57b-40ba-a552-3e8915573720"},"vehicle_type_id":"4","last_reported":1728328007,"current_range_meters":18000,"station_id":"ce4bh9p2rcd13ifvqec0","pricing_plan_id":"cebpf4jnsgd1na2vs0mg"},{"bike_id":"35db5aab-a536-4286-87d7-90ec43783f24","system_id":"levelo_inurba_marseille","lat":43.23193,"lon":5.35557,"is_reserved":false,"is_disabled":false,"rental_uris":{"android":"levelo://app?vid=35db5aab-a536-4286-87d7-90ec43783f24","ios":"levelo://app?vid=35db5aab-a536-4286-87d7-90ec43783f24"},"vehicle_type_id":"4","last_reported":1728328007,"current_range_meters":34800,"station_id":"ce4bhu92rcd13ifvqi70","pricing_plan_id":"cebpf4jnsgd1na2vs0mg"},{"bike_id":"860c37f5-ffde-4aa9-95ed-4f2ed1f0a5e2","system_id":"levelo_inurba_marseille","lat":43.2512,"lon":5.40321,"is_reserved":false,"is_disabled":false,"rental_uris":{"android":"levelo://app?vid=860c37f5-ffde-4aa9-95ed-4f2ed1f0a5e2","ios":"levelo://app?vid=860c37f5-ffde-4aa9-95ed-4f2ed1f0a5e2"},"vehicle_type_id":"4","last_reported":1728328007,"current_range_meters":34000,"station_id":"ce4bhlh2rcd13ifvqgig","pricing_plan_id":"cebpf4jnsgd1na2vs0mg"},{"bike_id":"62dfd99c-f976-4937-b2d0-5b50f5ae699f","system_id":"levelo_inurba_marseille","lat":43.24175,"lon":5.364,"is_reserved":false,"is_disabled":false,"rental_uris":{"android":"levelo://app?vid=62dfd99c-f976-4937-b2d0-5b50f5ae699f","ios":"levelo://app?vid=62dfd99c-f976-4937-b2d0-5b50f5ae699f"},"vehicle_type_id":"4","last_reported":1728328007,"current_range_meters":9200,"station_id":"cpo36qri1sfpv3e86is0","pricing_plan_id":"cebpf4jnsgd1na2vs0mg"},{"bike_id":"7b8fd79a-d4c2-4cd3-9aff-76cbbe427614","system_id":"levelo_inurba_marseille","lat":43.29196,"lon":5.35807,"is_reserved":false,"is_disabled":false,"rental_uris":{"android":"levelo://app?vid=7b8fd79a-d4c2-4cd3-9aff-76cbbe427614","ios":"levelo://app?vid=7b8fd79a-d4c2-4cd3-9aff-76cbbe427614"},"vehicle_type_id":"4","last_reported":1728328007,"current_range_meters":16800,"station_id":"ce4bhb12rcd13ifvqel0","pricing_plan_id":"cebpf4jnsgd1na2vs0mg"},{"bike_id":"d5b8bfb4-409c-4850-a69d-4732b5060224","system_id":"levelo_inurba_marseille","lat":43.31347,"lon":5.36737,"is_reserved":false,"is_disabled":false,"rental_uris":{"android":"levelo://app?vid=d5b8bfb4-409c-4850-a69d-4732b5060224","ios":"levelo://app?vid=d5b8bfb4-409c-4850-a69d-4732b5060224"},"vehicle_type_id":"4","last_reported":1728328007,"current_range_meters":39200,"station_id":"ce4bgr92rcd13ifvqc6g","pricing_plan_id":"cebpf4jnsgd1na2vs0mg"},{"bike_id":"f56ed183-c171-43a4-bca4-4294716ea0dd","system_id":"levelo_inurba_marseille","lat":43.29205,"lon":5.3933,"is_reserved":false,"is_disabled":false,"rental_uris":{"android":"levelo://app?vid=f56ed183-c171-43a4-bca4-4294716ea0dd","ios":"levelo://app?vid=f56ed183-c171-43a4-bca4-4294716ea0dd"},"vehicle_type_id":"4","last_reported":1728328007,"current_range_meters":5600,"station_id":"ce4bh192rcd13ifvqdd0","pricing_plan_id":"cebpf4jnsgd1na2vs0mg"},{"bike_id":"e2ccd035-e2f6-4b13-8c3b-407f63e2c6d1","system_id":"levelo_inurba_marseille","lat":43.33031,"lon":5.3904,"is_reserved":false,"is_disabled":false,"rental_uris":{"android":"levelo://app?vid=e2ccd035-e2f6-4b13-8c3b-407f63e2c6d1","ios":"levelo://app?vid=e2ccd035-e2f6-4b13-8c3b-407f63e2c6d1"},"vehicle_type_id":"4","last_reported":1728328007,"current_range_meters":6400,"station_id":"ce4bhr92rcd13ifvqhrg","pricing_plan_id":"cebpf4jnsgd1na2vs0mg"},{"bike_id":"25d80bec-619c-452c-aac9-52e685647b89","system_id":"levelo_inurba_marseille","lat":43.26949,"lon":5.40261,"is_reserved":false,"is_disabled":false,"rental_uris":{"android":"levelo://app?vid=25d80bec-619c-452c-aac9-52e685647b89","ios":"levelo://app?vid=25d80bec-619c-452c-aac9-52e685647b89"},"vehicle_type_id":"4","last_reported":1728328007,"current_range_meters":6800,"station_id":"cjm6bp8fraef2m0cb0m0","pricing_plan_id":"cebpf4jnsgd1na2vs0mg"},{"bike_id":"78fb5ffe-66d4-407f-9cbc-4af5a1aaf411","system_id":"levelo_inurba_marseille","lat":43.29782,"lon":5.37098,"is_reserved":false,"is_disabled":false,"rental_uris":{"android":"levelo://app?vid=78fb5ffe-66d4-407f-9cbc-4af5a1aaf411","ios":"levelo://app?vid=78fb5ffe-66d4-407f-9cbc-4af5a1aaf411"},"vehicle_type_id":"4","last_reported":1728328007,"current_range_meters":30000,"station_id":"ce4bgop2rcd13ifvqc1g","pricing_plan_id":"cebpf4jnsgd1na2vs0mg"},{"bike_id":"0589884c-39e4-4fca-a9f2-72ccf02df3e0","system_id":"levelo_inurba_marseille","lat":43.28853,"lon":5.35854,"is_reserved":false,"is_disabled":false,"rental_uris":{"android":"levelo://app?vid=0589884c-39e4-4fca-a9f2-72ccf02df3e0","ios":"levelo://app?vid=0589884c-39e4-4fca-a9f2-72ccf02df3e0"},"vehicle_type_id":"4","last_reported":1728328007,"current_range_meters":34000,"station_id":"ce4bhb12rcd13ifvqem0","pricing_plan_id":"cebpf4jnsgd1na2vs0mg"},{"bike_id":"e7ca1121-dfae-49ab-95f7-00c35a3a4f04","system_id":"levelo_inurba_marseille","lat":43.30776,"lon":5.37659,"is_reserved":false,"is_disabled":false,"rental_uris":{"android":"levelo://app?vid=e7ca1121-dfae-49ab-95f7-00c35a3a4f04","ios":"levelo://app?vid=e7ca1121-dfae-49ab-95f7-00c35a3a4f04"},"vehicle_type_id":"4","last_reported":1728328007,"current_range_meters":38800,"station_id":"ce4bgv92rcd13ifvqcq0","pricing_plan_id":"cebpf4jnsgd1na2vs0mg"},{"bike_id":"a854f9eb-d697-4507-b33a-9376691b2f9b","system_id":"levelo_inurba_marseille","lat":43.27995,"lon":5.40019,"is_reserved":false,"is_disabled":false,"rental_uris":{"android":"levelo://app?vid=a854f9eb-d697-4507-b33a-9376691b2f9b","ios":"levelo://app?vid=a854f9eb-d697-4507-b33a-9376691b2f9b"},"vehicle_type_id":"4","last_reported":1728328007,"current_range_meters":39200,"station_id":"ce4bho92rcd13ifvqh4g","pricing_plan_id":"cebpf4jnsgd1na2vs0mg"},{"bike_id":"dc2e07b6-2d88-4c3a-9e54-908d68323f78","system_id":"levelo_inurba_marseille","lat":43.29523,"lon":5.39399,"is_reserved":false,"is_disabled":false,"rental_uris":{"android":"levelo://app?vid=dc2e07b6-2d88-4c3a-9e54-908d68323f78","ios":"levelo://app?vid=dc2e07b6-2d88-4c3a-9e54-908d68323f78"},"vehicle_type_id":"4","last_reported":1728328007,"current_range_meters":38800,"station_id":"ce4bh292rcd13ifvqdf0","pricing_plan_id":"cebpf4jnsgd1na2vs0mg"},{"bike_id":"fdd5a8e1-0df3-436b-8246-9c13d267ad95","system_id":"levelo_inurba_marseille","lat":43.30553,"lon":5.38455,"is_reserved":false,"is_disabled":false,"rental_uris":{"android":"levelo://app?vid=fdd5a8e1-0df3-436b-8246-9c13d267ad95","ios":"levelo://app?vid=fdd5a8e1-0df3-436b-8246-9c13d267ad95"},"vehicle_type_id":"4","last_reported":1728328007,"current_range_meters":24000,"station_id":"ce4bgg92rcd13ifvqb30","pricing_plan_id":"cebpf4jnsgd1na2vs0mg"},{"bike_id":"a63e94f5-8749-4c5b-8f9a-c49e5c8ae040","system_id":"levelo_inurba_marseille","lat":43.29799,"lon":5.40397,"is_reserved":false,"is_disabled":false,"rental_uris":{"android":"levelo://app?vid=a63e94f5-8749-4c5b-8f9a-c49e5c8ae040","ios":"levelo://app?vid=a63e94f5-8749-4c5b-8f9a-c49e5c8ae040"},"vehicle_type_id":"4","last_reported":1728328007,"current_range_meters":9600,"station_id":"ce4bh112rcd13ifvqd90","pricing_plan_id":"cebpf4jnsgd1na2vs0mg"},{"bike_id":"4af55307-045f-4c66-a045-a91d88bb4c16","system_id":"levelo_inurba_marseille","lat":43.22933,"lon":5.3538,"is_reserved":false,"is_disabled":false,"rental_uris":{"android":"levelo://app?vid=4af55307-045f-4c66-a045-a91d88bb4c16","ios":"levelo://app?vid=4af55307-045f-4c66-a045-a91d88bb4c16"},"vehicle_type_id":"4","last_reported":1728328007,"current_range_meters":25600,"station_id":"cpo3532slgdg3j2ikp40","pricing_plan_id":"cebpf4jnsgd1na2vs0mg"},{"bike_id":"aa598db1-3c3a-48c0-acd0-1929a2b13407","system_id":"levelo_inurba_marseille","lat":43.31716,"lon":5.43709,"is_reserved":false,"is_disabled":false,"rental_uris":{"android":"levelo://app?vid=aa598db1-3c3a-48c0-acd0-1929a2b13407","ios":"levelo://app?vid=aa598db1-3c3a-48c0-acd0-1929a2b13407"},"vehicle_type_id":"4","last_reported":1728328007,"current_range_meters":39200,"station_id":"ce4bhp92rcd13ifvqhcg","pricing_plan_id":"cebpf4jnsgd1na2vs0mg"},{"bike_id":"47efe985-66e3-4fb1-a00d-60851f779f19","system_id":"levelo_inurba_marseille","lat":43.32552,"lon":5.41436,"is_reserved":false,"is_disabled":false,"rental_uris":{"android":"levelo://app?vid=47efe985-66e3-4fb1-a00d-60851f779f19","ios":"levelo://app?vid=47efe985-66e3-4fb1-a00d-60851f779f19"},"vehicle_type_id":"4","last_reported":1728328007,"current_range_meters":29600,"station_id":"ce4bhq12rcd13ifvqhhg","pricing_plan_id":"cebpf4jnsgd1na2vs0mg"},{"bike_id":"6482b1fb-67cb-4384-a7c9-6c0a7b56e3b4","system_id":"levelo_inurba_marseille","lat":43.28852,"lon":5.43331,"is_reserved":false,"is_disabled":false,"rental_uris":{"android":"levelo://app?vid=6482b1fb-67cb-4384-a7c9-6c0a7b56e3b4","ios":"levelo://app?vid=6482b1fb-67cb-4384-a7c9-6c0a7b56e3b4"},"vehicle_type_id":"4","last_reported":1728328007,"current_range_meters":4000,"station_id":"","pricing_plan_id":"cebpf4jnsgd1na2vs0mg"},{"bike_id":"ba3e524b-ea9c-4e70-9a3d-fca4dbe6ee51","system_id":"levelo_inurba_marseille","lat":43.302063,"lon":5.39447,"is_reserved":false,"is_disabled":false,"rental_uris":{"android":"levelo://app?vid=ba3e524b-ea9c-4e70-9a3d-fca4dbe6ee51","ios":"levelo://app?vid=ba3e524b-ea9c-4e70-9a3d-fca4dbe6ee51"},"vehicle_type_id":"4","last_reported":1728328007,"current_range_meters":35200,"station_id":"ce4bh0p2rcd13ifvqd70","pricing_plan_id":"cebpf4jnsgd1na2vs0mg"},{"bike_id":"02a3b282-cf9b-4835-91f9-b76ec3930a50","system_id":"levelo_inurba_marseille","lat":43.29937,"lon":5.37452,"is_reserved":false,"is_disabled":false,"rental_uris":{"android":"levelo://app?vid=02a3b282-cf9b-4835-91f9-b76ec3930a50","ios":"levelo://app?vid=02a3b282-cf9b-4835-91f9-b76ec3930a50"},"vehicle_type_id":"4","last_reported":1728328007,"current_range_meters":38800,"station_id":"ce4bgjh2rcd13ifvqbg0","pricing_plan_id":"cebpf4jnsgd1na2vs0mg"},{"bike_id":"480eecf8-5d47-4f93-815e-826c050e484c","system_id":"levelo_inurba_marseille","lat":43.31326,"lon":5.39693,"is_reserved":false,"is_disabled":false,"rental_uris":{"android":"levelo://app?vid=480eecf8-5d47-4f93-815e-826c050e484c","ios":"levelo://app?vid=480eecf8-5d47-4f93-815e-826c050e484c"},"vehicle_type_id":"4","last_reported":1728328007,"current_range_meters":37600,"station_id":"ce4bgvp2rcd13ifvqcu0","pricing_plan_id":"cebpf4jnsgd1na2vs0mg"},{"bike_id":"c12c46a4-bd86-493d-803e-5d507cd7924b","system_id":"levelo_inurba_marseille","lat":43.23208,"lon":5.35551,"is_reserved":false,"is_disabled":false,"rental_uris":{"android":"levelo://app?vid=c12c46a4-bd86-493d-803e-5d507cd7924b","ios":"levelo://app?vid=c12c46a4-bd86-493d-803e-5d507cd7924b"},"vehicle_type_id":"4","last_reported":1728328007,"current_range_meters":30800,"station_id":"ce4bhu92rcd13ifvqi70","pricing_plan_id":"cebpf4jnsgd1na2vs0mg"},{"bike_id":"1e22ea5d-d406-4b63-92d6-06a783dc0af8","system_id":"levelo_inurba_marseille","lat":43.23185,"lon":5.39983,"is_reserved":false,"is_disabled":false,"rental_uris":{"android":"levelo://app?vid=1e22ea5d-d406-4b63-92d6-06a783dc0af8","ios":"levelo://app?vid=1e22ea5d-d406-4b63-92d6-06a783dc0af8"},"vehicle_type_id":"4","last_reported":1728328007,"current_range_meters":22800,"station_id":"ce4bhn12rcd13ifvqgqg","pricing_plan_id":"cebpf4jnsgd1na2vs0mg"},{"bike_id":"e0ef52ca-c7fa-41d7-a3ea-c3e5235a2597","system_id":"levelo_inurba_marseille","lat":43.25084,"lon":5.3952,"is_reserved":false,"is_disabled":false,"rental_uris":{"android":"levelo://app?vid=e0ef52ca-c7fa-41d7-a3ea-c3e5235a2597","ios":"levelo://app?vid=e0ef52ca-c7fa-41d7-a3ea-c3e5235a2597"},"vehicle_type_id":"4","last_reported":1728328007,"current_range_meters":30000,"station_id":"ce4bhm12rcd13ifvqgkg","pricing_plan_id":"cebpf4jnsgd1na2vs0mg"},{"bike_id":"a490f62c-3507-421b-82f3-354a6a704f9d","system_id":"levelo_inurba_marseille","lat":43.315002,"lon":5.373087,"is_reserved":false,"is_disabled":false,"rental_uris":{"android":"levelo://app?vid=a490f62c-3507-421b-82f3-354a6a704f9d","ios":"levelo://app?vid=a490f62c-3507-421b-82f3-354a6a704f9d"},"vehicle_type_id":"4","last_reported":1728328007,"current_range_meters":11600,"station_id":"ce4bgt92rcd13ifvqcg0","pricing_plan_id":"cebpf4jnsgd1na2vs0mg"},{"bike_id":"85a8b07e-682b-4725-800e-b0749654fba5","system_id":"levelo_inurba_marseille","lat":43.24171,"lon":5.36396,"is_reserved":false,"is_disabled":false,"rental_uris":{"android":"levelo://app?vid=85a8b07e-682b-4725-800e-b0749654fba5","ios":"levelo://app?vid=85a8b07e-682b-4725-800e-b0749654fba5"},"vehicle_type_id":"4","last_reported":1728328007,"current_range_meters":22800,"station_id":"cpo36qri1sfpv3e86is0","pricing_plan_id":"cebpf4jnsgd1na2vs0mg"},{"bike_id":"eb8fc8ee-c5fc-4298-a869-d0284f45a890","system_id":"levelo_inurba_marseille","lat":43.32365,"lon":5.38885,"is_reserved":false,"is_disabled":false,"rental_uris":{"android":"levelo://app?vid=eb8fc8ee-c5fc-4298-a869-d0284f45a890","ios":"levelo://app?vid=eb8fc8ee-c5fc-4298-a869-d0284f45a890"},"vehicle_type_id":"4","last_reported":1728328007,"current_range_meters":36800,"station_id":"ce4bhqp2rcd13ifvqhog","pricing_plan_id":"cebpf4jnsgd1na2vs0mg"},{"bike_id":"b6640f17-7ab3-4932-bbd1-5fe22e83845e","system_id":"levelo_inurba_marseille","lat":43.32295,"lon":5.38264,"is_reserved":false,"is_disabled":false,"rental_uris":{"android":"levelo://app?vid=b6640f17-7ab3-4932-bbd1-5fe22e83845e","ios":"levelo://app?vid=b6640f17-7ab3-4932-bbd1-5fe22e83845e"},"vehicle_type_id":"4","last_reported":1728328007,"current_range_meters":24000,"station_id":"ce4bhr12rcd13ifvqhqg","pricing_plan_id":"cebpf4jnsgd1na2vs0mg"},{"bike_id":"6a5b0381-8a8a-43a9-b1d2-3a349783fb41","system_id":"levelo_inurba_marseille","lat":43.29975,"lon":5.37177,"is_reserved":false,"is_disabled":false,"rental_uris":{"android":"levelo://app?vid=6a5b0381-8a8a-43a9-b1d2-3a349783fb41","ios":"levelo://app?vid=6a5b0381-8a8a-43a9-b1d2-3a349783fb41"},"vehicle_type_id":"4","last_reported":1728328007,"current_range_meters":37600,"station_id":"ce4bgr92rcd13ifvqc7g","pricing_plan_id":"cebpf4jnsgd1na2vs0mg"},{"bike_id":"ff0f887d-daa6-4a2f-98eb-56a6f6db2c44","system_id":"levelo_inurba_marseille","lat":43.30549,"lon":5.38427,"is_reserved":false,"is_disabled":false,"rental_uris":{"android":"levelo://app?vid=ff0f887d-daa6-4a2f-98eb-56a6f6db2c44","ios":"levelo://app?vid=ff0f887d-daa6-4a2f-98eb-56a6f6db2c44"},"vehicle_type_id":"4","last_reported":1728328007,"current_range_meters":22400,"station_id":"ce4bgg92rcd13ifvqb30","pricing_plan_id":"cebpf4jnsgd1na2vs0mg"},{"bike_id":"4aa94ae3-2086-4f39-a2e1-5e2a3f498b67","system_id":"levelo_inurba_marseille","lat":43.29422,"lon":5.38624,"is_reserved":false,"is_disabled":false,"rental_uris":{"android":"levelo://app?vid=4aa94ae3-2086-4f39-a2e1-5e2a3f498b67","ios":"levelo://app?vid=4aa94ae3-2086-4f39-a2e1-5e2a3f498b67"},"vehicle_type_id":"4","last_reported":1728328007,"current_range_meters":24000,"station_id":"ce4bh2h2rcd13ifvqdh0","pricing_plan_id":"cebpf4jnsgd1na2vs0mg"},{"bike_id":"76624c3f-12a1-4d01-be63-cf452300406b","system_id":"levelo_inurba_marseille","lat":43.29879,"lon":5.38911,"is_reserved":false,"is_disabled":false,"rental_uris":{"android":"levelo://app?vid=76624c3f-12a1-4d01-be63-cf452300406b","ios":"levelo://app?vid=76624c3f-12a1-4d01-be63-cf452300406b"},"vehicle_type_id":"4","last_reported":1728328007,"current_range_meters":14800,"station_id":"ce4bh392rcd13ifvqdl0","pricing_plan_id":"cebpf4jnsgd1na2vs0mg"},{"bike_id":"24c1702d-0440-4433-8f06-8c23d8212964","system_id":"levelo_inurba_marseille","lat":43.29608,"lon":5.37743,"is_reserved":false,"is_disabled":false,"rental_uris":{"android":"levelo://app?vid=24c1702d-0440-4433-8f06-8c23d8212964","ios":"levelo://app?vid=24c1702d-0440-4433-8f06-8c23d8212964"},"vehicle_type_id":"4","last_reported":1728328007,"current_range_meters":38800,"station_id":"ce4bgi92rcd13ifvqb90","pricing_plan_id":"cebpf4jnsgd1na2vs0mg"},{"bike_id":"f87c1dd0-d204-4a41-ae92-687c3cddfed1","system_id":"levelo_inurba_marseille","lat":43.24669,"lon":5.38166,"is_reserved":false,"is_disabled":false,"rental_uris":{"android":"levelo://app?vid=f87c1dd0-d204-4a41-ae92-687c3cddfed1","ios":"levelo://app?vid=f87c1dd0-d204-4a41-ae92-687c3cddfed1"},"vehicle_type_id":"4","last_reported":1728328007,"current_range_meters":6400,"station_id":"ce4bhih2rcd13ifvqfr0","pricing_plan_id":"cebpf4jnsgd1na2vs0mg"},{"bike_id":"a1337c99-a350-4c89-be5b-b8d735e1d0b8","system_id":"levelo_inurba_marseille","lat":43.28,"lon":5.40012,"is_reserved":false,"is_disabled":false,"rental_uris":{"android":"levelo://app?vid=a1337c99-a350-4c89-be5b-b8d735e1d0b8","ios":"levelo://app?vid=a1337c99-a350-4c89-be5b-b8d735e1d0b8"},"vehicle_type_id":"4","last_reported":1728328007,"current_range_meters":2800,"station_id":"ce4bho92rcd13ifvqh4g","pricing_plan_id":"cebpf4jnsgd1na2vs0mg"},{"bike_id":"6fb60552-006f-44f8-b478-bde775432565","system_id":"levelo_inurba_marseille","lat":43.24657,"lon":5.38888,"is_reserved":false,"is_disabled":false,"rental_uris":{"android":"levelo://app?vid=6fb60552-006f-44f8-b478-bde775432565","ios":"levelo://app?vid=6fb60552-006f-44f8-b478-bde775432565"},"vehicle_type_id":"4","last_reported":1728328007,"current_range_meters":10800,"station_id":"ce4bhg12rcd13ifvqf60","pricing_plan_id":"cebpf4jnsgd1na2vs0mg"},{"bike_id":"62c20907-37b0-4a30-9212-04239ba69697","system_id":"levelo_inurba_marseille","lat":43.31338,"lon":5.39695,"is_reserved":false,"is_disabled":false,"rental_uris":{"android":"levelo://app?vid=62c20907-37b0-4a30-9212-04239ba69697","ios":"levelo://app?vid=62c20907-37b0-4a30-9212-04239ba69697"},"vehicle_type_id":"4","last_reported":1728328007,"current_range_meters":39200,"station_id":"ce4bgvp2rcd13ifvqcu0","pricing_plan_id":"cebpf4jnsgd1na2vs0mg"},{"bike_id":"d00a3477-782a-4de0-b711-15ed9dd434f4","system_id":"levelo_inurba_marseille","lat":43.23052,"lon":5.35497,"is_reserved":false,"is_disabled":false,"rental_uris":{"android":"levelo://app?vid=d00a3477-782a-4de0-b711-15ed9dd434f4","ios":"levelo://app?vid=d00a3477-782a-4de0-b711-15ed9dd434f4"},"vehicle_type_id":"4","last_reported":1728328007,"current_range_meters":8400,"station_id":"cpo3342slgdg3j2ifvpg","pricing_plan_id":"cebpf4jnsgd1na2vs0mg"},{"bike_id":"0c42be69-f7a4-417c-8843-274ebcb1bec8","system_id":"levelo_inurba_marseille","lat":43.28851,"lon":5.35854,"is_reserved":false,"is_disabled":false,"rental_uris":{"android":"levelo://app?vid=0c42be69-f7a4-417c-8843-274ebcb1bec8","ios":"levelo://app?vid=0c42be69-f7a4-417c-8843-274ebcb1bec8"},"vehicle_type_id":"4","last_reported":1728328007,"current_range_meters":3200,"station_id":"ce4bhb12rcd13ifvqem0","pricing_plan_id":"cebpf4jnsgd1na2vs0mg"},{"bike_id":"9c5d863a-5a7e-4174-aa67-2817a0e74f57","system_id":"levelo_inurba_marseille","lat":43.2846,"lon":5.35896,"is_reserved":false,"is_disabled":false,"rental_uris":{"android":"levelo://app?vid=9c5d863a-5a7e-4174-aa67-2817a0e74f57","ios":"levelo://app?vid=9c5d863a-5a7e-4174-aa67-2817a0e74f57"},"vehicle_type_id":"4","last_reported":1728328007,"current_range_meters":22800,"station_id":"ce4bhah2rcd13ifvqei0","pricing_plan_id":"cebpf4jnsgd1na2vs0mg"},{"bike_id":"f51379f2-6a62-4ca8-bc0d-270effc5c500","system_id":"levelo_inurba_marseille","lat":43.31372,"lon":5.38495,"is_reserved":false,"is_disabled":false,"rental_uris":{"android":"levelo://app?vid=f51379f2-6a62-4ca8-bc0d-270effc5c500","ios":"levelo://app?vid=f51379f2-6a62-4ca8-bc0d-270effc5c500"},"vehicle_type_id":"4","last_reported":1728328007,"current_range_meters":18800,"station_id":"ce4bgt92rcd13ifvqcf0","pricing_plan_id":"cebpf4jnsgd1na2vs0mg"},{"bike_id":"0addcf89-f5f6-4899-92b3-5cd2981eb4de","system_id":"levelo_inurba_marseille","lat":43.31708,"lon":5.37756,"is_reserved":false,"is_disabled":false,"rental_uris":{"android":"levelo://app?vid=0addcf89-f5f6-4899-92b3-5cd2981eb4de","ios":"levelo://app?vid=0addcf89-f5f6-4899-92b3-5cd2981eb4de"},"vehicle_type_id":"4","last_reported":1728328007,"current_range_meters":38800,"station_id":"ce4bgth2rcd13ifvqch0","pricing_plan_id":"cebpf4jnsgd1na2vs0mg"},{"bike_id":"383e6238-5106-499a-8e26-d16b81b00a77","system_id":"levelo_inurba_marseille","lat":43.299626,"lon":5.413329,"is_reserved":false,"is_disabled":false,"rental_uris":{"android":"levelo://app?vid=383e6238-5106-499a-8e26-d16b81b00a77","ios":"levelo://app?vid=383e6238-5106-499a-8e26-d16b81b00a77"},"vehicle_type_id":"4","last_reported":1728328007,"current_range_meters":20400,"station_id":"ce4bhp12rcd13ifvqh9g","pricing_plan_id":"cebpf4jnsgd1na2vs0mg"},{"bike_id":"e8f38f77-6572-42be-9296-0cbe6e7cb972","system_id":"levelo_inurba_marseille","lat":43.23054,"lon":5.35492,"is_reserved":false,"is_disabled":false,"rental_uris":{"android":"levelo://app?vid=e8f38f77-6572-42be-9296-0cbe6e7cb972","ios":"levelo://app?vid=e8f38f77-6572-42be-9296-0cbe6e7cb972"},"vehicle_type_id":"4","last_reported":1728328007,"current_range_meters":36000,"station_id":"cpo3342slgdg3j2ifvpg","pricing_plan_id":"cebpf4jnsgd1na2vs0mg"},{"bike_id":"da2bef50-9604-4ee2-b6fe-7fbad7a1e331","system_id":"levelo_inurba_marseille","lat":43.31724,"lon":5.37726,"is_reserved":false,"is_disabled":false,"rental_uris":{"android":"levelo://app?vid=da2bef50-9604-4ee2-b6fe-7fbad7a1e331","ios":"levelo://app?vid=da2bef50-9604-4ee2-b6fe-7fbad7a1e331"},"vehicle_type_id":"4","last_reported":1728328007,"current_range_meters":38800,"station_id":"ce4bgth2rcd13ifvqch0","pricing_plan_id":"cebpf4jnsgd1na2vs0mg"},{"bike_id":"12db2f57-2fa9-4daa-8f36-af1e2ff058b3","system_id":"levelo_inurba_marseille","lat":43.33028,"lon":5.39043,"is_reserved":false,"is_disabled":false,"rental_uris":{"android":"levelo://app?vid=12db2f57-2fa9-4daa-8f36-af1e2ff058b3","ios":"levelo://app?vid=12db2f57-2fa9-4daa-8f36-af1e2ff058b3"},"vehicle_type_id":"4","last_reported":1728328007,"current_range_meters":10800,"station_id":"ce4bhr92rcd13ifvqhrg","pricing_plan_id":"cebpf4jnsgd1na2vs0mg"},{"bike_id":"6383107e-a90b-48e5-ad67-a00f3da06e6b","system_id":"levelo_inurba_marseille","lat":43.28087,"lon":5.3966,"is_reserved":false,"is_disabled":false,"rental_uris":{"android":"levelo://app?vid=6383107e-a90b-48e5-ad67-a00f3da06e6b","ios":"levelo://app?vid=6383107e-a90b-48e5-ad67-a00f3da06e6b"},"vehicle_type_id":"4","last_reported":1728328007,"current_range_meters":17200,"station_id":"ce4bho12rcd13ifvqh2g","pricing_plan_id":"cebpf4jnsgd1na2vs0mg"},{"bike_id":"04d04be1-acdb-4a20-ac76-7da8713d9b61","system_id":"levelo_inurba_marseille","lat":43.28706,"lon":5.39997,"is_reserved":false,"is_disabled":false,"rental_uris":{"android":"levelo://app?vid=04d04be1-acdb-4a20-ac76-7da8713d9b61","ios":"levelo://app?vid=04d04be1-acdb-4a20-ac76-7da8713d9b61"},"vehicle_type_id":"4","last_reported":1728328007,"current_range_meters":37600,"station_id":"ce4bho92rcd13ifvqh3g","pricing_plan_id":"cebpf4jnsgd1na2vs0mg"},{"bike_id":"aba7126a-32fe-4f2d-8597-35f362949104","system_id":"levelo_inurba_marseille","lat":43.28115,"lon":5.37842,"is_reserved":false,"is_disabled":false,"rental_uris":{"android":"levelo://app?vid=aba7126a-32fe-4f2d-8597-35f362949104","ios":"levelo://app?vid=aba7126a-32fe-4f2d-8597-35f362949104"},"vehicle_type_id":"4","last_reported":1728328007,"current_range_meters":38800,"station_id":"ce4bha12rcd13ifvqee0","pricing_plan_id":"cebpf4jnsgd1na2vs0mg"},{"bike_id":"75c6ade7-e87e-47a8-94c1-b8e262cf32ff","system_id":"levelo_inurba_marseille","lat":43.31365,"lon":5.38495,"is_reserved":false,"is_disabled":false,"rental_uris":{"android":"levelo://app?vid=75c6ade7-e87e-47a8-94c1-b8e262cf32ff","ios":"levelo://app?vid=75c6ade7-e87e-47a8-94c1-b8e262cf32ff"},"vehicle_type_id":"4","last_reported":1728328007,"current_range_meters":5600,"station_id":"ce4bgt92rcd13ifvqcf0","pricing_plan_id":"cebpf4jnsgd1na2vs0mg"},{"bike_id":"2ee08c30-82b0-4dda-be69-f2e61ce86285","system_id":"levelo_inurba_marseille","lat":43.31116,"lon":5.37772,"is_reserved":false,"is_disabled":false,"rental_uris":{"android":"levelo://app?vid=2ee08c30-82b0-4dda-be69-f2e61ce86285","ios":"levelo://app?vid=2ee08c30-82b0-4dda-be69-f2e61ce86285"},"vehicle_type_id":"4","last_reported":1728328007,"current_range_meters":29600,"station_id":"ce4bgt92rcd13ifvqcg0","pricing_plan_id":"cebpf4jnsgd1na2vs0mg"},{"bike_id":"20464521-0b04-4b95-b096-33078d4f9a3c","system_id":"levelo_inurba_marseille","lat":43.29431,"lon":5.39756,"is_reserved":false,"is_disabled":false,"rental_uris":{"android":"levelo://app?vid=20464521-0b04-4b95-b096-33078d4f9a3c","ios":"levelo://app?vid=20464521-0b04-4b95-b096-33078d4f9a3c"},"vehicle_type_id":"4","last_reported":1728328007,"current_range_meters":26000,"station_id":"ce4bh3h2rcd13ifvqdo0","pricing_plan_id":"cebpf4jnsgd1na2vs0mg"},{"bike_id":"9f72c76a-fefc-4dd0-9191-d7a5fd63a001","system_id":"levelo_inurba_marseille","lat":43.33604,"lon":5.39856,"is_reserved":false,"is_disabled":false,"rental_uris":{"android":"levelo://app?vid=9f72c76a-fefc-4dd0-9191-d7a5fd63a001","ios":"levelo://app?vid=9f72c76a-fefc-4dd0-9191-d7a5fd63a001"},"vehicle_type_id":"4","last_reported":1728328007,"current_range_meters":3600,"station_id":"","pricing_plan_id":"cebpf4jnsgd1na2vs0mg"},{"bike_id":"2fe9a872-9d35-432b-917d-ada3867c3c80","system_id":"levelo_inurba_marseille","lat":43.31535,"lon":5.38032,"is_reserved":false,"is_disabled":false,"rental_uris":{"android":"levelo://app?vid=2fe9a872-9d35-432b-917d-ada3867c3c80","ios":"levelo://app?vid=2fe9a872-9d35-432b-917d-ada3867c3c80"},"vehicle_type_id":"4","last_reported":1728328007,"current_range_meters":28800,"station_id":"ce4bhsp2rcd13ifvqi50","pricing_plan_id":"cebpf4jnsgd1na2vs0mg"},{"bike_id":"60b57eaf-66f9-4ab9-b225-ce86cb95389a","system_id":"levelo_inurba_marseille","lat":43.30098,"lon":5.39077,"is_reserved":false,"is_disabled":false,"rental_uris":{"android":"levelo://app?vid=60b57eaf-66f9-4ab9-b225-ce86cb95389a","ios":"levelo://app?vid=60b57eaf-66f9-4ab9-b225-ce86cb95389a"},"vehicle_type_id":"4","last_reported":1728328007,"current_range_meters":37600,"station_id":"ce4bh192rcd13ifvqdb0","pricing_plan_id":"cebpf4jnsgd1na2vs0mg"},{"bike_id":"fc1eabbd-402f-4a01-9cfa-d7a7780c46ff","system_id":"levelo_inurba_marseille","lat":43.31487,"lon":5.373,"is_reserved":false,"is_disabled":false,"rental_uris":{"android":"levelo://app?vid=fc1eabbd-402f-4a01-9cfa-d7a7780c46ff","ios":"levelo://app?vid=fc1eabbd-402f-4a01-9cfa-d7a7780c46ff"},"vehicle_type_id":"4","last_reported":1728328007,"current_range_meters":14800,"station_id":"ce4bgt12rcd13ifvqcd0","pricing_plan_id":"cebpf4jnsgd1na2vs0mg"},{"bike_id":"e496975e-0fb7-476e-beff-db45182754ae","system_id":"levelo_inurba_marseille","lat":43.29622,"lon":5.40595,"is_reserved":false,"is_disabled":false,"rental_uris":{"android":"levelo://app?vid=e496975e-0fb7-476e-beff-db45182754ae","ios":"levelo://app?vid=e496975e-0fb7-476e-beff-db45182754ae"},"vehicle_type_id":"4","last_reported":1728328007,"current_range_meters":32400,"station_id":"ce4bh0h2rcd13ifvqd60","pricing_plan_id":"cebpf4jnsgd1na2vs0mg"},{"bike_id":"425bd885-d4ad-4c37-b99a-03407c3218b0","system_id":"levelo_inurba_marseille","lat":43.30135,"lon":5.38784,"is_reserved":false,"is_disabled":false,"rental_uris":{"android":"levelo://app?vid=425bd885-d4ad-4c37-b99a-03407c3218b0","ios":"levelo://app?vid=425bd885-d4ad-4c37-b99a-03407c3218b0"},"vehicle_type_id":"4","last_reported":1728328007,"current_range_meters":24000,"station_id":"ce4bghh2rcd13ifvqb60","pricing_plan_id":"cebpf4jnsgd1na2vs0mg"},{"bike_id":"6d4525a1-4df9-4bde-8481-acf85ddf64a9","system_id":"levelo_inurba_marseille","lat":43.31724,"lon":5.42406,"is_reserved":false,"is_disabled":false,"rental_uris":{"android":"levelo://app?vid=6d4525a1-4df9-4bde-8481-acf85ddf64a9","ios":"levelo://app?vid=6d4525a1-4df9-4bde-8481-acf85ddf64a9"},"vehicle_type_id":"4","last_reported":1728328007,"current_range_meters":9200,"station_id":"ce4bhp92rcd13ifvqhbg","pricing_plan_id":"cebpf4jnsgd1na2vs0mg"},{"bike_id":"4378a0dd-7ddd-4246-9294-1e2af02e0700","system_id":"levelo_inurba_marseille","lat":43.23198,"lon":5.35554,"is_reserved":false,"is_disabled":false,"rental_uris":{"android":"levelo://app?vid=4378a0dd-7ddd-4246-9294-1e2af02e0700","ios":"levelo://app?vid=4378a0dd-7ddd-4246-9294-1e2af02e0700"},"vehicle_type_id":"4","last_reported":1728328007,"current_range_meters":3200,"station_id":"ce4bhu92rcd13ifvqi70","pricing_plan_id":"cebpf4jnsgd1na2vs0mg"},{"bike_id":"adb1a211-a296-49b3-85ae-67e68712a363","system_id":"levelo_inurba_marseille","lat":43.31365,"lon":5.38492,"is_reserved":false,"is_disabled":false,"rental_uris":{"android":"levelo://app?vid=adb1a211-a296-49b3-85ae-67e68712a363","ios":"levelo://app?vid=adb1a211-a296-49b3-85ae-67e68712a363"},"vehicle_type_id":"4","last_reported":1728328007,"current_range_meters":22800,"station_id":"ce4bgt92rcd13ifvqcf0","pricing_plan_id":"cebpf4jnsgd1na2vs0mg"},{"bike_id":"513184d9-4a6b-49fd-81e0-1b13bcd19fd6","system_id":"levelo_inurba_marseille","lat":43.28412,"lon":5.40039,"is_reserved":false,"is_disabled":false,"rental_uris":{"android":"levelo://app?vid=513184d9-4a6b-49fd-81e0-1b13bcd19fd6","ios":"levelo://app?vid=513184d9-4a6b-49fd-81e0-1b13bcd19fd6"},"vehicle_type_id":"4","last_reported":1728328007,"current_range_meters":24800,"station_id":"","pricing_plan_id":"cebpf4jnsgd1na2vs0mg"},{"bike_id":"ef8b9fb7-ff0f-4d4d-9ccd-8c5369db9d2f","system_id":"levelo_inurba_marseille","lat":43.29444,"lon":5.39753,"is_reserved":false,"is_disabled":false,"rental_uris":{"android":"levelo://app?vid=ef8b9fb7-ff0f-4d4d-9ccd-8c5369db9d2f","ios":"levelo://app?vid=ef8b9fb7-ff0f-4d4d-9ccd-8c5369db9d2f"},"vehicle_type_id":"4","last_reported":1728328007,"current_range_meters":3200,"station_id":"ce4bh3h2rcd13ifvqdo0","pricing_plan_id":"cebpf4jnsgd1na2vs0mg"},{"bike_id":"553feb73-9a7e-42c7-9e66-b0dba3d9166f","system_id":"levelo_inurba_marseille","lat":43.29022,"lon":5.3863,"is_reserved":false,"is_disabled":false,"rental_uris":{"android":"levelo://app?vid=553feb73-9a7e-42c7-9e66-b0dba3d9166f","ios":"levelo://app?vid=553feb73-9a7e-42c7-9e66-b0dba3d9166f"},"vehicle_type_id":"4","last_reported":1728328007,"current_range_meters":32000,"station_id":"ce4bh4p2rcd13ifvqe0g","pricing_plan_id":"cebpf4jnsgd1na2vs0mg"},{"bike_id":"93d45870-2e1c-4ed1-9664-7b219a4ed443","system_id":"levelo_inurba_marseille","lat":43.22931,"lon":5.35382,"is_reserved":false,"is_disabled":false,"rental_uris":{"android":"levelo://app?vid=93d45870-2e1c-4ed1-9664-7b219a4ed443","ios":"levelo://app?vid=93d45870-2e1c-4ed1-9664-7b219a4ed443"},"vehicle_type_id":"4","last_reported":1728328007,"current_range_meters":36000,"station_id":"cpo3532slgdg3j2ikp40","pricing_plan_id":"cebpf4jnsgd1na2vs0mg"},{"bike_id":"d4dfa52e-76b8-410b-b129-46d068df677c","system_id":"levelo_inurba_marseille","lat":43.31536,"lon":5.3803,"is_reserved":false,"is_disabled":false,"rental_uris":{"android":"levelo://app?vid=d4dfa52e-76b8-410b-b129-46d068df677c","ios":"levelo://app?vid=d4dfa52e-76b8-410b-b129-46d068df677c"},"vehicle_type_id":"4","last_reported":1728328007,"current_range_meters":28400,"station_id":"ce4bhsp2rcd13ifvqi50","pricing_plan_id":"cebpf4jnsgd1na2vs0mg"},{"bike_id":"c248871c-26d9-43a8-8758-59ee64ae6b00","system_id":"levelo_inurba_marseille","lat":43.292416,"lon":5.40093,"is_reserved":false,"is_disabled":false,"rental_uris":{"android":"levelo://app?vid=c248871c-26d9-43a8-8758-59ee64ae6b00","ios":"levelo://app?vid=c248871c-26d9-43a8-8758-59ee64ae6b00"},"vehicle_type_id":"4","last_reported":1728328007,"current_range_meters":39200,"station_id":"ce4bh312rcd13ifvqdk0","pricing_plan_id":"cebpf4jnsgd1na2vs0mg"},{"bike_id":"6e512044-ef12-457b-bcca-26bd86c5618a","system_id":"levelo_inurba_marseille","lat":43.23061,"lon":5.3549,"is_reserved":false,"is_disabled":false,"rental_uris":{"android":"levelo://app?vid=6e512044-ef12-457b-bcca-26bd86c5618a","ios":"levelo://app?vid=6e512044-ef12-457b-bcca-26bd86c5618a"},"vehicle_type_id":"4","last_reported":1728328007,"current_range_meters":36000,"station_id":"cpo3342slgdg3j2ifvpg","pricing_plan_id":"cebpf4jnsgd1na2vs0mg"},{"bike_id":"7cf6d405-7c7a-4fff-b767-33947faeb342","system_id":"levelo_inurba_marseille","lat":43.28365,"lon":5.38629,"is_reserved":false,"is_disabled":false,"rental_uris":{"android":"levelo://app?vid=7cf6d405-7c7a-4fff-b767-33947faeb342","ios":"levelo://app?vid=7cf6d405-7c7a-4fff-b767-33947faeb342"},"vehicle_type_id":"4","last_reported":1728328007,"current_range_meters":16800,"station_id":"ce4bh492rcd13ifvqdvg","pricing_plan_id":"cebpf4jnsgd1na2vs0mg"},{"bike_id":"baba4cb0-5224-4c87-9a3d-c3e70a3aff74","system_id":"levelo_inurba_marseille","lat":43.2841,"lon":5.37516,"is_reserved":false,"is_disabled":false,"rental_uris":{"android":"levelo://app?vid=baba4cb0-5224-4c87-9a3d-c3e70a3aff74","ios":"levelo://app?vid=baba4cb0-5224-4c87-9a3d-c3e70a3aff74"},"vehicle_type_id":"4","last_reported":1728328007,"current_range_meters":7200,"station_id":"ce4bh412rcd13ifvqds0","pricing_plan_id":"cebpf4jnsgd1na2vs0mg"},{"bike_id":"45d047a0-c610-4788-b146-bc4c5299234b","system_id":"levelo_inurba_marseille","lat":43.30891,"lon":5.3719,"is_reserved":false,"is_disabled":false,"rental_uris":{"android":"levelo://app?vid=45d047a0-c610-4788-b146-bc4c5299234b","ios":"levelo://app?vid=45d047a0-c610-4788-b146-bc4c5299234b"},"vehicle_type_id":"4","last_reported":1728328007,"current_range_meters":33600,"station_id":"ce4bguh2rcd13ifvqckg","pricing_plan_id":"cebpf4jnsgd1na2vs0mg"},{"bike_id":"270b90ca-7521-4165-af49-e1c727e5fa34","system_id":"levelo_inurba_marseille","lat":43.24167,"lon":5.36398,"is_reserved":false,"is_disabled":false,"rental_uris":{"android":"levelo://app?vid=270b90ca-7521-4165-af49-e1c727e5fa34","ios":"levelo://app?vid=270b90ca-7521-4165-af49-e1c727e5fa34"},"vehicle_type_id":"4","last_reported":1728328007,"current_range_meters":28000,"station_id":"cpo36qri1sfpv3e86is0","pricing_plan_id":"cebpf4jnsgd1na2vs0mg"},{"bike_id":"00aefd2e-a2ae-4cfd-9f9a-fbff25c7dd03","system_id":"levelo_inurba_marseille","lat":43.29413,"lon":5.38621,"is_reserved":false,"is_disabled":false,"rental_uris":{"android":"levelo://app?vid=00aefd2e-a2ae-4cfd-9f9a-fbff25c7dd03","ios":"levelo://app?vid=00aefd2e-a2ae-4cfd-9f9a-fbff25c7dd03"},"vehicle_type_id":"4","last_reported":1728328007,"current_range_meters":4800,"station_id":"ce4bh2h2rcd13ifvqdh0","pricing_plan_id":"cebpf4jnsgd1na2vs0mg"},{"bike_id":"c9be6825-0c84-418b-a94b-434b2390aaef","system_id":"levelo_inurba_marseille","lat":43.26504,"lon":5.39543,"is_reserved":false,"is_disabled":false,"rental_uris":{"android":"levelo://app?vid=c9be6825-0c84-418b-a94b-434b2390aaef","ios":"levelo://app?vid=c9be6825-0c84-418b-a94b-434b2390aaef"},"vehicle_type_id":"4","last_reported":1728328007,"current_range_meters":12800,"station_id":"ce4bhi12rcd13ifvqfq0","pricing_plan_id":"cebpf4jnsgd1na2vs0mg"},{"bike_id":"e3d4e641-55ad-4361-bb71-3c5e1bb25a97","system_id":"levelo_inurba_marseille","lat":43.25004,"lon":5.38918,"is_reserved":false,"is_disabled":false,"rental_uris":{"android":"levelo://app?vid=e3d4e641-55ad-4361-bb71-3c5e1bb25a97","ios":"levelo://app?vid=e3d4e641-55ad-4361-bb71-3c5e1bb25a97"},"vehicle_type_id":"4","last_reported":1728328007,"current_range_meters":38800,"station_id":"ce4bhdp2rcd13ifvqf20","pricing_plan_id":"cebpf4jnsgd1na2vs0mg"},{"bike_id":"0ff21f5a-2266-425c-b263-b56b4614bfeb","system_id":"levelo_inurba_marseille","lat":43.29575,"lon":5.39988,"is_reserved":false,"is_disabled":false,"rental_uris":{"android":"levelo://app?vid=0ff21f5a-2266-425c-b263-b56b4614bfeb","ios":"levelo://app?vid=0ff21f5a-2266-425c-b263-b56b4614bfeb"},"vehicle_type_id":"4","last_reported":1728328007,"current_range_meters":27600,"station_id":"ce4bh312rcd13ifvqdj0","pricing_plan_id":"cebpf4jnsgd1na2vs0mg"},{"bike_id":"83e845b9-84ea-4511-b28f-2ee8c3d2ac76","system_id":"levelo_inurba_marseille","lat":43.3302,"lon":5.39038,"is_reserved":false,"is_disabled":false,"rental_uris":{"android":"levelo://app?vid=83e845b9-84ea-4511-b28f-2ee8c3d2ac76","ios":"levelo://app?vid=83e845b9-84ea-4511-b28f-2ee8c3d2ac76"},"vehicle_type_id":"4","last_reported":1728328007,"current_range_meters":20000,"station_id":"ce4bhr92rcd13ifvqhrg","pricing_plan_id":"cebpf4jnsgd1na2vs0mg"},{"bike_id":"e5a7cdc6-a47c-445d-9ec0-0a99ea3be68e","system_id":"levelo_inurba_marseille","lat":43.32659,"lon":5.41001,"is_reserved":false,"is_disabled":false,"rental_uris":{"android":"levelo://app?vid=e5a7cdc6-a47c-445d-9ec0-0a99ea3be68e","ios":"levelo://app?vid=e5a7cdc6-a47c-445d-9ec0-0a99ea3be68e"},"vehicle_type_id":"4","last_reported":1728328007,"current_range_meters":10800,"station_id":"ce4bhpp2rcd13ifvqhgg","pricing_plan_id":"cebpf4jnsgd1na2vs0mg"},{"bike_id":"d89add0c-64ba-46af-8899-006b99cef520","system_id":"levelo_inurba_marseille","lat":43.304523,"lon":5.397406,"is_reserved":false,"is_disabled":false,"rental_uris":{"android":"levelo://app?vid=d89add0c-64ba-46af-8899-006b99cef520","ios":"levelo://app?vid=d89add0c-64ba-46af-8899-006b99cef520"},"vehicle_type_id":"4","last_reported":1728328007,"current_range_meters":38000,"station_id":"ce4bh092rcd13ifvqd20","pricing_plan_id":"cebpf4jnsgd1na2vs0mg"},{"bike_id":"dac13e8f-cf51-482f-b717-c1dfd6d92754","system_id":"levelo_inurba_marseille","lat":43.28938,"lon":5.38415,"is_reserved":false,"is_disabled":false,"rental_uris":{"android":"levelo://app?vid=dac13e8f-cf51-482f-b717-c1dfd6d92754","ios":"levelo://app?vid=dac13e8f-cf51-482f-b717-c1dfd6d92754"},"vehicle_type_id":"4","last_reported":1728328007,"current_range_meters":26000,"station_id":"ce4bh612rcd13ifvqe6g","pricing_plan_id":"cebpf4jnsgd1na2vs0mg"},{"bike_id":"ab0ef8f6-2d64-477f-ab35-7e54daa51f0f","system_id":"levelo_inurba_marseille","lat":43.31712,"lon":5.4371,"is_reserved":false,"is_disabled":false,"rental_uris":{"android":"levelo://app?vid=ab0ef8f6-2d64-477f-ab35-7e54daa51f0f","ios":"levelo://app?vid=ab0ef8f6-2d64-477f-ab35-7e54daa51f0f"},"vehicle_type_id":"4","last_reported":1728328007,"current_range_meters":24800,"station_id":"ce4bhp92rcd13ifvqhcg","pricing_plan_id":"cebpf4jnsgd1na2vs0mg"},{"bike_id":"c45340a7-5257-408a-897a-01994bd38219","system_id":"levelo_inurba_marseille","lat":43.28465,"lon":5.35895,"is_reserved":false,"is_disabled":false,"rental_uris":{"android":"levelo://app?vid=c45340a7-5257-408a-897a-01994bd38219","ios":"levelo://app?vid=c45340a7-5257-408a-897a-01994bd38219"},"vehicle_type_id":"4","last_reported":1728328007,"current_range_meters":4800,"station_id":"ce4bhah2rcd13ifvqei0","pricing_plan_id":"cebpf4jnsgd1na2vs0mg"},{"bike_id":"3eb937b6-fbc7-4f95-8670-3ef3e9826684","system_id":"levelo_inurba_marseille","lat":43.297456,"lon":5.405309,"is_reserved":false,"is_disabled":false,"rental_uris":{"android":"levelo://app?vid=3eb937b6-fbc7-4f95-8670-3ef3e9826684","ios":"levelo://app?vid=3eb937b6-fbc7-4f95-8670-3ef3e9826684"},"vehicle_type_id":"4","last_reported":1728328007,"current_range_meters":18800,"station_id":"ce4bh112rcd13ifvqd90","pricing_plan_id":"cebpf4jnsgd1na2vs0mg"},{"bike_id":"b9644df2-b234-4f72-b771-b50713752d5c","system_id":"levelo_inurba_marseille","lat":43.31066,"lon":5.40103,"is_reserved":false,"is_disabled":false,"rental_uris":{"android":"levelo://app?vid=b9644df2-b234-4f72-b771-b50713752d5c","ios":"levelo://app?vid=b9644df2-b234-4f72-b771-b50713752d5c"},"vehicle_type_id":"4","last_reported":1728328007,"current_range_meters":3200,"station_id":"","pricing_plan_id":"cebpf4jnsgd1na2vs0mg"},{"bike_id":"f7612392-4f4b-453b-a64c-499de3c2600f","system_id":"levelo_inurba_marseille","lat":43.24164,"lon":5.36397,"is_reserved":false,"is_disabled":false,"rental_uris":{"android":"levelo://app?vid=f7612392-4f4b-453b-a64c-499de3c2600f","ios":"levelo://app?vid=f7612392-4f4b-453b-a64c-499de3c2600f"},"vehicle_type_id":"4","last_reported":1728328007,"current_range_meters":35600,"station_id":"cpo36qri1sfpv3e86is0","pricing_plan_id":"cebpf4jnsgd1na2vs0mg"},{"bike_id":"b9f7e217-2396-4f17-99e6-316574934f3f","system_id":"levelo_inurba_marseille","lat":43.28455,"lon":5.35886,"is_reserved":false,"is_disabled":false,"rental_uris":{"android":"levelo://app?vid=b9f7e217-2396-4f17-99e6-316574934f3f","ios":"levelo://app?vid=b9f7e217-2396-4f17-99e6-316574934f3f"},"vehicle_type_id":"4","last_reported":1728328007,"current_range_meters":39200,"station_id":"ce4bhah2rcd13ifvqei0","pricing_plan_id":"cebpf4jnsgd1na2vs0mg"},{"bike_id":"9a873b21-4325-4346-9f74-80b6d80ab720","system_id":"levelo_inurba_marseille","lat":43.26949,"lon":5.38634,"is_reserved":false,"is_disabled":false,"rental_uris":{"android":"levelo://app?vid=9a873b21-4325-4346-9f74-80b6d80ab720","ios":"levelo://app?vid=9a873b21-4325-4346-9f74-80b6d80ab720"},"vehicle_type_id":"4","last_reported":1728328007,"current_range_meters":21600,"station_id":"ce4bhh92rcd13ifvqfh0","pricing_plan_id":"cebpf4jnsgd1na2vs0mg"},{"bike_id":"7e62f994-ee1c-4ae3-a3cb-d8cedba330aa","system_id":"levelo_inurba_marseille","lat":43.31994,"lon":5.38168,"is_reserved":false,"is_disabled":false,"rental_uris":{"android":"levelo://app?vid=7e62f994-ee1c-4ae3-a3cb-d8cedba330aa","ios":"levelo://app?vid=7e62f994-ee1c-4ae3-a3cb-d8cedba330aa"},"vehicle_type_id":"4","last_reported":1728328007,"current_range_meters":12400,"station_id":"ce4bhr12rcd13ifvqhpg","pricing_plan_id":"cebpf4jnsgd1na2vs0mg"},{"bike_id":"fe2b2782-7f11-4cd3-867b-b0e02d11cbae","system_id":"levelo_inurba_marseille","lat":43.299842,"lon":5.371851,"is_reserved":false,"is_disabled":false,"rental_uris":{"android":"levelo://app?vid=fe2b2782-7f11-4cd3-867b-b0e02d11cbae","ios":"levelo://app?vid=fe2b2782-7f11-4cd3-867b-b0e02d11cbae"},"vehicle_type_id":"4","last_reported":1728328007,"current_range_meters":38400,"station_id":"ce4bgr92rcd13ifvqc7g","pricing_plan_id":"cebpf4jnsgd1na2vs0mg"},{"bike_id":"62ffd9a6-6954-4d30-82e9-c6d501fe541b","system_id":"levelo_inurba_marseille","lat":43.3133,"lon":5.39688,"is_reserved":false,"is_disabled":false,"rental_uris":{"android":"levelo://app?vid=62ffd9a6-6954-4d30-82e9-c6d501fe541b","ios":"levelo://app?vid=62ffd9a6-6954-4d30-82e9-c6d501fe541b"},"vehicle_type_id":"4","last_reported":1728328007,"current_range_meters":11600,"station_id":"ce4bgvp2rcd13ifvqcu0","pricing_plan_id":"cebpf4jnsgd1na2vs0mg"},{"bike_id":"e592fa8f-aa5a-46f1-b2f4-aa0aa5f30808","system_id":"levelo_inurba_marseille","lat":43.24675,"lon":5.38154,"is_reserved":false,"is_disabled":false,"rental_uris":{"android":"levelo://app?vid=e592fa8f-aa5a-46f1-b2f4-aa0aa5f30808","ios":"levelo://app?vid=e592fa8f-aa5a-46f1-b2f4-aa0aa5f30808"},"vehicle_type_id":"4","last_reported":1728328007,"current_range_meters":18800,"station_id":"ce4bhih2rcd13ifvqfr0","pricing_plan_id":"cebpf4jnsgd1na2vs0mg"},{"bike_id":"16f2623b-8d6e-4528-b0c1-3479f17c28a9","system_id":"levelo_inurba_marseille","lat":43.2781,"lon":5.40719,"is_reserved":false,"is_disabled":false,"rental_uris":{"android":"levelo://app?vid=16f2623b-8d6e-4528-b0c1-3479f17c28a9","ios":"levelo://app?vid=16f2623b-8d6e-4528-b0c1-3479f17c28a9"},"vehicle_type_id":"4","last_reported":1728328007,"current_range_meters":30000,"station_id":"ce4bhnh2rcd13ifvqgtg","pricing_plan_id":"cebpf4jnsgd1na2vs0mg"},{"bike_id":"57ed68fc-2981-4c2e-a98b-20e40953d7b4","system_id":"levelo_inurba_marseille","lat":43.29439,"lon":5.39763,"is_reserved":false,"is_disabled":false,"rental_uris":{"android":"levelo://app?vid=57ed68fc-2981-4c2e-a98b-20e40953d7b4","ios":"levelo://app?vid=57ed68fc-2981-4c2e-a98b-20e40953d7b4"},"vehicle_type_id":"4","last_reported":1728328007,"current_range_meters":23200,"station_id":"ce4bh3h2rcd13ifvqdo0","pricing_plan_id":"cebpf4jnsgd1na2vs0mg"},{"bike_id":"43020601-79b9-4d0f-bb00-86da6202f1b4","system_id":"levelo_inurba_marseille","lat":43.28368,"lon":5.3864,"is_reserved":false,"is_disabled":false,"rental_uris":{"android":"levelo://app?vid=43020601-79b9-4d0f-bb00-86da6202f1b4","ios":"levelo://app?vid=43020601-79b9-4d0f-bb00-86da6202f1b4"},"vehicle_type_id":"4","last_reported":1728328007,"current_range_meters":33200,"station_id":"ce4bh492rcd13ifvqdvg","pricing_plan_id":"cebpf4jnsgd1na2vs0mg"},{"bike_id":"8ac302a4-afaf-4b4e-b9b2-d4dca3f7edc6","system_id":"levelo_inurba_marseille","lat":43.28572,"lon":5.39493,"is_reserved":false,"is_disabled":false,"rental_uris":{"android":"levelo://app?vid=8ac302a4-afaf-4b4e-b9b2-d4dca3f7edc6","ios":"levelo://app?vid=8ac302a4-afaf-4b4e-b9b2-d4dca3f7edc6"},"vehicle_type_id":"4","last_reported":1728328007,"current_range_meters":12400,"station_id":"ce4bh292rcd13ifvqdg0","pricing_plan_id":"cebpf4jnsgd1na2vs0mg"},{"bike_id":"12cfbe49-322e-4e6e-8e64-3f34de285b4f","system_id":"levelo_inurba_marseille","lat":43.31335,"lon":5.39696,"is_reserved":false,"is_disabled":false,"rental_uris":{"android":"levelo://app?vid=12cfbe49-322e-4e6e-8e64-3f34de285b4f","ios":"levelo://app?vid=12cfbe49-322e-4e6e-8e64-3f34de285b4f"},"vehicle_type_id":"4","last_reported":1728328007,"current_range_meters":24800,"station_id":"ce4bgvp2rcd13ifvqcu0","pricing_plan_id":"cebpf4jnsgd1na2vs0mg"},{"bike_id":"053de70d-a020-44eb-870c-70bb4ad55497","system_id":"levelo_inurba_marseille","lat":43.31364,"lon":5.38498,"is_reserved":false,"is_disabled":false,"rental_uris":{"android":"levelo://app?vid=053de70d-a020-44eb-870c-70bb4ad55497","ios":"levelo://app?vid=053de70d-a020-44eb-870c-70bb4ad55497"},"vehicle_type_id":"4","last_reported":1728328007,"current_range_meters":4000,"station_id":"ce4bgt92rcd13ifvqcf0","pricing_plan_id":"cebpf4jnsgd1na2vs0mg"},{"bike_id":"121306b2-2bb4-4503-b456-87db5347b2df","system_id":"levelo_inurba_marseille","lat":43.29571,"lon":5.39987,"is_reserved":false,"is_disabled":false,"rental_uris":{"android":"levelo://app?vid=121306b2-2bb4-4503-b456-87db5347b2df","ios":"levelo://app?vid=121306b2-2bb4-4503-b456-87db5347b2df"},"vehicle_type_id":"4","last_reported":1728328007,"current_range_meters":16400,"station_id":"ce4bh312rcd13ifvqdj0","pricing_plan_id":"cebpf4jnsgd1na2vs0mg"},{"bike_id":"af13d793-9721-4d46-b0e4-b0eeeab75c7c","system_id":"levelo_inurba_marseille","lat":43.29575,"lon":5.39994,"is_reserved":false,"is_disabled":false,"rental_uris":{"android":"levelo://app?vid=af13d793-9721-4d46-b0e4-b0eeeab75c7c","ios":"levelo://app?vid=af13d793-9721-4d46-b0e4-b0eeeab75c7c"},"vehicle_type_id":"4","last_reported":1728328007,"current_range_meters":14400,"station_id":"ce4bh312rcd13ifvqdj0","pricing_plan_id":"cebpf4jnsgd1na2vs0mg"},{"bike_id":"6f0112a6-6fb6-4acc-bb05-f0c322e76587","system_id":"levelo_inurba_marseille","lat":43.31711,"lon":5.43709,"is_reserved":false,"is_disabled":false,"rental_uris":{"android":"levelo://app?vid=6f0112a6-6fb6-4acc-bb05-f0c322e76587","ios":"levelo://app?vid=6f0112a6-6fb6-4acc-bb05-f0c322e76587"},"vehicle_type_id":"4","last_reported":1728328007,"current_range_meters":3200,"station_id":"ce4bhp92rcd13ifvqhcg","pricing_plan_id":"cebpf4jnsgd1na2vs0mg"},{"bike_id":"9d3dd6ee-fc7a-47c0-8f6a-25c17db43a03","system_id":"levelo_inurba_marseille","lat":43.3094,"lon":5.40152,"is_reserved":false,"is_disabled":false,"rental_uris":{"android":"levelo://app?vid=9d3dd6ee-fc7a-47c0-8f6a-25c17db43a03","ios":"levelo://app?vid=9d3dd6ee-fc7a-47c0-8f6a-25c17db43a03"},"vehicle_type_id":"4","last_reported":1728328007,"current_range_meters":10800,"station_id":"ce4bgvp2rcd13ifvqct0","pricing_plan_id":"cebpf4jnsgd1na2vs0mg"},{"bike_id":"83339be4-75a1-4ed9-8b58-3351fcd47122","system_id":"levelo_inurba_marseille","lat":43.29554,"lon":5.42286,"is_reserved":false,"is_disabled":false,"rental_uris":{"android":"levelo://app?vid=83339be4-75a1-4ed9-8b58-3351fcd47122","ios":"levelo://app?vid=83339be4-75a1-4ed9-8b58-3351fcd47122"},"vehicle_type_id":"4","last_reported":1728328007,"current_range_meters":38800,"station_id":"ce4bhph2rcd13ifvqhdg","pricing_plan_id":"cebpf4jnsgd1na2vs0mg"},{"bike_id":"a774f550-3ce3-43eb-9d80-b5fdc228d567","system_id":"levelo_inurba_marseille","lat":43.31072,"lon":5.3835,"is_reserved":false,"is_disabled":false,"rental_uris":{"android":"levelo://app?vid=a774f550-3ce3-43eb-9d80-b5fdc228d567","ios":"levelo://app?vid=a774f550-3ce3-43eb-9d80-b5fdc228d567"},"vehicle_type_id":"4","last_reported":1728328007,"current_range_meters":38800,"station_id":"ce4bgv92rcd13ifvqcr0","pricing_plan_id":"cebpf4jnsgd1na2vs0mg"},{"bike_id":"21416209-2397-4e4f-85eb-cd81538840b4","system_id":"levelo_inurba_marseille","lat":43.28667,"lon":5.40304,"is_reserved":false,"is_disabled":false,"rental_uris":{"android":"levelo://app?vid=21416209-2397-4e4f-85eb-cd81538840b4","ios":"levelo://app?vid=21416209-2397-4e4f-85eb-cd81538840b4"},"vehicle_type_id":"4","last_reported":1728328007,"current_range_meters":29600,"station_id":"ce4bho92rcd13ifvqh3g","pricing_plan_id":"cebpf4jnsgd1na2vs0mg"},{"bike_id":"619e85eb-d3d3-4d69-b2ac-fcf6bebbdf03","system_id":"levelo_inurba_marseille","lat":43.31366,"lon":5.38499,"is_reserved":false,"is_disabled":false,"rental_uris":{"android":"levelo://app?vid=619e85eb-d3d3-4d69-b2ac-fcf6bebbdf03","ios":"levelo://app?vid=619e85eb-d3d3-4d69-b2ac-fcf6bebbdf03"},"vehicle_type_id":"4","last_reported":1728328007,"current_range_meters":29600,"station_id":"ce4bgt92rcd13ifvqcf0","pricing_plan_id":"cebpf4jnsgd1na2vs0mg"},{"bike_id":"2d543eca-c8bf-427c-a3fa-e17e301f5c9b","system_id":"levelo_inurba_marseille","lat":43.26088,"lon":5.40321,"is_reserved":false,"is_disabled":false,"rental_uris":{"android":"levelo://app?vid=2d543eca-c8bf-427c-a3fa-e17e301f5c9b","ios":"levelo://app?vid=2d543eca-c8bf-427c-a3fa-e17e301f5c9b"},"vehicle_type_id":"4","last_reported":1728328007,"current_range_meters":6000,"station_id":"","pricing_plan_id":"cebpf4jnsgd1na2vs0mg"},{"bike_id":"a9261e6b-129c-4447-886b-811df22879a6","system_id":"levelo_inurba_marseille","lat":43.30767,"lon":5.3764,"is_reserved":false,"is_disabled":false,"rental_uris":{"android":"levelo://app?vid=a9261e6b-129c-4447-886b-811df22879a6","ios":"levelo://app?vid=a9261e6b-129c-4447-886b-811df22879a6"},"vehicle_type_id":"4","last_reported":1728328007,"current_range_meters":17200,"station_id":"ce4bgv92rcd13ifvqcq0","pricing_plan_id":"cebpf4jnsgd1na2vs0mg"},{"bike_id":"c1975eeb-029e-4d79-92b5-3c802b1901e0","system_id":"levelo_inurba_marseille","lat":43.28467,"lon":5.35893,"is_reserved":false,"is_disabled":false,"rental_uris":{"android":"levelo://app?vid=c1975eeb-029e-4d79-92b5-3c802b1901e0","ios":"levelo://app?vid=c1975eeb-029e-4d79-92b5-3c802b1901e0"},"vehicle_type_id":"4","last_reported":1728328007,"current_range_meters":34000,"station_id":"ce4bhah2rcd13ifvqei0","pricing_plan_id":"cebpf4jnsgd1na2vs0mg"},{"bike_id":"35286c6d-3f80-4094-8a65-c78de00de513","system_id":"levelo_inurba_marseille","lat":43.30891,"lon":5.37193,"is_reserved":false,"is_disabled":false,"rental_uris":{"android":"levelo://app?vid=35286c6d-3f80-4094-8a65-c78de00de513","ios":"levelo://app?vid=35286c6d-3f80-4094-8a65-c78de00de513"},"vehicle_type_id":"4","last_reported":1728328007,"current_range_meters":21600,"station_id":"ce4bguh2rcd13ifvqckg","pricing_plan_id":"cebpf4jnsgd1na2vs0mg"},{"bike_id":"4e5946e6-407e-4701-9bc0-7c410a7ddd3b","system_id":"levelo_inurba_marseille","lat":43.33022,"lon":5.39054,"is_reserved":false,"is_disabled":false,"rental_uris":{"android":"levelo://app?vid=4e5946e6-407e-4701-9bc0-7c410a7ddd3b","ios":"levelo://app?vid=4e5946e6-407e-4701-9bc0-7c410a7ddd3b"},"vehicle_type_id":"4","last_reported":1728328007,"current_range_meters":22800,"station_id":"ce4bhr92rcd13ifvqhrg","pricing_plan_id":"cebpf4jnsgd1na2vs0mg"},{"bike_id":"f78b0d1a-a2d0-4fab-bb5b-cc028c435116","system_id":"levelo_inurba_marseille","lat":43.29979,"lon":5.37168,"is_reserved":false,"is_disabled":false,"rental_uris":{"android":"levelo://app?vid=f78b0d1a-a2d0-4fab-bb5b-cc028c435116","ios":"levelo://app?vid=f78b0d1a-a2d0-4fab-bb5b-cc028c435116"},"vehicle_type_id":"4","last_reported":1728328007,"current_range_meters":38800,"station_id":"ce4bgr92rcd13ifvqc7g","pricing_plan_id":"cebpf4jnsgd1na2vs0mg"},{"bike_id":"6826c930-8aa2-4db5-96a6-4b67fd5214fe","system_id":"levelo_inurba_marseille","lat":43.28277,"lon":5.35075,"is_reserved":false,"is_disabled":false,"rental_uris":{"android":"levelo://app?vid=6826c930-8aa2-4db5-96a6-4b67fd5214fe","ios":"levelo://app?vid=6826c930-8aa2-4db5-96a6-4b67fd5214fe"},"vehicle_type_id":"4","last_reported":1728328007,"current_range_meters":9200,"station_id":"ce4bhbp2rcd13ifvqerg","pricing_plan_id":"cebpf4jnsgd1na2vs0mg"},{"bike_id":"c7c933ea-453c-4444-a304-2fa069327739","system_id":"levelo_inurba_marseille","lat":43.23066,"lon":5.3549,"is_reserved":false,"is_disabled":false,"rental_uris":{"android":"levelo://app?vid=c7c933ea-453c-4444-a304-2fa069327739","ios":"levelo://app?vid=c7c933ea-453c-4444-a304-2fa069327739"},"vehicle_type_id":"4","last_reported":1728328007,"current_range_meters":10000,"station_id":"cpo3342slgdg3j2ifvpg","pricing_plan_id":"cebpf4jnsgd1na2vs0mg"},{"bike_id":"a6d70310-27ce-49a4-a3c6-5ed786684119","system_id":"levelo_inurba_marseille","lat":43.28452,"lon":5.35894,"is_reserved":false,"is_disabled":false,"rental_uris":{"android":"levelo://app?vid=a6d70310-27ce-49a4-a3c6-5ed786684119","ios":"levelo://app?vid=a6d70310-27ce-49a4-a3c6-5ed786684119"},"vehicle_type_id":"4","last_reported":1728328007,"current_range_meters":12000,"station_id":"ce4bhah2rcd13ifvqei0","pricing_plan_id":"cebpf4jnsgd1na2vs0mg"},{"bike_id":"d16de083-2f89-4725-88ac-895acab6b595","system_id":"levelo_inurba_marseille","lat":43.30899,"lon":5.36841,"is_reserved":false,"is_disabled":false,"rental_uris":{"android":"levelo://app?vid=d16de083-2f89-4725-88ac-895acab6b595","ios":"levelo://app?vid=d16de083-2f89-4725-88ac-895acab6b595"},"vehicle_type_id":"4","last_reported":1728328007,"current_range_meters":33600,"station_id":"ce4bgn92rcd13ifvqbvg","pricing_plan_id":"cebpf4jnsgd1na2vs0mg"},{"bike_id":"532d68db-64bb-4c63-9e3f-f38b57c71c6a","system_id":"levelo_inurba_marseille","lat":43.29934,"lon":5.36586,"is_reserved":false,"is_disabled":false,"rental_uris":{"android":"levelo://app?vid=532d68db-64bb-4c63-9e3f-f38b57c71c6a","ios":"levelo://app?vid=532d68db-64bb-4c63-9e3f-f38b57c71c6a"},"vehicle_type_id":"4","last_reported":1728328007,"current_range_meters":38000,"station_id":"","pricing_plan_id":"cebpf4jnsgd1na2vs0mg"},{"bike_id":"1e89ff62-86ea-4d9b-83e6-20ce97cfea76","system_id":"levelo_inurba_marseille","lat":43.28459,"lon":5.35888,"is_reserved":false,"is_disabled":false,"rental_uris":{"android":"levelo://app?vid=1e89ff62-86ea-4d9b-83e6-20ce97cfea76","ios":"levelo://app?vid=1e89ff62-86ea-4d9b-83e6-20ce97cfea76"},"vehicle_type_id":"4","last_reported":1728328007,"current_range_meters":39200,"station_id":"ce4bhah2rcd13ifvqei0","pricing_plan_id":"cebpf4jnsgd1na2vs0mg"},{"bike_id":"eac0ea91-2230-46a9-bf6c-0a918e577cec","system_id":"levelo_inurba_marseille","lat":43.2467,"lon":5.38167,"is_reserved":false,"is_disabled":false,"rental_uris":{"android":"levelo://app?vid=eac0ea91-2230-46a9-bf6c-0a918e577cec","ios":"levelo://app?vid=eac0ea91-2230-46a9-bf6c-0a918e577cec"},"vehicle_type_id":"4","last_reported":1728328007,"current_range_meters":12400,"station_id":"ce4bhih2rcd13ifvqfr0","pricing_plan_id":"cebpf4jnsgd1na2vs0mg"},{"bike_id":"d4ddaa2e-9e24-431c-9939-df3f57a2bb74","system_id":"levelo_inurba_marseille","lat":43.32655,"lon":5.40998,"is_reserved":false,"is_disabled":false,"rental_uris":{"android":"levelo://app?vid=d4ddaa2e-9e24-431c-9939-df3f57a2bb74","ios":"levelo://app?vid=d4ddaa2e-9e24-431c-9939-df3f57a2bb74"},"vehicle_type_id":"4","last_reported":1728328007,"current_range_meters":12400,"station_id":"ce4bhpp2rcd13ifvqhgg","pricing_plan_id":"cebpf4jnsgd1na2vs0mg"},{"bike_id":"1b718efc-834e-4869-a864-85411ab08396","system_id":"levelo_inurba_marseille","lat":43.29306,"lon":5.371669,"is_reserved":false,"is_disabled":false,"rental_uris":{"android":"levelo://app?vid=1b718efc-834e-4869-a864-85411ab08396","ios":"levelo://app?vid=1b718efc-834e-4869-a864-85411ab08396"},"vehicle_type_id":"4","last_reported":1728328007,"current_range_meters":25600,"station_id":"ce4bh512rcd13ifvqe2g","pricing_plan_id":"cebpf4jnsgd1na2vs0mg"},{"bike_id":"c190b4a1-ea1d-47e2-b2e8-eefa3099f9cc","system_id":"levelo_inurba_marseille","lat":43.23191,"lon":5.35556,"is_reserved":false,"is_disabled":false,"rental_uris":{"android":"levelo://app?vid=c190b4a1-ea1d-47e2-b2e8-eefa3099f9cc","ios":"levelo://app?vid=c190b4a1-ea1d-47e2-b2e8-eefa3099f9cc"},"vehicle_type_id":"4","last_reported":1728328007,"current_range_meters":38800,"station_id":"ce4bhu92rcd13ifvqi70","pricing_plan_id":"cebpf4jnsgd1na2vs0mg"},{"bike_id":"38a20d7a-dae1-4df2-949c-4c41da90639b","system_id":"levelo_inurba_marseille","lat":43.28281,"lon":5.35074,"is_reserved":false,"is_disabled":false,"rental_uris":{"android":"levelo://app?vid=38a20d7a-dae1-4df2-949c-4c41da90639b","ios":"levelo://app?vid=38a20d7a-dae1-4df2-949c-4c41da90639b"},"vehicle_type_id":"4","last_reported":1728328007,"current_range_meters":16800,"station_id":"ce4bhbp2rcd13ifvqerg","pricing_plan_id":"cebpf4jnsgd1na2vs0mg"},{"bike_id":"f0655ef3-b8ec-45e4-9e27-ad5610781ae0","system_id":"levelo_inurba_marseille","lat":43.30334,"lon":5.4044,"is_reserved":false,"is_disabled":false,"rental_uris":{"android":"levelo://app?vid=f0655ef3-b8ec-45e4-9e27-ad5610781ae0","ios":"levelo://app?vid=f0655ef3-b8ec-45e4-9e27-ad5610781ae0"},"vehicle_type_id":"4","last_reported":1728328007,"current_range_meters":32800,"station_id":"ce4bh012rcd13ifvqd10","pricing_plan_id":"cebpf4jnsgd1na2vs0mg"},{"bike_id":"1350fd2c-b9e9-43cd-9325-cd67b9835ac5","system_id":"levelo_inurba_marseille","lat":43.28458,"lon":5.3589,"is_reserved":false,"is_disabled":false,"rental_uris":{"android":"levelo://app?vid=1350fd2c-b9e9-43cd-9325-cd67b9835ac5","ios":"levelo://app?vid=1350fd2c-b9e9-43cd-9325-cd67b9835ac5"},"vehicle_type_id":"4","last_reported":1728328007,"current_range_meters":39200,"station_id":"ce4bhah2rcd13ifvqei0","pricing_plan_id":"cebpf4jnsgd1na2vs0mg"},{"bike_id":"f1a587de-a4d9-42a8-8fe6-d4518f6dd1b0","system_id":"levelo_inurba_marseille","lat":43.23063,"lon":5.35493,"is_reserved":false,"is_disabled":false,"rental_uris":{"android":"levelo://app?vid=f1a587de-a4d9-42a8-8fe6-d4518f6dd1b0","ios":"levelo://app?vid=f1a587de-a4d9-42a8-8fe6-d4518f6dd1b0"},"vehicle_type_id":"4","last_reported":1728328007,"current_range_meters":10800,"station_id":"cpo3342slgdg3j2ifvpg","pricing_plan_id":"cebpf4jnsgd1na2vs0mg"},{"bike_id":"6b4618ac-bf15-42bd-b8ce-f62f3e28352b","system_id":"levelo_inurba_marseille","lat":43.23202,"lon":5.35558,"is_reserved":false,"is_disabled":false,"rental_uris":{"android":"levelo://app?vid=6b4618ac-bf15-42bd-b8ce-f62f3e28352b","ios":"levelo://app?vid=6b4618ac-bf15-42bd-b8ce-f62f3e28352b"},"vehicle_type_id":"4","last_reported":1728328007,"current_range_meters":32000,"station_id":"ce4bhu92rcd13ifvqi70","pricing_plan_id":"cebpf4jnsgd1na2vs0mg"},{"bike_id":"62f27822-8303-44cb-8da2-7314e0b52bec","system_id":"levelo_inurba_marseille","lat":43.31761,"lon":5.39018,"is_reserved":false,"is_disabled":false,"rental_uris":{"android":"levelo://app?vid=62f27822-8303-44cb-8da2-7314e0b52bec","ios":"levelo://app?vid=62f27822-8303-44cb-8da2-7314e0b52bec"},"vehicle_type_id":"4","last_reported":1728328007,"current_range_meters":18800,"station_id":"ce4bhqp2rcd13ifvqhng","pricing_plan_id":"cebpf4jnsgd1na2vs0mg"},{"bike_id":"a69fd01b-3806-4b2c-a0dc-9fb7dfe4ac36","system_id":"levelo_inurba_marseille","lat":43.33026,"lon":5.39045,"is_reserved":false,"is_disabled":false,"rental_uris":{"android":"levelo://app?vid=a69fd01b-3806-4b2c-a0dc-9fb7dfe4ac36","ios":"levelo://app?vid=a69fd01b-3806-4b2c-a0dc-9fb7dfe4ac36"},"vehicle_type_id":"4","last_reported":1728328007,"current_range_meters":24800,"station_id":"ce4bhr92rcd13ifvqhrg","pricing_plan_id":"cebpf4jnsgd1na2vs0mg"},{"bike_id":"5cb07fad-9609-46b3-ad52-39ff30f85547","system_id":"levelo_inurba_marseille","lat":43.2873,"lon":5.36081,"is_reserved":false,"is_disabled":false,"rental_uris":{"android":"levelo://app?vid=5cb07fad-9609-46b3-ad52-39ff30f85547","ios":"levelo://app?vid=5cb07fad-9609-46b3-ad52-39ff30f85547"},"vehicle_type_id":"4","last_reported":1728328007,"current_range_meters":8800,"station_id":"cki0cbj6b192h4jlfktg","pricing_plan_id":"cebpf4jnsgd1na2vs0mg"},{"bike_id":"433deafa-d7d3-49df-9aec-653774bf0603","system_id":"levelo_inurba_marseille","lat":43.31896,"lon":5.40736,"is_reserved":false,"is_disabled":false,"rental_uris":{"android":"levelo://app?vid=433deafa-d7d3-49df-9aec-653774bf0603","ios":"levelo://app?vid=433deafa-d7d3-49df-9aec-653774bf0603"},"vehicle_type_id":"4","last_reported":1728328007,"current_range_meters":37600,"station_id":"ce4bhq12rcd13ifvqhig","pricing_plan_id":"cebpf4jnsgd1na2vs0mg"},{"bike_id":"9bfb8551-871e-4f1e-9683-4fd4e62d5479","system_id":"levelo_inurba_marseille","lat":43.30799,"lon":5.43528,"is_reserved":false,"is_disabled":false,"rental_uris":{"android":"levelo://app?vid=9bfb8551-871e-4f1e-9683-4fd4e62d5479","ios":"levelo://app?vid=9bfb8551-871e-4f1e-9683-4fd4e62d5479"},"vehicle_type_id":"4","last_reported":1728328007,"current_range_meters":4400,"station_id":"ce4bhph2rcd13ifvqheg","pricing_plan_id":"cebpf4jnsgd1na2vs0mg"},{"bike_id":"e31da74f-2b93-4a88-890c-a14df0f8c7f9","system_id":"levelo_inurba_marseille","lat":43.2668,"lon":5.38271,"is_reserved":false,"is_disabled":false,"rental_uris":{"android":"levelo://app?vid=e31da74f-2b93-4a88-890c-a14df0f8c7f9","ios":"levelo://app?vid=e31da74f-2b93-4a88-890c-a14df0f8c7f9"},"vehicle_type_id":"4","last_reported":1728328007,"current_range_meters":32000,"station_id":"ce4bhg92rcd13ifvqf90","pricing_plan_id":"cebpf4jnsgd1na2vs0mg"},{"bike_id":"f93c1b26-6c3e-4258-9c6b-4b22b013cb04","system_id":"levelo_inurba_marseille","lat":43.29198,"lon":5.35807,"is_reserved":false,"is_disabled":false,"rental_uris":{"android":"levelo://app?vid=f93c1b26-6c3e-4258-9c6b-4b22b013cb04","ios":"levelo://app?vid=f93c1b26-6c3e-4258-9c6b-4b22b013cb04"},"vehicle_type_id":"4","last_reported":1728328007,"current_range_meters":36800,"station_id":"ce4bhb12rcd13ifvqel0","pricing_plan_id":"cebpf4jnsgd1na2vs0mg"},{"bike_id":"4dbc9b22-4c46-419e-b5a6-9c9438a9829f","system_id":"levelo_inurba_marseille","lat":43.31362,"lon":5.38506,"is_reserved":false,"is_disabled":false,"rental_uris":{"android":"levelo://app?vid=4dbc9b22-4c46-419e-b5a6-9c9438a9829f","ios":"levelo://app?vid=4dbc9b22-4c46-419e-b5a6-9c9438a9829f"},"vehicle_type_id":"4","last_reported":1728328007,"current_range_meters":37600,"station_id":"ce4bgt92rcd13ifvqcf0","pricing_plan_id":"cebpf4jnsgd1na2vs0mg"},{"bike_id":"18320052-f1a8-4573-9c51-870a955db467","system_id":"levelo_inurba_marseille","lat":43.30083,"lon":5.38758,"is_reserved":false,"is_disabled":false,"rental_uris":{"android":"levelo://app?vid=18320052-f1a8-4573-9c51-870a955db467","ios":"levelo://app?vid=18320052-f1a8-4573-9c51-870a955db467"},"vehicle_type_id":"4","last_reported":1728328007,"current_range_meters":4000,"station_id":"ce4bghh2rcd13ifvqb60","pricing_plan_id":"cebpf4jnsgd1na2vs0mg"},{"bike_id":"6ee06c05-a87a-4721-8566-1ecefb611295","system_id":"levelo_inurba_marseille","lat":43.27403,"lon":5.39032,"is_reserved":false,"is_disabled":false,"rental_uris":{"android":"levelo://app?vid=6ee06c05-a87a-4721-8566-1ecefb611295","ios":"levelo://app?vid=6ee06c05-a87a-4721-8566-1ecefb611295"},"vehicle_type_id":"4","last_reported":1728328007,"current_range_meters":16000,"station_id":"ce4bh312rcd13ifvqdk0","pricing_plan_id":"cebpf4jnsgd1na2vs0mg"},{"bike_id":"9f7bb594-fb34-4e78-a4aa-b9e9b8fc8e6a","system_id":"levelo_inurba_marseille","lat":43.31334,"lon":5.39699,"is_reserved":false,"is_disabled":false,"rental_uris":{"android":"levelo://app?vid=9f7bb594-fb34-4e78-a4aa-b9e9b8fc8e6a","ios":"levelo://app?vid=9f7bb594-fb34-4e78-a4aa-b9e9b8fc8e6a"},"vehicle_type_id":"4","last_reported":1728328007,"current_range_meters":17600,"station_id":"ce4bgvp2rcd13ifvqcu0","pricing_plan_id":"cebpf4jnsgd1na2vs0mg"},{"bike_id":"e4e76281-2b1b-4520-b1b6-b9e9d7988c98","system_id":"levelo_inurba_marseille","lat":43.29691,"lon":5.37298,"is_reserved":false,"is_disabled":false,"rental_uris":{"android":"levelo://app?vid=e4e76281-2b1b-4520-b1b6-b9e9d7988c98","ios":"levelo://app?vid=e4e76281-2b1b-4520-b1b6-b9e9d7988c98"},"vehicle_type_id":"4","last_reported":1728328007,"current_range_meters":6400,"station_id":"ce4bgk12rcd13ifvqbj0","pricing_plan_id":"cebpf4jnsgd1na2vs0mg"},{"bike_id":"926380f0-4ec2-45d5-8c58-de39b75f601e","system_id":"levelo_inurba_marseille","lat":43.23067,"lon":5.35489,"is_reserved":false,"is_disabled":false,"rental_uris":{"android":"levelo://app?vid=926380f0-4ec2-45d5-8c58-de39b75f601e","ios":"levelo://app?vid=926380f0-4ec2-45d5-8c58-de39b75f601e"},"vehicle_type_id":"4","last_reported":1728328007,"current_range_meters":14400,"station_id":"cpo3342slgdg3j2ifvpg","pricing_plan_id":"cebpf4jnsgd1na2vs0mg"},{"bike_id":"e2b3e091-6f09-4aa2-81bd-500923e01933","system_id":"levelo_inurba_marseille","lat":43.30139,"lon":5.38767,"is_reserved":false,"is_disabled":false,"rental_uris":{"android":"levelo://app?vid=e2b3e091-6f09-4aa2-81bd-500923e01933","ios":"levelo://app?vid=e2b3e091-6f09-4aa2-81bd-500923e01933"},"vehicle_type_id":"4","last_reported":1728328007,"current_range_meters":17200,"station_id":"ce4bghh2rcd13ifvqb60","pricing_plan_id":"cebpf4jnsgd1na2vs0mg"},{"bike_id":"dab34f4f-86bf-42d6-a89b-78525baa965b","system_id":"levelo_inurba_marseille","lat":43.28347,"lon":5.381,"is_reserved":false,"is_disabled":false,"rental_uris":{"android":"levelo://app?vid=dab34f4f-86bf-42d6-a89b-78525baa965b","ios":"levelo://app?vid=dab34f4f-86bf-42d6-a89b-78525baa965b"},"vehicle_type_id":"4","last_reported":1728328007,"current_range_meters":18800,"station_id":"ce4bh412rcd13ifvqdr0","pricing_plan_id":"cebpf4jnsgd1na2vs0mg"},{"bike_id":"f236458b-a68f-4be5-ae65-f5ccd4ea25a1","system_id":"levelo_inurba_marseille","lat":43.32004,"lon":5.3816,"is_reserved":false,"is_disabled":false,"rental_uris":{"android":"levelo://app?vid=f236458b-a68f-4be5-ae65-f5ccd4ea25a1","ios":"levelo://app?vid=f236458b-a68f-4be5-ae65-f5ccd4ea25a1"},"vehicle_type_id":"4","last_reported":1728328007,"current_range_meters":38800,"station_id":"ce4bhr12rcd13ifvqhpg","pricing_plan_id":"cebpf4jnsgd1na2vs0mg"},{"bike_id":"404b4697-2249-46d0-afb0-44351c2d122f","system_id":"levelo_inurba_marseille","lat":43.29554,"lon":5.42285,"is_reserved":false,"is_disabled":false,"rental_uris":{"android":"levelo://app?vid=404b4697-2249-46d0-afb0-44351c2d122f","ios":"levelo://app?vid=404b4697-2249-46d0-afb0-44351c2d122f"},"vehicle_type_id":"4","last_reported":1728328007,"current_range_meters":20800,"station_id":"ce4bhph2rcd13ifvqhdg","pricing_plan_id":"cebpf4jnsgd1na2vs0mg"},{"bike_id":"80cba1cf-0623-41c9-829a-3d860e526261","system_id":"levelo_inurba_marseille","lat":43.28611,"lon":5.37068,"is_reserved":false,"is_disabled":false,"rental_uris":{"android":"levelo://app?vid=80cba1cf-0623-41c9-829a-3d860e526261","ios":"levelo://app?vid=80cba1cf-0623-41c9-829a-3d860e526261"},"vehicle_type_id":"4","last_reported":1728328007,"current_range_meters":4000,"station_id":"ce4bht12rcd13ifvqi60","pricing_plan_id":"cebpf4jnsgd1na2vs0mg"},{"bike_id":"8966bf1c-57eb-44af-b48e-60b64de47536","system_id":"levelo_inurba_marseille","lat":43.31071,"lon":5.3835,"is_reserved":false,"is_disabled":false,"rental_uris":{"android":"levelo://app?vid=8966bf1c-57eb-44af-b48e-60b64de47536","ios":"levelo://app?vid=8966bf1c-57eb-44af-b48e-60b64de47536"},"vehicle_type_id":"4","last_reported":1728328007,"current_range_meters":30400,"station_id":"ce4bgv92rcd13ifvqcr0","pricing_plan_id":"cebpf4jnsgd1na2vs0mg"},{"bike_id":"2b73b83b-0a07-4d29-a611-4c6e07bce526","system_id":"levelo_inurba_marseille","lat":43.30426,"lon":5.39756,"is_reserved":false,"is_disabled":false,"rental_uris":{"android":"levelo://app?vid=2b73b83b-0a07-4d29-a611-4c6e07bce526","ios":"levelo://app?vid=2b73b83b-0a07-4d29-a611-4c6e07bce526"},"vehicle_type_id":"4","last_reported":1728328007,"current_range_meters":22400,"station_id":"ce4bh092rcd13ifvqd20","pricing_plan_id":"cebpf4jnsgd1na2vs0mg"},{"bike_id":"59d39fdf-306d-4218-a19c-262b47728bed","system_id":"levelo_inurba_marseille","lat":43.27496,"lon":5.4245,"is_reserved":false,"is_disabled":false,"rental_uris":{"android":"levelo://app?vid=59d39fdf-306d-4218-a19c-262b47728bed","ios":"levelo://app?vid=59d39fdf-306d-4218-a19c-262b47728bed"},"vehicle_type_id":"4","last_reported":1728328007,"current_range_meters":34800,"station_id":"ce4bhn92rcd13ifvqgrg","pricing_plan_id":"cebpf4jnsgd1na2vs0mg"},{"bike_id":"c8dc90e2-7586-47af-b90a-31b014f3b33d","system_id":"levelo_inurba_marseille","lat":43.27815,"lon":5.40714,"is_reserved":false,"is_disabled":false,"rental_uris":{"android":"levelo://app?vid=c8dc90e2-7586-47af-b90a-31b014f3b33d","ios":"levelo://app?vid=c8dc90e2-7586-47af-b90a-31b014f3b33d"},"vehicle_type_id":"4","last_reported":1728328007,"current_range_meters":38800,"station_id":"ce4bhnh2rcd13ifvqgtg","pricing_plan_id":"cebpf4jnsgd1na2vs0mg"},{"bike_id":"52270bd0-914a-49ba-87fe-32887e78a76b","system_id":"levelo_inurba_marseille","lat":43.29196,"lon":5.3581,"is_reserved":false,"is_disabled":false,"rental_uris":{"android":"levelo://app?vid=52270bd0-914a-49ba-87fe-32887e78a76b","ios":"levelo://app?vid=52270bd0-914a-49ba-87fe-32887e78a76b"},"vehicle_type_id":"4","last_reported":1728328007,"current_range_meters":13600,"station_id":"ce4bhb12rcd13ifvqel0","pricing_plan_id":"cebpf4jnsgd1na2vs0mg"},{"bike_id":"9fb315eb-4ef5-4fbe-90a3-2810bc30298a","system_id":"levelo_inurba_marseille","lat":43.27998,"lon":5.4001,"is_reserved":false,"is_disabled":false,"rental_uris":{"android":"levelo://app?vid=9fb315eb-4ef5-4fbe-90a3-2810bc30298a","ios":"levelo://app?vid=9fb315eb-4ef5-4fbe-90a3-2810bc30298a"},"vehicle_type_id":"4","last_reported":1728328007,"current_range_meters":36400,"station_id":"ce4bho92rcd13ifvqh4g","pricing_plan_id":"cebpf4jnsgd1na2vs0mg"},{"bike_id":"aea101a8-668c-4872-8684-3251aa1622be","system_id":"levelo_inurba_marseille","lat":43.28869,"lon":5.35835,"is_reserved":false,"is_disabled":false,"rental_uris":{"android":"levelo://app?vid=aea101a8-668c-4872-8684-3251aa1622be","ios":"levelo://app?vid=aea101a8-668c-4872-8684-3251aa1622be"},"vehicle_type_id":"4","last_reported":1728328007,"current_range_meters":2800,"station_id":"ce4bhb12rcd13ifvqem0","pricing_plan_id":"cebpf4jnsgd1na2vs0mg"},{"bike_id":"450c248e-cb06-4d2b-9432-903ced06e598","system_id":"levelo_inurba_marseille","lat":43.29558,"lon":5.42282,"is_reserved":false,"is_disabled":false,"rental_uris":{"android":"levelo://app?vid=450c248e-cb06-4d2b-9432-903ced06e598","ios":"levelo://app?vid=450c248e-cb06-4d2b-9432-903ced06e598"},"vehicle_type_id":"4","last_reported":1728328007,"current_range_meters":28800,"station_id":"ce4bhph2rcd13ifvqhdg","pricing_plan_id":"cebpf4jnsgd1na2vs0mg"},{"bike_id":"0aa615af-5ad0-455f-aaf2-531e08cb18d7","system_id":"levelo_inurba_marseille","lat":43.28558,"lon":5.39494,"is_reserved":false,"is_disabled":false,"rental_uris":{"android":"levelo://app?vid=0aa615af-5ad0-455f-aaf2-531e08cb18d7","ios":"levelo://app?vid=0aa615af-5ad0-455f-aaf2-531e08cb18d7"},"vehicle_type_id":"4","last_reported":1728328007,"current_range_meters":3200,"station_id":"ce4bh292rcd13ifvqdg0","pricing_plan_id":"cebpf4jnsgd1na2vs0mg"},{"bike_id":"d53dd5cb-0e0a-412a-bbcd-2262acfa037c","system_id":"levelo_inurba_marseille","lat":43.30328,"lon":5.40446,"is_reserved":false,"is_disabled":false,"rental_uris":{"android":"levelo://app?vid=d53dd5cb-0e0a-412a-bbcd-2262acfa037c","ios":"levelo://app?vid=d53dd5cb-0e0a-412a-bbcd-2262acfa037c"},"vehicle_type_id":"4","last_reported":1728328007,"current_range_meters":39200,"station_id":"ce4bh012rcd13ifvqd10","pricing_plan_id":"cebpf4jnsgd1na2vs0mg"},{"bike_id":"314d24ac-9e47-4889-9200-0ac2f1ce606e","system_id":"levelo_inurba_marseille","lat":43.26501,"lon":5.39544,"is_reserved":false,"is_disabled":false,"rental_uris":{"android":"levelo://app?vid=314d24ac-9e47-4889-9200-0ac2f1ce606e","ios":"levelo://app?vid=314d24ac-9e47-4889-9200-0ac2f1ce606e"},"vehicle_type_id":"4","last_reported":1728328007,"current_range_meters":22000,"station_id":"ce4bhi12rcd13ifvqfq0","pricing_plan_id":"cebpf4jnsgd1na2vs0mg"},{"bike_id":"af101257-97d8-427d-926c-bfd575a5c827","system_id":"levelo_inurba_marseille","lat":43.23065,"lon":5.35497,"is_reserved":false,"is_disabled":false,"rental_uris":{"android":"levelo://app?vid=af101257-97d8-427d-926c-bfd575a5c827","ios":"levelo://app?vid=af101257-97d8-427d-926c-bfd575a5c827"},"vehicle_type_id":"4","last_reported":1728328007,"current_range_meters":8800,"station_id":"cpo3342slgdg3j2ifvpg","pricing_plan_id":"cebpf4jnsgd1na2vs0mg"},{"bike_id":"79d4ce44-dde0-4856-adfb-9d048612b764","system_id":"levelo_inurba_marseille","lat":43.24175,"lon":5.364,"is_reserved":false,"is_disabled":false,"rental_uris":{"android":"levelo://app?vid=79d4ce44-dde0-4856-adfb-9d048612b764","ios":"levelo://app?vid=79d4ce44-dde0-4856-adfb-9d048612b764"},"vehicle_type_id":"4","last_reported":1728328007,"current_range_meters":27600,"station_id":"cpo36qri1sfpv3e86is0","pricing_plan_id":"cebpf4jnsgd1na2vs0mg"},{"bike_id":"e08aee0c-89bf-47df-945c-4356038faf08","system_id":"levelo_inurba_marseille","lat":43.25083,"lon":5.3951,"is_reserved":false,"is_disabled":false,"rental_uris":{"android":"levelo://app?vid=e08aee0c-89bf-47df-945c-4356038faf08","ios":"levelo://app?vid=e08aee0c-89bf-47df-945c-4356038faf08"},"vehicle_type_id":"4","last_reported":1728328007,"current_range_meters":30800,"station_id":"ce4bhm12rcd13ifvqgkg","pricing_plan_id":"cebpf4jnsgd1na2vs0mg"},{"bike_id":"6362dd7e-711b-4b82-af8e-291ea8f6ea1e","system_id":"levelo_inurba_marseille","lat":43.23068,"lon":5.35493,"is_reserved":false,"is_disabled":false,"rental_uris":{"android":"levelo://app?vid=6362dd7e-711b-4b82-af8e-291ea8f6ea1e","ios":"levelo://app?vid=6362dd7e-711b-4b82-af8e-291ea8f6ea1e"},"vehicle_type_id":"4","last_reported":1728328007,"current_range_meters":24800,"station_id":"cpo3342slgdg3j2ifvpg","pricing_plan_id":"cebpf4jnsgd1na2vs0mg"},{"bike_id":"5113d289-e20c-492f-844f-6188ff718d88","system_id":"levelo_inurba_marseille","lat":43.22937,"lon":5.35385,"is_reserved":false,"is_disabled":false,"rental_uris":{"android":"levelo://app?vid=5113d289-e20c-492f-844f-6188ff718d88","ios":"levelo://app?vid=5113d289-e20c-492f-844f-6188ff718d88"},"vehicle_type_id":"4","last_reported":1728328007,"current_range_meters":32000,"station_id":"cpo3532slgdg3j2ikp40","pricing_plan_id":"cebpf4jnsgd1na2vs0mg"},{"bike_id":"7384d5b8-3cc6-48b7-b9f3-61bae51efb51","system_id":"levelo_inurba_marseille","lat":43.23968,"lon":5.36633,"is_reserved":false,"is_disabled":false,"rental_uris":{"android":"levelo://app?vid=7384d5b8-3cc6-48b7-b9f3-61bae51efb51","ios":"levelo://app?vid=7384d5b8-3cc6-48b7-b9f3-61bae51efb51"},"vehicle_type_id":"4","last_reported":1728328007,"current_range_meters":18000,"station_id":"ce4bhi12rcd13ifvqfp0","pricing_plan_id":"cebpf4jnsgd1na2vs0mg"},{"bike_id":"c35fd4e7-3879-45a8-bc86-a3496f8feaf4","system_id":"levelo_inurba_marseille","lat":43.28464,"lon":5.359,"is_reserved":false,"is_disabled":false,"rental_uris":{"android":"levelo://app?vid=c35fd4e7-3879-45a8-bc86-a3496f8feaf4","ios":"levelo://app?vid=c35fd4e7-3879-45a8-bc86-a3496f8feaf4"},"vehicle_type_id":"4","last_reported":1728328007,"current_range_meters":4000,"station_id":"ce4bhah2rcd13ifvqei0","pricing_plan_id":"cebpf4jnsgd1na2vs0mg"},{"bike_id":"e248eeca-f9c6-4ccc-9275-69116b0a91a6","system_id":"levelo_inurba_marseille","lat":43.2795,"lon":5.41055,"is_reserved":false,"is_disabled":false,"rental_uris":{"android":"levelo://app?vid=e248eeca-f9c6-4ccc-9275-69116b0a91a6","ios":"levelo://app?vid=e248eeca-f9c6-4ccc-9275-69116b0a91a6"},"vehicle_type_id":"4","last_reported":1728328007,"current_range_meters":38800,"station_id":"ce4bhnp2rcd13ifvqh0g","pricing_plan_id":"cebpf4jnsgd1na2vs0mg"},{"bike_id":"942b5deb-74ed-446b-8545-6665b5664951","system_id":"levelo_inurba_marseille","lat":43.30143,"lon":5.38085,"is_reserved":false,"is_disabled":false,"rental_uris":{"android":"levelo://app?vid=942b5deb-74ed-446b-8545-6665b5664951","ios":"levelo://app?vid=942b5deb-74ed-446b-8545-6665b5664951"},"vehicle_type_id":"4","last_reported":1728328007,"current_range_meters":16400,"station_id":"ce4bgjp2rcd13ifvqbh0","pricing_plan_id":"cebpf4jnsgd1na2vs0mg"},{"bike_id":"fbab334e-6568-46ac-88f7-b856d9d2d598","system_id":"levelo_inurba_marseille","lat":43.23196,"lon":5.35557,"is_reserved":false,"is_disabled":false,"rental_uris":{"android":"levelo://app?vid=fbab334e-6568-46ac-88f7-b856d9d2d598","ios":"levelo://app?vid=fbab334e-6568-46ac-88f7-b856d9d2d598"},"vehicle_type_id":"4","last_reported":1728328007,"current_range_meters":38800,"station_id":"ce4bhu92rcd13ifvqi70","pricing_plan_id":"cebpf4jnsgd1na2vs0mg"},{"bike_id":"ca06f500-fdb8-4316-9347-00462f47e52b","system_id":"levelo_inurba_marseille","lat":43.25491,"lon":5.37652,"is_reserved":false,"is_disabled":false,"rental_uris":{"android":"levelo://app?vid=ca06f500-fdb8-4316-9347-00462f47e52b","ios":"levelo://app?vid=ca06f500-fdb8-4316-9347-00462f47e52b"},"vehicle_type_id":"4","last_reported":1728328007,"current_range_meters":10000,"station_id":"ce4bhh12rcd13ifvqff0","pricing_plan_id":"cebpf4jnsgd1na2vs0mg"},{"bike_id":"419425aa-b845-4a9a-9ae5-875b04eb54a8","system_id":"levelo_inurba_marseille","lat":43.27991,"lon":5.41665,"is_reserved":false,"is_disabled":false,"rental_uris":{"android":"levelo://app?vid=419425aa-b845-4a9a-9ae5-875b04eb54a8","ios":"levelo://app?vid=419425aa-b845-4a9a-9ae5-875b04eb54a8"},"vehicle_type_id":"4","last_reported":1728328007,"current_range_meters":34800,"station_id":"ce4bho12rcd13ifvqh1g","pricing_plan_id":"cebpf4jnsgd1na2vs0mg"},{"bike_id":"3c464286-ed42-4cd4-8bcd-b3cb342633ae","system_id":"levelo_inurba_marseille","lat":43.3026,"lon":5.40089,"is_reserved":false,"is_disabled":false,"rental_uris":{"android":"levelo://app?vid=3c464286-ed42-4cd4-8bcd-b3cb342633ae","ios":"levelo://app?vid=3c464286-ed42-4cd4-8bcd-b3cb342633ae"},"vehicle_type_id":"4","last_reported":1728328007,"current_range_meters":37600,"station_id":"ce4bgvh2rcd13ifvqcs0","pricing_plan_id":"cebpf4jnsgd1na2vs0mg"},{"bike_id":"096c3c52-ea66-4fc7-aedf-0f68535ced1d","system_id":"levelo_inurba_marseille","lat":43.23884,"lon":5.39532,"is_reserved":false,"is_disabled":false,"rental_uris":{"android":"levelo://app?vid=096c3c52-ea66-4fc7-aedf-0f68535ced1d","ios":"levelo://app?vid=096c3c52-ea66-4fc7-aedf-0f68535ced1d"},"vehicle_type_id":"4","last_reported":1728328007,"current_range_meters":4400,"station_id":"","pricing_plan_id":"cebpf4jnsgd1na2vs0mg"},{"bike_id":"ef601635-47d8-49e0-b651-e1a442876942","system_id":"levelo_inurba_marseille","lat":43.279449,"lon":5.410466,"is_reserved":false,"is_disabled":false,"rental_uris":{"android":"levelo://app?vid=ef601635-47d8-49e0-b651-e1a442876942","ios":"levelo://app?vid=ef601635-47d8-49e0-b651-e1a442876942"},"vehicle_type_id":"4","last_reported":1728328007,"current_range_meters":34000,"station_id":"ce4bgt12rcd13ifvqce0","pricing_plan_id":"cebpf4jnsgd1na2vs0mg"},{"bike_id":"ac63b881-53ef-4e4b-b5e6-9f4914bcf168","system_id":"levelo_inurba_marseille","lat":43.23054,"lon":5.35491,"is_reserved":false,"is_disabled":false,"rental_uris":{"android":"levelo://app?vid=ac63b881-53ef-4e4b-b5e6-9f4914bcf168","ios":"levelo://app?vid=ac63b881-53ef-4e4b-b5e6-9f4914bcf168"},"vehicle_type_id":"4","last_reported":1728328007,"current_range_meters":35600,"station_id":"cpo3342slgdg3j2ifvpg","pricing_plan_id":"cebpf4jnsgd1na2vs0mg"},{"bike_id":"7800f493-9be2-4e52-9b62-46a8de179e4b","system_id":"levelo_inurba_marseille","lat":43.24651,"lon":5.38895,"is_reserved":false,"is_disabled":false,"rental_uris":{"android":"levelo://app?vid=7800f493-9be2-4e52-9b62-46a8de179e4b","ios":"levelo://app?vid=7800f493-9be2-4e52-9b62-46a8de179e4b"},"vehicle_type_id":"4","last_reported":1728328007,"current_range_meters":14000,"station_id":"ce4bhg12rcd13ifvqf60","pricing_plan_id":"cebpf4jnsgd1na2vs0mg"},{"bike_id":"92792175-54e9-4728-875d-8ef771e03237","system_id":"levelo_inurba_marseille","lat":43.31539,"lon":5.38042,"is_reserved":false,"is_disabled":false,"rental_uris":{"android":"levelo://app?vid=92792175-54e9-4728-875d-8ef771e03237","ios":"levelo://app?vid=92792175-54e9-4728-875d-8ef771e03237"},"vehicle_type_id":"4","last_reported":1728328007,"current_range_meters":12000,"station_id":"ce4bhsp2rcd13ifvqi50","pricing_plan_id":"cebpf4jnsgd1na2vs0mg"},{"bike_id":"cb5db75b-4107-4513-b88d-eb09b8c6c069","system_id":"levelo_inurba_marseille","lat":43.29592,"lon":5.36746,"is_reserved":false,"is_disabled":false,"rental_uris":{"android":"levelo://app?vid=cb5db75b-4107-4513-b88d-eb09b8c6c069","ios":"levelo://app?vid=cb5db75b-4107-4513-b88d-eb09b8c6c069"},"vehicle_type_id":"4","last_reported":1728328007,"current_range_meters":12000,"station_id":"ce4bgph2rcd13ifvqc2g","pricing_plan_id":"cebpf4jnsgd1na2vs0mg"},{"bike_id":"db724972-e4fe-47e7-9b47-41e277e43d39","system_id":"levelo_inurba_marseille","lat":43.28007,"lon":5.40016,"is_reserved":false,"is_disabled":false,"rental_uris":{"android":"levelo://app?vid=db724972-e4fe-47e7-9b47-41e277e43d39","ios":"levelo://app?vid=db724972-e4fe-47e7-9b47-41e277e43d39"},"vehicle_type_id":"4","last_reported":1728328007,"current_range_meters":24400,"station_id":"ce4bho92rcd13ifvqh4g","pricing_plan_id":"cebpf4jnsgd1na2vs0mg"},{"bike_id":"f199e642-191e-48b3-b09b-d950289f05ee","system_id":"levelo_inurba_marseille","lat":43.28704,"lon":5.39975,"is_reserved":false,"is_disabled":false,"rental_uris":{"android":"levelo://app?vid=f199e642-191e-48b3-b09b-d950289f05ee","ios":"levelo://app?vid=f199e642-191e-48b3-b09b-d950289f05ee"},"vehicle_type_id":"4","last_reported":1728328007,"current_range_meters":24800,"station_id":"ce4bho92rcd13ifvqh3g","pricing_plan_id":"cebpf4jnsgd1na2vs0mg"},{"bike_id":"dae420d9-611b-44f3-99d0-ca63b4b44cf4","system_id":"levelo_inurba_marseille","lat":43.2953,"lon":5.39047,"is_reserved":false,"is_disabled":false,"rental_uris":{"android":"levelo://app?vid=dae420d9-611b-44f3-99d0-ca63b4b44cf4","ios":"levelo://app?vid=dae420d9-611b-44f3-99d0-ca63b4b44cf4"},"vehicle_type_id":"4","last_reported":1728328007,"current_range_meters":37600,"station_id":"ce4bh3p2rcd13ifvqdp0","pricing_plan_id":"cebpf4jnsgd1na2vs0mg"},{"bike_id":"d3f9ab99-1a87-4465-b6cf-21acfaea9fd3","system_id":"levelo_inurba_marseille","lat":43.31076,"lon":5.38351,"is_reserved":false,"is_disabled":false,"rental_uris":{"android":"levelo://app?vid=d3f9ab99-1a87-4465-b6cf-21acfaea9fd3","ios":"levelo://app?vid=d3f9ab99-1a87-4465-b6cf-21acfaea9fd3"},"vehicle_type_id":"4","last_reported":1728328007,"current_range_meters":19600,"station_id":"ce4bgv92rcd13ifvqcr0","pricing_plan_id":"cebpf4jnsgd1na2vs0mg"},{"bike_id":"9e3fe2e1-eca8-4201-b615-2eaf2b4dc3f2","system_id":"levelo_inurba_marseille","lat":43.23197,"lon":5.35555,"is_reserved":false,"is_disabled":false,"rental_uris":{"android":"levelo://app?vid=9e3fe2e1-eca8-4201-b615-2eaf2b4dc3f2","ios":"levelo://app?vid=9e3fe2e1-eca8-4201-b615-2eaf2b4dc3f2"},"vehicle_type_id":"4","last_reported":1728328007,"current_range_meters":4400,"station_id":"ce4bhu92rcd13ifvqi70","pricing_plan_id":"cebpf4jnsgd1na2vs0mg"},{"bike_id":"5c56a3bd-eee6-46f6-9565-18e2d60b4a2a","system_id":"levelo_inurba_marseille","lat":43.24168,"lon":5.36397,"is_reserved":false,"is_disabled":false,"rental_uris":{"android":"levelo://app?vid=5c56a3bd-eee6-46f6-9565-18e2d60b4a2a","ios":"levelo://app?vid=5c56a3bd-eee6-46f6-9565-18e2d60b4a2a"},"vehicle_type_id":"4","last_reported":1728328007,"current_range_meters":29600,"station_id":"cpo36qri1sfpv3e86is0","pricing_plan_id":"cebpf4jnsgd1na2vs0mg"},{"bike_id":"0e64c6c1-c9e4-43b7-81e7-7162de211fa6","system_id":"levelo_inurba_marseille","lat":43.29005,"lon":5.38882,"is_reserved":false,"is_disabled":false,"rental_uris":{"android":"levelo://app?vid=0e64c6c1-c9e4-43b7-81e7-7162de211fa6","ios":"levelo://app?vid=0e64c6c1-c9e4-43b7-81e7-7162de211fa6"},"vehicle_type_id":"4","last_reported":1728328007,"current_range_meters":6000,"station_id":"ce4bh4p2rcd13ifvqe0g","pricing_plan_id":"cebpf4jnsgd1na2vs0mg"},{"bike_id":"31a36db1-6705-4df0-ae04-e3301e20c6c2","system_id":"levelo_inurba_marseille","lat":43.24652,"lon":5.38889,"is_reserved":false,"is_disabled":false,"rental_uris":{"android":"levelo://app?vid=31a36db1-6705-4df0-ae04-e3301e20c6c2","ios":"levelo://app?vid=31a36db1-6705-4df0-ae04-e3301e20c6c2"},"vehicle_type_id":"4","last_reported":1728328007,"current_range_meters":38800,"station_id":"ce4bhg12rcd13ifvqf60","pricing_plan_id":"cebpf4jnsgd1na2vs0mg"},{"bike_id":"473fa13c-047e-41ad-87b0-51a559c461c6","system_id":"levelo_inurba_marseille","lat":43.28465,"lon":5.35894,"is_reserved":false,"is_disabled":false,"rental_uris":{"android":"levelo://app?vid=473fa13c-047e-41ad-87b0-51a559c461c6","ios":"levelo://app?vid=473fa13c-047e-41ad-87b0-51a559c461c6"},"vehicle_type_id":"4","last_reported":1728328007,"current_range_meters":3600,"station_id":"ce4bhah2rcd13ifvqei0","pricing_plan_id":"cebpf4jnsgd1na2vs0mg"},{"bike_id":"4e717a9d-228b-4d9e-acfc-c4fcb09b9313","system_id":"levelo_inurba_marseille","lat":43.31702,"lon":5.37726,"is_reserved":false,"is_disabled":false,"rental_uris":{"android":"levelo://app?vid=4e717a9d-228b-4d9e-acfc-c4fcb09b9313","ios":"levelo://app?vid=4e717a9d-228b-4d9e-acfc-c4fcb09b9313"},"vehicle_type_id":"4","last_reported":1728328007,"current_range_meters":10800,"station_id":"ce4bgth2rcd13ifvqch0","pricing_plan_id":"cebpf4jnsgd1na2vs0mg"},{"bike_id":"0e4cc4c5-1304-4b86-b813-61b2b5b15d82","system_id":"levelo_inurba_marseille","lat":43.32293,"lon":5.38268,"is_reserved":false,"is_disabled":false,"rental_uris":{"android":"levelo://app?vid=0e4cc4c5-1304-4b86-b813-61b2b5b15d82","ios":"levelo://app?vid=0e4cc4c5-1304-4b86-b813-61b2b5b15d82"},"vehicle_type_id":"4","last_reported":1728328007,"current_range_meters":28800,"station_id":"ce4bhr12rcd13ifvqhqg","pricing_plan_id":"cebpf4jnsgd1na2vs0mg"},{"bike_id":"794ec5e1-6c5e-43fb-a6c6-abab6159a8f8","system_id":"levelo_inurba_marseille","lat":43.28092,"lon":5.39667,"is_reserved":false,"is_disabled":false,"rental_uris":{"android":"levelo://app?vid=794ec5e1-6c5e-43fb-a6c6-abab6159a8f8","ios":"levelo://app?vid=794ec5e1-6c5e-43fb-a6c6-abab6159a8f8"},"vehicle_type_id":"4","last_reported":1728328007,"current_range_meters":38800,"station_id":"ce4bho12rcd13ifvqh2g","pricing_plan_id":"cebpf4jnsgd1na2vs0mg"},{"bike_id":"58d5f427-4d62-422a-b2e7-27faaee5e1ce","system_id":"levelo_inurba_marseille","lat":43.29531,"lon":5.3904,"is_reserved":false,"is_disabled":false,"rental_uris":{"android":"levelo://app?vid=58d5f427-4d62-422a-b2e7-27faaee5e1ce","ios":"levelo://app?vid=58d5f427-4d62-422a-b2e7-27faaee5e1ce"},"vehicle_type_id":"4","last_reported":1728328007,"current_range_meters":36400,"station_id":"ce4bh3p2rcd13ifvqdp0","pricing_plan_id":"cebpf4jnsgd1na2vs0mg"},{"bike_id":"1475c9ab-564d-46b9-9056-f509a8100603","system_id":"levelo_inurba_marseille","lat":43.30809,"lon":5.3815,"is_reserved":false,"is_disabled":false,"rental_uris":{"android":"levelo://app?vid=1475c9ab-564d-46b9-9056-f509a8100603","ios":"levelo://app?vid=1475c9ab-564d-46b9-9056-f509a8100603"},"vehicle_type_id":"4","last_reported":1728328007,"current_range_meters":26000,"station_id":"ce4bgt12rcd13ifvqce0","pricing_plan_id":"cebpf4jnsgd1na2vs0mg"},{"bike_id":"4ee93dc7-e834-4ab2-a215-07626b390a76","system_id":"levelo_inurba_marseille","lat":43.31328,"lon":5.39696,"is_reserved":false,"is_disabled":false,"rental_uris":{"android":"levelo://app?vid=4ee93dc7-e834-4ab2-a215-07626b390a76","ios":"levelo://app?vid=4ee93dc7-e834-4ab2-a215-07626b390a76"},"vehicle_type_id":"4","last_reported":1728328007,"current_range_meters":9200,"station_id":"ce4bgvp2rcd13ifvqcu0","pricing_plan_id":"cebpf4jnsgd1na2vs0mg"},{"bike_id":"9a16de14-85d8-49d2-a503-2daf4bf45c2f","system_id":"levelo_inurba_marseille","lat":43.2439,"lon":5.37064,"is_reserved":false,"is_disabled":false,"rental_uris":{"android":"levelo://app?vid=9a16de14-85d8-49d2-a503-2daf4bf45c2f","ios":"levelo://app?vid=9a16de14-85d8-49d2-a503-2daf4bf45c2f"},"vehicle_type_id":"4","last_reported":1728328007,"current_range_meters":24000,"station_id":"ce4bhhh2rcd13ifvqfk0","pricing_plan_id":"cebpf4jnsgd1na2vs0mg"},{"bike_id":"8b10cb9f-15d9-4eb9-a18e-896430cdcbda","system_id":"levelo_inurba_marseille","lat":43.32031,"lon":5.40829,"is_reserved":false,"is_disabled":false,"rental_uris":{"android":"levelo://app?vid=8b10cb9f-15d9-4eb9-a18e-896430cdcbda","ios":"levelo://app?vid=8b10cb9f-15d9-4eb9-a18e-896430cdcbda"},"vehicle_type_id":"4","last_reported":1728328007,"current_range_meters":32400,"station_id":"ce4bhq92rcd13ifvqhjg","pricing_plan_id":"cebpf4jnsgd1na2vs0mg"},