{"last_updated":1743966439,"ttl":60,"version":"2.2","data":{"bikes":[{"bike_id":"e83984a0-dd8e-49dc-8ded-8201a886340d","system_id":"levelo_inurba_marseille","lat":43.26228,"lon":5.40458,"is_reserved":false,"is_disabled":false,"rental_uris":{"android":"levelo://app?vid=e83984a0-dd8e-49dc-8ded-8201a886340d","ios":"levelo://app?vid=e83984a0-dd8e-49dc-8ded-8201a886340d"},"vehicle_type_id":"4","last_reported":1743966439,"current_range_meters":2800,"station_id":"ce4bhmh2rcd13ifvqgmg","pricing_plan_id":"cebpf4jnsgd1na2vs0mg"},{"bike_id":"d5f50458-f9fb-403e-a7f2-d91d7d7dd8c7","system_id":"levelo_inurba_marseille","lat":43.25111,"lon":5.40316,"is_reserved":false,"is_disabled":false,"rental_uris":{"android":"levelo://app?vid=d5f50458-f9fb-403e-a7f2-d91d7d7dd8c7","ios":"levelo://app?vid=d5f50458-f9fb-403e-a7f2-d91d7d7dd8c7"},"vehicle_type_id":"4","last_reported":1743966439,"current_range_meters":2800,"station_id":"ce4bhlh2rcd13ifvqgig","pricing_plan_id":"cebpf4jnsgd1na2vs0mg"},{"bike_id":"62120ee5-b02b-4424-bf36-7f118cef4aea","system_id":"levelo_inurba_marseille","lat":43.26558,"lon":5.39023,"is_reserved":false,"is_disabled":false,"rental_uris":{"android":"levelo://app?vid=62120ee5-b02b-4424-bf36-7f118cef4aea","ios":"levelo://app?vid=62120ee5-b02b-4424-bf36-7f118cef4aea"},"vehicle_type_id":"4","last_reported":1743966439,"current_range_meters":2800,"station_id":"ce4bhe12rcd13ifvqf30","pricing_plan_id":"cebpf4jnsgd1na2vs0mg"},{"bike_id":"68abdfe3-c8dd-4785-bdeb-92cf9196943f","system_id":"levelo_inurba_marseille","lat":43.284107,"lon":5.375113,"is_reserved":false,"is_disabled":false,"rental_uris":{"android":"levelo://app?vid=68abdfe3-c8dd-4785-bdeb-92cf9196943f","ios":"levelo://app?vid=68abdfe3-c8dd-4785-bdeb-92cf9196943f"},"vehicle_type_id":"4","last_reported":1743966439,"current_range_meters":2800,"station_id":"ce4bh412rcd13ifvqds0","pricing_plan_id":"cebpf4jnsgd1na2vs0mg"},{"bike_id":"512bee47-bd00-4082-9a8f-17b334cb5778","system_id":"levelo_inurba_marseille","lat":43.29989,"lon":5.38483,"is_reserved":false,"is_disabled":true,"rental_uris":{"android":"levelo://app?vid=512bee47-bd00-4082-9a8f-17b334cb5778","ios":"levelo://app?vid=512bee47-bd00-4082-9a8f-17b334cb5778"},"vehicle_type_id":"4","last_reported":1743966439,"current_range_meters":2800,"station_id":"ce4bgj92rcd13ifvqbd0","pricing_plan_id":"cebpf4jnsgd1na2vs0mg"},{"bike_id":"d6e80ffd-629f-4a4a-b6fb-ed2d2a5dd46d","system_id":"levelo_inurba_marseille","lat":43.29262,"lon":5.40899,"is_reserved":false,"is_disabled":false,"rental_uris":{"android":"levelo://app?vid=d6e80ffd-629f-4a4a-b6fb-ed2d2a5dd46d","ios":"levelo://app?vid=d6e80ffd-629f-4a4a-b6fb-ed2d2a5dd46d"},"vehicle_type_id":"4","last_reported":1743966439,"current_range_meters":2800,"station_id":"ce4bh192rcd13ifvqdc0","pricing_plan_id":"cebpf4jnsgd1na2vs0mg"},{"bike_id":"d8c6056e-5636-430f-9551-7fcb4f5a9a8b","system_id":"levelo_inurba_marseille","lat":43.26784,"lon":5.39419,"is_reserved":false,"is_disabled":false,"rental_uris":{"android":"levelo://app?vid=d8c6056e-5636-430f-9551-7fcb4f5a9a8b","ios":"levelo://app?vid=d8c6056e-5636-430f-9551-7fcb4f5a9a8b"},"vehicle_type_id":"4","last_reported":1743966439,"current_range_meters":2800,"station_id":"ce4bhh12rcd13ifvqfg0","pricing_plan_id":"cebpf4jnsgd1na2vs0mg"},{"bike_id":"de8c7673-f24b-4f83-97a2-f3b597943ac1","system_id":"levelo_inurba_marseille","lat":43.27061,"lon":5.42273,"is_reserved":false,"is_disabled":false,"rental_uris":{"android":"levelo://app?vid=de8c7673-f24b-4f83-97a2-f3b597943ac1","ios":"levelo://app?vid=de8c7673-f24b-4f83-97a2-f3b597943ac1"},"vehicle_type_id":"4","last_reported":1743966439,"current_range_meters":2800,"station_id":"ce4bhk92rcd13ifvqgb0","pricing_plan_id":"cebpf4jnsgd1na2vs0mg"},{"bike_id":"ab060726-55e7-4b88-8594-a142a64f06d3","system_id":"levelo_inurba_marseille","lat":43.2868,"lon":5.38661,"is_reserved":false,"is_disabled":false,"rental_uris":{"android":"levelo://app?vid=ab060726-55e7-4b88-8594-a142a64f06d3","ios":"levelo://app?vid=ab060726-55e7-4b88-8594-a142a64f06d3"},"vehicle_type_id":"4","last_reported":1743966439,"current_range_meters":2800,"station_id":"ce4bh492rcd13ifvqdug","pricing_plan_id":"cebpf4jnsgd1na2vs0mg"},{"bike_id":"0eb1b871-4ab2-44d3-b5b1-63e8106a3347","system_id":"levelo_inurba_marseille","lat":43.33724,"lon":5.39195,"is_reserved":false,"is_disabled":false,"rental_uris":{"android":"levelo://app?vid=0eb1b871-4ab2-44d3-b5b1-63e8106a3347","ios":"levelo://app?vid=0eb1b871-4ab2-44d3-b5b1-63e8106a3347"},"vehicle_type_id":"4","last_reported":1743966439,"current_range_meters":2800,"station_id":"ce4bhr92rcd13ifvqhsg","pricing_plan_id":"cebpf4jnsgd1na2vs0mg"},{"bike_id":"521bc231-99be-4cf4-abe9-a319bddaf176","system_id":"levelo_inurba_marseille","lat":43.3021,"lon":5.39479,"is_reserved":false,"is_disabled":false,"rental_uris":{"android":"levelo://app?vid=521bc231-99be-4cf4-abe9-a319bddaf176","ios":"levelo://app?vid=521bc231-99be-4cf4-abe9-a319bddaf176"},"vehicle_type_id":"4","last_reported":1743966439,"current_range_meters":3200,"station_id":"ce4bh0p2rcd13ifvqd70","pricing_plan_id":"cebpf4jnsgd1na2vs0mg"},{"bike_id":"9b974c47-26b2-42a7-aa42-ac73d9db2244","system_id":"levelo_inurba_marseille","lat":43.2957,"lon":5.37524,"is_reserved":false,"is_disabled":false,"rental_uris":{"android":"levelo://app?vid=9b974c47-26b2-42a7-aa42-ac73d9db2244","ios":"levelo://app?vid=9b974c47-26b2-42a7-aa42-ac73d9db2244"},"vehicle_type_id":"4","last_reported":1743966439,"current_range_meters":3200,"station_id":"ce4bgh92rcd13ifvqb50","pricing_plan_id":"cebpf4jnsgd1na2vs0mg"},{"bike_id":"897c73b2-cceb-4ea5-bddb-dbf222bcdd14","system_id":"levelo_inurba_marseille","lat":43.26812,"lon":5.4027,"is_reserved":false,"is_disabled":false,"rental_uris":{"android":"levelo://app?vid=897c73b2-cceb-4ea5-bddb-dbf222bcdd14","ios":"levelo://app?vid=897c73b2-cceb-4ea5-bddb-dbf222bcdd14"},"vehicle_type_id":"4","last_reported":1743966439,"current_range_meters":3200,"station_id":"ce501612rcd8frsf0b60","pricing_plan_id":"cebpf4jnsgd1na2vs0mg"},{"bike_id":"78a6c39c-1164-42e4-9e01-9540e04e73af","system_id":"levelo_inurba_marseille","lat":43.276694,"lon":5.389087,"is_reserved":false,"is_disabled":false,"rental_uris":{"android":"levelo://app?vid=78a6c39c-1164-42e4-9e01-9540e04e73af","ios":"levelo://app?vid=78a6c39c-1164-42e4-9e01-9540e04e73af"},"vehicle_type_id":"4","last_reported":1743966439,"current_range_meters":3200,"station_id":"ce4bhi12rcd13ifvqfo0","pricing_plan_id":"cebpf4jnsgd1na2vs0mg"},{"bike_id":"3a69c7bf-ffb3-4dce-af64-5df0ba24282c","system_id":"levelo_inurba_marseille","lat":43.27678,"lon":5.38949,"is_reserved":false,"is_disabled":false,"rental_uris":{"android":"levelo://app?vid=3a69c7bf-ffb3-4dce-af64-5df0ba24282c","ios":"levelo://app?vid=3a69c7bf-ffb3-4dce-af64-5df0ba24282c"},"vehicle_type_id":"4","last_reported":1743966439,"current_range_meters":3200,"station_id":"ce4bhi12rcd13ifvqfo0","pricing_plan_id":"cebpf4jnsgd1na2vs0mg"},{"bike_id":"ac8d41fa-8caf-4d31-95bc-09e8b066d548","system_id":"levelo_inurba_marseille","lat":43.29029,"lon":5.39971,"is_reserved":false,"is_disabled":false,"rental_uris":{"android":"levelo://app?vid=ac8d41fa-8caf-4d31-95bc-09e8b066d548","ios":"levelo://app?vid=ac8d41fa-8caf-4d31-95bc-09e8b066d548"},"vehicle_type_id":"4","last_reported":1743966439,"current_range_meters":3200,"station_id":"ce4bh392rcd13ifvqdm0","pricing_plan_id":"cebpf4jnsgd1na2vs0mg"},{"bike_id":"39df10fe-abc1-45f2-b3bc-aba7901e7b8d","system_id":"levelo_inurba_marseille","lat":43.28408,"lon":5.37532,"is_reserved":false,"is_disabled":false,"rental_uris":{"android":"levelo://app?vid=39df10fe-abc1-45f2-b3bc-aba7901e7b8d","ios":"levelo://app?vid=39df10fe-abc1-45f2-b3bc-aba7901e7b8d"},"vehicle_type_id":"4","last_reported":1743966439,"current_range_meters":3200,"station_id":"ce4bh412rcd13ifvqds0","pricing_plan_id":"cebpf4jnsgd1na2vs0mg"},{"bike_id":"a8c5543f-0892-43cb-b96f-3c97bb120ec9","system_id":"levelo_inurba_marseille","lat":43.31721,"lon":5.43699,"is_reserved":false,"is_disabled":false,"rental_uris":{"android":"levelo://app?vid=a8c5543f-0892-43cb-b96f-3c97bb120ec9","ios":"levelo://app?vid=a8c5543f-0892-43cb-b96f-3c97bb120ec9"},"vehicle_type_id":"4","last_reported":1743966439,"current_range_meters":3600,"station_id":"ce4bhp92rcd13ifvqhcg","pricing_plan_id":"cebpf4jnsgd1na2vs0mg"},{"bike_id":"d8b80e40-86bc-4bc5-8505-5fc7a9236511","system_id":"levelo_inurba_marseille","lat":43.295233,"lon":5.391108,"is_reserved":false,"is_disabled":false,"rental_uris":{"android":"levelo://app?vid=d8b80e40-86bc-4bc5-8505-5fc7a9236511","ios":"levelo://app?vid=d8b80e40-86bc-4bc5-8505-5fc7a9236511"},"vehicle_type_id":"4","last_reported":1743966439,"current_range_meters":3600,"station_id":"ce4bh292rcd13ifvqdf0","pricing_plan_id":"cebpf4jnsgd1na2vs0mg"},{"bike_id":"19c21be0-0877-4548-935f-a1ee611aad09","system_id":"levelo_inurba_marseille","lat":43.26814,"lon":5.40265,"is_reserved":false,"is_disabled":false,"rental_uris":{"android":"levelo://app?vid=19c21be0-0877-4548-935f-a1ee611aad09","ios":"levelo://app?vid=19c21be0-0877-4548-935f-a1ee611aad09"},"vehicle_type_id":"4","last_reported":1743966439,"current_range_meters":3600,"station_id":"ce501612rcd8frsf0b60","pricing_plan_id":"cebpf4jnsgd1na2vs0mg"},{"bike_id":"313c9e5b-5006-4fde-b388-ef42785b7644","system_id":"levelo_inurba_marseille","lat":43.31129,"lon":5.37849,"is_reserved":false,"is_disabled":false,"rental_uris":{"android":"levelo://app?vid=313c9e5b-5006-4fde-b388-ef42785b7644","ios":"levelo://app?vid=313c9e5b-5006-4fde-b388-ef42785b7644"},"vehicle_type_id":"4","last_reported":1743966439,"current_range_meters":3600,"station_id":"","pricing_plan_id":"cebpf4jnsgd1na2vs0mg"},{"bike_id":"d8319cc9-dab2-4c02-b8ac-7ff23fa7dd3b","system_id":"levelo_inurba_marseille","lat":43.26944,"lon":5.40265,"is_reserved":false,"is_disabled":false,"rental_uris":{"android":"levelo://app?vid=d8319cc9-dab2-4c02-b8ac-7ff23fa7dd3b","ios":"levelo://app?vid=d8319cc9-dab2-4c02-b8ac-7ff23fa7dd3b"},"vehicle_type_id":"4","last_reported":1743966439,"current_range_meters":3600,"station_id":"cjm6bp8fraef2m0cb0m0","pricing_plan_id":"cebpf4jnsgd1na2vs0mg"},{"bike_id":"fb0d4993-67fa-4314-9525-ef2ba9197c72","system_id":"levelo_inurba_marseille","lat":43.30263,"lon":5.4063,"is_reserved":false,"is_disabled":false,"rental_uris":{"android":"levelo://app?vid=fb0d4993-67fa-4314-9525-ef2ba9197c72","ios":"levelo://app?vid=fb0d4993-67fa-4314-9525-ef2ba9197c72"},"vehicle_type_id":"4","last_reported":1743966439,"current_range_meters":3600,"station_id":"","pricing_plan_id":"cebpf4jnsgd1na2vs0mg"},{"bike_id":"00c0f1d3-e04b-498d-b721-c20cfbbe0948","system_id":"levelo_inurba_marseille","lat":43.29197,"lon":5.39332,"is_reserved":false,"is_disabled":false,"rental_uris":{"android":"levelo://app?vid=00c0f1d3-e04b-498d-b721-c20cfbbe0948","ios":"levelo://app?vid=00c0f1d3-e04b-498d-b721-c20cfbbe0948"},"vehicle_type_id":"4","last_reported":1743966439,"current_range_meters":3600,"station_id":"ce4bh192rcd13ifvqdd0","pricing_plan_id":"cebpf4jnsgd1na2vs0mg"},{"bike_id":"46f90063-a6f3-4e1c-a73e-11345b24b5af","system_id":"levelo_inurba_marseille","lat":43.2872,"lon":5.36093,"is_reserved":false,"is_disabled":false,"rental_uris":{"android":"levelo://app?vid=46f90063-a6f3-4e1c-a73e-11345b24b5af","ios":"levelo://app?vid=46f90063-a6f3-4e1c-a73e-11345b24b5af"},"vehicle_type_id":"4","last_reported":1743966439,"current_range_meters":3600,"station_id":"cki0cbj6b192h4jlfktg","pricing_plan_id":"cebpf4jnsgd1na2vs0mg"},{"bike_id":"436de943-11a9-43b4-82cd-c1d6a8e99e5c","system_id":"levelo_inurba_marseille","lat":43.24406,"lon":5.37048,"is_reserved":false,"is_disabled":false,"rental_uris":{"android":"levelo://app?vid=436de943-11a9-43b4-82cd-c1d6a8e99e5c","ios":"levelo://app?vid=436de943-11a9-43b4-82cd-c1d6a8e99e5c"},"vehicle_type_id":"4","last_reported":1743966439,"current_range_meters":3600,"station_id":"ce4bhhh2rcd13ifvqfk0","pricing_plan_id":"cebpf4jnsgd1na2vs0mg"},{"bike_id":"ee2ee736-7f2f-400d-8a00-2550eb3f5a53","system_id":"levelo_inurba_marseille","lat":43.29027,"lon":5.38652,"is_reserved":false,"is_disabled":false,"rental_uris":{"android":"levelo://app?vid=ee2ee736-7f2f-400d-8a00-2550eb3f5a53","ios":"levelo://app?vid=ee2ee736-7f2f-400d-8a00-2550eb3f5a53"},"vehicle_type_id":"4","last_reported":1743966439,"current_range_meters":3600,"station_id":"ce4bh4p2rcd13ifvqe0g","pricing_plan_id":"cebpf4jnsgd1na2vs0mg"},{"bike_id":"88be6782-01d3-4763-92fe-e534a77e1bd8","system_id":"levelo_inurba_marseille","lat":43.29416,"lon":5.38632,"is_reserved":false,"is_disabled":false,"rental_uris":{"android":"levelo://app?vid=88be6782-01d3-4763-92fe-e534a77e1bd8","ios":"levelo://app?vid=88be6782-01d3-4763-92fe-e534a77e1bd8"},"vehicle_type_id":"4","last_reported":1743966439,"current_range_meters":3600,"station_id":"ce4bh2h2rcd13ifvqdh0","pricing_plan_id":"cebpf4jnsgd1na2vs0mg"},{"bike_id":"773f291a-3408-41d4-a05a-6f52fe5e9b26","system_id":"levelo_inurba_marseille","lat":43.27299,"lon":5.39114,"is_reserved":false,"is_disabled":false,"rental_uris":{"android":"levelo://app?vid=773f291a-3408-41d4-a05a-6f52fe5e9b26","ios":"levelo://app?vid=773f291a-3408-41d4-a05a-6f52fe5e9b26"},"vehicle_type_id":"4","last_reported":1743966439,"current_range_meters":3600,"station_id":"ce4bhgp2rcd13ifvqfe0","pricing_plan_id":"cebpf4jnsgd1na2vs0mg"},{"bike_id":"fbc1b73a-4232-4764-8279-430cc6eea3f7","system_id":"levelo_inurba_marseille","lat":43.3155,"lon":5.37278,"is_reserved":false,"is_disabled":false,"rental_uris":{"android":"levelo://app?vid=fbc1b73a-4232-4764-8279-430cc6eea3f7","ios":"levelo://app?vid=fbc1b73a-4232-4764-8279-430cc6eea3f7"},"vehicle_type_id":"4","last_reported":1743966439,"current_range_meters":3600,"station_id":"","pricing_plan_id":"cebpf4jnsgd1na2vs0mg"},{"bike_id":"8882b9b4-6bd4-44ba-af0b-004e38de19d7","system_id":"levelo_inurba_marseille","lat":43.32479,"lon":5.365516,"is_reserved":false,"is_disabled":false,"rental_uris":{"android":"levelo://app?vid=8882b9b4-6bd4-44ba-af0b-004e38de19d7","ios":"levelo://app?vid=8882b9b4-6bd4-44ba-af0b-004e38de19d7"},"vehicle_type_id":"4","last_reported":1743966439,"current_range_meters":3600,"station_id":"ce4bhs12rcd13ifvqhvg","pricing_plan_id":"cebpf4jnsgd1na2vs0mg"},{"bike_id":"92e02262-6e02-43da-9559-af9c6648ad7a","system_id":"levelo_inurba_marseille","lat":43.28408,"lon":5.37519,"is_reserved":false,"is_disabled":false,"rental_uris":{"android":"levelo://app?vid=92e02262-6e02-43da-9559-af9c6648ad7a","ios":"levelo://app?vid=92e02262-6e02-43da-9559-af9c6648ad7a"},"vehicle_type_id":"4","last_reported":1743966439,"current_range_meters":3600,"station_id":"ce4bh412rcd13ifvqds0","pricing_plan_id":"cebpf4jnsgd1na2vs0mg"},{"bike_id":"0ded300c-aacd-476b-8522-e48a571f485b","system_id":"levelo_inurba_marseille","lat":43.30949,"lon":5.3904,"is_reserved":false,"is_disabled":false,"rental_uris":{"android":"levelo://app?vid=0ded300c-aacd-476b-8522-e48a571f485b","ios":"levelo://app?vid=0ded300c-aacd-476b-8522-e48a571f485b"},"vehicle_type_id":"4","last_reported":1743966439,"current_range_meters":3600,"station_id":"ce4bgup2rcd13ifvqco0","pricing_plan_id":"cebpf4jnsgd1na2vs0mg"},{"bike_id":"a7a4d96d-d183-424b-b457-cca239a3e09a","system_id":"levelo_inurba_marseille","lat":43.29026,"lon":5.38626,"is_reserved":false,"is_disabled":false,"rental_uris":{"android":"levelo://app?vid=a7a4d96d-d183-424b-b457-cca239a3e09a","ios":"levelo://app?vid=a7a4d96d-d183-424b-b457-cca239a3e09a"},"vehicle_type_id":"4","last_reported":1743966439,"current_range_meters":3600,"station_id":"ce4bh4p2rcd13ifvqe0g","pricing_plan_id":"cebpf4jnsgd1na2vs0mg"},{"bike_id":"8739ea41-f2be-441b-82fb-ac6608ea96ab","system_id":"levelo_inurba_marseille","lat":43.27124,"lon":5.38999,"is_reserved":false,"is_disabled":false,"rental_uris":{"android":"levelo://app?vid=8739ea41-f2be-441b-82fb-ac6608ea96ab","ios":"levelo://app?vid=8739ea41-f2be-441b-82fb-ac6608ea96ab"},"vehicle_type_id":"4","last_reported":1743966439,"current_range_meters":3600,"station_id":"ce4bh612rcd13ifvqe6g","pricing_plan_id":"cebpf4jnsgd1na2vs0mg"},{"bike_id":"7a2ad16f-9307-4ab6-95d2-865b23a531f5","system_id":"levelo_inurba_marseille","lat":43.28718,"lon":5.37931,"is_reserved":false,"is_disabled":false,"rental_uris":{"android":"levelo://app?vid=7a2ad16f-9307-4ab6-95d2-865b23a531f5","ios":"levelo://app?vid=7a2ad16f-9307-4ab6-95d2-865b23a531f5"},"vehicle_type_id":"4","last_reported":1743966439,"current_range_meters":4000,"station_id":"ce4bh9p2rcd13ifvqec0","pricing_plan_id":"cebpf4jnsgd1na2vs0mg"},{"bike_id":"e46d171b-22b2-4d8c-8036-586a9d1180ee","system_id":"levelo_inurba_marseille","lat":43.28398,"lon":5.37515,"is_reserved":false,"is_disabled":false,"rental_uris":{"android":"levelo://app?vid=e46d171b-22b2-4d8c-8036-586a9d1180ee","ios":"levelo://app?vid=e46d171b-22b2-4d8c-8036-586a9d1180ee"},"vehicle_type_id":"4","last_reported":1743966439,"current_range_meters":4000,"station_id":"ce4bh412rcd13ifvqds0","pricing_plan_id":"cebpf4jnsgd1na2vs0mg"},{"bike_id":"2a4c2fe8-bf96-454f-b252-b9b65c9aaa1a","system_id":"levelo_inurba_marseille","lat":43.2965,"lon":5.40618,"is_reserved":false,"is_disabled":false,"rental_uris":{"android":"levelo://app?vid=2a4c2fe8-bf96-454f-b252-b9b65c9aaa1a","ios":"levelo://app?vid=2a4c2fe8-bf96-454f-b252-b9b65c9aaa1a"},"vehicle_type_id":"4","last_reported":1743966439,"current_range_meters":4000,"station_id":"ce4bh0h2rcd13ifvqd60","pricing_plan_id":"cebpf4jnsgd1na2vs0mg"},{"bike_id":"69f8a740-a0ff-4635-87ad-9b7d7d0db53e","system_id":"levelo_inurba_marseille","lat":43.246497,"lon":5.389134,"is_reserved":false,"is_disabled":true,"rental_uris":{"android":"levelo://app?vid=69f8a740-a0ff-4635-87ad-9b7d7d0db53e","ios":"levelo://app?vid=69f8a740-a0ff-4635-87ad-9b7d7d0db53e"},"vehicle_type_id":"4","last_reported":1743966439,"current_range_meters":4000,"station_id":"ce4bhg12rcd13ifvqf60","pricing_plan_id":"cebpf4jnsgd1na2vs0mg"},{"bike_id":"132ae576-5d44-49cd-bed1-1a91193255eb","system_id":"levelo_inurba_marseille","lat":43.29569,"lon":5.39986,"is_reserved":false,"is_disabled":false,"rental_uris":{"android":"levelo://app?vid=132ae576-5d44-49cd-bed1-1a91193255eb","ios":"levelo://app?vid=132ae576-5d44-49cd-bed1-1a91193255eb"},"vehicle_type_id":"4","last_reported":1743966439,"current_range_meters":4000,"station_id":"ce4bh312rcd13ifvqdj0","pricing_plan_id":"cebpf4jnsgd1na2vs0mg"},{"bike_id":"35988cb1-0f21-4499-b83c-b5570806f4f8","system_id":"levelo_inurba_marseille","lat":43.27153,"lon":5.40982,"is_reserved":false,"is_disabled":false,"rental_uris":{"android":"levelo://app?vid=35988cb1-0f21-4499-b83c-b5570806f4f8","ios":"levelo://app?vid=35988cb1-0f21-4499-b83c-b5570806f4f8"},"vehicle_type_id":"4","last_reported":1743966439,"current_range_meters":4400,"station_id":"ce4bhl12rcd13ifvqgf0","pricing_plan_id":"cebpf4jnsgd1na2vs0mg"},{"bike_id":"117d4505-cd41-4abf-85e7-ee62af9ec4cd","system_id":"levelo_inurba_marseille","lat":43.29528,"lon":5.3854,"is_reserved":false,"is_disabled":false,"rental_uris":{"android":"levelo://app?vid=117d4505-cd41-4abf-85e7-ee62af9ec4cd","ios":"levelo://app?vid=117d4505-cd41-4abf-85e7-ee62af9ec4cd"},"vehicle_type_id":"4","last_reported":1743966439,"current_range_meters":4400,"station_id":"ce4bgih2rcd13ifvqba0","pricing_plan_id":"cebpf4jnsgd1na2vs0mg"},{"bike_id":"46c28730-414e-47a3-a8fc-36235e0b6fdd","system_id":"levelo_inurba_marseille","lat":43.25728,"lon":5.41114,"is_reserved":false,"is_disabled":false,"rental_uris":{"android":"levelo://app?vid=46c28730-414e-47a3-a8fc-36235e0b6fdd","ios":"levelo://app?vid=46c28730-414e-47a3-a8fc-36235e0b6fdd"},"vehicle_type_id":"4","last_reported":1743966439,"current_range_meters":4400,"station_id":"ce4bhkp2rcd13ifvqgd0","pricing_plan_id":"cebpf4jnsgd1na2vs0mg"},{"bike_id":"bf5f3aa7-e956-41e1-abec-cd5979ab7ef4","system_id":"levelo_inurba_marseille","lat":43.30097,"lon":5.39095,"is_reserved":false,"is_disabled":false,"rental_uris":{"android":"levelo://app?vid=bf5f3aa7-e956-41e1-abec-cd5979ab7ef4","ios":"levelo://app?vid=bf5f3aa7-e956-41e1-abec-cd5979ab7ef4"},"vehicle_type_id":"4","last_reported":1743966439,"current_range_meters":4400,"station_id":"ce4bh192rcd13ifvqdb0","pricing_plan_id":"cebpf4jnsgd1na2vs0mg"},{"bike_id":"dc9d94f8-132c-49e6-aecf-348a20bf19cb","system_id":"levelo_inurba_marseille","lat":43.27313,"lon":5.3908,"is_reserved":false,"is_disabled":false,"rental_uris":{"android":"levelo://app?vid=dc9d94f8-132c-49e6-aecf-348a20bf19cb","ios":"levelo://app?vid=dc9d94f8-132c-49e6-aecf-348a20bf19cb"},"vehicle_type_id":"4","last_reported":1743966439,"current_range_meters":4400,"station_id":"ce4bhgp2rcd13ifvqfe0","pricing_plan_id":"cebpf4jnsgd1na2vs0mg"},{"bike_id":"5a1ff55b-cf4c-4720-a451-d7ceb9f2547b","system_id":"levelo_inurba_marseille","lat":43.28933,"lon":5.39625,"is_reserved":false,"is_disabled":false,"rental_uris":{"android":"levelo://app?vid=5a1ff55b-cf4c-4720-a451-d7ceb9f2547b","ios":"levelo://app?vid=5a1ff55b-cf4c-4720-a451-d7ceb9f2547b"},"vehicle_type_id":"4","last_reported":1743966439,"current_range_meters":4400,"station_id":"ce4bh3h2rcd13ifvqdn0","pricing_plan_id":"cebpf4jnsgd1na2vs0mg"},{"bike_id":"8e8105ce-63e2-4441-9ebe-d6a09a08a22e","system_id":"levelo_inurba_marseille","lat":43.29668,"lon":5.36204,"is_reserved":false,"is_disabled":false,"rental_uris":{"android":"levelo://app?vid=8e8105ce-63e2-4441-9ebe-d6a09a08a22e","ios":"levelo://app?vid=8e8105ce-63e2-4441-9ebe-d6a09a08a22e"},"vehicle_type_id":"4","last_reported":1743966439,"current_range_meters":4400,"station_id":"","pricing_plan_id":"cebpf4jnsgd1na2vs0mg"},{"bike_id":"bd967021-b17d-43b1-ab6a-2dc24cd5274d","system_id":"levelo_inurba_marseille","lat":43.27306,"lon":5.39102,"is_reserved":false,"is_disabled":false,"rental_uris":{"android":"levelo://app?vid=bd967021-b17d-43b1-ab6a-2dc24cd5274d","ios":"levelo://app?vid=bd967021-b17d-43b1-ab6a-2dc24cd5274d"},"vehicle_type_id":"4","last_reported":1743966439,"current_range_meters":4400,"station_id":"ce4bhgp2rcd13ifvqfe0","pricing_plan_id":"cebpf4jnsgd1na2vs0mg"},{"bike_id":"62aa11ed-2f54-4844-8426-4249a76a2427","system_id":"levelo_inurba_marseille","lat":43.26233,"lon":5.40457,"is_reserved":false,"is_disabled":false,"rental_uris":{"android":"levelo://app?vid=62aa11ed-2f54-4844-8426-4249a76a2427","ios":"levelo://app?vid=62aa11ed-2f54-4844-8426-4249a76a2427"},"vehicle_type_id":"4","last_reported":1743966439,"current_range_meters":4800,"station_id":"ce4bhmh2rcd13ifvqgmg","pricing_plan_id":"cebpf4jnsgd1na2vs0mg"},{"bike_id":"4de27452-1f01-4eea-a862-660268d4a851","system_id":"levelo_inurba_marseille","lat":43.268455,"lon":5.400009,"is_reserved":false,"is_disabled":false,"rental_uris":{"android":"levelo://app?vid=4de27452-1f01-4eea-a862-660268d4a851","ios":"levelo://app?vid=4de27452-1f01-4eea-a862-660268d4a851"},"vehicle_type_id":"4","last_reported":1743966439,"current_range_meters":4800,"station_id":"ce4bhk92rcd13ifvqgc0","pricing_plan_id":"cebpf4jnsgd1na2vs0mg"},{"bike_id":"fc9f2e14-4c37-4894-abfa-7aa51eb1e2c9","system_id":"levelo_inurba_marseille","lat":43.2919,"lon":5.39322,"is_reserved":false,"is_disabled":false,"rental_uris":{"android":"levelo://app?vid=fc9f2e14-4c37-4894-abfa-7aa51eb1e2c9","ios":"levelo://app?vid=fc9f2e14-4c37-4894-abfa-7aa51eb1e2c9"},"vehicle_type_id":"4","last_reported":1743966439,"current_range_meters":4800,"station_id":"ce4bh192rcd13ifvqdd0","pricing_plan_id":"cebpf4jnsgd1na2vs0mg"},{"bike_id":"27a6cf9d-d861-4333-a55c-4ca1daf4a65b","system_id":"levelo_inurba_marseille","lat":43.30791,"lon":5.37644,"is_reserved":false,"is_disabled":false,"rental_uris":{"android":"levelo://app?vid=27a6cf9d-d861-4333-a55c-4ca1daf4a65b","ios":"levelo://app?vid=27a6cf9d-d861-4333-a55c-4ca1daf4a65b"},"vehicle_type_id":"4","last_reported":1743966439,"current_range_meters":4400,"station_id":"ce4bgv92rcd13ifvqcq0","pricing_plan_id":"cebpf4jnsgd1na2vs0mg"},{"bike_id":"8752f352-63c7-4035-84db-ab936a48425a","system_id":"levelo_inurba_marseille","lat":43.27301,"lon":5.39101,"is_reserved":false,"is_disabled":false,"rental_uris":{"android":"levelo://app?vid=8752f352-63c7-4035-84db-ab936a48425a","ios":"levelo://app?vid=8752f352-63c7-4035-84db-ab936a48425a"},"vehicle_type_id":"4","last_reported":1743966439,"current_range_meters":4800,"station_id":"ce4bhgp2rcd13ifvqfe0","pricing_plan_id":"cebpf4jnsgd1na2vs0mg"},{"bike_id":"738422d5-b698-4761-a517-bd037d33cb4a","system_id":"levelo_inurba_marseille","lat":43.26942,"lon":5.40254,"is_reserved":false,"is_disabled":false,"rental_uris":{"android":"levelo://app?vid=738422d5-b698-4761-a517-bd037d33cb4a","ios":"levelo://app?vid=738422d5-b698-4761-a517-bd037d33cb4a"},"vehicle_type_id":"4","last_reported":1743966439,"current_range_meters":4800,"station_id":"cjm6bp8fraef2m0cb0m0","pricing_plan_id":"cebpf4jnsgd1na2vs0mg"},{"bike_id":"5500f75a-6970-4709-a65f-7ddb0656918e","system_id":"levelo_inurba_marseille","lat":43.286576,"lon":5.363276,"is_reserved":false,"is_disabled":false,"rental_uris":{"android":"levelo://app?vid=5500f75a-6970-4709-a65f-7ddb0656918e","ios":"levelo://app?vid=5500f75a-6970-4709-a65f-7ddb0656918e"},"vehicle_type_id":"4","last_reported":1743966439,"current_range_meters":4800,"station_id":"ce4bhah2rcd13ifvqej0","pricing_plan_id":"cebpf4jnsgd1na2vs0mg"},{"bike_id":"f1426a96-a3c7-4f99-ae0c-684cab155845","system_id":"levelo_inurba_marseille","lat":43.26217,"lon":5.37436,"is_reserved":false,"is_disabled":false,"rental_uris":{"android":"levelo://app?vid=f1426a96-a3c7-4f99-ae0c-684cab155845","ios":"levelo://app?vid=f1426a96-a3c7-4f99-ae0c-684cab155845"},"vehicle_type_id":"4","last_reported":1743966439,"current_range_meters":4800,"station_id":"ce4bhgp2rcd13ifvqfc0","pricing_plan_id":"cebpf4jnsgd1na2vs0mg"},{"bike_id":"6d70e492-394e-44f3-96aa-c37ef18b968b","system_id":"levelo_inurba_marseille","lat":43.25098,"lon":5.39517,"is_reserved":false,"is_disabled":false,"rental_uris":{"android":"levelo://app?vid=6d70e492-394e-44f3-96aa-c37ef18b968b","ios":"levelo://app?vid=6d70e492-394e-44f3-96aa-c37ef18b968b"},"vehicle_type_id":"4","last_reported":1743966439,"current_range_meters":4800,"station_id":"ce4bhm12rcd13ifvqgkg","pricing_plan_id":"cebpf4jnsgd1na2vs0mg"},{"bike_id":"69327e66-60b1-49d6-8800-d7ecebe467b1","system_id":"levelo_inurba_marseille","lat":43.27303,"lon":5.39085,"is_reserved":false,"is_disabled":false,"rental_uris":{"android":"levelo://app?vid=69327e66-60b1-49d6-8800-d7ecebe467b1","ios":"levelo://app?vid=69327e66-60b1-49d6-8800-d7ecebe467b1"},"vehicle_type_id":"4","last_reported":1743966439,"current_range_meters":4800,"station_id":"ce4bhgp2rcd13ifvqfe0","pricing_plan_id":"cebpf4jnsgd1na2vs0mg"},{"bike_id":"555ff11a-d68c-46fb-b51f-5978774154d4","system_id":"levelo_inurba_marseille","lat":43.29553,"lon":5.42292,"is_reserved":false,"is_disabled":false,"rental_uris":{"android":"levelo://app?vid=555ff11a-d68c-46fb-b51f-5978774154d4","ios":"levelo://app?vid=555ff11a-d68c-46fb-b51f-5978774154d4"},"vehicle_type_id":"4","last_reported":1743966439,"current_range_meters":4800,"station_id":"ce4bhph2rcd13ifvqhdg","pricing_plan_id":"cebpf4jnsgd1na2vs0mg"},{"bike_id":"eb79d1f9-7c91-4ea2-b5f8-796189743e1a","system_id":"levelo_inurba_marseille","lat":43.34273,"lon":5.38112,"is_reserved":false,"is_disabled":false,"rental_uris":{"android":"levelo://app?vid=eb79d1f9-7c91-4ea2-b5f8-796189743e1a","ios":"levelo://app?vid=eb79d1f9-7c91-4ea2-b5f8-796189743e1a"},"vehicle_type_id":"4","last_reported":1743966439,"current_range_meters":5600,"station_id":"","pricing_plan_id":"cebpf4jnsgd1na2vs0mg"},{"bike_id":"0e5fb2b7-a7c3-435d-90dc-bb9cdaf6fd4c","system_id":"levelo_inurba_marseille","lat":43.29015,"lon":5.38125,"is_reserved":false,"is_disabled":false,"rental_uris":{"android":"levelo://app?vid=0e5fb2b7-a7c3-435d-90dc-bb9cdaf6fd4c","ios":"levelo://app?vid=0e5fb2b7-a7c3-435d-90dc-bb9cdaf6fd4c"},"vehicle_type_id":"4","last_reported":1743966439,"current_range_meters":4800,"station_id":"ce4bh4p2rcd13ifvqe1g","pricing_plan_id":"cebpf4jnsgd1na2vs0mg"},{"bike_id":"dde718aa-a4fb-40c5-8db9-b09dbe15a8ac","system_id":"levelo_inurba_marseille","lat":43.29261,"lon":5.38434,"is_reserved":false,"is_disabled":false,"rental_uris":{"android":"levelo://app?vid=dde718aa-a4fb-40c5-8db9-b09dbe15a8ac","ios":"levelo://app?vid=dde718aa-a4fb-40c5-8db9-b09dbe15a8ac"},"vehicle_type_id":"4","last_reported":1743966439,"current_range_meters":5600,"station_id":"ce4bh692rcd13ifvqea0","pricing_plan_id":"cebpf4jnsgd1na2vs0mg"},{"bike_id":"605b47bb-ada8-4a07-b799-c363c1576ca2","system_id":"levelo_inurba_marseille","lat":43.28141,"lon":5.42689,"is_reserved":false,"is_disabled":false,"rental_uris":{"android":"levelo://app?vid=605b47bb-ada8-4a07-b799-c363c1576ca2","ios":"levelo://app?vid=605b47bb-ada8-4a07-b799-c363c1576ca2"},"vehicle_type_id":"4","last_reported":1743966439,"current_range_meters":5600,"station_id":"ce4bhnh2rcd13ifvqgug","pricing_plan_id":"cebpf4jnsgd1na2vs0mg"},{"bike_id":"4a5a8189-e8d8-4c28-9179-9cf218e4ccba","system_id":"levelo_inurba_marseille","lat":43.28397,"lon":5.37514,"is_reserved":false,"is_disabled":false,"rental_uris":{"android":"levelo://app?vid=4a5a8189-e8d8-4c28-9179-9cf218e4ccba","ios":"levelo://app?vid=4a5a8189-e8d8-4c28-9179-9cf218e4ccba"},"vehicle_type_id":"4","last_reported":1743966439,"current_range_meters":5600,"station_id":"ce4bh412rcd13ifvqds0","pricing_plan_id":"cebpf4jnsgd1na2vs0mg"},{"bike_id":"fa797c50-e7d1-4028-a02b-33881f91fce3","system_id":"levelo_inurba_marseille","lat":43.26945,"lon":5.4027,"is_reserved":false,"is_disabled":false,"rental_uris":{"android":"levelo://app?vid=fa797c50-e7d1-4028-a02b-33881f91fce3","ios":"levelo://app?vid=fa797c50-e7d1-4028-a02b-33881f91fce3"},"vehicle_type_id":"4","last_reported":1743966439,"current_range_meters":5600,"station_id":"cjm6bp8fraef2m0cb0m0","pricing_plan_id":"cebpf4jnsgd1na2vs0mg"},{"bike_id":"abf828e0-bebc-4654-bc93-1d92f449deee","system_id":"levelo_inurba_marseille","lat":43.32355,"lon":5.36722,"is_reserved":false,"is_disabled":true,"rental_uris":{"android":"levelo://app?vid=abf828e0-bebc-4654-bc93-1d92f449deee","ios":"levelo://app?vid=abf828e0-bebc-4654-bc93-1d92f449deee"},"vehicle_type_id":"4","last_reported":1743966439,"current_range_meters":5600,"station_id":"ce4bhsh2rcd13ifvqi2g","pricing_plan_id":"cebpf4jnsgd1na2vs0mg"},{"bike_id":"ebeb4749-70b5-4ea7-90f9-07d87fd83752","system_id":"levelo_inurba_marseille","lat":43.26793,"lon":5.39421,"is_reserved":false,"is_disabled":false,"rental_uris":{"android":"levelo://app?vid=ebeb4749-70b5-4ea7-90f9-07d87fd83752","ios":"levelo://app?vid=ebeb4749-70b5-4ea7-90f9-07d87fd83752"},"vehicle_type_id":"4","last_reported":1743966439,"current_range_meters":5600,"station_id":"ce4bhh12rcd13ifvqfg0","pricing_plan_id":"cebpf4jnsgd1na2vs0mg"},{"bike_id":"8958ce41-6dd5-4362-8e75-c5eae3dedadb","system_id":"levelo_inurba_marseille","lat":43.30093,"lon":5.3907,"is_reserved":false,"is_disabled":false,"rental_uris":{"android":"levelo://app?vid=8958ce41-6dd5-4362-8e75-c5eae3dedadb","ios":"levelo://app?vid=8958ce41-6dd5-4362-8e75-c5eae3dedadb"},"vehicle_type_id":"4","last_reported":1743966439,"current_range_meters":5600,"station_id":"ce4bh192rcd13ifvqdb0","pricing_plan_id":"cebpf4jnsgd1na2vs0mg"},{"bike_id":"723720e9-da5a-48f9-b73b-a760ade4fbdd","system_id":"levelo_inurba_marseille","lat":43.26227,"lon":5.4045,"is_reserved":false,"is_disabled":false,"rental_uris":{"android":"levelo://app?vid=723720e9-da5a-48f9-b73b-a760ade4fbdd","ios":"levelo://app?vid=723720e9-da5a-48f9-b73b-a760ade4fbdd"},"vehicle_type_id":"4","last_reported":1743966439,"current_range_meters":5600,"station_id":"ce4bhmh2rcd13ifvqgmg","pricing_plan_id":"cebpf4jnsgd1na2vs0mg"},{"bike_id":"ea6745e7-e278-4041-992b-0f9f339374e0","system_id":"levelo_inurba_marseille","lat":43.26805,"lon":5.40262,"is_reserved":false,"is_disabled":false,"rental_uris":{"android":"levelo://app?vid=ea6745e7-e278-4041-992b-0f9f339374e0","ios":"levelo://app?vid=ea6745e7-e278-4041-992b-0f9f339374e0"},"vehicle_type_id":"4","last_reported":1743966439,"current_range_meters":5600,"station_id":"ce501612rcd8frsf0b60","pricing_plan_id":"cebpf4jnsgd1na2vs0mg"},{"bike_id":"a5277d63-02e3-43f0-ba87-17eebf4796a6","system_id":"levelo_inurba_marseille","lat":43.31491,"lon":5.37289,"is_reserved":false,"is_disabled":false,"rental_uris":{"android":"levelo://app?vid=a5277d63-02e3-43f0-ba87-17eebf4796a6","ios":"levelo://app?vid=a5277d63-02e3-43f0-ba87-17eebf4796a6"},"vehicle_type_id":"4","last_reported":1743966439,"current_range_meters":6000,"station_id":"ce4bgt12rcd13ifvqcd0","pricing_plan_id":"cebpf4jnsgd1na2vs0mg"},{"bike_id":"2030495f-6ffa-4f44-b6b3-069df365abc3","system_id":"levelo_inurba_marseille","lat":43.27423,"lon":5.39409,"is_reserved":false,"is_disabled":false,"rental_uris":{"android":"levelo://app?vid=2030495f-6ffa-4f44-b6b3-069df365abc3","ios":"levelo://app?vid=2030495f-6ffa-4f44-b6b3-069df365abc3"},"vehicle_type_id":"4","last_reported":1743966439,"current_range_meters":6000,"station_id":"ce4bhdp2rcd13ifvqf20","pricing_plan_id":"cebpf4jnsgd1na2vs0mg"},{"bike_id":"8120ed93-03d2-4df4-aeb6-31901aaff17e","system_id":"levelo_inurba_marseille","lat":43.2885,"lon":5.39329,"is_reserved":false,"is_disabled":false,"rental_uris":{"android":"levelo://app?vid=8120ed93-03d2-4df4-aeb6-31901aaff17e","ios":"levelo://app?vid=8120ed93-03d2-4df4-aeb6-31901aaff17e"},"vehicle_type_id":"4","last_reported":1743966439,"current_range_meters":6000,"station_id":"ce4bh2p2rcd13ifvqdi0","pricing_plan_id":"cebpf4jnsgd1na2vs0mg"},{"bike_id":"d61cc29c-f069-46a1-b2c6-8260f1999e54","system_id":"levelo_inurba_marseille","lat":43.307893,"lon":5.376371,"is_reserved":false,"is_disabled":false,"rental_uris":{"android":"levelo://app?vid=d61cc29c-f069-46a1-b2c6-8260f1999e54","ios":"levelo://app?vid=d61cc29c-f069-46a1-b2c6-8260f1999e54"},"vehicle_type_id":"4","last_reported":1743966439,"current_range_meters":6000,"station_id":"ce4bgv92rcd13ifvqcq0","pricing_plan_id":"cebpf4jnsgd1na2vs0mg"},{"bike_id":"8474f455-4eab-448c-9e4b-3d0704475d2e","system_id":"levelo_inurba_marseille","lat":43.271739,"lon":5.409926,"is_reserved":false,"is_disabled":false,"rental_uris":{"android":"levelo://app?vid=8474f455-4eab-448c-9e4b-3d0704475d2e","ios":"levelo://app?vid=8474f455-4eab-448c-9e4b-3d0704475d2e"},"vehicle_type_id":"4","last_reported":1743966439,"current_range_meters":6000,"station_id":"ce4bhl12rcd13ifvqgf0","pricing_plan_id":"cebpf4jnsgd1na2vs0mg"},{"bike_id":"0acf090a-51fa-45b7-9db6-dd9f6119dca2","system_id":"levelo_inurba_marseille","lat":43.25965,"lon":5.40902,"is_reserved":false,"is_disabled":false,"rental_uris":{"android":"levelo://app?vid=0acf090a-51fa-45b7-9db6-dd9f6119dca2","ios":"levelo://app?vid=0acf090a-51fa-45b7-9db6-dd9f6119dca2"},"vehicle_type_id":"4","last_reported":1743966439,"current_range_meters":6000,"station_id":"ce4bhm92rcd13ifvqglg","pricing_plan_id":"cebpf4jnsgd1na2vs0mg"},{"bike_id":"d1232379-d2e6-465c-91f6-ca7759ca99b3","system_id":"levelo_inurba_marseille","lat":43.26228,"lon":5.40455,"is_reserved":false,"is_disabled":false,"rental_uris":{"android":"levelo://app?vid=d1232379-d2e6-465c-91f6-ca7759ca99b3","ios":"levelo://app?vid=d1232379-d2e6-465c-91f6-ca7759ca99b3"},"vehicle_type_id":"4","last_reported":1743966439,"current_range_meters":6000,"station_id":"ce4bhmh2rcd13ifvqgmg","pricing_plan_id":"cebpf4jnsgd1na2vs0mg"},{"bike_id":"3a223f65-857d-4fc7-9d49-d0c2b14a235b","system_id":"levelo_inurba_marseille","lat":43.3054,"lon":5.36546,"is_reserved":false,"is_disabled":false,"rental_uris":{"android":"levelo://app?vid=3a223f65-857d-4fc7-9d49-d0c2b14a235b","ios":"levelo://app?vid=3a223f65-857d-4fc7-9d49-d0c2b14a235b"},"vehicle_type_id":"4","last_reported":1743966439,"current_range_meters":6400,"station_id":"ce4bgs12rcd13ifvqcag","pricing_plan_id":"cebpf4jnsgd1na2vs0mg"},{"bike_id":"b780db30-7dc3-42ce-950b-43bda8c5cdf9","system_id":"levelo_inurba_marseille","lat":43.29557,"lon":5.42289,"is_reserved":false,"is_disabled":false,"rental_uris":{"android":"levelo://app?vid=b780db30-7dc3-42ce-950b-43bda8c5cdf9","ios":"levelo://app?vid=b780db30-7dc3-42ce-950b-43bda8c5cdf9"},"vehicle_type_id":"4","last_reported":1743966439,"current_range_meters":6400,"station_id":"ce4bhph2rcd13ifvqhdg","pricing_plan_id":"cebpf4jnsgd1na2vs0mg"},{"bike_id":"404b5d8f-a64f-462a-be15-2c28c390385d","system_id":"levelo_inurba_marseille","lat":43.29907,"lon":5.38137,"is_reserved":false,"is_disabled":false,"rental_uris":{"android":"levelo://app?vid=404b5d8f-a64f-462a-be15-2c28c390385d","ios":"levelo://app?vid=404b5d8f-a64f-462a-be15-2c28c390385d"},"vehicle_type_id":"4","last_reported":1743966439,"current_range_meters":6400,"station_id":"ce4bgj12rcd13ifvqbc0","pricing_plan_id":"cebpf4jnsgd1na2vs0mg"},{"bike_id":"9378cab7-1ef7-47d6-af28-c6473192be1a","system_id":"levelo_inurba_marseille","lat":43.31183,"lon":5.40764,"is_reserved":false,"is_disabled":false,"rental_uris":{"android":"levelo://app?vid=9378cab7-1ef7-47d6-af28-c6473192be1a","ios":"levelo://app?vid=9378cab7-1ef7-47d6-af28-c6473192be1a"},"vehicle_type_id":"4","last_reported":1743966439,"current_range_meters":6400,"station_id":"","pricing_plan_id":"cebpf4jnsgd1na2vs0mg"},{"bike_id":"fea10571-de43-4404-842c-d7352e571b48","system_id":"levelo_inurba_marseille","lat":43.27305,"lon":5.39099,"is_reserved":false,"is_disabled":false,"rental_uris":{"android":"levelo://app?vid=fea10571-de43-4404-842c-d7352e571b48","ios":"levelo://app?vid=fea10571-de43-4404-842c-d7352e571b48"},"vehicle_type_id":"4","last_reported":1743966439,"current_range_meters":6400,"station_id":"ce4bhgp2rcd13ifvqfe0","pricing_plan_id":"cebpf4jnsgd1na2vs0mg"},{"bike_id":"d2b66722-fadc-498b-b798-d30fcfe4f329","system_id":"levelo_inurba_marseille","lat":43.26935,"lon":5.40257,"is_reserved":false,"is_disabled":false,"rental_uris":{"android":"levelo://app?vid=d2b66722-fadc-498b-b798-d30fcfe4f329","ios":"levelo://app?vid=d2b66722-fadc-498b-b798-d30fcfe4f329"},"vehicle_type_id":"4","last_reported":1743966439,"current_range_meters":6400,"station_id":"cjm6bp8fraef2m0cb0m0","pricing_plan_id":"cebpf4jnsgd1na2vs0mg"},{"bike_id":"e4b309fe-305e-4fa7-8291-fbce8f668a31","system_id":"levelo_inurba_marseille","lat":43.28031,"lon":5.36947,"is_reserved":false,"is_disabled":false,"rental_uris":{"android":"levelo://app?vid=e4b309fe-305e-4fa7-8291-fbce8f668a31","ios":"levelo://app?vid=e4b309fe-305e-4fa7-8291-fbce8f668a31"},"vehicle_type_id":"4","last_reported":1743966439,"current_range_meters":6400,"station_id":"ce4bha12rcd13ifvqef0","pricing_plan_id":"cebpf4jnsgd1na2vs0mg"},{"bike_id":"9d3a6400-f14e-4889-b1f0-7c20f6abed23","system_id":"levelo_inurba_marseille","lat":43.27423,"lon":5.39416,"is_reserved":false,"is_disabled":false,"rental_uris":{"android":"levelo://app?vid=9d3a6400-f14e-4889-b1f0-7c20f6abed23","ios":"levelo://app?vid=9d3a6400-f14e-4889-b1f0-7c20f6abed23"},"vehicle_type_id":"4","last_reported":1743966439,"current_range_meters":6800,"station_id":"ce4bhdp2rcd13ifvqf20","pricing_plan_id":"cebpf4jnsgd1na2vs0mg"},{"bike_id":"5cebba5c-a274-4263-96e1-9afc7b7478f5","system_id":"levelo_inurba_marseille","lat":43.29522,"lon":5.37511,"is_reserved":false,"is_disabled":false,"rental_uris":{"android":"levelo://app?vid=5cebba5c-a274-4263-96e1-9afc7b7478f5","ios":"levelo://app?vid=5cebba5c-a274-4263-96e1-9afc7b7478f5"},"vehicle_type_id":"4","last_reported":1743966439,"current_range_meters":6800,"station_id":"ce4bgkp2rcd13ifvqbmg","pricing_plan_id":"cebpf4jnsgd1na2vs0mg"},{"bike_id":"24565ebc-1b7f-408d-971e-e6879ea1914b","system_id":"levelo_inurba_marseille","lat":43.272033,"lon":5.391865,"is_reserved":false,"is_disabled":false,"rental_uris":{"android":"levelo://app?vid=24565ebc-1b7f-408d-971e-e6879ea1914b","ios":"levelo://app?vid=24565ebc-1b7f-408d-971e-e6879ea1914b"},"vehicle_type_id":"4","last_reported":1743966439,"current_range_meters":6800,"station_id":"ce4bh512rcd13ifvqe3g","pricing_plan_id":"cebpf4jnsgd1na2vs0mg"},{"bike_id":"69f27ac7-c201-4d7b-a41a-066249700815","system_id":"levelo_inurba_marseille","lat":43.241683,"lon":5.363968,"is_reserved":false,"is_disabled":true,"rental_uris":{"android":"levelo://app?vid=69f27ac7-c201-4d7b-a41a-066249700815","ios":"levelo://app?vid=69f27ac7-c201-4d7b-a41a-066249700815"},"vehicle_type_id":"4","last_reported":1743966439,"current_range_meters":6800,"station_id":"ce4bh412rcd13ifvqdr0","pricing_plan_id":"cebpf4jnsgd1na2vs0mg"},{"bike_id":"b6d86e44-966b-48f4-9f8b-2f230da93799","system_id":"levelo_inurba_marseille","lat":43.29279,"lon":5.40124,"is_reserved":false,"is_disabled":false,"rental_uris":{"android":"levelo://app?vid=b6d86e44-966b-48f4-9f8b-2f230da93799","ios":"levelo://app?vid=b6d86e44-966b-48f4-9f8b-2f230da93799"},"vehicle_type_id":"4","last_reported":1743966439,"current_range_meters":6800,"station_id":"ce4bh312rcd13ifvqdk0","pricing_plan_id":"cebpf4jnsgd1na2vs0mg"},{"bike_id":"794a5e02-f4e9-4353-9919-e2d0596c58d6","system_id":"levelo_inurba_marseille","lat":43.299401,"lon":5.365587,"is_reserved":false,"is_disabled":false,"rental_uris":{"android":"levelo://app?vid=794a5e02-f4e9-4353-9919-e2d0596c58d6","ios":"levelo://app?vid=794a5e02-f4e9-4353-9919-e2d0596c58d6"},"vehicle_type_id":"4","last_reported":1743966439,"current_range_meters":6800,"station_id":"ce4bgm92rcd13ifvqbr0","pricing_plan_id":"cebpf4jnsgd1na2vs0mg"},{"bike_id":"1db98c6b-d13e-4e8a-809c-143145482c65","system_id":"levelo_inurba_marseille","lat":43.2757,"lon":5.38424,"is_reserved":false,"is_disabled":false,"rental_uris":{"android":"levelo://app?vid=1db98c6b-d13e-4e8a-809c-143145482c65","ios":"levelo://app?vid=1db98c6b-d13e-4e8a-809c-143145482c65"},"vehicle_type_id":"4","last_reported":1743966439,"current_range_meters":6800,"station_id":"ce4bhh92rcd13ifvqfi0","pricing_plan_id":"cebpf4jnsgd1na2vs0mg"},{"bike_id":"8692a971-da0a-48ed-81ff-8789bd47ba24","system_id":"levelo_inurba_marseille","lat":43.30647,"lon":5.40089,"is_reserved":false,"is_disabled":false,"rental_uris":{"android":"levelo://app?vid=8692a971-da0a-48ed-81ff-8789bd47ba24","ios":"levelo://app?vid=8692a971-da0a-48ed-81ff-8789bd47ba24"},"vehicle_type_id":"4","last_reported":1743966439,"current_range_meters":6800,"station_id":"ce4bh112rcd13ifvqda0","pricing_plan_id":"cebpf4jnsgd1na2vs0mg"},{"bike_id":"8b6a5575-35e1-41bc-b6ad-47298a8c5e29","system_id":"levelo_inurba_marseille","lat":43.29909,"lon":5.3814,"is_reserved":false,"is_disabled":false,"rental_uris":{"android":"levelo://app?vid=8b6a5575-35e1-41bc-b6ad-47298a8c5e29","ios":"levelo://app?vid=8b6a5575-35e1-41bc-b6ad-47298a8c5e29"},"vehicle_type_id":"4","last_reported":1743966439,"current_range_meters":6800,"station_id":"ce4bgj12rcd13ifvqbc0","pricing_plan_id":"cebpf4jnsgd1na2vs0mg"},{"bike_id":"12e43439-f997-44cc-917b-b7441c453179","system_id":"levelo_inurba_marseille","lat":43.29548,"lon":5.42296,"is_reserved":false,"is_disabled":false,"rental_uris":{"android":"levelo://app?vid=12e43439-f997-44cc-917b-b7441c453179","ios":"levelo://app?vid=12e43439-f997-44cc-917b-b7441c453179"},"vehicle_type_id":"4","last_reported":1743966439,"current_range_meters":6400,"station_id":"ce4bhph2rcd13ifvqhdg","pricing_plan_id":"cebpf4jnsgd1na2vs0mg"},{"bike_id":"aee908d0-6a9c-46ca-9865-a3168a34f2de","system_id":"levelo_inurba_marseille","lat":43.31186,"lon":5.38722,"is_reserved":false,"is_disabled":false,"rental_uris":{"android":"levelo://app?vid=aee908d0-6a9c-46ca-9865-a3168a34f2de","ios":"levelo://app?vid=aee908d0-6a9c-46ca-9865-a3168a34f2de"},"vehicle_type_id":"4","last_reported":1743966439,"current_range_meters":6800,"station_id":"ce4bgv12rcd13ifvqcp0","pricing_plan_id":"cebpf4jnsgd1na2vs0mg"},{"bike_id":"adc342d2-19f5-42c8-bd32-0f6dd7900d25","system_id":"levelo_inurba_marseille","lat":43.27434,"lon":5.39398,"is_reserved":false,"is_disabled":false,"rental_uris":{"android":"levelo://app?vid=adc342d2-19f5-42c8-bd32-0f6dd7900d25","ios":"levelo://app?vid=adc342d2-19f5-42c8-bd32-0f6dd7900d25"},"vehicle_type_id":"4","last_reported":1743966439,"current_range_meters":7200,"station_id":"ce4bhdp2rcd13ifvqf20","pricing_plan_id":"cebpf4jnsgd1na2vs0mg"},{"bike_id":"1c8f9443-fa95-4995-992b-86c893c09786","system_id":"levelo_inurba_marseille","lat":43.25086,"lon":5.39516,"is_reserved":false,"is_disabled":false,"rental_uris":{"android":"levelo://app?vid=1c8f9443-fa95-4995-992b-86c893c09786","ios":"levelo://app?vid=1c8f9443-fa95-4995-992b-86c893c09786"},"vehicle_type_id":"4","last_reported":1743966439,"current_range_meters":7200,"station_id":"ce4bhm12rcd13ifvqgkg","pricing_plan_id":"cebpf4jnsgd1na2vs0mg"},{"bike_id":"8ba80021-d33c-43a1-b3c7-a9a5257eb9d6","system_id":"levelo_inurba_marseille","lat":43.27422,"lon":5.39422,"is_reserved":false,"is_disabled":false,"rental_uris":{"android":"levelo://app?vid=8ba80021-d33c-43a1-b3c7-a9a5257eb9d6","ios":"levelo://app?vid=8ba80021-d33c-43a1-b3c7-a9a5257eb9d6"},"vehicle_type_id":"4","last_reported":1743966439,"current_range_meters":7200,"station_id":"ce4bhdp2rcd13ifvqf20","pricing_plan_id":"cebpf4jnsgd1na2vs0mg"},{"bike_id":"72a4f661-6d65-4e28-994b-cb9ec5276606","system_id":"levelo_inurba_marseille","lat":43.2732,"lon":5.39082,"is_reserved":false,"is_disabled":false,"rental_uris":{"android":"levelo://app?vid=72a4f661-6d65-4e28-994b-cb9ec5276606","ios":"levelo://app?vid=72a4f661-6d65-4e28-994b-cb9ec5276606"},"vehicle_type_id":"4","last_reported":1743966439,"current_range_meters":7200,"station_id":"ce4bhgp2rcd13ifvqfe0","pricing_plan_id":"cebpf4jnsgd1na2vs0mg"},{"bike_id":"46aaf249-f504-46ae-93ce-7245839b78b5","system_id":"levelo_inurba_marseille","lat":43.25749,"lon":5.38645,"is_reserved":false,"is_disabled":true,"rental_uris":{"android":"levelo://app?vid=46aaf249-f504-46ae-93ce-7245839b78b5","ios":"levelo://app?vid=46aaf249-f504-46ae-93ce-7245839b78b5"},"vehicle_type_id":"4","last_reported":1743966439,"current_range_meters":7200,"station_id":"","pricing_plan_id":"cebpf4jnsgd1na2vs0mg"},{"bike_id":"2dba3b01-1ac0-4cb4-bd47-df22d7904e11","system_id":"levelo_inurba_marseille","lat":43.30949,"lon":5.39023,"is_reserved":false,"is_disabled":false,"rental_uris":{"android":"levelo://app?vid=2dba3b01-1ac0-4cb4-bd47-df22d7904e11","ios":"levelo://app?vid=2dba3b01-1ac0-4cb4-bd47-df22d7904e11"},"vehicle_type_id":"4","last_reported":1743966439,"current_range_meters":7200,"station_id":"ce4bgup2rcd13ifvqco0","pricing_plan_id":"cebpf4jnsgd1na2vs0mg"},{"bike_id":"a54afff0-bbdc-410b-8b30-e28e90183110","system_id":"levelo_inurba_marseille","lat":43.29096,"lon":5.38135,"is_reserved":false,"is_disabled":false,"rental_uris":{"android":"levelo://app?vid=a54afff0-bbdc-410b-8b30-e28e90183110","ios":"levelo://app?vid=a54afff0-bbdc-410b-8b30-e28e90183110"},"vehicle_type_id":"4","last_reported":1743966439,"current_range_meters":7200,"station_id":"ce4bh512rcd13ifvqe2g","pricing_plan_id":"cebpf4jnsgd1na2vs0mg"},{"bike_id":"5442e8f6-8c39-4760-afa6-1f4159f74310","system_id":"levelo_inurba_marseille","lat":43.29419,"lon":5.38625,"is_reserved":false,"is_disabled":false,"rental_uris":{"android":"levelo://app?vid=5442e8f6-8c39-4760-afa6-1f4159f74310","ios":"levelo://app?vid=5442e8f6-8c39-4760-afa6-1f4159f74310"},"vehicle_type_id":"4","last_reported":1743966439,"current_range_meters":7200,"station_id":"ce4bh2h2rcd13ifvqdh0","pricing_plan_id":"cebpf4jnsgd1na2vs0mg"},{"bike_id":"461cbda9-cd14-4037-94d8-86328851e267","system_id":"levelo_inurba_marseille","lat":43.27193,"lon":5.40973,"is_reserved":false,"is_disabled":false,"rental_uris":{"android":"levelo://app?vid=461cbda9-cd14-4037-94d8-86328851e267","ios":"levelo://app?vid=461cbda9-cd14-4037-94d8-86328851e267"},"vehicle_type_id":"4","last_reported":1743966439,"current_range_meters":7200,"station_id":"ce4bhl12rcd13ifvqgf0","pricing_plan_id":"cebpf4jnsgd1na2vs0mg"},{"bike_id":"330cbbbf-c326-4d8c-88b5-c65a78e593d3","system_id":"levelo_inurba_marseille","lat":43.30429,"lon":5.38902,"is_reserved":false,"is_disabled":false,"rental_uris":{"android":"levelo://app?vid=330cbbbf-c326-4d8c-88b5-c65a78e593d3","ios":"levelo://app?vid=330cbbbf-c326-4d8c-88b5-c65a78e593d3"},"vehicle_type_id":"4","last_reported":1743966439,"current_range_meters":7200,"station_id":"ce4bgk12rcd13ifvqbi0","pricing_plan_id":"cebpf4jnsgd1na2vs0mg"},{"bike_id":"fb7fbcd9-baa6-47df-8305-71257020670d","system_id":"levelo_inurba_marseille","lat":43.26943,"lon":5.40264,"is_reserved":false,"is_disabled":false,"rental_uris":{"android":"levelo://app?vid=fb7fbcd9-baa6-47df-8305-71257020670d","ios":"levelo://app?vid=fb7fbcd9-baa6-47df-8305-71257020670d"},"vehicle_type_id":"4","last_reported":1743966439,"current_range_meters":7200,"station_id":"cjm6bp8fraef2m0cb0m0","pricing_plan_id":"cebpf4jnsgd1na2vs0mg"},{"bike_id":"5598c4e5-33a6-46db-bd23-6faaa8335c7a","system_id":"levelo_inurba_marseille","lat":43.25111,"lon":5.40321,"is_reserved":false,"is_disabled":false,"rental_uris":{"android":"levelo://app?vid=5598c4e5-33a6-46db-bd23-6faaa8335c7a","ios":"levelo://app?vid=5598c4e5-33a6-46db-bd23-6faaa8335c7a"},"vehicle_type_id":"4","last_reported":1743966439,"current_range_meters":7200,"station_id":"ce4bhlh2rcd13ifvqgig","pricing_plan_id":"cebpf4jnsgd1na2vs0mg"},{"bike_id":"cfde0f36-ce86-4c0c-a6b5-7d08513a7ffd","system_id":"levelo_inurba_marseille","lat":43.26937,"lon":5.40312,"is_reserved":false,"is_disabled":false,"rental_uris":{"android":"levelo://app?vid=cfde0f36-ce86-4c0c-a6b5-7d08513a7ffd","ios":"levelo://app?vid=cfde0f36-ce86-4c0c-a6b5-7d08513a7ffd"},"vehicle_type_id":"4","last_reported":1743966439,"current_range_meters":7200,"station_id":"cjm6bp8fraef2m0cb0m0","pricing_plan_id":"cebpf4jnsgd1na2vs0mg"},{"bike_id":"ad0a2fe5-8edc-4f24-953e-f09720a5e4a2","system_id":"levelo_inurba_marseille","lat":43.30531,"lon":5.36714,"is_reserved":false,"is_disabled":false,"rental_uris":{"android":"levelo://app?vid=ad0a2fe5-8edc-4f24-953e-f09720a5e4a2","ios":"levelo://app?vid=ad0a2fe5-8edc-4f24-953e-f09720a5e4a2"},"vehicle_type_id":"4","last_reported":1743966439,"current_range_meters":8000,"station_id":"ce4bgrp2rcd13ifvqc9g","pricing_plan_id":"cebpf4jnsgd1na2vs0mg"},{"bike_id":"e3c5f122-d61d-4b7a-b30e-709a3dbe5e46","system_id":"levelo_inurba_marseille","lat":43.324,"lon":5.39014,"is_reserved":false,"is_disabled":false,"rental_uris":{"android":"levelo://app?vid=e3c5f122-d61d-4b7a-b30e-709a3dbe5e46","ios":"levelo://app?vid=e3c5f122-d61d-4b7a-b30e-709a3dbe5e46"},"vehicle_type_id":"4","last_reported":1743966439,"current_range_meters":8000,"station_id":"","pricing_plan_id":"cebpf4jnsgd1na2vs0mg"},{"bike_id":"93e4a172-cb80-4131-8783-c80c25226ac1","system_id":"levelo_inurba_marseille","lat":43.30176,"lon":5.36631,"is_reserved":false,"is_disabled":false,"rental_uris":{"android":"levelo://app?vid=93e4a172-cb80-4131-8783-c80c25226ac1","ios":"levelo://app?vid=93e4a172-cb80-4131-8783-c80c25226ac1"},"vehicle_type_id":"4","last_reported":1743966439,"current_range_meters":8000,"station_id":"ce4bgrh2rcd13ifvqc8g","pricing_plan_id":"cebpf4jnsgd1na2vs0mg"},{"bike_id":"57632da2-0767-4580-93b9-2ed9af5a6922","system_id":"levelo_inurba_marseille","lat":43.29886,"lon":5.38899,"is_reserved":false,"is_disabled":false,"rental_uris":{"android":"levelo://app?vid=57632da2-0767-4580-93b9-2ed9af5a6922","ios":"levelo://app?vid=57632da2-0767-4580-93b9-2ed9af5a6922"},"vehicle_type_id":"4","last_reported":1743966439,"current_range_meters":8000,"station_id":"ce4bh392rcd13ifvqdl0","pricing_plan_id":"cebpf4jnsgd1na2vs0mg"},{"bike_id":"a0ab8544-f190-49d8-9ce8-3caa425b8ace","system_id":"levelo_inurba_marseille","lat":43.29035,"lon":5.38642,"is_reserved":false,"is_disabled":false,"rental_uris":{"android":"levelo://app?vid=a0ab8544-f190-49d8-9ce8-3caa425b8ace","ios":"levelo://app?vid=a0ab8544-f190-49d8-9ce8-3caa425b8ace"},"vehicle_type_id":"4","last_reported":1743966439,"current_range_meters":8000,"station_id":"ce4bh4p2rcd13ifvqe0g","pricing_plan_id":"cebpf4jnsgd1na2vs0mg"},{"bike_id":"e4d2f197-789e-4a9b-b12e-6f72b2af4d33","system_id":"levelo_inurba_marseille","lat":43.26919,"lon":5.40276,"is_reserved":false,"is_disabled":false,"rental_uris":{"android":"levelo://app?vid=e4d2f197-789e-4a9b-b12e-6f72b2af4d33","ios":"levelo://app?vid=e4d2f197-789e-4a9b-b12e-6f72b2af4d33"},"vehicle_type_id":"4","last_reported":1743966439,"current_range_meters":8000,"station_id":"cjm6bp8fraef2m0cb0m0","pricing_plan_id":"cebpf4jnsgd1na2vs0mg"},{"bike_id":"6023584e-870f-454d-88b0-bf3dc0e21fbe","system_id":"levelo_inurba_marseille","lat":43.24434,"lon":5.37058,"is_reserved":false,"is_disabled":true,"rental_uris":{"android":"levelo://app?vid=6023584e-870f-454d-88b0-bf3dc0e21fbe","ios":"levelo://app?vid=6023584e-870f-454d-88b0-bf3dc0e21fbe"},"vehicle_type_id":"4","last_reported":1743966439,"current_range_meters":8000,"station_id":"","pricing_plan_id":"cebpf4jnsgd1na2vs0mg"},{"bike_id":"a5359b15-de36-446c-a102-4205e2aff03a","system_id":"levelo_inurba_marseille","lat":43.26783,"lon":5.3942,"is_reserved":false,"is_disabled":false,"rental_uris":{"android":"levelo://app?vid=a5359b15-de36-446c-a102-4205e2aff03a","ios":"levelo://app?vid=a5359b15-de36-446c-a102-4205e2aff03a"},"vehicle_type_id":"4","last_reported":1743966439,"current_range_meters":8400,"station_id":"ce4bhh12rcd13ifvqfg0","pricing_plan_id":"cebpf4jnsgd1na2vs0mg"},{"bike_id":"ddf56b43-662f-4b7a-937a-3136eb220ff2","system_id":"levelo_inurba_marseille","lat":43.29435,"lon":5.39742,"is_reserved":false,"is_disabled":false,"rental_uris":{"android":"levelo://app?vid=ddf56b43-662f-4b7a-937a-3136eb220ff2","ios":"levelo://app?vid=ddf56b43-662f-4b7a-937a-3136eb220ff2"},"vehicle_type_id":"4","last_reported":1743966439,"current_range_meters":8400,"station_id":"ce4bh3h2rcd13ifvqdo0","pricing_plan_id":"cebpf4jnsgd1na2vs0mg"},{"bike_id":"1193d21e-5d20-4e82-a914-65683e3843b0","system_id":"levelo_inurba_marseille","lat":43.2743,"lon":5.39406,"is_reserved":false,"is_disabled":false,"rental_uris":{"android":"levelo://app?vid=1193d21e-5d20-4e82-a914-65683e3843b0","ios":"levelo://app?vid=1193d21e-5d20-4e82-a914-65683e3843b0"},"vehicle_type_id":"4","last_reported":1743966439,"current_range_meters":8400,"station_id":"ce4bhdp2rcd13ifvqf20","pricing_plan_id":"cebpf4jnsgd1na2vs0mg"},{"bike_id":"09764cee-8724-44c1-b501-307abe5b537a","system_id":"levelo_inurba_marseille","lat":43.32107,"lon":5.36768,"is_reserved":false,"is_disabled":false,"rental_uris":{"android":"levelo://app?vid=09764cee-8724-44c1-b501-307abe5b537a","ios":"levelo://app?vid=09764cee-8724-44c1-b501-307abe5b537a"},"vehicle_type_id":"4","last_reported":1743966439,"current_range_meters":8400,"station_id":"ce4bhrh2rcd13ifvqhug","pricing_plan_id":"cebpf4jnsgd1na2vs0mg"},{"bike_id":"607308b3-6cb0-49ad-9852-b5ced867feea","system_id":"levelo_inurba_marseille","lat":43.27326,"lon":5.39126,"is_reserved":false,"is_disabled":false,"rental_uris":{"android":"levelo://app?vid=607308b3-6cb0-49ad-9852-b5ced867feea","ios":"levelo://app?vid=607308b3-6cb0-49ad-9852-b5ced867feea"},"vehicle_type_id":"4","last_reported":1743966439,"current_range_meters":8400,"station_id":"ce4bhgp2rcd13ifvqfe0","pricing_plan_id":"cebpf4jnsgd1na2vs0mg"},{"bike_id":"1734c931-646f-4980-94f6-65ef6d0174d2","system_id":"levelo_inurba_marseille","lat":43.2958,"lon":5.3675,"is_reserved":false,"is_disabled":false,"rental_uris":{"android":"levelo://app?vid=1734c931-646f-4980-94f6-65ef6d0174d2","ios":"levelo://app?vid=1734c931-646f-4980-94f6-65ef6d0174d2"},"vehicle_type_id":"4","last_reported":1743966439,"current_range_meters":8400,"station_id":"ce4bgph2rcd13ifvqc2g","pricing_plan_id":"cebpf4jnsgd1na2vs0mg"},{"bike_id":"00fcc5bf-f368-4f4d-8396-033d9b518df2","system_id":"levelo_inurba_marseille","lat":43.31168,"lon":5.38717,"is_reserved":false,"is_disabled":false,"rental_uris":{"android":"levelo://app?vid=00fcc5bf-f368-4f4d-8396-033d9b518df2","ios":"levelo://app?vid=00fcc5bf-f368-4f4d-8396-033d9b518df2"},"vehicle_type_id":"4","last_reported":1743966439,"current_range_meters":8400,"station_id":"ce4bgv12rcd13ifvqcp0","pricing_plan_id":"cebpf4jnsgd1na2vs0mg"},{"bike_id":"4af5a181-5de5-4654-b994-747d18990ef1","system_id":"levelo_inurba_marseille","lat":43.29441,"lon":5.39747,"is_reserved":false,"is_disabled":false,"rental_uris":{"android":"levelo://app?vid=4af5a181-5de5-4654-b994-747d18990ef1","ios":"levelo://app?vid=4af5a181-5de5-4654-b994-747d18990ef1"},"vehicle_type_id":"4","last_reported":1743966439,"current_range_meters":8800,"station_id":"ce4bh3h2rcd13ifvqdo0","pricing_plan_id":"cebpf4jnsgd1na2vs0mg"},{"bike_id":"70774e13-dd61-4dd4-bf40-530e1485e81c","system_id":"levelo_inurba_marseille","lat":43.32342,"lon":5.38868,"is_reserved":false,"is_disabled":false,"rental_uris":{"android":"levelo://app?vid=70774e13-dd61-4dd4-bf40-530e1485e81c","ios":"levelo://app?vid=70774e13-dd61-4dd4-bf40-530e1485e81c"},"vehicle_type_id":"4","last_reported":1743966439,"current_range_meters":8800,"station_id":"ce4bhqp2rcd13ifvqhog","pricing_plan_id":"cebpf4jnsgd1na2vs0mg"},{"bike_id":"283d9ac2-ea7e-4f45-beb7-6857e584a52d","system_id":"levelo_inurba_marseille","lat":43.2455,"lon":5.39531,"is_reserved":false,"is_disabled":false,"rental_uris":{"android":"levelo://app?vid=283d9ac2-ea7e-4f45-beb7-6857e584a52d","ios":"levelo://app?vid=283d9ac2-ea7e-4f45-beb7-6857e584a52d"},"vehicle_type_id":"4","last_reported":1743966439,"current_range_meters":8800,"station_id":"ce4bhlp2rcd13ifvqgjg","pricing_plan_id":"cebpf4jnsgd1na2vs0mg"},{"bike_id":"bef7f060-aebb-4a1a-9af9-31d082eaea8b","system_id":"levelo_inurba_marseille","lat":43.27211,"lon":5.39182,"is_reserved":false,"is_disabled":false,"rental_uris":{"android":"levelo://app?vid=bef7f060-aebb-4a1a-9af9-31d082eaea8b","ios":"levelo://app?vid=bef7f060-aebb-4a1a-9af9-31d082eaea8b"},"vehicle_type_id":"4","last_reported":1743966439,"current_range_meters":8800,"station_id":"ce4bhhp2rcd13ifvqfm0","pricing_plan_id":"cebpf4jnsgd1na2vs0mg"},{"bike_id":"039a3569-3a64-423b-8899-e5948bb217cd","system_id":"levelo_inurba_marseille","lat":43.29441,"lon":5.39753,"is_reserved":false,"is_disabled":false,"rental_uris":{"android":"levelo://app?vid=039a3569-3a64-423b-8899-e5948bb217cd","ios":"levelo://app?vid=039a3569-3a64-423b-8899-e5948bb217cd"},"vehicle_type_id":"4","last_reported":1743966439,"current_range_meters":8800,"station_id":"ce4bh3h2rcd13ifvqdo0","pricing_plan_id":"cebpf4jnsgd1na2vs0mg"},{"bike_id":"607bc019-83aa-4c5f-9a00-7697e5e1f6b5","system_id":"levelo_inurba_marseille","lat":43.31275,"lon":5.40165,"is_reserved":false,"is_disabled":false,"rental_uris":{"android":"levelo://app?vid=607bc019-83aa-4c5f-9a00-7697e5e1f6b5","ios":"levelo://app?vid=607bc019-83aa-4c5f-9a00-7697e5e1f6b5"},"vehicle_type_id":"4","last_reported":1743966439,"current_range_meters":8800,"station_id":"ce4bh092rcd13ifvqd30","pricing_plan_id":"cebpf4jnsgd1na2vs0mg"},{"bike_id":"dfe033e5-eb50-4610-85ee-430cd4939587","system_id":"levelo_inurba_marseille","lat":43.27627,"lon":5.36148,"is_reserved":false,"is_disabled":true,"rental_uris":{"android":"levelo://app?vid=dfe033e5-eb50-4610-85ee-430cd4939587","ios":"levelo://app?vid=dfe033e5-eb50-4610-85ee-430cd4939587"},"vehicle_type_id":"4","last_reported":1743966439,"current_range_meters":8800,"station_id":"ce4bgj92rcd13ifvqbe0","pricing_plan_id":"cebpf4jnsgd1na2vs0mg"},{"bike_id":"defbf62e-bc87-49d1-818e-bcc6d5e6f212","system_id":"levelo_inurba_marseille","lat":43.27425,"lon":5.39421,"is_reserved":false,"is_disabled":false,"rental_uris":{"android":"levelo://app?vid=defbf62e-bc87-49d1-818e-bcc6d5e6f212","ios":"levelo://app?vid=defbf62e-bc87-49d1-818e-bcc6d5e6f212"},"vehicle_type_id":"4","last_reported":1743966439,"current_range_meters":8800,"station_id":"ce4bhdp2rcd13ifvqf20","pricing_plan_id":"cebpf4jnsgd1na2vs0mg"},{"bike_id":"86150181-f33a-4301-843e-f78f4b485418","system_id":"levelo_inurba_marseille","lat":43.301866,"lon":5.397735,"is_reserved":false,"is_disabled":false,"rental_uris":{"android":"levelo://app?vid=86150181-f33a-4301-843e-f78f4b485418","ios":"levelo://app?vid=86150181-f33a-4301-843e-f78f4b485418"},"vehicle_type_id":"4","last_reported":1743966439,"current_range_meters":8800,"station_id":"ce4bh0h2rcd13ifvqd40","pricing_plan_id":"cebpf4jnsgd1na2vs0mg"},{"bike_id":"33ff0f49-f094-4c47-b861-ac25bc6bb883","system_id":"levelo_inurba_marseille","lat":43.30929,"lon":5.40151,"is_reserved":false,"is_disabled":false,"rental_uris":{"android":"levelo://app?vid=33ff0f49-f094-4c47-b861-ac25bc6bb883","ios":"levelo://app?vid=33ff0f49-f094-4c47-b861-ac25bc6bb883"},"vehicle_type_id":"4","last_reported":1743966439,"current_range_meters":8800,"station_id":"ce4bgvp2rcd13ifvqct0","pricing_plan_id":"cebpf4jnsgd1na2vs0mg"},{"bike_id":"d408c9dd-eb34-4ee2-8457-e973282fef82","system_id":"levelo_inurba_marseille","lat":43.309315,"lon":5.4014,"is_reserved":false,"is_disabled":false,"rental_uris":{"android":"levelo://app?vid=d408c9dd-eb34-4ee2-8457-e973282fef82","ios":"levelo://app?vid=d408c9dd-eb34-4ee2-8457-e973282fef82"},"vehicle_type_id":"4","last_reported":1743966439,"current_range_meters":9200,"station_id":"ce4bgvp2rcd13ifvqct0","pricing_plan_id":"cebpf4jnsgd1na2vs0mg"},{"bike_id":"6a6145b1-a1be-480d-adcf-f18f229d4981","system_id":"levelo_inurba_marseille","lat":43.29092,"lon":5.38138,"is_reserved":false,"is_disabled":false,"rental_uris":{"android":"levelo://app?vid=6a6145b1-a1be-480d-adcf-f18f229d4981","ios":"levelo://app?vid=6a6145b1-a1be-480d-adcf-f18f229d4981"},"vehicle_type_id":"4","last_reported":1743966439,"current_range_meters":9200,"station_id":"ce4bh512rcd13ifvqe2g","pricing_plan_id":"cebpf4jnsgd1na2vs0mg"},{"bike_id":"371b5778-a9a0-4424-8852-d0325871bc34","system_id":"levelo_inurba_marseille","lat":43.2987,"lon":5.39733,"is_reserved":false,"is_disabled":false,"rental_uris":{"android":"levelo://app?vid=371b5778-a9a0-4424-8852-d0325871bc34","ios":"levelo://app?vid=371b5778-a9a0-4424-8852-d0325871bc34"},"vehicle_type_id":"4","last_reported":1743966439,"current_range_meters":9200,"station_id":"ce4bh0h2rcd13ifvqd50","pricing_plan_id":"cebpf4jnsgd1na2vs0mg"},{"bike_id":"1f9fb7f7-963f-4c26-981b-f9fe44a35432","system_id":"levelo_inurba_marseille","lat":43.26926,"lon":5.40247,"is_reserved":false,"is_disabled":false,"rental_uris":{"android":"levelo://app?vid=1f9fb7f7-963f-4c26-981b-f9fe44a35432","ios":"levelo://app?vid=1f9fb7f7-963f-4c26-981b-f9fe44a35432"},"vehicle_type_id":"4","last_reported":1743966439,"current_range_meters":9200,"station_id":"cjm6bp8fraef2m0cb0m0","pricing_plan_id":"cebpf4jnsgd1na2vs0mg"},{"bike_id":"00393ee2-317d-4e98-a30d-fd25773ef49f","system_id":"levelo_inurba_marseille","lat":43.35225,"lon":5.35766,"is_reserved":false,"is_disabled":false,"rental_uris":{"android":"levelo://app?vid=00393ee2-317d-4e98-a30d-fd25773ef49f","ios":"levelo://app?vid=00393ee2-317d-4e98-a30d-fd25773ef49f"},"vehicle_type_id":"4","last_reported":1743966439,"current_range_meters":9200,"station_id":"","pricing_plan_id":"cebpf4jnsgd1na2vs0mg"},{"bike_id":"12c487b7-1842-4783-bebc-3ae4822f34f0","system_id":"levelo_inurba_marseille","lat":43.29089,"lon":5.3814,"is_reserved":false,"is_disabled":false,"rental_uris":{"android":"levelo://app?vid=12c487b7-1842-4783-bebc-3ae4822f34f0","ios":"levelo://app?vid=12c487b7-1842-4783-bebc-3ae4822f34f0"},"vehicle_type_id":"4","last_reported":1743966439,"current_range_meters":9200,"station_id":"ce4bh512rcd13ifvqe2g","pricing_plan_id":"cebpf4jnsgd1na2vs0mg"},{"bike_id":"093019e0-55e5-42b1-9c23-9d41c3c990a6","system_id":"levelo_inurba_marseille","lat":43.31996,"lon":5.38166,"is_reserved":false,"is_disabled":false,"rental_uris":{"android":"levelo://app?vid=093019e0-55e5-42b1-9c23-9d41c3c990a6","ios":"levelo://app?vid=093019e0-55e5-42b1-9c23-9d41c3c990a6"},"vehicle_type_id":"4","last_reported":1743966439,"current_range_meters":9200,"station_id":"ce4bhr12rcd13ifvqhpg","pricing_plan_id":"cebpf4jnsgd1na2vs0mg"},{"bike_id":"7e998a0c-eed3-46de-aa53-8ecfbd4eddbb","system_id":"levelo_inurba_marseille","lat":43.23182,"lon":5.35565,"is_reserved":false,"is_disabled":true,"rental_uris":{"android":"levelo://app?vid=7e998a0c-eed3-46de-aa53-8ecfbd4eddbb","ios":"levelo://app?vid=7e998a0c-eed3-46de-aa53-8ecfbd4eddbb"},"vehicle_type_id":"4","last_reported":1743966439,"current_range_meters":9200,"station_id":"ce4bhu92rcd13ifvqi70","pricing_plan_id":"cebpf4jnsgd1na2vs0mg"},{"bike_id":"ab8f99f8-a811-4c53-b67a-a9af9ee117ac","system_id":"levelo_inurba_marseille","lat":43.29266,"lon":5.3844,"is_reserved":false,"is_disabled":false,"rental_uris":{"android":"levelo://app?vid=ab8f99f8-a811-4c53-b67a-a9af9ee117ac","ios":"levelo://app?vid=ab8f99f8-a811-4c53-b67a-a9af9ee117ac"},"vehicle_type_id":"4","last_reported":1743966439,"current_range_meters":9200,"station_id":"ce4bh692rcd13ifvqea0","pricing_plan_id":"cebpf4jnsgd1na2vs0mg"},{"bike_id":"71d5aad2-e8a9-4c9e-9b9e-6a5d13464bc5","system_id":"levelo_inurba_marseille","lat":43.27397,"lon":5.39424,"is_reserved":false,"is_disabled":false,"rental_uris":{"android":"levelo://app?vid=71d5aad2-e8a9-4c9e-9b9e-6a5d13464bc5","ios":"levelo://app?vid=71d5aad2-e8a9-4c9e-9b9e-6a5d13464bc5"},"vehicle_type_id":"4","last_reported":1743966439,"current_range_meters":9200,"station_id":"ce4bhdp2rcd13ifvqf20","pricing_plan_id":"cebpf4jnsgd1na2vs0mg"},{"bike_id":"8a819f05-e483-4216-a75d-4cde2b1a7921","system_id":"levelo_inurba_marseille","lat":43.29518,"lon":5.3905,"is_reserved":false,"is_disabled":false,"rental_uris":{"android":"levelo://app?vid=8a819f05-e483-4216-a75d-4cde2b1a7921","ios":"levelo://app?vid=8a819f05-e483-4216-a75d-4cde2b1a7921"},"vehicle_type_id":"4","last_reported":1743966439,"current_range_meters":8800,"station_id":"ce4bh3p2rcd13ifvqdp0","pricing_plan_id":"cebpf4jnsgd1na2vs0mg"},{"bike_id":"460d1d58-72fa-47d7-b54e-8f4489672412","system_id":"levelo_inurba_marseille","lat":43.30909,"lon":5.36847,"is_reserved":false,"is_disabled":false,"rental_uris":{"android":"levelo://app?vid=460d1d58-72fa-47d7-b54e-8f4489672412","ios":"levelo://app?vid=460d1d58-72fa-47d7-b54e-8f4489672412"},"vehicle_type_id":"4","last_reported":1743966439,"current_range_meters":9200,"station_id":"ce4bgn92rcd13ifvqbvg","pricing_plan_id":"cebpf4jnsgd1na2vs0mg"},{"bike_id":"dfcfbc4f-67e0-485b-ab4b-c2cd9996f500","system_id":"levelo_inurba_marseille","lat":43.27313,"lon":5.39095,"is_reserved":false,"is_disabled":false,"rental_uris":{"android":"levelo://app?vid=dfcfbc4f-67e0-485b-ab4b-c2cd9996f500","ios":"levelo://app?vid=dfcfbc4f-67e0-485b-ab4b-c2cd9996f500"},"vehicle_type_id":"4","last_reported":1743966439,"current_range_meters":9600,"station_id":"ce4bhgp2rcd13ifvqfe0","pricing_plan_id":"cebpf4jnsgd1na2vs0mg"},{"bike_id":"73288ffa-b3ae-42d4-ac20-af3bca298b32","system_id":"levelo_inurba_marseille","lat":43.29176,"lon":5.37167,"is_reserved":false,"is_disabled":false,"rental_uris":{"android":"levelo://app?vid=73288ffa-b3ae-42d4-ac20-af3bca298b32","ios":"levelo://app?vid=73288ffa-b3ae-42d4-ac20-af3bca298b32"},"vehicle_type_id":"4","last_reported":1743966439,"current_range_meters":9600,"station_id":"ce4bha92rcd13ifvqeh0","pricing_plan_id":"cebpf4jnsgd1na2vs0mg"},{"bike_id":"bb3a2010-c258-44ee-895f-6a7c9463a671","system_id":"levelo_inurba_marseille","lat":43.27858,"lon":5.39234,"is_reserved":false,"is_disabled":false,"rental_uris":{"android":"levelo://app?vid=bb3a2010-c258-44ee-895f-6a7c9463a671","ios":"levelo://app?vid=bb3a2010-c258-44ee-895f-6a7c9463a671"},"vehicle_type_id":"4","last_reported":1743966439,"current_range_meters":9600,"station_id":"ce4bhjp2rcd13ifvqga0","pricing_plan_id":"cebpf4jnsgd1na2vs0mg"},{"bike_id":"abde5d83-9b30-4b2f-8a88-f914ca452329","system_id":"levelo_inurba_marseille","lat":43.31261,"lon":5.38707,"is_reserved":false,"is_disabled":false,"rental_uris":{"android":"levelo://app?vid=abde5d83-9b30-4b2f-8a88-f914ca452329","ios":"levelo://app?vid=abde5d83-9b30-4b2f-8a88-f914ca452329"},"vehicle_type_id":"4","last_reported":1743966439,"current_range_meters":9600,"station_id":"","pricing_plan_id":"cebpf4jnsgd1na2vs0mg"},{"bike_id":"a637d94b-88a9-424d-9a24-f7dbc8c0fb71","system_id":"levelo_inurba_marseille","lat":43.27411,"lon":5.39391,"is_reserved":false,"is_disabled":false,"rental_uris":{"android":"levelo://app?vid=a637d94b-88a9-424d-9a24-f7dbc8c0fb71","ios":"levelo://app?vid=a637d94b-88a9-424d-9a24-f7dbc8c0fb71"},"vehicle_type_id":"4","last_reported":1743966439,"current_range_meters":9600,"station_id":"ce4bhdp2rcd13ifvqf20","pricing_plan_id":"cebpf4jnsgd1na2vs0mg"},{"bike_id":"faad4ee6-9d62-4e9c-a38b-194f45701742","system_id":"levelo_inurba_marseille","lat":43.27322,"lon":5.39126,"is_reserved":false,"is_disabled":false,"rental_uris":{"android":"levelo://app?vid=faad4ee6-9d62-4e9c-a38b-194f45701742","ios":"levelo://app?vid=faad4ee6-9d62-4e9c-a38b-194f45701742"},"vehicle_type_id":"4","last_reported":1743966439,"current_range_meters":9600,"station_id":"ce4bhgp2rcd13ifvqfe0","pricing_plan_id":"cebpf4jnsgd1na2vs0mg"},{"bike_id":"21f216cc-6a92-4c27-a534-223e73f0ed9a","system_id":"levelo_inurba_marseille","lat":43.30207,"lon":5.39457,"is_reserved":false,"is_disabled":false,"rental_uris":{"android":"levelo://app?vid=21f216cc-6a92-4c27-a534-223e73f0ed9a","ios":"levelo://app?vid=21f216cc-6a92-4c27-a534-223e73f0ed9a"},"vehicle_type_id":"4","last_reported":1743966439,"current_range_meters":9600,"station_id":"ce4bh0p2rcd13ifvqd70","pricing_plan_id":"cebpf4jnsgd1na2vs0mg"},{"bike_id":"892a1c61-cddf-4754-894f-374a149e0d83","system_id":"levelo_inurba_marseille","lat":43.29447,"lon":5.39743,"is_reserved":false,"is_disabled":false,"rental_uris":{"android":"levelo://app?vid=892a1c61-cddf-4754-894f-374a149e0d83","ios":"levelo://app?vid=892a1c61-cddf-4754-894f-374a149e0d83"},"vehicle_type_id":"4","last_reported":1743966439,"current_range_meters":9600,"station_id":"ce4bh3h2rcd13ifvqdo0","pricing_plan_id":"cebpf4jnsgd1na2vs0mg"},{"bike_id":"5e96b480-0943-41ff-bc95-79d78b1301a2","system_id":"levelo_inurba_marseille","lat":43.27544,"lon":5.42393,"is_reserved":false,"is_disabled":false,"rental_uris":{"android":"levelo://app?vid=5e96b480-0943-41ff-bc95-79d78b1301a2","ios":"levelo://app?vid=5e96b480-0943-41ff-bc95-79d78b1301a2"},"vehicle_type_id":"4","last_reported":1743966439,"current_range_meters":9600,"station_id":"","pricing_plan_id":"cebpf4jnsgd1na2vs0mg"},{"bike_id":"d4c6b5fd-ced5-41a7-a7a1-2d727898aaef","system_id":"levelo_inurba_marseille","lat":43.27206,"lon":5.39191,"is_reserved":false,"is_disabled":false,"rental_uris":{"android":"levelo://app?vid=d4c6b5fd-ced5-41a7-a7a1-2d727898aaef","ios":"levelo://app?vid=d4c6b5fd-ced5-41a7-a7a1-2d727898aaef"},"vehicle_type_id":"4","last_reported":1743966439,"current_range_meters":9600,"station_id":"ce4bhhp2rcd13ifvqfm0","pricing_plan_id":"cebpf4jnsgd1na2vs0mg"},{"bike_id":"fac1eaca-8caf-4698-b64a-b753cd2da290","system_id":"levelo_inurba_marseille","lat":43.29965,"lon":5.38515,"is_reserved":false,"is_disabled":false,"rental_uris":{"android":"levelo://app?vid=fac1eaca-8caf-4698-b64a-b753cd2da290","ios":"levelo://app?vid=fac1eaca-8caf-4698-b64a-b753cd2da290"},"vehicle_type_id":"4","last_reported":1743966439,"current_range_meters":9600,"station_id":"ce4bgj92rcd13ifvqbd0","pricing_plan_id":"cebpf4jnsgd1na2vs0mg"},{"bike_id":"37566333-73c3-4404-ba7c-c72222dd323d","system_id":"levelo_inurba_marseille","lat":43.290273,"lon":5.381411,"is_reserved":false,"is_disabled":false,"rental_uris":{"android":"levelo://app?vid=37566333-73c3-4404-ba7c-c72222dd323d","ios":"levelo://app?vid=37566333-73c3-4404-ba7c-c72222dd323d"},"vehicle_type_id":"4","last_reported":1743966439,"current_range_meters":9600,"station_id":"ce4bh4p2rcd13ifvqe1g","pricing_plan_id":"cebpf4jnsgd1na2vs0mg"},{"bike_id":"e7947d0d-d87c-4812-8bdf-d6ddbdb91c6e","system_id":"levelo_inurba_marseille","lat":43.26942,"lon":5.40251,"is_reserved":false,"is_disabled":false,"rental_uris":{"android":"levelo://app?vid=e7947d0d-d87c-4812-8bdf-d6ddbdb91c6e","ios":"levelo://app?vid=e7947d0d-d87c-4812-8bdf-d6ddbdb91c6e"},"vehicle_type_id":"4","last_reported":1743966439,"current_range_meters":9600,"station_id":"cjm6bp8fraef2m0cb0m0","pricing_plan_id":"cebpf4jnsgd1na2vs0mg"},{"bike_id":"fa716d71-3d69-42b1-a9ea-1aeac35a88e2","system_id":"levelo_inurba_marseille","lat":43.301666,"lon":5.391413,"is_reserved":false,"is_disabled":false,"rental_uris":{"android":"levelo://app?vid=fa716d71-3d69-42b1-a9ea-1aeac35a88e2","ios":"levelo://app?vid=fa716d71-3d69-42b1-a9ea-1aeac35a88e2"},"vehicle_type_id":"4","last_reported":1743966439,"current_range_meters":9200,"station_id":"ce4bha92rcd13ifvqeh0","pricing_plan_id":"cebpf4jnsgd1na2vs0mg"},{"bike_id":"7fd0635d-68ad-4ce6-a52b-daef56987b4b","system_id":"levelo_inurba_marseille","lat":43.30867,"lon":5.38617,"is_reserved":false,"is_disabled":false,"rental_uris":{"android":"levelo://app?vid=7fd0635d-68ad-4ce6-a52b-daef56987b4b","ios":"levelo://app?vid=7fd0635d-68ad-4ce6-a52b-daef56987b4b"},"vehicle_type_id":"4","last_reported":1743966439,"current_range_meters":9600,"station_id":"","pricing_plan_id":"cebpf4jnsgd1na2vs0mg"},{"bike_id":"32cbde41-f279-4652-9efe-7e32795bcb20","system_id":"levelo_inurba_marseille","lat":43.28943,"lon":5.36413,"is_reserved":false,"is_disabled":false,"rental_uris":{"android":"levelo://app?vid=32cbde41-f279-4652-9efe-7e32795bcb20","ios":"levelo://app?vid=32cbde41-f279-4652-9efe-7e32795bcb20"},"vehicle_type_id":"4","last_reported":1743966439,"current_range_meters":9600,"station_id":"ce4bhc92rcd13ifvqetg","pricing_plan_id":"cebpf4jnsgd1na2vs0mg"},{"bike_id":"136b6e45-ee21-453e-aa22-e07947db9071","system_id":"levelo_inurba_marseille","lat":43.23189,"lon":5.437,"is_reserved":false,"is_disabled":true,"rental_uris":{"android":"levelo://app?vid=136b6e45-ee21-453e-aa22-e07947db9071","ios":"levelo://app?vid=136b6e45-ee21-453e-aa22-e07947db9071"},"vehicle_type_id":"4","last_reported":1743966439,"current_range_meters":9600,"station_id":"ce4bhmp2rcd13ifvqgog","pricing_plan_id":"cebpf4jnsgd1na2vs0mg"},{"bike_id":"f8321878-9e9a-4e56-8919-d9cad8905f3c","system_id":"levelo_inurba_marseille","lat":43.30557,"lon":5.36526,"is_reserved":false,"is_disabled":true,"rental_uris":{"android":"levelo://app?vid=f8321878-9e9a-4e56-8919-d9cad8905f3c","ios":"levelo://app?vid=f8321878-9e9a-4e56-8919-d9cad8905f3c"},"vehicle_type_id":"4","last_reported":1743966439,"current_range_meters":10000,"station_id":"ce4bgs12rcd13ifvqcag","pricing_plan_id":"cebpf4jnsgd1na2vs0mg"},{"bike_id":"0f167d88-99f6-4fc2-b450-bcd2bf45b0b3","system_id":"levelo_inurba_marseille","lat":43.29517,"lon":5.38534,"is_reserved":false,"is_disabled":false,"rental_uris":{"android":"levelo://app?vid=0f167d88-99f6-4fc2-b450-bcd2bf45b0b3","ios":"levelo://app?vid=0f167d88-99f6-4fc2-b450-bcd2bf45b0b3"},"vehicle_type_id":"4","last_reported":1743966439,"current_range_meters":10000,"station_id":"ce4bgih2rcd13ifvqba0","pricing_plan_id":"cebpf4jnsgd1na2vs0mg"},{"bike_id":"590bd0e2-9f1d-4e6f-9e37-05bb0e5ae5dc","system_id":"levelo_inurba_marseille","lat":43.29876,"lon":5.36404,"is_reserved":false,"is_disabled":false,"rental_uris":{"android":"levelo://app?vid=590bd0e2-9f1d-4e6f-9e37-05bb0e5ae5dc","ios":"levelo://app?vid=590bd0e2-9f1d-4e6f-9e37-05bb0e5ae5dc"},"vehicle_type_id":"4","last_reported":1743966439,"current_range_meters":10000,"station_id":"","pricing_plan_id":"cebpf4jnsgd1na2vs0mg"},{"bike_id":"3f656ccd-7c0d-42a8-92c9-a3501a9c6992","system_id":"levelo_inurba_marseille","lat":43.24071,"lon":5.37764,"is_reserved":false,"is_disabled":false,"rental_uris":{"android":"levelo://app?vid=3f656ccd-7c0d-42a8-92c9-a3501a9c6992","ios":"levelo://app?vid=3f656ccd-7c0d-42a8-92c9-a3501a9c6992"},"vehicle_type_id":"4","last_reported":1743966439,"current_range_meters":10000,"station_id":"ce4bhnp2rcd13ifvqgvg","pricing_plan_id":"cebpf4jnsgd1na2vs0mg"},{"bike_id":"72f54805-ec8d-4247-9b89-6de1124cdc36","system_id":"levelo_inurba_marseille","lat":43.29098,"lon":5.38143,"is_reserved":false,"is_disabled":false,"rental_uris":{"android":"levelo://app?vid=72f54805-ec8d-4247-9b89-6de1124cdc36","ios":"levelo://app?vid=72f54805-ec8d-4247-9b89-6de1124cdc36"},"vehicle_type_id":"4","last_reported":1743966439,"current_range_meters":10000,"station_id":"ce4bh512rcd13ifvqe2g","pricing_plan_id":"cebpf4jnsgd1na2vs0mg"},{"bike_id":"3574d125-d41c-453d-b848-638c8baed259","system_id":"levelo_inurba_marseille","lat":43.336,"lon":5.41035,"is_reserved":false,"is_disabled":false,"rental_uris":{"android":"levelo://app?vid=3574d125-d41c-453d-b848-638c8baed259","ios":"levelo://app?vid=3574d125-d41c-453d-b848-638c8baed259"},"vehicle_type_id":"4","last_reported":1743966439,"current_range_meters":10000,"station_id":"ce4bhqh2rcd13ifvqhmg","pricing_plan_id":"cebpf4jnsgd1na2vs0mg"},{"bike_id":"de055047-7380-4aef-99e3-6a8107685f8c","system_id":"levelo_inurba_marseille","lat":43.24068,"lon":5.37768,"is_reserved":false,"is_disabled":false,"rental_uris":{"android":"levelo://app?vid=de055047-7380-4aef-99e3-6a8107685f8c","ios":"levelo://app?vid=de055047-7380-4aef-99e3-6a8107685f8c"},"vehicle_type_id":"4","last_reported":1743966439,"current_range_meters":10000,"station_id":"ce4bhnp2rcd13ifvqgvg","pricing_plan_id":"cebpf4jnsgd1na2vs0mg"},{"bike_id":"aa9b59b6-65cb-49e0-b211-3fb1aecd03a8","system_id":"levelo_inurba_marseille","lat":43.29234,"lon":5.3609,"is_reserved":false,"is_disabled":true,"rental_uris":{"android":"levelo://app?vid=aa9b59b6-65cb-49e0-b211-3fb1aecd03a8","ios":"levelo://app?vid=aa9b59b6-65cb-49e0-b211-3fb1aecd03a8"},"vehicle_type_id":"4","last_reported":1743966439,"current_range_meters":10000,"station_id":"ce4bhbh2rcd13ifvqeqg","pricing_plan_id":"cebpf4jnsgd1na2vs0mg"},{"bike_id":"0db472c0-ef0d-4bc9-bc2a-d369458303a3","system_id":"levelo_inurba_marseille","lat":43.2835,"lon":5.3811,"is_reserved":false,"is_disabled":false,"rental_uris":{"android":"levelo://app?vid=0db472c0-ef0d-4bc9-bc2a-d369458303a3","ios":"levelo://app?vid=0db472c0-ef0d-4bc9-bc2a-d369458303a3"},"vehicle_type_id":"4","last_reported":1743966439,"current_range_meters":10800,"station_id":"ce4bh412rcd13ifvqdr0","pricing_plan_id":"cebpf4jnsgd1na2vs0mg"},{"bike_id":"5eb2b94a-4d56-4231-91a3-2354e4c61235","system_id":"levelo_inurba_marseille","lat":43.28843,"lon":5.3931,"is_reserved":false,"is_disabled":false,"rental_uris":{"android":"levelo://app?vid=5eb2b94a-4d56-4231-91a3-2354e4c61235","ios":"levelo://app?vid=5eb2b94a-4d56-4231-91a3-2354e4c61235"},"vehicle_type_id":"4","last_reported":1743966439,"current_range_meters":10800,"station_id":"ce4bh2p2rcd13ifvqdi0","pricing_plan_id":"cebpf4jnsgd1na2vs0mg"},{"bike_id":"e41bd095-8d4f-4e45-bcd6-26277f901ef3","system_id":"levelo_inurba_marseille","lat":43.268167,"lon":5.40256,"is_reserved":false,"is_disabled":false,"rental_uris":{"android":"levelo://app?vid=e41bd095-8d4f-4e45-bcd6-26277f901ef3","ios":"levelo://app?vid=e41bd095-8d4f-4e45-bcd6-26277f901ef3"},"vehicle_type_id":"4","last_reported":1743966439,"current_range_meters":10800,"station_id":"ce501612rcd8frsf0b60","pricing_plan_id":"cebpf4jnsgd1na2vs0mg"},{"bike_id":"72543552-8188-4373-8db0-bd2f24c14e7b","system_id":"levelo_inurba_marseille","lat":43.32317,"lon":5.37663,"is_reserved":false,"is_disabled":false,"rental_uris":{"android":"levelo://app?vid=72543552-8188-4373-8db0-bd2f24c14e7b","ios":"levelo://app?vid=72543552-8188-4373-8db0-bd2f24c14e7b"},"vehicle_type_id":"4","last_reported":1743966439,"current_range_meters":10800,"station_id":"","pricing_plan_id":"cebpf4jnsgd1na2vs0mg"},{"bike_id":"5266b485-864e-49e2-903e-a864283d04cb","system_id":"levelo_inurba_marseille","lat":43.27325,"lon":5.39197,"is_reserved":false,"is_disabled":false,"rental_uris":{"android":"levelo://app?vid=5266b485-864e-49e2-903e-a864283d04cb","ios":"levelo://app?vid=5266b485-864e-49e2-903e-a864283d04cb"},"vehicle_type_id":"4","last_reported":1743966439,"current_range_meters":10800,"station_id":"ce4bhgp2rcd13ifvqfe0","pricing_plan_id":"cebpf4jnsgd1na2vs0mg"},{"bike_id":"f29aecaa-ade0-467c-986a-b65b06d523f4","system_id":"levelo_inurba_marseille","lat":43.28846,"lon":5.39339,"is_reserved":false,"is_disabled":true,"rental_uris":{"android":"levelo://app?vid=f29aecaa-ade0-467c-986a-b65b06d523f4","ios":"levelo://app?vid=f29aecaa-ade0-467c-986a-b65b06d523f4"},"vehicle_type_id":"4","last_reported":1743966439,"current_range_meters":10800,"station_id":"ce4bh2p2rcd13ifvqdi0","pricing_plan_id":"cebpf4jnsgd1na2vs0mg"},{"bike_id":"c3e6d442-6282-4c88-9f90-93d85aff9e76","system_id":"levelo_inurba_marseille","lat":43.28193,"lon":5.42675,"is_reserved":false,"is_disabled":false,"rental_uris":{"android":"levelo://app?vid=c3e6d442-6282-4c88-9f90-93d85aff9e76","ios":"levelo://app?vid=c3e6d442-6282-4c88-9f90-93d85aff9e76"},"vehicle_type_id":"4","last_reported":1743966439,"current_range_meters":10800,"station_id":"ce4bhnh2rcd13ifvqgug","pricing_plan_id":"cebpf4jnsgd1na2vs0mg"},{"bike_id":"3d644e53-fb1d-4367-9346-3575810a7357","system_id":"levelo_inurba_marseille","lat":43.29877,"lon":5.39728,"is_reserved":false,"is_disabled":false,"rental_uris":{"android":"levelo://app?vid=3d644e53-fb1d-4367-9346-3575810a7357","ios":"levelo://app?vid=3d644e53-fb1d-4367-9346-3575810a7357"},"vehicle_type_id":"4","last_reported":1743966439,"current_range_meters":10800,"station_id":"ce4bh0h2rcd13ifvqd50","pricing_plan_id":"cebpf4jnsgd1na2vs0mg"},{"bike_id":"ce8c02c7-f19b-4275-9265-57469d45a781","system_id":"levelo_inurba_marseille","lat":43.29303,"lon":5.37187,"is_reserved":false,"is_disabled":false,"rental_uris":{"android":"levelo://app?vid=ce8c02c7-f19b-4275-9265-57469d45a781","ios":"levelo://app?vid=ce8c02c7-f19b-4275-9265-57469d45a781"},"vehicle_type_id":"4","last_reported":1743966439,"current_range_meters":10800,"station_id":"","pricing_plan_id":"cebpf4jnsgd1na2vs0mg"},{"bike_id":"f64adc8f-ea0a-4a9e-bbd4-a1e2beaecb98","system_id":"levelo_inurba_marseille","lat":43.27434,"lon":5.39407,"is_reserved":false,"is_disabled":false,"rental_uris":{"android":"levelo://app?vid=f64adc8f-ea0a-4a9e-bbd4-a1e2beaecb98","ios":"levelo://app?vid=f64adc8f-ea0a-4a9e-bbd4-a1e2beaecb98"},"vehicle_type_id":"4","last_reported":1743966439,"current_range_meters":10800,"station_id":"ce4bhdp2rcd13ifvqf20","pricing_plan_id":"cebpf4jnsgd1na2vs0mg"},{"bike_id":"19379d7b-b3b4-46ff-9af1-6370bf06ecc3","system_id":"levelo_inurba_marseille","lat":43.29005,"lon":5.35606,"is_reserved":false,"is_disabled":true,"rental_uris":{"android":"levelo://app?vid=19379d7b-b3b4-46ff-9af1-6370bf06ecc3","ios":"levelo://app?vid=19379d7b-b3b4-46ff-9af1-6370bf06ecc3"},"vehicle_type_id":"4","last_reported":1743966439,"current_range_meters":10800,"station_id":"ce4bhb92rcd13ifvqen0","pricing_plan_id":"cebpf4jnsgd1na2vs0mg"},{"bike_id":"91ed8959-1911-4e70-9730-aa7b2f294c41","system_id":"levelo_inurba_marseille","lat":43.27945,"lon":5.41055,"is_reserved":false,"is_disabled":false,"rental_uris":{"android":"levelo://app?vid=91ed8959-1911-4e70-9730-aa7b2f294c41","ios":"levelo://app?vid=91ed8959-1911-4e70-9730-aa7b2f294c41"},"vehicle_type_id":"4","last_reported":1743966439,"current_range_meters":10800,"station_id":"ce4bhnp2rcd13ifvqh0g","pricing_plan_id":"cebpf4jnsgd1na2vs0mg"},{"bike_id":"0ec7a872-fe0a-4ebf-85cd-f62575851dce","system_id":"levelo_inurba_marseille","lat":43.29193,"lon":5.39313,"is_reserved":false,"is_disabled":false,"rental_uris":{"android":"levelo://app?vid=0ec7a872-fe0a-4ebf-85cd-f62575851dce","ios":"levelo://app?vid=0ec7a872-fe0a-4ebf-85cd-f62575851dce"},"vehicle_type_id":"4","last_reported":1743966439,"current_range_meters":11200,"station_id":"ce4bh192rcd13ifvqdd0","pricing_plan_id":"cebpf4jnsgd1na2vs0mg"},{"bike_id":"5a8cc76f-381e-48ab-807e-05bd0c658bdf","system_id":"levelo_inurba_marseille","lat":43.317551,"lon":5.39004,"is_reserved":false,"is_disabled":false,"rental_uris":{"android":"levelo://app?vid=5a8cc76f-381e-48ab-807e-05bd0c658bdf","ios":"levelo://app?vid=5a8cc76f-381e-48ab-807e-05bd0c658bdf"},"vehicle_type_id":"4","last_reported":1743966439,"current_range_meters":11200,"station_id":"ce4bhqp2rcd13ifvqhng","pricing_plan_id":"cebpf4jnsgd1na2vs0mg"},{"bike_id":"63e1d95c-79be-4b82-a868-e312bf827ceb","system_id":"levelo_inurba_marseille","lat":43.290186,"lon":5.386374,"is_reserved":false,"is_disabled":true,"rental_uris":{"android":"levelo://app?vid=63e1d95c-79be-4b82-a868-e312bf827ceb","ios":"levelo://app?vid=63e1d95c-79be-4b82-a868-e312bf827ceb"},"vehicle_type_id":"4","last_reported":1743966439,"current_range_meters":11200,"station_id":"ce4bh4p2rcd13ifvqe0g","pricing_plan_id":"cebpf4jnsgd1na2vs0mg"},{"bike_id":"a3a3f188-dc26-403e-921c-c60dca29e86e","system_id":"levelo_inurba_marseille","lat":43.25733,"lon":5.41134,"is_reserved":false,"is_disabled":false,"rental_uris":{"android":"levelo://app?vid=a3a3f188-dc26-403e-921c-c60dca29e86e","ios":"levelo://app?vid=a3a3f188-dc26-403e-921c-c60dca29e86e"},"vehicle_type_id":"4","last_reported":1743966439,"current_range_meters":11200,"station_id":"ce4bhkp2rcd13ifvqgd0","pricing_plan_id":"cebpf4jnsgd1na2vs0mg"},{"bike_id":"e56abb70-33c7-44c3-9e82-b2e4b7ebe191","system_id":"levelo_inurba_marseille","lat":43.27208,"lon":5.39183,"is_reserved":false,"is_disabled":false,"rental_uris":{"android":"levelo://app?vid=e56abb70-33c7-44c3-9e82-b2e4b7ebe191","ios":"levelo://app?vid=e56abb70-33c7-44c3-9e82-b2e4b7ebe191"},"vehicle_type_id":"4","last_reported":1743966439,"current_range_meters":11200,"station_id":"ce4bhhp2rcd13ifvqfm0","pricing_plan_id":"cebpf4jnsgd1na2vs0mg"},{"bike_id":"d19bd749-4f7c-44a4-b5ef-59d865f872d3","system_id":"levelo_inurba_marseille","lat":43.24082,"lon":5.37766,"is_reserved":false,"is_disabled":false,"rental_uris":{"android":"levelo://app?vid=d19bd749-4f7c-44a4-b5ef-59d865f872d3","ios":"levelo://app?vid=d19bd749-4f7c-44a4-b5ef-59d865f872d3"},"vehicle_type_id":"4","last_reported":1743966439,"current_range_meters":10800,"station_id":"ce4bhnp2rcd13ifvqgvg","pricing_plan_id":"cebpf4jnsgd1na2vs0mg"},{"bike_id":"733bf5d1-3142-461a-a85b-687ba2cadf28","system_id":"levelo_inurba_marseille","lat":43.31897,"lon":5.4072,"is_reserved":false,"is_disabled":false,"rental_uris":{"android":"levelo://app?vid=733bf5d1-3142-461a-a85b-687ba2cadf28","ios":"levelo://app?vid=733bf5d1-3142-461a-a85b-687ba2cadf28"},"vehicle_type_id":"4","last_reported":1743966439,"current_range_meters":11200,"station_id":"ce4bhq12rcd13ifvqhig","pricing_plan_id":"cebpf4jnsgd1na2vs0mg"},{"bike_id":"22fb26cc-1c7b-4efe-bbb2-2d387cf89304","system_id":"levelo_inurba_marseille","lat":43.32338,"lon":5.40628,"is_reserved":false,"is_disabled":false,"rental_uris":{"android":"levelo://app?vid=22fb26cc-1c7b-4efe-bbb2-2d387cf89304","ios":"levelo://app?vid=22fb26cc-1c7b-4efe-bbb2-2d387cf89304"},"vehicle_type_id":"4","last_reported":1743966439,"current_range_meters":11200,"station_id":"ce4bhq92rcd13ifvqhjg","pricing_plan_id":"cebpf4jnsgd1na2vs0mg"},{"bike_id":"2d8bb08d-82a1-4643-af79-3fb90700aa5e","system_id":"levelo_inurba_marseille","lat":43.27902,"lon":5.38018,"is_reserved":false,"is_disabled":false,"rental_uris":{"android":"levelo://app?vid=2d8bb08d-82a1-4643-af79-3fb90700aa5e","ios":"levelo://app?vid=2d8bb08d-82a1-4643-af79-3fb90700aa5e"},"vehicle_type_id":"4","last_reported":1743966439,"current_range_meters":11600,"station_id":"ce4bhf92rcd13ifvqf50","pricing_plan_id":"cebpf4jnsgd1na2vs0mg"},{"bike_id":"d68c4d9e-a51e-4e1c-80bc-f69a06d4473f","system_id":"levelo_inurba_marseille","lat":43.269392,"lon":5.402598,"is_reserved":false,"is_disabled":false,"rental_uris":{"android":"levelo://app?vid=d68c4d9e-a51e-4e1c-80bc-f69a06d4473f","ios":"levelo://app?vid=d68c4d9e-a51e-4e1c-80bc-f69a06d4473f"},"vehicle_type_id":"4","last_reported":1743966439,"current_range_meters":11600,"station_id":"cjm6bp8fraef2m0cb0m0","pricing_plan_id":"cebpf4jnsgd1na2vs0mg"},{"bike_id":"8a38320c-a733-4cf5-8c8e-152497fe8f8f","system_id":"levelo_inurba_marseille","lat":43.28188,"lon":5.42652,"is_reserved":false,"is_disabled":false,"rental_uris":{"android":"levelo://app?vid=8a38320c-a733-4cf5-8c8e-152497fe8f8f","ios":"levelo://app?vid=8a38320c-a733-4cf5-8c8e-152497fe8f8f"},"vehicle_type_id":"4","last_reported":1743966439,"current_range_meters":11600,"station_id":"ce4bhnh2rcd13ifvqgug","pricing_plan_id":"cebpf4jnsgd1na2vs0mg"},{"bike_id":"b92a4272-ab89-4a8d-8965-1e0d78a2b47d","system_id":"levelo_inurba_marseille","lat":43.29273,"lon":5.40115,"is_reserved":false,"is_disabled":false,"rental_uris":{"android":"levelo://app?vid=b92a4272-ab89-4a8d-8965-1e0d78a2b47d","ios":"levelo://app?vid=b92a4272-ab89-4a8d-8965-1e0d78a2b47d"},"vehicle_type_id":"4","last_reported":1743966439,"current_range_meters":11600,"station_id":"ce4bh312rcd13ifvqdk0","pricing_plan_id":"cebpf4jnsgd1na2vs0mg"},{"bike_id":"af2b4658-0fe3-4b0e-b0db-2a6698e43382","system_id":"levelo_inurba_marseille","lat":43.28722,"lon":5.36093,"is_reserved":false,"is_disabled":false,"rental_uris":{"android":"levelo://app?vid=af2b4658-0fe3-4b0e-b0db-2a6698e43382","ios":"levelo://app?vid=af2b4658-0fe3-4b0e-b0db-2a6698e43382"},"vehicle_type_id":"4","last_reported":1743966439,"current_range_meters":11200,"station_id":"cki0cbj6b192h4jlfktg","pricing_plan_id":"cebpf4jnsgd1na2vs0mg"},{"bike_id":"6ee85d75-9576-48a6-9ea1-92da0dac2d73","system_id":"levelo_inurba_marseille","lat":43.30803,"lon":5.43522,"is_reserved":false,"is_disabled":false,"rental_uris":{"android":"levelo://app?vid=6ee85d75-9576-48a6-9ea1-92da0dac2d73","ios":"levelo://app?vid=6ee85d75-9576-48a6-9ea1-92da0dac2d73"},"vehicle_type_id":"4","last_reported":1743966439,"current_range_meters":11600,"station_id":"ce4bhph2rcd13ifvqheg","pricing_plan_id":"cebpf4jnsgd1na2vs0mg"},{"bike_id":"22ef97f6-a6ed-4127-b79c-6dd733071386","system_id":"levelo_inurba_marseille","lat":43.27976,"lon":5.38743,"is_reserved":false,"is_disabled":false,"rental_uris":{"android":"levelo://app?vid=22ef97f6-a6ed-4127-b79c-6dd733071386","ios":"levelo://app?vid=22ef97f6-a6ed-4127-b79c-6dd733071386"},"vehicle_type_id":"4","last_reported":1743966439,"current_range_meters":11600,"station_id":"ce4bhg12rcd13ifvqf80","pricing_plan_id":"cebpf4jnsgd1na2vs0mg"},{"bike_id":"8c21126a-5e36-405d-9640-e224cb0a062f","system_id":"levelo_inurba_marseille","lat":43.29554,"lon":5.42283,"is_reserved":false,"is_disabled":false,"rental_uris":{"android":"levelo://app?vid=8c21126a-5e36-405d-9640-e224cb0a062f","ios":"levelo://app?vid=8c21126a-5e36-405d-9640-e224cb0a062f"},"vehicle_type_id":"4","last_reported":1743966439,"current_range_meters":11600,"station_id":"ce4bhph2rcd13ifvqhdg","pricing_plan_id":"cebpf4jnsgd1na2vs0mg"},{"bike_id":"c8be0129-67cf-4771-bca7-cd6357bdcd90","system_id":"levelo_inurba_marseille","lat":43.27317,"lon":5.39079,"is_reserved":false,"is_disabled":false,"rental_uris":{"android":"levelo://app?vid=c8be0129-67cf-4771-bca7-cd6357bdcd90","ios":"levelo://app?vid=c8be0129-67cf-4771-bca7-cd6357bdcd90"},"vehicle_type_id":"4","last_reported":1743966439,"current_range_meters":11600,"station_id":"ce4bhgp2rcd13ifvqfe0","pricing_plan_id":"cebpf4jnsgd1na2vs0mg"},{"bike_id":"33448e42-2dee-4e4d-933a-57b94ec14f0c","system_id":"levelo_inurba_marseille","lat":43.29189,"lon":5.35591,"is_reserved":false,"is_disabled":true,"rental_uris":{"android":"levelo://app?vid=33448e42-2dee-4e4d-933a-57b94ec14f0c","ios":"levelo://app?vid=33448e42-2dee-4e4d-933a-57b94ec14f0c"},"vehicle_type_id":"4","last_reported":1743966439,"current_range_meters":11600,"station_id":"","pricing_plan_id":"cebpf4jnsgd1na2vs0mg"},{"bike_id":"a56d9e93-ff14-4dc3-9550-a56fbad1008e","system_id":"levelo_inurba_marseille","lat":43.29596,"lon":5.38114,"is_reserved":false,"is_disabled":false,"rental_uris":{"android":"levelo://app?vid=a56d9e93-ff14-4dc3-9550-a56fbad1008e","ios":"levelo://app?vid=a56d9e93-ff14-4dc3-9550-a56fbad1008e"},"vehicle_type_id":"4","last_reported":1743966439,"current_range_meters":11600,"station_id":"ce4bgl12rcd13ifvqbo0","pricing_plan_id":"cebpf4jnsgd1na2vs0mg"},{"bike_id":"8539495d-a8db-48e8-999c-a0eec7f95200","system_id":"levelo_inurba_marseille","lat":43.25496,"lon":5.37656,"is_reserved":false,"is_disabled":true,"rental_uris":{"android":"levelo://app?vid=8539495d-a8db-48e8-999c-a0eec7f95200","ios":"levelo://app?vid=8539495d-a8db-48e8-999c-a0eec7f95200"},"vehicle_type_id":"4","last_reported":1743966439,"current_range_meters":11600,"station_id":"ce4bhh12rcd13ifvqff0","pricing_plan_id":"cebpf4jnsgd1na2vs0mg"},{"bike_id":"a409c3f0-8991-4228-afb5-57b19bb06658","system_id":"levelo_inurba_marseille","lat":43.32401,"lon":5.38997,"is_reserved":false,"is_disabled":false,"rental_uris":{"android":"levelo://app?vid=a409c3f0-8991-4228-afb5-57b19bb06658","ios":"levelo://app?vid=a409c3f0-8991-4228-afb5-57b19bb06658"},"vehicle_type_id":"4","last_reported":1743966439,"current_range_meters":12000,"station_id":"","pricing_plan_id":"cebpf4jnsgd1na2vs0mg"},{"bike_id":"910df0c0-c4a8-4394-af96-604bb2462894","system_id":"levelo_inurba_marseille","lat":43.23153,"lon":5.43743,"is_reserved":false,"is_disabled":false,"rental_uris":{"android":"levelo://app?vid=910df0c0-c4a8-4394-af96-604bb2462894","ios":"levelo://app?vid=910df0c0-c4a8-4394-af96-604bb2462894"},"vehicle_type_id":"4","last_reported":1743966439,"current_range_meters":12000,"station_id":"ce4bhmp2rcd13ifvqgog","pricing_plan_id":"cebpf4jnsgd1na2vs0mg"},{"bike_id":"a5bd5abf-e64b-49fb-9823-db9745ea97e7","system_id":"levelo_inurba_marseille","lat":43.28945,"lon":5.366435,"is_reserved":false,"is_disabled":true,"rental_uris":{"android":"levelo://app?vid=a5bd5abf-e64b-49fb-9823-db9745ea97e7","ios":"levelo://app?vid=a5bd5abf-e64b-49fb-9823-db9745ea97e7"},"vehicle_type_id":"4","last_reported":1743966439,"current_range_meters":12000,"station_id":"ce4bhap2rcd13ifvqek0","pricing_plan_id":"cebpf4jnsgd1na2vs0mg"},{"bike_id":"ebdba52b-a193-44be-82dc-c68ce3cd6731","system_id":"levelo_inurba_marseille","lat":43.295105,"lon":5.374809,"is_reserved":false,"is_disabled":false,"rental_uris":{"android":"levelo://app?vid=ebdba52b-a193-44be-82dc-c68ce3cd6731","ios":"levelo://app?vid=ebdba52b-a193-44be-82dc-c68ce3cd6731"},"vehicle_type_id":"4","last_reported":1743966439,"current_range_meters":12000,"station_id":"ce4bhb12rcd13ifvqem0","pricing_plan_id":"cebpf4jnsgd1na2vs0mg"},{"bike_id":"e4d4dc7a-abcd-4c1d-8017-887f937d011f","system_id":"levelo_inurba_marseille","lat":43.2957,"lon":5.39906,"is_reserved":false,"is_disabled":true,"rental_uris":{"android":"levelo://app?vid=e4d4dc7a-abcd-4c1d-8017-887f937d011f","ios":"levelo://app?vid=e4d4dc7a-abcd-4c1d-8017-887f937d011f"},"vehicle_type_id":"4","last_reported":1743966439,"current_range_meters":12000,"station_id":"ce4bh312rcd13ifvqdj0","pricing_plan_id":"cebpf4jnsgd1na2vs0mg"},{"bike_id":"6f6d6376-8b5f-4fba-bf7f-7c538d406caf","system_id":"levelo_inurba_marseille","lat":43.2678,"lon":5.39439,"is_reserved":false,"is_disabled":false,"rental_uris":{"android":"levelo://app?vid=6f6d6376-8b5f-4fba-bf7f-7c538d406caf","ios":"levelo://app?vid=6f6d6376-8b5f-4fba-bf7f-7c538d406caf"},"vehicle_type_id":"4","last_reported":1743966439,"current_range_meters":12000,"station_id":"ce4bhh12rcd13ifvqfg0","pricing_plan_id":"cebpf4jnsgd1na2vs0mg"},{"bike_id":"5c8a4aa0-bcf1-4dd1-b3c3-e0b358638598","system_id":"levelo_inurba_marseille","lat":43.30906,"lon":5.36847,"is_reserved":false,"is_disabled":false,"rental_uris":{"android":"levelo://app?vid=5c8a4aa0-bcf1-4dd1-b3c3-e0b358638598","ios":"levelo://app?vid=5c8a4aa0-bcf1-4dd1-b3c3-e0b358638598"},"vehicle_type_id":"4","last_reported":1743966439,"current_range_meters":12400,"station_id":"ce4bgn92rcd13ifvqbvg","pricing_plan_id":"cebpf4jnsgd1na2vs0mg"},{"bike_id":"5726a46d-72a9-43a3-aa16-2ba78e26437d","system_id":"levelo_inurba_marseille","lat":43.26804,"lon":5.40259,"is_reserved":false,"is_disabled":false,"rental_uris":{"android":"levelo://app?vid=5726a46d-72a9-43a3-aa16-2ba78e26437d","ios":"levelo://app?vid=5726a46d-72a9-43a3-aa16-2ba78e26437d"},"vehicle_type_id":"4","last_reported":1743966439,"current_range_meters":12400,"station_id":"ce501612rcd8frsf0b60","pricing_plan_id":"cebpf4jnsgd1na2vs0mg"},{"bike_id":"1caa313b-bb8f-48c3-ad86-14dfa98d6a62","system_id":"levelo_inurba_marseille","lat":43.25576,"lon":5.38263,"is_reserved":false,"is_disabled":true,"rental_uris":{"android":"levelo://app?vid=1caa313b-bb8f-48c3-ad86-14dfa98d6a62","ios":"levelo://app?vid=1caa313b-bb8f-48c3-ad86-14dfa98d6a62"},"vehicle_type_id":"4","last_reported":1743966439,"current_range_meters":12400,"station_id":"ce4bhih2rcd13ifvqfs0","pricing_plan_id":"cebpf4jnsgd1na2vs0mg"},{"bike_id":"b6104604-afcd-4524-8f91-5c49130d76d7","system_id":"levelo_inurba_marseille","lat":43.30208,"lon":5.39469,"is_reserved":false,"is_disabled":false,"rental_uris":{"android":"levelo://app?vid=b6104604-afcd-4524-8f91-5c49130d76d7","ios":"levelo://app?vid=b6104604-afcd-4524-8f91-5c49130d76d7"},"vehicle_type_id":"4","last_reported":1743966439,"current_range_meters":12400,"station_id":"ce4bh0p2rcd13ifvqd70","pricing_plan_id":"cebpf4jnsgd1na2vs0mg"},{"bike_id":"4fdc4383-a28a-4089-b7ae-c92ed05009b8","system_id":"levelo_inurba_marseille","lat":43.30199,"lon":5.39476,"is_reserved":false,"is_disabled":false,"rental_uris":{"android":"levelo://app?vid=4fdc4383-a28a-4089-b7ae-c92ed05009b8","ios":"levelo://app?vid=4fdc4383-a28a-4089-b7ae-c92ed05009b8"},"vehicle_type_id":"4","last_reported":1743966439,"current_range_meters":12400,"station_id":"ce4bh0p2rcd13ifvqd70","pricing_plan_id":"cebpf4jnsgd1na2vs0mg"},{"bike_id":"20509d29-d810-41f3-bd2c-9598aef8961b","system_id":"levelo_inurba_marseille","lat":43.28722,"lon":5.36098,"is_reserved":false,"is_disabled":false,"rental_uris":{"android":"levelo://app?vid=20509d29-d810-41f3-bd2c-9598aef8961b","ios":"levelo://app?vid=20509d29-d810-41f3-bd2c-9598aef8961b"},"vehicle_type_id":"4","last_reported":1743966439,"current_range_meters":12800,"station_id":"cki0cbj6b192h4jlfktg","pricing_plan_id":"cebpf4jnsgd1na2vs0mg"},{"bike_id":"f9f5839a-d6b9-4856-91eb-bf97338d2d64","system_id":"levelo_inurba_marseille","lat":43.23962,"lon":5.3665,"is_reserved":false,"is_disabled":false,"rental_uris":{"android":"levelo://app?vid=f9f5839a-d6b9-4856-91eb-bf97338d2d64","ios":"levelo://app?vid=f9f5839a-d6b9-4856-91eb-bf97338d2d64"},"vehicle_type_id":"4","last_reported":1743966439,"current_range_meters":12800,"station_id":"ce4bhi12rcd13ifvqfp0","pricing_plan_id":"cebpf4jnsgd1na2vs0mg"},{"bike_id":"d6c3d7f4-760c-422c-8667-25e15a7934b3","system_id":"levelo_inurba_marseille","lat":43.30792,"lon":5.37374,"is_reserved":false,"is_disabled":false,"rental_uris":{"android":"levelo://app?vid=d6c3d7f4-760c-422c-8667-25e15a7934b3","ios":"levelo://app?vid=d6c3d7f4-760c-422c-8667-25e15a7934b3"},"vehicle_type_id":"4","last_reported":1743966439,"current_range_meters":12800,"station_id":"","pricing_plan_id":"cebpf4jnsgd1na2vs0mg"},{"bike_id":"34f62bea-f2eb-412e-8f55-bf9283ccb2a7","system_id":"levelo_inurba_marseille","lat":43.28358,"lon":5.38111,"is_reserved":false,"is_disabled":false,"rental_uris":{"android":"levelo://app?vid=34f62bea-f2eb-412e-8f55-bf9283ccb2a7","ios":"levelo://app?vid=34f62bea-f2eb-412e-8f55-bf9283ccb2a7"},"vehicle_type_id":"4","last_reported":1743966439,"current_range_meters":12800,"station_id":"ce4bh412rcd13ifvqdr0","pricing_plan_id":"cebpf4jnsgd1na2vs0mg"},{"bike_id":"51f5e7bb-7a4b-4029-a001-ac3e8ae17160","system_id":"levelo_inurba_marseille","lat":43.29031,"lon":5.38641,"is_reserved":false,"is_disabled":false,"rental_uris":{"android":"levelo://app?vid=51f5e7bb-7a4b-4029-a001-ac3e8ae17160","ios":"levelo://app?vid=51f5e7bb-7a4b-4029-a001-ac3e8ae17160"},"vehicle_type_id":"4","last_reported":1743966439,"current_range_meters":12800,"station_id":"ce4bh4p2rcd13ifvqe0g","pricing_plan_id":"cebpf4jnsgd1na2vs0mg"},{"bike_id":"a959694d-18ce-4d80-917f-23c91ed81065","system_id":"levelo_inurba_marseille","lat":43.29908,"lon":5.43674,"is_reserved":false,"is_disabled":false,"rental_uris":{"android":"levelo://app?vid=a959694d-18ce-4d80-917f-23c91ed81065","ios":"levelo://app?vid=a959694d-18ce-4d80-917f-23c91ed81065"},"vehicle_type_id":"4","last_reported":1743966439,"current_range_meters":12800,"station_id":"ce4bhpp2rcd13ifvqhfg","pricing_plan_id":"cebpf4jnsgd1na2vs0mg"},{"bike_id":"a1913776-e0d9-47a2-9906-ec745965407d","system_id":"levelo_inurba_marseille","lat":43.31284,"lon":5.40169,"is_reserved":false,"is_disabled":false,"rental_uris":{"android":"levelo://app?vid=a1913776-e0d9-47a2-9906-ec745965407d","ios":"levelo://app?vid=a1913776-e0d9-47a2-9906-ec745965407d"},"vehicle_type_id":"4","last_reported":1743966439,"current_range_meters":12800,"station_id":"ce4bh092rcd13ifvqd30","pricing_plan_id":"cebpf4jnsgd1na2vs0mg"},{"bike_id":"86f6d02b-6bb5-4ccb-99f4-841700fe01af","system_id":"levelo_inurba_marseille","lat":43.26941,"lon":5.40252,"is_reserved":false,"is_disabled":false,"rental_uris":{"android":"levelo://app?vid=86f6d02b-6bb5-4ccb-99f4-841700fe01af","ios":"levelo://app?vid=86f6d02b-6bb5-4ccb-99f4-841700fe01af"},