{"last_updated":1702354151,"ttl":30,"version":"2.2","data":{"bikes":[{"bike_id":"2dc481a0-f05c-45cb-a3e0-4735b1a71085","system_id":"levelo_inurba_marseille","lat":43.313391,"lon":5.36706,"is_reserved":false,"is_disabled":false,"rental_uris":{"android":"levelo://app?vid=2dc481a0-f05c-45cb-a3e0-4735b1a71085","ios":"levelo://app?vid=2dc481a0-f05c-45cb-a3e0-4735b1a71085"},"vehicle_type_id":"4","last_reported":1702354151,"current_range_meters":27200,"station_id":"ce4bgr92rcd13ifvqc6g","pricing_plan_id":"free"},{"bike_id":"5d80aaae-25c0-4855-8980-90f82337c0dd","system_id":"levelo_inurba_marseille","lat":43.314811,"lon":5.373103,"is_reserved":false,"is_disabled":false,"rental_uris":{"android":"levelo://app?vid=5d80aaae-25c0-4855-8980-90f82337c0dd","ios":"levelo://app?vid=5d80aaae-25c0-4855-8980-90f82337c0dd"},"vehicle_type_id":"4","last_reported":1702354151,"current_range_meters":27600,"station_id":"ce4bgt12rcd13ifvqcd0","pricing_plan_id":"free"},{"bike_id":"d2967d96-b6c4-4805-9df6-994b727ea616","system_id":"levelo_inurba_marseille","lat":43.314811,"lon":5.373104,"is_reserved":false,"is_disabled":false,"rental_uris":{"android":"levelo://app?vid=d2967d96-b6c4-4805-9df6-994b727ea616","ios":"levelo://app?vid=d2967d96-b6c4-4805-9df6-994b727ea616"},"vehicle_type_id":"4","last_reported":1702354151,"current_range_meters":31200,"station_id":"ce4bgt12rcd13ifvqcd0","pricing_plan_id":"free"},{"bike_id":"89fce6f2-e1a8-40e9-8e37-2dbc347a9d0a","system_id":"levelo_inurba_marseille","lat":43.314811,"lon":5.373103,"is_reserved":false,"is_disabled":false,"rental_uris":{"android":"levelo://app?vid=89fce6f2-e1a8-40e9-8e37-2dbc347a9d0a","ios":"levelo://app?vid=89fce6f2-e1a8-40e9-8e37-2dbc347a9d0a"},"vehicle_type_id":"4","last_reported":1702354151,"current_range_meters":31200,"station_id":"ce4bgt12rcd13ifvqcd0","pricing_plan_id":"free"},{"bike_id":"5320e606-46a8-4419-9079-b96c49b9c747","system_id":"levelo_inurba_marseille","lat":43.314811,"lon":5.373103,"is_reserved":false,"is_disabled":false,"rental_uris":{"android":"levelo://app?vid=5320e606-46a8-4419-9079-b96c49b9c747","ios":"levelo://app?vid=5320e606-46a8-4419-9079-b96c49b9c747"},"vehicle_type_id":"4","last_reported":1702354151,"current_range_meters":17200,"station_id":"ce4bgt12rcd13ifvqcd0","pricing_plan_id":"free"},{"bike_id":"698d4be8-7186-4289-a4bb-ff49f3d56e79","system_id":"levelo_inurba_marseille","lat":43.314811,"lon":5.373104,"is_reserved":false,"is_disabled":false,"rental_uris":{"android":"levelo://app?vid=698d4be8-7186-4289-a4bb-ff49f3d56e79","ios":"levelo://app?vid=698d4be8-7186-4289-a4bb-ff49f3d56e79"},"vehicle_type_id":"4","last_reported":1702354151,"current_range_meters":22400,"station_id":"ce4bgt12rcd13ifvqcd0","pricing_plan_id":"free"},{"bike_id":"5640eb82-1523-413d-8e58-1eee05e3e3d3","system_id":"levelo_inurba_marseille","lat":43.309039,"lon":5.371797,"is_reserved":false,"is_disabled":false,"rental_uris":{"android":"levelo://app?vid=5640eb82-1523-413d-8e58-1eee05e3e3d3","ios":"levelo://app?vid=5640eb82-1523-413d-8e58-1eee05e3e3d3"},"vehicle_type_id":"4","last_reported":1702354151,"current_range_meters":6800,"station_id":"ce4bguh2rcd13ifvqckg","pricing_plan_id":"free"},{"bike_id":"5e9914f7-6cbc-4a45-8b28-8f6555ab9ae2","system_id":"levelo_inurba_marseille","lat":43.309039,"lon":5.371797,"is_reserved":false,"is_disabled":false,"rental_uris":{"android":"levelo://app?vid=5e9914f7-6cbc-4a45-8b28-8f6555ab9ae2","ios":"levelo://app?vid=5e9914f7-6cbc-4a45-8b28-8f6555ab9ae2"},"vehicle_type_id":"4","last_reported":1702354151,"current_range_meters":31200,"station_id":"ce4bguh2rcd13ifvqckg","pricing_plan_id":"free"},{"bike_id":"f36debdb-6bea-4678-967a-886219dbe8b9","system_id":"levelo_inurba_marseille","lat":43.305368,"lon":5.367343,"is_reserved":false,"is_disabled":false,"rental_uris":{"android":"levelo://app?vid=f36debdb-6bea-4678-967a-886219dbe8b9","ios":"levelo://app?vid=f36debdb-6bea-4678-967a-886219dbe8b9"},"vehicle_type_id":"4","last_reported":1702354151,"current_range_meters":1200,"station_id":"ce4bgrp2rcd13ifvqc9g","pricing_plan_id":"free"},{"bike_id":"01793230-e62c-4c90-94bf-38c2f6dbb101","system_id":"levelo_inurba_marseille","lat":43.307945,"lon":5.376487,"is_reserved":false,"is_disabled":false,"rental_uris":{"android":"levelo://app?vid=01793230-e62c-4c90-94bf-38c2f6dbb101","ios":"levelo://app?vid=01793230-e62c-4c90-94bf-38c2f6dbb101"},"vehicle_type_id":"4","last_reported":1702354151,"current_range_meters":28000,"station_id":"ce4bgv92rcd13ifvqcq0","pricing_plan_id":"free"},{"bike_id":"cd56c36b-c46a-4c79-8849-f952373aa79b","system_id":"levelo_inurba_marseille","lat":43.307945,"lon":5.376487,"is_reserved":false,"is_disabled":false,"rental_uris":{"android":"levelo://app?vid=cd56c36b-c46a-4c79-8849-f952373aa79b","ios":"levelo://app?vid=cd56c36b-c46a-4c79-8849-f952373aa79b"},"vehicle_type_id":"4","last_reported":1702354151,"current_range_meters":30000,"station_id":"ce4bgv92rcd13ifvqcq0","pricing_plan_id":"free"},{"bike_id":"436f3dca-d029-4bd5-bce9-68363b4f344f","system_id":"levelo_inurba_marseille","lat":43.307945,"lon":5.376487,"is_reserved":false,"is_disabled":false,"rental_uris":{"android":"levelo://app?vid=436f3dca-d029-4bd5-bce9-68363b4f344f","ios":"levelo://app?vid=436f3dca-d029-4bd5-bce9-68363b4f344f"},"vehicle_type_id":"4","last_reported":1702354151,"current_range_meters":22400,"station_id":"ce4bgv92rcd13ifvqcq0","pricing_plan_id":"free"},{"bike_id":"1578c52f-7dac-4029-bce5-53e31d386aa5","system_id":"levelo_inurba_marseille","lat":43.317075,"lon":5.377367,"is_reserved":false,"is_disabled":false,"rental_uris":{"android":"levelo://app?vid=1578c52f-7dac-4029-bce5-53e31d386aa5","ios":"levelo://app?vid=1578c52f-7dac-4029-bce5-53e31d386aa5"},"vehicle_type_id":"4","last_reported":1702354151,"current_range_meters":30000,"station_id":"ce4bgth2rcd13ifvqch0","pricing_plan_id":"free"},{"bike_id":"a9e8efa3-e30a-4e32-aa72-dbca40cebdb6","system_id":"levelo_inurba_marseille","lat":43.317075,"lon":5.377367,"is_reserved":false,"is_disabled":false,"rental_uris":{"android":"levelo://app?vid=a9e8efa3-e30a-4e32-aa72-dbca40cebdb6","ios":"levelo://app?vid=a9e8efa3-e30a-4e32-aa72-dbca40cebdb6"},"vehicle_type_id":"4","last_reported":1702354151,"current_range_meters":31200,"station_id":"ce4bgth2rcd13ifvqch0","pricing_plan_id":"free"},{"bike_id":"fb92bdac-d369-4936-af8c-ffd52de7386f","system_id":"levelo_inurba_marseille","lat":43.30957,"lon":5.37981,"is_reserved":false,"is_disabled":false,"rental_uris":{"android":"levelo://app?vid=fb92bdac-d369-4936-af8c-ffd52de7386f","ios":"levelo://app?vid=fb92bdac-d369-4936-af8c-ffd52de7386f"},"vehicle_type_id":"4","last_reported":1702354151,"current_range_meters":6800,"station_id":"","pricing_plan_id":"free"},{"bike_id":"22a760fc-4574-4087-a45a-d833bcba908a","system_id":"levelo_inurba_marseille","lat":43.302877,"lon":5.364792,"is_reserved":false,"is_disabled":false,"rental_uris":{"android":"levelo://app?vid=22a760fc-4574-4087-a45a-d833bcba908a","ios":"levelo://app?vid=22a760fc-4574-4087-a45a-d833bcba908a"},"vehicle_type_id":"4","last_reported":1702354151,"current_range_meters":21600,"station_id":"","pricing_plan_id":"free"},{"bike_id":"d6df69a3-8c71-4ccf-9932-7848bfaf8a41","system_id":"levelo_inurba_marseille","lat":43.315348,"lon":5.380316,"is_reserved":false,"is_disabled":false,"rental_uris":{"android":"levelo://app?vid=d6df69a3-8c71-4ccf-9932-7848bfaf8a41","ios":"levelo://app?vid=d6df69a3-8c71-4ccf-9932-7848bfaf8a41"},"vehicle_type_id":"4","last_reported":1702354151,"current_range_meters":8800,"station_id":"ce4bhsp2rcd13ifvqi50","pricing_plan_id":"free"},{"bike_id":"424a1dc8-1de9-4077-a305-b6270f6678f5","system_id":"levelo_inurba_marseille","lat":43.31532,"lon":5.38039,"is_reserved":false,"is_disabled":false,"rental_uris":{"android":"levelo://app?vid=424a1dc8-1de9-4077-a305-b6270f6678f5","ios":"levelo://app?vid=424a1dc8-1de9-4077-a305-b6270f6678f5"},"vehicle_type_id":"4","last_reported":1702354151,"current_range_meters":28400,"station_id":"ce4bhsp2rcd13ifvqi50","pricing_plan_id":"free"},{"bike_id":"208fc7eb-dbf8-418f-8b85-88953dc790d3","system_id":"levelo_inurba_marseille","lat":43.30183,"lon":5.36621,"is_reserved":false,"is_disabled":false,"rental_uris":{"android":"levelo://app?vid=208fc7eb-dbf8-418f-8b85-88953dc790d3","ios":"levelo://app?vid=208fc7eb-dbf8-418f-8b85-88953dc790d3"},"vehicle_type_id":"4","last_reported":1702354151,"current_range_meters":17600,"station_id":"ce4bgrh2rcd13ifvqc8g","pricing_plan_id":"free"},{"bike_id":"b2b5dcc9-6699-402a-bccd-ca4069e41154","system_id":"levelo_inurba_marseille","lat":43.304606,"lon":5.379026,"is_reserved":false,"is_disabled":false,"rental_uris":{"android":"levelo://app?vid=b2b5dcc9-6699-402a-bccd-ca4069e41154","ios":"levelo://app?vid=b2b5dcc9-6699-402a-bccd-ca4069e41154"},"vehicle_type_id":"4","last_reported":1702354151,"current_range_meters":17600,"station_id":"ce4bgup2rcd13ifvqcn0","pricing_plan_id":"free"},{"bike_id":"872b2ecb-bc0b-43b8-ae42-a0174018d0d8","system_id":"levelo_inurba_marseille","lat":43.324771,"lon":5.36557,"is_reserved":false,"is_disabled":false,"rental_uris":{"android":"levelo://app?vid=872b2ecb-bc0b-43b8-ae42-a0174018d0d8","ios":"levelo://app?vid=872b2ecb-bc0b-43b8-ae42-a0174018d0d8"},"vehicle_type_id":"4","last_reported":1702354151,"current_range_meters":10400,"station_id":"ce4bhs12rcd13ifvqhvg","pricing_plan_id":"free"},{"bike_id":"0e5c40e8-ebed-4931-83fe-85dba49e1364","system_id":"levelo_inurba_marseille","lat":43.302784,"lon":5.377158,"is_reserved":false,"is_disabled":false,"rental_uris":{"android":"levelo://app?vid=0e5c40e8-ebed-4931-83fe-85dba49e1364","ios":"levelo://app?vid=0e5c40e8-ebed-4931-83fe-85dba49e1364"},"vehicle_type_id":"4","last_reported":1702354151,"current_range_meters":20400,"station_id":"ce4bguh2rcd13ifvqcj0","pricing_plan_id":"free"},{"bike_id":"5b8abfcc-9c48-417f-a497-8e776482d0b8","system_id":"levelo_inurba_marseille","lat":43.301429,"lon":5.37413,"is_reserved":false,"is_disabled":false,"rental_uris":{"android":"levelo://app?vid=5b8abfcc-9c48-417f-a497-8e776482d0b8","ios":"levelo://app?vid=5b8abfcc-9c48-417f-a497-8e776482d0b8"},"vehicle_type_id":"4","last_reported":1702354151,"current_range_meters":19200,"station_id":"ce4bgs92rcd13ifvqcc0","pricing_plan_id":"free"},{"bike_id":"b0c22b0b-d98d-4f75-a897-bc0e1a3477b2","system_id":"levelo_inurba_marseille","lat":43.301429,"lon":5.37413,"is_reserved":false,"is_disabled":false,"rental_uris":{"android":"levelo://app?vid=b0c22b0b-d98d-4f75-a897-bc0e1a3477b2","ios":"levelo://app?vid=b0c22b0b-d98d-4f75-a897-bc0e1a3477b2"},"vehicle_type_id":"4","last_reported":1702354151,"current_range_meters":26400,"station_id":"ce4bgs92rcd13ifvqcc0","pricing_plan_id":"free"},{"bike_id":"e6219f3c-4588-456b-9afb-ba8f00b2488c","system_id":"levelo_inurba_marseille","lat":43.31372,"lon":5.384898,"is_reserved":false,"is_disabled":false,"rental_uris":{"android":"levelo://app?vid=e6219f3c-4588-456b-9afb-ba8f00b2488c","ios":"levelo://app?vid=e6219f3c-4588-456b-9afb-ba8f00b2488c"},"vehicle_type_id":"4","last_reported":1702354151,"current_range_meters":31200,"station_id":"ce4bgt92rcd13ifvqcf0","pricing_plan_id":"free"},{"bike_id":"f5219ecb-83d9-414f-808f-547b45a0530a","system_id":"levelo_inurba_marseille","lat":43.31356,"lon":5.38493,"is_reserved":false,"is_disabled":false,"rental_uris":{"android":"levelo://app?vid=f5219ecb-83d9-414f-808f-547b45a0530a","ios":"levelo://app?vid=f5219ecb-83d9-414f-808f-547b45a0530a"},"vehicle_type_id":"4","last_reported":1702354151,"current_range_meters":14000,"station_id":"ce4bgt92rcd13ifvqcf0","pricing_plan_id":"free"},{"bike_id":"64e486c9-9031-473b-827b-bc4a33617979","system_id":"levelo_inurba_marseille","lat":43.313643,"lon":5.384933,"is_reserved":false,"is_disabled":false,"rental_uris":{"android":"levelo://app?vid=64e486c9-9031-473b-827b-bc4a33617979","ios":"levelo://app?vid=64e486c9-9031-473b-827b-bc4a33617979"},"vehicle_type_id":"4","last_reported":1702354151,"current_range_meters":20800,"station_id":"ce4bgt92rcd13ifvqcf0","pricing_plan_id":"free"},{"bike_id":"d047cbcd-40e8-4493-9700-a648cf295fe1","system_id":"levelo_inurba_marseille","lat":43.31364,"lon":5.38499,"is_reserved":false,"is_disabled":false,"rental_uris":{"android":"levelo://app?vid=d047cbcd-40e8-4493-9700-a648cf295fe1","ios":"levelo://app?vid=d047cbcd-40e8-4493-9700-a648cf295fe1"},"vehicle_type_id":"4","last_reported":1702354151,"current_range_meters":24000,"station_id":"ce4bgt92rcd13ifvqcf0","pricing_plan_id":"free"},{"bike_id":"66826c8d-0423-4a0e-9b40-4aff2db8ff7d","system_id":"levelo_inurba_marseille","lat":43.311722,"lon":5.387247,"is_reserved":false,"is_disabled":false,"rental_uris":{"android":"levelo://app?vid=66826c8d-0423-4a0e-9b40-4aff2db8ff7d","ios":"levelo://app?vid=66826c8d-0423-4a0e-9b40-4aff2db8ff7d"},"vehicle_type_id":"4","last_reported":1702354151,"current_range_meters":26400,"station_id":"ce4bgv12rcd13ifvqcp0","pricing_plan_id":"free"},{"bike_id":"0a67b04f-c447-4231-bd95-7c62d8f056d4","system_id":"levelo_inurba_marseille","lat":43.311722,"lon":5.387247,"is_reserved":false,"is_disabled":false,"rental_uris":{"android":"levelo://app?vid=0a67b04f-c447-4231-bd95-7c62d8f056d4","ios":"levelo://app?vid=0a67b04f-c447-4231-bd95-7c62d8f056d4"},"vehicle_type_id":"4","last_reported":1702354151,"current_range_meters":28400,"station_id":"ce4bgv12rcd13ifvqcp0","pricing_plan_id":"free"},{"bike_id":"39ee9a89-500c-428a-984f-632f4eb66c7b","system_id":"levelo_inurba_marseille","lat":43.328285,"lon":5.366748,"is_reserved":false,"is_disabled":false,"rental_uris":{"android":"levelo://app?vid=39ee9a89-500c-428a-984f-632f4eb66c7b","ios":"levelo://app?vid=39ee9a89-500c-428a-984f-632f4eb66c7b"},"vehicle_type_id":"4","last_reported":1702354151,"current_range_meters":18000,"station_id":"ce4bhs92rcd13ifvqi0g","pricing_plan_id":"free"},{"bike_id":"a5589e38-f15a-46fe-9b37-27cf16ba9de2","system_id":"levelo_inurba_marseille","lat":43.316412,"lon":5.389029,"is_reserved":false,"is_disabled":false,"rental_uris":{"android":"levelo://app?vid=a5589e38-f15a-46fe-9b37-27cf16ba9de2","ios":"levelo://app?vid=a5589e38-f15a-46fe-9b37-27cf16ba9de2"},"vehicle_type_id":"4","last_reported":1702354151,"current_range_meters":23600,"station_id":"","pricing_plan_id":"free"},{"bike_id":"fb21c64d-dcc4-4629-a4aa-de95fd39a6bd","system_id":"levelo_inurba_marseille","lat":43.299028,"lon":5.381509,"is_reserved":false,"is_disabled":false,"rental_uris":{"android":"levelo://app?vid=fb21c64d-dcc4-4629-a4aa-de95fd39a6bd","ios":"levelo://app?vid=fb21c64d-dcc4-4629-a4aa-de95fd39a6bd"},"vehicle_type_id":"4","last_reported":1702354151,"current_range_meters":28000,"station_id":"ce4bgj12rcd13ifvqbc0","pricing_plan_id":"free"},{"bike_id":"c66d7ad2-1cb7-48cd-b397-09f0c1ed512f","system_id":"levelo_inurba_marseille","lat":43.317557,"lon":5.390173,"is_reserved":false,"is_disabled":false,"rental_uris":{"android":"levelo://app?vid=c66d7ad2-1cb7-48cd-b397-09f0c1ed512f","ios":"levelo://app?vid=c66d7ad2-1cb7-48cd-b397-09f0c1ed512f"},"vehicle_type_id":"4","last_reported":1702354151,"current_range_meters":29600,"station_id":"ce4bhqp2rcd13ifvqhng","pricing_plan_id":"free"},{"bike_id":"34dc0dc5-c3fc-43b0-a388-71797eb78856","system_id":"levelo_inurba_marseille","lat":43.317557,"lon":5.390173,"is_reserved":false,"is_disabled":false,"rental_uris":{"android":"levelo://app?vid=34dc0dc5-c3fc-43b0-a388-71797eb78856","ios":"levelo://app?vid=34dc0dc5-c3fc-43b0-a388-71797eb78856"},"vehicle_type_id":"4","last_reported":1702354151,"current_range_meters":27200,"station_id":"ce4bhqp2rcd13ifvqhng","pricing_plan_id":"free"},{"bike_id":"823bb91b-762a-4ec2-a01a-ad3bc229cdbd","system_id":"levelo_inurba_marseille","lat":43.317557,"lon":5.390173,"is_reserved":false,"is_disabled":false,"rental_uris":{"android":"levelo://app?vid=823bb91b-762a-4ec2-a01a-ad3bc229cdbd","ios":"levelo://app?vid=823bb91b-762a-4ec2-a01a-ad3bc229cdbd"},"vehicle_type_id":"4","last_reported":1702354151,"current_range_meters":4000,"station_id":"ce4bhqp2rcd13ifvqhng","pricing_plan_id":"free"},{"bike_id":"20d3374e-7777-4a3a-aac3-6bcbb3f05466","system_id":"levelo_inurba_marseille","lat":43.317557,"lon":5.390173,"is_reserved":false,"is_disabled":false,"rental_uris":{"android":"levelo://app?vid=20d3374e-7777-4a3a-aac3-6bcbb3f05466","ios":"levelo://app?vid=20d3374e-7777-4a3a-aac3-6bcbb3f05466"},"vehicle_type_id":"4","last_reported":1702354151,"current_range_meters":29200,"station_id":"ce4bhqp2rcd13ifvqhng","pricing_plan_id":"free"},{"bike_id":"8d29c8b9-4f5e-4637-beaa-0cc6b2fd2a9f","system_id":"levelo_inurba_marseille","lat":43.317557,"lon":5.390173,"is_reserved":false,"is_disabled":false,"rental_uris":{"android":"levelo://app?vid=8d29c8b9-4f5e-4637-beaa-0cc6b2fd2a9f","ios":"levelo://app?vid=8d29c8b9-4f5e-4637-beaa-0cc6b2fd2a9f"},"vehicle_type_id":"4","last_reported":1702354151,"current_range_meters":28800,"station_id":"ce4bhqp2rcd13ifvqhng","pricing_plan_id":"free"},{"bike_id":"e85fc1b9-efea-4c89-b39a-10bbbb0e80b3","system_id":"levelo_inurba_marseille","lat":43.295748,"lon":5.37522,"is_reserved":false,"is_disabled":false,"rental_uris":{"android":"levelo://app?vid=e85fc1b9-efea-4c89-b39a-10bbbb0e80b3","ios":"levelo://app?vid=e85fc1b9-efea-4c89-b39a-10bbbb0e80b3"},"vehicle_type_id":"4","last_reported":1702354151,"current_range_meters":20000,"station_id":"ce4bgh92rcd13ifvqb50","pricing_plan_id":"free"},{"bike_id":"61a9d821-211d-4cd3-b66f-6a9b3fadd2d2","system_id":"levelo_inurba_marseille","lat":43.330679,"lon":5.370854,"is_reserved":false,"is_disabled":false,"rental_uris":{"android":"levelo://app?vid=61a9d821-211d-4cd3-b66f-6a9b3fadd2d2","ios":"levelo://app?vid=61a9d821-211d-4cd3-b66f-6a9b3fadd2d2"},"vehicle_type_id":"4","last_reported":1702354151,"current_range_meters":24000,"station_id":"","pricing_plan_id":"free"},{"bike_id":"52d8b7ba-7505-413c-b898-efb75f14c13c","system_id":"levelo_inurba_marseille","lat":43.33072,"lon":5.37124,"is_reserved":false,"is_disabled":false,"rental_uris":{"android":"levelo://app?vid=52d8b7ba-7505-413c-b898-efb75f14c13c","ios":"levelo://app?vid=52d8b7ba-7505-413c-b898-efb75f14c13c"},"vehicle_type_id":"4","last_reported":1702354151,"current_range_meters":19600,"station_id":"","pricing_plan_id":"free"},{"bike_id":"77a6c46d-d898-4e4f-8846-efa91689c7f0","system_id":"levelo_inurba_marseille","lat":43.295503,"lon":5.379268,"is_reserved":false,"is_disabled":false,"rental_uris":{"android":"levelo://app?vid=77a6c46d-d898-4e4f-8846-efa91689c7f0","ios":"levelo://app?vid=77a6c46d-d898-4e4f-8846-efa91689c7f0"},"vehicle_type_id":"4","last_reported":1702354151,"current_range_meters":0,"station_id":"","pricing_plan_id":"free"},{"bike_id":"e914990b-de8c-4998-aebe-f8f4e0f31134","system_id":"levelo_inurba_marseille","lat":43.305994,"lon":5.393687,"is_reserved":false,"is_disabled":false,"rental_uris":{"android":"levelo://app?vid=e914990b-de8c-4998-aebe-f8f4e0f31134","ios":"levelo://app?vid=e914990b-de8c-4998-aebe-f8f4e0f31134"},"vehicle_type_id":"4","last_reported":1702354151,"current_range_meters":27200,"station_id":"ce4bh0p2rcd13ifvqd80","pricing_plan_id":"free"},{"bike_id":"1e00c90c-b309-4747-b79a-2dbc9485b8df","system_id":"levelo_inurba_marseille","lat":43.303002,"lon":5.392142,"is_reserved":false,"is_disabled":false,"rental_uris":{"android":"levelo://app?vid=1e00c90c-b309-4747-b79a-2dbc9485b8df","ios":"levelo://app?vid=1e00c90c-b309-4747-b79a-2dbc9485b8df"},"vehicle_type_id":"4","last_reported":1702354151,"current_range_meters":24400,"station_id":"ce4bgkh2rcd13ifvqbk0","pricing_plan_id":"free"},{"bike_id":"20ab2028-804d-4f68-b9b4-a08826ea444a","system_id":"levelo_inurba_marseille","lat":43.292311,"lon":5.360731,"is_reserved":false,"is_disabled":false,"rental_uris":{"android":"levelo://app?vid=20ab2028-804d-4f68-b9b4-a08826ea444a","ios":"levelo://app?vid=20ab2028-804d-4f68-b9b4-a08826ea444a"},"vehicle_type_id":"4","last_reported":1702354151,"current_range_meters":21600,"station_id":"ce4bhbh2rcd13ifvqeqg","pricing_plan_id":"free"},{"bike_id":"79f36a7a-c67e-49d9-8621-9a5e25641ac8","system_id":"levelo_inurba_marseille","lat":43.292311,"lon":5.360731,"is_reserved":false,"is_disabled":false,"rental_uris":{"android":"levelo://app?vid=79f36a7a-c67e-49d9-8621-9a5e25641ac8","ios":"levelo://app?vid=79f36a7a-c67e-49d9-8621-9a5e25641ac8"},"vehicle_type_id":"4","last_reported":1702354151,"current_range_meters":24400,"station_id":"ce4bhbh2rcd13ifvqeqg","pricing_plan_id":"free"},{"bike_id":"ca4e135c-886c-4148-ae09-abe9471e060c","system_id":"levelo_inurba_marseille","lat":43.292311,"lon":5.360731,"is_reserved":false,"is_disabled":false,"rental_uris":{"android":"levelo://app?vid=ca4e135c-886c-4148-ae09-abe9471e060c","ios":"levelo://app?vid=ca4e135c-886c-4148-ae09-abe9471e060c"},"vehicle_type_id":"4","last_reported":1702354151,"current_range_meters":29600,"station_id":"ce4bhbh2rcd13ifvqeqg","pricing_plan_id":"free"},{"bike_id":"bcb5166d-100b-4b8d-a44e-9d5677a3a433","system_id":"levelo_inurba_marseille","lat":43.291671,"lon":5.371575,"is_reserved":false,"is_disabled":false,"rental_uris":{"android":"levelo://app?vid=bcb5166d-100b-4b8d-a44e-9d5677a3a433","ios":"levelo://app?vid=bcb5166d-100b-4b8d-a44e-9d5677a3a433"},"vehicle_type_id":"4","last_reported":1702354151,"current_range_meters":26400,"station_id":"ce4bha92rcd13ifvqeh0","pricing_plan_id":"free"},{"bike_id":"e0faa393-c92d-4b64-8e12-1c27f1b99ac3","system_id":"levelo_inurba_marseille","lat":43.298685,"lon":5.389091,"is_reserved":false,"is_disabled":false,"rental_uris":{"android":"levelo://app?vid=e0faa393-c92d-4b64-8e12-1c27f1b99ac3","ios":"levelo://app?vid=e0faa393-c92d-4b64-8e12-1c27f1b99ac3"},"vehicle_type_id":"4","last_reported":1702354151,"current_range_meters":28000,"station_id":"","pricing_plan_id":"free"},{"bike_id":"f73027e9-4719-42ee-8723-e3498a5f1a85","system_id":"levelo_inurba_marseille","lat":43.296647,"lon":5.386319,"is_reserved":false,"is_disabled":false,"rental_uris":{"android":"levelo://app?vid=f73027e9-4719-42ee-8723-e3498a5f1a85","ios":"levelo://app?vid=f73027e9-4719-42ee-8723-e3498a5f1a85"},"vehicle_type_id":"4","last_reported":1702354151,"current_range_meters":20000,"station_id":"","pricing_plan_id":"free"},{"bike_id":"85b278e9-66bb-4dbc-a71e-339a9e5967ff","system_id":"levelo_inurba_marseille","lat":43.29197,"lon":5.35804,"is_reserved":false,"is_disabled":false,"rental_uris":{"android":"levelo://app?vid=85b278e9-66bb-4dbc-a71e-339a9e5967ff","ios":"levelo://app?vid=85b278e9-66bb-4dbc-a71e-339a9e5967ff"},"vehicle_type_id":"4","last_reported":1702354151,"current_range_meters":25200,"station_id":"ce4bhb12rcd13ifvqel0","pricing_plan_id":"free"},{"bike_id":"f71c9aef-bc48-4fa3-aabe-f8ce93331081","system_id":"levelo_inurba_marseille","lat":43.309047,"lon":5.396551,"is_reserved":false,"is_disabled":false,"rental_uris":{"android":"levelo://app?vid=f71c9aef-bc48-4fa3-aabe-f8ce93331081","ios":"levelo://app?vid=f71c9aef-bc48-4fa3-aabe-f8ce93331081"},"vehicle_type_id":"4","last_reported":1702354151,"current_range_meters":30800,"station_id":"ce4bh012rcd13ifvqcv0","pricing_plan_id":"free"},{"bike_id":"aaa0e085-86be-4e5d-bc46-3265a9a48be6","system_id":"levelo_inurba_marseille","lat":43.313291,"lon":5.396838,"is_reserved":false,"is_disabled":false,"rental_uris":{"android":"levelo://app?vid=aaa0e085-86be-4e5d-bc46-3265a9a48be6","ios":"levelo://app?vid=aaa0e085-86be-4e5d-bc46-3265a9a48be6"},"vehicle_type_id":"4","last_reported":1702354151,"current_range_meters":13200,"station_id":"ce4bgvp2rcd13ifvqcu0","pricing_plan_id":"free"},{"bike_id":"c58fb81b-b58a-4c1c-8905-ff0b5c194be1","system_id":"levelo_inurba_marseille","lat":43.309038,"lon":5.396546,"is_reserved":false,"is_disabled":false,"rental_uris":{"android":"levelo://app?vid=c58fb81b-b58a-4c1c-8905-ff0b5c194be1","ios":"levelo://app?vid=c58fb81b-b58a-4c1c-8905-ff0b5c194be1"},"vehicle_type_id":"4","last_reported":1702354151,"current_range_meters":31200,"station_id":"ce4bh012rcd13ifvqcv0","pricing_plan_id":"free"},{"bike_id":"8a9ebd5e-84a5-42a2-8caf-d31d53bb6f24","system_id":"levelo_inurba_marseille","lat":43.309038,"lon":5.396546,"is_reserved":false,"is_disabled":false,"rental_uris":{"android":"levelo://app?vid=8a9ebd5e-84a5-42a2-8caf-d31d53bb6f24","ios":"levelo://app?vid=8a9ebd5e-84a5-42a2-8caf-d31d53bb6f24"},"vehicle_type_id":"4","last_reported":1702354151,"current_range_meters":20000,"station_id":"ce4bh012rcd13ifvqcv0","pricing_plan_id":"free"},{"bike_id":"a1f74885-a7d3-41ca-9106-01aad1c6cac8","system_id":"levelo_inurba_marseille","lat":43.309047,"lon":5.396551,"is_reserved":false,"is_disabled":false,"rental_uris":{"android":"levelo://app?vid=a1f74885-a7d3-41ca-9106-01aad1c6cac8","ios":"levelo://app?vid=a1f74885-a7d3-41ca-9106-01aad1c6cac8"},"vehicle_type_id":"4","last_reported":1702354151,"current_range_meters":24400,"station_id":"ce4bh012rcd13ifvqcv0","pricing_plan_id":"free"},{"bike_id":"517c42ea-c77d-4036-adbe-a1bb83a96400","system_id":"levelo_inurba_marseille","lat":43.313291,"lon":5.396838,"is_reserved":false,"is_disabled":false,"rental_uris":{"android":"levelo://app?vid=517c42ea-c77d-4036-adbe-a1bb83a96400","ios":"levelo://app?vid=517c42ea-c77d-4036-adbe-a1bb83a96400"},"vehicle_type_id":"4","last_reported":1702354151,"current_range_meters":11600,"station_id":"ce4bgvp2rcd13ifvqcu0","pricing_plan_id":"free"},{"bike_id":"236e90fe-0390-4322-aa62-124d371d9448","system_id":"levelo_inurba_marseille","lat":43.313291,"lon":5.396838,"is_reserved":false,"is_disabled":false,"rental_uris":{"android":"levelo://app?vid=236e90fe-0390-4322-aa62-124d371d9448","ios":"levelo://app?vid=236e90fe-0390-4322-aa62-124d371d9448"},"vehicle_type_id":"4","last_reported":1702354151,"current_range_meters":31200,"station_id":"ce4bgvp2rcd13ifvqcu0","pricing_plan_id":"free"},{"bike_id":"0c5243b5-d172-4750-813d-51d42e401efa","system_id":"levelo_inurba_marseille","lat":43.313291,"lon":5.396838,"is_reserved":false,"is_disabled":false,"rental_uris":{"android":"levelo://app?vid=0c5243b5-d172-4750-813d-51d42e401efa","ios":"levelo://app?vid=0c5243b5-d172-4750-813d-51d42e401efa"},"vehicle_type_id":"4","last_reported":1702354151,"current_range_meters":14400,"station_id":"ce4bgvp2rcd13ifvqcu0","pricing_plan_id":"free"},{"bike_id":"d0334272-ebb2-490e-8523-03b5804feaeb","system_id":"levelo_inurba_marseille","lat":43.313291,"lon":5.396838,"is_reserved":false,"is_disabled":false,"rental_uris":{"android":"levelo://app?vid=d0334272-ebb2-490e-8523-03b5804feaeb","ios":"levelo://app?vid=d0334272-ebb2-490e-8523-03b5804feaeb"},"vehicle_type_id":"4","last_reported":1702354151,"current_range_meters":20800,"station_id":"ce4bgvp2rcd13ifvqcu0","pricing_plan_id":"free"},{"bike_id":"f3975721-0e9e-4040-85c4-e9fc444094bb","system_id":"levelo_inurba_marseille","lat":43.313291,"lon":5.396838,"is_reserved":false,"is_disabled":false,"rental_uris":{"android":"levelo://app?vid=f3975721-0e9e-4040-85c4-e9fc444094bb","ios":"levelo://app?vid=f3975721-0e9e-4040-85c4-e9fc444094bb"},"vehicle_type_id":"4","last_reported":1702354151,"current_range_meters":31200,"station_id":"ce4bgvp2rcd13ifvqcu0","pricing_plan_id":"free"},{"bike_id":"82275367-a30e-4b81-9e77-f6cbcaf1c7ff","system_id":"levelo_inurba_marseille","lat":43.290779,"lon":5.371482,"is_reserved":false,"is_disabled":false,"rental_uris":{"android":"levelo://app?vid=82275367-a30e-4b81-9e77-f6cbcaf1c7ff","ios":"levelo://app?vid=82275367-a30e-4b81-9e77-f6cbcaf1c7ff"},"vehicle_type_id":"4","last_reported":1702354151,"current_range_meters":29600,"station_id":"ce4bh5p2rcd13ifvqe4g","pricing_plan_id":"free"},{"bike_id":"cced7313-7677-4487-bbf4-cde5e079e57d","system_id":"levelo_inurba_marseille","lat":43.290631,"lon":5.359244,"is_reserved":false,"is_disabled":false,"rental_uris":{"android":"levelo://app?vid=cced7313-7677-4487-bbf4-cde5e079e57d","ios":"levelo://app?vid=cced7313-7677-4487-bbf4-cde5e079e57d"},"vehicle_type_id":"4","last_reported":1702354151,"current_range_meters":24800,"station_id":"ce4bha92rcd13ifvqeg0","pricing_plan_id":"free"},{"bike_id":"9df2f4f5-a6f9-488d-99bb-defbb0944b1e","system_id":"levelo_inurba_marseille","lat":43.290624,"lon":5.359245,"is_reserved":false,"is_disabled":false,"rental_uris":{"android":"levelo://app?vid=9df2f4f5-a6f9-488d-99bb-defbb0944b1e","ios":"levelo://app?vid=9df2f4f5-a6f9-488d-99bb-defbb0944b1e"},"vehicle_type_id":"4","last_reported":1702354151,"current_range_meters":28000,"station_id":"ce4bha92rcd13ifvqeg0","pricing_plan_id":"free"},{"bike_id":"944348fd-bc6d-429c-b66d-3749dc3a4009","system_id":"levelo_inurba_marseille","lat":43.290631,"lon":5.359244,"is_reserved":false,"is_disabled":false,"rental_uris":{"android":"levelo://app?vid=944348fd-bc6d-429c-b66d-3749dc3a4009","ios":"levelo://app?vid=944348fd-bc6d-429c-b66d-3749dc3a4009"},"vehicle_type_id":"4","last_reported":1702354151,"current_range_meters":27200,"station_id":"ce4bha92rcd13ifvqeg0","pricing_plan_id":"free"},{"bike_id":"5f6bc1ac-6d22-48ef-a98d-105e6e49fb16","system_id":"levelo_inurba_marseille","lat":43.29044,"lon":5.37588,"is_reserved":false,"is_disabled":false,"rental_uris":{"android":"levelo://app?vid=5f6bc1ac-6d22-48ef-a98d-105e6e49fb16","ios":"levelo://app?vid=5f6bc1ac-6d22-48ef-a98d-105e6e49fb16"},"vehicle_type_id":"4","last_reported":1702354151,"current_range_meters":27600,"station_id":"","pricing_plan_id":"free"},{"bike_id":"de1b65e4-37d7-42ff-aac6-851b697b01bb","system_id":"levelo_inurba_marseille","lat":43.289421,"lon":5.36397,"is_reserved":false,"is_disabled":false,"rental_uris":{"android":"levelo://app?vid=de1b65e4-37d7-42ff-aac6-851b697b01bb","ios":"levelo://app?vid=de1b65e4-37d7-42ff-aac6-851b697b01bb"},"vehicle_type_id":"4","last_reported":1702354151,"current_range_meters":28400,"station_id":"ce4bhc92rcd13ifvqetg","pricing_plan_id":"free"},{"bike_id":"f1896741-896e-40c9-aa4d-96fe134ed880","system_id":"levelo_inurba_marseille","lat":43.330441,"lon":5.389197,"is_reserved":false,"is_disabled":false,"rental_uris":{"android":"levelo://app?vid=f1896741-896e-40c9-aa4d-96fe134ed880","ios":"levelo://app?vid=f1896741-896e-40c9-aa4d-96fe134ed880"},"vehicle_type_id":"4","last_reported":1702354151,"current_range_meters":3200,"station_id":"ce4bhr92rcd13ifvqhrg","pricing_plan_id":"free"},{"bike_id":"4601da1a-2bc2-4be5-8fac-e44f32e20802","system_id":"levelo_inurba_marseille","lat":43.330442,"lon":5.389148,"is_reserved":false,"is_disabled":false,"rental_uris":{"android":"levelo://app?vid=4601da1a-2bc2-4be5-8fac-e44f32e20802","ios":"levelo://app?vid=4601da1a-2bc2-4be5-8fac-e44f32e20802"},"vehicle_type_id":"4","last_reported":1702354151,"current_range_meters":25200,"station_id":"ce4bhr92rcd13ifvqhrg","pricing_plan_id":"free"},{"bike_id":"533ab8ea-2bc7-468d-a492-34a782fe4afb","system_id":"levelo_inurba_marseille","lat":43.290104,"lon":5.356111,"is_reserved":false,"is_disabled":false,"rental_uris":{"android":"levelo://app?vid=533ab8ea-2bc7-468d-a492-34a782fe4afb","ios":"levelo://app?vid=533ab8ea-2bc7-468d-a492-34a782fe4afb"},"vehicle_type_id":"4","last_reported":1702354151,"current_range_meters":27200,"station_id":"ce4bhb92rcd13ifvqen0","pricing_plan_id":"free"},{"bike_id":"02248679-509f-4b57-97bb-e9d71f1470fa","system_id":"levelo_inurba_marseille","lat":43.290103,"lon":5.356114,"is_reserved":false,"is_disabled":false,"rental_uris":{"android":"levelo://app?vid=02248679-509f-4b57-97bb-e9d71f1470fa","ios":"levelo://app?vid=02248679-509f-4b57-97bb-e9d71f1470fa"},"vehicle_type_id":"4","last_reported":1702354151,"current_range_meters":29200,"station_id":"ce4bhb92rcd13ifvqen0","pricing_plan_id":"free"},{"bike_id":"c687e26f-72f1-4a77-b614-d871c4479f94","system_id":"levelo_inurba_marseille","lat":43.298681,"lon":5.397225,"is_reserved":false,"is_disabled":false,"rental_uris":{"android":"levelo://app?vid=c687e26f-72f1-4a77-b614-d871c4479f94","ios":"levelo://app?vid=c687e26f-72f1-4a77-b614-d871c4479f94"},"vehicle_type_id":"4","last_reported":1702354151,"current_range_meters":30400,"station_id":"ce4bh0h2rcd13ifvqd50","pricing_plan_id":"free"},{"bike_id":"6684e0bc-4055-4232-b10e-9a5d2b90801d","system_id":"levelo_inurba_marseille","lat":43.28856,"lon":5.358371,"is_reserved":false,"is_disabled":false,"rental_uris":{"android":"levelo://app?vid=6684e0bc-4055-4232-b10e-9a5d2b90801d","ios":"levelo://app?vid=6684e0bc-4055-4232-b10e-9a5d2b90801d"},"vehicle_type_id":"4","last_reported":1702354151,"current_range_meters":12400,"station_id":"ce4bhb12rcd13ifvqem0","pricing_plan_id":"free"},{"bike_id":"c9523811-9a5b-46a2-b7f2-1136988f2d4e","system_id":"levelo_inurba_marseille","lat":43.312818,"lon":5.401675,"is_reserved":false,"is_disabled":false,"rental_uris":{"android":"levelo://app?vid=c9523811-9a5b-46a2-b7f2-1136988f2d4e","ios":"levelo://app?vid=c9523811-9a5b-46a2-b7f2-1136988f2d4e"},"vehicle_type_id":"4","last_reported":1702354151,"current_range_meters":0,"station_id":"ce4bh092rcd13ifvqd30","pricing_plan_id":"free"},{"bike_id":"1ffa6cab-2192-4490-9617-61044011c6b1","system_id":"levelo_inurba_marseille","lat":43.33742,"lon":5.37464,"is_reserved":false,"is_disabled":false,"rental_uris":{"android":"levelo://app?vid=1ffa6cab-2192-4490-9617-61044011c6b1","ios":"levelo://app?vid=1ffa6cab-2192-4490-9617-61044011c6b1"},"vehicle_type_id":"4","last_reported":1702354151,"current_range_meters":17600,"station_id":"","pricing_plan_id":"free"},{"bike_id":"e1115d16-a177-4b09-99f4-d84a7f0a9df4","system_id":"levelo_inurba_marseille","lat":43.337445,"lon":5.374663,"is_reserved":false,"is_disabled":false,"rental_uris":{"android":"levelo://app?vid=e1115d16-a177-4b09-99f4-d84a7f0a9df4","ios":"levelo://app?vid=e1115d16-a177-4b09-99f4-d84a7f0a9df4"},"vehicle_type_id":"4","last_reported":1702354151,"current_range_meters":25600,"station_id":"","pricing_plan_id":"free"},{"bike_id":"a04c3fef-84a2-4dd3-b2e2-61bdedecb380","system_id":"levelo_inurba_marseille","lat":43.30928,"lon":5.40143,"is_reserved":false,"is_disabled":false,"rental_uris":{"android":"levelo://app?vid=a04c3fef-84a2-4dd3-b2e2-61bdedecb380","ios":"levelo://app?vid=a04c3fef-84a2-4dd3-b2e2-61bdedecb380"},"vehicle_type_id":"4","last_reported":1702354151,"current_range_meters":4400,"station_id":"ce4bgvp2rcd13ifvqct0","pricing_plan_id":"free"},{"bike_id":"d4cb8f91-77fe-42cd-b531-7c48ded116c2","system_id":"levelo_inurba_marseille","lat":43.309272,"lon":5.40147,"is_reserved":false,"is_disabled":false,"rental_uris":{"android":"levelo://app?vid=d4cb8f91-77fe-42cd-b531-7c48ded116c2","ios":"levelo://app?vid=d4cb8f91-77fe-42cd-b531-7c48ded116c2"},"vehicle_type_id":"4","last_reported":1702354151,"current_range_meters":2800,"station_id":"ce4bgvp2rcd13ifvqct0","pricing_plan_id":"free"},{"bike_id":"1a9123ca-1ac0-4cbb-b622-534f88bcae20","system_id":"levelo_inurba_marseille","lat":43.337513,"lon":5.374637,"is_reserved":false,"is_disabled":false,"rental_uris":{"android":"levelo://app?vid=1a9123ca-1ac0-4cbb-b622-534f88bcae20","ios":"levelo://app?vid=1a9123ca-1ac0-4cbb-b622-534f88bcae20"},"vehicle_type_id":"4","last_reported":1702354151,"current_range_meters":28400,"station_id":"","pricing_plan_id":"free"},{"bike_id":"0c6b5900-b050-48d3-b536-484fd7f7f8d0","system_id":"levelo_inurba_marseille","lat":43.309307,"lon":5.401516,"is_reserved":false,"is_disabled":false,"rental_uris":{"android":"levelo://app?vid=0c6b5900-b050-48d3-b536-484fd7f7f8d0","ios":"levelo://app?vid=0c6b5900-b050-48d3-b536-484fd7f7f8d0"},"vehicle_type_id":"4","last_reported":1702354151,"current_range_meters":23600,"station_id":"ce4bgvp2rcd13ifvqct0","pricing_plan_id":"free"},{"bike_id":"6a6b8721-b271-46c7-9a96-5842df48f0b3","system_id":"levelo_inurba_marseille","lat":43.306412,"lon":5.401035,"is_reserved":false,"is_disabled":false,"rental_uris":{"android":"levelo://app?vid=6a6b8721-b271-46c7-9a96-5842df48f0b3","ios":"levelo://app?vid=6a6b8721-b271-46c7-9a96-5842df48f0b3"},"vehicle_type_id":"4","last_reported":1702354151,"current_range_meters":29200,"station_id":"ce4bh112rcd13ifvqda0","pricing_plan_id":"free"},{"bike_id":"60f84eb0-2206-4e1b-94df-fd8c129930f0","system_id":"levelo_inurba_marseille","lat":43.337668,"lon":5.374343,"is_reserved":false,"is_disabled":false,"rental_uris":{"android":"levelo://app?vid=60f84eb0-2206-4e1b-94df-fd8c129930f0","ios":"levelo://app?vid=60f84eb0-2206-4e1b-94df-fd8c129930f0"},"vehicle_type_id":"4","last_reported":1702354151,"current_range_meters":13200,"station_id":"","pricing_plan_id":"free"},{"bike_id":"3718be7f-bfd9-4d4a-a2de-c4fd70ef54d6","system_id":"levelo_inurba_marseille","lat":43.28727,"lon":5.36078,"is_reserved":false,"is_disabled":false,"rental_uris":{"android":"levelo://app?vid=3718be7f-bfd9-4d4a-a2de-c4fd70ef54d6","ios":"levelo://app?vid=3718be7f-bfd9-4d4a-a2de-c4fd70ef54d6"},"vehicle_type_id":"4","last_reported":1702354151,"current_range_meters":27200,"station_id":"cki0cbj6b192h4jlfktg","pricing_plan_id":"free"},{"bike_id":"0b1bd042-7cf7-4527-aa17-3a1421b9a37a","system_id":"levelo_inurba_marseille","lat":43.28727,"lon":5.36078,"is_reserved":false,"is_disabled":false,"rental_uris":{"android":"levelo://app?vid=0b1bd042-7cf7-4527-aa17-3a1421b9a37a","ios":"levelo://app?vid=0b1bd042-7cf7-4527-aa17-3a1421b9a37a"},"vehicle_type_id":"4","last_reported":1702354151,"current_range_meters":28400,"station_id":"cki0cbj6b192h4jlfktg","pricing_plan_id":"free"},{"bike_id":"f9e13a6f-32c8-4573-aad1-7318f4f4f944","system_id":"levelo_inurba_marseille","lat":43.28727,"lon":5.36078,"is_reserved":false,"is_disabled":false,"rental_uris":{"android":"levelo://app?vid=f9e13a6f-32c8-4573-aad1-7318f4f4f944","ios":"levelo://app?vid=f9e13a6f-32c8-4573-aad1-7318f4f4f944"},"vehicle_type_id":"4","last_reported":1702354151,"current_range_meters":22400,"station_id":"cki0cbj6b192h4jlfktg","pricing_plan_id":"free"},{"bike_id":"2e7cb2c2-7d79-4902-bf7c-26c50176cada","system_id":"levelo_inurba_marseille","lat":43.286591,"lon":5.363346,"is_reserved":false,"is_disabled":false,"rental_uris":{"android":"levelo://app?vid=2e7cb2c2-7d79-4902-bf7c-26c50176cada","ios":"levelo://app?vid=2e7cb2c2-7d79-4902-bf7c-26c50176cada"},"vehicle_type_id":"4","last_reported":1702354151,"current_range_meters":23600,"station_id":"ce4bhah2rcd13ifvqej0","pricing_plan_id":"free"},{"bike_id":"8934a177-baaf-4252-b740-ba57243cd9da","system_id":"levelo_inurba_marseille","lat":43.286591,"lon":5.363346,"is_reserved":false,"is_disabled":false,"rental_uris":{"android":"levelo://app?vid=8934a177-baaf-4252-b740-ba57243cd9da","ios":"levelo://app?vid=8934a177-baaf-4252-b740-ba57243cd9da"},"vehicle_type_id":"4","last_reported":1702354151,"current_range_meters":31200,"station_id":"ce4bhah2rcd13ifvqej0","pricing_plan_id":"free"},{"bike_id":"32e3756b-fa7d-4982-9c57-36c8cfe1af1f","system_id":"levelo_inurba_marseille","lat":43.298681,"lon":5.397225,"is_reserved":false,"is_disabled":false,"rental_uris":{"android":"levelo://app?vid=32e3756b-fa7d-4982-9c57-36c8cfe1af1f","ios":"levelo://app?vid=32e3756b-fa7d-4982-9c57-36c8cfe1af1f"},"vehicle_type_id":"4","last_reported":1702354151,"current_range_meters":30400,"station_id":"ce4bh0h2rcd13ifvqd50","pricing_plan_id":"free"},{"bike_id":"eef1e684-4d4c-4afa-9b04-09c2b4dccec4","system_id":"levelo_inurba_marseille","lat":43.286961,"lon":5.373785,"is_reserved":false,"is_disabled":false,"rental_uris":{"android":"levelo://app?vid=eef1e684-4d4c-4afa-9b04-09c2b4dccec4","ios":"levelo://app?vid=eef1e684-4d4c-4afa-9b04-09c2b4dccec4"},"vehicle_type_id":"4","last_reported":1702354151,"current_range_meters":30800,"station_id":"ce4bh3p2rcd13ifvqdq0","pricing_plan_id":"free"},{"bike_id":"5cce6b8d-8bc9-4b26-be84-095a41dba0d2","system_id":"levelo_inurba_marseille","lat":43.286591,"lon":5.363346,"is_reserved":false,"is_disabled":false,"rental_uris":{"android":"levelo://app?vid=5cce6b8d-8bc9-4b26-be84-095a41dba0d2","ios":"levelo://app?vid=5cce6b8d-8bc9-4b26-be84-095a41dba0d2"},"vehicle_type_id":"4","last_reported":1702354151,"current_range_meters":4400,"station_id":"ce4bhah2rcd13ifvqej0","pricing_plan_id":"free"},{"bike_id":"6024c9df-3e15-4bc2-9cc0-aea805591fdc","system_id":"levelo_inurba_marseille","lat":43.286591,"lon":5.363346,"is_reserved":false,"is_disabled":false,"rental_uris":{"android":"levelo://app?vid=6024c9df-3e15-4bc2-9cc0-aea805591fdc","ios":"levelo://app?vid=6024c9df-3e15-4bc2-9cc0-aea805591fdc"},"vehicle_type_id":"4","last_reported":1702354151,"current_range_meters":25200,"station_id":"ce4bhah2rcd13ifvqej0","pricing_plan_id":"free"},{"bike_id":"b146f28b-23ce-4fda-a62a-6367035acb5b","system_id":"levelo_inurba_marseille","lat":43.29513,"lon":5.39398,"is_reserved":false,"is_disabled":false,"rental_uris":{"android":"levelo://app?vid=b146f28b-23ce-4fda-a62a-6367035acb5b","ios":"levelo://app?vid=b146f28b-23ce-4fda-a62a-6367035acb5b"},"vehicle_type_id":"4","last_reported":1702354151,"current_range_meters":29600,"station_id":"ce4bh292rcd13ifvqdf0","pricing_plan_id":"free"},{"bike_id":"5f88e030-02dc-464f-82e7-0b105cd6c05b","system_id":"levelo_inurba_marseille","lat":43.295149,"lon":5.394019,"is_reserved":false,"is_disabled":false,"rental_uris":{"android":"levelo://app?vid=5f88e030-02dc-464f-82e7-0b105cd6c05b","ios":"levelo://app?vid=5f88e030-02dc-464f-82e7-0b105cd6c05b"},"vehicle_type_id":"4","last_reported":1702354151,"current_range_meters":31200,"station_id":"ce4bh292rcd13ifvqdf0","pricing_plan_id":"free"},{"bike_id":"1c11868b-1d14-432c-989f-6b645efaaf5c","system_id":"levelo_inurba_marseille","lat":43.28927,"lon":5.38409,"is_reserved":false,"is_disabled":false,"rental_uris":{"android":"levelo://app?vid=1c11868b-1d14-432c-989f-6b645efaaf5c","ios":"levelo://app?vid=1c11868b-1d14-432c-989f-6b645efaaf5c"},"vehicle_type_id":"4","last_reported":1702354151,"current_range_meters":31200,"station_id":"ce4bh612rcd13ifvqe6g","pricing_plan_id":"free"},{"bike_id":"39e7ecc9-8abf-47eb-8ad0-61f72a12e157","system_id":"levelo_inurba_marseille","lat":43.302759,"lon":5.400793,"is_reserved":false,"is_disabled":false,"rental_uris":{"android":"levelo://app?vid=39e7ecc9-8abf-47eb-8ad0-61f72a12e157","ios":"levelo://app?vid=39e7ecc9-8abf-47eb-8ad0-61f72a12e157"},"vehicle_type_id":"4","last_reported":1702354151,"current_range_meters":27600,"station_id":"ce4bgvh2rcd13ifvqcs0","pricing_plan_id":"free"},{"bike_id":"31b0cc3a-23f3-4e93-be88-d69c7ae5ec8d","system_id":"levelo_inurba_marseille","lat":43.291994,"lon":5.392907,"is_reserved":false,"is_disabled":false,"rental_uris":{"android":"levelo://app?vid=31b0cc3a-23f3-4e93-be88-d69c7ae5ec8d","ios":"levelo://app?vid=31b0cc3a-23f3-4e93-be88-d69c7ae5ec8d"},"vehicle_type_id":"4","last_reported":1702354151,"current_range_meters":29200,"station_id":"ce4bh192rcd13ifvqdd0","pricing_plan_id":"free"},{"bike_id":"8ec68153-298a-4349-ac87-c19883d78490","system_id":"levelo_inurba_marseille","lat":43.284538,"lon":5.358657,"is_reserved":false,"is_disabled":false,"rental_uris":{"android":"levelo://app?vid=8ec68153-298a-4349-ac87-c19883d78490","ios":"levelo://app?vid=8ec68153-298a-4349-ac87-c19883d78490"},"vehicle_type_id":"4","last_reported":1702354151,"current_range_meters":8800,"station_id":"ce4bhah2rcd13ifvqei0","pricing_plan_id":"free"},{"bike_id":"bd56da42-7cee-48cd-87c1-76e5800e349e","system_id":"levelo_inurba_marseille","lat":43.28462,"lon":5.35894,"is_reserved":false,"is_disabled":false,"rental_uris":{"android":"levelo://app?vid=bd56da42-7cee-48cd-87c1-76e5800e349e","ios":"levelo://app?vid=bd56da42-7cee-48cd-87c1-76e5800e349e"},"vehicle_type_id":"4","last_reported":1702354151,"current_range_meters":13600,"station_id":"ce4bhah2rcd13ifvqei0","pricing_plan_id":"free"},{"bike_id":"4ad710f1-bb15-4faa-a3cf-10e9391e9e63","system_id":"levelo_inurba_marseille","lat":43.284538,"lon":5.358657,"is_reserved":false,"is_disabled":false,"rental_uris":{"android":"levelo://app?vid=4ad710f1-bb15-4faa-a3cf-10e9391e9e63","ios":"levelo://app?vid=4ad710f1-bb15-4faa-a3cf-10e9391e9e63"},"vehicle_type_id":"4","last_reported":1702354151,"current_range_meters":31200,"station_id":"ce4bhah2rcd13ifvqei0","pricing_plan_id":"free"},{"bike_id":"f1d5717b-05bd-4abb-bc8d-ea0a3935464c","system_id":"levelo_inurba_marseille","lat":43.28461,"lon":5.35898,"is_reserved":false,"is_disabled":false,"rental_uris":{"android":"levelo://app?vid=f1d5717b-05bd-4abb-bc8d-ea0a3935464c","ios":"levelo://app?vid=f1d5717b-05bd-4abb-bc8d-ea0a3935464c"},"vehicle_type_id":"4","last_reported":1702354151,"current_range_meters":29200,"station_id":"ce4bhah2rcd13ifvqei0","pricing_plan_id":"free"},{"bike_id":"15d55d0f-f08c-49b5-bbc4-736950b1131e","system_id":"levelo_inurba_marseille","lat":43.284538,"lon":5.358657,"is_reserved":false,"is_disabled":false,"rental_uris":{"android":"levelo://app?vid=15d55d0f-f08c-49b5-bbc4-736950b1131e","ios":"levelo://app?vid=15d55d0f-f08c-49b5-bbc4-736950b1131e"},"vehicle_type_id":"4","last_reported":1702354151,"current_range_meters":31200,"station_id":"ce4bhah2rcd13ifvqei0","pricing_plan_id":"free"},{"bike_id":"f602fdae-0bc9-44d7-bc2b-cea35bd73984","system_id":"levelo_inurba_marseille","lat":43.284538,"lon":5.358657,"is_reserved":false,"is_disabled":false,"rental_uris":{"android":"levelo://app?vid=f602fdae-0bc9-44d7-bc2b-cea35bd73984","ios":"levelo://app?vid=f602fdae-0bc9-44d7-bc2b-cea35bd73984"},"vehicle_type_id":"4","last_reported":1702354151,"current_range_meters":12000,"station_id":"ce4bhah2rcd13ifvqei0","pricing_plan_id":"free"},{"bike_id":"f41d6c41-374d-4fc3-8a16-8ec3508e96ff","system_id":"levelo_inurba_marseille","lat":43.284538,"lon":5.358657,"is_reserved":false,"is_disabled":false,"rental_uris":{"android":"levelo://app?vid=f41d6c41-374d-4fc3-8a16-8ec3508e96ff","ios":"levelo://app?vid=f41d6c41-374d-4fc3-8a16-8ec3508e96ff"},"vehicle_type_id":"4","last_reported":1702354151,"current_range_meters":24400,"station_id":"ce4bhah2rcd13ifvqei0","pricing_plan_id":"free"},{"bike_id":"97c20c26-a5fd-4557-974b-919ba78be4cc","system_id":"levelo_inurba_marseille","lat":43.284538,"lon":5.358657,"is_reserved":false,"is_disabled":false,"rental_uris":{"android":"levelo://app?vid=97c20c26-a5fd-4557-974b-919ba78be4cc","ios":"levelo://app?vid=97c20c26-a5fd-4557-974b-919ba78be4cc"},"vehicle_type_id":"4","last_reported":1702354151,"current_range_meters":18400,"station_id":"ce4bhah2rcd13ifvqei0","pricing_plan_id":"free"},{"bike_id":"bbc7c8a8-da93-4fcc-9064-a6f2c0fd0881","system_id":"levelo_inurba_marseille","lat":43.284565,"lon":5.35893,"is_reserved":false,"is_disabled":false,"rental_uris":{"android":"levelo://app?vid=bbc7c8a8-da93-4fcc-9064-a6f2c0fd0881","ios":"levelo://app?vid=bbc7c8a8-da93-4fcc-9064-a6f2c0fd0881"},"vehicle_type_id":"4","last_reported":1702354151,"current_range_meters":28800,"station_id":"ce4bhah2rcd13ifvqei0","pricing_plan_id":"free"},{"bike_id":"84f594c0-837d-4c3e-b8c1-19a843f36106","system_id":"levelo_inurba_marseille","lat":43.284538,"lon":5.358657,"is_reserved":false,"is_disabled":false,"rental_uris":{"android":"levelo://app?vid=84f594c0-837d-4c3e-b8c1-19a843f36106","ios":"levelo://app?vid=84f594c0-837d-4c3e-b8c1-19a843f36106"},"vehicle_type_id":"4","last_reported":1702354151,"current_range_meters":31200,"station_id":"ce4bhah2rcd13ifvqei0","pricing_plan_id":"free"},{"bike_id":"ff87e69a-80ac-4c6c-9a15-ae17ff91f198","system_id":"levelo_inurba_marseille","lat":43.28616,"lon":5.35106,"is_reserved":false,"is_disabled":false,"rental_uris":{"android":"levelo://app?vid=ff87e69a-80ac-4c6c-9a15-ae17ff91f198","ios":"levelo://app?vid=ff87e69a-80ac-4c6c-9a15-ae17ff91f198"},"vehicle_type_id":"4","last_reported":1702354151,"current_range_meters":26000,"station_id":"ce4bhch2rcd13ifvqeug","pricing_plan_id":"free"},{"bike_id":"6d1885bf-915b-4323-8d7f-0a1ba1e4c02e","system_id":"levelo_inurba_marseille","lat":43.285856,"lon":5.350771,"is_reserved":false,"is_disabled":false,"rental_uris":{"android":"levelo://app?vid=6d1885bf-915b-4323-8d7f-0a1ba1e4c02e","ios":"levelo://app?vid=6d1885bf-915b-4323-8d7f-0a1ba1e4c02e"},"vehicle_type_id":"4","last_reported":1702354151,"current_range_meters":30800,"station_id":"ce4bhch2rcd13ifvqeug","pricing_plan_id":"free"},{"bike_id":"97d8fcc7-4aef-45da-b019-c3d5381f038e","system_id":"levelo_inurba_marseille","lat":43.28615,"lon":5.35094,"is_reserved":false,"is_disabled":false,"rental_uris":{"android":"levelo://app?vid=97d8fcc7-4aef-45da-b019-c3d5381f038e","ios":"levelo://app?vid=97d8fcc7-4aef-45da-b019-c3d5381f038e"},"vehicle_type_id":"4","last_reported":1702354151,"current_range_meters":28400,"station_id":"ce4bhch2rcd13ifvqeug","pricing_plan_id":"free"},{"bike_id":"33062ad6-ef44-44b7-ad5f-c627b005988f","system_id":"levelo_inurba_marseille","lat":43.283998,"lon":5.375062,"is_reserved":false,"is_disabled":false,"rental_uris":{"android":"levelo://app?vid=33062ad6-ef44-44b7-ad5f-c627b005988f","ios":"levelo://app?vid=33062ad6-ef44-44b7-ad5f-c627b005988f"},"vehicle_type_id":"4","last_reported":1702354151,"current_range_meters":24000,"station_id":"ce4bh412rcd13ifvqds0","pricing_plan_id":"free"},{"bike_id":"8b8750df-7df7-45aa-b5aa-b88209e2024a","system_id":"levelo_inurba_marseille","lat":43.295713,"lon":5.399639,"is_reserved":false,"is_disabled":false,"rental_uris":{"android":"levelo://app?vid=8b8750df-7df7-45aa-b5aa-b88209e2024a","ios":"levelo://app?vid=8b8750df-7df7-45aa-b5aa-b88209e2024a"},"vehicle_type_id":"4","last_reported":1702354151,"current_range_meters":18000,"station_id":"ce4bh312rcd13ifvqdj0","pricing_plan_id":"free"},{"bike_id":"e826fa5d-9844-4700-be3c-0f74d9fc0905","system_id":"levelo_inurba_marseille","lat":43.319179,"lon":5.407725,"is_reserved":false,"is_disabled":false,"rental_uris":{"android":"levelo://app?vid=e826fa5d-9844-4700-be3c-0f74d9fc0905","ios":"levelo://app?vid=e826fa5d-9844-4700-be3c-0f74d9fc0905"},"vehicle_type_id":"4","last_reported":1702354151,"current_range_meters":27200,"station_id":"ce4bhq12rcd13ifvqhig","pricing_plan_id":"free"},{"bike_id":"d01d04a1-8264-49b2-b576-4ea9dbacab40","system_id":"levelo_inurba_marseille","lat":43.323464,"lon":5.406297,"is_reserved":false,"is_disabled":false,"rental_uris":{"android":"levelo://app?vid=d01d04a1-8264-49b2-b576-4ea9dbacab40","ios":"levelo://app?vid=d01d04a1-8264-49b2-b576-4ea9dbacab40"},"vehicle_type_id":"4","last_reported":1702354151,"current_range_meters":31200,"station_id":"ce4bhq92rcd13ifvqhjg","pricing_plan_id":"free"},{"bike_id":"66cba741-1221-4d29-a72f-f4e0b2ba6a22","system_id":"levelo_inurba_marseille","lat":43.337168,"lon":5.391825,"is_reserved":false,"is_disabled":false,"rental_uris":{"android":"levelo://app?vid=66cba741-1221-4d29-a72f-f4e0b2ba6a22","ios":"levelo://app?vid=66cba741-1221-4d29-a72f-f4e0b2ba6a22"},"vehicle_type_id":"4","last_reported":1702354151,"current_range_meters":30400,"station_id":"ce4bhr92rcd13ifvqhsg","pricing_plan_id":"free"},{"bike_id":"0c38c3ff-f5fd-47c8-98fe-054c4bec6455","system_id":"levelo_inurba_marseille","lat":43.323464,"lon":5.406297,"is_reserved":false,"is_disabled":false,"rental_uris":{"android":"levelo://app?vid=0c38c3ff-f5fd-47c8-98fe-054c4bec6455","ios":"levelo://app?vid=0c38c3ff-f5fd-47c8-98fe-054c4bec6455"},"vehicle_type_id":"4","last_reported":1702354151,"current_range_meters":18400,"station_id":"ce4bhq92rcd13ifvqhjg","pricing_plan_id":"free"},{"bike_id":"62a93183-d74d-46ab-9d19-6090cbe402fe","system_id":"levelo_inurba_marseille","lat":43.284787,"lon":5.384116,"is_reserved":false,"is_disabled":false,"rental_uris":{"android":"levelo://app?vid=62a93183-d74d-46ab-9d19-6090cbe402fe","ios":"levelo://app?vid=62a93183-d74d-46ab-9d19-6090cbe402fe"},"vehicle_type_id":"4","last_reported":1702354151,"current_range_meters":29600,"station_id":"ce4bh512rcd13ifvqe3g","pricing_plan_id":"free"},{"bike_id":"e47290a0-966e-40ac-ae54-b2c433e37967","system_id":"levelo_inurba_marseille","lat":43.284787,"lon":5.384116,"is_reserved":false,"is_disabled":false,"rental_uris":{"android":"levelo://app?vid=e47290a0-966e-40ac-ae54-b2c433e37967","ios":"levelo://app?vid=e47290a0-966e-40ac-ae54-b2c433e37967"},"vehicle_type_id":"4","last_reported":1702354151,"current_range_meters":30400,"station_id":"ce4bh512rcd13ifvqe3g","pricing_plan_id":"free"},{"bike_id":"9db188d9-7ea7-4daf-90e0-708b0c302c6e","system_id":"levelo_inurba_marseille","lat":43.29795,"lon":5.404086,"is_reserved":false,"is_disabled":false,"rental_uris":{"android":"levelo://app?vid=9db188d9-7ea7-4daf-90e0-708b0c302c6e","ios":"levelo://app?vid=9db188d9-7ea7-4daf-90e0-708b0c302c6e"},"vehicle_type_id":"4","last_reported":1702354151,"current_range_meters":28400,"station_id":"ce4bh112rcd13ifvqd90","pricing_plan_id":"free"},{"bike_id":"ae580ee0-516c-41dd-85d9-7b4cf4de99e6","system_id":"levelo_inurba_marseille","lat":43.284214,"lon":5.349706,"is_reserved":false,"is_disabled":false,"rental_uris":{"android":"levelo://app?vid=ae580ee0-516c-41dd-85d9-7b4cf4de99e6","ios":"levelo://app?vid=ae580ee0-516c-41dd-85d9-7b4cf4de99e6"},"vehicle_type_id":"4","last_reported":1702354151,"current_range_meters":25200,"station_id":"ce4bhbh2rcd13ifvqepg","pricing_plan_id":"free"},{"bike_id":"abb1e6da-a61f-491b-80a6-8320eb2b41ab","system_id":"levelo_inurba_marseille","lat":43.289363,"lon":5.396322,"is_reserved":false,"is_disabled":false,"rental_uris":{"android":"levelo://app?vid=abb1e6da-a61f-491b-80a6-8320eb2b41ab","ios":"levelo://app?vid=abb1e6da-a61f-491b-80a6-8320eb2b41ab"},"vehicle_type_id":"4","last_reported":1702354151,"current_range_meters":30000,"station_id":"ce4bh3h2rcd13ifvqdn0","pricing_plan_id":"free"},{"bike_id":"4f7e38fe-5f60-4585-a16d-18afc38aa6b5","system_id":"levelo_inurba_marseille","lat":43.28272,"lon":5.350729,"is_reserved":false,"is_disabled":false,"rental_uris":{"android":"levelo://app?vid=4f7e38fe-5f60-4585-a16d-18afc38aa6b5","ios":"levelo://app?vid=4f7e38fe-5f60-4585-a16d-18afc38aa6b5"},"vehicle_type_id":"4","last_reported":1702354151,"current_range_meters":28800,"station_id":"ce4bhbp2rcd13ifvqerg","pricing_plan_id":"free"},{"bike_id":"a6a19d71-44ec-4be6-8f3c-af8a442c4d87","system_id":"levelo_inurba_marseille","lat":43.283502,"lon":5.386471,"is_reserved":false,"is_disabled":false,"rental_uris":{"android":"levelo://app?vid=a6a19d71-44ec-4be6-8f3c-af8a442c4d87","ios":"levelo://app?vid=a6a19d71-44ec-4be6-8f3c-af8a442c4d87"},"vehicle_type_id":"4","last_reported":1702354151,"current_range_meters":30800,"station_id":"ce4bh492rcd13ifvqdvg","pricing_plan_id":"free"},{"bike_id":"7c9994a9-d782-4817-b3ab-37bc6e42f7cd","system_id":"levelo_inurba_marseille","lat":43.283502,"lon":5.386471,"is_reserved":false,"is_disabled":false,"rental_uris":{"android":"levelo://app?vid=7c9994a9-d782-4817-b3ab-37bc6e42f7cd","ios":"levelo://app?vid=7c9994a9-d782-4817-b3ab-37bc6e42f7cd"},"vehicle_type_id":"4","last_reported":1702354151,"current_range_meters":15600,"station_id":"ce4bh492rcd13ifvqdvg","pricing_plan_id":"free"},{"bike_id":"a6293421-2f53-4d22-b3a9-1a774e17b5cb","system_id":"levelo_inurba_marseille","lat":43.282754,"lon":5.350519,"is_reserved":false,"is_disabled":false,"rental_uris":{"android":"levelo://app?vid=a6293421-2f53-4d22-b3a9-1a774e17b5cb","ios":"levelo://app?vid=a6293421-2f53-4d22-b3a9-1a774e17b5cb"},"vehicle_type_id":"4","last_reported":1702354151,"current_range_meters":29200,"station_id":"ce4bhbp2rcd13ifvqerg","pricing_plan_id":"free"},{"bike_id":"1a755c5d-9b3c-4f8b-a5a3-2cb0e2abc85a","system_id":"levelo_inurba_marseille","lat":43.282754,"lon":5.350519,"is_reserved":false,"is_disabled":false,"rental_uris":{"android":"levelo://app?vid=1a755c5d-9b3c-4f8b-a5a3-2cb0e2abc85a","ios":"levelo://app?vid=1a755c5d-9b3c-4f8b-a5a3-2cb0e2abc85a"},"vehicle_type_id":"4","last_reported":1702354151,"current_range_meters":29200,"station_id":"ce4bhbp2rcd13ifvqerg","pricing_plan_id":"free"},{"bike_id":"3761c4b2-9870-4544-aced-d720a2c79b1c","system_id":"levelo_inurba_marseille","lat":43.282744,"lon":5.350533,"is_reserved":false,"is_disabled":false,"rental_uris":{"android":"levelo://app?vid=3761c4b2-9870-4544-aced-d720a2c79b1c","ios":"levelo://app?vid=3761c4b2-9870-4544-aced-d720a2c79b1c"},"vehicle_type_id":"4","last_reported":1702354151,"current_range_meters":24400,"station_id":"ce4bhbp2rcd13ifvqerg","pricing_plan_id":"free"},{"bike_id":"acbf9353-2ac4-4d36-bb10-ad1b66a4db9d","system_id":"levelo_inurba_marseille","lat":43.28039,"lon":5.369297,"is_reserved":false,"is_disabled":false,"rental_uris":{"android":"levelo://app?vid=acbf9353-2ac4-4d36-bb10-ad1b66a4db9d","ios":"levelo://app?vid=acbf9353-2ac4-4d36-bb10-ad1b66a4db9d"},"vehicle_type_id":"4","last_reported":1702354151,"current_range_meters":15200,"station_id":"ce4bha12rcd13ifvqef0","pricing_plan_id":"free"},{"bike_id":"a9087632-d97b-4295-ac27-f172913e6205","system_id":"levelo_inurba_marseille","lat":43.280382,"lon":5.369291,"is_reserved":false,"is_disabled":false,"rental_uris":{"android":"levelo://app?vid=a9087632-d97b-4295-ac27-f172913e6205","ios":"levelo://app?vid=a9087632-d97b-4295-ac27-f172913e6205"},"vehicle_type_id":"4","last_reported":1702354151,"current_range_meters":27600,"station_id":"ce4bha12rcd13ifvqef0","pricing_plan_id":"free"},{"bike_id":"4573ed2e-c755-4cfb-958a-78dda47a3e37","system_id":"levelo_inurba_marseille","lat":43.280382,"lon":5.369291,"is_reserved":false,"is_disabled":false,"rental_uris":{"android":"levelo://app?vid=4573ed2e-c755-4cfb-958a-78dda47a3e37","ios":"levelo://app?vid=4573ed2e-c755-4cfb-958a-78dda47a3e37"},"vehicle_type_id":"4","last_reported":1702354151,"current_range_meters":21200,"station_id":"ce4bha12rcd13ifvqef0","pricing_plan_id":"free"},{"bike_id":"4ee53fc3-95fe-4ec3-ae50-b9a8cd12442e","system_id":"levelo_inurba_marseille","lat":43.280325,"lon":5.36945,"is_reserved":false,"is_disabled":false,"rental_uris":{"android":"levelo://app?vid=4ee53fc3-95fe-4ec3-ae50-b9a8cd12442e","ios":"levelo://app?vid=4ee53fc3-95fe-4ec3-ae50-b9a8cd12442e"},"vehicle_type_id":"4","last_reported":1702354151,"current_range_meters":28000,"station_id":"ce4bha12rcd13ifvqef0","pricing_plan_id":"free"},{"bike_id":"dbb32c68-89ea-42d5-9bbd-5de5751b5866","system_id":"levelo_inurba_marseille","lat":43.280382,"lon":5.369291,"is_reserved":false,"is_disabled":false,"rental_uris":{"android":"levelo://app?vid=dbb32c68-89ea-42d5-9bbd-5de5751b5866","ios":"levelo://app?vid=dbb32c68-89ea-42d5-9bbd-5de5751b5866"},"vehicle_type_id":"4","last_reported":1702354151,"current_range_meters":31200,"station_id":"ce4bha12rcd13ifvqef0","pricing_plan_id":"free"},{"bike_id":"07a01123-b2c1-4114-8136-93f2d1c77450","system_id":"levelo_inurba_marseille","lat":43.280382,"lon":5.369291,"is_reserved":false,"is_disabled":false,"rental_uris":{"android":"levelo://app?vid=07a01123-b2c1-4114-8136-93f2d1c77450","ios":"levelo://app?vid=07a01123-b2c1-4114-8136-93f2d1c77450"},"vehicle_type_id":"4","last_reported":1702354151,"current_range_meters":30400,"station_id":"ce4bha12rcd13ifvqef0","pricing_plan_id":"free"},{"bike_id":"48a99b63-f7d5-4782-a8c6-fa4d78f26f3c","system_id":"levelo_inurba_marseille","lat":43.281044,"lon":5.378308,"is_reserved":false,"is_disabled":false,"rental_uris":{"android":"levelo://app?vid=48a99b63-f7d5-4782-a8c6-fa4d78f26f3c","ios":"levelo://app?vid=48a99b63-f7d5-4782-a8c6-fa4d78f26f3c"},"vehicle_type_id":"4","last_reported":1702354151,"current_range_meters":28800,"station_id":"ce4bha12rcd13ifvqee0","pricing_plan_id":"free"},{"bike_id":"62a0f8a1-9f18-4a0f-acb1-ec155a5a27e6","system_id":"levelo_inurba_marseille","lat":43.296263,"lon":5.40601,"is_reserved":false,"is_disabled":false,"rental_uris":{"android":"levelo://app?vid=62a0f8a1-9f18-4a0f-acb1-ec155a5a27e6","ios":"levelo://app?vid=62a0f8a1-9f18-4a0f-acb1-ec155a5a27e6"},"vehicle_type_id":"4","last_reported":1702354151,"current_range_meters":27600,"station_id":"ce4bh0h2rcd13ifvqd60","pricing_plan_id":"free"},{"bike_id":"adef52ce-5221-42e8-ab61-9c84fbaea394","system_id":"levelo_inurba_marseille","lat":43.296263,"lon":5.40601,"is_reserved":false,"is_disabled":false,"rental_uris":{"android":"levelo://app?vid=adef52ce-5221-42e8-ab61-9c84fbaea394","ios":"levelo://app?vid=adef52ce-5221-42e8-ab61-9c84fbaea394"},"vehicle_type_id":"4","last_reported":1702354151,"current_range_meters":28800,"station_id":"ce4bh0h2rcd13ifvqd60","pricing_plan_id":"free"},{"bike_id":"aa4ac0c8-3251-4954-b70d-99187e5600ce","system_id":"levelo_inurba_marseille","lat":43.280983,"lon":5.378442,"is_reserved":false,"is_disabled":false,"rental_uris":{"android":"levelo://app?vid=aa4ac0c8-3251-4954-b70d-99187e5600ce","ios":"levelo://app?vid=aa4ac0c8-3251-4954-b70d-99187e5600ce"},"vehicle_type_id":"4","last_reported":1702354151,"current_range_meters":18400,"station_id":"ce4bha12rcd13ifvqee0","pricing_plan_id":"free"},{"bike_id":"0dd255ef-4b3d-47cf-a762-0dd0e9c0af2c","system_id":"levelo_inurba_marseille","lat":43.285675,"lon":5.39498,"is_reserved":false,"is_disabled":false,"rental_uris":{"android":"levelo://app?vid=0dd255ef-4b3d-47cf-a762-0dd0e9c0af2c","ios":"levelo://app?vid=0dd255ef-4b3d-47cf-a762-0dd0e9c0af2c"},"vehicle_type_id":"4","last_reported":1702354151,"current_range_meters":2400,"station_id":"ce4bh292rcd13ifvqdg0","pricing_plan_id":"free"},{"bike_id":"08a22758-971d-43d7-b06f-e03f69b8c19b","system_id":"levelo_inurba_marseille","lat":43.326605,"lon":5.409903,"is_reserved":false,"is_disabled":false,"rental_uris":{"android":"levelo://app?vid=08a22758-971d-43d7-b06f-e03f69b8c19b","ios":"levelo://app?vid=08a22758-971d-43d7-b06f-e03f69b8c19b"},"vehicle_type_id":"4","last_reported":1702354151,"current_range_meters":30400,"station_id":"ce4bhpp2rcd13ifvqhgg","pricing_plan_id":"free"},{"bike_id":"80ffd250-5d37-49a8-abc1-e8d034ca534a","system_id":"levelo_inurba_marseille","lat":43.326605,"lon":5.409903,"is_reserved":false,"is_disabled":false,"rental_uris":{"android":"levelo://app?vid=80ffd250-5d37-49a8-abc1-e8d034ca534a","ios":"levelo://app?vid=80ffd250-5d37-49a8-abc1-e8d034ca534a"},"vehicle_type_id":"4","last_reported":1702354151,"current_range_meters":30000,"station_id":"ce4bhpp2rcd13ifvqhgg","pricing_plan_id":"free"},{"bike_id":"404eabfe-d56b-49c9-8d96-814666b791fe","system_id":"levelo_inurba_marseille","lat":43.304188,"lon":5.412904,"is_reserved":false,"is_disabled":false,"rental_uris":{"android":"levelo://app?vid=404eabfe-d56b-49c9-8d96-814666b791fe","ios":"levelo://app?vid=404eabfe-d56b-49c9-8d96-814666b791fe"},"vehicle_type_id":"4","last_reported":1702354151,"current_range_meters":27200,"station_id":"ce4bhop2rcd13ifvqh8g","pricing_plan_id":"free"},{"bike_id":"a934d76b-8ba7-4197-bbf0-5f1568c9e6b9","system_id":"levelo_inurba_marseille","lat":43.304188,"lon":5.412904,"is_reserved":false,"is_disabled":false,"rental_uris":{"android":"levelo://app?vid=a934d76b-8ba7-4197-bbf0-5f1568c9e6b9","ios":"levelo://app?vid=a934d76b-8ba7-4197-bbf0-5f1568c9e6b9"},"vehicle_type_id":"4","last_reported":1702354151,"current_range_meters":31200,"station_id":"ce4bhop2rcd13ifvqh8g","pricing_plan_id":"free"},{"bike_id":"84f973f1-f199-448b-9509-5f31d7a3130e","system_id":"levelo_inurba_marseille","lat":43.287154,"lon":5.399979,"is_reserved":false,"is_disabled":false,"rental_uris":{"android":"levelo://app?vid=84f973f1-f199-448b-9509-5f31d7a3130e","ios":"levelo://app?vid=84f973f1-f199-448b-9509-5f31d7a3130e"},"vehicle_type_id":"4","last_reported":1702354151,"current_range_meters":30400,"station_id":"ce4bho92rcd13ifvqh3g","pricing_plan_id":"free"},{"bike_id":"90694297-c58d-41af-84d8-ae5be0d535da","system_id":"levelo_inurba_marseille","lat":43.287154,"lon":5.399979,"is_reserved":false,"is_disabled":false,"rental_uris":{"android":"levelo://app?vid=90694297-c58d-41af-84d8-ae5be0d535da","ios":"levelo://app?vid=90694297-c58d-41af-84d8-ae5be0d535da"},"vehicle_type_id":"4","last_reported":1702354151,"current_range_meters":30800,"station_id":"ce4bho92rcd13ifvqh3g","pricing_plan_id":"free"},{"bike_id":"7a5609ea-b2e3-4e98-9903-52802e3c7f03","system_id":"levelo_inurba_marseille","lat":43.287154,"lon":5.399979,"is_reserved":false,"is_disabled":false,"rental_uris":{"android":"levelo://app?vid=7a5609ea-b2e3-4e98-9903-52802e3c7f03","ios":"levelo://app?vid=7a5609ea-b2e3-4e98-9903-52802e3c7f03"},"vehicle_type_id":"4","last_reported":1702354151,"current_range_meters":23200,"station_id":"ce4bho92rcd13ifvqh3g","pricing_plan_id":"free"},{"bike_id":"fa4bb5fb-ad72-4f07-be70-d85fcf016197","system_id":"levelo_inurba_marseille","lat":43.287154,"lon":5.399979,"is_reserved":false,"is_disabled":false,"rental_uris":{"android":"levelo://app?vid=fa4bb5fb-ad72-4f07-be70-d85fcf016197","ios":"levelo://app?vid=fa4bb5fb-ad72-4f07-be70-d85fcf016197"},"vehicle_type_id":"4","last_reported":1702354151,"current_range_meters":31200,"station_id":"ce4bho92rcd13ifvqh3g","pricing_plan_id":"free"},{"bike_id":"05b7994a-2ac0-4d51-9178-7ed777dfcd52","system_id":"levelo_inurba_marseille","lat":43.279087,"lon":5.380114,"is_reserved":false,"is_disabled":false,"rental_uris":{"android":"levelo://app?vid=05b7994a-2ac0-4d51-9178-7ed777dfcd52","ios":"levelo://app?vid=05b7994a-2ac0-4d51-9178-7ed777dfcd52"},"vehicle_type_id":"4","last_reported":1702354151,"current_range_meters":29200,"station_id":"ce4bhf92rcd13ifvqf50","pricing_plan_id":"free"},{"bike_id":"ef1028cd-ebbe-49ad-9388-3915a9fa2e4e","system_id":"levelo_inurba_marseille","lat":43.287154,"lon":5.399979,"is_reserved":false,"is_disabled":false,"rental_uris":{"android":"levelo://app?vid=ef1028cd-ebbe-49ad-9388-3915a9fa2e4e","ios":"levelo://app?vid=ef1028cd-ebbe-49ad-9388-3915a9fa2e4e"},"vehicle_type_id":"4","last_reported":1702354151,"current_range_meters":28800,"station_id":"ce4bho92rcd13ifvqh3g","pricing_plan_id":"free"},{"bike_id":"739792a3-e148-4525-a252-99995a5dac4a","system_id":"levelo_inurba_marseille","lat":43.287154,"lon":5.399979,"is_reserved":false,"is_disabled":false,"rental_uris":{"android":"levelo://app?vid=739792a3-e148-4525-a252-99995a5dac4a","ios":"levelo://app?vid=739792a3-e148-4525-a252-99995a5dac4a"},"vehicle_type_id":"4","last_reported":1702354151,"current_range_meters":20000,"station_id":"ce4bho92rcd13ifvqh3g","pricing_plan_id":"free"},{"bike_id":"3a2cb343-3175-4ccf-9869-02132abfea43","system_id":"levelo_inurba_marseille","lat":43.287154,"lon":5.399979,"is_reserved":false,"is_disabled":false,"rental_uris":{"android":"levelo://app?vid=3a2cb343-3175-4ccf-9869-02132abfea43","ios":"levelo://app?vid=3a2cb343-3175-4ccf-9869-02132abfea43"},"vehicle_type_id":"4","last_reported":1702354151,"current_range_meters":30000,"station_id":"ce4bho92rcd13ifvqh3g","pricing_plan_id":"free"},{"bike_id":"0173838d-816d-45f6-b30b-9d918c306426","system_id":"levelo_inurba_marseille","lat":43.287154,"lon":5.399979,"is_reserved":false,"is_disabled":false,"rental_uris":{"android":"levelo://app?vid=0173838d-816d-45f6-b30b-9d918c306426","ios":"levelo://app?vid=0173838d-816d-45f6-b30b-9d918c306426"},"vehicle_type_id":"4","last_reported":1702354151,"current_range_meters":31200,"station_id":"ce4bho92rcd13ifvqh3g","pricing_plan_id":"free"},{"bike_id":"4b4fea6b-03c8-4142-91e1-0d5cb090fb64","system_id":"levelo_inurba_marseille","lat":43.299579,"lon":5.413255,"is_reserved":false,"is_disabled":false,"rental_uris":{"android":"levelo://app?vid=4b4fea6b-03c8-4142-91e1-0d5cb090fb64","ios":"levelo://app?vid=4b4fea6b-03c8-4142-91e1-0d5cb090fb64"},"vehicle_type_id":"4","last_reported":1702354151,"current_range_meters":24800,"station_id":"ce4bhp12rcd13ifvqh9g","pricing_plan_id":"free"},{"bike_id":"2cfe6c24-55f5-4942-b934-2484d6740bd3","system_id":"levelo_inurba_marseille","lat":43.292569,"lon":5.409107,"is_reserved":false,"is_disabled":false,"rental_uris":{"android":"levelo://app?vid=2cfe6c24-55f5-4942-b934-2484d6740bd3","ios":"levelo://app?vid=2cfe6c24-55f5-4942-b934-2484d6740bd3"},"vehicle_type_id":"4","last_reported":1702354151,"current_range_meters":28400,"station_id":"ce4bh192rcd13ifvqdc0","pricing_plan_id":"free"},{"bike_id":"d2d1a980-81d0-4b43-a286-ebecc7be733a","system_id":"levelo_inurba_marseille","lat":43.276179,"lon":5.361009,"is_reserved":false,"is_disabled":false,"rental_uris":{"android":"levelo://app?vid=d2d1a980-81d0-4b43-a286-ebecc7be733a","ios":"levelo://app?vid=d2d1a980-81d0-4b43-a286-ebecc7be733a"},"vehicle_type_id":"4","last_reported":1702354151,"current_range_meters":23600,"station_id":"ce4bgj92rcd13ifvqbe0","pricing_plan_id":"free"},{"bike_id":"0affd34a-26a3-4b23-9979-f74eada3d752","system_id":"levelo_inurba_marseille","lat":43.2762,"lon":5.3612,"is_reserved":false,"is_disabled":false,"rental_uris":{"android":"levelo://app?vid=0affd34a-26a3-4b23-9979-f74eada3d752","ios":"levelo://app?vid=0affd34a-26a3-4b23-9979-f74eada3d752"},"vehicle_type_id":"4","last_reported":1702354151,"current_range_meters":14000,"station_id":"ce4bgj92rcd13ifvqbe0","pricing_plan_id":"free"},{"bike_id":"7cddd4cc-2c7d-4381-9bfa-f684cdc32fa0","system_id":"levelo_inurba_marseille","lat":43.28009,"lon":5.39022,"is_reserved":false,"is_disabled":false,"rental_uris":{"android":"levelo://app?vid=7cddd4cc-2c7d-4381-9bfa-f684cdc32fa0","ios":"levelo://app?vid=7cddd4cc-2c7d-4381-9bfa-f684cdc32fa0"},"vehicle_type_id":"4","last_reported":1702354151,"current_range_meters":16800,"station_id":"","pricing_plan_id":"free"},{"bike_id":"f1b5931d-d3b9-4483-b874-4227e70f363c","system_id":"levelo_inurba_marseille","lat":43.27618,"lon":5.361009,"is_reserved":false,"is_disabled":false,"rental_uris":{"android":"levelo://app?vid=f1b5931d-d3b9-4483-b874-4227e70f363c","ios":"levelo://app?vid=f1b5931d-d3b9-4483-b874-4227e70f363c"},"vehicle_type_id":"4","last_reported":1702354151,"current_range_meters":31200,"station_id":"ce4bgj92rcd13ifvqbe0","pricing_plan_id":"free"},{"bike_id":"2311aaf9-3908-4009-b838-0e5f77c6048a","system_id":"levelo_inurba_marseille","lat":43.27614,"lon":5.36117,"is_reserved":false,"is_disabled":false,"rental_uris":{"android":"levelo://app?vid=2311aaf9-3908-4009-b838-0e5f77c6048a","ios":"levelo://app?vid=2311aaf9-3908-4009-b838-0e5f77c6048a"},"vehicle_type_id":"4","last_reported":1702354151,"current_range_meters":30000,"station_id":"ce4bgj92rcd13ifvqbe0","pricing_plan_id":"free"},{"bike_id":"6fb7d017-b245-43a0-8373-a842d3457d15","system_id":"levelo_inurba_marseille","lat":43.286836,"lon":5.405901,"is_reserved":false,"is_disabled":false,"rental_uris":{"android":"levelo://app?vid=6fb7d017-b245-43a0-8373-a842d3457d15","ios":"levelo://app?vid=6fb7d017-b245-43a0-8373-a842d3457d15"},"vehicle_type_id":"4","last_reported":1702354151,"current_range_meters":5200,"station_id":"","pricing_plan_id":"free"},{"bike_id":"c9df4d72-4a3c-4a38-bf52-884fff4689d7","system_id":"levelo_inurba_marseille","lat":43.280784,"lon":5.396622,"is_reserved":false,"is_disabled":false,"rental_uris":{"android":"levelo://app?vid=c9df4d72-4a3c-4a38-bf52-884fff4689d7","ios":"levelo://app?vid=c9df4d72-4a3c-4a38-bf52-884fff4689d7"},"vehicle_type_id":"4","last_reported":1702354151,"current_range_meters":30400,"station_id":"ce4bho12rcd13ifvqh2g","pricing_plan_id":"free"},{"bike_id":"5ec0f610-67d6-4362-9fee-eee9426eb4cf","system_id":"levelo_inurba_marseille","lat":43.303837,"lon":5.418724,"is_reserved":false,"is_disabled":false,"rental_uris":{"android":"levelo://app?vid=5ec0f610-67d6-4362-9fee-eee9426eb4cf","ios":"levelo://app?vid=5ec0f610-67d6-4362-9fee-eee9426eb4cf"},"vehicle_type_id":"4","last_reported":1702354151,"current_range_meters":30400,"station_id":"ce4bhop2rcd13ifvqh7g","pricing_plan_id":"free"},{"bike_id":"36cbd5e5-ee8e-414a-82bf-6205e83d5f7a","system_id":"levelo_inurba_marseille","lat":43.278401,"lon":5.392152,"is_reserved":false,"is_disabled":false,"rental_uris":{"android":"levelo://app?vid=36cbd5e5-ee8e-414a-82bf-6205e83d5f7a","ios":"levelo://app?vid=36cbd5e5-ee8e-414a-82bf-6205e83d5f7a"},"vehicle_type_id":"4","last_reported":1702354151,"current_range_meters":30800,"station_id":"ce4bhjp2rcd13ifvqga0","pricing_plan_id":"free"},{"bike_id":"9c012ad6-17df-4e46-afbb-ed3ee258686c","system_id":"levelo_inurba_marseille","lat":43.278401,"lon":5.392152,"is_reserved":false,"is_disabled":false,"rental_uris":{"android":"levelo://app?vid=9c012ad6-17df-4e46-afbb-ed3ee258686c","ios":"levelo://app?vid=9c012ad6-17df-4e46-afbb-ed3ee258686c"},"vehicle_type_id":"4","last_reported":1702354151,"current_range_meters":4000,"station_id":"ce4bhjp2rcd13ifvqga0","pricing_plan_id":"free"},{"bike_id":"b946a41a-8eab-464e-bb8b-f8525b522ed8","system_id":"levelo_inurba_marseille","lat":43.273613,"lon":5.362705,"is_reserved":false,"is_disabled":false,"rental_uris":{"android":"levelo://app?vid=b946a41a-8eab-464e-bb8b-f8525b522ed8","ios":"levelo://app?vid=b946a41a-8eab-464e-bb8b-f8525b522ed8"},"vehicle_type_id":"4","last_reported":1702354151,"current_range_meters":23200,"station_id":"ce4bhbh2rcd13ifvqeo0","pricing_plan_id":"free"},{"bike_id":"9ea10af0-3940-4224-a189-633a8d8b6409","system_id":"levelo_inurba_marseille","lat":43.273613,"lon":5.362705,"is_reserved":false,"is_disabled":false,"rental_uris":{"android":"levelo://app?vid=9ea10af0-3940-4224-a189-633a8d8b6409","ios":"levelo://app?vid=9ea10af0-3940-4224-a189-633a8d8b6409"},"vehicle_type_id":"4","last_reported":1702354151,"current_range_meters":29600,"station_id":"ce4bhbh2rcd13ifvqeo0","pricing_plan_id":"free"},{"bike_id":"f763e54d-5215-4eb1-9294-2cf58722503f","system_id":"levelo_inurba_marseille","lat":43.273609,"lon":5.362708,"is_reserved":false,"is_disabled":false,"rental_uris":{"android":"levelo://app?vid=f763e54d-5215-4eb1-9294-2cf58722503f","ios":"levelo://app?vid=f763e54d-5215-4eb1-9294-2cf58722503f"},"vehicle_type_id":"4","last_reported":1702354151,"current_range_meters":28000,"station_id":"ce4bhbh2rcd13ifvqeo0","pricing_plan_id":"free"},{"bike_id":"1b2a1c4d-b89b-4b63-adda-6e0455bb8429","system_id":"levelo_inurba_marseille","lat":43.275625,"lon":5.384392,"is_reserved":false,"is_disabled":false,"rental_uris":{"android":"levelo://app?vid=1b2a1c4d-b89b-4b63-adda-6e0455bb8429","ios":"levelo://app?vid=1b2a1c4d-b89b-4b63-adda-6e0455bb8429"},"vehicle_type_id":"4","last_reported":1702354151,"current_range_meters":29200,"station_id":"ce4bhh92rcd13ifvqfi0","pricing_plan_id":"free"},{"bike_id":"b25b4313-cda6-48cb-95d4-7ce169cb4e6d","system_id":"levelo_inurba_marseille","lat":43.33608,"lon":5.41031,"is_reserved":false,"is_disabled":false,"rental_uris":{"android":"levelo://app?vid=b25b4313-cda6-48cb-95d4-7ce169cb4e6d","ios":"levelo://app?vid=b25b4313-cda6-48cb-95d4-7ce169cb4e6d"},"vehicle_type_id":"4","last_reported":1702354151,"current_range_meters":15600,"station_id":"ce4bhqh2rcd13ifvqhmg","pricing_plan_id":"free"},{"bike_id":"a3c7606a-ba3d-4829-a2d1-1fb14a046ad5","system_id":"levelo_inurba_marseille","lat":43.279975,"lon":5.40009,"is_reserved":false,"is_disabled":false,"rental_uris":{"android":"levelo://app?vid=a3c7606a-ba3d-4829-a2d1-1fb14a046ad5","ios":"levelo://app?vid=a3c7606a-ba3d-4829-a2d1-1fb14a046ad5"},"vehicle_type_id":"4","last_reported":1702354151,"current_range_meters":26800,"station_id":"ce4bho92rcd13ifvqh4g","pricing_plan_id":"free"},{"bike_id":"3c7233a6-8ef0-4bde-8852-3101005b5b26","system_id":"levelo_inurba_marseille","lat":43.279952,"lon":5.400085,"is_reserved":false,"is_disabled":false,"rental_uris":{"android":"levelo://app?vid=3c7233a6-8ef0-4bde-8852-3101005b5b26","ios":"levelo://app?vid=3c7233a6-8ef0-4bde-8852-3101005b5b26"},"vehicle_type_id":"4","last_reported":1702354151,"current_range_meters":29600,"station_id":"ce4bho92rcd13ifvqh4g","pricing_plan_id":"free"},{"bike_id":"00924fa7-3716-4457-a6b3-fe78139fdf14","system_id":"levelo_inurba_marseille","lat":43.317121,"lon":5.423936,"is_reserved":false,"is_disabled":false,"rental_uris":{"android":"levelo://app?vid=00924fa7-3716-4457-a6b3-fe78139fdf14","ios":"levelo://app?vid=00924fa7-3716-4457-a6b3-fe78139fdf14"},"vehicle_type_id":"4","last_reported":1702354151,"current_range_meters":28000,"station_id":"ce4bhp92rcd13ifvqhbg","pricing_plan_id":"free"},{"bike_id":"b1c028eb-0fe1-4afa-b35c-b9783a0e9537","system_id":"levelo_inurba_marseille","lat":43.31723,"lon":5.42405,"is_reserved":false,"is_disabled":false,"rental_uris":{"android":"levelo://app?vid=b1c028eb-0fe1-4afa-b35c-b9783a0e9537","ios":"levelo://app?vid=b1c028eb-0fe1-4afa-b35c-b9783a0e9537"},"vehicle_type_id":"4","last_reported":1702354151,"current_range_meters":7200,"station_id":"ce4bhp92rcd13ifvqhbg","pricing_plan_id":"free"},{"bike_id":"2a9c0dae-682e-4eca-b9bf-90a0d82d1dae","system_id":"levelo_inurba_marseille","lat":43.272116,"lon":5.391747,"is_reserved":false,"is_disabled":false,"rental_uris":{"android":"levelo://app?vid=2a9c0dae-682e-4eca-b9bf-90a0d82d1dae","ios":"levelo://app?vid=2a9c0dae-682e-4eca-b9bf-90a0d82d1dae"},"vehicle_type_id":"4","last_reported":1702354151,"current_range_meters":30000,"station_id":"ce4bhhp2rcd13ifvqfm0","pricing_plan_id":"free"},{"bike_id":"114ed9a0-f405-4e5a-8abc-a36515ad57b3","system_id":"levelo_inurba_marseille","lat":43.27217,"lon":5.39231,"is_reserved":false,"is_disabled":false,"rental_uris":{"android":"levelo://app?vid=114ed9a0-f405-4e5a-8abc-a36515ad57b3","ios":"levelo://app?vid=114ed9a0-f405-4e5a-8abc-a36515ad57b3"},"vehicle_type_id":"4","last_reported":1702354151,"current_range_meters":21200,"station_id":"ce4bhhp2rcd13ifvqfm0","pricing_plan_id":"free"},{"bike_id":"075af69d-d29d-4e72-9efd-a651f1afe17c","system_id":"levelo_inurba_marseille","lat":43.278128,"lon":5.407195,"is_reserved":false,"is_disabled":false,"rental_uris":{"android":"levelo://app?vid=075af69d-d29d-4e72-9efd-a651f1afe17c","ios":"levelo://app?vid=075af69d-d29d-4e72-9efd-a651f1afe17c"},"vehicle_type_id":"4","last_reported":1702354151,"current_range_meters":26400,"station_id":"ce4bhnh2rcd13ifvqgtg","pricing_plan_id":"free"},{"bike_id":"1d64da37-e124-4ab4-a918-56a5f5287e92","system_id":"levelo_inurba_marseille","lat":43.278128,"lon":5.407195,"is_reserved":false,"is_disabled":false,"rental_uris":{"android":"levelo://app?vid=1d64da37-e124-4ab4-a918-56a5f5287e92","ios":"levelo://app?vid=1d64da37-e124-4ab4-a918-56a5f5287e92"},"vehicle_type_id":"4","last_reported":1702354151,"current_range_meters":27200,"station_id":"ce4bhnh2rcd13ifvqgtg","pricing_plan_id":"free"},{"bike_id":"e355444f-467d-4d19-965f-416ab15b4237","system_id":"levelo_inurba_marseille","lat":43.279544,"lon":5.41044,"is_reserved":false,"is_disabled":false,"rental_uris":{"android":"levelo://app?vid=e355444f-467d-4d19-965f-416ab15b4237","ios":"levelo://app?vid=e355444f-467d-4d19-965f-416ab15b4237"},"vehicle_type_id":"4","last_reported":1702354151,"current_range_meters":18800,"station_id":"ce4bhnp2rcd13ifvqh0g","pricing_plan_id":"free"},{"bike_id":"048a7c17-97c6-4e8b-b365-1d7721c101c5","system_id":"levelo_inurba_marseille","lat":43.279465,"lon":5.410561,"is_reserved":false,"is_disabled":false,"rental_uris":{"android":"levelo://app?vid=048a7c17-97c6-4e8b-b365-1d7721c101c5","ios":"levelo://app?vid=048a7c17-97c6-4e8b-b365-1d7721c101c5"},"vehicle_type_id":"4","last_reported":1702354151,"current_range_meters":29600,"station_id":"ce4bhnp2rcd13ifvqh0g","pricing_plan_id":"free"},{"bike_id":"629197af-30a4-4732-afe0-3c712ab8a4ce","system_id":"levelo_inurba_marseille","lat":43.279465,"lon":5.410561,"is_reserved":false,"is_disabled":false,"rental_uris":{"android":"levelo://app?vid=629197af-30a4-4732-afe0-3c712ab8a4ce","ios":"levelo://app?vid=629197af-30a4-4732-afe0-3c712ab8a4ce"},"vehicle_type_id":"4","last_reported":1702354151,"current_range_meters":26800,"station_id":"ce4bhnp2rcd13ifvqh0g","pricing_plan_id":"free"},{"bike_id":"d0bb7721-703f-4b53-8c77-0679f283277c","system_id":"levelo_inurba_marseille","lat":43.279465,"lon":5.410561,"is_reserved":false,"is_disabled":false,"rental_uris":{"android":"levelo://app?vid=d0bb7721-703f-4b53-8c77-0679f283277c","ios":"levelo://app?vid=d0bb7721-703f-4b53-8c77-0679f283277c"},"vehicle_type_id":"4","last_reported":1702354151,"current_range_meters":31200,"station_id":"ce4bhnp2rcd13ifvqh0g","pricing_plan_id":"free"},{"bike_id":"c2f5aefa-272f-458f-90e2-e35939f7abe9","system_id":"levelo_inurba_marseille","lat":43.279465,"lon":5.410561,"is_reserved":false,"is_disabled":false,"rental_uris":{"android":"levelo://app?vid=c2f5aefa-272f-458f-90e2-e35939f7abe9","ios":"levelo://app?vid=c2f5aefa-272f-458f-90e2-e35939f7abe9"},"vehicle_type_id":"4","last_reported":1702354151,"current_range_meters":23600,"station_id":"ce4bhnp2rcd13ifvqh0g","pricing_plan_id":"free"},{"bike_id":"afbe6453-4082-4cc7-a9ed-7f96e9609a56","system_id":"levelo_inurba_marseille","lat":43.26683,"lon":5.38269,"is_reserved":false,"is_disabled":false,"rental_uris":{"android":"levelo://app?vid=afbe6453-4082-4cc7-a9ed-7f96e9609a56","ios":"levelo://app?vid=afbe6453-4082-4cc7-a9ed-7f96e9609a56"},"vehicle_type_id":"4","last_reported":1702354151,"current_range_meters":28800,"station_id":"ce4bhg92rcd13ifvqf90","pricing_plan_id":"free"},{"bike_id":"95e85086-94f3-4d5d-828b-e5f9ce0e68b6","system_id":"levelo_inurba_marseille","lat":43.26681,"lon":5.382694,"is_reserved":false,"is_disabled":false,"rental_uris":{"android":"levelo://app?vid=95e85086-94f3-4d5d-828b-e5f9ce0e68b6","ios":"levelo://app?vid=95e85086-94f3-4d5d-828b-e5f9ce0e68b6"},"vehicle_type_id":"4","last_reported":1702354151,"current_range_meters":31200,"station_id":"ce4bhg92rcd13ifvqf90","pricing_plan_id":"free"},{"bike_id":"414d7b4a-a3e9-448e-903a-d08acf242b2b","system_id":"levelo_inurba_marseille","lat":43.26681,"lon":5.382694,"is_reserved":false,"is_disabled":false,"rental_uris":{"android":"levelo://app?vid=414d7b4a-a3e9-448e-903a-d08acf242b2b","ios":"levelo://app?vid=414d7b4a-a3e9-448e-903a-d08acf242b2b"},"vehicle_type_id":"4","last_reported":1702354151,"current_range_meters":28400,"station_id":"ce4bhg92rcd13ifvqf90","pricing_plan_id":"free"},{"bike_id":"423e3098-a5a2-498b-9c3c-4341c381f5e8","system_id":"levelo_inurba_marseille","lat":43.26681,"lon":5.382694,"is_reserved":false,"is_disabled":false,"rental_uris":{"android":"levelo://app?vid=423e3098-a5a2-498b-9c3c-4341c381f5e8","ios":"levelo://app?vid=423e3098-a5a2-498b-9c3c-4341c381f5e8"},"vehicle_type_id":"4","last_reported":1702354151,"current_range_meters":27600,"station_id":"ce4bhg92rcd13ifvqf90","pricing_plan_id":"free"},{"bike_id":"fa2c8774-c50e-4ee1-b2f0-6158142ea9f6","system_id":"levelo_inurba_marseille","lat":43.2668,"lon":5.38274,"is_reserved":false,"is_disabled":false,"rental_uris":{"android":"levelo://app?vid=fa2c8774-c50e-4ee1-b2f0-6158142ea9f6","ios":"levelo://app?vid=fa2c8774-c50e-4ee1-b2f0-6158142ea9f6"},"vehicle_type_id":"4","last_reported":1702354151,"current_range_meters":25600,"station_id":"ce4bhg92rcd13ifvqf90","pricing_plan_id":"free"},{"bike_id":"618ab94a-31d3-49d5-8238-c36f733e2f97","system_id":"levelo_inurba_marseille","lat":43.26678,"lon":5.38269,"is_reserved":false,"is_disabled":false,"rental_uris":{"android":"levelo://app?vid=618ab94a-31d3-49d5-8238-c36f733e2f97","ios":"levelo://app?vid=618ab94a-31d3-49d5-8238-c36f733e2f97"},"vehicle_type_id":"4","last_reported":1702354151,"current_range_meters":24800,"station_id":"ce4bhg92rcd13ifvqf90","pricing_plan_id":"free"},{"bike_id":"89174b6c-7157-464f-821e-2b2484992d0c","system_id":"levelo_inurba_marseille","lat":43.27725,"lon":5.41142,"is_reserved":false,"is_disabled":false,"rental_uris":{"android":"levelo://app?vid=89174b6c-7157-464f-821e-2b2484992d0c","ios":"levelo://app?vid=89174b6c-7157-464f-821e-2b2484992d0c"},"vehicle_type_id":"4","last_reported":1702354151,"current_range_meters":16800,"station_id":"","pricing_plan_id":"free"},{"bike_id":"ee2e6f38-088a-4b0c-86a9-3e8b8b72101d","system_id":"levelo_inurba_marseille","lat":43.27996,"lon":5.416624,"is_reserved":false,"is_disabled":false,"rental_uris":{"android":"levelo://app?vid=ee2e6f38-088a-4b0c-86a9-3e8b8b72101d","ios":"levelo://app?vid=ee2e6f38-088a-4b0c-86a9-3e8b8b72101d"},"vehicle_type_id":"4","last_reported":1702354151,"current_range_meters":27600,"station_id":"ce4bho12rcd13ifvqh1g","pricing_plan_id":"free"},{"bike_id":"a4c2e866-1ad6-4353-a4f2-cb755e151f55","system_id":"levelo_inurba_marseille","lat":43.26324,"lon":5.37682,"is_reserved":false,"is_disabled":false,"rental_uris":{"android":"levelo://app?vid=a4c2e866-1ad6-4353-a4f2-cb755e151f55","ios":"levelo://app?vid=a4c2e866-1ad6-4353-a4f2-cb755e151f55"},"vehicle_type_id":"4","last_reported":1702354151,"current_range_meters":12000,"station_id":"","pricing_plan_id":"free"},{"bike_id":"216054f0-cd67-42c9-b39e-e23a367ed646","system_id":"levelo_inurba_marseille","lat":43.269486,"lon":5.402477,"is_reserved":false,"is_disabled":false,"rental_uris":{"android":"levelo://app?vid=216054f0-cd67-42c9-b39e-e23a367ed646","ios":"levelo://app?vid=216054f0-cd67-42c9-b39e-e23a367ed646"},"vehicle_type_id":"4","last_reported":1702354151,"current_range_meters":30400,"station_id":"cjm6bp8fraef2m0cb0m0","pricing_plan_id":"free"},{"bike_id":"cc588e65-3c67-418e-85ff-1f30e1451ab4","system_id":"levelo_inurba_marseille","lat":43.26949,"lon":5.40262,"is_reserved":false,"is_disabled":false,"rental_uris":{"android":"levelo://app?vid=cc588e65-3c67-418e-85ff-1f30e1451ab4","ios":"levelo://app?vid=cc588e65-3c67-418e-85ff-1f30e1451ab4"},"vehicle_type_id":"4","last_reported":1702354151,"current_range_meters":30400,"station_id":"cjm6bp8fraef2m0cb0m0","pricing_plan_id":"free"},{"bike_id":"cdd036f6-7ea5-4424-b6f3-3af93ebb2fa0","system_id":"levelo_inurba_marseille","lat":43.317104,"lon":5.436818,"is_reserved":false,"is_disabled":false,"rental_uris":{"android":"levelo://app?vid=cdd036f6-7ea5-4424-b6f3-3af93ebb2fa0","ios":"levelo://app?vid=cdd036f6-7ea5-4424-b6f3-3af93ebb2fa0"},"vehicle_type_id":"4","last_reported":1702354151,"current_range_meters":31200,"station_id":"ce4bhp92rcd13ifvqhcg","pricing_plan_id":"free"},{"bike_id":"4ee2ebe4-ccab-47af-b669-1b687cc9fb82","system_id":"levelo_inurba_marseille","lat":43.317104,"lon":5.436818,"is_reserved":false,"is_disabled":false,"rental_uris":{"android":"levelo://app?vid=4ee2ebe4-ccab-47af-b669-1b687cc9fb82","ios":"levelo://app?vid=4ee2ebe4-ccab-47af-b669-1b687cc9fb82"},"vehicle_type_id":"4","last_reported":1702354151,"current_range_meters":28800,"station_id":"ce4bhp92rcd13ifvqhcg","pricing_plan_id":"free"},{"bike_id":"08f0df5a-37d0-47b8-b589-34e20c000007","system_id":"levelo_inurba_marseille","lat":43.317153,"lon":5.437085,"is_reserved":false,"is_disabled":false,"rental_uris":{"android":"levelo://app?vid=08f0df5a-37d0-47b8-b589-34e20c000007","ios":"levelo://app?vid=08f0df5a-37d0-47b8-b589-34e20c000007"},"vehicle_type_id":"4","last_reported":1702354151,"current_range_meters":9600,"station_id":"ce4bhp92rcd13ifvqhcg","pricing_plan_id":"free"},{"bike_id":"26028b8b-2fb7-4fce-9011-67b90fcace31","system_id":"levelo_inurba_marseille","lat":43.31712,"lon":5.4371,"is_reserved":false,"is_disabled":false,"rental_uris":{"android":"levelo://app?vid=26028b8b-2fb7-4fce-9011-67b90fcace31","ios":"levelo://app?vid=26028b8b-2fb7-4fce-9011-67b90fcace31"},"vehicle_type_id":"4","last_reported":1702354151,"current_range_meters":28000,"station_id":"ce4bhp92rcd13ifvqhcg","pricing_plan_id":"free"},{"bike_id":"2124926b-08c8-4f00-8a0c-8bcd03255dd0","system_id":"levelo_inurba_marseille","lat":43.31721,"lon":5.43711,"is_reserved":false,"is_disabled":false,"rental_uris":{"android":"levelo://app?vid=2124926b-08c8-4f00-8a0c-8bcd03255dd0","ios":"levelo://app?vid=2124926b-08c8-4f00-8a0c-8bcd03255dd0"},"vehicle_type_id":"4","last_reported":1702354151,"current_range_meters":21600,"station_id":"ce4bhp92rcd13ifvqhcg","pricing_plan_id":"free"},{"bike_id":"37645cb8-5c24-41ba-b0d3-f9e32e3bff51","system_id":"levelo_inurba_marseille","lat":43.317104,"lon":5.436818,"is_reserved":false,"is_disabled":false,"rental_uris":{"android":"levelo://app?vid=37645cb8-5c24-41ba-b0d3-f9e32e3bff51","ios":"levelo://app?vid=37645cb8-5c24-41ba-b0d3-f9e32e3bff51"},"vehicle_type_id":"4","last_reported":1702354151,"current_range_meters":31200,"station_id":"ce4bhp92rcd13ifvqhcg","pricing_plan_id":"free"},{"bike_id":"1acf6805-7adc-4d3c-b52b-7b0895430b1f","system_id":"levelo_inurba_marseille","lat":43.26202,"lon":5.379299,"is_reserved":false,"is_disabled":false,"rental_uris":{"android":"levelo://app?vid=1acf6805-7adc-4d3c-b52b-7b0895430b1f","ios":"levelo://app?vid=1acf6805-7adc-4d3c-b52b-7b0895430b1f"},"vehicle_type_id":"4","last_reported":1702354151,"current_range_meters":27600,"station_id":"ce4bhjp2rcd13ifvqg90","pricing_plan_id":"free"},{"bike_id":"9c8ef7c8-ba62-4961-8443-d770181c75f2","system_id":"levelo_inurba_marseille","lat":43.271368,"lon":5.40928,"is_reserved":false,"is_disabled":false,"rental_uris":{"android":"levelo://app?vid=9c8ef7c8-ba62-4961-8443-d770181c75f2","ios":"levelo://app?vid=9c8ef7c8-ba62-4961-8443-d770181c75f2"},"vehicle_type_id":"4","last_reported":1702354151,"current_range_meters":27200,"station_id":"ce4bhl12rcd13ifvqgf0","pricing_plan_id":"free"},{"bike_id":"66ca0177-adad-4352-bc6f-8e78de8628c5","system_id":"levelo_inurba_marseille","lat":43.267959,"lon":5.402687,"is_reserved":false,"is_disabled":false,"rental_uris":{"android":"levelo://app?vid=66ca0177-adad-4352-bc6f-8e78de8628c5","ios":"levelo://app?vid=66ca0177-adad-4352-bc6f-8e78de8628c5"},"vehicle_type_id":"4","last_reported":1702354151,"current_range_meters":27600,"station_id":"ce501612rcd8frsf0b60","pricing_plan_id":"free"},{"bike_id":"e0eb79fa-1922-49f6-960c-6d3c8cd78c31","system_id":"levelo_inurba_marseille","lat":43.268063,"lon":5.402693,"is_reserved":false,"is_disabled":false,"rental_uris":{"android":"levelo://app?vid=e0eb79fa-1922-49f6-960c-6d3c8cd78c31","ios":"levelo://app?vid=e0eb79fa-1922-49f6-960c-6d3c8cd78c31"},"vehicle_type_id":"4","last_reported":1702354151,"current_range_meters":31200,"station_id":"ce501612rcd8frsf0b60","pricing_plan_id":"free"},{"bike_id":"7ef0e874-4d14-4db6-97d3-23537a85b219","system_id":"levelo_inurba_marseille","lat":43.298768,"lon":5.43643,"is_reserved":false,"is_disabled":false,"rental_uris":{"android":"levelo://app?vid=7ef0e874-4d14-4db6-97d3-23537a85b219","ios":"levelo://app?vid=7ef0e874-4d14-4db6-97d3-23537a85b219"},"vehicle_type_id":"4","last_reported":1702354151,"current_range_meters":28000,"station_id":"ce4bhpp2rcd13ifvqhfg","pricing_plan_id":"free"},{"bike_id":"ab0c0700-a3dd-4af2-8622-45d6c3009600","system_id":"levelo_inurba_marseille","lat":43.281548,"lon":5.42643,"is_reserved":false,"is_disabled":false,"rental_uris":{"android":"levelo://app?vid=ab0c0700-a3dd-4af2-8622-45d6c3009600","ios":"levelo://app?vid=ab0c0700-a3dd-4af2-8622-45d6c3009600"},"vehicle_type_id":"4","last_reported":1702354151,"current_range_meters":21200,"station_id":"ce4bhnh2rcd13ifvqgug","pricing_plan_id":"free"},{"bike_id":"7785c293-f45a-41fa-bfc7-fc873f99b2b9","system_id":"levelo_inurba_marseille","lat":43.281548,"lon":5.42643,"is_reserved":false,"is_disabled":false,"rental_uris":{"android":"levelo://app?vid=7785c293-f45a-41fa-bfc7-fc873f99b2b9","ios":"levelo://app?vid=7785c293-f45a-41fa-bfc7-fc873f99b2b9"},"vehicle_type_id":"4","last_reported":1702354151,"current_range_meters":31200,"station_id":"ce4bhnh2rcd13ifvqgug","pricing_plan_id":"free"},{"bike_id":"180bf347-93f7-4d14-a727-4021a2dbeb7d","system_id":"levelo_inurba_marseille","lat":43.281408,"lon":5.42996,"is_reserved":false,"is_disabled":false,"rental_uris":{"android":"levelo://app?vid=180bf347-93f7-4d14-a727-4021a2dbeb7d","ios":"levelo://app?vid=180bf347-93f7-4d14-a727-4021a2dbeb7d"},"vehicle_type_id":"4","last_reported":1702354151,"current_range_meters":13600,"station_id":"","pricing_plan_id":"free"},{"bike_id":"c2021aef-3a9c-4318-b1db-2655ac28620b","system_id":"levelo_inurba_marseille","lat":43.2607,"lon":5.393983,"is_reserved":false,"is_disabled":false,"rental_uris":{"android":"levelo://app?vid=c2021aef-3a9c-4318-b1db-2655ac28620b","ios":"levelo://app?vid=c2021aef-3a9c-4318-b1db-2655ac28620b"},"vehicle_type_id":"4","last_reported":1702354151,"current_range_meters":18800,"station_id":"ce4bhh92rcd13ifvqfj0","pricing_plan_id":"free"},{"bike_id":"2904fadb-7bd9-4958-ab41-36e416d618b9","system_id":"levelo_inurba_marseille","lat":43.275028,"lon":5.424534,"is_reserved":false,"is_disabled":false,"rental_uris":{"android":"levelo://app?vid=2904fadb-7bd9-4958-ab41-36e416d618b9","ios":"levelo://app?vid=2904fadb-7bd9-4958-ab41-36e416d618b9"},"vehicle_type_id":"4","last_reported":1702354151,"current_range_meters":27600,"station_id":"ce4bhn92rcd13ifvqgrg","pricing_plan_id":"free"},{"bike_id":"463668ea-b294-4421-824a-c4df85b1e87b","system_id":"levelo_inurba_marseille","lat":43.270721,"lon":5.422764,"is_reserved":false,"is_disabled":false,"rental_uris":{"android":"levelo://app?vid=463668ea-b294-4421-824a-c4df85b1e87b","ios":"levelo://app?vid=463668ea-b294-4421-824a-c4df85b1e87b"},"vehicle_type_id":"4","last_reported":1702354151,"current_range_meters":14800,"station_id":"ce4bhk92rcd13ifvqgb0","pricing_plan_id":"free"},{"bike_id":"cd1904e5-3f41-4572-8872-cc23fca0c4f1","system_id":"levelo_inurba_marseille","lat":43.270721,"lon":5.422764,"is_reserved":false,"is_disabled":false,"rental_uris":{"android":"levelo://app?vid=cd1904e5-3f41-4572-8872-cc23fca0c4f1","ios":"levelo://app?vid=cd1904e5-3f41-4572-8872-cc23fca0c4f1"},"vehicle_type_id":"4","last_reported":1702354151,"current_range_meters":28400,"station_id":"ce4bhk92rcd13ifvqgb0","pricing_plan_id":"free"},{"bike_id":"6a3975e8-cb2d-480d-a856-f906f0889e34","system_id":"levelo_inurba_marseille","lat":43.270721,"lon":5.422764,"is_reserved":false,"is_disabled":false,"rental_uris":{"android":"levelo://app?vid=6a3975e8-cb2d-480d-a856-f906f0889e34","ios":"levelo://app?vid=6a3975e8-cb2d-480d-a856-f906f0889e34"},"vehicle_type_id":"4","last_reported":1702354151,"current_range_meters":30400,"station_id":"ce4bhk92rcd13ifvqgb0","pricing_plan_id":"free"},{"bike_id":"57d1bf4f-9bf9-4213-9a92-5a3ce4c630cb","system_id":"levelo_inurba_marseille","lat":43.259298,"lon":5.409095,"is_reserved":false,"is_disabled":false,"rental_uris":{"android":"levelo://app?vid=57d1bf4f-9bf9-4213-9a92-5a3ce4c630cb","ios":"levelo://app?vid=57d1bf4f-9bf9-4213-9a92-5a3ce4c630cb"},"vehicle_type_id":"4","last_reported":1702354151,"current_range_meters":30400,"station_id":"ce4bhm92rcd13ifvqglg","pricing_plan_id":"free"},{"bike_id":"92a72a23-e4b4-42a5-990e-2e6e8c169807","system_id":"levelo_inurba_marseille","lat":43.25722,"lon":5.41117,"is_reserved":false,"is_disabled":false,"rental_uris":{"android":"levelo://app?vid=92a72a23-e4b4-42a5-990e-2e6e8c169807","ios":"levelo://app?vid=92a72a23-e4b4-42a5-990e-2e6e8c169807"},"vehicle_type_id":"4","last_reported":1702354151,"current_range_meters":16400,"station_id":"ce4bhkp2rcd13ifvqgd0","pricing_plan_id":"free"},{"bike_id":"8bfba5f0-6d02-4058-854b-b88f3097ad8f","system_id":"levelo_inurba_marseille","lat":43.25709,"lon":5.41124,"is_reserved":false,"is_disabled":false,"rental_uris":{"android":"levelo://app?vid=8bfba5f0-6d02-4058-854b-b88f3097ad8f","ios":"levelo://app?vid=8bfba5f0-6d02-4058-854b-b88f3097ad8f"},"vehicle_type_id":"4","last_reported":1702354151,"current_range_meters":7200,"station_id":"ce4bhkp2rcd13ifvqgd0","pricing_plan_id":"free"},{"bike_id":"98e80949-c1f6-4017-87d6-7d8944e2e4e1","system_id":"levelo_inurba_marseille","lat":43.250009,"lon":5.389195,"is_reserved":false,"is_disabled":false,"rental_uris":{"android":"levelo://app?vid=98e80949-c1f6-4017-87d6-7d8944e2e4e1","ios":"levelo://app?vid=98e80949-c1f6-4017-87d6-7d8944e2e4e1"},"vehicle_type_id":"4","last_reported":1702354151,"current_range_meters":21600,"station_id":"ce4bhgp2rcd13ifvqfd0","pricing_plan_id":"free"},{"bike_id":"b608108c-9d88-4a97-9146-8b8b8edf505e","system_id":"levelo_inurba_marseille","lat":43.250023,"lon":5.38919,"is_reserved":false,"is_disabled":false,"rental_uris":{"android":"levelo://app?vid=b608108c-9d88-4a97-9146-8b8b8edf505e","ios":"levelo://app?vid=b608108c-9d88-4a97-9146-8b8b8edf505e"},"vehicle_type_id":"4","last_reported":1702354151,"current_range_meters":24800,"station_id":"ce4bhgp2rcd13ifvqfd0","pricing_plan_id":"free"},{"bike_id":"b04a2d9f-26bf-4487-ba34-d57509c29b38","system_id":"levelo_inurba_marseille","lat":43.2479,"lon":5.374457,"is_reserved":false,"is_disabled":false,"rental_uris":{"android":"levelo://app?vid=b04a2d9f-26bf-4487-ba34-d57509c29b38","ios":"levelo://app?vid=b04a2d9f-26bf-4487-ba34-d57509c29b38"},"vehicle_type_id":"4","last_reported":1702354151,"current_range_meters":26000,"station_id":"ce4bhgh2rcd13ifvqfb0","pricing_plan_id":"free"},{"bike_id":"35c3f807-24e7-4171-8112-6d272f635dd8","system_id":"levelo_inurba_marseille","lat":43.250966,"lon":5.395186,"is_reserved":false,"is_disabled":false,"rental_uris":{"android":"levelo://app?vid=35c3f807-24e7-4171-8112-6d272f635dd8","ios":"levelo://app?vid=35c3f807-24e7-4171-8112-6d272f635dd8"},"vehicle_type_id":"4","last_reported":1702354151,"current_range_meters":17600,"station_id":"ce4bhm12rcd13ifvqgkg","pricing_plan_id":"free"},{"bike_id":"0f7fd2ef-e6a4-4938-875f-ee0fc362106e","system_id":"levelo_inurba_marseille","lat":43.24693,"lon":5.382096,"is_reserved":false,"is_disabled":false,"rental_uris":{"android":"levelo://app?vid=0f7fd2ef-e6a4-4938-875f-ee0fc362106e","ios":"levelo://app?vid=0f7fd2ef-e6a4-4938-875f-ee0fc362106e"},"vehicle_type_id":"4","last_reported":1702354151,"current_range_meters":24400,"station_id":"ce4bhih2rcd13ifvqfr0","pricing_plan_id":"free"},{"bike_id":"bfbd63b6-a516-45cb-9399-3f622db645ca","system_id":"levelo_inurba_marseille","lat":43.24693,"lon":5.382096,"is_reserved":false,"is_disabled":false,"rental_uris":{"android":"levelo://app?vid=bfbd63b6-a516-45cb-9399-3f622db645ca","ios":"levelo://app?vid=bfbd63b6-a516-45cb-9399-3f622db645ca"},"vehicle_type_id":"4","last_reported":1702354151,"current_range_meters":30400,"station_id":"ce4bhih2rcd13ifvqfr0","pricing_plan_id":"free"},{"bike_id":"69fc94e6-d1dc-4eac-bba9-0be2d0c272a6","system_id":"levelo_inurba_marseille","lat":43.24693,"lon":5.382096,"is_reserved":false,"is_disabled":false,"rental_uris":{"android":"levelo://app?vid=69fc94e6-d1dc-4eac-bba9-0be2d0c272a6","ios":"levelo://app?vid=69fc94e6-d1dc-4eac-bba9-0be2d0c272a6"},"vehicle_type_id":"4","last_reported":1702354151,"current_range_meters":31200,"station_id":"ce4bhih2rcd13ifvqfr0","pricing_plan_id":"free"},{"bike_id":"d0e907f7-7026-4fee-ae1b-2f3332fde590","system_id":"levelo_inurba_marseille","lat":43.24693,"lon":5.382096,"is_reserved":false,"is_disabled":false,"rental_uris":{"android":"levelo://app?vid=d0e907f7-7026-4fee-ae1b-2f3332fde590","ios":"levelo://app?vid=d0e907f7-7026-4fee-ae1b-2f3332fde590"},"vehicle_type_id":"4","last_reported":1702354151,"current_range_meters":16800,"station_id":"ce4bhih2rcd13ifvqfr0","pricing_plan_id":"free"},{"bike_id":"671fd304-39cb-4a72-bcb4-29e963a5ecab","system_id":"levelo_inurba_marseille","lat":43.251155,"lon":5.40317,"is_reserved":false,"is_disabled":false,"rental_uris":{"android":"levelo://app?vid=671fd304-39cb-4a72-bcb4-29e963a5ecab","ios":"levelo://app?vid=671fd304-39cb-4a72-bcb4-29e963a5ecab"},"vehicle_type_id":"4","last_reported":1702354151,"current_range_meters":21600,"station_id":"ce4bhlh2rcd13ifvqgig","pricing_plan_id":"free"},{"bike_id":"b03db1f2-f2fa-439e-8d38-11ec73737c50","system_id":"levelo_inurba_marseille","lat":43.251149,"lon":5.40327,"is_reserved":false,"is_disabled":false,"rental_uris":{"android":"levelo://app?vid=b03db1f2-f2fa-439e-8d38-11ec73737c50","ios":"levelo://app?vid=b03db1f2-f2fa-439e-8d38-11ec73737c50"},"vehicle_type_id":"4","last_reported":1702354151,"current_range_meters":11600,"station_id":"ce4bhlh2rcd13ifvqgig","pricing_plan_id":"free"},{"bike_id":"ec1287da-3703-4e3c-80c6-e7986c9b87da","system_id":"levelo_inurba_marseille","lat":43.251106,"lon":5.403262,"is_reserved":false,"is_disabled":false,"rental_uris":{"android":"levelo://app?vid=ec1287da-3703-4e3c-80c6-e7986c9b87da","ios":"levelo://app?vid=ec1287da-3703-4e3c-80c6-e7986c9b87da"},"vehicle_type_id":"4","last_reported":1702354151,"current_range_meters":30400,"station_id":"ce4bhlh2rcd13ifvqgig","pricing_plan_id":"free"},{"bike_id":"fb6f1718-29f6-420f-b0f1-d655cd3993dd","system_id":"levelo_inurba_marseille","lat":43.25109,"lon":5.40322,"is_reserved":false,"is_disabled":false,"rental_uris":{"android":"levelo://app?vid=fb6f1718-29f6-420f-b0f1-d655cd3993dd","ios":"levelo://app?vid=fb6f1718-29f6-420f-b0f1-d655cd3993dd"},"vehicle_type_id":"4","last_reported":1702354151,"current_range_meters":28800,"station_id":"ce4bhlh2rcd13ifvqgig","pricing_plan_id":"free"},{"bike_id":"69c97f3b-999c-47a8-bbd0-7637913bd7d9","system_id":"levelo_inurba_marseille","lat":43.251097,"lon":5.40329,"is_reserved":false,"is_disabled":false,"rental_uris":{"android":"levelo://app?vid=69c97f3b-999c-47a8-bbd0-7637913bd7d9","ios":"levelo://app?vid=69c97f3b-999c-47a8-bbd0-7637913bd7d9"},"vehicle_type_id":"4","last_reported":1702354151,"current_range_meters":10800,"station_id":"ce4bhlh2rcd13ifvqgig","pricing_plan_id":"free"},{"bike_id":"6c07ffee-03e8-47dd-ab79-d055ac3cd3ce","system_id":"levelo_inurba_marseille","lat":43.246467,"lon":5.388984,"is_reserved":false,"is_disabled":false,"rental_uris":{"android":"levelo://app?vid=6c07ffee-03e8-47dd-ab79-d055ac3cd3ce","ios":"levelo://app?vid=6c07ffee-03e8-47dd-ab79-d055ac3cd3ce"},