{"last_updated":1732457273,"ttl":60,"version":"2.2","data":{"bikes":[{"bike_id":"d9df8239-4976-4070-b26b-e224a7ef0fff","system_id":"levelo_inurba_marseille","lat":43.31154,"lon":5.36945,"is_reserved":false,"is_disabled":true,"rental_uris":{"android":"levelo://app?vid=d9df8239-4976-4070-b26b-e224a7ef0fff","ios":"levelo://app?vid=d9df8239-4976-4070-b26b-e224a7ef0fff"},"vehicle_type_id":"4","last_reported":1732457273,"current_range_meters":0,"station_id":"","pricing_plan_id":"cebpf4jnsgd1na2vs0mg"},{"bike_id":"2a4da33a-8ef5-44f4-b768-c48a818ee0a1","system_id":"levelo_inurba_marseille","lat":43.23756,"lon":5.36381,"is_reserved":false,"is_disabled":false,"rental_uris":{"android":"levelo://app?vid=2a4da33a-8ef5-44f4-b768-c48a818ee0a1","ios":"levelo://app?vid=2a4da33a-8ef5-44f4-b768-c48a818ee0a1"},"vehicle_type_id":"4","last_reported":1732457273,"current_range_meters":38000,"station_id":"cpo3532slgdg3j2ikp40","pricing_plan_id":"cebpf4jnsgd1na2vs0mg"},{"bike_id":"341b2d3c-296b-4ad3-8911-a4cc2ee90a67","system_id":"levelo_inurba_marseille","lat":43.32536,"lon":5.41421,"is_reserved":false,"is_disabled":false,"rental_uris":{"android":"levelo://app?vid=341b2d3c-296b-4ad3-8911-a4cc2ee90a67","ios":"levelo://app?vid=341b2d3c-296b-4ad3-8911-a4cc2ee90a67"},"vehicle_type_id":"4","last_reported":1732457273,"current_range_meters":39200,"station_id":"ce4bhq12rcd13ifvqhhg","pricing_plan_id":"cebpf4jnsgd1na2vs0mg"},{"bike_id":"a9ad5a66-a127-49f6-b896-707ddbb426f8","system_id":"levelo_inurba_marseille","lat":43.27209,"lon":5.39185,"is_reserved":false,"is_disabled":false,"rental_uris":{"android":"levelo://app?vid=a9ad5a66-a127-49f6-b896-707ddbb426f8","ios":"levelo://app?vid=a9ad5a66-a127-49f6-b896-707ddbb426f8"},"vehicle_type_id":"4","last_reported":1732457273,"current_range_meters":5600,"station_id":"ce4bhhp2rcd13ifvqfm0","pricing_plan_id":"cebpf4jnsgd1na2vs0mg"},{"bike_id":"6926623e-2fe0-455b-9bee-6506d940ff70","system_id":"levelo_inurba_marseille","lat":43.255848,"lon":5.382386,"is_reserved":false,"is_disabled":false,"rental_uris":{"android":"levelo://app?vid=6926623e-2fe0-455b-9bee-6506d940ff70","ios":"levelo://app?vid=6926623e-2fe0-455b-9bee-6506d940ff70"},"vehicle_type_id":"4","last_reported":1732457273,"current_range_meters":9600,"station_id":"ce4bhih2rcd13ifvqfs0","pricing_plan_id":"cebpf4jnsgd1na2vs0mg"},{"bike_id":"ce20804b-ccc4-4505-bf63-2e0933fe04f0","system_id":"levelo_inurba_marseille","lat":43.28941,"lon":5.36394,"is_reserved":false,"is_disabled":false,"rental_uris":{"android":"levelo://app?vid=ce20804b-ccc4-4505-bf63-2e0933fe04f0","ios":"levelo://app?vid=ce20804b-ccc4-4505-bf63-2e0933fe04f0"},"vehicle_type_id":"4","last_reported":1732457273,"current_range_meters":14000,"station_id":"ce4bhc92rcd13ifvqetg","pricing_plan_id":"cebpf4jnsgd1na2vs0mg"},{"bike_id":"b1121334-8cc6-4dae-b77a-4f26c8f8da5d","system_id":"levelo_inurba_marseille","lat":43.27812,"lon":5.40717,"is_reserved":false,"is_disabled":false,"rental_uris":{"android":"levelo://app?vid=b1121334-8cc6-4dae-b77a-4f26c8f8da5d","ios":"levelo://app?vid=b1121334-8cc6-4dae-b77a-4f26c8f8da5d"},"vehicle_type_id":"4","last_reported":1732457273,"current_range_meters":9600,"station_id":"ce4bhnh2rcd13ifvqgtg","pricing_plan_id":"cebpf4jnsgd1na2vs0mg"},{"bike_id":"34dc2208-7d32-4f6b-bcf6-0509368fd2ae","system_id":"levelo_inurba_marseille","lat":43.30443,"lon":5.38894,"is_reserved":false,"is_disabled":true,"rental_uris":{"android":"levelo://app?vid=34dc2208-7d32-4f6b-bcf6-0509368fd2ae","ios":"levelo://app?vid=34dc2208-7d32-4f6b-bcf6-0509368fd2ae"},"vehicle_type_id":"4","last_reported":1732457273,"current_range_meters":35200,"station_id":"ce4bgk12rcd13ifvqbi0","pricing_plan_id":"cebpf4jnsgd1na2vs0mg"},{"bike_id":"d0197773-8736-4042-8778-9995e2cd3b6c","system_id":"levelo_inurba_marseille","lat":43.30185,"lon":5.36608,"is_reserved":false,"is_disabled":false,"rental_uris":{"android":"levelo://app?vid=d0197773-8736-4042-8778-9995e2cd3b6c","ios":"levelo://app?vid=d0197773-8736-4042-8778-9995e2cd3b6c"},"vehicle_type_id":"4","last_reported":1732457273,"current_range_meters":37600,"station_id":"ce4bgrh2rcd13ifvqc8g","pricing_plan_id":"cebpf4jnsgd1na2vs0mg"},{"bike_id":"995bc3cb-bed6-415b-87ef-68df4ebc362d","system_id":"levelo_inurba_marseille","lat":43.23151,"lon":5.43722,"is_reserved":false,"is_disabled":false,"rental_uris":{"android":"levelo://app?vid=995bc3cb-bed6-415b-87ef-68df4ebc362d","ios":"levelo://app?vid=995bc3cb-bed6-415b-87ef-68df4ebc362d"},"vehicle_type_id":"4","last_reported":1732457273,"current_range_meters":22800,"station_id":"ce4bhmp2rcd13ifvqgog","pricing_plan_id":"cebpf4jnsgd1na2vs0mg"},{"bike_id":"5d0ea24a-74b9-4d52-89c5-fae0adcf911d","system_id":"levelo_inurba_marseille","lat":43.27208,"lon":5.39185,"is_reserved":false,"is_disabled":false,"rental_uris":{"android":"levelo://app?vid=5d0ea24a-74b9-4d52-89c5-fae0adcf911d","ios":"levelo://app?vid=5d0ea24a-74b9-4d52-89c5-fae0adcf911d"},"vehicle_type_id":"4","last_reported":1732457273,"current_range_meters":36800,"station_id":"ce4bhhp2rcd13ifvqfm0","pricing_plan_id":"cebpf4jnsgd1na2vs0mg"},{"bike_id":"56f85705-31c9-42c3-8918-ab8f2c5fdaa7","system_id":"levelo_inurba_marseille","lat":43.30194,"lon":5.36614,"is_reserved":false,"is_disabled":false,"rental_uris":{"android":"levelo://app?vid=56f85705-31c9-42c3-8918-ab8f2c5fdaa7","ios":"levelo://app?vid=56f85705-31c9-42c3-8918-ab8f2c5fdaa7"},"vehicle_type_id":"4","last_reported":1732457273,"current_range_meters":31200,"station_id":"ce4bgrh2rcd13ifvqc8g","pricing_plan_id":"cebpf4jnsgd1na2vs0mg"},{"bike_id":"2526c405-3ec6-4baa-8684-1bafcab26d0f","system_id":"levelo_inurba_marseille","lat":43.27205,"lon":5.39183,"is_reserved":false,"is_disabled":false,"rental_uris":{"android":"levelo://app?vid=2526c405-3ec6-4baa-8684-1bafcab26d0f","ios":"levelo://app?vid=2526c405-3ec6-4baa-8684-1bafcab26d0f"},"vehicle_type_id":"4","last_reported":1732457273,"current_range_meters":18000,"station_id":"ce4bhhp2rcd13ifvqfm0","pricing_plan_id":"cebpf4jnsgd1na2vs0mg"},{"bike_id":"1fe519db-049c-47a1-b057-b4c160d04cbf","system_id":"levelo_inurba_marseille","lat":43.29273,"lon":5.36844,"is_reserved":false,"is_disabled":false,"rental_uris":{"android":"levelo://app?vid=1fe519db-049c-47a1-b057-b4c160d04cbf","ios":"levelo://app?vid=1fe519db-049c-47a1-b057-b4c160d04cbf"},"vehicle_type_id":"4","last_reported":1732457273,"current_range_meters":33200,"station_id":"ce4bhbp2rcd13ifvqesg","pricing_plan_id":"cebpf4jnsgd1na2vs0mg"},{"bike_id":"3eca035b-7624-478e-9ae5-bf9737dbf2ac","system_id":"levelo_inurba_marseille","lat":43.27904,"lon":5.38012,"is_reserved":false,"is_disabled":false,"rental_uris":{"android":"levelo://app?vid=3eca035b-7624-478e-9ae5-bf9737dbf2ac","ios":"levelo://app?vid=3eca035b-7624-478e-9ae5-bf9737dbf2ac"},"vehicle_type_id":"4","last_reported":1732457273,"current_range_meters":17200,"station_id":"ce4bhf92rcd13ifvqf50","pricing_plan_id":"cebpf4jnsgd1na2vs0mg"},{"bike_id":"1d480d76-bb73-4781-930a-16c68fdce680","system_id":"levelo_inurba_marseille","lat":43.25577,"lon":5.38234,"is_reserved":false,"is_disabled":false,"rental_uris":{"android":"levelo://app?vid=1d480d76-bb73-4781-930a-16c68fdce680","ios":"levelo://app?vid=1d480d76-bb73-4781-930a-16c68fdce680"},"vehicle_type_id":"4","last_reported":1732457273,"current_range_meters":36000,"station_id":"ce4bhih2rcd13ifvqfs0","pricing_plan_id":"cebpf4jnsgd1na2vs0mg"},{"bike_id":"c27a0a02-449f-4436-8974-1c07fd0fe5ec","system_id":"levelo_inurba_marseille","lat":43.33022,"lon":5.39043,"is_reserved":false,"is_disabled":false,"rental_uris":{"android":"levelo://app?vid=c27a0a02-449f-4436-8974-1c07fd0fe5ec","ios":"levelo://app?vid=c27a0a02-449f-4436-8974-1c07fd0fe5ec"},"vehicle_type_id":"4","last_reported":1732457273,"current_range_meters":8000,"station_id":"ce4bhr92rcd13ifvqhrg","pricing_plan_id":"cebpf4jnsgd1na2vs0mg"},{"bike_id":"50ea5bde-5722-438b-be2b-d7e798ec8edc","system_id":"levelo_inurba_marseille","lat":43.25093,"lon":5.39515,"is_reserved":false,"is_disabled":false,"rental_uris":{"android":"levelo://app?vid=50ea5bde-5722-438b-be2b-d7e798ec8edc","ios":"levelo://app?vid=50ea5bde-5722-438b-be2b-d7e798ec8edc"},"vehicle_type_id":"4","last_reported":1732457273,"current_range_meters":36800,"station_id":"ce4bhm12rcd13ifvqgkg","pricing_plan_id":"cebpf4jnsgd1na2vs0mg"},{"bike_id":"30585094-ecfe-43ac-ae36-000c4a5ab426","system_id":"levelo_inurba_marseille","lat":43.30961,"lon":5.3901,"is_reserved":false,"is_disabled":true,"rental_uris":{"android":"levelo://app?vid=30585094-ecfe-43ac-ae36-000c4a5ab426","ios":"levelo://app?vid=30585094-ecfe-43ac-ae36-000c4a5ab426"},"vehicle_type_id":"4","last_reported":1732457273,"current_range_meters":22400,"station_id":"ce4bgup2rcd13ifvqco0","pricing_plan_id":"cebpf4jnsgd1na2vs0mg"},{"bike_id":"5f84fccb-6473-45c7-b4bf-9ab64c8af504","system_id":"levelo_inurba_marseille","lat":43.25105,"lon":5.40324,"is_reserved":false,"is_disabled":false,"rental_uris":{"android":"levelo://app?vid=5f84fccb-6473-45c7-b4bf-9ab64c8af504","ios":"levelo://app?vid=5f84fccb-6473-45c7-b4bf-9ab64c8af504"},"vehicle_type_id":"4","last_reported":1732457273,"current_range_meters":33200,"station_id":"ce4bhlh2rcd13ifvqgig","pricing_plan_id":"cebpf4jnsgd1na2vs0mg"},{"bike_id":"06222d69-c6a3-47fe-9912-0fe63b34371e","system_id":"levelo_inurba_marseille","lat":43.29894,"lon":5.43665,"is_reserved":false,"is_disabled":false,"rental_uris":{"android":"levelo://app?vid=06222d69-c6a3-47fe-9912-0fe63b34371e","ios":"levelo://app?vid=06222d69-c6a3-47fe-9912-0fe63b34371e"},"vehicle_type_id":"4","last_reported":1732457273,"current_range_meters":40000,"station_id":"ce4bhpp2rcd13ifvqhfg","pricing_plan_id":"cebpf4jnsgd1na2vs0mg"},{"bike_id":"04251b05-720d-4010-9aca-0ed219c5a410","system_id":"levelo_inurba_marseille","lat":43.29842,"lon":5.36264,"is_reserved":false,"is_disabled":false,"rental_uris":{"android":"levelo://app?vid=04251b05-720d-4010-9aca-0ed219c5a410","ios":"levelo://app?vid=04251b05-720d-4010-9aca-0ed219c5a410"},"vehicle_type_id":"4","last_reported":1732457273,"current_range_meters":38800,"station_id":"ce4bgpp2rcd13ifvqc3g","pricing_plan_id":"cebpf4jnsgd1na2vs0mg"},{"bike_id":"db101b78-6ffb-4919-8b14-ec9dca35135b","system_id":"levelo_inurba_marseille","lat":43.33727,"lon":5.39184,"is_reserved":false,"is_disabled":false,"rental_uris":{"android":"levelo://app?vid=db101b78-6ffb-4919-8b14-ec9dca35135b","ios":"levelo://app?vid=db101b78-6ffb-4919-8b14-ec9dca35135b"},"vehicle_type_id":"4","last_reported":1732457273,"current_range_meters":11200,"station_id":"ce4bhr92rcd13ifvqhsg","pricing_plan_id":"cebpf4jnsgd1na2vs0mg"},{"bike_id":"479f15eb-e463-4b4f-b00d-8c3ccd3cffb7","system_id":"levelo_inurba_marseille","lat":43.30789,"lon":5.37639,"is_reserved":false,"is_disabled":false,"rental_uris":{"android":"levelo://app?vid=479f15eb-e463-4b4f-b00d-8c3ccd3cffb7","ios":"levelo://app?vid=479f15eb-e463-4b4f-b00d-8c3ccd3cffb7"},"vehicle_type_id":"4","last_reported":1732457273,"current_range_meters":26000,"station_id":"ce4bgv92rcd13ifvqcq0","pricing_plan_id":"cebpf4jnsgd1na2vs0mg"},{"bike_id":"8a6429da-06af-4bd0-9774-b1e1d27edf7f","system_id":"levelo_inurba_marseille","lat":43.23198,"lon":5.35551,"is_reserved":false,"is_disabled":false,"rental_uris":{"android":"levelo://app?vid=8a6429da-06af-4bd0-9774-b1e1d27edf7f","ios":"levelo://app?vid=8a6429da-06af-4bd0-9774-b1e1d27edf7f"},"vehicle_type_id":"4","last_reported":1732457273,"current_range_meters":10000,"station_id":"ce4bhu92rcd13ifvqi70","pricing_plan_id":"cebpf4jnsgd1na2vs0mg"},{"bike_id":"19501403-0682-4675-b541-158b0d167999","system_id":"levelo_inurba_marseille","lat":43.28271,"lon":5.35076,"is_reserved":false,"is_disabled":false,"rental_uris":{"android":"levelo://app?vid=19501403-0682-4675-b541-158b0d167999","ios":"levelo://app?vid=19501403-0682-4675-b541-158b0d167999"},"vehicle_type_id":"4","last_reported":1732457273,"current_range_meters":38800,"station_id":"ce4bhbp2rcd13ifvqerg","pricing_plan_id":"cebpf4jnsgd1na2vs0mg"},{"bike_id":"dafe16d4-ef71-4f67-be04-68a65f0fbf4d","system_id":"levelo_inurba_marseille","lat":43.3054,"lon":5.36562,"is_reserved":false,"is_disabled":false,"rental_uris":{"android":"levelo://app?vid=dafe16d4-ef71-4f67-be04-68a65f0fbf4d","ios":"levelo://app?vid=dafe16d4-ef71-4f67-be04-68a65f0fbf4d"},"vehicle_type_id":"4","last_reported":1732457273,"current_range_meters":16400,"station_id":"ce4bgs12rcd13ifvqcag","pricing_plan_id":"cebpf4jnsgd1na2vs0mg"},{"bike_id":"024139cf-a4df-4082-ac58-04eec108c563","system_id":"levelo_inurba_marseille","lat":43.30945,"lon":5.39029,"is_reserved":false,"is_disabled":false,"rental_uris":{"android":"levelo://app?vid=024139cf-a4df-4082-ac58-04eec108c563","ios":"levelo://app?vid=024139cf-a4df-4082-ac58-04eec108c563"},"vehicle_type_id":"4","last_reported":1732457273,"current_range_meters":33600,"station_id":"ce4bgup2rcd13ifvqco0","pricing_plan_id":"cebpf4jnsgd1na2vs0mg"},{"bike_id":"7976fb35-b391-421a-a281-4a2eaca446ec","system_id":"levelo_inurba_marseille","lat":43.30544,"lon":5.36558,"is_reserved":false,"is_disabled":false,"rental_uris":{"android":"levelo://app?vid=7976fb35-b391-421a-a281-4a2eaca446ec","ios":"levelo://app?vid=7976fb35-b391-421a-a281-4a2eaca446ec"},"vehicle_type_id":"4","last_reported":1732457273,"current_range_meters":30800,"station_id":"ce4bgs12rcd13ifvqcag","pricing_plan_id":"cebpf4jnsgd1na2vs0mg"},{"bike_id":"caeeb28a-2337-46ff-8cc1-38286fc7227b","system_id":"levelo_inurba_marseille","lat":43.25578,"lon":5.38239,"is_reserved":false,"is_disabled":false,"rental_uris":{"android":"levelo://app?vid=caeeb28a-2337-46ff-8cc1-38286fc7227b","ios":"levelo://app?vid=caeeb28a-2337-46ff-8cc1-38286fc7227b"},"vehicle_type_id":"4","last_reported":1732457273,"current_range_meters":10800,"station_id":"ce4bhih2rcd13ifvqfs0","pricing_plan_id":"cebpf4jnsgd1na2vs0mg"},{"bike_id":"6a2df70c-4e94-45ba-b67d-45bd465ca49d","system_id":"levelo_inurba_marseille","lat":43.29194,"lon":5.39323,"is_reserved":false,"is_disabled":true,"rental_uris":{"android":"levelo://app?vid=6a2df70c-4e94-45ba-b67d-45bd465ca49d","ios":"levelo://app?vid=6a2df70c-4e94-45ba-b67d-45bd465ca49d"},"vehicle_type_id":"4","last_reported":1732457273,"current_range_meters":30000,"station_id":"ce4bh192rcd13ifvqdd0","pricing_plan_id":"cebpf4jnsgd1na2vs0mg"},{"bike_id":"f0c9b009-6e7d-4316-96af-3036572d9258","system_id":"levelo_inurba_marseille","lat":43.29521,"lon":5.37505,"is_reserved":false,"is_disabled":true,"rental_uris":{"android":"levelo://app?vid=f0c9b009-6e7d-4316-96af-3036572d9258","ios":"levelo://app?vid=f0c9b009-6e7d-4316-96af-3036572d9258"},"vehicle_type_id":"4","last_reported":1732457273,"current_range_meters":30400,"station_id":"ce4bgkp2rcd13ifvqbmg","pricing_plan_id":"cebpf4jnsgd1na2vs0mg"},{"bike_id":"a33fd1d9-8998-41b0-9a29-7b1fde6c577a","system_id":"levelo_inurba_marseille","lat":43.26034,"lon":5.37549,"is_reserved":false,"is_disabled":false,"rental_uris":{"android":"levelo://app?vid=a33fd1d9-8998-41b0-9a29-7b1fde6c577a","ios":"levelo://app?vid=a33fd1d9-8998-41b0-9a29-7b1fde6c577a"},"vehicle_type_id":"4","last_reported":1732457273,"current_range_meters":38800,"station_id":"ce4bhgh2rcd13ifvqfa0","pricing_plan_id":"cebpf4jnsgd1na2vs0mg"},{"bike_id":"b2b158d0-8028-4675-9f9a-048f08fcfa95","system_id":"levelo_inurba_marseille","lat":43.278909,"lon":5.38014,"is_reserved":false,"is_disabled":false,"rental_uris":{"android":"levelo://app?vid=b2b158d0-8028-4675-9f9a-048f08fcfa95","ios":"levelo://app?vid=b2b158d0-8028-4675-9f9a-048f08fcfa95"},"vehicle_type_id":"4","last_reported":1732457273,"current_range_meters":37600,"station_id":"ce4bhf92rcd13ifvqf50","pricing_plan_id":"cebpf4jnsgd1na2vs0mg"},{"bike_id":"cba75631-9b69-42ba-8a82-1059adf0ef0e","system_id":"levelo_inurba_marseille","lat":43.27372,"lon":5.36258,"is_reserved":false,"is_disabled":false,"rental_uris":{"android":"levelo://app?vid=cba75631-9b69-42ba-8a82-1059adf0ef0e","ios":"levelo://app?vid=cba75631-9b69-42ba-8a82-1059adf0ef0e"},"vehicle_type_id":"4","last_reported":1732457273,"current_range_meters":38000,"station_id":"ce4bhbh2rcd13ifvqeo0","pricing_plan_id":"cebpf4jnsgd1na2vs0mg"},{"bike_id":"ff3594ee-f948-4832-9680-599cfdacc368","system_id":"levelo_inurba_marseille","lat":43.27187,"lon":5.40993,"is_reserved":false,"is_disabled":false,"rental_uris":{"android":"levelo://app?vid=ff3594ee-f948-4832-9680-599cfdacc368","ios":"levelo://app?vid=ff3594ee-f948-4832-9680-599cfdacc368"},"vehicle_type_id":"4","last_reported":1732457273,"current_range_meters":33200,"station_id":"ce4bhl12rcd13ifvqgf0","pricing_plan_id":"cebpf4jnsgd1na2vs0mg"},{"bike_id":"565a0b0b-afe1-4da1-b2e2-0df8233591e4","system_id":"levelo_inurba_marseille","lat":43.25101,"lon":5.40326,"is_reserved":false,"is_disabled":true,"rental_uris":{"android":"levelo://app?vid=565a0b0b-afe1-4da1-b2e2-0df8233591e4","ios":"levelo://app?vid=565a0b0b-afe1-4da1-b2e2-0df8233591e4"},"vehicle_type_id":"4","last_reported":1732457273,"current_range_meters":15200,"station_id":"ce4bhlh2rcd13ifvqgig","pricing_plan_id":"cebpf4jnsgd1na2vs0mg"},{"bike_id":"48ba3f27-02a7-4d15-9af8-99358287aa97","system_id":"levelo_inurba_marseille","lat":43.29785,"lon":5.39335,"is_reserved":false,"is_disabled":false,"rental_uris":{"android":"levelo://app?vid=48ba3f27-02a7-4d15-9af8-99358287aa97","ios":"levelo://app?vid=48ba3f27-02a7-4d15-9af8-99358287aa97"},"vehicle_type_id":"4","last_reported":1732457273,"current_range_meters":27200,"station_id":"chh1huq6cuj3fo74tm60","pricing_plan_id":"cebpf4jnsgd1na2vs0mg"},{"bike_id":"1e126baa-22b4-4cf7-a05e-1c0611873009","system_id":"levelo_inurba_marseille","lat":43.311192,"lon":5.377708,"is_reserved":false,"is_disabled":false,"rental_uris":{"android":"levelo://app?vid=1e126baa-22b4-4cf7-a05e-1c0611873009","ios":"levelo://app?vid=1e126baa-22b4-4cf7-a05e-1c0611873009"},"vehicle_type_id":"4","last_reported":1732457273,"current_range_meters":3200,"station_id":"","pricing_plan_id":"cebpf4jnsgd1na2vs0mg"},{"bike_id":"856c5296-7fea-42cc-be09-a6b9a37c0b30","system_id":"levelo_inurba_marseille","lat":43.273841,"lon":5.362519,"is_reserved":false,"is_disabled":true,"rental_uris":{"android":"levelo://app?vid=856c5296-7fea-42cc-be09-a6b9a37c0b30","ios":"levelo://app?vid=856c5296-7fea-42cc-be09-a6b9a37c0b30"},"vehicle_type_id":"4","last_reported":1732457273,"current_range_meters":0,"station_id":"ce4bhbh2rcd13ifvqeo0","pricing_plan_id":"cebpf4jnsgd1na2vs0mg"},{"bike_id":"4acfba0d-0d1b-436f-b509-52e30732ec64","system_id":"levelo_inurba_marseille","lat":43.23195,"lon":5.35558,"is_reserved":false,"is_disabled":false,"rental_uris":{"android":"levelo://app?vid=4acfba0d-0d1b-436f-b509-52e30732ec64","ios":"levelo://app?vid=4acfba0d-0d1b-436f-b509-52e30732ec64"},"vehicle_type_id":"4","last_reported":1732457273,"current_range_meters":12800,"station_id":"ce4bhu92rcd13ifvqi70","pricing_plan_id":"cebpf4jnsgd1na2vs0mg"},{"bike_id":"8e75945f-1400-4b2d-ad0e-59150d6447b3","system_id":"levelo_inurba_marseille","lat":43.30525,"lon":5.36724,"is_reserved":false,"is_disabled":false,"rental_uris":{"android":"levelo://app?vid=8e75945f-1400-4b2d-ad0e-59150d6447b3","ios":"levelo://app?vid=8e75945f-1400-4b2d-ad0e-59150d6447b3"},"vehicle_type_id":"4","last_reported":1732457273,"current_range_meters":32000,"station_id":"ce4bgrp2rcd13ifvqc9g","pricing_plan_id":"cebpf4jnsgd1na2vs0mg"},{"bike_id":"31c0035e-1f83-40f6-9a99-c3e5549f28e5","system_id":"levelo_inurba_marseille","lat":43.26436,"lon":5.39225,"is_reserved":false,"is_disabled":false,"rental_uris":{"android":"levelo://app?vid=31c0035e-1f83-40f6-9a99-c3e5549f28e5","ios":"levelo://app?vid=31c0035e-1f83-40f6-9a99-c3e5549f28e5"},"vehicle_type_id":"4","last_reported":1732457273,"current_range_meters":38000,"station_id":"","pricing_plan_id":"cebpf4jnsgd1na2vs0mg"},{"bike_id":"2755e063-c8eb-4591-943f-a84236cb7285","system_id":"levelo_inurba_marseille","lat":43.28402,"lon":5.34996,"is_reserved":false,"is_disabled":false,"rental_uris":{"android":"levelo://app?vid=2755e063-c8eb-4591-943f-a84236cb7285","ios":"levelo://app?vid=2755e063-c8eb-4591-943f-a84236cb7285"},"vehicle_type_id":"4","last_reported":1732457273,"current_range_meters":28800,"station_id":"ce4bhbh2rcd13ifvqepg","pricing_plan_id":"cebpf4jnsgd1na2vs0mg"},{"bike_id":"9a122f92-8d1b-4a84-9637-aeed9243668f","system_id":"levelo_inurba_marseille","lat":43.28939,"lon":5.36633,"is_reserved":false,"is_disabled":true,"rental_uris":{"android":"levelo://app?vid=9a122f92-8d1b-4a84-9637-aeed9243668f","ios":"levelo://app?vid=9a122f92-8d1b-4a84-9637-aeed9243668f"},"vehicle_type_id":"4","last_reported":1732457273,"current_range_meters":0,"station_id":"ce4bhap2rcd13ifvqek0","pricing_plan_id":"cebpf4jnsgd1na2vs0mg"},{"bike_id":"ab2f3a7f-e8b0-43a5-9cdc-926effad67d8","system_id":"levelo_inurba_marseille","lat":43.25874,"lon":5.39892,"is_reserved":false,"is_disabled":false,"rental_uris":{"android":"levelo://app?vid=ab2f3a7f-e8b0-43a5-9cdc-926effad67d8","ios":"levelo://app?vid=ab2f3a7f-e8b0-43a5-9cdc-926effad67d8"},"vehicle_type_id":"4","last_reported":1732457273,"current_range_meters":13600,"station_id":"ce4bhl92rcd13ifvqghg","pricing_plan_id":"cebpf4jnsgd1na2vs0mg"},{"bike_id":"ab867430-01e8-4b62-966b-6fdd2d74dbb2","system_id":"levelo_inurba_marseille","lat":43.26033,"lon":5.37548,"is_reserved":false,"is_disabled":false,"rental_uris":{"android":"levelo://app?vid=ab867430-01e8-4b62-966b-6fdd2d74dbb2","ios":"levelo://app?vid=ab867430-01e8-4b62-966b-6fdd2d74dbb2"},"vehicle_type_id":"4","last_reported":1732457273,"current_range_meters":27200,"station_id":"ce4bhgh2rcd13ifvqfa0","pricing_plan_id":"cebpf4jnsgd1na2vs0mg"},{"bike_id":"341470d8-1b7e-40d5-a88e-fcf4f7df3a09","system_id":"levelo_inurba_marseille","lat":43.28999,"lon":5.35614,"is_reserved":false,"is_disabled":false,"rental_uris":{"android":"levelo://app?vid=341470d8-1b7e-40d5-a88e-fcf4f7df3a09","ios":"levelo://app?vid=341470d8-1b7e-40d5-a88e-fcf4f7df3a09"},"vehicle_type_id":"4","last_reported":1732457273,"current_range_meters":16400,"station_id":"ce4bhb92rcd13ifvqen0","pricing_plan_id":"cebpf4jnsgd1na2vs0mg"},{"bike_id":"0bff4688-540e-4e2c-808d-c9347a358a4f","system_id":"levelo_inurba_marseille","lat":43.27657,"lon":5.3891,"is_reserved":false,"is_disabled":true,"rental_uris":{"android":"levelo://app?vid=0bff4688-540e-4e2c-808d-c9347a358a4f","ios":"levelo://app?vid=0bff4688-540e-4e2c-808d-c9347a358a4f"},"vehicle_type_id":"4","last_reported":1732457273,"current_range_meters":39200,"station_id":"ce4bhi12rcd13ifvqfo0","pricing_plan_id":"cebpf4jnsgd1na2vs0mg"},{"bike_id":"c37823cf-4e69-46e0-9526-b06921795943","system_id":"levelo_inurba_marseille","lat":43.29598,"lon":5.38095,"is_reserved":false,"is_disabled":false,"rental_uris":{"android":"levelo://app?vid=c37823cf-4e69-46e0-9526-b06921795943","ios":"levelo://app?vid=c37823cf-4e69-46e0-9526-b06921795943"},"vehicle_type_id":"4","last_reported":1732457273,"current_range_meters":28800,"station_id":"ce4bgl12rcd13ifvqbo0","pricing_plan_id":"cebpf4jnsgd1na2vs0mg"},{"bike_id":"71863c08-c007-4caa-9985-d5f744ae35d4","system_id":"levelo_inurba_marseille","lat":43.29092,"lon":5.3812,"is_reserved":false,"is_disabled":false,"rental_uris":{"android":"levelo://app?vid=71863c08-c007-4caa-9985-d5f744ae35d4","ios":"levelo://app?vid=71863c08-c007-4caa-9985-d5f744ae35d4"},"vehicle_type_id":"4","last_reported":1732457273,"current_range_meters":30000,"station_id":"ce4bh512rcd13ifvqe2g","pricing_plan_id":"cebpf4jnsgd1na2vs0mg"},{"bike_id":"66f17326-ccdc-40d5-8211-8a56a6a795be","system_id":"levelo_inurba_marseille","lat":43.27206,"lon":5.39179,"is_reserved":false,"is_disabled":false,"rental_uris":{"android":"levelo://app?vid=66f17326-ccdc-40d5-8211-8a56a6a795be","ios":"levelo://app?vid=66f17326-ccdc-40d5-8211-8a56a6a795be"},"vehicle_type_id":"4","last_reported":1732457273,"current_range_meters":31200,"station_id":"ce4bhhp2rcd13ifvqfm0","pricing_plan_id":"cebpf4jnsgd1na2vs0mg"},{"bike_id":"585b249f-8d26-4118-821e-ecb19a66d11d","system_id":"levelo_inurba_marseille","lat":43.23963,"lon":5.36635,"is_reserved":false,"is_disabled":false,"rental_uris":{"android":"levelo://app?vid=585b249f-8d26-4118-821e-ecb19a66d11d","ios":"levelo://app?vid=585b249f-8d26-4118-821e-ecb19a66d11d"},"vehicle_type_id":"4","last_reported":1732457273,"current_range_meters":24800,"station_id":"ce4bhi12rcd13ifvqfp0","pricing_plan_id":"cebpf4jnsgd1na2vs0mg"},{"bike_id":"fb3e88b4-f709-469a-9da4-593b5261ae6f","system_id":"levelo_inurba_marseille","lat":43.27211,"lon":5.39198,"is_reserved":false,"is_disabled":false,"rental_uris":{"android":"levelo://app?vid=fb3e88b4-f709-469a-9da4-593b5261ae6f","ios":"levelo://app?vid=fb3e88b4-f709-469a-9da4-593b5261ae6f"},"vehicle_type_id":"4","last_reported":1732457273,"current_range_meters":14400,"station_id":"ce4bhhp2rcd13ifvqfm0","pricing_plan_id":"cebpf4jnsgd1na2vs0mg"},{"bike_id":"c6ff6111-f732-4d07-9b69-440b7280dce1","system_id":"levelo_inurba_marseille","lat":43.30151,"lon":5.38085,"is_reserved":false,"is_disabled":false,"rental_uris":{"android":"levelo://app?vid=c6ff6111-f732-4d07-9b69-440b7280dce1","ios":"levelo://app?vid=c6ff6111-f732-4d07-9b69-440b7280dce1"},"vehicle_type_id":"4","last_reported":1732457273,"current_range_meters":25600,"station_id":"ce4bgjp2rcd13ifvqbh0","pricing_plan_id":"cebpf4jnsgd1na2vs0mg"},{"bike_id":"8c2ea6ac-c948-4ad4-8291-9ed371284386","system_id":"levelo_inurba_marseille","lat":43.25177,"lon":5.37834,"is_reserved":false,"is_disabled":false,"rental_uris":{"android":"levelo://app?vid=8c2ea6ac-c948-4ad4-8291-9ed371284386","ios":"levelo://app?vid=8c2ea6ac-c948-4ad4-8291-9ed371284386"},"vehicle_type_id":"4","last_reported":1732457273,"current_range_meters":26000,"station_id":"","pricing_plan_id":"cebpf4jnsgd1na2vs0mg"},{"bike_id":"4614c3ce-fa32-4b49-800d-cf02516d6ab9","system_id":"levelo_inurba_marseille","lat":43.32381,"lon":5.3897,"is_reserved":false,"is_disabled":false,"rental_uris":{"android":"levelo://app?vid=4614c3ce-fa32-4b49-800d-cf02516d6ab9","ios":"levelo://app?vid=4614c3ce-fa32-4b49-800d-cf02516d6ab9"},"vehicle_type_id":"4","last_reported":1732457273,"current_range_meters":19600,"station_id":"","pricing_plan_id":"cebpf4jnsgd1na2vs0mg"},{"bike_id":"d3ea556c-2d9c-42f0-9537-637d02da2703","system_id":"levelo_inurba_marseille","lat":43.28435,"lon":5.35,"is_reserved":false,"is_disabled":false,"rental_uris":{"android":"levelo://app?vid=d3ea556c-2d9c-42f0-9537-637d02da2703","ios":"levelo://app?vid=d3ea556c-2d9c-42f0-9537-637d02da2703"},"vehicle_type_id":"4","last_reported":1732457273,"current_range_meters":36000,"station_id":"ce4bhbh2rcd13ifvqepg","pricing_plan_id":"cebpf4jnsgd1na2vs0mg"},{"bike_id":"835b00c2-64c0-4cbe-82bb-c78dd70919e3","system_id":"levelo_inurba_marseille","lat":43.27959,"lon":5.40789,"is_reserved":false,"is_disabled":false,"rental_uris":{"android":"levelo://app?vid=835b00c2-64c0-4cbe-82bb-c78dd70919e3","ios":"levelo://app?vid=835b00c2-64c0-4cbe-82bb-c78dd70919e3"},"vehicle_type_id":"4","last_reported":1732457273,"current_range_meters":7200,"station_id":"","pricing_plan_id":"cebpf4jnsgd1na2vs0mg"},{"bike_id":"fd0e3340-543f-4c8a-8c34-222130852a29","system_id":"levelo_inurba_marseille","lat":43.279731,"lon":5.387385,"is_reserved":false,"is_disabled":true,"rental_uris":{"android":"levelo://app?vid=fd0e3340-543f-4c8a-8c34-222130852a29","ios":"levelo://app?vid=fd0e3340-543f-4c8a-8c34-222130852a29"},"vehicle_type_id":"4","last_reported":1732457273,"current_range_meters":16400,"station_id":"ce4bhg12rcd13ifvqf80","pricing_plan_id":"cebpf4jnsgd1na2vs0mg"},{"bike_id":"e662b885-15c0-4344-8409-692fa14b9dbc","system_id":"levelo_inurba_marseille","lat":43.27496,"lon":5.4246,"is_reserved":false,"is_disabled":false,"rental_uris":{"android":"levelo://app?vid=e662b885-15c0-4344-8409-692fa14b9dbc","ios":"levelo://app?vid=e662b885-15c0-4344-8409-692fa14b9dbc"},"vehicle_type_id":"4","last_reported":1732457273,"current_range_meters":40000,"station_id":"ce4bhn92rcd13ifvqgrg","pricing_plan_id":"cebpf4jnsgd1na2vs0mg"},{"bike_id":"5c8055e5-a368-4312-8157-243ebc733ac9","system_id":"levelo_inurba_marseille","lat":43.30597,"lon":5.3936,"is_reserved":false,"is_disabled":true,"rental_uris":{"android":"levelo://app?vid=5c8055e5-a368-4312-8157-243ebc733ac9","ios":"levelo://app?vid=5c8055e5-a368-4312-8157-243ebc733ac9"},"vehicle_type_id":"4","last_reported":1732457273,"current_range_meters":22800,"station_id":"ce4bh0p2rcd13ifvqd80","pricing_plan_id":"cebpf4jnsgd1na2vs0mg"},{"bike_id":"a63f026b-964a-429c-9110-87bd719c2c3a","system_id":"levelo_inurba_marseille","lat":43.29299,"lon":5.37455,"is_reserved":false,"is_disabled":true,"rental_uris":{"android":"levelo://app?vid=a63f026b-964a-429c-9110-87bd719c2c3a","ios":"levelo://app?vid=a63f026b-964a-429c-9110-87bd719c2c3a"},"vehicle_type_id":"4","last_reported":1732457273,"current_range_meters":36000,"station_id":"ce4bgi12rcd13ifvqb70","pricing_plan_id":"cebpf4jnsgd1na2vs0mg"},{"bike_id":"600b3470-1dde-43ce-962b-7a6284b20990","system_id":"levelo_inurba_marseille","lat":43.23188,"lon":5.35565,"is_reserved":false,"is_disabled":true,"rental_uris":{"android":"levelo://app?vid=600b3470-1dde-43ce-962b-7a6284b20990","ios":"levelo://app?vid=600b3470-1dde-43ce-962b-7a6284b20990"},"vehicle_type_id":"4","last_reported":1732457273,"current_range_meters":26800,"station_id":"ce4bhu92rcd13ifvqi70","pricing_plan_id":"cebpf4jnsgd1na2vs0mg"},{"bike_id":"658e92e6-8a2b-442e-ade5-662972e24075","system_id":"levelo_inurba_marseille","lat":43.22927,"lon":5.35374,"is_reserved":false,"is_disabled":false,"rental_uris":{"android":"levelo://app?vid=658e92e6-8a2b-442e-ade5-662972e24075","ios":"levelo://app?vid=658e92e6-8a2b-442e-ade5-662972e24075"},"vehicle_type_id":"4","last_reported":1732457273,"current_range_meters":16400,"station_id":"cpo3532slgdg3j2ikp40","pricing_plan_id":"cebpf4jnsgd1na2vs0mg"},{"bike_id":"08117995-990e-4451-96a5-afc9c181642a","system_id":"levelo_inurba_marseille","lat":43.28612,"lon":5.35103,"is_reserved":false,"is_disabled":true,"rental_uris":{"android":"levelo://app?vid=08117995-990e-4451-96a5-afc9c181642a","ios":"levelo://app?vid=08117995-990e-4451-96a5-afc9c181642a"},"vehicle_type_id":"4","last_reported":1732457273,"current_range_meters":27600,"station_id":"ce4bhch2rcd13ifvqeug","pricing_plan_id":"cebpf4jnsgd1na2vs0mg"},{"bike_id":"23c062dc-9f16-4a14-aa0b-b9c24e504663","system_id":"levelo_inurba_marseille","lat":43.255,"lon":5.37651,"is_reserved":false,"is_disabled":false,"rental_uris":{"android":"levelo://app?vid=23c062dc-9f16-4a14-aa0b-b9c24e504663","ios":"levelo://app?vid=23c062dc-9f16-4a14-aa0b-b9c24e504663"},"vehicle_type_id":"4","last_reported":1732457273,"current_range_meters":16800,"station_id":"ce4bhh12rcd13ifvqff0","pricing_plan_id":"cebpf4jnsgd1na2vs0mg"},{"bike_id":"63584b5e-0fb1-417b-8309-79a5e239300b","system_id":"levelo_inurba_marseille","lat":43.29426,"lon":5.38626,"is_reserved":false,"is_disabled":false,"rental_uris":{"android":"levelo://app?vid=63584b5e-0fb1-417b-8309-79a5e239300b","ios":"levelo://app?vid=63584b5e-0fb1-417b-8309-79a5e239300b"},"vehicle_type_id":"4","last_reported":1732457273,"current_range_meters":12800,"station_id":"ce4bh2h2rcd13ifvqdh0","pricing_plan_id":"cebpf4jnsgd1na2vs0mg"},{"bike_id":"9cd4a41e-9267-4c1b-94dc-126dd78de022","system_id":"levelo_inurba_marseille","lat":43.30936,"lon":5.37414,"is_reserved":false,"is_disabled":false,"rental_uris":{"android":"levelo://app?vid=9cd4a41e-9267-4c1b-94dc-126dd78de022","ios":"levelo://app?vid=9cd4a41e-9267-4c1b-94dc-126dd78de022"},"vehicle_type_id":"4","last_reported":1732457273,"current_range_meters":10800,"station_id":"","pricing_plan_id":"cebpf4jnsgd1na2vs0mg"},{"bike_id":"aff1b21a-bcf0-4eb7-962a-f785632415d2","system_id":"levelo_inurba_marseille","lat":43.25494,"lon":5.37651,"is_reserved":false,"is_disabled":false,"rental_uris":{"android":"levelo://app?vid=aff1b21a-bcf0-4eb7-962a-f785632415d2","ios":"levelo://app?vid=aff1b21a-bcf0-4eb7-962a-f785632415d2"},"vehicle_type_id":"4","last_reported":1732457273,"current_range_meters":10000,"station_id":"ce4bhh12rcd13ifvqff0","pricing_plan_id":"cebpf4jnsgd1na2vs0mg"},{"bike_id":"6f148f96-5001-4751-9146-64d27a6f5f1c","system_id":"levelo_inurba_marseille","lat":43.30803,"lon":5.43531,"is_reserved":false,"is_disabled":false,"rental_uris":{"android":"levelo://app?vid=6f148f96-5001-4751-9146-64d27a6f5f1c","ios":"levelo://app?vid=6f148f96-5001-4751-9146-64d27a6f5f1c"},"vehicle_type_id":"4","last_reported":1732457273,"current_range_meters":39200,"station_id":"ce4bhph2rcd13ifvqheg","pricing_plan_id":"cebpf4jnsgd1na2vs0mg"},{"bike_id":"4cf68192-498e-49a8-b866-19367c604fb3","system_id":"levelo_inurba_marseille","lat":43.29584,"lon":5.40001,"is_reserved":false,"is_disabled":true,"rental_uris":{"android":"levelo://app?vid=4cf68192-498e-49a8-b866-19367c604fb3","ios":"levelo://app?vid=4cf68192-498e-49a8-b866-19367c604fb3"},"vehicle_type_id":"4","last_reported":1732457273,"current_range_meters":35600,"station_id":"ce4bh312rcd13ifvqdj0","pricing_plan_id":"cebpf4jnsgd1na2vs0mg"},{"bike_id":"5490ab91-05e5-48f9-bb1a-074a5b03f773","system_id":"levelo_inurba_marseille","lat":43.24648,"lon":5.3889,"is_reserved":false,"is_disabled":false,"rental_uris":{"android":"levelo://app?vid=5490ab91-05e5-48f9-bb1a-074a5b03f773","ios":"levelo://app?vid=5490ab91-05e5-48f9-bb1a-074a5b03f773"},"vehicle_type_id":"4","last_reported":1732457273,"current_range_meters":40000,"station_id":"ce4bhg12rcd13ifvqf60","pricing_plan_id":"cebpf4jnsgd1na2vs0mg"},{"bike_id":"022b99c9-9180-47ef-9750-fad5e5b6e04f","system_id":"levelo_inurba_marseille","lat":43.30531,"lon":5.36719,"is_reserved":false,"is_disabled":false,"rental_uris":{"android":"levelo://app?vid=022b99c9-9180-47ef-9750-fad5e5b6e04f","ios":"levelo://app?vid=022b99c9-9180-47ef-9750-fad5e5b6e04f"},"vehicle_type_id":"4","last_reported":1732457273,"current_range_meters":4000,"station_id":"ce4bgrp2rcd13ifvqc9g","pricing_plan_id":"cebpf4jnsgd1na2vs0mg"},{"bike_id":"1e57c68e-4f84-4b4b-9687-49bed0dc4e0d","system_id":"levelo_inurba_marseille","lat":43.25116,"lon":5.40319,"is_reserved":false,"is_disabled":false,"rental_uris":{"android":"levelo://app?vid=1e57c68e-4f84-4b4b-9687-49bed0dc4e0d","ios":"levelo://app?vid=1e57c68e-4f84-4b4b-9687-49bed0dc4e0d"},"vehicle_type_id":"4","last_reported":1732457273,"current_range_meters":22400,"station_id":"ce4bhlh2rcd13ifvqgig","pricing_plan_id":"cebpf4jnsgd1na2vs0mg"},{"bike_id":"6366c9d4-8bb1-44b4-ac0d-d040876d71bb","system_id":"levelo_inurba_marseille","lat":43.33609,"lon":5.41025,"is_reserved":false,"is_disabled":false,"rental_uris":{"android":"levelo://app?vid=6366c9d4-8bb1-44b4-ac0d-d040876d71bb","ios":"levelo://app?vid=6366c9d4-8bb1-44b4-ac0d-d040876d71bb"},"vehicle_type_id":"4","last_reported":1732457273,"current_range_meters":20400,"station_id":"ce4bhqh2rcd13ifvqhmg","pricing_plan_id":"cebpf4jnsgd1na2vs0mg"},{"bike_id":"c1cfae9f-3020-4944-b37b-e5405fa71a7b","system_id":"levelo_inurba_marseille","lat":43.25497,"lon":5.37648,"is_reserved":false,"is_disabled":false,"rental_uris":{"android":"levelo://app?vid=c1cfae9f-3020-4944-b37b-e5405fa71a7b","ios":"levelo://app?vid=c1cfae9f-3020-4944-b37b-e5405fa71a7b"},"vehicle_type_id":"4","last_reported":1732457273,"current_range_meters":28800,"station_id":"ce4bhh12rcd13ifvqff0","pricing_plan_id":"cebpf4jnsgd1na2vs0mg"},{"bike_id":"b57a8bdd-85a1-45d2-ace3-d32f648419f5","system_id":"levelo_inurba_marseille","lat":43.28699,"lon":5.39987,"is_reserved":false,"is_disabled":false,"rental_uris":{"android":"levelo://app?vid=b57a8bdd-85a1-45d2-ace3-d32f648419f5","ios":"levelo://app?vid=b57a8bdd-85a1-45d2-ace3-d32f648419f5"},"vehicle_type_id":"4","last_reported":1732457273,"current_range_meters":10800,"station_id":"ce4bho92rcd13ifvqh3g","pricing_plan_id":"cebpf4jnsgd1na2vs0mg"},{"bike_id":"734ff0c4-f245-4197-8036-be5e222d76fd","system_id":"levelo_inurba_marseille","lat":43.28996,"lon":5.42589,"is_reserved":false,"is_disabled":true,"rental_uris":{"android":"levelo://app?vid=734ff0c4-f245-4197-8036-be5e222d76fd","ios":"levelo://app?vid=734ff0c4-f245-4197-8036-be5e222d76fd"},"vehicle_type_id":"4","last_reported":1732457273,"current_range_meters":0,"station_id":"","pricing_plan_id":"cebpf4jnsgd1na2vs0mg"},{"bike_id":"31e8cf73-3755-4d23-8e13-6fb3e4e82277","system_id":"levelo_inurba_marseille","lat":43.29787,"lon":5.38124,"is_reserved":false,"is_disabled":true,"rental_uris":{"android":"levelo://app?vid=31e8cf73-3755-4d23-8e13-6fb3e4e82277","ios":"levelo://app?vid=31e8cf73-3755-4d23-8e13-6fb3e4e82277"},"vehicle_type_id":"4","last_reported":1732457273,"current_range_meters":28800,"station_id":"ce4bgip2rcd13ifvqbb0","pricing_plan_id":"cebpf4jnsgd1na2vs0mg"},{"bike_id":"81938453-fc8f-4daf-beeb-5eb2979dba60","system_id":"levelo_inurba_marseille","lat":43.27617,"lon":5.36105,"is_reserved":false,"is_disabled":false,"rental_uris":{"android":"levelo://app?vid=81938453-fc8f-4daf-beeb-5eb2979dba60","ios":"levelo://app?vid=81938453-fc8f-4daf-beeb-5eb2979dba60"},"vehicle_type_id":"4","last_reported":1732457273,"current_range_meters":18000,"station_id":"ce4bgj92rcd13ifvqbe0","pricing_plan_id":"cebpf4jnsgd1na2vs0mg"},{"bike_id":"11980602-9466-4247-a5b8-e3e79fa3bf33","system_id":"levelo_inurba_marseille","lat":43.26033,"lon":5.37549,"is_reserved":false,"is_disabled":false,"rental_uris":{"android":"levelo://app?vid=11980602-9466-4247-a5b8-e3e79fa3bf33","ios":"levelo://app?vid=11980602-9466-4247-a5b8-e3e79fa3bf33"},"vehicle_type_id":"4","last_reported":1732457273,"current_range_meters":4400,"station_id":"ce4bhgh2rcd13ifvqfa0","pricing_plan_id":"cebpf4jnsgd1na2vs0mg"},{"bike_id":"b85b1417-0313-47b6-9cc5-4540c753c3f1","system_id":"levelo_inurba_marseille","lat":43.27207,"lon":5.39186,"is_reserved":false,"is_disabled":false,"rental_uris":{"android":"levelo://app?vid=b85b1417-0313-47b6-9cc5-4540c753c3f1","ios":"levelo://app?vid=b85b1417-0313-47b6-9cc5-4540c753c3f1"},"vehicle_type_id":"4","last_reported":1732457273,"current_range_meters":25200,"station_id":"ce4bhhp2rcd13ifvqfm0","pricing_plan_id":"cebpf4jnsgd1na2vs0mg"},{"bike_id":"46542312-5a57-4358-8e82-504d74fb4c60","system_id":"levelo_inurba_marseille","lat":43.28151,"lon":5.42656,"is_reserved":false,"is_disabled":false,"rental_uris":{"android":"levelo://app?vid=46542312-5a57-4358-8e82-504d74fb4c60","ios":"levelo://app?vid=46542312-5a57-4358-8e82-504d74fb4c60"},"vehicle_type_id":"4","last_reported":1732457273,"current_range_meters":40000,"station_id":"ce4bhnh2rcd13ifvqgug","pricing_plan_id":"cebpf4jnsgd1na2vs0mg"},{"bike_id":"294eeb79-af1b-495a-909f-216801ae6b41","system_id":"levelo_inurba_marseille","lat":43.337444,"lon":5.374475,"is_reserved":false,"is_disabled":true,"rental_uris":{"android":"levelo://app?vid=294eeb79-af1b-495a-909f-216801ae6b41","ios":"levelo://app?vid=294eeb79-af1b-495a-909f-216801ae6b41"},"vehicle_type_id":"4","last_reported":1732457273,"current_range_meters":0,"station_id":"","pricing_plan_id":"cebpf4jnsgd1na2vs0mg"},{"bike_id":"ada70d50-099b-4f77-b6a4-d56cf2bcdc70","system_id":"levelo_inurba_marseille","lat":43.29782,"lon":5.37097,"is_reserved":false,"is_disabled":false,"rental_uris":{"android":"levelo://app?vid=ada70d50-099b-4f77-b6a4-d56cf2bcdc70","ios":"levelo://app?vid=ada70d50-099b-4f77-b6a4-d56cf2bcdc70"},"vehicle_type_id":"4","last_reported":1732457273,"current_range_meters":38800,"station_id":"ce4bgop2rcd13ifvqc1g","pricing_plan_id":"cebpf4jnsgd1na2vs0mg"},{"bike_id":"ae1dd2db-5b19-40fe-a981-fb874abf3912","system_id":"levelo_inurba_marseille","lat":43.24387,"lon":5.3706,"is_reserved":false,"is_disabled":false,"rental_uris":{"android":"levelo://app?vid=ae1dd2db-5b19-40fe-a981-fb874abf3912","ios":"levelo://app?vid=ae1dd2db-5b19-40fe-a981-fb874abf3912"},"vehicle_type_id":"4","last_reported":1732457273,"current_range_meters":16000,"station_id":"ce4bhhh2rcd13ifvqfk0","pricing_plan_id":"cebpf4jnsgd1na2vs0mg"},{"bike_id":"50f415fe-e878-4f24-833c-95cde137d543","system_id":"levelo_inurba_marseille","lat":43.28822,"lon":5.35272,"is_reserved":false,"is_disabled":false,"rental_uris":{"android":"levelo://app?vid=50f415fe-e878-4f24-833c-95cde137d543","ios":"levelo://app?vid=50f415fe-e878-4f24-833c-95cde137d543"},"vehicle_type_id":"4","last_reported":1732457273,"current_range_meters":37600,"station_id":"","pricing_plan_id":"cebpf4jnsgd1na2vs0mg"},{"bike_id":"677c7322-f017-41b4-b2b4-6107ebd39bbc","system_id":"levelo_inurba_marseille","lat":43.32663,"lon":5.40988,"is_reserved":false,"is_disabled":false,"rental_uris":{"android":"levelo://app?vid=677c7322-f017-41b4-b2b4-6107ebd39bbc","ios":"levelo://app?vid=677c7322-f017-41b4-b2b4-6107ebd39bbc"},"vehicle_type_id":"4","last_reported":1732457273,"current_range_meters":40000,"station_id":"ce4bhpp2rcd13ifvqhgg","pricing_plan_id":"cebpf4jnsgd1na2vs0mg"},{"bike_id":"12c019b2-b0bb-4e87-9e7d-918bc6270cda","system_id":"levelo_inurba_marseille","lat":43.29261,"lon":5.38432,"is_reserved":false,"is_disabled":false,"rental_uris":{"android":"levelo://app?vid=12c019b2-b0bb-4e87-9e7d-918bc6270cda","ios":"levelo://app?vid=12c019b2-b0bb-4e87-9e7d-918bc6270cda"},"vehicle_type_id":"4","last_reported":1732457273,"current_range_meters":39200,"station_id":"ce4bh692rcd13ifvqea0","pricing_plan_id":"cebpf4jnsgd1na2vs0mg"},{"bike_id":"6aeff2b9-cd17-4948-9952-f7b991e16719","system_id":"levelo_inurba_marseille","lat":43.24995,"lon":5.38945,"is_reserved":false,"is_disabled":false,"rental_uris":{"android":"levelo://app?vid=6aeff2b9-cd17-4948-9952-f7b991e16719","ios":"levelo://app?vid=6aeff2b9-cd17-4948-9952-f7b991e16719"},"vehicle_type_id":"4","last_reported":1732457273,"current_range_meters":36400,"station_id":"ce4bhgp2rcd13ifvqfd0","pricing_plan_id":"cebpf4jnsgd1na2vs0mg"},{"bike_id":"777b7fed-d395-4c97-b504-dee7c3479d4f","system_id":"levelo_inurba_marseille","lat":43.29836,"lon":5.3785,"is_reserved":false,"is_disabled":true,"rental_uris":{"android":"levelo://app?vid=777b7fed-d395-4c97-b504-dee7c3479d4f","ios":"levelo://app?vid=777b7fed-d395-4c97-b504-dee7c3479d4f"},"vehicle_type_id":"4","last_reported":1732457273,"current_range_meters":0,"station_id":"","pricing_plan_id":"cebpf4jnsgd1na2vs0mg"},{"bike_id":"cd78312a-142a-42d0-92e1-dbc654bf8bb4","system_id":"levelo_inurba_marseille","lat":43.24175,"lon":5.39715,"is_reserved":false,"is_disabled":true,"rental_uris":{"android":"levelo://app?vid=cd78312a-142a-42d0-92e1-dbc654bf8bb4","ios":"levelo://app?vid=cd78312a-142a-42d0-92e1-dbc654bf8bb4"},"vehicle_type_id":"4","last_reported":1732457273,"current_range_meters":9200,"station_id":"ce4bhn12rcd13ifvqgpg","pricing_plan_id":"cebpf4jnsgd1na2vs0mg"},{"bike_id":"fc2d205d-0702-47a8-9581-d5ae3b191495","system_id":"levelo_inurba_marseille","lat":43.2481,"lon":5.37458,"is_reserved":false,"is_disabled":false,"rental_uris":{"android":"levelo://app?vid=fc2d205d-0702-47a8-9581-d5ae3b191495","ios":"levelo://app?vid=fc2d205d-0702-47a8-9581-d5ae3b191495"},"vehicle_type_id":"4","last_reported":1732457273,"current_range_meters":25600,"station_id":"ce4bhgh2rcd13ifvqfb0","pricing_plan_id":"cebpf4jnsgd1na2vs0mg"},{"bike_id":"2b930fbc-d1c5-4e6e-b771-26da81254d66","system_id":"levelo_inurba_marseille","lat":43.2781,"lon":5.40715,"is_reserved":false,"is_disabled":false,"rental_uris":{"android":"levelo://app?vid=2b930fbc-d1c5-4e6e-b771-26da81254d66","ios":"levelo://app?vid=2b930fbc-d1c5-4e6e-b771-26da81254d66"},"vehicle_type_id":"4","last_reported":1732457273,"current_range_meters":8400,"station_id":"ce4bhnh2rcd13ifvqgtg","pricing_plan_id":"cebpf4jnsgd1na2vs0mg"},{"bike_id":"3acf8a97-1cee-4e45-b349-3e5ca607d164","system_id":"levelo_inurba_marseille","lat":43.260302,"lon":5.375552,"is_reserved":false,"is_disabled":false,"rental_uris":{"android":"levelo://app?vid=3acf8a97-1cee-4e45-b349-3e5ca607d164","ios":"levelo://app?vid=3acf8a97-1cee-4e45-b349-3e5ca607d164"},"vehicle_type_id":"4","last_reported":1732457273,"current_range_meters":33200,"station_id":"ce4bhgh2rcd13ifvqfa0","pricing_plan_id":"cebpf4jnsgd1na2vs0mg"},{"bike_id":"43f6da94-5cf1-446e-9b8d-b4c4e86bf027","system_id":"levelo_inurba_marseille","lat":43.26191,"lon":5.37454,"is_reserved":false,"is_disabled":true,"rental_uris":{"android":"levelo://app?vid=43f6da94-5cf1-446e-9b8d-b4c4e86bf027","ios":"levelo://app?vid=43f6da94-5cf1-446e-9b8d-b4c4e86bf027"},"vehicle_type_id":"4","last_reported":1732457273,"current_range_meters":7200,"station_id":"ce4bhgp2rcd13ifvqfc0","pricing_plan_id":"cebpf4jnsgd1na2vs0mg"},{"bike_id":"dd5ab154-647e-4dfa-88f1-0f781c7552f5","system_id":"levelo_inurba_marseille","lat":43.25578,"lon":5.38226,"is_reserved":false,"is_disabled":false,"rental_uris":{"android":"levelo://app?vid=dd5ab154-647e-4dfa-88f1-0f781c7552f5","ios":"levelo://app?vid=dd5ab154-647e-4dfa-88f1-0f781c7552f5"},"vehicle_type_id":"4","last_reported":1732457273,"current_range_meters":25600,"station_id":"ce4bhih2rcd13ifvqfs0","pricing_plan_id":"cebpf4jnsgd1na2vs0mg"},{"bike_id":"5088bd3a-f977-40b8-8a1e-c56e9cb2df42","system_id":"levelo_inurba_marseille","lat":43.27302,"lon":5.39098,"is_reserved":false,"is_disabled":false,"rental_uris":{"android":"levelo://app?vid=5088bd3a-f977-40b8-8a1e-c56e9cb2df42","ios":"levelo://app?vid=5088bd3a-f977-40b8-8a1e-c56e9cb2df42"},"vehicle_type_id":"4","last_reported":1732457273,"current_range_meters":36000,"station_id":"ce4bhgp2rcd13ifvqfe0","pricing_plan_id":"cebpf4jnsgd1na2vs0mg"},{"bike_id":"994195f6-b5da-4158-a5b5-8b38baad32b0","system_id":"levelo_inurba_marseille","lat":43.33721,"lon":5.39188,"is_reserved":false,"is_disabled":false,"rental_uris":{"android":"levelo://app?vid=994195f6-b5da-4158-a5b5-8b38baad32b0","ios":"levelo://app?vid=994195f6-b5da-4158-a5b5-8b38baad32b0"},"vehicle_type_id":"4","last_reported":1732457273,"current_range_meters":27600,"station_id":"ce4bhr92rcd13ifvqhsg","pricing_plan_id":"cebpf4jnsgd1na2vs0mg"},{"bike_id":"7c2f19f3-5373-4c2a-87bb-e1fd3ef39822","system_id":"levelo_inurba_marseille","lat":43.26562,"lon":5.39029,"is_reserved":false,"is_disabled":true,"rental_uris":{"android":"levelo://app?vid=7c2f19f3-5373-4c2a-87bb-e1fd3ef39822","ios":"levelo://app?vid=7c2f19f3-5373-4c2a-87bb-e1fd3ef39822"},"vehicle_type_id":"4","last_reported":1732457273,"current_range_meters":19600,"station_id":"ce4bhe12rcd13ifvqf30","pricing_plan_id":"cebpf4jnsgd1na2vs0mg"},{"bike_id":"36ef9a42-f4d8-45f5-adc2-b51fb9b962d0","system_id":"levelo_inurba_marseille","lat":43.34134,"lon":5.40907,"is_reserved":false,"is_disabled":false,"rental_uris":{"android":"levelo://app?vid=36ef9a42-f4d8-45f5-adc2-b51fb9b962d0","ios":"levelo://app?vid=36ef9a42-f4d8-45f5-adc2-b51fb9b962d0"},"vehicle_type_id":"4","last_reported":1732457273,"current_range_meters":36800,"station_id":"ce4bhqh2rcd13ifvqhlg","pricing_plan_id":"cebpf4jnsgd1na2vs0mg"},{"bike_id":"a3202fc1-85cb-42ee-bead-37756f81ff0f","system_id":"levelo_inurba_marseille","lat":43.30559,"lon":5.38398,"is_reserved":false,"is_disabled":true,"rental_uris":{"android":"levelo://app?vid=a3202fc1-85cb-42ee-bead-37756f81ff0f","ios":"levelo://app?vid=a3202fc1-85cb-42ee-bead-37756f81ff0f"},"vehicle_type_id":"4","last_reported":1732457273,"current_range_meters":24400,"station_id":"ce4bgg92rcd13ifvqb30","pricing_plan_id":"cebpf4jnsgd1na2vs0mg"},{"bike_id":"9427acec-f6ab-4e60-952b-caeef76cc872","system_id":"levelo_inurba_marseille","lat":43.29256,"lon":5.40903,"is_reserved":false,"is_disabled":false,"rental_uris":{"android":"levelo://app?vid=9427acec-f6ab-4e60-952b-caeef76cc872","ios":"levelo://app?vid=9427acec-f6ab-4e60-952b-caeef76cc872"},"vehicle_type_id":"4","last_reported":1732457273,"current_range_meters":37600,"station_id":"ce4bh192rcd13ifvqdc0","pricing_plan_id":"cebpf4jnsgd1na2vs0mg"},{"bike_id":"e070e793-364f-4047-b38f-d832d617233e","system_id":"levelo_inurba_marseille","lat":43.28232,"lon":5.35075,"is_reserved":false,"is_disabled":false,"rental_uris":{"android":"levelo://app?vid=e070e793-364f-4047-b38f-d832d617233e","ios":"levelo://app?vid=e070e793-364f-4047-b38f-d832d617233e"},"vehicle_type_id":"4","last_reported":1732457273,"current_range_meters":38800,"station_id":"ce4bhbp2rcd13ifvqerg","pricing_plan_id":"cebpf4jnsgd1na2vs0mg"},{"bike_id":"67eec873-2e0f-49d2-a011-594652020334","system_id":"levelo_inurba_marseille","lat":43.26206,"lon":5.37928,"is_reserved":false,"is_disabled":false,"rental_uris":{"android":"levelo://app?vid=67eec873-2e0f-49d2-a011-594652020334","ios":"levelo://app?vid=67eec873-2e0f-49d2-a011-594652020334"},"vehicle_type_id":"4","last_reported":1732457273,"current_range_meters":12800,"station_id":"ce4bhjp2rcd13ifvqg90","pricing_plan_id":"cebpf4jnsgd1na2vs0mg"},{"bike_id":"ace0848b-d387-4327-85ec-ba53a7e344ec","system_id":"levelo_inurba_marseille","lat":43.29615,"lon":5.37711,"is_reserved":false,"is_disabled":false,"rental_uris":{"android":"levelo://app?vid=ace0848b-d387-4327-85ec-ba53a7e344ec","ios":"levelo://app?vid=ace0848b-d387-4327-85ec-ba53a7e344ec"},"vehicle_type_id":"4","last_reported":1732457273,"current_range_meters":36400,"station_id":"ce4bgi92rcd13ifvqb90","pricing_plan_id":"cebpf4jnsgd1na2vs0mg"},{"bike_id":"4910e49a-e494-4f3d-ae43-66864c58af20","system_id":"levelo_inurba_marseille","lat":43.28719,"lon":5.36093,"is_reserved":false,"is_disabled":false,"rental_uris":{"android":"levelo://app?vid=4910e49a-e494-4f3d-ae43-66864c58af20","ios":"levelo://app?vid=4910e49a-e494-4f3d-ae43-66864c58af20"},"vehicle_type_id":"4","last_reported":1732457273,"current_range_meters":36000,"station_id":"cki0cbj6b192h4jlfktg","pricing_plan_id":"cebpf4jnsgd1na2vs0mg"},{"bike_id":"8c09d42b-14cb-45e9-be2c-c45a4fb8e028","system_id":"levelo_inurba_marseille","lat":43.28152,"lon":5.42646,"is_reserved":false,"is_disabled":false,"rental_uris":{"android":"levelo://app?vid=8c09d42b-14cb-45e9-be2c-c45a4fb8e028","ios":"levelo://app?vid=8c09d42b-14cb-45e9-be2c-c45a4fb8e028"},"vehicle_type_id":"4","last_reported":1732457273,"current_range_meters":21600,"station_id":"ce4bhnh2rcd13ifvqgug","pricing_plan_id":"cebpf4jnsgd1na2vs0mg"},{"bike_id":"f8b957eb-ac36-4e56-96cf-7474e1d53753","system_id":"levelo_inurba_marseille","lat":43.2466,"lon":5.38166,"is_reserved":false,"is_disabled":false,"rental_uris":{"android":"levelo://app?vid=f8b957eb-ac36-4e56-96cf-7474e1d53753","ios":"levelo://app?vid=f8b957eb-ac36-4e56-96cf-7474e1d53753"},"vehicle_type_id":"4","last_reported":1732457273,"current_range_meters":16400,"station_id":"ce4bhih2rcd13ifvqfr0","pricing_plan_id":"cebpf4jnsgd1na2vs0mg"},{"bike_id":"57fa0b0b-836e-4aeb-9db5-c114ef1d588b","system_id":"levelo_inurba_marseille","lat":43.27817,"lon":5.40705,"is_reserved":false,"is_disabled":false,"rental_uris":{"android":"levelo://app?vid=57fa0b0b-836e-4aeb-9db5-c114ef1d588b","ios":"levelo://app?vid=57fa0b0b-836e-4aeb-9db5-c114ef1d588b"},"vehicle_type_id":"4","last_reported":1732457273,"current_range_meters":9600,"station_id":"ce4bhnh2rcd13ifvqgtg","pricing_plan_id":"cebpf4jnsgd1na2vs0mg"},{"bike_id":"faddc5bf-9308-4490-a929-f5be12fd1597","system_id":"levelo_inurba_marseille","lat":43.25584,"lon":5.38248,"is_reserved":false,"is_disabled":false,"rental_uris":{"android":"levelo://app?vid=faddc5bf-9308-4490-a929-f5be12fd1597","ios":"levelo://app?vid=faddc5bf-9308-4490-a929-f5be12fd1597"},"vehicle_type_id":"4","last_reported":1732457273,"current_range_meters":19600,"station_id":"ce4bhih2rcd13ifvqfs0","pricing_plan_id":"cebpf4jnsgd1na2vs0mg"},{"bike_id":"73ff8f4e-173b-4111-860f-0fbe90564417","system_id":"levelo_inurba_marseille","lat":43.32669,"lon":5.40997,"is_reserved":false,"is_disabled":false,"rental_uris":{"android":"levelo://app?vid=73ff8f4e-173b-4111-860f-0fbe90564417","ios":"levelo://app?vid=73ff8f4e-173b-4111-860f-0fbe90564417"},"vehicle_type_id":"4","last_reported":1732457273,"current_range_meters":39200,"station_id":"ce4bhpp2rcd13ifvqhgg","pricing_plan_id":"cebpf4jnsgd1na2vs0mg"},{"bike_id":"36296f5c-0176-4be0-97c8-7930cda9c369","system_id":"levelo_inurba_marseille","lat":43.32107,"lon":5.36773,"is_reserved":false,"is_disabled":false,"rental_uris":{"android":"levelo://app?vid=36296f5c-0176-4be0-97c8-7930cda9c369","ios":"levelo://app?vid=36296f5c-0176-4be0-97c8-7930cda9c369"},"vehicle_type_id":"4","last_reported":1732457273,"current_range_meters":31200,"station_id":"ce4bhrh2rcd13ifvqhug","pricing_plan_id":"cebpf4jnsgd1na2vs0mg"},{"bike_id":"12b1bbd6-dc44-489a-bdfb-1eac521b561d","system_id":"levelo_inurba_marseille","lat":43.336136,"lon":5.41028,"is_reserved":false,"is_disabled":false,"rental_uris":{"android":"levelo://app?vid=12b1bbd6-dc44-489a-bdfb-1eac521b561d","ios":"levelo://app?vid=12b1bbd6-dc44-489a-bdfb-1eac521b561d"},"vehicle_type_id":"4","last_reported":1732457273,"current_range_meters":33600,"station_id":"ce4bhqh2rcd13ifvqhmg","pricing_plan_id":"cebpf4jnsgd1na2vs0mg"},{"bike_id":"3749f547-26de-49f3-8704-9a5a504b68f5","system_id":"levelo_inurba_marseille","lat":43.25577,"lon":5.38239,"is_reserved":false,"is_disabled":false,"rental_uris":{"android":"levelo://app?vid=3749f547-26de-49f3-8704-9a5a504b68f5","ios":"levelo://app?vid=3749f547-26de-49f3-8704-9a5a504b68f5"},"vehicle_type_id":"4","last_reported":1732457273,"current_range_meters":36400,"station_id":"ce4bhih2rcd13ifvqfs0","pricing_plan_id":"cebpf4jnsgd1na2vs0mg"},{"bike_id":"d2a52b58-fabe-4a57-94ba-464e41b85800","system_id":"levelo_inurba_marseille","lat":43.30083,"lon":5.37442,"is_reserved":false,"is_disabled":true,"rental_uris":{"android":"levelo://app?vid=d2a52b58-fabe-4a57-94ba-464e41b85800","ios":"levelo://app?vid=d2a52b58-fabe-4a57-94ba-464e41b85800"},"vehicle_type_id":"4","last_reported":1732457273,"current_range_meters":25200,"station_id":"","pricing_plan_id":"cebpf4jnsgd1na2vs0mg"},{"bike_id":"c9e82fbe-cd18-4511-b315-c943492193df","system_id":"levelo_inurba_marseille","lat":43.272,"lon":5.39194,"is_reserved":false,"is_disabled":false,"rental_uris":{"android":"levelo://app?vid=c9e82fbe-cd18-4511-b315-c943492193df","ios":"levelo://app?vid=c9e82fbe-cd18-4511-b315-c943492193df"},"vehicle_type_id":"4","last_reported":1732457273,"current_range_meters":32800,"station_id":"ce4bhhp2rcd13ifvqfm0","pricing_plan_id":"cebpf4jnsgd1na2vs0mg"},{"bike_id":"069d381a-b8ab-4527-91c4-0e16dcacaefa","system_id":"levelo_inurba_marseille","lat":43.30887,"lon":5.37195,"is_reserved":false,"is_disabled":false,"rental_uris":{"android":"levelo://app?vid=069d381a-b8ab-4527-91c4-0e16dcacaefa","ios":"levelo://app?vid=069d381a-b8ab-4527-91c4-0e16dcacaefa"},"vehicle_type_id":"4","last_reported":1732457273,"current_range_meters":38000,"station_id":"ce4bguh2rcd13ifvqckg","pricing_plan_id":"cebpf4jnsgd1na2vs0mg"},{"bike_id":"4923d6fc-1ccb-44fd-9ab5-43feda0c5519","system_id":"levelo_inurba_marseille","lat":43.25718,"lon":5.41096,"is_reserved":false,"is_disabled":false,"rental_uris":{"android":"levelo://app?vid=4923d6fc-1ccb-44fd-9ab5-43feda0c5519","ios":"levelo://app?vid=4923d6fc-1ccb-44fd-9ab5-43feda0c5519"},"vehicle_type_id":"4","last_reported":1732457273,"current_range_meters":16400,"station_id":"ce4bhkp2rcd13ifvqgd0","pricing_plan_id":"cebpf4jnsgd1na2vs0mg"},{"bike_id":"845cd7ff-290e-432c-bed8-16e3fe08c47c","system_id":"levelo_inurba_marseille","lat":43.23964,"lon":5.36634,"is_reserved":false,"is_disabled":false,"rental_uris":{"android":"levelo://app?vid=845cd7ff-290e-432c-bed8-16e3fe08c47c","ios":"levelo://app?vid=845cd7ff-290e-432c-bed8-16e3fe08c47c"},"vehicle_type_id":"4","last_reported":1732457273,"current_range_meters":6800,"station_id":"ce4bhi12rcd13ifvqfp0","pricing_plan_id":"cebpf4jnsgd1na2vs0mg"},{"bike_id":"66d70828-b14f-4541-8984-1f382e380cdf","system_id":"levelo_inurba_marseille","lat":43.27317,"lon":5.391,"is_reserved":false,"is_disabled":true,"rental_uris":{"android":"levelo://app?vid=66d70828-b14f-4541-8984-1f382e380cdf","ios":"levelo://app?vid=66d70828-b14f-4541-8984-1f382e380cdf"},"vehicle_type_id":"4","last_reported":1732457273,"current_range_meters":38800,"station_id":"ce4bhgp2rcd13ifvqfe0","pricing_plan_id":"cebpf4jnsgd1na2vs0mg"},{"bike_id":"dd3b09fe-b71a-401a-b299-a88383f47f1c","system_id":"levelo_inurba_marseille","lat":43.337444,"lon":5.374475,"is_reserved":false,"is_disabled":false,"rental_uris":{"android":"levelo://app?vid=dd3b09fe-b71a-401a-b299-a88383f47f1c","ios":"levelo://app?vid=dd3b09fe-b71a-401a-b299-a88383f47f1c"},"vehicle_type_id":"4","last_reported":1732457273,"current_range_meters":30800,"station_id":"","pricing_plan_id":"cebpf4jnsgd1na2vs0mg"},{"bike_id":"0bd24871-1ac5-4d27-92b1-fc38cd997d34","system_id":"levelo_inurba_marseille","lat":43.23956,"lon":5.36647,"is_reserved":false,"is_disabled":false,"rental_uris":{"android":"levelo://app?vid=0bd24871-1ac5-4d27-92b1-fc38cd997d34","ios":"levelo://app?vid=0bd24871-1ac5-4d27-92b1-fc38cd997d34"},"vehicle_type_id":"4","last_reported":1732457273,"current_range_meters":19200,"station_id":"ce4bhi12rcd13ifvqfp0","pricing_plan_id":"cebpf4jnsgd1na2vs0mg"},{"bike_id":"c76567f4-7d8d-4550-bbbb-47b91f1a69a9","system_id":"levelo_inurba_marseille","lat":43.28264,"lon":5.35075,"is_reserved":false,"is_disabled":false,"rental_uris":{"android":"levelo://app?vid=c76567f4-7d8d-4550-bbbb-47b91f1a69a9","ios":"levelo://app?vid=c76567f4-7d8d-4550-bbbb-47b91f1a69a9"},"vehicle_type_id":"4","last_reported":1732457273,"current_range_meters":18000,"station_id":"ce4bhbp2rcd13ifvqerg","pricing_plan_id":"cebpf4jnsgd1na2vs0mg"},{"bike_id":"cff9a7f6-f83c-4baa-b32f-1f88d318037a","system_id":"levelo_inurba_marseille","lat":43.29284,"lon":5.37451,"is_reserved":false,"is_disabled":false,"rental_uris":{"android":"levelo://app?vid=cff9a7f6-f83c-4baa-b32f-1f88d318037a","ios":"levelo://app?vid=cff9a7f6-f83c-4baa-b32f-1f88d318037a"},"vehicle_type_id":"4","last_reported":1732457273,"current_range_meters":18800,"station_id":"ce4bgi12rcd13ifvqb70","pricing_plan_id":"cebpf4jnsgd1na2vs0mg"},{"bike_id":"39046eaf-af66-43b1-aab0-ad8f172525cc","system_id":"levelo_inurba_marseille","lat":43.29418,"lon":5.38624,"is_reserved":false,"is_disabled":false,"rental_uris":{"android":"levelo://app?vid=39046eaf-af66-43b1-aab0-ad8f172525cc","ios":"levelo://app?vid=39046eaf-af66-43b1-aab0-ad8f172525cc"},"vehicle_type_id":"4","last_reported":1732457273,"current_range_meters":27200,"station_id":"ce4bh2h2rcd13ifvqdh0","pricing_plan_id":"cebpf4jnsgd1na2vs0mg"},{"bike_id":"adaf29b3-1cb0-4abe-a598-88eaebd20d31","system_id":"levelo_inurba_marseille","lat":43.27999,"lon":5.40019,"is_reserved":false,"is_disabled":false,"rental_uris":{"android":"levelo://app?vid=adaf29b3-1cb0-4abe-a598-88eaebd20d31","ios":"levelo://app?vid=adaf29b3-1cb0-4abe-a598-88eaebd20d31"},"vehicle_type_id":"4","last_reported":1732457273,"current_range_meters":28000,"station_id":"ce4bho92rcd13ifvqh4g","pricing_plan_id":"cebpf4jnsgd1na2vs0mg"},{"bike_id":"be2c66eb-6e79-49bf-a20f-45ee32c91060","system_id":"levelo_inurba_marseille","lat":43.308,"lon":5.43524,"is_reserved":false,"is_disabled":false,"rental_uris":{"android":"levelo://app?vid=be2c66eb-6e79-49bf-a20f-45ee32c91060","ios":"levelo://app?vid=be2c66eb-6e79-49bf-a20f-45ee32c91060"},"vehicle_type_id":"4","last_reported":1732457273,"current_range_meters":39200,"station_id":"ce4bhph2rcd13ifvqheg","pricing_plan_id":"cebpf4jnsgd1na2vs0mg"},{"bike_id":"17ba6615-9f08-440e-93e9-f8f4f3600fcd","system_id":"levelo_inurba_marseille","lat":43.3054,"lon":5.36544,"is_reserved":false,"is_disabled":true,"rental_uris":{"android":"levelo://app?vid=17ba6615-9f08-440e-93e9-f8f4f3600fcd","ios":"levelo://app?vid=17ba6615-9f08-440e-93e9-f8f4f3600fcd"},"vehicle_type_id":"4","last_reported":1732457273,"current_range_meters":400,"station_id":"ce4bgs12rcd13ifvqcag","pricing_plan_id":"cebpf4jnsgd1na2vs0mg"},{"bike_id":"cbc2167d-639d-4b33-b914-3ad6f36f2868","system_id":"levelo_inurba_marseille","lat":43.22926,"lon":5.35376,"is_reserved":false,"is_disabled":false,"rental_uris":{"android":"levelo://app?vid=cbc2167d-639d-4b33-b914-3ad6f36f2868","ios":"levelo://app?vid=cbc2167d-639d-4b33-b914-3ad6f36f2868"},"vehicle_type_id":"4","last_reported":1732457273,"current_range_meters":36400,"station_id":"cpo3532slgdg3j2ikp40","pricing_plan_id":"cebpf4jnsgd1na2vs0mg"},{"bike_id":"e79e383a-195b-4040-9e46-5523fb31c3f3","system_id":"levelo_inurba_marseille","lat":43.28443,"lon":5.39193,"is_reserved":false,"is_disabled":false,"rental_uris":{"android":"levelo://app?vid=e79e383a-195b-4040-9e46-5523fb31c3f3","ios":"levelo://app?vid=e79e383a-195b-4040-9e46-5523fb31c3f3"},"vehicle_type_id":"4","last_reported":1732457273,"current_range_meters":14800,"station_id":"ce4bhoh2rcd13ifvqh5g","pricing_plan_id":"cebpf4jnsgd1na2vs0mg"},{"bike_id":"d2d6b761-7df5-4ee3-9c07-7f6feedf1b78","system_id":"levelo_inurba_marseille","lat":43.29261,"lon":5.40918,"is_reserved":false,"is_disabled":false,"rental_uris":{"android":"levelo://app?vid=d2d6b761-7df5-4ee3-9c07-7f6feedf1b78","ios":"levelo://app?vid=d2d6b761-7df5-4ee3-9c07-7f6feedf1b78"},"vehicle_type_id":"4","last_reported":1732457273,"current_range_meters":24000,"station_id":"ce4bh192rcd13ifvqdc0","pricing_plan_id":"cebpf4jnsgd1na2vs0mg"},{"bike_id":"9571ab5e-b96b-4203-912e-9bbecb2fc5cb","system_id":"levelo_inurba_marseille","lat":43.30415,"lon":5.41289,"is_reserved":false,"is_disabled":false,"rental_uris":{"android":"levelo://app?vid=9571ab5e-b96b-4203-912e-9bbecb2fc5cb","ios":"levelo://app?vid=9571ab5e-b96b-4203-912e-9bbecb2fc5cb"},"vehicle_type_id":"4","last_reported":1732457273,"current_range_meters":38800,"station_id":"ce4bhop2rcd13ifvqh8g","pricing_plan_id":"cebpf4jnsgd1na2vs0mg"},{"bike_id":"635f2088-37d7-4c7e-b140-3292398be605","system_id":"levelo_inurba_marseille","lat":43.24812,"lon":5.37457,"is_reserved":false,"is_disabled":false,"rental_uris":{"android":"levelo://app?vid=635f2088-37d7-4c7e-b140-3292398be605","ios":"levelo://app?vid=635f2088-37d7-4c7e-b140-3292398be605"},"vehicle_type_id":"4","last_reported":1732457273,"current_range_meters":35600,"station_id":"ce4bhgh2rcd13ifvqfb0","pricing_plan_id":"cebpf4jnsgd1na2vs0mg"},{"bike_id":"d336510b-5ba4-4a68-9f8f-3b5a1f8fcfaa","system_id":"levelo_inurba_marseille","lat":43.2721,"lon":5.39195,"is_reserved":false,"is_disabled":false,"rental_uris":{"android":"levelo://app?vid=d336510b-5ba4-4a68-9f8f-3b5a1f8fcfaa","ios":"levelo://app?vid=d336510b-5ba4-4a68-9f8f-3b5a1f8fcfaa"},"vehicle_type_id":"4","last_reported":1732457273,"current_range_meters":32800,"station_id":"ce4bhhp2rcd13ifvqfm0","pricing_plan_id":"cebpf4jnsgd1na2vs0mg"},{"bike_id":"9c1e60d0-5a4a-4211-91fe-ccbfab44e577","system_id":"levelo_inurba_marseille","lat":43.29097,"lon":5.38142,"is_reserved":false,"is_disabled":false,"rental_uris":{"android":"levelo://app?vid=9c1e60d0-5a4a-4211-91fe-ccbfab44e577","ios":"levelo://app?vid=9c1e60d0-5a4a-4211-91fe-ccbfab44e577"},"vehicle_type_id":"4","last_reported":1732457273,"current_range_meters":38000,"station_id":"ce4bh512rcd13ifvqe2g","pricing_plan_id":"cebpf4jnsgd1na2vs0mg"},{"bike_id":"2671fb8a-3452-46fd-bec4-bd169133378c","system_id":"levelo_inurba_marseille","lat":43.26686,"lon":5.38277,"is_reserved":false,"is_disabled":true,"rental_uris":{"android":"levelo://app?vid=2671fb8a-3452-46fd-bec4-bd169133378c","ios":"levelo://app?vid=2671fb8a-3452-46fd-bec4-bd169133378c"},"vehicle_type_id":"4","last_reported":1732457273,"current_range_meters":38800,"station_id":"ce4bhg92rcd13ifvqf90","pricing_plan_id":"cebpf4jnsgd1na2vs0mg"},{"bike_id":"6e5f0abd-4828-428c-93b3-40258f9f6c4d","system_id":"levelo_inurba_marseille","lat":43.31883,"lon":5.40737,"is_reserved":false,"is_disabled":false,"rental_uris":{"android":"levelo://app?vid=6e5f0abd-4828-428c-93b3-40258f9f6c4d","ios":"levelo://app?vid=6e5f0abd-4828-428c-93b3-40258f9f6c4d"},"vehicle_type_id":"4","last_reported":1732457273,"current_range_meters":39200,"station_id":"ce4bhq12rcd13ifvqhig","pricing_plan_id":"cebpf4jnsgd1na2vs0mg"},{"bike_id":"087743b6-7249-4a37-8aff-7ce92b23ade6","system_id":"levelo_inurba_marseille","lat":43.29039,"lon":5.39958,"is_reserved":false,"is_disabled":false,"rental_uris":{"android":"levelo://app?vid=087743b6-7249-4a37-8aff-7ce92b23ade6","ios":"levelo://app?vid=087743b6-7249-4a37-8aff-7ce92b23ade6"},"vehicle_type_id":"4","last_reported":1732457273,"current_range_meters":29600,"station_id":"ce4bh392rcd13ifvqdm0","pricing_plan_id":"cebpf4jnsgd1na2vs0mg"},{"bike_id":"28f8ecf8-a7ae-4a32-aa4f-609e03eada5d","system_id":"levelo_inurba_marseille","lat":43.29539,"lon":5.38545,"is_reserved":false,"is_disabled":true,"rental_uris":{"android":"levelo://app?vid=28f8ecf8-a7ae-4a32-aa4f-609e03eada5d","ios":"levelo://app?vid=28f8ecf8-a7ae-4a32-aa4f-609e03eada5d"},"vehicle_type_id":"4","last_reported":1732457273,"current_range_meters":0,"station_id":"ce4bgih2rcd13ifvqba0","pricing_plan_id":"cebpf4jnsgd1na2vs0mg"},{"bike_id":"858b65e1-94fc-4151-a71e-8b168cb19dcb","system_id":"levelo_inurba_marseille","lat":43.32249,"lon":5.39241,"is_reserved":false,"is_disabled":true,"rental_uris":{"android":"levelo://app?vid=858b65e1-94fc-4151-a71e-8b168cb19dcb","ios":"levelo://app?vid=858b65e1-94fc-4151-a71e-8b168cb19dcb"},"vehicle_type_id":"4","last_reported":1732457273,"current_range_meters":6400,"station_id":"","pricing_plan_id":"cebpf4jnsgd1na2vs0mg"},{"bike_id":"50fa51f0-e97e-445c-be1f-abf6b73d62f8","system_id":"levelo_inurba_marseille","lat":43.25111,"lon":5.40331,"is_reserved":false,"is_disabled":false,"rental_uris":{"android":"levelo://app?vid=50fa51f0-e97e-445c-be1f-abf6b73d62f8","ios":"levelo://app?vid=50fa51f0-e97e-445c-be1f-abf6b73d62f8"},"vehicle_type_id":"4","last_reported":1732457273,"current_range_meters":18000,"station_id":"ce4bhlh2rcd13ifvqgig","pricing_plan_id":"cebpf4jnsgd1na2vs0mg"},{"bike_id":"85c8ccaa-97d3-48d2-bfd7-336f3c77274d","system_id":"levelo_inurba_marseille","lat":43.23063,"lon":5.3549,"is_reserved":false,"is_disabled":false,"rental_uris":{"android":"levelo://app?vid=85c8ccaa-97d3-48d2-bfd7-336f3c77274d","ios":"levelo://app?vid=85c8ccaa-97d3-48d2-bfd7-336f3c77274d"},"vehicle_type_id":"4","last_reported":1732457273,"current_range_meters":23200,"station_id":"cpo3342slgdg3j2ifvpg","pricing_plan_id":"cebpf4jnsgd1na2vs0mg"},{"bike_id":"a45fcc89-e9e4-4b9d-9677-9957fd62b268","system_id":"levelo_inurba_marseille","lat":43.3055,"lon":5.36716,"is_reserved":false,"is_disabled":false,"rental_uris":{"android":"levelo://app?vid=a45fcc89-e9e4-4b9d-9677-9957fd62b268","ios":"levelo://app?vid=a45fcc89-e9e4-4b9d-9677-9957fd62b268"},"vehicle_type_id":"4","last_reported":1732457273,"current_range_meters":12800,"station_id":"ce4bgn92rcd13ifvqbvg","pricing_plan_id":"cebpf4jnsgd1na2vs0mg"},{"bike_id":"133c0635-6ac4-49a6-b3b8-4ad5dda949c5","system_id":"levelo_inurba_marseille","lat":43.3167,"lon":5.3777,"is_reserved":false,"is_disabled":true,"rental_uris":{"android":"levelo://app?vid=133c0635-6ac4-49a6-b3b8-4ad5dda949c5","ios":"levelo://app?vid=133c0635-6ac4-49a6-b3b8-4ad5dda949c5"},"vehicle_type_id":"4","last_reported":1732457273,"current_range_meters":37600,"station_id":"ce4bgth2rcd13ifvqch0","pricing_plan_id":"cebpf4jnsgd1na2vs0mg"},{"bike_id":"bcc3b397-4053-4374-93ce-1da8586f0c5d","system_id":"levelo_inurba_marseille","lat":43.33727,"lon":5.39181,"is_reserved":false,"is_disabled":false,"rental_uris":{"android":"levelo://app?vid=bcc3b397-4053-4374-93ce-1da8586f0c5d","ios":"levelo://app?vid=bcc3b397-4053-4374-93ce-1da8586f0c5d"},"vehicle_type_id":"4","last_reported":1732457273,"current_range_meters":37600,"station_id":"ce4bhr92rcd13ifvqhsg","pricing_plan_id":"cebpf4jnsgd1na2vs0mg"},{"bike_id":"b6fabcf6-d2a0-47d6-bd0e-0f701f2029e6","system_id":"levelo_inurba_marseille","lat":43.31709,"lon":5.37748,"is_reserved":false,"is_disabled":false,"rental_uris":{"android":"levelo://app?vid=b6fabcf6-d2a0-47d6-bd0e-0f701f2029e6","ios":"levelo://app?vid=b6fabcf6-d2a0-47d6-bd0e-0f701f2029e6"},"vehicle_type_id":"4","last_reported":1732457273,"current_range_meters":38000,"station_id":"ce4bgth2rcd13ifvqch0","pricing_plan_id":"cebpf4jnsgd1na2vs0mg"},{"bike_id":"1f7a2424-c270-4472-84c7-0f6ba57bbbb4","system_id":"levelo_inurba_marseille","lat":43.31358,"lon":5.38494,"is_reserved":false,"is_disabled":true,"rental_uris":{"android":"levelo://app?vid=1f7a2424-c270-4472-84c7-0f6ba57bbbb4","ios":"levelo://app?vid=1f7a2424-c270-4472-84c7-0f6ba57bbbb4"},"vehicle_type_id":"4","last_reported":1732457273,"current_range_meters":8000,"station_id":"ce4bgt92rcd13ifvqcf0","pricing_plan_id":"cebpf4jnsgd1na2vs0mg"},{"bike_id":"2c8b08a5-2c68-4a87-abab-32670574a046","system_id":"levelo_inurba_marseille","lat":43.24811,"lon":5.37458,"is_reserved":false,"is_disabled":false,"rental_uris":{"android":"levelo://app?vid=2c8b08a5-2c68-4a87-abab-32670574a046","ios":"levelo://app?vid=2c8b08a5-2c68-4a87-abab-32670574a046"},"vehicle_type_id":"4","last_reported":1732457273,"current_range_meters":30400,"station_id":"ce4bhgh2rcd13ifvqfb0","pricing_plan_id":"cebpf4jnsgd1na2vs0mg"},{"bike_id":"1d8b04ea-c924-4550-898b-f581a4794dea","system_id":"levelo_inurba_marseille","lat":43.29918,"lon":5.37457,"is_reserved":false,"is_disabled":true,"rental_uris":{"android":"levelo://app?vid=1d8b04ea-c924-4550-898b-f581a4794dea","ios":"levelo://app?vid=1d8b04ea-c924-4550-898b-f581a4794dea"},"vehicle_type_id":"4","last_reported":1732457273,"current_range_meters":3600,"station_id":"ce4bgjh2rcd13ifvqbg0","pricing_plan_id":"cebpf4jnsgd1na2vs0mg"},{"bike_id":"283008b7-3b75-4a17-81df-8365c1913900","system_id":"levelo_inurba_marseille","lat":43.27996,"lon":5.40008,"is_reserved":false,"is_disabled":false,"rental_uris":{"android":"levelo://app?vid=283008b7-3b75-4a17-81df-8365c1913900","ios":"levelo://app?vid=283008b7-3b75-4a17-81df-8365c1913900"},"vehicle_type_id":"4","last_reported":1732457273,"current_range_meters":39200,"station_id":"ce4bho92rcd13ifvqh4g","pricing_plan_id":"cebpf4jnsgd1na2vs0mg"},{"bike_id":"ea22f775-471e-4b49-add0-6e30c15b2bfa","system_id":"levelo_inurba_marseille","lat":43.2318,"lon":5.39993,"is_reserved":false,"is_disabled":false,"rental_uris":{"android":"levelo://app?vid=ea22f775-471e-4b49-add0-6e30c15b2bfa","ios":"levelo://app?vid=ea22f775-471e-4b49-add0-6e30c15b2bfa"},"vehicle_type_id":"4","last_reported":1732457273,"current_range_meters":2800,"station_id":"ce4bhn12rcd13ifvqgqg","pricing_plan_id":"cebpf4jnsgd1na2vs0mg"},{"bike_id":"119696bc-63a3-4850-93f5-f462e07aaad9","system_id":"levelo_inurba_marseille","lat":43.2737,"lon":5.36257,"is_reserved":false,"is_disabled":false,"rental_uris":{"android":"levelo://app?vid=119696bc-63a3-4850-93f5-f462e07aaad9","ios":"levelo://app?vid=119696bc-63a3-4850-93f5-f462e07aaad9"},"vehicle_type_id":"4","last_reported":1732457273,"current_range_meters":38000,"station_id":"ce4bhbh2rcd13ifvqeo0","pricing_plan_id":"cebpf4jnsgd1na2vs0mg"},{"bike_id":"552ae1f9-34eb-4d70-a19b-3616d3661778","system_id":"levelo_inurba_marseille","lat":43.33712,"lon":5.39185,"is_reserved":false,"is_disabled":false,"rental_uris":{"android":"levelo://app?vid=552ae1f9-34eb-4d70-a19b-3616d3661778","ios":"levelo://app?vid=552ae1f9-34eb-4d70-a19b-3616d3661778"},"vehicle_type_id":"4","last_reported":1732457273,"current_range_meters":15200,"station_id":"ce4bhr92rcd13ifvqhsg","pricing_plan_id":"cebpf4jnsgd1na2vs0mg"},{"bike_id":"f7f3756c-1ec7-4782-9c87-6273f87b6774","system_id":"levelo_inurba_marseille","lat":43.337444,"lon":5.374475,"is_reserved":false,"is_disabled":true,"rental_uris":{"android":"levelo://app?vid=f7f3756c-1ec7-4782-9c87-6273f87b6774","ios":"levelo://app?vid=f7f3756c-1ec7-4782-9c87-6273f87b6774"},"vehicle_type_id":"4","last_reported":1732457273,"current_range_meters":28000,"station_id":"","pricing_plan_id":"cebpf4jnsgd1na2vs0mg"},{"bike_id":"740f162e-a0c7-4af9-899d-283ea1409dc6","system_id":"levelo_inurba_marseille","lat":43.26941,"lon":5.38919,"is_reserved":false,"is_disabled":true,"rental_uris":{"android":"levelo://app?vid=740f162e-a0c7-4af9-899d-283ea1409dc6","ios":"levelo://app?vid=740f162e-a0c7-4af9-899d-283ea1409dc6"},"vehicle_type_id":"4","last_reported":1732457273,"current_range_meters":30800,"station_id":"ce4bhhh2rcd13ifvqfl0","pricing_plan_id":"cebpf4jnsgd1na2vs0mg"},{"bike_id":"fdad8c31-b968-44fd-ac61-fbd0b35e667d","system_id":"levelo_inurba_marseille","lat":43.3041,"lon":5.41126,"is_reserved":false,"is_disabled":false,"rental_uris":{"android":"levelo://app?vid=fdad8c31-b968-44fd-ac61-fbd0b35e667d","ios":"levelo://app?vid=fdad8c31-b968-44fd-ac61-fbd0b35e667d"},"vehicle_type_id":"4","last_reported":1732457273,"current_range_meters":26800,"station_id":"ce4bhop2rcd13ifvqh8g","pricing_plan_id":"cebpf4jnsgd1na2vs0mg"},{"bike_id":"d8d94634-4ac1-4f5f-8651-7a99e522961a","system_id":"levelo_inurba_marseille","lat":43.25958,"lon":5.39643,"is_reserved":false,"is_disabled":false,"rental_uris":{"android":"levelo://app?vid=d8d94634-4ac1-4f5f-8651-7a99e522961a","ios":"levelo://app?vid=d8d94634-4ac1-4f5f-8651-7a99e522961a"},"vehicle_type_id":"4","last_reported":1732457273,"current_range_meters":28800,"station_id":"","pricing_plan_id":"cebpf4jnsgd1na2vs0mg"},{"bike_id":"20305e2f-bbbe-4758-bf66-741c9d1e9109","system_id":"levelo_inurba_marseille","lat":43.28152,"lon":5.42626,"is_reserved":false,"is_disabled":false,"rental_uris":{"android":"levelo://app?vid=20305e2f-bbbe-4758-bf66-741c9d1e9109","ios":"levelo://app?vid=20305e2f-bbbe-4758-bf66-741c9d1e9109"},"vehicle_type_id":"4","last_reported":1732457273,"current_range_meters":3200,"station_id":"ce4bhnh2rcd13ifvqgug","pricing_plan_id":"cebpf4jnsgd1na2vs0mg"},{"bike_id":"027d1cbe-533f-4e7d-bfb6-84d078252138","system_id":"levelo_inurba_marseille","lat":43.27071,"lon":5.4228,"is_reserved":false,"is_disabled":false,"rental_uris":{"android":"levelo://app?vid=027d1cbe-533f-4e7d-bfb6-84d078252138","ios":"levelo://app?vid=027d1cbe-533f-4e7d-bfb6-84d078252138"},"vehicle_type_id":"4","last_reported":1732457273,"current_range_meters":20000,"station_id":"ce4bhk92rcd13ifvqgb0","pricing_plan_id":"cebpf4jnsgd1na2vs0mg"},{"bike_id":"2199dd23-105e-481b-bee4-b79af883554e","system_id":"levelo_inurba_marseille","lat":43.29896,"lon":5.43668,"is_reserved":false,"is_disabled":false,"rental_uris":{"android":"levelo://app?vid=2199dd23-105e-481b-bee4-b79af883554e","ios":"levelo://app?vid=2199dd23-105e-481b-bee4-b79af883554e"},"vehicle_type_id":"4","last_reported":1732457273,"current_range_meters":16400,"station_id":"ce4bhpp2rcd13ifvqhfg","pricing_plan_id":"cebpf4jnsgd1na2vs0mg"},{"bike_id":"96fef04f-f424-4b1e-a003-fc645e04ed3a","system_id":"levelo_inurba_marseille","lat":43.27381,"lon":5.36255,"is_reserved":false,"is_disabled":true,"rental_uris":{"android":"levelo://app?vid=96fef04f-f424-4b1e-a003-fc645e04ed3a","ios":"levelo://app?vid=96fef04f-f424-4b1e-a003-fc645e04ed3a"},"vehicle_type_id":"4","last_reported":1732457273,"current_range_meters":30800,"station_id":"ce4bhbh2rcd13ifvqeo0","pricing_plan_id":"cebpf4jnsgd1na2vs0mg"},{"bike_id":"b7b61d62-d3cf-45c0-ae9e-f05215122577","system_id":"levelo_inurba_marseille","lat":43.3092,"lon":5.40154,"is_reserved":false,"is_disabled":true,"rental_uris":{"android":"levelo://app?vid=b7b61d62-d3cf-45c0-ae9e-f05215122577","ios":"levelo://app?vid=b7b61d62-d3cf-45c0-ae9e-f05215122577"},"vehicle_type_id":"4","last_reported":1732457273,"current_range_meters":0,"station_id":"ce4bgvp2rcd13ifvqct0","pricing_plan_id":"cebpf4jnsgd1na2vs0mg"},{"bike_id":"352c5a55-ead6-4b82-a539-86eff0bd0896","system_id":"levelo_inurba_marseille","lat":43.29868,"lon":5.39729,"is_reserved":false,"is_disabled":false,"rental_uris":{"android":"levelo://app?vid=352c5a55-ead6-4b82-a539-86eff0bd0896","ios":"levelo://app?vid=352c5a55-ead6-4b82-a539-86eff0bd0896"},"vehicle_type_id":"4","last_reported":1732457273,"current_range_meters":8800,"station_id":"ce4bh0h2rcd13ifvqd50","pricing_plan_id":"cebpf4jnsgd1na2vs0mg"},{"bike_id":"eef74caf-b712-46ac-8fc5-c007ce1eecfe","system_id":"levelo_inurba_marseille","lat":43.28151,"lon":5.42644,"is_reserved":false,"is_disabled":false,"rental_uris":{"android":"levelo://app?vid=eef74caf-b712-46ac-8fc5-c007ce1eecfe","ios":"levelo://app?vid=eef74caf-b712-46ac-8fc5-c007ce1eecfe"},"vehicle_type_id":"4","last_reported":1732457273,"current_range_meters":28400,"station_id":"ce4bhnh2rcd13ifvqgug","pricing_plan_id":"cebpf4jnsgd1na2vs0mg"},{"bike_id":"08e8dfc9-defd-47cd-8d1c-ae8eadd02740","system_id":"levelo_inurba_marseille","lat":43.30461,"lon":5.37901,"is_reserved":false,"is_disabled":false,"rental_uris":{"android":"levelo://app?vid=08e8dfc9-defd-47cd-8d1c-ae8eadd02740","ios":"levelo://app?vid=08e8dfc9-defd-47cd-8d1c-ae8eadd02740"},"vehicle_type_id":"4","last_reported":1732457273,"current_range_meters":36000,"station_id":"ce4bgup2rcd13ifvqcn0","pricing_plan_id":"cebpf4jnsgd1na2vs0mg"},{"bike_id":"a467a420-c56b-4e78-916a-c062ab59da48","system_id":"levelo_inurba_marseille","lat":43.27316,"lon":5.39082,"is_reserved":false,"is_disabled":false,"rental_uris":{"android":"levelo://app?vid=a467a420-c56b-4e78-916a-c062ab59da48","ios":"levelo://app?vid=a467a420-c56b-4e78-916a-c062ab59da48"},"vehicle_type_id":"4","last_reported":1732457273,"current_range_meters":19200,"station_id":"ce4bhgp2rcd13ifvqfe0","pricing_plan_id":"cebpf4jnsgd1na2vs0mg"},{"bike_id":"0ee2791b-c0d5-4ae7-a47e-597962f52631","system_id":"levelo_inurba_marseille","lat":43.29899,"lon":5.43664,"is_reserved":false,"is_disabled":false,"rental_uris":{"android":"levelo://app?vid=0ee2791b-c0d5-4ae7-a47e-597962f52631","ios":"levelo://app?vid=0ee2791b-c0d5-4ae7-a47e-597962f52631"},"vehicle_type_id":"4","last_reported":1732457273,"current_range_meters":38800,"station_id":"ce4bhpp2rcd13ifvqhfg","pricing_plan_id":"cebpf4jnsgd1na2vs0mg"},{"bike_id":"63e5c75a-30c8-4be5-8ec8-448fdf89dbb8","system_id":"levelo_inurba_marseille","lat":43.23065,"lon":5.35489,"is_reserved":false,"is_disabled":false,"rental_uris":{"android":"levelo://app?vid=63e5c75a-30c8-4be5-8ec8-448fdf89dbb8","ios":"levelo://app?vid=63e5c75a-30c8-4be5-8ec8-448fdf89dbb8"},"vehicle_type_id":"4","last_reported":1732457273,"current_range_meters":38800,"station_id":"cpo3342slgdg3j2ifvpg","pricing_plan_id":"cebpf4jnsgd1na2vs0mg"},{"bike_id":"f7d1def1-c5ec-4c26-9450-80d42fc8f09d","system_id":"levelo_inurba_marseille","lat":43.30955,"lon":5.39041,"is_reserved":false,"is_disabled":false,"rental_uris":{"android":"levelo://app?vid=f7d1def1-c5ec-4c26-9450-80d42fc8f09d","ios":"levelo://app?vid=f7d1def1-c5ec-4c26-9450-80d42fc8f09d"},"vehicle_type_id":"4","last_reported":1732457273,"current_range_meters":25600,"station_id":"ce4bgup2rcd13ifvqco0","pricing_plan_id":"cebpf4jnsgd1na2vs0mg"},{"bike_id":"1e193d09-2cb0-4798-8e19-b0516f3ebb8e","system_id":"levelo_inurba_marseille","lat":43.28138,"lon":5.42634,"is_reserved":false,"is_disabled":false,"rental_uris":{"android":"levelo://app?vid=1e193d09-2cb0-4798-8e19-b0516f3ebb8e","ios":"levelo://app?vid=1e193d09-2cb0-4798-8e19-b0516f3ebb8e"},"vehicle_type_id":"4","last_reported":1732457273,"current_range_meters":19200,"station_id":"ce4bhnh2rcd13ifvqgug","pricing_plan_id":"cebpf4jnsgd1na2vs0mg"},{"bike_id":"89228f68-3127-4436-9201-8331b38355c7","system_id":"levelo_inurba_marseille","lat":43.2573,"lon":5.41108,"is_reserved":false,"is_disabled":false,"rental_uris":{"android":"levelo://app?vid=89228f68-3127-4436-9201-8331b38355c7","ios":"levelo://app?vid=89228f68-3127-4436-9201-8331b38355c7"},"vehicle_type_id":"4","last_reported":1732457273,"current_range_meters":37600,"station_id":"ce4bhkp2rcd13ifvqgd0","pricing_plan_id":"cebpf4jnsgd1na2vs0mg"},{"bike_id":"48e4b81e-c26f-491d-8dcb-e411f601c465","system_id":"levelo_inurba_marseille","lat":43.29316,"lon":5.37012,"is_reserved":false,"is_disabled":false,"rental_uris":{"android":"levelo://app?vid=48e4b81e-c26f-491d-8dcb-e411f601c465","ios":"levelo://app?vid=48e4b81e-c26f-491d-8dcb-e411f601c465"},"vehicle_type_id":"4","last_reported":1732457273,"current_range_meters":29600,"station_id":"","pricing_plan_id":"cebpf4jnsgd1na2vs0mg"},{"bike_id":"319287df-687a-4519-8559-afdae3b3272f","system_id":"levelo_inurba_marseille","lat":43.29789,"lon":5.38114,"is_reserved":false,"is_disabled":true,"rental_uris":{"android":"levelo://app?vid=319287df-687a-4519-8559-afdae3b3272f","ios":"levelo://app?vid=319287df-687a-4519-8559-afdae3b3272f"},"vehicle_type_id":"4","last_reported":1732457273,"current_range_meters":34800,"station_id":"ce4bgip2rcd13ifvqbb0","pricing_plan_id":"cebpf4jnsgd1na2vs0mg"},{"bike_id":"eca3e32e-c6ce-40b9-bde0-f7047ab39363","system_id":"levelo_inurba_marseille","lat":43.28035,"lon":5.36946,"is_reserved":false,"is_disabled":false,"rental_uris":{"android":"levelo://app?vid=eca3e32e-c6ce-40b9-bde0-f7047ab39363","ios":"levelo://app?vid=eca3e32e-c6ce-40b9-bde0-f7047ab39363"},"vehicle_type_id":"4","last_reported":1732457273,"current_range_meters":35600,"station_id":"ce4bha12rcd13ifvqef0","pricing_plan_id":"cebpf4jnsgd1na2vs0mg"},{"bike_id":"e5951ee3-4a5a-4ebb-b469-096c5188dfa3","system_id":"levelo_inurba_marseille","lat":43.23193,"lon":5.35556,"is_reserved":false,"is_disabled":false,"rental_uris":{"android":"levelo://app?vid=e5951ee3-4a5a-4ebb-b469-096c5188dfa3","ios":"levelo://app?vid=e5951ee3-4a5a-4ebb-b469-096c5188dfa3"},"vehicle_type_id":"4","last_reported":1732457273,"current_range_meters":18000,"station_id":"ce4bhu92rcd13ifvqi70","pricing_plan_id":"cebpf4jnsgd1na2vs0mg"},{"bike_id":"b4031e97-07ad-4bf3-b625-27b2659b4faf","system_id":"levelo_inurba_marseille","lat":43.25725,"lon":5.41104,"is_reserved":false,"is_disabled":false,"rental_uris":{"android":"levelo://app?vid=b4031e97-07ad-4bf3-b625-27b2659b4faf","ios":"levelo://app?vid=b4031e97-07ad-4bf3-b625-27b2659b4faf"},"vehicle_type_id":"4","last_reported":1732457273,"current_range_meters":10000,"station_id":"ce4bhkp2rcd13ifvqgd0","pricing_plan_id":"cebpf4jnsgd1na2vs0mg"},{"bike_id":"38b912b2-2d2a-4554-8fd2-0e0947577dc9","system_id":"levelo_inurba_marseille","lat":43.29522,"lon":5.37504,"is_reserved":false,"is_disabled":false,"rental_uris":{"android":"levelo://app?vid=38b912b2-2d2a-4554-8fd2-0e0947577dc9","ios":"levelo://app?vid=38b912b2-2d2a-4554-8fd2-0e0947577dc9"},"vehicle_type_id":"4","last_reported":1732457273,"current_range_meters":34800,"station_id":"ce4bgkp2rcd13ifvqbmg","pricing_plan_id":"cebpf4jnsgd1na2vs0mg"},{"bike_id":"53aedfa4-4049-4759-bc95-757addd8c685","system_id":"levelo_inurba_marseille","lat":43.2655,"lon":5.37291,"is_reserved":false,"is_disabled":false,"rental_uris":{"android":"levelo://app?vid=53aedfa4-4049-4759-bc95-757addd8c685","ios":"levelo://app?vid=53aedfa4-4049-4759-bc95-757addd8c685"},"vehicle_type_id":"4","last_reported":1732457273,"current_range_meters":36800,"station_id":"ce4bhg12rcd13ifvqf70","pricing_plan_id":"cebpf4jnsgd1na2vs0mg"},{"bike_id":"61518d8f-1e64-4caf-b026-397ea337715b","system_id":"levelo_inurba_marseille","lat":43.24394,"lon":5.37061,"is_reserved":false,"is_disabled":false,"rental_uris":{"android":"levelo://app?vid=61518d8f-1e64-4caf-b026-397ea337715b","ios":"levelo://app?vid=61518d8f-1e64-4caf-b026-397ea337715b"},"vehicle_type_id":"4","last_reported":1732457273,"current_range_meters":40000,"station_id":"ce4bhhh2rcd13ifvqfk0","pricing_plan_id":"cebpf4jnsgd1na2vs0mg"},{"bike_id":"67b5499a-e923-45ff-8bc2-9e428c6fc37d","system_id":"levelo_inurba_marseille","lat":43.2762,"lon":5.36101,"is_reserved":false,"is_disabled":false,"rental_uris":{"android":"levelo://app?vid=67b5499a-e923-45ff-8bc2-9e428c6fc37d","ios":"levelo://app?vid=67b5499a-e923-45ff-8bc2-9e428c6fc37d"},"vehicle_type_id":"4","last_reported":1732457273,"current_range_meters":12400,"station_id":"ce4bgj92rcd13ifvqbe0","pricing_plan_id":"cebpf4jnsgd1na2vs0mg"},{"bike_id":"6c948e9c-d5b3-4fe5-a918-1bd2f7c83b02","system_id":"levelo_inurba_marseille","lat":43.32108,"lon":5.36776,"is_reserved":false,"is_disabled":false,"rental_uris":{"android":"levelo://app?vid=6c948e9c-d5b3-4fe5-a918-1bd2f7c83b02","ios":"levelo://app?vid=6c948e9c-d5b3-4fe5-a918-1bd2f7c83b02"},"vehicle_type_id":"4","last_reported":1732457273,"current_range_meters":28000,"station_id":"ce4bhrh2rcd13ifvqhug","pricing_plan_id":"cebpf4jnsgd1na2vs0mg"},{"bike_id":"9e620abf-d324-4f99-84fc-d67e71109f2a","system_id":"levelo_inurba_marseille","lat":43.31077,"lon":5.42435,"is_reserved":false,"is_disabled":true,"rental_uris":{"android":"levelo://app?vid=9e620abf-d324-4f99-84fc-d67e71109f2a","ios":"levelo://app?vid=9e620abf-d324-4f99-84fc-d67e71109f2a"},"vehicle_type_id":"4","last_reported":1732457273,"current_range_meters":0,"station_id":"ce4bhp92rcd13ifvqhag","pricing_plan_id":"cebpf4jnsgd1na2vs0mg"},{"bike_id":"9388a7ff-9c5c-4c26-9899-39b2408cf7e3","system_id":"levelo_inurba_marseille","lat":43.31025,"lon":5.38342,"is_reserved":false,"is_disabled":true,"rental_uris":{"android":"levelo://app?vid=9388a7ff-9c5c-4c26-9899-39b2408cf7e3","ios":"levelo://app?vid=9388a7ff-9c5c-4c26-9899-39b2408cf7e3"},"vehicle_type_id":"4","last_reported":1732457273,"current_range_meters":0,"station_id":"","pricing_plan_id":"cebpf4jnsgd1na2vs0mg"},{"bike_id":"4d6b356d-2cf8-4c98-aed1-976ebfe1555d","system_id":"levelo_inurba_marseille","lat":43.25571,"lon":5.38262,"is_reserved":false,"is_disabled":false,"rental_uris":{"android":"levelo://app?vid=4d6b356d-2cf8-4c98-aed1-976ebfe1555d","ios":"levelo://app?vid=4d6b356d-2cf8-4c98-aed1-976ebfe1555d"},"vehicle_type_id":"4","last_reported":1732457273,"current_range_meters":32000,"station_id":"ce4bhih2rcd13ifvqfs0","pricing_plan_id":"cebpf4jnsgd1na2vs0mg"},{"bike_id":"b3b5c1f6-94c2-4a64-be08-cbfbd539c64d","system_id":"levelo_inurba_marseille","lat":43.27214,"lon":5.39185,"is_reserved":false,"is_disabled":false,"rental_uris":{"android":"levelo://app?vid=b3b5c1f6-94c2-4a64-be08-cbfbd539c64d","ios":"levelo://app?vid=b3b5c1f6-94c2-4a64-be08-cbfbd539c64d"},"vehicle_type_id":"4","last_reported":1732457273,"current_range_meters":12000,"station_id":"ce4bhhp2rcd13ifvqfm0","pricing_plan_id":"cebpf4jnsgd1na2vs0mg"},{"bike_id":"623efcdd-d051-4505-909d-c52e6c52245f","system_id":"levelo_inurba_marseille","lat":43.3237,"lon":5.3889,"is_reserved":false,"is_disabled":true,"rental_uris":{"android":"levelo://app?vid=623efcdd-d051-4505-909d-c52e6c52245f","ios":"levelo://app?vid=623efcdd-d051-4505-909d-c52e6c52245f"},"vehicle_type_id":"4","last_reported":1732457273,"current_range_meters":8400,"station_id":"ce4bhqp2rcd13ifvqhog","pricing_plan_id":"cebpf4jnsgd1na2vs0mg"},{"bike_id":"a826624e-e9b9-44c6-96f8-7bfae66d96a3","system_id":"levelo_inurba_marseille","lat":43.3042,"lon":5.41279,"is_reserved":false,"is_disabled":false,"rental_uris":{"android":"levelo://app?vid=a826624e-e9b9-44c6-96f8-7bfae66d96a3","ios":"levelo://app?vid=a826624e-e9b9-44c6-96f8-7bfae66d96a3"},"vehicle_type_id":"4","last_reported":1732457273,"current_range_meters":26800,"station_id":"ce4bhop2rcd13ifvqh8g","pricing_plan_id":"cebpf4jnsgd1na2vs0mg"},{"bike_id":"e037c9da-c171-4b43-be00-da0a1321479e","system_id":"levelo_inurba_marseille","lat":43.32053,"lon":5.41537,"is_reserved":false,"is_disabled":false,"rental_uris":{"android":"levelo://app?vid=e037c9da-c171-4b43-be00-da0a1321479e","ios":"levelo://app?vid=e037c9da-c171-4b43-be00-da0a1321479e"},"vehicle_type_id":"4","last_reported":1732457273,"current_range_meters":38800,"station_id":"ce4bhq92rcd13ifvqhkg","pricing_plan_id":"cebpf4jnsgd1na2vs0mg"},{"bike_id":"5c53cfbd-2547-413a-b79a-f8cc3b1ca992","system_id":"levelo_inurba_marseille","lat":43.3211,"lon":5.3678,"is_reserved":false,"is_disabled":false,"rental_uris":{"android":"levelo://app?vid=5c53cfbd-2547-413a-b79a-f8cc3b1ca992","ios":"levelo://app?vid=5c53cfbd-2547-413a-b79a-f8cc3b1ca992"},"vehicle_type_id":"4","last_reported":1732457273,"current_range_meters":38800,"station_id":"ce4bhrh2rcd13ifvqhug","pricing_plan_id":"cebpf4jnsgd1na2vs0mg"},{"bike_id":"d47870fb-39c9-4f78-a8ca-1c20cef42e09","system_id":"levelo_inurba_marseille","lat":43.308,"lon":5.43533,"is_reserved":false,"is_disabled":false,"rental_uris":{"android":"levelo://app?vid=d47870fb-39c9-4f78-a8ca-1c20cef42e09","ios":"levelo://app?vid=d47870fb-39c9-4f78-a8ca-1c20cef42e09"},"vehicle_type_id":"4","last_reported":1732457273,"current_range_meters":38400,"station_id":"ce4bhph2rcd13ifvqheg","pricing_plan_id":"cebpf4jnsgd1na2vs0mg"},{"bike_id":"ff39222f-3648-497e-9edc-74beb73aa68a","system_id":"levelo_inurba_marseille","lat":43.3054,"lon":5.36525,"is_reserved":false,"is_disabled":false,"rental_uris":{"android":"levelo://app?vid=ff39222f-3648-497e-9edc-74beb73aa68a","ios":"levelo://app?vid=ff39222f-3648-497e-9edc-74beb73aa68a"},"vehicle_type_id":"4","last_reported":1732457273,"current_range_meters":19200,"station_id":"ce4bgs12rcd13ifvqcag","pricing_plan_id":"cebpf4jnsgd1na2vs0mg"},{"bike_id":"04b9c9cb-be15-44a7-9bdc-6d22ca715c34","system_id":"levelo_inurba_marseille","lat":43.33718,"lon":5.391784,"is_reserved":false,"is_disabled":false,"rental_uris":{"android":"levelo://app?vid=04b9c9cb-be15-44a7-9bdc-6d22ca715c34","ios":"levelo://app?vid=04b9c9cb-be15-44a7-9bdc-6d22ca715c34"},"vehicle_type_id":"4","last_reported":1732457273,"current_range_meters":25200,"station_id":"ce4bhr92rcd13ifvqhsg","pricing_plan_id":"cebpf4jnsgd1na2vs0mg"},{"bike_id":"e8a4657c-0e3d-4419-b47e-48626bc898e8","system_id":"levelo_inurba_marseille","lat":43.3042,"lon":5.41286,"is_reserved":false,"is_disabled":false,"rental_uris":{"android":"levelo://app?vid=e8a4657c-0e3d-4419-b47e-48626bc898e8","ios":"levelo://app?vid=e8a4657c-0e3d-4419-b47e-48626bc898e8"},"vehicle_type_id":"4","last_reported":1732457273,"current_range_meters":18800,"station_id":"ce4bhop2rcd13ifvqh8g","pricing_plan_id":"cebpf4jnsgd1na2vs0mg"},{"bike_id":"3078233d-d3f1-445c-993e-7730b7c8f65a","system_id":"levelo_inurba_marseille","lat":43.27962,"lon":5.38759,"is_reserved":false,"is_disabled":false,"rental_uris":{"android":"levelo://app?vid=3078233d-d3f1-445c-993e-7730b7c8f65a","ios":"levelo://app?vid=3078233d-d3f1-445c-993e-7730b7c8f65a"},"vehicle_type_id":"4","last_reported":1732457273,"current_range_meters":18000,"station_id":"ce4bhg12rcd13ifvqf80","pricing_plan_id":"cebpf4jnsgd1na2vs0mg"},{"bike_id":"43ef1878-08c8-43ce-8a84-e0d20cc2548c","system_id":"levelo_inurba_marseille","lat":43.2594,"lon":5.40908,"is_reserved":false,"is_disabled":true,"rental_uris":{"android":"levelo://app?vid=43ef1878-08c8-43ce-8a84-e0d20cc2548c","ios":"levelo://app?vid=43ef1878-08c8-43ce-8a84-e0d20cc2548c"},"vehicle_type_id":"4","last_reported":1732457273,"current_range_meters":800,"station_id":"ce4bhm92rcd13ifvqglg","pricing_plan_id":"cebpf4jnsgd1na2vs0mg"},{"bike_id":"56ca6b93-ca3d-4dfc-8e20-e35c24d8bd07","system_id":"levelo_inurba_marseille","lat":43.337444,"lon":5.374475,"is_reserved":false,"is_disabled":true,"rental_uris":{"android":"levelo://app?vid=56ca6b93-ca3d-4dfc-8e20-e35c24d8bd07","ios":"levelo://app?vid=56ca6b93-ca3d-4dfc-8e20-e35c24d8bd07"},"vehicle_type_id":"4","last_reported":1732457273,"current_range_meters":0,"station_id":"","pricing_plan_id":"cebpf4jnsgd1na2vs0mg"},{"bike_id":"6a5343e2-790c-4d71-99b1-205dd0fef62e","system_id":"levelo_inurba_marseille","lat":43.2737,"lon":5.36261,"is_reserved":false,"is_disabled":false,"rental_uris":{"android":"levelo://app?vid=6a5343e2-790c-4d71-99b1-205dd0fef62e","ios":"levelo://app?vid=6a5343e2-790c-4d71-99b1-205dd0fef62e"},"vehicle_type_id":"4","last_reported":1732457273,"current_range_meters":28400,"station_id":"ce4bhbh2rcd13ifvqeo0","pricing_plan_id":"cebpf4jnsgd1na2vs0mg"},{"bike_id":"fc4e3e2e-faf4-4cbc-8fd8-119b18821073","system_id":"levelo_inurba_marseille","lat":43.25575,"lon":5.38237,"is_reserved":false,"is_disabled":true,"rental_uris":{"android":"levelo://app?vid=fc4e3e2e-faf4-4cbc-8fd8-119b18821073","ios":"levelo://app?vid=fc4e3e2e-faf4-4cbc-8fd8-119b18821073"},"vehicle_type_id":"4","last_reported":1732457273,"current_range_meters":10800,"station_id":"ce4bhih2rcd13ifvqfs0","pricing_plan_id":"cebpf4jnsgd1na2vs0mg"},{"bike_id":"46ac22a8-6f10-4221-98a6-34eba5c97bfb","system_id":"levelo_inurba_marseille","lat":43.29202,"lon":5.3731,"is_reserved":false,"is_disabled":true,"rental_uris":{"android":"levelo://app?vid=46ac22a8-6f10-4221-98a6-34eba5c97bfb","ios":"levelo://app?vid=46ac22a8-6f10-4221-98a6-34eba5c97bfb"},"vehicle_type_id":"4","last_reported":1732457273,"current_range_meters":0,"station_id":"","pricing_plan_id":"cebpf4jnsgd1na2vs0mg"},{"bike_id":"5846e7ee-045c-466d-b02c-9cd3eadc9db6","system_id":"levelo_inurba_marseille","lat":43.29183,"lon":5.35808,"is_reserved":false,"is_disabled":true,"rental_uris":{"android":"levelo://app?vid=5846e7ee-045c-466d-b02c-9cd3eadc9db6","ios":"levelo://app?vid=5846e7ee-045c-466d-b02c-9cd3eadc9db6"},"vehicle_type_id":"4","last_reported":1732457273,"current_range_meters":38800,"station_id":"ce4bhb12rcd13ifvqel0","pricing_plan_id":"cebpf4jnsgd1na2vs0mg"},{"bike_id":"43746d86-8a13-4845-9faf-ae69b548d714","system_id":"levelo_inurba_marseille","lat":43.2945,"lon":5.3792,"is_reserved":false,"is_disabled":true,"rental_uris":{"android":"levelo://app?vid=43746d86-8a13-4845-9faf-ae69b548d714","ios":"levelo://app?vid=43746d86-8a13-4845-9faf-ae69b548d714"},"vehicle_type_id":"4","last_reported":1732457273,"current_range_meters":0,"station_id":"","pricing_plan_id":"cebpf4jnsgd1na2vs0mg"},{"bike_id":"c16f0c06-b28a-49a0-b892-39b3c1a0339b","system_id":"levelo_inurba_marseille","lat":43.27203,"lon":5.39195,"is_reserved":false,"is_disabled":false,"rental_uris":{"android":"levelo://app?vid=c16f0c06-b28a-49a0-b892-39b3c1a0339b","ios":"levelo://app?vid=c16f0c06-b28a-49a0-b892-39b3c1a0339b"},"vehicle_type_id":"4","last_reported":1732457273,"current_range_meters":35600,"station_id":"ce4bhhp2rcd13ifvqfm0","pricing_plan_id":"cebpf4jnsgd1na2vs0mg"},{"bike_id":"d74def3f-15a0-46d9-8a75-fe5b1d6ec309","system_id":"levelo_inurba_marseille","lat":43.28853,"lon":5.35848,"is_reserved":false,"is_disabled":false,"rental_uris":{"android":"levelo://app?vid=d74def3f-15a0-46d9-8a75-fe5b1d6ec309","ios":"levelo://app?vid=d74def3f-15a0-46d9-8a75-fe5b1d6ec309"},"vehicle_type_id":"4","last_reported":1732457273,"current_range_meters":27200,"station_id":"ce4bhb12rcd13ifvqem0","pricing_plan_id":"cebpf4jnsgd1na2vs0mg"},{"bike_id":"13d917e3-3911-4a4b-ae86-ed47fdfd48a8","system_id":"levelo_inurba_marseille","lat":43.26789,"lon":5.39414,"is_reserved":false,"is_disabled":false,"rental_uris":{"android":"levelo://app?vid=13d917e3-3911-4a4b-ae86-ed47fdfd48a8","ios":"levelo://app?vid=13d917e3-3911-4a4b-ae86-ed47fdfd48a8"},"vehicle_type_id":"4","last_reported":1732457273,"current_range_meters":24400,"station_id":"ce4bhh12rcd13ifvqfg0","pricing_plan_id":"cebpf4jnsgd1na2vs0mg"},{"bike_id":"a2b09865-004d-45eb-b301-cf3640220a72","system_id":"levelo_inurba_marseille","lat":43.29599,"lon":5.38109,"is_reserved":false,"is_disabled":true,"rental_uris":{"android":"levelo://app?vid=a2b09865-004d-45eb-b301-cf3640220a72","ios":"levelo://app?vid=a2b09865-004d-45eb-b301-cf3640220a72"},"vehicle_type_id":"4","last_reported":1732457273,"current_range_meters":0,"station_id":"ce4bgl12rcd13ifvqbo0","pricing_plan_id":"cebpf4jnsgd1na2vs0mg"},{"bike_id":"0699c5da-4728-48b1-87ae-532dd4f42015","system_id":"levelo_inurba_marseille","lat":43.25718,"lon":5.41118,"is_reserved":false,"is_disabled":false,"rental_uris":{"android":"levelo://app?vid=0699c5da-4728-48b1-87ae-532dd4f42015","ios":"levelo://app?vid=0699c5da-4728-48b1-87ae-532dd4f42015"},"vehicle_type_id":"4","last_reported":1732457273,"current_range_meters":38800,"station_id":"ce4bhkp2rcd13ifvqgd0","pricing_plan_id":"cebpf4jnsgd1na2vs0mg"},{"bike_id":"10c56f58-909a-4c02-858e-6fd18a3d0734","system_id":"levelo_inurba_marseille","lat":43.29041,"lon":5.37572,"is_reserved":false,"is_disabled":false,"rental_uris":{"android":"levelo://app?vid=10c56f58-909a-4c02-858e-6fd18a3d0734","ios":"levelo://app?vid=10c56f58-909a-4c02-858e-6fd18a3d0734"},"vehicle_type_id":"4","last_reported":1732457273,"current_range_meters":27600,"station_id":"ce4bh692rcd13ifvqe90","pricing_plan_id":"cebpf4jnsgd1na2vs0mg"},{"bike_id":"f7f29097-34a0-4fd3-9ee7-8abdc6d41ad7","system_id":"levelo_inurba_marseille","lat":43.27206,"lon":5.39195,"is_reserved":false,"is_disabled":true,"rental_uris":{"android":"levelo://app?vid=f7f29097-34a0-4fd3-9ee7-8abdc6d41ad7","ios":"levelo://app?vid=f7f29097-34a0-4fd3-9ee7-8abdc6d41ad7"},"vehicle_type_id":"4","last_reported":1732457273,"current_range_meters":0,"station_id":"ce4bhhp2rcd13ifvqfm0","pricing_plan_id":"cebpf4jnsgd1na2vs0mg"},{"bike_id":"4f96bfff-ee9c-4d8e-b80a-480c75af76f7","system_id":"levelo_inurba_marseille","lat":43.29003,"lon":5.35616,"is_reserved":false,"is_disabled":false,"rental_uris":{"android":"levelo://app?vid=4f96bfff-ee9c-4d8e-b80a-480c75af76f7","ios":"levelo://app?vid=4f96bfff-ee9c-4d8e-b80a-480c75af76f7"},"vehicle_type_id":"4","last_reported":1732457273,"current_range_meters":9600,"station_id":"ce4bhb92rcd13ifvqen0","pricing_plan_id":"cebpf4jnsgd1na2vs0mg"},{"bike_id":"0ca4733a-3562-45cc-8deb-6e59149a5ace","system_id":"levelo_inurba_marseille","lat":43.28613,"lon":5.37071,"is_reserved":false,"is_disabled":false,"rental_uris":{"android":"levelo://app?vid=0ca4733a-3562-45cc-8deb-6e59149a5ace","ios":"levelo://app?vid=0ca4733a-3562-45cc-8deb-6e59149a5ace"},"vehicle_type_id":"4","last_reported":1732457273,"current_range_meters":38000,"station_id":"ce4bht12rcd13ifvqi60","pricing_plan_id":"cebpf4jnsgd1na2vs0mg"},{"bike_id":"8fec413f-6e54-4bc7-85ca-2a709e6eb0ad","system_id":"levelo_inurba_marseille","lat":43.3361,"lon":5.41027,"is_reserved":false,"is_disabled":false,"rental_uris":{"android":"levelo://app?vid=8fec413f-6e54-4bc7-85ca-2a709e6eb0ad","ios":"levelo://app?vid=8fec413f-6e54-4bc7-85ca-2a709e6eb0ad"},"vehicle_type_id":"4","last_reported":1732457273,"current_range_meters":38800,"station_id":"ce4bhqh2rcd13ifvqhmg","pricing_plan_id":"cebpf4jnsgd1na2vs0mg"},{"bike_id":"4388f267-7ad1-4188-b727-ba17a6aa5d5a","system_id":"levelo_inurba_marseille","lat":43.24076,"lon":5.37758,"is_reserved":false,"is_disabled":false,"rental_uris":{"android":"levelo://app?vid=4388f267-7ad1-4188-b727-ba17a6aa5d5a","ios":"levelo://app?vid=4388f267-7ad1-4188-b727-ba17a6aa5d5a"},"vehicle_type_id":"4","last_reported":1732457273,"current_range_meters":38000,"station_id":"ce4bhnp2rcd13ifvqgvg","pricing_plan_id":"cebpf4jnsgd1na2vs0mg"},{"bike_id":"0ccdc1f1-7007-402c-a0cb-4e17dcfddba2","system_id":"levelo_inurba_marseille","lat":43.25496,"lon":5.37647,"is_reserved":false,"is_disabled":false,"rental_uris":{"android":"levelo://app?vid=0ccdc1f1-7007-402c-a0cb-4e17dcfddba2","ios":"levelo://app?vid=0ccdc1f1-7007-402c-a0cb-4e17dcfddba2"},"vehicle_type_id":"4","last_reported":1732457273,"current_range_meters":32800,"station_id":"ce4bhh12rcd13ifvqff0","pricing_plan_id":"cebpf4jnsgd1na2vs0mg"},{"bike_id":"7d2e0038-4719-4b0b-81f4-c84efcb8f669","system_id":"levelo_inurba_marseille","lat":43.29934,"lon":5.36553,"is_reserved":false,"is_disabled":false,"rental_uris":{"android":"levelo://app?vid=7d2e0038-4719-4b0b-81f4-c84efcb8f669","ios":"levelo://app?vid=7d2e0038-4719-4b0b-81f4-c84efcb8f669"},"vehicle_type_id":"4","last_reported":1732457273,"current_range_meters":38400,"station_id":"ce4bgm92rcd13ifvqbr0","pricing_plan_id":"cebpf4jnsgd1na2vs0mg"},{"bike_id":"40838fbd-175e-4307-947d-b85409f45c17","system_id":"levelo_inurba_marseille","lat":43.23194,"lon":5.35562,"is_reserved":false,"is_disabled":false,"rental_uris":{"android":"levelo://app?vid=40838fbd-175e-4307-947d-b85409f45c17","ios":"levelo://app?vid=40838fbd-175e-4307-947d-b85409f45c17"},"vehicle_type_id":"4","last_reported":1732457273,"current_range_meters":36800,"station_id":"ce4bhu92rcd13ifvqi70","pricing_plan_id":"cebpf4jnsgd1na2vs0mg"},{"bike_id":"7f723b0b-cbe8-4f68-b8fe-2ce3d5e983bd","system_id":"levelo_inurba_marseille","lat":43.32102,"lon":5.36777,"is_reserved":false,"is_disabled":true,"rental_uris":{"android":"levelo://app?vid=7f723b0b-cbe8-4f68-b8fe-2ce3d5e983bd","ios":"levelo://app?vid=7f723b0b-cbe8-4f68-b8fe-2ce3d5e983bd"},"vehicle_type_id":"4","last_reported":1732457273,"current_range_meters":29600,"station_id":"","pricing_plan_id":"cebpf4jnsgd1na2vs0mg"},{"bike_id":"f3d705e9-bcb8-4224-ae0f-75eaaf857379","system_id":"levelo_inurba_marseille","lat":43.27999,"lon":5.4002,"is_reserved":false,"is_disabled":false,"rental_uris":{"android":"levelo://app?vid=f3d705e9-bcb8-4224-ae0f-75eaaf857379","ios":"levelo://app?vid=f3d705e9-bcb8-4224-ae0f-75eaaf857379"},"vehicle_type_id":"4","last_reported":1732457273,"current_range_meters":34800,"station_id":"ce4bho92rcd13ifvqh4g","pricing_plan_id":"cebpf4jnsgd1na2vs0mg"},{"bike_id":"b50cc8b8-edf4-4d3a-9512-c0a907c446e8","system_id":"levelo_inurba_marseille","lat":43.30241,"lon":5.40059,"is_reserved":false,"is_disabled":false,"rental_uris":{"android":"levelo://app?vid=b50cc8b8-edf4-4d3a-9512-c0a907c446e8","ios":"levelo://app?vid=b50cc8b8-edf4-4d3a-9512-c0a907c446e8"},