{"last_updated":1771273100,"ttl":60,"version":"2.2","data":{"bikes":[{"bike_id":"d7118046-cefa-4587-89ed-6c45cd917a4f","system_id":"levelo_inurba_marseille","lat":43.23973,"lon":5.36644,"is_reserved":false,"is_disabled":false,"rental_uris":{"android":"levelo://app?vid=d7118046-cefa-4587-89ed-6c45cd917a4f","ios":"levelo://app?vid=d7118046-cefa-4587-89ed-6c45cd917a4f"},"vehicle_type_id":"4","last_reported":1771273101,"current_range_meters":39200,"station_id":"ce4bhi12rcd13ifvqfp0","pricing_plan_id":"cebpf4jnsgd1na2vs0mg"},{"bike_id":"9aa30411-4109-4d71-8b85-65127a6483db","system_id":"levelo_inurba_marseille","lat":43.2795,"lon":5.41066,"is_reserved":false,"is_disabled":true,"rental_uris":{"android":"levelo://app?vid=9aa30411-4109-4d71-8b85-65127a6483db","ios":"levelo://app?vid=9aa30411-4109-4d71-8b85-65127a6483db"},"vehicle_type_id":"4","last_reported":1771273101,"current_range_meters":29600,"station_id":"ce4bhnp2rcd13ifvqh0g","pricing_plan_id":"cebpf4jnsgd1na2vs0mg"},{"bike_id":"9fdfd435-ee1a-4566-9fad-8b87ca04be7e","system_id":"levelo_inurba_marseille","lat":43.31258,"lon":5.36815,"is_reserved":false,"is_disabled":false,"rental_uris":{"android":"levelo://app?vid=9fdfd435-ee1a-4566-9fad-8b87ca04be7e","ios":"levelo://app?vid=9fdfd435-ee1a-4566-9fad-8b87ca04be7e"},"vehicle_type_id":"4","last_reported":1771273101,"current_range_meters":18000,"station_id":"","pricing_plan_id":"cebpf4jnsgd1na2vs0mg"},{"bike_id":"6e07964d-6fe0-4880-a3fa-e2373dfa83a6","system_id":"levelo_inurba_marseille","lat":43.33164,"lon":5.37719,"is_reserved":false,"is_disabled":false,"rental_uris":{"android":"levelo://app?vid=6e07964d-6fe0-4880-a3fa-e2373dfa83a6","ios":"levelo://app?vid=6e07964d-6fe0-4880-a3fa-e2373dfa83a6"},"vehicle_type_id":"4","last_reported":1771273101,"current_range_meters":30400,"station_id":"st_d46cu089ee8s73dldbu0","pricing_plan_id":"cebpf4jnsgd1na2vs0mg"},{"bike_id":"e57f119f-8a24-4ef5-97d1-e242618f91a0","system_id":"levelo_inurba_marseille","lat":43.26229,"lon":5.40453,"is_reserved":false,"is_disabled":false,"rental_uris":{"android":"levelo://app?vid=e57f119f-8a24-4ef5-97d1-e242618f91a0","ios":"levelo://app?vid=e57f119f-8a24-4ef5-97d1-e242618f91a0"},"vehicle_type_id":"4","last_reported":1771273101,"current_range_meters":24400,"station_id":"ce4bhmh2rcd13ifvqgmg","pricing_plan_id":"cebpf4jnsgd1na2vs0mg"},{"bike_id":"33e04ab4-8566-4c76-a0fd-aad45455c18f","system_id":"levelo_inurba_marseille","lat":43.24815,"lon":5.37474,"is_reserved":false,"is_disabled":false,"rental_uris":{"android":"levelo://app?vid=33e04ab4-8566-4c76-a0fd-aad45455c18f","ios":"levelo://app?vid=33e04ab4-8566-4c76-a0fd-aad45455c18f"},"vehicle_type_id":"4","last_reported":1771273101,"current_range_meters":38000,"station_id":"ce4bhgh2rcd13ifvqfb0","pricing_plan_id":"cebpf4jnsgd1na2vs0mg"},{"bike_id":"3975a841-e136-4ffc-9340-b611eb80ecaa","system_id":"levelo_inurba_marseille","lat":43.24557,"lon":5.39522,"is_reserved":false,"is_disabled":false,"rental_uris":{"android":"levelo://app?vid=3975a841-e136-4ffc-9340-b611eb80ecaa","ios":"levelo://app?vid=3975a841-e136-4ffc-9340-b611eb80ecaa"},"vehicle_type_id":"4","last_reported":1771273101,"current_range_meters":34800,"station_id":"ce4bhlp2rcd13ifvqgjg","pricing_plan_id":"cebpf4jnsgd1na2vs0mg"},{"bike_id":"b5d21b34-ba85-49a4-b964-e2def336368b","system_id":"levelo_inurba_marseille","lat":43.26543,"lon":5.37305,"is_reserved":false,"is_disabled":true,"rental_uris":{"android":"levelo://app?vid=b5d21b34-ba85-49a4-b964-e2def336368b","ios":"levelo://app?vid=b5d21b34-ba85-49a4-b964-e2def336368b"},"vehicle_type_id":"4","last_reported":1771273101,"current_range_meters":38800,"station_id":"ce4bhg12rcd13ifvqf70","pricing_plan_id":"cebpf4jnsgd1na2vs0mg"},{"bike_id":"21dad158-c679-436c-89c8-cc36c7b585be","system_id":"levelo_inurba_marseille","lat":43.2986,"lon":5.37364,"is_reserved":false,"is_disabled":true,"rental_uris":{"android":"levelo://app?vid=21dad158-c679-436c-89c8-cc36c7b585be","ios":"levelo://app?vid=21dad158-c679-436c-89c8-cc36c7b585be"},"vehicle_type_id":"4","last_reported":1771273101,"current_range_meters":10800,"station_id":"","pricing_plan_id":"cebpf4jnsgd1na2vs0mg"},{"bike_id":"3e966140-e94e-43e6-a5a5-d2e8198d6f0d","system_id":"levelo_inurba_marseille","lat":43.2606,"lon":5.39382,"is_reserved":false,"is_disabled":false,"rental_uris":{"android":"levelo://app?vid=3e966140-e94e-43e6-a5a5-d2e8198d6f0d","ios":"levelo://app?vid=3e966140-e94e-43e6-a5a5-d2e8198d6f0d"},"vehicle_type_id":"4","last_reported":1771273101,"current_range_meters":13600,"station_id":"ce4bhh92rcd13ifvqfj0","pricing_plan_id":"cebpf4jnsgd1na2vs0mg"},{"bike_id":"74515861-cbb7-4ce1-8e3a-ac2705263ef3","system_id":"levelo_inurba_marseille","lat":43.304207,"lon":5.412811,"is_reserved":false,"is_disabled":false,"rental_uris":{"android":"levelo://app?vid=74515861-cbb7-4ce1-8e3a-ac2705263ef3","ios":"levelo://app?vid=74515861-cbb7-4ce1-8e3a-ac2705263ef3"},"vehicle_type_id":"4","last_reported":1771273101,"current_range_meters":11600,"station_id":"ce4bhop2rcd13ifvqh8g","pricing_plan_id":"cebpf4jnsgd1na2vs0mg"},{"bike_id":"f5ff8aa9-673d-4e9f-b19d-9737360b0355","system_id":"levelo_inurba_marseille","lat":43.31384,"lon":5.38504,"is_reserved":false,"is_disabled":false,"rental_uris":{"android":"levelo://app?vid=f5ff8aa9-673d-4e9f-b19d-9737360b0355","ios":"levelo://app?vid=f5ff8aa9-673d-4e9f-b19d-9737360b0355"},"vehicle_type_id":"4","last_reported":1771273101,"current_range_meters":8000,"station_id":"ce4bgt92rcd13ifvqcf0","pricing_plan_id":"cebpf4jnsgd1na2vs0mg"},{"bike_id":"ee3d9b4e-5b8e-42c4-82f2-5b0b6a65858d","system_id":"levelo_inurba_marseille","lat":43.28477,"lon":5.48405,"is_reserved":false,"is_disabled":true,"rental_uris":{"android":"levelo://app?vid=ee3d9b4e-5b8e-42c4-82f2-5b0b6a65858d","ios":"levelo://app?vid=ee3d9b4e-5b8e-42c4-82f2-5b0b6a65858d"},"vehicle_type_id":"4","last_reported":1771273101,"current_range_meters":0,"station_id":"","pricing_plan_id":"cebpf4jnsgd1na2vs0mg"},{"bike_id":"e73e918e-8d3c-4387-bd43-d5051294f257","system_id":"levelo_inurba_marseille","lat":43.275,"lon":5.42457,"is_reserved":false,"is_disabled":false,"rental_uris":{"android":"levelo://app?vid=e73e918e-8d3c-4387-bd43-d5051294f257","ios":"levelo://app?vid=e73e918e-8d3c-4387-bd43-d5051294f257"},"vehicle_type_id":"4","last_reported":1771273101,"current_range_meters":30800,"station_id":"ce4bhn92rcd13ifvqgrg","pricing_plan_id":"cebpf4jnsgd1na2vs0mg"},{"bike_id":"f2f05234-5926-4d0a-9c36-64e06f4aa31d","system_id":"levelo_inurba_marseille","lat":43.2439,"lon":5.37058,"is_reserved":false,"is_disabled":false,"rental_uris":{"android":"levelo://app?vid=f2f05234-5926-4d0a-9c36-64e06f4aa31d","ios":"levelo://app?vid=f2f05234-5926-4d0a-9c36-64e06f4aa31d"},"vehicle_type_id":"4","last_reported":1771273101,"current_range_meters":14000,"station_id":"ce4bhhh2rcd13ifvqfk0","pricing_plan_id":"cebpf4jnsgd1na2vs0mg"},{"bike_id":"5aa51cda-865b-4c09-9e46-9bd7bffd076b","system_id":"levelo_inurba_marseille","lat":43.28405,"lon":5.37517,"is_reserved":false,"is_disabled":false,"rental_uris":{"android":"levelo://app?vid=5aa51cda-865b-4c09-9e46-9bd7bffd076b","ios":"levelo://app?vid=5aa51cda-865b-4c09-9e46-9bd7bffd076b"},"vehicle_type_id":"4","last_reported":1771273101,"current_range_meters":24800,"station_id":"ce4bh412rcd13ifvqds0","pricing_plan_id":"cebpf4jnsgd1na2vs0mg"},{"bike_id":"05410587-b482-4fdf-9b03-646f6d5cb761","system_id":"levelo_inurba_marseille","lat":43.23796,"lon":5.36632,"is_reserved":false,"is_disabled":false,"rental_uris":{"android":"levelo://app?vid=05410587-b482-4fdf-9b03-646f6d5cb761","ios":"levelo://app?vid=05410587-b482-4fdf-9b03-646f6d5cb761"},"vehicle_type_id":"4","last_reported":1771273101,"current_range_meters":32400,"station_id":"st_d3nk18o9ro0c73en2l3g","pricing_plan_id":"cebpf4jnsgd1na2vs0mg"},{"bike_id":"bee29b99-85a3-4bac-921c-887870ddb3a4","system_id":"levelo_inurba_marseille","lat":43.28464,"lon":5.35883,"is_reserved":false,"is_disabled":false,"rental_uris":{"android":"levelo://app?vid=bee29b99-85a3-4bac-921c-887870ddb3a4","ios":"levelo://app?vid=bee29b99-85a3-4bac-921c-887870ddb3a4"},"vehicle_type_id":"4","last_reported":1771273101,"current_range_meters":34000,"station_id":"ce4bhah2rcd13ifvqei0","pricing_plan_id":"cebpf4jnsgd1na2vs0mg"},{"bike_id":"9b8d0618-07fc-46a7-a3fe-13368a8eb2ed","system_id":"levelo_inurba_marseille","lat":43.299,"lon":5.3976,"is_reserved":false,"is_disabled":false,"rental_uris":{"android":"levelo://app?vid=9b8d0618-07fc-46a7-a3fe-13368a8eb2ed","ios":"levelo://app?vid=9b8d0618-07fc-46a7-a3fe-13368a8eb2ed"},"vehicle_type_id":"4","last_reported":1771273101,"current_range_meters":39200,"station_id":"ce4bh0h2rcd13ifvqd50","pricing_plan_id":"cebpf4jnsgd1na2vs0mg"},{"bike_id":"4f189156-cde6-422f-b721-2da60291ecba","system_id":"levelo_inurba_marseille","lat":43.29803,"lon":5.38107,"is_reserved":false,"is_disabled":true,"rental_uris":{"android":"levelo://app?vid=4f189156-cde6-422f-b721-2da60291ecba","ios":"levelo://app?vid=4f189156-cde6-422f-b721-2da60291ecba"},"vehicle_type_id":"4","last_reported":1771273101,"current_range_meters":39200,"station_id":"ce4bgip2rcd13ifvqbb0","pricing_plan_id":"cebpf4jnsgd1na2vs0mg"},{"bike_id":"b74eb24a-bbac-4a24-8903-f7188ea07ddc","system_id":"levelo_inurba_marseille","lat":43.30189,"lon":5.36613,"is_reserved":false,"is_disabled":false,"rental_uris":{"android":"levelo://app?vid=b74eb24a-bbac-4a24-8903-f7188ea07ddc","ios":"levelo://app?vid=b74eb24a-bbac-4a24-8903-f7188ea07ddc"},"vehicle_type_id":"4","last_reported":1771273101,"current_range_meters":32400,"station_id":"ce4bgrh2rcd13ifvqc8g","pricing_plan_id":"cebpf4jnsgd1na2vs0mg"},{"bike_id":"96ba3f4f-0e70-4352-8e6b-4135d6897805","system_id":"levelo_inurba_marseille","lat":43.254936,"lon":5.376386,"is_reserved":false,"is_disabled":false,"rental_uris":{"android":"levelo://app?vid=96ba3f4f-0e70-4352-8e6b-4135d6897805","ios":"levelo://app?vid=96ba3f4f-0e70-4352-8e6b-4135d6897805"},"vehicle_type_id":"4","last_reported":1771273101,"current_range_meters":36800,"station_id":"ce4bhh12rcd13ifvqff0","pricing_plan_id":"cebpf4jnsgd1na2vs0mg"},{"bike_id":"36c72a3b-1570-442e-9c9f-46e9334ca723","system_id":"levelo_inurba_marseille","lat":43.2782,"lon":5.40723,"is_reserved":false,"is_disabled":false,"rental_uris":{"android":"levelo://app?vid=36c72a3b-1570-442e-9c9f-46e9334ca723","ios":"levelo://app?vid=36c72a3b-1570-442e-9c9f-46e9334ca723"},"vehicle_type_id":"4","last_reported":1771273101,"current_range_meters":32800,"station_id":"ce4bhnh2rcd13ifvqgtg","pricing_plan_id":"cebpf4jnsgd1na2vs0mg"},{"bike_id":"74530e29-ad8e-4aa7-bc81-7320e2f379f4","system_id":"levelo_inurba_marseille","lat":43.27573,"lon":5.3843,"is_reserved":false,"is_disabled":false,"rental_uris":{"android":"levelo://app?vid=74530e29-ad8e-4aa7-bc81-7320e2f379f4","ios":"levelo://app?vid=74530e29-ad8e-4aa7-bc81-7320e2f379f4"},"vehicle_type_id":"4","last_reported":1771273101,"current_range_meters":38400,"station_id":"ce4bhh92rcd13ifvqfi0","pricing_plan_id":"cebpf4jnsgd1na2vs0mg"},{"bike_id":"289093e1-a86d-4b45-8271-8c5a7a376576","system_id":"levelo_inurba_marseille","lat":43.2894,"lon":5.38368,"is_reserved":false,"is_disabled":false,"rental_uris":{"android":"levelo://app?vid=289093e1-a86d-4b45-8271-8c5a7a376576","ios":"levelo://app?vid=289093e1-a86d-4b45-8271-8c5a7a376576"},"vehicle_type_id":"4","last_reported":1771273101,"current_range_meters":22000,"station_id":"ce4bh612rcd13ifvqe6g","pricing_plan_id":"cebpf4jnsgd1na2vs0mg"},{"bike_id":"355a6378-e129-48e8-ad1c-2f2068a5cdeb","system_id":"levelo_inurba_marseille","lat":43.30315,"lon":5.37716,"is_reserved":false,"is_disabled":false,"rental_uris":{"android":"levelo://app?vid=355a6378-e129-48e8-ad1c-2f2068a5cdeb","ios":"levelo://app?vid=355a6378-e129-48e8-ad1c-2f2068a5cdeb"},"vehicle_type_id":"4","last_reported":1771273101,"current_range_meters":34000,"station_id":"ce4bguh2rcd13ifvqcj0","pricing_plan_id":"cebpf4jnsgd1na2vs0mg"},{"bike_id":"3b6a304c-f8a3-4942-805d-a3b79cb2b45e","system_id":"levelo_inurba_marseille","lat":43.33563,"lon":5.37431,"is_reserved":false,"is_disabled":false,"rental_uris":{"android":"levelo://app?vid=3b6a304c-f8a3-4942-805d-a3b79cb2b45e","ios":"levelo://app?vid=3b6a304c-f8a3-4942-805d-a3b79cb2b45e"},"vehicle_type_id":"4","last_reported":1771273101,"current_range_meters":8000,"station_id":"st_d46tts09ee8s73dlu43g","pricing_plan_id":"cebpf4jnsgd1na2vs0mg"},{"bike_id":"fa28f09c-cb5a-43bc-b749-b8dba30042bb","system_id":"levelo_inurba_marseille","lat":43.319,"lon":5.40728,"is_reserved":false,"is_disabled":false,"rental_uris":{"android":"levelo://app?vid=fa28f09c-cb5a-43bc-b749-b8dba30042bb","ios":"levelo://app?vid=fa28f09c-cb5a-43bc-b749-b8dba30042bb"},"vehicle_type_id":"4","last_reported":1771273101,"current_range_meters":39200,"station_id":"ce4bhq12rcd13ifvqhig","pricing_plan_id":"cebpf4jnsgd1na2vs0mg"},{"bike_id":"016ec4b9-5b18-4f93-bf29-7317575450df","system_id":"levelo_inurba_marseille","lat":43.24083,"lon":5.37769,"is_reserved":false,"is_disabled":false,"rental_uris":{"android":"levelo://app?vid=016ec4b9-5b18-4f93-bf29-7317575450df","ios":"levelo://app?vid=016ec4b9-5b18-4f93-bf29-7317575450df"},"vehicle_type_id":"4","last_reported":1771273101,"current_range_meters":39200,"station_id":"ce4bhnp2rcd13ifvqgvg","pricing_plan_id":"cebpf4jnsgd1na2vs0mg"},{"bike_id":"5047f7d3-0d2c-4798-92c4-8f8e9995834a","system_id":"levelo_inurba_marseille","lat":43.29981,"lon":5.3851,"is_reserved":false,"is_disabled":false,"rental_uris":{"android":"levelo://app?vid=5047f7d3-0d2c-4798-92c4-8f8e9995834a","ios":"levelo://app?vid=5047f7d3-0d2c-4798-92c4-8f8e9995834a"},"vehicle_type_id":"4","last_reported":1771273101,"current_range_meters":6400,"station_id":"ce4bgj92rcd13ifvqbd0","pricing_plan_id":"cebpf4jnsgd1na2vs0mg"},{"bike_id":"00a5fc08-06a6-42d8-bf56-2e882a941e0f","system_id":"levelo_inurba_marseille","lat":43.284167,"lon":5.375199,"is_reserved":false,"is_disabled":false,"rental_uris":{"android":"levelo://app?vid=00a5fc08-06a6-42d8-bf56-2e882a941e0f","ios":"levelo://app?vid=00a5fc08-06a6-42d8-bf56-2e882a941e0f"},"vehicle_type_id":"4","last_reported":1771273101,"current_range_meters":19600,"station_id":"ce4bh412rcd13ifvqds0","pricing_plan_id":"cebpf4jnsgd1na2vs0mg"},{"bike_id":"9779a971-131b-4b86-9ed0-0730c746efdb","system_id":"levelo_inurba_marseille","lat":43.28642,"lon":5.35103,"is_reserved":false,"is_disabled":false,"rental_uris":{"android":"levelo://app?vid=9779a971-131b-4b86-9ed0-0730c746efdb","ios":"levelo://app?vid=9779a971-131b-4b86-9ed0-0730c746efdb"},"vehicle_type_id":"4","last_reported":1771273101,"current_range_meters":20400,"station_id":"ce4bhch2rcd13ifvqeug","pricing_plan_id":"cebpf4jnsgd1na2vs0mg"},{"bike_id":"01a824eb-7ebf-42bc-aad0-03c96ff76a85","system_id":"levelo_inurba_marseille","lat":43.28633,"lon":5.38967,"is_reserved":false,"is_disabled":false,"rental_uris":{"android":"levelo://app?vid=01a824eb-7ebf-42bc-aad0-03c96ff76a85","ios":"levelo://app?vid=01a824eb-7ebf-42bc-aad0-03c96ff76a85"},"vehicle_type_id":"4","last_reported":1771273101,"current_range_meters":16000,"station_id":"","pricing_plan_id":"cebpf4jnsgd1na2vs0mg"},{"bike_id":"30112464-e399-49c5-9324-befbf3dfc5ec","system_id":"levelo_inurba_marseille","lat":43.27173,"lon":5.40984,"is_reserved":false,"is_disabled":false,"rental_uris":{"android":"levelo://app?vid=30112464-e399-49c5-9324-befbf3dfc5ec","ios":"levelo://app?vid=30112464-e399-49c5-9324-befbf3dfc5ec"},"vehicle_type_id":"4","last_reported":1771273101,"current_range_meters":34000,"station_id":"ce4bhl12rcd13ifvqgf0","pricing_plan_id":"cebpf4jnsgd1na2vs0mg"},{"bike_id":"87b53b9f-9982-41c4-b5ef-c881880c734e","system_id":"levelo_inurba_marseille","lat":43.24054,"lon":5.37742,"is_reserved":false,"is_disabled":false,"rental_uris":{"android":"levelo://app?vid=87b53b9f-9982-41c4-b5ef-c881880c734e","ios":"levelo://app?vid=87b53b9f-9982-41c4-b5ef-c881880c734e"},"vehicle_type_id":"4","last_reported":1771273101,"current_range_meters":39200,"station_id":"ce4bhnp2rcd13ifvqgvg","pricing_plan_id":"cebpf4jnsgd1na2vs0mg"},{"bike_id":"3db9b689-5916-47f9-aaf5-b4714cd5e511","system_id":"levelo_inurba_marseille","lat":43.28197,"lon":5.39051,"is_reserved":false,"is_disabled":false,"rental_uris":{"android":"levelo://app?vid=3db9b689-5916-47f9-aaf5-b4714cd5e511","ios":"levelo://app?vid=3db9b689-5916-47f9-aaf5-b4714cd5e511"},"vehicle_type_id":"4","last_reported":1771273101,"current_range_meters":25600,"station_id":"ce4bhn92rcd13ifvqgsg","pricing_plan_id":"cebpf4jnsgd1na2vs0mg"},{"bike_id":"4257ce27-d4f9-4a49-a222-c5a5ef7fd7bc","system_id":"levelo_inurba_marseille","lat":43.27999,"lon":5.40024,"is_reserved":false,"is_disabled":false,"rental_uris":{"android":"levelo://app?vid=4257ce27-d4f9-4a49-a222-c5a5ef7fd7bc","ios":"levelo://app?vid=4257ce27-d4f9-4a49-a222-c5a5ef7fd7bc"},"vehicle_type_id":"4","last_reported":1771273101,"current_range_meters":22000,"station_id":"ce4bho92rcd13ifvqh4g","pricing_plan_id":"cebpf4jnsgd1na2vs0mg"},{"bike_id":"504d0a5c-6d34-4e6e-b049-b85598e8a815","system_id":"levelo_inurba_marseille","lat":43.29192,"lon":5.36056,"is_reserved":false,"is_disabled":false,"rental_uris":{"android":"levelo://app?vid=504d0a5c-6d34-4e6e-b049-b85598e8a815","ios":"levelo://app?vid=504d0a5c-6d34-4e6e-b049-b85598e8a815"},"vehicle_type_id":"4","last_reported":1771273101,"current_range_meters":37600,"station_id":"ce4bhbh2rcd13ifvqeqg","pricing_plan_id":"cebpf4jnsgd1na2vs0mg"},{"bike_id":"8d6535f0-b219-41a9-a5bf-28d07bb13e74","system_id":"levelo_inurba_marseille","lat":43.31176,"lon":5.36916,"is_reserved":false,"is_disabled":false,"rental_uris":{"android":"levelo://app?vid=8d6535f0-b219-41a9-a5bf-28d07bb13e74","ios":"levelo://app?vid=8d6535f0-b219-41a9-a5bf-28d07bb13e74"},"vehicle_type_id":"4","last_reported":1771273101,"current_range_meters":16000,"station_id":"ce4bgl92rcd13ifvqbq0","pricing_plan_id":"cebpf4jnsgd1na2vs0mg"},{"bike_id":"f56b6e75-070e-4148-9d41-956869c01c1e","system_id":"levelo_inurba_marseille","lat":43.29223,"lon":5.3607,"is_reserved":false,"is_disabled":false,"rental_uris":{"android":"levelo://app?vid=f56b6e75-070e-4148-9d41-956869c01c1e","ios":"levelo://app?vid=f56b6e75-070e-4148-9d41-956869c01c1e"},"vehicle_type_id":"4","last_reported":1771273101,"current_range_meters":39200,"station_id":"ce4bhbh2rcd13ifvqeqg","pricing_plan_id":"cebpf4jnsgd1na2vs0mg"},{"bike_id":"ef43f5b3-0267-470e-a7be-73b400aa2eff","system_id":"levelo_inurba_marseille","lat":43.25118,"lon":5.40334,"is_reserved":false,"is_disabled":false,"rental_uris":{"android":"levelo://app?vid=ef43f5b3-0267-470e-a7be-73b400aa2eff","ios":"levelo://app?vid=ef43f5b3-0267-470e-a7be-73b400aa2eff"},"vehicle_type_id":"4","last_reported":1771273101,"current_range_meters":33200,"station_id":"ce4bhlh2rcd13ifvqgig","pricing_plan_id":"cebpf4jnsgd1na2vs0mg"},{"bike_id":"b0b27d44-1805-4226-9f29-7db67902ed5c","system_id":"levelo_inurba_marseille","lat":43.26564,"lon":5.39001,"is_reserved":false,"is_disabled":false,"rental_uris":{"android":"levelo://app?vid=b0b27d44-1805-4226-9f29-7db67902ed5c","ios":"levelo://app?vid=b0b27d44-1805-4226-9f29-7db67902ed5c"},"vehicle_type_id":"4","last_reported":1771273101,"current_range_meters":18800,"station_id":"ce4bhe12rcd13ifvqf30","pricing_plan_id":"cebpf4jnsgd1na2vs0mg"},{"bike_id":"eec2b693-13ce-4375-854a-cf1c0218edcf","system_id":"levelo_inurba_marseille","lat":43.32041,"lon":5.41572,"is_reserved":false,"is_disabled":false,"rental_uris":{"android":"levelo://app?vid=eec2b693-13ce-4375-854a-cf1c0218edcf","ios":"levelo://app?vid=eec2b693-13ce-4375-854a-cf1c0218edcf"},"vehicle_type_id":"4","last_reported":1771273101,"current_range_meters":38400,"station_id":"ce4bhq92rcd13ifvqhkg","pricing_plan_id":"cebpf4jnsgd1na2vs0mg"},{"bike_id":"4fd3a417-f687-49cb-be5b-0f2deb6d6629","system_id":"levelo_inurba_marseille","lat":43.29572,"lon":5.39983,"is_reserved":false,"is_disabled":false,"rental_uris":{"android":"levelo://app?vid=4fd3a417-f687-49cb-be5b-0f2deb6d6629","ios":"levelo://app?vid=4fd3a417-f687-49cb-be5b-0f2deb6d6629"},"vehicle_type_id":"4","last_reported":1771273101,"current_range_meters":26800,"station_id":"ce4bh312rcd13ifvqdj0","pricing_plan_id":"cebpf4jnsgd1na2vs0mg"},{"bike_id":"8ea4ca7b-6594-418d-9806-5e7e471eb99e","system_id":"levelo_inurba_marseille","lat":43.289165,"lon":5.384109,"is_reserved":false,"is_disabled":true,"rental_uris":{"android":"levelo://app?vid=8ea4ca7b-6594-418d-9806-5e7e471eb99e","ios":"levelo://app?vid=8ea4ca7b-6594-418d-9806-5e7e471eb99e"},"vehicle_type_id":"4","last_reported":1771273101,"current_range_meters":35200,"station_id":"ce4bh612rcd13ifvqe6g","pricing_plan_id":"cebpf4jnsgd1na2vs0mg"},{"bike_id":"3b4377ca-fc09-4041-8519-6fa3dd2f3815","system_id":"levelo_inurba_marseille","lat":43.26066,"lon":5.39393,"is_reserved":false,"is_disabled":false,"rental_uris":{"android":"levelo://app?vid=3b4377ca-fc09-4041-8519-6fa3dd2f3815","ios":"levelo://app?vid=3b4377ca-fc09-4041-8519-6fa3dd2f3815"},"vehicle_type_id":"4","last_reported":1771273101,"current_range_meters":10800,"station_id":"ce4bhh92rcd13ifvqfj0","pricing_plan_id":"cebpf4jnsgd1na2vs0mg"},{"bike_id":"1db36d72-99e8-4e00-88f9-f9fb01bcde64","system_id":"levelo_inurba_marseille","lat":43.25834,"lon":5.39441,"is_reserved":false,"is_disabled":false,"rental_uris":{"android":"levelo://app?vid=1db36d72-99e8-4e00-88f9-f9fb01bcde64","ios":"levelo://app?vid=1db36d72-99e8-4e00-88f9-f9fb01bcde64"},"vehicle_type_id":"4","last_reported":1771273101,"current_range_meters":20000,"station_id":"ce4bhip2rcd13ifvqft0","pricing_plan_id":"cebpf4jnsgd1na2vs0mg"},{"bike_id":"a5440106-434a-4e67-a4cb-72bf9b881aba","system_id":"levelo_inurba_marseille","lat":43.30104,"lon":5.39073,"is_reserved":false,"is_disabled":false,"rental_uris":{"android":"levelo://app?vid=a5440106-434a-4e67-a4cb-72bf9b881aba","ios":"levelo://app?vid=a5440106-434a-4e67-a4cb-72bf9b881aba"},"vehicle_type_id":"4","last_reported":1771273101,"current_range_meters":29600,"station_id":"ce4bh192rcd13ifvqdb0","pricing_plan_id":"cebpf4jnsgd1na2vs0mg"},{"bike_id":"acf5c087-33f1-469f-8ec0-bd478f6eb4c3","system_id":"levelo_inurba_marseille","lat":43.29038,"lon":5.35887,"is_reserved":false,"is_disabled":false,"rental_uris":{"android":"levelo://app?vid=acf5c087-33f1-469f-8ec0-bd478f6eb4c3","ios":"levelo://app?vid=acf5c087-33f1-469f-8ec0-bd478f6eb4c3"},"vehicle_type_id":"4","last_reported":1771273101,"current_range_meters":40000,"station_id":"ce4bha92rcd13ifvqeg0","pricing_plan_id":"cebpf4jnsgd1na2vs0mg"},{"bike_id":"063f653a-a02e-48ab-b671-a1d0f66830cf","system_id":"levelo_inurba_marseille","lat":43.30568,"lon":5.36538,"is_reserved":false,"is_disabled":false,"rental_uris":{"android":"levelo://app?vid=063f653a-a02e-48ab-b671-a1d0f66830cf","ios":"levelo://app?vid=063f653a-a02e-48ab-b671-a1d0f66830cf"},"vehicle_type_id":"4","last_reported":1771273101,"current_range_meters":19600,"station_id":"ce4bgs12rcd13ifvqcag","pricing_plan_id":"cebpf4jnsgd1na2vs0mg"},{"bike_id":"47f2ab0d-ecb4-43be-9bed-5badd8982cbb","system_id":"levelo_inurba_marseille","lat":43.31252,"lon":5.36871,"is_reserved":false,"is_disabled":false,"rental_uris":{"android":"levelo://app?vid=47f2ab0d-ecb4-43be-9bed-5badd8982cbb","ios":"levelo://app?vid=47f2ab0d-ecb4-43be-9bed-5badd8982cbb"},"vehicle_type_id":"4","last_reported":1771273101,"current_range_meters":38400,"station_id":"ce4bgl92rcd13ifvqbq0","pricing_plan_id":"cebpf4jnsgd1na2vs0mg"},{"bike_id":"9a3c19aa-d5b5-4290-b356-d5a9a83b4ebe","system_id":"levelo_inurba_marseille","lat":43.274907,"lon":5.424528,"is_reserved":false,"is_disabled":false,"rental_uris":{"android":"levelo://app?vid=9a3c19aa-d5b5-4290-b356-d5a9a83b4ebe","ios":"levelo://app?vid=9a3c19aa-d5b5-4290-b356-d5a9a83b4ebe"},"vehicle_type_id":"4","last_reported":1771273101,"current_range_meters":8000,"station_id":"ce4bhn92rcd13ifvqgrg","pricing_plan_id":"cebpf4jnsgd1na2vs0mg"},{"bike_id":"4dcbf679-cdd4-4ee9-878d-44ab492dd40a","system_id":"levelo_inurba_marseille","lat":43.29229,"lon":5.36092,"is_reserved":false,"is_disabled":false,"rental_uris":{"android":"levelo://app?vid=4dcbf679-cdd4-4ee9-878d-44ab492dd40a","ios":"levelo://app?vid=4dcbf679-cdd4-4ee9-878d-44ab492dd40a"},"vehicle_type_id":"4","last_reported":1771273101,"current_range_meters":39200,"station_id":"ce4bhbh2rcd13ifvqeqg","pricing_plan_id":"cebpf4jnsgd1na2vs0mg"},{"bike_id":"56f6be22-34a4-414b-bb2b-65bed27d8189","system_id":"levelo_inurba_marseille","lat":43.29567,"lon":5.39971,"is_reserved":false,"is_disabled":false,"rental_uris":{"android":"levelo://app?vid=56f6be22-34a4-414b-bb2b-65bed27d8189","ios":"levelo://app?vid=56f6be22-34a4-414b-bb2b-65bed27d8189"},"vehicle_type_id":"4","last_reported":1771273101,"current_range_meters":14400,"station_id":"ce4bh312rcd13ifvqdj0","pricing_plan_id":"cebpf4jnsgd1na2vs0mg"},{"bike_id":"9a71aafb-3414-42bb-a93e-c329b1fce7db","system_id":"levelo_inurba_marseille","lat":43.25835,"lon":5.3945,"is_reserved":false,"is_disabled":false,"rental_uris":{"android":"levelo://app?vid=9a71aafb-3414-42bb-a93e-c329b1fce7db","ios":"levelo://app?vid=9a71aafb-3414-42bb-a93e-c329b1fce7db"},"vehicle_type_id":"4","last_reported":1771273101,"current_range_meters":31200,"station_id":"ce4bhip2rcd13ifvqft0","pricing_plan_id":"cebpf4jnsgd1na2vs0mg"},{"bike_id":"88301f0b-9114-4fa7-9465-175f31eb8a58","system_id":"levelo_inurba_marseille","lat":43.304497,"lon":5.388553,"is_reserved":false,"is_disabled":false,"rental_uris":{"android":"levelo://app?vid=88301f0b-9114-4fa7-9465-175f31eb8a58","ios":"levelo://app?vid=88301f0b-9114-4fa7-9465-175f31eb8a58"},"vehicle_type_id":"4","last_reported":1771273101,"current_range_meters":30000,"station_id":"ce4bgk12rcd13ifvqbi0","pricing_plan_id":"cebpf4jnsgd1na2vs0mg"},{"bike_id":"e87ad34e-b4b7-4a8f-8d1d-9fcdf7787f23","system_id":"levelo_inurba_marseille","lat":43.27497,"lon":5.424528,"is_reserved":false,"is_disabled":false,"rental_uris":{"android":"levelo://app?vid=e87ad34e-b4b7-4a8f-8d1d-9fcdf7787f23","ios":"levelo://app?vid=e87ad34e-b4b7-4a8f-8d1d-9fcdf7787f23"},"vehicle_type_id":"4","last_reported":1771273101,"current_range_meters":28800,"station_id":"ce4bhn92rcd13ifvqgrg","pricing_plan_id":"cebpf4jnsgd1na2vs0mg"},{"bike_id":"40a2d767-9a8e-4aa3-bded-343bcd3a8041","system_id":"levelo_inurba_marseille","lat":43.24169,"lon":5.36441,"is_reserved":false,"is_disabled":false,"rental_uris":{"android":"levelo://app?vid=40a2d767-9a8e-4aa3-bded-343bcd3a8041","ios":"levelo://app?vid=40a2d767-9a8e-4aa3-bded-343bcd3a8041"},"vehicle_type_id":"4","last_reported":1771273101,"current_range_meters":6800,"station_id":"cpo36qri1sfpv3e86is0","pricing_plan_id":"cebpf4jnsgd1na2vs0mg"},{"bike_id":"20a150e4-0b5d-4bdc-83e9-21ce88af06ab","system_id":"levelo_inurba_marseille","lat":43.292223,"lon":5.360656,"is_reserved":false,"is_disabled":false,"rental_uris":{"android":"levelo://app?vid=20a150e4-0b5d-4bdc-83e9-21ce88af06ab","ios":"levelo://app?vid=20a150e4-0b5d-4bdc-83e9-21ce88af06ab"},"vehicle_type_id":"4","last_reported":1771273101,"current_range_meters":38800,"station_id":"ce4bhbh2rcd13ifvqeqg","pricing_plan_id":"cebpf4jnsgd1na2vs0mg"},{"bike_id":"0a8aa6fc-0cda-4fe6-9667-06217ff04dac","system_id":"levelo_inurba_marseille","lat":43.27066,"lon":5.3832,"is_reserved":false,"is_disabled":false,"rental_uris":{"android":"levelo://app?vid=0a8aa6fc-0cda-4fe6-9667-06217ff04dac","ios":"levelo://app?vid=0a8aa6fc-0cda-4fe6-9667-06217ff04dac"},"vehicle_type_id":"4","last_reported":1771273101,"current_range_meters":38800,"station_id":"st_d3n2fo6cfp8s73cte1j0","pricing_plan_id":"cebpf4jnsgd1na2vs0mg"},{"bike_id":"53022a12-fe7d-4e6a-8699-1199ba146b98","system_id":"levelo_inurba_marseille","lat":43.29153,"lon":5.35822,"is_reserved":false,"is_disabled":false,"rental_uris":{"android":"levelo://app?vid=53022a12-fe7d-4e6a-8699-1199ba146b98","ios":"levelo://app?vid=53022a12-fe7d-4e6a-8699-1199ba146b98"},"vehicle_type_id":"4","last_reported":1771273101,"current_range_meters":18000,"station_id":"","pricing_plan_id":"cebpf4jnsgd1na2vs0mg"},{"bike_id":"55d2f36a-9a72-4961-bbdb-5937e41fb5f7","system_id":"levelo_inurba_marseille","lat":43.31056,"lon":5.37149,"is_reserved":false,"is_disabled":false,"rental_uris":{"android":"levelo://app?vid=55d2f36a-9a72-4961-bbdb-5937e41fb5f7","ios":"levelo://app?vid=55d2f36a-9a72-4961-bbdb-5937e41fb5f7"},"vehicle_type_id":"4","last_reported":1771273101,"current_range_meters":31200,"station_id":"st_d4kl2rp97mjs73e7tdfg","pricing_plan_id":"cebpf4jnsgd1na2vs0mg"},{"bike_id":"58da13b5-16bf-4d7b-9003-4c3c2e34513b","system_id":"levelo_inurba_marseille","lat":43.29004,"lon":5.35618,"is_reserved":false,"is_disabled":false,"rental_uris":{"android":"levelo://app?vid=58da13b5-16bf-4d7b-9003-4c3c2e34513b","ios":"levelo://app?vid=58da13b5-16bf-4d7b-9003-4c3c2e34513b"},"vehicle_type_id":"4","last_reported":1771273101,"current_range_meters":33600,"station_id":"ce4bhb92rcd13ifvqen0","pricing_plan_id":"cebpf4jnsgd1na2vs0mg"},{"bike_id":"8e4d0fb2-0b0a-434c-902e-d3ab3497cc31","system_id":"levelo_inurba_marseille","lat":43.28148,"lon":5.42648,"is_reserved":false,"is_disabled":false,"rental_uris":{"android":"levelo://app?vid=8e4d0fb2-0b0a-434c-902e-d3ab3497cc31","ios":"levelo://app?vid=8e4d0fb2-0b0a-434c-902e-d3ab3497cc31"},"vehicle_type_id":"4","last_reported":1771273101,"current_range_meters":39200,"station_id":"ce4bhnh2rcd13ifvqgug","pricing_plan_id":"cebpf4jnsgd1na2vs0mg"},{"bike_id":"9c9302ed-c2af-40cd-9047-f491de3d893a","system_id":"levelo_inurba_marseille","lat":43.24659,"lon":5.43153,"is_reserved":false,"is_disabled":false,"rental_uris":{"android":"levelo://app?vid=9c9302ed-c2af-40cd-9047-f491de3d893a","ios":"levelo://app?vid=9c9302ed-c2af-40cd-9047-f491de3d893a"},"vehicle_type_id":"4","last_reported":1771273101,"current_range_meters":16000,"station_id":"st_d2m6c4gdas8pm72e190g","pricing_plan_id":"cebpf4jnsgd1na2vs0mg"},{"bike_id":"0130734a-f9ff-4462-b2e0-96791c8b2893","system_id":"levelo_inurba_marseille","lat":43.28718,"lon":5.38651,"is_reserved":false,"is_disabled":false,"rental_uris":{"android":"levelo://app?vid=0130734a-f9ff-4462-b2e0-96791c8b2893","ios":"levelo://app?vid=0130734a-f9ff-4462-b2e0-96791c8b2893"},"vehicle_type_id":"4","last_reported":1771273101,"current_range_meters":29600,"station_id":"ce4bh492rcd13ifvqdug","pricing_plan_id":"cebpf4jnsgd1na2vs0mg"},{"bike_id":"addd33a1-5186-4324-b702-4ac89f3f7ce6","system_id":"levelo_inurba_marseille","lat":43.26067,"lon":5.39405,"is_reserved":false,"is_disabled":false,"rental_uris":{"android":"levelo://app?vid=addd33a1-5186-4324-b702-4ac89f3f7ce6","ios":"levelo://app?vid=addd33a1-5186-4324-b702-4ac89f3f7ce6"},"vehicle_type_id":"4","last_reported":1771273101,"current_range_meters":31200,"station_id":"ce4bhh92rcd13ifvqfj0","pricing_plan_id":"cebpf4jnsgd1na2vs0mg"},{"bike_id":"27980297-bf5f-4d64-811d-5e0f3f3b71dd","system_id":"levelo_inurba_marseille","lat":43.24685,"lon":5.38115,"is_reserved":false,"is_disabled":false,"rental_uris":{"android":"levelo://app?vid=27980297-bf5f-4d64-811d-5e0f3f3b71dd","ios":"levelo://app?vid=27980297-bf5f-4d64-811d-5e0f3f3b71dd"},"vehicle_type_id":"4","last_reported":1771273101,"current_range_meters":33600,"station_id":"ce4bhih2rcd13ifvqfr0","pricing_plan_id":"cebpf4jnsgd1na2vs0mg"},{"bike_id":"a4cbd2b2-e7f8-4ea1-a3e4-eff9651d939c","system_id":"levelo_inurba_marseille","lat":43.27421,"lon":5.39408,"is_reserved":false,"is_disabled":false,"rental_uris":{"android":"levelo://app?vid=a4cbd2b2-e7f8-4ea1-a3e4-eff9651d939c","ios":"levelo://app?vid=a4cbd2b2-e7f8-4ea1-a3e4-eff9651d939c"},"vehicle_type_id":"4","last_reported":1771273101,"current_range_meters":17200,"station_id":"ce4bhdp2rcd13ifvqf20","pricing_plan_id":"cebpf4jnsgd1na2vs0mg"},{"bike_id":"e3ef2a1f-7053-49cd-8461-19f292512418","system_id":"levelo_inurba_marseille","lat":43.29048,"lon":5.38149,"is_reserved":false,"is_disabled":false,"rental_uris":{"android":"levelo://app?vid=e3ef2a1f-7053-49cd-8461-19f292512418","ios":"levelo://app?vid=e3ef2a1f-7053-49cd-8461-19f292512418"},"vehicle_type_id":"4","last_reported":1771273101,"current_range_meters":39200,"station_id":"ce4bh4p2rcd13ifvqe1g","pricing_plan_id":"cebpf4jnsgd1na2vs0mg"},{"bike_id":"88353c84-bf04-4df4-ba4f-667293e40e11","system_id":"levelo_inurba_marseille","lat":43.27961,"lon":5.38694,"is_reserved":false,"is_disabled":false,"rental_uris":{"android":"levelo://app?vid=88353c84-bf04-4df4-ba4f-667293e40e11","ios":"levelo://app?vid=88353c84-bf04-4df4-ba4f-667293e40e11"},"vehicle_type_id":"4","last_reported":1771273101,"current_range_meters":38000,"station_id":"ce4bhg12rcd13ifvqf80","pricing_plan_id":"cebpf4jnsgd1na2vs0mg"},{"bike_id":"f9bdc2f1-c613-4e5a-92b7-25fb51c547a8","system_id":"levelo_inurba_marseille","lat":43.31218,"lon":5.36862,"is_reserved":false,"is_disabled":false,"rental_uris":{"android":"levelo://app?vid=f9bdc2f1-c613-4e5a-92b7-25fb51c547a8","ios":"levelo://app?vid=f9bdc2f1-c613-4e5a-92b7-25fb51c547a8"},"vehicle_type_id":"4","last_reported":1771273101,"current_range_meters":32000,"station_id":"ce4bgl92rcd13ifvqbq0","pricing_plan_id":"cebpf4jnsgd1na2vs0mg"},{"bike_id":"099ae8cc-79c3-4957-b851-779e2c6abde9","system_id":"levelo_inurba_marseille","lat":43.32362,"lon":5.3892,"is_reserved":false,"is_disabled":true,"rental_uris":{"android":"levelo://app?vid=099ae8cc-79c3-4957-b851-779e2c6abde9","ios":"levelo://app?vid=099ae8cc-79c3-4957-b851-779e2c6abde9"},"vehicle_type_id":"4","last_reported":1771273101,"current_range_meters":27600,"station_id":"ce4bhqp2rcd13ifvqhog","pricing_plan_id":"cebpf4jnsgd1na2vs0mg"},{"bike_id":"dcb46e53-479a-4eb4-80ee-4c4b8b773271","system_id":"levelo_inurba_marseille","lat":43.28701,"lon":5.35553,"is_reserved":false,"is_disabled":true,"rental_uris":{"android":"levelo://app?vid=dcb46e53-479a-4eb4-80ee-4c4b8b773271","ios":"levelo://app?vid=dcb46e53-479a-4eb4-80ee-4c4b8b773271"},"vehicle_type_id":"4","last_reported":1771273101,"current_range_meters":39200,"station_id":"","pricing_plan_id":"cebpf4jnsgd1na2vs0mg"},{"bike_id":"6d3a826c-88c9-4a8c-9c43-415d2b4390c4","system_id":"levelo_inurba_marseille","lat":43.26026,"lon":5.37557,"is_reserved":false,"is_disabled":false,"rental_uris":{"android":"levelo://app?vid=6d3a826c-88c9-4a8c-9c43-415d2b4390c4","ios":"levelo://app?vid=6d3a826c-88c9-4a8c-9c43-415d2b4390c4"},"vehicle_type_id":"4","last_reported":1771273101,"current_range_meters":38800,"station_id":"ce4bhgh2rcd13ifvqfa0","pricing_plan_id":"cebpf4jnsgd1na2vs0mg"},{"bike_id":"39c0bb6d-c266-41ba-b23c-298cf81c4a32","system_id":"levelo_inurba_marseille","lat":43.28282,"lon":5.35054,"is_reserved":false,"is_disabled":false,"rental_uris":{"android":"levelo://app?vid=39c0bb6d-c266-41ba-b23c-298cf81c4a32","ios":"levelo://app?vid=39c0bb6d-c266-41ba-b23c-298cf81c4a32"},"vehicle_type_id":"4","last_reported":1771273101,"current_range_meters":22000,"station_id":"ce4bhbp2rcd13ifvqerg","pricing_plan_id":"cebpf4jnsgd1na2vs0mg"},{"bike_id":"902cf8cb-0555-42ea-b232-13b27392c7e5","system_id":"levelo_inurba_marseille","lat":43.29931,"lon":5.36541,"is_reserved":false,"is_disabled":false,"rental_uris":{"android":"levelo://app?vid=902cf8cb-0555-42ea-b232-13b27392c7e5","ios":"levelo://app?vid=902cf8cb-0555-42ea-b232-13b27392c7e5"},"vehicle_type_id":"4","last_reported":1771273101,"current_range_meters":8800,"station_id":"ce4bgm92rcd13ifvqbr0","pricing_plan_id":"cebpf4jnsgd1na2vs0mg"},{"bike_id":"ee520404-8764-4e6d-9db7-583906d777d1","system_id":"levelo_inurba_marseille","lat":43.286178,"lon":5.350958,"is_reserved":false,"is_disabled":false,"rental_uris":{"android":"levelo://app?vid=ee520404-8764-4e6d-9db7-583906d777d1","ios":"levelo://app?vid=ee520404-8764-4e6d-9db7-583906d777d1"},"vehicle_type_id":"4","last_reported":1771273101,"current_range_meters":24000,"station_id":"ce4bhch2rcd13ifvqeug","pricing_plan_id":"cebpf4jnsgd1na2vs0mg"},{"bike_id":"d7b9bab2-8c15-4f04-b30d-9182fb77c28b","system_id":"levelo_inurba_marseille","lat":43.27465,"lon":5.42446,"is_reserved":false,"is_disabled":false,"rental_uris":{"android":"levelo://app?vid=d7b9bab2-8c15-4f04-b30d-9182fb77c28b","ios":"levelo://app?vid=d7b9bab2-8c15-4f04-b30d-9182fb77c28b"},"vehicle_type_id":"4","last_reported":1771273101,"current_range_meters":14400,"station_id":"ce4bhn92rcd13ifvqgrg","pricing_plan_id":"cebpf4jnsgd1na2vs0mg"},{"bike_id":"e88e9a36-a858-4e44-81a0-0062d41c944f","system_id":"levelo_inurba_marseille","lat":43.31531,"lon":5.38038,"is_reserved":false,"is_disabled":false,"rental_uris":{"android":"levelo://app?vid=e88e9a36-a858-4e44-81a0-0062d41c944f","ios":"levelo://app?vid=e88e9a36-a858-4e44-81a0-0062d41c944f"},"vehicle_type_id":"4","last_reported":1771273101,"current_range_meters":20000,"station_id":"ce4bhsp2rcd13ifvqi50","pricing_plan_id":"cebpf4jnsgd1na2vs0mg"},{"bike_id":"3cd8e674-f2df-4abf-b06c-c0245679bc5d","system_id":"levelo_inurba_marseille","lat":43.30911,"lon":5.36845,"is_reserved":false,"is_disabled":false,"rental_uris":{"android":"levelo://app?vid=3cd8e674-f2df-4abf-b06c-c0245679bc5d","ios":"levelo://app?vid=3cd8e674-f2df-4abf-b06c-c0245679bc5d"},"vehicle_type_id":"4","last_reported":1771273101,"current_range_meters":28800,"station_id":"ce4bgn92rcd13ifvqbvg","pricing_plan_id":"cebpf4jnsgd1na2vs0mg"},{"bike_id":"c1009b7a-d4e9-4514-8771-76f5baf181b7","system_id":"levelo_inurba_marseille","lat":43.30555,"lon":5.36531,"is_reserved":false,"is_disabled":false,"rental_uris":{"android":"levelo://app?vid=c1009b7a-d4e9-4514-8771-76f5baf181b7","ios":"levelo://app?vid=c1009b7a-d4e9-4514-8771-76f5baf181b7"},"vehicle_type_id":"4","last_reported":1771273101,"current_range_meters":27600,"station_id":"ce4bgs12rcd13ifvqcag","pricing_plan_id":"cebpf4jnsgd1na2vs0mg"},{"bike_id":"279a69f9-1457-40fd-894b-68248c11b6e7","system_id":"levelo_inurba_marseille","lat":43.26427,"lon":5.4107,"is_reserved":false,"is_disabled":false,"rental_uris":{"android":"levelo://app?vid=279a69f9-1457-40fd-894b-68248c11b6e7","ios":"levelo://app?vid=279a69f9-1457-40fd-894b-68248c11b6e7"},"vehicle_type_id":"4","last_reported":1771273101,"current_range_meters":28400,"station_id":"","pricing_plan_id":"cebpf4jnsgd1na2vs0mg"},{"bike_id":"6e14feb7-753c-4804-bdc9-e912ef41a703","system_id":"levelo_inurba_marseille","lat":43.243966,"lon":5.37044,"is_reserved":false,"is_disabled":false,"rental_uris":{"android":"levelo://app?vid=6e14feb7-753c-4804-bdc9-e912ef41a703","ios":"levelo://app?vid=6e14feb7-753c-4804-bdc9-e912ef41a703"},"vehicle_type_id":"4","last_reported":1771273101,"current_range_meters":27600,"station_id":"ce4bhhh2rcd13ifvqfk0","pricing_plan_id":"cebpf4jnsgd1na2vs0mg"},{"bike_id":"2dd47143-fcce-4d1c-b676-78c1b5bba6e2","system_id":"levelo_inurba_marseille","lat":43.24807,"lon":5.37479,"is_reserved":false,"is_disabled":false,"rental_uris":{"android":"levelo://app?vid=2dd47143-fcce-4d1c-b676-78c1b5bba6e2","ios":"levelo://app?vid=2dd47143-fcce-4d1c-b676-78c1b5bba6e2"},"vehicle_type_id":"4","last_reported":1771273101,"current_range_meters":5600,"station_id":"ce4bhgh2rcd13ifvqfb0","pricing_plan_id":"cebpf4jnsgd1na2vs0mg"},{"bike_id":"a2989192-8d09-4174-ab11-6beee2d42145","system_id":"levelo_inurba_marseille","lat":43.313652,"lon":5.36703,"is_reserved":false,"is_disabled":false,"rental_uris":{"android":"levelo://app?vid=a2989192-8d09-4174-ab11-6beee2d42145","ios":"levelo://app?vid=a2989192-8d09-4174-ab11-6beee2d42145"},"vehicle_type_id":"4","last_reported":1771273101,"current_range_meters":34000,"station_id":"ce4bgrh2rcd13ifvqc8g","pricing_plan_id":"cebpf4jnsgd1na2vs0mg"},{"bike_id":"937f3d25-b848-495b-a330-e41b28ba6403","system_id":"levelo_inurba_marseille","lat":43.24028,"lon":5.37711,"is_reserved":false,"is_disabled":false,"rental_uris":{"android":"levelo://app?vid=937f3d25-b848-495b-a330-e41b28ba6403","ios":"levelo://app?vid=937f3d25-b848-495b-a330-e41b28ba6403"},"vehicle_type_id":"4","last_reported":1771273101,"current_range_meters":39200,"station_id":"ce4bhnp2rcd13ifvqgvg","pricing_plan_id":"cebpf4jnsgd1na2vs0mg"},{"bike_id":"a0e434d5-8009-4ae4-b8e3-48e77a376605","system_id":"levelo_inurba_marseille","lat":43.28418,"lon":5.34988,"is_reserved":false,"is_disabled":false,"rental_uris":{"android":"levelo://app?vid=a0e434d5-8009-4ae4-b8e3-48e77a376605","ios":"levelo://app?vid=a0e434d5-8009-4ae4-b8e3-48e77a376605"},"vehicle_type_id":"4","last_reported":1771273101,"current_range_meters":28000,"station_id":"ce4bhbh2rcd13ifvqepg","pricing_plan_id":"cebpf4jnsgd1na2vs0mg"},{"bike_id":"6b9694b3-51f3-4a5e-a18f-3a0341ea4e2d","system_id":"levelo_inurba_marseille","lat":43.29853,"lon":5.36289,"is_reserved":false,"is_disabled":false,"rental_uris":{"android":"levelo://app?vid=6b9694b3-51f3-4a5e-a18f-3a0341ea4e2d","ios":"levelo://app?vid=6b9694b3-51f3-4a5e-a18f-3a0341ea4e2d"},"vehicle_type_id":"4","last_reported":1771273101,"current_range_meters":20000,"station_id":"ce4bgpp2rcd13ifvqc3g","pricing_plan_id":"cebpf4jnsgd1na2vs0mg"},{"bike_id":"7cdcc1b2-92de-42b2-a7cd-06b9eab80f75","system_id":"levelo_inurba_marseille","lat":43.29575,"lon":5.39965,"is_reserved":false,"is_disabled":false,"rental_uris":{"android":"levelo://app?vid=7cdcc1b2-92de-42b2-a7cd-06b9eab80f75","ios":"levelo://app?vid=7cdcc1b2-92de-42b2-a7cd-06b9eab80f75"},"vehicle_type_id":"4","last_reported":1771273101,"current_range_meters":8000,"station_id":"ce4bh312rcd13ifvqdj0","pricing_plan_id":"cebpf4jnsgd1na2vs0mg"},{"bike_id":"834013b6-24d6-4cde-b39c-d15c054425ae","system_id":"levelo_inurba_marseille","lat":43.29594,"lon":5.37484,"is_reserved":false,"is_disabled":true,"rental_uris":{"android":"levelo://app?vid=834013b6-24d6-4cde-b39c-d15c054425ae","ios":"levelo://app?vid=834013b6-24d6-4cde-b39c-d15c054425ae"},"vehicle_type_id":"4","last_reported":1771273101,"current_range_meters":39200,"station_id":"ce4bgh92rcd13ifvqb50","pricing_plan_id":"cebpf4jnsgd1na2vs0mg"},{"bike_id":"21fd07e1-caf4-4951-a83f-0bb4c9d8a5cf","system_id":"levelo_inurba_marseille","lat":43.265572,"lon":5.372806,"is_reserved":false,"is_disabled":false,"rental_uris":{"android":"levelo://app?vid=21fd07e1-caf4-4951-a83f-0bb4c9d8a5cf","ios":"levelo://app?vid=21fd07e1-caf4-4951-a83f-0bb4c9d8a5cf"},"vehicle_type_id":"4","last_reported":1771273101,"current_range_meters":23200,"station_id":"ce4bhg12rcd13ifvqf70","pricing_plan_id":"cebpf4jnsgd1na2vs0mg"},{"bike_id":"8e71ac91-0568-45e8-9b6a-a8c9ae9c07db","system_id":"levelo_inurba_marseille","lat":43.31198,"lon":5.36835,"is_reserved":false,"is_disabled":false,"rental_uris":{"android":"levelo://app?vid=8e71ac91-0568-45e8-9b6a-a8c9ae9c07db","ios":"levelo://app?vid=8e71ac91-0568-45e8-9b6a-a8c9ae9c07db"},"vehicle_type_id":"4","last_reported":1771273101,"current_range_meters":39200,"station_id":"ce4bgl92rcd13ifvqbq0","pricing_plan_id":"cebpf4jnsgd1na2vs0mg"},{"bike_id":"6e162cf7-1f7d-4120-9d73-84a7a23edeec","system_id":"levelo_inurba_marseille","lat":43.33722,"lon":5.39195,"is_reserved":false,"is_disabled":false,"rental_uris":{"android":"levelo://app?vid=6e162cf7-1f7d-4120-9d73-84a7a23edeec","ios":"levelo://app?vid=6e162cf7-1f7d-4120-9d73-84a7a23edeec"},"vehicle_type_id":"4","last_reported":1771273101,"current_range_meters":19600,"station_id":"ce4bhr92rcd13ifvqhsg","pricing_plan_id":"cebpf4jnsgd1na2vs0mg"},{"bike_id":"7af034b1-d45b-4a99-8aeb-df8148188cde","system_id":"levelo_inurba_marseille","lat":43.29313,"lon":5.37174,"is_reserved":false,"is_disabled":false,"rental_uris":{"android":"levelo://app?vid=7af034b1-d45b-4a99-8aeb-df8148188cde","ios":"levelo://app?vid=7af034b1-d45b-4a99-8aeb-df8148188cde"},"vehicle_type_id":"4","last_reported":1771273101,"current_range_meters":32800,"station_id":"ce4bgh92rcd13ifvqb40","pricing_plan_id":"cebpf4jnsgd1na2vs0mg"},{"bike_id":"849004ff-453e-4a0c-bf07-5f9fb058a404","system_id":"levelo_inurba_marseille","lat":43.24393,"lon":5.37069,"is_reserved":false,"is_disabled":false,"rental_uris":{"android":"levelo://app?vid=849004ff-453e-4a0c-bf07-5f9fb058a404","ios":"levelo://app?vid=849004ff-453e-4a0c-bf07-5f9fb058a404"},"vehicle_type_id":"4","last_reported":1771273101,"current_range_meters":27600,"station_id":"ce4bhhh2rcd13ifvqfk0","pricing_plan_id":"cebpf4jnsgd1na2vs0mg"},{"bike_id":"535f4909-b92e-45cd-86b8-63861273c5ac","system_id":"levelo_inurba_marseille","lat":43.29258,"lon":5.40911,"is_reserved":false,"is_disabled":false,"rental_uris":{"android":"levelo://app?vid=535f4909-b92e-45cd-86b8-63861273c5ac","ios":"levelo://app?vid=535f4909-b92e-45cd-86b8-63861273c5ac"},"vehicle_type_id":"4","last_reported":1771273101,"current_range_meters":9200,"station_id":"ce4bh192rcd13ifvqdc0","pricing_plan_id":"cebpf4jnsgd1na2vs0mg"},{"bike_id":"52052db9-aaf6-488b-9b78-bf9cb4fdd7be","system_id":"levelo_inurba_marseille","lat":43.29557,"lon":5.37489,"is_reserved":false,"is_disabled":false,"rental_uris":{"android":"levelo://app?vid=52052db9-aaf6-488b-9b78-bf9cb4fdd7be","ios":"levelo://app?vid=52052db9-aaf6-488b-9b78-bf9cb4fdd7be"},"vehicle_type_id":"4","last_reported":1771273101,"current_range_meters":14800,"station_id":"ce4bgkp2rcd13ifvqbmg","pricing_plan_id":"cebpf4jnsgd1na2vs0mg"},{"bike_id":"93ef63de-77e4-403a-a777-03b1f32c2c0c","system_id":"levelo_inurba_marseille","lat":43.30293,"lon":5.39211,"is_reserved":false,"is_disabled":false,"rental_uris":{"android":"levelo://app?vid=93ef63de-77e4-403a-a777-03b1f32c2c0c","ios":"levelo://app?vid=93ef63de-77e4-403a-a777-03b1f32c2c0c"},"vehicle_type_id":"4","last_reported":1771273101,"current_range_meters":26000,"station_id":"ce4bgkh2rcd13ifvqbk0","pricing_plan_id":"cebpf4jnsgd1na2vs0mg"},{"bike_id":"d639211d-aaf1-4624-82a8-69cd6e860d35","system_id":"levelo_inurba_marseille","lat":43.284811,"lon":5.483976,"is_reserved":false,"is_disabled":false,"rental_uris":{"android":"levelo://app?vid=d639211d-aaf1-4624-82a8-69cd6e860d35","ios":"levelo://app?vid=d639211d-aaf1-4624-82a8-69cd6e860d35"},"vehicle_type_id":"4","last_reported":1771273101,"current_range_meters":33600,"station_id":"st_d3svhcjqgbts73a3dn0g","pricing_plan_id":"cebpf4jnsgd1na2vs0mg"},{"bike_id":"77667d7f-d2a6-4e03-b66a-d643ae734f5b","system_id":"levelo_inurba_marseille","lat":43.26572,"lon":5.39024,"is_reserved":false,"is_disabled":false,"rental_uris":{"android":"levelo://app?vid=77667d7f-d2a6-4e03-b66a-d643ae734f5b","ios":"levelo://app?vid=77667d7f-d2a6-4e03-b66a-d643ae734f5b"},"vehicle_type_id":"4","last_reported":1771273101,"current_range_meters":24800,"station_id":"ce4bhe12rcd13ifvqf30","pricing_plan_id":"cebpf4jnsgd1na2vs0mg"},{"bike_id":"cf07e6f1-dc12-49c3-b328-c7bc76c7a3a8","system_id":"levelo_inurba_marseille","lat":43.29572,"lon":5.37487,"is_reserved":false,"is_disabled":false,"rental_uris":{"android":"levelo://app?vid=cf07e6f1-dc12-49c3-b328-c7bc76c7a3a8","ios":"levelo://app?vid=cf07e6f1-dc12-49c3-b328-c7bc76c7a3a8"},"vehicle_type_id":"4","last_reported":1771273101,"current_range_meters":11200,"station_id":"ce4bgh92rcd13ifvqb50","pricing_plan_id":"cebpf4jnsgd1na2vs0mg"},{"bike_id":"c7f2ec22-a521-426d-8fc1-fe462d2718e7","system_id":"levelo_inurba_marseille","lat":43.22553,"lon":5.41634,"is_reserved":false,"is_disabled":false,"rental_uris":{"android":"levelo://app?vid=c7f2ec22-a521-426d-8fc1-fe462d2718e7","ios":"levelo://app?vid=c7f2ec22-a521-426d-8fc1-fe462d2718e7"},"vehicle_type_id":"4","last_reported":1771273101,"current_range_meters":8800,"station_id":"st_d2o4gvlbi1j2169b742g","pricing_plan_id":"cebpf4jnsgd1na2vs0mg"},{"bike_id":"dee96fca-7806-421e-8c00-c8d351d21d56","system_id":"levelo_inurba_marseille","lat":43.27956,"lon":5.37965,"is_reserved":false,"is_disabled":false,"rental_uris":{"android":"levelo://app?vid=dee96fca-7806-421e-8c00-c8d351d21d56","ios":"levelo://app?vid=dee96fca-7806-421e-8c00-c8d351d21d56"},"vehicle_type_id":"4","last_reported":1771273101,"current_range_meters":34000,"station_id":"ce4bhf92rcd13ifvqf50","pricing_plan_id":"cebpf4jnsgd1na2vs0mg"},{"bike_id":"b60ce6ef-710b-4ab0-9d50-b6f77f35c0e7","system_id":"levelo_inurba_marseille","lat":43.29519,"lon":5.39045,"is_reserved":false,"is_disabled":false,"rental_uris":{"android":"levelo://app?vid=b60ce6ef-710b-4ab0-9d50-b6f77f35c0e7","ios":"levelo://app?vid=b60ce6ef-710b-4ab0-9d50-b6f77f35c0e7"},"vehicle_type_id":"4","last_reported":1771273101,"current_range_meters":39200,"station_id":"ce4bh3p2rcd13ifvqdp0","pricing_plan_id":"cebpf4jnsgd1na2vs0mg"},{"bike_id":"20eb5959-121b-4d19-8527-9d7eefc2c887","system_id":"levelo_inurba_marseille","lat":43.31107,"lon":5.37756,"is_reserved":false,"is_disabled":false,"rental_uris":{"android":"levelo://app?vid=20eb5959-121b-4d19-8527-9d7eefc2c887","ios":"levelo://app?vid=20eb5959-121b-4d19-8527-9d7eefc2c887"},"vehicle_type_id":"4","last_reported":1771273101,"current_range_meters":34800,"station_id":"ce4bgt92rcd13ifvqcg0","pricing_plan_id":"cebpf4jnsgd1na2vs0mg"},{"bike_id":"5028f32d-1a47-475c-b119-ed923035051c","system_id":"levelo_inurba_marseille","lat":43.30306,"lon":5.36886,"is_reserved":false,"is_disabled":false,"rental_uris":{"android":"levelo://app?vid=5028f32d-1a47-475c-b119-ed923035051c","ios":"levelo://app?vid=5028f32d-1a47-475c-b119-ed923035051c"},"vehicle_type_id":"4","last_reported":1771273101,"current_range_meters":27200,"station_id":"ce4bgqh2rcd13ifvqc5g","pricing_plan_id":"cebpf4jnsgd1na2vs0mg"},{"bike_id":"d4c65e86-e8ab-44ba-a8a9-8e759dc3c54f","system_id":"levelo_inurba_marseille","lat":43.29193,"lon":5.35819,"is_reserved":false,"is_disabled":false,"rental_uris":{"android":"levelo://app?vid=d4c65e86-e8ab-44ba-a8a9-8e759dc3c54f","ios":"levelo://app?vid=d4c65e86-e8ab-44ba-a8a9-8e759dc3c54f"},"vehicle_type_id":"4","last_reported":1771273101,"current_range_meters":38000,"station_id":"ce4bhb12rcd13ifvqel0","pricing_plan_id":"cebpf4jnsgd1na2vs0mg"},{"bike_id":"ff87c40c-9e82-4fe4-89bf-d9fb801cba93","system_id":"levelo_inurba_marseille","lat":43.284646,"lon":5.35884,"is_reserved":false,"is_disabled":false,"rental_uris":{"android":"levelo://app?vid=ff87c40c-9e82-4fe4-89bf-d9fb801cba93","ios":"levelo://app?vid=ff87c40c-9e82-4fe4-89bf-d9fb801cba93"},"vehicle_type_id":"4","last_reported":1771273101,"current_range_meters":19600,"station_id":"ce4bhah2rcd13ifvqei0","pricing_plan_id":"cebpf4jnsgd1na2vs0mg"},{"bike_id":"22eb71bc-c666-42cd-a133-d91bdf7e2451","system_id":"levelo_inurba_marseille","lat":43.31216,"lon":5.36936,"is_reserved":false,"is_disabled":false,"rental_uris":{"android":"levelo://app?vid=22eb71bc-c666-42cd-a133-d91bdf7e2451","ios":"levelo://app?vid=22eb71bc-c666-42cd-a133-d91bdf7e2451"},"vehicle_type_id":"4","last_reported":1771273101,"current_range_meters":39200,"station_id":"","pricing_plan_id":"cebpf4jnsgd1na2vs0mg"},{"bike_id":"d423f15e-e4fc-4538-bb11-2f1eb6b1f673","system_id":"levelo_inurba_marseille","lat":43.30435,"lon":5.38891,"is_reserved":false,"is_disabled":false,"rental_uris":{"android":"levelo://app?vid=d423f15e-e4fc-4538-bb11-2f1eb6b1f673","ios":"levelo://app?vid=d423f15e-e4fc-4538-bb11-2f1eb6b1f673"},"vehicle_type_id":"4","last_reported":1771273101,"current_range_meters":16800,"station_id":"ce4bgk12rcd13ifvqbi0","pricing_plan_id":"cebpf4jnsgd1na2vs0mg"},{"bike_id":"72ab149f-0aac-4a82-8892-5126bebf5df6","system_id":"levelo_inurba_marseille","lat":43.22938,"lon":5.35408,"is_reserved":false,"is_disabled":false,"rental_uris":{"android":"levelo://app?vid=72ab149f-0aac-4a82-8892-5126bebf5df6","ios":"levelo://app?vid=72ab149f-0aac-4a82-8892-5126bebf5df6"},"vehicle_type_id":"4","last_reported":1771273101,"current_range_meters":38400,"station_id":"cpo3532slgdg3j2ikp40","pricing_plan_id":"cebpf4jnsgd1na2vs0mg"},{"bike_id":"934ff1f2-ae26-4be0-ab41-a94dd7c43140","system_id":"levelo_inurba_marseille","lat":43.26587,"lon":5.390199,"is_reserved":false,"is_disabled":false,"rental_uris":{"android":"levelo://app?vid=934ff1f2-ae26-4be0-ab41-a94dd7c43140","ios":"levelo://app?vid=934ff1f2-ae26-4be0-ab41-a94dd7c43140"},"vehicle_type_id":"4","last_reported":1771273101,"current_range_meters":26000,"station_id":"ce4bhe12rcd13ifvqf30","pricing_plan_id":"cebpf4jnsgd1na2vs0mg"},{"bike_id":"738fdc4b-6f95-4425-b86f-9c36e982b094","system_id":"levelo_inurba_marseille","lat":43.253346,"lon":5.421764,"is_reserved":false,"is_disabled":false,"rental_uris":{"android":"levelo://app?vid=738fdc4b-6f95-4425-b86f-9c36e982b094","ios":"levelo://app?vid=738fdc4b-6f95-4425-b86f-9c36e982b094"},"vehicle_type_id":"4","last_reported":1771273101,"current_range_meters":38000,"station_id":"st_d2m65c5bi1j21697t3ng","pricing_plan_id":"cebpf4jnsgd1na2vs0mg"},{"bike_id":"94770c2b-7899-4d89-b837-656e4e505dd0","system_id":"levelo_inurba_marseille","lat":43.28208,"lon":5.39071,"is_reserved":false,"is_disabled":false,"rental_uris":{"android":"levelo://app?vid=94770c2b-7899-4d89-b837-656e4e505dd0","ios":"levelo://app?vid=94770c2b-7899-4d89-b837-656e4e505dd0"},"vehicle_type_id":"4","last_reported":1771273101,"current_range_meters":8000,"station_id":"ce4bhn92rcd13ifvqgsg","pricing_plan_id":"cebpf4jnsgd1na2vs0mg"},{"bike_id":"ab099b5d-a36c-4b39-b54f-8fdad1227588","system_id":"levelo_inurba_marseille","lat":43.31074,"lon":5.371,"is_reserved":false,"is_disabled":false,"rental_uris":{"android":"levelo://app?vid=ab099b5d-a36c-4b39-b54f-8fdad1227588","ios":"levelo://app?vid=ab099b5d-a36c-4b39-b54f-8fdad1227588"},"vehicle_type_id":"4","last_reported":1771273101,"current_range_meters":7200,"station_id":"st_d4kl2rp97mjs73e7tdfg","pricing_plan_id":"cebpf4jnsgd1na2vs0mg"},{"bike_id":"bd6611ce-f7cd-494c-a774-4a5ac620e401","system_id":"levelo_inurba_marseille","lat":43.28276,"lon":5.35076,"is_reserved":false,"is_disabled":true,"rental_uris":{"android":"levelo://app?vid=bd6611ce-f7cd-494c-a774-4a5ac620e401","ios":"levelo://app?vid=bd6611ce-f7cd-494c-a774-4a5ac620e401"},"vehicle_type_id":"4","last_reported":1771273101,"current_range_meters":28800,"station_id":"ce4bhbp2rcd13ifvqerg","pricing_plan_id":"cebpf4jnsgd1na2vs0mg"},{"bike_id":"d91e8faf-21cf-4c18-994f-63bca0fd2077","system_id":"levelo_inurba_marseille","lat":43.290216,"lon":5.386368,"is_reserved":false,"is_disabled":false,"rental_uris":{"android":"levelo://app?vid=d91e8faf-21cf-4c18-994f-63bca0fd2077","ios":"levelo://app?vid=d91e8faf-21cf-4c18-994f-63bca0fd2077"},"vehicle_type_id":"4","last_reported":1771273101,"current_range_meters":27200,"station_id":"ce4bh4p2rcd13ifvqe0g","pricing_plan_id":"cebpf4jnsgd1na2vs0mg"},{"bike_id":"dd92d009-a3f7-496e-8581-80e261b0bb1d","system_id":"levelo_inurba_marseille","lat":43.27959,"lon":5.38745,"is_reserved":false,"is_disabled":false,"rental_uris":{"android":"levelo://app?vid=dd92d009-a3f7-496e-8581-80e261b0bb1d","ios":"levelo://app?vid=dd92d009-a3f7-496e-8581-80e261b0bb1d"},"vehicle_type_id":"4","last_reported":1771273101,"current_range_meters":6800,"station_id":"ce4bhg12rcd13ifvqf80","pricing_plan_id":"cebpf4jnsgd1na2vs0mg"},{"bike_id":"b848b13f-a5a8-497c-bf73-42ffb911f77e","system_id":"levelo_inurba_marseille","lat":43.28483,"lon":5.48417,"is_reserved":false,"is_disabled":false,"rental_uris":{"android":"levelo://app?vid=b848b13f-a5a8-497c-bf73-42ffb911f77e","ios":"levelo://app?vid=b848b13f-a5a8-497c-bf73-42ffb911f77e"},"vehicle_type_id":"4","last_reported":1771273101,"current_range_meters":20400,"station_id":"st_d3svhcjqgbts73a3dn0g","pricing_plan_id":"cebpf4jnsgd1na2vs0mg"},{"bike_id":"ffca88d7-f232-4f6a-b002-c46bcf2da788","system_id":"levelo_inurba_marseille","lat":43.29592,"lon":5.37512,"is_reserved":false,"is_disabled":false,"rental_uris":{"android":"levelo://app?vid=ffca88d7-f232-4f6a-b002-c46bcf2da788","ios":"levelo://app?vid=ffca88d7-f232-4f6a-b002-c46bcf2da788"},"vehicle_type_id":"4","last_reported":1771273101,"current_range_meters":24800,"station_id":"ce4bgh92rcd13ifvqb50","pricing_plan_id":"cebpf4jnsgd1na2vs0mg"},{"bike_id":"52147a71-0f95-42c5-b5bf-eb3ef4fb5df1","system_id":"levelo_inurba_marseille","lat":43.29638,"lon":5.37697,"is_reserved":false,"is_disabled":false,"rental_uris":{"android":"levelo://app?vid=52147a71-0f95-42c5-b5bf-eb3ef4fb5df1","ios":"levelo://app?vid=52147a71-0f95-42c5-b5bf-eb3ef4fb5df1"},"vehicle_type_id":"4","last_reported":1771273101,"current_range_meters":18000,"station_id":"ce4bgi92rcd13ifvqb90","pricing_plan_id":"cebpf4jnsgd1na2vs0mg"},{"bike_id":"a20361fa-695a-40fe-a30c-6ec341f0fe26","system_id":"levelo_inurba_marseille","lat":43.31225,"lon":5.36767,"is_reserved":false,"is_disabled":false,"rental_uris":{"android":"levelo://app?vid=a20361fa-695a-40fe-a30c-6ec341f0fe26","ios":"levelo://app?vid=a20361fa-695a-40fe-a30c-6ec341f0fe26"},"vehicle_type_id":"4","last_reported":1771273101,"current_range_meters":8400,"station_id":"","pricing_plan_id":"cebpf4jnsgd1na2vs0mg"},{"bike_id":"68af3357-197f-43e1-a3f9-de08c65414d8","system_id":"levelo_inurba_marseille","lat":43.28936,"lon":5.3665,"is_reserved":false,"is_disabled":false,"rental_uris":{"android":"levelo://app?vid=68af3357-197f-43e1-a3f9-de08c65414d8","ios":"levelo://app?vid=68af3357-197f-43e1-a3f9-de08c65414d8"},"vehicle_type_id":"4","last_reported":1771273101,"current_range_meters":23200,"station_id":"ce4bhap2rcd13ifvqek0","pricing_plan_id":"cebpf4jnsgd1na2vs0mg"},{"bike_id":"b2a02418-a742-4f1b-8066-b19250c93a85","system_id":"levelo_inurba_marseille","lat":43.28625,"lon":5.35097,"is_reserved":false,"is_disabled":false,"rental_uris":{"android":"levelo://app?vid=b2a02418-a742-4f1b-8066-b19250c93a85","ios":"levelo://app?vid=b2a02418-a742-4f1b-8066-b19250c93a85"},"vehicle_type_id":"4","last_reported":1771273101,"current_range_meters":25600,"station_id":"ce4bhch2rcd13ifvqeug","pricing_plan_id":"cebpf4jnsgd1na2vs0mg"},{"bike_id":"8fada210-1093-4710-9a26-748482418b8d","system_id":"levelo_inurba_marseille","lat":43.289363,"lon":5.366349,"is_reserved":false,"is_disabled":false,"rental_uris":{"android":"levelo://app?vid=8fada210-1093-4710-9a26-748482418b8d","ios":"levelo://app?vid=8fada210-1093-4710-9a26-748482418b8d"},"vehicle_type_id":"4","last_reported":1771273101,"current_range_meters":8800,"station_id":"ce4bhap2rcd13ifvqek0","pricing_plan_id":"cebpf4jnsgd1na2vs0mg"},{"bike_id":"1ff32bd0-690e-41c1-8b90-272106cf0308","system_id":"levelo_inurba_marseille","lat":43.29275,"lon":5.36844,"is_reserved":false,"is_disabled":false,"rental_uris":{"android":"levelo://app?vid=1ff32bd0-690e-41c1-8b90-272106cf0308","ios":"levelo://app?vid=1ff32bd0-690e-41c1-8b90-272106cf0308"},"vehicle_type_id":"4","last_reported":1771273101,"current_range_meters":32800,"station_id":"ce4bhbp2rcd13ifvqesg","pricing_plan_id":"cebpf4jnsgd1na2vs0mg"},{"bike_id":"14096945-3ed2-4921-943f-a03af03f353e","system_id":"levelo_inurba_marseille","lat":43.25644,"lon":5.38192,"is_reserved":false,"is_disabled":false,"rental_uris":{"android":"levelo://app?vid=14096945-3ed2-4921-943f-a03af03f353e","ios":"levelo://app?vid=14096945-3ed2-4921-943f-a03af03f353e"},"vehicle_type_id":"4","last_reported":1771273101,"current_range_meters":32400,"station_id":"","pricing_plan_id":"cebpf4jnsgd1na2vs0mg"},{"bike_id":"484e108a-d5e5-4238-92ad-9e453b1790ff","system_id":"levelo_inurba_marseille","lat":43.27182,"lon":5.409964,"is_reserved":false,"is_disabled":true,"rental_uris":{"android":"levelo://app?vid=484e108a-d5e5-4238-92ad-9e453b1790ff","ios":"levelo://app?vid=484e108a-d5e5-4238-92ad-9e453b1790ff"},"vehicle_type_id":"4","last_reported":1771273101,"current_range_meters":32400,"station_id":"ce4bhl12rcd13ifvqgf0","pricing_plan_id":"cebpf4jnsgd1na2vs0mg"},{"bike_id":"05e9f163-6c92-43ff-88d7-1e9ac897e802","system_id":"levelo_inurba_marseille","lat":43.27917,"lon":5.38031,"is_reserved":false,"is_disabled":false,"rental_uris":{"android":"levelo://app?vid=05e9f163-6c92-43ff-88d7-1e9ac897e802","ios":"levelo://app?vid=05e9f163-6c92-43ff-88d7-1e9ac897e802"},"vehicle_type_id":"4","last_reported":1771273101,"current_range_meters":32400,"station_id":"ce4bhf92rcd13ifvqf50","pricing_plan_id":"cebpf4jnsgd1na2vs0mg"},{"bike_id":"96983f3c-906f-4328-b536-b281d73a0ce7","system_id":"levelo_inurba_marseille","lat":43.2997,"lon":5.38507,"is_reserved":false,"is_disabled":false,"rental_uris":{"android":"levelo://app?vid=96983f3c-906f-4328-b536-b281d73a0ce7","ios":"levelo://app?vid=96983f3c-906f-4328-b536-b281d73a0ce7"},"vehicle_type_id":"4","last_reported":1771273101,"current_range_meters":17200,"station_id":"ce4bgj92rcd13ifvqbd0","pricing_plan_id":"cebpf4jnsgd1na2vs0mg"},{"bike_id":"24d43062-f1e4-4809-9a0d-8ea3314e1916","system_id":"levelo_inurba_marseille","lat":43.3028,"lon":5.36939,"is_reserved":false,"is_disabled":false,"rental_uris":{"android":"levelo://app?vid=24d43062-f1e4-4809-9a0d-8ea3314e1916","ios":"levelo://app?vid=24d43062-f1e4-4809-9a0d-8ea3314e1916"},"vehicle_type_id":"4","last_reported":1771273101,"current_range_meters":24800,"station_id":"ce4bgqh2rcd13ifvqc5g","pricing_plan_id":"cebpf4jnsgd1na2vs0mg"},{"bike_id":"88d7fdfd-6550-4b67-8bb1-1c03b402f4d8","system_id":"levelo_inurba_marseille","lat":43.28674,"lon":5.38677,"is_reserved":false,"is_disabled":false,"rental_uris":{"android":"levelo://app?vid=88d7fdfd-6550-4b67-8bb1-1c03b402f4d8","ios":"levelo://app?vid=88d7fdfd-6550-4b67-8bb1-1c03b402f4d8"},"vehicle_type_id":"4","last_reported":1771273101,"current_range_meters":5600,"station_id":"ce4bh492rcd13ifvqdug","pricing_plan_id":"cebpf4jnsgd1na2vs0mg"},{"bike_id":"9d82e7a6-ddfc-4ce3-917e-4641100517c8","system_id":"levelo_inurba_marseille","lat":43.2732,"lon":5.39119,"is_reserved":false,"is_disabled":false,"rental_uris":{"android":"levelo://app?vid=9d82e7a6-ddfc-4ce3-917e-4641100517c8","ios":"levelo://app?vid=9d82e7a6-ddfc-4ce3-917e-4641100517c8"},"vehicle_type_id":"4","last_reported":1771273101,"current_range_meters":20800,"station_id":"ce4bhgp2rcd13ifvqfe0","pricing_plan_id":"cebpf4jnsgd1na2vs0mg"},{"bike_id":"c9b76f97-4777-40f7-8438-ab341a9656e1","system_id":"levelo_inurba_marseille","lat":43.29835,"lon":5.36271,"is_reserved":false,"is_disabled":false,"rental_uris":{"android":"levelo://app?vid=c9b76f97-4777-40f7-8438-ab341a9656e1","ios":"levelo://app?vid=c9b76f97-4777-40f7-8438-ab341a9656e1"},"vehicle_type_id":"4","last_reported":1771273101,"current_range_meters":38800,"station_id":"ce4bgpp2rcd13ifvqc3g","pricing_plan_id":"cebpf4jnsgd1na2vs0mg"},{"bike_id":"8de72905-9cd1-43a5-b42e-38b92fe08e53","system_id":"levelo_inurba_marseille","lat":43.27076,"lon":5.42274,"is_reserved":false,"is_disabled":false,"rental_uris":{"android":"levelo://app?vid=8de72905-9cd1-43a5-b42e-38b92fe08e53","ios":"levelo://app?vid=8de72905-9cd1-43a5-b42e-38b92fe08e53"},"vehicle_type_id":"4","last_reported":1771273101,"current_range_meters":38000,"station_id":"ce4bhk92rcd13ifvqgb0","pricing_plan_id":"cebpf4jnsgd1na2vs0mg"},{"bike_id":"134a7d23-f0f4-488c-a3d0-c5fc7f3d3eb3","system_id":"levelo_inurba_marseille","lat":43.28191,"lon":5.39039,"is_reserved":false,"is_disabled":false,"rental_uris":{"android":"levelo://app?vid=134a7d23-f0f4-488c-a3d0-c5fc7f3d3eb3","ios":"levelo://app?vid=134a7d23-f0f4-488c-a3d0-c5fc7f3d3eb3"},"vehicle_type_id":"4","last_reported":1771273101,"current_range_meters":32000,"station_id":"","pricing_plan_id":"cebpf4jnsgd1na2vs0mg"},{"bike_id":"6b63b009-f7da-4d4b-a414-01d08a281042","system_id":"levelo_inurba_marseille","lat":43.3056,"lon":5.36558,"is_reserved":false,"is_disabled":false,"rental_uris":{"android":"levelo://app?vid=6b63b009-f7da-4d4b-a414-01d08a281042","ios":"levelo://app?vid=6b63b009-f7da-4d4b-a414-01d08a281042"},"vehicle_type_id":"4","last_reported":1771273101,"current_range_meters":6800,"station_id":"ce4bgs12rcd13ifvqcag","pricing_plan_id":"cebpf4jnsgd1na2vs0mg"},{"bike_id":"108e264e-4c88-4022-a674-954978e6075c","system_id":"levelo_inurba_marseille","lat":43.31291,"lon":5.40164,"is_reserved":false,"is_disabled":false,"rental_uris":{"android":"levelo://app?vid=108e264e-4c88-4022-a674-954978e6075c","ios":"levelo://app?vid=108e264e-4c88-4022-a674-954978e6075c"},"vehicle_type_id":"4","last_reported":1771273101,"current_range_meters":19600,"station_id":"ce4bh092rcd13ifvqd30","pricing_plan_id":"cebpf4jnsgd1na2vs0mg"},{"bike_id":"656feda4-e34b-414e-8901-d8145568784e","system_id":"levelo_inurba_marseille","lat":43.29285,"lon":5.38417,"is_reserved":false,"is_disabled":false,"rental_uris":{"android":"levelo://app?vid=656feda4-e34b-414e-8901-d8145568784e","ios":"levelo://app?vid=656feda4-e34b-414e-8901-d8145568784e"},"vehicle_type_id":"4","last_reported":1771273101,"current_range_meters":9600,"station_id":"ce4bh692rcd13ifvqea0","pricing_plan_id":"cebpf4jnsgd1na2vs0mg"},{"bike_id":"29aaeded-6fbf-4914-8e01-d1b40b6726f9","system_id":"levelo_inurba_marseille","lat":43.26188,"lon":5.37446,"is_reserved":false,"is_disabled":false,"rental_uris":{"android":"levelo://app?vid=29aaeded-6fbf-4914-8e01-d1b40b6726f9","ios":"levelo://app?vid=29aaeded-6fbf-4914-8e01-d1b40b6726f9"},"vehicle_type_id":"4","last_reported":1771273101,"current_range_meters":8800,"station_id":"ce4bhgp2rcd13ifvqfc0","pricing_plan_id":"cebpf4jnsgd1na2vs0mg"},{"bike_id":"99ffab0f-cc2b-40c5-b51b-5ba657c7cbcf","system_id":"levelo_inurba_marseille","lat":43.29038,"lon":5.38673,"is_reserved":false,"is_disabled":false,"rental_uris":{"android":"levelo://app?vid=99ffab0f-cc2b-40c5-b51b-5ba657c7cbcf","ios":"levelo://app?vid=99ffab0f-cc2b-40c5-b51b-5ba657c7cbcf"},"vehicle_type_id":"4","last_reported":1771273101,"current_range_meters":27600,"station_id":"ce4bh4p2rcd13ifvqe0g","pricing_plan_id":"cebpf4jnsgd1na2vs0mg"},{"bike_id":"da251287-de14-41f7-a0fd-37553acd679f","system_id":"levelo_inurba_marseille","lat":43.29286,"lon":5.40196,"is_reserved":false,"is_disabled":false,"rental_uris":{"android":"levelo://app?vid=da251287-de14-41f7-a0fd-37553acd679f","ios":"levelo://app?vid=da251287-de14-41f7-a0fd-37553acd679f"},"vehicle_type_id":"4","last_reported":1771273101,"current_range_meters":26000,"station_id":"ce4bh312rcd13ifvqdk0","pricing_plan_id":"cebpf4jnsgd1na2vs0mg"},{"bike_id":"37f06b28-831e-4816-b948-7ac6d3b82964","system_id":"levelo_inurba_marseille","lat":43.286133,"lon":5.398699,"is_reserved":false,"is_disabled":false,"rental_uris":{"android":"levelo://app?vid=37f06b28-831e-4816-b948-7ac6d3b82964","ios":"levelo://app?vid=37f06b28-831e-4816-b948-7ac6d3b82964"},"vehicle_type_id":"4","last_reported":1771273101,"current_range_meters":38000,"station_id":"ce4bh4p2rcd13ifvqe1g","pricing_plan_id":"cebpf4jnsgd1na2vs0mg"},{"bike_id":"cdb31bb4-370c-491d-8d68-0dceed9d9223","system_id":"levelo_inurba_marseille","lat":43.33513,"lon":5.37462,"is_reserved":false,"is_disabled":false,"rental_uris":{"android":"levelo://app?vid=cdb31bb4-370c-491d-8d68-0dceed9d9223","ios":"levelo://app?vid=cdb31bb4-370c-491d-8d68-0dceed9d9223"},"vehicle_type_id":"4","last_reported":1771273101,"current_range_meters":30800,"station_id":"st_d46tts09ee8s73dlu43g","pricing_plan_id":"cebpf4jnsgd1na2vs0mg"},{"bike_id":"ff18dddb-e542-4fd2-bc7c-742ef5796192","system_id":"levelo_inurba_marseille","lat":43.29804,"lon":5.38051,"is_reserved":false,"is_disabled":false,"rental_uris":{"android":"levelo://app?vid=ff18dddb-e542-4fd2-bc7c-742ef5796192","ios":"levelo://app?vid=ff18dddb-e542-4fd2-bc7c-742ef5796192"},"vehicle_type_id":"4","last_reported":1771273101,"current_range_meters":33600,"station_id":"ce4bgip2rcd13ifvqbb0","pricing_plan_id":"cebpf4jnsgd1na2vs0mg"},{"bike_id":"ee4f8742-0617-46e3-9fa2-031983a52dc9","system_id":"levelo_inurba_marseille","lat":43.29776,"lon":5.4275,"is_reserved":false,"is_disabled":false,"rental_uris":{"android":"levelo://app?vid=ee4f8742-0617-46e3-9fa2-031983a52dc9","ios":"levelo://app?vid=ee4f8742-0617-46e3-9fa2-031983a52dc9"},"vehicle_type_id":"4","last_reported":1771273101,"current_range_meters":38000,"station_id":"st_d3md5207bmas73dh9klg","pricing_plan_id":"cebpf4jnsgd1na2vs0mg"},{"bike_id":"1ae9bc1d-b840-42f7-a16c-1b20e0f7a83e","system_id":"levelo_inurba_marseille","lat":43.248069,"lon":5.374507,"is_reserved":false,"is_disabled":false,"rental_uris":{"android":"levelo://app?vid=1ae9bc1d-b840-42f7-a16c-1b20e0f7a83e","ios":"levelo://app?vid=1ae9bc1d-b840-42f7-a16c-1b20e0f7a83e"},"vehicle_type_id":"4","last_reported":1771273101,"current_range_meters":24000,"station_id":"ce4bhgh2rcd13ifvqfb0","pricing_plan_id":"cebpf4jnsgd1na2vs0mg"},{"bike_id":"4a05e98f-f767-4952-ad79-7c23c18f69b8","system_id":"levelo_inurba_marseille","lat":43.29851,"lon":5.36254,"is_reserved":false,"is_disabled":true,"rental_uris":{"android":"levelo://app?vid=4a05e98f-f767-4952-ad79-7c23c18f69b8","ios":"levelo://app?vid=4a05e98f-f767-4952-ad79-7c23c18f69b8"},"vehicle_type_id":"4","last_reported":1771273101,"current_range_meters":28400,"station_id":"ce4bgpp2rcd13ifvqc3g","pricing_plan_id":"cebpf4jnsgd1na2vs0mg"},{"bike_id":"8a8fa0fa-9b9a-4667-a36a-f2215b14299e","system_id":"levelo_inurba_marseille","lat":43.24809,"lon":5.37455,"is_reserved":false,"is_disabled":false,"rental_uris":{"android":"levelo://app?vid=8a8fa0fa-9b9a-4667-a36a-f2215b14299e","ios":"levelo://app?vid=8a8fa0fa-9b9a-4667-a36a-f2215b14299e"},"vehicle_type_id":"4","last_reported":1771273101,"current_range_meters":38000,"station_id":"ce4bhgh2rcd13ifvqfb0","pricing_plan_id":"cebpf4jnsgd1na2vs0mg"},{"bike_id":"3b23e696-0f10-4258-80d6-a9732718d5da","system_id":"levelo_inurba_marseille","lat":43.33544,"lon":5.37464,"is_reserved":false,"is_disabled":false,"rental_uris":{"android":"levelo://app?vid=3b23e696-0f10-4258-80d6-a9732718d5da","ios":"levelo://app?vid=3b23e696-0f10-4258-80d6-a9732718d5da"},"vehicle_type_id":"4","last_reported":1771273101,"current_range_meters":30800,"station_id":"st_d46tts09ee8s73dlu43g","pricing_plan_id":"cebpf4jnsgd1na2vs0mg"},{"bike_id":"dfa36d27-6e60-4833-b7ff-9ec90b759d28","system_id":"levelo_inurba_marseille","lat":43.256625,"lon":5.383053,"is_reserved":false,"is_disabled":false,"rental_uris":{"android":"levelo://app?vid=dfa36d27-6e60-4833-b7ff-9ec90b759d28","ios":"levelo://app?vid=dfa36d27-6e60-4833-b7ff-9ec90b759d28"},"vehicle_type_id":"4","last_reported":1771273101,"current_range_meters":27200,"station_id":"","pricing_plan_id":"cebpf4jnsgd1na2vs0mg"},{"bike_id":"d2ed726d-49b0-4277-8a21-0f15f6cd9ff9","system_id":"levelo_inurba_marseille","lat":43.2749,"lon":5.42315,"is_reserved":false,"is_disabled":false,"rental_uris":{"android":"levelo://app?vid=d2ed726d-49b0-4277-8a21-0f15f6cd9ff9","ios":"levelo://app?vid=d2ed726d-49b0-4277-8a21-0f15f6cd9ff9"},"vehicle_type_id":"4","last_reported":1771273101,"current_range_meters":11200,"station_id":"","pricing_plan_id":"cebpf4jnsgd1na2vs0mg"},{"bike_id":"d0af0967-4f64-45d2-aeab-b15286d65704","system_id":"levelo_inurba_marseille","lat":43.33125,"lon":5.39271,"is_reserved":false,"is_disabled":false,"rental_uris":{"android":"levelo://app?vid=d0af0967-4f64-45d2-aeab-b15286d65704","ios":"levelo://app?vid=d0af0967-4f64-45d2-aeab-b15286d65704"},"vehicle_type_id":"4","last_reported":1771273101,"current_range_meters":24000,"station_id":"","pricing_plan_id":"cebpf4jnsgd1na2vs0mg"},{"bike_id":"7c11e683-0ef8-4bac-8048-16f7653ced54","system_id":"levelo_inurba_marseille","lat":43.28626,"lon":5.351,"is_reserved":false,"is_disabled":false,"rental_uris":{"android":"levelo://app?vid=7c11e683-0ef8-4bac-8048-16f7653ced54","ios":"levelo://app?vid=7c11e683-0ef8-4bac-8048-16f7653ced54"},"vehicle_type_id":"4","last_reported":1771273101,"current_range_meters":15200,"station_id":"ce4bhch2rcd13ifvqeug","pricing_plan_id":"cebpf4jnsgd1na2vs0mg"},{"bike_id":"4932e24b-f2ef-4e1d-8d26-86e9c422ae44","system_id":"levelo_inurba_marseille","lat":43.32116,"lon":5.36777,"is_reserved":false,"is_disabled":false,"rental_uris":{"android":"levelo://app?vid=4932e24b-f2ef-4e1d-8d26-86e9c422ae44","ios":"levelo://app?vid=4932e24b-f2ef-4e1d-8d26-86e9c422ae44"},"vehicle_type_id":"4","last_reported":1771273101,"current_range_meters":25200,"station_id":"ce4bhrh2rcd13ifvqhug","pricing_plan_id":"cebpf4jnsgd1na2vs0mg"},{"bike_id":"ed490975-8fe6-4de2-ac32-6f85ebb50fe1","system_id":"levelo_inurba_marseille","lat":43.29536,"lon":5.3855,"is_reserved":false,"is_disabled":false,"rental_uris":{"android":"levelo://app?vid=ed490975-8fe6-4de2-ac32-6f85ebb50fe1","ios":"levelo://app?vid=ed490975-8fe6-4de2-ac32-6f85ebb50fe1"},"vehicle_type_id":"4","last_reported":1771273101,"current_range_meters":30400,"station_id":"ce4bgih2rcd13ifvqba0","pricing_plan_id":"cebpf4jnsgd1na2vs0mg"},{"bike_id":"1760c09e-5b63-4d61-a05c-866ed1259f44","system_id":"levelo_inurba_marseille","lat":43.27815,"lon":5.40717,"is_reserved":false,"is_disabled":false,"rental_uris":{"android":"levelo://app?vid=1760c09e-5b63-4d61-a05c-866ed1259f44","ios":"levelo://app?vid=1760c09e-5b63-4d61-a05c-866ed1259f44"},"vehicle_type_id":"4","last_reported":1771273101,"current_range_meters":38000,"station_id":"ce4bhnh2rcd13ifvqgtg","pricing_plan_id":"cebpf4jnsgd1na2vs0mg"},{"bike_id":"06b0e8ea-5721-4b06-a488-b9703e22c1ac","system_id":"levelo_inurba_marseille","lat":43.28631,"lon":5.35113,"is_reserved":false,"is_disabled":false,"rental_uris":{"android":"levelo://app?vid=06b0e8ea-5721-4b06-a488-b9703e22c1ac","ios":"levelo://app?vid=06b0e8ea-5721-4b06-a488-b9703e22c1ac"},"vehicle_type_id":"4","last_reported":1771273101,"current_range_meters":38400,"station_id":"ce4bhch2rcd13ifvqeug","pricing_plan_id":"cebpf4jnsgd1na2vs0mg"},{"bike_id":"7c6a01c6-e410-4da4-bf93-993e6ec4d68a","system_id":"levelo_inurba_marseille","lat":43.25026,"lon":5.38929,"is_reserved":false,"is_disabled":false,"rental_uris":{"android":"levelo://app?vid=7c6a01c6-e410-4da4-bf93-993e6ec4d68a","ios":"levelo://app?vid=7c6a01c6-e410-4da4-bf93-993e6ec4d68a"},"vehicle_type_id":"4","last_reported":1771273101,"current_range_meters":37600,"station_id":"ce4bhgp2rcd13ifvqfd0","pricing_plan_id":"cebpf4jnsgd1na2vs0mg"},{"bike_id":"05a2fa45-59aa-44b7-bb30-9b86db1d0069","system_id":"levelo_inurba_marseille","lat":43.25127,"lon":5.40317,"is_reserved":false,"is_disabled":false,"rental_uris":{"android":"levelo://app?vid=05a2fa45-59aa-44b7-bb30-9b86db1d0069","ios":"levelo://app?vid=05a2fa45-59aa-44b7-bb30-9b86db1d0069"},"vehicle_type_id":"4","last_reported":1771273101,"current_range_meters":20400,"station_id":"ce4bhlh2rcd13ifvqgig","pricing_plan_id":"cebpf4jnsgd1na2vs0mg"},{"bike_id":"bd0e99a1-4162-41ae-b356-8cc729f7fd82","system_id":"levelo_inurba_marseille","lat":43.23969,"lon":5.36645,"is_reserved":false,"is_disabled":false,"rental_uris":{"android":"levelo://app?vid=bd0e99a1-4162-41ae-b356-8cc729f7fd82","ios":"levelo://app?vid=bd0e99a1-4162-41ae-b356-8cc729f7fd82"},"vehicle_type_id":"4","last_reported":1771273101,"current_range_meters":7200,"station_id":"ce4bhi12rcd13ifvqfp0","pricing_plan_id":"cebpf4jnsgd1na2vs0mg"},{"bike_id":"3d69156c-572f-4b50-bfc8-dd5d9f6e75cc","system_id":"levelo_inurba_marseille","lat":43.25094,"lon":5.39442,"is_reserved":false,"is_disabled":false,"rental_uris":{"android":"levelo://app?vid=3d69156c-572f-4b50-bfc8-dd5d9f6e75cc","ios":"levelo://app?vid=3d69156c-572f-4b50-bfc8-dd5d9f6e75cc"},"vehicle_type_id":"4","last_reported":1771273101,"current_range_meters":8000,"station_id":"","pricing_plan_id":"cebpf4jnsgd1na2vs0mg"},{"bike_id":"b4fb0b98-42c1-438a-9d0d-e390e825b39e","system_id":"levelo_inurba_marseille","lat":43.31703,"lon":5.39617,"is_reserved":false,"is_disabled":false,"rental_uris":{"android":"levelo://app?vid=b4fb0b98-42c1-438a-9d0d-e390e825b39e","ios":"levelo://app?vid=b4fb0b98-42c1-438a-9d0d-e390e825b39e"},"vehicle_type_id":"4","last_reported":1771273101,"current_range_meters":16000,"station_id":"","pricing_plan_id":"cebpf4jnsgd1na2vs0mg"},{"bike_id":"37788f76-dc23-4b3b-af83-53337e6b4bad","system_id":"levelo_inurba_marseille","lat":43.22974,"lon":5.35395,"is_reserved":false,"is_disabled":false,"rental_uris":{"android":"levelo://app?vid=37788f76-dc23-4b3b-af83-53337e6b4bad","ios":"levelo://app?vid=37788f76-dc23-4b3b-af83-53337e6b4bad"},"vehicle_type_id":"4","last_reported":1771273101,"current_range_meters":17200,"station_id":"cpo3532slgdg3j2ikp40","pricing_plan_id":"cebpf4jnsgd1na2vs0mg"},{"bike_id":"ea1d52b1-5f2a-4cf7-88db-025e888a5fb6","system_id":"levelo_inurba_marseille","lat":43.29225,"lon":5.3607,"is_reserved":false,"is_disabled":false,"rental_uris":{"android":"levelo://app?vid=ea1d52b1-5f2a-4cf7-88db-025e888a5fb6","ios":"levelo://app?vid=ea1d52b1-5f2a-4cf7-88db-025e888a5fb6"},"vehicle_type_id":"4","last_reported":1771273101,"current_range_meters":39200,"station_id":"ce4bhbh2rcd13ifvqeqg","pricing_plan_id":"cebpf4jnsgd1na2vs0mg"},{"bike_id":"b46161f1-e7ec-4cb9-92f2-dc2b4e46716b","system_id":"levelo_inurba_marseille","lat":43.30552,"lon":5.36495,"is_reserved":false,"is_disabled":false,"rental_uris":{"android":"levelo://app?vid=b46161f1-e7ec-4cb9-92f2-dc2b4e46716b","ios":"levelo://app?vid=b46161f1-e7ec-4cb9-92f2-dc2b4e46716b"},"vehicle_type_id":"4","last_reported":1771273101,"current_range_meters":11200,"station_id":"","pricing_plan_id":"cebpf4jnsgd1na2vs0mg"},{"bike_id":"bb332d87-cea1-404a-9aa2-7199b0126920","system_id":"levelo_inurba_marseille","lat":43.29908,"lon":5.37491,"is_reserved":false,"is_disabled":false,"rental_uris":{"android":"levelo://app?vid=bb332d87-cea1-404a-9aa2-7199b0126920","ios":"levelo://app?vid=bb332d87-cea1-404a-9aa2-7199b0126920"},"vehicle_type_id":"4","last_reported":1771273101,"current_range_meters":5600,"station_id":"ce4bgjh2rcd13ifvqbg0","pricing_plan_id":"cebpf4jnsgd1na2vs0mg"},{"bike_id":"821fb0be-7499-4473-8aa4-d25dd4bfdb68","system_id":"levelo_inurba_marseille","lat":43.26945,"lon":5.38641,"is_reserved":false,"is_disabled":true,"rental_uris":{"android":"levelo://app?vid=821fb0be-7499-4473-8aa4-d25dd4bfdb68","ios":"levelo://app?vid=821fb0be-7499-4473-8aa4-d25dd4bfdb68"},"vehicle_type_id":"4","last_reported":1771273101,"current_range_meters":28400,"station_id":"ce4bhh92rcd13ifvqfh0","pricing_plan_id":"cebpf4jnsgd1na2vs0mg"},{"bike_id":"e3bb4edd-9c9a-4734-90a6-3491fb38751c","system_id":"levelo_inurba_marseille","lat":43.23962,"lon":5.36634,"is_reserved":false,"is_disabled":false,"rental_uris":{"android":"levelo://app?vid=e3bb4edd-9c9a-4734-90a6-3491fb38751c","ios":"levelo://app?vid=e3bb4edd-9c9a-4734-90a6-3491fb38751c"},"vehicle_type_id":"4","last_reported":1771273101,"current_range_meters":38800,"station_id":"ce4bhi12rcd13ifvqfp0","pricing_plan_id":"cebpf4jnsgd1na2vs0mg"},{"bike_id":"aab1f510-8226-43d7-a5c8-ac2808d65c0b","system_id":"levelo_inurba_marseille","lat":43.27212,"lon":5.40967,"is_reserved":false,"is_disabled":true,"rental_uris":{"android":"levelo://app?vid=aab1f510-8226-43d7-a5c8-ac2808d65c0b","ios":"levelo://app?vid=aab1f510-8226-43d7-a5c8-ac2808d65c0b"},"vehicle_type_id":"4","last_reported":1771273101,"current_range_meters":24000,"station_id":"","pricing_plan_id":"cebpf4jnsgd1na2vs0mg"},{"bike_id":"4f119211-3200-4473-a12a-0f8872e80707","system_id":"levelo_inurba_marseille","lat":43.24682,"lon":5.38159,"is_reserved":false,"is_disabled":true,"rental_uris":{"android":"levelo://app?vid=4f119211-3200-4473-a12a-0f8872e80707","ios":"levelo://app?vid=4f119211-3200-4473-a12a-0f8872e80707"},"vehicle_type_id":"4","last_reported":1771273101,"current_range_meters":0,"station_id":"ce4bhih2rcd13ifvqfr0","pricing_plan_id":"cebpf4jnsgd1na2vs0mg"},{"bike_id":"33da8187-3eb8-4f3e-970f-0ece9caa0bce","system_id":"levelo_inurba_marseille","lat":43.24946,"lon":5.40507,"is_reserved":false,"is_disabled":false,"rental_uris":{"android":"levelo://app?vid=33da8187-3eb8-4f3e-970f-0ece9caa0bce","ios":"levelo://app?vid=33da8187-3eb8-4f3e-970f-0ece9caa0bce"},"vehicle_type_id":"4","last_reported":1771273101,"current_range_meters":31200,"station_id":"st_d2ngiaodas8pm72gd1h0","pricing_plan_id":"cebpf4jnsgd1na2vs0mg"},{"bike_id":"65c05f1b-66ba-4d82-8a9c-1c4aa6a1b51a","system_id":"levelo_inurba_marseille","lat":43.30299,"lon":5.39228,"is_reserved":false,"is_disabled":false,"rental_uris":{"android":"levelo://app?vid=65c05f1b-66ba-4d82-8a9c-1c4aa6a1b51a","ios":"levelo://app?vid=65c05f1b-66ba-4d82-8a9c-1c4aa6a1b51a"},"vehicle_type_id":"4","last_reported":1771273101,"current_range_meters":28400,"station_id":"ce4bgkh2rcd13ifvqbk0","pricing_plan_id":"cebpf4jnsgd1na2vs0mg"},{"bike_id":"932a7ddf-f475-4db8-8a7d-1a0fdfb94aa3","system_id":"levelo_inurba_marseille","lat":43.30534,"lon":5.36527,"is_reserved":false,"is_disabled":false,"rental_uris":{"android":"levelo://app?vid=932a7ddf-f475-4db8-8a7d-1a0fdfb94aa3","ios":"levelo://app?vid=932a7ddf-f475-4db8-8a7d-1a0fdfb94aa3"},"vehicle_type_id":"4","last_reported":1771273101,"current_range_meters":12400,"station_id":"ce4bgs12rcd13ifvqcag","pricing_plan_id":"cebpf4jnsgd1na2vs0mg"},{"bike_id":"3ca9e3ce-db46-4a73-94d7-e652fd26cbc7","system_id":"levelo_inurba_marseille","lat":43.29564,"lon":5.37504,"is_reserved":false,"is_disabled":false,"rental_uris":{"android":"levelo://app?vid=3ca9e3ce-db46-4a73-94d7-e652fd26cbc7","ios":"levelo://app?vid=3ca9e3ce-db46-4a73-94d7-e652fd26cbc7"},"vehicle_type_id":"4","last_reported":1771273101,"current_range_meters":24000,"station_id":"ce4bgh92rcd13ifvqb50","pricing_plan_id":"cebpf4jnsgd1na2vs0mg"},{"bike_id":"185c435d-ad1f-4775-a4d3-87a9d5d9c111","system_id":"levelo_inurba_marseille","lat":43.26235,"lon":5.40445,"is_reserved":false,"is_disabled":false,"rental_uris":{"android":"levelo://app?vid=185c435d-ad1f-4775-a4d3-87a9d5d9c111","ios":"levelo://app?vid=185c435d-ad1f-4775-a4d3-87a9d5d9c111"},"vehicle_type_id":"4","last_reported":1771273101,"current_range_meters":3600,"station_id":"ce4bhmh2rcd13ifvqgmg","pricing_plan_id":"cebpf4jnsgd1na2vs0mg"},{"bike_id":"62e690f0-63f6-474d-98ba-c3ee77f6bd18","system_id":"levelo_inurba_marseille","lat":43.29603,"lon":5.43902,"is_reserved":false,"is_disabled":false,"rental_uris":{"android":"levelo://app?vid=62e690f0-63f6-474d-98ba-c3ee77f6bd18","ios":"levelo://app?vid=62e690f0-63f6-474d-98ba-c3ee77f6bd18"},"vehicle_type_id":"4","last_reported":1771273101,"current_range_meters":26000,"station_id":"","pricing_plan_id":"cebpf4jnsgd1na2vs0mg"},{"bike_id":"e8e96277-8ed8-481b-9fd0-035d58a4b330","system_id":"levelo_inurba_marseille","lat":43.3,"lon":5.38484,"is_reserved":false,"is_disabled":false,"rental_uris":{"android":"levelo://app?vid=e8e96277-8ed8-481b-9fd0-035d58a4b330","ios":"levelo://app?vid=e8e96277-8ed8-481b-9fd0-035d58a4b330"},"vehicle_type_id":"4","last_reported":1771273101,"current_range_meters":30000,"station_id":"ce4bgj92rcd13ifvqbd0","pricing_plan_id":"cebpf4jnsgd1na2vs0mg"},{"bike_id":"547a920a-d5ae-4ae3-a3ed-da70807dc096","system_id":"levelo_inurba_marseille","lat":43.28713,"lon":5.37386,"is_reserved":false,"is_disabled":false,"rental_uris":{"android":"levelo://app?vid=547a920a-d5ae-4ae3-a3ed-da70807dc096","ios":"levelo://app?vid=547a920a-d5ae-4ae3-a3ed-da70807dc096"},"vehicle_type_id":"4","last_reported":1771273101,"current_range_meters":16800,"station_id":"ce4bh3p2rcd13ifvqdq0","pricing_plan_id":"cebpf4jnsgd1na2vs0mg"},{"bike_id":"a893f91b-71b5-4bda-a582-3da37d0be328","system_id":"levelo_inurba_marseille","lat":43.27991,"lon":5.40038,"is_reserved":false,"is_disabled":false,"rental_uris":{"android":"levelo://app?vid=a893f91b-71b5-4bda-a582-3da37d0be328","ios":"levelo://app?vid=a893f91b-71b5-4bda-a582-3da37d0be328"},"vehicle_type_id":"4","last_reported":1771273101,"current_range_meters":40000,"station_id":"ce4bho92rcd13ifvqh4g","pricing_plan_id":"cebpf4jnsgd1na2vs0mg"},{"bike_id":"8ba9709b-6053-4162-941f-fc8a222aea1a","system_id":"levelo_inurba_marseille","lat":43.30928,"lon":5.40152,"is_reserved":false,"is_disabled":false,"rental_uris":{"android":"levelo://app?vid=8ba9709b-6053-4162-941f-fc8a222aea1a","ios":"levelo://app?vid=8ba9709b-6053-4162-941f-fc8a222aea1a"},"vehicle_type_id":"4","last_reported":1771273101,"current_range_meters":14400,"station_id":"ce4bgvp2rcd13ifvqct0","pricing_plan_id":"cebpf4jnsgd1na2vs0mg"},{"bike_id":"45b209b0-f7ec-4530-b801-53212625f98e","system_id":"levelo_inurba_marseille","lat":43.26071,"lon":5.3939,"is_reserved":false,"is_disabled":false,"rental_uris":{"android":"levelo://app?vid=45b209b0-f7ec-4530-b801-53212625f98e","ios":"levelo://app?vid=45b209b0-f7ec-4530-b801-53212625f98e"},"vehicle_type_id":"4","last_reported":1771273101,"current_range_meters":39200,"station_id":"ce4bhh92rcd13ifvqfj0","pricing_plan_id":"cebpf4jnsgd1na2vs0mg"},{"bike_id":"40fd0452-0ae6-42bf-907f-bb1c4484b081","system_id":"levelo_inurba_marseille","lat":43.27986,"lon":5.38747,"is_reserved":false,"is_disabled":true,"rental_uris":{"android":"levelo://app?vid=40fd0452-0ae6-42bf-907f-bb1c4484b081","ios":"levelo://app?vid=40fd0452-0ae6-42bf-907f-bb1c4484b081"},"vehicle_type_id":"4","last_reported":1771273101,"current_range_meters":24800,"station_id":"ce4bhg12rcd13ifvqf80","pricing_plan_id":"cebpf4jnsgd1na2vs0mg"},{"bike_id":"d372ddf4-25e4-4090-b847-2210a5057d33","system_id":"levelo_inurba_marseille","lat":43.29547,"lon":5.37496,"is_reserved":false,"is_disabled":false,"rental_uris":{"android":"levelo://app?vid=d372ddf4-25e4-4090-b847-2210a5057d33","ios":"levelo://app?vid=d372ddf4-25e4-4090-b847-2210a5057d33"},"vehicle_type_id":"4","last_reported":1771273101,"current_range_meters":11200,"station_id":"ce4bgkp2rcd13ifvqbmg","pricing_plan_id":"cebpf4jnsgd1na2vs0mg"},{"bike_id":"d1d21e5e-5cb2-4e52-a7df-8790ee684f76","system_id":"levelo_inurba_marseille","lat":43.29385,"lon":5.37864,"is_reserved":false,"is_disabled":true,"rental_uris":{"android":"levelo://app?vid=d1d21e5e-5cb2-4e52-a7df-8790ee684f76","ios":"levelo://app?vid=d1d21e5e-5cb2-4e52-a7df-8790ee684f76"},"vehicle_type_id":"4","last_reported":1771273101,"current_range_meters":36800,"station_id":"ce4bgjh2rcd13ifvqbf0","pricing_plan_id":"cebpf4jnsgd1na2vs0mg"},{"bike_id":"99a48500-7e84-4fa4-a96e-b83b80df3c14","system_id":"levelo_inurba_marseille","lat":43.25352,"lon":5.4218,"is_reserved":false,"is_disabled":false,"rental_uris":{"android":"levelo://app?vid=99a48500-7e84-4fa4-a96e-b83b80df3c14","ios":"levelo://app?vid=99a48500-7e84-4fa4-a96e-b83b80df3c14"},"vehicle_type_id":"4","last_reported":1771273101,"current_range_meters":10800,"station_id":"st_d2m65c5bi1j21697t3ng","pricing_plan_id":"cebpf4jnsgd1na2vs0mg"},{"bike_id":"eeecab8f-ce0c-4a79-9b11-0ca40cb92ba2","system_id":"levelo_inurba_marseille","lat":43.31174,"lon":5.36835,"is_reserved":false,"is_disabled":false,"rental_uris":{"android":"levelo://app?vid=eeecab8f-ce0c-4a79-9b11-0ca40cb92ba2","ios":"levelo://app?vid=eeecab8f-ce0c-4a79-9b11-0ca40cb92ba2"},"vehicle_type_id":"4","last_reported":1771273101,"current_range_meters":27600,"station_id":"","pricing_plan_id":"cebpf4jnsgd1na2vs0mg"},{"bike_id":"d4205868-b35f-4f41-a60c-89aac65dd941","system_id":"levelo_inurba_marseille","lat":43.29224,"lon":5.39324,"is_reserved":false,"is_disabled":false,"rental_uris":{"android":"levelo://app?vid=d4205868-b35f-4f41-a60c-89aac65dd941","ios":"levelo://app?vid=d4205868-b35f-4f41-a60c-89aac65dd941"},"vehicle_type_id":"4","last_reported":1771273101,"current_range_meters":35600,"station_id":"ce4bh192rcd13ifvqdd0","pricing_plan_id":"cebpf4jnsgd1na2vs0mg"},{"bike_id":"960ad6b5-06c8-4b04-b964-56217da919ed","system_id":"levelo_inurba_marseille","lat":43.24821,"lon":5.37438,"is_reserved":false,"is_disabled":false,"rental_uris":{"android":"levelo://app?vid=960ad6b5-06c8-4b04-b964-56217da919ed","ios":"levelo://app?vid=960ad6b5-06c8-4b04-b964-56217da919ed"},"vehicle_type_id":"4","last_reported":1771273101,"current_range_meters":25600,"station_id":"ce4bhgh2rcd13ifvqfb0","pricing_plan_id":"cebpf4jnsgd1na2vs0mg"},{"bike_id":"70b09dd4-0ae4-48e2-87f3-46d153bf19b6","system_id":"levelo_inurba_marseille","lat":43.23408,"lon":5.41236,"is_reserved":false,"is_disabled":true,"rental_uris":{"android":"levelo://app?vid=70b09dd4-0ae4-48e2-87f3-46d153bf19b6","ios":"levelo://app?vid=70b09dd4-0ae4-48e2-87f3-46d153bf19b6"},"vehicle_type_id":"4","last_reported":1771273101,"current_range_meters":0,"station_id":"","pricing_plan_id":"cebpf4jnsgd1na2vs0mg"},{"bike_id":"c7fbcb26-f0c5-485b-bedf-94d07ace569a","system_id":"levelo_inurba_marseille","lat":43.26219,"lon":5.40451,"is_reserved":false,"is_disabled":false,"rental_uris":{"android":"levelo://app?vid=c7fbcb26-f0c5-485b-bedf-94d07ace569a","ios":"levelo://app?vid=c7fbcb26-f0c5-485b-bedf-94d07ace569a"},"vehicle_type_id":"4","last_reported":1771273101,"current_range_meters":36000,"station_id":"ce4bhmh2rcd13ifvqgmg","pricing_plan_id":"cebpf4jnsgd1na2vs0mg"},{"bike_id":"88f1f13a-b9f4-42bb-928f-bb3ba59d1110","system_id":"levelo_inurba_marseille","lat":43.29204,"lon":5.37165,"is_reserved":false,"is_disabled":false,"rental_uris":{"android":"levelo://app?vid=88f1f13a-b9f4-42bb-928f-bb3ba59d1110","ios":"levelo://app?vid=88f1f13a-b9f4-42bb-928f-bb3ba59d1110"},"vehicle_type_id":"4","last_reported":1771273101,"current_range_meters":31200,"station_id":"ce4bha92rcd13ifvqeh0","pricing_plan_id":"cebpf4jnsgd1na2vs0mg"},{"bike_id":"74f62393-4bd9-47e9-8d53-461792093662","system_id":"levelo_inurba_marseille","lat":43.29814,"lon":5.44076,"is_reserved":false,"is_disabled":false,"rental_uris":{"android":"levelo://app?vid=74f62393-4bd9-47e9-8d53-461792093662","ios":"levelo://app?vid=74f62393-4bd9-47e9-8d53-461792093662"},"vehicle_type_id":"4","last_reported":1771273101,"current_range_meters":11200,"station_id":"st_d3jp68qikq2c7381ktn0","pricing_plan_id":"cebpf4jnsgd1na2vs0mg"},{"bike_id":"94d55430-45c9-48ad-af96-686a675c45df","system_id":"levelo_inurba_marseille","lat":43.28564,"lon":5.39509,"is_reserved":false,"is_disabled":false,"rental_uris":{"android":"levelo://app?vid=94d55430-45c9-48ad-af96-686a675c45df","ios":"levelo://app?vid=94d55430-45c9-48ad-af96-686a675c45df"},"vehicle_type_id":"4","last_reported":1771273101,"current_range_meters":40000,"station_id":"ce4bh292rcd13ifvqdg0","pricing_plan_id":"cebpf4jnsgd1na2vs0mg"},{"bike_id":"fb4f2341-17da-41d8-a946-91d867026601","system_id":"levelo_inurba_marseille","lat":43.253335,"lon":5.42168,"is_reserved":false,"is_disabled":false,"rental_uris":{"android":"levelo://app?vid=fb4f2341-17da-41d8-a946-91d867026601","ios":"levelo://app?vid=fb4f2341-17da-41d8-a946-91d867026601"},"vehicle_type_id":"4","last_reported":1771273101,"current_range_meters":11600,"station_id":"st_d2m65c5bi1j21697t3ng","pricing_plan_id":"cebpf4jnsgd1na2vs0mg"},{"bike_id":"082f3a3e-26a7-41a9-b3f4-39cf33917d67","system_id":"levelo_inurba_marseille","lat":43.31763,"lon":5.39011,"is_reserved":false,"is_disabled":false,"rental_uris":{"android":"levelo://app?vid=082f3a3e-26a7-41a9-b3f4-39cf33917d67","ios":"levelo://app?vid=082f3a3e-26a7-41a9-b3f4-39cf33917d67"},"vehicle_type_id":"4","last_reported":1771273101,"current_range_meters":27600,"station_id":"ce4bhqp2rcd13ifvqhng","pricing_plan_id":"cebpf4jnsgd1na2vs0mg"},{"bike_id":"cef7774b-878b-416b-b1d6-eb1f955ce887","system_id":"levelo_inurba_marseille","lat":43.23204,"lon":5.35552,"is_reserved":false,"is_disabled":false,"rental_uris":{"android":"levelo://app?vid=cef7774b-878b-416b-b1d6-eb1f955ce887","ios":"levelo://app?vid=cef7774b-878b-416b-b1d6-eb1f955ce887"},"vehicle_type_id":"4","last_reported":1771273101,"current_range_meters":27200,"station_id":"ce4bhu92rcd13ifvqi70","pricing_plan_id":"cebpf4jnsgd1na2vs0mg"},{"bike_id":"fe2fab5a-d871-47b1-ab37-071a0b8349f9","system_id":"levelo_inurba_marseille","lat":43.27879,"lon":5.37985,"is_reserved":false,"is_disabled":false,"rental_uris":{"android":"levelo://app?vid=fe2fab5a-d871-47b1-ab37-071a0b8349f9","ios":"levelo://app?vid=fe2fab5a-d871-47b1-ab37-071a0b8349f9"},"vehicle_type_id":"4","last_reported":1771273101,"current_range_meters":36000,"station_id":"ce4bhf92rcd13ifvqf50","pricing_plan_id":"cebpf4jnsgd1na2vs0mg"},{"bike_id":"cd88b8a2-4e6c-48d3-8c6b-4664b5faba1a","system_id":"levelo_inurba_marseille","lat":43.25862,"lon":5.39909,"is_reserved":false,"is_disabled":false,"rental_uris":{"android":"levelo://app?vid=cd88b8a2-4e6c-48d3-8c6b-4664b5faba1a","ios":"levelo://app?vid=cd88b8a2-4e6c-48d3-8c6b-4664b5faba1a"},"vehicle_type_id":"4","last_reported":1771273101,"current_range_meters":16800,"station_id":"ce4bhl92rcd13ifvqghg","pricing_plan_id":"cebpf4jnsgd1na2vs0mg"},{"bike_id":"1fb63b56-cfbf-48ac-b5c7-9154d7ce6230","system_id":"levelo_inurba_marseille","lat":43.28423,"lon":5.34993,"is_reserved":false,"is_disabled":false,"rental_uris":{"android":"levelo://app?vid=1fb63b56-cfbf-48ac-b5c7-9154d7ce6230","ios":"levelo://app?vid=1fb63b56-cfbf-48ac-b5c7-9154d7ce6230"},"vehicle_type_id":"4","last_reported":1771273101,"current_range_meters":28400,"station_id":"ce4bhbh2rcd13ifvqepg","pricing_plan_id":"cebpf4jnsgd1na2vs0mg"},{"bike_id":"1b4ff484-23ec-4dbf-8ff9-db8adad44dbc","system_id":"levelo_inurba_marseille","lat":43.3022,"lon":5.39486,"is_reserved":false,"is_disabled":false,"rental_uris":{"android":"levelo://app?vid=1b4ff484-23ec-4dbf-8ff9-db8adad44dbc","ios":"levelo://app?vid=1b4ff484-23ec-4dbf-8ff9-db8adad44dbc"},"vehicle_type_id":"4","last_reported":1771273101,"current_range_meters":40000,"station_id":"ce4bh0p2rcd13ifvqd70","pricing_plan_id":"cebpf4jnsgd1na2vs0mg"},{"bike_id":"d9ca43ed-de80-4ad5-b339-4a17087e0982","system_id":"levelo_inurba_marseille","lat":43.28703,"lon":5.36301,"is_reserved":false,"is_disabled":false,"rental_uris":{"android":"levelo://app?vid=d9ca43ed-de80-4ad5-b339-4a17087e0982","ios":"levelo://app?vid=d9ca43ed-de80-4ad5-b339-4a17087e0982"},"vehicle_type_id":"4","last_reported":1771273101,"current_range_meters":30800,"station_id":"ce4bhah2rcd13ifvqej0","pricing_plan_id":"cebpf4jnsgd1na2vs0mg"},{"bike_id":"b375d639-c0ba-4164-a86d-a2b2e2f6cc4c","system_id":"levelo_inurba_marseille","lat":43.28716,"lon":5.37426,"is_reserved":false,"is_disabled":false,"rental_uris":{"android":"levelo://app?vid=b375d639-c0ba-4164-a86d-a2b2e2f6cc4c","ios":"levelo://app?vid=b375d639-c0ba-4164-a86d-a2b2e2f6cc4c"},"vehicle_type_id":"4","last_reported":1771273101,"current_range_meters":40000,"station_id":"ce4bh3p2rcd13ifvqdq0","pricing_plan_id":"cebpf4jnsgd1na2vs0mg"},{"bike_id":"46110540-9399-4111-9ce2-11274d348b1a","system_id":"levelo_inurba_marseille","lat":43.23107,"lon":5.43733,"is_reserved":false,"is_disabled":false,"rental_uris":{"android":"levelo://app?vid=46110540-9399-4111-9ce2-11274d348b1a","ios":"levelo://app?vid=46110540-9399-4111-9ce2-11274d348b1a"},"vehicle_type_id":"4","last_reported":1771273101,"current_range_meters":11200,"station_id":"ce4bhmp2rcd13ifvqgog","pricing_plan_id":"cebpf4jnsgd1na2vs0mg"},{"bike_id":"80ec94ac-1e8e-41a2-b39b-2c1291ed43a9","system_id":"levelo_inurba_marseille","lat":43.2469,"lon":5.38149,"is_reserved":false,"is_disabled":false,"rental_uris":{"android":"levelo://app?vid=80ec94ac-1e8e-41a2-b39b-2c1291ed43a9","ios":"levelo://app?vid=80ec94ac-1e8e-41a2-b39b-2c1291ed43a9"},"vehicle_type_id":"4","last_reported":1771273101,"current_range_meters":27200,"station_id":"ce4bhih2rcd13ifvqfr0","pricing_plan_id":"cebpf4jnsgd1na2vs0mg"},{"bike_id":"b66e0ad4-8ae9-49f3-9245-06bfaa860ce3","system_id":"levelo_inurba_marseille","lat":43.30962,"lon":5.36869,"is_reserved":false,"is_disabled":false,"rental_uris":{"android":"levelo://app?vid=b66e0ad4-8ae9-49f3-9245-06bfaa860ce3","ios":"levelo://app?vid=b66e0ad4-8ae9-49f3-9245-06bfaa860ce3"},"vehicle_type_id":"4","last_reported":1771273101,"current_range_meters":38000,"station_id":"","pricing_plan_id":"cebpf4jnsgd1na2vs0mg"},{"bike_id":"a457e58e-c681-4f1c-b916-9734075716c5","system_id":"levelo_inurba_marseille","lat":43.2951,"lon":5.39033,"is_reserved":false,"is_disabled":false,"rental_uris":{"android":"levelo://app?vid=a457e58e-c681-4f1c-b916-9734075716c5","ios":"levelo://app?vid=a457e58e-c681-4f1c-b916-9734075716c5"},"vehicle_type_id":"4","last_reported":1771273101,"current_range_meters":35200,"station_id":"ce4bh3p2rcd13ifvqdp0","pricing_plan_id":"cebpf4jnsgd1na2vs0mg"},{"bike_id":"d7bde0f9-1e34-4064-9fcd-20ad812f4669","system_id":"levelo_inurba_marseille","lat":43.30291,"lon":5.36901,"is_reserved":false,"is_disabled":false,"rental_uris":{"android":"levelo://app?vid=d7bde0f9-1e34-4064-9fcd-20ad812f4669","ios":"levelo://app?vid=d7bde0f9-1e34-4064-9fcd-20ad812f4669"},"vehicle_type_id":"4","last_reported":1771273101,"current_range_meters":16400,"station_id":"ce4bgqh2rcd13ifvqc5g","pricing_plan_id":"cebpf4jnsgd1na2vs0mg"},{"bike_id":"514d5f90-6b60-4f9e-a59a-767d598385e5","system_id":"levelo_inurba_marseille","lat":43.31327,"lon":5.397,"is_reserved":false,"is_disabled":false,"rental_uris":{"android":"levelo://app?vid=514d5f90-6b60-4f9e-a59a-767d598385e5","ios":"levelo://app?vid=514d5f90-6b60-4f9e-a59a-767d598385e5"},"vehicle_type_id":"4","last_reported":1771273101,"current_range_meters":28400,"station_id":"ce4bgvp2rcd13ifvqcu0","pricing_plan_id":"cebpf4jnsgd1na2vs0mg"},{"bike_id":"e514cb1b-df9e-4d01-9450-bac3c417e852","system_id":"levelo_inurba_marseille","lat":43.28923,"lon":5.36401,"is_reserved":false,"is_disabled":false,"rental_uris":{"android":"levelo://app?vid=e514cb1b-df9e-4d01-9450-bac3c417e852","ios":"levelo://app?vid=e514cb1b-df9e-4d01-9450-bac3c417e852"},"vehicle_type_id":"4","last_reported":1771273101,"current_range_meters":14400,"station_id":"ce4bhc92rcd13ifvqetg","pricing_plan_id":"cebpf4jnsgd1na2vs0mg"},{"bike_id":"7d71b645-d4a5-4f5c-8e9d-cd946df838a7","system_id":"levelo_inurba_marseille","lat":43.26962,"lon":5.38688,"is_reserved":false,"is_disabled":false,"rental_uris":{"android":"levelo://app?vid=7d71b645-d4a5-4f5c-8e9d-cd946df838a7","ios":"levelo://app?vid=7d71b645-d4a5-4f5c-8e9d-cd946df838a7"},"vehicle_type_id":"4","last_reported":1771273101,"current_range_meters":17600,"station_id":"ce4bhh92rcd13ifvqfh0","pricing_plan_id":"cebpf4jnsgd1na2vs0mg"},{"bike_id":"97ccd086-36d4-4005-b689-fdea1c796e9d","system_id":"levelo_inurba_marseille","lat":43.30391,"lon":5.42472,"is_reserved":false,"is_disabled":false,"rental_uris":{"android":"levelo://app?vid=97ccd086-36d4-4005-b689-fdea1c796e9d","ios":"levelo://app?vid=97ccd086-36d4-4005-b689-fdea1c796e9d"},"vehicle_type_id":"4","last_reported":1771273101,"current_range_meters":22000,"station_id":"ce4bhoh2rcd13ifvqh6g","pricing_plan_id":"cebpf4jnsgd1na2vs0mg"},{"bike_id":"db5527a1-b510-49eb-bd7c-ec8e851f906e","system_id":"levelo_inurba_marseille","lat":43.31938,"lon":5.37394,"is_reserved":false,"is_disabled":false,"rental_uris":{"android":"levelo://app?vid=db5527a1-b510-49eb-bd7c-ec8e851f906e","ios":"levelo://app?vid=db5527a1-b510-49eb-bd7c-ec8e851f906e"},"vehicle_type_id":"4","last_reported":1771273101,"current_range_meters":11200,"station_id":"","pricing_plan_id":"cebpf4jnsgd1na2vs0mg"},{"bike_id":"132fa7ec-fdb9-4b44-a7bb-c2a68e25e0a8","system_id":"levelo_inurba_marseille","lat":43.26581,"lon":5.39007,"is_reserved":false,"is_disabled":false,"rental_uris":{"android":"levelo://app?vid=132fa7ec-fdb9-4b44-a7bb-c2a68e25e0a8","ios":"levelo://app?vid=132fa7ec-fdb9-4b44-a7bb-c2a68e25e0a8"},"vehicle_type_id":"4","last_reported":1771273101,"current_range_meters":24800,"station_id":"ce4bhe12rcd13ifvqf30","pricing_plan_id":"cebpf4jnsgd1na2vs0mg"},{"bike_id":"dfe0e9ca-8d49-4db0-8c33-9cb6c3befb32","system_id":"levelo_inurba_marseille","lat":43.28182,"lon":5.3903,"is_reserved":false,"is_disabled":false,"rental_uris":{"android":"levelo://app?vid=dfe0e9ca-8d49-4db0-8c33-9cb6c3befb32","ios":"levelo://app?vid=dfe0e9ca-8d49-4db0-8c33-9cb6c3befb32"},"vehicle_type_id":"4","last_reported":1771273101,"current_range_meters":9600,"station_id":"ce4bhn92rcd13ifvqgsg","pricing_plan_id":"cebpf4jnsgd1na2vs0mg"},{"bike_id":"c87ef617-f108-4901-bbd7-4b031ba4350e","system_id":"levelo_inurba_marseille","lat":43.30543,"lon":5.36718,"is_reserved":false,"is_disabled":false,"rental_uris":{"android":"levelo://app?vid=c87ef617-f108-4901-bbd7-4b031ba4350e","ios":"levelo://app?vid=c87ef617-f108-4901-bbd7-4b031ba4350e"},"vehicle_type_id":"4","last_reported":1771273101,"current_range_meters":16400,"station_id":"ce4bgrp2rcd13ifvqc9g","pricing_plan_id":"cebpf4jnsgd1na2vs0mg"},{"bike_id":"962b2fa2-c804-414c-a091-459b0717bfbc","system_id":"levelo_inurba_marseille","lat":43.30459,"lon":5.38903,"is_reserved":false,"is_disabled":false,"rental_uris":{"android":"levelo://app?vid=962b2fa2-c804-414c-a091-459b0717bfbc","ios":"levelo://app?vid=962b2fa2-c804-414c-a091-459b0717bfbc"},"vehicle_type_id":"4","last_reported":1771273101,"current_range_meters":33600,"station_id":"ce4bgk12rcd13ifvqbi0","pricing_plan_id":"cebpf4jnsgd1na2vs0mg"},{"bike_id":"b29eb54c-5545-4020-9d6e-1c642c3fc351","system_id":"levelo_inurba_marseille","lat":43.287157,"lon":5.379347,"is_reserved":false,"is_disabled":false,"rental_uris":{"android":"levelo://app?vid=b29eb54c-5545-4020-9d6e-1c642c3fc351","ios":"levelo://app?vid=b29eb54c-5545-4020-9d6e-1c642c3fc351"},"vehicle_type_id":"4","last_reported":1771273101,"current_range_meters":39200,"station_id":"ce4bh9p2rcd13ifvqec0","pricing_plan_id":"cebpf4jnsgd1na2vs0mg"},{"bike_id":"d2fdb08d-1d1d-417c-bd68-1cfab505ee04","system_id":"levelo_inurba_marseille","lat":43.29058,"lon":5.37157,"is_reserved":false,"is_disabled":false,"rental_uris":{"android":"levelo://app?vid=d2fdb08d-1d1d-417c-bd68-1cfab505ee04","ios":"levelo://app?vid=d2fdb08d-1d1d-417c-bd68-1cfab505ee04"},