{"last_updated":1768554991,"ttl":60,"version":"2.2","data":{"bikes":[{"bike_id":"a33c3167-3eca-46a2-91bd-5ae48b614622","system_id":"levelo_inurba_marseille","lat":43.2481,"lon":5.37459,"is_reserved":false,"is_disabled":false,"rental_uris":{"android":"levelo://app?vid=a33c3167-3eca-46a2-91bd-5ae48b614622","ios":"levelo://app?vid=a33c3167-3eca-46a2-91bd-5ae48b614622"},"vehicle_type_id":"4","last_reported":1768554992,"current_range_meters":2800,"station_id":"ce4bhgh2rcd13ifvqfb0","pricing_plan_id":"cebpf4jnsgd1na2vs0mg"},{"bike_id":"bdd3d3f4-86f2-4e5e-a1cb-8893a07caeb7","system_id":"levelo_inurba_marseille","lat":43.29603,"lon":5.38109,"is_reserved":false,"is_disabled":false,"rental_uris":{"android":"levelo://app?vid=bdd3d3f4-86f2-4e5e-a1cb-8893a07caeb7","ios":"levelo://app?vid=bdd3d3f4-86f2-4e5e-a1cb-8893a07caeb7"},"vehicle_type_id":"4","last_reported":1768554992,"current_range_meters":2800,"station_id":"ce4bgl12rcd13ifvqbo0","pricing_plan_id":"cebpf4jnsgd1na2vs0mg"},{"bike_id":"1c051b1c-6329-4082-803a-f7e4ea56755d","system_id":"levelo_inurba_marseille","lat":43.24081,"lon":5.3775,"is_reserved":false,"is_disabled":false,"rental_uris":{"android":"levelo://app?vid=1c051b1c-6329-4082-803a-f7e4ea56755d","ios":"levelo://app?vid=1c051b1c-6329-4082-803a-f7e4ea56755d"},"vehicle_type_id":"4","last_reported":1768554992,"current_range_meters":2800,"station_id":"ce4bhnp2rcd13ifvqgvg","pricing_plan_id":"cebpf4jnsgd1na2vs0mg"},{"bike_id":"045e9d48-83b4-464f-9465-7c29bf6ec9c6","system_id":"levelo_inurba_marseille","lat":43.2853,"lon":5.44104,"is_reserved":false,"is_disabled":false,"rental_uris":{"android":"levelo://app?vid=045e9d48-83b4-464f-9465-7c29bf6ec9c6","ios":"levelo://app?vid=045e9d48-83b4-464f-9465-7c29bf6ec9c6"},"vehicle_type_id":"4","last_reported":1768554992,"current_range_meters":2800,"station_id":"st_d3j3df2ikq2c7380ej80","pricing_plan_id":"cebpf4jnsgd1na2vs0mg"},{"bike_id":"2ac5c167-db60-4a80-bf84-8c1a63d36f80","system_id":"levelo_inurba_marseille","lat":43.246276,"lon":5.431557,"is_reserved":false,"is_disabled":false,"rental_uris":{"android":"levelo://app?vid=2ac5c167-db60-4a80-bf84-8c1a63d36f80","ios":"levelo://app?vid=2ac5c167-db60-4a80-bf84-8c1a63d36f80"},"vehicle_type_id":"4","last_reported":1768554992,"current_range_meters":2800,"station_id":"st_d2m6c4gdas8pm72e190g","pricing_plan_id":"cebpf4jnsgd1na2vs0mg"},{"bike_id":"fea18d0b-83a5-4095-b424-4023b3fa6d9f","system_id":"levelo_inurba_marseille","lat":43.27486,"lon":5.42463,"is_reserved":false,"is_disabled":false,"rental_uris":{"android":"levelo://app?vid=fea18d0b-83a5-4095-b424-4023b3fa6d9f","ios":"levelo://app?vid=fea18d0b-83a5-4095-b424-4023b3fa6d9f"},"vehicle_type_id":"4","last_reported":1768554992,"current_range_meters":2800,"station_id":"ce4bhn92rcd13ifvqgrg","pricing_plan_id":"cebpf4jnsgd1na2vs0mg"},{"bike_id":"b16db95a-1eae-47ad-b2e3-882874b3d4d4","system_id":"levelo_inurba_marseille","lat":43.284776,"lon":5.483947,"is_reserved":false,"is_disabled":false,"rental_uris":{"android":"levelo://app?vid=b16db95a-1eae-47ad-b2e3-882874b3d4d4","ios":"levelo://app?vid=b16db95a-1eae-47ad-b2e3-882874b3d4d4"},"vehicle_type_id":"4","last_reported":1768554992,"current_range_meters":2800,"station_id":"st_d3svhcjqgbts73a3dn0g","pricing_plan_id":"cebpf4jnsgd1na2vs0mg"},{"bike_id":"705d32b4-b129-4b6a-9219-88a701fed4c6","system_id":"levelo_inurba_marseille","lat":43.29597,"lon":5.37077,"is_reserved":false,"is_disabled":false,"rental_uris":{"android":"levelo://app?vid=705d32b4-b129-4b6a-9219-88a701fed4c6","ios":"levelo://app?vid=705d32b4-b129-4b6a-9219-88a701fed4c6"},"vehicle_type_id":"4","last_reported":1768554992,"current_range_meters":2800,"station_id":"","pricing_plan_id":"cebpf4jnsgd1na2vs0mg"},{"bike_id":"d3292d74-c731-4e5a-858b-6aef5e98b4dc","system_id":"levelo_inurba_marseille","lat":43.25323,"lon":5.42177,"is_reserved":false,"is_disabled":false,"rental_uris":{"android":"levelo://app?vid=d3292d74-c731-4e5a-858b-6aef5e98b4dc","ios":"levelo://app?vid=d3292d74-c731-4e5a-858b-6aef5e98b4dc"},"vehicle_type_id":"4","last_reported":1768554992,"current_range_meters":2800,"station_id":"st_d2m65c5bi1j21697t3ng","pricing_plan_id":"cebpf4jnsgd1na2vs0mg"},{"bike_id":"0ca224f7-7856-4848-a460-540be8ecb2e2","system_id":"levelo_inurba_marseille","lat":43.25358,"lon":5.42165,"is_reserved":false,"is_disabled":false,"rental_uris":{"android":"levelo://app?vid=0ca224f7-7856-4848-a460-540be8ecb2e2","ios":"levelo://app?vid=0ca224f7-7856-4848-a460-540be8ecb2e2"},"vehicle_type_id":"4","last_reported":1768554992,"current_range_meters":2800,"station_id":"st_d2m65c5bi1j21697t3ng","pricing_plan_id":"cebpf4jnsgd1na2vs0mg"},{"bike_id":"bbca5a78-1ee0-4dab-ba7e-f05d9beea402","system_id":"levelo_inurba_marseille","lat":43.244706,"lon":5.42535,"is_reserved":false,"is_disabled":false,"rental_uris":{"android":"levelo://app?vid=bbca5a78-1ee0-4dab-ba7e-f05d9beea402","ios":"levelo://app?vid=bbca5a78-1ee0-4dab-ba7e-f05d9beea402"},"vehicle_type_id":"4","last_reported":1768554992,"current_range_meters":2800,"station_id":"st_d4a3vfp97mjs738cd8kg","pricing_plan_id":"cebpf4jnsgd1na2vs0mg"},{"bike_id":"45560b8c-0e05-4e12-aadd-6d4f84ae2310","system_id":"levelo_inurba_marseille","lat":43.26872,"lon":5.38939,"is_reserved":false,"is_disabled":false,"rental_uris":{"android":"levelo://app?vid=45560b8c-0e05-4e12-aadd-6d4f84ae2310","ios":"levelo://app?vid=45560b8c-0e05-4e12-aadd-6d4f84ae2310"},"vehicle_type_id":"4","last_reported":1768554992,"current_range_meters":2800,"station_id":"","pricing_plan_id":"cebpf4jnsgd1na2vs0mg"},{"bike_id":"77a0f457-4e16-49e5-9103-824a9d70a6d8","system_id":"levelo_inurba_marseille","lat":43.26219,"lon":5.37473,"is_reserved":false,"is_disabled":false,"rental_uris":{"android":"levelo://app?vid=77a0f457-4e16-49e5-9103-824a9d70a6d8","ios":"levelo://app?vid=77a0f457-4e16-49e5-9103-824a9d70a6d8"},"vehicle_type_id":"4","last_reported":1768554992,"current_range_meters":3200,"station_id":"ce4bhgp2rcd13ifvqfc0","pricing_plan_id":"cebpf4jnsgd1na2vs0mg"},{"bike_id":"cd71aa63-ee2a-4963-934a-4d4abbf0d037","system_id":"levelo_inurba_marseille","lat":43.31227,"lon":5.3864,"is_reserved":false,"is_disabled":false,"rental_uris":{"android":"levelo://app?vid=cd71aa63-ee2a-4963-934a-4d4abbf0d037","ios":"levelo://app?vid=cd71aa63-ee2a-4963-934a-4d4abbf0d037"},"vehicle_type_id":"4","last_reported":1768554992,"current_range_meters":3200,"station_id":"","pricing_plan_id":"cebpf4jnsgd1na2vs0mg"},{"bike_id":"d8359d47-7e44-4bc7-ae1a-4ce4bff872ba","system_id":"levelo_inurba_marseille","lat":43.26681,"lon":5.38274,"is_reserved":false,"is_disabled":false,"rental_uris":{"android":"levelo://app?vid=d8359d47-7e44-4bc7-ae1a-4ce4bff872ba","ios":"levelo://app?vid=d8359d47-7e44-4bc7-ae1a-4ce4bff872ba"},"vehicle_type_id":"4","last_reported":1768554992,"current_range_meters":3200,"station_id":"ce4bhg92rcd13ifvqf90","pricing_plan_id":"cebpf4jnsgd1na2vs0mg"},{"bike_id":"657bc8b9-e77a-4046-9aed-d9006a731dd0","system_id":"levelo_inurba_marseille","lat":43.3136,"lon":5.36717,"is_reserved":false,"is_disabled":false,"rental_uris":{"android":"levelo://app?vid=657bc8b9-e77a-4046-9aed-d9006a731dd0","ios":"levelo://app?vid=657bc8b9-e77a-4046-9aed-d9006a731dd0"},"vehicle_type_id":"4","last_reported":1768554992,"current_range_meters":3200,"station_id":"ce4bgr92rcd13ifvqc6g","pricing_plan_id":"cebpf4jnsgd1na2vs0mg"},{"bike_id":"23694f2c-b2d4-4d58-b373-d1c7186e4244","system_id":"levelo_inurba_marseille","lat":43.297542,"lon":5.427808,"is_reserved":false,"is_disabled":false,"rental_uris":{"android":"levelo://app?vid=23694f2c-b2d4-4d58-b373-d1c7186e4244","ios":"levelo://app?vid=23694f2c-b2d4-4d58-b373-d1c7186e4244"},"vehicle_type_id":"4","last_reported":1768554992,"current_range_meters":3200,"station_id":"st_d3md5207bmas73dh9klg","pricing_plan_id":"cebpf4jnsgd1na2vs0mg"},{"bike_id":"153daeb6-1ced-443a-8511-9ccae5c5d53f","system_id":"levelo_inurba_marseille","lat":43.317198,"lon":5.375567,"is_reserved":false,"is_disabled":false,"rental_uris":{"android":"levelo://app?vid=153daeb6-1ced-443a-8511-9ccae5c5d53f","ios":"levelo://app?vid=153daeb6-1ced-443a-8511-9ccae5c5d53f"},"vehicle_type_id":"4","last_reported":1768554992,"current_range_meters":3200,"station_id":"","pricing_plan_id":"cebpf4jnsgd1na2vs0mg"},{"bike_id":"27825e2b-dc11-48ae-bb85-54acc7858fdf","system_id":"levelo_inurba_marseille","lat":43.26956,"lon":5.38633,"is_reserved":false,"is_disabled":false,"rental_uris":{"android":"levelo://app?vid=27825e2b-dc11-48ae-bb85-54acc7858fdf","ios":"levelo://app?vid=27825e2b-dc11-48ae-bb85-54acc7858fdf"},"vehicle_type_id":"4","last_reported":1768554992,"current_range_meters":3200,"station_id":"ce4bhh92rcd13ifvqfh0","pricing_plan_id":"cebpf4jnsgd1na2vs0mg"},{"bike_id":"a3fdc93d-2df9-40ab-baee-b5c2dbfaf361","system_id":"levelo_inurba_marseille","lat":43.31743,"lon":5.4043,"is_reserved":false,"is_disabled":false,"rental_uris":{"android":"levelo://app?vid=a3fdc93d-2df9-40ab-baee-b5c2dbfaf361","ios":"levelo://app?vid=a3fdc93d-2df9-40ab-baee-b5c2dbfaf361"},"vehicle_type_id":"4","last_reported":1768554992,"current_range_meters":3200,"station_id":"ce4bh012rcd13ifvqd00","pricing_plan_id":"cebpf4jnsgd1na2vs0mg"},{"bike_id":"dc2d5e59-14fe-4786-8846-b39b5301a8cb","system_id":"levelo_inurba_marseille","lat":43.30298,"lon":5.36916,"is_reserved":false,"is_disabled":false,"rental_uris":{"android":"levelo://app?vid=dc2d5e59-14fe-4786-8846-b39b5301a8cb","ios":"levelo://app?vid=dc2d5e59-14fe-4786-8846-b39b5301a8cb"},"vehicle_type_id":"4","last_reported":1768554992,"current_range_meters":3200,"station_id":"ce4bgqh2rcd13ifvqc5g","pricing_plan_id":"cebpf4jnsgd1na2vs0mg"},{"bike_id":"8ba698be-e034-4358-869c-90d15eed6c86","system_id":"levelo_inurba_marseille","lat":43.29082,"lon":5.38153,"is_reserved":false,"is_disabled":false,"rental_uris":{"android":"levelo://app?vid=8ba698be-e034-4358-869c-90d15eed6c86","ios":"levelo://app?vid=8ba698be-e034-4358-869c-90d15eed6c86"},"vehicle_type_id":"4","last_reported":1768554992,"current_range_meters":3200,"station_id":"ce4bh512rcd13ifvqe2g","pricing_plan_id":"cebpf4jnsgd1na2vs0mg"},{"bike_id":"766b6315-d0e9-4f21-99cc-ac73caf0d81f","system_id":"levelo_inurba_marseille","lat":43.26768,"lon":5.39434,"is_reserved":false,"is_disabled":false,"rental_uris":{"android":"levelo://app?vid=766b6315-d0e9-4f21-99cc-ac73caf0d81f","ios":"levelo://app?vid=766b6315-d0e9-4f21-99cc-ac73caf0d81f"},"vehicle_type_id":"4","last_reported":1768554992,"current_range_meters":3200,"station_id":"ce4bhh12rcd13ifvqfg0","pricing_plan_id":"cebpf4jnsgd1na2vs0mg"},{"bike_id":"dff22208-5fe5-497f-b0d5-2c061aa242f8","system_id":"levelo_inurba_marseille","lat":43.29022,"lon":5.39969,"is_reserved":false,"is_disabled":true,"rental_uris":{"android":"levelo://app?vid=dff22208-5fe5-497f-b0d5-2c061aa242f8","ios":"levelo://app?vid=dff22208-5fe5-497f-b0d5-2c061aa242f8"},"vehicle_type_id":"4","last_reported":1768554992,"current_range_meters":3600,"station_id":"ce4bh392rcd13ifvqdm0","pricing_plan_id":"cebpf4jnsgd1na2vs0mg"},{"bike_id":"294130fc-0ec9-4d2e-966f-c328a1ee476f","system_id":"levelo_inurba_marseille","lat":43.30296,"lon":5.4045,"is_reserved":false,"is_disabled":true,"rental_uris":{"android":"levelo://app?vid=294130fc-0ec9-4d2e-966f-c328a1ee476f","ios":"levelo://app?vid=294130fc-0ec9-4d2e-966f-c328a1ee476f"},"vehicle_type_id":"4","last_reported":1768554992,"current_range_meters":3600,"station_id":"ce4bh012rcd13ifvqd10","pricing_plan_id":"cebpf4jnsgd1na2vs0mg"},{"bike_id":"5f7d7ab8-22eb-44f4-b629-9cb567806cf8","system_id":"levelo_inurba_marseille","lat":43.22933,"lon":5.3538,"is_reserved":false,"is_disabled":false,"rental_uris":{"android":"levelo://app?vid=5f7d7ab8-22eb-44f4-b629-9cb567806cf8","ios":"levelo://app?vid=5f7d7ab8-22eb-44f4-b629-9cb567806cf8"},"vehicle_type_id":"4","last_reported":1768554992,"current_range_meters":3600,"station_id":"cpo3532slgdg3j2ikp40","pricing_plan_id":"cebpf4jnsgd1na2vs0mg"},{"bike_id":"8d08df20-b125-4ef1-9f3d-6411ce886a8c","system_id":"levelo_inurba_marseille","lat":43.30942,"lon":5.39055,"is_reserved":false,"is_disabled":false,"rental_uris":{"android":"levelo://app?vid=8d08df20-b125-4ef1-9f3d-6411ce886a8c","ios":"levelo://app?vid=8d08df20-b125-4ef1-9f3d-6411ce886a8c"},"vehicle_type_id":"4","last_reported":1768554992,"current_range_meters":3600,"station_id":"ce4bgup2rcd13ifvqco0","pricing_plan_id":"cebpf4jnsgd1na2vs0mg"},{"bike_id":"d1437624-7325-4411-87ce-3009f56ae813","system_id":"levelo_inurba_marseille","lat":43.27796,"lon":5.40737,"is_reserved":false,"is_disabled":false,"rental_uris":{"android":"levelo://app?vid=d1437624-7325-4411-87ce-3009f56ae813","ios":"levelo://app?vid=d1437624-7325-4411-87ce-3009f56ae813"},"vehicle_type_id":"4","last_reported":1768554992,"current_range_meters":4000,"station_id":"ce4bhnh2rcd13ifvqgtg","pricing_plan_id":"cebpf4jnsgd1na2vs0mg"},{"bike_id":"6318b5d1-8688-42df-bb37-b8a06eeb9466","system_id":"levelo_inurba_marseille","lat":43.28611,"lon":5.35109,"is_reserved":false,"is_disabled":false,"rental_uris":{"android":"levelo://app?vid=6318b5d1-8688-42df-bb37-b8a06eeb9466","ios":"levelo://app?vid=6318b5d1-8688-42df-bb37-b8a06eeb9466"},"vehicle_type_id":"4","last_reported":1768554992,"current_range_meters":4000,"station_id":"ce4bhch2rcd13ifvqeug","pricing_plan_id":"cebpf4jnsgd1na2vs0mg"},{"bike_id":"05e16fb9-c29b-478d-98b3-025d2b880cd6","system_id":"levelo_inurba_marseille","lat":43.2498,"lon":5.39655,"is_reserved":false,"is_disabled":false,"rental_uris":{"android":"levelo://app?vid=05e16fb9-c29b-478d-98b3-025d2b880cd6","ios":"levelo://app?vid=05e16fb9-c29b-478d-98b3-025d2b880cd6"},"vehicle_type_id":"4","last_reported":1768554992,"current_range_meters":4000,"station_id":"","pricing_plan_id":"cebpf4jnsgd1na2vs0mg"},{"bike_id":"0e994130-a069-4140-bffc-1e19b05741b3","system_id":"levelo_inurba_marseille","lat":43.22555,"lon":5.41643,"is_reserved":false,"is_disabled":false,"rental_uris":{"android":"levelo://app?vid=0e994130-a069-4140-bffc-1e19b05741b3","ios":"levelo://app?vid=0e994130-a069-4140-bffc-1e19b05741b3"},"vehicle_type_id":"4","last_reported":1768554992,"current_range_meters":4000,"station_id":"st_d2o4gvlbi1j2169b742g","pricing_plan_id":"cebpf4jnsgd1na2vs0mg"},{"bike_id":"e23662c4-30cc-4919-8ee9-4ef7c2b72c54","system_id":"levelo_inurba_marseille","lat":43.30947,"lon":5.39032,"is_reserved":false,"is_disabled":false,"rental_uris":{"android":"levelo://app?vid=e23662c4-30cc-4919-8ee9-4ef7c2b72c54","ios":"levelo://app?vid=e23662c4-30cc-4919-8ee9-4ef7c2b72c54"},"vehicle_type_id":"4","last_reported":1768554992,"current_range_meters":4000,"station_id":"ce4bgup2rcd13ifvqco0","pricing_plan_id":"cebpf4jnsgd1na2vs0mg"},{"bike_id":"e003fee9-e905-4cfe-80f4-f93375901dd0","system_id":"levelo_inurba_marseille","lat":43.24804,"lon":5.37452,"is_reserved":false,"is_disabled":false,"rental_uris":{"android":"levelo://app?vid=e003fee9-e905-4cfe-80f4-f93375901dd0","ios":"levelo://app?vid=e003fee9-e905-4cfe-80f4-f93375901dd0"},"vehicle_type_id":"4","last_reported":1768554992,"current_range_meters":4000,"station_id":"ce4bhgh2rcd13ifvqfb0","pricing_plan_id":"cebpf4jnsgd1na2vs0mg"},{"bike_id":"de053820-f473-4d4f-8be6-7eb46f3d1ea3","system_id":"levelo_inurba_marseille","lat":43.310413,"lon":5.39334,"is_reserved":false,"is_disabled":false,"rental_uris":{"android":"levelo://app?vid=de053820-f473-4d4f-8be6-7eb46f3d1ea3","ios":"levelo://app?vid=de053820-f473-4d4f-8be6-7eb46f3d1ea3"},"vehicle_type_id":"4","last_reported":1768554992,"current_range_meters":4000,"station_id":"","pricing_plan_id":"cebpf4jnsgd1na2vs0mg"},{"bike_id":"ecf0d209-53b9-47e3-8f9f-faa8b0ad9eb4","system_id":"levelo_inurba_marseille","lat":43.24949,"lon":5.40509,"is_reserved":false,"is_disabled":false,"rental_uris":{"android":"levelo://app?vid=ecf0d209-53b9-47e3-8f9f-faa8b0ad9eb4","ios":"levelo://app?vid=ecf0d209-53b9-47e3-8f9f-faa8b0ad9eb4"},"vehicle_type_id":"4","last_reported":1768554992,"current_range_meters":4000,"station_id":"st_d2ngiaodas8pm72gd1h0","pricing_plan_id":"cebpf4jnsgd1na2vs0mg"},{"bike_id":"c11143a9-8914-416d-9e28-df854f870680","system_id":"levelo_inurba_marseille","lat":43.262273,"lon":5.404538,"is_reserved":false,"is_disabled":false,"rental_uris":{"android":"levelo://app?vid=c11143a9-8914-416d-9e28-df854f870680","ios":"levelo://app?vid=c11143a9-8914-416d-9e28-df854f870680"},"vehicle_type_id":"4","last_reported":1768554992,"current_range_meters":4000,"station_id":"ce4bhmh2rcd13ifvqgmg","pricing_plan_id":"cebpf4jnsgd1na2vs0mg"},{"bike_id":"931bef7a-46b6-4b69-9455-e5c7699b211c","system_id":"levelo_inurba_marseille","lat":43.24632,"lon":5.43144,"is_reserved":false,"is_disabled":false,"rental_uris":{"android":"levelo://app?vid=931bef7a-46b6-4b69-9455-e5c7699b211c","ios":"levelo://app?vid=931bef7a-46b6-4b69-9455-e5c7699b211c"},"vehicle_type_id":"4","last_reported":1768554992,"current_range_meters":4000,"station_id":"st_d2m6c4gdas8pm72e190g","pricing_plan_id":"cebpf4jnsgd1na2vs0mg"},{"bike_id":"10884917-94a1-4c81-b9da-9bec3c58d7a4","system_id":"levelo_inurba_marseille","lat":43.28613,"lon":5.3988,"is_reserved":false,"is_disabled":false,"rental_uris":{"android":"levelo://app?vid=10884917-94a1-4c81-b9da-9bec3c58d7a4","ios":"levelo://app?vid=10884917-94a1-4c81-b9da-9bec3c58d7a4"},"vehicle_type_id":"4","last_reported":1768554992,"current_range_meters":4000,"station_id":"st_d4a7ka997mjs738ck50g","pricing_plan_id":"cebpf4jnsgd1na2vs0mg"},{"bike_id":"301ae823-fb3e-427a-8fc7-0d20ac0eb1ee","system_id":"levelo_inurba_marseille","lat":43.29235,"lon":5.36456,"is_reserved":false,"is_disabled":false,"rental_uris":{"android":"levelo://app?vid=301ae823-fb3e-427a-8fc7-0d20ac0eb1ee","ios":"levelo://app?vid=301ae823-fb3e-427a-8fc7-0d20ac0eb1ee"},"vehicle_type_id":"4","last_reported":1768554992,"current_range_meters":4000,"station_id":"","pricing_plan_id":"cebpf4jnsgd1na2vs0mg"},{"bike_id":"5f2abf39-82c1-4faf-a962-23b017ef7ae2","system_id":"levelo_inurba_marseille","lat":43.29224,"lon":5.36063,"is_reserved":false,"is_disabled":false,"rental_uris":{"android":"levelo://app?vid=5f2abf39-82c1-4faf-a962-23b017ef7ae2","ios":"levelo://app?vid=5f2abf39-82c1-4faf-a962-23b017ef7ae2"},"vehicle_type_id":"4","last_reported":1768554992,"current_range_meters":4000,"station_id":"ce4bhbh2rcd13ifvqeqg","pricing_plan_id":"cebpf4jnsgd1na2vs0mg"},{"bike_id":"95ccb6e0-8913-49d8-be0f-743be5933fd8","system_id":"levelo_inurba_marseille","lat":43.24084,"lon":5.37748,"is_reserved":false,"is_disabled":false,"rental_uris":{"android":"levelo://app?vid=95ccb6e0-8913-49d8-be0f-743be5933fd8","ios":"levelo://app?vid=95ccb6e0-8913-49d8-be0f-743be5933fd8"},"vehicle_type_id":"4","last_reported":1768554992,"current_range_meters":4000,"station_id":"ce4bhnp2rcd13ifvqgvg","pricing_plan_id":"cebpf4jnsgd1na2vs0mg"},{"bike_id":"1146263c-3171-4775-93da-d30a074393f9","system_id":"levelo_inurba_marseille","lat":43.27355,"lon":5.42401,"is_reserved":false,"is_disabled":false,"rental_uris":{"android":"levelo://app?vid=1146263c-3171-4775-93da-d30a074393f9","ios":"levelo://app?vid=1146263c-3171-4775-93da-d30a074393f9"},"vehicle_type_id":"4","last_reported":1768554992,"current_range_meters":4000,"station_id":"","pricing_plan_id":"cebpf4jnsgd1na2vs0mg"},{"bike_id":"d14c563e-7d81-4312-b6b2-f8e7e772a5f6","system_id":"levelo_inurba_marseille","lat":43.24471,"lon":5.42531,"is_reserved":false,"is_disabled":false,"rental_uris":{"android":"levelo://app?vid=d14c563e-7d81-4312-b6b2-f8e7e772a5f6","ios":"levelo://app?vid=d14c563e-7d81-4312-b6b2-f8e7e772a5f6"},"vehicle_type_id":"4","last_reported":1768554992,"current_range_meters":4000,"station_id":"st_d4a3vfp97mjs738cd8kg","pricing_plan_id":"cebpf4jnsgd1na2vs0mg"},{"bike_id":"48ec1fe7-6d39-4c33-bbb8-981c396195cd","system_id":"levelo_inurba_marseille","lat":43.28856,"lon":5.3585,"is_reserved":false,"is_disabled":false,"rental_uris":{"android":"levelo://app?vid=48ec1fe7-6d39-4c33-bbb8-981c396195cd","ios":"levelo://app?vid=48ec1fe7-6d39-4c33-bbb8-981c396195cd"},"vehicle_type_id":"4","last_reported":1768554992,"current_range_meters":4400,"station_id":"ce4bhb12rcd13ifvqem0","pricing_plan_id":"cebpf4jnsgd1na2vs0mg"},{"bike_id":"41bcc576-3262-4c06-a0fd-4f105ce774f7","system_id":"levelo_inurba_marseille","lat":43.279921,"lon":5.400202,"is_reserved":false,"is_disabled":false,"rental_uris":{"android":"levelo://app?vid=41bcc576-3262-4c06-a0fd-4f105ce774f7","ios":"levelo://app?vid=41bcc576-3262-4c06-a0fd-4f105ce774f7"},"vehicle_type_id":"4","last_reported":1768554992,"current_range_meters":4400,"station_id":"ce4bho92rcd13ifvqh4g","pricing_plan_id":"cebpf4jnsgd1na2vs0mg"},{"bike_id":"91dbe188-56c8-4fce-a414-d6e43ed9eb6b","system_id":"levelo_inurba_marseille","lat":43.26719,"lon":5.3996,"is_reserved":false,"is_disabled":false,"rental_uris":{"android":"levelo://app?vid=91dbe188-56c8-4fce-a414-d6e43ed9eb6b","ios":"levelo://app?vid=91dbe188-56c8-4fce-a414-d6e43ed9eb6b"},"vehicle_type_id":"4","last_reported":1768554992,"current_range_meters":4400,"station_id":"","pricing_plan_id":"cebpf4jnsgd1na2vs0mg"},{"bike_id":"736ec16a-dc55-4587-9b1c-c917e562c9fe","system_id":"levelo_inurba_marseille","lat":43.25511,"lon":5.37671,"is_reserved":false,"is_disabled":false,"rental_uris":{"android":"levelo://app?vid=736ec16a-dc55-4587-9b1c-c917e562c9fe","ios":"levelo://app?vid=736ec16a-dc55-4587-9b1c-c917e562c9fe"},"vehicle_type_id":"4","last_reported":1768554992,"current_range_meters":4400,"station_id":"ce4bhh12rcd13ifvqff0","pricing_plan_id":"cebpf4jnsgd1na2vs0mg"},{"bike_id":"0cdf751e-50be-4213-adcd-ec4933b84284","system_id":"levelo_inurba_marseille","lat":43.285375,"lon":5.441113,"is_reserved":false,"is_disabled":false,"rental_uris":{"android":"levelo://app?vid=0cdf751e-50be-4213-adcd-ec4933b84284","ios":"levelo://app?vid=0cdf751e-50be-4213-adcd-ec4933b84284"},"vehicle_type_id":"4","last_reported":1768554992,"current_range_meters":4400,"station_id":"st_d3j3df2ikq2c7380ej80","pricing_plan_id":"cebpf4jnsgd1na2vs0mg"},{"bike_id":"d2d2d908-ffb6-4c0a-97f2-e5e034e39816","system_id":"levelo_inurba_marseille","lat":43.27944,"lon":5.40382,"is_reserved":false,"is_disabled":false,"rental_uris":{"android":"levelo://app?vid=d2d2d908-ffb6-4c0a-97f2-e5e034e39816","ios":"levelo://app?vid=d2d2d908-ffb6-4c0a-97f2-e5e034e39816"},"vehicle_type_id":"4","last_reported":1768554992,"current_range_meters":4400,"station_id":"","pricing_plan_id":"cebpf4jnsgd1na2vs0mg"},{"bike_id":"7a5c08cf-d90b-408e-a297-6ea242ed66a8","system_id":"levelo_inurba_marseille","lat":43.254983,"lon":5.376607,"is_reserved":false,"is_disabled":false,"rental_uris":{"android":"levelo://app?vid=7a5c08cf-d90b-408e-a297-6ea242ed66a8","ios":"levelo://app?vid=7a5c08cf-d90b-408e-a297-6ea242ed66a8"},"vehicle_type_id":"4","last_reported":1768554992,"current_range_meters":4400,"station_id":"ce4bhh12rcd13ifvqff0","pricing_plan_id":"cebpf4jnsgd1na2vs0mg"},{"bike_id":"0cd1e779-26e9-49c5-b773-f088de1cb9ab","system_id":"levelo_inurba_marseille","lat":43.26066,"lon":5.38523,"is_reserved":false,"is_disabled":false,"rental_uris":{"android":"levelo://app?vid=0cd1e779-26e9-49c5-b773-f088de1cb9ab","ios":"levelo://app?vid=0cd1e779-26e9-49c5-b773-f088de1cb9ab"},"vehicle_type_id":"4","last_reported":1768554992,"current_range_meters":4400,"station_id":"","pricing_plan_id":"cebpf4jnsgd1na2vs0mg"},{"bike_id":"bc2c6873-793e-49ff-99b1-ddd5c0fb58c7","system_id":"levelo_inurba_marseille","lat":43.309492,"lon":5.390397,"is_reserved":false,"is_disabled":false,"rental_uris":{"android":"levelo://app?vid=bc2c6873-793e-49ff-99b1-ddd5c0fb58c7","ios":"levelo://app?vid=bc2c6873-793e-49ff-99b1-ddd5c0fb58c7"},"vehicle_type_id":"4","last_reported":1768554992,"current_range_meters":4400,"station_id":"ce4bgup2rcd13ifvqco0","pricing_plan_id":"cebpf4jnsgd1na2vs0mg"},{"bike_id":"8ea47e76-4d6f-4a78-83f5-ab0a1828073d","system_id":"levelo_inurba_marseille","lat":43.22544,"lon":5.41651,"is_reserved":false,"is_disabled":false,"rental_uris":{"android":"levelo://app?vid=8ea47e76-4d6f-4a78-83f5-ab0a1828073d","ios":"levelo://app?vid=8ea47e76-4d6f-4a78-83f5-ab0a1828073d"},"vehicle_type_id":"4","last_reported":1768554992,"current_range_meters":4400,"station_id":"st_d2o4gvlbi1j2169b742g","pricing_plan_id":"cebpf4jnsgd1na2vs0mg"},{"bike_id":"5281c1a7-631f-48d9-b878-f2a4bb8da67b","system_id":"levelo_inurba_marseille","lat":43.334265,"lon":5.409172,"is_reserved":false,"is_disabled":false,"rental_uris":{"android":"levelo://app?vid=5281c1a7-631f-48d9-b878-f2a4bb8da67b","ios":"levelo://app?vid=5281c1a7-631f-48d9-b878-f2a4bb8da67b"},"vehicle_type_id":"4","last_reported":1768554992,"current_range_meters":4400,"station_id":"ce4bhqh2rcd13ifvqhmg","pricing_plan_id":"cebpf4jnsgd1na2vs0mg"},{"bike_id":"781bc84a-11eb-4281-a012-b107bf88c17d","system_id":"levelo_inurba_marseille","lat":43.3168,"lon":5.40471,"is_reserved":false,"is_disabled":false,"rental_uris":{"android":"levelo://app?vid=781bc84a-11eb-4281-a012-b107bf88c17d","ios":"levelo://app?vid=781bc84a-11eb-4281-a012-b107bf88c17d"},"vehicle_type_id":"4","last_reported":1768554992,"current_range_meters":4400,"station_id":"ce4bh012rcd13ifvqd00","pricing_plan_id":"cebpf4jnsgd1na2vs0mg"},{"bike_id":"342bea6f-2102-471d-af80-955bfe929d6a","system_id":"levelo_inurba_marseille","lat":43.21747,"lon":5.34604,"is_reserved":false,"is_disabled":false,"rental_uris":{"android":"levelo://app?vid=342bea6f-2102-471d-af80-955bfe929d6a","ios":"levelo://app?vid=342bea6f-2102-471d-af80-955bfe929d6a"},"vehicle_type_id":"4","last_reported":1768554992,"current_range_meters":4400,"station_id":"","pricing_plan_id":"cebpf4jnsgd1na2vs0mg"},{"bike_id":"7c13900c-9ba6-4085-bea5-af3b0d13af71","system_id":"levelo_inurba_marseille","lat":43.29627,"lon":5.38005,"is_reserved":false,"is_disabled":false,"rental_uris":{"android":"levelo://app?vid=7c13900c-9ba6-4085-bea5-af3b0d13af71","ios":"levelo://app?vid=7c13900c-9ba6-4085-bea5-af3b0d13af71"},"vehicle_type_id":"4","last_reported":1768554992,"current_range_meters":4800,"station_id":"","pricing_plan_id":"cebpf4jnsgd1na2vs0mg"},{"bike_id":"75422019-3005-404c-b749-06eb292054c7","system_id":"levelo_inurba_marseille","lat":43.25002,"lon":5.38936,"is_reserved":false,"is_disabled":false,"rental_uris":{"android":"levelo://app?vid=75422019-3005-404c-b749-06eb292054c7","ios":"levelo://app?vid=75422019-3005-404c-b749-06eb292054c7"},"vehicle_type_id":"4","last_reported":1768554992,"current_range_meters":4800,"station_id":"ce4bhgp2rcd13ifvqfd0","pricing_plan_id":"cebpf4jnsgd1na2vs0mg"},{"bike_id":"2618b71e-e626-4cbf-aa0f-e06cd864aacc","system_id":"levelo_inurba_marseille","lat":43.2482,"lon":5.3746,"is_reserved":false,"is_disabled":false,"rental_uris":{"android":"levelo://app?vid=2618b71e-e626-4cbf-aa0f-e06cd864aacc","ios":"levelo://app?vid=2618b71e-e626-4cbf-aa0f-e06cd864aacc"},"vehicle_type_id":"4","last_reported":1768554992,"current_range_meters":4800,"station_id":"ce4bhgh2rcd13ifvqfb0","pricing_plan_id":"cebpf4jnsgd1na2vs0mg"},{"bike_id":"e5aa787f-c7e4-4b02-b6ed-ac65ac7744ea","system_id":"levelo_inurba_marseille","lat":43.23192,"lon":5.39995,"is_reserved":false,"is_disabled":false,"rental_uris":{"android":"levelo://app?vid=e5aa787f-c7e4-4b02-b6ed-ac65ac7744ea","ios":"levelo://app?vid=e5aa787f-c7e4-4b02-b6ed-ac65ac7744ea"},"vehicle_type_id":"4","last_reported":1768554992,"current_range_meters":4800,"station_id":"ce4bhn12rcd13ifvqgqg","pricing_plan_id":"cebpf4jnsgd1na2vs0mg"},{"bike_id":"34dcdeca-0070-4c3e-b70b-1159e7b982f2","system_id":"levelo_inurba_marseille","lat":43.3059,"lon":5.37234,"is_reserved":false,"is_disabled":false,"rental_uris":{"android":"levelo://app?vid=34dcdeca-0070-4c3e-b70b-1159e7b982f2","ios":"levelo://app?vid=34dcdeca-0070-4c3e-b70b-1159e7b982f2"},"vehicle_type_id":"4","last_reported":1768554992,"current_range_meters":4800,"station_id":"ce4bgqh2rcd13ifvqc4g","pricing_plan_id":"cebpf4jnsgd1na2vs0mg"},{"bike_id":"f0f77a0a-fb63-466f-8221-ca4aa28e90e6","system_id":"levelo_inurba_marseille","lat":43.247939,"lon":5.3746,"is_reserved":false,"is_disabled":false,"rental_uris":{"android":"levelo://app?vid=f0f77a0a-fb63-466f-8221-ca4aa28e90e6","ios":"levelo://app?vid=f0f77a0a-fb63-466f-8221-ca4aa28e90e6"},"vehicle_type_id":"4","last_reported":1768554992,"current_range_meters":5600,"station_id":"ce4bhgh2rcd13ifvqfb0","pricing_plan_id":"cebpf4jnsgd1na2vs0mg"},{"bike_id":"aa604964-25e0-4fb8-b7cb-fa8cccd0cf05","system_id":"levelo_inurba_marseille","lat":43.30533,"lon":5.36714,"is_reserved":false,"is_disabled":false,"rental_uris":{"android":"levelo://app?vid=aa604964-25e0-4fb8-b7cb-fa8cccd0cf05","ios":"levelo://app?vid=aa604964-25e0-4fb8-b7cb-fa8cccd0cf05"},"vehicle_type_id":"4","last_reported":1768554992,"current_range_meters":5600,"station_id":"ce4bgrp2rcd13ifvqc9g","pricing_plan_id":"cebpf4jnsgd1na2vs0mg"},{"bike_id":"ccc662fc-472c-4c24-a386-f8f1a4f0aa1b","system_id":"levelo_inurba_marseille","lat":43.29756,"lon":5.4278,"is_reserved":false,"is_disabled":false,"rental_uris":{"android":"levelo://app?vid=ccc662fc-472c-4c24-a386-f8f1a4f0aa1b","ios":"levelo://app?vid=ccc662fc-472c-4c24-a386-f8f1a4f0aa1b"},"vehicle_type_id":"4","last_reported":1768554992,"current_range_meters":5600,"station_id":"st_d3md5207bmas73dh9klg","pricing_plan_id":"cebpf4jnsgd1na2vs0mg"},{"bike_id":"04445095-b038-41a3-a0ad-fec8f36b4c83","system_id":"levelo_inurba_marseille","lat":43.25797,"lon":5.39403,"is_reserved":false,"is_disabled":false,"rental_uris":{"android":"levelo://app?vid=04445095-b038-41a3-a0ad-fec8f36b4c83","ios":"levelo://app?vid=04445095-b038-41a3-a0ad-fec8f36b4c83"},"vehicle_type_id":"4","last_reported":1768554992,"current_range_meters":5600,"station_id":"ce4bhip2rcd13ifvqft0","pricing_plan_id":"cebpf4jnsgd1na2vs0mg"},{"bike_id":"a72e0f17-51ac-4191-862c-e4e646239bdd","system_id":"levelo_inurba_marseille","lat":43.30369,"lon":5.38692,"is_reserved":false,"is_disabled":false,"rental_uris":{"android":"levelo://app?vid=a72e0f17-51ac-4191-862c-e4e646239bdd","ios":"levelo://app?vid=a72e0f17-51ac-4191-862c-e4e646239bdd"},"vehicle_type_id":"4","last_reported":1768554992,"current_range_meters":5600,"station_id":"","pricing_plan_id":"cebpf4jnsgd1na2vs0mg"},{"bike_id":"8e1f1ed2-bc25-4426-af81-32cf1e4d20f3","system_id":"levelo_inurba_marseille","lat":43.31764,"lon":5.39017,"is_reserved":false,"is_disabled":false,"rental_uris":{"android":"levelo://app?vid=8e1f1ed2-bc25-4426-af81-32cf1e4d20f3","ios":"levelo://app?vid=8e1f1ed2-bc25-4426-af81-32cf1e4d20f3"},"vehicle_type_id":"4","last_reported":1768554992,"current_range_meters":5600,"station_id":"ce4bhqp2rcd13ifvqhng","pricing_plan_id":"cebpf4jnsgd1na2vs0mg"},{"bike_id":"f4bc8881-cafb-4d21-83b9-8e903d2e8cd8","system_id":"levelo_inurba_marseille","lat":43.331536,"lon":5.376948,"is_reserved":false,"is_disabled":false,"rental_uris":{"android":"levelo://app?vid=f4bc8881-cafb-4d21-83b9-8e903d2e8cd8","ios":"levelo://app?vid=f4bc8881-cafb-4d21-83b9-8e903d2e8cd8"},"vehicle_type_id":"4","last_reported":1768554992,"current_range_meters":5600,"station_id":"st_d46cu089ee8s73dldbu0","pricing_plan_id":"cebpf4jnsgd1na2vs0mg"},{"bike_id":"670244d9-860f-43b0-821d-63295f48db9a","system_id":"levelo_inurba_marseille","lat":43.26951,"lon":5.38641,"is_reserved":false,"is_disabled":false,"rental_uris":{"android":"levelo://app?vid=670244d9-860f-43b0-821d-63295f48db9a","ios":"levelo://app?vid=670244d9-860f-43b0-821d-63295f48db9a"},"vehicle_type_id":"4","last_reported":1768554992,"current_range_meters":5600,"station_id":"ce4bhh92rcd13ifvqfh0","pricing_plan_id":"cebpf4jnsgd1na2vs0mg"},{"bike_id":"28ddd308-cd13-490c-8fbb-bb3e2de42d8b","system_id":"levelo_inurba_marseille","lat":43.27563,"lon":5.38433,"is_reserved":false,"is_disabled":false,"rental_uris":{"android":"levelo://app?vid=28ddd308-cd13-490c-8fbb-bb3e2de42d8b","ios":"levelo://app?vid=28ddd308-cd13-490c-8fbb-bb3e2de42d8b"},"vehicle_type_id":"4","last_reported":1768554992,"current_range_meters":5600,"station_id":"ce4bhh92rcd13ifvqfi0","pricing_plan_id":"cebpf4jnsgd1na2vs0mg"},{"bike_id":"aa052026-4171-4dd2-90aa-20823d705d48","system_id":"levelo_inurba_marseille","lat":43.27962,"lon":5.38742,"is_reserved":false,"is_disabled":false,"rental_uris":{"android":"levelo://app?vid=aa052026-4171-4dd2-90aa-20823d705d48","ios":"levelo://app?vid=aa052026-4171-4dd2-90aa-20823d705d48"},"vehicle_type_id":"4","last_reported":1768554992,"current_range_meters":5600,"station_id":"ce4bhg12rcd13ifvqf80","pricing_plan_id":"cebpf4jnsgd1na2vs0mg"},{"bike_id":"e7c5bcf4-ee16-4131-8a48-31a17fc8bd8c","system_id":"levelo_inurba_marseille","lat":43.28943,"lon":5.364,"is_reserved":false,"is_disabled":false,"rental_uris":{"android":"levelo://app?vid=e7c5bcf4-ee16-4131-8a48-31a17fc8bd8c","ios":"levelo://app?vid=e7c5bcf4-ee16-4131-8a48-31a17fc8bd8c"},"vehicle_type_id":"4","last_reported":1768554992,"current_range_meters":5600,"station_id":"ce4bhc92rcd13ifvqetg","pricing_plan_id":"cebpf4jnsgd1na2vs0mg"},{"bike_id":"7163724e-7d88-4ab5-909f-51d27f65f7d8","system_id":"levelo_inurba_marseille","lat":43.285,"lon":5.44123,"is_reserved":false,"is_disabled":false,"rental_uris":{"android":"levelo://app?vid=7163724e-7d88-4ab5-909f-51d27f65f7d8","ios":"levelo://app?vid=7163724e-7d88-4ab5-909f-51d27f65f7d8"},"vehicle_type_id":"4","last_reported":1768554992,"current_range_meters":6000,"station_id":"st_d3j3df2ikq2c7380ej80","pricing_plan_id":"cebpf4jnsgd1na2vs0mg"},{"bike_id":"f2c787eb-1b36-4e92-b487-3132386b8e37","system_id":"levelo_inurba_marseille","lat":43.24808,"lon":5.3746,"is_reserved":false,"is_disabled":false,"rental_uris":{"android":"levelo://app?vid=f2c787eb-1b36-4e92-b487-3132386b8e37","ios":"levelo://app?vid=f2c787eb-1b36-4e92-b487-3132386b8e37"},"vehicle_type_id":"4","last_reported":1768554992,"current_range_meters":6000,"station_id":"ce4bhgh2rcd13ifvqfb0","pricing_plan_id":"cebpf4jnsgd1na2vs0mg"},{"bike_id":"f7da8307-fc80-4c59-b378-434d9b060152","system_id":"levelo_inurba_marseille","lat":43.2862,"lon":5.35101,"is_reserved":false,"is_disabled":false,"rental_uris":{"android":"levelo://app?vid=f7da8307-fc80-4c59-b378-434d9b060152","ios":"levelo://app?vid=f7da8307-fc80-4c59-b378-434d9b060152"},"vehicle_type_id":"4","last_reported":1768554992,"current_range_meters":6000,"station_id":"ce4bhch2rcd13ifvqeug","pricing_plan_id":"cebpf4jnsgd1na2vs0mg"},{"bike_id":"de462c6d-08a0-472d-a442-937e88112acc","system_id":"levelo_inurba_marseille","lat":43.31081,"lon":5.4243,"is_reserved":false,"is_disabled":false,"rental_uris":{"android":"levelo://app?vid=de462c6d-08a0-472d-a442-937e88112acc","ios":"levelo://app?vid=de462c6d-08a0-472d-a442-937e88112acc"},"vehicle_type_id":"4","last_reported":1768554992,"current_range_meters":6000,"station_id":"ce4bhp92rcd13ifvqhag","pricing_plan_id":"cebpf4jnsgd1na2vs0mg"},{"bike_id":"c09217be-6b6e-4d0c-803f-4bd85f6cf8ec","system_id":"levelo_inurba_marseille","lat":43.29102,"lon":5.38135,"is_reserved":false,"is_disabled":false,"rental_uris":{"android":"levelo://app?vid=c09217be-6b6e-4d0c-803f-4bd85f6cf8ec","ios":"levelo://app?vid=c09217be-6b6e-4d0c-803f-4bd85f6cf8ec"},"vehicle_type_id":"4","last_reported":1768554992,"current_range_meters":6000,"station_id":"ce4bh512rcd13ifvqe2g","pricing_plan_id":"cebpf4jnsgd1na2vs0mg"},{"bike_id":"f95bc25d-369a-46e5-8408-f3bc217332e3","system_id":"levelo_inurba_marseille","lat":43.303,"lon":5.39197,"is_reserved":false,"is_disabled":false,"rental_uris":{"android":"levelo://app?vid=f95bc25d-369a-46e5-8408-f3bc217332e3","ios":"levelo://app?vid=f95bc25d-369a-46e5-8408-f3bc217332e3"},"vehicle_type_id":"4","last_reported":1768554992,"current_range_meters":6000,"station_id":"ce4bgkh2rcd13ifvqbk0","pricing_plan_id":"cebpf4jnsgd1na2vs0mg"},{"bike_id":"13c7c20f-0feb-4e4c-b067-68cfe4794af8","system_id":"levelo_inurba_marseille","lat":43.288901,"lon":5.384207,"is_reserved":false,"is_disabled":false,"rental_uris":{"android":"levelo://app?vid=13c7c20f-0feb-4e4c-b067-68cfe4794af8","ios":"levelo://app?vid=13c7c20f-0feb-4e4c-b067-68cfe4794af8"},"vehicle_type_id":"4","last_reported":1768554992,"current_range_meters":6000,"station_id":"ce4bh612rcd13ifvqe6g","pricing_plan_id":"cebpf4jnsgd1na2vs0mg"},{"bike_id":"e1006462-68a0-4ccc-a6ad-e2bac9c35aea","system_id":"levelo_inurba_marseille","lat":43.25322,"lon":5.42159,"is_reserved":false,"is_disabled":false,"rental_uris":{"android":"levelo://app?vid=e1006462-68a0-4ccc-a6ad-e2bac9c35aea","ios":"levelo://app?vid=e1006462-68a0-4ccc-a6ad-e2bac9c35aea"},"vehicle_type_id":"4","last_reported":1768554992,"current_range_meters":6000,"station_id":"st_d2m65c5bi1j21697t3ng","pricing_plan_id":"cebpf4jnsgd1na2vs0mg"},{"bike_id":"72732f49-f437-43a3-a9c8-ede386435161","system_id":"levelo_inurba_marseille","lat":43.3012,"lon":5.37436,"is_reserved":false,"is_disabled":false,"rental_uris":{"android":"levelo://app?vid=72732f49-f437-43a3-a9c8-ede386435161","ios":"levelo://app?vid=72732f49-f437-43a3-a9c8-ede386435161"},"vehicle_type_id":"4","last_reported":1768554992,"current_range_meters":6000,"station_id":"ce4bgs92rcd13ifvqcc0","pricing_plan_id":"cebpf4jnsgd1na2vs0mg"},{"bike_id":"59114d52-10ab-4136-bcf0-99b15d1b3027","system_id":"levelo_inurba_marseille","lat":43.27497,"lon":5.4246,"is_reserved":false,"is_disabled":false,"rental_uris":{"android":"levelo://app?vid=59114d52-10ab-4136-bcf0-99b15d1b3027","ios":"levelo://app?vid=59114d52-10ab-4136-bcf0-99b15d1b3027"},"vehicle_type_id":"4","last_reported":1768554992,"current_range_meters":6000,"station_id":"ce4bhn92rcd13ifvqgrg","pricing_plan_id":"cebpf4jnsgd1na2vs0mg"},{"bike_id":"90218040-6582-4aa2-8913-05c76010fcbf","system_id":"levelo_inurba_marseille","lat":43.237823,"lon":5.366283,"is_reserved":false,"is_disabled":false,"rental_uris":{"android":"levelo://app?vid=90218040-6582-4aa2-8913-05c76010fcbf","ios":"levelo://app?vid=90218040-6582-4aa2-8913-05c76010fcbf"},"vehicle_type_id":"4","last_reported":1768554992,"current_range_meters":6000,"station_id":"st_d3nk18o9ro0c73en2l3g","pricing_plan_id":"cebpf4jnsgd1na2vs0mg"},{"bike_id":"d232944c-9760-43bc-beb3-acf611cdb292","system_id":"levelo_inurba_marseille","lat":43.29932,"lon":5.38277,"is_reserved":false,"is_disabled":false,"rental_uris":{"android":"levelo://app?vid=d232944c-9760-43bc-beb3-acf611cdb292","ios":"levelo://app?vid=d232944c-9760-43bc-beb3-acf611cdb292"},"vehicle_type_id":"4","last_reported":1768554992,"current_range_meters":6400,"station_id":"","pricing_plan_id":"cebpf4jnsgd1na2vs0mg"},{"bike_id":"9798252a-9361-46ce-9695-59458b1329bc","system_id":"levelo_inurba_marseille","lat":43.23191,"lon":5.35558,"is_reserved":false,"is_disabled":false,"rental_uris":{"android":"levelo://app?vid=9798252a-9361-46ce-9695-59458b1329bc","ios":"levelo://app?vid=9798252a-9361-46ce-9695-59458b1329bc"},"vehicle_type_id":"4","last_reported":1768554992,"current_range_meters":6400,"station_id":"ce4bhu92rcd13ifvqi70","pricing_plan_id":"cebpf4jnsgd1na2vs0mg"},{"bike_id":"d10c0024-e2ec-401f-bf30-95042a990a73","system_id":"levelo_inurba_marseille","lat":43.28153,"lon":5.42647,"is_reserved":false,"is_disabled":false,"rental_uris":{"android":"levelo://app?vid=d10c0024-e2ec-401f-bf30-95042a990a73","ios":"levelo://app?vid=d10c0024-e2ec-401f-bf30-95042a990a73"},"vehicle_type_id":"4","last_reported":1768554992,"current_range_meters":6400,"station_id":"ce4bhnh2rcd13ifvqgug","pricing_plan_id":"cebpf4jnsgd1na2vs0mg"},{"bike_id":"0105de79-43a8-4de9-af65-6d3d110a6400","system_id":"levelo_inurba_marseille","lat":43.24165,"lon":5.3973,"is_reserved":false,"is_disabled":false,"rental_uris":{"android":"levelo://app?vid=0105de79-43a8-4de9-af65-6d3d110a6400","ios":"levelo://app?vid=0105de79-43a8-4de9-af65-6d3d110a6400"},"vehicle_type_id":"4","last_reported":1768554992,"current_range_meters":6400,"station_id":"ce4bhn12rcd13ifvqgpg","pricing_plan_id":"cebpf4jnsgd1na2vs0mg"},{"bike_id":"50308098-7f96-4841-9f28-1e10c2b49358","system_id":"levelo_inurba_marseille","lat":43.24081,"lon":5.37767,"is_reserved":false,"is_disabled":false,"rental_uris":{"android":"levelo://app?vid=50308098-7f96-4841-9f28-1e10c2b49358","ios":"levelo://app?vid=50308098-7f96-4841-9f28-1e10c2b49358"},"vehicle_type_id":"4","last_reported":1768554992,"current_range_meters":6400,"station_id":"ce4bhnp2rcd13ifvqgvg","pricing_plan_id":"cebpf4jnsgd1na2vs0mg"},{"bike_id":"203f5616-80aa-4ff4-a535-c20ea59e1eca","system_id":"levelo_inurba_marseille","lat":43.31159,"lon":5.38736,"is_reserved":false,"is_disabled":false,"rental_uris":{"android":"levelo://app?vid=203f5616-80aa-4ff4-a535-c20ea59e1eca","ios":"levelo://app?vid=203f5616-80aa-4ff4-a535-c20ea59e1eca"},"vehicle_type_id":"4","last_reported":1768554992,"current_range_meters":6400,"station_id":"","pricing_plan_id":"cebpf4jnsgd1na2vs0mg"},{"bike_id":"a6efb7b3-8c44-4a6c-92e4-ed7eb57f41e2","system_id":"levelo_inurba_marseille","lat":43.28445,"lon":5.36777,"is_reserved":false,"is_disabled":false,"rental_uris":{"android":"levelo://app?vid=a6efb7b3-8c44-4a6c-92e4-ed7eb57f41e2","ios":"levelo://app?vid=a6efb7b3-8c44-4a6c-92e4-ed7eb57f41e2"},"vehicle_type_id":"4","last_reported":1768554992,"current_range_meters":6400,"station_id":"","pricing_plan_id":"cebpf4jnsgd1na2vs0mg"},{"bike_id":"8875f8cc-07a8-40ca-92de-9f4ce77fad56","system_id":"levelo_inurba_marseille","lat":43.28447,"lon":5.38655,"is_reserved":false,"is_disabled":false,"rental_uris":{"android":"levelo://app?vid=8875f8cc-07a8-40ca-92de-9f4ce77fad56","ios":"levelo://app?vid=8875f8cc-07a8-40ca-92de-9f4ce77fad56"},"vehicle_type_id":"4","last_reported":1768554992,"current_range_meters":6400,"station_id":"","pricing_plan_id":"cebpf4jnsgd1na2vs0mg"},{"bike_id":"ceb127dd-c990-4e84-9bd5-10a36add8b4c","system_id":"levelo_inurba_marseille","lat":43.280009,"lon":5.400106,"is_reserved":false,"is_disabled":false,"rental_uris":{"android":"levelo://app?vid=ceb127dd-c990-4e84-9bd5-10a36add8b4c","ios":"levelo://app?vid=ceb127dd-c990-4e84-9bd5-10a36add8b4c"},"vehicle_type_id":"4","last_reported":1768554992,"current_range_meters":6400,"station_id":"ce4bho92rcd13ifvqh4g","pricing_plan_id":"cebpf4jnsgd1na2vs0mg"},{"bike_id":"753ccbc1-bc1b-4429-8a43-0dcf4c26b7fc","system_id":"levelo_inurba_marseille","lat":43.33162,"lon":5.37703,"is_reserved":false,"is_disabled":false,"rental_uris":{"android":"levelo://app?vid=753ccbc1-bc1b-4429-8a43-0dcf4c26b7fc","ios":"levelo://app?vid=753ccbc1-bc1b-4429-8a43-0dcf4c26b7fc"},"vehicle_type_id":"4","last_reported":1768554992,"current_range_meters":6400,"station_id":"st_d46cu089ee8s73dldbu0","pricing_plan_id":"cebpf4jnsgd1na2vs0mg"},{"bike_id":"0aaffd21-6317-47b2-85da-6b9bfa421a46","system_id":"levelo_inurba_marseille","lat":43.29824,"lon":5.37664,"is_reserved":false,"is_disabled":false,"rental_uris":{"android":"levelo://app?vid=0aaffd21-6317-47b2-85da-6b9bfa421a46","ios":"levelo://app?vid=0aaffd21-6317-47b2-85da-6b9bfa421a46"},"vehicle_type_id":"4","last_reported":1768554992,"current_range_meters":6400,"station_id":"","pricing_plan_id":"cebpf4jnsgd1na2vs0mg"},{"bike_id":"980d7ebb-418f-4873-8f03-823736355ef5","system_id":"levelo_inurba_marseille","lat":43.25691,"lon":5.41148,"is_reserved":false,"is_disabled":false,"rental_uris":{"android":"levelo://app?vid=980d7ebb-418f-4873-8f03-823736355ef5","ios":"levelo://app?vid=980d7ebb-418f-4873-8f03-823736355ef5"},"vehicle_type_id":"4","last_reported":1768554992,"current_range_meters":6400,"station_id":"ce4bhkp2rcd13ifvqgd0","pricing_plan_id":"cebpf4jnsgd1na2vs0mg"},{"bike_id":"638b57f0-e177-456e-92ab-6d85fd7991f5","system_id":"levelo_inurba_marseille","lat":43.28926,"lon":5.39623,"is_reserved":false,"is_disabled":false,"rental_uris":{"android":"levelo://app?vid=638b57f0-e177-456e-92ab-6d85fd7991f5","ios":"levelo://app?vid=638b57f0-e177-456e-92ab-6d85fd7991f5"},"vehicle_type_id":"4","last_reported":1768554992,"current_range_meters":6400,"station_id":"ce4bh3h2rcd13ifvqdn0","pricing_plan_id":"cebpf4jnsgd1na2vs0mg"},{"bike_id":"ec42ced4-c175-4845-8cd8-3f5093934f08","system_id":"levelo_inurba_marseille","lat":43.30285,"lon":5.36878,"is_reserved":false,"is_disabled":false,"rental_uris":{"android":"levelo://app?vid=ec42ced4-c175-4845-8cd8-3f5093934f08","ios":"levelo://app?vid=ec42ced4-c175-4845-8cd8-3f5093934f08"},"vehicle_type_id":"4","last_reported":1768554992,"current_range_meters":6400,"station_id":"ce4bgqh2rcd13ifvqc5g","pricing_plan_id":"cebpf4jnsgd1na2vs0mg"},{"bike_id":"ca4179ba-d96b-437c-ae35-312b23a32116","system_id":"levelo_inurba_marseille","lat":43.255752,"lon":5.38225,"is_reserved":false,"is_disabled":false,"rental_uris":{"android":"levelo://app?vid=ca4179ba-d96b-437c-ae35-312b23a32116","ios":"levelo://app?vid=ca4179ba-d96b-437c-ae35-312b23a32116"},"vehicle_type_id":"4","last_reported":1768554992,"current_range_meters":6400,"station_id":"ce4bhih2rcd13ifvqfs0","pricing_plan_id":"cebpf4jnsgd1na2vs0mg"},{"bike_id":"c1b6ead1-a25e-4241-b106-d77bd16dc112","system_id":"levelo_inurba_marseille","lat":43.31113,"lon":5.37777,"is_reserved":false,"is_disabled":false,"rental_uris":{"android":"levelo://app?vid=c1b6ead1-a25e-4241-b106-d77bd16dc112","ios":"levelo://app?vid=c1b6ead1-a25e-4241-b106-d77bd16dc112"},"vehicle_type_id":"4","last_reported":1768554992,"current_range_meters":6400,"station_id":"ce4bgt92rcd13ifvqcg0","pricing_plan_id":"cebpf4jnsgd1na2vs0mg"},{"bike_id":"7a86726c-97ed-4911-a6e7-fec95faf1904","system_id":"levelo_inurba_marseille","lat":43.29743,"lon":5.42785,"is_reserved":false,"is_disabled":false,"rental_uris":{"android":"levelo://app?vid=7a86726c-97ed-4911-a6e7-fec95faf1904","ios":"levelo://app?vid=7a86726c-97ed-4911-a6e7-fec95faf1904"},"vehicle_type_id":"4","last_reported":1768554992,"current_range_meters":6400,"station_id":"st_d3md5207bmas73dh9klg","pricing_plan_id":"cebpf4jnsgd1na2vs0mg"},{"bike_id":"8a9c8e19-0485-48d1-8b64-257ddb3efc73","system_id":"levelo_inurba_marseille","lat":43.299193,"lon":5.374455,"is_reserved":false,"is_disabled":false,"rental_uris":{"android":"levelo://app?vid=8a9c8e19-0485-48d1-8b64-257ddb3efc73","ios":"levelo://app?vid=8a9c8e19-0485-48d1-8b64-257ddb3efc73"},"vehicle_type_id":"4","last_reported":1768554992,"current_range_meters":6400,"station_id":"ce4bgjh2rcd13ifvqbg0","pricing_plan_id":"cebpf4jnsgd1na2vs0mg"},{"bike_id":"3b5c4f84-7f90-4474-adba-916a9c8db3a2","system_id":"levelo_inurba_marseille","lat":43.320331,"lon":5.415627,"is_reserved":false,"is_disabled":false,"rental_uris":{"android":"levelo://app?vid=3b5c4f84-7f90-4474-adba-916a9c8db3a2","ios":"levelo://app?vid=3b5c4f84-7f90-4474-adba-916a9c8db3a2"},"vehicle_type_id":"4","last_reported":1768554992,"current_range_meters":6400,"station_id":"ce4bhq92rcd13ifvqhkg","pricing_plan_id":"cebpf4jnsgd1na2vs0mg"},{"bike_id":"0ce3cc02-2962-4286-804f-4dc1590de945","system_id":"levelo_inurba_marseille","lat":43.25582,"lon":5.38259,"is_reserved":false,"is_disabled":false,"rental_uris":{"android":"levelo://app?vid=0ce3cc02-2962-4286-804f-4dc1590de945","ios":"levelo://app?vid=0ce3cc02-2962-4286-804f-4dc1590de945"},"vehicle_type_id":"4","last_reported":1768554992,"current_range_meters":6400,"station_id":"ce4bhih2rcd13ifvqfs0","pricing_plan_id":"cebpf4jnsgd1na2vs0mg"},{"bike_id":"3b06d8ac-0c0e-4815-baae-3f6b7bfae72e","system_id":"levelo_inurba_marseille","lat":43.34164,"lon":5.36029,"is_reserved":false,"is_disabled":false,"rental_uris":{"android":"levelo://app?vid=3b06d8ac-0c0e-4815-baae-3f6b7bfae72e","ios":"levelo://app?vid=3b06d8ac-0c0e-4815-baae-3f6b7bfae72e"},"vehicle_type_id":"4","last_reported":1768554992,"current_range_meters":6400,"station_id":"","pricing_plan_id":"cebpf4jnsgd1na2vs0mg"},{"bike_id":"57c02c57-a422-4dde-95a9-5646f70f026f","system_id":"levelo_inurba_marseille","lat":43.25921,"lon":5.40901,"is_reserved":false,"is_disabled":false,"rental_uris":{"android":"levelo://app?vid=57c02c57-a422-4dde-95a9-5646f70f026f","ios":"levelo://app?vid=57c02c57-a422-4dde-95a9-5646f70f026f"},"vehicle_type_id":"4","last_reported":1768554992,"current_range_meters":6400,"station_id":"ce4bhm92rcd13ifvqglg","pricing_plan_id":"cebpf4jnsgd1na2vs0mg"},{"bike_id":"fb1bdb34-54ea-4e5c-92b9-fac41a4f955c","system_id":"levelo_inurba_marseille","lat":43.244718,"lon":5.425355,"is_reserved":false,"is_disabled":false,"rental_uris":{"android":"levelo://app?vid=fb1bdb34-54ea-4e5c-92b9-fac41a4f955c","ios":"levelo://app?vid=fb1bdb34-54ea-4e5c-92b9-fac41a4f955c"},"vehicle_type_id":"4","last_reported":1768554992,"current_range_meters":6400,"station_id":"st_d4a3vfp97mjs738cd8kg","pricing_plan_id":"cebpf4jnsgd1na2vs0mg"},{"bike_id":"d573dea0-84f2-4278-9343-3e80901c823b","system_id":"levelo_inurba_marseille","lat":43.31518,"lon":5.37866,"is_reserved":false,"is_disabled":false,"rental_uris":{"android":"levelo://app?vid=d573dea0-84f2-4278-9343-3e80901c823b","ios":"levelo://app?vid=d573dea0-84f2-4278-9343-3e80901c823b"},"vehicle_type_id":"4","last_reported":1768554992,"current_range_meters":6400,"station_id":"","pricing_plan_id":"cebpf4jnsgd1na2vs0mg"},{"bike_id":"84a64c9c-ed4f-4996-9c9c-4015389b1dd3","system_id":"levelo_inurba_marseille","lat":43.337655,"lon":5.374447,"is_reserved":false,"is_disabled":false,"rental_uris":{"android":"levelo://app?vid=84a64c9c-ed4f-4996-9c9c-4015389b1dd3","ios":"levelo://app?vid=84a64c9c-ed4f-4996-9c9c-4015389b1dd3"},"vehicle_type_id":"4","last_reported":1768554992,"current_range_meters":6400,"station_id":"","pricing_plan_id":"cebpf4jnsgd1na2vs0mg"},{"bike_id":"24b13bde-24a6-4a9e-8d0f-a64c87085dc9","system_id":"levelo_inurba_marseille","lat":43.29882,"lon":5.38323,"is_reserved":false,"is_disabled":false,"rental_uris":{"android":"levelo://app?vid=24b13bde-24a6-4a9e-8d0f-a64c87085dc9","ios":"levelo://app?vid=24b13bde-24a6-4a9e-8d0f-a64c87085dc9"},"vehicle_type_id":"4","last_reported":1768554992,"current_range_meters":6400,"station_id":"","pricing_plan_id":"cebpf4jnsgd1na2vs0mg"},{"bike_id":"5379f5ed-da06-4adb-b823-51e71e531df4","system_id":"levelo_inurba_marseille","lat":43.246324,"lon":5.431401,"is_reserved":false,"is_disabled":false,"rental_uris":{"android":"levelo://app?vid=5379f5ed-da06-4adb-b823-51e71e531df4","ios":"levelo://app?vid=5379f5ed-da06-4adb-b823-51e71e531df4"},"vehicle_type_id":"4","last_reported":1768554992,"current_range_meters":6400,"station_id":"st_d2m6c4gdas8pm72e190g","pricing_plan_id":"cebpf4jnsgd1na2vs0mg"},{"bike_id":"f546a598-b504-471e-9b6d-f4786269b128","system_id":"levelo_inurba_marseille","lat":43.2519,"lon":5.38062,"is_reserved":false,"is_disabled":false,"rental_uris":{"android":"levelo://app?vid=f546a598-b504-471e-9b6d-f4786269b128","ios":"levelo://app?vid=f546a598-b504-471e-9b6d-f4786269b128"},"vehicle_type_id":"4","last_reported":1768554992,"current_range_meters":6400,"station_id":"","pricing_plan_id":"cebpf4jnsgd1na2vs0mg"},{"bike_id":"7465de0c-3252-438c-a1d0-10a150ee4d72","system_id":"levelo_inurba_marseille","lat":43.22933,"lon":5.353766,"is_reserved":false,"is_disabled":false,"rental_uris":{"android":"levelo://app?vid=7465de0c-3252-438c-a1d0-10a150ee4d72","ios":"levelo://app?vid=7465de0c-3252-438c-a1d0-10a150ee4d72"},"vehicle_type_id":"4","last_reported":1768554992,"current_range_meters":6400,"station_id":"cpo3532slgdg3j2ikp40","pricing_plan_id":"cebpf4jnsgd1na2vs0mg"},{"bike_id":"75bd07a1-006a-4818-b9a2-c5c80f6696a8","system_id":"levelo_inurba_marseille","lat":43.26229,"lon":5.40456,"is_reserved":false,"is_disabled":false,"rental_uris":{"android":"levelo://app?vid=75bd07a1-006a-4818-b9a2-c5c80f6696a8","ios":"levelo://app?vid=75bd07a1-006a-4818-b9a2-c5c80f6696a8"},"vehicle_type_id":"4","last_reported":1768554992,"current_range_meters":6800,"station_id":"ce4bhmh2rcd13ifvqgmg","pricing_plan_id":"cebpf4jnsgd1na2vs0mg"},{"bike_id":"1fbf11d0-f681-485a-a697-105e4d30495f","system_id":"levelo_inurba_marseille","lat":43.2887,"lon":5.42529,"is_reserved":false,"is_disabled":false,"rental_uris":{"android":"levelo://app?vid=1fbf11d0-f681-485a-a697-105e4d30495f","ios":"levelo://app?vid=1fbf11d0-f681-485a-a697-105e4d30495f"},"vehicle_type_id":"4","last_reported":1768554992,"current_range_meters":6800,"station_id":"st_d3b462108ojc7389ooeg","pricing_plan_id":"cebpf4jnsgd1na2vs0mg"},{"bike_id":"b76f4d94-81a2-4f60-b29e-c455fd6cdcfd","system_id":"levelo_inurba_marseille","lat":43.292304,"lon":5.363437,"is_reserved":false,"is_disabled":false,"rental_uris":{"android":"levelo://app?vid=b76f4d94-81a2-4f60-b29e-c455fd6cdcfd","ios":"levelo://app?vid=b76f4d94-81a2-4f60-b29e-c455fd6cdcfd"},"vehicle_type_id":"4","last_reported":1768554992,"current_range_meters":6800,"station_id":"ce4bhbh2rcd13ifvqeqg","pricing_plan_id":"cebpf4jnsgd1na2vs0mg"},{"bike_id":"011f3f90-1b10-486a-8955-76f8d5a49d25","system_id":"levelo_inurba_marseille","lat":43.27959,"lon":5.43614,"is_reserved":false,"is_disabled":false,"rental_uris":{"android":"levelo://app?vid=011f3f90-1b10-486a-8955-76f8d5a49d25","ios":"levelo://app?vid=011f3f90-1b10-486a-8955-76f8d5a49d25"},"vehicle_type_id":"4","last_reported":1768554992,"current_range_meters":6800,"station_id":"","pricing_plan_id":"cebpf4jnsgd1na2vs0mg"},{"bike_id":"ee09ff72-4bb8-4c38-8508-9fae1bef05c8","system_id":"levelo_inurba_marseille","lat":43.27065,"lon":5.40279,"is_reserved":false,"is_disabled":false,"rental_uris":{"android":"levelo://app?vid=ee09ff72-4bb8-4c38-8508-9fae1bef05c8","ios":"levelo://app?vid=ee09ff72-4bb8-4c38-8508-9fae1bef05c8"},"vehicle_type_id":"4","last_reported":1768554992,"current_range_meters":6800,"station_id":"ce4bhk92rcd13ifvqgc0","pricing_plan_id":"cebpf4jnsgd1na2vs0mg"},{"bike_id":"38c3b80e-0308-46b2-9a29-2654b96d87d9","system_id":"levelo_inurba_marseille","lat":43.29958,"lon":5.37345,"is_reserved":false,"is_disabled":false,"rental_uris":{"android":"levelo://app?vid=38c3b80e-0308-46b2-9a29-2654b96d87d9","ios":"levelo://app?vid=38c3b80e-0308-46b2-9a29-2654b96d87d9"},"vehicle_type_id":"4","last_reported":1768554992,"current_range_meters":6800,"station_id":"","pricing_plan_id":"cebpf4jnsgd1na2vs0mg"},{"bike_id":"20696002-54d7-4af6-a1a3-4992415bf5f7","system_id":"levelo_inurba_marseille","lat":43.29618,"lon":5.37622,"is_reserved":false,"is_disabled":false,"rental_uris":{"android":"levelo://app?vid=20696002-54d7-4af6-a1a3-4992415bf5f7","ios":"levelo://app?vid=20696002-54d7-4af6-a1a3-4992415bf5f7"},"vehicle_type_id":"4","last_reported":1768554992,"current_range_meters":6800,"station_id":"","pricing_plan_id":"cebpf4jnsgd1na2vs0mg"},{"bike_id":"dcba5e0d-8e79-44d0-8827-5e7dfb547664","system_id":"levelo_inurba_marseille","lat":43.28533,"lon":5.44104,"is_reserved":false,"is_disabled":false,"rental_uris":{"android":"levelo://app?vid=dcba5e0d-8e79-44d0-8827-5e7dfb547664","ios":"levelo://app?vid=dcba5e0d-8e79-44d0-8827-5e7dfb547664"},"vehicle_type_id":"4","last_reported":1768554992,"current_range_meters":6800,"station_id":"st_d3j3df2ikq2c7380ej80","pricing_plan_id":"cebpf4jnsgd1na2vs0mg"},{"bike_id":"48aeaab0-6b80-4b7a-a472-f0414a5d3089","system_id":"levelo_inurba_marseille","lat":43.29779,"lon":5.37082,"is_reserved":false,"is_disabled":false,"rental_uris":{"android":"levelo://app?vid=48aeaab0-6b80-4b7a-a472-f0414a5d3089","ios":"levelo://app?vid=48aeaab0-6b80-4b7a-a472-f0414a5d3089"},"vehicle_type_id":"4","last_reported":1768554992,"current_range_meters":6800,"station_id":"ce4bgop2rcd13ifvqc1g","pricing_plan_id":"cebpf4jnsgd1na2vs0mg"},{"bike_id":"6afaeee4-0b6f-4480-8c76-9c68513aaf1b","system_id":"levelo_inurba_marseille","lat":43.28347,"lon":5.38114,"is_reserved":false,"is_disabled":false,"rental_uris":{"android":"levelo://app?vid=6afaeee4-0b6f-4480-8c76-9c68513aaf1b","ios":"levelo://app?vid=6afaeee4-0b6f-4480-8c76-9c68513aaf1b"},"vehicle_type_id":"4","last_reported":1768554992,"current_range_meters":6800,"station_id":"ce4bh412rcd13ifvqdr0","pricing_plan_id":"cebpf4jnsgd1na2vs0mg"},{"bike_id":"436eadf7-ff16-4732-946c-e33568d77044","system_id":"levelo_inurba_marseille","lat":43.2782,"lon":5.40714,"is_reserved":false,"is_disabled":false,"rental_uris":{"android":"levelo://app?vid=436eadf7-ff16-4732-946c-e33568d77044","ios":"levelo://app?vid=436eadf7-ff16-4732-946c-e33568d77044"},"vehicle_type_id":"4","last_reported":1768554992,"current_range_meters":6800,"station_id":"ce4bhnh2rcd13ifvqgtg","pricing_plan_id":"cebpf4jnsgd1na2vs0mg"},{"bike_id":"2feea6da-16f8-4530-b8c8-54959725e67d","system_id":"levelo_inurba_marseille","lat":43.24811,"lon":5.37477,"is_reserved":false,"is_disabled":false,"rental_uris":{"android":"levelo://app?vid=2feea6da-16f8-4530-b8c8-54959725e67d","ios":"levelo://app?vid=2feea6da-16f8-4530-b8c8-54959725e67d"},"vehicle_type_id":"4","last_reported":1768554992,"current_range_meters":6800,"station_id":"ce4bhgh2rcd13ifvqfb0","pricing_plan_id":"cebpf4jnsgd1na2vs0mg"},{"bike_id":"8782c85b-4cd2-4d16-816f-ea9c0e380452","system_id":"levelo_inurba_marseille","lat":43.28084,"lon":5.40514,"is_reserved":false,"is_disabled":false,"rental_uris":{"android":"levelo://app?vid=8782c85b-4cd2-4d16-816f-ea9c0e380452","ios":"levelo://app?vid=8782c85b-4cd2-4d16-816f-ea9c0e380452"},"vehicle_type_id":"4","last_reported":1768554992,"current_range_meters":6800,"station_id":"","pricing_plan_id":"cebpf4jnsgd1na2vs0mg"},{"bike_id":"6abf8a46-f540-4848-8617-65edd2aabe92","system_id":"levelo_inurba_marseille","lat":43.31759,"lon":5.39772,"is_reserved":false,"is_disabled":false,"rental_uris":{"android":"levelo://app?vid=6abf8a46-f540-4848-8617-65edd2aabe92","ios":"levelo://app?vid=6abf8a46-f540-4848-8617-65edd2aabe92"},"vehicle_type_id":"4","last_reported":1768554992,"current_range_meters":6800,"station_id":"","pricing_plan_id":"cebpf4jnsgd1na2vs0mg"},{"bike_id":"69921f9a-e661-4cce-bf48-338fb359cb40","system_id":"levelo_inurba_marseille","lat":43.313486,"lon":5.367345,"is_reserved":false,"is_disabled":false,"rental_uris":{"android":"levelo://app?vid=69921f9a-e661-4cce-bf48-338fb359cb40","ios":"levelo://app?vid=69921f9a-e661-4cce-bf48-338fb359cb40"},"vehicle_type_id":"4","last_reported":1768554992,"current_range_meters":6800,"station_id":"ce4bgr92rcd13ifvqc6g","pricing_plan_id":"cebpf4jnsgd1na2vs0mg"},{"bike_id":"2a127f4a-92a1-4c20-a5f2-8feed33d8339","system_id":"levelo_inurba_marseille","lat":43.32493,"lon":5.36508,"is_reserved":false,"is_disabled":false,"rental_uris":{"android":"levelo://app?vid=2a127f4a-92a1-4c20-a5f2-8feed33d8339","ios":"levelo://app?vid=2a127f4a-92a1-4c20-a5f2-8feed33d8339"},"vehicle_type_id":"4","last_reported":1768554992,"current_range_meters":6800,"station_id":"ce4bhs12rcd13ifvqhvg","pricing_plan_id":"cebpf4jnsgd1na2vs0mg"},{"bike_id":"3ee9aab3-f1f2-4daa-9528-98f98eddba69","system_id":"levelo_inurba_marseille","lat":43.33599,"lon":5.41018,"is_reserved":false,"is_disabled":false,"rental_uris":{"android":"levelo://app?vid=3ee9aab3-f1f2-4daa-9528-98f98eddba69","ios":"levelo://app?vid=3ee9aab3-f1f2-4daa-9528-98f98eddba69"},"vehicle_type_id":"4","last_reported":1768554992,"current_range_meters":6800,"station_id":"ce4bhqh2rcd13ifvqhmg","pricing_plan_id":"cebpf4jnsgd1na2vs0mg"},{"bike_id":"627e5e4e-322b-49e8-be53-e7b0ef4c2eda","system_id":"levelo_inurba_marseille","lat":43.255698,"lon":5.382389,"is_reserved":false,"is_disabled":false,"rental_uris":{"android":"levelo://app?vid=627e5e4e-322b-49e8-be53-e7b0ef4c2eda","ios":"levelo://app?vid=627e5e4e-322b-49e8-be53-e7b0ef4c2eda"},"vehicle_type_id":"4","last_reported":1768554992,"current_range_meters":7200,"station_id":"ce4bhih2rcd13ifvqfs0","pricing_plan_id":"cebpf4jnsgd1na2vs0mg"},{"bike_id":"66dced43-516b-4683-a6a1-499c6eb5ee27","system_id":"levelo_inurba_marseille","lat":43.25917,"lon":5.40886,"is_reserved":false,"is_disabled":false,"rental_uris":{"android":"levelo://app?vid=66dced43-516b-4683-a6a1-499c6eb5ee27","ios":"levelo://app?vid=66dced43-516b-4683-a6a1-499c6eb5ee27"},"vehicle_type_id":"4","last_reported":1768554992,"current_range_meters":7200,"station_id":"ce4bhm92rcd13ifvqglg","pricing_plan_id":"cebpf4jnsgd1na2vs0mg"},{"bike_id":"5032b02a-9efc-499b-80c1-ff1804d0ec8d","system_id":"levelo_inurba_marseille","lat":43.24791,"lon":5.37482,"is_reserved":false,"is_disabled":false,"rental_uris":{"android":"levelo://app?vid=5032b02a-9efc-499b-80c1-ff1804d0ec8d","ios":"levelo://app?vid=5032b02a-9efc-499b-80c1-ff1804d0ec8d"},"vehicle_type_id":"4","last_reported":1768554992,"current_range_meters":7200,"station_id":"ce4bhgh2rcd13ifvqfb0","pricing_plan_id":"cebpf4jnsgd1na2vs0mg"},{"bike_id":"a8bdd6a5-2050-4a4f-a20e-af94da53b1ee","system_id":"levelo_inurba_marseille","lat":43.24796,"lon":5.37463,"is_reserved":false,"is_disabled":false,"rental_uris":{"android":"levelo://app?vid=a8bdd6a5-2050-4a4f-a20e-af94da53b1ee","ios":"levelo://app?vid=a8bdd6a5-2050-4a4f-a20e-af94da53b1ee"},"vehicle_type_id":"4","last_reported":1768554992,"current_range_meters":7200,"station_id":"ce4bhgh2rcd13ifvqfb0","pricing_plan_id":"cebpf4jnsgd1na2vs0mg"},{"bike_id":"8196675e-1758-4be8-aa6e-9a780663d26d","system_id":"levelo_inurba_marseille","lat":43.32347,"lon":5.36727,"is_reserved":false,"is_disabled":false,"rental_uris":{"android":"levelo://app?vid=8196675e-1758-4be8-aa6e-9a780663d26d","ios":"levelo://app?vid=8196675e-1758-4be8-aa6e-9a780663d26d"},"vehicle_type_id":"4","last_reported":1768554992,"current_range_meters":7200,"station_id":"ce4bhsh2rcd13ifvqi2g","pricing_plan_id":"cebpf4jnsgd1na2vs0mg"},{"bike_id":"0b0b8c75-00a4-4c84-9b71-71b52998a96d","system_id":"levelo_inurba_marseille","lat":43.29531,"lon":5.39034,"is_reserved":false,"is_disabled":false,"rental_uris":{"android":"levelo://app?vid=0b0b8c75-00a4-4c84-9b71-71b52998a96d","ios":"levelo://app?vid=0b0b8c75-00a4-4c84-9b71-71b52998a96d"},"vehicle_type_id":"4","last_reported":1768554992,"current_range_meters":7200,"station_id":"ce4bh3p2rcd13ifvqdp0","pricing_plan_id":"cebpf4jnsgd1na2vs0mg"},{"bike_id":"4c76e413-f964-439e-b2ed-77cbfd887213","system_id":"levelo_inurba_marseille","lat":43.28858,"lon":5.42538,"is_reserved":false,"is_disabled":false,"rental_uris":{"android":"levelo://app?vid=4c76e413-f964-439e-b2ed-77cbfd887213","ios":"levelo://app?vid=4c76e413-f964-439e-b2ed-77cbfd887213"},"vehicle_type_id":"4","last_reported":1768554992,"current_range_meters":7200,"station_id":"st_d3b462108ojc7389ooeg","pricing_plan_id":"cebpf4jnsgd1na2vs0mg"},{"bike_id":"a2a404aa-2c31-4457-998d-a0872f0eee4d","system_id":"levelo_inurba_marseille","lat":43.28263,"lon":5.38078,"is_reserved":false,"is_disabled":false,"rental_uris":{"android":"levelo://app?vid=a2a404aa-2c31-4457-998d-a0872f0eee4d","ios":"levelo://app?vid=a2a404aa-2c31-4457-998d-a0872f0eee4d"},"vehicle_type_id":"4","last_reported":1768554992,"current_range_meters":7200,"station_id":"","pricing_plan_id":"cebpf4jnsgd1na2vs0mg"},{"bike_id":"f8be3f31-7ad2-418e-9347-d8ac1717ae50","system_id":"levelo_inurba_marseille","lat":43.29476,"lon":5.40923,"is_reserved":false,"is_disabled":false,"rental_uris":{"android":"levelo://app?vid=f8be3f31-7ad2-418e-9347-d8ac1717ae50","ios":"levelo://app?vid=f8be3f31-7ad2-418e-9347-d8ac1717ae50"},"vehicle_type_id":"4","last_reported":1768554992,"current_range_meters":7200,"station_id":"","pricing_plan_id":"cebpf4jnsgd1na2vs0mg"},{"bike_id":"4ecbefec-1e47-4c22-88e0-99b7fd0301e1","system_id":"levelo_inurba_marseille","lat":43.274966,"lon":5.424646,"is_reserved":false,"is_disabled":false,"rental_uris":{"android":"levelo://app?vid=4ecbefec-1e47-4c22-88e0-99b7fd0301e1","ios":"levelo://app?vid=4ecbefec-1e47-4c22-88e0-99b7fd0301e1"},"vehicle_type_id":"4","last_reported":1768554992,"current_range_meters":7200,"station_id":"ce4bhn92rcd13ifvqgrg","pricing_plan_id":"cebpf4jnsgd1na2vs0mg"},{"bike_id":"8de551ac-4ae7-481c-8668-1f69a98181f9","system_id":"levelo_inurba_marseille","lat":43.27493,"lon":5.42458,"is_reserved":false,"is_disabled":false,"rental_uris":{"android":"levelo://app?vid=8de551ac-4ae7-481c-8668-1f69a98181f9","ios":"levelo://app?vid=8de551ac-4ae7-481c-8668-1f69a98181f9"},"vehicle_type_id":"4","last_reported":1768554992,"current_range_meters":7200,"station_id":"ce4bhn92rcd13ifvqgrg","pricing_plan_id":"cebpf4jnsgd1na2vs0mg"},{"bike_id":"78e45d95-b891-4462-8f40-71e1bb72c06d","system_id":"levelo_inurba_marseille","lat":43.29572,"lon":5.39974,"is_reserved":false,"is_disabled":true,"rental_uris":{"android":"levelo://app?vid=78e45d95-b891-4462-8f40-71e1bb72c06d","ios":"levelo://app?vid=78e45d95-b891-4462-8f40-71e1bb72c06d"},"vehicle_type_id":"4","last_reported":1768554992,"current_range_meters":7200,"station_id":"ce4bh312rcd13ifvqdj0","pricing_plan_id":"cebpf4jnsgd1na2vs0mg"},{"bike_id":"ada0a0ef-14e1-4f60-bd97-0af4acdcf1e6","system_id":"levelo_inurba_marseille","lat":43.26375,"lon":5.41085,"is_reserved":false,"is_disabled":false,"rental_uris":{"android":"levelo://app?vid=ada0a0ef-14e1-4f60-bd97-0af4acdcf1e6","ios":"levelo://app?vid=ada0a0ef-14e1-4f60-bd97-0af4acdcf1e6"},"vehicle_type_id":"4","last_reported":1768554992,"current_range_meters":7200,"station_id":"st_d4e5ca6na9uc73bfl5fg","pricing_plan_id":"cebpf4jnsgd1na2vs0mg"},{"bike_id":"a64862b7-7fb6-4e06-afb6-d51a9970bf2e","system_id":"levelo_inurba_marseille","lat":43.248059,"lon":5.374505,"is_reserved":false,"is_disabled":false,"rental_uris":{"android":"levelo://app?vid=a64862b7-7fb6-4e06-afb6-d51a9970bf2e","ios":"levelo://app?vid=a64862b7-7fb6-4e06-afb6-d51a9970bf2e"},"vehicle_type_id":"4","last_reported":1768554992,"current_range_meters":7200,"station_id":"ce4bhgh2rcd13ifvqfb0","pricing_plan_id":"cebpf4jnsgd1na2vs0mg"},{"bike_id":"dbcf6ef4-a784-430e-9991-3e608cc1669e","system_id":"levelo_inurba_marseille","lat":43.22566,"lon":5.41622,"is_reserved":false,"is_disabled":false,"rental_uris":{"android":"levelo://app?vid=dbcf6ef4-a784-430e-9991-3e608cc1669e","ios":"levelo://app?vid=dbcf6ef4-a784-430e-9991-3e608cc1669e"},"vehicle_type_id":"4","last_reported":1768554992,"current_range_meters":7200,"station_id":"st_d2o4gvlbi1j2169b742g","pricing_plan_id":"cebpf4jnsgd1na2vs0mg"},{"bike_id":"843f91d3-3497-4c4b-8a26-d0f129a5f82d","system_id":"levelo_inurba_marseille","lat":43.24164,"lon":5.36428,"is_reserved":false,"is_disabled":false,"rental_uris":{"android":"levelo://app?vid=843f91d3-3497-4c4b-8a26-d0f129a5f82d","ios":"levelo://app?vid=843f91d3-3497-4c4b-8a26-d0f129a5f82d"},"vehicle_type_id":"4","last_reported":1768554992,"current_range_meters":7200,"station_id":"cpo36qri1sfpv3e86is0","pricing_plan_id":"cebpf4jnsgd1na2vs0mg"},{"bike_id":"2fe1f025-d8c8-4714-92db-d8a28bf60033","system_id":"levelo_inurba_marseille","lat":43.30537,"lon":5.36554,"is_reserved":false,"is_disabled":false,"rental_uris":{"android":"levelo://app?vid=2fe1f025-d8c8-4714-92db-d8a28bf60033","ios":"levelo://app?vid=2fe1f025-d8c8-4714-92db-d8a28bf60033"},"vehicle_type_id":"4","last_reported":1768554992,"current_range_meters":7200,"station_id":"ce4bgs12rcd13ifvqcag","pricing_plan_id":"cebpf4jnsgd1na2vs0mg"},{"bike_id":"ee672d40-ee79-42d9-af0c-79cb82e61958","system_id":"levelo_inurba_marseille","lat":43.2853,"lon":5.4413,"is_reserved":false,"is_disabled":false,"rental_uris":{"android":"levelo://app?vid=ee672d40-ee79-42d9-af0c-79cb82e61958","ios":"levelo://app?vid=ee672d40-ee79-42d9-af0c-79cb82e61958"},"vehicle_type_id":"4","last_reported":1768554992,"current_range_meters":7200,"station_id":"st_d3j3df2ikq2c7380ej80","pricing_plan_id":"cebpf4jnsgd1na2vs0mg"},{"bike_id":"23ec3a98-26a5-4b81-8fe6-bd629f0771f5","system_id":"levelo_inurba_marseille","lat":43.281295,"lon":5.389187,"is_reserved":false,"is_disabled":false,"rental_uris":{"android":"levelo://app?vid=23ec3a98-26a5-4b81-8fe6-bd629f0771f5","ios":"levelo://app?vid=23ec3a98-26a5-4b81-8fe6-bd629f0771f5"},"vehicle_type_id":"4","last_reported":1768554992,"current_range_meters":7200,"station_id":"","pricing_plan_id":"cebpf4jnsgd1na2vs0mg"},{"bike_id":"187039aa-35aa-420b-9492-1a36e8661394","system_id":"levelo_inurba_marseille","lat":43.24048,"lon":5.37775,"is_reserved":false,"is_disabled":false,"rental_uris":{"android":"levelo://app?vid=187039aa-35aa-420b-9492-1a36e8661394","ios":"levelo://app?vid=187039aa-35aa-420b-9492-1a36e8661394"},"vehicle_type_id":"4","last_reported":1768554992,"current_range_meters":7200,"station_id":"ce4bhnp2rcd13ifvqgvg","pricing_plan_id":"cebpf4jnsgd1na2vs0mg"},{"bike_id":"6c692c2a-4d29-4de9-a7fd-87703f6a37a2","system_id":"levelo_inurba_marseille","lat":43.24465,"lon":5.42556,"is_reserved":false,"is_disabled":false,"rental_uris":{"android":"levelo://app?vid=6c692c2a-4d29-4de9-a7fd-87703f6a37a2","ios":"levelo://app?vid=6c692c2a-4d29-4de9-a7fd-87703f6a37a2"},"vehicle_type_id":"4","last_reported":1768554992,"current_range_meters":8000,"station_id":"st_d4a3vfp97mjs738cd8kg","pricing_plan_id":"cebpf4jnsgd1na2vs0mg"},{"bike_id":"9b62ad9f-fd04-41fd-8d9b-9d4308e79fd9","system_id":"levelo_inurba_marseille","lat":43.24066,"lon":5.37765,"is_reserved":false,"is_disabled":false,"rental_uris":{"android":"levelo://app?vid=9b62ad9f-fd04-41fd-8d9b-9d4308e79fd9","ios":"levelo://app?vid=9b62ad9f-fd04-41fd-8d9b-9d4308e79fd9"},"vehicle_type_id":"4","last_reported":1768554992,"current_range_meters":8000,"station_id":"ce4bhnp2rcd13ifvqgvg","pricing_plan_id":"cebpf4jnsgd1na2vs0mg"},{"bike_id":"7d22d8e5-d57e-4b04-a7cf-16fd5f512cbc","system_id":"levelo_inurba_marseille","lat":43.270649,"lon":5.382974,"is_reserved":false,"is_disabled":false,"rental_uris":{"android":"levelo://app?vid=7d22d8e5-d57e-4b04-a7cf-16fd5f512cbc","ios":"levelo://app?vid=7d22d8e5-d57e-4b04-a7cf-16fd5f512cbc"},"vehicle_type_id":"4","last_reported":1768554992,"current_range_meters":8000,"station_id":"st_d3n2fo6cfp8s73cte1j0","pricing_plan_id":"cebpf4jnsgd1na2vs0mg"},{"bike_id":"9dd4cee1-6e9f-4b21-8c2a-6186c33cbfd1","system_id":"levelo_inurba_marseille","lat":43.32749,"lon":5.39264,"is_reserved":false,"is_disabled":false,"rental_uris":{"android":"levelo://app?vid=9dd4cee1-6e9f-4b21-8c2a-6186c33cbfd1","ios":"levelo://app?vid=9dd4cee1-6e9f-4b21-8c2a-6186c33cbfd1"},"vehicle_type_id":"4","last_reported":1768554992,"current_range_meters":8000,"station_id":"","pricing_plan_id":"cebpf4jnsgd1na2vs0mg"},{"bike_id":"d486f75d-c649-4426-89e7-03eb94cae029","system_id":"levelo_inurba_marseille","lat":43.33588,"lon":5.41013,"is_reserved":false,"is_disabled":false,"rental_uris":{"android":"levelo://app?vid=d486f75d-c649-4426-89e7-03eb94cae029","ios":"levelo://app?vid=d486f75d-c649-4426-89e7-03eb94cae029"},"vehicle_type_id":"4","last_reported":1768554992,"current_range_meters":8000,"station_id":"ce4bhqh2rcd13ifvqhmg","pricing_plan_id":"cebpf4jnsgd1na2vs0mg"},{"bike_id":"e280e48d-d008-4ee0-96b0-a8444eed900a","system_id":"levelo_inurba_marseille","lat":43.2768,"lon":5.38899,"is_reserved":false,"is_disabled":false,"rental_uris":{"android":"levelo://app?vid=e280e48d-d008-4ee0-96b0-a8444eed900a","ios":"levelo://app?vid=e280e48d-d008-4ee0-96b0-a8444eed900a"},"vehicle_type_id":"4","last_reported":1768554992,"current_range_meters":8000,"station_id":"ce4bhi12rcd13ifvqfo0","pricing_plan_id":"cebpf4jnsgd1na2vs0mg"},{"bike_id":"89d9cd06-54be-44ac-b8c9-f576dccb8768","system_id":"levelo_inurba_marseille","lat":43.25,"lon":5.3896,"is_reserved":false,"is_disabled":false,"rental_uris":{"android":"levelo://app?vid=89d9cd06-54be-44ac-b8c9-f576dccb8768","ios":"levelo://app?vid=89d9cd06-54be-44ac-b8c9-f576dccb8768"},"vehicle_type_id":"4","last_reported":1768554992,"current_range_meters":8000,"station_id":"ce4bhgp2rcd13ifvqfd0","pricing_plan_id":"cebpf4jnsgd1na2vs0mg"},{"bike_id":"4bf2e34c-acc2-48d0-a792-a4b8c959e5f1","system_id":"levelo_inurba_marseille","lat":43.25829,"lon":5.39426,"is_reserved":false,"is_disabled":false,"rental_uris":{"android":"levelo://app?vid=4bf2e34c-acc2-48d0-a792-a4b8c959e5f1","ios":"levelo://app?vid=4bf2e34c-acc2-48d0-a792-a4b8c959e5f1"},"vehicle_type_id":"4","last_reported":1768554992,"current_range_meters":8000,"station_id":"ce4bhip2rcd13ifvqft0","pricing_plan_id":"cebpf4jnsgd1na2vs0mg"},{"bike_id":"8f098c6e-484f-40af-9f3e-0074b93cddd4","system_id":"levelo_inurba_marseille","lat":43.30294,"lon":5.36922,"is_reserved":false,"is_disabled":false,"rental_uris":{"android":"levelo://app?vid=8f098c6e-484f-40af-9f3e-0074b93cddd4","ios":"levelo://app?vid=8f098c6e-484f-40af-9f3e-0074b93cddd4"},"vehicle_type_id":"4","last_reported":1768554992,"current_range_meters":8000,"station_id":"ce4bgqh2rcd13ifvqc5g","pricing_plan_id":"cebpf4jnsgd1na2vs0mg"},{"bike_id":"0b91a481-4380-474a-b532-6c391d00b248","system_id":"levelo_inurba_marseille","lat":43.27965,"lon":5.38709,"is_reserved":false,"is_disabled":false,"rental_uris":{"android":"levelo://app?vid=0b91a481-4380-474a-b532-6c391d00b248","ios":"levelo://app?vid=0b91a481-4380-474a-b532-6c391d00b248"},"vehicle_type_id":"4","last_reported":1768554992,"current_range_meters":8000,"station_id":"","pricing_plan_id":"cebpf4jnsgd1na2vs0mg"},{"bike_id":"9bb429fa-a128-42c3-8e48-5c19b5b707eb","system_id":"levelo_inurba_marseille","lat":43.31148,"lon":5.38793,"is_reserved":false,"is_disabled":false,"rental_uris":{"android":"levelo://app?vid=9bb429fa-a128-42c3-8e48-5c19b5b707eb","ios":"levelo://app?vid=9bb429fa-a128-42c3-8e48-5c19b5b707eb"},"vehicle_type_id":"4","last_reported":1768554992,"current_range_meters":8000,"station_id":"","pricing_plan_id":"cebpf4jnsgd1na2vs0mg"},{"bike_id":"82b87168-267f-432c-a609-70f7b40ac901","system_id":"levelo_inurba_marseille","lat":43.27731,"lon":5.40765,"is_reserved":false,"is_disabled":false,"rental_uris":{"android":"levelo://app?vid=82b87168-267f-432c-a609-70f7b40ac901","ios":"levelo://app?vid=82b87168-267f-432c-a609-70f7b40ac901"},"vehicle_type_id":"4","last_reported":1768554992,"current_range_meters":8000,"station_id":"","pricing_plan_id":"cebpf4jnsgd1na2vs0mg"},{"bike_id":"edb3da66-df2d-4531-912c-535944b5f56d","system_id":"levelo_inurba_marseille","lat":43.29029,"lon":5.40026,"is_reserved":false,"is_disabled":false,"rental_uris":{"android":"levelo://app?vid=edb3da66-df2d-4531-912c-535944b5f56d","ios":"levelo://app?vid=edb3da66-df2d-4531-912c-535944b5f56d"},"vehicle_type_id":"4","last_reported":1768554992,"current_range_meters":8000,"station_id":"ce4bh392rcd13ifvqdm0","pricing_plan_id":"cebpf4jnsgd1na2vs0mg"},{"bike_id":"8399168d-b423-4708-a267-23d3a56d7c0e","system_id":"levelo_inurba_marseille","lat":43.30441,"lon":5.3673,"is_reserved":false,"is_disabled":false,"rental_uris":{"android":"levelo://app?vid=8399168d-b423-4708-a267-23d3a56d7c0e","ios":"levelo://app?vid=8399168d-b423-4708-a267-23d3a56d7c0e"},"vehicle_type_id":"4","last_reported":1768554992,"current_range_meters":8000,"station_id":"","pricing_plan_id":"cebpf4jnsgd1na2vs0mg"},{"bike_id":"87b41ccf-9e46-44ee-9e4a-b0913909d881","system_id":"levelo_inurba_marseille","lat":43.29759,"lon":5.42768,"is_reserved":false,"is_disabled":false,"rental_uris":{"android":"levelo://app?vid=87b41ccf-9e46-44ee-9e4a-b0913909d881","ios":"levelo://app?vid=87b41ccf-9e46-44ee-9e4a-b0913909d881"},"vehicle_type_id":"4","last_reported":1768554992,"current_range_meters":8000,"station_id":"st_d3md5207bmas73dh9klg","pricing_plan_id":"cebpf4jnsgd1na2vs0mg"},{"bike_id":"7d989441-2a47-4e36-9c89-e3f9766cc2dd","system_id":"levelo_inurba_marseille","lat":43.29909,"lon":5.37472,"is_reserved":false,"is_disabled":false,"rental_uris":{"android":"levelo://app?vid=7d989441-2a47-4e36-9c89-e3f9766cc2dd","ios":"levelo://app?vid=7d989441-2a47-4e36-9c89-e3f9766cc2dd"},"vehicle_type_id":"4","last_reported":1768554992,"current_range_meters":8000,"station_id":"ce4bgjh2rcd13ifvqbg0","pricing_plan_id":"cebpf4jnsgd1na2vs0mg"},{"bike_id":"c349032e-ba8e-443a-bc3d-19f51efce72a","system_id":"levelo_inurba_marseille","lat":43.24079,"lon":5.37781,"is_reserved":false,"is_disabled":false,"rental_uris":{"android":"levelo://app?vid=c349032e-ba8e-443a-bc3d-19f51efce72a","ios":"levelo://app?vid=c349032e-ba8e-443a-bc3d-19f51efce72a"},"vehicle_type_id":"4","last_reported":1768554992,"current_range_meters":8000,"station_id":"ce4bhnp2rcd13ifvqgvg","pricing_plan_id":"cebpf4jnsgd1na2vs0mg"},{"bike_id":"cde79427-3723-4a24-a124-d05fe40229c7","system_id":"levelo_inurba_marseille","lat":43.27214,"lon":5.39203,"is_reserved":false,"is_disabled":true,"rental_uris":{"android":"levelo://app?vid=cde79427-3723-4a24-a124-d05fe40229c7","ios":"levelo://app?vid=cde79427-3723-4a24-a124-d05fe40229c7"},"vehicle_type_id":"4","last_reported":1768554992,"current_range_meters":8000,"station_id":"ce4bhhp2rcd13ifvqfm0","pricing_plan_id":"cebpf4jnsgd1na2vs0mg"},{"bike_id":"fa2644f1-9bf3-4a71-b4f1-330330552088","system_id":"levelo_inurba_marseille","lat":43.29851,"lon":5.38915,"is_reserved":false,"is_disabled":false,"rental_uris":{"android":"levelo://app?vid=fa2644f1-9bf3-4a71-b4f1-330330552088","ios":"levelo://app?vid=fa2644f1-9bf3-4a71-b4f1-330330552088"},"vehicle_type_id":"4","last_reported":1768554992,"current_range_meters":8000,"station_id":"ce4bh392rcd13ifvqdl0","pricing_plan_id":"cebpf4jnsgd1na2vs0mg"},{"bike_id":"beaae619-a4ac-4aa6-b171-20d72d73eed8","system_id":"levelo_inurba_marseille","lat":43.32351,"lon":5.36781,"is_reserved":false,"is_disabled":false,"rental_uris":{"android":"levelo://app?vid=beaae619-a4ac-4aa6-b171-20d72d73eed8","ios":"levelo://app?vid=beaae619-a4ac-4aa6-b171-20d72d73eed8"},"vehicle_type_id":"4","last_reported":1768554992,"current_range_meters":8000,"station_id":"ce4bhsh2rcd13ifvqi2g","pricing_plan_id":"cebpf4jnsgd1na2vs0mg"},{"bike_id":"6392d4ba-52a7-4ff6-bed3-714717b5ab52","system_id":"levelo_inurba_marseille","lat":43.22555,"lon":5.41633,"is_reserved":false,"is_disabled":false,"rental_uris":{"android":"levelo://app?vid=6392d4ba-52a7-4ff6-bed3-714717b5ab52","ios":"levelo://app?vid=6392d4ba-52a7-4ff6-bed3-714717b5ab52"},"vehicle_type_id":"4","last_reported":1768554992,"current_range_meters":8000,"station_id":"st_d2o4gvlbi1j2169b742g","pricing_plan_id":"cebpf4jnsgd1na2vs0mg"},{"bike_id":"beeda613-7b77-479c-90f5-b635b4700e74","system_id":"levelo_inurba_marseille","lat":43.24166,"lon":5.36393,"is_reserved":false,"is_disabled":false,"rental_uris":{"android":"levelo://app?vid=beeda613-7b77-479c-90f5-b635b4700e74","ios":"levelo://app?vid=beeda613-7b77-479c-90f5-b635b4700e74"},"vehicle_type_id":"4","last_reported":1768554992,"current_range_meters":8000,"station_id":"cpo36qri1sfpv3e86is0","pricing_plan_id":"cebpf4jnsgd1na2vs0mg"},{"bike_id":"b4b2d5f4-c04c-442a-9f9b-a3e34d9a5585","system_id":"levelo_inurba_marseille","lat":43.29884,"lon":5.38902,"is_reserved":false,"is_disabled":false,"rental_uris":{"android":"levelo://app?vid=b4b2d5f4-c04c-442a-9f9b-a3e34d9a5585","ios":"levelo://app?vid=b4b2d5f4-c04c-442a-9f9b-a3e34d9a5585"},"vehicle_type_id":"4","last_reported":1768554992,"current_range_meters":8000,"station_id":"ce4bh392rcd13ifvqdl0","pricing_plan_id":"cebpf4jnsgd1na2vs0mg"},{"bike_id":"97fd8e38-7aa2-488e-96cc-ec8f894eb496","system_id":"levelo_inurba_marseille","lat":43.28537,"lon":5.440967,"is_reserved":false,"is_disabled":false,"rental_uris":{"android":"levelo://app?vid=97fd8e38-7aa2-488e-96cc-ec8f894eb496","ios":"levelo://app?vid=97fd8e38-7aa2-488e-96cc-ec8f894eb496"},"vehicle_type_id":"4","last_reported":1768554992,"current_range_meters":8400,"station_id":"st_d3j3df2ikq2c7380ej80","pricing_plan_id":"cebpf4jnsgd1na2vs0mg"},{"bike_id":"cee112db-cfcc-4286-9963-018efb69a90c","system_id":"levelo_inurba_marseille","lat":43.31696,"lon":5.37804,"is_reserved":false,"is_disabled":false,"rental_uris":{"android":"levelo://app?vid=cee112db-cfcc-4286-9963-018efb69a90c","ios":"levelo://app?vid=cee112db-cfcc-4286-9963-018efb69a90c"},"vehicle_type_id":"4","last_reported":1768554992,"current_range_meters":8400,"station_id":"","pricing_plan_id":"cebpf4jnsgd1na2vs0mg"},{"bike_id":"ddbf0772-4f3a-44da-b599-3f7b170aff38","system_id":"levelo_inurba_marseille","lat":43.26551,"lon":5.37277,"is_reserved":false,"is_disabled":false,"rental_uris":{"android":"levelo://app?vid=ddbf0772-4f3a-44da-b599-3f7b170aff38","ios":"levelo://app?vid=ddbf0772-4f3a-44da-b599-3f7b170aff38"},"vehicle_type_id":"4","last_reported":1768554992,"current_range_meters":8400,"station_id":"ce4bhg12rcd13ifvqf70","pricing_plan_id":"cebpf4jnsgd1na2vs0mg"},{"bike_id":"021c5664-9d7a-497c-ad9d-27eea5b29cee","system_id":"levelo_inurba_marseille","lat":43.27973,"lon":5.41669,"is_reserved":false,"is_disabled":false,"rental_uris":{"android":"levelo://app?vid=021c5664-9d7a-497c-ad9d-27eea5b29cee","ios":"levelo://app?vid=021c5664-9d7a-497c-ad9d-27eea5b29cee"},"vehicle_type_id":"4","last_reported":1768554992,"current_range_meters":8400,"station_id":"ce4bho12rcd13ifvqh1g","pricing_plan_id":"cebpf4jnsgd1na2vs0mg"},{"bike_id":"25ed961a-5384-43ae-9ae0-92012b19cc36","system_id":"levelo_inurba_marseille","lat":43.2812,"lon":5.38254,"is_reserved":false,"is_disabled":false,"rental_uris":{"android":"levelo://app?vid=25ed961a-5384-43ae-9ae0-92012b19cc36","ios":"levelo://app?vid=25ed961a-5384-43ae-9ae0-92012b19cc36"},"vehicle_type_id":"4","last_reported":1768554992,"current_range_meters":8400,"station_id":"","pricing_plan_id":"cebpf4jnsgd1na2vs0mg"},{"bike_id":"3faf1460-6b43-4287-84ac-4db07964a707","system_id":"levelo_inurba_marseille","lat":43.26948,"lon":5.38646,"is_reserved":false,"is_disabled":false,"rental_uris":{"android":"levelo://app?vid=3faf1460-6b43-4287-84ac-4db07964a707","ios":"levelo://app?vid=3faf1460-6b43-4287-84ac-4db07964a707"},"vehicle_type_id":"4","last_reported":1768554992,"current_range_meters":8400,"station_id":"ce4bhh92rcd13ifvqfh0","pricing_plan_id":"cebpf4jnsgd1na2vs0mg"},{"bike_id":"604b7fb8-39ad-4fb3-a66a-ffac50d3d161","system_id":"levelo_inurba_marseille","lat":43.27292,"lon":5.39112,"is_reserved":false,"is_disabled":false,"rental_uris":{"android":"levelo://app?vid=604b7fb8-39ad-4fb3-a66a-ffac50d3d161","ios":"levelo://app?vid=604b7fb8-39ad-4fb3-a66a-ffac50d3d161"},"vehicle_type_id":"4","last_reported":1768554992,"current_range_meters":8400,"station_id":"ce4bhgp2rcd13ifvqfe0","pricing_plan_id":"cebpf4jnsgd1na2vs0mg"},{"bike_id":"2a49273c-b35f-40af-9991-87544c417eaf","system_id":"levelo_inurba_marseille","lat":43.31641,"lon":5.36426,"is_reserved":false,"is_disabled":false,"rental_uris":{"android":"levelo://app?vid=2a49273c-b35f-40af-9991-87544c417eaf","ios":"levelo://app?vid=2a49273c-b35f-40af-9991-87544c417eaf"},"vehicle_type_id":"4","last_reported":1768554992,"current_range_meters":8400,"station_id":"","pricing_plan_id":"cebpf4jnsgd1na2vs0mg"},{"bike_id":"d0e6b737-5c1f-4528-8c27-3177b85cc7cc","system_id":"levelo_inurba_marseille","lat":43.3135,"lon":5.36736,"is_reserved":false,"is_disabled":false,"rental_uris":{"android":"levelo://app?vid=d0e6b737-5c1f-4528-8c27-3177b85cc7cc","ios":"levelo://app?vid=d0e6b737-5c1f-4528-8c27-3177b85cc7cc"},"vehicle_type_id":"4","last_reported":1768554992,"current_range_meters":8400,"station_id":"ce4bgr92rcd13ifvqc6g","pricing_plan_id":"cebpf4jnsgd1na2vs0mg"},{"bike_id":"4891cf42-6fce-49e3-b26b-529641c1ce9c","system_id":"levelo_inurba_marseille","lat":43.29537,"lon":5.42296,"is_reserved":false,"is_disabled":false,"rental_uris":{"android":"levelo://app?vid=4891cf42-6fce-49e3-b26b-529641c1ce9c","ios":"levelo://app?vid=4891cf42-6fce-49e3-b26b-529641c1ce9c"},"vehicle_type_id":"4","last_reported":1768554992,"current_range_meters":8400,"station_id":"ce4bhph2rcd13ifvqhdg","pricing_plan_id":"cebpf4jnsgd1na2vs0mg"},{"bike_id":"9b172e72-6442-46d0-8a60-6d4b0e460cdd","system_id":"levelo_inurba_marseille","lat":43.30536,"lon":5.36532,"is_reserved":false,"is_disabled":false,"rental_uris":{"android":"levelo://app?vid=9b172e72-6442-46d0-8a60-6d4b0e460cdd","ios":"levelo://app?vid=9b172e72-6442-46d0-8a60-6d4b0e460cdd"},"vehicle_type_id":"4","last_reported":1768554992,"current_range_meters":8400,"station_id":"ce4bgs12rcd13ifvqcag","pricing_plan_id":"cebpf4jnsgd1na2vs0mg"},{"bike_id":"867f4323-143b-4cc7-b910-bbbe96b44321","system_id":"levelo_inurba_marseille","lat":43.28858,"lon":5.42544,"is_reserved":false,"is_disabled":true,"rental_uris":{"android":"levelo://app?vid=867f4323-143b-4cc7-b910-bbbe96b44321","ios":"levelo://app?vid=867f4323-143b-4cc7-b910-bbbe96b44321"},"vehicle_type_id":"4","last_reported":1768554992,"current_range_meters":8400,"station_id":"st_d3b462108ojc7389ooeg","pricing_plan_id":"cebpf4jnsgd1na2vs0mg"},{"bike_id":"78a9b9a2-5d06-4258-a0c0-0962138f338f","system_id":"levelo_inurba_marseille","lat":43.28496,"lon":5.48425,"is_reserved":false,"is_disabled":false,"rental_uris":{"android":"levelo://app?vid=78a9b9a2-5d06-4258-a0c0-0962138f338f","ios":"levelo://app?vid=78a9b9a2-5d06-4258-a0c0-0962138f338f"},"vehicle_type_id":"4","last_reported":1768554992,"current_range_meters":8400,"station_id":"st_d3svhcjqgbts73a3dn0g","pricing_plan_id":"cebpf4jnsgd1na2vs0mg"},{"bike_id":"75a01f13-be16-4370-a7fc-dbe0f442faa9","system_id":"levelo_inurba_marseille","lat":43.21755,"lon":5.34631,"is_reserved":false,"is_disabled":false,"rental_uris":{"android":"levelo://app?vid=75a01f13-be16-4370-a7fc-dbe0f442faa9","ios":"levelo://app?vid=75a01f13-be16-4370-a7fc-dbe0f442faa9"},"vehicle_type_id":"4","last_reported":1768554992,"current_range_meters":8400,"station_id":"st_cvj6r9ubvosntc0bgbag","pricing_plan_id":"cebpf4jnsgd1na2vs0mg"},{"bike_id":"cd552d3c-b0fe-4e05-9483-1412f42d1f25","system_id":"levelo_inurba_marseille","lat":43.28475,"lon":5.48407,"is_reserved":false,"is_disabled":false,"rental_uris":{"android":"levelo://app?vid=cd552d3c-b0fe-4e05-9483-1412f42d1f25","ios":"levelo://app?vid=cd552d3c-b0fe-4e05-9483-1412f42d1f25"},"vehicle_type_id":"4","last_reported":1768554992,"current_range_meters":8400,"station_id":"st_d3svhcjqgbts73a3dn0g","pricing_plan_id":"cebpf4jnsgd1na2vs0mg"},{"bike_id":"4b1923c2-4ab1-4eb4-9c85-bc8e4a77cb39","system_id":"levelo_inurba_marseille","lat":43.30895,"lon":5.36865,"is_reserved":false,"is_disabled":false,"rental_uris":{"android":"levelo://app?vid=4b1923c2-4ab1-4eb4-9c85-bc8e4a77cb39","ios":"levelo://app?vid=4b1923c2-4ab1-4eb4-9c85-bc8e4a77cb39"},"vehicle_type_id":"4","last_reported":1768554992,"current_range_meters":8400,"station_id":"ce4bgn92rcd13ifvqbvg","pricing_plan_id":"cebpf4jnsgd1na2vs0mg"},{"bike_id":"a1ce7ca3-56c7-402e-a0a5-8c554fdda857","system_id":"levelo_inurba_marseille","lat":43.29839,"lon":5.37585,"is_reserved":false,"is_disabled":false,"rental_uris":{"android":"levelo://app?vid=a1ce7ca3-56c7-402e-a0a5-8c554fdda857","ios":"levelo://app?vid=a1ce7ca3-56c7-402e-a0a5-8c554fdda857"},"vehicle_type_id":"4","last_reported":1768554992,"current_range_meters":8400,"station_id":"","pricing_plan_id":"cebpf4jnsgd1na2vs0mg"},{"bike_id":"22efd71e-86f3-4adf-a702-5526f63c9e42","system_id":"levelo_inurba_marseille","lat":43.30138,"lon":5.37425,"is_reserved":false,"is_disabled":false,"rental_uris":{"android":"levelo://app?vid=22efd71e-86f3-4adf-a702-5526f63c9e42","ios":"levelo://app?vid=22efd71e-86f3-4adf-a702-5526f63c9e42"},"vehicle_type_id":"4","last_reported":1768554992,"current_range_meters":8400,"station_id":"ce4bgs92rcd13ifvqcc0","pricing_plan_id":"cebpf4jnsgd1na2vs0mg"},{"bike_id":"ab598fef-ec29-45a6-b05a-e7fe5e23daff","system_id":"levelo_inurba_marseille","lat":43.25934,"lon":5.40908,"is_reserved":false,"is_disabled":false,"rental_uris":{"android":"levelo://app?vid=ab598fef-ec29-45a6-b05a-e7fe5e23daff","ios":"levelo://app?vid=ab598fef-ec29-45a6-b05a-e7fe5e23daff"},"vehicle_type_id":"4","last_reported":1768554992,"current_range_meters":8400,"station_id":"ce4bhm92rcd13ifvqglg","pricing_plan_id":"cebpf4jnsgd1na2vs0mg"},{"bike_id":"b223653d-a046-4120-8776-e3c49ae637a8","system_id":"levelo_inurba_marseille","lat":43.21754,"lon":5.34619,"is_reserved":false,"is_disabled":false,"rental_uris":{"android":"levelo://app?vid=b223653d-a046-4120-8776-e3c49ae637a8","ios":"levelo://app?vid=b223653d-a046-4120-8776-e3c49ae637a8"},"vehicle_type_id":"4","last_reported":1768554992,"current_range_meters":8400,"station_id":"st_cvj6r9ubvosntc0bgbag","pricing_plan_id":"cebpf4jnsgd1na2vs0mg"},{"bike_id":"128efd08-daf6-4987-8c12-0225d937e7e3","system_id":"levelo_inurba_marseille","lat":43.27494,"lon":5.42464,"is_reserved":false,"is_disabled":false,"rental_uris":{"android":"levelo://app?vid=128efd08-daf6-4987-8c12-0225d937e7e3","ios":"levelo://app?vid=128efd08-daf6-4987-8c12-0225d937e7e3"},"vehicle_type_id":"4","last_reported":1768554992,"current_range_meters":8800,"station_id":"ce4bhn92rcd13ifvqgrg","pricing_plan_id":"cebpf4jnsgd1na2vs0mg"},{"bike_id":"eb52e14c-f062-4794-84a7-51f16391502f","system_id":"levelo_inurba_marseille","lat":43.33598,"lon":5.40955,"is_reserved":false,"is_disabled":false,"rental_uris":{"android":"levelo://app?vid=eb52e14c-f062-4794-84a7-51f16391502f","ios":"levelo://app?vid=eb52e14c-f062-4794-84a7-51f16391502f"},"vehicle_type_id":"4","last_reported":1768554992,"current_range_meters":8800,"station_id":"ce4bhqh2rcd13ifvqhmg","pricing_plan_id":"cebpf4jnsgd1na2vs0mg"},{"bike_id":"e6f28f22-53e8-47f2-a46a-591b780b5dad","system_id":"levelo_inurba_marseille","lat":43.25105,"lon":5.40323,"is_reserved":false,"is_disabled":false,"rental_uris":{"android":"levelo://app?vid=e6f28f22-53e8-47f2-a46a-591b780b5dad","ios":"levelo://app?vid=e6f28f22-53e8-47f2-a46a-591b780b5dad"},"vehicle_type_id":"4","last_reported":1768554992,"current_range_meters":8800,"station_id":"ce4bhlh2rcd13ifvqgig","pricing_plan_id":"cebpf4jnsgd1na2vs0mg"},{"bike_id":"5edf1e67-d525-4fd4-b762-761763c4222f","system_id":"levelo_inurba_marseille","lat":43.30528,"lon":5.36725,"is_reserved":false,"is_disabled":false,"rental_uris":{"android":"levelo://app?vid=5edf1e67-d525-4fd4-b762-761763c4222f","ios":"levelo://app?vid=5edf1e67-d525-4fd4-b762-761763c4222f"},"vehicle_type_id":"4","last_reported":1768554992,"current_range_meters":8800,"station_id":"ce4bgrp2rcd13ifvqc9g","pricing_plan_id":"cebpf4jnsgd1na2vs0mg"},{"bike_id":"0cc71473-7ed7-4741-afaa-8329f681cf84","system_id":"levelo_inurba_marseille","lat":43.29529,"lon":5.37508,"is_reserved":false,"is_disabled":false,"rental_uris":{"android":"levelo://app?vid=0cc71473-7ed7-4741-afaa-8329f681cf84","ios":"levelo://app?vid=0cc71473-7ed7-4741-afaa-8329f681cf84"},"vehicle_type_id":"4","last_reported":1768554992,"current_range_meters":8800,"station_id":"ce4bgkp2rcd13ifvqbmg","pricing_plan_id":"cebpf4jnsgd1na2vs0mg"},{"bike_id":"a83b8cea-7538-453d-b25b-e783211653b3","system_id":"levelo_inurba_marseille","lat":43.24657,"lon":5.38164,"is_reserved":false,"is_disabled":false,"rental_uris":{"android":"levelo://app?vid=a83b8cea-7538-453d-b25b-e783211653b3","ios":"levelo://app?vid=a83b8cea-7538-453d-b25b-e783211653b3"},"vehicle_type_id":"4","last_reported":1768554992,"current_range_meters":8800,"station_id":"ce4bhih2rcd13ifvqfr0","pricing_plan_id":"cebpf4jnsgd1na2vs0mg"},{"bike_id":"69e8a6a2-b17c-4625-9371-3209feda16bb","system_id":"levelo_inurba_marseille","lat":43.30916,"lon":5.36903,"is_reserved":false,"is_disabled":false,"rental_uris":{"android":"levelo://app?vid=69e8a6a2-b17c-4625-9371-3209feda16bb","ios":"levelo://app?vid=69e8a6a2-b17c-4625-9371-3209feda16bb"},"vehicle_type_id":"4","last_reported":1768554992,"current_range_meters":8800,"station_id":"ce4bgn92rcd13ifvqbvg","pricing_plan_id":"cebpf4jnsgd1na2vs0mg"},{"bike_id":"fc489fcf-c251-4a4f-870b-c76aecd2ad14","system_id":"levelo_inurba_marseille","lat":43.27061,"lon":5.42302,"is_reserved":false,"is_disabled":false,"rental_uris":{"android":"levelo://app?vid=fc489fcf-c251-4a4f-870b-c76aecd2ad14","ios":"levelo://app?vid=fc489fcf-c251-4a4f-870b-c76aecd2ad14"},"vehicle_type_id":"4","last_reported":1768554992,"current_range_meters":8800,"station_id":"ce4bhk92rcd13ifvqgb0","pricing_plan_id":"cebpf4jnsgd1na2vs0mg"},{"bike_id":"62276448-8403-4d8e-8a99-c6285b6ce86d","system_id":"levelo_inurba_marseille","lat":43.30522,"lon":5.3654,"is_reserved":false,"is_disabled":false,"rental_uris":{"android":"levelo://app?vid=62276448-8403-4d8e-8a99-c6285b6ce86d","ios":"levelo://app?vid=62276448-8403-4d8e-8a99-c6285b6ce86d"},"vehicle_type_id":"4","last_reported":1768554992,"current_range_meters":8800,"station_id":"ce4bgs12rcd13ifvqcag","pricing_plan_id":"cebpf4jnsgd1na2vs0mg"},{"bike_id":"74a1046d-2841-450c-a7d0-f551b37369b0","system_id":"levelo_inurba_marseille","lat":43.30152,"lon":5.38094,"is_reserved":false,"is_disabled":false,"rental_uris":{"android":"levelo://app?vid=74a1046d-2841-450c-a7d0-f551b37369b0","ios":"levelo://app?vid=74a1046d-2841-450c-a7d0-f551b37369b0"},"vehicle_type_id":"4","last_reported":1768554992,"current_range_meters":8800,"station_id":"ce4bgjp2rcd13ifvqbh0","pricing_plan_id":"cebpf4jnsgd1na2vs0mg"},{"bike_id":"e67306f2-91be-4bbd-b4f1-9cc45e01c0f5","system_id":"levelo_inurba_marseille","lat":43.32354,"lon":5.36734,"is_reserved":false,"is_disabled":false,"rental_uris":{"android":"levelo://app?vid=e67306f2-91be-4bbd-b4f1-9cc45e01c0f5","ios":"levelo://app?vid=e67306f2-91be-4bbd-b4f1-9cc45e01c0f5"},"vehicle_type_id":"4","last_reported":1768554992,"current_range_meters":8800,"station_id":"ce4bhsh2rcd13ifvqi2g","pricing_plan_id":"cebpf4jnsgd1na2vs0mg"},{"bike_id":"c52b5ce0-284a-4a46-a057-174c64f331be","system_id":"levelo_inurba_marseille","lat":43.2892,"lon":5.36651,"is_reserved":false,"is_disabled":false,"rental_uris":{"android":"levelo://app?vid=c52b5ce0-284a-4a46-a057-174c64f331be","ios":"levelo://app?vid=c52b5ce0-284a-4a46-a057-174c64f331be"},"vehicle_type_id":"4","last_reported":1768554992,"current_range_meters":8800,"station_id":"ce4bhap2rcd13ifvqek0","pricing_plan_id":"cebpf4jnsgd1na2vs0mg"},{"bike_id":"fa772604-5343-4874-a9f9-6fae0b9aaa0e","system_id":"levelo_inurba_marseille","lat":43.24597,"lon":5.39956,"is_reserved":false,"is_disabled":false,"rental_uris":{"android":"levelo://app?vid=fa772604-5343-4874-a9f9-6fae0b9aaa0e","ios":"levelo://app?vid=fa772604-5343-4874-a9f9-6fae0b9aaa0e"},"vehicle_type_id":"4","last_reported":1768554992,"current_range_meters":8800,"station_id":"","pricing_plan_id":"cebpf4jnsgd1na2vs0mg"},{"bike_id":"4493b1c6-9597-4743-99c6-0e40682cbe6b","system_id":"levelo_inurba_marseille","lat":43.28621,"lon":5.35106,"is_reserved":false,"is_disabled":false,"rental_uris":{"android":"levelo://app?vid=4493b1c6-9597-4743-99c6-0e40682cbe6b","ios":"levelo://app?vid=4493b1c6-9597-4743-99c6-0e40682cbe6b"},"vehicle_type_id":"4","last_reported":1768554992,"current_range_meters":8800,"station_id":"ce4bhch2rcd13ifvqeug","pricing_plan_id":"cebpf4jnsgd1na2vs0mg"},{"bike_id":"c69a3b93-b500-46bb-900a-d75e3ea95969","system_id":"levelo_inurba_marseille","lat":43.281526,"lon":5.42645,"is_reserved":false,"is_disabled":false,"rental_uris":{"android":"levelo://app?vid=c69a3b93-b500-46bb-900a-d75e3ea95969","ios":"levelo://app?vid=c69a3b93-b500-46bb-900a-d75e3ea95969"},"vehicle_type_id":"4","last_reported":1768554992,"current_range_meters":8800,"station_id":"ce4bhnh2rcd13ifvqgug","pricing_plan_id":"cebpf4jnsgd1na2vs0mg"},{"bike_id":"e4f5f309-d0de-417f-a274-ac272f7a1489","system_id":"levelo_inurba_marseille","lat":43.25566,"lon":5.38257,"is_reserved":false,"is_disabled":false,"rental_uris":{"android":"levelo://app?vid=e4f5f309-d0de-417f-a274-ac272f7a1489","ios":"levelo://app?vid=e4f5f309-d0de-417f-a274-ac272f7a1489"},"vehicle_type_id":"4","last_reported":1768554992,"current_range_meters":8800,"station_id":"ce4bhih2rcd13ifvqfs0","pricing_plan_id":"cebpf4jnsgd1na2vs0mg"},{"bike_id":"8d06b1dd-b39f-481f-9fd0-15b08a4bd888","system_id":"levelo_inurba_marseille","lat":43.2533,"lon":5.42172,"is_reserved":false,"is_disabled":false,"rental_uris":{"android":"levelo://app?vid=8d06b1dd-b39f-481f-9fd0-15b08a4bd888","ios":"levelo://app?vid=8d06b1dd-b39f-481f-9fd0-15b08a4bd888"},"vehicle_type_id":"4","last_reported":1768554992,"current_range_meters":8800,"station_id":"st_d2m65c5bi1j21697t3ng","pricing_plan_id":"cebpf4jnsgd1na2vs0mg"},{"bike_id":"1bb4d297-3b58-4229-8f63-4cdf2739be21","system_id":"levelo_inurba_marseille","lat":43.31773,"lon":5.38996,"is_reserved":false,"is_disabled":false,"rental_uris":{"android":"levelo://app?vid=1bb4d297-3b58-4229-8f63-4cdf2739be21","ios":"levelo://app?vid=1bb4d297-3b58-4229-8f63-4cdf2739be21"},"vehicle_type_id":"4","last_reported":1768554992,"current_range_meters":8800,"station_id":"ce4bhqp2rcd13ifvqhng","pricing_plan_id":"cebpf4jnsgd1na2vs0mg"},{"bike_id":"091eaf3a-5c3c-4907-947d-c7d82aea8059","system_id":"levelo_inurba_marseille","lat":43.33149,"lon":5.3771,"is_reserved":false,"is_disabled":false,"rental_uris":{"android":"levelo://app?vid=091eaf3a-5c3c-4907-947d-c7d82aea8059","ios":"levelo://app?vid=091eaf3a-5c3c-4907-947d-c7d82aea8059"},"vehicle_type_id":"4","last_reported":1768554992,"current_range_meters":8800,"station_id":"st_d46cu089ee8s73dldbu0","pricing_plan_id":"cebpf4jnsgd1na2vs0mg"},{"bike_id":"875bfe38-d3d7-47cb-99fe-5e5ad231a585","system_id":"levelo_inurba_marseille","lat":43.29784,"lon":5.38106,"is_reserved":false,"is_disabled":false,"rental_uris":{"android":"levelo://app?vid=875bfe38-d3d7-47cb-99fe-5e5ad231a585","ios":"levelo://app?vid=875bfe38-d3d7-47cb-99fe-5e5ad231a585"},"vehicle_type_id":"4","last_reported":1768554992,"current_range_meters":8800,"station_id":"ce4bgip2rcd13ifvqbb0","pricing_plan_id":"cebpf4jnsgd1na2vs0mg"},{"bike_id":"740dd4b4-f26a-439a-9f57-31d0681dd7f1","system_id":"levelo_inurba_marseille","lat":43.29917,"lon":5.37462,"is_reserved":false,"is_disabled":false,"rental_uris":{"android":"levelo://app?vid=740dd4b4-f26a-439a-9f57-31d0681dd7f1","ios":"levelo://app?vid=740dd4b4-f26a-439a-9f57-31d0681dd7f1"},"vehicle_type_id":"4","last_reported":1768554992,"current_range_meters":9200,"station_id":"ce4bgjh2rcd13ifvqbg0","pricing_plan_id":"cebpf4jnsgd1na2vs0mg"},{"bike_id":"6e841be9-d83d-4a01-b6e5-ac268803fc97","system_id":"levelo_inurba_marseille","lat":43.30146,"lon":5.38086,"is_reserved":false,"is_disabled":false,"rental_uris":{"android":"levelo://app?vid=6e841be9-d83d-4a01-b6e5-ac268803fc97","ios":"levelo://app?vid=6e841be9-d83d-4a01-b6e5-ac268803fc97"},"vehicle_type_id":"4","last_reported":1768554992,"current_range_meters":9200,"station_id":"ce4bgjp2rcd13ifvqbh0","pricing_plan_id":"cebpf4jnsgd1na2vs0mg"},{"bike_id":"4c740248-b44a-45da-a42e-71922040b1bd","system_id":"levelo_inurba_marseille","lat":43.28335,"lon":5.38102,"is_reserved":false,"is_disabled":false,"rental_uris":{"android":"levelo://app?vid=4c740248-b44a-45da-a42e-71922040b1bd","ios":"levelo://app?vid=4c740248-b44a-45da-a42e-71922040b1bd"},"vehicle_type_id":"4","last_reported":1768554992,"current_range_meters":9200,"station_id":"ce4bh412rcd13ifvqdr0","pricing_plan_id":"cebpf4jnsgd1na2vs0mg"},{"bike_id":"d31664dc-7c7e-4546-93c4-b69244fb01ed","system_id":"levelo_inurba_marseille","lat":43.297916,"lon":5.380808,"is_reserved":false,"is_disabled":false,"rental_uris":{"android":"levelo://app?vid=d31664dc-7c7e-4546-93c4-b69244fb01ed","ios":"levelo://app?vid=d31664dc-7c7e-4546-93c4-b69244fb01ed"},"vehicle_type_id":"4","last_reported":1768554992,"current_range_meters":9200,"station_id":"ce4bgip2rcd13ifvqbb0","pricing_plan_id":"cebpf4jnsgd1na2vs0mg"},{"bike_id":"8a3c8948-e83e-4561-af76-508b02db6f63","system_id":"levelo_inurba_marseille","lat":43.301556,"lon":5.380916,"is_reserved":false,"is_disabled":false,"rental_uris":{"android":"levelo://app?vid=8a3c8948-e83e-4561-af76-508b02db6f63","ios":"levelo://app?vid=8a3c8948-e83e-4561-af76-508b02db6f63"},"vehicle_type_id":"4","last_reported":1768554992,"current_range_meters":9200,"station_id":"ce4bgjp2rcd13ifvqbh0","pricing_plan_id":"cebpf4jnsgd1na2vs0mg"},{"bike_id":"acdc323c-2645-44d5-87b7-d83dbc5d28eb","system_id":"levelo_inurba_marseille","lat":43.26681,"lon":5.38278,"is_reserved":false,"is_disabled":false,"rental_uris":{"android":"levelo://app?vid=acdc323c-2645-44d5-87b7-d83dbc5d28eb","ios":"levelo://app?vid=acdc323c-2645-44d5-87b7-d83dbc5d28eb"},"vehicle_type_id":"4","last_reported":1768554992,"current_range_meters":9200,"station_id":"ce4bhg92rcd13ifvqf90","pricing_plan_id":"cebpf4jnsgd1na2vs0mg"},{"bike_id":"744e766d-6cf3-40d3-9efc-3dc33d883636","system_id":"levelo_inurba_marseille","lat":43.255694,"lon":5.382321,"is_reserved":false,"is_disabled":false,"rental_uris":{"android":"levelo://app?vid=744e766d-6cf3-40d3-9efc-3dc33d883636","ios":"levelo://app?vid=744e766d-6cf3-40d3-9efc-3dc33d883636"},"vehicle_type_id":"4","last_reported":1768554992,"current_range_meters":9200,"station_id":"ce4bhih2rcd13ifvqfs0","pricing_plan_id":"cebpf4jnsgd1na2vs0mg"},{"bike_id":"0c8e6400-5132-4fc8-bc0c-deb5c809d02f","system_id":"levelo_inurba_marseille","lat":43.22552,"lon":5.41626,"is_reserved":false,"is_disabled":false,"rental_uris":{"android":"levelo://app?vid=0c8e6400-5132-4fc8-bc0c-deb5c809d02f","ios":"levelo://app?vid=0c8e6400-5132-4fc8-bc0c-deb5c809d02f"},"vehicle_type_id":"4","last_reported":1768554992,"current_range_meters":9200,"station_id":"st_d2o4gvlbi1j2169b742g","pricing_plan_id":"cebpf4jnsgd1na2vs0mg"},{"bike_id":"eee64d10-a5fc-4ab5-a45c-4f4a7ca5f4d0","system_id":"levelo_inurba_marseille","lat":43.27987,"lon":5.41656,"is_reserved":false,"is_disabled":false,"rental_uris":{"android":"levelo://app?vid=eee64d10-a5fc-4ab5-a45c-4f4a7ca5f4d0","ios":"levelo://app?vid=eee64d10-a5fc-4ab5-a45c-4f4a7ca5f4d0"},