{"last_updated":1729264176,"ttl":60,"version":"2.2","data":{"bikes":[{"bike_id":"7c215bb1-a727-4569-986d-c8f6cf1e676e","system_id":"levelo_inurba_marseille","lat":43.31712,"lon":5.43706,"is_reserved":false,"is_disabled":false,"rental_uris":{"android":"levelo://app?vid=7c215bb1-a727-4569-986d-c8f6cf1e676e","ios":"levelo://app?vid=7c215bb1-a727-4569-986d-c8f6cf1e676e"},"vehicle_type_id":"4","last_reported":1729264176,"current_range_meters":30000,"station_id":"ce4bhp92rcd13ifvqhcg","pricing_plan_id":"cebpf4jnsgd1na2vs0mg"},{"bike_id":"9415f9f7-8dd5-4c39-b636-672f22cf6422","system_id":"levelo_inurba_marseille","lat":43.32113,"lon":5.36775,"is_reserved":false,"is_disabled":false,"rental_uris":{"android":"levelo://app?vid=9415f9f7-8dd5-4c39-b636-672f22cf6422","ios":"levelo://app?vid=9415f9f7-8dd5-4c39-b636-672f22cf6422"},"vehicle_type_id":"4","last_reported":1729264176,"current_range_meters":38800,"station_id":"ce4bhrh2rcd13ifvqhug","pricing_plan_id":"cebpf4jnsgd1na2vs0mg"},{"bike_id":"0bd29515-40d3-4b3d-a1be-6c5884ab24e6","system_id":"levelo_inurba_marseille","lat":43.32257,"lon":5.38291,"is_reserved":false,"is_disabled":false,"rental_uris":{"android":"levelo://app?vid=0bd29515-40d3-4b3d-a1be-6c5884ab24e6","ios":"levelo://app?vid=0bd29515-40d3-4b3d-a1be-6c5884ab24e6"},"vehicle_type_id":"4","last_reported":1729264176,"current_range_meters":22800,"station_id":"ce4bhr12rcd13ifvqhqg","pricing_plan_id":"cebpf4jnsgd1na2vs0mg"},{"bike_id":"676ec6c4-6b42-43e0-81fe-327782965da5","system_id":"levelo_inurba_marseille","lat":43.33765,"lon":5.37484,"is_reserved":false,"is_disabled":false,"rental_uris":{"android":"levelo://app?vid=676ec6c4-6b42-43e0-81fe-327782965da5","ios":"levelo://app?vid=676ec6c4-6b42-43e0-81fe-327782965da5"},"vehicle_type_id":"4","last_reported":1729264176,"current_range_meters":17600,"station_id":"","pricing_plan_id":"cebpf4jnsgd1na2vs0mg"},{"bike_id":"966f251d-4412-4e77-82b7-c125675614ef","system_id":"levelo_inurba_marseille","lat":43.337444,"lon":5.374475,"is_reserved":false,"is_disabled":false,"rental_uris":{"android":"levelo://app?vid=966f251d-4412-4e77-82b7-c125675614ef","ios":"levelo://app?vid=966f251d-4412-4e77-82b7-c125675614ef"},"vehicle_type_id":"4","last_reported":1729264176,"current_range_meters":7200,"station_id":"","pricing_plan_id":"cebpf4jnsgd1na2vs0mg"},{"bike_id":"c27cf383-7e73-4c9d-bbe8-221b8bc0a31c","system_id":"levelo_inurba_marseille","lat":43.27057,"lon":5.40266,"is_reserved":false,"is_disabled":false,"rental_uris":{"android":"levelo://app?vid=c27cf383-7e73-4c9d-bbe8-221b8bc0a31c","ios":"levelo://app?vid=c27cf383-7e73-4c9d-bbe8-221b8bc0a31c"},"vehicle_type_id":"4","last_reported":1729264176,"current_range_meters":15200,"station_id":"ce4bhk92rcd13ifvqgc0","pricing_plan_id":"cebpf4jnsgd1na2vs0mg"},{"bike_id":"43217466-da8e-4ef1-920d-e5f3413553d1","system_id":"levelo_inurba_marseille","lat":43.32042,"lon":5.41559,"is_reserved":false,"is_disabled":false,"rental_uris":{"android":"levelo://app?vid=43217466-da8e-4ef1-920d-e5f3413553d1","ios":"levelo://app?vid=43217466-da8e-4ef1-920d-e5f3413553d1"},"vehicle_type_id":"4","last_reported":1729264176,"current_range_meters":28000,"station_id":"ce4bhq92rcd13ifvqhkg","pricing_plan_id":"cebpf4jnsgd1na2vs0mg"},{"bike_id":"25668d1a-6b94-4045-a721-d94eb38e1ae7","system_id":"levelo_inurba_marseille","lat":43.2738,"lon":5.36265,"is_reserved":false,"is_disabled":false,"rental_uris":{"android":"levelo://app?vid=25668d1a-6b94-4045-a721-d94eb38e1ae7","ios":"levelo://app?vid=25668d1a-6b94-4045-a721-d94eb38e1ae7"},"vehicle_type_id":"4","last_reported":1729264176,"current_range_meters":39200,"station_id":"ce4bhbh2rcd13ifvqeo0","pricing_plan_id":"cebpf4jnsgd1na2vs0mg"},{"bike_id":"e4d2914a-bf2b-4770-8202-c8600635984a","system_id":"levelo_inurba_marseille","lat":43.28154,"lon":5.42648,"is_reserved":false,"is_disabled":false,"rental_uris":{"android":"levelo://app?vid=e4d2914a-bf2b-4770-8202-c8600635984a","ios":"levelo://app?vid=e4d2914a-bf2b-4770-8202-c8600635984a"},"vehicle_type_id":"4","last_reported":1729264176,"current_range_meters":12800,"station_id":"ce4bhnh2rcd13ifvqgug","pricing_plan_id":"cebpf4jnsgd1na2vs0mg"},{"bike_id":"5720e528-edc6-4468-a68a-ac0130e83182","system_id":"levelo_inurba_marseille","lat":43.28451,"lon":5.35895,"is_reserved":false,"is_disabled":false,"rental_uris":{"android":"levelo://app?vid=5720e528-edc6-4468-a68a-ac0130e83182","ios":"levelo://app?vid=5720e528-edc6-4468-a68a-ac0130e83182"},"vehicle_type_id":"4","last_reported":1729264176,"current_range_meters":19600,"station_id":"ce4bhah2rcd13ifvqei0","pricing_plan_id":"cebpf4jnsgd1na2vs0mg"},{"bike_id":"9b7849e3-e8d8-4be5-9543-236a8dff6cc4","system_id":"levelo_inurba_marseille","lat":43.25857,"lon":5.39906,"is_reserved":false,"is_disabled":false,"rental_uris":{"android":"levelo://app?vid=9b7849e3-e8d8-4be5-9543-236a8dff6cc4","ios":"levelo://app?vid=9b7849e3-e8d8-4be5-9543-236a8dff6cc4"},"vehicle_type_id":"4","last_reported":1729264176,"current_range_meters":6400,"station_id":"ce4bhl92rcd13ifvqghg","pricing_plan_id":"cebpf4jnsgd1na2vs0mg"},{"bike_id":"c8608aaa-07dc-4fe2-a2c0-5a6810596601","system_id":"levelo_inurba_marseille","lat":43.27952,"lon":5.41057,"is_reserved":false,"is_disabled":false,"rental_uris":{"android":"levelo://app?vid=c8608aaa-07dc-4fe2-a2c0-5a6810596601","ios":"levelo://app?vid=c8608aaa-07dc-4fe2-a2c0-5a6810596601"},"vehicle_type_id":"4","last_reported":1729264176,"current_range_meters":8800,"station_id":"ce4bhnp2rcd13ifvqh0g","pricing_plan_id":"cebpf4jnsgd1na2vs0mg"},{"bike_id":"f7760841-ccc8-404a-af73-61c3a9ad5f7b","system_id":"levelo_inurba_marseille","lat":43.25086,"lon":5.39529,"is_reserved":false,"is_disabled":false,"rental_uris":{"android":"levelo://app?vid=f7760841-ccc8-404a-af73-61c3a9ad5f7b","ios":"levelo://app?vid=f7760841-ccc8-404a-af73-61c3a9ad5f7b"},"vehicle_type_id":"4","last_reported":1729264176,"current_range_meters":37600,"station_id":"ce4bhm12rcd13ifvqgkg","pricing_plan_id":"cebpf4jnsgd1na2vs0mg"},{"bike_id":"ab2376eb-bbd0-47f6-96e3-29315f976dbf","system_id":"levelo_inurba_marseille","lat":43.28408,"lon":5.34988,"is_reserved":false,"is_disabled":false,"rental_uris":{"android":"levelo://app?vid=ab2376eb-bbd0-47f6-96e3-29315f976dbf","ios":"levelo://app?vid=ab2376eb-bbd0-47f6-96e3-29315f976dbf"},"vehicle_type_id":"4","last_reported":1729264176,"current_range_meters":30800,"station_id":"ce4bhbh2rcd13ifvqepg","pricing_plan_id":"cebpf4jnsgd1na2vs0mg"},{"bike_id":"ab0a1ff0-9f1e-4bf7-b3cd-abf65dc62249","system_id":"levelo_inurba_marseille","lat":43.2694,"lon":5.40249,"is_reserved":false,"is_disabled":false,"rental_uris":{"android":"levelo://app?vid=ab0a1ff0-9f1e-4bf7-b3cd-abf65dc62249","ios":"levelo://app?vid=ab0a1ff0-9f1e-4bf7-b3cd-abf65dc62249"},"vehicle_type_id":"4","last_reported":1729264176,"current_range_meters":38000,"station_id":"cjm6bp8fraef2m0cb0m0","pricing_plan_id":"cebpf4jnsgd1na2vs0mg"},{"bike_id":"b80b4ebf-49e0-4151-9754-48ced405910b","system_id":"levelo_inurba_marseille","lat":43.29228,"lon":5.36074,"is_reserved":false,"is_disabled":false,"rental_uris":{"android":"levelo://app?vid=b80b4ebf-49e0-4151-9754-48ced405910b","ios":"levelo://app?vid=b80b4ebf-49e0-4151-9754-48ced405910b"},"vehicle_type_id":"4","last_reported":1729264176,"current_range_meters":37600,"station_id":"ce4bhbh2rcd13ifvqeqg","pricing_plan_id":"cebpf4jnsgd1na2vs0mg"},{"bike_id":"f42e8f62-1554-4874-a070-be7ca781c36d","system_id":"levelo_inurba_marseille","lat":43.268402,"lon":5.393614,"is_reserved":false,"is_disabled":false,"rental_uris":{"android":"levelo://app?vid=f42e8f62-1554-4874-a070-be7ca781c36d","ios":"levelo://app?vid=f42e8f62-1554-4874-a070-be7ca781c36d"},"vehicle_type_id":"4","last_reported":1729264176,"current_range_meters":33600,"station_id":"","pricing_plan_id":"cebpf4jnsgd1na2vs0mg"},{"bike_id":"5e053c0d-95ce-41d5-aacf-cd561427d7cf","system_id":"levelo_inurba_marseille","lat":43.26197,"lon":5.37452,"is_reserved":false,"is_disabled":false,"rental_uris":{"android":"levelo://app?vid=5e053c0d-95ce-41d5-aacf-cd561427d7cf","ios":"levelo://app?vid=5e053c0d-95ce-41d5-aacf-cd561427d7cf"},"vehicle_type_id":"4","last_reported":1729264176,"current_range_meters":30000,"station_id":"ce4bhgp2rcd13ifvqfc0","pricing_plan_id":"cebpf4jnsgd1na2vs0mg"},{"bike_id":"5591f93d-66e8-40d2-a38e-f1e627b6ecf9","system_id":"levelo_inurba_marseille","lat":43.26213,"lon":5.37445,"is_reserved":false,"is_disabled":false,"rental_uris":{"android":"levelo://app?vid=5591f93d-66e8-40d2-a38e-f1e627b6ecf9","ios":"levelo://app?vid=5591f93d-66e8-40d2-a38e-f1e627b6ecf9"},"vehicle_type_id":"4","last_reported":1729264176,"current_range_meters":37600,"station_id":"ce4bhgp2rcd13ifvqfc0","pricing_plan_id":"cebpf4jnsgd1na2vs0mg"},{"bike_id":"3d7a1dde-e6a7-4b93-abf6-c8b7d0180f1e","system_id":"levelo_inurba_marseille","lat":43.29932,"lon":5.36536,"is_reserved":false,"is_disabled":false,"rental_uris":{"android":"levelo://app?vid=3d7a1dde-e6a7-4b93-abf6-c8b7d0180f1e","ios":"levelo://app?vid=3d7a1dde-e6a7-4b93-abf6-c8b7d0180f1e"},"vehicle_type_id":"4","last_reported":1729264176,"current_range_meters":8400,"station_id":"ce4bgm92rcd13ifvqbr0","pricing_plan_id":"cebpf4jnsgd1na2vs0mg"},{"bike_id":"b936e022-ab34-46e9-a59b-9300994d2db4","system_id":"levelo_inurba_marseille","lat":43.32483,"lon":5.36563,"is_reserved":false,"is_disabled":false,"rental_uris":{"android":"levelo://app?vid=b936e022-ab34-46e9-a59b-9300994d2db4","ios":"levelo://app?vid=b936e022-ab34-46e9-a59b-9300994d2db4"},"vehicle_type_id":"4","last_reported":1729264176,"current_range_meters":38800,"station_id":"ce4bhs12rcd13ifvqhvg","pricing_plan_id":"cebpf4jnsgd1na2vs0mg"},{"bike_id":"2aa30074-a798-4517-9910-408fe840d5c0","system_id":"levelo_inurba_marseille","lat":43.23194,"lon":5.35557,"is_reserved":false,"is_disabled":false,"rental_uris":{"android":"levelo://app?vid=2aa30074-a798-4517-9910-408fe840d5c0","ios":"levelo://app?vid=2aa30074-a798-4517-9910-408fe840d5c0"},"vehicle_type_id":"4","last_reported":1729264176,"current_range_meters":28000,"station_id":"ce4bhu92rcd13ifvqi70","pricing_plan_id":"cebpf4jnsgd1na2vs0mg"},{"bike_id":"06a2e5b6-d067-4f86-acca-6e5662c1dfa0","system_id":"levelo_inurba_marseille","lat":43.28902,"lon":5.39497,"is_reserved":false,"is_disabled":false,"rental_uris":{"android":"levelo://app?vid=06a2e5b6-d067-4f86-acca-6e5662c1dfa0","ios":"levelo://app?vid=06a2e5b6-d067-4f86-acca-6e5662c1dfa0"},"vehicle_type_id":"4","last_reported":1729264176,"current_range_meters":11600,"station_id":"ce4bh3p2rcd13ifvqdp0","pricing_plan_id":"cebpf4jnsgd1na2vs0mg"},{"bike_id":"d5d87b96-496a-454b-9e81-b0e5a09c72cf","system_id":"levelo_inurba_marseille","lat":43.28606,"lon":5.3707,"is_reserved":false,"is_disabled":false,"rental_uris":{"android":"levelo://app?vid=d5d87b96-496a-454b-9e81-b0e5a09c72cf","ios":"levelo://app?vid=d5d87b96-496a-454b-9e81-b0e5a09c72cf"},"vehicle_type_id":"4","last_reported":1729264176,"current_range_meters":36800,"station_id":"ce4bht12rcd13ifvqi60","pricing_plan_id":"cebpf4jnsgd1na2vs0mg"},{"bike_id":"e022577b-9734-40cb-b5c0-10582011aea2","system_id":"levelo_inurba_marseille","lat":43.315186,"lon":5.369182,"is_reserved":false,"is_disabled":false,"rental_uris":{"android":"levelo://app?vid=e022577b-9734-40cb-b5c0-10582011aea2","ios":"levelo://app?vid=e022577b-9734-40cb-b5c0-10582011aea2"},"vehicle_type_id":"4","last_reported":1729264176,"current_range_meters":6000,"station_id":"ce4bh3p2rcd13ifvqdq0","pricing_plan_id":"cebpf4jnsgd1na2vs0mg"},{"bike_id":"bc4dfd71-cdf3-45e3-8aa3-c5528379f96a","system_id":"levelo_inurba_marseille","lat":43.27615,"lon":5.36108,"is_reserved":false,"is_disabled":false,"rental_uris":{"android":"levelo://app?vid=bc4dfd71-cdf3-45e3-8aa3-c5528379f96a","ios":"levelo://app?vid=bc4dfd71-cdf3-45e3-8aa3-c5528379f96a"},"vehicle_type_id":"4","last_reported":1729264176,"current_range_meters":23200,"station_id":"ce4bgj92rcd13ifvqbe0","pricing_plan_id":"cebpf4jnsgd1na2vs0mg"},{"bike_id":"c746da30-0175-4c63-8cc4-f4d0284e8127","system_id":"levelo_inurba_marseille","lat":43.23952,"lon":5.36651,"is_reserved":false,"is_disabled":false,"rental_uris":{"android":"levelo://app?vid=c746da30-0175-4c63-8cc4-f4d0284e8127","ios":"levelo://app?vid=c746da30-0175-4c63-8cc4-f4d0284e8127"},"vehicle_type_id":"4","last_reported":1729264176,"current_range_meters":20800,"station_id":"ce4bhi12rcd13ifvqfp0","pricing_plan_id":"cebpf4jnsgd1na2vs0mg"},{"bike_id":"63718ef1-d412-43f3-9d84-5ef6459cd308","system_id":"levelo_inurba_marseille","lat":43.2511,"lon":5.40319,"is_reserved":false,"is_disabled":false,"rental_uris":{"android":"levelo://app?vid=63718ef1-d412-43f3-9d84-5ef6459cd308","ios":"levelo://app?vid=63718ef1-d412-43f3-9d84-5ef6459cd308"},"vehicle_type_id":"4","last_reported":1729264176,"current_range_meters":27600,"station_id":"ce4bhlh2rcd13ifvqgig","pricing_plan_id":"cebpf4jnsgd1na2vs0mg"},{"bike_id":"a7cb0ebb-6d13-4922-ab3b-c89af48cb50e","system_id":"levelo_inurba_marseille","lat":43.27904,"lon":5.38009,"is_reserved":false,"is_disabled":false,"rental_uris":{"android":"levelo://app?vid=a7cb0ebb-6d13-4922-ab3b-c89af48cb50e","ios":"levelo://app?vid=a7cb0ebb-6d13-4922-ab3b-c89af48cb50e"},"vehicle_type_id":"4","last_reported":1729264176,"current_range_meters":5600,"station_id":"ce4bhf92rcd13ifvqf50","pricing_plan_id":"cebpf4jnsgd1na2vs0mg"},{"bike_id":"6b7c65c8-2620-406b-9377-2ca6fb33b7b1","system_id":"levelo_inurba_marseille","lat":43.26215,"lon":5.37443,"is_reserved":false,"is_disabled":false,"rental_uris":{"android":"levelo://app?vid=6b7c65c8-2620-406b-9377-2ca6fb33b7b1","ios":"levelo://app?vid=6b7c65c8-2620-406b-9377-2ca6fb33b7b1"},"vehicle_type_id":"4","last_reported":1729264176,"current_range_meters":38800,"station_id":"ce4bhgp2rcd13ifvqfc0","pricing_plan_id":"cebpf4jnsgd1na2vs0mg"},{"bike_id":"889b9bb3-8963-4f08-8cc0-fd064c95f10f","system_id":"levelo_inurba_marseille","lat":43.27808,"lon":5.40719,"is_reserved":false,"is_disabled":false,"rental_uris":{"android":"levelo://app?vid=889b9bb3-8963-4f08-8cc0-fd064c95f10f","ios":"levelo://app?vid=889b9bb3-8963-4f08-8cc0-fd064c95f10f"},"vehicle_type_id":"4","last_reported":1729264176,"current_range_meters":9200,"station_id":"ce4bhnh2rcd13ifvqgtg","pricing_plan_id":"cebpf4jnsgd1na2vs0mg"},{"bike_id":"281982f1-bb35-4471-8a02-75335f8201ef","system_id":"levelo_inurba_marseille","lat":43.26188,"lon":5.37452,"is_reserved":false,"is_disabled":false,"rental_uris":{"android":"levelo://app?vid=281982f1-bb35-4471-8a02-75335f8201ef","ios":"levelo://app?vid=281982f1-bb35-4471-8a02-75335f8201ef"},"vehicle_type_id":"4","last_reported":1729264176,"current_range_meters":28800,"station_id":"ce4bhgp2rcd13ifvqfc0","pricing_plan_id":"cebpf4jnsgd1na2vs0mg"},{"bike_id":"3447516a-af94-4b5d-91b2-da01522669e7","system_id":"levelo_inurba_marseille","lat":43.31758,"lon":5.39017,"is_reserved":false,"is_disabled":false,"rental_uris":{"android":"levelo://app?vid=3447516a-af94-4b5d-91b2-da01522669e7","ios":"levelo://app?vid=3447516a-af94-4b5d-91b2-da01522669e7"},"vehicle_type_id":"4","last_reported":1729264176,"current_range_meters":33200,"station_id":"ce4bhqp2rcd13ifvqhng","pricing_plan_id":"cebpf4jnsgd1na2vs0mg"},{"bike_id":"606c4a68-88ed-4573-b6e0-5d862a0f7e72","system_id":"levelo_inurba_marseille","lat":43.27892,"lon":5.3802,"is_reserved":false,"is_disabled":false,"rental_uris":{"android":"levelo://app?vid=606c4a68-88ed-4573-b6e0-5d862a0f7e72","ios":"levelo://app?vid=606c4a68-88ed-4573-b6e0-5d862a0f7e72"},"vehicle_type_id":"4","last_reported":1729264176,"current_range_meters":3200,"station_id":"ce4bhf92rcd13ifvqf50","pricing_plan_id":"cebpf4jnsgd1na2vs0mg"},{"bike_id":"3cc9ca15-d23c-4891-9216-c134fa816eb8","system_id":"levelo_inurba_marseille","lat":43.24182,"lon":5.39734,"is_reserved":false,"is_disabled":false,"rental_uris":{"android":"levelo://app?vid=3cc9ca15-d23c-4891-9216-c134fa816eb8","ios":"levelo://app?vid=3cc9ca15-d23c-4891-9216-c134fa816eb8"},"vehicle_type_id":"4","last_reported":1729264176,"current_range_meters":27600,"station_id":"ce4bhn12rcd13ifvqgpg","pricing_plan_id":"cebpf4jnsgd1na2vs0mg"},{"bike_id":"299dfc52-ccaa-46a8-85e5-ed1f38c31e59","system_id":"levelo_inurba_marseille","lat":43.2418,"lon":5.39728,"is_reserved":false,"is_disabled":false,"rental_uris":{"android":"levelo://app?vid=299dfc52-ccaa-46a8-85e5-ed1f38c31e59","ios":"levelo://app?vid=299dfc52-ccaa-46a8-85e5-ed1f38c31e59"},"vehicle_type_id":"4","last_reported":1729264176,"current_range_meters":18000,"station_id":"ce4bhn12rcd13ifvqgpg","pricing_plan_id":"cebpf4jnsgd1na2vs0mg"},{"bike_id":"55cc1308-1d5e-4240-8fbe-be408e451cad","system_id":"levelo_inurba_marseille","lat":43.29847,"lon":5.36274,"is_reserved":false,"is_disabled":false,"rental_uris":{"android":"levelo://app?vid=55cc1308-1d5e-4240-8fbe-be408e451cad","ios":"levelo://app?vid=55cc1308-1d5e-4240-8fbe-be408e451cad"},"vehicle_type_id":"4","last_reported":1729264176,"current_range_meters":8800,"station_id":"ce4bgpp2rcd13ifvqc3g","pricing_plan_id":"cebpf4jnsgd1na2vs0mg"},{"bike_id":"88343b4d-acd5-4ff1-b574-d9a1e9f660d1","system_id":"levelo_inurba_marseille","lat":43.26192,"lon":5.37448,"is_reserved":false,"is_disabled":false,"rental_uris":{"android":"levelo://app?vid=88343b4d-acd5-4ff1-b574-d9a1e9f660d1","ios":"levelo://app?vid=88343b4d-acd5-4ff1-b574-d9a1e9f660d1"},"vehicle_type_id":"4","last_reported":1729264176,"current_range_meters":19200,"station_id":"ce4bhgp2rcd13ifvqfc0","pricing_plan_id":"cebpf4jnsgd1na2vs0mg"},{"bike_id":"3d7546d0-4dba-4212-88c9-dfe9a2032237","system_id":"levelo_inurba_marseille","lat":43.24165,"lon":5.36399,"is_reserved":false,"is_disabled":false,"rental_uris":{"android":"levelo://app?vid=3d7546d0-4dba-4212-88c9-dfe9a2032237","ios":"levelo://app?vid=3d7546d0-4dba-4212-88c9-dfe9a2032237"},"vehicle_type_id":"4","last_reported":1729264176,"current_range_meters":37600,"station_id":"cpo36qri1sfpv3e86is0","pricing_plan_id":"cebpf4jnsgd1na2vs0mg"},{"bike_id":"007f1dfd-0d2c-426c-a157-0f8331696688","system_id":"levelo_inurba_marseille","lat":43.23192,"lon":5.35552,"is_reserved":false,"is_disabled":false,"rental_uris":{"android":"levelo://app?vid=007f1dfd-0d2c-426c-a157-0f8331696688","ios":"levelo://app?vid=007f1dfd-0d2c-426c-a157-0f8331696688"},"vehicle_type_id":"4","last_reported":1729264176,"current_range_meters":7200,"station_id":"ce4bhu92rcd13ifvqi70","pricing_plan_id":"cebpf4jnsgd1na2vs0mg"},{"bike_id":"4a7be492-19b6-48b1-b7c2-11aa7a381c9e","system_id":"levelo_inurba_marseille","lat":43.26211,"lon":5.37445,"is_reserved":false,"is_disabled":false,"rental_uris":{"android":"levelo://app?vid=4a7be492-19b6-48b1-b7c2-11aa7a381c9e","ios":"levelo://app?vid=4a7be492-19b6-48b1-b7c2-11aa7a381c9e"},"vehicle_type_id":"4","last_reported":1729264176,"current_range_meters":38800,"station_id":"ce4bhgp2rcd13ifvqfc0","pricing_plan_id":"cebpf4jnsgd1na2vs0mg"},{"bike_id":"25573e2f-a445-4919-a85f-8daef7637352","system_id":"levelo_inurba_marseille","lat":43.30802,"lon":5.43524,"is_reserved":false,"is_disabled":false,"rental_uris":{"android":"levelo://app?vid=25573e2f-a445-4919-a85f-8daef7637352","ios":"levelo://app?vid=25573e2f-a445-4919-a85f-8daef7637352"},"vehicle_type_id":"4","last_reported":1729264176,"current_range_meters":32800,"station_id":"ce4bhph2rcd13ifvqheg","pricing_plan_id":"cebpf4jnsgd1na2vs0mg"},{"bike_id":"90b7df2b-2805-4913-a745-07d80216980c","system_id":"levelo_inurba_marseille","lat":43.30801,"lon":5.43519,"is_reserved":false,"is_disabled":false,"rental_uris":{"android":"levelo://app?vid=90b7df2b-2805-4913-a745-07d80216980c","ios":"levelo://app?vid=90b7df2b-2805-4913-a745-07d80216980c"},"vehicle_type_id":"4","last_reported":1729264176,"current_range_meters":10800,"station_id":"ce4bhph2rcd13ifvqheg","pricing_plan_id":"cebpf4jnsgd1na2vs0mg"},{"bike_id":"32ce68a3-3fc7-4257-974f-ab657619c295","system_id":"levelo_inurba_marseille","lat":43.33741,"lon":5.37465,"is_reserved":false,"is_disabled":false,"rental_uris":{"android":"levelo://app?vid=32ce68a3-3fc7-4257-974f-ab657619c295","ios":"levelo://app?vid=32ce68a3-3fc7-4257-974f-ab657619c295"},"vehicle_type_id":"4","last_reported":1729264176,"current_range_meters":9600,"station_id":"","pricing_plan_id":"cebpf4jnsgd1na2vs0mg"},{"bike_id":"6a493eff-9915-41b8-9ec4-b22c1d7b64c4","system_id":"levelo_inurba_marseille","lat":43.26192,"lon":5.3746,"is_reserved":false,"is_disabled":false,"rental_uris":{"android":"levelo://app?vid=6a493eff-9915-41b8-9ec4-b22c1d7b64c4","ios":"levelo://app?vid=6a493eff-9915-41b8-9ec4-b22c1d7b64c4"},"vehicle_type_id":"4","last_reported":1729264176,"current_range_meters":38800,"station_id":"ce4bhgp2rcd13ifvqfc0","pricing_plan_id":"cebpf4jnsgd1na2vs0mg"},{"bike_id":"7e700713-73b7-41fd-ad54-92011c25c6ca","system_id":"levelo_inurba_marseille","lat":43.27377,"lon":5.36272,"is_reserved":false,"is_disabled":false,"rental_uris":{"android":"levelo://app?vid=7e700713-73b7-41fd-ad54-92011c25c6ca","ios":"levelo://app?vid=7e700713-73b7-41fd-ad54-92011c25c6ca"},"vehicle_type_id":"4","last_reported":1729264176,"current_range_meters":31200,"station_id":"ce4bhbh2rcd13ifvqeo0","pricing_plan_id":"cebpf4jnsgd1na2vs0mg"},{"bike_id":"6925b9a1-dcd5-44fa-a331-92eaef316add","system_id":"levelo_inurba_marseille","lat":43.2737,"lon":5.36264,"is_reserved":false,"is_disabled":false,"rental_uris":{"android":"levelo://app?vid=6925b9a1-dcd5-44fa-a331-92eaef316add","ios":"levelo://app?vid=6925b9a1-dcd5-44fa-a331-92eaef316add"},"vehicle_type_id":"4","last_reported":1729264176,"current_range_meters":37600,"station_id":"ce4bhbh2rcd13ifvqeo0","pricing_plan_id":"cebpf4jnsgd1na2vs0mg"},{"bike_id":"555ff3cf-777b-4ff4-b149-9575fc002950","system_id":"levelo_inurba_marseille","lat":43.241815,"lon":5.397217,"is_reserved":false,"is_disabled":false,"rental_uris":{"android":"levelo://app?vid=555ff3cf-777b-4ff4-b149-9575fc002950","ios":"levelo://app?vid=555ff3cf-777b-4ff4-b149-9575fc002950"},"vehicle_type_id":"4","last_reported":1729264176,"current_range_meters":31200,"station_id":"ce4bhn12rcd13ifvqgpg","pricing_plan_id":"cebpf4jnsgd1na2vs0mg"},{"bike_id":"b64362e2-b043-4f67-8e42-f68524e828ed","system_id":"levelo_inurba_marseille","lat":43.24191,"lon":5.39719,"is_reserved":false,"is_disabled":false,"rental_uris":{"android":"levelo://app?vid=b64362e2-b043-4f67-8e42-f68524e828ed","ios":"levelo://app?vid=b64362e2-b043-4f67-8e42-f68524e828ed"},"vehicle_type_id":"4","last_reported":1729264176,"current_range_meters":24800,"station_id":"ce4bhn12rcd13ifvqgpg","pricing_plan_id":"cebpf4jnsgd1na2vs0mg"},{"bike_id":"fa7bbdc9-afbe-404d-8676-647037cc76a9","system_id":"levelo_inurba_marseille","lat":43.23193,"lon":5.35543,"is_reserved":false,"is_disabled":false,"rental_uris":{"android":"levelo://app?vid=fa7bbdc9-afbe-404d-8676-647037cc76a9","ios":"levelo://app?vid=fa7bbdc9-afbe-404d-8676-647037cc76a9"},"vehicle_type_id":"4","last_reported":1729264176,"current_range_meters":28400,"station_id":"ce4bhu92rcd13ifvqi70","pricing_plan_id":"cebpf4jnsgd1na2vs0mg"},{"bike_id":"5262a0a5-fcaf-4f79-b9c8-8297a6295d3a","system_id":"levelo_inurba_marseille","lat":43.29569,"lon":5.39978,"is_reserved":false,"is_disabled":false,"rental_uris":{"android":"levelo://app?vid=5262a0a5-fcaf-4f79-b9c8-8297a6295d3a","ios":"levelo://app?vid=5262a0a5-fcaf-4f79-b9c8-8297a6295d3a"},"vehicle_type_id":"4","last_reported":1729264176,"current_range_meters":1200,"station_id":"ce4bh312rcd13ifvqdj0","pricing_plan_id":"cebpf4jnsgd1na2vs0mg"},{"bike_id":"ae72d7e7-44c5-4936-b652-a590a2ba24a2","system_id":"levelo_inurba_marseille","lat":43.28033,"lon":5.36933,"is_reserved":false,"is_disabled":false,"rental_uris":{"android":"levelo://app?vid=ae72d7e7-44c5-4936-b652-a590a2ba24a2","ios":"levelo://app?vid=ae72d7e7-44c5-4936-b652-a590a2ba24a2"},"vehicle_type_id":"4","last_reported":1729264176,"current_range_meters":35600,"station_id":"ce4bha12rcd13ifvqef0","pricing_plan_id":"cebpf4jnsgd1na2vs0mg"},{"bike_id":"f8d2e239-573b-4f9d-8955-e6720aa9663e","system_id":"levelo_inurba_marseille","lat":43.24647,"lon":5.38897,"is_reserved":false,"is_disabled":false,"rental_uris":{"android":"levelo://app?vid=f8d2e239-573b-4f9d-8955-e6720aa9663e","ios":"levelo://app?vid=f8d2e239-573b-4f9d-8955-e6720aa9663e"},"vehicle_type_id":"4","last_reported":1729264176,"current_range_meters":30800,"station_id":"ce4bhg12rcd13ifvqf60","pricing_plan_id":"cebpf4jnsgd1na2vs0mg"},{"bike_id":"d88aeb6e-c2cc-4a3f-be09-bedf13f1d5fa","system_id":"levelo_inurba_marseille","lat":43.319936,"lon":5.381528,"is_reserved":false,"is_disabled":false,"rental_uris":{"android":"levelo://app?vid=d88aeb6e-c2cc-4a3f-be09-bedf13f1d5fa","ios":"levelo://app?vid=d88aeb6e-c2cc-4a3f-be09-bedf13f1d5fa"},"vehicle_type_id":"4","last_reported":1729264176,"current_range_meters":38800,"station_id":"ce4bhr12rcd13ifvqhpg","pricing_plan_id":"cebpf4jnsgd1na2vs0mg"},{"bike_id":"8c1ec6cb-2291-4814-837b-be8625c706f3","system_id":"levelo_inurba_marseille","lat":43.23195,"lon":5.35544,"is_reserved":false,"is_disabled":false,"rental_uris":{"android":"levelo://app?vid=8c1ec6cb-2291-4814-837b-be8625c706f3","ios":"levelo://app?vid=8c1ec6cb-2291-4814-837b-be8625c706f3"},"vehicle_type_id":"4","last_reported":1729264176,"current_range_meters":32000,"station_id":"ce4bhu92rcd13ifvqi70","pricing_plan_id":"cebpf4jnsgd1na2vs0mg"},{"bike_id":"e05a8545-65f7-4cf3-8739-ba534517b4f3","system_id":"levelo_inurba_marseille","lat":43.27373,"lon":5.36264,"is_reserved":false,"is_disabled":false,"rental_uris":{"android":"levelo://app?vid=e05a8545-65f7-4cf3-8739-ba534517b4f3","ios":"levelo://app?vid=e05a8545-65f7-4cf3-8739-ba534517b4f3"},"vehicle_type_id":"4","last_reported":1729264176,"current_range_meters":29600,"station_id":"ce4bhbh2rcd13ifvqeo0","pricing_plan_id":"cebpf4jnsgd1na2vs0mg"},{"bike_id":"f73a607d-92c9-42b4-ae2b-96bc65b813ca","system_id":"levelo_inurba_marseille","lat":43.31756,"lon":5.39017,"is_reserved":false,"is_disabled":false,"rental_uris":{"android":"levelo://app?vid=f73a607d-92c9-42b4-ae2b-96bc65b813ca","ios":"levelo://app?vid=f73a607d-92c9-42b4-ae2b-96bc65b813ca"},"vehicle_type_id":"4","last_reported":1729264176,"current_range_meters":4800,"station_id":"ce4bgth2rcd13ifvqch0","pricing_plan_id":"cebpf4jnsgd1na2vs0mg"},{"bike_id":"b0e08f1a-f92b-49c9-a47a-8d46f81a97cb","system_id":"levelo_inurba_marseille","lat":43.27997,"lon":5.40022,"is_reserved":false,"is_disabled":false,"rental_uris":{"android":"levelo://app?vid=b0e08f1a-f92b-49c9-a47a-8d46f81a97cb","ios":"levelo://app?vid=b0e08f1a-f92b-49c9-a47a-8d46f81a97cb"},"vehicle_type_id":"4","last_reported":1729264176,"current_range_meters":37600,"station_id":"ce4bho92rcd13ifvqh4g","pricing_plan_id":"cebpf4jnsgd1na2vs0mg"},{"bike_id":"a740f074-4979-48b6-ad9e-776773d442dc","system_id":"levelo_inurba_marseille","lat":43.28854,"lon":5.35854,"is_reserved":false,"is_disabled":false,"rental_uris":{"android":"levelo://app?vid=a740f074-4979-48b6-ad9e-776773d442dc","ios":"levelo://app?vid=a740f074-4979-48b6-ad9e-776773d442dc"},"vehicle_type_id":"4","last_reported":1729264176,"current_range_meters":31200,"station_id":"ce4bhb12rcd13ifvqem0","pricing_plan_id":"cebpf4jnsgd1na2vs0mg"},{"bike_id":"ba9bd7c4-d1e3-4f57-8f18-78d353422ae9","system_id":"levelo_inurba_marseille","lat":43.23063,"lon":5.35496,"is_reserved":false,"is_disabled":false,"rental_uris":{"android":"levelo://app?vid=ba9bd7c4-d1e3-4f57-8f18-78d353422ae9","ios":"levelo://app?vid=ba9bd7c4-d1e3-4f57-8f18-78d353422ae9"},"vehicle_type_id":"4","last_reported":1729264176,"current_range_meters":32000,"station_id":"cpo3342slgdg3j2ifvpg","pricing_plan_id":"cebpf4jnsgd1na2vs0mg"},{"bike_id":"793ba26d-a842-4a05-b590-a530a6eb87cb","system_id":"levelo_inurba_marseille","lat":43.30245,"lon":5.40081,"is_reserved":false,"is_disabled":false,"rental_uris":{"android":"levelo://app?vid=793ba26d-a842-4a05-b590-a530a6eb87cb","ios":"levelo://app?vid=793ba26d-a842-4a05-b590-a530a6eb87cb"},"vehicle_type_id":"4","last_reported":1729264176,"current_range_meters":37600,"station_id":"ce4bgvh2rcd13ifvqcs0","pricing_plan_id":"cebpf4jnsgd1na2vs0mg"},{"bike_id":"5b0f4bd5-af96-40ab-9789-720f416d18f0","system_id":"levelo_inurba_marseille","lat":43.32051,"lon":5.41551,"is_reserved":false,"is_disabled":false,"rental_uris":{"android":"levelo://app?vid=5b0f4bd5-af96-40ab-9789-720f416d18f0","ios":"levelo://app?vid=5b0f4bd5-af96-40ab-9789-720f416d18f0"},"vehicle_type_id":"4","last_reported":1729264176,"current_range_meters":18800,"station_id":"ce4bhq92rcd13ifvqhkg","pricing_plan_id":"cebpf4jnsgd1na2vs0mg"},{"bike_id":"c28dcc41-e290-4ac5-920f-78c8b4b9a18e","system_id":"levelo_inurba_marseille","lat":43.27606,"lon":5.36115,"is_reserved":false,"is_disabled":false,"rental_uris":{"android":"levelo://app?vid=c28dcc41-e290-4ac5-920f-78c8b4b9a18e","ios":"levelo://app?vid=c28dcc41-e290-4ac5-920f-78c8b4b9a18e"},"vehicle_type_id":"4","last_reported":1729264176,"current_range_meters":36800,"station_id":"ce4bgj92rcd13ifvqbe0","pricing_plan_id":"cebpf4jnsgd1na2vs0mg"},{"bike_id":"eda11a60-0fc9-4d73-ac22-b837e08adaf5","system_id":"levelo_inurba_marseille","lat":43.28424,"lon":5.35,"is_reserved":false,"is_disabled":false,"rental_uris":{"android":"levelo://app?vid=eda11a60-0fc9-4d73-ac22-b837e08adaf5","ios":"levelo://app?vid=eda11a60-0fc9-4d73-ac22-b837e08adaf5"},"vehicle_type_id":"4","last_reported":1729264176,"current_range_meters":33200,"station_id":"ce4bhbh2rcd13ifvqepg","pricing_plan_id":"cebpf4jnsgd1na2vs0mg"},{"bike_id":"a14cfc8d-fbbd-40b0-aa99-e624d97946a6","system_id":"levelo_inurba_marseille","lat":43.307998,"lon":5.435203,"is_reserved":false,"is_disabled":false,"rental_uris":{"android":"levelo://app?vid=a14cfc8d-fbbd-40b0-aa99-e624d97946a6","ios":"levelo://app?vid=a14cfc8d-fbbd-40b0-aa99-e624d97946a6"},"vehicle_type_id":"4","last_reported":1729264176,"current_range_meters":28000,"station_id":"ce4bhph2rcd13ifvqheg","pricing_plan_id":"cebpf4jnsgd1na2vs0mg"},{"bike_id":"874494de-7452-4f47-9fec-c5ec79478035","system_id":"levelo_inurba_marseille","lat":43.23969,"lon":5.3663,"is_reserved":false,"is_disabled":false,"rental_uris":{"android":"levelo://app?vid=874494de-7452-4f47-9fec-c5ec79478035","ios":"levelo://app?vid=874494de-7452-4f47-9fec-c5ec79478035"},"vehicle_type_id":"4","last_reported":1729264176,"current_range_meters":24000,"station_id":"ce4bhi12rcd13ifvqfp0","pricing_plan_id":"cebpf4jnsgd1na2vs0mg"},{"bike_id":"8b33911e-5d42-46bd-b00d-c1d5ce72f577","system_id":"levelo_inurba_marseille","lat":43.23184,"lon":5.39991,"is_reserved":false,"is_disabled":false,"rental_uris":{"android":"levelo://app?vid=8b33911e-5d42-46bd-b00d-c1d5ce72f577","ios":"levelo://app?vid=8b33911e-5d42-46bd-b00d-c1d5ce72f577"},"vehicle_type_id":"4","last_reported":1729264176,"current_range_meters":38800,"station_id":"ce4bhn12rcd13ifvqgqg","pricing_plan_id":"cebpf4jnsgd1na2vs0mg"},{"bike_id":"0994d7f0-fa2e-480f-b967-2b1e1b476b78","system_id":"levelo_inurba_marseille","lat":43.23183,"lon":5.35563,"is_reserved":false,"is_disabled":false,"rental_uris":{"android":"levelo://app?vid=0994d7f0-fa2e-480f-b967-2b1e1b476b78","ios":"levelo://app?vid=0994d7f0-fa2e-480f-b967-2b1e1b476b78"},"vehicle_type_id":"4","last_reported":1729264176,"current_range_meters":8400,"station_id":"ce4bhu92rcd13ifvqi70","pricing_plan_id":"cebpf4jnsgd1na2vs0mg"},{"bike_id":"350d5c82-77b3-4406-a0db-05f9d2d9a3d8","system_id":"levelo_inurba_marseille","lat":43.23054,"lon":5.35497,"is_reserved":false,"is_disabled":false,"rental_uris":{"android":"levelo://app?vid=350d5c82-77b3-4406-a0db-05f9d2d9a3d8","ios":"levelo://app?vid=350d5c82-77b3-4406-a0db-05f9d2d9a3d8"},"vehicle_type_id":"4","last_reported":1729264176,"current_range_meters":8400,"station_id":"cpo3342slgdg3j2ifvpg","pricing_plan_id":"cebpf4jnsgd1na2vs0mg"},{"bike_id":"66ccc46d-618e-4760-b09c-27382152bdab","system_id":"levelo_inurba_marseille","lat":43.23188,"lon":5.35546,"is_reserved":false,"is_disabled":false,"rental_uris":{"android":"levelo://app?vid=66ccc46d-618e-4760-b09c-27382152bdab","ios":"levelo://app?vid=66ccc46d-618e-4760-b09c-27382152bdab"},"vehicle_type_id":"4","last_reported":1729264176,"current_range_meters":28000,"station_id":"ce4bhu92rcd13ifvqi70","pricing_plan_id":"cebpf4jnsgd1na2vs0mg"},{"bike_id":"89f66516-1c3c-4233-9d5e-b67b1827b027","system_id":"levelo_inurba_marseille","lat":43.24082,"lon":5.37756,"is_reserved":false,"is_disabled":false,"rental_uris":{"android":"levelo://app?vid=89f66516-1c3c-4233-9d5e-b67b1827b027","ios":"levelo://app?vid=89f66516-1c3c-4233-9d5e-b67b1827b027"},"vehicle_type_id":"4","last_reported":1729264176,"current_range_meters":4400,"station_id":"ce4bhnp2rcd13ifvqgvg","pricing_plan_id":"cebpf4jnsgd1na2vs0mg"},{"bike_id":"aeb6ef8e-cab2-4479-b567-0b2741ce6261","system_id":"levelo_inurba_marseille","lat":43.28421,"lon":5.34997,"is_reserved":false,"is_disabled":false,"rental_uris":{"android":"levelo://app?vid=aeb6ef8e-cab2-4479-b567-0b2741ce6261","ios":"levelo://app?vid=aeb6ef8e-cab2-4479-b567-0b2741ce6261"},"vehicle_type_id":"4","last_reported":1729264176,"current_range_meters":13600,"station_id":"ce4bhbh2rcd13ifvqepg","pricing_plan_id":"cebpf4jnsgd1na2vs0mg"},{"bike_id":"e9e06989-753d-4795-b8db-5902cb11facd","system_id":"levelo_inurba_marseille","lat":43.29164,"lon":5.37146,"is_reserved":false,"is_disabled":false,"rental_uris":{"android":"levelo://app?vid=e9e06989-753d-4795-b8db-5902cb11facd","ios":"levelo://app?vid=e9e06989-753d-4795-b8db-5902cb11facd"},"vehicle_type_id":"4","last_reported":1729264176,"current_range_meters":3600,"station_id":"ce4bha92rcd13ifvqeh0","pricing_plan_id":"cebpf4jnsgd1na2vs0mg"},{"bike_id":"fc262b45-2b88-4d3d-8020-e7c946d1fec3","system_id":"levelo_inurba_marseille","lat":43.32111,"lon":5.36778,"is_reserved":false,"is_disabled":false,"rental_uris":{"android":"levelo://app?vid=fc262b45-2b88-4d3d-8020-e7c946d1fec3","ios":"levelo://app?vid=fc262b45-2b88-4d3d-8020-e7c946d1fec3"},"vehicle_type_id":"4","last_reported":1729264176,"current_range_meters":37600,"station_id":"ce4bhrh2rcd13ifvqhug","pricing_plan_id":"cebpf4jnsgd1na2vs0mg"},{"bike_id":"c24a562c-d177-4275-a763-2493fe552bcb","system_id":"levelo_inurba_marseille","lat":43.29577,"lon":5.37525,"is_reserved":false,"is_disabled":false,"rental_uris":{"android":"levelo://app?vid=c24a562c-d177-4275-a763-2493fe552bcb","ios":"levelo://app?vid=c24a562c-d177-4275-a763-2493fe552bcb"},"vehicle_type_id":"4","last_reported":1729264176,"current_range_meters":27600,"station_id":"ce4bgh92rcd13ifvqb50","pricing_plan_id":"cebpf4jnsgd1na2vs0mg"},{"bike_id":"f1eac570-19f1-4f75-995b-8669b8e1dc15","system_id":"levelo_inurba_marseille","lat":43.28565,"lon":5.39497,"is_reserved":false,"is_disabled":false,"rental_uris":{"android":"levelo://app?vid=f1eac570-19f1-4f75-995b-8669b8e1dc15","ios":"levelo://app?vid=f1eac570-19f1-4f75-995b-8669b8e1dc15"},"vehicle_type_id":"4","last_reported":1729264176,"current_range_meters":24000,"station_id":"ce4bh292rcd13ifvqdg0","pricing_plan_id":"cebpf4jnsgd1na2vs0mg"},{"bike_id":"907d90e2-7e08-4846-bbc2-01977b54a9bd","system_id":"levelo_inurba_marseille","lat":43.24167,"lon":5.36392,"is_reserved":false,"is_disabled":false,"rental_uris":{"android":"levelo://app?vid=907d90e2-7e08-4846-bbc2-01977b54a9bd","ios":"levelo://app?vid=907d90e2-7e08-4846-bbc2-01977b54a9bd"},"vehicle_type_id":"4","last_reported":1729264176,"current_range_meters":17200,"station_id":"cpo36qri1sfpv3e86is0","pricing_plan_id":"cebpf4jnsgd1na2vs0mg"},{"bike_id":"75d8e48f-f40f-4ffe-a1f0-8688114653c1","system_id":"levelo_inurba_marseille","lat":43.29418,"lon":5.38619,"is_reserved":false,"is_disabled":false,"rental_uris":{"android":"levelo://app?vid=75d8e48f-f40f-4ffe-a1f0-8688114653c1","ios":"levelo://app?vid=75d8e48f-f40f-4ffe-a1f0-8688114653c1"},"vehicle_type_id":"4","last_reported":1729264176,"current_range_meters":24800,"station_id":"ce4bh2h2rcd13ifvqdh0","pricing_plan_id":"cebpf4jnsgd1na2vs0mg"},{"bike_id":"0a2f1888-1677-4827-948a-d9d512355786","system_id":"levelo_inurba_marseille","lat":43.297085,"lon":5.376954,"is_reserved":false,"is_disabled":false,"rental_uris":{"android":"levelo://app?vid=0a2f1888-1677-4827-948a-d9d512355786","ios":"levelo://app?vid=0a2f1888-1677-4827-948a-d9d512355786"},"vehicle_type_id":"4","last_reported":1729264176,"current_range_meters":17200,"station_id":"ce4bgkh2rcd13ifvqbl0","pricing_plan_id":"cebpf4jnsgd1na2vs0mg"},{"bike_id":"d5453104-4e26-49cc-8e26-384ccaaff964","system_id":"levelo_inurba_marseille","lat":43.26564,"lon":5.37284,"is_reserved":false,"is_disabled":false,"rental_uris":{"android":"levelo://app?vid=d5453104-4e26-49cc-8e26-384ccaaff964","ios":"levelo://app?vid=d5453104-4e26-49cc-8e26-384ccaaff964"},"vehicle_type_id":"4","last_reported":1729264176,"current_range_meters":30000,"station_id":"ce4bhg12rcd13ifvqf70","pricing_plan_id":"cebpf4jnsgd1na2vs0mg"},{"bike_id":"da7fef5c-8488-4cb9-95f2-bd8a6b8ede60","system_id":"levelo_inurba_marseille","lat":43.2707,"lon":5.42281,"is_reserved":false,"is_disabled":false,"rental_uris":{"android":"levelo://app?vid=da7fef5c-8488-4cb9-95f2-bd8a6b8ede60","ios":"levelo://app?vid=da7fef5c-8488-4cb9-95f2-bd8a6b8ede60"},"vehicle_type_id":"4","last_reported":1729264176,"current_range_meters":8000,"station_id":"ce4bhk92rcd13ifvqgb0","pricing_plan_id":"cebpf4jnsgd1na2vs0mg"},{"bike_id":"646e2cf2-8282-4589-a194-12e4d373c2b1","system_id":"levelo_inurba_marseille","lat":43.23186,"lon":5.35548,"is_reserved":false,"is_disabled":false,"rental_uris":{"android":"levelo://app?vid=646e2cf2-8282-4589-a194-12e4d373c2b1","ios":"levelo://app?vid=646e2cf2-8282-4589-a194-12e4d373c2b1"},"vehicle_type_id":"4","last_reported":1729264176,"current_range_meters":38800,"station_id":"ce4bhu92rcd13ifvqi70","pricing_plan_id":"cebpf4jnsgd1na2vs0mg"},{"bike_id":"94dad7f8-6585-4b37-b691-74420d23ef13","system_id":"levelo_inurba_marseille","lat":43.30802,"lon":5.43522,"is_reserved":false,"is_disabled":false,"rental_uris":{"android":"levelo://app?vid=94dad7f8-6585-4b37-b691-74420d23ef13","ios":"levelo://app?vid=94dad7f8-6585-4b37-b691-74420d23ef13"},"vehicle_type_id":"4","last_reported":1729264176,"current_range_meters":36000,"station_id":"ce4bhph2rcd13ifvqheg","pricing_plan_id":"cebpf4jnsgd1na2vs0mg"},{"bike_id":"4562e9bb-7c1e-4e0e-95e1-858d0f8d86d1","system_id":"levelo_inurba_marseille","lat":43.2319,"lon":5.35563,"is_reserved":false,"is_disabled":false,"rental_uris":{"android":"levelo://app?vid=4562e9bb-7c1e-4e0e-95e1-858d0f8d86d1","ios":"levelo://app?vid=4562e9bb-7c1e-4e0e-95e1-858d0f8d86d1"},"vehicle_type_id":"4","last_reported":1729264176,"current_range_meters":33200,"station_id":"ce4bhu92rcd13ifvqi70","pricing_plan_id":"cebpf4jnsgd1na2vs0mg"},{"bike_id":"6837ac97-30a8-4145-8047-b6d6df61ac48","system_id":"levelo_inurba_marseille","lat":43.23185,"lon":5.39993,"is_reserved":false,"is_disabled":false,"rental_uris":{"android":"levelo://app?vid=6837ac97-30a8-4145-8047-b6d6df61ac48","ios":"levelo://app?vid=6837ac97-30a8-4145-8047-b6d6df61ac48"},"vehicle_type_id":"4","last_reported":1729264176,"current_range_meters":38800,"station_id":"ce4bhn12rcd13ifvqgqg","pricing_plan_id":"cebpf4jnsgd1na2vs0mg"},{"bike_id":"2140b6a3-5118-4150-823e-9225aeb56201","system_id":"levelo_inurba_marseille","lat":43.23187,"lon":5.35548,"is_reserved":false,"is_disabled":false,"rental_uris":{"android":"levelo://app?vid=2140b6a3-5118-4150-823e-9225aeb56201","ios":"levelo://app?vid=2140b6a3-5118-4150-823e-9225aeb56201"},"vehicle_type_id":"4","last_reported":1729264176,"current_range_meters":30800,"station_id":"ce4bhu92rcd13ifvqi70","pricing_plan_id":"cebpf4jnsgd1na2vs0mg"},{"bike_id":"8d0e1a8c-ff29-41d2-8285-abcf61c20d87","system_id":"levelo_inurba_marseille","lat":43.29844,"lon":5.36279,"is_reserved":false,"is_disabled":false,"rental_uris":{"android":"levelo://app?vid=8d0e1a8c-ff29-41d2-8285-abcf61c20d87","ios":"levelo://app?vid=8d0e1a8c-ff29-41d2-8285-abcf61c20d87"},"vehicle_type_id":"4","last_reported":1729264176,"current_range_meters":22400,"station_id":"ce4bgpp2rcd13ifvqc3g","pricing_plan_id":"cebpf4jnsgd1na2vs0mg"},{"bike_id":"8a5db82b-aa2f-4e9a-9994-a37e8d469f6b","system_id":"levelo_inurba_marseille","lat":43.30418,"lon":5.41288,"is_reserved":false,"is_disabled":false,"rental_uris":{"android":"levelo://app?vid=8a5db82b-aa2f-4e9a-9994-a37e8d469f6b","ios":"levelo://app?vid=8a5db82b-aa2f-4e9a-9994-a37e8d469f6b"},"vehicle_type_id":"4","last_reported":1729264176,"current_range_meters":7200,"station_id":"ce4bhop2rcd13ifvqh8g","pricing_plan_id":"cebpf4jnsgd1na2vs0mg"},{"bike_id":"0a59c3f7-9798-4724-adfc-032c3711991c","system_id":"levelo_inurba_marseille","lat":43.285861,"lon":5.394895,"is_reserved":false,"is_disabled":false,"rental_uris":{"android":"levelo://app?vid=0a59c3f7-9798-4724-adfc-032c3711991c","ios":"levelo://app?vid=0a59c3f7-9798-4724-adfc-032c3711991c"},"vehicle_type_id":"4","last_reported":1729264176,"current_range_meters":36800,"station_id":"ce4bh292rcd13ifvqdg0","pricing_plan_id":"cebpf4jnsgd1na2vs0mg"},{"bike_id":"73571360-6624-497e-ae84-61a3fbd766b0","system_id":"levelo_inurba_marseille","lat":43.255,"lon":5.37653,"is_reserved":false,"is_disabled":false,"rental_uris":{"android":"levelo://app?vid=73571360-6624-497e-ae84-61a3fbd766b0","ios":"levelo://app?vid=73571360-6624-497e-ae84-61a3fbd766b0"},"vehicle_type_id":"4","last_reported":1729264176,"current_range_meters":38800,"station_id":"ce4bhh12rcd13ifvqff0","pricing_plan_id":"cebpf4jnsgd1na2vs0mg"},{"bike_id":"e331bd53-bdd3-4bff-b9d8-237a94734b3f","system_id":"levelo_inurba_marseille","lat":43.31995,"lon":5.38153,"is_reserved":false,"is_disabled":false,"rental_uris":{"android":"levelo://app?vid=e331bd53-bdd3-4bff-b9d8-237a94734b3f","ios":"levelo://app?vid=e331bd53-bdd3-4bff-b9d8-237a94734b3f"},"vehicle_type_id":"4","last_reported":1729264176,"current_range_meters":27200,"station_id":"ce4bhr12rcd13ifvqhpg","pricing_plan_id":"cebpf4jnsgd1na2vs0mg"},{"bike_id":"7772d39f-5e28-445c-af91-069b0cf63793","system_id":"levelo_inurba_marseille","lat":43.33765,"lon":5.37438,"is_reserved":false,"is_disabled":false,"rental_uris":{"android":"levelo://app?vid=7772d39f-5e28-445c-af91-069b0cf63793","ios":"levelo://app?vid=7772d39f-5e28-445c-af91-069b0cf63793"},"vehicle_type_id":"4","last_reported":1729264176,"current_range_meters":12800,"station_id":"","pricing_plan_id":"cebpf4jnsgd1na2vs0mg"},{"bike_id":"e0ab6bb6-c6b9-4385-b41c-27bea5d9c0cb","system_id":"levelo_inurba_marseille","lat":43.33031,"lon":5.39041,"is_reserved":false,"is_disabled":false,"rental_uris":{"android":"levelo://app?vid=e0ab6bb6-c6b9-4385-b41c-27bea5d9c0cb","ios":"levelo://app?vid=e0ab6bb6-c6b9-4385-b41c-27bea5d9c0cb"},"vehicle_type_id":"4","last_reported":1729264176,"current_range_meters":22400,"station_id":"ce4bhr92rcd13ifvqhrg","pricing_plan_id":"cebpf4jnsgd1na2vs0mg"},{"bike_id":"058ec527-60b8-4877-8817-19590c3cd4f5","system_id":"levelo_inurba_marseille","lat":43.322855,"lon":5.38274,"is_reserved":false,"is_disabled":false,"rental_uris":{"android":"levelo://app?vid=058ec527-60b8-4877-8817-19590c3cd4f5","ios":"levelo://app?vid=058ec527-60b8-4877-8817-19590c3cd4f5"},"vehicle_type_id":"4","last_reported":1729264176,"current_range_meters":32400,"station_id":"ce4bhr12rcd13ifvqhqg","pricing_plan_id":"cebpf4jnsgd1na2vs0mg"},{"bike_id":"3213665e-989c-4d22-9f5a-31c8522597dd","system_id":"levelo_inurba_marseille","lat":43.296,"lon":5.36142,"is_reserved":false,"is_disabled":false,"rental_uris":{"android":"levelo://app?vid=3213665e-989c-4d22-9f5a-31c8522597dd","ios":"levelo://app?vid=3213665e-989c-4d22-9f5a-31c8522597dd"},"vehicle_type_id":"4","last_reported":1729264176,"current_range_meters":23200,"station_id":"","pricing_plan_id":"cebpf4jnsgd1na2vs0mg"},{"bike_id":"cddb2538-acdb-46a5-bc95-6e0a8d74ef0c","system_id":"levelo_inurba_marseille","lat":43.30797,"lon":5.43526,"is_reserved":false,"is_disabled":false,"rental_uris":{"android":"levelo://app?vid=cddb2538-acdb-46a5-bc95-6e0a8d74ef0c","ios":"levelo://app?vid=cddb2538-acdb-46a5-bc95-6e0a8d74ef0c"},"vehicle_type_id":"4","last_reported":1729264176,"current_range_meters":30800,"station_id":"ce4bhph2rcd13ifvqheg","pricing_plan_id":"cebpf4jnsgd1na2vs0mg"},{"bike_id":"ee8e6d74-49ba-430c-ac46-3b77635963f0","system_id":"levelo_inurba_marseille","lat":43.2649,"lon":5.39548,"is_reserved":false,"is_disabled":false,"rental_uris":{"android":"levelo://app?vid=ee8e6d74-49ba-430c-ac46-3b77635963f0","ios":"levelo://app?vid=ee8e6d74-49ba-430c-ac46-3b77635963f0"},"vehicle_type_id":"4","last_reported":1729264176,"current_range_meters":22000,"station_id":"ce4bhi12rcd13ifvqfq0","pricing_plan_id":"cebpf4jnsgd1na2vs0mg"},{"bike_id":"02a22517-7320-47f9-ba17-a39da4abc082","system_id":"levelo_inurba_marseille","lat":43.29046,"lon":5.37152,"is_reserved":false,"is_disabled":false,"rental_uris":{"android":"levelo://app?vid=02a22517-7320-47f9-ba17-a39da4abc082","ios":"levelo://app?vid=02a22517-7320-47f9-ba17-a39da4abc082"},"vehicle_type_id":"4","last_reported":1729264176,"current_range_meters":7200,"station_id":"ce4bh5p2rcd13ifvqe4g","pricing_plan_id":"cebpf4jnsgd1na2vs0mg"},{"bike_id":"1641b826-604a-4181-8231-dca386f637a6","system_id":"levelo_inurba_marseille","lat":43.23186,"lon":5.35553,"is_reserved":false,"is_disabled":false,"rental_uris":{"android":"levelo://app?vid=1641b826-604a-4181-8231-dca386f637a6","ios":"levelo://app?vid=1641b826-604a-4181-8231-dca386f637a6"},"vehicle_type_id":"4","last_reported":1729264176,"current_range_meters":28800,"station_id":"ce4bhu92rcd13ifvqi70","pricing_plan_id":"cebpf4jnsgd1na2vs0mg"},{"bike_id":"89211ee2-076f-4df3-92bd-cd8885f2e76d","system_id":"levelo_inurba_marseille","lat":43.23194,"lon":5.35556,"is_reserved":false,"is_disabled":false,"rental_uris":{"android":"levelo://app?vid=89211ee2-076f-4df3-92bd-cd8885f2e76d","ios":"levelo://app?vid=89211ee2-076f-4df3-92bd-cd8885f2e76d"},"vehicle_type_id":"4","last_reported":1729264176,"current_range_meters":28000,"station_id":"ce4bhu92rcd13ifvqi70","pricing_plan_id":"cebpf4jnsgd1na2vs0mg"},{"bike_id":"4775ebea-2b80-4388-981f-18820a367541","system_id":"levelo_inurba_marseille","lat":43.25721,"lon":5.41108,"is_reserved":false,"is_disabled":false,"rental_uris":{"android":"levelo://app?vid=4775ebea-2b80-4388-981f-18820a367541","ios":"levelo://app?vid=4775ebea-2b80-4388-981f-18820a367541"},"vehicle_type_id":"4","last_reported":1729264176,"current_range_meters":12400,"station_id":"ce4bhkp2rcd13ifvqgd0","pricing_plan_id":"cebpf4jnsgd1na2vs0mg"},{"bike_id":"084ec4a2-5cc2-4ef4-abfb-894ec478362b","system_id":"levelo_inurba_marseille","lat":43.29005,"lon":5.35617,"is_reserved":false,"is_disabled":false,"rental_uris":{"android":"levelo://app?vid=084ec4a2-5cc2-4ef4-abfb-894ec478362b","ios":"levelo://app?vid=084ec4a2-5cc2-4ef4-abfb-894ec478362b"},"vehicle_type_id":"4","last_reported":1729264176,"current_range_meters":4400,"station_id":"ce4bhb92rcd13ifvqen0","pricing_plan_id":"cebpf4jnsgd1na2vs0mg"},{"bike_id":"2b3923ea-588d-49f6-a06f-eed23abceddf","system_id":"levelo_inurba_marseille","lat":43.31071,"lon":5.38362,"is_reserved":false,"is_disabled":false,"rental_uris":{"android":"levelo://app?vid=2b3923ea-588d-49f6-a06f-eed23abceddf","ios":"levelo://app?vid=2b3923ea-588d-49f6-a06f-eed23abceddf"},"vehicle_type_id":"4","last_reported":1729264176,"current_range_meters":36400,"station_id":"ce4bgv92rcd13ifvqcr0","pricing_plan_id":"cebpf4jnsgd1na2vs0mg"},{"bike_id":"27ca45d9-c1e1-4a43-b365-0e13b702689a","system_id":"levelo_inurba_marseille","lat":43.295776,"lon":5.375131,"is_reserved":false,"is_disabled":false,"rental_uris":{"android":"levelo://app?vid=27ca45d9-c1e1-4a43-b365-0e13b702689a","ios":"levelo://app?vid=27ca45d9-c1e1-4a43-b365-0e13b702689a"},"vehicle_type_id":"4","last_reported":1729264176,"current_range_meters":32400,"station_id":"","pricing_plan_id":"cebpf4jnsgd1na2vs0mg"},{"bike_id":"cb273f49-4483-4352-a7dd-b0c4945b2d89","system_id":"levelo_inurba_marseille","lat":43.2957,"lon":5.39975,"is_reserved":false,"is_disabled":false,"rental_uris":{"android":"levelo://app?vid=cb273f49-4483-4352-a7dd-b0c4945b2d89","ios":"levelo://app?vid=cb273f49-4483-4352-a7dd-b0c4945b2d89"},"vehicle_type_id":"4","last_reported":1729264176,"current_range_meters":2800,"station_id":"ce4bh312rcd13ifvqdj0","pricing_plan_id":"cebpf4jnsgd1na2vs0mg"},{"bike_id":"0217aed8-53fe-41ae-be11-3a2be05d7117","system_id":"levelo_inurba_marseille","lat":43.30601,"lon":5.39372,"is_reserved":false,"is_disabled":false,"rental_uris":{"android":"levelo://app?vid=0217aed8-53fe-41ae-be11-3a2be05d7117","ios":"levelo://app?vid=0217aed8-53fe-41ae-be11-3a2be05d7117"},"vehicle_type_id":"4","last_reported":1729264176,"current_range_meters":28400,"station_id":"ce4bh0p2rcd13ifvqd80","pricing_plan_id":"cebpf4jnsgd1na2vs0mg"},{"bike_id":"422d485a-ee3c-4fc3-b2c4-fc8dab31d119","system_id":"levelo_inurba_marseille","lat":43.2396,"lon":5.36631,"is_reserved":false,"is_disabled":false,"rental_uris":{"android":"levelo://app?vid=422d485a-ee3c-4fc3-b2c4-fc8dab31d119","ios":"levelo://app?vid=422d485a-ee3c-4fc3-b2c4-fc8dab31d119"},"vehicle_type_id":"4","last_reported":1729264176,"current_range_meters":14000,"station_id":"ce4bhi12rcd13ifvqfp0","pricing_plan_id":"cebpf4jnsgd1na2vs0mg"},{"bike_id":"0883d144-dec3-4b2d-a15b-89ba95ed513a","system_id":"levelo_inurba_marseille","lat":43.26211,"lon":5.37447,"is_reserved":false,"is_disabled":false,"rental_uris":{"android":"levelo://app?vid=0883d144-dec3-4b2d-a15b-89ba95ed513a","ios":"levelo://app?vid=0883d144-dec3-4b2d-a15b-89ba95ed513a"},"vehicle_type_id":"4","last_reported":1729264176,"current_range_meters":24400,"station_id":"ce4bhgp2rcd13ifvqfc0","pricing_plan_id":"cebpf4jnsgd1na2vs0mg"},{"bike_id":"87440bd7-4730-412f-b52f-03b263c3d6ba","system_id":"levelo_inurba_marseille","lat":43.23191,"lon":5.35551,"is_reserved":false,"is_disabled":false,"rental_uris":{"android":"levelo://app?vid=87440bd7-4730-412f-b52f-03b263c3d6ba","ios":"levelo://app?vid=87440bd7-4730-412f-b52f-03b263c3d6ba"},"vehicle_type_id":"4","last_reported":1729264176,"current_range_meters":12000,"station_id":"ce4bhu92rcd13ifvqi70","pricing_plan_id":"cebpf4jnsgd1na2vs0mg"},{"bike_id":"5130e7cc-8c15-4fb4-8208-a2e752091696","system_id":"levelo_inurba_marseille","lat":43.311138,"lon":5.377678,"is_reserved":false,"is_disabled":false,"rental_uris":{"android":"levelo://app?vid=5130e7cc-8c15-4fb4-8208-a2e752091696","ios":"levelo://app?vid=5130e7cc-8c15-4fb4-8208-a2e752091696"},"vehicle_type_id":"4","last_reported":1729264176,"current_range_meters":0,"station_id":"ce4bgt92rcd13ifvqcg0","pricing_plan_id":"cebpf4jnsgd1na2vs0mg"},{"bike_id":"0cd1c707-301e-402c-b76b-0129f07942fb","system_id":"levelo_inurba_marseille","lat":43.25727,"lon":5.41112,"is_reserved":false,"is_disabled":false,"rental_uris":{"android":"levelo://app?vid=0cd1c707-301e-402c-b76b-0129f07942fb","ios":"levelo://app?vid=0cd1c707-301e-402c-b76b-0129f07942fb"},"vehicle_type_id":"4","last_reported":1729264176,"current_range_meters":8400,"station_id":"ce4bhkp2rcd13ifvqgd0","pricing_plan_id":"cebpf4jnsgd1na2vs0mg"},{"bike_id":"df50999f-2c36-4645-8915-f1b914616dfc","system_id":"levelo_inurba_marseille","lat":43.32111,"lon":5.36777,"is_reserved":false,"is_disabled":false,"rental_uris":{"android":"levelo://app?vid=df50999f-2c36-4645-8915-f1b914616dfc","ios":"levelo://app?vid=df50999f-2c36-4645-8915-f1b914616dfc"},"vehicle_type_id":"4","last_reported":1729264176,"current_range_meters":28000,"station_id":"ce4bhrh2rcd13ifvqhug","pricing_plan_id":"cebpf4jnsgd1na2vs0mg"},{"bike_id":"5a847a83-0181-47d1-91ee-52d6cd081de1","system_id":"levelo_inurba_marseille","lat":43.29791,"lon":5.38104,"is_reserved":false,"is_disabled":false,"rental_uris":{"android":"levelo://app?vid=5a847a83-0181-47d1-91ee-52d6cd081de1","ios":"levelo://app?vid=5a847a83-0181-47d1-91ee-52d6cd081de1"},"vehicle_type_id":"4","last_reported":1729264176,"current_range_meters":6400,"station_id":"ce4bgip2rcd13ifvqbb0","pricing_plan_id":"cebpf4jnsgd1na2vs0mg"},{"bike_id":"1b1a444a-1a66-4302-8189-a77ce483f46d","system_id":"levelo_inurba_marseille","lat":43.26212,"lon":5.37448,"is_reserved":false,"is_disabled":false,"rental_uris":{"android":"levelo://app?vid=1b1a444a-1a66-4302-8189-a77ce483f46d","ios":"levelo://app?vid=1b1a444a-1a66-4302-8189-a77ce483f46d"},"vehicle_type_id":"4","last_reported":1729264176,"current_range_meters":34800,"station_id":"ce4bhgp2rcd13ifvqfc0","pricing_plan_id":"cebpf4jnsgd1na2vs0mg"},{"bike_id":"5dea50a4-1d92-4427-a32b-1890395130ff","system_id":"levelo_inurba_marseille","lat":43.27372,"lon":5.36262,"is_reserved":false,"is_disabled":false,"rental_uris":{"android":"levelo://app?vid=5dea50a4-1d92-4427-a32b-1890395130ff","ios":"levelo://app?vid=5dea50a4-1d92-4427-a32b-1890395130ff"},"vehicle_type_id":"4","last_reported":1729264176,"current_range_meters":39200,"station_id":"ce4bhbh2rcd13ifvqeo0","pricing_plan_id":"cebpf4jnsgd1na2vs0mg"},{"bike_id":"b39656e0-67b9-4be2-8076-e6ce04a56106","system_id":"levelo_inurba_marseille","lat":43.29846,"lon":5.36273,"is_reserved":false,"is_disabled":false,"rental_uris":{"android":"levelo://app?vid=b39656e0-67b9-4be2-8076-e6ce04a56106","ios":"levelo://app?vid=b39656e0-67b9-4be2-8076-e6ce04a56106"},"vehicle_type_id":"4","last_reported":1729264176,"current_range_meters":30400,"station_id":"ce4bgpp2rcd13ifvqc3g","pricing_plan_id":"cebpf4jnsgd1na2vs0mg"},{"bike_id":"6c3dfa15-caf1-478e-9f30-a8af3089bdfc","system_id":"levelo_inurba_marseille","lat":43.28365,"lon":5.38638,"is_reserved":false,"is_disabled":false,"rental_uris":{"android":"levelo://app?vid=6c3dfa15-caf1-478e-9f30-a8af3089bdfc","ios":"levelo://app?vid=6c3dfa15-caf1-478e-9f30-a8af3089bdfc"},"vehicle_type_id":"4","last_reported":1729264176,"current_range_meters":22400,"station_id":"ce4bh492rcd13ifvqdvg","pricing_plan_id":"cebpf4jnsgd1na2vs0mg"},{"bike_id":"38e46808-5ff9-43c9-bbe8-fefe6ece3407","system_id":"levelo_inurba_marseille","lat":43.28425,"lon":5.34993,"is_reserved":false,"is_disabled":false,"rental_uris":{"android":"levelo://app?vid=38e46808-5ff9-43c9-bbe8-fefe6ece3407","ios":"levelo://app?vid=38e46808-5ff9-43c9-bbe8-fefe6ece3407"},"vehicle_type_id":"4","last_reported":1729264176,"current_range_meters":19600,"station_id":"ce4bhbh2rcd13ifvqepg","pricing_plan_id":"cebpf4jnsgd1na2vs0mg"},{"bike_id":"35442ec9-5a8a-443b-bd38-7ab50d07644a","system_id":"levelo_inurba_marseille","lat":43.27815,"lon":5.40716,"is_reserved":false,"is_disabled":false,"rental_uris":{"android":"levelo://app?vid=35442ec9-5a8a-443b-bd38-7ab50d07644a","ios":"levelo://app?vid=35442ec9-5a8a-443b-bd38-7ab50d07644a"},"vehicle_type_id":"4","last_reported":1729264176,"current_range_meters":4800,"station_id":"ce4bhnh2rcd13ifvqgtg","pricing_plan_id":"cebpf4jnsgd1na2vs0mg"},{"bike_id":"a0d1f48f-4d8d-4385-8400-04795ef1f250","system_id":"levelo_inurba_marseille","lat":43.26559,"lon":5.37285,"is_reserved":false,"is_disabled":false,"rental_uris":{"android":"levelo://app?vid=a0d1f48f-4d8d-4385-8400-04795ef1f250","ios":"levelo://app?vid=a0d1f48f-4d8d-4385-8400-04795ef1f250"},"vehicle_type_id":"4","last_reported":1729264176,"current_range_meters":38000,"station_id":"ce4bhg12rcd13ifvqf70","pricing_plan_id":"cebpf4jnsgd1na2vs0mg"},{"bike_id":"4316152c-8d3d-4936-837e-ecb14d4ae4d7","system_id":"levelo_inurba_marseille","lat":43.301482,"lon":5.380678,"is_reserved":false,"is_disabled":false,"rental_uris":{"android":"levelo://app?vid=4316152c-8d3d-4936-837e-ecb14d4ae4d7","ios":"levelo://app?vid=4316152c-8d3d-4936-837e-ecb14d4ae4d7"},"vehicle_type_id":"4","last_reported":1729264176,"current_range_meters":35600,"station_id":"ce4bgpp2rcd13ifvqc3g","pricing_plan_id":"cebpf4jnsgd1na2vs0mg"},{"bike_id":"3935c0ff-395a-42e7-9684-c3614c376163","system_id":"levelo_inurba_marseille","lat":43.29706,"lon":5.36606,"is_reserved":false,"is_disabled":false,"rental_uris":{"android":"levelo://app?vid=3935c0ff-395a-42e7-9684-c3614c376163","ios":"levelo://app?vid=3935c0ff-395a-42e7-9684-c3614c376163"},"vehicle_type_id":"4","last_reported":1729264176,"current_range_meters":12400,"station_id":"ce4bgn12rcd13ifvqbt0","pricing_plan_id":"cebpf4jnsgd1na2vs0mg"},{"bike_id":"3ed38786-470d-411a-80d4-a7d4d45bb2a0","system_id":"levelo_inurba_marseille","lat":43.26562,"lon":5.37277,"is_reserved":false,"is_disabled":false,"rental_uris":{"android":"levelo://app?vid=3ed38786-470d-411a-80d4-a7d4d45bb2a0","ios":"levelo://app?vid=3ed38786-470d-411a-80d4-a7d4d45bb2a0"},"vehicle_type_id":"4","last_reported":1729264176,"current_range_meters":33200,"station_id":"ce4bhg12rcd13ifvqf70","pricing_plan_id":"cebpf4jnsgd1na2vs0mg"},{"bike_id":"eaf66d35-5d33-4b2b-9813-579490b83185","system_id":"levelo_inurba_marseille","lat":43.30429,"lon":5.38897,"is_reserved":false,"is_disabled":false,"rental_uris":{"android":"levelo://app?vid=eaf66d35-5d33-4b2b-9813-579490b83185","ios":"levelo://app?vid=eaf66d35-5d33-4b2b-9813-579490b83185"},"vehicle_type_id":"4","last_reported":1729264176,"current_range_meters":23200,"station_id":"ce4bgk12rcd13ifvqbi0","pricing_plan_id":"cebpf4jnsgd1na2vs0mg"},{"bike_id":"88afec49-176c-4cd2-af11-bfa3c88ae0c6","system_id":"levelo_inurba_marseille","lat":43.28041,"lon":5.36947,"is_reserved":false,"is_disabled":false,"rental_uris":{"android":"levelo://app?vid=88afec49-176c-4cd2-af11-bfa3c88ae0c6","ios":"levelo://app?vid=88afec49-176c-4cd2-af11-bfa3c88ae0c6"},"vehicle_type_id":"4","last_reported":1729264176,"current_range_meters":25200,"station_id":"ce4bha12rcd13ifvqef0","pricing_plan_id":"cebpf4jnsgd1na2vs0mg"},{"bike_id":"ce69f5a3-381f-4fe0-85a4-5e734388eafa","system_id":"levelo_inurba_marseille","lat":43.27812,"lon":5.40705,"is_reserved":false,"is_disabled":false,"rental_uris":{"android":"levelo://app?vid=ce69f5a3-381f-4fe0-85a4-5e734388eafa","ios":"levelo://app?vid=ce69f5a3-381f-4fe0-85a4-5e734388eafa"},"vehicle_type_id":"4","last_reported":1729264176,"current_range_meters":29600,"station_id":"ce4bhnh2rcd13ifvqgtg","pricing_plan_id":"cebpf4jnsgd1na2vs0mg"},{"bike_id":"6d290795-9288-48fa-b602-4b318a7e0252","system_id":"levelo_inurba_marseille","lat":43.29967,"lon":5.37179,"is_reserved":false,"is_disabled":false,"rental_uris":{"android":"levelo://app?vid=6d290795-9288-48fa-b602-4b318a7e0252","ios":"levelo://app?vid=6d290795-9288-48fa-b602-4b318a7e0252"},"vehicle_type_id":"4","last_reported":1729264176,"current_range_meters":17200,"station_id":"ce4bgr92rcd13ifvqc7g","pricing_plan_id":"cebpf4jnsgd1na2vs0mg"},{"bike_id":"06897a14-ceb7-4e03-bc49-b6db67accb4b","system_id":"levelo_inurba_marseille","lat":43.30422,"lon":5.41295,"is_reserved":false,"is_disabled":false,"rental_uris":{"android":"levelo://app?vid=06897a14-ceb7-4e03-bc49-b6db67accb4b","ios":"levelo://app?vid=06897a14-ceb7-4e03-bc49-b6db67accb4b"},"vehicle_type_id":"4","last_reported":1729264176,"current_range_meters":13600,"station_id":"ce4bhop2rcd13ifvqh8g","pricing_plan_id":"cebpf4jnsgd1na2vs0mg"},{"bike_id":"3432bce7-bef1-467c-b87c-aa37540feeef","system_id":"levelo_inurba_marseille","lat":43.2582,"lon":5.39439,"is_reserved":false,"is_disabled":false,"rental_uris":{"android":"levelo://app?vid=3432bce7-bef1-467c-b87c-aa37540feeef","ios":"levelo://app?vid=3432bce7-bef1-467c-b87c-aa37540feeef"},"vehicle_type_id":"4","last_reported":1729264176,"current_range_meters":1600,"station_id":"ce4bhip2rcd13ifvqft0","pricing_plan_id":"cebpf4jnsgd1na2vs0mg"},{"bike_id":"d61bb763-bcfa-4bf3-9888-2bb14568e457","system_id":"levelo_inurba_marseille","lat":43.29193,"lon":5.35799,"is_reserved":false,"is_disabled":false,"rental_uris":{"android":"levelo://app?vid=d61bb763-bcfa-4bf3-9888-2bb14568e457","ios":"levelo://app?vid=d61bb763-bcfa-4bf3-9888-2bb14568e457"},"vehicle_type_id":"4","last_reported":1729264176,"current_range_meters":20400,"station_id":"ce4bhb12rcd13ifvqel0","pricing_plan_id":"cebpf4jnsgd1na2vs0mg"},{"bike_id":"6a404ad2-7fa5-417b-b26d-cc6369f7c19f","system_id":"levelo_inurba_marseille","lat":43.25086,"lon":5.3952,"is_reserved":false,"is_disabled":false,"rental_uris":{"android":"levelo://app?vid=6a404ad2-7fa5-417b-b26d-cc6369f7c19f","ios":"levelo://app?vid=6a404ad2-7fa5-417b-b26d-cc6369f7c19f"},"vehicle_type_id":"4","last_reported":1729264176,"current_range_meters":6800,"station_id":"ce4bhm12rcd13ifvqgkg","pricing_plan_id":"cebpf4jnsgd1na2vs0mg"},{"bike_id":"b45deb77-5a2f-4959-a9c9-736119b28fb6","system_id":"levelo_inurba_marseille","lat":43.28419,"lon":5.3499,"is_reserved":false,"is_disabled":false,"rental_uris":{"android":"levelo://app?vid=b45deb77-5a2f-4959-a9c9-736119b28fb6","ios":"levelo://app?vid=b45deb77-5a2f-4959-a9c9-736119b28fb6"},"vehicle_type_id":"4","last_reported":1729264176,"current_range_meters":36400,"station_id":"ce4bhbh2rcd13ifvqepg","pricing_plan_id":"cebpf4jnsgd1na2vs0mg"},{"bike_id":"76ae38e2-44b8-4acb-be2e-59feb5a45776","system_id":"levelo_inurba_marseille","lat":43.29298,"lon":5.37459,"is_reserved":false,"is_disabled":false,"rental_uris":{"android":"levelo://app?vid=76ae38e2-44b8-4acb-be2e-59feb5a45776","ios":"levelo://app?vid=76ae38e2-44b8-4acb-be2e-59feb5a45776"},"vehicle_type_id":"4","last_reported":1729264176,"current_range_meters":2800,"station_id":"ce4bgi12rcd13ifvqb70","pricing_plan_id":"cebpf4jnsgd1na2vs0mg"},{"bike_id":"6c95389d-c45d-4820-b843-ca95361eb5e7","system_id":"levelo_inurba_marseille","lat":43.29419,"lon":5.38622,"is_reserved":false,"is_disabled":false,"rental_uris":{"android":"levelo://app?vid=6c95389d-c45d-4820-b843-ca95361eb5e7","ios":"levelo://app?vid=6c95389d-c45d-4820-b843-ca95361eb5e7"},"vehicle_type_id":"4","last_reported":1729264176,"current_range_meters":21600,"station_id":"ce4bh2h2rcd13ifvqdh0","pricing_plan_id":"cebpf4jnsgd1na2vs0mg"},{"bike_id":"e3ca7803-aaa7-4ddf-8937-86afb5d1cee8","system_id":"levelo_inurba_marseille","lat":43.31705,"lon":5.43711,"is_reserved":false,"is_disabled":false,"rental_uris":{"android":"levelo://app?vid=e3ca7803-aaa7-4ddf-8937-86afb5d1cee8","ios":"levelo://app?vid=e3ca7803-aaa7-4ddf-8937-86afb5d1cee8"},"vehicle_type_id":"4","last_reported":1729264176,"current_range_meters":39200,"station_id":"ce4bhp92rcd13ifvqhcg","pricing_plan_id":"cebpf4jnsgd1na2vs0mg"},{"bike_id":"87a62a5a-6731-4ae0-88c0-85b276181ce1","system_id":"levelo_inurba_marseille","lat":43.2621,"lon":5.37441,"is_reserved":false,"is_disabled":false,"rental_uris":{"android":"levelo://app?vid=87a62a5a-6731-4ae0-88c0-85b276181ce1","ios":"levelo://app?vid=87a62a5a-6731-4ae0-88c0-85b276181ce1"},"vehicle_type_id":"4","last_reported":1729264176,"current_range_meters":26000,"station_id":"ce4bhgp2rcd13ifvqfc0","pricing_plan_id":"cebpf4jnsgd1na2vs0mg"},{"bike_id":"7641b73d-7158-4063-85f3-b57a27244098","system_id":"levelo_inurba_marseille","lat":43.28684,"lon":5.39995,"is_reserved":false,"is_disabled":false,"rental_uris":{"android":"levelo://app?vid=7641b73d-7158-4063-85f3-b57a27244098","ios":"levelo://app?vid=7641b73d-7158-4063-85f3-b57a27244098"},"vehicle_type_id":"4","last_reported":1729264176,"current_range_meters":6800,"station_id":"ce4bho92rcd13ifvqh3g","pricing_plan_id":"cebpf4jnsgd1na2vs0mg"},{"bike_id":"19389fe6-838b-410a-886d-e2d15f6134b7","system_id":"levelo_inurba_marseille","lat":43.29672,"lon":5.36332,"is_reserved":false,"is_disabled":false,"rental_uris":{"android":"levelo://app?vid=19389fe6-838b-410a-886d-e2d15f6134b7","ios":"levelo://app?vid=19389fe6-838b-410a-886d-e2d15f6134b7"},"vehicle_type_id":"4","last_reported":1729264176,"current_range_meters":4000,"station_id":"","pricing_plan_id":"cebpf4jnsgd1na2vs0mg"},{"bike_id":"3664398f-378f-46f2-bd12-30042ad8db9d","system_id":"levelo_inurba_marseille","lat":43.23185,"lon":5.39977,"is_reserved":false,"is_disabled":false,"rental_uris":{"android":"levelo://app?vid=3664398f-378f-46f2-bd12-30042ad8db9d","ios":"levelo://app?vid=3664398f-378f-46f2-bd12-30042ad8db9d"},"vehicle_type_id":"4","last_reported":1729264176,"current_range_meters":28800,"station_id":"ce4bhn12rcd13ifvqgqg","pricing_plan_id":"cebpf4jnsgd1na2vs0mg"},{"bike_id":"5b94dd0d-f532-4567-b45b-3ae60db62ea5","system_id":"levelo_inurba_marseille","lat":43.3211,"lon":5.3677,"is_reserved":false,"is_disabled":false,"rental_uris":{"android":"levelo://app?vid=5b94dd0d-f532-4567-b45b-3ae60db62ea5","ios":"levelo://app?vid=5b94dd0d-f532-4567-b45b-3ae60db62ea5"},"vehicle_type_id":"4","last_reported":1729264176,"current_range_meters":36800,"station_id":"ce4bhrh2rcd13ifvqhug","pricing_plan_id":"cebpf4jnsgd1na2vs0mg"},{"bike_id":"accf7e66-f9a0-45b1-9e0f-4ec66fd8fda9","system_id":"levelo_inurba_marseille","lat":43.29681,"lon":5.373,"is_reserved":false,"is_disabled":false,"rental_uris":{"android":"levelo://app?vid=accf7e66-f9a0-45b1-9e0f-4ec66fd8fda9","ios":"levelo://app?vid=accf7e66-f9a0-45b1-9e0f-4ec66fd8fda9"},"vehicle_type_id":"4","last_reported":1729264176,"current_range_meters":36400,"station_id":"ce4bgk12rcd13ifvqbj0","pricing_plan_id":"cebpf4jnsgd1na2vs0mg"},{"bike_id":"a9d80141-cb04-4f88-bcc5-9763572e3517","system_id":"levelo_inurba_marseille","lat":43.23194,"lon":5.35546,"is_reserved":false,"is_disabled":false,"rental_uris":{"android":"levelo://app?vid=a9d80141-cb04-4f88-bcc5-9763572e3517","ios":"levelo://app?vid=a9d80141-cb04-4f88-bcc5-9763572e3517"},"vehicle_type_id":"4","last_reported":1729264176,"current_range_meters":28000,"station_id":"ce4bhu92rcd13ifvqi70","pricing_plan_id":"cebpf4jnsgd1na2vs0mg"},{"bike_id":"48bd7d09-b3aa-47ee-84b7-9e998513b325","system_id":"levelo_inurba_marseille","lat":43.28703,"lon":5.39985,"is_reserved":false,"is_disabled":false,"rental_uris":{"android":"levelo://app?vid=48bd7d09-b3aa-47ee-84b7-9e998513b325","ios":"levelo://app?vid=48bd7d09-b3aa-47ee-84b7-9e998513b325"},"vehicle_type_id":"4","last_reported":1729264176,"current_range_meters":8000,"station_id":"ce4bho92rcd13ifvqh3g","pricing_plan_id":"cebpf4jnsgd1na2vs0mg"},{"bike_id":"3ab31a18-af13-40ac-ae62-308000937349","system_id":"levelo_inurba_marseille","lat":43.25493,"lon":5.37643,"is_reserved":false,"is_disabled":false,"rental_uris":{"android":"levelo://app?vid=3ab31a18-af13-40ac-ae62-308000937349","ios":"levelo://app?vid=3ab31a18-af13-40ac-ae62-308000937349"},"vehicle_type_id":"4","last_reported":1729264176,"current_range_meters":32000,"station_id":"ce4bhh12rcd13ifvqff0","pricing_plan_id":"cebpf4jnsgd1na2vs0mg"},{"bike_id":"d7e2a574-d234-4ea8-a4ee-fe4b60b7ca12","system_id":"levelo_inurba_marseille","lat":43.26199,"lon":5.37933,"is_reserved":false,"is_disabled":false,"rental_uris":{"android":"levelo://app?vid=d7e2a574-d234-4ea8-a4ee-fe4b60b7ca12","ios":"levelo://app?vid=d7e2a574-d234-4ea8-a4ee-fe4b60b7ca12"},"vehicle_type_id":"4","last_reported":1729264176,"current_range_meters":38800,"station_id":"ce4bhjp2rcd13ifvqg90","pricing_plan_id":"cebpf4jnsgd1na2vs0mg"},{"bike_id":"4494673c-ebac-42b3-884d-4d7420fce07c","system_id":"levelo_inurba_marseille","lat":43.23957,"lon":5.36633,"is_reserved":false,"is_disabled":false,"rental_uris":{"android":"levelo://app?vid=4494673c-ebac-42b3-884d-4d7420fce07c","ios":"levelo://app?vid=4494673c-ebac-42b3-884d-4d7420fce07c"},"vehicle_type_id":"4","last_reported":1729264176,"current_range_meters":5600,"station_id":"ce4bhi12rcd13ifvqfp0","pricing_plan_id":"cebpf4jnsgd1na2vs0mg"},{"bike_id":"e9cd94f9-c8b2-4625-b8d4-ad083a32e969","system_id":"levelo_inurba_marseille","lat":43.31715,"lon":5.4371,"is_reserved":false,"is_disabled":false,"rental_uris":{"android":"levelo://app?vid=e9cd94f9-c8b2-4625-b8d4-ad083a32e969","ios":"levelo://app?vid=e9cd94f9-c8b2-4625-b8d4-ad083a32e969"},"vehicle_type_id":"4","last_reported":1729264176,"current_range_meters":9200,"station_id":"ce4bhp92rcd13ifvqhcg","pricing_plan_id":"cebpf4jnsgd1na2vs0mg"},{"bike_id":"d41309ab-1a1f-4395-acaa-455483c3f8e1","system_id":"levelo_inurba_marseille","lat":43.23199,"lon":5.35558,"is_reserved":false,"is_disabled":false,"rental_uris":{"android":"levelo://app?vid=d41309ab-1a1f-4395-acaa-455483c3f8e1","ios":"levelo://app?vid=d41309ab-1a1f-4395-acaa-455483c3f8e1"},"vehicle_type_id":"4","last_reported":1729264176,"current_range_meters":30400,"station_id":"ce4bhu92rcd13ifvqi70","pricing_plan_id":"cebpf4jnsgd1na2vs0mg"},{"bike_id":"2076a9bb-ee41-4d84-b94b-73807747d1e4","system_id":"levelo_inurba_marseille","lat":43.301191,"lon":5.398489,"is_reserved":false,"is_disabled":false,"rental_uris":{"android":"levelo://app?vid=2076a9bb-ee41-4d84-b94b-73807747d1e4","ios":"levelo://app?vid=2076a9bb-ee41-4d84-b94b-73807747d1e4"},"vehicle_type_id":"4","last_reported":1729264176,"current_range_meters":33600,"station_id":"ce4bh0h2rcd13ifvqd40","pricing_plan_id":"cebpf4jnsgd1na2vs0mg"},{"bike_id":"3ac4e1db-5f51-4fa2-b030-da86679eea43","system_id":"levelo_inurba_marseille","lat":43.28614,"lon":5.35104,"is_reserved":false,"is_disabled":false,"rental_uris":{"android":"levelo://app?vid=3ac4e1db-5f51-4fa2-b030-da86679eea43","ios":"levelo://app?vid=3ac4e1db-5f51-4fa2-b030-da86679eea43"},"vehicle_type_id":"4","last_reported":1729264176,"current_range_meters":12400,"station_id":"ce4bhch2rcd13ifvqeug","pricing_plan_id":"cebpf4jnsgd1na2vs0mg"},{"bike_id":"f167646c-0ccc-4a49-9a3f-5629662684ab","system_id":"levelo_inurba_marseille","lat":43.29005,"lon":5.35615,"is_reserved":false,"is_disabled":false,"rental_uris":{"android":"levelo://app?vid=f167646c-0ccc-4a49-9a3f-5629662684ab","ios":"levelo://app?vid=f167646c-0ccc-4a49-9a3f-5629662684ab"},"vehicle_type_id":"4","last_reported":1729264176,"current_range_meters":22800,"station_id":"ce4bhb92rcd13ifvqen0","pricing_plan_id":"cebpf4jnsgd1na2vs0mg"},{"bike_id":"9af8fbfe-4f52-4631-9930-e569be6e4929","system_id":"levelo_inurba_marseille","lat":43.28265,"lon":5.35078,"is_reserved":false,"is_disabled":false,"rental_uris":{"android":"levelo://app?vid=9af8fbfe-4f52-4631-9930-e569be6e4929","ios":"levelo://app?vid=9af8fbfe-4f52-4631-9930-e569be6e4929"},"vehicle_type_id":"4","last_reported":1729264176,"current_range_meters":12000,"station_id":"ce4bhbp2rcd13ifvqerg","pricing_plan_id":"cebpf4jnsgd1na2vs0mg"},{"bike_id":"364f7bef-2628-407e-9b65-281ff150e072","system_id":"levelo_inurba_marseille","lat":43.30881,"lon":5.37195,"is_reserved":false,"is_disabled":false,"rental_uris":{"android":"levelo://app?vid=364f7bef-2628-407e-9b65-281ff150e072","ios":"levelo://app?vid=364f7bef-2628-407e-9b65-281ff150e072"},"vehicle_type_id":"4","last_reported":1729264176,"current_range_meters":16400,"station_id":"ce4bguh2rcd13ifvqckg","pricing_plan_id":"cebpf4jnsgd1na2vs0mg"},{"bike_id":"12567185-2752-4c7c-9eda-58f3fa710c41","system_id":"levelo_inurba_marseille","lat":43.26194,"lon":5.37449,"is_reserved":false,"is_disabled":false,"rental_uris":{"android":"levelo://app?vid=12567185-2752-4c7c-9eda-58f3fa710c41","ios":"levelo://app?vid=12567185-2752-4c7c-9eda-58f3fa710c41"},"vehicle_type_id":"4","last_reported":1729264176,"current_range_meters":35200,"station_id":"ce4bhgp2rcd13ifvqfc0","pricing_plan_id":"cebpf4jnsgd1na2vs0mg"},{"bike_id":"a417ea90-2677-4128-ad80-9d6526661d0d","system_id":"levelo_inurba_marseille","lat":43.23959,"lon":5.36628,"is_reserved":false,"is_disabled":false,"rental_uris":{"android":"levelo://app?vid=a417ea90-2677-4128-ad80-9d6526661d0d","ios":"levelo://app?vid=a417ea90-2677-4128-ad80-9d6526661d0d"},"vehicle_type_id":"4","last_reported":1729264176,"current_range_meters":22400,"station_id":"ce4bhi12rcd13ifvqfp0","pricing_plan_id":"cebpf4jnsgd1na2vs0mg"},{"bike_id":"20a7cc4c-8cf9-4286-99b0-89129c6c6b3a","system_id":"levelo_inurba_marseille","lat":43.32364,"lon":5.38885,"is_reserved":false,"is_disabled":false,"rental_uris":{"android":"levelo://app?vid=20a7cc4c-8cf9-4286-99b0-89129c6c6b3a","ios":"levelo://app?vid=20a7cc4c-8cf9-4286-99b0-89129c6c6b3a"},"vehicle_type_id":"4","last_reported":1729264176,"current_range_meters":30800,"station_id":"ce4bhqp2rcd13ifvqhog","pricing_plan_id":"cebpf4jnsgd1na2vs0mg"},{"bike_id":"96560647-26d4-4927-ac32-e300c26f65ea","system_id":"levelo_inurba_marseille","lat":43.29193,"lon":5.35821,"is_reserved":false,"is_disabled":false,"rental_uris":{"android":"levelo://app?vid=96560647-26d4-4927-ac32-e300c26f65ea","ios":"levelo://app?vid=96560647-26d4-4927-ac32-e300c26f65ea"},"vehicle_type_id":"4","last_reported":1729264176,"current_range_meters":16000,"station_id":"ce4bhb12rcd13ifvqel0","pricing_plan_id":"cebpf4jnsgd1na2vs0mg"},{"bike_id":"f93454e1-a669-4c63-a4ca-b572042c7971","system_id":"levelo_inurba_marseille","lat":43.23194,"lon":5.35554,"is_reserved":false,"is_disabled":false,"rental_uris":{"android":"levelo://app?vid=f93454e1-a669-4c63-a4ca-b572042c7971","ios":"levelo://app?vid=f93454e1-a669-4c63-a4ca-b572042c7971"},"vehicle_type_id":"4","last_reported":1729264176,"current_range_meters":8400,"station_id":"ce4bhu92rcd13ifvqi70","pricing_plan_id":"cebpf4jnsgd1na2vs0mg"},{"bike_id":"9feebf6a-cf06-4283-9475-cface9a88761","system_id":"levelo_inurba_marseille","lat":43.3081,"lon":5.43523,"is_reserved":false,"is_disabled":false,"rental_uris":{"android":"levelo://app?vid=9feebf6a-cf06-4283-9475-cface9a88761","ios":"levelo://app?vid=9feebf6a-cf06-4283-9475-cface9a88761"},"vehicle_type_id":"4","last_reported":1729264176,"current_range_meters":32800,"station_id":"ce4bhph2rcd13ifvqheg","pricing_plan_id":"cebpf4jnsgd1na2vs0mg"},{"bike_id":"22b37876-70ac-4ba0-9001-79de88a5c4f9","system_id":"levelo_inurba_marseille","lat":43.3377,"lon":5.37447,"is_reserved":false,"is_disabled":false,"rental_uris":{"android":"levelo://app?vid=22b37876-70ac-4ba0-9001-79de88a5c4f9","ios":"levelo://app?vid=22b37876-70ac-4ba0-9001-79de88a5c4f9"},"vehicle_type_id":"4","last_reported":1729264176,"current_range_meters":33200,"station_id":"","pricing_plan_id":"cebpf4jnsgd1na2vs0mg"},{"bike_id":"c41c2c86-5b41-4498-aa79-334ae66457bc","system_id":"levelo_inurba_marseille","lat":43.29846,"lon":5.36277,"is_reserved":false,"is_disabled":false,"rental_uris":{"android":"levelo://app?vid=c41c2c86-5b41-4498-aa79-334ae66457bc","ios":"levelo://app?vid=c41c2c86-5b41-4498-aa79-334ae66457bc"},"vehicle_type_id":"4","last_reported":1729264176,"current_range_meters":38800,"station_id":"ce4bgpp2rcd13ifvqc3g","pricing_plan_id":"cebpf4jnsgd1na2vs0mg"},{"bike_id":"6c8c5a64-2fb1-4e4d-9843-6cc8760e9d1d","system_id":"levelo_inurba_marseille","lat":43.26213,"lon":5.3793,"is_reserved":false,"is_disabled":false,"rental_uris":{"android":"levelo://app?vid=6c8c5a64-2fb1-4e4d-9843-6cc8760e9d1d","ios":"levelo://app?vid=6c8c5a64-2fb1-4e4d-9843-6cc8760e9d1d"},"vehicle_type_id":"4","last_reported":1729264176,"current_range_meters":19600,"station_id":"ce4bhjp2rcd13ifvqg90","pricing_plan_id":"cebpf4jnsgd1na2vs0mg"},{"bike_id":"9b78167b-ae5a-47c9-9d1b-58b45505fd1c","system_id":"levelo_inurba_marseille","lat":43.2417,"lon":5.36404,"is_reserved":false,"is_disabled":false,"rental_uris":{"android":"levelo://app?vid=9b78167b-ae5a-47c9-9d1b-58b45505fd1c","ios":"levelo://app?vid=9b78167b-ae5a-47c9-9d1b-58b45505fd1c"},"vehicle_type_id":"4","last_reported":1729264176,"current_range_meters":38800,"station_id":"cpo36qri1sfpv3e86is0","pricing_plan_id":"cebpf4jnsgd1na2vs0mg"},{"bike_id":"896fe0e3-6026-4192-bb2f-f919775be63d","system_id":"levelo_inurba_marseille","lat":43.30778,"lon":5.37651,"is_reserved":false,"is_disabled":false,"rental_uris":{"android":"levelo://app?vid=896fe0e3-6026-4192-bb2f-f919775be63d","ios":"levelo://app?vid=896fe0e3-6026-4192-bb2f-f919775be63d"},"vehicle_type_id":"4","last_reported":1729264176,"current_range_meters":40000,"station_id":"ce4bgv92rcd13ifvqcq0","pricing_plan_id":"cebpf4jnsgd1na2vs0mg"},{"bike_id":"8bddebcf-9bd8-4960-b212-f469bf9df7d9","system_id":"levelo_inurba_marseille","lat":43.2827,"lon":5.35078,"is_reserved":false,"is_disabled":false,"rental_uris":{"android":"levelo://app?vid=8bddebcf-9bd8-4960-b212-f469bf9df7d9","ios":"levelo://app?vid=8bddebcf-9bd8-4960-b212-f469bf9df7d9"},"vehicle_type_id":"4","last_reported":1729264176,"current_range_meters":12400,"station_id":"ce4bhbp2rcd13ifvqerg","pricing_plan_id":"cebpf4jnsgd1na2vs0mg"},{"bike_id":"a8ecee7c-184f-4a9a-a799-bd630c76e135","system_id":"levelo_inurba_marseille","lat":43.31416,"lon":5.42785,"is_reserved":false,"is_disabled":false,"rental_uris":{"android":"levelo://app?vid=a8ecee7c-184f-4a9a-a799-bd630c76e135","ios":"levelo://app?vid=a8ecee7c-184f-4a9a-a799-bd630c76e135"},"vehicle_type_id":"4","last_reported":1729264176,"current_range_meters":32400,"station_id":"","pricing_plan_id":"cebpf4jnsgd1na2vs0mg"},{"bike_id":"0efb87e6-e6db-4887-8631-8d7539cd2cd9","system_id":"levelo_inurba_marseille","lat":43.26553,"lon":5.37285,"is_reserved":false,"is_disabled":false,"rental_uris":{"android":"levelo://app?vid=0efb87e6-e6db-4887-8631-8d7539cd2cd9","ios":"levelo://app?vid=0efb87e6-e6db-4887-8631-8d7539cd2cd9"},"vehicle_type_id":"4","last_reported":1729264176,"current_range_meters":32000,"station_id":"ce4bhg12rcd13ifvqf70","pricing_plan_id":"cebpf4jnsgd1na2vs0mg"},{"bike_id":"f61e25b1-853e-464f-bd0f-238416877e7d","system_id":"levelo_inurba_marseille","lat":43.33752,"lon":5.37477,"is_reserved":false,"is_disabled":false,"rental_uris":{"android":"levelo://app?vid=f61e25b1-853e-464f-bd0f-238416877e7d","ios":"levelo://app?vid=f61e25b1-853e-464f-bd0f-238416877e7d"},"vehicle_type_id":"4","last_reported":1729264176,"current_range_meters":36800,"station_id":"","pricing_plan_id":"cebpf4jnsgd1na2vs0mg"},{"bike_id":"ca814466-59aa-4b10-9c73-083592811d6a","system_id":"levelo_inurba_marseille","lat":43.29623,"lon":5.37743,"is_reserved":false,"is_disabled":false,"rental_uris":{"android":"levelo://app?vid=ca814466-59aa-4b10-9c73-083592811d6a","ios":"levelo://app?vid=ca814466-59aa-4b10-9c73-083592811d6a"},"vehicle_type_id":"4","last_reported":1729264176,"current_range_meters":24400,"station_id":"ce4bgi92rcd13ifvqb90","pricing_plan_id":"cebpf4jnsgd1na2vs0mg"},{"bike_id":"d512e113-2f6f-4409-938f-736e7ade4215","system_id":"levelo_inurba_marseille","lat":43.32017,"lon":5.38182,"is_reserved":false,"is_disabled":false,"rental_uris":{"android":"levelo://app?vid=d512e113-2f6f-4409-938f-736e7ade4215","ios":"levelo://app?vid=d512e113-2f6f-4409-938f-736e7ade4215"},"vehicle_type_id":"4","last_reported":1729264176,"current_range_meters":38800,"station_id":"ce4bhr12rcd13ifvqhpg","pricing_plan_id":"cebpf4jnsgd1na2vs0mg"},{"bike_id":"1fba1081-44d4-4924-bda9-1c7ed6a7a5e9","system_id":"levelo_inurba_marseille","lat":43.295837,"lon":5.37523,"is_reserved":false,"is_disabled":false,"rental_uris":{"android":"levelo://app?vid=1fba1081-44d4-4924-bda9-1c7ed6a7a5e9","ios":"levelo://app?vid=1fba1081-44d4-4924-bda9-1c7ed6a7a5e9"},"vehicle_type_id":"4","last_reported":1729264176,"current_range_meters":28800,"station_id":"ce4bgh92rcd13ifvqb50","pricing_plan_id":"cebpf4jnsgd1na2vs0mg"},{"bike_id":"b3dfe943-8b0d-4b42-9dc6-4a1eb98f8df7","system_id":"levelo_inurba_marseille","lat":43.3266,"lon":5.41006,"is_reserved":false,"is_disabled":false,"rental_uris":{"android":"levelo://app?vid=b3dfe943-8b0d-4b42-9dc6-4a1eb98f8df7","ios":"levelo://app?vid=b3dfe943-8b0d-4b42-9dc6-4a1eb98f8df7"},"vehicle_type_id":"4","last_reported":1729264176,"current_range_meters":20400,"station_id":"ce4bhpp2rcd13ifvqhgg","pricing_plan_id":"cebpf4jnsgd1na2vs0mg"},{"bike_id":"8f3c1d9d-8bb8-4a70-b7f9-f2fb49522239","system_id":"levelo_inurba_marseille","lat":43.330292,"lon":5.390467,"is_reserved":false,"is_disabled":false,"rental_uris":{"android":"levelo://app?vid=8f3c1d9d-8bb8-4a70-b7f9-f2fb49522239","ios":"levelo://app?vid=8f3c1d9d-8bb8-4a70-b7f9-f2fb49522239"},"vehicle_type_id":"4","last_reported":1729264176,"current_range_meters":5600,"station_id":"ce4bhr92rcd13ifvqhrg","pricing_plan_id":"cebpf4jnsgd1na2vs0mg"},{"bike_id":"d06ab29b-1155-402a-a2be-429393032c42","system_id":"levelo_inurba_marseille","lat":43.287,"lon":5.39984,"is_reserved":false,"is_disabled":false,"rental_uris":{"android":"levelo://app?vid=d06ab29b-1155-402a-a2be-429393032c42","ios":"levelo://app?vid=d06ab29b-1155-402a-a2be-429393032c42"},"vehicle_type_id":"4","last_reported":1729264176,"current_range_meters":13600,"station_id":"ce4bho92rcd13ifvqh3g","pricing_plan_id":"cebpf4jnsgd1na2vs0mg"},{"bike_id":"2b2d17c3-8940-4757-8e0a-865520d88c2f","system_id":"levelo_inurba_marseille","lat":43.30193,"lon":5.36633,"is_reserved":false,"is_disabled":false,"rental_uris":{"android":"levelo://app?vid=2b2d17c3-8940-4757-8e0a-865520d88c2f","ios":"levelo://app?vid=2b2d17c3-8940-4757-8e0a-865520d88c2f"},"vehicle_type_id":"4","last_reported":1729264176,"current_range_meters":37600,"station_id":"ce4bgrh2rcd13ifvqc8g","pricing_plan_id":"cebpf4jnsgd1na2vs0mg"},{"bike_id":"9c7790a6-ba75-4e1f-9bb2-209fdfee749b","system_id":"levelo_inurba_marseille","lat":43.2587,"lon":5.39899,"is_reserved":false,"is_disabled":false,"rental_uris":{"android":"levelo://app?vid=9c7790a6-ba75-4e1f-9bb2-209fdfee749b","ios":"levelo://app?vid=9c7790a6-ba75-4e1f-9bb2-209fdfee749b"},"vehicle_type_id":"4","last_reported":1729264176,"current_range_meters":38000,"station_id":"ce4bhl92rcd13ifvqghg","pricing_plan_id":"cebpf4jnsgd1na2vs0mg"},{"bike_id":"631bcd5a-8a5c-4a24-8eff-d671338d6944","system_id":"levelo_inurba_marseille","lat":43.317045,"lon":5.37648,"is_reserved":false,"is_disabled":false,"rental_uris":{"android":"levelo://app?vid=631bcd5a-8a5c-4a24-8eff-d671338d6944","ios":"levelo://app?vid=631bcd5a-8a5c-4a24-8eff-d671338d6944"},"vehicle_type_id":"4","last_reported":1729264176,"current_range_meters":38800,"station_id":"ce4bgth2rcd13ifvqch0","pricing_plan_id":"cebpf4jnsgd1na2vs0mg"},{"bike_id":"b05ae38e-58e4-4071-acb9-e6f43493257e","system_id":"levelo_inurba_marseille","lat":43.293,"lon":5.37175,"is_reserved":false,"is_disabled":false,"rental_uris":{"android":"levelo://app?vid=b05ae38e-58e4-4071-acb9-e6f43493257e","ios":"levelo://app?vid=b05ae38e-58e4-4071-acb9-e6f43493257e"},"vehicle_type_id":"4","last_reported":1729264176,"current_range_meters":8800,"station_id":"ce4bgh92rcd13ifvqb40","pricing_plan_id":"cebpf4jnsgd1na2vs0mg"},{"bike_id":"bbf655bb-0c1a-4473-9e39-268f7575aed8","system_id":"levelo_inurba_marseille","lat":43.29293,"lon":5.37441,"is_reserved":false,"is_disabled":false,"rental_uris":{"android":"levelo://app?vid=bbf655bb-0c1a-4473-9e39-268f7575aed8","ios":"levelo://app?vid=bbf655bb-0c1a-4473-9e39-268f7575aed8"},"vehicle_type_id":"4","last_reported":1729264176,"current_range_meters":29600,"station_id":"ce4bgi12rcd13ifvqb70","pricing_plan_id":"cebpf4jnsgd1na2vs0mg"},{"bike_id":"527bc5af-a70d-4bb7-a529-cce61f55da98","system_id":"levelo_inurba_marseille","lat":43.33716,"lon":5.39181,"is_reserved":false,"is_disabled":false,"rental_uris":{"android":"levelo://app?vid=527bc5af-a70d-4bb7-a529-cce61f55da98","ios":"levelo://app?vid=527bc5af-a70d-4bb7-a529-cce61f55da98"},"vehicle_type_id":"4","last_reported":1729264176,"current_range_meters":38000,"station_id":"ce4bhr92rcd13ifvqhsg","pricing_plan_id":"cebpf4jnsgd1na2vs0mg"},{"bike_id":"a56dd8aa-f6fd-42c7-b0c2-23a347d557fc","system_id":"levelo_inurba_marseille","lat":43.32364,"lon":5.38884,"is_reserved":false,"is_disabled":false,"rental_uris":{"android":"levelo://app?vid=a56dd8aa-f6fd-42c7-b0c2-23a347d557fc","ios":"levelo://app?vid=a56dd8aa-f6fd-42c7-b0c2-23a347d557fc"},"vehicle_type_id":"4","last_reported":1729264176,"current_range_meters":27600,"station_id":"ce4bhqp2rcd13ifvqhog","pricing_plan_id":"cebpf4jnsgd1na2vs0mg"},{"bike_id":"b5cc24b4-6328-4a89-9fe6-db08cb982422","system_id":"levelo_inurba_marseille","lat":43.29776,"lon":5.39348,"is_reserved":false,"is_disabled":false,"rental_uris":{"android":"levelo://app?vid=b5cc24b4-6328-4a89-9fe6-db08cb982422","ios":"levelo://app?vid=b5cc24b4-6328-4a89-9fe6-db08cb982422"},"vehicle_type_id":"4","last_reported":1729264176,"current_range_meters":15200,"station_id":"chh1huq6cuj3fo74tm60","pricing_plan_id":"cebpf4jnsgd1na2vs0mg"},{"bike_id":"04764372-8d41-4a8b-bd27-e55cfcf8b2d3","system_id":"levelo_inurba_marseille","lat":43.29942,"lon":5.36557,"is_reserved":false,"is_disabled":false,"rental_uris":{"android":"levelo://app?vid=04764372-8d41-4a8b-bd27-e55cfcf8b2d3","ios":"levelo://app?vid=04764372-8d41-4a8b-bd27-e55cfcf8b2d3"},"vehicle_type_id":"4","last_reported":1729264176,"current_range_meters":2000,"station_id":"ce4bgm92rcd13ifvqbr0","pricing_plan_id":"cebpf4jnsgd1na2vs0mg"},{"bike_id":"736485cd-da45-412e-bfe8-c95d0f7812c2","system_id":"levelo_inurba_marseille","lat":43.31731,"lon":5.38978,"is_reserved":false,"is_disabled":false,"rental_uris":{"android":"levelo://app?vid=736485cd-da45-412e-bfe8-c95d0f7812c2","ios":"levelo://app?vid=736485cd-da45-412e-bfe8-c95d0f7812c2"},"vehicle_type_id":"4","last_reported":1729264176,"current_range_meters":12000,"station_id":"ce4bhqp2rcd13ifvqhng","pricing_plan_id":"cebpf4jnsgd1na2vs0mg"},{"bike_id":"7b520240-3d30-4402-9be0-57d2575b89ff","system_id":"levelo_inurba_marseille","lat":43.26193,"lon":5.37452,"is_reserved":false,"is_disabled":false,"rental_uris":{"android":"levelo://app?vid=7b520240-3d30-4402-9be0-57d2575b89ff","ios":"levelo://app?vid=7b520240-3d30-4402-9be0-57d2575b89ff"},"vehicle_type_id":"4","last_reported":1729264176,"current_range_meters":22000,"station_id":"ce4bhgp2rcd13ifvqfc0","pricing_plan_id":"cebpf4jnsgd1na2vs0mg"},{"bike_id":"c3fe07dc-ac18-46f5-bcab-19eb83c77839","system_id":"levelo_inurba_marseille","lat":43.23181,"lon":5.39991,"is_reserved":false,"is_disabled":false,"rental_uris":{"android":"levelo://app?vid=c3fe07dc-ac18-46f5-bcab-19eb83c77839","ios":"levelo://app?vid=c3fe07dc-ac18-46f5-bcab-19eb83c77839"},"vehicle_type_id":"4","last_reported":1729264176,"current_range_meters":9600,"station_id":"ce4bhn12rcd13ifvqgqg","pricing_plan_id":"cebpf4jnsgd1na2vs0mg"},{"bike_id":"78ee5e31-4a87-41d1-8f63-9ea0bb095e8f","system_id":"levelo_inurba_marseille","lat":43.27371,"lon":5.36265,"is_reserved":false,"is_disabled":false,"rental_uris":{"android":"levelo://app?vid=78ee5e31-4a87-41d1-8f63-9ea0bb095e8f","ios":"levelo://app?vid=78ee5e31-4a87-41d1-8f63-9ea0bb095e8f"},"vehicle_type_id":"4","last_reported":1729264176,"current_range_meters":38800,"station_id":"ce4bhbh2rcd13ifvqeo0","pricing_plan_id":"cebpf4jnsgd1na2vs0mg"},{"bike_id":"0f86a360-c1c7-43a2-af40-469840a42393","system_id":"levelo_inurba_marseille","lat":43.28276,"lon":5.35073,"is_reserved":false,"is_disabled":false,"rental_uris":{"android":"levelo://app?vid=0f86a360-c1c7-43a2-af40-469840a42393","ios":"levelo://app?vid=0f86a360-c1c7-43a2-af40-469840a42393"},"vehicle_type_id":"4","last_reported":1729264176,"current_range_meters":3200,"station_id":"ce4bhbp2rcd13ifvqerg","pricing_plan_id":"cebpf4jnsgd1na2vs0mg"},{"bike_id":"95e1ed90-71fd-4c21-93d2-78a949f64bb4","system_id":"levelo_inurba_marseille","lat":43.27379,"lon":5.36265,"is_reserved":false,"is_disabled":false,"rental_uris":{"android":"levelo://app?vid=95e1ed90-71fd-4c21-93d2-78a949f64bb4","ios":"levelo://app?vid=95e1ed90-71fd-4c21-93d2-78a949f64bb4"},"vehicle_type_id":"4","last_reported":1729264176,"current_range_meters":32000,"station_id":"ce4bhbh2rcd13ifvqeo0","pricing_plan_id":"cebpf4jnsgd1na2vs0mg"},{"bike_id":"1bea34f6-95cd-47a8-8206-ca6ebee4f30e","system_id":"levelo_inurba_marseille","lat":43.25501,"lon":5.3765,"is_reserved":false,"is_disabled":false,"rental_uris":{"android":"levelo://app?vid=1bea34f6-95cd-47a8-8206-ca6ebee4f30e","ios":"levelo://app?vid=1bea34f6-95cd-47a8-8206-ca6ebee4f30e"},"vehicle_type_id":"4","last_reported":1729264176,"current_range_meters":16800,"station_id":"ce4bhh12rcd13ifvqff0","pricing_plan_id":"cebpf4jnsgd1na2vs0mg"},{"bike_id":"e1824bf1-f4bf-438b-80c9-7837e30484fe","system_id":"levelo_inurba_marseille","lat":43.25498,"lon":5.37652,"is_reserved":false,"is_disabled":false,"rental_uris":{"android":"levelo://app?vid=e1824bf1-f4bf-438b-80c9-7837e30484fe","ios":"levelo://app?vid=e1824bf1-f4bf-438b-80c9-7837e30484fe"},"vehicle_type_id":"4","last_reported":1729264176,"current_range_meters":38800,"station_id":"ce4bhh12rcd13ifvqff0","pricing_plan_id":"cebpf4jnsgd1na2vs0mg"},{"bike_id":"f269126c-1b0b-4a1a-a1d6-f8c3716f5336","system_id":"levelo_inurba_marseille","lat":43.23192,"lon":5.35551,"is_reserved":false,"is_disabled":false,"rental_uris":{"android":"levelo://app?vid=f269126c-1b0b-4a1a-a1d6-f8c3716f5336","ios":"levelo://app?vid=f269126c-1b0b-4a1a-a1d6-f8c3716f5336"},"vehicle_type_id":"4","last_reported":1729264176,"current_range_meters":16400,"station_id":"ce4bhu92rcd13ifvqi70","pricing_plan_id":"cebpf4jnsgd1na2vs0mg"},{"bike_id":"6504c83e-ee5c-44f6-b566-d985f5f17132","system_id":"levelo_inurba_marseille","lat":43.2621,"lon":5.37444,"is_reserved":false,"is_disabled":false,"rental_uris":{"android":"levelo://app?vid=6504c83e-ee5c-44f6-b566-d985f5f17132","ios":"levelo://app?vid=6504c83e-ee5c-44f6-b566-d985f5f17132"},"vehicle_type_id":"4","last_reported":1729264176,"current_range_meters":14800,"station_id":"ce4bhgp2rcd13ifvqfc0","pricing_plan_id":"cebpf4jnsgd1na2vs0mg"},{"bike_id":"f958b83b-5b69-4dd5-b5c7-2696f0d9a00a","system_id":"levelo_inurba_marseille","lat":43.28079,"lon":5.39664,"is_reserved":false,"is_disabled":false,"rental_uris":{"android":"levelo://app?vid=f958b83b-5b69-4dd5-b5c7-2696f0d9a00a","ios":"levelo://app?vid=f958b83b-5b69-4dd5-b5c7-2696f0d9a00a"},"vehicle_type_id":"4","last_reported":1729264176,"current_range_meters":32000,"station_id":"ce4bho12rcd13ifvqh2g","pricing_plan_id":"cebpf4jnsgd1na2vs0mg"},{"bike_id":"a4dd8e48-4aa0-48d2-9e35-b2d80e0d9386","system_id":"levelo_inurba_marseille","lat":43.27997,"lon":5.40019,"is_reserved":false,"is_disabled":false,"rental_uris":{"android":"levelo://app?vid=a4dd8e48-4aa0-48d2-9e35-b2d80e0d9386","ios":"levelo://app?vid=a4dd8e48-4aa0-48d2-9e35-b2d80e0d9386"},"vehicle_type_id":"4","last_reported":1729264176,"current_range_meters":30000,"station_id":"ce4bho92rcd13ifvqh4g","pricing_plan_id":"cebpf4jnsgd1na2vs0mg"},{"bike_id":"233dc7b2-167c-47d9-9210-8117e91c19a1","system_id":"levelo_inurba_marseille","lat":43.23964,"lon":5.36629,"is_reserved":false,"is_disabled":false,"rental_uris":{"android":"levelo://app?vid=233dc7b2-167c-47d9-9210-8117e91c19a1","ios":"levelo://app?vid=233dc7b2-167c-47d9-9210-8117e91c19a1"},"vehicle_type_id":"4","last_reported":1729264176,"current_range_meters":33200,"station_id":"ce4bhi12rcd13ifvqfp0","pricing_plan_id":"cebpf4jnsgd1na2vs0mg"},{"bike_id":"a5cf9039-f0b2-4e59-b3ff-2e77524f69e0","system_id":"levelo_inurba_marseille","lat":43.25501,"lon":5.37651,"is_reserved":false,"is_disabled":false,"rental_uris":{"android":"levelo://app?vid=a5cf9039-f0b2-4e59-b3ff-2e77524f69e0","ios":"levelo://app?vid=a5cf9039-f0b2-4e59-b3ff-2e77524f69e0"},"vehicle_type_id":"4","last_reported":1729264176,"current_range_meters":3200,"station_id":"ce4bhh12rcd13ifvqff0","pricing_plan_id":"cebpf4jnsgd1na2vs0mg"},{"bike_id":"dfe02e30-ce36-4709-b8c9-2b5d34663be6","system_id":"levelo_inurba_marseille","lat":43.26557,"lon":5.37284,"is_reserved":false,"is_disabled":false,"rental_uris":{"android":"levelo://app?vid=dfe02e30-ce36-4709-b8c9-2b5d34663be6","ios":"levelo://app?vid=dfe02e30-ce36-4709-b8c9-2b5d34663be6"},"vehicle_type_id":"4","last_reported":1729264176,"current_range_meters":28400,"station_id":"ce4bhg12rcd13ifvqf70","pricing_plan_id":"cebpf4jnsgd1na2vs0mg"},{"bike_id":"957cbddf-9fcd-43e8-91dc-e2c2b4a87105","system_id":"levelo_inurba_marseille","lat":43.2953,"lon":5.38547,"is_reserved":false,"is_disabled":false,"rental_uris":{"android":"levelo://app?vid=957cbddf-9fcd-43e8-91dc-e2c2b4a87105","ios":"levelo://app?vid=957cbddf-9fcd-43e8-91dc-e2c2b4a87105"},"vehicle_type_id":"4","last_reported":1729264176,"current_range_meters":22400,"station_id":"ce4bgih2rcd13ifvqba0","pricing_plan_id":"cebpf4jnsgd1na2vs0mg"},{"bike_id":"7b438a82-b7f9-407c-adb0-c39de15b28a4","system_id":"levelo_inurba_marseille","lat":43.30547,"lon":5.36717,"is_reserved":false,"is_disabled":false,"rental_uris":{"android":"levelo://app?vid=7b438a82-b7f9-407c-adb0-c39de15b28a4","ios":"levelo://app?vid=7b438a82-b7f9-407c-adb0-c39de15b28a4"},"vehicle_type_id":"4","last_reported":1729264176,"current_range_meters":23200,"station_id":"ce4bgrp2rcd13ifvqc9g","pricing_plan_id":"cebpf4jnsgd1na2vs0mg"},{"bike_id":"ebd02eac-6cc5-4413-b022-ab085dda9557","system_id":"levelo_inurba_marseille","lat":43.27375,"lon":5.36259,"is_reserved":false,"is_disabled":false,"rental_uris":{"android":"levelo://app?vid=ebd02eac-6cc5-4413-b022-ab085dda9557","ios":"levelo://app?vid=ebd02eac-6cc5-4413-b022-ab085dda9557"},"vehicle_type_id":"4","last_reported":1729264176,"current_range_meters":18800,"station_id":"ce4bhbh2rcd13ifvqeo0","pricing_plan_id":"cebpf4jnsgd1na2vs0mg"},{"bike_id":"85a82f04-5b14-424a-a675-c951a9a3f3b8","system_id":"levelo_inurba_marseille","lat":43.24548,"lon":5.39525,"is_reserved":false,"is_disabled":false,"rental_uris":{"android":"levelo://app?vid=85a82f04-5b14-424a-a675-c951a9a3f3b8","ios":"levelo://app?vid=85a82f04-5b14-424a-a675-c951a9a3f3b8"},"vehicle_type_id":"4","last_reported":1729264176,"current_range_meters":8400,"station_id":"ce4bhlp2rcd13ifvqgjg","pricing_plan_id":"cebpf4jnsgd1na2vs0mg"},{"bike_id":"55653dd9-66ec-4d14-9969-d1a45350f56b","system_id":"levelo_inurba_marseille","lat":43.30633,"lon":5.40096,"is_reserved":false,"is_disabled":false,"rental_uris":{"android":"levelo://app?vid=55653dd9-66ec-4d14-9969-d1a45350f56b","ios":"levelo://app?vid=55653dd9-66ec-4d14-9969-d1a45350f56b"},"vehicle_type_id":"4","last_reported":1729264176,"current_range_meters":25200,"station_id":"ce4bh112rcd13ifvqda0","pricing_plan_id":"cebpf4jnsgd1na2vs0mg"},{"bike_id":"1bd724d3-ee07-4e95-b1ea-029790724060","system_id":"levelo_inurba_marseille","lat":43.28456,"lon":5.39209,"is_reserved":false,"is_disabled":false,"rental_uris":{"android":"levelo://app?vid=1bd724d3-ee07-4e95-b1ea-029790724060","ios":"levelo://app?vid=1bd724d3-ee07-4e95-b1ea-029790724060"},"vehicle_type_id":"4","last_reported":1729264176,"current_range_meters":17200,"station_id":"ce4bhoh2rcd13ifvqh5g","pricing_plan_id":"cebpf4jnsgd1na2vs0mg"},{"bike_id":"d20262c8-4239-4244-8d3e-c29521b401a0","system_id":"levelo_inurba_marseille","lat":43.23964,"lon":5.36644,"is_reserved":false,"is_disabled":false,"rental_uris":{"android":"levelo://app?vid=d20262c8-4239-4244-8d3e-c29521b401a0","ios":"levelo://app?vid=d20262c8-4239-4244-8d3e-c29521b401a0"},"vehicle_type_id":"4","last_reported":1729264176,"current_range_meters":10000,"station_id":"ce4bhi12rcd13ifvqfp0","pricing_plan_id":"cebpf4jnsgd1na2vs0mg"},{"bike_id":"03dca69b-a88a-4fa1-bba3-d586a4c23fb0","system_id":"levelo_inurba_marseille","lat":43.23957,"lon":5.36641,"is_reserved":false,"is_disabled":false,"rental_uris":{"android":"levelo://app?vid=03dca69b-a88a-4fa1-bba3-d586a4c23fb0","ios":"levelo://app?vid=03dca69b-a88a-4fa1-bba3-d586a4c23fb0"},"vehicle_type_id":"4","last_reported":1729264176,"current_range_meters":36800,"station_id":"ce4bhi12rcd13ifvqfp0","pricing_plan_id":"cebpf4jnsgd1na2vs0mg"},{"bike_id":"d04c3b06-659b-4d96-98ae-33629fc51060","system_id":"levelo_inurba_marseille","lat":43.29848,"lon":5.36283,"is_reserved":false,"is_disabled":false,"rental_uris":{"android":"levelo://app?vid=d04c3b06-659b-4d96-98ae-33629fc51060","ios":"levelo://app?vid=d04c3b06-659b-4d96-98ae-33629fc51060"},"vehicle_type_id":"4","last_reported":1729264176,"current_range_meters":38800,"station_id":"ce4bgpp2rcd13ifvqc3g","pricing_plan_id":"cebpf4jnsgd1na2vs0mg"},{"bike_id":"ff7f12f7-fae2-475f-8880-fbe6ec3cd326","system_id":"levelo_inurba_marseille","lat":43.2804,"lon":5.36957,"is_reserved":false,"is_disabled":false,"rental_uris":{"android":"levelo://app?vid=ff7f12f7-fae2-475f-8880-fbe6ec3cd326","ios":"levelo://app?vid=ff7f12f7-fae2-475f-8880-fbe6ec3cd326"},"vehicle_type_id":"4","last_reported":1729264176,"current_range_meters":38800,"station_id":"ce4bha12rcd13ifvqef0","pricing_plan_id":"cebpf4jnsgd1na2vs0mg"},{"bike_id":"92d353b6-a5cd-4644-a4ac-437f26730104","system_id":"levelo_inurba_marseille","lat":43.29849,"lon":5.36287,"is_reserved":false,"is_disabled":false,"rental_uris":{"android":"levelo://app?vid=92d353b6-a5cd-4644-a4ac-437f26730104","ios":"levelo://app?vid=92d353b6-a5cd-4644-a4ac-437f26730104"},"vehicle_type_id":"4","last_reported":1729264176,"current_range_meters":27600,"station_id":"ce4bgpp2rcd13ifvqc3g","pricing_plan_id":"cebpf4jnsgd1na2vs0mg"},{"bike_id":"9bc83f69-0768-49da-b663-1d3e063c9e13","system_id":"levelo_inurba_marseille","lat":43.337666,"lon":5.374568,"is_reserved":false,"is_disabled":false,"rental_uris":{"android":"levelo://app?vid=9bc83f69-0768-49da-b663-1d3e063c9e13","ios":"levelo://app?vid=9bc83f69-0768-49da-b663-1d3e063c9e13"},"vehicle_type_id":"4","last_reported":1729264176,"current_range_meters":3200,"station_id":"","pricing_plan_id":"cebpf4jnsgd1na2vs0mg"},{"bike_id":"0acda879-dbe5-4dd0-9b03-d5a20409efbd","system_id":"levelo_inurba_marseille","lat":43.29842,"lon":5.36272,"is_reserved":false,"is_disabled":false,"rental_uris":{"android":"levelo://app?vid=0acda879-dbe5-4dd0-9b03-d5a20409efbd","ios":"levelo://app?vid=0acda879-dbe5-4dd0-9b03-d5a20409efbd"},"vehicle_type_id":"4","last_reported":1729264176,"current_range_meters":8400,"station_id":"ce4bgpp2rcd13ifvqc3g","pricing_plan_id":"cebpf4jnsgd1na2vs0mg"},{"bike_id":"3285c409-17e0-4dcd-af13-e185790a9c7f","system_id":"levelo_inurba_marseille","lat":43.3042,"lon":5.39777,"is_reserved":false,"is_disabled":false,"rental_uris":{"android":"levelo://app?vid=3285c409-17e0-4dcd-af13-e185790a9c7f","ios":"levelo://app?vid=3285c409-17e0-4dcd-af13-e185790a9c7f"},"vehicle_type_id":"4","last_reported":1729264176,"current_range_meters":3200,"station_id":"ce4bh092rcd13ifvqd20","pricing_plan_id":"cebpf4jnsgd1na2vs0mg"},{"bike_id":"24aafcf9-7ea4-4200-aa39-904c5967db84","system_id":"levelo_inurba_marseille","lat":43.27831,"lon":5.39215,"is_reserved":false,"is_disabled":false,"rental_uris":{"android":"levelo://app?vid=24aafcf9-7ea4-4200-aa39-904c5967db84","ios":"levelo://app?vid=24aafcf9-7ea4-4200-aa39-904c5967db84"},"vehicle_type_id":"4","last_reported":1729264176,"current_range_meters":10800,"station_id":"ce4bhjp2rcd13ifvqga0","pricing_plan_id":"cebpf4jnsgd1na2vs0mg"},{"bike_id":"49fa4340-349c-483c-b6eb-643bdefcb37f","system_id":"levelo_inurba_marseille","lat":43.23965,"lon":5.36634,"is_reserved":false,"is_disabled":false,"rental_uris":{"android":"levelo://app?vid=49fa4340-349c-483c-b6eb-643bdefcb37f","ios":"levelo://app?vid=49fa4340-349c-483c-b6eb-643bdefcb37f"},"vehicle_type_id":"4","last_reported":1729264176,"current_range_meters":14000,"station_id":"ce4bhi12rcd13ifvqfp0","pricing_plan_id":"cebpf4jnsgd1na2vs0mg"},{"bike_id":"8d88c93f-5a0f-4b3b-99b3-28abe9b1ee7e","system_id":"levelo_inurba_marseille","lat":43.25489,"lon":5.37647,"is_reserved":false,"is_disabled":false,"rental_uris":{"android":"levelo://app?vid=8d88c93f-5a0f-4b3b-99b3-28abe9b1ee7e","ios":"levelo://app?vid=8d88c93f-5a0f-4b3b-99b3-28abe9b1ee7e"},"vehicle_type_id":"4","last_reported":1729264176,"current_range_meters":6400,"station_id":"ce4bhh12rcd13ifvqff0","pricing_plan_id":"cebpf4jnsgd1na2vs0mg"},{"bike_id":"69c78ed1-854b-47d7-aaa8-26a907aa52ef","system_id":"levelo_inurba_marseille","lat":43.27813,"lon":5.407063,"is_reserved":false,"is_disabled":false,"rental_uris":{"android":"levelo://app?vid=69c78ed1-854b-47d7-aaa8-26a907aa52ef","ios":"levelo://app?vid=69c78ed1-854b-47d7-aaa8-26a907aa52ef"},"vehicle_type_id":"4","last_reported":1729264176,"current_range_meters":28000,"station_id":"ce4bhnh2rcd13ifvqgtg","pricing_plan_id":"cebpf4jnsgd1na2vs0mg"},{"bike_id":"ce45ece3-5e47-495f-a3f1-b6c405a1b285","system_id":"levelo_inurba_marseille","lat":43.28269,"lon":5.35059,"is_reserved":false,"is_disabled":false,"rental_uris":{"android":"levelo://app?vid=ce45ece3-5e47-495f-a3f1-b6c405a1b285","ios":"levelo://app?vid=ce45ece3-5e47-495f-a3f1-b6c405a1b285"},"vehicle_type_id":"4","last_reported":1729264176,"current_range_meters":35600,"station_id":"ce4bhbp2rcd13ifvqerg","pricing_plan_id":"cebpf4jnsgd1na2vs0mg"},{"bike_id":"3e36ccc4-8a14-4a9c-a0e9-82a2c603fa2c","system_id":"levelo_inurba_marseille","lat":43.24648,"lon":5.38901,"is_reserved":false,"is_disabled":false,"rental_uris":{"android":"levelo://app?vid=3e36ccc4-8a14-4a9c-a0e9-82a2c603fa2c","ios":"levelo://app?vid=3e36ccc4-8a14-4a9c-a0e9-82a2c603fa2c"},"vehicle_type_id":"4","last_reported":1729264176,"current_range_meters":11600,"station_id":"ce4bhg12rcd13ifvqf60","pricing_plan_id":"cebpf4jnsgd1na2vs0mg"},{"bike_id":"1a96d551-ac93-44fd-8a4e-8f6097cf8414","system_id":"levelo_inurba_marseille","lat":43.27379,"lon":5.36262,"is_reserved":false,"is_disabled":false,"rental_uris":{"android":"levelo://app?vid=1a96d551-ac93-44fd-8a4e-8f6097cf8414","ios":"levelo://app?vid=1a96d551-ac93-44fd-8a4e-8f6097cf8414"},"vehicle_type_id":"4","last_reported":1729264176,"current_range_meters":16400,"station_id":"ce4bhbh2rcd13ifvqeo0","pricing_plan_id":"cebpf4jnsgd1na2vs0mg"},