{"last_updated":1778845562,"ttl":60,"version":"2.2","data":{"bikes":[{"bike_id":"84fc2533-9192-4450-89a0-2c7404f87c50","system_id":"levelo_inurba_marseille","lat":43.28109,"lon":5.37847,"is_reserved":false,"is_disabled":false,"rental_uris":{"android":"levelo://app?vid=84fc2533-9192-4450-89a0-2c7404f87c50","ios":"levelo://app?vid=84fc2533-9192-4450-89a0-2c7404f87c50"},"vehicle_type_id":"4","last_reported":1778845563,"current_range_meters":2800,"station_id":"ce4bha12rcd13ifvqee0","pricing_plan_id":"cebpf4jnsgd1na2vs0mg"},{"bike_id":"8ab41c79-d64d-4b54-977b-18cf2afb9bf6","system_id":"levelo_inurba_marseille","lat":43.30917,"lon":5.40146,"is_reserved":false,"is_disabled":false,"rental_uris":{"android":"levelo://app?vid=8ab41c79-d64d-4b54-977b-18cf2afb9bf6","ios":"levelo://app?vid=8ab41c79-d64d-4b54-977b-18cf2afb9bf6"},"vehicle_type_id":"4","last_reported":1778845563,"current_range_meters":2800,"station_id":"ce4bgvp2rcd13ifvqct0","pricing_plan_id":"cebpf4jnsgd1na2vs0mg"},{"bike_id":"28976c99-f0a7-4737-b682-8934baae162c","system_id":"levelo_inurba_marseille","lat":43.27946,"lon":5.41046,"is_reserved":false,"is_disabled":false,"rental_uris":{"android":"levelo://app?vid=28976c99-f0a7-4737-b682-8934baae162c","ios":"levelo://app?vid=28976c99-f0a7-4737-b682-8934baae162c"},"vehicle_type_id":"4","last_reported":1778845563,"current_range_meters":2800,"station_id":"ce4bhnp2rcd13ifvqh0g","pricing_plan_id":"cebpf4jnsgd1na2vs0mg"},{"bike_id":"21bd9687-95ff-4cb3-b0e6-b1ad941f8d67","system_id":"levelo_inurba_marseille","lat":43.23895,"lon":5.37454,"is_reserved":false,"is_disabled":false,"rental_uris":{"android":"levelo://app?vid=21bd9687-95ff-4cb3-b0e6-b1ad941f8d67","ios":"levelo://app?vid=21bd9687-95ff-4cb3-b0e6-b1ad941f8d67"},"vehicle_type_id":"4","last_reported":1778845563,"current_range_meters":2800,"station_id":"st_d6sm7csbq4hs73f8fpjg","pricing_plan_id":"cebpf4jnsgd1na2vs0mg"},{"bike_id":"cff5a18e-fc0b-4511-b71c-512b1d0daeb8","system_id":"levelo_inurba_marseille","lat":43.26223,"lon":5.38764,"is_reserved":false,"is_disabled":false,"rental_uris":{"android":"levelo://app?vid=cff5a18e-fc0b-4511-b71c-512b1d0daeb8","ios":"levelo://app?vid=cff5a18e-fc0b-4511-b71c-512b1d0daeb8"},"vehicle_type_id":"4","last_reported":1778845563,"current_range_meters":2800,"station_id":"","pricing_plan_id":"cebpf4jnsgd1na2vs0mg"},{"bike_id":"6e5dfbd9-c03a-40ed-aedc-3c2f2a1d6845","system_id":"levelo_inurba_marseille","lat":43.23707,"lon":5.39932,"is_reserved":false,"is_disabled":false,"rental_uris":{"android":"levelo://app?vid=6e5dfbd9-c03a-40ed-aedc-3c2f2a1d6845","ios":"levelo://app?vid=6e5dfbd9-c03a-40ed-aedc-3c2f2a1d6845"},"vehicle_type_id":"4","last_reported":1778845563,"current_range_meters":2800,"station_id":"","pricing_plan_id":"cebpf4jnsgd1na2vs0mg"},{"bike_id":"afe6e870-d367-47c7-a8aa-acbc3529a99b","system_id":"levelo_inurba_marseille","lat":43.28096,"lon":5.37839,"is_reserved":false,"is_disabled":false,"rental_uris":{"android":"levelo://app?vid=afe6e870-d367-47c7-a8aa-acbc3529a99b","ios":"levelo://app?vid=afe6e870-d367-47c7-a8aa-acbc3529a99b"},"vehicle_type_id":"4","last_reported":1778845563,"current_range_meters":2800,"station_id":"ce4bha12rcd13ifvqee0","pricing_plan_id":"cebpf4jnsgd1na2vs0mg"},{"bike_id":"5e8620f7-476d-479d-b824-0ee8299b38df","system_id":"levelo_inurba_marseille","lat":43.31217,"lon":5.37814,"is_reserved":false,"is_disabled":false,"rental_uris":{"android":"levelo://app?vid=5e8620f7-476d-479d-b824-0ee8299b38df","ios":"levelo://app?vid=5e8620f7-476d-479d-b824-0ee8299b38df"},"vehicle_type_id":"4","last_reported":1778845563,"current_range_meters":3200,"station_id":"","pricing_plan_id":"cebpf4jnsgd1na2vs0mg"},{"bike_id":"7084d022-ebcf-4a02-8c83-96ed13fefd53","system_id":"levelo_inurba_marseille","lat":43.29533,"lon":5.38546,"is_reserved":false,"is_disabled":false,"rental_uris":{"android":"levelo://app?vid=7084d022-ebcf-4a02-8c83-96ed13fefd53","ios":"levelo://app?vid=7084d022-ebcf-4a02-8c83-96ed13fefd53"},"vehicle_type_id":"4","last_reported":1778845563,"current_range_meters":3200,"station_id":"ce4bgih2rcd13ifvqba0","pricing_plan_id":"cebpf4jnsgd1na2vs0mg"},{"bike_id":"c7baa720-3259-45b5-a729-c76df6c02d6d","system_id":"levelo_inurba_marseille","lat":43.28196,"lon":5.39041,"is_reserved":false,"is_disabled":true,"rental_uris":{"android":"levelo://app?vid=c7baa720-3259-45b5-a729-c76df6c02d6d","ios":"levelo://app?vid=c7baa720-3259-45b5-a729-c76df6c02d6d"},"vehicle_type_id":"4","last_reported":1778845563,"current_range_meters":3200,"station_id":"ce4bhn92rcd13ifvqgsg","pricing_plan_id":"cebpf4jnsgd1na2vs0mg"},{"bike_id":"33b84942-cf5f-4afa-869d-950d91a6d306","system_id":"levelo_inurba_marseille","lat":43.28605,"lon":5.38605,"is_reserved":false,"is_disabled":false,"rental_uris":{"android":"levelo://app?vid=33b84942-cf5f-4afa-869d-950d91a6d306","ios":"levelo://app?vid=33b84942-cf5f-4afa-869d-950d91a6d306"},"vehicle_type_id":"4","last_reported":1778845563,"current_range_meters":3200,"station_id":"","pricing_plan_id":"cebpf4jnsgd1na2vs0mg"},{"bike_id":"07901982-752d-4b1b-a3d8-7d8ebd2d57d5","system_id":"levelo_inurba_marseille","lat":43.31901,"lon":5.36786,"is_reserved":false,"is_disabled":false,"rental_uris":{"android":"levelo://app?vid=07901982-752d-4b1b-a3d8-7d8ebd2d57d5","ios":"levelo://app?vid=07901982-752d-4b1b-a3d8-7d8ebd2d57d5"},"vehicle_type_id":"4","last_reported":1778845563,"current_range_meters":3200,"station_id":"st_d6o2h0d0559c73evc1b0","pricing_plan_id":"cebpf4jnsgd1na2vs0mg"},{"bike_id":"f319d43d-d58c-4aac-9f61-b07539060c76","system_id":"levelo_inurba_marseille","lat":43.33218,"lon":5.43052,"is_reserved":false,"is_disabled":false,"rental_uris":{"android":"levelo://app?vid=f319d43d-d58c-4aac-9f61-b07539060c76","ios":"levelo://app?vid=f319d43d-d58c-4aac-9f61-b07539060c76"},"vehicle_type_id":"4","last_reported":1778845563,"current_range_meters":3600,"station_id":"","pricing_plan_id":"cebpf4jnsgd1na2vs0mg"},{"bike_id":"6fc358a9-646a-4b0f-933c-a19c2d945923","system_id":"levelo_inurba_marseille","lat":43.26209,"lon":5.37437,"is_reserved":false,"is_disabled":false,"rental_uris":{"android":"levelo://app?vid=6fc358a9-646a-4b0f-933c-a19c2d945923","ios":"levelo://app?vid=6fc358a9-646a-4b0f-933c-a19c2d945923"},"vehicle_type_id":"4","last_reported":1778845563,"current_range_meters":3600,"station_id":"ce4bhgp2rcd13ifvqfc0","pricing_plan_id":"cebpf4jnsgd1na2vs0mg"},{"bike_id":"67f28ee8-75fd-440e-847b-c03a6f3c146e","system_id":"levelo_inurba_marseille","lat":43.2518,"lon":5.37452,"is_reserved":false,"is_disabled":false,"rental_uris":{"android":"levelo://app?vid=67f28ee8-75fd-440e-847b-c03a6f3c146e","ios":"levelo://app?vid=67f28ee8-75fd-440e-847b-c03a6f3c146e"},"vehicle_type_id":"4","last_reported":1778845563,"current_range_meters":3600,"station_id":"","pricing_plan_id":"cebpf4jnsgd1na2vs0mg"},{"bike_id":"8e8da42d-03bd-4b9b-97b5-52713d72ebe4","system_id":"levelo_inurba_marseille","lat":43.32097,"lon":5.36766,"is_reserved":false,"is_disabled":false,"rental_uris":{"android":"levelo://app?vid=8e8da42d-03bd-4b9b-97b5-52713d72ebe4","ios":"levelo://app?vid=8e8da42d-03bd-4b9b-97b5-52713d72ebe4"},"vehicle_type_id":"4","last_reported":1778845563,"current_range_meters":3600,"station_id":"ce4bhrh2rcd13ifvqhug","pricing_plan_id":"cebpf4jnsgd1na2vs0mg"},{"bike_id":"f4bc0c90-9c17-4760-8d08-0002aa0acd24","system_id":"levelo_inurba_marseille","lat":43.292771,"lon":5.368509,"is_reserved":false,"is_disabled":false,"rental_uris":{"android":"levelo://app?vid=f4bc0c90-9c17-4760-8d08-0002aa0acd24","ios":"levelo://app?vid=f4bc0c90-9c17-4760-8d08-0002aa0acd24"},"vehicle_type_id":"4","last_reported":1778845563,"current_range_meters":3600,"station_id":"ce4bhbp2rcd13ifvqesg","pricing_plan_id":"cebpf4jnsgd1na2vs0mg"},{"bike_id":"d562daf4-97a1-460d-9454-1dc3765e3cfa","system_id":"levelo_inurba_marseille","lat":43.21738,"lon":5.34605,"is_reserved":false,"is_disabled":false,"rental_uris":{"android":"levelo://app?vid=d562daf4-97a1-460d-9454-1dc3765e3cfa","ios":"levelo://app?vid=d562daf4-97a1-460d-9454-1dc3765e3cfa"},"vehicle_type_id":"4","last_reported":1778845563,"current_range_meters":3600,"station_id":"st_cvj6r9ubvosntc0bgbag","pricing_plan_id":"cebpf4jnsgd1na2vs0mg"},{"bike_id":"b8b0b6d6-a24a-4a04-85ce-462a48e52c32","system_id":"levelo_inurba_marseille","lat":43.24179,"lon":5.39726,"is_reserved":false,"is_disabled":false,"rental_uris":{"android":"levelo://app?vid=b8b0b6d6-a24a-4a04-85ce-462a48e52c32","ios":"levelo://app?vid=b8b0b6d6-a24a-4a04-85ce-462a48e52c32"},"vehicle_type_id":"4","last_reported":1778845563,"current_range_meters":4000,"station_id":"ce4bhn12rcd13ifvqgpg","pricing_plan_id":"cebpf4jnsgd1na2vs0mg"},{"bike_id":"56ebb272-f35a-4495-95fc-289a89d13fb2","system_id":"levelo_inurba_marseille","lat":43.30798,"lon":5.38154,"is_reserved":false,"is_disabled":false,"rental_uris":{"android":"levelo://app?vid=56ebb272-f35a-4495-95fc-289a89d13fb2","ios":"levelo://app?vid=56ebb272-f35a-4495-95fc-289a89d13fb2"},"vehicle_type_id":"4","last_reported":1778845563,"current_range_meters":4000,"station_id":"ce4bgt12rcd13ifvqce0","pricing_plan_id":"cebpf4jnsgd1na2vs0mg"},{"bike_id":"24470cc5-354a-4dce-96ae-b85c1da25107","system_id":"levelo_inurba_marseille","lat":43.286678,"lon":5.38665,"is_reserved":false,"is_disabled":false,"rental_uris":{"android":"levelo://app?vid=24470cc5-354a-4dce-96ae-b85c1da25107","ios":"levelo://app?vid=24470cc5-354a-4dce-96ae-b85c1da25107"},"vehicle_type_id":"4","last_reported":1778845563,"current_range_meters":4000,"station_id":"ce4bh492rcd13ifvqdug","pricing_plan_id":"cebpf4jnsgd1na2vs0mg"},{"bike_id":"ea70a703-71ff-4455-9cc3-d063a4a39ec7","system_id":"levelo_inurba_marseille","lat":43.29907,"lon":5.38138,"is_reserved":false,"is_disabled":false,"rental_uris":{"android":"levelo://app?vid=ea70a703-71ff-4455-9cc3-d063a4a39ec7","ios":"levelo://app?vid=ea70a703-71ff-4455-9cc3-d063a4a39ec7"},"vehicle_type_id":"4","last_reported":1778845563,"current_range_meters":4000,"station_id":"ce4bgj12rcd13ifvqbc0","pricing_plan_id":"cebpf4jnsgd1na2vs0mg"},{"bike_id":"28a488cd-0b4e-4672-b81a-1347f852b3c0","system_id":"levelo_inurba_marseille","lat":43.29915,"lon":5.4366,"is_reserved":false,"is_disabled":false,"rental_uris":{"android":"levelo://app?vid=28a488cd-0b4e-4672-b81a-1347f852b3c0","ios":"levelo://app?vid=28a488cd-0b4e-4672-b81a-1347f852b3c0"},"vehicle_type_id":"4","last_reported":1778845563,"current_range_meters":4000,"station_id":"ce4bhpp2rcd13ifvqhfg","pricing_plan_id":"cebpf4jnsgd1na2vs0mg"},{"bike_id":"18e521a2-d496-4333-b062-cc714603ede9","system_id":"levelo_inurba_marseille","lat":43.29529,"lon":5.38532,"is_reserved":false,"is_disabled":false,"rental_uris":{"android":"levelo://app?vid=18e521a2-d496-4333-b062-cc714603ede9","ios":"levelo://app?vid=18e521a2-d496-4333-b062-cc714603ede9"},"vehicle_type_id":"4","last_reported":1778845563,"current_range_meters":4000,"station_id":"ce4bgih2rcd13ifvqba0","pricing_plan_id":"cebpf4jnsgd1na2vs0mg"},{"bike_id":"12fc783a-5743-49f1-a8aa-4c1155b53891","system_id":"levelo_inurba_marseille","lat":43.24465,"lon":5.42509,"is_reserved":false,"is_disabled":false,"rental_uris":{"android":"levelo://app?vid=12fc783a-5743-49f1-a8aa-4c1155b53891","ios":"levelo://app?vid=12fc783a-5743-49f1-a8aa-4c1155b53891"},"vehicle_type_id":"4","last_reported":1778845563,"current_range_meters":4400,"station_id":"st_d4a3vfp97mjs738cd8kg","pricing_plan_id":"cebpf4jnsgd1na2vs0mg"},{"bike_id":"f0dfe750-6a85-4630-8635-ed2adbbe38ba","system_id":"levelo_inurba_marseille","lat":43.31382,"lon":5.36692,"is_reserved":false,"is_disabled":false,"rental_uris":{"android":"levelo://app?vid=f0dfe750-6a85-4630-8635-ed2adbbe38ba","ios":"levelo://app?vid=f0dfe750-6a85-4630-8635-ed2adbbe38ba"},"vehicle_type_id":"4","last_reported":1778845563,"current_range_meters":4400,"station_id":"ce4bgr92rcd13ifvqc6g","pricing_plan_id":"cebpf4jnsgd1na2vs0mg"},{"bike_id":"17874f6c-4d54-44c9-8cdc-701aa7b888c6","system_id":"levelo_inurba_marseille","lat":43.29554,"lon":5.37493,"is_reserved":false,"is_disabled":false,"rental_uris":{"android":"levelo://app?vid=17874f6c-4d54-44c9-8cdc-701aa7b888c6","ios":"levelo://app?vid=17874f6c-4d54-44c9-8cdc-701aa7b888c6"},"vehicle_type_id":"4","last_reported":1778845563,"current_range_meters":4400,"station_id":"ce4bgkp2rcd13ifvqbmg","pricing_plan_id":"cebpf4jnsgd1na2vs0mg"},{"bike_id":"8729db00-a1d9-4736-9fca-f79003d2e8fc","system_id":"levelo_inurba_marseille","lat":43.28522,"lon":5.44093,"is_reserved":false,"is_disabled":false,"rental_uris":{"android":"levelo://app?vid=8729db00-a1d9-4736-9fca-f79003d2e8fc","ios":"levelo://app?vid=8729db00-a1d9-4736-9fca-f79003d2e8fc"},"vehicle_type_id":"4","last_reported":1778845563,"current_range_meters":4400,"station_id":"st_d3j3df2ikq2c7380ej80","pricing_plan_id":"cebpf4jnsgd1na2vs0mg"},{"bike_id":"0e99c584-6bd8-4849-a153-89fb60eeea90","system_id":"levelo_inurba_marseille","lat":43.3037,"lon":5.42483,"is_reserved":false,"is_disabled":false,"rental_uris":{"android":"levelo://app?vid=0e99c584-6bd8-4849-a153-89fb60eeea90","ios":"levelo://app?vid=0e99c584-6bd8-4849-a153-89fb60eeea90"},"vehicle_type_id":"4","last_reported":1778845563,"current_range_meters":4400,"station_id":"ce4bhoh2rcd13ifvqh6g","pricing_plan_id":"cebpf4jnsgd1na2vs0mg"},{"bike_id":"fa68234e-76b9-482b-8003-0ee351215c1e","system_id":"levelo_inurba_marseille","lat":43.27438,"lon":5.39394,"is_reserved":false,"is_disabled":false,"rental_uris":{"android":"levelo://app?vid=fa68234e-76b9-482b-8003-0ee351215c1e","ios":"levelo://app?vid=fa68234e-76b9-482b-8003-0ee351215c1e"},"vehicle_type_id":"4","last_reported":1778845563,"current_range_meters":4400,"station_id":"ce4bhdp2rcd13ifvqf20","pricing_plan_id":"cebpf4jnsgd1na2vs0mg"},{"bike_id":"a2a00526-33a2-4133-9639-1bf79490a021","system_id":"levelo_inurba_marseille","lat":43.33163,"lon":5.4063,"is_reserved":false,"is_disabled":false,"rental_uris":{"android":"levelo://app?vid=a2a00526-33a2-4133-9639-1bf79490a021","ios":"levelo://app?vid=a2a00526-33a2-4133-9639-1bf79490a021"},"vehicle_type_id":"4","last_reported":1778845563,"current_range_meters":4400,"station_id":"","pricing_plan_id":"cebpf4jnsgd1na2vs0mg"},{"bike_id":"c59ef67e-59cb-436e-be93-b110e102b5eb","system_id":"levelo_inurba_marseille","lat":43.28707,"lon":5.46686,"is_reserved":false,"is_disabled":false,"rental_uris":{"android":"levelo://app?vid=c59ef67e-59cb-436e-be93-b110e102b5eb","ios":"levelo://app?vid=c59ef67e-59cb-436e-be93-b110e102b5eb"},"vehicle_type_id":"4","last_reported":1778845563,"current_range_meters":4800,"station_id":"st_d6tc3vkotcvc738tfjhg","pricing_plan_id":"cebpf4jnsgd1na2vs0mg"},{"bike_id":"06dc75c4-9c9b-4983-8376-cf744878753f","system_id":"levelo_inurba_marseille","lat":43.29599,"lon":5.40605,"is_reserved":false,"is_disabled":false,"rental_uris":{"android":"levelo://app?vid=06dc75c4-9c9b-4983-8376-cf744878753f","ios":"levelo://app?vid=06dc75c4-9c9b-4983-8376-cf744878753f"},"vehicle_type_id":"4","last_reported":1778845563,"current_range_meters":4800,"station_id":"ce4bh0h2rcd13ifvqd60","pricing_plan_id":"cebpf4jnsgd1na2vs0mg"},{"bike_id":"91f4a6f0-aaaa-4151-850f-ad23a5de7a37","system_id":"levelo_inurba_marseille","lat":43.273634,"lon":5.362521,"is_reserved":false,"is_disabled":false,"rental_uris":{"android":"levelo://app?vid=91f4a6f0-aaaa-4151-850f-ad23a5de7a37","ios":"levelo://app?vid=91f4a6f0-aaaa-4151-850f-ad23a5de7a37"},"vehicle_type_id":"4","last_reported":1778845563,"current_range_meters":4800,"station_id":"ce4bhbh2rcd13ifvqeo0","pricing_plan_id":"cebpf4jnsgd1na2vs0mg"},{"bike_id":"aad9f584-de40-4638-8e27-42078febf3bb","system_id":"levelo_inurba_marseille","lat":43.3199,"lon":5.38143,"is_reserved":false,"is_disabled":false,"rental_uris":{"android":"levelo://app?vid=aad9f584-de40-4638-8e27-42078febf3bb","ios":"levelo://app?vid=aad9f584-de40-4638-8e27-42078febf3bb"},"vehicle_type_id":"4","last_reported":1778845563,"current_range_meters":4800,"station_id":"ce4bhr12rcd13ifvqhpg","pricing_plan_id":"cebpf4jnsgd1na2vs0mg"},{"bike_id":"4c08e552-05b3-492e-9965-80ac08a5dda5","system_id":"levelo_inurba_marseille","lat":43.27567,"lon":5.39544,"is_reserved":false,"is_disabled":false,"rental_uris":{"android":"levelo://app?vid=4c08e552-05b3-492e-9965-80ac08a5dda5","ios":"levelo://app?vid=4c08e552-05b3-492e-9965-80ac08a5dda5"},"vehicle_type_id":"4","last_reported":1778845563,"current_range_meters":4800,"station_id":"","pricing_plan_id":"cebpf4jnsgd1na2vs0mg"},{"bike_id":"b6908e20-3c24-4647-8400-ecc9d80d03db","system_id":"levelo_inurba_marseille","lat":43.28423,"lon":5.37506,"is_reserved":false,"is_disabled":false,"rental_uris":{"android":"levelo://app?vid=b6908e20-3c24-4647-8400-ecc9d80d03db","ios":"levelo://app?vid=b6908e20-3c24-4647-8400-ecc9d80d03db"},"vehicle_type_id":"4","last_reported":1778845563,"current_range_meters":4800,"station_id":"ce4bh412rcd13ifvqds0","pricing_plan_id":"cebpf4jnsgd1na2vs0mg"},{"bike_id":"7f9e6364-0f57-4a9d-a5c2-0c82f69d6a37","system_id":"levelo_inurba_marseille","lat":43.23898,"lon":5.37462,"is_reserved":false,"is_disabled":false,"rental_uris":{"android":"levelo://app?vid=7f9e6364-0f57-4a9d-a5c2-0c82f69d6a37","ios":"levelo://app?vid=7f9e6364-0f57-4a9d-a5c2-0c82f69d6a37"},"vehicle_type_id":"4","last_reported":1778845563,"current_range_meters":4800,"station_id":"st_d6sm7csbq4hs73f8fpjg","pricing_plan_id":"cebpf4jnsgd1na2vs0mg"},{"bike_id":"9d0ecc1d-a723-44bd-85f4-d682f727dcf9","system_id":"levelo_inurba_marseille","lat":43.2737,"lon":5.3626,"is_reserved":false,"is_disabled":false,"rental_uris":{"android":"levelo://app?vid=9d0ecc1d-a723-44bd-85f4-d682f727dcf9","ios":"levelo://app?vid=9d0ecc1d-a723-44bd-85f4-d682f727dcf9"},"vehicle_type_id":"4","last_reported":1778845563,"current_range_meters":4800,"station_id":"ce4bhbh2rcd13ifvqeo0","pricing_plan_id":"cebpf4jnsgd1na2vs0mg"},{"bike_id":"d46792ac-f5ff-4481-98df-fd0ffbee973c","system_id":"levelo_inurba_marseille","lat":43.29044,"lon":5.39982,"is_reserved":false,"is_disabled":true,"rental_uris":{"android":"levelo://app?vid=d46792ac-f5ff-4481-98df-fd0ffbee973c","ios":"levelo://app?vid=d46792ac-f5ff-4481-98df-fd0ffbee973c"},"vehicle_type_id":"4","last_reported":1778845563,"current_range_meters":4800,"station_id":"ce4bh392rcd13ifvqdm0","pricing_plan_id":"cebpf4jnsgd1na2vs0mg"},{"bike_id":"781caba9-8a1d-492f-8f32-6bb508d561ff","system_id":"levelo_inurba_marseille","lat":43.28692,"lon":5.42696,"is_reserved":false,"is_disabled":false,"rental_uris":{"android":"levelo://app?vid=781caba9-8a1d-492f-8f32-6bb508d561ff","ios":"levelo://app?vid=781caba9-8a1d-492f-8f32-6bb508d561ff"},"vehicle_type_id":"4","last_reported":1778845563,"current_range_meters":4800,"station_id":"","pricing_plan_id":"cebpf4jnsgd1na2vs0mg"},{"bike_id":"1c92992f-331b-4da2-b937-f712ae0ec003","system_id":"levelo_inurba_marseille","lat":43.27938,"lon":5.38696,"is_reserved":false,"is_disabled":false,"rental_uris":{"android":"levelo://app?vid=1c92992f-331b-4da2-b937-f712ae0ec003","ios":"levelo://app?vid=1c92992f-331b-4da2-b937-f712ae0ec003"},"vehicle_type_id":"4","last_reported":1778845563,"current_range_meters":4800,"station_id":"ce4bhg12rcd13ifvqf80","pricing_plan_id":"cebpf4jnsgd1na2vs0mg"},{"bike_id":"39481e13-fb19-40b9-9611-cd35a8bf33b1","system_id":"levelo_inurba_marseille","lat":43.27493,"lon":5.41575,"is_reserved":false,"is_disabled":false,"rental_uris":{"android":"levelo://app?vid=39481e13-fb19-40b9-9611-cd35a8bf33b1","ios":"levelo://app?vid=39481e13-fb19-40b9-9611-cd35a8bf33b1"},"vehicle_type_id":"4","last_reported":1778845563,"current_range_meters":5600,"station_id":"st_d6im8g6chgec73a5pndg","pricing_plan_id":"cebpf4jnsgd1na2vs0mg"},{"bike_id":"b38dace1-3746-40b2-9ec4-02c6534a12fc","system_id":"levelo_inurba_marseille","lat":43.28377,"lon":5.38643,"is_reserved":false,"is_disabled":false,"rental_uris":{"android":"levelo://app?vid=b38dace1-3746-40b2-9ec4-02c6534a12fc","ios":"levelo://app?vid=b38dace1-3746-40b2-9ec4-02c6534a12fc"},"vehicle_type_id":"4","last_reported":1778845563,"current_range_meters":5600,"station_id":"ce4bh492rcd13ifvqdvg","pricing_plan_id":"cebpf4jnsgd1na2vs0mg"},{"bike_id":"51f2aac7-f9be-4b98-a404-4dc10e7dae1c","system_id":"levelo_inurba_marseille","lat":43.2982,"lon":5.3627,"is_reserved":false,"is_disabled":false,"rental_uris":{"android":"levelo://app?vid=51f2aac7-f9be-4b98-a404-4dc10e7dae1c","ios":"levelo://app?vid=51f2aac7-f9be-4b98-a404-4dc10e7dae1c"},"vehicle_type_id":"4","last_reported":1778845563,"current_range_meters":5600,"station_id":"ce4bgpp2rcd13ifvqc3g","pricing_plan_id":"cebpf4jnsgd1na2vs0mg"},{"bike_id":"034399c0-a6fd-4348-b3b6-9c825e718fe2","system_id":"levelo_inurba_marseille","lat":43.31483,"lon":5.37292,"is_reserved":false,"is_disabled":false,"rental_uris":{"android":"levelo://app?vid=034399c0-a6fd-4348-b3b6-9c825e718fe2","ios":"levelo://app?vid=034399c0-a6fd-4348-b3b6-9c825e718fe2"},"vehicle_type_id":"4","last_reported":1778845563,"current_range_meters":5600,"station_id":"ce4bgt12rcd13ifvqcd0","pricing_plan_id":"cebpf4jnsgd1na2vs0mg"},{"bike_id":"02f36027-5570-43e8-a695-dd0bd45292ae","system_id":"levelo_inurba_marseille","lat":43.27884,"lon":5.40776,"is_reserved":false,"is_disabled":false,"rental_uris":{"android":"levelo://app?vid=02f36027-5570-43e8-a695-dd0bd45292ae","ios":"levelo://app?vid=02f36027-5570-43e8-a695-dd0bd45292ae"},"vehicle_type_id":"4","last_reported":1778845563,"current_range_meters":5600,"station_id":"","pricing_plan_id":"cebpf4jnsgd1na2vs0mg"},{"bike_id":"3770903e-9831-4a06-8226-646ab042500a","system_id":"levelo_inurba_marseille","lat":43.28522,"lon":5.44068,"is_reserved":false,"is_disabled":false,"rental_uris":{"android":"levelo://app?vid=3770903e-9831-4a06-8226-646ab042500a","ios":"levelo://app?vid=3770903e-9831-4a06-8226-646ab042500a"},"vehicle_type_id":"4","last_reported":1778845563,"current_range_meters":5600,"station_id":"st_d3j3df2ikq2c7380ej80","pricing_plan_id":"cebpf4jnsgd1na2vs0mg"},{"bike_id":"83289ec7-c40d-44b4-a41c-7687cabb1084","system_id":"levelo_inurba_marseille","lat":43.30562,"lon":5.36715,"is_reserved":false,"is_disabled":false,"rental_uris":{"android":"levelo://app?vid=83289ec7-c40d-44b4-a41c-7687cabb1084","ios":"levelo://app?vid=83289ec7-c40d-44b4-a41c-7687cabb1084"},"vehicle_type_id":"4","last_reported":1778845563,"current_range_meters":5600,"station_id":"ce4bgrp2rcd13ifvqc9g","pricing_plan_id":"cebpf4jnsgd1na2vs0mg"},{"bike_id":"99d016b5-db26-43a2-b902-f07852d3d0a2","system_id":"levelo_inurba_marseille","lat":43.23118,"lon":5.43708,"is_reserved":false,"is_disabled":false,"rental_uris":{"android":"levelo://app?vid=99d016b5-db26-43a2-b902-f07852d3d0a2","ios":"levelo://app?vid=99d016b5-db26-43a2-b902-f07852d3d0a2"},"vehicle_type_id":"4","last_reported":1778845563,"current_range_meters":6000,"station_id":"ce4bhmp2rcd13ifvqgog","pricing_plan_id":"cebpf4jnsgd1na2vs0mg"},{"bike_id":"6feef5aa-6ab8-4b3c-9355-ab9bf97eff13","system_id":"levelo_inurba_marseille","lat":43.29763,"lon":5.37092,"is_reserved":false,"is_disabled":false,"rental_uris":{"android":"levelo://app?vid=6feef5aa-6ab8-4b3c-9355-ab9bf97eff13","ios":"levelo://app?vid=6feef5aa-6ab8-4b3c-9355-ab9bf97eff13"},"vehicle_type_id":"4","last_reported":1778845563,"current_range_meters":6000,"station_id":"ce4bgop2rcd13ifvqc1g","pricing_plan_id":"cebpf4jnsgd1na2vs0mg"},{"bike_id":"98b788f6-0955-4fd7-8e5b-9bd841faaf5e","system_id":"levelo_inurba_marseille","lat":43.33532,"lon":5.37463,"is_reserved":false,"is_disabled":false,"rental_uris":{"android":"levelo://app?vid=98b788f6-0955-4fd7-8e5b-9bd841faaf5e","ios":"levelo://app?vid=98b788f6-0955-4fd7-8e5b-9bd841faaf5e"},"vehicle_type_id":"4","last_reported":1778845563,"current_range_meters":6000,"station_id":"st_d46tts09ee8s73dlu43g","pricing_plan_id":"cebpf4jnsgd1na2vs0mg"},{"bike_id":"1e241e11-433d-4326-8bd9-592d886f1ef5","system_id":"levelo_inurba_marseille","lat":43.26221,"lon":5.37444,"is_reserved":false,"is_disabled":false,"rental_uris":{"android":"levelo://app?vid=1e241e11-433d-4326-8bd9-592d886f1ef5","ios":"levelo://app?vid=1e241e11-433d-4326-8bd9-592d886f1ef5"},"vehicle_type_id":"4","last_reported":1778845563,"current_range_meters":6400,"station_id":"ce4bhgp2rcd13ifvqfc0","pricing_plan_id":"cebpf4jnsgd1na2vs0mg"},{"bike_id":"4dfda362-f488-4c1a-b30a-2463cd84328f","system_id":"levelo_inurba_marseille","lat":43.28526,"lon":5.35038,"is_reserved":false,"is_disabled":false,"rental_uris":{"android":"levelo://app?vid=4dfda362-f488-4c1a-b30a-2463cd84328f","ios":"levelo://app?vid=4dfda362-f488-4c1a-b30a-2463cd84328f"},"vehicle_type_id":"4","last_reported":1778845563,"current_range_meters":6400,"station_id":"","pricing_plan_id":"cebpf4jnsgd1na2vs0mg"},{"bike_id":"dac5ec21-a4a8-4834-bde7-8173664c35ee","system_id":"levelo_inurba_marseille","lat":43.24811,"lon":5.37441,"is_reserved":false,"is_disabled":false,"rental_uris":{"android":"levelo://app?vid=dac5ec21-a4a8-4834-bde7-8173664c35ee","ios":"levelo://app?vid=dac5ec21-a4a8-4834-bde7-8173664c35ee"},"vehicle_type_id":"4","last_reported":1778845563,"current_range_meters":6400,"station_id":"ce4bhgh2rcd13ifvqfb0","pricing_plan_id":"cebpf4jnsgd1na2vs0mg"},{"bike_id":"fa59a2f1-3a57-4d10-8122-2871d8480ac9","system_id":"levelo_inurba_marseille","lat":43.27919,"lon":5.39223,"is_reserved":false,"is_disabled":false,"rental_uris":{"android":"levelo://app?vid=fa59a2f1-3a57-4d10-8122-2871d8480ac9","ios":"levelo://app?vid=fa59a2f1-3a57-4d10-8122-2871d8480ac9"},"vehicle_type_id":"4","last_reported":1778845563,"current_range_meters":6400,"station_id":"","pricing_plan_id":"cebpf4jnsgd1na2vs0mg"},{"bike_id":"4e0415a2-20ff-4ca6-9716-38e015709f87","system_id":"levelo_inurba_marseille","lat":43.28605,"lon":5.35091,"is_reserved":false,"is_disabled":false,"rental_uris":{"android":"levelo://app?vid=4e0415a2-20ff-4ca6-9716-38e015709f87","ios":"levelo://app?vid=4e0415a2-20ff-4ca6-9716-38e015709f87"},"vehicle_type_id":"4","last_reported":1778845563,"current_range_meters":6400,"station_id":"ce4bhch2rcd13ifvqeug","pricing_plan_id":"cebpf4jnsgd1na2vs0mg"},{"bike_id":"a5beca81-af4b-449b-b44b-97d8b3a221b1","system_id":"levelo_inurba_marseille","lat":43.27612,"lon":5.36101,"is_reserved":false,"is_disabled":false,"rental_uris":{"android":"levelo://app?vid=a5beca81-af4b-449b-b44b-97d8b3a221b1","ios":"levelo://app?vid=a5beca81-af4b-449b-b44b-97d8b3a221b1"},"vehicle_type_id":"4","last_reported":1778845563,"current_range_meters":6400,"station_id":"ce4bgj92rcd13ifvqbe0","pricing_plan_id":"cebpf4jnsgd1na2vs0mg"},{"bike_id":"6f7d4b99-1cda-457f-bb1e-1e037a13f422","system_id":"levelo_inurba_marseille","lat":43.2463,"lon":5.43135,"is_reserved":false,"is_disabled":false,"rental_uris":{"android":"levelo://app?vid=6f7d4b99-1cda-457f-bb1e-1e037a13f422","ios":"levelo://app?vid=6f7d4b99-1cda-457f-bb1e-1e037a13f422"},"vehicle_type_id":"4","last_reported":1778845563,"current_range_meters":6400,"station_id":"st_d2m6c4gdas8pm72e190g","pricing_plan_id":"cebpf4jnsgd1na2vs0mg"},{"bike_id":"53bb8be0-c023-4a99-9f21-4dceceb427f9","system_id":"levelo_inurba_marseille","lat":43.27812,"lon":5.40708,"is_reserved":false,"is_disabled":false,"rental_uris":{"android":"levelo://app?vid=53bb8be0-c023-4a99-9f21-4dceceb427f9","ios":"levelo://app?vid=53bb8be0-c023-4a99-9f21-4dceceb427f9"},"vehicle_type_id":"4","last_reported":1778845563,"current_range_meters":6400,"station_id":"ce4bhnh2rcd13ifvqgtg","pricing_plan_id":"cebpf4jnsgd1na2vs0mg"},{"bike_id":"6263ce36-92fa-4f65-a3d6-6ce472cd1fef","system_id":"levelo_inurba_marseille","lat":43.28496,"lon":5.38543,"is_reserved":false,"is_disabled":false,"rental_uris":{"android":"levelo://app?vid=6263ce36-92fa-4f65-a3d6-6ce472cd1fef","ios":"levelo://app?vid=6263ce36-92fa-4f65-a3d6-6ce472cd1fef"},"vehicle_type_id":"4","last_reported":1778845563,"current_range_meters":6400,"station_id":"ce4bh8p2rcd13ifvqeb0","pricing_plan_id":"cebpf4jnsgd1na2vs0mg"},{"bike_id":"7d7107d4-3953-470d-bb07-3df7864e77cf","system_id":"levelo_inurba_marseille","lat":43.31118,"lon":5.37766,"is_reserved":false,"is_disabled":false,"rental_uris":{"android":"levelo://app?vid=7d7107d4-3953-470d-bb07-3df7864e77cf","ios":"levelo://app?vid=7d7107d4-3953-470d-bb07-3df7864e77cf"},"vehicle_type_id":"4","last_reported":1778845563,"current_range_meters":6400,"station_id":"ce4bgt92rcd13ifvqcg0","pricing_plan_id":"cebpf4jnsgd1na2vs0mg"},{"bike_id":"de0c5e0d-30bf-47d6-b31b-121a712a20fd","system_id":"levelo_inurba_marseille","lat":43.24803,"lon":5.37453,"is_reserved":false,"is_disabled":false,"rental_uris":{"android":"levelo://app?vid=de0c5e0d-30bf-47d6-b31b-121a712a20fd","ios":"levelo://app?vid=de0c5e0d-30bf-47d6-b31b-121a712a20fd"},"vehicle_type_id":"4","last_reported":1778845563,"current_range_meters":6400,"station_id":"ce4bhgh2rcd13ifvqfb0","pricing_plan_id":"cebpf4jnsgd1na2vs0mg"},{"bike_id":"2305bd12-23bb-40ed-8ff1-27e3a0b6daf6","system_id":"levelo_inurba_marseille","lat":43.27322,"lon":5.39074,"is_reserved":false,"is_disabled":false,"rental_uris":{"android":"levelo://app?vid=2305bd12-23bb-40ed-8ff1-27e3a0b6daf6","ios":"levelo://app?vid=2305bd12-23bb-40ed-8ff1-27e3a0b6daf6"},"vehicle_type_id":"4","last_reported":1778845563,"current_range_meters":6400,"station_id":"ce4bhgp2rcd13ifvqfe0","pricing_plan_id":"cebpf4jnsgd1na2vs0mg"},{"bike_id":"f5f79339-f7bf-4874-a985-2850d221bb5f","system_id":"levelo_inurba_marseille","lat":43.33545,"lon":5.37461,"is_reserved":false,"is_disabled":false,"rental_uris":{"android":"levelo://app?vid=f5f79339-f7bf-4874-a985-2850d221bb5f","ios":"levelo://app?vid=f5f79339-f7bf-4874-a985-2850d221bb5f"},"vehicle_type_id":"4","last_reported":1778845563,"current_range_meters":6400,"station_id":"st_d46tts09ee8s73dlu43g","pricing_plan_id":"cebpf4jnsgd1na2vs0mg"},{"bike_id":"a0e1de9b-c8c9-4704-bf82-35f196db8fe0","system_id":"levelo_inurba_marseille","lat":43.28147,"lon":5.4263,"is_reserved":false,"is_disabled":false,"rental_uris":{"android":"levelo://app?vid=a0e1de9b-c8c9-4704-bf82-35f196db8fe0","ios":"levelo://app?vid=a0e1de9b-c8c9-4704-bf82-35f196db8fe0"},"vehicle_type_id":"4","last_reported":1778845563,"current_range_meters":6400,"station_id":"ce4bhnh2rcd13ifvqgug","pricing_plan_id":"cebpf4jnsgd1na2vs0mg"},{"bike_id":"409c3b3b-a922-4e30-9f80-abcbec3d38d4","system_id":"levelo_inurba_marseille","lat":43.29602,"lon":5.38666,"is_reserved":false,"is_disabled":false,"rental_uris":{"android":"levelo://app?vid=409c3b3b-a922-4e30-9f80-abcbec3d38d4","ios":"levelo://app?vid=409c3b3b-a922-4e30-9f80-abcbec3d38d4"},"vehicle_type_id":"4","last_reported":1778845563,"current_range_meters":6400,"station_id":"","pricing_plan_id":"cebpf4jnsgd1na2vs0mg"},{"bike_id":"487f5b2a-e05f-4486-a861-37010242d8f5","system_id":"levelo_inurba_marseille","lat":43.28533,"lon":5.44102,"is_reserved":false,"is_disabled":false,"rental_uris":{"android":"levelo://app?vid=487f5b2a-e05f-4486-a861-37010242d8f5","ios":"levelo://app?vid=487f5b2a-e05f-4486-a861-37010242d8f5"},"vehicle_type_id":"4","last_reported":1778845563,"current_range_meters":6400,"station_id":"st_d3j3df2ikq2c7380ej80","pricing_plan_id":"cebpf4jnsgd1na2vs0mg"},{"bike_id":"a88bc9ae-d88b-46fc-8169-6fe5eb0d8652","system_id":"levelo_inurba_marseille","lat":43.28482,"lon":5.48401,"is_reserved":false,"is_disabled":false,"rental_uris":{"android":"levelo://app?vid=a88bc9ae-d88b-46fc-8169-6fe5eb0d8652","ios":"levelo://app?vid=a88bc9ae-d88b-46fc-8169-6fe5eb0d8652"},"vehicle_type_id":"4","last_reported":1778845563,"current_range_meters":6400,"station_id":"","pricing_plan_id":"cebpf4jnsgd1na2vs0mg"},{"bike_id":"4acadad3-c5dd-43b0-87c5-c86d0237d2e8","system_id":"levelo_inurba_marseille","lat":43.25089,"lon":5.39522,"is_reserved":false,"is_disabled":false,"rental_uris":{"android":"levelo://app?vid=4acadad3-c5dd-43b0-87c5-c86d0237d2e8","ios":"levelo://app?vid=4acadad3-c5dd-43b0-87c5-c86d0237d2e8"},"vehicle_type_id":"4","last_reported":1778845563,"current_range_meters":6400,"station_id":"ce4bhm12rcd13ifvqgkg","pricing_plan_id":"cebpf4jnsgd1na2vs0mg"},{"bike_id":"b942de8b-7ed7-423c-b5f5-c55a01482354","system_id":"levelo_inurba_marseille","lat":43.30286,"lon":5.36881,"is_reserved":false,"is_disabled":false,"rental_uris":{"android":"levelo://app?vid=b942de8b-7ed7-423c-b5f5-c55a01482354","ios":"levelo://app?vid=b942de8b-7ed7-423c-b5f5-c55a01482354"},"vehicle_type_id":"4","last_reported":1778845563,"current_range_meters":6400,"station_id":"ce4bgqh2rcd13ifvqc5g","pricing_plan_id":"cebpf4jnsgd1na2vs0mg"},{"bike_id":"4d1adb8b-faa6-4c2e-8fbc-936628286a75","system_id":"levelo_inurba_marseille","lat":43.26365,"lon":5.40312,"is_reserved":false,"is_disabled":false,"rental_uris":{"android":"levelo://app?vid=4d1adb8b-faa6-4c2e-8fbc-936628286a75","ios":"levelo://app?vid=4d1adb8b-faa6-4c2e-8fbc-936628286a75"},"vehicle_type_id":"4","last_reported":1778845563,"current_range_meters":6400,"station_id":"","pricing_plan_id":"cebpf4jnsgd1na2vs0mg"},{"bike_id":"d7e97781-7864-4d48-a10e-e09d15b1fad1","system_id":"levelo_inurba_marseille","lat":43.29633,"lon":5.38015,"is_reserved":false,"is_disabled":false,"rental_uris":{"android":"levelo://app?vid=d7e97781-7864-4d48-a10e-e09d15b1fad1","ios":"levelo://app?vid=d7e97781-7864-4d48-a10e-e09d15b1fad1"},"vehicle_type_id":"4","last_reported":1778845563,"current_range_meters":6400,"station_id":"","pricing_plan_id":"cebpf4jnsgd1na2vs0mg"},{"bike_id":"e2868300-478a-42c3-bc83-16c5c4bd6ba4","system_id":"levelo_inurba_marseille","lat":43.31323,"lon":5.39712,"is_reserved":false,"is_disabled":true,"rental_uris":{"android":"levelo://app?vid=e2868300-478a-42c3-bc83-16c5c4bd6ba4","ios":"levelo://app?vid=e2868300-478a-42c3-bc83-16c5c4bd6ba4"},"vehicle_type_id":"4","last_reported":1778845563,"current_range_meters":6400,"station_id":"ce4bgvp2rcd13ifvqcu0","pricing_plan_id":"cebpf4jnsgd1na2vs0mg"},{"bike_id":"96b08412-b7e2-40f2-9ce6-2fdcb8804fd0","system_id":"levelo_inurba_marseille","lat":43.30527,"lon":5.36528,"is_reserved":false,"is_disabled":false,"rental_uris":{"android":"levelo://app?vid=96b08412-b7e2-40f2-9ce6-2fdcb8804fd0","ios":"levelo://app?vid=96b08412-b7e2-40f2-9ce6-2fdcb8804fd0"},"vehicle_type_id":"4","last_reported":1778845563,"current_range_meters":6800,"station_id":"ce4bgs12rcd13ifvqcag","pricing_plan_id":"cebpf4jnsgd1na2vs0mg"},{"bike_id":"69ee6bed-5601-48fd-a542-34b0427c1ca0","system_id":"levelo_inurba_marseille","lat":43.25626,"lon":5.38493,"is_reserved":false,"is_disabled":false,"rental_uris":{"android":"levelo://app?vid=69ee6bed-5601-48fd-a542-34b0427c1ca0","ios":"levelo://app?vid=69ee6bed-5601-48fd-a542-34b0427c1ca0"},"vehicle_type_id":"4","last_reported":1778845563,"current_range_meters":6800,"station_id":"","pricing_plan_id":"cebpf4jnsgd1na2vs0mg"},{"bike_id":"cc0a3057-9209-4b27-9106-f8d4f0293ca0","system_id":"levelo_inurba_marseille","lat":43.298,"lon":5.38656,"is_reserved":false,"is_disabled":false,"rental_uris":{"android":"levelo://app?vid=cc0a3057-9209-4b27-9106-f8d4f0293ca0","ios":"levelo://app?vid=cc0a3057-9209-4b27-9106-f8d4f0293ca0"},"vehicle_type_id":"4","last_reported":1778845563,"current_range_meters":6800,"station_id":"","pricing_plan_id":"cebpf4jnsgd1na2vs0mg"},{"bike_id":"0af2bf9c-ae2c-4807-8c03-d797cc18f0a8","system_id":"levelo_inurba_marseille","lat":43.29002,"lon":5.35603,"is_reserved":false,"is_disabled":false,"rental_uris":{"android":"levelo://app?vid=0af2bf9c-ae2c-4807-8c03-d797cc18f0a8","ios":"levelo://app?vid=0af2bf9c-ae2c-4807-8c03-d797cc18f0a8"},"vehicle_type_id":"4","last_reported":1778845563,"current_range_meters":6800,"station_id":"ce4bhb92rcd13ifvqen0","pricing_plan_id":"cebpf4jnsgd1na2vs0mg"},{"bike_id":"e5a6e1db-3fc8-4136-9437-e55e33690bc7","system_id":"levelo_inurba_marseille","lat":43.30357,"lon":5.41882,"is_reserved":false,"is_disabled":false,"rental_uris":{"android":"levelo://app?vid=e5a6e1db-3fc8-4136-9437-e55e33690bc7","ios":"levelo://app?vid=e5a6e1db-3fc8-4136-9437-e55e33690bc7"},"vehicle_type_id":"4","last_reported":1778845563,"current_range_meters":6800,"station_id":"ce4bhop2rcd13ifvqh7g","pricing_plan_id":"cebpf4jnsgd1na2vs0mg"},{"bike_id":"969c4699-084e-4b36-b743-54cfb1a323ba","system_id":"levelo_inurba_marseille","lat":43.31747,"lon":5.38991,"is_reserved":false,"is_disabled":false,"rental_uris":{"android":"levelo://app?vid=969c4699-084e-4b36-b743-54cfb1a323ba","ios":"levelo://app?vid=969c4699-084e-4b36-b743-54cfb1a323ba"},"vehicle_type_id":"4","last_reported":1778845563,"current_range_meters":6800,"station_id":"ce4bhqp2rcd13ifvqhng","pricing_plan_id":"cebpf4jnsgd1na2vs0mg"},{"bike_id":"5420a1a0-7f23-48f7-93ac-03a7d47fb6c2","system_id":"levelo_inurba_marseille","lat":43.23965,"lon":5.3663,"is_reserved":false,"is_disabled":false,"rental_uris":{"android":"levelo://app?vid=5420a1a0-7f23-48f7-93ac-03a7d47fb6c2","ios":"levelo://app?vid=5420a1a0-7f23-48f7-93ac-03a7d47fb6c2"},"vehicle_type_id":"4","last_reported":1778845563,"current_range_meters":6800,"station_id":"ce4bhi12rcd13ifvqfp0","pricing_plan_id":"cebpf4jnsgd1na2vs0mg"},{"bike_id":"f6256870-c4dd-4b62-b17e-01ae8d80757a","system_id":"levelo_inurba_marseille","lat":43.26222,"lon":5.38755,"is_reserved":false,"is_disabled":false,"rental_uris":{"android":"levelo://app?vid=f6256870-c4dd-4b62-b17e-01ae8d80757a","ios":"levelo://app?vid=f6256870-c4dd-4b62-b17e-01ae8d80757a"},"vehicle_type_id":"4","last_reported":1778845563,"current_range_meters":6800,"station_id":"","pricing_plan_id":"cebpf4jnsgd1na2vs0mg"},{"bike_id":"da006e0b-b757-49e4-b767-63f3a3d7f256","system_id":"levelo_inurba_marseille","lat":43.29367,"lon":5.37836,"is_reserved":false,"is_disabled":false,"rental_uris":{"android":"levelo://app?vid=da006e0b-b757-49e4-b767-63f3a3d7f256","ios":"levelo://app?vid=da006e0b-b757-49e4-b767-63f3a3d7f256"},"vehicle_type_id":"4","last_reported":1778845563,"current_range_meters":6800,"station_id":"ce4bgjh2rcd13ifvqbf0","pricing_plan_id":"cebpf4jnsgd1na2vs0mg"},{"bike_id":"9bee640b-0343-4317-96fe-2601a885a859","system_id":"levelo_inurba_marseille","lat":43.27325,"lon":5.3911,"is_reserved":false,"is_disabled":false,"rental_uris":{"android":"levelo://app?vid=9bee640b-0343-4317-96fe-2601a885a859","ios":"levelo://app?vid=9bee640b-0343-4317-96fe-2601a885a859"},"vehicle_type_id":"4","last_reported":1778845563,"current_range_meters":6800,"station_id":"ce4bhgp2rcd13ifvqfe0","pricing_plan_id":"cebpf4jnsgd1na2vs0mg"},{"bike_id":"aba71d30-9e88-4cdf-b330-0766ff359c7c","system_id":"levelo_inurba_marseille","lat":43.29735,"lon":5.37662,"is_reserved":false,"is_disabled":false,"rental_uris":{"android":"levelo://app?vid=aba71d30-9e88-4cdf-b330-0766ff359c7c","ios":"levelo://app?vid=aba71d30-9e88-4cdf-b330-0766ff359c7c"},"vehicle_type_id":"4","last_reported":1778845563,"current_range_meters":6800,"station_id":"","pricing_plan_id":"cebpf4jnsgd1na2vs0mg"},{"bike_id":"767fddb5-0a4c-4a9f-8bff-37147859823d","system_id":"levelo_inurba_marseille","lat":43.27829,"lon":5.39206,"is_reserved":false,"is_disabled":false,"rental_uris":{"android":"levelo://app?vid=767fddb5-0a4c-4a9f-8bff-37147859823d","ios":"levelo://app?vid=767fddb5-0a4c-4a9f-8bff-37147859823d"},"vehicle_type_id":"4","last_reported":1778845563,"current_range_meters":6800,"station_id":"ce4bhjp2rcd13ifvqga0","pricing_plan_id":"cebpf4jnsgd1na2vs0mg"},{"bike_id":"dcb505ac-4cc6-4f11-8d3d-d28754416324","system_id":"levelo_inurba_marseille","lat":43.28416,"lon":5.3497,"is_reserved":false,"is_disabled":false,"rental_uris":{"android":"levelo://app?vid=dcb505ac-4cc6-4f11-8d3d-d28754416324","ios":"levelo://app?vid=dcb505ac-4cc6-4f11-8d3d-d28754416324"},"vehicle_type_id":"4","last_reported":1778845563,"current_range_meters":6800,"station_id":"ce4bhbh2rcd13ifvqepg","pricing_plan_id":"cebpf4jnsgd1na2vs0mg"},{"bike_id":"9275dd93-ac1a-4e6e-ba50-f59f37d5eacf","system_id":"levelo_inurba_marseille","lat":43.24467,"lon":5.42529,"is_reserved":false,"is_disabled":false,"rental_uris":{"android":"levelo://app?vid=9275dd93-ac1a-4e6e-ba50-f59f37d5eacf","ios":"levelo://app?vid=9275dd93-ac1a-4e6e-ba50-f59f37d5eacf"},"vehicle_type_id":"4","last_reported":1778845563,"current_range_meters":6800,"station_id":"st_d4a3vfp97mjs738cd8kg","pricing_plan_id":"cebpf4jnsgd1na2vs0mg"},{"bike_id":"7fdc4ab7-40ff-4e4c-9d07-7200f29b2bcf","system_id":"levelo_inurba_marseille","lat":43.240785,"lon":5.377412,"is_reserved":false,"is_disabled":false,"rental_uris":{"android":"levelo://app?vid=7fdc4ab7-40ff-4e4c-9d07-7200f29b2bcf","ios":"levelo://app?vid=7fdc4ab7-40ff-4e4c-9d07-7200f29b2bcf"},"vehicle_type_id":"4","last_reported":1778845563,"current_range_meters":7200,"station_id":"ce4bhnp2rcd13ifvqgvg","pricing_plan_id":"cebpf4jnsgd1na2vs0mg"},{"bike_id":"53d89b78-fbfa-4765-86e4-2d5e25a39c79","system_id":"levelo_inurba_marseille","lat":43.24812,"lon":5.37449,"is_reserved":false,"is_disabled":false,"rental_uris":{"android":"levelo://app?vid=53d89b78-fbfa-4765-86e4-2d5e25a39c79","ios":"levelo://app?vid=53d89b78-fbfa-4765-86e4-2d5e25a39c79"},"vehicle_type_id":"4","last_reported":1778845563,"current_range_meters":7200,"station_id":"ce4bhgh2rcd13ifvqfb0","pricing_plan_id":"cebpf4jnsgd1na2vs0mg"},{"bike_id":"0ae4343c-ae62-4d36-a82a-1c301793282f","system_id":"levelo_inurba_marseille","lat":43.30377,"lon":5.42487,"is_reserved":false,"is_disabled":false,"rental_uris":{"android":"levelo://app?vid=0ae4343c-ae62-4d36-a82a-1c301793282f","ios":"levelo://app?vid=0ae4343c-ae62-4d36-a82a-1c301793282f"},"vehicle_type_id":"4","last_reported":1778845563,"current_range_meters":7200,"station_id":"ce4bhoh2rcd13ifvqh6g","pricing_plan_id":"cebpf4jnsgd1na2vs0mg"},{"bike_id":"80e4385e-3954-47d6-a67d-9e94fa89f707","system_id":"levelo_inurba_marseille","lat":43.28669,"lon":5.38648,"is_reserved":false,"is_disabled":false,"rental_uris":{"android":"levelo://app?vid=80e4385e-3954-47d6-a67d-9e94fa89f707","ios":"levelo://app?vid=80e4385e-3954-47d6-a67d-9e94fa89f707"},"vehicle_type_id":"4","last_reported":1778845563,"current_range_meters":7200,"station_id":"ce4bh492rcd13ifvqdug","pricing_plan_id":"cebpf4jnsgd1na2vs0mg"},{"bike_id":"992593cf-8c58-433c-b2f5-8a671b870530","system_id":"levelo_inurba_marseille","lat":43.28906,"lon":5.3624,"is_reserved":false,"is_disabled":false,"rental_uris":{"android":"levelo://app?vid=992593cf-8c58-433c-b2f5-8a671b870530","ios":"levelo://app?vid=992593cf-8c58-433c-b2f5-8a671b870530"},"vehicle_type_id":"4","last_reported":1778845563,"current_range_meters":7200,"station_id":"","pricing_plan_id":"cebpf4jnsgd1na2vs0mg"},{"bike_id":"1f2c5eb2-4ed8-4374-9f6c-5a7d0841e082","system_id":"levelo_inurba_marseille","lat":43.282626,"lon":5.350563,"is_reserved":false,"is_disabled":false,"rental_uris":{"android":"levelo://app?vid=1f2c5eb2-4ed8-4374-9f6c-5a7d0841e082","ios":"levelo://app?vid=1f2c5eb2-4ed8-4374-9f6c-5a7d0841e082"},"vehicle_type_id":"4","last_reported":1778845563,"current_range_meters":7200,"station_id":"ce4bhbp2rcd13ifvqerg","pricing_plan_id":"cebpf4jnsgd1na2vs0mg"},{"bike_id":"d1f9023b-1272-4bc2-842c-eeec88191aea","system_id":"levelo_inurba_marseille","lat":43.289337,"lon":5.366453,"is_reserved":false,"is_disabled":false,"rental_uris":{"android":"levelo://app?vid=d1f9023b-1272-4bc2-842c-eeec88191aea","ios":"levelo://app?vid=d1f9023b-1272-4bc2-842c-eeec88191aea"},"vehicle_type_id":"4","last_reported":1778845563,"current_range_meters":7200,"station_id":"ce4bhap2rcd13ifvqek0","pricing_plan_id":"cebpf4jnsgd1na2vs0mg"},{"bike_id":"bc753730-7df8-4306-a8c6-1961eff789fe","system_id":"levelo_inurba_marseille","lat":43.29303,"lon":5.37175,"is_reserved":false,"is_disabled":false,"rental_uris":{"android":"levelo://app?vid=bc753730-7df8-4306-a8c6-1961eff789fe","ios":"levelo://app?vid=bc753730-7df8-4306-a8c6-1961eff789fe"},"vehicle_type_id":"4","last_reported":1778845563,"current_range_meters":7200,"station_id":"ce4bgh92rcd13ifvqb40","pricing_plan_id":"cebpf4jnsgd1na2vs0mg"},{"bike_id":"e3c7fd82-d499-47b4-9c06-c0f10819e847","system_id":"levelo_inurba_marseille","lat":43.297827,"lon":5.381133,"is_reserved":false,"is_disabled":false,"rental_uris":{"android":"levelo://app?vid=e3c7fd82-d499-47b4-9c06-c0f10819e847","ios":"levelo://app?vid=e3c7fd82-d499-47b4-9c06-c0f10819e847"},"vehicle_type_id":"4","last_reported":1778845563,"current_range_meters":7200,"station_id":"ce4bgip2rcd13ifvqbb0","pricing_plan_id":"cebpf4jnsgd1na2vs0mg"},{"bike_id":"1902f9f2-9ba8-46c0-bacf-8cac75c83ba5","system_id":"levelo_inurba_marseille","lat":43.31361,"lon":5.36781,"is_reserved":false,"is_disabled":false,"rental_uris":{"android":"levelo://app?vid=1902f9f2-9ba8-46c0-bacf-8cac75c83ba5","ios":"levelo://app?vid=1902f9f2-9ba8-46c0-bacf-8cac75c83ba5"},"vehicle_type_id":"4","last_reported":1778845563,"current_range_meters":7200,"station_id":"","pricing_plan_id":"cebpf4jnsgd1na2vs0mg"},{"bike_id":"0ee7e7d5-d25e-446f-bfb7-9c213be9c8fc","system_id":"levelo_inurba_marseille","lat":43.23978,"lon":5.36633,"is_reserved":false,"is_disabled":false,"rental_uris":{"android":"levelo://app?vid=0ee7e7d5-d25e-446f-bfb7-9c213be9c8fc","ios":"levelo://app?vid=0ee7e7d5-d25e-446f-bfb7-9c213be9c8fc"},"vehicle_type_id":"4","last_reported":1778845563,"current_range_meters":7200,"station_id":"ce4bhi12rcd13ifvqfp0","pricing_plan_id":"cebpf4jnsgd1na2vs0mg"},{"bike_id":"38779e31-4a24-4b4f-b86f-2d3fc08c246c","system_id":"levelo_inurba_marseille","lat":43.22546,"lon":5.34897,"is_reserved":false,"is_disabled":false,"rental_uris":{"android":"levelo://app?vid=38779e31-4a24-4b4f-b86f-2d3fc08c246c","ios":"levelo://app?vid=38779e31-4a24-4b4f-b86f-2d3fc08c246c"},"vehicle_type_id":"4","last_reported":1778845563,"current_range_meters":7200,"station_id":"st_cvj5dfep6f1abm77gieg","pricing_plan_id":"cebpf4jnsgd1na2vs0mg"},{"bike_id":"3cdb0195-4f96-4947-92dd-52d1afc71788","system_id":"levelo_inurba_marseille","lat":43.2253,"lon":5.4161,"is_reserved":false,"is_disabled":false,"rental_uris":{"android":"levelo://app?vid=3cdb0195-4f96-4947-92dd-52d1afc71788","ios":"levelo://app?vid=3cdb0195-4f96-4947-92dd-52d1afc71788"},"vehicle_type_id":"4","last_reported":1778845563,"current_range_meters":7200,"station_id":"st_d2o4gvlbi1j2169b742g","pricing_plan_id":"cebpf4jnsgd1na2vs0mg"},{"bike_id":"b122b97d-89ef-470b-8fde-dd956d0987e8","system_id":"levelo_inurba_marseille","lat":43.30127,"lon":5.43117,"is_reserved":false,"is_disabled":false,"rental_uris":{"android":"levelo://app?vid=b122b97d-89ef-470b-8fde-dd956d0987e8","ios":"levelo://app?vid=b122b97d-89ef-470b-8fde-dd956d0987e8"},"vehicle_type_id":"4","last_reported":1778845563,"current_range_meters":7200,"station_id":"st_d3js3co5814s73ftftug","pricing_plan_id":"cebpf4jnsgd1na2vs0mg"},{"bike_id":"4fdbacde-dba6-437d-b981-00d156d8fe78","system_id":"levelo_inurba_marseille","lat":43.30151,"lon":5.38076,"is_reserved":false,"is_disabled":false,"rental_uris":{"android":"levelo://app?vid=4fdbacde-dba6-437d-b981-00d156d8fe78","ios":"levelo://app?vid=4fdbacde-dba6-437d-b981-00d156d8fe78"},"vehicle_type_id":"4","last_reported":1778845563,"current_range_meters":7200,"station_id":"ce4bgjp2rcd13ifvqbh0","pricing_plan_id":"cebpf4jnsgd1na2vs0mg"},{"bike_id":"af20cc9b-d3fb-4902-b77a-283d964c8cb8","system_id":"levelo_inurba_marseille","lat":43.28693,"lon":5.46685,"is_reserved":false,"is_disabled":false,"rental_uris":{"android":"levelo://app?vid=af20cc9b-d3fb-4902-b77a-283d964c8cb8","ios":"levelo://app?vid=af20cc9b-d3fb-4902-b77a-283d964c8cb8"},"vehicle_type_id":"4","last_reported":1778845563,"current_range_meters":7200,"station_id":"st_d6tc3vkotcvc738tfjhg","pricing_plan_id":"cebpf4jnsgd1na2vs0mg"},{"bike_id":"ab0e3390-75c3-45a4-84a3-71cfbb56c312","system_id":"levelo_inurba_marseille","lat":43.2602,"lon":5.37544,"is_reserved":false,"is_disabled":false,"rental_uris":{"android":"levelo://app?vid=ab0e3390-75c3-45a4-84a3-71cfbb56c312","ios":"levelo://app?vid=ab0e3390-75c3-45a4-84a3-71cfbb56c312"},"vehicle_type_id":"4","last_reported":1778845563,"current_range_meters":7200,"station_id":"ce4bhgh2rcd13ifvqfa0","pricing_plan_id":"cebpf4jnsgd1na2vs0mg"},{"bike_id":"e5342490-485a-4302-a5b2-800cb8c2300e","system_id":"levelo_inurba_marseille","lat":43.29956,"lon":5.38673,"is_reserved":false,"is_disabled":false,"rental_uris":{"android":"levelo://app?vid=e5342490-485a-4302-a5b2-800cb8c2300e","ios":"levelo://app?vid=e5342490-485a-4302-a5b2-800cb8c2300e"},"vehicle_type_id":"4","last_reported":1778845563,"current_range_meters":7200,"station_id":"","pricing_plan_id":"cebpf4jnsgd1na2vs0mg"},{"bike_id":"8501f3f3-9528-4986-b8c4-c8f14c21984e","system_id":"levelo_inurba_marseille","lat":43.30464,"lon":5.37901,"is_reserved":false,"is_disabled":false,"rental_uris":{"android":"levelo://app?vid=8501f3f3-9528-4986-b8c4-c8f14c21984e","ios":"levelo://app?vid=8501f3f3-9528-4986-b8c4-c8f14c21984e"},"vehicle_type_id":"4","last_reported":1778845563,"current_range_meters":7200,"station_id":"ce4bgup2rcd13ifvqcn0","pricing_plan_id":"cebpf4jnsgd1na2vs0mg"},{"bike_id":"2dad678a-eba2-49e6-88bf-98c3fc40e9cc","system_id":"levelo_inurba_marseille","lat":43.24074,"lon":5.37747,"is_reserved":false,"is_disabled":false,"rental_uris":{"android":"levelo://app?vid=2dad678a-eba2-49e6-88bf-98c3fc40e9cc","ios":"levelo://app?vid=2dad678a-eba2-49e6-88bf-98c3fc40e9cc"},"vehicle_type_id":"4","last_reported":1778845563,"current_range_meters":7200,"station_id":"ce4bhnp2rcd13ifvqgvg","pricing_plan_id":"cebpf4jnsgd1na2vs0mg"},{"bike_id":"05f8847b-34fa-4e08-8f9b-ea047754d4e8","system_id":"levelo_inurba_marseille","lat":43.29701,"lon":5.36605,"is_reserved":false,"is_disabled":false,"rental_uris":{"android":"levelo://app?vid=05f8847b-34fa-4e08-8f9b-ea047754d4e8","ios":"levelo://app?vid=05f8847b-34fa-4e08-8f9b-ea047754d4e8"},"vehicle_type_id":"4","last_reported":1778845563,"current_range_meters":7200,"station_id":"ce4bgn12rcd13ifvqbt0","pricing_plan_id":"cebpf4jnsgd1na2vs0mg"},{"bike_id":"2b7b4933-8829-463c-a55e-f6264c1ec7c1","system_id":"levelo_inurba_marseille","lat":43.28702,"lon":5.46675,"is_reserved":false,"is_disabled":false,"rental_uris":{"android":"levelo://app?vid=2b7b4933-8829-463c-a55e-f6264c1ec7c1","ios":"levelo://app?vid=2b7b4933-8829-463c-a55e-f6264c1ec7c1"},"vehicle_type_id":"4","last_reported":1778845563,"current_range_meters":7200,"station_id":"st_d6tc3vkotcvc738tfjhg","pricing_plan_id":"cebpf4jnsgd1na2vs0mg"},{"bike_id":"ce145e05-5cad-469c-8e77-c3d22f4f1c58","system_id":"levelo_inurba_marseille","lat":43.30461,"lon":5.37903,"is_reserved":false,"is_disabled":false,"rental_uris":{"android":"levelo://app?vid=ce145e05-5cad-469c-8e77-c3d22f4f1c58","ios":"levelo://app?vid=ce145e05-5cad-469c-8e77-c3d22f4f1c58"},"vehicle_type_id":"4","last_reported":1778845563,"current_range_meters":8000,"station_id":"ce4bgup2rcd13ifvqcn0","pricing_plan_id":"cebpf4jnsgd1na2vs0mg"},{"bike_id":"f829f4b9-58d1-45a6-9014-d64b4b0b3b6f","system_id":"levelo_inurba_marseille","lat":43.29167,"lon":5.3715,"is_reserved":false,"is_disabled":false,"rental_uris":{"android":"levelo://app?vid=f829f4b9-58d1-45a6-9014-d64b4b0b3b6f","ios":"levelo://app?vid=f829f4b9-58d1-45a6-9014-d64b4b0b3b6f"},"vehicle_type_id":"4","last_reported":1778845563,"current_range_meters":8000,"station_id":"ce4bha92rcd13ifvqeh0","pricing_plan_id":"cebpf4jnsgd1na2vs0mg"},{"bike_id":"bde9888f-9b59-42e7-a131-a0b960621f11","system_id":"levelo_inurba_marseille","lat":43.23773,"lon":5.36613,"is_reserved":false,"is_disabled":false,"rental_uris":{"android":"levelo://app?vid=bde9888f-9b59-42e7-a131-a0b960621f11","ios":"levelo://app?vid=bde9888f-9b59-42e7-a131-a0b960621f11"},"vehicle_type_id":"4","last_reported":1778845563,"current_range_meters":8000,"station_id":"st_d3nk18o9ro0c73en2l3g","pricing_plan_id":"cebpf4jnsgd1na2vs0mg"},{"bike_id":"f6fd3e92-2cd6-468d-9b47-bfc02216d5f2","system_id":"levelo_inurba_marseille","lat":43.21724,"lon":5.34593,"is_reserved":false,"is_disabled":false,"rental_uris":{"android":"levelo://app?vid=f6fd3e92-2cd6-468d-9b47-bfc02216d5f2","ios":"levelo://app?vid=f6fd3e92-2cd6-468d-9b47-bfc02216d5f2"},"vehicle_type_id":"4","last_reported":1778845563,"current_range_meters":8000,"station_id":"st_cvj6r9ubvosntc0bgbag","pricing_plan_id":"cebpf4jnsgd1na2vs0mg"},{"bike_id":"5d230dc2-6caf-4a15-8305-7b02f82908d8","system_id":"levelo_inurba_marseille","lat":43.30965,"lon":5.39019,"is_reserved":false,"is_disabled":false,"rental_uris":{"android":"levelo://app?vid=5d230dc2-6caf-4a15-8305-7b02f82908d8","ios":"levelo://app?vid=5d230dc2-6caf-4a15-8305-7b02f82908d8"},"vehicle_type_id":"4","last_reported":1778845563,"current_range_meters":8000,"station_id":"ce4bgup2rcd13ifvqco0","pricing_plan_id":"cebpf4jnsgd1na2vs0mg"},{"bike_id":"5b0ee32a-a2ec-43aa-bbc3-282ccee7cdc0","system_id":"levelo_inurba_marseille","lat":43.337444,"lon":5.374475,"is_reserved":false,"is_disabled":true,"rental_uris":{"android":"levelo://app?vid=5b0ee32a-a2ec-43aa-bbc3-282ccee7cdc0","ios":"levelo://app?vid=5b0ee32a-a2ec-43aa-bbc3-282ccee7cdc0"},"vehicle_type_id":"4","last_reported":1778845563,"current_range_meters":8000,"station_id":"","pricing_plan_id":"cebpf4jnsgd1na2vs0mg"},{"bike_id":"ac71bb1c-e896-48f7-ab31-1157142985d0","system_id":"levelo_inurba_marseille","lat":43.27985,"lon":5.38702,"is_reserved":false,"is_disabled":true,"rental_uris":{"android":"levelo://app?vid=ac71bb1c-e896-48f7-ab31-1157142985d0","ios":"levelo://app?vid=ac71bb1c-e896-48f7-ab31-1157142985d0"},"vehicle_type_id":"4","last_reported":1778845563,"current_range_meters":8000,"station_id":"ce4bhg12rcd13ifvqf80","pricing_plan_id":"cebpf4jnsgd1na2vs0mg"},{"bike_id":"efbbd875-07fc-4e92-b74f-8812d2aded92","system_id":"levelo_inurba_marseille","lat":43.29517,"lon":5.37501,"is_reserved":false,"is_disabled":false,"rental_uris":{"android":"levelo://app?vid=efbbd875-07fc-4e92-b74f-8812d2aded92","ios":"levelo://app?vid=efbbd875-07fc-4e92-b74f-8812d2aded92"},"vehicle_type_id":"4","last_reported":1778845563,"current_range_meters":8000,"station_id":"ce4bgkp2rcd13ifvqbmg","pricing_plan_id":"cebpf4jnsgd1na2vs0mg"},{"bike_id":"4d57ae19-a683-4679-8f64-6d5d929a4add","system_id":"levelo_inurba_marseille","lat":43.30466,"lon":5.3791,"is_reserved":false,"is_disabled":false,"rental_uris":{"android":"levelo://app?vid=4d57ae19-a683-4679-8f64-6d5d929a4add","ios":"levelo://app?vid=4d57ae19-a683-4679-8f64-6d5d929a4add"},"vehicle_type_id":"4","last_reported":1778845563,"current_range_meters":8000,"station_id":"ce4bgup2rcd13ifvqcn0","pricing_plan_id":"cebpf4jnsgd1na2vs0mg"},{"bike_id":"542d668d-94a3-43d7-8122-dc170ac76fcb","system_id":"levelo_inurba_marseille","lat":43.24467,"lon":5.42525,"is_reserved":false,"is_disabled":false,"rental_uris":{"android":"levelo://app?vid=542d668d-94a3-43d7-8122-dc170ac76fcb","ios":"levelo://app?vid=542d668d-94a3-43d7-8122-dc170ac76fcb"},"vehicle_type_id":"4","last_reported":1778845563,"current_range_meters":8000,"station_id":"st_d4a3vfp97mjs738cd8kg","pricing_plan_id":"cebpf4jnsgd1na2vs0mg"},{"bike_id":"82bc5785-7f12-4ffc-a40f-1c61e6ef542d","system_id":"levelo_inurba_marseille","lat":43.27611,"lon":5.36114,"is_reserved":false,"is_disabled":false,"rental_uris":{"android":"levelo://app?vid=82bc5785-7f12-4ffc-a40f-1c61e6ef542d","ios":"levelo://app?vid=82bc5785-7f12-4ffc-a40f-1c61e6ef542d"},"vehicle_type_id":"4","last_reported":1778845563,"current_range_meters":8000,"station_id":"ce4bgj92rcd13ifvqbe0","pricing_plan_id":"cebpf4jnsgd1na2vs0mg"},{"bike_id":"6b379858-4a6b-45a0-96f4-19512c9626ea","system_id":"levelo_inurba_marseille","lat":43.23185,"lon":5.39974,"is_reserved":false,"is_disabled":false,"rental_uris":{"android":"levelo://app?vid=6b379858-4a6b-45a0-96f4-19512c9626ea","ios":"levelo://app?vid=6b379858-4a6b-45a0-96f4-19512c9626ea"},"vehicle_type_id":"4","last_reported":1778845563,"current_range_meters":8000,"station_id":"ce4bhn12rcd13ifvqgqg","pricing_plan_id":"cebpf4jnsgd1na2vs0mg"},{"bike_id":"d014c6a1-bf63-4e95-b925-abf179d4f59f","system_id":"levelo_inurba_marseille","lat":43.27375,"lon":5.43549,"is_reserved":false,"is_disabled":false,"rental_uris":{"android":"levelo://app?vid=d014c6a1-bf63-4e95-b925-abf179d4f59f","ios":"levelo://app?vid=d014c6a1-bf63-4e95-b925-abf179d4f59f"},"vehicle_type_id":"4","last_reported":1778845563,"current_range_meters":8000,"station_id":"","pricing_plan_id":"cebpf4jnsgd1na2vs0mg"},{"bike_id":"19e7b244-8013-4937-a303-39a46de80430","system_id":"levelo_inurba_marseille","lat":43.24665,"lon":5.38148,"is_reserved":false,"is_disabled":false,"rental_uris":{"android":"levelo://app?vid=19e7b244-8013-4937-a303-39a46de80430","ios":"levelo://app?vid=19e7b244-8013-4937-a303-39a46de80430"},"vehicle_type_id":"4","last_reported":1778845563,"current_range_meters":8000,"station_id":"ce4bhih2rcd13ifvqfr0","pricing_plan_id":"cebpf4jnsgd1na2vs0mg"},{"bike_id":"ab5d2c88-2225-4484-b022-e013d40ae356","system_id":"levelo_inurba_marseille","lat":43.27359,"lon":5.36252,"is_reserved":false,"is_disabled":false,"rental_uris":{"android":"levelo://app?vid=ab5d2c88-2225-4484-b022-e013d40ae356","ios":"levelo://app?vid=ab5d2c88-2225-4484-b022-e013d40ae356"},"vehicle_type_id":"4","last_reported":1778845563,"current_range_meters":8000,"station_id":"ce4bhbh2rcd13ifvqeo0","pricing_plan_id":"cebpf4jnsgd1na2vs0mg"},{"bike_id":"245034ef-13bc-42be-8840-165da39a6c37","system_id":"levelo_inurba_marseille","lat":43.31699,"lon":5.37775,"is_reserved":false,"is_disabled":false,"rental_uris":{"android":"levelo://app?vid=245034ef-13bc-42be-8840-165da39a6c37","ios":"levelo://app?vid=245034ef-13bc-42be-8840-165da39a6c37"},"vehicle_type_id":"4","last_reported":1778845563,"current_range_meters":8000,"station_id":"ce4bgth2rcd13ifvqch0","pricing_plan_id":"cebpf4jnsgd1na2vs0mg"},{"bike_id":"fe56f550-aea3-4ead-9fc3-c620dac5bde0","system_id":"levelo_inurba_marseille","lat":43.23181,"lon":5.39982,"is_reserved":false,"is_disabled":false,"rental_uris":{"android":"levelo://app?vid=fe56f550-aea3-4ead-9fc3-c620dac5bde0","ios":"levelo://app?vid=fe56f550-aea3-4ead-9fc3-c620dac5bde0"},"vehicle_type_id":"4","last_reported":1778845563,"current_range_meters":8000,"station_id":"ce4bhn12rcd13ifvqgqg","pricing_plan_id":"cebpf4jnsgd1na2vs0mg"},{"bike_id":"48ef45ce-a899-44f7-b6b3-12d4d32a4fc8","system_id":"levelo_inurba_marseille","lat":43.296172,"lon":5.371641,"is_reserved":false,"is_disabled":false,"rental_uris":{"android":"levelo://app?vid=48ef45ce-a899-44f7-b6b3-12d4d32a4fc8","ios":"levelo://app?vid=48ef45ce-a899-44f7-b6b3-12d4d32a4fc8"},"vehicle_type_id":"4","last_reported":1778845563,"current_range_meters":8000,"station_id":"ce4bgnh2rcd13ifvqc0g","pricing_plan_id":"cebpf4jnsgd1na2vs0mg"},{"bike_id":"2be2dfbb-5fc9-4d40-99ae-8f0a1bd0747d","system_id":"levelo_inurba_marseille","lat":43.22526,"lon":5.41654,"is_reserved":false,"is_disabled":false,"rental_uris":{"android":"levelo://app?vid=2be2dfbb-5fc9-4d40-99ae-8f0a1bd0747d","ios":"levelo://app?vid=2be2dfbb-5fc9-4d40-99ae-8f0a1bd0747d"},"vehicle_type_id":"4","last_reported":1778845563,"current_range_meters":8000,"station_id":"st_d2o4gvlbi1j2169b742g","pricing_plan_id":"cebpf4jnsgd1na2vs0mg"},{"bike_id":"7ebf473e-f649-4ecb-867e-1b7fd3d928c7","system_id":"levelo_inurba_marseille","lat":43.26437,"lon":5.41066,"is_reserved":false,"is_disabled":false,"rental_uris":{"android":"levelo://app?vid=7ebf473e-f649-4ecb-867e-1b7fd3d928c7","ios":"levelo://app?vid=7ebf473e-f649-4ecb-867e-1b7fd3d928c7"},"vehicle_type_id":"4","last_reported":1778845563,"current_range_meters":8000,"station_id":"st_d4e5ca6na9uc73bfl5fg","pricing_plan_id":"cebpf4jnsgd1na2vs0mg"},{"bike_id":"351d03f6-8167-4d74-8510-d39590cd1ca4","system_id":"levelo_inurba_marseille","lat":43.29621,"lon":5.37715,"is_reserved":false,"is_disabled":false,"rental_uris":{"android":"levelo://app?vid=351d03f6-8167-4d74-8510-d39590cd1ca4","ios":"levelo://app?vid=351d03f6-8167-4d74-8510-d39590cd1ca4"},"vehicle_type_id":"4","last_reported":1778845563,"current_range_meters":8400,"station_id":"ce4bgi92rcd13ifvqb90","pricing_plan_id":"cebpf4jnsgd1na2vs0mg"},{"bike_id":"b6d6a376-855a-4abc-9383-fe132baa52ad","system_id":"levelo_inurba_marseille","lat":43.28482,"lon":5.38547,"is_reserved":false,"is_disabled":false,"rental_uris":{"android":"levelo://app?vid=b6d6a376-855a-4abc-9383-fe132baa52ad","ios":"levelo://app?vid=b6d6a376-855a-4abc-9383-fe132baa52ad"},"vehicle_type_id":"4","last_reported":1778845563,"current_range_meters":8400,"station_id":"ce4bh8p2rcd13ifvqeb0","pricing_plan_id":"cebpf4jnsgd1na2vs0mg"},{"bike_id":"57994975-12a1-47b9-b7a4-294051fd1507","system_id":"levelo_inurba_marseille","lat":43.24957,"lon":5.40482,"is_reserved":false,"is_disabled":false,"rental_uris":{"android":"levelo://app?vid=57994975-12a1-47b9-b7a4-294051fd1507","ios":"levelo://app?vid=57994975-12a1-47b9-b7a4-294051fd1507"},"vehicle_type_id":"4","last_reported":1778845563,"current_range_meters":8400,"station_id":"st_d2ngiaodas8pm72gd1h0","pricing_plan_id":"cebpf4jnsgd1na2vs0mg"},{"bike_id":"9b2021d8-c5d8-448d-a392-8636bb8f2d73","system_id":"levelo_inurba_marseille","lat":43.25498,"lon":5.3764,"is_reserved":false,"is_disabled":false,"rental_uris":{"android":"levelo://app?vid=9b2021d8-c5d8-448d-a392-8636bb8f2d73","ios":"levelo://app?vid=9b2021d8-c5d8-448d-a392-8636bb8f2d73"},"vehicle_type_id":"4","last_reported":1778845563,"current_range_meters":8400,"station_id":"ce4bhh12rcd13ifvqff0","pricing_plan_id":"cebpf4jnsgd1na2vs0mg"},{"bike_id":"687b8792-1a8f-4f94-931f-4958c22c90df","system_id":"levelo_inurba_marseille","lat":43.29306,"lon":5.37158,"is_reserved":false,"is_disabled":false,"rental_uris":{"android":"levelo://app?vid=687b8792-1a8f-4f94-931f-4958c22c90df","ios":"levelo://app?vid=687b8792-1a8f-4f94-931f-4958c22c90df"},"vehicle_type_id":"4","last_reported":1778845563,"current_range_meters":8400,"station_id":"ce4bgh92rcd13ifvqb40","pricing_plan_id":"cebpf4jnsgd1na2vs0mg"},{"bike_id":"7e981d89-2222-49a3-ba27-d383599b80b7","system_id":"levelo_inurba_marseille","lat":43.28609,"lon":5.37055,"is_reserved":false,"is_disabled":true,"rental_uris":{"android":"levelo://app?vid=7e981d89-2222-49a3-ba27-d383599b80b7","ios":"levelo://app?vid=7e981d89-2222-49a3-ba27-d383599b80b7"},"vehicle_type_id":"4","last_reported":1778845563,"current_range_meters":8400,"station_id":"ce4bht12rcd13ifvqi60","pricing_plan_id":"cebpf4jnsgd1na2vs0mg"},{"bike_id":"e67e22a8-6457-4f9e-bc59-73176d5337bc","system_id":"levelo_inurba_marseille","lat":43.262,"lon":5.3744,"is_reserved":false,"is_disabled":false,"rental_uris":{"android":"levelo://app?vid=e67e22a8-6457-4f9e-bc59-73176d5337bc","ios":"levelo://app?vid=e67e22a8-6457-4f9e-bc59-73176d5337bc"},"vehicle_type_id":"4","last_reported":1778845563,"current_range_meters":8400,"station_id":"ce4bhgp2rcd13ifvqfc0","pricing_plan_id":"cebpf4jnsgd1na2vs0mg"},{"bike_id":"51664d14-16b2-48cc-bb95-c2f0a523d053","system_id":"levelo_inurba_marseille","lat":43.29987,"lon":5.43053,"is_reserved":false,"is_disabled":false,"rental_uris":{"android":"levelo://app?vid=51664d14-16b2-48cc-bb95-c2f0a523d053","ios":"levelo://app?vid=51664d14-16b2-48cc-bb95-c2f0a523d053"},"vehicle_type_id":"4","last_reported":1778845563,"current_range_meters":8400,"station_id":"","pricing_plan_id":"cebpf4jnsgd1na2vs0mg"},{"bike_id":"419c4480-a915-4b2b-804f-c16778b97d7c","system_id":"levelo_inurba_marseille","lat":43.2558,"lon":5.38226,"is_reserved":false,"is_disabled":false,"rental_uris":{"android":"levelo://app?vid=419c4480-a915-4b2b-804f-c16778b97d7c","ios":"levelo://app?vid=419c4480-a915-4b2b-804f-c16778b97d7c"},"vehicle_type_id":"4","last_reported":1778845563,"current_range_meters":8400,"station_id":"ce4bhih2rcd13ifvqfs0","pricing_plan_id":"cebpf4jnsgd1na2vs0mg"},{"bike_id":"a89146d1-9b77-4930-92cb-c09d36a22f27","system_id":"levelo_inurba_marseille","lat":43.2862,"lon":5.35096,"is_reserved":false,"is_disabled":false,"rental_uris":{"android":"levelo://app?vid=a89146d1-9b77-4930-92cb-c09d36a22f27","ios":"levelo://app?vid=a89146d1-9b77-4930-92cb-c09d36a22f27"},"vehicle_type_id":"4","last_reported":1778845563,"current_range_meters":8400,"station_id":"ce4bhch2rcd13ifvqeug","pricing_plan_id":"cebpf4jnsgd1na2vs0mg"},{"bike_id":"5086b699-3dcc-4806-b878-78b08fee24d3","system_id":"levelo_inurba_marseille","lat":43.3106,"lon":5.37185,"is_reserved":false,"is_disabled":false,"rental_uris":{"android":"levelo://app?vid=5086b699-3dcc-4806-b878-78b08fee24d3","ios":"levelo://app?vid=5086b699-3dcc-4806-b878-78b08fee24d3"},"vehicle_type_id":"4","last_reported":1778845563,"current_range_meters":8400,"station_id":"st_d4kl2rp97mjs73e7tdfg","pricing_plan_id":"cebpf4jnsgd1na2vs0mg"},{"bike_id":"cf7b705c-7a37-4054-aa6c-b54b5684440f","system_id":"levelo_inurba_marseille","lat":43.23143,"lon":5.43718,"is_reserved":false,"is_disabled":false,"rental_uris":{"android":"levelo://app?vid=cf7b705c-7a37-4054-aa6c-b54b5684440f","ios":"levelo://app?vid=cf7b705c-7a37-4054-aa6c-b54b5684440f"},"vehicle_type_id":"4","last_reported":1778845563,"current_range_meters":8400,"station_id":"ce4bhmp2rcd13ifvqgog","pricing_plan_id":"cebpf4jnsgd1na2vs0mg"},{"bike_id":"9ed1fea9-839c-463c-bad9-167f6d4c4cf7","system_id":"levelo_inurba_marseille","lat":43.2481,"lon":5.37459,"is_reserved":false,"is_disabled":false,"rental_uris":{"android":"levelo://app?vid=9ed1fea9-839c-463c-bad9-167f6d4c4cf7","ios":"levelo://app?vid=9ed1fea9-839c-463c-bad9-167f6d4c4cf7"},"vehicle_type_id":"4","last_reported":1778845563,"current_range_meters":8400,"station_id":"ce4bhgh2rcd13ifvqfb0","pricing_plan_id":"cebpf4jnsgd1na2vs0mg"},{"bike_id":"c07fefa2-8542-4d3d-b6c0-94131f6b35f8","system_id":"levelo_inurba_marseille","lat":43.290034,"lon":5.356146,"is_reserved":false,"is_disabled":false,"rental_uris":{"android":"levelo://app?vid=c07fefa2-8542-4d3d-b6c0-94131f6b35f8","ios":"levelo://app?vid=c07fefa2-8542-4d3d-b6c0-94131f6b35f8"},"vehicle_type_id":"4","last_reported":1778845563,"current_range_meters":8400,"station_id":"ce4bhb92rcd13ifvqen0","pricing_plan_id":"cebpf4jnsgd1na2vs0mg"},{"bike_id":"3358edc0-b306-4984-9612-cd9780299ce1","system_id":"levelo_inurba_marseille","lat":43.29512,"lon":5.39023,"is_reserved":false,"is_disabled":false,"rental_uris":{"android":"levelo://app?vid=3358edc0-b306-4984-9612-cd9780299ce1","ios":"levelo://app?vid=3358edc0-b306-4984-9612-cd9780299ce1"},"vehicle_type_id":"4","last_reported":1778845563,"current_range_meters":8400,"station_id":"ce4bh3p2rcd13ifvqdp0","pricing_plan_id":"cebpf4jnsgd1na2vs0mg"},{"bike_id":"14f10cf8-3c1f-4ae3-ac40-bc26c23ae538","system_id":"levelo_inurba_marseille","lat":43.24728,"lon":5.39288,"is_reserved":false,"is_disabled":false,"rental_uris":{"android":"levelo://app?vid=14f10cf8-3c1f-4ae3-ac40-bc26c23ae538","ios":"levelo://app?vid=14f10cf8-3c1f-4ae3-ac40-bc26c23ae538"},"vehicle_type_id":"4","last_reported":1778845563,"current_range_meters":8400,"station_id":"","pricing_plan_id":"cebpf4jnsgd1na2vs0mg"},{"bike_id":"b92da105-00ff-46b1-bd98-22771d6da483","system_id":"levelo_inurba_marseille","lat":43.24336,"lon":5.38408,"is_reserved":false,"is_disabled":false,"rental_uris":{"android":"levelo://app?vid=b92da105-00ff-46b1-bd98-22771d6da483","ios":"levelo://app?vid=b92da105-00ff-46b1-bd98-22771d6da483"},"vehicle_type_id":"4","last_reported":1778845563,"current_range_meters":8400,"station_id":"","pricing_plan_id":"cebpf4jnsgd1na2vs0mg"},{"bike_id":"071b32cd-efb7-4b19-8868-73a0bba63276","system_id":"levelo_inurba_marseille","lat":43.24806,"lon":5.37455,"is_reserved":false,"is_disabled":false,"rental_uris":{"android":"levelo://app?vid=071b32cd-efb7-4b19-8868-73a0bba63276","ios":"levelo://app?vid=071b32cd-efb7-4b19-8868-73a0bba63276"},"vehicle_type_id":"4","last_reported":1778845563,"current_range_meters":8800,"station_id":"ce4bhgh2rcd13ifvqfb0","pricing_plan_id":"cebpf4jnsgd1na2vs0mg"},{"bike_id":"4f2e7394-566a-4ee5-b8f0-a30da44e1140","system_id":"levelo_inurba_marseille","lat":43.29271,"lon":5.36843,"is_reserved":false,"is_disabled":false,"rental_uris":{"android":"levelo://app?vid=4f2e7394-566a-4ee5-b8f0-a30da44e1140","ios":"levelo://app?vid=4f2e7394-566a-4ee5-b8f0-a30da44e1140"},"vehicle_type_id":"4","last_reported":1778845563,"current_range_meters":8800,"station_id":"ce4bhbp2rcd13ifvqesg","pricing_plan_id":"cebpf4jnsgd1na2vs0mg"},{"bike_id":"38fc785a-2ebc-4589-b06a-f39de7ae450c","system_id":"levelo_inurba_marseille","lat":43.30948,"lon":5.39029,"is_reserved":false,"is_disabled":false,"rental_uris":{"android":"levelo://app?vid=38fc785a-2ebc-4589-b06a-f39de7ae450c","ios":"levelo://app?vid=38fc785a-2ebc-4589-b06a-f39de7ae450c"},"vehicle_type_id":"4","last_reported":1778845563,"current_range_meters":8800,"station_id":"ce4bgup2rcd13ifvqco0","pricing_plan_id":"cebpf4jnsgd1na2vs0mg"},{"bike_id":"ae8fa2b0-20b7-4fc2-9abd-8d58c9ea6e73","system_id":"levelo_inurba_marseille","lat":43.28853,"lon":5.39333,"is_reserved":false,"is_disabled":false,"rental_uris":{"android":"levelo://app?vid=ae8fa2b0-20b7-4fc2-9abd-8d58c9ea6e73","ios":"levelo://app?vid=ae8fa2b0-20b7-4fc2-9abd-8d58c9ea6e73"},"vehicle_type_id":"4","last_reported":1778845563,"current_range_meters":8800,"station_id":"ce4bh2p2rcd13ifvqdi0","pricing_plan_id":"cebpf4jnsgd1na2vs0mg"},{"bike_id":"c1a2fa5c-e6f8-47aa-81fa-2701b748de4b","system_id":"levelo_inurba_marseille","lat":43.26663,"lon":5.37241,"is_reserved":false,"is_disabled":false,"rental_uris":{"android":"levelo://app?vid=c1a2fa5c-e6f8-47aa-81fa-2701b748de4b","ios":"levelo://app?vid=c1a2fa5c-e6f8-47aa-81fa-2701b748de4b"},"vehicle_type_id":"4","last_reported":1778845563,"current_range_meters":8800,"station_id":"","pricing_plan_id":"cebpf4jnsgd1na2vs0mg"},{"bike_id":"52972f2e-95ed-4903-86b8-869d695f1926","system_id":"levelo_inurba_marseille","lat":43.32115,"lon":5.36756,"is_reserved":false,"is_disabled":false,"rental_uris":{"android":"levelo://app?vid=52972f2e-95ed-4903-86b8-869d695f1926","ios":"levelo://app?vid=52972f2e-95ed-4903-86b8-869d695f1926"},"vehicle_type_id":"4","last_reported":1778845563,"current_range_meters":8800,"station_id":"ce4bhrh2rcd13ifvqhug","pricing_plan_id":"cebpf4jnsgd1na2vs0mg"},{"bike_id":"2ad17d08-f228-43c1-ac27-af9161d7c098","system_id":"levelo_inurba_marseille","lat":43.28142,"lon":5.42654,"is_reserved":false,"is_disabled":false,"rental_uris":{"android":"levelo://app?vid=2ad17d08-f228-43c1-ac27-af9161d7c098","ios":"levelo://app?vid=2ad17d08-f228-43c1-ac27-af9161d7c098"},"vehicle_type_id":"4","last_reported":1778845563,"current_range_meters":8800,"station_id":"ce4bhnh2rcd13ifvqgug","pricing_plan_id":"cebpf4jnsgd1na2vs0mg"},{"bike_id":"c518d0a8-8813-43f8-9c28-698de02797b8","system_id":"levelo_inurba_marseille","lat":43.29613,"lon":5.37717,"is_reserved":false,"is_disabled":false,"rental_uris":{"android":"levelo://app?vid=c518d0a8-8813-43f8-9c28-698de02797b8","ios":"levelo://app?vid=c518d0a8-8813-43f8-9c28-698de02797b8"},"vehicle_type_id":"4","last_reported":1778845563,"current_range_meters":8800,"station_id":"ce4bgi92rcd13ifvqb90","pricing_plan_id":"cebpf4jnsgd1na2vs0mg"},{"bike_id":"43fd08e9-8801-41b6-946e-6e125f9fb580","system_id":"levelo_inurba_marseille","lat":43.28417,"lon":5.34984,"is_reserved":false,"is_disabled":false,"rental_uris":{"android":"levelo://app?vid=43fd08e9-8801-41b6-946e-6e125f9fb580","ios":"levelo://app?vid=43fd08e9-8801-41b6-946e-6e125f9fb580"},"vehicle_type_id":"4","last_reported":1778845563,"current_range_meters":8800,"station_id":"ce4bhbh2rcd13ifvqepg","pricing_plan_id":"cebpf4jnsgd1na2vs0mg"},{"bike_id":"85700384-7ed5-481f-8383-977a4a484f3a","system_id":"levelo_inurba_marseille","lat":43.26393,"lon":5.38716,"is_reserved":false,"is_disabled":false,"rental_uris":{"android":"levelo://app?vid=85700384-7ed5-481f-8383-977a4a484f3a","ios":"levelo://app?vid=85700384-7ed5-481f-8383-977a4a484f3a"},"vehicle_type_id":"4","last_reported":1778845563,"current_range_meters":8800,"station_id":"","pricing_plan_id":"cebpf4jnsgd1na2vs0mg"},{"bike_id":"7a5f1542-f3fc-4f86-8018-781a948f1b90","system_id":"levelo_inurba_marseille","lat":43.2592,"lon":5.39897,"is_reserved":false,"is_disabled":false,"rental_uris":{"android":"levelo://app?vid=7a5f1542-f3fc-4f86-8018-781a948f1b90","ios":"levelo://app?vid=7a5f1542-f3fc-4f86-8018-781a948f1b90"},"vehicle_type_id":"4","last_reported":1778845563,"current_range_meters":8800,"station_id":"","pricing_plan_id":"cebpf4jnsgd1na2vs0mg"},{"bike_id":"fdb1420c-8cba-495e-8621-8fdd81cc0df7","system_id":"levelo_inurba_marseille","lat":43.27987,"lon":5.41655,"is_reserved":false,"is_disabled":false,"rental_uris":{"android":"levelo://app?vid=fdb1420c-8cba-495e-8621-8fdd81cc0df7","ios":"levelo://app?vid=fdb1420c-8cba-495e-8621-8fdd81cc0df7"},"vehicle_type_id":"4","last_reported":1778845563,"current_range_meters":8800,"station_id":"ce4bho12rcd13ifvqh1g","pricing_plan_id":"cebpf4jnsgd1na2vs0mg"},{"bike_id":"9328bcd0-7dba-429b-800d-2edec12305de","system_id":"levelo_inurba_marseille","lat":43.24458,"lon":5.42543,"is_reserved":false,"is_disabled":false,"rental_uris":{"android":"levelo://app?vid=9328bcd0-7dba-429b-800d-2edec12305de","ios":"levelo://app?vid=9328bcd0-7dba-429b-800d-2edec12305de"},"vehicle_type_id":"4","last_reported":1778845563,"current_range_meters":8800,"station_id":"st_d4a3vfp97mjs738cd8kg","pricing_plan_id":"cebpf4jnsgd1na2vs0mg"},{"bike_id":"d74d3f33-a8dc-4d72-b28b-2cf586e298d3","system_id":"levelo_inurba_marseille","lat":43.28521,"lon":5.44097,"is_reserved":false,"is_disabled":false,"rental_uris":{"android":"levelo://app?vid=d74d3f33-a8dc-4d72-b28b-2cf586e298d3","ios":"levelo://app?vid=d74d3f33-a8dc-4d72-b28b-2cf586e298d3"},"vehicle_type_id":"4","last_reported":1778845563,"current_range_meters":8800,"station_id":"st_d3j3df2ikq2c7380ej80","pricing_plan_id":"cebpf4jnsgd1na2vs0mg"},{"bike_id":"a0d1f212-f397-4d2a-a9f6-e72cad93a290","system_id":"levelo_inurba_marseille","lat":43.21728,"lon":5.34593,"is_reserved":false,"is_disabled":false,"rental_uris":{"android":"levelo://app?vid=a0d1f212-f397-4d2a-a9f6-e72cad93a290","ios":"levelo://app?vid=a0d1f212-f397-4d2a-a9f6-e72cad93a290"},"vehicle_type_id":"4","last_reported":1778845563,"current_range_meters":8800,"station_id":"st_cvj6r9ubvosntc0bgbag","pricing_plan_id":"cebpf4jnsgd1na2vs0mg"},{"bike_id":"c0cfd3d3-466f-48d3-8921-1e72b828172f","system_id":"levelo_inurba_marseille","lat":43.24458,"lon":5.42543,"is_reserved":false,"is_disabled":false,"rental_uris":{"android":"levelo://app?vid=c0cfd3d3-466f-48d3-8921-1e72b828172f","ios":"levelo://app?vid=c0cfd3d3-466f-48d3-8921-1e72b828172f"},"vehicle_type_id":"4","last_reported":1778845563,"current_range_meters":8800,"station_id":"st_d4a3vfp97mjs738cd8kg","pricing_plan_id":"cebpf4jnsgd1na2vs0mg"},{"bike_id":"e7a0aaf7-0db1-4b6d-948e-d3cea63d5b54","system_id":"levelo_inurba_marseille","lat":43.29485,"lon":5.43293,"is_reserved":false,"is_disabled":false,"rental_uris":{"android":"levelo://app?vid=e7a0aaf7-0db1-4b6d-948e-d3cea63d5b54","ios":"levelo://app?vid=e7a0aaf7-0db1-4b6d-948e-d3cea63d5b54"},"vehicle_type_id":"4","last_reported":1778845563,"current_range_meters":8800,"station_id":"st_d3j5ugp08ojc73fj9d10","pricing_plan_id":"cebpf4jnsgd1na2vs0mg"},{"bike_id":"c8eb1ae4-6298-4d24-aab0-156c923ff5b0","system_id":"levelo_inurba_marseille","lat":43.21738,"lon":5.34605,"is_reserved":false,"is_disabled":false,"rental_uris":{"android":"levelo://app?vid=c8eb1ae4-6298-4d24-aab0-156c923ff5b0","ios":"levelo://app?vid=c8eb1ae4-6298-4d24-aab0-156c923ff5b0"},"vehicle_type_id":"4","last_reported":1778845563,"current_range_meters":8800,"station_id":"st_cvj6r9ubvosntc0bgbag","pricing_plan_id":"cebpf4jnsgd1na2vs0mg"},{"bike_id":"b76bdc7e-de55-4b1a-9998-feabb4c5feee","system_id":"levelo_inurba_marseille","lat":43.29853,"lon":5.36264,"is_reserved":false,"is_disabled":false,"rental_uris":{"android":"levelo://app?vid=b76bdc7e-de55-4b1a-9998-feabb4c5feee","ios":"levelo://app?vid=b76bdc7e-de55-4b1a-9998-feabb4c5feee"},"vehicle_type_id":"4","last_reported":1778845563,"current_range_meters":9200,"station_id":"ce4bgpp2rcd13ifvqc3g","pricing_plan_id":"cebpf4jnsgd1na2vs0mg"},{"bike_id":"95905f44-0304-4488-bbde-0604c4131f99","system_id":"levelo_inurba_marseille","lat":43.22534,"lon":5.41628,"is_reserved":false,"is_disabled":false,"rental_uris":{"android":"levelo://app?vid=95905f44-0304-4488-bbde-0604c4131f99","ios":"levelo://app?vid=95905f44-0304-4488-bbde-0604c4131f99"},"vehicle_type_id":"4","last_reported":1778845563,"current_range_meters":9200,"station_id":"st_d2o4gvlbi1j2169b742g","pricing_plan_id":"cebpf4jnsgd1na2vs0mg"},{"bike_id":"ede222c5-a096-4c94-b2a1-dabd27384c2c","system_id":"levelo_inurba_marseille","lat":43.23904,"lon":5.37441,"is_reserved":false,"is_disabled":false,"rental_uris":{"android":"levelo://app?vid=ede222c5-a096-4c94-b2a1-dabd27384c2c","ios":"levelo://app?vid=ede222c5-a096-4c94-b2a1-dabd27384c2c"},"vehicle_type_id":"4","last_reported":1778845563,"current_range_meters":9200,"station_id":"st_d6sm7csbq4hs73f8fpjg","pricing_plan_id":"cebpf4jnsgd1na2vs0mg"},{"bike_id":"3c815444-6e09-4f1d-8815-54b8c79e6fa9","system_id":"levelo_inurba_marseille","lat":43.29745,"lon":5.37674,"is_reserved":false,"is_disabled":false,"rental_uris":{"android":"levelo://app?vid=3c815444-6e09-4f1d-8815-54b8c79e6fa9","ios":"levelo://app?vid=3c815444-6e09-4f1d-8815-54b8c79e6fa9"},"vehicle_type_id":"4","last_reported":1778845563,"current_range_meters":9200,"station_id":"ce4bgkh2rcd13ifvqbl0","pricing_plan_id":"cebpf4jnsgd1na2vs0mg"},{"bike_id":"f7dfc745-d667-4d44-b7e7-a953b16da362","system_id":"levelo_inurba_marseille","lat":43.24167,"lon":5.36385,"is_reserved":false,"is_disabled":false,"rental_uris":{"android":"levelo://app?vid=f7dfc745-d667-4d44-b7e7-a953b16da362","ios":"levelo://app?vid=f7dfc745-d667-4d44-b7e7-a953b16da362"},"vehicle_type_id":"4","last_reported":1778845563,"current_range_meters":9200,"station_id":"cpo36qri1sfpv3e86is0","pricing_plan_id":"cebpf4jnsgd1na2vs0mg"},{"bike_id":"82689a7f-bd53-4efa-929e-18e60e3f8877","system_id":"levelo_inurba_marseille","lat":43.26553,"lon":5.37286,"is_reserved":false,"is_disabled":false,"rental_uris":{"android":"levelo://app?vid=82689a7f-bd53-4efa-929e-18e60e3f8877","ios":"levelo://app?vid=82689a7f-bd53-4efa-929e-18e60e3f8877"},"vehicle_type_id":"4","last_reported":1778845563,"current_range_meters":9200,"station_id":"ce4bhg12rcd13ifvqf70","pricing_plan_id":"cebpf4jnsgd1na2vs0mg"},{"bike_id":"3f31eb34-2034-48e0-acfb-781783e4399a","system_id":"levelo_inurba_marseille","lat":43.30582,"lon":5.3652,"is_reserved":false,"is_disabled":false,"rental_uris":{"android":"levelo://app?vid=3f31eb34-2034-48e0-acfb-781783e4399a","ios":"levelo://app?vid=3f31eb34-2034-48e0-acfb-781783e4399a"},"vehicle_type_id":"4","last_reported":1778845563,"current_range_meters":9200,"station_id":"ce4bgs12rcd13ifvqcag","pricing_plan_id":"cebpf4jnsgd1na2vs0mg"},{"bike_id":"1b4b0686-3533-417d-bcb1-c99acb8b4bc0","system_id":"levelo_inurba_marseille","lat":43.337679,"lon":5.374413,"is_reserved":false,"is_disabled":false,"rental_uris":{"android":"levelo://app?vid=1b4b0686-3533-417d-bcb1-c99acb8b4bc0","ios":"levelo://app?vid=1b4b0686-3533-417d-bcb1-c99acb8b4bc0"},"vehicle_type_id":"4","last_reported":1778845563,"current_range_meters":9200,"station_id":"","pricing_plan_id":"cebpf4jnsgd1na2vs0mg"},{"bike_id":"8a092586-2a69-4af5-bb02-0ce13f59c2b1","system_id":"levelo_inurba_marseille","lat":43.23895,"lon":5.37454,"is_reserved":false,"is_disabled":false,"rental_uris":{"android":"levelo://app?vid=8a092586-2a69-4af5-bb02-0ce13f59c2b1","ios":"levelo://app?vid=8a092586-2a69-4af5-bb02-0ce13f59c2b1"},"vehicle_type_id":"4","last_reported":1778845563,"current_range_meters":9200,"station_id":"st_d6sm7csbq4hs73f8fpjg","pricing_plan_id":"cebpf4jnsgd1na2vs0mg"},{"bike_id":"cee3397e-50dd-423d-9236-fa4b10094390","system_id":"levelo_inurba_marseille","lat":43.30431,"lon":5.38891,"is_reserved":false,"is_disabled":false,"rental_uris":{"android":"levelo://app?vid=cee3397e-50dd-423d-9236-fa4b10094390","ios":"levelo://app?vid=cee3397e-50dd-423d-9236-fa4b10094390"},"vehicle_type_id":"4","last_reported":1778845563,"current_range_meters":9200,"station_id":"ce4bgk12rcd13ifvqbi0","pricing_plan_id":"cebpf4jnsgd1na2vs0mg"},{"bike_id":"8d5e8276-457e-4aad-a1e2-752b8b577a3e","system_id":"levelo_inurba_marseille","lat":43.31764,"lon":5.39014,"is_reserved":false,"is_disabled":false,"rental_uris":{"android":"levelo://app?vid=8d5e8276-457e-4aad-a1e2-752b8b577a3e","ios":"levelo://app?vid=8d5e8276-457e-4aad-a1e2-752b8b577a3e"},"vehicle_type_id":"4","last_reported":1778845563,"current_range_meters":9200,"station_id":"ce4bhqp2rcd13ifvqhng","pricing_plan_id":"cebpf4jnsgd1na2vs0mg"},{"bike_id":"dfae708c-f384-4f40-8dbf-b6b3aea7998e","system_id":"levelo_inurba_marseille","lat":43.3172,"lon":5.42384,"is_reserved":false,"is_disabled":false,"rental_uris":{"android":"levelo://app?vid=dfae708c-f384-4f40-8dbf-b6b3aea7998e","ios":"levelo://app?vid=dfae708c-f384-4f40-8dbf-b6b3aea7998e"},"vehicle_type_id":"4","last_reported":1778845563,"current_range_meters":9200,"station_id":"ce4bhp92rcd13ifvqhbg","pricing_plan_id":"cebpf4jnsgd1na2vs0mg"},{"bike_id":"14dd5302-4f2d-4d64-a78b-c9fc3ca12ebd","system_id":"levelo_inurba_marseille","lat":43.24381,"lon":5.37041,"is_reserved":false,"is_disabled":false,"rental_uris":{"android":"levelo://app?vid=14dd5302-4f2d-4d64-a78b-c9fc3ca12ebd","ios":"levelo://app?vid=14dd5302-4f2d-4d64-a78b-c9fc3ca12ebd"},"vehicle_type_id":"4","last_reported":1778845563,"current_range_meters":9200,"station_id":"ce4bhhh2rcd13ifvqfk0","pricing_plan_id":"cebpf4jnsgd1na2vs0mg"},{"bike_id":"7c275db7-b54d-4725-92c8-f314fab818a0","system_id":"levelo_inurba_marseille","lat":43.26548,"lon":5.37292,"is_reserved":false,"is_disabled":false,"rental_uris":{"android":"levelo://app?vid=7c275db7-b54d-4725-92c8-f314fab818a0","ios":"levelo://app?vid=7c275db7-b54d-4725-92c8-f314fab818a0"},"vehicle_type_id":"4","last_reported":1778845563,"current_range_meters":9200,"station_id":"ce4bhg12rcd13ifvqf70","pricing_plan_id":"cebpf4jnsgd1na2vs0mg"},{"bike_id":"e159c4b9-6700-4fa7-bb02-c7e0de94a1a8","system_id":"levelo_inurba_marseille","lat":43.22564,"lon":5.4163,"is_reserved":false,"is_disabled":false,"rental_uris":{"android":"levelo://app?vid=e159c4b9-6700-4fa7-bb02-c7e0de94a1a8","ios":"levelo://app?vid=e159c4b9-6700-4fa7-bb02-c7e0de94a1a8"},"vehicle_type_id":"4","last_reported":1778845563,"current_range_meters":9200,"station_id":"st_d2o4gvlbi1j2169b742g","pricing_plan_id":"cebpf4jnsgd1na2vs0mg"},{"bike_id":"7f29ee6c-4c37-45a5-ac91-766e1cbc923c","system_id":"levelo_inurba_marseille","lat":43.29707,"lon":5.3661,"is_reserved":false,"is_disabled":false,"rental_uris":{"android":"levelo://app?vid=7f29ee6c-4c37-45a5-ac91-766e1cbc923c","ios":"levelo://app?vid=7f29ee6c-4c37-45a5-ac91-766e1cbc923c"},"vehicle_type_id":"4","last_reported":1778845563,"current_range_meters":9200,"station_id":"ce4bgn12rcd13ifvqbt0","pricing_plan_id":"cebpf4jnsgd1na2vs0mg"},{"bike_id":"8f2ffae8-9918-467c-9501-6ac8a4d598f0","system_id":"levelo_inurba_marseille","lat":43.24588,"lon":5.40236,"is_reserved":false,"is_disabled":false,"rental_uris":{"android":"levelo://app?vid=8f2ffae8-9918-467c-9501-6ac8a4d598f0","ios":"levelo://app?vid=8f2ffae8-9918-467c-9501-6ac8a4d598f0"},"vehicle_type_id":"4","last_reported":1778845563,"current_range_meters":9200,"station_id":"","pricing_plan_id":"cebpf4jnsgd1na2vs0mg"},{"bike_id":"ea00ca07-7443-4180-9c35-5c1c2dd062cc","system_id":"levelo_inurba_marseille","lat":43.31888,"lon":5.36795,"is_reserved":false,"is_disabled":false,"rental_uris":{"android":"levelo://app?vid=ea00ca07-7443-4180-9c35-5c1c2dd062cc","ios":"levelo://app?vid=ea00ca07-7443-4180-9c35-5c1c2dd062cc"},"vehicle_type_id":"4","last_reported":1778845563,"current_range_meters":9200,"station_id":"st_d6o2h0d0559c73evc1b0","pricing_plan_id":"cebpf4jnsgd1na2vs0mg"},{"bike_id":"42779844-0336-4bec-91a7-ebe8a8a3b3bf","system_id":"levelo_inurba_marseille","lat":43.29986,"lon":5.3672,"is_reserved":false,"is_disabled":false,"rental_uris":{"android":"levelo://app?vid=42779844-0336-4bec-91a7-ebe8a8a3b3bf","ios":"levelo://app?vid=42779844-0336-4bec-91a7-ebe8a8a3b3bf"},"vehicle_type_id":"4","last_reported":1778845563,"current_range_meters":9200,"station_id":"","pricing_plan_id":"cebpf4jnsgd1na2vs0mg"},{"bike_id":"e5962add-8ae7-4096-90bb-afb4191d1a44","system_id":"levelo_inurba_marseille","lat":43.25124,"lon":5.42638,"is_reserved":false,"is_disabled":false,"rental_uris":{"android":"levelo://app?vid=e5962add-8ae7-4096-90bb-afb4191d1a44","ios":"levelo://app?vid=e5962add-8ae7-4096-90bb-afb4191d1a44"},"vehicle_type_id":"4","last_reported":1778845563,"current_range_meters":9200,"station_id":"","pricing_plan_id":"cebpf4jnsgd1na2vs0mg"},{"bike_id":"3e8e4536-6350-4f97-9c8e-8b3fddc2fcc9","system_id":"levelo_inurba_marseille","lat":43.29627,"lon":5.40599,"is_reserved":false,"is_disabled":false,"rental_uris":{"android":"levelo://app?vid=3e8e4536-6350-4f97-9c8e-8b3fddc2fcc9","ios":"levelo://app?vid=3e8e4536-6350-4f97-9c8e-8b3fddc2fcc9"},"vehicle_type_id":"4","last_reported":1778845563,"current_range_meters":9200,"station_id":"ce4bh0h2rcd13ifvqd60","pricing_plan_id":"cebpf4jnsgd1na2vs0mg"},{"bike_id":"73382de4-747b-4145-b268-f7d67649413b","system_id":"levelo_inurba_marseille","lat":43.297,"lon":5.37687,"is_reserved":false,"is_disabled":false,"rental_uris":{"android":"levelo://app?vid=73382de4-747b-4145-b268-f7d67649413b","ios":"levelo://app?vid=73382de4-747b-4145-b268-f7d67649413b"},"vehicle_type_id":"4","last_reported":1778845563,"current_range_meters":9200,"station_id":"ce4bgkh2rcd13ifvqbl0","pricing_plan_id":"cebpf4jnsgd1na2vs0mg"},{"bike_id":"0ee63922-e7bf-417b-b1ee-0e97136cc406","system_id":"levelo_inurba_marseille","lat":43.2957,"lon":5.37521,"is_reserved":false,"is_disabled":false,"rental_uris":{"android":"levelo://app?vid=0ee63922-e7bf-417b-b1ee-0e97136cc406","ios":"levelo://app?vid=0ee63922-e7bf-417b-b1ee-0e97136cc406"},"vehicle_type_id":"4","last_reported":1778845563,"current_range_meters":9200,"station_id":"ce4bgh92rcd13ifvqb50","pricing_plan_id":"cebpf4jnsgd1na2vs0mg"},{"bike_id":"74d7b4e4-6a5e-436e-8a35-b6f635725567","system_id":"levelo_inurba_marseille","lat":43.29849,"lon":5.42093,"is_reserved":false,"is_disabled":false,"rental_uris":{"android":"levelo://app?vid=74d7b4e4-6a5e-436e-8a35-b6f635725567","ios":"levelo://app?vid=74d7b4e4-6a5e-436e-8a35-b6f635725567"},"vehicle_type_id":"4","last_reported":1778845563,"current_range_meters":9600,"station_id":"st_d6tc004otcvc738tfe70","pricing_plan_id":"cebpf4jnsgd1na2vs0mg"},{"bike_id":"7688d36e-d295-4cfe-b88c-e7a9915c650f","system_id":"levelo_inurba_marseille","lat":43.29694,"lon":5.36591,"is_reserved":false,"is_disabled":false,"rental_uris":{"android":"levelo://app?vid=7688d36e-d295-4cfe-b88c-e7a9915c650f","ios":"levelo://app?vid=7688d36e-d295-4cfe-b88c-e7a9915c650f"},"vehicle_type_id":"4","last_reported":1778845563,"current_range_meters":9600,"station_id":"ce4bgn12rcd13ifvqbt0","pricing_plan_id":"cebpf4jnsgd1na2vs0mg"},{"bike_id":"359f2455-a9ad-4d69-a5ba-1eacadbb6b9d","system_id":"levelo_inurba_marseille","lat":43.27945,"lon":5.4105,"is_reserved":false,"is_disabled":false,"rental_uris":{"android":"levelo://app?vid=359f2455-a9ad-4d69-a5ba-1eacadbb6b9d","ios":"levelo://app?vid=359f2455-a9ad-4d69-a5ba-1eacadbb6b9d"},"vehicle_type_id":"4","last_reported":1778845563,"current_range_meters":9600,"station_id":"ce4bhnp2rcd13ifvqh0g","pricing_plan_id":"cebpf4jnsgd1na2vs0mg"},{"bike_id":"239bfd9b-219c-4f52-9cf5-37dc4ebececc","system_id":"levelo_inurba_marseille","lat":43.33754,"lon":5.37506,"is_reserved":false,"is_disabled":false,"rental_uris":{"android":"levelo://app?vid=239bfd9b-219c-4f52-9cf5-37dc4ebececc","ios":"levelo://app?vid=239bfd9b-219c-4f52-9cf5-37dc4ebececc"},"vehicle_type_id":"4","last_reported":1778845563,"current_range_meters":9600,"station_id":"","pricing_plan_id":"cebpf4jnsgd1na2vs0mg"},{"bike_id":"2f10ac9c-be5e-4086-bf95-596b2364fb83","system_id":"levelo_inurba_marseille","lat":43.26211,"lon":5.37429,"is_reserved":false,"is_disabled":false,"rental_uris":{"android":"levelo://app?vid=2f10ac9c-be5e-4086-bf95-596b2364fb83","ios":"levelo://app?vid=2f10ac9c-be5e-4086-bf95-596b2364fb83"},"vehicle_type_id":"4","last_reported":1778845563,"current_range_meters":9600,"station_id":"ce4bhgp2rcd13ifvqfc0","pricing_plan_id":"cebpf4jnsgd1na2vs0mg"},{"bike_id":"bfd11179-4fd5-4554-adf0-a80a1fbdd46b","system_id":"levelo_inurba_marseille","lat":43.23932,"lon":5.37438,"is_reserved":false,"is_disabled":true,"rental_uris":{"android":"levelo://app?vid=bfd11179-4fd5-4554-adf0-a80a1fbdd46b","ios":"levelo://app?vid=bfd11179-4fd5-4554-adf0-a80a1fbdd46b"},"vehicle_type_id":"4","last_reported":1778845563,"current_range_meters":9600,"station_id":"st_d6sm7csbq4hs73f8fpjg","pricing_plan_id":"cebpf4jnsgd1na2vs0mg"},{"bike_id":"d773df71-430d-420d-b0c5-ebb43f708dc9","system_id":"levelo_inurba_marseille","lat":43.32499,"lon":5.38256,"is_reserved":false,"is_disabled":false,"rental_uris":{"android":"levelo://app?vid=d773df71-430d-420d-b0c5-ebb43f708dc9","ios":"levelo://app?vid=d773df71-430d-420d-b0c5-ebb43f708dc9"},"vehicle_type_id":"4","last_reported":1778845563,"current_range_meters":9600,"station_id":"st_d4asgbiv49dc73anf9m0","pricing_plan_id":"cebpf4jnsgd1na2vs0mg"},{"bike_id":"f2a08d7c-084b-4697-8558-196df1ed20c8","system_id":"levelo_inurba_marseille","lat":43.30442,"lon":5.38882,"is_reserved":false,"is_disabled":false,"rental_uris":{"android":"levelo://app?vid=f2a08d7c-084b-4697-8558-196df1ed20c8","ios":"levelo://app?vid=f2a08d7c-084b-4697-8558-196df1ed20c8"},"vehicle_type_id":"4","last_reported":1778845563,"current_range_meters":9600,"station_id":"ce4bgk12rcd13ifvqbi0","pricing_plan_id":"cebpf4jnsgd1na2vs0mg"},{"bike_id":"d73b29aa-4c6e-4a2d-96e7-6cb7201818f5","system_id":"levelo_inurba_marseille","lat":43.3354,"lon":5.37464,"is_reserved":false,"is_disabled":false,"rental_uris":{"android":"levelo://app?vid=d73b29aa-4c6e-4a2d-96e7-6cb7201818f5","ios":"levelo://app?vid=d73b29aa-4c6e-4a2d-96e7-6cb7201818f5"},"vehicle_type_id":"4","last_reported":1778845563,"current_range_meters":9600,"station_id":"st_d46tts09ee8s73dlu43g","pricing_plan_id":"cebpf4jnsgd1na2vs0mg"},{"bike_id":"ad0c2d80-dc3f-4b68-a850-c13a1207fc48","system_id":"levelo_inurba_marseille","lat":43.30768,"lon":5.39331,"is_reserved":false,"is_disabled":false,"rental_uris":{"android":"levelo://app?vid=ad0c2d80-dc3f-4b68-a850-c13a1207fc48","ios":"levelo://app?vid=ad0c2d80-dc3f-4b68-a850-c13a1207fc48"},"vehicle_type_id":"4","last_reported":1778845563,"current_range_meters":9600,"station_id":"","pricing_plan_id":"cebpf4jnsgd1na2vs0mg"},{"bike_id":"04459aba-1735-4bef-8acc-fa4c0327a66e","system_id":"levelo_inurba_marseille","lat":43.31764,"lon":5.39018,"is_reserved":false,"is_disabled":false,"rental_uris":{"android":"levelo://app?vid=04459aba-1735-4bef-8acc-fa4c0327a66e","ios":"levelo://app?vid=04459aba-1735-4bef-8acc-fa4c0327a66e"},"vehicle_type_id":"4","last_reported":1778845563,"current_range_meters":9600,"station_id":"ce4bhqp2rcd13ifvqhng","pricing_plan_id":"cebpf4jnsgd1na2vs0mg"},{"bike_id":"babf9e10-9af9-4b5d-adff-c16cbde2c583","system_id":"levelo_inurba_marseille","lat":43.27675,"lon":5.3889,"is_reserved":false,"is_disabled":false,"rental_uris":{"android":"levelo://app?vid=babf9e10-9af9-4b5d-adff-c16cbde2c583","ios":"levelo://app?vid=babf9e10-9af9-4b5d-adff-c16cbde2c583"},"vehicle_type_id":"4","last_reported":1778845563,"current_range_meters":9600,"station_id":"ce4bhi12rcd13ifvqfo0","pricing_plan_id":"cebpf4jnsgd1na2vs0mg"},{"bike_id":"bc7bd5ff-8b3e-4811-8590-c45182048463","system_id":"levelo_inurba_marseille","lat":43.21725,"lon":5.34613,"is_reserved":false,"is_disabled":false,"rental_uris":{"android":"levelo://app?vid=bc7bd5ff-8b3e-4811-8590-c45182048463","ios":"levelo://app?vid=bc7bd5ff-8b3e-4811-8590-c45182048463"},"vehicle_type_id":"4","last_reported":1778845563,"current_range_meters":9600,"station_id":"st_cvj6r9ubvosntc0bgbag","pricing_plan_id":"cebpf4jnsgd1na2vs0mg"},{"bike_id":"68c0a99e-56fd-47c6-9e2e-edf47f01d6f1","system_id":"levelo_inurba_marseille","lat":43.33539,"lon":5.37465,"is_reserved":false,"is_disabled":false,"rental_uris":{"android":"levelo://app?vid=68c0a99e-56fd-47c6-9e2e-edf47f01d6f1","ios":"levelo://app?vid=68c0a99e-56fd-47c6-9e2e-edf47f01d6f1"},"vehicle_type_id":"4","last_reported":1778845563,"current_range_meters":9600,"station_id":"st_d46tts09ee8s73dlu43g","pricing_plan_id":"cebpf4jnsgd1na2vs0mg"},{"bike_id":"3c7d3f14-a964-41d8-a1ab-8b10e9d6bf63","system_id":"levelo_inurba_marseille","lat":43.32543,"lon":5.41447,"is_reserved":false,"is_disabled":false,"rental_uris":{"android":"levelo://app?vid=3c7d3f14-a964-41d8-a1ab-8b10e9d6bf63","ios":"levelo://app?vid=3c7d3f14-a964-41d8-a1ab-8b10e9d6bf63"},"vehicle_type_id":"4","last_reported":1778845563,"current_range_meters":9600,"station_id":"ce4bhq12rcd13ifvqhhg","pricing_plan_id":"cebpf4jnsgd1na2vs0mg"},{"bike_id":"cdc82f72-dfeb-45b4-8228-4c5fe8513458","system_id":"levelo_inurba_marseille","lat":43.24807,"lon":5.37453,"is_reserved":false,"is_disabled":false,"rental_uris":{"android":"levelo://app?vid=cdc82f72-dfeb-45b4-8228-4c5fe8513458","ios":"levelo://app?vid=cdc82f72-dfeb-45b4-8228-4c5fe8513458"},"vehicle_type_id":"4","last_reported":1778845563,"current_range_meters":10000,"station_id":"ce4bhgh2rcd13ifvqfb0","pricing_plan_id":"cebpf4jnsgd1na2vs0mg"},{"bike_id":"8470cd27-3877-483d-b11f-17473fb9a6cc","system_id":"levelo_inurba_marseille","lat":43.30783,"lon":5.38511,"is_reserved":false,"is_disabled":false,"rental_uris":{"android":"levelo://app?vid=8470cd27-3877-483d-b11f-17473fb9a6cc","ios":"levelo://app?vid=8470cd27-3877-483d-b11f-17473fb9a6cc"},"vehicle_type_id":"4","last_reported":1778845563,"current_range_meters":10000,"station_id":"","pricing_plan_id":"cebpf4jnsgd1na2vs0mg"},{"bike_id":"79d71523-a99c-4bd1-91c9-5f0ac0019f7e","system_id":"levelo_inurba_marseille","lat":43.33654,"lon":5.36305,"is_reserved":false,"is_disabled":false,"rental_uris":{"android":"levelo://app?vid=79d71523-a99c-4bd1-91c9-5f0ac0019f7e","ios":"levelo://app?vid=79d71523-a99c-4bd1-91c9-5f0ac0019f7e"},"vehicle_type_id":"4","last_reported":1778845563,"current_range_meters":10000,"station_id":"","pricing_plan_id":"cebpf4jnsgd1na2vs0mg"},{"bike_id":"1694672b-0a25-4c76-81b3-574487bdfda5","system_id":"levelo_inurba_marseille","lat":43.28157,"lon":5.42635,"is_reserved":false,"is_disabled":false,"rental_uris":{"android":"levelo://app?vid=1694672b-0a25-4c76-81b3-574487bdfda5","ios":"levelo://app?vid=1694672b-0a25-4c76-81b3-574487bdfda5"},"vehicle_type_id":"4","last_reported":1778845563,"current_range_meters":10000,"station_id":"ce4bhnh2rcd13ifvqgug","pricing_plan_id":"cebpf4jnsgd1na2vs0mg"},{"bike_id":"25e42092-a2b6-4c16-a185-ce5f94740865","system_id":"levelo_inurba_marseille","lat":43.29004,"lon":5.35604,"is_reserved":false,"is_disabled":false,"rental_uris":{"android":"levelo://app?vid=25e42092-a2b6-4c16-a185-ce5f94740865","ios":"levelo://app?vid=25e42092-a2b6-4c16-a185-ce5f94740865"},"vehicle_type_id":"4","last_reported":1778845563,"current_range_meters":10000,"station_id":"ce4bhb92rcd13ifvqen0","pricing_plan_id":"cebpf4jnsgd1na2vs0mg"},{"bike_id":"6dd1f847-b16c-4658-92f2-6440b8f50184","system_id":"levelo_inurba_marseille","lat":43.30089,"lon":5.38144,"is_reserved":false,"is_disabled":false,"rental_uris":{"android":"levelo://app?vid=6dd1f847-b16c-4658-92f2-6440b8f50184","ios":"levelo://app?vid=6dd1f847-b16c-4658-92f2-6440b8f50184"},"vehicle_type_id":"4","last_reported":1778845563,"current_range_meters":10000,"station_id":"","pricing_plan_id":"cebpf4jnsgd1na2vs0mg"},{"bike_id":"527f8766-5c8a-45eb-a008-98cdd9671659","system_id":"levelo_inurba_marseille","lat":43.30152,"lon":5.38084,"is_reserved":false,"is_disabled":false,"rental_uris":{"android":"levelo://app?vid=527f8766-5c8a-45eb-a008-98cdd9671659","ios":"levelo://app?vid=527f8766-5c8a-45eb-a008-98cdd9671659"},"vehicle_type_id":"4","last_reported":1778845563,"current_range_meters":10000,"station_id":"ce4bgjp2rcd13ifvqbh0","pricing_plan_id":"cebpf4jnsgd1na2vs0mg"},{"bike_id":"77dca5b5-5d3a-4ac1-83d5-6c8edf8b3317","system_id":"levelo_inurba_marseille","lat":43.30954,"lon":5.39029,"is_reserved":false,"is_disabled":false,"rental_uris":{"android":"levelo://app?vid=77dca5b5-5d3a-4ac1-83d5-6c8edf8b3317","ios":"levelo://app?vid=77dca5b5-5d3a-4ac1-83d5-6c8edf8b3317"},"vehicle_type_id":"4","last_reported":1778845563,"current_range_meters":10000,"station_id":"ce4bgup2rcd13ifvqco0","pricing_plan_id":"cebpf4jnsgd1na2vs0mg"},{"bike_id":"7516c7be-19ff-4315-98c4-9366c802d4a2","system_id":"levelo_inurba_marseille","lat":43.26567,"lon":5.3901,"is_reserved":false,"is_disabled":false,"rental_uris":{"android":"levelo://app?vid=7516c7be-19ff-4315-98c4-9366c802d4a2","ios":"levelo://app?vid=7516c7be-19ff-4315-98c4-9366c802d4a2"},"vehicle_type_id":"4","last_reported":1778845563,"current_range_meters":10000,"station_id":"ce4bhe12rcd13ifvqf30","pricing_plan_id":"cebpf4jnsgd1na2vs0mg"},{"bike_id":"a30b5088-70fc-4d11-a0fa-e19dd1cfa597","system_id":"levelo_inurba_marseille","lat":43.25505,"lon":5.37659,"is_reserved":false,"is_disabled":true,"rental_uris":{"android":"levelo://app?vid=a30b5088-70fc-4d11-a0fa-e19dd1cfa597","ios":"levelo://app?vid=a30b5088-70fc-4d11-a0fa-e19dd1cfa597"},"vehicle_type_id":"4","last_reported":1778845563,"current_range_meters":10000,"station_id":"ce4bhh12rcd13ifvqff0","pricing_plan_id":"cebpf4jnsgd1na2vs0mg"},{"bike_id":"e1a86b9d-3f1e-40bb-b3c7-f9db62ca3664","system_id":"levelo_inurba_marseille","lat":43.28715,"lon":5.46678,"is_reserved":false,"is_disabled":false,"rental_uris":{"android":"levelo://app?vid=e1a86b9d-3f1e-40bb-b3c7-f9db62ca3664","ios":"levelo://app?vid=e1a86b9d-3f1e-40bb-b3c7-f9db62ca3664"},"vehicle_type_id":"4","last_reported":1778845563,"current_range_meters":10000,"station_id":"st_d6tc3vkotcvc738tfjhg","pricing_plan_id":"cebpf4jnsgd1na2vs0mg"},{"bike_id":"9d53378e-eb0e-4f2b-9df5-e220e0180beb","system_id":"levelo_inurba_marseille","lat":43.301575,"lon":5.380376,"is_reserved":false,"is_disabled":false,"rental_uris":{"android":"levelo://app?vid=9d53378e-eb0e-4f2b-9df5-e220e0180beb","ios":"levelo://app?vid=9d53378e-eb0e-4f2b-9df5-e220e0180beb"},"vehicle_type_id":"4","last_reported":1778845563,"current_range_meters":10000,"station_id":"ce4bgjp2rcd13ifvqbh0","pricing_plan_id":"cebpf4jnsgd1na2vs0mg"},{"bike_id":"33442761-731d-4135-9445-c95619738b79","system_id":"levelo_inurba_marseille","lat":43.33521,"lon":5.3746,"is_reserved":false,"is_disabled":false,"rental_uris":{"android":"levelo://app?vid=33442761-731d-4135-9445-c95619738b79","ios":"levelo://app?vid=33442761-731d-4135-9445-c95619738b79"},"vehicle_type_id":"4","last_reported":1778845563,"current_range_meters":10000,"station_id":"st_d46tts09ee8s73dlu43g","pricing_plan_id":"cebpf4jnsgd1na2vs0mg"},{"bike_id":"e5abcdbb-f480-479b-b3f2-4934b2359228","system_id":"levelo_inurba_marseille","lat":43.3187,"lon":5.36808,"is_reserved":false,"is_disabled":false,"rental_uris":{"android":"levelo://app?vid=e5abcdbb-f480-479b-b3f2-4934b2359228","ios":"levelo://app?vid=e5abcdbb-f480-479b-b3f2-4934b2359228"},"vehicle_type_id":"4","last_reported":1778845563,"current_range_meters":10000,"station_id":"st_d6o2h0d0559c73evc1b0","pricing_plan_id":"cebpf4jnsgd1na2vs0mg"},{"bike_id":"ac3efe81-f336-4368-ba54-a42519e33da2","system_id":"levelo_inurba_marseille","lat":43.28524,"lon":5.39137,"is_reserved":false,"is_disabled":false,"rental_uris":{"android":"levelo://app?vid=ac3efe81-f336-4368-ba54-a42519e33da2","ios":"levelo://app?vid=ac3efe81-f336-4368-ba54-a42519e33da2"},"vehicle_type_id":"4","last_reported":1778845563,"current_range_meters":10000,"station_id":"","pricing_plan_id":"cebpf4jnsgd1na2vs0mg"},{"bike_id":"bf16a156-ee2a-4113-8429-a8223397107f","system_id":"levelo_inurba_marseille","lat":43.29554,"lon":5.37506,"is_reserved":false,"is_disabled":false,"rental_uris":{"android":"levelo://app?vid=bf16a156-ee2a-4113-8429-a8223397107f","ios":"levelo://app?vid=bf16a156-ee2a-4113-8429-a8223397107f"},"vehicle_type_id":"4","last_reported":1778845563,"current_range_meters":10000,"station_id":"ce4bgh92rcd13ifvqb50","pricing_plan_id":"cebpf4jnsgd1na2vs0mg"},{"bike_id":"d8ce12d6-e151-41f4-aced-878642d7d92c","system_id":"levelo_inurba_marseille","lat":43.21193,"lon":5.3507,"is_reserved":false,"is_disabled":false,"rental_uris":{"android":"levelo://app?vid=d8ce12d6-e151-41f4-aced-878642d7d92c","ios":"levelo://app?vid=d8ce12d6-e151-41f4-aced-878642d7d92c"},"vehicle_type_id":"4","last_reported":1778845563,"current_range_meters":10000,"station_id":"st_cvj6sg6p6f1abm77japg","pricing_plan_id":"cebpf4jnsgd1na2vs0mg"},{"bike_id":"51167915-6efa-401b-9c71-c6d60e6593da","system_id":"levelo_inurba_marseille","lat":43.30302,"lon":5.37887,"is_reserved":false,"is_disabled":false,"rental_uris":{"android":"levelo://app?vid=51167915-6efa-401b-9c71-c6d60e6593da","ios":"levelo://app?vid=51167915-6efa-401b-9c71-c6d60e6593da"},