{"last_updated":1732259365,"ttl":60,"version":"2.2","data":{"bikes":[{"bike_id":"85dcdff7-6530-4421-83a5-7d0730fc0378","system_id":"levelo_inurba_marseille","lat":43.27492,"lon":5.42454,"is_reserved":false,"is_disabled":false,"rental_uris":{"android":"levelo://app?vid=85dcdff7-6530-4421-83a5-7d0730fc0378","ios":"levelo://app?vid=85dcdff7-6530-4421-83a5-7d0730fc0378"},"vehicle_type_id":"4","last_reported":1732259365,"current_range_meters":18000,"station_id":"ce4bhn92rcd13ifvqgrg","pricing_plan_id":"cebpf4jnsgd1na2vs0mg"},{"bike_id":"a10be396-1705-483a-9984-718f9d010c8e","system_id":"levelo_inurba_marseille","lat":43.298786,"lon":5.397432,"is_reserved":false,"is_disabled":true,"rental_uris":{"android":"levelo://app?vid=a10be396-1705-483a-9984-718f9d010c8e","ios":"levelo://app?vid=a10be396-1705-483a-9984-718f9d010c8e"},"vehicle_type_id":"4","last_reported":1732259365,"current_range_meters":0,"station_id":"ce4bh0h2rcd13ifvqd50","pricing_plan_id":"cebpf4jnsgd1na2vs0mg"},{"bike_id":"156320ae-cdf1-448d-a5dd-5f82d48b8bf7","system_id":"levelo_inurba_marseille","lat":43.28612,"lon":5.35112,"is_reserved":false,"is_disabled":false,"rental_uris":{"android":"levelo://app?vid=156320ae-cdf1-448d-a5dd-5f82d48b8bf7","ios":"levelo://app?vid=156320ae-cdf1-448d-a5dd-5f82d48b8bf7"},"vehicle_type_id":"4","last_reported":1732259365,"current_range_meters":32800,"station_id":"ce4bhch2rcd13ifvqeug","pricing_plan_id":"cebpf4jnsgd1na2vs0mg"},{"bike_id":"9903085d-c2d5-4e51-9142-a76cb5b64c42","system_id":"levelo_inurba_marseille","lat":43.29035,"lon":5.39968,"is_reserved":false,"is_disabled":true,"rental_uris":{"android":"levelo://app?vid=9903085d-c2d5-4e51-9142-a76cb5b64c42","ios":"levelo://app?vid=9903085d-c2d5-4e51-9142-a76cb5b64c42"},"vehicle_type_id":"4","last_reported":1732259365,"current_range_meters":38800,"station_id":"ce4bh392rcd13ifvqdm0","pricing_plan_id":"cebpf4jnsgd1na2vs0mg"},{"bike_id":"8527133f-e94b-41ef-9b16-c99901d73e95","system_id":"levelo_inurba_marseille","lat":43.25581,"lon":5.38235,"is_reserved":false,"is_disabled":false,"rental_uris":{"android":"levelo://app?vid=8527133f-e94b-41ef-9b16-c99901d73e95","ios":"levelo://app?vid=8527133f-e94b-41ef-9b16-c99901d73e95"},"vehicle_type_id":"4","last_reported":1732259365,"current_range_meters":35600,"station_id":"ce4bhih2rcd13ifvqfs0","pricing_plan_id":"cebpf4jnsgd1na2vs0mg"},{"bike_id":"4a99103e-38ff-490a-8b77-3ba30ec3a74f","system_id":"levelo_inurba_marseille","lat":43.29034,"lon":5.35934,"is_reserved":false,"is_disabled":true,"rental_uris":{"android":"levelo://app?vid=4a99103e-38ff-490a-8b77-3ba30ec3a74f","ios":"levelo://app?vid=4a99103e-38ff-490a-8b77-3ba30ec3a74f"},"vehicle_type_id":"4","last_reported":1732259365,"current_range_meters":0,"station_id":"ce4bha92rcd13ifvqeg0","pricing_plan_id":"cebpf4jnsgd1na2vs0mg"},{"bike_id":"0e8aff05-1fe6-4dcd-8f6d-9f463cb6f23c","system_id":"levelo_inurba_marseille","lat":43.27495,"lon":5.42451,"is_reserved":false,"is_disabled":false,"rental_uris":{"android":"levelo://app?vid=0e8aff05-1fe6-4dcd-8f6d-9f463cb6f23c","ios":"levelo://app?vid=0e8aff05-1fe6-4dcd-8f6d-9f463cb6f23c"},"vehicle_type_id":"4","last_reported":1732259365,"current_range_meters":12800,"station_id":"ce4bhn92rcd13ifvqgrg","pricing_plan_id":"cebpf4jnsgd1na2vs0mg"},{"bike_id":"102c76c7-6535-4d8c-9de9-207325501bae","system_id":"levelo_inurba_marseille","lat":43.29634,"lon":5.40601,"is_reserved":false,"is_disabled":false,"rental_uris":{"android":"levelo://app?vid=102c76c7-6535-4d8c-9de9-207325501bae","ios":"levelo://app?vid=102c76c7-6535-4d8c-9de9-207325501bae"},"vehicle_type_id":"4","last_reported":1732259365,"current_range_meters":34800,"station_id":"ce4bh0h2rcd13ifvqd60","pricing_plan_id":"cebpf4jnsgd1na2vs0mg"},{"bike_id":"428d72ce-47cc-4c94-841a-e3c923cc1cb6","system_id":"levelo_inurba_marseille","lat":43.28698,"lon":5.37402,"is_reserved":false,"is_disabled":true,"rental_uris":{"android":"levelo://app?vid=428d72ce-47cc-4c94-841a-e3c923cc1cb6","ios":"levelo://app?vid=428d72ce-47cc-4c94-841a-e3c923cc1cb6"},"vehicle_type_id":"4","last_reported":1732259365,"current_range_meters":28800,"station_id":"ce4bh3p2rcd13ifvqdq0","pricing_plan_id":"cebpf4jnsgd1na2vs0mg"},{"bike_id":"cc45001e-86ba-42cc-9993-ed5261abbfe0","system_id":"levelo_inurba_marseille","lat":43.32367,"lon":5.38878,"is_reserved":false,"is_disabled":false,"rental_uris":{"android":"levelo://app?vid=cc45001e-86ba-42cc-9993-ed5261abbfe0","ios":"levelo://app?vid=cc45001e-86ba-42cc-9993-ed5261abbfe0"},"vehicle_type_id":"4","last_reported":1732259365,"current_range_meters":16000,"station_id":"ce4bhqp2rcd13ifvqhog","pricing_plan_id":"cebpf4jnsgd1na2vs0mg"},{"bike_id":"9f6bdd31-f160-46d4-9930-0d3c52dfcd9a","system_id":"levelo_inurba_marseille","lat":43.30935,"lon":5.40136,"is_reserved":false,"is_disabled":false,"rental_uris":{"android":"levelo://app?vid=9f6bdd31-f160-46d4-9930-0d3c52dfcd9a","ios":"levelo://app?vid=9f6bdd31-f160-46d4-9930-0d3c52dfcd9a"},"vehicle_type_id":"4","last_reported":1732259365,"current_range_meters":38800,"station_id":"ce4bgvp2rcd13ifvqct0","pricing_plan_id":"cebpf4jnsgd1na2vs0mg"},{"bike_id":"c0755ad7-8353-40d1-98a4-bba43ca0e3ab","system_id":"levelo_inurba_marseille","lat":43.33731,"lon":5.39182,"is_reserved":false,"is_disabled":false,"rental_uris":{"android":"levelo://app?vid=c0755ad7-8353-40d1-98a4-bba43ca0e3ab","ios":"levelo://app?vid=c0755ad7-8353-40d1-98a4-bba43ca0e3ab"},"vehicle_type_id":"4","last_reported":1732259365,"current_range_meters":14000,"station_id":"ce4bhr92rcd13ifvqhsg","pricing_plan_id":"cebpf4jnsgd1na2vs0mg"},{"bike_id":"32e59b57-e8e9-429f-bd78-4e66280864e0","system_id":"levelo_inurba_marseille","lat":43.30143,"lon":5.39879,"is_reserved":false,"is_disabled":true,"rental_uris":{"android":"levelo://app?vid=32e59b57-e8e9-429f-bd78-4e66280864e0","ios":"levelo://app?vid=32e59b57-e8e9-429f-bd78-4e66280864e0"},"vehicle_type_id":"4","last_reported":1732259365,"current_range_meters":30000,"station_id":"ce4bh0h2rcd13ifvqd40","pricing_plan_id":"cebpf4jnsgd1na2vs0mg"},{"bike_id":"78bb5da4-eb26-47d4-a1b5-b4f21cccc3d3","system_id":"levelo_inurba_marseille","lat":43.30372,"lon":5.41891,"is_reserved":false,"is_disabled":false,"rental_uris":{"android":"levelo://app?vid=78bb5da4-eb26-47d4-a1b5-b4f21cccc3d3","ios":"levelo://app?vid=78bb5da4-eb26-47d4-a1b5-b4f21cccc3d3"},"vehicle_type_id":"4","last_reported":1732259365,"current_range_meters":39200,"station_id":"ce4bhop2rcd13ifvqh7g","pricing_plan_id":"cebpf4jnsgd1na2vs0mg"},{"bike_id":"99105d98-2d54-466e-8046-97245f7e74d6","system_id":"levelo_inurba_marseille","lat":43.28726,"lon":5.36085,"is_reserved":false,"is_disabled":false,"rental_uris":{"android":"levelo://app?vid=99105d98-2d54-466e-8046-97245f7e74d6","ios":"levelo://app?vid=99105d98-2d54-466e-8046-97245f7e74d6"},"vehicle_type_id":"4","last_reported":1732259365,"current_range_meters":9200,"station_id":"cki0cbj6b192h4jlfktg","pricing_plan_id":"cebpf4jnsgd1na2vs0mg"},{"bike_id":"1292749a-ef07-41cf-b29a-e692dd853fc5","system_id":"levelo_inurba_marseille","lat":43.24918,"lon":5.38662,"is_reserved":false,"is_disabled":false,"rental_uris":{"android":"levelo://app?vid=1292749a-ef07-41cf-b29a-e692dd853fc5","ios":"levelo://app?vid=1292749a-ef07-41cf-b29a-e692dd853fc5"},"vehicle_type_id":"4","last_reported":1732259365,"current_range_meters":24800,"station_id":"","pricing_plan_id":"cebpf4jnsgd1na2vs0mg"},{"bike_id":"f57bfda7-2167-46d3-b8da-69e8fdfd5c82","system_id":"levelo_inurba_marseille","lat":43.27492,"lon":5.42454,"is_reserved":false,"is_disabled":false,"rental_uris":{"android":"levelo://app?vid=f57bfda7-2167-46d3-b8da-69e8fdfd5c82","ios":"levelo://app?vid=f57bfda7-2167-46d3-b8da-69e8fdfd5c82"},"vehicle_type_id":"4","last_reported":1732259365,"current_range_meters":34000,"station_id":"ce4bhn92rcd13ifvqgrg","pricing_plan_id":"cebpf4jnsgd1na2vs0mg"},{"bike_id":"d2321b4c-ae3a-4b43-8bcd-12cb7984481d","system_id":"levelo_inurba_marseille","lat":43.30762,"lon":5.37018,"is_reserved":false,"is_disabled":true,"rental_uris":{"android":"levelo://app?vid=d2321b4c-ae3a-4b43-8bcd-12cb7984481d","ios":"levelo://app?vid=d2321b4c-ae3a-4b43-8bcd-12cb7984481d"},"vehicle_type_id":"4","last_reported":1732259365,"current_range_meters":18800,"station_id":"","pricing_plan_id":"cebpf4jnsgd1na2vs0mg"},{"bike_id":"4b6a1c3b-16fe-4109-a622-8af301a83ce5","system_id":"levelo_inurba_marseille","lat":43.29099,"lon":5.38146,"is_reserved":false,"is_disabled":true,"rental_uris":{"android":"levelo://app?vid=4b6a1c3b-16fe-4109-a622-8af301a83ce5","ios":"levelo://app?vid=4b6a1c3b-16fe-4109-a622-8af301a83ce5"},"vehicle_type_id":"4","last_reported":1732259365,"current_range_meters":0,"station_id":"ce4bh512rcd13ifvqe2g","pricing_plan_id":"cebpf4jnsgd1na2vs0mg"},{"bike_id":"b82c6aca-0424-472d-aecd-3a5f68babc21","system_id":"levelo_inurba_marseille","lat":43.28831,"lon":5.35847,"is_reserved":false,"is_disabled":false,"rental_uris":{"android":"levelo://app?vid=b82c6aca-0424-472d-aecd-3a5f68babc21","ios":"levelo://app?vid=b82c6aca-0424-472d-aecd-3a5f68babc21"},"vehicle_type_id":"4","last_reported":1732259365,"current_range_meters":17200,"station_id":"ce4bhb12rcd13ifvqem0","pricing_plan_id":"cebpf4jnsgd1na2vs0mg"},{"bike_id":"150cf216-a204-4fc3-b8fc-e164310ed040","system_id":"levelo_inurba_marseille","lat":43.257101,"lon":5.378742,"is_reserved":false,"is_disabled":false,"rental_uris":{"android":"levelo://app?vid=150cf216-a204-4fc3-b8fc-e164310ed040","ios":"levelo://app?vid=150cf216-a204-4fc3-b8fc-e164310ed040"},"vehicle_type_id":"4","last_reported":1732259365,"current_range_meters":7200,"station_id":"","pricing_plan_id":"cebpf4jnsgd1na2vs0mg"},{"bike_id":"a1b98c93-ef7e-45de-9f91-96e2bc6df935","system_id":"levelo_inurba_marseille","lat":43.34554,"lon":5.37801,"is_reserved":false,"is_disabled":false,"rental_uris":{"android":"levelo://app?vid=a1b98c93-ef7e-45de-9f91-96e2bc6df935","ios":"levelo://app?vid=a1b98c93-ef7e-45de-9f91-96e2bc6df935"},"vehicle_type_id":"4","last_reported":1732259365,"current_range_meters":7200,"station_id":"","pricing_plan_id":"cebpf4jnsgd1na2vs0mg"},{"bike_id":"b3836288-2e4b-4a38-9f92-7718d51c36f1","system_id":"levelo_inurba_marseille","lat":43.2894,"lon":5.36635,"is_reserved":false,"is_disabled":false,"rental_uris":{"android":"levelo://app?vid=b3836288-2e4b-4a38-9f92-7718d51c36f1","ios":"levelo://app?vid=b3836288-2e4b-4a38-9f92-7718d51c36f1"},"vehicle_type_id":"4","last_reported":1732259365,"current_range_meters":10000,"station_id":"ce4bhap2rcd13ifvqek0","pricing_plan_id":"cebpf4jnsgd1na2vs0mg"},{"bike_id":"5c3000a0-a190-4007-a723-aa2707fd1ce3","system_id":"levelo_inurba_marseille","lat":43.22934,"lon":5.35382,"is_reserved":false,"is_disabled":false,"rental_uris":{"android":"levelo://app?vid=5c3000a0-a190-4007-a723-aa2707fd1ce3","ios":"levelo://app?vid=5c3000a0-a190-4007-a723-aa2707fd1ce3"},"vehicle_type_id":"4","last_reported":1732259365,"current_range_meters":38800,"station_id":"cpo3532slgdg3j2ikp40","pricing_plan_id":"cebpf4jnsgd1na2vs0mg"},{"bike_id":"8a74f444-d13c-4e16-8012-ddbd53e5d7db","system_id":"levelo_inurba_marseille","lat":43.28952,"lon":5.39629,"is_reserved":false,"is_disabled":false,"rental_uris":{"android":"levelo://app?vid=8a74f444-d13c-4e16-8012-ddbd53e5d7db","ios":"levelo://app?vid=8a74f444-d13c-4e16-8012-ddbd53e5d7db"},"vehicle_type_id":"4","last_reported":1732259365,"current_range_meters":20400,"station_id":"ce4bh3h2rcd13ifvqdn0","pricing_plan_id":"cebpf4jnsgd1na2vs0mg"},{"bike_id":"3f9665d4-caea-4790-8005-441300a8b21d","system_id":"levelo_inurba_marseille","lat":43.29571,"lon":5.37512,"is_reserved":false,"is_disabled":false,"rental_uris":{"android":"levelo://app?vid=3f9665d4-caea-4790-8005-441300a8b21d","ios":"levelo://app?vid=3f9665d4-caea-4790-8005-441300a8b21d"},"vehicle_type_id":"4","last_reported":1732259365,"current_range_meters":24000,"station_id":"ce4bgh92rcd13ifvqb50","pricing_plan_id":"cebpf4jnsgd1na2vs0mg"},{"bike_id":"9bf00278-281e-45df-b9cb-0f55e5af1df2","system_id":"levelo_inurba_marseille","lat":43.25578,"lon":5.38237,"is_reserved":false,"is_disabled":false,"rental_uris":{"android":"levelo://app?vid=9bf00278-281e-45df-b9cb-0f55e5af1df2","ios":"levelo://app?vid=9bf00278-281e-45df-b9cb-0f55e5af1df2"},"vehicle_type_id":"4","last_reported":1732259365,"current_range_meters":36800,"station_id":"ce4bhih2rcd13ifvqfs0","pricing_plan_id":"cebpf4jnsgd1na2vs0mg"},{"bike_id":"4e945ae0-d6ee-4575-a0fe-1d4e3c15c37b","system_id":"levelo_inurba_marseille","lat":43.31068,"lon":5.3836,"is_reserved":false,"is_disabled":true,"rental_uris":{"android":"levelo://app?vid=4e945ae0-d6ee-4575-a0fe-1d4e3c15c37b","ios":"levelo://app?vid=4e945ae0-d6ee-4575-a0fe-1d4e3c15c37b"},"vehicle_type_id":"4","last_reported":1732259365,"current_range_meters":0,"station_id":"ce4bgv92rcd13ifvqcr0","pricing_plan_id":"cebpf4jnsgd1na2vs0mg"},{"bike_id":"922bd877-8ef2-4e72-a9c2-b448135ba6e2","system_id":"levelo_inurba_marseille","lat":43.23195,"lon":5.35544,"is_reserved":false,"is_disabled":false,"rental_uris":{"android":"levelo://app?vid=922bd877-8ef2-4e72-a9c2-b448135ba6e2","ios":"levelo://app?vid=922bd877-8ef2-4e72-a9c2-b448135ba6e2"},"vehicle_type_id":"4","last_reported":1732259365,"current_range_meters":15200,"station_id":"ce4bhu92rcd13ifvqi70","pricing_plan_id":"cebpf4jnsgd1na2vs0mg"},{"bike_id":"78b694d9-2e76-453a-a618-4d79bfb69ecf","system_id":"levelo_inurba_marseille","lat":43.25576,"lon":5.38238,"is_reserved":false,"is_disabled":false,"rental_uris":{"android":"levelo://app?vid=78b694d9-2e76-453a-a618-4d79bfb69ecf","ios":"levelo://app?vid=78b694d9-2e76-453a-a618-4d79bfb69ecf"},"vehicle_type_id":"4","last_reported":1732259365,"current_range_meters":8400,"station_id":"ce4bhih2rcd13ifvqfs0","pricing_plan_id":"cebpf4jnsgd1na2vs0mg"},{"bike_id":"8d135339-b76b-4a63-a2b1-207af862afc1","system_id":"levelo_inurba_marseille","lat":43.31699,"lon":5.40464,"is_reserved":false,"is_disabled":false,"rental_uris":{"android":"levelo://app?vid=8d135339-b76b-4a63-a2b1-207af862afc1","ios":"levelo://app?vid=8d135339-b76b-4a63-a2b1-207af862afc1"},"vehicle_type_id":"4","last_reported":1732259365,"current_range_meters":37600,"station_id":"ce4bh012rcd13ifvqd00","pricing_plan_id":"cebpf4jnsgd1na2vs0mg"},{"bike_id":"fd8ba84b-64b5-4eff-8dca-47ef55a76aa8","system_id":"levelo_inurba_marseille","lat":43.26933,"lon":5.38925,"is_reserved":false,"is_disabled":false,"rental_uris":{"android":"levelo://app?vid=fd8ba84b-64b5-4eff-8dca-47ef55a76aa8","ios":"levelo://app?vid=fd8ba84b-64b5-4eff-8dca-47ef55a76aa8"},"vehicle_type_id":"4","last_reported":1732259365,"current_range_meters":29600,"station_id":"ce4bhhh2rcd13ifvqfl0","pricing_plan_id":"cebpf4jnsgd1na2vs0mg"},{"bike_id":"7f99c4d5-66e7-4c3e-91b6-7ae2b7d6876f","system_id":"levelo_inurba_marseille","lat":43.30593,"lon":5.39357,"is_reserved":false,"is_disabled":false,"rental_uris":{"android":"levelo://app?vid=7f99c4d5-66e7-4c3e-91b6-7ae2b7d6876f","ios":"levelo://app?vid=7f99c4d5-66e7-4c3e-91b6-7ae2b7d6876f"},"vehicle_type_id":"4","last_reported":1732259365,"current_range_meters":32000,"station_id":"ce4bh0p2rcd13ifvqd80","pricing_plan_id":"cebpf4jnsgd1na2vs0mg"},{"bike_id":"f7911ba1-f247-4ef6-81ed-7e873ef569c6","system_id":"levelo_inurba_marseille","lat":43.27568,"lon":5.3843,"is_reserved":false,"is_disabled":true,"rental_uris":{"android":"levelo://app?vid=f7911ba1-f247-4ef6-81ed-7e873ef569c6","ios":"levelo://app?vid=f7911ba1-f247-4ef6-81ed-7e873ef569c6"},"vehicle_type_id":"4","last_reported":1732259365,"current_range_meters":38800,"station_id":"ce4bhh92rcd13ifvqfi0","pricing_plan_id":"cebpf4jnsgd1na2vs0mg"},{"bike_id":"1cd0daee-d68a-4e66-9883-fbe67fd8260f","system_id":"levelo_inurba_marseille","lat":43.305794,"lon":5.370686,"is_reserved":false,"is_disabled":true,"rental_uris":{"android":"levelo://app?vid=1cd0daee-d68a-4e66-9883-fbe67fd8260f","ios":"levelo://app?vid=1cd0daee-d68a-4e66-9883-fbe67fd8260f"},"vehicle_type_id":"4","last_reported":1732259365,"current_range_meters":0,"station_id":"","pricing_plan_id":"cebpf4jnsgd1na2vs0mg"},{"bike_id":"f6a92db1-11ed-4c87-84fe-7bc25d11cfa7","system_id":"levelo_inurba_marseille","lat":43.3082,"lon":5.38147,"is_reserved":false,"is_disabled":true,"rental_uris":{"android":"levelo://app?vid=f6a92db1-11ed-4c87-84fe-7bc25d11cfa7","ios":"levelo://app?vid=f6a92db1-11ed-4c87-84fe-7bc25d11cfa7"},"vehicle_type_id":"4","last_reported":1732259365,"current_range_meters":6400,"station_id":"ce4bgt12rcd13ifvqce0","pricing_plan_id":"cebpf4jnsgd1na2vs0mg"},{"bike_id":"3f38543a-bf26-493a-b89b-94508514b0c5","system_id":"levelo_inurba_marseille","lat":43.24078,"lon":5.3776,"is_reserved":false,"is_disabled":false,"rental_uris":{"android":"levelo://app?vid=3f38543a-bf26-493a-b89b-94508514b0c5","ios":"levelo://app?vid=3f38543a-bf26-493a-b89b-94508514b0c5"},"vehicle_type_id":"4","last_reported":1732259365,"current_range_meters":31200,"station_id":"ce4bhnp2rcd13ifvqgvg","pricing_plan_id":"cebpf4jnsgd1na2vs0mg"},{"bike_id":"c64716d4-325d-4682-92a0-817abe26f04c","system_id":"levelo_inurba_marseille","lat":43.27496,"lon":5.42452,"is_reserved":false,"is_disabled":true,"rental_uris":{"android":"levelo://app?vid=c64716d4-325d-4682-92a0-817abe26f04c","ios":"levelo://app?vid=c64716d4-325d-4682-92a0-817abe26f04c"},"vehicle_type_id":"4","last_reported":1732259365,"current_range_meters":1200,"station_id":"ce4bhn92rcd13ifvqgrg","pricing_plan_id":"cebpf4jnsgd1na2vs0mg"},{"bike_id":"73530774-b6d2-4f7b-b5b8-20757dba63f7","system_id":"levelo_inurba_marseille","lat":43.323384,"lon":5.406257,"is_reserved":false,"is_disabled":false,"rental_uris":{"android":"levelo://app?vid=73530774-b6d2-4f7b-b5b8-20757dba63f7","ios":"levelo://app?vid=73530774-b6d2-4f7b-b5b8-20757dba63f7"},"vehicle_type_id":"4","last_reported":1732259365,"current_range_meters":27600,"station_id":"ce4bhq92rcd13ifvqhjg","pricing_plan_id":"cebpf4jnsgd1na2vs0mg"},{"bike_id":"e651a064-df8b-4f96-8f09-ab621b1ad80c","system_id":"levelo_inurba_marseille","lat":43.30322,"lon":5.404429,"is_reserved":false,"is_disabled":false,"rental_uris":{"android":"levelo://app?vid=e651a064-df8b-4f96-8f09-ab621b1ad80c","ios":"levelo://app?vid=e651a064-df8b-4f96-8f09-ab621b1ad80c"},"vehicle_type_id":"4","last_reported":1732259365,"current_range_meters":38000,"station_id":"ce4bh012rcd13ifvqd10","pricing_plan_id":"cebpf4jnsgd1na2vs0mg"},{"bike_id":"f4fe645d-70f4-4b9a-80eb-3cb93ceb082b","system_id":"levelo_inurba_marseille","lat":43.26952,"lon":5.38633,"is_reserved":false,"is_disabled":false,"rental_uris":{"android":"levelo://app?vid=f4fe645d-70f4-4b9a-80eb-3cb93ceb082b","ios":"levelo://app?vid=f4fe645d-70f4-4b9a-80eb-3cb93ceb082b"},"vehicle_type_id":"4","last_reported":1732259365,"current_range_meters":34000,"station_id":"ce4bhh92rcd13ifvqfh0","pricing_plan_id":"cebpf4jnsgd1na2vs0mg"},{"bike_id":"93c41fb7-e4d2-473a-b7e1-4a5a649c5649","system_id":"levelo_inurba_marseille","lat":43.32534,"lon":5.41454,"is_reserved":false,"is_disabled":false,"rental_uris":{"android":"levelo://app?vid=93c41fb7-e4d2-473a-b7e1-4a5a649c5649","ios":"levelo://app?vid=93c41fb7-e4d2-473a-b7e1-4a5a649c5649"},"vehicle_type_id":"4","last_reported":1732259365,"current_range_meters":38800,"station_id":"ce4bhq12rcd13ifvqhhg","pricing_plan_id":"cebpf4jnsgd1na2vs0mg"},{"bike_id":"bdac8ff3-e713-4a02-9f76-78fc6782aa52","system_id":"levelo_inurba_marseille","lat":43.23152,"lon":5.43728,"is_reserved":false,"is_disabled":false,"rental_uris":{"android":"levelo://app?vid=bdac8ff3-e713-4a02-9f76-78fc6782aa52","ios":"levelo://app?vid=bdac8ff3-e713-4a02-9f76-78fc6782aa52"},"vehicle_type_id":"4","last_reported":1732259365,"current_range_meters":15200,"station_id":"ce4bhmp2rcd13ifvqgog","pricing_plan_id":"cebpf4jnsgd1na2vs0mg"},{"bike_id":"0635106e-1816-4531-b2f8-3e573259e908","system_id":"levelo_inurba_marseille","lat":43.28729,"lon":5.37941,"is_reserved":false,"is_disabled":false,"rental_uris":{"android":"levelo://app?vid=0635106e-1816-4531-b2f8-3e573259e908","ios":"levelo://app?vid=0635106e-1816-4531-b2f8-3e573259e908"},"vehicle_type_id":"4","last_reported":1732259365,"current_range_meters":27600,"station_id":"ce4bh9p2rcd13ifvqec0","pricing_plan_id":"cebpf4jnsgd1na2vs0mg"},{"bike_id":"3cff822c-3dec-4033-acd4-f269ae4e4d0b","system_id":"levelo_inurba_marseille","lat":43.30782,"lon":5.37658,"is_reserved":false,"is_disabled":false,"rental_uris":{"android":"levelo://app?vid=3cff822c-3dec-4033-acd4-f269ae4e4d0b","ios":"levelo://app?vid=3cff822c-3dec-4033-acd4-f269ae4e4d0b"},"vehicle_type_id":"4","last_reported":1732259365,"current_range_meters":38400,"station_id":"ce4bgv92rcd13ifvqcq0","pricing_plan_id":"cebpf4jnsgd1na2vs0mg"},{"bike_id":"cbd6d88c-3a6a-45bb-9f95-2756c09de0b8","system_id":"levelo_inurba_marseille","lat":43.27608,"lon":5.4174,"is_reserved":false,"is_disabled":true,"rental_uris":{"android":"levelo://app?vid=cbd6d88c-3a6a-45bb-9f95-2756c09de0b8","ios":"levelo://app?vid=cbd6d88c-3a6a-45bb-9f95-2756c09de0b8"},"vehicle_type_id":"4","last_reported":1732259365,"current_range_meters":24000,"station_id":"","pricing_plan_id":"cebpf4jnsgd1na2vs0mg"},{"bike_id":"a7bc0295-1d1a-499e-9e60-5bf3c16843cd","system_id":"levelo_inurba_marseille","lat":43.30594,"lon":5.39354,"is_reserved":false,"is_disabled":false,"rental_uris":{"android":"levelo://app?vid=a7bc0295-1d1a-499e-9e60-5bf3c16843cd","ios":"levelo://app?vid=a7bc0295-1d1a-499e-9e60-5bf3c16843cd"},"vehicle_type_id":"4","last_reported":1732259365,"current_range_meters":27600,"station_id":"ce4bh0p2rcd13ifvqd80","pricing_plan_id":"cebpf4jnsgd1na2vs0mg"},{"bike_id":"94f0960c-7704-444e-ba1c-39e54d989b0b","system_id":"levelo_inurba_marseille","lat":43.297117,"lon":5.366163,"is_reserved":false,"is_disabled":true,"rental_uris":{"android":"levelo://app?vid=94f0960c-7704-444e-ba1c-39e54d989b0b","ios":"levelo://app?vid=94f0960c-7704-444e-ba1c-39e54d989b0b"},"vehicle_type_id":"4","last_reported":1732259365,"current_range_meters":28000,"station_id":"ce4bgn12rcd13ifvqbt0","pricing_plan_id":"cebpf4jnsgd1na2vs0mg"},{"bike_id":"478beee7-0d9b-4d4c-a2fc-ced293c0b226","system_id":"levelo_inurba_marseille","lat":43.28715,"lon":5.36112,"is_reserved":false,"is_disabled":false,"rental_uris":{"android":"levelo://app?vid=478beee7-0d9b-4d4c-a2fc-ced293c0b226","ios":"levelo://app?vid=478beee7-0d9b-4d4c-a2fc-ced293c0b226"},"vehicle_type_id":"4","last_reported":1732259365,"current_range_meters":17600,"station_id":"cki0cbj6b192h4jlfktg","pricing_plan_id":"cebpf4jnsgd1na2vs0mg"},{"bike_id":"479a0a9a-1a6f-4a28-8722-16c455e1d2a8","system_id":"levelo_inurba_marseille","lat":43.30466,"lon":5.37907,"is_reserved":false,"is_disabled":false,"rental_uris":{"android":"levelo://app?vid=479a0a9a-1a6f-4a28-8722-16c455e1d2a8","ios":"levelo://app?vid=479a0a9a-1a6f-4a28-8722-16c455e1d2a8"},"vehicle_type_id":"4","last_reported":1732259365,"current_range_meters":35200,"station_id":"ce4bgup2rcd13ifvqcn0","pricing_plan_id":"cebpf4jnsgd1na2vs0mg"},{"bike_id":"25c1e65b-83ae-4fec-9c1c-f8308c082ae7","system_id":"levelo_inurba_marseille","lat":43.32111,"lon":5.36766,"is_reserved":false,"is_disabled":false,"rental_uris":{"android":"levelo://app?vid=25c1e65b-83ae-4fec-9c1c-f8308c082ae7","ios":"levelo://app?vid=25c1e65b-83ae-4fec-9c1c-f8308c082ae7"},"vehicle_type_id":"4","last_reported":1732259365,"current_range_meters":24800,"station_id":"ce4bhrh2rcd13ifvqhug","pricing_plan_id":"cebpf4jnsgd1na2vs0mg"},{"bike_id":"6121e704-2ad8-44a9-85b3-645d99065972","system_id":"levelo_inurba_marseille","lat":43.27613,"lon":5.361155,"is_reserved":false,"is_disabled":false,"rental_uris":{"android":"levelo://app?vid=6121e704-2ad8-44a9-85b3-645d99065972","ios":"levelo://app?vid=6121e704-2ad8-44a9-85b3-645d99065972"},"vehicle_type_id":"4","last_reported":1732259365,"current_range_meters":38800,"station_id":"ce4bgj92rcd13ifvqbe0","pricing_plan_id":"cebpf4jnsgd1na2vs0mg"},{"bike_id":"e7c62042-8863-4caa-8a92-1aff8a022424","system_id":"levelo_inurba_marseille","lat":43.27957,"lon":5.4105,"is_reserved":false,"is_disabled":false,"rental_uris":{"android":"levelo://app?vid=e7c62042-8863-4caa-8a92-1aff8a022424","ios":"levelo://app?vid=e7c62042-8863-4caa-8a92-1aff8a022424"},"vehicle_type_id":"4","last_reported":1732259365,"current_range_meters":30800,"station_id":"ce4bhnp2rcd13ifvqh0g","pricing_plan_id":"cebpf4jnsgd1na2vs0mg"},{"bike_id":"d3f88ac1-af0e-4fe3-957f-9fb722f55ef1","system_id":"levelo_inurba_marseille","lat":43.32478,"lon":5.36569,"is_reserved":false,"is_disabled":false,"rental_uris":{"android":"levelo://app?vid=d3f88ac1-af0e-4fe3-957f-9fb722f55ef1","ios":"levelo://app?vid=d3f88ac1-af0e-4fe3-957f-9fb722f55ef1"},"vehicle_type_id":"4","last_reported":1732259365,"current_range_meters":30400,"station_id":"ce4bhs12rcd13ifvqhvg","pricing_plan_id":"cebpf4jnsgd1na2vs0mg"},{"bike_id":"ec5676ee-ec31-4084-94ab-2962464a7ff1","system_id":"levelo_inurba_marseille","lat":43.29807,"lon":5.38102,"is_reserved":false,"is_disabled":false,"rental_uris":{"android":"levelo://app?vid=ec5676ee-ec31-4084-94ab-2962464a7ff1","ios":"levelo://app?vid=ec5676ee-ec31-4084-94ab-2962464a7ff1"},"vehicle_type_id":"4","last_reported":1732259365,"current_range_meters":6400,"station_id":"ce4bgip2rcd13ifvqbb0","pricing_plan_id":"cebpf4jnsgd1na2vs0mg"},{"bike_id":"3501b69b-284e-4de9-9b51-7292ad8f3d91","system_id":"levelo_inurba_marseille","lat":43.2582,"lon":5.39435,"is_reserved":false,"is_disabled":false,"rental_uris":{"android":"levelo://app?vid=3501b69b-284e-4de9-9b51-7292ad8f3d91","ios":"levelo://app?vid=3501b69b-284e-4de9-9b51-7292ad8f3d91"},"vehicle_type_id":"4","last_reported":1732259365,"current_range_meters":38000,"station_id":"ce4bhip2rcd13ifvqft0","pricing_plan_id":"cebpf4jnsgd1na2vs0mg"},{"bike_id":"584349bc-2591-4018-b108-13dd4f4a1bfa","system_id":"levelo_inurba_marseille","lat":43.309276,"lon":5.401442,"is_reserved":false,"is_disabled":false,"rental_uris":{"android":"levelo://app?vid=584349bc-2591-4018-b108-13dd4f4a1bfa","ios":"levelo://app?vid=584349bc-2591-4018-b108-13dd4f4a1bfa"},"vehicle_type_id":"4","last_reported":1732259365,"current_range_meters":31200,"station_id":"ce4bgvp2rcd13ifvqct0","pricing_plan_id":"cebpf4jnsgd1na2vs0mg"},{"bike_id":"dd2a1a2b-fe7a-4aa9-a1f6-686a864dd396","system_id":"levelo_inurba_marseille","lat":43.30483,"lon":5.37911,"is_reserved":false,"is_disabled":false,"rental_uris":{"android":"levelo://app?vid=dd2a1a2b-fe7a-4aa9-a1f6-686a864dd396","ios":"levelo://app?vid=dd2a1a2b-fe7a-4aa9-a1f6-686a864dd396"},"vehicle_type_id":"4","last_reported":1732259365,"current_range_meters":38400,"station_id":"ce4bgup2rcd13ifvqcn0","pricing_plan_id":"cebpf4jnsgd1na2vs0mg"},{"bike_id":"7c23d1ae-911a-47ae-ac14-91f001667875","system_id":"levelo_inurba_marseille","lat":43.30598,"lon":5.39362,"is_reserved":false,"is_disabled":false,"rental_uris":{"android":"levelo://app?vid=7c23d1ae-911a-47ae-ac14-91f001667875","ios":"levelo://app?vid=7c23d1ae-911a-47ae-ac14-91f001667875"},"vehicle_type_id":"4","last_reported":1732259365,"current_range_meters":34000,"station_id":"ce4bh0p2rcd13ifvqd80","pricing_plan_id":"cebpf4jnsgd1na2vs0mg"},{"bike_id":"567b5bec-6f69-4097-9d92-252add5a5c8a","system_id":"levelo_inurba_marseille","lat":43.255753,"lon":5.382335,"is_reserved":false,"is_disabled":false,"rental_uris":{"android":"levelo://app?vid=567b5bec-6f69-4097-9d92-252add5a5c8a","ios":"levelo://app?vid=567b5bec-6f69-4097-9d92-252add5a5c8a"},"vehicle_type_id":"4","last_reported":1732259365,"current_range_meters":37600,"station_id":"ce4bhih2rcd13ifvqfs0","pricing_plan_id":"cebpf4jnsgd1na2vs0mg"},{"bike_id":"50797971-4d6c-4d44-97df-20b0ab4a9889","system_id":"levelo_inurba_marseille","lat":43.26061,"lon":5.394,"is_reserved":false,"is_disabled":false,"rental_uris":{"android":"levelo://app?vid=50797971-4d6c-4d44-97df-20b0ab4a9889","ios":"levelo://app?vid=50797971-4d6c-4d44-97df-20b0ab4a9889"},"vehicle_type_id":"4","last_reported":1732259365,"current_range_meters":38800,"station_id":"ce4bhh92rcd13ifvqfj0","pricing_plan_id":"cebpf4jnsgd1na2vs0mg"},{"bike_id":"7d5ba0aa-0f48-4a7f-82de-9d26e1521cfb","system_id":"levelo_inurba_marseille","lat":43.322874,"lon":5.382669,"is_reserved":false,"is_disabled":false,"rental_uris":{"android":"levelo://app?vid=7d5ba0aa-0f48-4a7f-82de-9d26e1521cfb","ios":"levelo://app?vid=7d5ba0aa-0f48-4a7f-82de-9d26e1521cfb"},"vehicle_type_id":"4","last_reported":1732259365,"current_range_meters":23200,"station_id":"ce4bhr12rcd13ifvqhqg","pricing_plan_id":"cebpf4jnsgd1na2vs0mg"},{"bike_id":"550f0269-af81-4f74-bed5-fe17c4459dfd","system_id":"levelo_inurba_marseille","lat":43.25935,"lon":5.40911,"is_reserved":false,"is_disabled":false,"rental_uris":{"android":"levelo://app?vid=550f0269-af81-4f74-bed5-fe17c4459dfd","ios":"levelo://app?vid=550f0269-af81-4f74-bed5-fe17c4459dfd"},"vehicle_type_id":"4","last_reported":1732259365,"current_range_meters":37600,"station_id":"ce4bhm92rcd13ifvqglg","pricing_plan_id":"cebpf4jnsgd1na2vs0mg"},{"bike_id":"9c37a5af-6b01-4e75-9657-7ef6bddc1bc6","system_id":"levelo_inurba_marseille","lat":43.330216,"lon":5.390419,"is_reserved":false,"is_disabled":false,"rental_uris":{"android":"levelo://app?vid=9c37a5af-6b01-4e75-9657-7ef6bddc1bc6","ios":"levelo://app?vid=9c37a5af-6b01-4e75-9657-7ef6bddc1bc6"},"vehicle_type_id":"4","last_reported":1732259365,"current_range_meters":24400,"station_id":"ce4bhr92rcd13ifvqhrg","pricing_plan_id":"cebpf4jnsgd1na2vs0mg"},{"bike_id":"d6d41b2e-30ea-4987-8625-f242318469f8","system_id":"levelo_inurba_marseille","lat":43.28851,"lon":5.35855,"is_reserved":false,"is_disabled":false,"rental_uris":{"android":"levelo://app?vid=d6d41b2e-30ea-4987-8625-f242318469f8","ios":"levelo://app?vid=d6d41b2e-30ea-4987-8625-f242318469f8"},"vehicle_type_id":"4","last_reported":1732259365,"current_range_meters":38400,"station_id":"ce4bhb12rcd13ifvqem0","pricing_plan_id":"cebpf4jnsgd1na2vs0mg"},{"bike_id":"9f934346-12ba-4a28-9c95-5f1cd22e3880","system_id":"levelo_inurba_marseille","lat":43.30321,"lon":5.40442,"is_reserved":false,"is_disabled":false,"rental_uris":{"android":"levelo://app?vid=9f934346-12ba-4a28-9c95-5f1cd22e3880","ios":"levelo://app?vid=9f934346-12ba-4a28-9c95-5f1cd22e3880"},"vehicle_type_id":"4","last_reported":1732259365,"current_range_meters":8400,"station_id":"ce4bh012rcd13ifvqd10","pricing_plan_id":"cebpf4jnsgd1na2vs0mg"},{"bike_id":"3585d018-4b66-4cf5-bca5-17fcec2fef21","system_id":"levelo_inurba_marseille","lat":43.23192,"lon":5.35555,"is_reserved":false,"is_disabled":false,"rental_uris":{"android":"levelo://app?vid=3585d018-4b66-4cf5-bca5-17fcec2fef21","ios":"levelo://app?vid=3585d018-4b66-4cf5-bca5-17fcec2fef21"},"vehicle_type_id":"4","last_reported":1732259365,"current_range_meters":37600,"station_id":"ce4bhu92rcd13ifvqi70","pricing_plan_id":"cebpf4jnsgd1na2vs0mg"},{"bike_id":"f12cbbe8-2cc3-43f9-ad8d-4815a9c10b43","system_id":"levelo_inurba_marseille","lat":43.28705,"lon":5.39986,"is_reserved":false,"is_disabled":false,"rental_uris":{"android":"levelo://app?vid=f12cbbe8-2cc3-43f9-ad8d-4815a9c10b43","ios":"levelo://app?vid=f12cbbe8-2cc3-43f9-ad8d-4815a9c10b43"},"vehicle_type_id":"4","last_reported":1732259365,"current_range_meters":10000,"station_id":"ce4bho92rcd13ifvqh3g","pricing_plan_id":"cebpf4jnsgd1na2vs0mg"},{"bike_id":"d00d78e1-f439-46df-9c94-a7741af85824","system_id":"levelo_inurba_marseille","lat":43.31088,"lon":5.38359,"is_reserved":false,"is_disabled":false,"rental_uris":{"android":"levelo://app?vid=d00d78e1-f439-46df-9c94-a7741af85824","ios":"levelo://app?vid=d00d78e1-f439-46df-9c94-a7741af85824"},"vehicle_type_id":"4","last_reported":1732259365,"current_range_meters":30800,"station_id":"ce4bgv92rcd13ifvqcr0","pricing_plan_id":"cebpf4jnsgd1na2vs0mg"},{"bike_id":"bf2344fa-0668-4f4e-a644-7705613aad3a","system_id":"levelo_inurba_marseille","lat":43.30136,"lon":5.38782,"is_reserved":false,"is_disabled":false,"rental_uris":{"android":"levelo://app?vid=bf2344fa-0668-4f4e-a644-7705613aad3a","ios":"levelo://app?vid=bf2344fa-0668-4f4e-a644-7705613aad3a"},"vehicle_type_id":"4","last_reported":1732259365,"current_range_meters":38800,"station_id":"ce4bghh2rcd13ifvqb60","pricing_plan_id":"cebpf4jnsgd1na2vs0mg"},{"bike_id":"d979d12e-0952-4b0d-a112-f005022fbbe4","system_id":"levelo_inurba_marseille","lat":43.26201,"lon":5.37935,"is_reserved":false,"is_disabled":false,"rental_uris":{"android":"levelo://app?vid=d979d12e-0952-4b0d-a112-f005022fbbe4","ios":"levelo://app?vid=d979d12e-0952-4b0d-a112-f005022fbbe4"},"vehicle_type_id":"4","last_reported":1732259365,"current_range_meters":38800,"station_id":"ce4bhjp2rcd13ifvqg90","pricing_plan_id":"cebpf4jnsgd1na2vs0mg"},{"bike_id":"46474b26-4a68-4e5d-9e97-c5c9729111a1","system_id":"levelo_inurba_marseille","lat":43.27942,"lon":5.42354,"is_reserved":false,"is_disabled":true,"rental_uris":{"android":"levelo://app?vid=46474b26-4a68-4e5d-9e97-c5c9729111a1","ios":"levelo://app?vid=46474b26-4a68-4e5d-9e97-c5c9729111a1"},"vehicle_type_id":"4","last_reported":1732259365,"current_range_meters":0,"station_id":"","pricing_plan_id":"cebpf4jnsgd1na2vs0mg"},{"bike_id":"ac894d2b-d4fc-430d-9b98-f63b338519b2","system_id":"levelo_inurba_marseille","lat":43.2594,"lon":5.40906,"is_reserved":false,"is_disabled":false,"rental_uris":{"android":"levelo://app?vid=ac894d2b-d4fc-430d-9b98-f63b338519b2","ios":"levelo://app?vid=ac894d2b-d4fc-430d-9b98-f63b338519b2"},"vehicle_type_id":"4","last_reported":1732259365,"current_range_meters":38000,"station_id":"ce4bhm92rcd13ifvqglg","pricing_plan_id":"cebpf4jnsgd1na2vs0mg"},{"bike_id":"7ef9a5ef-b3b2-4ff2-82cc-f161ced30464","system_id":"levelo_inurba_marseille","lat":43.29417,"lon":5.38611,"is_reserved":false,"is_disabled":true,"rental_uris":{"android":"levelo://app?vid=7ef9a5ef-b3b2-4ff2-82cc-f161ced30464","ios":"levelo://app?vid=7ef9a5ef-b3b2-4ff2-82cc-f161ced30464"},"vehicle_type_id":"4","last_reported":1732259365,"current_range_meters":30000,"station_id":"ce4bh2h2rcd13ifvqdh0","pricing_plan_id":"cebpf4jnsgd1na2vs0mg"},{"bike_id":"ca830116-b4f0-46a6-89c4-00566a1ee122","system_id":"levelo_inurba_marseille","lat":43.30351,"lon":5.41877,"is_reserved":false,"is_disabled":false,"rental_uris":{"android":"levelo://app?vid=ca830116-b4f0-46a6-89c4-00566a1ee122","ios":"levelo://app?vid=ca830116-b4f0-46a6-89c4-00566a1ee122"},"vehicle_type_id":"4","last_reported":1732259365,"current_range_meters":39200,"station_id":"ce4bhop2rcd13ifvqh7g","pricing_plan_id":"cebpf4jnsgd1na2vs0mg"},{"bike_id":"8e31d0a5-85c2-4ba7-a33e-58b6de98c3d4","system_id":"levelo_inurba_marseille","lat":43.28918,"lon":5.3839,"is_reserved":false,"is_disabled":false,"rental_uris":{"android":"levelo://app?vid=8e31d0a5-85c2-4ba7-a33e-58b6de98c3d4","ios":"levelo://app?vid=8e31d0a5-85c2-4ba7-a33e-58b6de98c3d4"},"vehicle_type_id":"4","last_reported":1732259365,"current_range_meters":13600,"station_id":"ce4bh612rcd13ifvqe6g","pricing_plan_id":"cebpf4jnsgd1na2vs0mg"},{"bike_id":"e6f269d5-78f6-4043-917f-52913283f83c","system_id":"levelo_inurba_marseille","lat":43.2315,"lon":5.43719,"is_reserved":false,"is_disabled":false,"rental_uris":{"android":"levelo://app?vid=e6f269d5-78f6-4043-917f-52913283f83c","ios":"levelo://app?vid=e6f269d5-78f6-4043-917f-52913283f83c"},"vehicle_type_id":"4","last_reported":1732259365,"current_range_meters":27600,"station_id":"ce4bhmp2rcd13ifvqgog","pricing_plan_id":"cebpf4jnsgd1na2vs0mg"},{"bike_id":"844cb461-f780-45f5-88b2-3951b51e6462","system_id":"levelo_inurba_marseille","lat":43.30116,"lon":5.37791,"is_reserved":false,"is_disabled":true,"rental_uris":{"android":"levelo://app?vid=844cb461-f780-45f5-88b2-3951b51e6462","ios":"levelo://app?vid=844cb461-f780-45f5-88b2-3951b51e6462"},"vehicle_type_id":"4","last_reported":1732259365,"current_range_meters":0,"station_id":"","pricing_plan_id":"cebpf4jnsgd1na2vs0mg"},{"bike_id":"d4efb85e-c230-4eed-b6e2-3485fcccf8fe","system_id":"levelo_inurba_marseille","lat":43.23961,"lon":5.36633,"is_reserved":false,"is_disabled":false,"rental_uris":{"android":"levelo://app?vid=d4efb85e-c230-4eed-b6e2-3485fcccf8fe","ios":"levelo://app?vid=d4efb85e-c230-4eed-b6e2-3485fcccf8fe"},"vehicle_type_id":"4","last_reported":1732259365,"current_range_meters":38800,"station_id":"ce4bhi12rcd13ifvqfp0","pricing_plan_id":"cebpf4jnsgd1na2vs0mg"},{"bike_id":"4e243365-70fc-443d-82a5-864cf6b26e66","system_id":"levelo_inurba_marseille","lat":43.2721,"lon":5.39181,"is_reserved":false,"is_disabled":false,"rental_uris":{"android":"levelo://app?vid=4e243365-70fc-443d-82a5-864cf6b26e66","ios":"levelo://app?vid=4e243365-70fc-443d-82a5-864cf6b26e66"},"vehicle_type_id":"4","last_reported":1732259365,"current_range_meters":38000,"station_id":"ce4bhhp2rcd13ifvqfm0","pricing_plan_id":"cebpf4jnsgd1na2vs0mg"},{"bike_id":"b3ff0223-9f3b-40c9-ba64-b1074cf27420","system_id":"levelo_inurba_marseille","lat":43.28037,"lon":5.36947,"is_reserved":false,"is_disabled":false,"rental_uris":{"android":"levelo://app?vid=b3ff0223-9f3b-40c9-ba64-b1074cf27420","ios":"levelo://app?vid=b3ff0223-9f3b-40c9-ba64-b1074cf27420"},"vehicle_type_id":"4","last_reported":1732259365,"current_range_meters":38800,"station_id":"ce4bha12rcd13ifvqef0","pricing_plan_id":"cebpf4jnsgd1na2vs0mg"},{"bike_id":"4533fbe8-4b9a-4965-b9ee-615da04d6a41","system_id":"levelo_inurba_marseille","lat":43.2895,"lon":5.36632,"is_reserved":false,"is_disabled":false,"rental_uris":{"android":"levelo://app?vid=4533fbe8-4b9a-4965-b9ee-615da04d6a41","ios":"levelo://app?vid=4533fbe8-4b9a-4965-b9ee-615da04d6a41"},"vehicle_type_id":"4","last_reported":1732259365,"current_range_meters":20800,"station_id":"ce4bhap2rcd13ifvqek0","pricing_plan_id":"cebpf4jnsgd1na2vs0mg"},{"bike_id":"786329d4-a364-4aee-bb86-124298f7a780","system_id":"levelo_inurba_marseille","lat":43.25824,"lon":5.39433,"is_reserved":false,"is_disabled":false,"rental_uris":{"android":"levelo://app?vid=786329d4-a364-4aee-bb86-124298f7a780","ios":"levelo://app?vid=786329d4-a364-4aee-bb86-124298f7a780"},"vehicle_type_id":"4","last_reported":1732259365,"current_range_meters":17600,"station_id":"ce4bhip2rcd13ifvqft0","pricing_plan_id":"cebpf4jnsgd1na2vs0mg"},{"bike_id":"72998ba3-d1e0-40d5-bf1d-4005fb8033c8","system_id":"levelo_inurba_marseille","lat":43.2913,"lon":5.39989,"is_reserved":false,"is_disabled":false,"rental_uris":{"android":"levelo://app?vid=72998ba3-d1e0-40d5-bf1d-4005fb8033c8","ios":"levelo://app?vid=72998ba3-d1e0-40d5-bf1d-4005fb8033c8"},"vehicle_type_id":"4","last_reported":1732259365,"current_range_meters":8400,"station_id":"","pricing_plan_id":"cebpf4jnsgd1na2vs0mg"},{"bike_id":"cdaafd2d-0da1-4fac-9881-15c66a7cd7c0","system_id":"levelo_inurba_marseille","lat":43.23153,"lon":5.43705,"is_reserved":false,"is_disabled":false,"rental_uris":{"android":"levelo://app?vid=cdaafd2d-0da1-4fac-9881-15c66a7cd7c0","ios":"levelo://app?vid=cdaafd2d-0da1-4fac-9881-15c66a7cd7c0"},"vehicle_type_id":"4","last_reported":1732259365,"current_range_meters":38800,"station_id":"ce4bhmp2rcd13ifvqgog","pricing_plan_id":"cebpf4jnsgd1na2vs0mg"},{"bike_id":"c1024338-3a35-4c5d-8621-6f53a0a7a406","system_id":"levelo_inurba_marseille","lat":43.336669,"lon":5.39812,"is_reserved":false,"is_disabled":false,"rental_uris":{"android":"levelo://app?vid=c1024338-3a35-4c5d-8621-6f53a0a7a406","ios":"levelo://app?vid=c1024338-3a35-4c5d-8621-6f53a0a7a406"},"vehicle_type_id":"4","last_reported":1732259365,"current_range_meters":34800,"station_id":"","pricing_plan_id":"cebpf4jnsgd1na2vs0mg"},{"bike_id":"b03f69f7-b71a-4f20-b004-cac08d3d55e5","system_id":"levelo_inurba_marseille","lat":43.32363,"lon":5.38884,"is_reserved":false,"is_disabled":false,"rental_uris":{"android":"levelo://app?vid=b03f69f7-b71a-4f20-b004-cac08d3d55e5","ios":"levelo://app?vid=b03f69f7-b71a-4f20-b004-cac08d3d55e5"},"vehicle_type_id":"4","last_reported":1732259365,"current_range_meters":30800,"station_id":"ce4bhqp2rcd13ifvqhog","pricing_plan_id":"cebpf4jnsgd1na2vs0mg"},{"bike_id":"8d5ad0a8-268e-4afd-be61-7919f93826c7","system_id":"levelo_inurba_marseille","lat":43.29923,"lon":5.37478,"is_reserved":false,"is_disabled":true,"rental_uris":{"android":"levelo://app?vid=8d5ad0a8-268e-4afd-be61-7919f93826c7","ios":"levelo://app?vid=8d5ad0a8-268e-4afd-be61-7919f93826c7"},"vehicle_type_id":"4","last_reported":1732259365,"current_range_meters":29600,"station_id":"ce4bgjh2rcd13ifvqbg0","pricing_plan_id":"cebpf4jnsgd1na2vs0mg"},{"bike_id":"3e51505c-66c2-4920-b827-cea103a2ac7b","system_id":"levelo_inurba_marseille","lat":43.32356,"lon":5.38887,"is_reserved":false,"is_disabled":true,"rental_uris":{"android":"levelo://app?vid=3e51505c-66c2-4920-b827-cea103a2ac7b","ios":"levelo://app?vid=3e51505c-66c2-4920-b827-cea103a2ac7b"},"vehicle_type_id":"4","last_reported":1732259365,"current_range_meters":0,"station_id":"ce4bhqp2rcd13ifvqhog","pricing_plan_id":"cebpf4jnsgd1na2vs0mg"},{"bike_id":"1ef17f0c-9df8-40aa-bad8-8fe504107889","system_id":"levelo_inurba_marseille","lat":43.31764,"lon":5.39019,"is_reserved":false,"is_disabled":false,"rental_uris":{"android":"levelo://app?vid=1ef17f0c-9df8-40aa-bad8-8fe504107889","ios":"levelo://app?vid=1ef17f0c-9df8-40aa-bad8-8fe504107889"},"vehicle_type_id":"4","last_reported":1732259365,"current_range_meters":14800,"station_id":"ce4bhqp2rcd13ifvqhng","pricing_plan_id":"cebpf4jnsgd1na2vs0mg"},{"bike_id":"5c492a93-90f9-482f-b8d2-ceae0daf47af","system_id":"levelo_inurba_marseille","lat":43.30463,"lon":5.37906,"is_reserved":false,"is_disabled":false,"rental_uris":{"android":"levelo://app?vid=5c492a93-90f9-482f-b8d2-ceae0daf47af","ios":"levelo://app?vid=5c492a93-90f9-482f-b8d2-ceae0daf47af"},"vehicle_type_id":"4","last_reported":1732259365,"current_range_meters":20400,"station_id":"ce4bgup2rcd13ifvqcn0","pricing_plan_id":"cebpf4jnsgd1na2vs0mg"},{"bike_id":"2262a7df-e29e-4794-b290-5d564e21d175","system_id":"levelo_inurba_marseille","lat":43.29043,"lon":5.3995,"is_reserved":false,"is_disabled":false,"rental_uris":{"android":"levelo://app?vid=2262a7df-e29e-4794-b290-5d564e21d175","ios":"levelo://app?vid=2262a7df-e29e-4794-b290-5d564e21d175"},"vehicle_type_id":"4","last_reported":1732259365,"current_range_meters":34000,"station_id":"ce4bh392rcd13ifvqdm0","pricing_plan_id":"cebpf4jnsgd1na2vs0mg"},{"bike_id":"a08b9ee5-a034-42cb-8f16-d2d4243992ea","system_id":"levelo_inurba_marseille","lat":43.33735,"lon":5.39186,"is_reserved":false,"is_disabled":false,"rental_uris":{"android":"levelo://app?vid=a08b9ee5-a034-42cb-8f16-d2d4243992ea","ios":"levelo://app?vid=a08b9ee5-a034-42cb-8f16-d2d4243992ea"},"vehicle_type_id":"4","last_reported":1732259365,"current_range_meters":24400,"station_id":"ce4bhr92rcd13ifvqhsg","pricing_plan_id":"cebpf4jnsgd1na2vs0mg"},{"bike_id":"50ec3c0f-b144-4d1c-b027-399b4bebfc13","system_id":"levelo_inurba_marseille","lat":43.2986,"lon":5.38393,"is_reserved":false,"is_disabled":false,"rental_uris":{"android":"levelo://app?vid=50ec3c0f-b144-4d1c-b027-399b4bebfc13","ios":"levelo://app?vid=50ec3c0f-b144-4d1c-b027-399b4bebfc13"},"vehicle_type_id":"4","last_reported":1732259365,"current_range_meters":6800,"station_id":"ce4bgkh2rcd13ifvqbk0","pricing_plan_id":"cebpf4jnsgd1na2vs0mg"},{"bike_id":"3e6572cd-497d-45e8-ad8e-ef8bd06452a4","system_id":"levelo_inurba_marseille","lat":43.29588,"lon":5.38091,"is_reserved":false,"is_disabled":false,"rental_uris":{"android":"levelo://app?vid=3e6572cd-497d-45e8-ad8e-ef8bd06452a4","ios":"levelo://app?vid=3e6572cd-497d-45e8-ad8e-ef8bd06452a4"},"vehicle_type_id":"4","last_reported":1732259365,"current_range_meters":19200,"station_id":"ce4bgl12rcd13ifvqbo0","pricing_plan_id":"cebpf4jnsgd1na2vs0mg"},{"bike_id":"b6265fe2-d010-46a6-8660-f7b7f1c807be","system_id":"levelo_inurba_marseille","lat":43.26191,"lon":5.3746,"is_reserved":false,"is_disabled":true,"rental_uris":{"android":"levelo://app?vid=b6265fe2-d010-46a6-8660-f7b7f1c807be","ios":"levelo://app?vid=b6265fe2-d010-46a6-8660-f7b7f1c807be"},"vehicle_type_id":"4","last_reported":1732259365,"current_range_meters":30800,"station_id":"ce4bhgp2rcd13ifvqfc0","pricing_plan_id":"cebpf4jnsgd1na2vs0mg"},{"bike_id":"1ca07bc7-ade2-4ec1-806f-82a81b72a251","system_id":"levelo_inurba_marseille","lat":43.28434,"lon":5.39217,"is_reserved":false,"is_disabled":true,"rental_uris":{"android":"levelo://app?vid=1ca07bc7-ade2-4ec1-806f-82a81b72a251","ios":"levelo://app?vid=1ca07bc7-ade2-4ec1-806f-82a81b72a251"},"vehicle_type_id":"4","last_reported":1732259365,"current_range_meters":0,"station_id":"ce4bhoh2rcd13ifvqh5g","pricing_plan_id":"cebpf4jnsgd1na2vs0mg"},{"bike_id":"db230911-f370-4d33-808c-fb88b8712f65","system_id":"levelo_inurba_marseille","lat":43.27498,"lon":5.42451,"is_reserved":false,"is_disabled":false,"rental_uris":{"android":"levelo://app?vid=db230911-f370-4d33-808c-fb88b8712f65","ios":"levelo://app?vid=db230911-f370-4d33-808c-fb88b8712f65"},"vehicle_type_id":"4","last_reported":1732259365,"current_range_meters":25600,"station_id":"ce4bhn92rcd13ifvqgrg","pricing_plan_id":"cebpf4jnsgd1na2vs0mg"},{"bike_id":"579b88ed-c8fd-446f-9123-3143b43d2c60","system_id":"levelo_inurba_marseille","lat":43.30473,"lon":5.37911,"is_reserved":false,"is_disabled":false,"rental_uris":{"android":"levelo://app?vid=579b88ed-c8fd-446f-9123-3143b43d2c60","ios":"levelo://app?vid=579b88ed-c8fd-446f-9123-3143b43d2c60"},"vehicle_type_id":"4","last_reported":1732259365,"current_range_meters":22800,"station_id":"ce4bgup2rcd13ifvqcn0","pricing_plan_id":"cebpf4jnsgd1na2vs0mg"},{"bike_id":"45dec922-f467-4f7c-b62a-bccf4896d5f9","system_id":"levelo_inurba_marseille","lat":43.27064,"lon":5.42275,"is_reserved":false,"is_disabled":false,"rental_uris":{"android":"levelo://app?vid=45dec922-f467-4f7c-b62a-bccf4896d5f9","ios":"levelo://app?vid=45dec922-f467-4f7c-b62a-bccf4896d5f9"},"vehicle_type_id":"4","last_reported":1732259365,"current_range_meters":39200,"station_id":"ce4bhk92rcd13ifvqgb0","pricing_plan_id":"cebpf4jnsgd1na2vs0mg"},{"bike_id":"d0f059ef-183d-46ab-991d-28265e2de4d4","system_id":"levelo_inurba_marseille","lat":43.2904,"lon":5.39956,"is_reserved":false,"is_disabled":false,"rental_uris":{"android":"levelo://app?vid=d0f059ef-183d-46ab-991d-28265e2de4d4","ios":"levelo://app?vid=d0f059ef-183d-46ab-991d-28265e2de4d4"},"vehicle_type_id":"4","last_reported":1732259365,"current_range_meters":30400,"station_id":"ce4bh392rcd13ifvqdm0","pricing_plan_id":"cebpf4jnsgd1na2vs0mg"},{"bike_id":"11c5ed7c-dad2-4605-8db8-4918d0818190","system_id":"levelo_inurba_marseille","lat":43.31724,"lon":5.424,"is_reserved":false,"is_disabled":false,"rental_uris":{"android":"levelo://app?vid=11c5ed7c-dad2-4605-8db8-4918d0818190","ios":"levelo://app?vid=11c5ed7c-dad2-4605-8db8-4918d0818190"},"vehicle_type_id":"4","last_reported":1732259365,"current_range_meters":38800,"station_id":"ce4bhp92rcd13ifvqhbg","pricing_plan_id":"cebpf4jnsgd1na2vs0mg"},{"bike_id":"53bbdfc0-4d63-4cc4-86e6-4ec910061123","system_id":"levelo_inurba_marseille","lat":43.30914,"lon":5.36701,"is_reserved":false,"is_disabled":true,"rental_uris":{"android":"levelo://app?vid=53bbdfc0-4d63-4cc4-86e6-4ec910061123","ios":"levelo://app?vid=53bbdfc0-4d63-4cc4-86e6-4ec910061123"},"vehicle_type_id":"4","last_reported":1732259365,"current_range_meters":0,"station_id":"","pricing_plan_id":"cebpf4jnsgd1na2vs0mg"},{"bike_id":"9f45cfa7-be04-48c8-90f0-8104aae5328f","system_id":"levelo_inurba_marseille","lat":43.25716,"lon":5.41117,"is_reserved":false,"is_disabled":false,"rental_uris":{"android":"levelo://app?vid=9f45cfa7-be04-48c8-90f0-8104aae5328f","ios":"levelo://app?vid=9f45cfa7-be04-48c8-90f0-8104aae5328f"},"vehicle_type_id":"4","last_reported":1732259365,"current_range_meters":27200,"station_id":"ce4bhkp2rcd13ifvqgd0","pricing_plan_id":"cebpf4jnsgd1na2vs0mg"},{"bike_id":"8a7595db-5953-4690-bab0-dddbeb085cdd","system_id":"levelo_inurba_marseille","lat":43.282683,"lon":5.350716,"is_reserved":false,"is_disabled":false,"rental_uris":{"android":"levelo://app?vid=8a7595db-5953-4690-bab0-dddbeb085cdd","ios":"levelo://app?vid=8a7595db-5953-4690-bab0-dddbeb085cdd"},"vehicle_type_id":"4","last_reported":1732259365,"current_range_meters":30400,"station_id":"ce4bhbp2rcd13ifvqerg","pricing_plan_id":"cebpf4jnsgd1na2vs0mg"},{"bike_id":"222875c3-3894-46af-8883-2016f227e147","system_id":"levelo_inurba_marseille","lat":43.28079,"lon":5.39665,"is_reserved":false,"is_disabled":false,"rental_uris":{"android":"levelo://app?vid=222875c3-3894-46af-8883-2016f227e147","ios":"levelo://app?vid=222875c3-3894-46af-8883-2016f227e147"},"vehicle_type_id":"4","last_reported":1732259365,"current_range_meters":10800,"station_id":"ce4bho12rcd13ifvqh2g","pricing_plan_id":"cebpf4jnsgd1na2vs0mg"},{"bike_id":"3b6149fe-8646-49d3-98fa-2618ae7f6e44","system_id":"levelo_inurba_marseille","lat":43.32538,"lon":5.4143,"is_reserved":false,"is_disabled":false,"rental_uris":{"android":"levelo://app?vid=3b6149fe-8646-49d3-98fa-2618ae7f6e44","ios":"levelo://app?vid=3b6149fe-8646-49d3-98fa-2618ae7f6e44"},"vehicle_type_id":"4","last_reported":1732259365,"current_range_meters":24400,"station_id":"ce4bhq12rcd13ifvqhhg","pricing_plan_id":"cebpf4jnsgd1na2vs0mg"},{"bike_id":"3193222d-584b-4642-a1d8-0c04b2309736","system_id":"levelo_inurba_marseille","lat":43.33728,"lon":5.39188,"is_reserved":false,"is_disabled":false,"rental_uris":{"android":"levelo://app?vid=3193222d-584b-4642-a1d8-0c04b2309736","ios":"levelo://app?vid=3193222d-584b-4642-a1d8-0c04b2309736"},"vehicle_type_id":"4","last_reported":1732259365,"current_range_meters":38000,"station_id":"ce4bhr92rcd13ifvqhsg","pricing_plan_id":"cebpf4jnsgd1na2vs0mg"},{"bike_id":"604830c0-2cdb-4c21-84ed-75b7c125f3e4","system_id":"levelo_inurba_marseille","lat":43.28944,"lon":5.36395,"is_reserved":false,"is_disabled":false,"rental_uris":{"android":"levelo://app?vid=604830c0-2cdb-4c21-84ed-75b7c125f3e4","ios":"levelo://app?vid=604830c0-2cdb-4c21-84ed-75b7c125f3e4"},"vehicle_type_id":"4","last_reported":1732259365,"current_range_meters":21600,"station_id":"ce4bhc92rcd13ifvqetg","pricing_plan_id":"cebpf4jnsgd1na2vs0mg"},{"bike_id":"d9c37568-a0d0-4b0e-9304-655096670296","system_id":"levelo_inurba_marseille","lat":43.308948,"lon":5.396495,"is_reserved":false,"is_disabled":false,"rental_uris":{"android":"levelo://app?vid=d9c37568-a0d0-4b0e-9304-655096670296","ios":"levelo://app?vid=d9c37568-a0d0-4b0e-9304-655096670296"},"vehicle_type_id":"4","last_reported":1732259365,"current_range_meters":38000,"station_id":"ce4bh012rcd13ifvqcv0","pricing_plan_id":"cebpf4jnsgd1na2vs0mg"},{"bike_id":"568f644d-9aa5-4987-9996-3e1e29b8f1cd","system_id":"levelo_inurba_marseille","lat":43.31491,"lon":5.37313,"is_reserved":false,"is_disabled":false,"rental_uris":{"android":"levelo://app?vid=568f644d-9aa5-4987-9996-3e1e29b8f1cd","ios":"levelo://app?vid=568f644d-9aa5-4987-9996-3e1e29b8f1cd"},"vehicle_type_id":"4","last_reported":1732259365,"current_range_meters":21600,"station_id":"ce4bgt12rcd13ifvqcd0","pricing_plan_id":"cebpf4jnsgd1na2vs0mg"},{"bike_id":"8b8f0ec0-5c01-4efd-af91-8a6b7d30043f","system_id":"levelo_inurba_marseille","lat":43.24081,"lon":5.37753,"is_reserved":false,"is_disabled":false,"rental_uris":{"android":"levelo://app?vid=8b8f0ec0-5c01-4efd-af91-8a6b7d30043f","ios":"levelo://app?vid=8b8f0ec0-5c01-4efd-af91-8a6b7d30043f"},"vehicle_type_id":"4","last_reported":1732259365,"current_range_meters":25200,"station_id":"ce4bhnp2rcd13ifvqgvg","pricing_plan_id":"cebpf4jnsgd1na2vs0mg"},{"bike_id":"54e8e000-754b-4567-98fd-83d732a47374","system_id":"levelo_inurba_marseille","lat":43.28713,"lon":5.37947,"is_reserved":false,"is_disabled":false,"rental_uris":{"android":"levelo://app?vid=54e8e000-754b-4567-98fd-83d732a47374","ios":"levelo://app?vid=54e8e000-754b-4567-98fd-83d732a47374"},"vehicle_type_id":"4","last_reported":1732259365,"current_range_meters":34800,"station_id":"ce4bh9p2rcd13ifvqec0","pricing_plan_id":"cebpf4jnsgd1na2vs0mg"},{"bike_id":"e4c541a5-fcc4-4afa-ac75-a5b93754e021","system_id":"levelo_inurba_marseille","lat":43.2903,"lon":5.39974,"is_reserved":false,"is_disabled":false,"rental_uris":{"android":"levelo://app?vid=e4c541a5-fcc4-4afa-ac75-a5b93754e021","ios":"levelo://app?vid=e4c541a5-fcc4-4afa-ac75-a5b93754e021"},"vehicle_type_id":"4","last_reported":1732259365,"current_range_meters":17200,"station_id":"ce4bh392rcd13ifvqdm0","pricing_plan_id":"cebpf4jnsgd1na2vs0mg"},{"bike_id":"10e1e48b-2e65-47f0-9874-b1e47a833e0b","system_id":"levelo_inurba_marseille","lat":43.30465,"lon":5.37899,"is_reserved":false,"is_disabled":false,"rental_uris":{"android":"levelo://app?vid=10e1e48b-2e65-47f0-9874-b1e47a833e0b","ios":"levelo://app?vid=10e1e48b-2e65-47f0-9874-b1e47a833e0b"},"vehicle_type_id":"4","last_reported":1732259365,"current_range_meters":16800,"station_id":"ce4bgup2rcd13ifvqcn0","pricing_plan_id":"cebpf4jnsgd1na2vs0mg"},{"bike_id":"0cf6324e-3dc1-42b4-a88e-ea6f78bbab63","system_id":"levelo_inurba_marseille","lat":43.24073,"lon":5.37751,"is_reserved":false,"is_disabled":false,"rental_uris":{"android":"levelo://app?vid=0cf6324e-3dc1-42b4-a88e-ea6f78bbab63","ios":"levelo://app?vid=0cf6324e-3dc1-42b4-a88e-ea6f78bbab63"},"vehicle_type_id":"4","last_reported":1732259365,"current_range_meters":38000,"station_id":"ce4bhnp2rcd13ifvqgvg","pricing_plan_id":"cebpf4jnsgd1na2vs0mg"},{"bike_id":"5f99f775-62c7-4cb0-8732-3189cafe1670","system_id":"levelo_inurba_marseille","lat":43.29313,"lon":5.37164,"is_reserved":false,"is_disabled":false,"rental_uris":{"android":"levelo://app?vid=5f99f775-62c7-4cb0-8732-3189cafe1670","ios":"levelo://app?vid=5f99f775-62c7-4cb0-8732-3189cafe1670"},"vehicle_type_id":"4","last_reported":1732259365,"current_range_meters":38000,"station_id":"ce4bgh92rcd13ifvqb40","pricing_plan_id":"cebpf4jnsgd1na2vs0mg"},{"bike_id":"6460ea25-8e01-4b6f-9c77-511fa32ab350","system_id":"levelo_inurba_marseille","lat":43.31095,"lon":5.37824,"is_reserved":false,"is_disabled":false,"rental_uris":{"android":"levelo://app?vid=6460ea25-8e01-4b6f-9c77-511fa32ab350","ios":"levelo://app?vid=6460ea25-8e01-4b6f-9c77-511fa32ab350"},"vehicle_type_id":"4","last_reported":1732259365,"current_range_meters":13600,"station_id":"","pricing_plan_id":"cebpf4jnsgd1na2vs0mg"},{"bike_id":"67b07b4d-b75f-48dc-9542-298c1062deb5","system_id":"levelo_inurba_marseille","lat":43.27989,"lon":5.41658,"is_reserved":false,"is_disabled":false,"rental_uris":{"android":"levelo://app?vid=67b07b4d-b75f-48dc-9542-298c1062deb5","ios":"levelo://app?vid=67b07b4d-b75f-48dc-9542-298c1062deb5"},"vehicle_type_id":"4","last_reported":1732259365,"current_range_meters":36000,"station_id":"ce4bho12rcd13ifvqh1g","pricing_plan_id":"cebpf4jnsgd1na2vs0mg"},{"bike_id":"24618c6c-9f3e-4480-ac3f-3dfa9b93dc99","system_id":"levelo_inurba_marseille","lat":43.279525,"lon":5.410438,"is_reserved":false,"is_disabled":false,"rental_uris":{"android":"levelo://app?vid=24618c6c-9f3e-4480-ac3f-3dfa9b93dc99","ios":"levelo://app?vid=24618c6c-9f3e-4480-ac3f-3dfa9b93dc99"},"vehicle_type_id":"4","last_reported":1732259365,"current_range_meters":38000,"station_id":"ce4bhnp2rcd13ifvqh0g","pricing_plan_id":"cebpf4jnsgd1na2vs0mg"},{"bike_id":"4f3296af-1411-40b6-acba-e6f076d524a7","system_id":"levelo_inurba_marseille","lat":43.30196,"lon":5.36624,"is_reserved":false,"is_disabled":true,"rental_uris":{"android":"levelo://app?vid=4f3296af-1411-40b6-acba-e6f076d524a7","ios":"levelo://app?vid=4f3296af-1411-40b6-acba-e6f076d524a7"},"vehicle_type_id":"4","last_reported":1732259365,"current_range_meters":26800,"station_id":"ce4bgrh2rcd13ifvqc8g","pricing_plan_id":"cebpf4jnsgd1na2vs0mg"},{"bike_id":"35799ffd-e120-47ae-ba81-5038ad1d78ad","system_id":"levelo_inurba_marseille","lat":43.26677,"lon":5.38263,"is_reserved":false,"is_disabled":false,"rental_uris":{"android":"levelo://app?vid=35799ffd-e120-47ae-ba81-5038ad1d78ad","ios":"levelo://app?vid=35799ffd-e120-47ae-ba81-5038ad1d78ad"},"vehicle_type_id":"4","last_reported":1732259365,"current_range_meters":38800,"station_id":"ce4bhg92rcd13ifvqf90","pricing_plan_id":"cebpf4jnsgd1na2vs0mg"},{"bike_id":"2232f5c7-1d3a-482a-807f-13c072817f00","system_id":"levelo_inurba_marseille","lat":43.30555,"lon":5.36698,"is_reserved":false,"is_disabled":false,"rental_uris":{"android":"levelo://app?vid=2232f5c7-1d3a-482a-807f-13c072817f00","ios":"levelo://app?vid=2232f5c7-1d3a-482a-807f-13c072817f00"},"vehicle_type_id":"4","last_reported":1732259365,"current_range_meters":28800,"station_id":"ce4bgrp2rcd13ifvqc9g","pricing_plan_id":"cebpf4jnsgd1na2vs0mg"},{"bike_id":"beb72136-9e08-4a80-a39b-b95d75825578","system_id":"levelo_inurba_marseille","lat":43.2873,"lon":5.36089,"is_reserved":false,"is_disabled":false,"rental_uris":{"android":"levelo://app?vid=beb72136-9e08-4a80-a39b-b95d75825578","ios":"levelo://app?vid=beb72136-9e08-4a80-a39b-b95d75825578"},"vehicle_type_id":"4","last_reported":1732259365,"current_range_meters":39200,"station_id":"cki0cbj6b192h4jlfktg","pricing_plan_id":"cebpf4jnsgd1na2vs0mg"},{"bike_id":"9d76029c-8202-41ad-a5e8-699cb6009143","system_id":"levelo_inurba_marseille","lat":43.230202,"lon":5.437654,"is_reserved":false,"is_disabled":false,"rental_uris":{"android":"levelo://app?vid=9d76029c-8202-41ad-a5e8-699cb6009143","ios":"levelo://app?vid=9d76029c-8202-41ad-a5e8-699cb6009143"},"vehicle_type_id":"4","last_reported":1732259365,"current_range_meters":23200,"station_id":"ce4bhmp2rcd13ifvqgog","pricing_plan_id":"cebpf4jnsgd1na2vs0mg"},{"bike_id":"abbe4444-e220-4e1b-8bbf-00f3f3e0e374","system_id":"levelo_inurba_marseille","lat":43.24074,"lon":5.37765,"is_reserved":false,"is_disabled":false,"rental_uris":{"android":"levelo://app?vid=abbe4444-e220-4e1b-8bbf-00f3f3e0e374","ios":"levelo://app?vid=abbe4444-e220-4e1b-8bbf-00f3f3e0e374"},"vehicle_type_id":"4","last_reported":1732259365,"current_range_meters":38000,"station_id":"ce4bhnp2rcd13ifvqgvg","pricing_plan_id":"cebpf4jnsgd1na2vs0mg"},{"bike_id":"dd93980c-ce68-4991-9c9d-2c4a5ba3a478","system_id":"levelo_inurba_marseille","lat":43.29025,"lon":5.38122,"is_reserved":false,"is_disabled":false,"rental_uris":{"android":"levelo://app?vid=dd93980c-ce68-4991-9c9d-2c4a5ba3a478","ios":"levelo://app?vid=dd93980c-ce68-4991-9c9d-2c4a5ba3a478"},"vehicle_type_id":"4","last_reported":1732259365,"current_range_meters":22800,"station_id":"ce4bh4p2rcd13ifvqe1g","pricing_plan_id":"cebpf4jnsgd1na2vs0mg"},{"bike_id":"d05b8e41-dec1-4669-af10-1f34995f6bf4","system_id":"levelo_inurba_marseille","lat":43.29033,"lon":5.37558,"is_reserved":false,"is_disabled":true,"rental_uris":{"android":"levelo://app?vid=d05b8e41-dec1-4669-af10-1f34995f6bf4","ios":"levelo://app?vid=d05b8e41-dec1-4669-af10-1f34995f6bf4"},"vehicle_type_id":"4","last_reported":1732259365,"current_range_meters":28400,"station_id":"ce4bh692rcd13ifvqe90","pricing_plan_id":"cebpf4jnsgd1na2vs0mg"},{"bike_id":"428b0e2c-6078-4fa0-963a-265cd58e8299","system_id":"levelo_inurba_marseille","lat":43.27493,"lon":5.42454,"is_reserved":false,"is_disabled":false,"rental_uris":{"android":"levelo://app?vid=428b0e2c-6078-4fa0-963a-265cd58e8299","ios":"levelo://app?vid=428b0e2c-6078-4fa0-963a-265cd58e8299"},"vehicle_type_id":"4","last_reported":1732259365,"current_range_meters":32000,"station_id":"ce4bhn92rcd13ifvqgrg","pricing_plan_id":"cebpf4jnsgd1na2vs0mg"},{"bike_id":"679d559c-672c-425e-b42c-aed386205b80","system_id":"levelo_inurba_marseille","lat":43.28854,"lon":5.35851,"is_reserved":false,"is_disabled":false,"rental_uris":{"android":"levelo://app?vid=679d559c-672c-425e-b42c-aed386205b80","ios":"levelo://app?vid=679d559c-672c-425e-b42c-aed386205b80"},"vehicle_type_id":"4","last_reported":1732259365,"current_range_meters":8400,"station_id":"ce4bhb12rcd13ifvqem0","pricing_plan_id":"cebpf4jnsgd1na2vs0mg"},{"bike_id":"c0b31b04-1e8e-4f25-9a03-9ef0c3be9e96","system_id":"levelo_inurba_marseille","lat":43.26201,"lon":5.37925,"is_reserved":false,"is_disabled":false,"rental_uris":{"android":"levelo://app?vid=c0b31b04-1e8e-4f25-9a03-9ef0c3be9e96","ios":"levelo://app?vid=c0b31b04-1e8e-4f25-9a03-9ef0c3be9e96"},"vehicle_type_id":"4","last_reported":1732259365,"current_range_meters":38800,"station_id":"ce4bhjp2rcd13ifvqg90","pricing_plan_id":"cebpf4jnsgd1na2vs0mg"},{"bike_id":"f227330d-bb3b-4498-b89e-ddc6bbb4269a","system_id":"levelo_inurba_marseille","lat":43.32657,"lon":5.40966,"is_reserved":false,"is_disabled":false,"rental_uris":{"android":"levelo://app?vid=f227330d-bb3b-4498-b89e-ddc6bbb4269a","ios":"levelo://app?vid=f227330d-bb3b-4498-b89e-ddc6bbb4269a"},"vehicle_type_id":"4","last_reported":1732259365,"current_range_meters":8800,"station_id":"ce4bhpp2rcd13ifvqhgg","pricing_plan_id":"cebpf4jnsgd1na2vs0mg"},{"bike_id":"57f8b9a1-701e-41aa-8f05-57f67fb9fd3a","system_id":"levelo_inurba_marseille","lat":43.2961,"lon":5.38108,"is_reserved":false,"is_disabled":false,"rental_uris":{"android":"levelo://app?vid=57f8b9a1-701e-41aa-8f05-57f67fb9fd3a","ios":"levelo://app?vid=57f8b9a1-701e-41aa-8f05-57f67fb9fd3a"},"vehicle_type_id":"4","last_reported":1732259365,"current_range_meters":30000,"station_id":"ce4bgl12rcd13ifvqbo0","pricing_plan_id":"cebpf4jnsgd1na2vs0mg"},{"bike_id":"2f09e16b-7298-426a-b658-c69e68fd6700","system_id":"levelo_inurba_marseille","lat":43.24077,"lon":5.3776,"is_reserved":false,"is_disabled":false,"rental_uris":{"android":"levelo://app?vid=2f09e16b-7298-426a-b658-c69e68fd6700","ios":"levelo://app?vid=2f09e16b-7298-426a-b658-c69e68fd6700"},"vehicle_type_id":"4","last_reported":1732259365,"current_range_meters":32000,"station_id":"ce4bhnp2rcd13ifvqgvg","pricing_plan_id":"cebpf4jnsgd1na2vs0mg"},{"bike_id":"1904e4d6-e1e0-456f-9800-8b0e0e7107b4","system_id":"levelo_inurba_marseille","lat":43.23152,"lon":5.43705,"is_reserved":false,"is_disabled":false,"rental_uris":{"android":"levelo://app?vid=1904e4d6-e1e0-456f-9800-8b0e0e7107b4","ios":"levelo://app?vid=1904e4d6-e1e0-456f-9800-8b0e0e7107b4"},"vehicle_type_id":"4","last_reported":1732259365,"current_range_meters":38800,"station_id":"ce4bhmp2rcd13ifvqgog","pricing_plan_id":"cebpf4jnsgd1na2vs0mg"},{"bike_id":"51654fed-9c06-4ccc-8baa-01fb71e67e1e","system_id":"levelo_inurba_marseille","lat":43.23184,"lon":5.39989,"is_reserved":false,"is_disabled":false,"rental_uris":{"android":"levelo://app?vid=51654fed-9c06-4ccc-8baa-01fb71e67e1e","ios":"levelo://app?vid=51654fed-9c06-4ccc-8baa-01fb71e67e1e"},"vehicle_type_id":"4","last_reported":1732259365,"current_range_meters":23200,"station_id":"ce4bhn12rcd13ifvqgqg","pricing_plan_id":"cebpf4jnsgd1na2vs0mg"},{"bike_id":"b68d22fc-6147-4fef-8fe8-e29a411ab405","system_id":"levelo_inurba_marseille","lat":43.2923,"lon":5.3606,"is_reserved":false,"is_disabled":false,"rental_uris":{"android":"levelo://app?vid=b68d22fc-6147-4fef-8fe8-e29a411ab405","ios":"levelo://app?vid=b68d22fc-6147-4fef-8fe8-e29a411ab405"},"vehicle_type_id":"4","last_reported":1732259365,"current_range_meters":37600,"station_id":"ce4bhbh2rcd13ifvqeqg","pricing_plan_id":"cebpf4jnsgd1na2vs0mg"},{"bike_id":"1eff5ce5-2d56-4465-a12c-60db9ec2175a","system_id":"levelo_inurba_marseille","lat":43.22926,"lon":5.35375,"is_reserved":false,"is_disabled":false,"rental_uris":{"android":"levelo://app?vid=1eff5ce5-2d56-4465-a12c-60db9ec2175a","ios":"levelo://app?vid=1eff5ce5-2d56-4465-a12c-60db9ec2175a"},"vehicle_type_id":"4","last_reported":1732259365,"current_range_meters":6800,"station_id":"cpo3532slgdg3j2ikp40","pricing_plan_id":"cebpf4jnsgd1na2vs0mg"},{"bike_id":"f0b7cdc7-f3ab-4af1-9087-701ebf5745e3","system_id":"levelo_inurba_marseille","lat":43.24087,"lon":5.3775,"is_reserved":false,"is_disabled":true,"rental_uris":{"android":"levelo://app?vid=f0b7cdc7-f3ab-4af1-9087-701ebf5745e3","ios":"levelo://app?vid=f0b7cdc7-f3ab-4af1-9087-701ebf5745e3"},"vehicle_type_id":"4","last_reported":1732259365,"current_range_meters":17600,"station_id":"ce4bhnp2rcd13ifvqgvg","pricing_plan_id":"cebpf4jnsgd1na2vs0mg"},{"bike_id":"ce6d46e5-4223-4bce-a0db-85f63ca84039","system_id":"levelo_inurba_marseille","lat":43.30176,"lon":5.40055,"is_reserved":false,"is_disabled":true,"rental_uris":{"android":"levelo://app?vid=ce6d46e5-4223-4bce-a0db-85f63ca84039","ios":"levelo://app?vid=ce6d46e5-4223-4bce-a0db-85f63ca84039"},"vehicle_type_id":"4","last_reported":1732259365,"current_range_meters":0,"station_id":"","pricing_plan_id":"cebpf4jnsgd1na2vs0mg"},{"bike_id":"dc815649-e3e3-48aa-b0fd-022cdb8ac58a","system_id":"levelo_inurba_marseille","lat":43.32363,"lon":5.3888,"is_reserved":false,"is_disabled":false,"rental_uris":{"android":"levelo://app?vid=dc815649-e3e3-48aa-b0fd-022cdb8ac58a","ios":"levelo://app?vid=dc815649-e3e3-48aa-b0fd-022cdb8ac58a"},"vehicle_type_id":"4","last_reported":1732259365,"current_range_meters":36800,"station_id":"ce4bhqp2rcd13ifvqhog","pricing_plan_id":"cebpf4jnsgd1na2vs0mg"},{"bike_id":"c116534c-6147-4248-a440-b6c15dd550d6","system_id":"levelo_inurba_marseille","lat":43.30603,"lon":5.39349,"is_reserved":false,"is_disabled":false,"rental_uris":{"android":"levelo://app?vid=c116534c-6147-4248-a440-b6c15dd550d6","ios":"levelo://app?vid=c116534c-6147-4248-a440-b6c15dd550d6"},"vehicle_type_id":"4","last_reported":1732259365,"current_range_meters":34800,"station_id":"ce4bh0p2rcd13ifvqd80","pricing_plan_id":"cebpf4jnsgd1na2vs0mg"},{"bike_id":"d05fb80d-a57e-4933-90c8-bf0cab193857","system_id":"levelo_inurba_marseille","lat":43.27494,"lon":5.42459,"is_reserved":false,"is_disabled":true,"rental_uris":{"android":"levelo://app?vid=d05fb80d-a57e-4933-90c8-bf0cab193857","ios":"levelo://app?vid=d05fb80d-a57e-4933-90c8-bf0cab193857"},"vehicle_type_id":"4","last_reported":1732259365,"current_range_meters":1200,"station_id":"ce4bhn92rcd13ifvqgrg","pricing_plan_id":"cebpf4jnsgd1na2vs0mg"},{"bike_id":"623cb655-d37d-4c1c-92a3-1dbd173968d5","system_id":"levelo_inurba_marseille","lat":43.26806,"lon":5.40262,"is_reserved":false,"is_disabled":false,"rental_uris":{"android":"levelo://app?vid=623cb655-d37d-4c1c-92a3-1dbd173968d5","ios":"levelo://app?vid=623cb655-d37d-4c1c-92a3-1dbd173968d5"},"vehicle_type_id":"4","last_reported":1732259365,"current_range_meters":38800,"station_id":"ce501612rcd8frsf0b60","pricing_plan_id":"cebpf4jnsgd1na2vs0mg"},{"bike_id":"070a4e3a-ff3e-4b5d-91f1-497d8af78fbb","system_id":"levelo_inurba_marseille","lat":43.26807,"lon":5.40264,"is_reserved":false,"is_disabled":false,"rental_uris":{"android":"levelo://app?vid=070a4e3a-ff3e-4b5d-91f1-497d8af78fbb","ios":"levelo://app?vid=070a4e3a-ff3e-4b5d-91f1-497d8af78fbb"},"vehicle_type_id":"4","last_reported":1732259365,"current_range_meters":38800,"station_id":"ce501612rcd8frsf0b60","pricing_plan_id":"cebpf4jnsgd1na2vs0mg"},{"bike_id":"7f7d84ed-23c2-4538-9329-9b81af03e81d","system_id":"levelo_inurba_marseille","lat":43.24183,"lon":5.39724,"is_reserved":false,"is_disabled":false,"rental_uris":{"android":"levelo://app?vid=7f7d84ed-23c2-4538-9329-9b81af03e81d","ios":"levelo://app?vid=7f7d84ed-23c2-4538-9329-9b81af03e81d"},"vehicle_type_id":"4","last_reported":1732259365,"current_range_meters":4400,"station_id":"ce4bhn12rcd13ifvqgpg","pricing_plan_id":"cebpf4jnsgd1na2vs0mg"},{"bike_id":"88fb266f-d72a-433a-af30-62485258d74f","system_id":"levelo_inurba_marseille","lat":43.27184,"lon":5.40988,"is_reserved":false,"is_disabled":false,"rental_uris":{"android":"levelo://app?vid=88fb266f-d72a-433a-af30-62485258d74f","ios":"levelo://app?vid=88fb266f-d72a-433a-af30-62485258d74f"},"vehicle_type_id":"4","last_reported":1732259365,"current_range_meters":38400,"station_id":"ce4bhl12rcd13ifvqgf0","pricing_plan_id":"cebpf4jnsgd1na2vs0mg"},{"bike_id":"09ee12a7-2e68-4267-aa97-5877a160df71","system_id":"levelo_inurba_marseille","lat":43.27815,"lon":5.40717,"is_reserved":false,"is_disabled":false,"rental_uris":{"android":"levelo://app?vid=09ee12a7-2e68-4267-aa97-5877a160df71","ios":"levelo://app?vid=09ee12a7-2e68-4267-aa97-5877a160df71"},"vehicle_type_id":"4","last_reported":1732259365,"current_range_meters":38800,"station_id":"ce4bhnh2rcd13ifvqgtg","pricing_plan_id":"cebpf4jnsgd1na2vs0mg"},{"bike_id":"0aac31ff-36b7-404f-987f-a97ac9d608bf","system_id":"levelo_inurba_marseille","lat":43.28974,"lon":5.37847,"is_reserved":false,"is_disabled":false,"rental_uris":{"android":"levelo://app?vid=0aac31ff-36b7-404f-987f-a97ac9d608bf","ios":"levelo://app?vid=0aac31ff-36b7-404f-987f-a97ac9d608bf"},"vehicle_type_id":"4","last_reported":1732259365,"current_range_meters":38800,"station_id":"ce4bh9p2rcd13ifvqed0","pricing_plan_id":"cebpf4jnsgd1na2vs0mg"},{"bike_id":"0a047681-6a7b-4983-b631-2782a4940846","system_id":"levelo_inurba_marseille","lat":43.26027,"lon":5.37548,"is_reserved":false,"is_disabled":false,"rental_uris":{"android":"levelo://app?vid=0a047681-6a7b-4983-b631-2782a4940846","ios":"levelo://app?vid=0a047681-6a7b-4983-b631-2782a4940846"},"vehicle_type_id":"4","last_reported":1732259365,"current_range_meters":36800,"station_id":"ce4bhgh2rcd13ifvqfa0","pricing_plan_id":"cebpf4jnsgd1na2vs0mg"},{"bike_id":"cc5ad30f-856f-402d-8b49-76f69f3e127b","system_id":"levelo_inurba_marseille","lat":43.30888,"lon":5.3963,"is_reserved":false,"is_disabled":false,"rental_uris":{"android":"levelo://app?vid=cc5ad30f-856f-402d-8b49-76f69f3e127b","ios":"levelo://app?vid=cc5ad30f-856f-402d-8b49-76f69f3e127b"},"vehicle_type_id":"4","last_reported":1732259365,"current_range_meters":12800,"station_id":"ce4bh012rcd13ifvqcv0","pricing_plan_id":"cebpf4jnsgd1na2vs0mg"},{"bike_id":"8e5f7d32-6613-4d7e-b53d-b5ddff5cb6c6","system_id":"levelo_inurba_marseille","lat":43.23965,"lon":5.36638,"is_reserved":false,"is_disabled":false,"rental_uris":{"android":"levelo://app?vid=8e5f7d32-6613-4d7e-b53d-b5ddff5cb6c6","ios":"levelo://app?vid=8e5f7d32-6613-4d7e-b53d-b5ddff5cb6c6"},"vehicle_type_id":"4","last_reported":1732259365,"current_range_meters":38800,"station_id":"ce4bhi12rcd13ifvqfp0","pricing_plan_id":"cebpf4jnsgd1na2vs0mg"},{"bike_id":"87469aed-5e3b-400d-92dc-c6379bd2c354","system_id":"levelo_inurba_marseille","lat":43.28943,"lon":5.36641,"is_reserved":false,"is_disabled":false,"rental_uris":{"android":"levelo://app?vid=87469aed-5e3b-400d-92dc-c6379bd2c354","ios":"levelo://app?vid=87469aed-5e3b-400d-92dc-c6379bd2c354"},"vehicle_type_id":"4","last_reported":1732259365,"current_range_meters":30400,"station_id":"ce4bhap2rcd13ifvqek0","pricing_plan_id":"cebpf4jnsgd1na2vs0mg"},{"bike_id":"8b1d52dc-190a-4b96-9615-f9f45c121608","system_id":"levelo_inurba_marseille","lat":43.29288,"lon":5.40124,"is_reserved":false,"is_disabled":false,"rental_uris":{"android":"levelo://app?vid=8b1d52dc-190a-4b96-9615-f9f45c121608","ios":"levelo://app?vid=8b1d52dc-190a-4b96-9615-f9f45c121608"},"vehicle_type_id":"4","last_reported":1732259365,"current_range_meters":38800,"station_id":"ce4bh312rcd13ifvqdk0","pricing_plan_id":"cebpf4jnsgd1na2vs0mg"},{"bike_id":"8bd7943a-d6e3-4b69-8209-bb9f99b76dde","system_id":"levelo_inurba_marseille","lat":43.28844,"lon":5.40002,"is_reserved":false,"is_disabled":false,"rental_uris":{"android":"levelo://app?vid=8bd7943a-d6e3-4b69-8209-bb9f99b76dde","ios":"levelo://app?vid=8bd7943a-d6e3-4b69-8209-bb9f99b76dde"},"vehicle_type_id":"4","last_reported":1732259365,"current_range_meters":15200,"station_id":"","pricing_plan_id":"cebpf4jnsgd1na2vs0mg"},{"bike_id":"4670d4e5-7ace-4f57-a80c-27815b8326b3","system_id":"levelo_inurba_marseille","lat":43.28715,"lon":5.37946,"is_reserved":false,"is_disabled":false,"rental_uris":{"android":"levelo://app?vid=4670d4e5-7ace-4f57-a80c-27815b8326b3","ios":"levelo://app?vid=4670d4e5-7ace-4f57-a80c-27815b8326b3"},"vehicle_type_id":"4","last_reported":1732259365,"current_range_meters":30400,"station_id":"ce4bh9p2rcd13ifvqec0","pricing_plan_id":"cebpf4jnsgd1na2vs0mg"},{"bike_id":"42d6fa67-3d3d-427c-a63a-15e267a4a6ee","system_id":"levelo_inurba_marseille","lat":43.27955,"lon":5.41046,"is_reserved":false,"is_disabled":true,"rental_uris":{"android":"levelo://app?vid=42d6fa67-3d3d-427c-a63a-15e267a4a6ee","ios":"levelo://app?vid=42d6fa67-3d3d-427c-a63a-15e267a4a6ee"},"vehicle_type_id":"4","last_reported":1732259365,"current_range_meters":18000,"station_id":"ce4bhnp2rcd13ifvqh0g","pricing_plan_id":"cebpf4jnsgd1na2vs0mg"},{"bike_id":"313b303d-457c-4b34-b321-46c8e8afad7e","system_id":"levelo_inurba_marseille","lat":43.29025,"lon":5.38128,"is_reserved":false,"is_disabled":false,"rental_uris":{"android":"levelo://app?vid=313b303d-457c-4b34-b321-46c8e8afad7e","ios":"levelo://app?vid=313b303d-457c-4b34-b321-46c8e8afad7e"},"vehicle_type_id":"4","last_reported":1732259365,"current_range_meters":27200,"station_id":"ce4bh4p2rcd13ifvqe1g","pricing_plan_id":"cebpf4jnsgd1na2vs0mg"},{"bike_id":"63339ce0-1b14-41a7-8a3d-adff0912dfe7","system_id":"levelo_inurba_marseille","lat":43.287259,"lon":5.36097,"is_reserved":false,"is_disabled":false,"rental_uris":{"android":"levelo://app?vid=63339ce0-1b14-41a7-8a3d-adff0912dfe7","ios":"levelo://app?vid=63339ce0-1b14-41a7-8a3d-adff0912dfe7"},"vehicle_type_id":"4","last_reported":1732259365,"current_range_meters":36400,"station_id":"cki0cbj6b192h4jlfktg","pricing_plan_id":"cebpf4jnsgd1na2vs0mg"},{"bike_id":"231c7bbc-4cef-4843-98ff-a1d1aa950473","system_id":"levelo_inurba_marseille","lat":43.33605,"lon":5.41023,"is_reserved":false,"is_disabled":false,"rental_uris":{"android":"levelo://app?vid=231c7bbc-4cef-4843-98ff-a1d1aa950473","ios":"levelo://app?vid=231c7bbc-4cef-4843-98ff-a1d1aa950473"},"vehicle_type_id":"4","last_reported":1732259365,"current_range_meters":29600,"station_id":"ce4bhqh2rcd13ifvqhmg","pricing_plan_id":"cebpf4jnsgd1na2vs0mg"},{"bike_id":"99aa7099-227e-4b1c-86ca-1ad3dcac5426","system_id":"levelo_inurba_marseille","lat":43.29258,"lon":5.409072,"is_reserved":false,"is_disabled":true,"rental_uris":{"android":"levelo://app?vid=99aa7099-227e-4b1c-86ca-1ad3dcac5426","ios":"levelo://app?vid=99aa7099-227e-4b1c-86ca-1ad3dcac5426"},"vehicle_type_id":"4","last_reported":1732259365,"current_range_meters":30800,"station_id":"ce4bh192rcd13ifvqdc0","pricing_plan_id":"cebpf4jnsgd1na2vs0mg"},{"bike_id":"25b2fa8d-7f65-40fd-9237-8394d8428b8e","system_id":"levelo_inurba_marseille","lat":43.30808,"lon":5.38151,"is_reserved":false,"is_disabled":false,"rental_uris":{"android":"levelo://app?vid=25b2fa8d-7f65-40fd-9237-8394d8428b8e","ios":"levelo://app?vid=25b2fa8d-7f65-40fd-9237-8394d8428b8e"},"vehicle_type_id":"4","last_reported":1732259365,"current_range_meters":38800,"station_id":"ce4bgt12rcd13ifvqce0","pricing_plan_id":"cebpf4jnsgd1na2vs0mg"},{"bike_id":"b40ede3d-3df1-4e75-aa7c-f784505f0ad9","system_id":"levelo_inurba_marseille","lat":43.31999,"lon":5.38149,"is_reserved":false,"is_disabled":false,"rental_uris":{"android":"levelo://app?vid=b40ede3d-3df1-4e75-aa7c-f784505f0ad9","ios":"levelo://app?vid=b40ede3d-3df1-4e75-aa7c-f784505f0ad9"},"vehicle_type_id":"4","last_reported":1732259365,"current_range_meters":38800,"station_id":"ce4bhr12rcd13ifvqhpg","pricing_plan_id":"cebpf4jnsgd1na2vs0mg"},{"bike_id":"94778b22-ba52-4096-b5b4-96317763dfce","system_id":"levelo_inurba_marseille","lat":43.2573,"lon":5.41104,"is_reserved":false,"is_disabled":true,"rental_uris":{"android":"levelo://app?vid=94778b22-ba52-4096-b5b4-96317763dfce","ios":"levelo://app?vid=94778b22-ba52-4096-b5b4-96317763dfce"},"vehicle_type_id":"4","last_reported":1732259365,"current_range_meters":38400,"station_id":"ce4bhkp2rcd13ifvqgd0","pricing_plan_id":"cebpf4jnsgd1na2vs0mg"},{"bike_id":"fece208b-6651-4bf0-acb6-7a3e91bf16dc","system_id":"levelo_inurba_marseille","lat":43.30397,"lon":5.38695,"is_reserved":false,"is_disabled":false,"rental_uris":{"android":"levelo://app?vid=fece208b-6651-4bf0-acb6-7a3e91bf16dc","ios":"levelo://app?vid=fece208b-6651-4bf0-acb6-7a3e91bf16dc"},"vehicle_type_id":"4","last_reported":1732259365,"current_range_meters":28800,"station_id":"","pricing_plan_id":"cebpf4jnsgd1na2vs0mg"},{"bike_id":"68eb8383-8dd1-44ee-bc41-9ee9e9dd61d0","system_id":"levelo_inurba_marseille","lat":43.27819,"lon":5.40715,"is_reserved":false,"is_disabled":false,"rental_uris":{"android":"levelo://app?vid=68eb8383-8dd1-44ee-bc41-9ee9e9dd61d0","ios":"levelo://app?vid=68eb8383-8dd1-44ee-bc41-9ee9e9dd61d0"},"vehicle_type_id":"4","last_reported":1732259365,"current_range_meters":20000,"station_id":"ce4bhnh2rcd13ifvqgtg","pricing_plan_id":"cebpf4jnsgd1na2vs0mg"},{"bike_id":"a8598b14-3a8c-4f36-81ad-f85294e9ecfe","system_id":"levelo_inurba_marseille","lat":43.25006,"lon":5.38927,"is_reserved":false,"is_disabled":false,"rental_uris":{"android":"levelo://app?vid=a8598b14-3a8c-4f36-81ad-f85294e9ecfe","ios":"levelo://app?vid=a8598b14-3a8c-4f36-81ad-f85294e9ecfe"},"vehicle_type_id":"4","last_reported":1732259365,"current_range_meters":38400,"station_id":"ce4bhgp2rcd13ifvqfd0","pricing_plan_id":"cebpf4jnsgd1na2vs0mg"},{"bike_id":"552ae1f9-34eb-4d70-a19b-3616d3661778","system_id":"levelo_inurba_marseille","lat":43.3373,"lon":5.39179,"is_reserved":false,"is_disabled":false,"rental_uris":{"android":"levelo://app?vid=552ae1f9-34eb-4d70-a19b-3616d3661778","ios":"levelo://app?vid=552ae1f9-34eb-4d70-a19b-3616d3661778"},"vehicle_type_id":"4","last_reported":1732259365,"current_range_meters":26000,"station_id":"ce4bhr92rcd13ifvqhsg","pricing_plan_id":"cebpf4jnsgd1na2vs0mg"},{"bike_id":"1e73a5a7-02fe-4e1b-bd87-f3430ce656e6","system_id":"levelo_inurba_marseille","lat":43.32363,"lon":5.38887,"is_reserved":false,"is_disabled":false,"rental_uris":{"android":"levelo://app?vid=1e73a5a7-02fe-4e1b-bd87-f3430ce656e6","ios":"levelo://app?vid=1e73a5a7-02fe-4e1b-bd87-f3430ce656e6"},"vehicle_type_id":"4","last_reported":1732259365,"current_range_meters":38800,"station_id":"ce4bhqp2rcd13ifvqhog","pricing_plan_id":"cebpf4jnsgd1na2vs0mg"},{"bike_id":"537ff586-0d5d-4ae4-bc36-a01b96dcf59b","system_id":"levelo_inurba_marseille","lat":43.28347,"lon":5.38116,"is_reserved":false,"is_disabled":false,"rental_uris":{"android":"levelo://app?vid=537ff586-0d5d-4ae4-bc36-a01b96dcf59b","ios":"levelo://app?vid=537ff586-0d5d-4ae4-bc36-a01b96dcf59b"},"vehicle_type_id":"4","last_reported":1732259365,"current_range_meters":29600,"station_id":"ce4bh412rcd13ifvqdr0","pricing_plan_id":"cebpf4jnsgd1na2vs0mg"},{"bike_id":"6178f234-9efb-45f7-9365-bc8bed638c43","system_id":"levelo_inurba_marseille","lat":43.23176,"lon":5.39995,"is_reserved":false,"is_disabled":false,"rental_uris":{"android":"levelo://app?vid=6178f234-9efb-45f7-9365-bc8bed638c43","ios":"levelo://app?vid=6178f234-9efb-45f7-9365-bc8bed638c43"},"vehicle_type_id":"4","last_reported":1732259365,"current_range_meters":7200,"station_id":"ce4bhn12rcd13ifvqgqg","pricing_plan_id":"cebpf4jnsgd1na2vs0mg"},{"bike_id":"7a942108-16ea-4f98-9d80-82c238759071","system_id":"levelo_inurba_marseille","lat":43.2957,"lon":5.39967,"is_reserved":false,"is_disabled":true,"rental_uris":{"android":"levelo://app?vid=7a942108-16ea-4f98-9d80-82c238759071","ios":"levelo://app?vid=7a942108-16ea-4f98-9d80-82c238759071"},"vehicle_type_id":"4","last_reported":1732259365,"current_range_meters":30000,"station_id":"ce4bh312rcd13ifvqdj0","pricing_plan_id":"cebpf4jnsgd1na2vs0mg"},{"bike_id":"028e5427-36e2-49e1-b3db-260058fffb58","system_id":"levelo_inurba_marseille","lat":43.25572,"lon":5.38236,"is_reserved":false,"is_disabled":false,"rental_uris":{"android":"levelo://app?vid=028e5427-36e2-49e1-b3db-260058fffb58","ios":"levelo://app?vid=028e5427-36e2-49e1-b3db-260058fffb58"},"vehicle_type_id":"4","last_reported":1732259365,"current_range_meters":18000,"station_id":"ce4bhih2rcd13ifvqfs0","pricing_plan_id":"cebpf4jnsgd1na2vs0mg"},{"bike_id":"0f34c480-84cb-4b12-9072-a6f844830c03","system_id":"levelo_inurba_marseille","lat":43.23195,"lon":5.35548,"is_reserved":false,"is_disabled":false,"rental_uris":{"android":"levelo://app?vid=0f34c480-84cb-4b12-9072-a6f844830c03","ios":"levelo://app?vid=0f34c480-84cb-4b12-9072-a6f844830c03"},"vehicle_type_id":"4","last_reported":1732259365,"current_range_meters":37600,"station_id":"ce4bhu92rcd13ifvqi70","pricing_plan_id":"cebpf4jnsgd1na2vs0mg"},{"bike_id":"1453fddf-c64f-4c02-ace1-55caffeaf55e","system_id":"levelo_inurba_marseille","lat":43.32289,"lon":5.38265,"is_reserved":false,"is_disabled":false,"rental_uris":{"android":"levelo://app?vid=1453fddf-c64f-4c02-ace1-55caffeaf55e","ios":"levelo://app?vid=1453fddf-c64f-4c02-ace1-55caffeaf55e"},"vehicle_type_id":"4","last_reported":1732259365,"current_range_meters":35200,"station_id":"ce4bhr12rcd13ifvqhqg","pricing_plan_id":"cebpf4jnsgd1na2vs0mg"},{"bike_id":"7e17a81f-3b24-49e1-a5fc-e88f9462d78d","system_id":"levelo_inurba_marseille","lat":43.28417,"lon":5.40952,"is_reserved":false,"is_disabled":false,"rental_uris":{"android":"levelo://app?vid=7e17a81f-3b24-49e1-a5fc-e88f9462d78d","ios":"levelo://app?vid=7e17a81f-3b24-49e1-a5fc-e88f9462d78d"},"vehicle_type_id":"4","last_reported":1732259365,"current_range_meters":6400,"station_id":"","pricing_plan_id":"cebpf4jnsgd1na2vs0mg"},{"bike_id":"0d5efe48-32bd-461f-be09-c1d5e2d6ef37","system_id":"levelo_inurba_marseille","lat":43.32368,"lon":5.38887,"is_reserved":false,"is_disabled":false,"rental_uris":{"android":"levelo://app?vid=0d5efe48-32bd-461f-be09-c1d5e2d6ef37","ios":"levelo://app?vid=0d5efe48-32bd-461f-be09-c1d5e2d6ef37"},"vehicle_type_id":"4","last_reported":1732259365,"current_range_meters":34800,"station_id":"ce4bhqp2rcd13ifvqhog","pricing_plan_id":"cebpf4jnsgd1na2vs0mg"},{"bike_id":"9cb25104-a344-44e1-b011-ee0babb96f44","system_id":"levelo_inurba_marseille","lat":43.25583,"lon":5.38234,"is_reserved":false,"is_disabled":false,"rental_uris":{"android":"levelo://app?vid=9cb25104-a344-44e1-b011-ee0babb96f44","ios":"levelo://app?vid=9cb25104-a344-44e1-b011-ee0babb96f44"},"vehicle_type_id":"4","last_reported":1732259365,"current_range_meters":35200,"station_id":"ce4bhih2rcd13ifvqfs0","pricing_plan_id":"cebpf4jnsgd1na2vs0mg"},{"bike_id":"61f0e660-3916-460b-ac79-c18b9b1dd5f0","system_id":"levelo_inurba_marseille","lat":43.290319,"lon":5.375575,"is_reserved":false,"is_disabled":true,"rental_uris":{"android":"levelo://app?vid=61f0e660-3916-460b-ac79-c18b9b1dd5f0","ios":"levelo://app?vid=61f0e660-3916-460b-ac79-c18b9b1dd5f0"},"vehicle_type_id":"4","last_reported":1732259365,"current_range_meters":9600,"station_id":"ce4bh692rcd13ifvqe90","pricing_plan_id":"cebpf4jnsgd1na2vs0mg"},{"bike_id":"58db81ff-b69b-4938-ac2d-199d8b71bbea","system_id":"levelo_inurba_marseille","lat":43.29891,"lon":5.3973,"is_reserved":false,"is_disabled":false,"rental_uris":{"android":"levelo://app?vid=58db81ff-b69b-4938-ac2d-199d8b71bbea","ios":"levelo://app?vid=58db81ff-b69b-4938-ac2d-199d8b71bbea"},"vehicle_type_id":"4","last_reported":1732259365,"current_range_meters":38000,"station_id":"ce4bh0h2rcd13ifvqd50","pricing_plan_id":"cebpf4jnsgd1na2vs0mg"},{"bike_id":"1b87fe98-87c1-4874-8cdd-a6f613ca0672","system_id":"levelo_inurba_marseille","lat":43.30211,"lon":5.3947,"is_reserved":false,"is_disabled":false,"rental_uris":{"android":"levelo://app?vid=1b87fe98-87c1-4874-8cdd-a6f613ca0672","ios":"levelo://app?vid=1b87fe98-87c1-4874-8cdd-a6f613ca0672"},"vehicle_type_id":"4","last_reported":1732259365,"current_range_meters":11200,"station_id":"ce4bh0p2rcd13ifvqd70","pricing_plan_id":"cebpf4jnsgd1na2vs0mg"},{"bike_id":"6c985fe0-19ec-4919-92d0-dda502b8988c","system_id":"levelo_inurba_marseille","lat":43.28716,"lon":5.36447,"is_reserved":false,"is_disabled":false,"rental_uris":{"android":"levelo://app?vid=6c985fe0-19ec-4919-92d0-dda502b8988c","ios":"levelo://app?vid=6c985fe0-19ec-4919-92d0-dda502b8988c"},"vehicle_type_id":"4","last_reported":1732259365,"current_range_meters":35600,"station_id":"ce4bgs12rcd13ifvqcag","pricing_plan_id":"cebpf4jnsgd1na2vs0mg"},{"bike_id":"9cce80c1-6041-45d6-b00b-62e201db74da","system_id":"levelo_inurba_marseille","lat":43.30212,"lon":5.39467,"is_reserved":false,"is_disabled":false,"rental_uris":{"android":"levelo://app?vid=9cce80c1-6041-45d6-b00b-62e201db74da","ios":"levelo://app?vid=9cce80c1-6041-45d6-b00b-62e201db74da"},"vehicle_type_id":"4","last_reported":1732259365,"current_range_meters":27600,"station_id":"ce4bh0p2rcd13ifvqd70","pricing_plan_id":"cebpf4jnsgd1na2vs0mg"},{"bike_id":"a96d09c4-b85f-4a9b-a2cb-b0e67000c0f0","system_id":"levelo_inurba_marseille","lat":43.27988,"lon":5.41661,"is_reserved":false,"is_disabled":false,"rental_uris":{"android":"levelo://app?vid=a96d09c4-b85f-4a9b-a2cb-b0e67000c0f0","ios":"levelo://app?vid=a96d09c4-b85f-4a9b-a2cb-b0e67000c0f0"},"vehicle_type_id":"4","last_reported":1732259365,"current_range_meters":39200,"station_id":"ce4bho12rcd13ifvqh1g","pricing_plan_id":"cebpf4jnsgd1na2vs0mg"},{"bike_id":"fe330d03-2849-4175-8373-f2c2a00405da","system_id":"levelo_inurba_marseille","lat":43.30214,"lon":5.39462,"is_reserved":false,"is_disabled":false,"rental_uris":{"android":"levelo://app?vid=fe330d03-2849-4175-8373-f2c2a00405da","ios":"levelo://app?vid=fe330d03-2849-4175-8373-f2c2a00405da"},"vehicle_type_id":"4","last_reported":1732259365,"current_range_meters":6400,"station_id":"ce4bh0p2rcd13ifvqd70","pricing_plan_id":"cebpf4jnsgd1na2vs0mg"},{"bike_id":"3d40b3dc-dbe3-4297-9e1d-39968a65e360","system_id":"levelo_inurba_marseille","lat":43.30213,"lon":5.39467,"is_reserved":false,"is_disabled":false,"rental_uris":{"android":"levelo://app?vid=3d40b3dc-dbe3-4297-9e1d-39968a65e360","ios":"levelo://app?vid=3d40b3dc-dbe3-4297-9e1d-39968a65e360"},"vehicle_type_id":"4","last_reported":1732259365,"current_range_meters":17200,"station_id":"ce4bh0p2rcd13ifvqd70","pricing_plan_id":"cebpf4jnsgd1na2vs0mg"},{"bike_id":"aa2508e3-f617-4ce8-b37c-b6f878341a38","system_id":"levelo_inurba_marseille","lat":43.32539,"lon":5.41427,"is_reserved":false,"is_disabled":false,"rental_uris":{"android":"levelo://app?vid=aa2508e3-f617-4ce8-b37c-b6f878341a38","ios":"levelo://app?vid=aa2508e3-f617-4ce8-b37c-b6f878341a38"},"vehicle_type_id":"4","last_reported":1732259365,"current_range_meters":20400,"station_id":"ce4bhq12rcd13ifvqhhg","pricing_plan_id":"cebpf4jnsgd1na2vs0mg"},{"bike_id":"796dac1e-b92c-478b-8572-8a73fdc202b8","system_id":"levelo_inurba_marseille","lat":43.24263,"lon":5.37969,"is_reserved":false,"is_disabled":true,"rental_uris":{"android":"levelo://app?vid=796dac1e-b92c-478b-8572-8a73fdc202b8","ios":"levelo://app?vid=796dac1e-b92c-478b-8572-8a73fdc202b8"},"vehicle_type_id":"4","last_reported":1732259365,"current_range_meters":0,"station_id":"","pricing_plan_id":"cebpf4jnsgd1na2vs0mg"},{"bike_id":"e4ce58e6-3ad4-4dde-bd59-a2f2190128c5","system_id":"levelo_inurba_marseille","lat":43.31718,"lon":5.42408,"is_reserved":false,"is_disabled":false,"rental_uris":{"android":"levelo://app?vid=e4ce58e6-3ad4-4dde-bd59-a2f2190128c5","ios":"levelo://app?vid=e4ce58e6-3ad4-4dde-bd59-a2f2190128c5"},"vehicle_type_id":"4","last_reported":1732259365,"current_range_meters":37600,"station_id":"ce4bhp92rcd13ifvqhbg","pricing_plan_id":"cebpf4jnsgd1na2vs0mg"},{"bike_id":"e4e3495c-9d93-4eff-a4ab-712e0ae01181","system_id":"levelo_inurba_marseille","lat":43.265598,"lon":5.390074,"is_reserved":false,"is_disabled":false,"rental_uris":{"android":"levelo://app?vid=e4e3495c-9d93-4eff-a4ab-712e0ae01181","ios":"levelo://app?vid=e4e3495c-9d93-4eff-a4ab-712e0ae01181"},"vehicle_type_id":"4","last_reported":1732259365,"current_range_meters":38000,"station_id":"ce4bhe12rcd13ifvqf30","pricing_plan_id":"cebpf4jnsgd1na2vs0mg"},{"bike_id":"c096e68c-8e2b-4fc3-b6a9-4e51f77609e1","system_id":"levelo_inurba_marseille","lat":43.27974,"lon":5.38739,"is_reserved":false,"is_disabled":false,"rental_uris":{"android":"levelo://app?vid=c096e68c-8e2b-4fc3-b6a9-4e51f77609e1","ios":"levelo://app?vid=c096e68c-8e2b-4fc3-b6a9-4e51f77609e1"},"vehicle_type_id":"4","last_reported":1732259365,"current_range_meters":39200,"station_id":"ce4bhg12rcd13ifvqf80","pricing_plan_id":"cebpf4jnsgd1na2vs0mg"},{"bike_id":"7fd26ca3-2a51-4632-be94-852f37c94644","system_id":"levelo_inurba_marseille","lat":43.29602,"lon":5.3811,"is_reserved":false,"is_disabled":false,"rental_uris":{"android":"levelo://app?vid=7fd26ca3-2a51-4632-be94-852f37c94644","ios":"levelo://app?vid=7fd26ca3-2a51-4632-be94-852f37c94644"},"vehicle_type_id":"4","last_reported":1732259365,"current_range_meters":38000,"station_id":"ce4bgl12rcd13ifvqbo0","pricing_plan_id":"cebpf4jnsgd1na2vs0mg"},{"bike_id":"fd447cfc-d8cb-4bb5-a987-666257a3522e","system_id":"levelo_inurba_marseille","lat":43.26952,"lon":5.38636,"is_reserved":false,"is_disabled":false,"rental_uris":{"android":"levelo://app?vid=fd447cfc-d8cb-4bb5-a987-666257a3522e","ios":"levelo://app?vid=fd447cfc-d8cb-4bb5-a987-666257a3522e"},"vehicle_type_id":"4","last_reported":1732259365,"current_range_meters":38800,"station_id":"ce4bhh92rcd13ifvqfh0","pricing_plan_id":"cebpf4jnsgd1na2vs0mg"},{"bike_id":"e5951ee3-4a5a-4ebb-b469-096c5188dfa3","system_id":"levelo_inurba_marseille","lat":43.23187,"lon":5.35555,"is_reserved":false,"is_disabled":false,"rental_uris":{"android":"levelo://app?vid=e5951ee3-4a5a-4ebb-b469-096c5188dfa3","ios":"levelo://app?vid=e5951ee3-4a5a-4ebb-b469-096c5188dfa3"},"vehicle_type_id":"4","last_reported":1732259365,"current_range_meters":30000,"station_id":"ce4bhu92rcd13ifvqi70","pricing_plan_id":"cebpf4jnsgd1na2vs0mg"},{"bike_id":"8d13985d-3bdf-49ab-9373-fe6216716dff","system_id":"levelo_inurba_marseille","lat":43.27453,"lon":5.39019,"is_reserved":false,"is_disabled":false,"rental_uris":{"android":"levelo://app?vid=8d13985d-3bdf-49ab-9373-fe6216716dff","ios":"levelo://app?vid=8d13985d-3bdf-49ab-9373-fe6216716dff"},"vehicle_type_id":"4","last_reported":1732259365,"current_range_meters":31200,"station_id":"","pricing_plan_id":"cebpf4jnsgd1na2vs0mg"},{"bike_id":"a9102ff6-59e5-4c10-a23b-c9778f84b7a0","system_id":"levelo_inurba_marseille","lat":43.25829,"lon":5.39436,"is_reserved":false,"is_disabled":false,"rental_uris":{"android":"levelo://app?vid=a9102ff6-59e5-4c10-a23b-c9778f84b7a0","ios":"levelo://app?vid=a9102ff6-59e5-4c10-a23b-c9778f84b7a0"},"vehicle_type_id":"4","last_reported":1732259365,"current_range_meters":30400,"station_id":"ce4bhip2rcd13ifvqft0","pricing_plan_id":"cebpf4jnsgd1na2vs0mg"},{"bike_id":"598543c3-4504-4ea3-976e-b45e767de5ed","system_id":"levelo_inurba_marseille","lat":43.32364,"lon":5.38877,"is_reserved":false,"is_disabled":false,"rental_uris":{"android":"levelo://app?vid=598543c3-4504-4ea3-976e-b45e767de5ed","ios":"levelo://app?vid=598543c3-4504-4ea3-976e-b45e767de5ed"},"vehicle_type_id":"4","last_reported":1732259365,"current_range_meters":36800,"station_id":"ce4bhqp2rcd13ifvqhog","pricing_plan_id":"cebpf4jnsgd1na2vs0mg"},{"bike_id":"d5c12476-e159-4982-b3dc-43383aae89b8","system_id":"levelo_inurba_marseille","lat":43.34144,"lon":5.40913,"is_reserved":false,"is_disabled":false,"rental_uris":{"android":"levelo://app?vid=d5c12476-e159-4982-b3dc-43383aae89b8","ios":"levelo://app?vid=d5c12476-e159-4982-b3dc-43383aae89b8"},"vehicle_type_id":"4","last_reported":1732259365,"current_range_meters":38800,"station_id":"ce4bhqh2rcd13ifvqhlg","pricing_plan_id":"cebpf4jnsgd1na2vs0mg"},{"bike_id":"44abef4f-7bb3-417f-9f17-632a234b6e5d","system_id":"levelo_inurba_marseille","lat":43.32106,"lon":5.36778,"is_reserved":false,"is_disabled":false,"rental_uris":{"android":"levelo://app?vid=44abef4f-7bb3-417f-9f17-632a234b6e5d","ios":"levelo://app?vid=44abef4f-7bb3-417f-9f17-632a234b6e5d"},"vehicle_type_id":"4","last_reported":1732259365,"current_range_meters":24400,"station_id":"ce4bhrh2rcd13ifvqhug","pricing_plan_id":"cebpf4jnsgd1na2vs0mg"},{"bike_id":"fe1f871c-a7a4-4864-8781-9bd2743909f5","system_id":"levelo_inurba_marseille","lat":43.24479,"lon":5.36911,"is_reserved":false,"is_disabled":true,"rental_uris":{"android":"levelo://app?vid=fe1f871c-a7a4-4864-8781-9bd2743909f5","ios":"levelo://app?vid=fe1f871c-a7a4-4864-8781-9bd2743909f5"},"vehicle_type_id":"4","last_reported":1732259365,"current_range_meters":27200,"station_id":"","pricing_plan_id":"cebpf4jnsgd1na2vs0mg"},{"bike_id":"6c948e9c-d5b3-4fe5-a918-1bd2f7c83b02","system_id":"levelo_inurba_marseille","lat":43.321093,"lon":5.367737,"is_reserved":false,"is_disabled":false,"rental_uris":{"android":"levelo://app?vid=6c948e9c-d5b3-4fe5-a918-1bd2f7c83b02","ios":"levelo://app?vid=6c948e9c-d5b3-4fe5-a918-1bd2f7c83b02"},"vehicle_type_id":"4","last_reported":1732259365,"current_range_meters":38000,"station_id":"ce4bhrh2rcd13ifvqhug","pricing_plan_id":"cebpf4jnsgd1na2vs0mg"},{"bike_id":"9e620abf-d324-4f99-84fc-d67e71109f2a","system_id":"levelo_inurba_marseille","lat":43.31078,"lon":5.42428,"is_reserved":false,"is_disabled":true,"rental_uris":{"android":"levelo://app?vid=9e620abf-d324-4f99-84fc-d67e71109f2a","ios":"levelo://app?vid=9e620abf-d324-4f99-84fc-d67e71109f2a"},"vehicle_type_id":"4","last_reported":1732259365,"current_range_meters":6400,"station_id":"ce4bhp92rcd13ifvqhag","pricing_plan_id":"cebpf4jnsgd1na2vs0mg"},{"bike_id":"50624ef6-6aa1-49d0-b144-28c36aa08066","system_id":"levelo_inurba_marseille","lat":43.29833,"lon":5.38094,"is_reserved":false,"is_disabled":false,"rental_uris":{"android":"levelo://app?vid=50624ef6-6aa1-49d0-b144-28c36aa08066","ios":"levelo://app?vid=50624ef6-6aa1-49d0-b144-28c36aa08066"},"vehicle_type_id":"4","last_reported":1732259365,"current_range_meters":8400,"station_id":"ce4bgip2rcd13ifvqbb0","pricing_plan_id":"cebpf4jnsgd1na2vs0mg"},{"bike_id":"2b19cca3-01dd-44f4-b763-6da6cd2f0ca4","system_id":"levelo_inurba_marseille","lat":43.29373,"lon":5.3784,"is_reserved":false,"is_disabled":false,"rental_uris":{"android":"levelo://app?vid=2b19cca3-01dd-44f4-b763-6da6cd2f0ca4","ios":"levelo://app?vid=2b19cca3-01dd-44f4-b763-6da6cd2f0ca4"},"vehicle_type_id":"4","last_reported":1732259365,"current_range_meters":38400,"station_id":"ce4bgjh2rcd13ifvqbf0","pricing_plan_id":"cebpf4jnsgd1na2vs0mg"},{"bike_id":"97e5627d-d937-44c6-a208-4c28d738ddf5","system_id":"levelo_inurba_marseille","lat":43.28571,"lon":5.39509,"is_reserved":false,"is_disabled":false,"rental_uris":{"android":"levelo://app?vid=97e5627d-d937-44c6-a208-4c28d738ddf5","ios":"levelo://app?vid=97e5627d-d937-44c6-a208-4c28d738ddf5"},"vehicle_type_id":"4","last_reported":1732259365,"current_range_meters":38800,"station_id":"ce4bh292rcd13ifvqdg0","pricing_plan_id":"cebpf4jnsgd1na2vs0mg"},{"bike_id":"7073b1ab-16ae-4a15-9f35-08d42cf799ed","system_id":"levelo_inurba_marseille","lat":43.32285,"lon":5.38268,"is_reserved":false,"is_disabled":false,"rental_uris":{"android":"levelo://app?vid=7073b1ab-16ae-4a15-9f35-08d42cf799ed","ios":"levelo://app?vid=7073b1ab-16ae-4a15-9f35-08d42cf799ed"},"vehicle_type_id":"4","last_reported":1732259365,"current_range_meters":38800,"station_id":"ce4bhr12rcd13ifvqhqg","pricing_plan_id":"cebpf4jnsgd1na2vs0mg"},{"bike_id":"a822fdc0-eaeb-4c8b-9f1e-7199326739b4","system_id":"levelo_inurba_marseille","lat":43.27493,"lon":5.42452,"is_reserved":false,"is_disabled":false,"rental_uris":{"android":"levelo://app?vid=a822fdc0-eaeb-4c8b-9f1e-7199326739b4","ios":"levelo://app?vid=a822fdc0-eaeb-4c8b-9f1e-7199326739b4"},"vehicle_type_id":"4","last_reported":1732259365,"current_range_meters":7200,"station_id":"ce4bhn92rcd13ifvqgrg","pricing_plan_id":"cebpf4jnsgd1na2vs0mg"},{"bike_id":"bd00794b-1129-4bdf-848e-d8127829ecbf","system_id":"levelo_inurba_marseille","lat":43.337444,"lon":5.374475,"is_reserved":false,"is_disabled":false,"rental_uris":{"android":"levelo://app?vid=bd00794b-1129-4bdf-848e-d8127829ecbf","ios":"levelo://app?vid=bd00794b-1129-4bdf-848e-d8127829ecbf"},"vehicle_type_id":"4","last_reported":1732259365,"current_range_meters":9200,"station_id":"","pricing_plan_id":"cebpf4jnsgd1na2vs0mg"},{"bike_id":"5c53cfbd-2547-413a-b79a-f8cc3b1ca992","system_id":"levelo_inurba_marseille","lat":43.32106,"lon":5.36775,"is_reserved":false,"is_disabled":false,"rental_uris":{"android":"levelo://app?vid=5c53cfbd-2547-413a-b79a-f8cc3b1ca992","ios":"levelo://app?vid=5c53cfbd-2547-413a-b79a-f8cc3b1ca992"},"vehicle_type_id":"4","last_reported":1732259365,"current_range_meters":17600,"station_id":"ce4bhrh2rcd13ifvqhug","pricing_plan_id":"cebpf4jnsgd1na2vs0mg"},{"bike_id":"6000d21d-52dd-420e-a24a-755d203b5406","system_id":"levelo_inurba_marseille","lat":43.29042,"lon":5.38637,"is_reserved":false,"is_disabled":false,"rental_uris":{"android":"levelo://app?vid=6000d21d-52dd-420e-a24a-755d203b5406","ios":"levelo://app?vid=6000d21d-52dd-420e-a24a-755d203b5406"},"vehicle_type_id":"4","last_reported":1732259365,"current_range_meters":26800,"station_id":"ce4bh4p2rcd13ifvqe0g","pricing_plan_id":"cebpf4jnsgd1na2vs0mg"},{"bike_id":"7474ea9b-afb7-4722-b004-35119436888b","system_id":"levelo_inurba_marseille","lat":43.2695,"lon":5.38635,"is_reserved":false,"is_disabled":true,"rental_uris":{"android":"levelo://app?vid=7474ea9b-afb7-4722-b004-35119436888b","ios":"levelo://app?vid=7474ea9b-afb7-4722-b004-35119436888b"},"vehicle_type_id":"4","last_reported":1732259365,"current_range_meters":0,"station_id":"ce4bhh92rcd13ifvqfh0","pricing_plan_id":"cebpf4jnsgd1na2vs0mg"},{"bike_id":"0d31c408-577b-4253-8976-112ee9c31452","system_id":"levelo_inurba_marseille","lat":43.26958,"lon":5.38632,"is_reserved":false,"is_disabled":false,"rental_uris":{"android":"levelo://app?vid=0d31c408-577b-4253-8976-112ee9c31452","ios":"levelo://app?vid=0d31c408-577b-4253-8976-112ee9c31452"},"vehicle_type_id":"4","last_reported":1732259365,"current_range_meters":23200,"station_id":"ce4bhh92rcd13ifvqfh0","pricing_plan_id":"cebpf4jnsgd1na2vs0mg"},{"bike_id":"ae3d2688-f5b8-454f-a033-3980f6df0d0e","system_id":"levelo_inurba_marseille","lat":43.30469,"lon":5.37908,"is_reserved":false,"is_disabled":false,"rental_uris":{"android":"levelo://app?vid=ae3d2688-f5b8-454f-a033-3980f6df0d0e","ios":"levelo://app?vid=ae3d2688-f5b8-454f-a033-3980f6df0d0e"},"vehicle_type_id":"4","last_reported":1732259365,"current_range_meters":25200,"station_id":"ce4bgup2rcd13ifvqcn0","pricing_plan_id":"cebpf4jnsgd1na2vs0mg"},{"bike_id":"ced939b2-a2ab-40e5-b140-575509bab6d1","system_id":"levelo_inurba_marseille","lat":43.33019,"lon":5.39039,"is_reserved":false,"is_disabled":false,"rental_uris":{"android":"levelo://app?vid=ced939b2-a2ab-40e5-b140-575509bab6d1","ios":"levelo://app?vid=ced939b2-a2ab-40e5-b140-575509bab6d1"},"vehicle_type_id":"4","last_reported":1732259365,"current_range_meters":17200,"station_id":"ce4bhr92rcd13ifvqhrg","pricing_plan_id":"cebpf4jnsgd1na2vs0mg"},{"bike_id":"4674a573-a71e-41c0-a925-5c021c5e6c25","system_id":"levelo_inurba_marseille","lat":43.29421,"lon":5.37469,"is_reserved":false,"is_disabled":true,"rental_uris":{"android":"levelo://app?vid=4674a573-a71e-41c0-a925-5c021c5e6c25","ios":"levelo://app?vid=4674a573-a71e-41c0-a925-5c021c5e6c25"},"vehicle_type_id":"4","last_reported":1732259365,"current_range_meters":0,"station_id":"","pricing_plan_id":"cebpf4jnsgd1na2vs0mg"},{"bike_id":"0b5699ed-714a-423d-9620-465923306d55","system_id":"levelo_inurba_marseille","lat":43.24072,"lon":5.37766,"is_reserved":false,"is_disabled":false,"rental_uris":{"android":"levelo://app?vid=0b5699ed-714a-423d-9620-465923306d55","ios":"levelo://app?vid=0b5699ed-714a-423d-9620-465923306d55"},"vehicle_type_id":"4","last_reported":1732259365,"current_range_meters":14800,"station_id":"ce4bhnp2rcd13ifvqgvg","pricing_plan_id":"cebpf4jnsgd1na2vs0mg"},{"bike_id":"cde5eb04-35f5-4971-aec4-8004f9b2dcd9","system_id":"levelo_inurba_marseille","lat":43.2828,"lon":5.35063,"is_reserved":false,"is_disabled":true,"rental_uris":{"android":"levelo://app?vid=cde5eb04-35f5-4971-aec4-8004f9b2dcd9","ios":"levelo://app?vid=cde5eb04-35f5-4971-aec4-8004f9b2dcd9"},"vehicle_type_id":"4","last_reported":1732259365,"current_range_meters":0,"station_id":"ce4bhbp2rcd13ifvqerg","pricing_plan_id":"cebpf4jnsgd1na2vs0mg"},{"bike_id":"cd2fc641-098f-491b-8eaf-4dc1703543da","system_id":"levelo_inurba_marseille","lat":43.26565,"lon":5.39007,"is_reserved":false,"is_disabled":false,"rental_uris":{"android":"levelo://app?vid=cd2fc641-098f-491b-8eaf-4dc1703543da","ios":"levelo://app?vid=cd2fc641-098f-491b-8eaf-4dc1703543da"},"vehicle_type_id":"4","last_reported":1732259365,"current_range_meters":36400,"station_id":"ce4bhe12rcd13ifvqf30","pricing_plan_id":"cebpf4jnsgd1na2vs0mg"},{"bike_id":"4024c177-e689-450a-884b-5392fcf58a24","system_id":"levelo_inurba_marseille","lat":43.32287,"lon":5.38273,"is_reserved":false,"is_disabled":false,"rental_uris":{"android":"levelo://app?vid=4024c177-e689-450a-884b-5392fcf58a24","ios":"levelo://app?vid=4024c177-e689-450a-884b-5392fcf58a24"},"vehicle_type_id":"4","last_reported":1732259365,"current_range_meters":6800,"station_id":"ce4bhr12rcd13ifvqhqg","pricing_plan_id":"cebpf4jnsgd1na2vs0mg"},{"bike_id":"83237ff9-1428-4076-8a80-8e455b4bccf3","system_id":"levelo_inurba_marseille","lat":43.30883,"lon":5.39634,"is_reserved":false,"is_disabled":true,"rental_uris":{"android":"levelo://app?vid=83237ff9-1428-4076-8a80-8e455b4bccf3","ios":"levelo://app?vid=83237ff9-1428-4076-8a80-8e455b4bccf3"},