{"last_updated":1743934223,"ttl":60,"version":"2.2","data":{"bikes":[{"bike_id":"037f55b3-2e95-4159-9b1b-2e75972e0084","system_id":"levelo_inurba_marseille","lat":43.30194,"lon":5.36628,"is_reserved":false,"is_disabled":false,"rental_uris":{"android":"levelo://app?vid=037f55b3-2e95-4159-9b1b-2e75972e0084","ios":"levelo://app?vid=037f55b3-2e95-4159-9b1b-2e75972e0084"},"vehicle_type_id":"4","last_reported":1743934223,"current_range_meters":2800,"station_id":"ce4bgrh2rcd13ifvqc8g","pricing_plan_id":"cebpf4jnsgd1na2vs0mg"},{"bike_id":"be55b736-3aaf-4278-b81a-f641a2479bd1","system_id":"levelo_inurba_marseille","lat":43.23061,"lon":5.35487,"is_reserved":false,"is_disabled":false,"rental_uris":{"android":"levelo://app?vid=be55b736-3aaf-4278-b81a-f641a2479bd1","ios":"levelo://app?vid=be55b736-3aaf-4278-b81a-f641a2479bd1"},"vehicle_type_id":"4","last_reported":1743934223,"current_range_meters":2800,"station_id":"cpo3342slgdg3j2ifvpg","pricing_plan_id":"cebpf4jnsgd1na2vs0mg"},{"bike_id":"c73a85e2-fb2d-4d21-bea0-c717ffa7bb89","system_id":"levelo_inurba_marseille","lat":43.30436,"lon":5.3669,"is_reserved":false,"is_disabled":true,"rental_uris":{"android":"levelo://app?vid=c73a85e2-fb2d-4d21-bea0-c717ffa7bb89","ios":"levelo://app?vid=c73a85e2-fb2d-4d21-bea0-c717ffa7bb89"},"vehicle_type_id":"4","last_reported":1743934223,"current_range_meters":3200,"station_id":"","pricing_plan_id":"cebpf4jnsgd1na2vs0mg"},{"bike_id":"050a0ea3-f288-4335-82d4-1c0a70d44252","system_id":"levelo_inurba_marseille","lat":43.29564,"lon":5.37361,"is_reserved":false,"is_disabled":false,"rental_uris":{"android":"levelo://app?vid=050a0ea3-f288-4335-82d4-1c0a70d44252","ios":"levelo://app?vid=050a0ea3-f288-4335-82d4-1c0a70d44252"},"vehicle_type_id":"4","last_reported":1743934223,"current_range_meters":3200,"station_id":"","pricing_plan_id":"cebpf4jnsgd1na2vs0mg"},{"bike_id":"986fadc2-f230-47c7-8d1d-e643bece8289","system_id":"levelo_inurba_marseille","lat":43.24173,"lon":5.39743,"is_reserved":false,"is_disabled":false,"rental_uris":{"android":"levelo://app?vid=986fadc2-f230-47c7-8d1d-e643bece8289","ios":"levelo://app?vid=986fadc2-f230-47c7-8d1d-e643bece8289"},"vehicle_type_id":"4","last_reported":1743934223,"current_range_meters":3200,"station_id":"ce4bhn12rcd13ifvqgpg","pricing_plan_id":"cebpf4jnsgd1na2vs0mg"},{"bike_id":"2244e016-3e47-49a7-9667-a076cc0d1855","system_id":"levelo_inurba_marseille","lat":43.27808,"lon":5.40713,"is_reserved":false,"is_disabled":false,"rental_uris":{"android":"levelo://app?vid=2244e016-3e47-49a7-9667-a076cc0d1855","ios":"levelo://app?vid=2244e016-3e47-49a7-9667-a076cc0d1855"},"vehicle_type_id":"4","last_reported":1743934223,"current_range_meters":2800,"station_id":"ce4bhnh2rcd13ifvqgtg","pricing_plan_id":"cebpf4jnsgd1na2vs0mg"},{"bike_id":"de50bbab-1368-4da3-a92a-1e482f1dcc12","system_id":"levelo_inurba_marseille","lat":43.2906,"lon":5.37155,"is_reserved":false,"is_disabled":false,"rental_uris":{"android":"levelo://app?vid=de50bbab-1368-4da3-a92a-1e482f1dcc12","ios":"levelo://app?vid=de50bbab-1368-4da3-a92a-1e482f1dcc12"},"vehicle_type_id":"4","last_reported":1743934223,"current_range_meters":3200,"station_id":"ce4bh5p2rcd13ifvqe4g","pricing_plan_id":"cebpf4jnsgd1na2vs0mg"},{"bike_id":"9c88552f-7cbc-4341-84dd-417bd4eae896","system_id":"levelo_inurba_marseille","lat":43.24807,"lon":5.37455,"is_reserved":false,"is_disabled":false,"rental_uris":{"android":"levelo://app?vid=9c88552f-7cbc-4341-84dd-417bd4eae896","ios":"levelo://app?vid=9c88552f-7cbc-4341-84dd-417bd4eae896"},"vehicle_type_id":"4","last_reported":1743934223,"current_range_meters":3200,"station_id":"ce4bhgh2rcd13ifvqfb0","pricing_plan_id":"cebpf4jnsgd1na2vs0mg"},{"bike_id":"e7b956ce-2ab2-4301-8fd3-6312d753e8f6","system_id":"levelo_inurba_marseille","lat":43.24666,"lon":5.38158,"is_reserved":false,"is_disabled":true,"rental_uris":{"android":"levelo://app?vid=e7b956ce-2ab2-4301-8fd3-6312d753e8f6","ios":"levelo://app?vid=e7b956ce-2ab2-4301-8fd3-6312d753e8f6"},"vehicle_type_id":"4","last_reported":1743934223,"current_range_meters":3600,"station_id":"ce4bhih2rcd13ifvqfr0","pricing_plan_id":"cebpf4jnsgd1na2vs0mg"},{"bike_id":"8e7aa241-0763-4d92-835a-255beebeed8d","system_id":"levelo_inurba_marseille","lat":43.295989,"lon":5.381027,"is_reserved":false,"is_disabled":false,"rental_uris":{"android":"levelo://app?vid=8e7aa241-0763-4d92-835a-255beebeed8d","ios":"levelo://app?vid=8e7aa241-0763-4d92-835a-255beebeed8d"},"vehicle_type_id":"4","last_reported":1743934223,"current_range_meters":3600,"station_id":"ce4bgl12rcd13ifvqbo0","pricing_plan_id":"cebpf4jnsgd1na2vs0mg"},{"bike_id":"288267db-bf40-4b2f-98cd-1abc9da268aa","system_id":"levelo_inurba_marseille","lat":43.255,"lon":5.37653,"is_reserved":false,"is_disabled":false,"rental_uris":{"android":"levelo://app?vid=288267db-bf40-4b2f-98cd-1abc9da268aa","ios":"levelo://app?vid=288267db-bf40-4b2f-98cd-1abc9da268aa"},"vehicle_type_id":"4","last_reported":1743934223,"current_range_meters":4000,"station_id":"ce4bhh12rcd13ifvqff0","pricing_plan_id":"cebpf4jnsgd1na2vs0mg"},{"bike_id":"8fa92ff1-c2cb-4fa2-b3ce-e14c12ce1bf4","system_id":"levelo_inurba_marseille","lat":43.28181,"lon":5.42681,"is_reserved":false,"is_disabled":false,"rental_uris":{"android":"levelo://app?vid=8fa92ff1-c2cb-4fa2-b3ce-e14c12ce1bf4","ios":"levelo://app?vid=8fa92ff1-c2cb-4fa2-b3ce-e14c12ce1bf4"},"vehicle_type_id":"4","last_reported":1743934223,"current_range_meters":4400,"station_id":"ce4bhnh2rcd13ifvqgug","pricing_plan_id":"cebpf4jnsgd1na2vs0mg"},{"bike_id":"9a36e749-313f-43fc-ac90-b52b5015306e","system_id":"levelo_inurba_marseille","lat":43.21193,"lon":5.35071,"is_reserved":false,"is_disabled":false,"rental_uris":{"android":"levelo://app?vid=9a36e749-313f-43fc-ac90-b52b5015306e","ios":"levelo://app?vid=9a36e749-313f-43fc-ac90-b52b5015306e"},"vehicle_type_id":"4","last_reported":1743934223,"current_range_meters":4400,"station_id":"st_cvj6sg6p6f1abm77japg","pricing_plan_id":"cebpf4jnsgd1na2vs0mg"},{"bike_id":"1635800a-7aa6-4151-bce5-a34b05eba667","system_id":"levelo_inurba_marseille","lat":43.31073,"lon":5.38361,"is_reserved":false,"is_disabled":false,"rental_uris":{"android":"levelo://app?vid=1635800a-7aa6-4151-bce5-a34b05eba667","ios":"levelo://app?vid=1635800a-7aa6-4151-bce5-a34b05eba667"},"vehicle_type_id":"4","last_reported":1743934223,"current_range_meters":4400,"station_id":"ce4bgv92rcd13ifvqcr0","pricing_plan_id":"cebpf4jnsgd1na2vs0mg"},{"bike_id":"feb6e46c-3fb2-45a9-a2fb-22ac62feb505","system_id":"levelo_inurba_marseille","lat":43.23064,"lon":5.35494,"is_reserved":false,"is_disabled":true,"rental_uris":{"android":"levelo://app?vid=feb6e46c-3fb2-45a9-a2fb-22ac62feb505","ios":"levelo://app?vid=feb6e46c-3fb2-45a9-a2fb-22ac62feb505"},"vehicle_type_id":"4","last_reported":1743934223,"current_range_meters":4400,"station_id":"cpo3342slgdg3j2ifvpg","pricing_plan_id":"cebpf4jnsgd1na2vs0mg"},{"bike_id":"00cb19b4-d8e0-485f-a15a-3e8fa94a0c5e","system_id":"levelo_inurba_marseille","lat":43.23061,"lon":5.35486,"is_reserved":false,"is_disabled":false,"rental_uris":{"android":"levelo://app?vid=00cb19b4-d8e0-485f-a15a-3e8fa94a0c5e","ios":"levelo://app?vid=00cb19b4-d8e0-485f-a15a-3e8fa94a0c5e"},"vehicle_type_id":"4","last_reported":1743934223,"current_range_meters":4800,"station_id":"cpo3342slgdg3j2ifvpg","pricing_plan_id":"cebpf4jnsgd1na2vs0mg"},{"bike_id":"b538d2a3-4f09-4b79-be69-a689cd7559df","system_id":"levelo_inurba_marseille","lat":43.28148,"lon":5.42639,"is_reserved":false,"is_disabled":false,"rental_uris":{"android":"levelo://app?vid=b538d2a3-4f09-4b79-be69-a689cd7559df","ios":"levelo://app?vid=b538d2a3-4f09-4b79-be69-a689cd7559df"},"vehicle_type_id":"4","last_reported":1743934223,"current_range_meters":4800,"station_id":"ce4bhnh2rcd13ifvqgug","pricing_plan_id":"cebpf4jnsgd1na2vs0mg"},{"bike_id":"2cbb6dc3-aafd-42a1-8326-324602b54fb8","system_id":"levelo_inurba_marseille","lat":43.23143,"lon":5.43702,"is_reserved":false,"is_disabled":false,"rental_uris":{"android":"levelo://app?vid=2cbb6dc3-aafd-42a1-8326-324602b54fb8","ios":"levelo://app?vid=2cbb6dc3-aafd-42a1-8326-324602b54fb8"},"vehicle_type_id":"4","last_reported":1743934223,"current_range_meters":4800,"station_id":"ce4bhmp2rcd13ifvqgog","pricing_plan_id":"cebpf4jnsgd1na2vs0mg"},{"bike_id":"cb26abe7-dbbf-4163-a5ba-302d5933f79e","system_id":"levelo_inurba_marseille","lat":43.2293,"lon":5.35375,"is_reserved":false,"is_disabled":false,"rental_uris":{"android":"levelo://app?vid=cb26abe7-dbbf-4163-a5ba-302d5933f79e","ios":"levelo://app?vid=cb26abe7-dbbf-4163-a5ba-302d5933f79e"},"vehicle_type_id":"4","last_reported":1743934223,"current_range_meters":5600,"station_id":"cpo3532slgdg3j2ikp40","pricing_plan_id":"cebpf4jnsgd1na2vs0mg"},{"bike_id":"9fe929f7-d7ac-4455-876f-ab3d27792e39","system_id":"levelo_inurba_marseille","lat":43.29845,"lon":5.36273,"is_reserved":false,"is_disabled":false,"rental_uris":{"android":"levelo://app?vid=9fe929f7-d7ac-4455-876f-ab3d27792e39","ios":"levelo://app?vid=9fe929f7-d7ac-4455-876f-ab3d27792e39"},"vehicle_type_id":"4","last_reported":1743934223,"current_range_meters":5600,"station_id":"ce4bgpp2rcd13ifvqc3g","pricing_plan_id":"cebpf4jnsgd1na2vs0mg"},{"bike_id":"dcaa303c-c90e-4dbe-a066-83bca5808075","system_id":"levelo_inurba_marseille","lat":43.255804,"lon":5.382338,"is_reserved":false,"is_disabled":false,"rental_uris":{"android":"levelo://app?vid=dcaa303c-c90e-4dbe-a066-83bca5808075","ios":"levelo://app?vid=dcaa303c-c90e-4dbe-a066-83bca5808075"},"vehicle_type_id":"4","last_reported":1743934223,"current_range_meters":4800,"station_id":"ce4bhih2rcd13ifvqfs0","pricing_plan_id":"cebpf4jnsgd1na2vs0mg"},{"bike_id":"1b3a4547-4e46-4ea0-ab1d-61ddf3559c3d","system_id":"levelo_inurba_marseille","lat":43.27806,"lon":5.40704,"is_reserved":false,"is_disabled":false,"rental_uris":{"android":"levelo://app?vid=1b3a4547-4e46-4ea0-ab1d-61ddf3559c3d","ios":"levelo://app?vid=1b3a4547-4e46-4ea0-ab1d-61ddf3559c3d"},"vehicle_type_id":"4","last_reported":1743934223,"current_range_meters":6000,"station_id":"ce4bhnh2rcd13ifvqgtg","pricing_plan_id":"cebpf4jnsgd1na2vs0mg"},{"bike_id":"fb0d4993-67fa-4314-9525-ef2ba9197c72","system_id":"levelo_inurba_marseille","lat":43.30321,"lon":5.4059,"is_reserved":false,"is_disabled":false,"rental_uris":{"android":"levelo://app?vid=fb0d4993-67fa-4314-9525-ef2ba9197c72","ios":"levelo://app?vid=fb0d4993-67fa-4314-9525-ef2ba9197c72"},"vehicle_type_id":"4","last_reported":1743934223,"current_range_meters":6000,"station_id":"","pricing_plan_id":"cebpf4jnsgd1na2vs0mg"},{"bike_id":"ac7a85da-6a1d-42f4-b3e0-decaec458451","system_id":"levelo_inurba_marseille","lat":43.22917,"lon":5.35374,"is_reserved":false,"is_disabled":true,"rental_uris":{"android":"levelo://app?vid=ac7a85da-6a1d-42f4-b3e0-decaec458451","ios":"levelo://app?vid=ac7a85da-6a1d-42f4-b3e0-decaec458451"},"vehicle_type_id":"4","last_reported":1743934223,"current_range_meters":6000,"station_id":"cpo3532slgdg3j2ikp40","pricing_plan_id":"cebpf4jnsgd1na2vs0mg"},{"bike_id":"72bf7179-d0ce-4574-88ef-9320fde316f7","system_id":"levelo_inurba_marseille","lat":43.23959,"lon":5.3664,"is_reserved":false,"is_disabled":false,"rental_uris":{"android":"levelo://app?vid=72bf7179-d0ce-4574-88ef-9320fde316f7","ios":"levelo://app?vid=72bf7179-d0ce-4574-88ef-9320fde316f7"},"vehicle_type_id":"4","last_reported":1743934223,"current_range_meters":6000,"station_id":"ce4bhi12rcd13ifvqfp0","pricing_plan_id":"cebpf4jnsgd1na2vs0mg"},{"bike_id":"fb7a6658-65a4-4af9-acc1-679ce624548f","system_id":"levelo_inurba_marseille","lat":43.26209,"lon":5.40454,"is_reserved":false,"is_disabled":false,"rental_uris":{"android":"levelo://app?vid=fb7a6658-65a4-4af9-acc1-679ce624548f","ios":"levelo://app?vid=fb7a6658-65a4-4af9-acc1-679ce624548f"},"vehicle_type_id":"4","last_reported":1743934223,"current_range_meters":6400,"station_id":"ce4bhmh2rcd13ifvqgmg","pricing_plan_id":"cebpf4jnsgd1na2vs0mg"},{"bike_id":"eb79d1f9-7c91-4ea2-b5f8-796189743e1a","system_id":"levelo_inurba_marseille","lat":43.33724,"lon":5.39179,"is_reserved":false,"is_disabled":false,"rental_uris":{"android":"levelo://app?vid=eb79d1f9-7c91-4ea2-b5f8-796189743e1a","ios":"levelo://app?vid=eb79d1f9-7c91-4ea2-b5f8-796189743e1a"},"vehicle_type_id":"4","last_reported":1743934223,"current_range_meters":6400,"station_id":"ce4bhr92rcd13ifvqhsg","pricing_plan_id":"cebpf4jnsgd1na2vs0mg"},{"bike_id":"8e8105ce-63e2-4441-9ebe-d6a09a08a22e","system_id":"levelo_inurba_marseille","lat":43.29668,"lon":5.36204,"is_reserved":false,"is_disabled":false,"rental_uris":{"android":"levelo://app?vid=8e8105ce-63e2-4441-9ebe-d6a09a08a22e","ios":"levelo://app?vid=8e8105ce-63e2-4441-9ebe-d6a09a08a22e"},"vehicle_type_id":"4","last_reported":1743934223,"current_range_meters":6400,"station_id":"","pricing_plan_id":"cebpf4jnsgd1na2vs0mg"},{"bike_id":"6d8de12f-a5c8-4495-9b9e-d7214b4590bf","system_id":"levelo_inurba_marseille","lat":43.27072,"lon":5.42276,"is_reserved":false,"is_disabled":false,"rental_uris":{"android":"levelo://app?vid=6d8de12f-a5c8-4495-9b9e-d7214b4590bf","ios":"levelo://app?vid=6d8de12f-a5c8-4495-9b9e-d7214b4590bf"},"vehicle_type_id":"4","last_reported":1743934223,"current_range_meters":6400,"station_id":"ce4bhk92rcd13ifvqgb0","pricing_plan_id":"cebpf4jnsgd1na2vs0mg"},{"bike_id":"d5e984d3-343e-4e16-bd54-bc3ebbd48639","system_id":"levelo_inurba_marseille","lat":43.30127,"lon":5.38785,"is_reserved":false,"is_disabled":true,"rental_uris":{"android":"levelo://app?vid=d5e984d3-343e-4e16-bd54-bc3ebbd48639","ios":"levelo://app?vid=d5e984d3-343e-4e16-bd54-bc3ebbd48639"},"vehicle_type_id":"4","last_reported":1743934223,"current_range_meters":6800,"station_id":"ce4bghh2rcd13ifvqb60","pricing_plan_id":"cebpf4jnsgd1na2vs0mg"},{"bike_id":"a9dcfe20-824e-43a2-b06c-d3d088fe16cb","system_id":"levelo_inurba_marseille","lat":43.24386,"lon":5.37055,"is_reserved":false,"is_disabled":false,"rental_uris":{"android":"levelo://app?vid=a9dcfe20-824e-43a2-b06c-d3d088fe16cb","ios":"levelo://app?vid=a9dcfe20-824e-43a2-b06c-d3d088fe16cb"},"vehicle_type_id":"4","last_reported":1743934223,"current_range_meters":6800,"station_id":"ce4bhhh2rcd13ifvqfk0","pricing_plan_id":"cebpf4jnsgd1na2vs0mg"},{"bike_id":"8dd189c7-edcf-4b6c-b754-41bc248967e1","system_id":"levelo_inurba_marseille","lat":43.29794,"lon":5.40391,"is_reserved":false,"is_disabled":false,"rental_uris":{"android":"levelo://app?vid=8dd189c7-edcf-4b6c-b754-41bc248967e1","ios":"levelo://app?vid=8dd189c7-edcf-4b6c-b754-41bc248967e1"},"vehicle_type_id":"4","last_reported":1743934223,"current_range_meters":6800,"station_id":"ce4bh112rcd13ifvqd90","pricing_plan_id":"cebpf4jnsgd1na2vs0mg"},{"bike_id":"b8e21406-89e1-46e9-87c7-bbd647cdbdd3","system_id":"levelo_inurba_marseille","lat":43.25582,"lon":5.38226,"is_reserved":false,"is_disabled":false,"rental_uris":{"android":"levelo://app?vid=b8e21406-89e1-46e9-87c7-bbd647cdbdd3","ios":"levelo://app?vid=b8e21406-89e1-46e9-87c7-bbd647cdbdd3"},"vehicle_type_id":"4","last_reported":1743934223,"current_range_meters":6400,"station_id":"ce4bhih2rcd13ifvqfs0","pricing_plan_id":"cebpf4jnsgd1na2vs0mg"},{"bike_id":"98514e77-22f5-4e2b-9f65-8efc32d06320","system_id":"levelo_inurba_marseille","lat":43.25113,"lon":5.40347,"is_reserved":false,"is_disabled":false,"rental_uris":{"android":"levelo://app?vid=98514e77-22f5-4e2b-9f65-8efc32d06320","ios":"levelo://app?vid=98514e77-22f5-4e2b-9f65-8efc32d06320"},"vehicle_type_id":"4","last_reported":1743934223,"current_range_meters":6800,"station_id":"ce4bhlh2rcd13ifvqgig","pricing_plan_id":"cebpf4jnsgd1na2vs0mg"},{"bike_id":"da2c0523-95d2-4536-9674-1400e7cb2212","system_id":"levelo_inurba_marseille","lat":43.24184,"lon":5.39724,"is_reserved":false,"is_disabled":false,"rental_uris":{"android":"levelo://app?vid=da2c0523-95d2-4536-9674-1400e7cb2212","ios":"levelo://app?vid=da2c0523-95d2-4536-9674-1400e7cb2212"},"vehicle_type_id":"4","last_reported":1743934223,"current_range_meters":6800,"station_id":"ce4bhn12rcd13ifvqgpg","pricing_plan_id":"cebpf4jnsgd1na2vs0mg"},{"bike_id":"896e9e61-55ed-4868-a188-0a199fd3beb5","system_id":"levelo_inurba_marseille","lat":43.27569,"lon":5.38429,"is_reserved":false,"is_disabled":false,"rental_uris":{"android":"levelo://app?vid=896e9e61-55ed-4868-a188-0a199fd3beb5","ios":"levelo://app?vid=896e9e61-55ed-4868-a188-0a199fd3beb5"},"vehicle_type_id":"4","last_reported":1743934223,"current_range_meters":6800,"station_id":"ce4bhh92rcd13ifvqfi0","pricing_plan_id":"cebpf4jnsgd1na2vs0mg"},{"bike_id":"ee3afc47-3f83-4880-b8af-fe0b4a55c550","system_id":"levelo_inurba_marseille","lat":43.28608,"lon":5.37062,"is_reserved":false,"is_disabled":false,"rental_uris":{"android":"levelo://app?vid=ee3afc47-3f83-4880-b8af-fe0b4a55c550","ios":"levelo://app?vid=ee3afc47-3f83-4880-b8af-fe0b4a55c550"},"vehicle_type_id":"4","last_reported":1743934223,"current_range_meters":6800,"station_id":"ce4bht12rcd13ifvqi60","pricing_plan_id":"cebpf4jnsgd1na2vs0mg"},{"bike_id":"3435abb6-7f0c-4eef-9edc-c9092b20c8cf","system_id":"levelo_inurba_marseille","lat":43.29976,"lon":5.37178,"is_reserved":false,"is_disabled":false,"rental_uris":{"android":"levelo://app?vid=3435abb6-7f0c-4eef-9edc-c9092b20c8cf","ios":"levelo://app?vid=3435abb6-7f0c-4eef-9edc-c9092b20c8cf"},"vehicle_type_id":"4","last_reported":1743934223,"current_range_meters":7200,"station_id":"ce4bgr92rcd13ifvqc7g","pricing_plan_id":"cebpf4jnsgd1na2vs0mg"},{"bike_id":"597e3cb0-7bf1-4c5c-814c-bff699977597","system_id":"levelo_inurba_marseille","lat":43.3316,"lon":5.38149,"is_reserved":false,"is_disabled":false,"rental_uris":{"android":"levelo://app?vid=597e3cb0-7bf1-4c5c-814c-bff699977597","ios":"levelo://app?vid=597e3cb0-7bf1-4c5c-814c-bff699977597"},"vehicle_type_id":"4","last_reported":1743934223,"current_range_meters":7200,"station_id":"","pricing_plan_id":"cebpf4jnsgd1na2vs0mg"},{"bike_id":"53bc376f-e4d1-4ba2-b652-37ab1ceb6614","system_id":"levelo_inurba_marseille","lat":43.27372,"lon":5.36257,"is_reserved":false,"is_disabled":false,"rental_uris":{"android":"levelo://app?vid=53bc376f-e4d1-4ba2-b652-37ab1ceb6614","ios":"levelo://app?vid=53bc376f-e4d1-4ba2-b652-37ab1ceb6614"},"vehicle_type_id":"4","last_reported":1743934223,"current_range_meters":7200,"station_id":"ce4bhbh2rcd13ifvqeo0","pricing_plan_id":"cebpf4jnsgd1na2vs0mg"},{"bike_id":"9378cab7-1ef7-47d6-af28-c6473192be1a","system_id":"levelo_inurba_marseille","lat":43.311809,"lon":5.40775,"is_reserved":false,"is_disabled":false,"rental_uris":{"android":"levelo://app?vid=9378cab7-1ef7-47d6-af28-c6473192be1a","ios":"levelo://app?vid=9378cab7-1ef7-47d6-af28-c6473192be1a"},"vehicle_type_id":"4","last_reported":1743934223,"current_range_meters":7200,"station_id":"","pricing_plan_id":"cebpf4jnsgd1na2vs0mg"},{"bike_id":"4e8ba2ad-6642-45f9-9e7a-168335038d02","system_id":"levelo_inurba_marseille","lat":43.28419,"lon":5.37502,"is_reserved":false,"is_disabled":false,"rental_uris":{"android":"levelo://app?vid=4e8ba2ad-6642-45f9-9e7a-168335038d02","ios":"levelo://app?vid=4e8ba2ad-6642-45f9-9e7a-168335038d02"},"vehicle_type_id":"4","last_reported":1743934223,"current_range_meters":7200,"station_id":"ce4bh412rcd13ifvqds0","pricing_plan_id":"cebpf4jnsgd1na2vs0mg"},{"bike_id":"d0a10f6f-b535-48bd-8067-86f19477a3ea","system_id":"levelo_inurba_marseille","lat":43.24647,"lon":5.38919,"is_reserved":false,"is_disabled":false,"rental_uris":{"android":"levelo://app?vid=d0a10f6f-b535-48bd-8067-86f19477a3ea","ios":"levelo://app?vid=d0a10f6f-b535-48bd-8067-86f19477a3ea"},"vehicle_type_id":"4","last_reported":1743934223,"current_range_meters":7200,"station_id":"ce4bhg12rcd13ifvqf60","pricing_plan_id":"cebpf4jnsgd1na2vs0mg"},{"bike_id":"fdfd01fc-093d-4c48-8c80-06fe1b4633e3","system_id":"levelo_inurba_marseille","lat":43.29249,"lon":5.3844,"is_reserved":false,"is_disabled":true,"rental_uris":{"android":"levelo://app?vid=fdfd01fc-093d-4c48-8c80-06fe1b4633e3","ios":"levelo://app?vid=fdfd01fc-093d-4c48-8c80-06fe1b4633e3"},"vehicle_type_id":"4","last_reported":1743934223,"current_range_meters":8000,"station_id":"ce4bh692rcd13ifvqea0","pricing_plan_id":"cebpf4jnsgd1na2vs0mg"},{"bike_id":"9d5e033b-05b5-411f-8f82-5b44142c931e","system_id":"levelo_inurba_marseille","lat":43.25823,"lon":5.39434,"is_reserved":false,"is_disabled":false,"rental_uris":{"android":"levelo://app?vid=9d5e033b-05b5-411f-8f82-5b44142c931e","ios":"levelo://app?vid=9d5e033b-05b5-411f-8f82-5b44142c931e"},"vehicle_type_id":"4","last_reported":1743934223,"current_range_meters":8000,"station_id":"ce4bhip2rcd13ifvqft0","pricing_plan_id":"cebpf4jnsgd1na2vs0mg"},{"bike_id":"267eeb16-6453-4fb7-8038-3b408a6bb427","system_id":"levelo_inurba_marseille","lat":43.31418,"lon":5.36995,"is_reserved":false,"is_disabled":false,"rental_uris":{"android":"levelo://app?vid=267eeb16-6453-4fb7-8038-3b408a6bb427","ios":"levelo://app?vid=267eeb16-6453-4fb7-8038-3b408a6bb427"},"vehicle_type_id":"4","last_reported":1743934223,"current_range_meters":8000,"station_id":"","pricing_plan_id":"cebpf4jnsgd1na2vs0mg"},{"bike_id":"0bf34a5d-3c50-4f31-899b-4566f03329b0","system_id":"levelo_inurba_marseille","lat":43.23066,"lon":5.35489,"is_reserved":false,"is_disabled":false,"rental_uris":{"android":"levelo://app?vid=0bf34a5d-3c50-4f31-899b-4566f03329b0","ios":"levelo://app?vid=0bf34a5d-3c50-4f31-899b-4566f03329b0"},"vehicle_type_id":"4","last_reported":1743934223,"current_range_meters":8000,"station_id":"cpo3342slgdg3j2ifvpg","pricing_plan_id":"cebpf4jnsgd1na2vs0mg"},{"bike_id":"c12b6a1f-085a-413f-a6ce-680e9afe7fd1","system_id":"levelo_inurba_marseille","lat":43.29783,"lon":5.38093,"is_reserved":false,"is_disabled":true,"rental_uris":{"android":"levelo://app?vid=c12b6a1f-085a-413f-a6ce-680e9afe7fd1","ios":"levelo://app?vid=c12b6a1f-085a-413f-a6ce-680e9afe7fd1"},"vehicle_type_id":"4","last_reported":1743934223,"current_range_meters":8000,"station_id":"ce4bgip2rcd13ifvqbb0","pricing_plan_id":"cebpf4jnsgd1na2vs0mg"},{"bike_id":"30b57730-cb66-4122-bd93-7dabcaba84e7","system_id":"levelo_inurba_marseille","lat":43.24907,"lon":5.40691,"is_reserved":false,"is_disabled":false,"rental_uris":{"android":"levelo://app?vid=30b57730-cb66-4122-bd93-7dabcaba84e7","ios":"levelo://app?vid=30b57730-cb66-4122-bd93-7dabcaba84e7"},"vehicle_type_id":"4","last_reported":1743934223,"current_range_meters":8000,"station_id":"","pricing_plan_id":"cebpf4jnsgd1na2vs0mg"},{"bike_id":"cccc69f1-96fb-4b82-be01-31ee50980a76","system_id":"levelo_inurba_marseille","lat":43.3013,"lon":5.398665,"is_reserved":false,"is_disabled":false,"rental_uris":{"android":"levelo://app?vid=cccc69f1-96fb-4b82-be01-31ee50980a76","ios":"levelo://app?vid=cccc69f1-96fb-4b82-be01-31ee50980a76"},"vehicle_type_id":"4","last_reported":1743934223,"current_range_meters":4400,"station_id":"ce4bh0h2rcd13ifvqd40","pricing_plan_id":"cebpf4jnsgd1na2vs0mg"},{"bike_id":"d038f6bc-94ee-4332-b7fd-8b03da226fc5","system_id":"levelo_inurba_marseille","lat":43.22934,"lon":5.35377,"is_reserved":false,"is_disabled":false,"rental_uris":{"android":"levelo://app?vid=d038f6bc-94ee-4332-b7fd-8b03da226fc5","ios":"levelo://app?vid=d038f6bc-94ee-4332-b7fd-8b03da226fc5"},"vehicle_type_id":"4","last_reported":1743934223,"current_range_meters":8000,"station_id":"cpo3532slgdg3j2ikp40","pricing_plan_id":"cebpf4jnsgd1na2vs0mg"},{"bike_id":"5519561e-6a78-4e38-8de4-84b7f76a38b0","system_id":"levelo_inurba_marseille","lat":43.30926,"lon":5.4017,"is_reserved":false,"is_disabled":true,"rental_uris":{"android":"levelo://app?vid=5519561e-6a78-4e38-8de4-84b7f76a38b0","ios":"levelo://app?vid=5519561e-6a78-4e38-8de4-84b7f76a38b0"},"vehicle_type_id":"4","last_reported":1743934223,"current_range_meters":8000,"station_id":"ce4bgvp2rcd13ifvqct0","pricing_plan_id":"cebpf4jnsgd1na2vs0mg"},{"bike_id":"db29433a-c7f6-40d6-b0e1-3a1f0abf15ab","system_id":"levelo_inurba_marseille","lat":43.241712,"lon":5.364041,"is_reserved":false,"is_disabled":true,"rental_uris":{"android":"levelo://app?vid=db29433a-c7f6-40d6-b0e1-3a1f0abf15ab","ios":"levelo://app?vid=db29433a-c7f6-40d6-b0e1-3a1f0abf15ab"},"vehicle_type_id":"4","last_reported":1743934223,"current_range_meters":8400,"station_id":"ce4bh412rcd13ifvqdr0","pricing_plan_id":"cebpf4jnsgd1na2vs0mg"},{"bike_id":"a6a4aada-4dec-4c66-9029-bd9ebff46b38","system_id":"levelo_inurba_marseille","lat":43.313289,"lon":5.397016,"is_reserved":false,"is_disabled":false,"rental_uris":{"android":"levelo://app?vid=a6a4aada-4dec-4c66-9029-bd9ebff46b38","ios":"levelo://app?vid=a6a4aada-4dec-4c66-9029-bd9ebff46b38"},"vehicle_type_id":"4","last_reported":1743934223,"current_range_meters":8400,"station_id":"ce4bgvp2rcd13ifvqcu0","pricing_plan_id":"cebpf4jnsgd1na2vs0mg"},{"bike_id":"300b867c-c55d-4f82-a45a-3e6a267cc54e","system_id":"levelo_inurba_marseille","lat":43.23066,"lon":5.35488,"is_reserved":false,"is_disabled":false,"rental_uris":{"android":"levelo://app?vid=300b867c-c55d-4f82-a45a-3e6a267cc54e","ios":"levelo://app?vid=300b867c-c55d-4f82-a45a-3e6a267cc54e"},"vehicle_type_id":"4","last_reported":1743934223,"current_range_meters":8400,"station_id":"cpo3342slgdg3j2ifvpg","pricing_plan_id":"cebpf4jnsgd1na2vs0mg"},{"bike_id":"b7a6d371-4cea-45c6-b168-85005dec8f56","system_id":"levelo_inurba_marseille","lat":43.31333,"lon":5.39707,"is_reserved":false,"is_disabled":false,"rental_uris":{"android":"levelo://app?vid=b7a6d371-4cea-45c6-b168-85005dec8f56","ios":"levelo://app?vid=b7a6d371-4cea-45c6-b168-85005dec8f56"},"vehicle_type_id":"4","last_reported":1743934223,"current_range_meters":8400,"station_id":"ce4bgvp2rcd13ifvqcu0","pricing_plan_id":"cebpf4jnsgd1na2vs0mg"},{"bike_id":"4c25fb76-cd0e-4544-8837-d2585ee48375","system_id":"levelo_inurba_marseille","lat":43.298905,"lon":5.436681,"is_reserved":false,"is_disabled":false,"rental_uris":{"android":"levelo://app?vid=4c25fb76-cd0e-4544-8837-d2585ee48375","ios":"levelo://app?vid=4c25fb76-cd0e-4544-8837-d2585ee48375"},"vehicle_type_id":"4","last_reported":1743934223,"current_range_meters":8400,"station_id":"ce4bhpp2rcd13ifvqhfg","pricing_plan_id":"cebpf4jnsgd1na2vs0mg"},{"bike_id":"a7c2c1f2-f86f-41e7-bd6d-8a6dfae4d3eb","system_id":"levelo_inurba_marseille","lat":43.28609,"lon":5.37061,"is_reserved":false,"is_disabled":false,"rental_uris":{"android":"levelo://app?vid=a7c2c1f2-f86f-41e7-bd6d-8a6dfae4d3eb","ios":"levelo://app?vid=a7c2c1f2-f86f-41e7-bd6d-8a6dfae4d3eb"},"vehicle_type_id":"4","last_reported":1743934223,"current_range_meters":8400,"station_id":"ce4bht12rcd13ifvqi60","pricing_plan_id":"cebpf4jnsgd1na2vs0mg"},{"bike_id":"e5a7e6b1-2168-407f-8739-469989498272","system_id":"levelo_inurba_marseille","lat":43.31699,"lon":5.43713,"is_reserved":false,"is_disabled":false,"rental_uris":{"android":"levelo://app?vid=e5a7e6b1-2168-407f-8739-469989498272","ios":"levelo://app?vid=e5a7e6b1-2168-407f-8739-469989498272"},"vehicle_type_id":"4","last_reported":1743934223,"current_range_meters":8400,"station_id":"ce4bhp92rcd13ifvqhcg","pricing_plan_id":"cebpf4jnsgd1na2vs0mg"},{"bike_id":"9f3986ed-7e09-49d3-8d97-dbac184e8474","system_id":"levelo_inurba_marseille","lat":43.269,"lon":5.38624,"is_reserved":false,"is_disabled":false,"rental_uris":{"android":"levelo://app?vid=9f3986ed-7e09-49d3-8d97-dbac184e8474","ios":"levelo://app?vid=9f3986ed-7e09-49d3-8d97-dbac184e8474"},"vehicle_type_id":"4","last_reported":1743934223,"current_range_meters":8400,"station_id":"","pricing_plan_id":"cebpf4jnsgd1na2vs0mg"},{"bike_id":"45b4008f-54c1-4d17-8bbf-96f80d4fa84f","system_id":"levelo_inurba_marseille","lat":43.321091,"lon":5.367794,"is_reserved":false,"is_disabled":false,"rental_uris":{"android":"levelo://app?vid=45b4008f-54c1-4d17-8bbf-96f80d4fa84f","ios":"levelo://app?vid=45b4008f-54c1-4d17-8bbf-96f80d4fa84f"},"vehicle_type_id":"4","last_reported":1743934223,"current_range_meters":8400,"station_id":"ce4bhrh2rcd13ifvqhug","pricing_plan_id":"cebpf4jnsgd1na2vs0mg"},{"bike_id":"02ac6a13-5778-4c84-a653-72d04daf8c9b","system_id":"levelo_inurba_marseille","lat":43.26209,"lon":5.37442,"is_reserved":false,"is_disabled":false,"rental_uris":{"android":"levelo://app?vid=02ac6a13-5778-4c84-a653-72d04daf8c9b","ios":"levelo://app?vid=02ac6a13-5778-4c84-a653-72d04daf8c9b"},"vehicle_type_id":"4","last_reported":1743934223,"current_range_meters":8400,"station_id":"ce4bhgp2rcd13ifvqfc0","pricing_plan_id":"cebpf4jnsgd1na2vs0mg"},{"bike_id":"02779b29-7a5d-439e-936a-d77d08eab911","system_id":"levelo_inurba_marseille","lat":43.25002,"lon":5.38925,"is_reserved":false,"is_disabled":false,"rental_uris":{"android":"levelo://app?vid=02779b29-7a5d-439e-936a-d77d08eab911","ios":"levelo://app?vid=02779b29-7a5d-439e-936a-d77d08eab911"},"vehicle_type_id":"4","last_reported":1743934223,"current_range_meters":8400,"station_id":"ce4bhgp2rcd13ifvqfd0","pricing_plan_id":"cebpf4jnsgd1na2vs0mg"},{"bike_id":"1f46e922-a983-49af-b7bb-82e4799fe95d","system_id":"levelo_inurba_marseille","lat":43.26554,"lon":5.37283,"is_reserved":false,"is_disabled":false,"rental_uris":{"android":"levelo://app?vid=1f46e922-a983-49af-b7bb-82e4799fe95d","ios":"levelo://app?vid=1f46e922-a983-49af-b7bb-82e4799fe95d"},"vehicle_type_id":"4","last_reported":1743934223,"current_range_meters":8400,"station_id":"ce4bhg12rcd13ifvqf70","pricing_plan_id":"cebpf4jnsgd1na2vs0mg"},{"bike_id":"619bed52-6ad3-4816-b72f-bebe3179f299","system_id":"levelo_inurba_marseille","lat":43.29701,"lon":5.36611,"is_reserved":false,"is_disabled":true,"rental_uris":{"android":"levelo://app?vid=619bed52-6ad3-4816-b72f-bebe3179f299","ios":"levelo://app?vid=619bed52-6ad3-4816-b72f-bebe3179f299"},"vehicle_type_id":"4","last_reported":1743934223,"current_range_meters":8800,"station_id":"ce4bgn12rcd13ifvqbt0","pricing_plan_id":"cebpf4jnsgd1na2vs0mg"},{"bike_id":"301b6729-c45c-4915-8ef6-dadde3959d3d","system_id":"levelo_inurba_marseille","lat":43.265609,"lon":5.390161,"is_reserved":false,"is_disabled":true,"rental_uris":{"android":"levelo://app?vid=301b6729-c45c-4915-8ef6-dadde3959d3d","ios":"levelo://app?vid=301b6729-c45c-4915-8ef6-dadde3959d3d"},"vehicle_type_id":"4","last_reported":1743934223,"current_range_meters":8800,"station_id":"ce4bhe12rcd13ifvqf30","pricing_plan_id":"cebpf4jnsgd1na2vs0mg"},{"bike_id":"43718d37-b132-4a2d-9430-23101833a89e","system_id":"levelo_inurba_marseille","lat":43.30835,"lon":5.38075,"is_reserved":false,"is_disabled":false,"rental_uris":{"android":"levelo://app?vid=43718d37-b132-4a2d-9430-23101833a89e","ios":"levelo://app?vid=43718d37-b132-4a2d-9430-23101833a89e"},"vehicle_type_id":"4","last_reported":1743934223,"current_range_meters":8800,"station_id":"","pricing_plan_id":"cebpf4jnsgd1na2vs0mg"},{"bike_id":"1d16e172-d477-4a96-8d7d-42ff6a622d2e","system_id":"levelo_inurba_marseille","lat":43.24693,"lon":5.41176,"is_reserved":false,"is_disabled":false,"rental_uris":{"android":"levelo://app?vid=1d16e172-d477-4a96-8d7d-42ff6a622d2e","ios":"levelo://app?vid=1d16e172-d477-4a96-8d7d-42ff6a622d2e"},"vehicle_type_id":"4","last_reported":1743934223,"current_range_meters":8800,"station_id":"","pricing_plan_id":"cebpf4jnsgd1na2vs0mg"},{"bike_id":"7a935817-47e2-4cb3-8324-a647fdf3a140","system_id":"levelo_inurba_marseille","lat":43.2953,"lon":5.38549,"is_reserved":false,"is_disabled":true,"rental_uris":{"android":"levelo://app?vid=7a935817-47e2-4cb3-8324-a647fdf3a140","ios":"levelo://app?vid=7a935817-47e2-4cb3-8324-a647fdf3a140"},"vehicle_type_id":"4","last_reported":1743934223,"current_range_meters":8800,"station_id":"ce4bgih2rcd13ifvqba0","pricing_plan_id":"cebpf4jnsgd1na2vs0mg"},{"bike_id":"596c8839-b7cf-45b4-a690-17d962944c1f","system_id":"levelo_inurba_marseille","lat":43.24648,"lon":5.38908,"is_reserved":false,"is_disabled":false,"rental_uris":{"android":"levelo://app?vid=596c8839-b7cf-45b4-a690-17d962944c1f","ios":"levelo://app?vid=596c8839-b7cf-45b4-a690-17d962944c1f"},"vehicle_type_id":"4","last_reported":1743934223,"current_range_meters":8800,"station_id":"ce4bhg12rcd13ifvqf60","pricing_plan_id":"cebpf4jnsgd1na2vs0mg"},{"bike_id":"aeaafdce-072b-410b-bb71-bd5216dc505b","system_id":"levelo_inurba_marseille","lat":43.2313,"lon":5.40048,"is_reserved":false,"is_disabled":false,"rental_uris":{"android":"levelo://app?vid=aeaafdce-072b-410b-bb71-bd5216dc505b","ios":"levelo://app?vid=aeaafdce-072b-410b-bb71-bd5216dc505b"},"vehicle_type_id":"4","last_reported":1743934223,"current_range_meters":9200,"station_id":"","pricing_plan_id":"cebpf4jnsgd1na2vs0mg"},{"bike_id":"1622461e-25a5-4ec6-9188-643400d8cf0e","system_id":"levelo_inurba_marseille","lat":43.308,"lon":5.435293,"is_reserved":false,"is_disabled":false,"rental_uris":{"android":"levelo://app?vid=1622461e-25a5-4ec6-9188-643400d8cf0e","ios":"levelo://app?vid=1622461e-25a5-4ec6-9188-643400d8cf0e"},"vehicle_type_id":"4","last_reported":1743934223,"current_range_meters":9200,"station_id":"ce4bhph2rcd13ifvqheg","pricing_plan_id":"cebpf4jnsgd1na2vs0mg"},{"bike_id":"6b6a8aef-8598-4cf3-b8df-3b495ddf55dd","system_id":"levelo_inurba_marseille","lat":43.32038,"lon":5.41535,"is_reserved":false,"is_disabled":false,"rental_uris":{"android":"levelo://app?vid=6b6a8aef-8598-4cf3-b8df-3b495ddf55dd","ios":"levelo://app?vid=6b6a8aef-8598-4cf3-b8df-3b495ddf55dd"},"vehicle_type_id":"4","last_reported":1743934223,"current_range_meters":9200,"station_id":"ce4bhq92rcd13ifvqhkg","pricing_plan_id":"cebpf4jnsgd1na2vs0mg"},{"bike_id":"b70cced5-dc6e-4ac4-aef4-4cfbee9a2e11","system_id":"levelo_inurba_marseille","lat":43.29602,"lon":5.37713,"is_reserved":false,"is_disabled":true,"rental_uris":{"android":"levelo://app?vid=b70cced5-dc6e-4ac4-aef4-4cfbee9a2e11","ios":"levelo://app?vid=b70cced5-dc6e-4ac4-aef4-4cfbee9a2e11"},"vehicle_type_id":"4","last_reported":1743934223,"current_range_meters":9200,"station_id":"ce4bgi92rcd13ifvqb90","pricing_plan_id":"cebpf4jnsgd1na2vs0mg"},{"bike_id":"d45e12a1-e0b1-434a-9664-ecd990299001","system_id":"levelo_inurba_marseille","lat":43.27617,"lon":5.361,"is_reserved":false,"is_disabled":false,"rental_uris":{"android":"levelo://app?vid=d45e12a1-e0b1-434a-9664-ecd990299001","ios":"levelo://app?vid=d45e12a1-e0b1-434a-9664-ecd990299001"},"vehicle_type_id":"4","last_reported":1743934223,"current_range_meters":9200,"station_id":"ce4bgj92rcd13ifvqbe0","pricing_plan_id":"cebpf4jnsgd1na2vs0mg"},{"bike_id":"3a4d8516-6aad-43be-93de-4d6f470df8ab","system_id":"levelo_inurba_marseille","lat":43.28159,"lon":5.4264,"is_reserved":false,"is_disabled":false,"rental_uris":{"android":"levelo://app?vid=3a4d8516-6aad-43be-93de-4d6f470df8ab","ios":"levelo://app?vid=3a4d8516-6aad-43be-93de-4d6f470df8ab"},"vehicle_type_id":"4","last_reported":1743934223,"current_range_meters":9200,"station_id":"ce4bhnh2rcd13ifvqgug","pricing_plan_id":"cebpf4jnsgd1na2vs0mg"},{"bike_id":"6b652b17-4709-4398-8896-6b070cee45a3","system_id":"levelo_inurba_marseille","lat":43.3149,"lon":5.3806,"is_reserved":false,"is_disabled":false,"rental_uris":{"android":"levelo://app?vid=6b652b17-4709-4398-8896-6b070cee45a3","ios":"levelo://app?vid=6b652b17-4709-4398-8896-6b070cee45a3"},"vehicle_type_id":"4","last_reported":1743934223,"current_range_meters":9600,"station_id":"ce4bhsp2rcd13ifvqi50","pricing_plan_id":"cebpf4jnsgd1na2vs0mg"},{"bike_id":"0390015b-5bef-448b-bc10-44e5f8ab3c5f","system_id":"levelo_inurba_marseille","lat":43.258288,"lon":5.394196,"is_reserved":false,"is_disabled":false,"rental_uris":{"android":"levelo://app?vid=0390015b-5bef-448b-bc10-44e5f8ab3c5f","ios":"levelo://app?vid=0390015b-5bef-448b-bc10-44e5f8ab3c5f"},"vehicle_type_id":"4","last_reported":1743934223,"current_range_meters":9600,"station_id":"ce4bhip2rcd13ifvqft0","pricing_plan_id":"cebpf4jnsgd1na2vs0mg"},{"bike_id":"1bf28fcd-357a-43a7-b215-31bb2951a59c","system_id":"levelo_inurba_marseille","lat":43.295544,"lon":5.422999,"is_reserved":false,"is_disabled":false,"rental_uris":{"android":"levelo://app?vid=1bf28fcd-357a-43a7-b215-31bb2951a59c","ios":"levelo://app?vid=1bf28fcd-357a-43a7-b215-31bb2951a59c"},"vehicle_type_id":"4","last_reported":1743934223,"current_range_meters":9600,"station_id":"ce4bhph2rcd13ifvqhdg","pricing_plan_id":"cebpf4jnsgd1na2vs0mg"},{"bike_id":"64928ba1-df5f-4bed-a597-6dab5f3f4879","system_id":"levelo_inurba_marseille","lat":43.21752,"lon":5.34609,"is_reserved":false,"is_disabled":false,"rental_uris":{"android":"levelo://app?vid=64928ba1-df5f-4bed-a597-6dab5f3f4879","ios":"levelo://app?vid=64928ba1-df5f-4bed-a597-6dab5f3f4879"},"vehicle_type_id":"4","last_reported":1743934223,"current_range_meters":9600,"station_id":"st_cvj6r9ubvosntc0bgbag","pricing_plan_id":"cebpf4jnsgd1na2vs0mg"},{"bike_id":"867fb900-f56e-4c6b-83c4-e5102d4bd393","system_id":"levelo_inurba_marseille","lat":43.3234,"lon":5.40619,"is_reserved":false,"is_disabled":false,"rental_uris":{"android":"levelo://app?vid=867fb900-f56e-4c6b-83c4-e5102d4bd393","ios":"levelo://app?vid=867fb900-f56e-4c6b-83c4-e5102d4bd393"},"vehicle_type_id":"4","last_reported":1743934223,"current_range_meters":9600,"station_id":"ce4bhq92rcd13ifvqhjg","pricing_plan_id":"cebpf4jnsgd1na2vs0mg"},{"bike_id":"21f8acc6-ad6e-4601-b104-7de5e76cb194","system_id":"levelo_inurba_marseille","lat":43.28149,"lon":5.42653,"is_reserved":false,"is_disabled":false,"rental_uris":{"android":"levelo://app?vid=21f8acc6-ad6e-4601-b104-7de5e76cb194","ios":"levelo://app?vid=21f8acc6-ad6e-4601-b104-7de5e76cb194"},"vehicle_type_id":"4","last_reported":1743934223,"current_range_meters":9600,"station_id":"ce4bhnh2rcd13ifvqgug","pricing_plan_id":"cebpf4jnsgd1na2vs0mg"},{"bike_id":"63563121-e017-4c69-ba22-7f201e7788e0","system_id":"levelo_inurba_marseille","lat":43.24388,"lon":5.37063,"is_reserved":false,"is_disabled":false,"rental_uris":{"android":"levelo://app?vid=63563121-e017-4c69-ba22-7f201e7788e0","ios":"levelo://app?vid=63563121-e017-4c69-ba22-7f201e7788e0"},"vehicle_type_id":"4","last_reported":1743934223,"current_range_meters":9600,"station_id":"ce4bhhh2rcd13ifvqfk0","pricing_plan_id":"cebpf4jnsgd1na2vs0mg"},{"bike_id":"08e4605c-2f83-47ac-bf65-b1a59c0e3abd","system_id":"levelo_inurba_marseille","lat":43.27678,"lon":5.38873,"is_reserved":false,"is_disabled":false,"rental_uris":{"android":"levelo://app?vid=08e4605c-2f83-47ac-bf65-b1a59c0e3abd","ios":"levelo://app?vid=08e4605c-2f83-47ac-bf65-b1a59c0e3abd"},"vehicle_type_id":"4","last_reported":1743934223,"current_range_meters":9600,"station_id":"ce4bhi12rcd13ifvqfo0","pricing_plan_id":"cebpf4jnsgd1na2vs0mg"},{"bike_id":"ac565118-732d-44eb-b236-fd16d5259ed6","system_id":"levelo_inurba_marseille","lat":43.297828,"lon":5.381027,"is_reserved":false,"is_disabled":false,"rental_uris":{"android":"levelo://app?vid=ac565118-732d-44eb-b236-fd16d5259ed6","ios":"levelo://app?vid=ac565118-732d-44eb-b236-fd16d5259ed6"},"vehicle_type_id":"4","last_reported":1743934223,"current_range_meters":10000,"station_id":"ce4bgip2rcd13ifvqbb0","pricing_plan_id":"cebpf4jnsgd1na2vs0mg"},{"bike_id":"4f7c2cc0-5ad1-402b-80a6-41908fad589f","system_id":"levelo_inurba_marseille","lat":43.22929,"lon":5.35372,"is_reserved":false,"is_disabled":false,"rental_uris":{"android":"levelo://app?vid=4f7c2cc0-5ad1-402b-80a6-41908fad589f","ios":"levelo://app?vid=4f7c2cc0-5ad1-402b-80a6-41908fad589f"},"vehicle_type_id":"4","last_reported":1743934223,"current_range_meters":10000,"station_id":"cpo3532slgdg3j2ikp40","pricing_plan_id":"cebpf4jnsgd1na2vs0mg"},{"bike_id":"331ea854-5ef0-408d-9b23-b2372e32220a","system_id":"levelo_inurba_marseille","lat":43.30146,"lon":5.3809,"is_reserved":false,"is_disabled":false,"rental_uris":{"android":"levelo://app?vid=331ea854-5ef0-408d-9b23-b2372e32220a","ios":"levelo://app?vid=331ea854-5ef0-408d-9b23-b2372e32220a"},"vehicle_type_id":"4","last_reported":1743934223,"current_range_meters":10000,"station_id":"ce4bgjp2rcd13ifvqbh0","pricing_plan_id":"cebpf4jnsgd1na2vs0mg"},{"bike_id":"936233dd-1e5b-4f07-9529-f0ff53a06c61","system_id":"levelo_inurba_marseille","lat":43.24663,"lon":5.3817,"is_reserved":false,"is_disabled":false,"rental_uris":{"android":"levelo://app?vid=936233dd-1e5b-4f07-9529-f0ff53a06c61","ios":"levelo://app?vid=936233dd-1e5b-4f07-9529-f0ff53a06c61"},"vehicle_type_id":"4","last_reported":1743934223,"current_range_meters":10800,"station_id":"ce4bhih2rcd13ifvqfr0","pricing_plan_id":"cebpf4jnsgd1na2vs0mg"},{"bike_id":"b6ea1caf-11ea-43a7-953a-0f5b1510a8da","system_id":"levelo_inurba_marseille","lat":43.30539,"lon":5.36712,"is_reserved":false,"is_disabled":false,"rental_uris":{"android":"levelo://app?vid=b6ea1caf-11ea-43a7-953a-0f5b1510a8da","ios":"levelo://app?vid=b6ea1caf-11ea-43a7-953a-0f5b1510a8da"},"vehicle_type_id":"4","last_reported":1743934223,"current_range_meters":10000,"station_id":"ce4bgrp2rcd13ifvqc9g","pricing_plan_id":"cebpf4jnsgd1na2vs0mg"},{"bike_id":"b598b6b8-69a3-4491-bd9b-eb0a2b32b0cf","system_id":"levelo_inurba_marseille","lat":43.3103,"lon":5.38043,"is_reserved":false,"is_disabled":false,"rental_uris":{"android":"levelo://app?vid=b598b6b8-69a3-4491-bd9b-eb0a2b32b0cf","ios":"levelo://app?vid=b598b6b8-69a3-4491-bd9b-eb0a2b32b0cf"},"vehicle_type_id":"4","last_reported":1743934223,"current_range_meters":10800,"station_id":"","pricing_plan_id":"cebpf4jnsgd1na2vs0mg"},{"bike_id":"00393ee2-317d-4e98-a30d-fd25773ef49f","system_id":"levelo_inurba_marseille","lat":43.3526,"lon":5.35785,"is_reserved":false,"is_disabled":false,"rental_uris":{"android":"levelo://app?vid=00393ee2-317d-4e98-a30d-fd25773ef49f","ios":"levelo://app?vid=00393ee2-317d-4e98-a30d-fd25773ef49f"},"vehicle_type_id":"4","last_reported":1743934223,"current_range_meters":10800,"station_id":"","pricing_plan_id":"cebpf4jnsgd1na2vs0mg"},{"bike_id":"9c9e91df-e133-414a-8295-3f6a292805f6","system_id":"levelo_inurba_marseille","lat":43.23197,"lon":5.3555,"is_reserved":false,"is_disabled":true,"rental_uris":{"android":"levelo://app?vid=9c9e91df-e133-414a-8295-3f6a292805f6","ios":"levelo://app?vid=9c9e91df-e133-414a-8295-3f6a292805f6"},"vehicle_type_id":"4","last_reported":1743934223,"current_range_meters":10800,"station_id":"ce4bhu92rcd13ifvqi70","pricing_plan_id":"cebpf4jnsgd1na2vs0mg"},{"bike_id":"aab17747-ef50-479d-87f4-f5d51b95e7cd","system_id":"levelo_inurba_marseille","lat":43.27376,"lon":5.36249,"is_reserved":false,"is_disabled":false,"rental_uris":{"android":"levelo://app?vid=aab17747-ef50-479d-87f4-f5d51b95e7cd","ios":"levelo://app?vid=aab17747-ef50-479d-87f4-f5d51b95e7cd"},"vehicle_type_id":"4","last_reported":1743934223,"current_range_meters":10800,"station_id":"ce4bhbh2rcd13ifvqeo0","pricing_plan_id":"cebpf4jnsgd1na2vs0mg"},{"bike_id":"0db79626-80f8-4250-8bc9-558f5d952fb2","system_id":"levelo_inurba_marseille","lat":43.23157,"lon":5.43653,"is_reserved":false,"is_disabled":false,"rental_uris":{"android":"levelo://app?vid=0db79626-80f8-4250-8bc9-558f5d952fb2","ios":"levelo://app?vid=0db79626-80f8-4250-8bc9-558f5d952fb2"},"vehicle_type_id":"4","last_reported":1743934223,"current_range_meters":10800,"station_id":"ce4bhmp2rcd13ifvqgog","pricing_plan_id":"cebpf4jnsgd1na2vs0mg"},{"bike_id":"6023584e-870f-454d-88b0-bf3dc0e21fbe","system_id":"levelo_inurba_marseille","lat":43.2445,"lon":5.36992,"is_reserved":false,"is_disabled":true,"rental_uris":{"android":"levelo://app?vid=6023584e-870f-454d-88b0-bf3dc0e21fbe","ios":"levelo://app?vid=6023584e-870f-454d-88b0-bf3dc0e21fbe"},"vehicle_type_id":"4","last_reported":1743934223,"current_range_meters":10800,"station_id":"","pricing_plan_id":"cebpf4jnsgd1na2vs0mg"},{"bike_id":"128fb589-a97e-437f-a8d4-fb84393c9e61","system_id":"levelo_inurba_marseille","lat":43.29852,"lon":5.36276,"is_reserved":false,"is_disabled":false,"rental_uris":{"android":"levelo://app?vid=128fb589-a97e-437f-a8d4-fb84393c9e61","ios":"levelo://app?vid=128fb589-a97e-437f-a8d4-fb84393c9e61"},"vehicle_type_id":"4","last_reported":1743934223,"current_range_meters":11200,"station_id":"ce4bgpp2rcd13ifvqc3g","pricing_plan_id":"cebpf4jnsgd1na2vs0mg"},{"bike_id":"abde5d83-9b30-4b2f-8a88-f914ca452329","system_id":"levelo_inurba_marseille","lat":43.31211,"lon":5.38682,"is_reserved":false,"is_disabled":false,"rental_uris":{"android":"levelo://app?vid=abde5d83-9b30-4b2f-8a88-f914ca452329","ios":"levelo://app?vid=abde5d83-9b30-4b2f-8a88-f914ca452329"},"vehicle_type_id":"4","last_reported":1743934223,"current_range_meters":11200,"station_id":"","pricing_plan_id":"cebpf4jnsgd1na2vs0mg"},{"bike_id":"40117d93-2472-4cb9-9c2b-5e90cd559aa4","system_id":"levelo_inurba_marseille","lat":43.27825,"lon":5.40699,"is_reserved":false,"is_disabled":false,"rental_uris":{"android":"levelo://app?vid=40117d93-2472-4cb9-9c2b-5e90cd559aa4","ios":"levelo://app?vid=40117d93-2472-4cb9-9c2b-5e90cd559aa4"},"vehicle_type_id":"4","last_reported":1743934223,"current_range_meters":11200,"station_id":"ce4bhnh2rcd13ifvqgtg","pricing_plan_id":"cebpf4jnsgd1na2vs0mg"},{"bike_id":"ceba594e-ff69-4140-828e-f8a961103e51","system_id":"levelo_inurba_marseille","lat":43.24168,"lon":5.36416,"is_reserved":false,"is_disabled":false,"rental_uris":{"android":"levelo://app?vid=ceba594e-ff69-4140-828e-f8a961103e51","ios":"levelo://app?vid=ceba594e-ff69-4140-828e-f8a961103e51"},"vehicle_type_id":"4","last_reported":1743934223,"current_range_meters":11200,"station_id":"cpo36qri1sfpv3e86is0","pricing_plan_id":"cebpf4jnsgd1na2vs0mg"},{"bike_id":"6c52a77e-b817-4a99-82e3-74741149b6ef","system_id":"levelo_inurba_marseille","lat":43.26684,"lon":5.38277,"is_reserved":false,"is_disabled":true,"rental_uris":{"android":"levelo://app?vid=6c52a77e-b817-4a99-82e3-74741149b6ef","ios":"levelo://app?vid=6c52a77e-b817-4a99-82e3-74741149b6ef"},"vehicle_type_id":"4","last_reported":1743934223,"current_range_meters":10800,"station_id":"ce4bhg92rcd13ifvqf90","pricing_plan_id":"cebpf4jnsgd1na2vs0mg"},{"bike_id":"8f6dc4df-021c-4b49-b773-41ad9c5221cf","system_id":"levelo_inurba_marseille","lat":43.310489,"lon":5.371406,"is_reserved":false,"is_disabled":false,"rental_uris":{"android":"levelo://app?vid=8f6dc4df-021c-4b49-b773-41ad9c5221cf","ios":"levelo://app?vid=8f6dc4df-021c-4b49-b773-41ad9c5221cf"},"vehicle_type_id":"4","last_reported":1743934223,"current_range_meters":11200,"station_id":"","pricing_plan_id":"cebpf4jnsgd1na2vs0mg"},{"bike_id":"548692a3-f194-4449-9479-61b75fc46fe9","system_id":"levelo_inurba_marseille","lat":43.29866,"lon":5.39728,"is_reserved":false,"is_disabled":false,"rental_uris":{"android":"levelo://app?vid=548692a3-f194-4449-9479-61b75fc46fe9","ios":"levelo://app?vid=548692a3-f194-4449-9479-61b75fc46fe9"},"vehicle_type_id":"4","last_reported":1743934223,"current_range_meters":10800,"station_id":"ce4bh0h2rcd13ifvqd50","pricing_plan_id":"cebpf4jnsgd1na2vs0mg"},{"bike_id":"7fd0635d-68ad-4ce6-a52b-daef56987b4b","system_id":"levelo_inurba_marseille","lat":43.30858,"lon":5.38561,"is_reserved":false,"is_disabled":false,"rental_uris":{"android":"levelo://app?vid=7fd0635d-68ad-4ce6-a52b-daef56987b4b","ios":"levelo://app?vid=7fd0635d-68ad-4ce6-a52b-daef56987b4b"},"vehicle_type_id":"4","last_reported":1743934223,"current_range_meters":11200,"station_id":"","pricing_plan_id":"cebpf4jnsgd1na2vs0mg"},{"bike_id":"0ca7c904-a8a3-405b-b94c-7b7e371e31c4","system_id":"levelo_inurba_marseille","lat":43.29195,"lon":5.39319,"is_reserved":false,"is_disabled":false,"rental_uris":{"android":"levelo://app?vid=0ca7c904-a8a3-405b-b94c-7b7e371e31c4","ios":"levelo://app?vid=0ca7c904-a8a3-405b-b94c-7b7e371e31c4"},"vehicle_type_id":"4","last_reported":1743934223,"current_range_meters":10800,"station_id":"ce4bh192rcd13ifvqdd0","pricing_plan_id":"cebpf4jnsgd1na2vs0mg"},{"bike_id":"136b6e45-ee21-453e-aa22-e07947db9071","system_id":"levelo_inurba_marseille","lat":43.23139,"lon":5.43711,"is_reserved":false,"is_disabled":true,"rental_uris":{"android":"levelo://app?vid=136b6e45-ee21-453e-aa22-e07947db9071","ios":"levelo://app?vid=136b6e45-ee21-453e-aa22-e07947db9071"},"vehicle_type_id":"4","last_reported":1743934223,"current_range_meters":11200,"station_id":"ce4bhmp2rcd13ifvqgog","pricing_plan_id":"cebpf4jnsgd1na2vs0mg"},{"bike_id":"1f9006c0-6130-498f-9399-ca1c8ff0c462","system_id":"levelo_inurba_marseille","lat":43.32103,"lon":5.3676,"is_reserved":false,"is_disabled":false,"rental_uris":{"android":"levelo://app?vid=1f9006c0-6130-498f-9399-ca1c8ff0c462","ios":"levelo://app?vid=1f9006c0-6130-498f-9399-ca1c8ff0c462"},"vehicle_type_id":"4","last_reported":1743934223,"current_range_meters":11200,"station_id":"ce4bhrh2rcd13ifvqhug","pricing_plan_id":"cebpf4jnsgd1na2vs0mg"},{"bike_id":"ea8c31eb-2324-4624-a16f-19f5b2bde6c8","system_id":"levelo_inurba_marseille","lat":43.263271,"lon":5.373931,"is_reserved":false,"is_disabled":false,"rental_uris":{"android":"levelo://app?vid=ea8c31eb-2324-4624-a16f-19f5b2bde6c8","ios":"levelo://app?vid=ea8c31eb-2324-4624-a16f-19f5b2bde6c8"},"vehicle_type_id":"4","last_reported":1743934223,"current_range_meters":11600,"station_id":"ce4bgr92rcd13ifvqc7g","pricing_plan_id":"cebpf4jnsgd1na2vs0mg"},{"bike_id":"d28e0d23-a75b-4f92-9afa-47bf69338969","system_id":"levelo_inurba_marseille","lat":43.28462,"lon":5.35882,"is_reserved":false,"is_disabled":false,"rental_uris":{"android":"levelo://app?vid=d28e0d23-a75b-4f92-9afa-47bf69338969","ios":"levelo://app?vid=d28e0d23-a75b-4f92-9afa-47bf69338969"},"vehicle_type_id":"4","last_reported":1743934223,"current_range_meters":11200,"station_id":"ce4bhah2rcd13ifvqei0","pricing_plan_id":"cebpf4jnsgd1na2vs0mg"},{"bike_id":"347b59a6-7fab-4bf0-a924-eac626981b6e","system_id":"levelo_inurba_marseille","lat":43.24163,"lon":5.39727,"is_reserved":false,"is_disabled":false,"rental_uris":{"android":"levelo://app?vid=347b59a6-7fab-4bf0-a924-eac626981b6e","ios":"levelo://app?vid=347b59a6-7fab-4bf0-a924-eac626981b6e"},"vehicle_type_id":"4","last_reported":1743934223,"current_range_meters":11600,"station_id":"ce4bhn12rcd13ifvqgpg","pricing_plan_id":"cebpf4jnsgd1na2vs0mg"},{"bike_id":"36bcdf36-3f43-424f-98b0-44774735b6cf","system_id":"levelo_inurba_marseille","lat":43.27321,"lon":5.39085,"is_reserved":false,"is_disabled":false,"rental_uris":{"android":"levelo://app?vid=36bcdf36-3f43-424f-98b0-44774735b6cf","ios":"levelo://app?vid=36bcdf36-3f43-424f-98b0-44774735b6cf"},"vehicle_type_id":"4","last_reported":1743934223,"current_range_meters":11600,"station_id":"ce4bhgp2rcd13ifvqfe0","pricing_plan_id":"cebpf4jnsgd1na2vs0mg"},{"bike_id":"5b26f200-5b49-4d8a-93a2-ce335b258e0d","system_id":"levelo_inurba_marseille","lat":43.28415,"lon":5.34995,"is_reserved":false,"is_disabled":false,"rental_uris":{"android":"levelo://app?vid=5b26f200-5b49-4d8a-93a2-ce335b258e0d","ios":"levelo://app?vid=5b26f200-5b49-4d8a-93a2-ce335b258e0d"},"vehicle_type_id":"4","last_reported":1743934223,"current_range_meters":11600,"station_id":"ce4bhbh2rcd13ifvqepg","pricing_plan_id":"cebpf4jnsgd1na2vs0mg"},{"bike_id":"5e72c3e6-4489-40b4-9b30-a188bf6ab781","system_id":"levelo_inurba_marseille","lat":43.26209,"lon":5.37443,"is_reserved":false,"is_disabled":false,"rental_uris":{"android":"levelo://app?vid=5e72c3e6-4489-40b4-9b30-a188bf6ab781","ios":"levelo://app?vid=5e72c3e6-4489-40b4-9b30-a188bf6ab781"},"vehicle_type_id":"4","last_reported":1743934223,"current_range_meters":11600,"station_id":"ce4bhgp2rcd13ifvqfc0","pricing_plan_id":"cebpf4jnsgd1na2vs0mg"},{"bike_id":"4518015b-54ac-4617-9f2c-f53a0828fb48","system_id":"levelo_inurba_marseille","lat":43.265,"lon":5.39537,"is_reserved":false,"is_disabled":false,"rental_uris":{"android":"levelo://app?vid=4518015b-54ac-4617-9f2c-f53a0828fb48","ios":"levelo://app?vid=4518015b-54ac-4617-9f2c-f53a0828fb48"},"vehicle_type_id":"4","last_reported":1743934223,"current_range_meters":11600,"station_id":"ce4bhi12rcd13ifvqfq0","pricing_plan_id":"cebpf4jnsgd1na2vs0mg"},{"bike_id":"a0623af1-8787-47a0-af01-fdb3969483c1","system_id":"levelo_inurba_marseille","lat":43.24168,"lon":5.36394,"is_reserved":false,"is_disabled":false,"rental_uris":{"android":"levelo://app?vid=a0623af1-8787-47a0-af01-fdb3969483c1","ios":"levelo://app?vid=a0623af1-8787-47a0-af01-fdb3969483c1"},"vehicle_type_id":"4","last_reported":1743934223,"current_range_meters":12000,"station_id":"cpo36qri1sfpv3e86is0","pricing_plan_id":"cebpf4jnsgd1na2vs0mg"},{"bike_id":"39119060-af49-409e-96d3-c184076822f9","system_id":"levelo_inurba_marseille","lat":43.30528,"lon":5.36517,"is_reserved":false,"is_disabled":false,"rental_uris":{"android":"levelo://app?vid=39119060-af49-409e-96d3-c184076822f9","ios":"levelo://app?vid=39119060-af49-409e-96d3-c184076822f9"},"vehicle_type_id":"4","last_reported":1743934223,"current_range_meters":12000,"station_id":"","pricing_plan_id":"cebpf4jnsgd1na2vs0mg"},{"bike_id":"c9bcb9ed-89fa-4f1d-bf29-12fb5d644696","system_id":"levelo_inurba_marseille","lat":43.279845,"lon":5.416654,"is_reserved":false,"is_disabled":false,"rental_uris":{"android":"levelo://app?vid=c9bcb9ed-89fa-4f1d-bf29-12fb5d644696","ios":"levelo://app?vid=c9bcb9ed-89fa-4f1d-bf29-12fb5d644696"},"vehicle_type_id":"4","last_reported":1743934223,"current_range_meters":12000,"station_id":"ce4bho12rcd13ifvqh1g","pricing_plan_id":"cebpf4jnsgd1na2vs0mg"},{"bike_id":"3bf5d9ad-e9b1-49fa-83fa-32db8c03a158","system_id":"levelo_inurba_marseille","lat":43.24384,"lon":5.37054,"is_reserved":false,"is_disabled":false,"rental_uris":{"android":"levelo://app?vid=3bf5d9ad-e9b1-49fa-83fa-32db8c03a158","ios":"levelo://app?vid=3bf5d9ad-e9b1-49fa-83fa-32db8c03a158"},"vehicle_type_id":"4","last_reported":1743934223,"current_range_meters":12000,"station_id":"ce4bhhh2rcd13ifvqfk0","pricing_plan_id":"cebpf4jnsgd1na2vs0mg"},{"bike_id":"c7ceadc8-5833-450c-9f34-10cd43b4c73f","system_id":"levelo_inurba_marseille","lat":43.30548,"lon":5.36555,"is_reserved":false,"is_disabled":false,"rental_uris":{"android":"levelo://app?vid=c7ceadc8-5833-450c-9f34-10cd43b4c73f","ios":"levelo://app?vid=c7ceadc8-5833-450c-9f34-10cd43b4c73f"},"vehicle_type_id":"4","last_reported":1743934223,"current_range_meters":12000,"station_id":"ce4bgs12rcd13ifvqcag","pricing_plan_id":"cebpf4jnsgd1na2vs0mg"},{"bike_id":"c3e6d442-6282-4c88-9f90-93d85aff9e76","system_id":"levelo_inurba_marseille","lat":43.2816,"lon":5.42654,"is_reserved":false,"is_disabled":false,"rental_uris":{"android":"levelo://app?vid=c3e6d442-6282-4c88-9f90-93d85aff9e76","ios":"levelo://app?vid=c3e6d442-6282-4c88-9f90-93d85aff9e76"},"vehicle_type_id":"4","last_reported":1743934223,"current_range_meters":12000,"station_id":"ce4bhnh2rcd13ifvqgug","pricing_plan_id":"cebpf4jnsgd1na2vs0mg"},{"bike_id":"ff9448e7-2f31-4a91-b1d6-ba9d8a3fe59b","system_id":"levelo_inurba_marseille","lat":43.2558,"lon":5.38228,"is_reserved":false,"is_disabled":false,"rental_uris":{"android":"levelo://app?vid=ff9448e7-2f31-4a91-b1d6-ba9d8a3fe59b","ios":"levelo://app?vid=ff9448e7-2f31-4a91-b1d6-ba9d8a3fe59b"},"vehicle_type_id":"4","last_reported":1743934223,"current_range_meters":12000,"station_id":"ce4bhih2rcd13ifvqfs0","pricing_plan_id":"cebpf4jnsgd1na2vs0mg"},{"bike_id":"eabbef24-ea14-42c7-9651-aa71753deea0","system_id":"levelo_inurba_marseille","lat":43.26024,"lon":5.37553,"is_reserved":false,"is_disabled":false,"rental_uris":{"android":"levelo://app?vid=eabbef24-ea14-42c7-9651-aa71753deea0","ios":"levelo://app?vid=eabbef24-ea14-42c7-9651-aa71753deea0"},"vehicle_type_id":"4","last_reported":1743934223,"current_range_meters":12000,"station_id":"ce4bhgh2rcd13ifvqfa0","pricing_plan_id":"cebpf4jnsgd1na2vs0mg"},{"bike_id":"3f556349-2e14-40ec-96ca-a31083969b14","system_id":"levelo_inurba_marseille","lat":43.284196,"lon":5.34976,"is_reserved":false,"is_disabled":false,"rental_uris":{"android":"levelo://app?vid=3f556349-2e14-40ec-96ca-a31083969b14","ios":"levelo://app?vid=3f556349-2e14-40ec-96ca-a31083969b14"},"vehicle_type_id":"4","last_reported":1743934223,"current_range_meters":12000,"station_id":"ce4bhbh2rcd13ifvqepg","pricing_plan_id":"cebpf4jnsgd1na2vs0mg"},{"bike_id":"67a01fd5-0edb-4cbc-9e46-03213dac2452","system_id":"levelo_inurba_marseille","lat":43.2956,"lon":5.4228,"is_reserved":false,"is_disabled":false,"rental_uris":{"android":"levelo://app?vid=67a01fd5-0edb-4cbc-9e46-03213dac2452","ios":"levelo://app?vid=67a01fd5-0edb-4cbc-9e46-03213dac2452"},"vehicle_type_id":"4","last_reported":1743934223,"current_range_meters":12000,"station_id":"ce4bhph2rcd13ifvqhdg","pricing_plan_id":"cebpf4jnsgd1na2vs0mg"},{"bike_id":"7d2dde4f-5a6a-4005-a47e-231c9dacefe3","system_id":"levelo_inurba_marseille","lat":43.30816,"lon":5.43543,"is_reserved":false,"is_disabled":false,"rental_uris":{"android":"levelo://app?vid=7d2dde4f-5a6a-4005-a47e-231c9dacefe3","ios":"levelo://app?vid=7d2dde4f-5a6a-4005-a47e-231c9dacefe3"},"vehicle_type_id":"4","last_reported":1743934223,"current_range_meters":12400,"station_id":"ce4bhph2rcd13ifvqheg","pricing_plan_id":"cebpf4jnsgd1na2vs0mg"},{"bike_id":"9c53551f-9989-42ef-8106-05b3d0cb9736","system_id":"levelo_inurba_marseille","lat":43.25504,"lon":5.37652,"is_reserved":false,"is_disabled":false,"rental_uris":{"android":"levelo://app?vid=9c53551f-9989-42ef-8106-05b3d0cb9736","ios":"levelo://app?vid=9c53551f-9989-42ef-8106-05b3d0cb9736"},"vehicle_type_id":"4","last_reported":1743934223,"current_range_meters":12400,"station_id":"ce4bhh12rcd13ifvqff0","pricing_plan_id":"cebpf4jnsgd1na2vs0mg"},{"bike_id":"3f9f60e9-46e5-408d-a83f-6ffb283e0d47","system_id":"levelo_inurba_marseille","lat":43.24171,"lon":5.397396,"is_reserved":false,"is_disabled":false,"rental_uris":{"android":"levelo://app?vid=3f9f60e9-46e5-408d-a83f-6ffb283e0d47","ios":"levelo://app?vid=3f9f60e9-46e5-408d-a83f-6ffb283e0d47"},"vehicle_type_id":"4","last_reported":1743934223,"current_range_meters":12400,"station_id":"ce4bhn12rcd13ifvqgpg","pricing_plan_id":"cebpf4jnsgd1na2vs0mg"},{"bike_id":"5d40b06b-f88c-438b-a124-c6e520eec699","system_id":"levelo_inurba_marseille","lat":43.27373,"lon":5.3626,"is_reserved":false,"is_disabled":false,"rental_uris":{"android":"levelo://app?vid=5d40b06b-f88c-438b-a124-c6e520eec699","ios":"levelo://app?vid=5d40b06b-f88c-438b-a124-c6e520eec699"},"vehicle_type_id":"4","last_reported":1743934223,"current_range_meters":12400,"station_id":"ce4bhbh2rcd13ifvqeo0","pricing_plan_id":"cebpf4jnsgd1na2vs0mg"},{"bike_id":"f7e3b8fa-9062-4469-bcee-58c5aa5cfb6e","system_id":"levelo_inurba_marseille","lat":43.29531,"lon":5.38547,"is_reserved":false,"is_disabled":true,"rental_uris":{"android":"levelo://app?vid=f7e3b8fa-9062-4469-bcee-58c5aa5cfb6e","ios":"levelo://app?vid=f7e3b8fa-9062-4469-bcee-58c5aa5cfb6e"},"vehicle_type_id":"4","last_reported":1743934223,"current_range_meters":12400,"station_id":"ce4bgih2rcd13ifvqba0","pricing_plan_id":"cebpf4jnsgd1na2vs0mg"},{"bike_id":"f2a4a726-900d-43d4-8328-76c9d2f6012d","system_id":"levelo_inurba_marseille","lat":43.29028,"lon":5.35494,"is_reserved":false,"is_disabled":true,"rental_uris":{"android":"levelo://app?vid=f2a4a726-900d-43d4-8328-76c9d2f6012d","ios":"levelo://app?vid=f2a4a726-900d-43d4-8328-76c9d2f6012d"},"vehicle_type_id":"4","last_reported":1743934223,"current_range_meters":12400,"station_id":"","pricing_plan_id":"cebpf4jnsgd1na2vs0mg"},{"bike_id":"e80671fb-b88d-4d83-80d2-97b79659744a","system_id":"levelo_inurba_marseille","lat":43.26558,"lon":5.3728,"is_reserved":false,"is_disabled":false,"rental_uris":{"android":"levelo://app?vid=e80671fb-b88d-4d83-80d2-97b79659744a","ios":"levelo://app?vid=e80671fb-b88d-4d83-80d2-97b79659744a"},"vehicle_type_id":"4","last_reported":1743934223,"current_range_meters":12400,"station_id":"ce4bhg12rcd13ifvqf70","pricing_plan_id":"cebpf4jnsgd1na2vs0mg"},{"bike_id":"e338e8a5-afb4-4d06-9c24-800f0027ea83","system_id":"levelo_inurba_marseille","lat":43.27373,"lon":5.36249,"is_reserved":false,"is_disabled":false,"rental_uris":{"android":"levelo://app?vid=e338e8a5-afb4-4d06-9c24-800f0027ea83","ios":"levelo://app?vid=e338e8a5-afb4-4d06-9c24-800f0027ea83"},"vehicle_type_id":"4","last_reported":1743934223,"current_range_meters":12800,"station_id":"ce4bhbh2rcd13ifvqeo0","pricing_plan_id":"cebpf4jnsgd1na2vs0mg"},{"bike_id":"d520b6ed-248c-420d-b5a0-125f0336a965","system_id":"levelo_inurba_marseille","lat":43.25497,"lon":5.37652,"is_reserved":false,"is_disabled":false,"rental_uris":{"android":"levelo://app?vid=d520b6ed-248c-420d-b5a0-125f0336a965","ios":"levelo://app?vid=d520b6ed-248c-420d-b5a0-125f0336a965"},"vehicle_type_id":"4","last_reported":1743934223,"current_range_meters":12800,"station_id":"ce4bhh12rcd13ifvqff0","pricing_plan_id":"cebpf4jnsgd1na2vs0mg"},{"bike_id":"8908f5a3-3568-458d-bd58-b80b0bebbfd4","system_id":"levelo_inurba_marseille","lat":43.21719,"lon":5.34621,"is_reserved":false,"is_disabled":false,"rental_uris":{"android":"levelo://app?vid=8908f5a3-3568-458d-bd58-b80b0bebbfd4","ios":"levelo://app?vid=8908f5a3-3568-458d-bd58-b80b0bebbfd4"},"vehicle_type_id":"4","last_reported":1743934223,"current_range_meters":12800,"station_id":"","pricing_plan_id":"cebpf4jnsgd1na2vs0mg"},{"bike_id":"f7843d7c-c7b3-4aea-b890-86ae73a52bd6","system_id":"levelo_inurba_marseille","lat":43.23153,"lon":5.43708,"is_reserved":false,"is_disabled":false,"rental_uris":{"android":"levelo://app?vid=f7843d7c-c7b3-4aea-b890-86ae73a52bd6","ios":"levelo://app?vid=f7843d7c-c7b3-4aea-b890-86ae73a52bd6"},"vehicle_type_id":"4","last_reported":1743934223,"current_range_meters":12800,"station_id":"ce4bhmp2rcd13ifvqgog","pricing_plan_id":"cebpf4jnsgd1na2vs0mg"},{"bike_id":"c2c27c97-cdb9-4118-84ef-b2dc6e9357e6","system_id":"levelo_inurba_marseille","lat":43.30609,"lon":5.37159,"is_reserved":false,"is_disabled":false,"rental_uris":{"android":"levelo://app?vid=c2c27c97-cdb9-4118-84ef-b2dc6e9357e6","ios":"levelo://app?vid=c2c27c97-cdb9-4118-84ef-b2dc6e9357e6"},"vehicle_type_id":"4","last_reported":1743934223,"current_range_meters":12800,"station_id":"","pricing_plan_id":"cebpf4jnsgd1na2vs0mg"},{"bike_id":"c7a9bc73-2feb-4ae3-9ab6-a2889c0b4e8f","system_id":"levelo_inurba_marseille","lat":43.2621,"lon":5.37448,"is_reserved":false,"is_disabled":false,"rental_uris":{"android":"levelo://app?vid=c7a9bc73-2feb-4ae3-9ab6-a2889c0b4e8f","ios":"levelo://app?vid=c7a9bc73-2feb-4ae3-9ab6-a2889c0b4e8f"},"vehicle_type_id":"4","last_reported":1743934223,"current_range_meters":12800,"station_id":"ce4bhgp2rcd13ifvqfc0","pricing_plan_id":"cebpf4jnsgd1na2vs0mg"},{"bike_id":"e332aab8-1fe3-40e9-8086-1f7d5ff35118","system_id":"levelo_inurba_marseille","lat":43.33169,"lon":5.3818,"is_reserved":false,"is_disabled":false,"rental_uris":{"android":"levelo://app?vid=e332aab8-1fe3-40e9-8086-1f7d5ff35118","ios":"levelo://app?vid=e332aab8-1fe3-40e9-8086-1f7d5ff35118"},"vehicle_type_id":"4","last_reported":1743934223,"current_range_meters":13600,"station_id":"","pricing_plan_id":"cebpf4jnsgd1na2vs0mg"},{"bike_id":"8a38320c-a733-4cf5-8c8e-152497fe8f8f","system_id":"levelo_inurba_marseille","lat":43.28159,"lon":5.42637,"is_reserved":false,"is_disabled":false,"rental_uris":{"android":"levelo://app?vid=8a38320c-a733-4cf5-8c8e-152497fe8f8f","ios":"levelo://app?vid=8a38320c-a733-4cf5-8c8e-152497fe8f8f"},"vehicle_type_id":"4","last_reported":1743934223,"current_range_meters":13600,"station_id":"ce4bhnh2rcd13ifvqgug","pricing_plan_id":"cebpf4jnsgd1na2vs0mg"},{"bike_id":"6ee85d75-9576-48a6-9ea1-92da0dac2d73","system_id":"levelo_inurba_marseille","lat":43.30809,"lon":5.43525,"is_reserved":false,"is_disabled":false,"rental_uris":{"android":"levelo://app?vid=6ee85d75-9576-48a6-9ea1-92da0dac2d73","ios":"levelo://app?vid=6ee85d75-9576-48a6-9ea1-92da0dac2d73"},"vehicle_type_id":"4","last_reported":1743934223,"current_range_meters":13600,"station_id":"ce4bhph2rcd13ifvqheg","pricing_plan_id":"cebpf4jnsgd1na2vs0mg"},{"bike_id":"a409c3f0-8991-4228-afb5-57b19bb06658","system_id":"levelo_inurba_marseille","lat":43.32401,"lon":5.38997,"is_reserved":false,"is_disabled":false,"rental_uris":{"android":"levelo://app?vid=a409c3f0-8991-4228-afb5-57b19bb06658","ios":"levelo://app?vid=a409c3f0-8991-4228-afb5-57b19bb06658"},"vehicle_type_id":"4","last_reported":1743934223,"current_range_meters":13600,"station_id":"","pricing_plan_id":"cebpf4jnsgd1na2vs0mg"},{"bike_id":"63e1d95c-79be-4b82-a868-e312bf827ceb","system_id":"levelo_inurba_marseille","lat":43.29024,"lon":5.38654,"is_reserved":false,"is_disabled":true,"rental_uris":{"android":"levelo://app?vid=63e1d95c-79be-4b82-a868-e312bf827ceb","ios":"levelo://app?vid=63e1d95c-79be-4b82-a868-e312bf827ceb"},"vehicle_type_id":"4","last_reported":1743934223,"current_range_meters":13600,"station_id":"ce4bh4p2rcd13ifvqe0g","pricing_plan_id":"cebpf4jnsgd1na2vs0mg"},{"bike_id":"c5a180ee-9b66-4c05-bdde-4100257c7dd0","system_id":"levelo_inurba_marseille","lat":43.21747,"lon":5.34597,"is_reserved":false,"is_disabled":false,"rental_uris":{"android":"levelo://app?vid=c5a180ee-9b66-4c05-bdde-4100257c7dd0","ios":"levelo://app?vid=c5a180ee-9b66-4c05-bdde-4100257c7dd0"},"vehicle_type_id":"4","last_reported":1743934223,"current_range_meters":13600,"station_id":"st_cvj6r9ubvosntc0bgbag","pricing_plan_id":"cebpf4jnsgd1na2vs0mg"},{"bike_id":"b7604dfb-d021-4e47-8430-554b32ba87ec","system_id":"levelo_inurba_marseille","lat":43.23155,"lon":5.43702,"is_reserved":false,"is_disabled":false,"rental_uris":{"android":"levelo://app?vid=b7604dfb-d021-4e47-8430-554b32ba87ec","ios":"levelo://app?vid=b7604dfb-d021-4e47-8430-554b32ba87ec"},"vehicle_type_id":"4","last_reported":1743934223,"current_range_meters":13600,"station_id":"ce4bhmp2rcd13ifvqgog","pricing_plan_id":"cebpf4jnsgd1na2vs0mg"},{"bike_id":"fefe83d6-22ae-4bdc-9846-80fca8c3f8b6","system_id":"levelo_inurba_marseille","lat":43.26226,"lon":5.40484,"is_reserved":false,"is_disabled":false,"rental_uris":{"android":"levelo://app?vid=fefe83d6-22ae-4bdc-9846-80fca8c3f8b6","ios":"levelo://app?vid=fefe83d6-22ae-4bdc-9846-80fca8c3f8b6"},"vehicle_type_id":"4","last_reported":1743934223,"current_range_meters":13600,"station_id":"ce4bhmh2rcd13ifvqgmg","pricing_plan_id":"cebpf4jnsgd1na2vs0mg"},{"bike_id":"4a79947f-5a38-484f-87e2-60b6af9027ff","system_id":"levelo_inurba_marseille","lat":43.28121,"lon":5.42606,"is_reserved":false,"is_disabled":false,"rental_uris":{"android":"levelo://app?vid=4a79947f-5a38-484f-87e2-60b6af9027ff","ios":"levelo://app?vid=4a79947f-5a38-484f-87e2-60b6af9027ff"},"vehicle_type_id":"4","last_reported":1743934223,"current_range_meters":14000,"station_id":"ce4bhnh2rcd13ifvqgug","pricing_plan_id":"cebpf4jnsgd1na2vs0mg"},{"bike_id":"873b9cb9-411d-441c-81fa-204f209e04e7","system_id":"levelo_inurba_marseille","lat":43.30834,"lon":5.37403,"is_reserved":false,"is_disabled":false,"rental_uris":{"android":"levelo://app?vid=873b9cb9-411d-441c-81fa-204f209e04e7","ios":"levelo://app?vid=873b9cb9-411d-441c-81fa-204f209e04e7"},"vehicle_type_id":"4","last_reported":1743934223,"current_range_meters":14000,"station_id":"","pricing_plan_id":"cebpf4jnsgd1na2vs0mg"},{"bike_id":"b830bc99-0775-4a83-82a4-7ce069c66e45","system_id":"levelo_inurba_marseille","lat":43.265601,"lon":5.372845,"is_reserved":false,"is_disabled":false,"rental_uris":{"android":"levelo://app?vid=b830bc99-0775-4a83-82a4-7ce069c66e45","ios":"levelo://app?vid=b830bc99-0775-4a83-82a4-7ce069c66e45"},"vehicle_type_id":"4","last_reported":1743934223,"current_range_meters":14000,"station_id":"ce4bhg12rcd13ifvqf70","pricing_plan_id":"cebpf4jnsgd1na2vs0mg"},{"bike_id":"3cc85682-1b1e-45d2-8ca6-accd8f1108ec","system_id":"levelo_inurba_marseille","lat":43.23152,"lon":5.43703,"is_reserved":false,"is_disabled":false,"rental_uris":{"android":"levelo://app?vid=3cc85682-1b1e-45d2-8ca6-accd8f1108ec","ios":"levelo://app?vid=3cc85682-1b1e-45d2-8ca6-accd8f1108ec"},"vehicle_type_id":"4","last_reported":1743934223,"current_range_meters":14000,"station_id":"ce4bhmp2rcd13ifvqgog","pricing_plan_id":"cebpf4jnsgd1na2vs0mg"},{"bike_id":"fdc81e89-b3f0-4d36-b61b-a44398767a5e","system_id":"levelo_inurba_marseille","lat":43.24166,"lon":5.36397,"is_reserved":false,"is_disabled":false,"rental_uris":{"android":"levelo://app?vid=fdc81e89-b3f0-4d36-b61b-a44398767a5e","ios":"levelo://app?vid=fdc81e89-b3f0-4d36-b61b-a44398767a5e"},"vehicle_type_id":"4","last_reported":1743934223,"current_range_meters":14000,"station_id":"cpo36qri1sfpv3e86is0","pricing_plan_id":"cebpf4jnsgd1na2vs0mg"},{"bike_id":"73272853-088e-4b39-8e6e-94fe10fc353c","system_id":"levelo_inurba_marseille","lat":43.33777,"lon":5.37473,"is_reserved":false,"is_disabled":false,"rental_uris":{"android":"levelo://app?vid=73272853-088e-4b39-8e6e-94fe10fc353c","ios":"levelo://app?vid=73272853-088e-4b39-8e6e-94fe10fc353c"},"vehicle_type_id":"4","last_reported":1743934223,"current_range_meters":14000,"station_id":"","pricing_plan_id":"cebpf4jnsgd1na2vs0mg"},{"bike_id":"514b3174-8b65-4fdc-8150-4c757a3dbb9b","system_id":"levelo_inurba_marseille","lat":43.25161,"lon":5.38222,"is_reserved":false,"is_disabled":false,"rental_uris":{"android":"levelo://app?vid=514b3174-8b65-4fdc-8150-4c757a3dbb9b","ios":"levelo://app?vid=514b3174-8b65-4fdc-8150-4c757a3dbb9b"},"vehicle_type_id":"4","last_reported":1743934223,"current_range_meters":14000,"station_id":"","pricing_plan_id":"cebpf4jnsgd1na2vs0mg"},{"bike_id":"65b15bbf-0482-4c8c-ab22-2247f0d6ad9d","system_id":"levelo_inurba_marseille","lat":43.24809,"lon":5.37456,"is_reserved":false,"is_disabled":false,"rental_uris":{"android":"levelo://app?vid=65b15bbf-0482-4c8c-ab22-2247f0d6ad9d","ios":"levelo://app?vid=65b15bbf-0482-4c8c-ab22-2247f0d6ad9d"},"vehicle_type_id":"4","last_reported":1743934223,"current_range_meters":14400,"station_id":"ce4bhgh2rcd13ifvqfb0","pricing_plan_id":"cebpf4jnsgd1na2vs0mg"},{"bike_id":"d256a6ab-8ab7-42a1-b58d-89fd7976d156","system_id":"levelo_inurba_marseille","lat":43.27181,"lon":5.40999,"is_reserved":false,"is_disabled":false,"rental_uris":{"android":"levelo://app?vid=d256a6ab-8ab7-42a1-b58d-89fd7976d156","ios":"levelo://app?vid=d256a6ab-8ab7-42a1-b58d-89fd7976d156"},"vehicle_type_id":"4","last_reported":1743934223,"current_range_meters":14400,"station_id":"ce4bhl12rcd13ifvqgf0","pricing_plan_id":"cebpf4jnsgd1na2vs0mg"},{"bike_id":"e4d4dc7a-abcd-4c1d-8017-887f937d011f","system_id":"levelo_inurba_marseille","lat":43.29576,"lon":5.39962,"is_reserved":false,"is_disabled":true,"rental_uris":{"android":"levelo://app?vid=e4d4dc7a-abcd-4c1d-8017-887f937d011f","ios":"levelo://app?vid=e4d4dc7a-abcd-4c1d-8017-887f937d011f"},"vehicle_type_id":"4","last_reported":1743934223,"current_range_meters":14400,"station_id":"ce4bh312rcd13ifvqdj0","pricing_plan_id":"cebpf4jnsgd1na2vs0mg"},{"bike_id":"d553dd87-8cd1-4b81-808e-8aeb82a0fa0c","system_id":"levelo_inurba_marseille","lat":43.28041,"lon":5.36943,"is_reserved":false,"is_disabled":true,"rental_uris":{"android":"levelo://app?vid=d553dd87-8cd1-4b81-808e-8aeb82a0fa0c","ios":"levelo://app?vid=d553dd87-8cd1-4b81-808e-8aeb82a0fa0c"},"vehicle_type_id":"4","last_reported":1743934223,"current_range_meters":14400,"station_id":"ce4bha12rcd13ifvqef0","pricing_plan_id":"cebpf4jnsgd1na2vs0mg"},{"bike_id":"c5837b52-082a-496d-b1de-2ea11e8cb21d","system_id":"levelo_inurba_marseille","lat":43.30312,"lon":5.36907,"is_reserved":false,"is_disabled":false,"rental_uris":{"android":"levelo://app?vid=c5837b52-082a-496d-b1de-2ea11e8cb21d","ios":"levelo://app?vid=c5837b52-082a-496d-b1de-2ea11e8cb21d"},"vehicle_type_id":"4","last_reported":1743934223,"current_range_meters":13600,"station_id":"ce4bgqh2rcd13ifvqc5g","pricing_plan_id":"cebpf4jnsgd1na2vs0mg"},{"bike_id":"d6c3d7f4-760c-422c-8667-25e15a7934b3","system_id":"levelo_inurba_marseille","lat":43.30766,"lon":5.37436,"is_reserved":false,"is_disabled":false,"rental_uris":{"android":"levelo://app?vid=d6c3d7f4-760c-422c-8667-25e15a7934b3","ios":"levelo://app?vid=d6c3d7f4-760c-422c-8667-25e15a7934b3"},"vehicle_type_id":"4","last_reported":1743934223,"current_range_meters":14800,"station_id":"","pricing_plan_id":"cebpf4jnsgd1na2vs0mg"},{"bike_id":"530e934d-fa5f-4174-942f-60d0ca8604f7","system_id":"levelo_inurba_marseille","lat":43.28153,"lon":5.4264,"is_reserved":false,"is_disabled":false,"rental_uris":{"android":"levelo://app?vid=530e934d-fa5f-4174-942f-60d0ca8604f7","ios":"levelo://app?vid=530e934d-fa5f-4174-942f-60d0ca8604f7"},"vehicle_type_id":"4","last_reported":1743934223,"current_range_meters":14800,"station_id":"ce4bhnh2rcd13ifvqgug","pricing_plan_id":"cebpf4jnsgd1na2vs0mg"},{"bike_id":"b2e6d730-1ae9-4dd3-ab0c-1de601c116c2","system_id":"levelo_inurba_marseille","lat":43.25078,"lon":5.39512,"is_reserved":false,"is_disabled":false,"rental_uris":{"android":"levelo://app?vid=b2e6d730-1ae9-4dd3-ab0c-1de601c116c2","ios":"levelo://app?vid=b2e6d730-1ae9-4dd3-ab0c-1de601c116c2"},"vehicle_type_id":"4","last_reported":1743934223,"current_range_meters":14800,"station_id":"ce4bhm12rcd13ifvqgkg","pricing_plan_id":"cebpf4jnsgd1na2vs0mg"},{"bike_id":"2dc4f537-e287-4d3a-8f2e-dd25712b1ce1","system_id":"levelo_inurba_marseille","lat":43.2707,"lon":5.42278,"is_reserved":false,"is_disabled":false,"rental_uris":{"android":"levelo://app?vid=2dc4f537-e287-4d3a-8f2e-dd25712b1ce1","ios":"levelo://app?vid=2dc4f537-e287-4d3a-8f2e-dd25712b1ce1"},"vehicle_type_id":"4","last_reported":1743934223,"current_range_meters":14800,"station_id":"ce4bho12rcd13ifvqh1g","pricing_plan_id":"cebpf4jnsgd1na2vs0mg"},{"bike_id":"cc8e49e6-a408-4f2b-9358-55f50dd0cf5a","system_id":"levelo_inurba_marseille","lat":43.32047,"lon":5.41519,"is_reserved":false,"is_disabled":false,"rental_uris":{"android":"levelo://app?vid=cc8e49e6-a408-4f2b-9358-55f50dd0cf5a","ios":"levelo://app?vid=cc8e49e6-a408-4f2b-9358-55f50dd0cf5a"},"vehicle_type_id":"4","last_reported":1743934223,"current_range_meters":15200,"station_id":"ce4bhq92rcd13ifvqhkg","pricing_plan_id":"cebpf4jnsgd1na2vs0mg"},{"bike_id":"98934827-7a36-4e0d-98f2-96ff1ecd834e","system_id":"levelo_inurba_marseille","lat":43.28001,"lon":5.40001,"is_reserved":false,"is_disabled":false,"rental_uris":{"android":"levelo://app?vid=98934827-7a36-4e0d-98f2-96ff1ecd834e","ios":"levelo://app?vid=98934827-7a36-4e0d-98f2-96ff1ecd834e"},"vehicle_type_id":"4","last_reported":1743934223,"current_range_meters":15200,"station_id":"ce4bho92rcd13ifvqh4g","pricing_plan_id":"cebpf4jnsgd1na2vs0mg"},{"bike_id":"2912b429-37e5-4e0e-b00a-ea1b384a3e4f","system_id":"levelo_inurba_marseille","lat":43.28348,"lon":5.38102,"is_reserved":false,"is_disabled":false,"rental_uris":{"android":"levelo://app?vid=2912b429-37e5-4e0e-b00a-ea1b384a3e4f","ios":"levelo://app?vid=2912b429-37e5-4e0e-b00a-ea1b384a3e4f"},"vehicle_type_id":"4","last_reported":1743934223,"current_range_meters":15200,"station_id":"ce4bh412rcd13ifvqdr0","pricing_plan_id":"cebpf4jnsgd1na2vs0mg"},{"bike_id":"3e8562ec-012d-4bee-a5d0-10c175c1f92e","system_id":"levelo_inurba_marseille","lat":43.27374,"lon":5.36266,"is_reserved":false,"is_disabled":false,"rental_uris":{"android":"levelo://app?vid=3e8562ec-012d-4bee-a5d0-10c175c1f92e","ios":"levelo://app?vid=3e8562ec-012d-4bee-a5d0-10c175c1f92e"},"vehicle_type_id":"4","last_reported":1743934223,"current_range_meters":15200,"station_id":"ce4bhbh2rcd13ifvqeo0","pricing_plan_id":"cebpf4jnsgd1na2vs0mg"},{"bike_id":"4ae9fd03-2baf-4a1e-943a-2a3a32248bb3","system_id":"levelo_inurba_marseille","lat":43.29556,"lon":5.42275,"is_reserved":false,"is_disabled":false,"rental_uris":{"android":"levelo://app?vid=4ae9fd03-2baf-4a1e-943a-2a3a32248bb3","ios":"levelo://app?vid=4ae9fd03-2baf-4a1e-943a-2a3a32248bb3"},"vehicle_type_id":"4","last_reported":1743934223,"current_range_meters":16000,"station_id":"ce4bhph2rcd13ifvqhdg","pricing_plan_id":"cebpf4jnsgd1na2vs0mg"},{"bike_id":"8cfd8938-ab02-4f88-9086-591f1be1afd7","system_id":"levelo_inurba_marseille","lat":43.23054,"lon":5.35479,"is_reserved":false,"is_disabled":true,"rental_uris":{"android":"levelo://app?vid=8cfd8938-ab02-4f88-9086-591f1be1afd7","ios":"levelo://app?vid=8cfd8938-ab02-4f88-9086-591f1be1afd7"},"vehicle_type_id":"4","last_reported":1743934223,"current_range_meters":16000,"station_id":"cpo3342slgdg3j2ifvpg","pricing_plan_id":"cebpf4jnsgd1na2vs0mg"},{"bike_id":"a959694d-18ce-4d80-917f-23c91ed81065","system_id":"levelo_inurba_marseille","lat":43.29897,"lon":5.4368,"is_reserved":false,"is_disabled":false,"rental_uris":{"android":"levelo://app?vid=a959694d-18ce-4d80-917f-23c91ed81065","ios":"levelo://app?vid=a959694d-18ce-4d80-917f-23c91ed81065"},"vehicle_type_id":"4","last_reported":1743934223,"current_range_meters":16000,"station_id":"ce4bhpp2rcd13ifvqhfg","pricing_plan_id":"cebpf4jnsgd1na2vs0mg"},{"bike_id":"023f432d-2b4d-4055-a278-29b95923481a","system_id":"levelo_inurba_marseille","lat":43.31489,"lon":5.37307,"is_reserved":false,"is_disabled":false,"rental_uris":{"android":"levelo://app?vid=023f432d-2b4d-4055-a278-29b95923481a","ios":"levelo://app?vid=023f432d-2b4d-4055-a278-29b95923481a"},"vehicle_type_id":"4","last_reported":1743934223,"current_range_meters":16000,"station_id":"ce4bgt12rcd13ifvqcd0","pricing_plan_id":"cebpf4jnsgd1na2vs0mg"},{"bike_id":"f84b956f-2981-462e-8cf6-186374de0c37","system_id":"levelo_inurba_marseille","lat":43.31696,"lon":5.43697,"is_reserved":false,"is_disabled":false,"rental_uris":{"android":"levelo://app?vid=f84b956f-2981-462e-8cf6-186374de0c37","ios":"levelo://app?vid=f84b956f-2981-462e-8cf6-186374de0c37"},"vehicle_type_id":"4","last_reported":1743934223,"current_range_meters":16000,"station_id":"ce4bhp92rcd13ifvqhcg","pricing_plan_id":"cebpf4jnsgd1na2vs0mg"},{"bike_id":"c2b30833-e231-4318-9d5b-5fc2c3f0dff8","system_id":"levelo_inurba_marseille","lat":43.2466,"lon":5.38164,"is_reserved":false,"is_disabled":false,"rental_uris":{"android":"levelo://app?vid=c2b30833-e231-4318-9d5b-5fc2c3f0dff8","ios":"levelo://app?vid=c2b30833-e231-4318-9d5b-5fc2c3f0dff8"},"vehicle_type_id":"4","last_reported":1743934223,"current_range_meters":16000,"station_id":"ce4bhih2rcd13ifvqfr0","pricing_plan_id":"cebpf4jnsgd1na2vs0mg"},{"bike_id":"58309783-1b44-4aa8-ba4b-761487ea31b7","system_id":"levelo_inurba_marseille","lat":43.286161,"lon":5.351039,"is_reserved":false,"is_disabled":false,"rental_uris":{"android":"levelo://app?vid=58309783-1b44-4aa8-ba4b-761487ea31b7","ios":"levelo://app?vid=58309783-1b44-4aa8-ba4b-761487ea31b7"},"vehicle_type_id":"4","last_reported":1743934223,"current_range_meters":16000,"station_id":"ce4bgjp2rcd13ifvqbh0","pricing_plan_id":"cebpf4jnsgd1na2vs0mg"},{"bike_id":"bebc0f39-c670-4ab3-8c60-bae28414e5d0","system_id":"levelo_inurba_marseille","lat":43.28268,"lon":5.35063,"is_reserved":false,"is_disabled":false,"rental_uris":{"android":"levelo://app?vid=bebc0f39-c670-4ab3-8c60-bae28414e5d0","ios":"levelo://app?vid=bebc0f39-c670-4ab3-8c60-bae28414e5d0"},"vehicle_type_id":"4","last_reported":1743934223,"current_range_meters":16400,"station_id":"ce4bhbp2rcd13ifvqerg","pricing_plan_id":"cebpf4jnsgd1na2vs0mg"},{"bike_id":"7e06934a-56b5-4151-b5a7-fb0a56940c6f","system_id":"levelo_inurba_marseille","lat":43.27372,"lon":5.36256,"is_reserved":false,"is_disabled":false,"rental_uris":{"android":"levelo://app?vid=7e06934a-56b5-4151-b5a7-fb0a56940c6f","ios":"levelo://app?vid=7e06934a-56b5-4151-b5a7-fb0a56940c6f"},"vehicle_type_id":"4","last_reported":1743934223,"current_range_meters":16400,"station_id":"ce4bhbh2rcd13ifvqeo0","pricing_plan_id":"cebpf4jnsgd1na2vs0mg"},{"bike_id":"518ab49b-2001-45ed-a6fa-9ed5f4822bef","system_id":"levelo_inurba_marseille","lat":43.3032,"lon":5.40442,"is_reserved":false,"is_disabled":false,"rental_uris":{"android":"levelo://app?vid=518ab49b-2001-45ed-a6fa-9ed5f4822bef","ios":"levelo://app?vid=518ab49b-2001-45ed-a6fa-9ed5f4822bef"},"vehicle_type_id":"4","last_reported":1743934223,"current_range_meters":16400,"station_id":"ce4bh012rcd13ifvqd10","pricing_plan_id":"cebpf4jnsgd1na2vs0mg"},{"bike_id":"69e64f24-c33e-4afa-96f8-5024e0da0e4a","system_id":"levelo_inurba_marseille","lat":43.23154,"lon":5.43702,"is_reserved":false,"is_disabled":false,"rental_uris":{"android":"levelo://app?vid=69e64f24-c33e-4afa-96f8-5024e0da0e4a","ios":"levelo://app?vid=69e64f24-c33e-4afa-96f8-5024e0da0e4a"},"vehicle_type_id":"4","last_reported":1743934223,"current_range_meters":16400,"station_id":"ce4bhmp2rcd13ifvqgog","pricing_plan_id":"cebpf4jnsgd1na2vs0mg"},{"bike_id":"a1a74f1b-fb44-455f-8438-c57f314bba18","system_id":"levelo_inurba_marseille","lat":43.21741,"lon":5.34603,"is_reserved":false,"is_disabled":false,"rental_uris":{"android":"levelo://app?vid=a1a74f1b-fb44-455f-8438-c57f314bba18","ios":"levelo://app?vid=a1a74f1b-fb44-455f-8438-c57f314bba18"},"vehicle_type_id":"4","last_reported":1743934223,"current_range_meters":16400,"station_id":"st_cvj6r9ubvosntc0bgbag","pricing_plan_id":"cebpf4jnsgd1na2vs0mg"},{"bike_id":"59abcc1c-314a-4683-8b5b-2392cc018b80","system_id":"levelo_inurba_marseille","lat":43.2293,"lon":5.35375,"is_reserved":false,"is_disabled":false,"rental_uris":{"android":"levelo://app?vid=59abcc1c-314a-4683-8b5b-2392cc018b80","ios":"levelo://app?vid=59abcc1c-314a-4683-8b5b-2392cc018b80"},"vehicle_type_id":"4","last_reported":1743934223,"current_range_meters":16800,"station_id":"cpo3532slgdg3j2ikp40","pricing_plan_id":"cebpf4jnsgd1na2vs0mg"},{"bike_id":"a0b4cb9a-0031-4b92-b196-4dc55c61ba95","system_id":"levelo_inurba_marseille","lat":43.229022,"lon":5.353923,"is_reserved":false,"is_disabled":false,"rental_uris":{"android":"levelo://app?vid=a0b4cb9a-0031-4b92-b196-4dc55c61ba95","ios":"levelo://app?vid=a0b4cb9a-0031-4b92-b196-4dc55c61ba95"},"vehicle_type_id":"4","last_reported":1743934223,"current_range_meters":16800,"station_id":"cpo3532slgdg3j2ikp40","pricing_plan_id":"cebpf4jnsgd1na2vs0mg"},{"bike_id":"750bc9c2-8244-4f27-a571-77c62d7d6b92","system_id":"levelo_inurba_marseille","lat":43.31275,"lon":5.37758,"is_reserved":false,"is_disabled":false,"rental_uris":{"android":"levelo://app?vid=750bc9c2-8244-4f27-a571-77c62d7d6b92","ios":"levelo://app?vid=750bc9c2-8244-4f27-a571-77c62d7d6b92"},"vehicle_type_id":"4","last_reported":1743934223,"current_range_meters":16800,"station_id":"","pricing_plan_id":"cebpf4jnsgd1na2vs0mg"},{"bike_id":"b97e2d53-0c15-409c-aa56-e385922b0b18","system_id":"levelo_inurba_marseille","lat":43.29265,"lon":5.38442,"is_reserved":false,"is_disabled":false,"rental_uris":{"android":"levelo://app?vid=b97e2d53-0c15-409c-aa56-e385922b0b18","ios":"levelo://app?vid=b97e2d53-0c15-409c-aa56-e385922b0b18"},"vehicle_type_id":"4","last_reported":1743934223,"current_range_meters":16800,"station_id":"ce4bh692rcd13ifvqea0","pricing_plan_id":"cebpf4jnsgd1na2vs0mg"},{"bike_id":"9277b721-20e5-43a1-91f4-a949bf469478","system_id":"levelo_inurba_marseille","lat":43.281542,"lon":5.426404,"is_reserved":false,"is_disabled":false,"rental_uris":{"android":"levelo://app?vid=9277b721-20e5-43a1-91f4-a949bf469478","ios":"levelo://app?vid=9277b721-20e5-43a1-91f4-a949bf469478"},"vehicle_type_id":"4","last_reported":1743934223,"current_range_meters":16800,"station_id":"ce4bhnh2rcd13ifvqgug","pricing_plan_id":"cebpf4jnsgd1na2vs0mg"},{"bike_id":"1145dafd-2d63-45d4-95e7-cc211cf26bab","system_id":"levelo_inurba_marseille","lat":43.24393,"lon":5.3707,"is_reserved":false,"is_disabled":false,"rental_uris":{"android":"levelo://app?vid=1145dafd-2d63-45d4-95e7-cc211cf26bab","ios":"levelo://app?vid=1145dafd-2d63-45d4-95e7-cc211cf26bab"},"vehicle_type_id":"4","last_reported":1743934223,"current_range_meters":16800,"station_id":"ce4bhhh2rcd13ifvqfk0","pricing_plan_id":"cebpf4jnsgd1na2vs0mg"},{"bike_id":"e7c88587-6383-4296-b75b-fb8bc5500d98","system_id":"levelo_inurba_marseille","lat":43.24077,"lon":5.3776,"is_reserved":false,"is_disabled":false,"rental_uris":{"android":"levelo://app?vid=e7c88587-6383-4296-b75b-fb8bc5500d98","ios":"levelo://app?vid=e7c88587-6383-4296-b75b-fb8bc5500d98"},"vehicle_type_id":"4","last_reported":1743934223,"current_range_meters":16800,"station_id":"ce4bhnp2rcd13ifvqgvg","pricing_plan_id":"cebpf4jnsgd1na2vs0mg"},{"bike_id":"d3940f6d-6c26-4ccb-aa36-1b12f0ca6ef4","system_id":"levelo_inurba_marseille","lat":43.314756,"lon":5.390248,"is_reserved":false,"is_disabled":false,"rental_uris":{"android":"levelo://app?vid=d3940f6d-6c26-4ccb-aa36-1b12f0ca6ef4","ios":"levelo://app?vid=d3940f6d-6c26-4ccb-aa36-1b12f0ca6ef4"},"vehicle_type_id":"4","last_reported":1743934223,"current_range_meters":16800,"station_id":"","pricing_plan_id":"cebpf4jnsgd1na2vs0mg"},{"bike_id":"33f3816c-12e7-49be-befd-aeb487ab17aa","system_id":"levelo_inurba_marseille","lat":43.30801,"lon":5.43531,"is_reserved":false,"is_disabled":false,"rental_uris":{"android":"levelo://app?vid=33f3816c-12e7-49be-befd-aeb487ab17aa","ios":"levelo://app?vid=33f3816c-12e7-49be-befd-aeb487ab17aa"},"vehicle_type_id":"4","last_reported":1743934223,"current_range_meters":16800,"station_id":"ce4bhph2rcd13ifvqheg","pricing_plan_id":"cebpf4jnsgd1na2vs0mg"},{"bike_id":"26917ba2-a987-4b4c-85e2-204645024679","system_id":"levelo_inurba_marseille","lat":43.23963,"lon":5.36611,"is_reserved":false,"is_disabled":false,"rental_uris":{"android":"levelo://app?vid=26917ba2-a987-4b4c-85e2-204645024679","ios":"levelo://app?vid=26917ba2-a987-4b4c-85e2-204645024679"},"vehicle_type_id":"4","last_reported":1743934223,"current_range_meters":16800,"station_id":"ce4bhi12rcd13ifvqfp0","pricing_plan_id":"cebpf4jnsgd1na2vs0mg"},{"bike_id":"4ca885ad-bf65-4540-b5d0-1baba23daec6","system_id":"levelo_inurba_marseille","lat":43.22503,"lon":5.34784,"is_reserved":false,"is_disabled":false,"rental_uris":{"android":"levelo://app?vid=4ca885ad-bf65-4540-b5d0-1baba23daec6","ios":"levelo://app?vid=4ca885ad-bf65-4540-b5d0-1baba23daec6"},"vehicle_type_id":"4","last_reported":1743934223,"current_range_meters":16800,"station_id":"ce4bh612rcd13ifvqe6g","pricing_plan_id":"cebpf4jnsgd1na2vs0mg"},{"bike_id":"958e55f3-2a49-45f3-b3cc-031ec71d2e20","system_id":"levelo_inurba_marseille","lat":43.29859,"lon":5.36282,"is_reserved":false,"is_disabled":false,"rental_uris":{"android":"levelo://app?vid=958e55f3-2a49-45f3-b3cc-031ec71d2e20","ios":"levelo://app?vid=958e55f3-2a49-45f3-b3cc-031ec71d2e20"},"vehicle_type_id":"4","last_reported":1743934223,"current_range_meters":16800,"station_id":"ce4bgpp2rcd13ifvqc3g","pricing_plan_id":"cebpf4jnsgd1na2vs0mg"},{"bike_id":"07752421-ab8e-4bad-b07e-918e22cc01a3","system_id":"levelo_inurba_marseille","lat":43.23152,"lon":5.43705,"is_reserved":false,"is_disabled":false,"rental_uris":{"android":"levelo://app?vid=07752421-ab8e-4bad-b07e-918e22cc01a3","ios":"levelo://app?vid=07752421-ab8e-4bad-b07e-918e22cc01a3"},"vehicle_type_id":"4","last_reported":1743934223,"current_range_meters":17200,"station_id":"ce4bhmp2rcd13ifvqgog","pricing_plan_id":"cebpf4jnsgd1na2vs0mg"},{"bike_id":"cd9aba60-8967-49ac-911b-a91c9f3215ab","system_id":"levelo_inurba_marseille","lat":43.28156,"lon":5.42642,"is_reserved":false,"is_disabled":false,"rental_uris":{"android":"levelo://app?vid=cd9aba60-8967-49ac-911b-a91c9f3215ab","ios":"levelo://app?vid=cd9aba60-8967-49ac-911b-a91c9f3215ab"},"vehicle_type_id":"4","last_reported":1743934223,"current_range_meters":17200,"station_id":"ce4bhnh2rcd13ifvqgug","pricing_plan_id":"cebpf4jnsgd1na2vs0mg"},{"bike_id":"81f5907e-6630-4ff1-9f63-95fbfbed681e","system_id":"levelo_inurba_marseille","lat":43.27374,"lon":5.36257,"is_reserved":false,"is_disabled":false,"rental_uris":{"android":"levelo://app?vid=81f5907e-6630-4ff1-9f63-95fbfbed681e","ios":"levelo://app?vid=81f5907e-6630-4ff1-9f63-95fbfbed681e"},"vehicle_type_id":"4","last_reported":1743934223,"current_range_meters":17200,"station_id":"ce4bhbh2rcd13ifvqeo0","pricing_plan_id":"cebpf4jnsgd1na2vs0mg"},{"bike_id":"71582c2a-d7a3-48c9-be8c-d2314c8c07cc","system_id":"levelo_inurba_marseille","lat":43.29843,"lon":5.36264,"is_reserved":false,"is_disabled":false,"rental_uris":{"android":"levelo://app?vid=71582c2a-d7a3-48c9-be8c-d2314c8c07cc","ios":"levelo://app?vid=71582c2a-d7a3-48c9-be8c-d2314c8c07cc"},"vehicle_type_id":"4","last_reported":1743934223,"current_range_meters":17200,"station_id":"ce4bgpp2rcd13ifvqc3g","pricing_plan_id":"cebpf4jnsgd1na2vs0mg"},{"bike_id":"4c76161a-e31d-4e4d-9951-193be050cec4","system_id":"levelo_inurba_marseille","lat":43.28148,"lon":5.4262,"is_reserved":false,"is_disabled":false,"rental_uris":{"android":"levelo://app?vid=4c76161a-e31d-4e4d-9951-193be050cec4","ios":"levelo://app?vid=4c76161a-e31d-4e4d-9951-193be050cec4"},"vehicle_type_id":"4","last_reported":1743934223,"current_range_meters":17600,"station_id":"ce4bhnh2rcd13ifvqgug","pricing_plan_id":"cebpf4jnsgd1na2vs0mg"},{"bike_id":"46057c1a-ef15-49c0-8328-133f1962cf6c","system_id":"levelo_inurba_marseille","lat":43.32283,"lon":5.36788,"is_reserved":false,"is_disabled":false,"rental_uris":{"android":"levelo://app?vid=46057c1a-ef15-49c0-8328-133f1962cf6c","ios":"levelo://app?vid=46057c1a-ef15-49c0-8328-133f1962cf6c"},"vehicle_type_id":"4","last_reported":1743934223,"current_range_meters":17600,"station_id":"","pricing_plan_id":"cebpf4jnsgd1na2vs0mg"},{"bike_id":"2a058c07-b7c9-462f-aac5-fbdd0f1a4d64","system_id":"levelo_inurba_marseille","lat":43.27369,"lon":5.36259,"is_reserved":false,"is_disabled":false,"rental_uris":{"android":"levelo://app?vid=2a058c07-b7c9-462f-aac5-fbdd0f1a4d64","ios":"levelo://app?vid=2a058c07-b7c9-462f-aac5-fbdd0f1a4d64"},"vehicle_type_id":"4","last_reported":1743934223,"current_range_meters":17600,"station_id":"ce4bhbh2rcd13ifvqeo0","pricing_plan_id":"cebpf4jnsgd1na2vs0mg"},{"bike_id":"ba991623-d196-4285-bb24-378dab583942","system_id":"levelo_inurba_marseille","lat":43.32285,"lon":5.38263,"is_reserved":false,"is_disabled":false,"rental_uris":{"android":"levelo://app?vid=ba991623-d196-4285-bb24-378dab583942","ios":"levelo://app?vid=ba991623-d196-4285-bb24-378dab583942"},"vehicle_type_id":"4","last_reported":1743934223,"current_range_meters":17600,"station_id":"ce4bhr12rcd13ifvqhqg","pricing_plan_id":"cebpf4jnsgd1na2vs0mg"},{"bike_id":"cee59f99-328b-4af4-9c76-fc667d78befe","system_id":"levelo_inurba_marseille","lat":43.27209,"lon":5.39191,"is_reserved":false,"is_disabled":true,"rental_uris":{"android":"levelo://app?vid=cee59f99-328b-4af4-9c76-fc667d78befe","ios":"levelo://app?vid=cee59f99-328b-4af4-9c76-fc667d78befe"},"vehicle_type_id":"4","last_reported":1743934223,"current_range_meters":17600,"station_id":"ce4bhhp2rcd13ifvqfm0","pricing_plan_id":"cebpf4jnsgd1na2vs0mg"},{"bike_id":"040b9376-ffda-4e92-b81e-02eb8de5d95d","system_id":"levelo_inurba_marseille","lat":43.29581,"lon":5.3751,"is_reserved":false,"is_disabled":false,"rental_uris":{"android":"levelo://app?vid=040b9376-ffda-4e92-b81e-02eb8de5d95d","ios":"levelo://app?vid=040b9376-ffda-4e92-b81e-02eb8de5d95d"},"vehicle_type_id":"4","last_reported":1743934223,"current_range_meters":17600,"station_id":"ce4bhn12rcd13ifvqgqg","pricing_plan_id":"cebpf4jnsgd1na2vs0mg"},{"bike_id":"f05f8dfb-6321-479e-9884-db9625ffdab6","system_id":"levelo_inurba_marseille","lat":43.24387,"lon":5.37055,"is_reserved":false,"is_disabled":false,"rental_uris":{"android":"levelo://app?vid=f05f8dfb-6321-479e-9884-db9625ffdab6","ios":"levelo://app?vid=f05f8dfb-6321-479e-9884-db9625ffdab6"},"vehicle_type_id":"4","last_reported":1743934223,"current_range_meters":17600,"station_id":"ce4bhhh2rcd13ifvqfk0","pricing_plan_id":"cebpf4jnsgd1na2vs0mg"},{"bike_id":"da0670c7-fedc-4cac-90fa-69b612536bd8","system_id":"levelo_inurba_marseille","lat":43.28379,"lon":5.34911,"is_reserved":false,"is_disabled":false,"rental_uris":{"android":"levelo://app?vid=da0670c7-fedc-4cac-90fa-69b612536bd8","ios":"levelo://app?vid=da0670c7-fedc-4cac-90fa-69b612536bd8"},"vehicle_type_id":"4","last_reported":1743934223,"current_range_meters":18000,"station_id":"ce4bhbh2rcd13ifvqepg","pricing_plan_id":"cebpf4jnsgd1na2vs0mg"},{"bike_id":"51225405-aae7-4f3f-84f6-e041dfe0468e","system_id":"levelo_inurba_marseille","lat":43.28162,"lon":5.42658,"is_reserved":false,"is_disabled":false,"rental_uris":{"android":"levelo://app?vid=51225405-aae7-4f3f-84f6-e041dfe0468e","ios":"levelo://app?vid=51225405-aae7-4f3f-84f6-e041dfe0468e"},"vehicle_type_id":"4","last_reported":1743934223,"current_range_meters":18000,"station_id":"ce4bhnh2rcd13ifvqgug","pricing_plan_id":"cebpf4jnsgd1na2vs0mg"},{"bike_id":"42c911df-f19e-42b3-9f34-5046d0374af8","system_id":"levelo_inurba_marseille","lat":43.33105,"lon":5.39298,"is_reserved":false,"is_disabled":false,"rental_uris":{"android":"levelo://app?vid=42c911df-f19e-42b3-9f34-5046d0374af8","ios":"levelo://app?vid=42c911df-f19e-42b3-9f34-5046d0374af8"},"vehicle_type_id":"4","last_reported":1743934223,"current_range_meters":18000,"station_id":"","pricing_plan_id":"cebpf4jnsgd1na2vs0mg"},{"bike_id":"f7d40d3a-a62c-4970-9c15-8fcde1b94b2b","system_id":"levelo_inurba_marseille","lat":43.27989,"lon":5.41662,"is_reserved":false,"is_disabled":false,"rental_uris":{"android":"levelo://app?vid=f7d40d3a-a62c-4970-9c15-8fcde1b94b2b","ios":"levelo://app?vid=f7d40d3a-a62c-4970-9c15-8fcde1b94b2b"},"vehicle_type_id":"4","last_reported":1743934223,"current_range_meters":18000,"station_id":"ce4bho12rcd13ifvqh1g","pricing_plan_id":"cebpf4jnsgd1na2vs0mg"},{"bike_id":"090d658f-cb70-4bc6-bddf-db72ff4fd17b","system_id":"levelo_inurba_marseille","lat":43.295848,"lon":5.378423,"is_reserved":false,"is_disabled":false,"rental_uris":{"android":"levelo://app?vid=090d658f-cb70-4bc6-bddf-db72ff4fd17b","ios":"levelo://app?vid=090d658f-cb70-4bc6-bddf-db72ff4fd17b"},"vehicle_type_id":"4","last_reported":1743934223,"current_range_meters":18000,"station_id":"ce4bh2p2rcd13ifvqdi0","pricing_plan_id":"cebpf4jnsgd1na2vs0mg"},{"bike_id":"73d082e4-b356-4449-a4b5-77c4d9b13ceb","system_id":"levelo_inurba_marseille","lat":43.28148,"lon":5.42644,"is_reserved":false,"is_disabled":false,"rental_uris":{"android":"levelo://app?vid=73d082e4-b356-4449-a4b5-77c4d9b13ceb","ios":"levelo://app?vid=73d082e4-b356-4449-a4b5-77c4d9b13ceb"},"vehicle_type_id":"4","last_reported":1743934223,"current_range_meters":18000,"station_id":"ce4bhnh2rcd13ifvqgug","pricing_plan_id":"cebpf4jnsgd1na2vs0mg"},{"bike_id":"b8d3e899-49ce-4746-b8f8-ef979a6e6db5","system_id":"levelo_inurba_marseille","lat":43.3033,"lon":5.40433,"is_reserved":false,"is_disabled":false,"rental_uris":{"android":"levelo://app?vid=b8d3e899-49ce-4746-b8f8-ef979a6e6db5","ios":"levelo://app?vid=b8d3e899-49ce-4746-b8f8-ef979a6e6db5"},"vehicle_type_id":"4","last_reported":1743934223,"current_range_meters":18000,"station_id":"ce4bh012rcd13ifvqd10","pricing_plan_id":"cebpf4jnsgd1na2vs0mg"},{"bike_id":"b0e54f79-dbf1-4d36-8ab4-e4147c1d0991","system_id":"levelo_inurba_marseille","lat":43.28278,"lon":5.35073,"is_reserved":false,"is_disabled":false,"rental_uris":{"android":"levelo://app?vid=b0e54f79-dbf1-4d36-8ab4-e4147c1d0991","ios":"levelo://app?vid=b0e54f79-dbf1-4d36-8ab4-e4147c1d0991"},"vehicle_type_id":"4","last_reported":1743934223,"current_range_meters":18000,"station_id":"ce4bhbp2rcd13ifvqerg","pricing_plan_id":"cebpf4jnsgd1na2vs0mg"},{"bike_id":"937763d4-3e79-4541-af08-4f50bd7f541f","system_id":"levelo_inurba_marseille","lat":43.28275,"lon":5.35064,"is_reserved":false,"is_disabled":false,"rental_uris":{"android":"levelo://app?vid=937763d4-3e79-4541-af08-4f50bd7f541f","ios":"levelo://app?vid=937763d4-3e79-4541-af08-4f50bd7f541f"},"vehicle_type_id":"4","last_reported":1743934223,"current_range_meters":18000,"station_id":"ce4bhbp2rcd13ifvqerg","pricing_plan_id":"cebpf4jnsgd1na2vs0mg"},{"bike_id":"95d1b739-5858-4bb6-9667-1f7148d09e06","system_id":"levelo_inurba_marseille","lat":43.23142,"lon":5.43705,"is_reserved":false,"is_disabled":false,"rental_uris":{"android":"levelo://app?vid=95d1b739-5858-4bb6-9667-1f7148d09e06","ios":"levelo://app?vid=95d1b739-5858-4bb6-9667-1f7148d09e06"},"vehicle_type_id":"4","last_reported":1743934223,"current_range_meters":18000,"station_id":"ce4bhmp2rcd13ifvqgog","pricing_plan_id":"cebpf4jnsgd1na2vs0mg"},{"bike_id":"a3041057-a489-4338-8939-cd6b859bc4f4","system_id":"levelo_inurba_marseille","lat":43.33098,"lon":5.40661,"is_reserved":false,"is_disabled":false,"rental_uris":{"android":"levelo://app?vid=a3041057-a489-4338-8939-cd6b859bc4f4","ios":"levelo://app?vid=a3041057-a489-4338-8939-cd6b859bc4f4"},"vehicle_type_id":"4","last_reported":1743934223,"current_range_meters":18800,"station_id":"","pricing_plan_id":"cebpf4jnsgd1na2vs0mg"},{"bike_id":"a36090c0-f578-4090-b018-2d5b603f921c","system_id":"levelo_inurba_marseille","lat":43.28445,"lon":5.39206,"is_reserved":false,"is_disabled":false,"rental_uris":{"android":"levelo://app?vid=a36090c0-f578-4090-b018-2d5b603f921c","ios":"levelo://app?vid=a36090c0-f578-4090-b018-2d5b603f921c"},"vehicle_type_id":"4","last_reported":1743934223,"current_range_meters":18800,"station_id":"ce4bhoh2rcd13ifvqh5g","pricing_plan_id":"cebpf4jnsgd1na2vs0mg"},{"bike_id":"4b1c2819-6597-424e-807c-252fc44fbcb6","system_id":"levelo_inurba_marseille","lat":43.30802,"lon":5.43526,"is_reserved":false,"is_disabled":false,"rental_uris":{"android":"levelo://app?vid=4b1c2819-6597-424e-807c-252fc44fbcb6","ios":"levelo://app?vid=4b1c2819-6597-424e-807c-252fc44fbcb6"},"vehicle_type_id":"4","last_reported":1743934223,"current_range_meters":18800,"station_id":"ce4bhph2rcd13ifvqheg","pricing_plan_id":"cebpf4jnsgd1na2vs0mg"},{"bike_id":"f065a3d0-8f8a-4fa7-a999-84340c4ee9c9","system_id":"levelo_inurba_marseille","lat":43.25109,"lon":5.40333,"is_reserved":false,"is_disabled":false,"rental_uris":{"android":"levelo://app?vid=f065a3d0-8f8a-4fa7-a999-84340c4ee9c9","ios":"levelo://app?vid=f065a3d0-8f8a-4fa7-a999-84340c4ee9c9"},"vehicle_type_id":"4","last_reported":1743934223,"current_range_meters":18800,"station_id":"ce4bhlh2rcd13ifvqgig","pricing_plan_id":"cebpf4jnsgd1na2vs0mg"},{"bike_id":"a66b597f-3932-48cf-b62c-a3ee5d27a9c1","system_id":"levelo_inurba_marseille","lat":43.22929,"lon":5.35378,"is_reserved":false,"is_disabled":false,"rental_uris":{"android":"levelo://app?vid=a66b597f-3932-48cf-b62c-a3ee5d27a9c1","ios":"levelo://app?vid=a66b597f-3932-48cf-b62c-a3ee5d27a9c1"},"vehicle_type_id":"4","last_reported":1743934223,"current_range_meters":18800,"station_id":"cpo3532slgdg3j2ikp40","pricing_plan_id":"cebpf4jnsgd1na2vs0mg"},{"bike_id":"40114930-efad-4ae7-9da0-5cb5518406d0","system_id":"levelo_inurba_marseille","lat":43.2318,"lon":5.39987,"is_reserved":false,"is_disabled":false,"rental_uris":{"android":"levelo://app?vid=40114930-efad-4ae7-9da0-5cb5518406d0","ios":"levelo://app?vid=40114930-efad-4ae7-9da0-5cb5518406d0"},"vehicle_type_id":"4","last_reported":1743934223,"current_range_meters":18800,"station_id":"ce4bhn12rcd13ifvqgqg","pricing_plan_id":"cebpf4jnsgd1na2vs0mg"},{"bike_id":"f6234bed-d96b-4e91-987b-57b8c584485f","system_id":"levelo_inurba_marseille","lat":43.31713,"lon":5.43699,"is_reserved":false,"is_disabled":true,"rental_uris":{"android":"levelo://app?vid=f6234bed-d96b-4e91-987b-57b8c584485f","ios":"levelo://app?vid=f6234bed-d96b-4e91-987b-57b8c584485f"},"vehicle_type_id":"4","last_reported":1743934223,"current_range_meters":18800,"station_id":"ce4bhp92rcd13ifvqhcg","pricing_plan_id":"cebpf4jnsgd1na2vs0mg"},{"bike_id":"d59d94e9-9758-4e70-8f6d-f720ca0e403c","system_id":"levelo_inurba_marseille","lat":43.27629,"lon":5.36137,"is_reserved":false,"is_disabled":true,"rental_uris":{"android":"levelo://app?vid=d59d94e9-9758-4e70-8f6d-f720ca0e403c","ios":"levelo://app?vid=d59d94e9-9758-4e70-8f6d-f720ca0e403c"},"vehicle_type_id":"4","last_reported":1743934223,"current_range_meters":18800,"station_id":"ce4bgj92rcd13ifvqbe0","pricing_plan_id":"cebpf4jnsgd1na2vs0mg"},{"bike_id":"c56f957d-00f4-406d-898e-f698851b9bc2","system_id":"levelo_inurba_marseille","lat":43.25115,"lon":5.40314,"is_reserved":false,"is_disabled":false,"rental_uris":{"android":"levelo://app?vid=c56f957d-00f4-406d-898e-f698851b9bc2","ios":"levelo://app?vid=c56f957d-00f4-406d-898e-f698851b9bc2"},"vehicle_type_id":"4","last_reported":1743934223,"current_range_meters":18800,"station_id":"ce4bhlh2rcd13ifvqgig","pricing_plan_id":"cebpf4jnsgd1na2vs0mg"},{"bike_id":"c6adade1-1328-4feb-b745-870e23a58bf5","system_id":"levelo_inurba_marseille","lat":43.27913,"lon":5.39573,"is_reserved":false,"is_disabled":false,"rental_uris":{"android":"levelo://app?vid=c6adade1-1328-4feb-b745-870e23a58bf5","ios":"levelo://app?vid=c6adade1-1328-4feb-b745-870e23a58bf5"},"vehicle_type_id":"4","last_reported":1743934223,"current_range_meters":19200,"station_id":"ce4bhf92rcd13ifvqf40","pricing_plan_id":"cebpf4jnsgd1na2vs0mg"},{"bike_id":"7becbeac-5790-468b-90f4-6347360d01af","system_id":"levelo_inurba_marseille","lat":43.34135,"lon":5.40895,"is_reserved":false,"is_disabled":false,"rental_uris":{"android":"levelo://app?vid=7becbeac-5790-468b-90f4-6347360d01af","ios":"levelo://app?vid=7becbeac-5790-468b-90f4-6347360d01af"},"vehicle_type_id":"4","last_reported":1743934223,"current_range_meters":19200,"station_id":"ce4bhqh2rcd13ifvqhlg","pricing_plan_id":"cebpf4jnsgd1na2vs0mg"},