{"last_updated":1721941690,"ttl":30,"version":"2.2","data":{"bikes":[{"bike_id":"1be8c05e-d534-4c02-9046-e4bc1f436c06","system_id":"levelo_inurba_marseille","lat":43.313391,"lon":5.36706,"is_reserved":false,"is_disabled":false,"rental_uris":{"android":"levelo://app?vid=1be8c05e-d534-4c02-9046-e4bc1f436c06","ios":"levelo://app?vid=1be8c05e-d534-4c02-9046-e4bc1f436c06"},"vehicle_type_id":"4","last_reported":1721941691,"current_range_meters":16800,"station_id":"ce4bgr92rcd13ifvqc6g","pricing_plan_id":"cebpf4jnsgd1na2vs0mg"},{"bike_id":"225f7201-c00a-48d8-8e66-9c61792f14c1","system_id":"levelo_inurba_marseille","lat":43.31243,"lon":5.36825,"is_reserved":false,"is_disabled":false,"rental_uris":{"android":"levelo://app?vid=225f7201-c00a-48d8-8e66-9c61792f14c1","ios":"levelo://app?vid=225f7201-c00a-48d8-8e66-9c61792f14c1"},"vehicle_type_id":"4","last_reported":1721941691,"current_range_meters":17200,"station_id":"ce4bgl92rcd13ifvqbq0","pricing_plan_id":"cebpf4jnsgd1na2vs0mg"},{"bike_id":"0a197979-a3a0-48ab-99ff-24ff4275f0ab","system_id":"levelo_inurba_marseille","lat":43.312239,"lon":5.368562,"is_reserved":false,"is_disabled":false,"rental_uris":{"android":"levelo://app?vid=0a197979-a3a0-48ab-99ff-24ff4275f0ab","ios":"levelo://app?vid=0a197979-a3a0-48ab-99ff-24ff4275f0ab"},"vehicle_type_id":"4","last_reported":1721941691,"current_range_meters":13200,"station_id":"ce4bgl92rcd13ifvqbq0","pricing_plan_id":"cebpf4jnsgd1na2vs0mg"},{"bike_id":"a8529dc7-8d59-4a34-ad11-683042fa3f15","system_id":"levelo_inurba_marseille","lat":43.312239,"lon":5.368562,"is_reserved":false,"is_disabled":false,"rental_uris":{"android":"levelo://app?vid=a8529dc7-8d59-4a34-ad11-683042fa3f15","ios":"levelo://app?vid=a8529dc7-8d59-4a34-ad11-683042fa3f15"},"vehicle_type_id":"4","last_reported":1721941691,"current_range_meters":11200,"station_id":"ce4bgl92rcd13ifvqbq0","pricing_plan_id":"cebpf4jnsgd1na2vs0mg"},{"bike_id":"2ca6aa88-6351-470d-af6c-0b258150b16d","system_id":"levelo_inurba_marseille","lat":43.312239,"lon":5.368562,"is_reserved":false,"is_disabled":false,"rental_uris":{"android":"levelo://app?vid=2ca6aa88-6351-470d-af6c-0b258150b16d","ios":"levelo://app?vid=2ca6aa88-6351-470d-af6c-0b258150b16d"},"vehicle_type_id":"4","last_reported":1721941691,"current_range_meters":6400,"station_id":"ce4bgl92rcd13ifvqbq0","pricing_plan_id":"cebpf4jnsgd1na2vs0mg"},{"bike_id":"bcab8dfd-dc13-4480-b3ae-d71f9ea7740a","system_id":"levelo_inurba_marseille","lat":43.312239,"lon":5.368562,"is_reserved":false,"is_disabled":false,"rental_uris":{"android":"levelo://app?vid=bcab8dfd-dc13-4480-b3ae-d71f9ea7740a","ios":"levelo://app?vid=bcab8dfd-dc13-4480-b3ae-d71f9ea7740a"},"vehicle_type_id":"4","last_reported":1721941691,"current_range_meters":9600,"station_id":"ce4bgl92rcd13ifvqbq0","pricing_plan_id":"cebpf4jnsgd1na2vs0mg"},{"bike_id":"17a2cf0e-dffe-42c8-bbfc-dc20512878f3","system_id":"levelo_inurba_marseille","lat":43.312239,"lon":5.368562,"is_reserved":false,"is_disabled":false,"rental_uris":{"android":"levelo://app?vid=17a2cf0e-dffe-42c8-bbfc-dc20512878f3","ios":"levelo://app?vid=17a2cf0e-dffe-42c8-bbfc-dc20512878f3"},"vehicle_type_id":"4","last_reported":1721941691,"current_range_meters":20400,"station_id":"ce4bgl92rcd13ifvqbq0","pricing_plan_id":"cebpf4jnsgd1na2vs0mg"},{"bike_id":"66e2894f-9c54-44cc-a5dc-f701f8929b18","system_id":"levelo_inurba_marseille","lat":43.309076,"lon":5.368465,"is_reserved":false,"is_disabled":false,"rental_uris":{"android":"levelo://app?vid=66e2894f-9c54-44cc-a5dc-f701f8929b18","ios":"levelo://app?vid=66e2894f-9c54-44cc-a5dc-f701f8929b18"},"vehicle_type_id":"4","last_reported":1721941691,"current_range_meters":7200,"station_id":"ce4bgn92rcd13ifvqbvg","pricing_plan_id":"cebpf4jnsgd1na2vs0mg"},{"bike_id":"2392b07c-8dbe-4366-a698-121421f18879","system_id":"levelo_inurba_marseille","lat":43.30913,"lon":5.36849,"is_reserved":false,"is_disabled":false,"rental_uris":{"android":"levelo://app?vid=2392b07c-8dbe-4366-a698-121421f18879","ios":"levelo://app?vid=2392b07c-8dbe-4366-a698-121421f18879"},"vehicle_type_id":"4","last_reported":1721941691,"current_range_meters":2800,"station_id":"ce4bgn92rcd13ifvqbvg","pricing_plan_id":"cebpf4jnsgd1na2vs0mg"},{"bike_id":"080cb9c2-7f37-4be2-a1fd-d9077b6f7fdb","system_id":"levelo_inurba_marseille","lat":43.309076,"lon":5.368465,"is_reserved":false,"is_disabled":false,"rental_uris":{"android":"levelo://app?vid=080cb9c2-7f37-4be2-a1fd-d9077b6f7fdb","ios":"levelo://app?vid=080cb9c2-7f37-4be2-a1fd-d9077b6f7fdb"},"vehicle_type_id":"4","last_reported":1721941691,"current_range_meters":20000,"station_id":"ce4bgn92rcd13ifvqbvg","pricing_plan_id":"cebpf4jnsgd1na2vs0mg"},{"bike_id":"d11b2704-0813-496c-940a-48965e3f7617","system_id":"levelo_inurba_marseille","lat":43.30908,"lon":5.36845,"is_reserved":false,"is_disabled":false,"rental_uris":{"android":"levelo://app?vid=d11b2704-0813-496c-940a-48965e3f7617","ios":"levelo://app?vid=d11b2704-0813-496c-940a-48965e3f7617"},"vehicle_type_id":"4","last_reported":1721941691,"current_range_meters":24400,"station_id":"ce4bgn92rcd13ifvqbvg","pricing_plan_id":"cebpf4jnsgd1na2vs0mg"},{"bike_id":"a6b089a7-0b28-467f-8f75-93092ff1150c","system_id":"levelo_inurba_marseille","lat":43.309076,"lon":5.368465,"is_reserved":false,"is_disabled":false,"rental_uris":{"android":"levelo://app?vid=a6b089a7-0b28-467f-8f75-93092ff1150c","ios":"levelo://app?vid=a6b089a7-0b28-467f-8f75-93092ff1150c"},"vehicle_type_id":"4","last_reported":1721941691,"current_range_meters":22000,"station_id":"ce4bgn92rcd13ifvqbvg","pricing_plan_id":"cebpf4jnsgd1na2vs0mg"},{"bike_id":"b1a198f6-1d8f-4acc-ab94-1bd14a4c1c20","system_id":"levelo_inurba_marseille","lat":43.309076,"lon":5.368465,"is_reserved":false,"is_disabled":false,"rental_uris":{"android":"levelo://app?vid=b1a198f6-1d8f-4acc-ab94-1bd14a4c1c20","ios":"levelo://app?vid=b1a198f6-1d8f-4acc-ab94-1bd14a4c1c20"},"vehicle_type_id":"4","last_reported":1721941691,"current_range_meters":13600,"station_id":"ce4bgn92rcd13ifvqbvg","pricing_plan_id":"cebpf4jnsgd1na2vs0mg"},{"bike_id":"62c52408-c35e-477f-adaa-3b9a0459315f","system_id":"levelo_inurba_marseille","lat":43.314811,"lon":5.373103,"is_reserved":false,"is_disabled":false,"rental_uris":{"android":"levelo://app?vid=62c52408-c35e-477f-adaa-3b9a0459315f","ios":"levelo://app?vid=62c52408-c35e-477f-adaa-3b9a0459315f"},"vehicle_type_id":"4","last_reported":1721941691,"current_range_meters":4400,"station_id":"ce4bgt12rcd13ifvqcd0","pricing_plan_id":"cebpf4jnsgd1na2vs0mg"},{"bike_id":"126935d3-ebf3-4907-99c5-c6a2a29026c0","system_id":"levelo_inurba_marseille","lat":43.314811,"lon":5.373103,"is_reserved":false,"is_disabled":false,"rental_uris":{"android":"levelo://app?vid=126935d3-ebf3-4907-99c5-c6a2a29026c0","ios":"levelo://app?vid=126935d3-ebf3-4907-99c5-c6a2a29026c0"},"vehicle_type_id":"4","last_reported":1721941691,"current_range_meters":14400,"station_id":"ce4bgt12rcd13ifvqcd0","pricing_plan_id":"cebpf4jnsgd1na2vs0mg"},{"bike_id":"d3a347c5-112d-48bb-9864-cc6f2c948fe8","system_id":"levelo_inurba_marseille","lat":43.314811,"lon":5.373103,"is_reserved":false,"is_disabled":false,"rental_uris":{"android":"levelo://app?vid=d3a347c5-112d-48bb-9864-cc6f2c948fe8","ios":"levelo://app?vid=d3a347c5-112d-48bb-9864-cc6f2c948fe8"},"vehicle_type_id":"4","last_reported":1721941691,"current_range_meters":26400,"station_id":"ce4bgt12rcd13ifvqcd0","pricing_plan_id":"cebpf4jnsgd1na2vs0mg"},{"bike_id":"df9770f7-0018-4b48-9a28-2f0e63eb46d7","system_id":"levelo_inurba_marseille","lat":43.314811,"lon":5.373103,"is_reserved":false,"is_disabled":false,"rental_uris":{"android":"levelo://app?vid=df9770f7-0018-4b48-9a28-2f0e63eb46d7","ios":"levelo://app?vid=df9770f7-0018-4b48-9a28-2f0e63eb46d7"},"vehicle_type_id":"4","last_reported":1721941691,"current_range_meters":0,"station_id":"ce4bgt12rcd13ifvqcd0","pricing_plan_id":"cebpf4jnsgd1na2vs0mg"},{"bike_id":"72c89260-fc07-45e0-a1d4-e7182c049a28","system_id":"levelo_inurba_marseille","lat":43.314811,"lon":5.373103,"is_reserved":false,"is_disabled":false,"rental_uris":{"android":"levelo://app?vid=72c89260-fc07-45e0-a1d4-e7182c049a28","ios":"levelo://app?vid=72c89260-fc07-45e0-a1d4-e7182c049a28"},"vehicle_type_id":"4","last_reported":1721941691,"current_range_meters":18400,"station_id":"ce4bgt12rcd13ifvqcd0","pricing_plan_id":"cebpf4jnsgd1na2vs0mg"},{"bike_id":"14344b32-b9f2-46e8-baf6-c6875c637783","system_id":"levelo_inurba_marseille","lat":43.31495,"lon":5.37312,"is_reserved":false,"is_disabled":false,"rental_uris":{"android":"levelo://app?vid=14344b32-b9f2-46e8-baf6-c6875c637783","ios":"levelo://app?vid=14344b32-b9f2-46e8-baf6-c6875c637783"},"vehicle_type_id":"4","last_reported":1721941691,"current_range_meters":22000,"station_id":"ce4bgt12rcd13ifvqcd0","pricing_plan_id":"cebpf4jnsgd1na2vs0mg"},{"bike_id":"008c4e7e-1548-4ffc-b6a6-529560b0fc25","system_id":"levelo_inurba_marseille","lat":43.31498,"lon":5.3731,"is_reserved":false,"is_disabled":false,"rental_uris":{"android":"levelo://app?vid=008c4e7e-1548-4ffc-b6a6-529560b0fc25","ios":"levelo://app?vid=008c4e7e-1548-4ffc-b6a6-529560b0fc25"},"vehicle_type_id":"4","last_reported":1721941691,"current_range_meters":10400,"station_id":"ce4bgt12rcd13ifvqcd0","pricing_plan_id":"cebpf4jnsgd1na2vs0mg"},{"bike_id":"8c44f360-8b0c-4c6b-b7c7-cb051b161e4e","system_id":"levelo_inurba_marseille","lat":43.309039,"lon":5.371797,"is_reserved":false,"is_disabled":false,"rental_uris":{"android":"levelo://app?vid=8c44f360-8b0c-4c6b-b7c7-cb051b161e4e","ios":"levelo://app?vid=8c44f360-8b0c-4c6b-b7c7-cb051b161e4e"},"vehicle_type_id":"4","last_reported":1721941691,"current_range_meters":12400,"station_id":"ce4bguh2rcd13ifvqckg","pricing_plan_id":"cebpf4jnsgd1na2vs0mg"},{"bike_id":"923b014b-be64-4895-bf3a-5fba8e084b17","system_id":"levelo_inurba_marseille","lat":43.309039,"lon":5.371797,"is_reserved":false,"is_disabled":false,"rental_uris":{"android":"levelo://app?vid=923b014b-be64-4895-bf3a-5fba8e084b17","ios":"levelo://app?vid=923b014b-be64-4895-bf3a-5fba8e084b17"},"vehicle_type_id":"4","last_reported":1721941691,"current_range_meters":31600,"station_id":"ce4bguh2rcd13ifvqckg","pricing_plan_id":"cebpf4jnsgd1na2vs0mg"},{"bike_id":"41b20138-e62e-46aa-8683-82a433ec05c7","system_id":"levelo_inurba_marseille","lat":43.309039,"lon":5.371797,"is_reserved":false,"is_disabled":false,"rental_uris":{"android":"levelo://app?vid=41b20138-e62e-46aa-8683-82a433ec05c7","ios":"levelo://app?vid=41b20138-e62e-46aa-8683-82a433ec05c7"},"vehicle_type_id":"4","last_reported":1721941691,"current_range_meters":25600,"station_id":"ce4bguh2rcd13ifvqckg","pricing_plan_id":"cebpf4jnsgd1na2vs0mg"},{"bike_id":"5821d628-9cfe-420e-bbff-4a38295a21d0","system_id":"levelo_inurba_marseille","lat":43.309039,"lon":5.371797,"is_reserved":false,"is_disabled":false,"rental_uris":{"android":"levelo://app?vid=5821d628-9cfe-420e-bbff-4a38295a21d0","ios":"levelo://app?vid=5821d628-9cfe-420e-bbff-4a38295a21d0"},"vehicle_type_id":"4","last_reported":1721941691,"current_range_meters":31600,"station_id":"ce4bguh2rcd13ifvqckg","pricing_plan_id":"cebpf4jnsgd1na2vs0mg"},{"bike_id":"c0c8caf3-ea3c-4317-baf1-78c06feb5a39","system_id":"levelo_inurba_marseille","lat":43.309034,"lon":5.371783,"is_reserved":false,"is_disabled":false,"rental_uris":{"android":"levelo://app?vid=c0c8caf3-ea3c-4317-baf1-78c06feb5a39","ios":"levelo://app?vid=c0c8caf3-ea3c-4317-baf1-78c06feb5a39"},"vehicle_type_id":"4","last_reported":1721941691,"current_range_meters":29200,"station_id":"ce4bguh2rcd13ifvqckg","pricing_plan_id":"cebpf4jnsgd1na2vs0mg"},{"bike_id":"9a32b39f-8222-4877-ac10-390304976dca","system_id":"levelo_inurba_marseille","lat":43.309034,"lon":5.371783,"is_reserved":false,"is_disabled":false,"rental_uris":{"android":"levelo://app?vid=9a32b39f-8222-4877-ac10-390304976dca","ios":"levelo://app?vid=9a32b39f-8222-4877-ac10-390304976dca"},"vehicle_type_id":"4","last_reported":1721941691,"current_range_meters":4400,"station_id":"ce4bguh2rcd13ifvqckg","pricing_plan_id":"cebpf4jnsgd1na2vs0mg"},{"bike_id":"cbd34aae-8b74-4bd5-8bbf-f06912ca9058","system_id":"levelo_inurba_marseille","lat":43.305368,"lon":5.367343,"is_reserved":false,"is_disabled":false,"rental_uris":{"android":"levelo://app?vid=cbd34aae-8b74-4bd5-8bbf-f06912ca9058","ios":"levelo://app?vid=cbd34aae-8b74-4bd5-8bbf-f06912ca9058"},"vehicle_type_id":"4","last_reported":1721941691,"current_range_meters":12800,"station_id":"ce4bgrp2rcd13ifvqc9g","pricing_plan_id":"cebpf4jnsgd1na2vs0mg"},{"bike_id":"e92c0dcd-d781-45e5-9900-599352db46f2","system_id":"levelo_inurba_marseille","lat":43.305989,"lon":5.37225,"is_reserved":false,"is_disabled":false,"rental_uris":{"android":"levelo://app?vid=e92c0dcd-d781-45e5-9900-599352db46f2","ios":"levelo://app?vid=e92c0dcd-d781-45e5-9900-599352db46f2"},"vehicle_type_id":"4","last_reported":1721941691,"current_range_meters":22400,"station_id":"ce4bgqh2rcd13ifvqc4g","pricing_plan_id":"cebpf4jnsgd1na2vs0mg"},{"bike_id":"49a37f61-95b6-4d46-bc65-852d5d307461","system_id":"levelo_inurba_marseille","lat":43.30595,"lon":5.37215,"is_reserved":false,"is_disabled":false,"rental_uris":{"android":"levelo://app?vid=49a37f61-95b6-4d46-bc65-852d5d307461","ios":"levelo://app?vid=49a37f61-95b6-4d46-bc65-852d5d307461"},"vehicle_type_id":"4","last_reported":1721941691,"current_range_meters":28400,"station_id":"ce4bgqh2rcd13ifvqc4g","pricing_plan_id":"cebpf4jnsgd1na2vs0mg"},{"bike_id":"dfe637e5-a5df-422a-943e-58895fa3fcf7","system_id":"levelo_inurba_marseille","lat":43.305989,"lon":5.37225,"is_reserved":false,"is_disabled":false,"rental_uris":{"android":"levelo://app?vid=dfe637e5-a5df-422a-943e-58895fa3fcf7","ios":"levelo://app?vid=dfe637e5-a5df-422a-943e-58895fa3fcf7"},"vehicle_type_id":"4","last_reported":1721941691,"current_range_meters":14400,"station_id":"ce4bgqh2rcd13ifvqc4g","pricing_plan_id":"cebpf4jnsgd1na2vs0mg"},{"bike_id":"193645e2-a1b1-4109-928b-873f3d233d57","system_id":"levelo_inurba_marseille","lat":43.305989,"lon":5.37225,"is_reserved":false,"is_disabled":false,"rental_uris":{"android":"levelo://app?vid=193645e2-a1b1-4109-928b-873f3d233d57","ios":"levelo://app?vid=193645e2-a1b1-4109-928b-873f3d233d57"},"vehicle_type_id":"4","last_reported":1721941691,"current_range_meters":0,"station_id":"ce4bgqh2rcd13ifvqc4g","pricing_plan_id":"cebpf4jnsgd1na2vs0mg"},{"bike_id":"684e555b-f2bb-4ca8-a0a0-3eef9f72ebe2","system_id":"levelo_inurba_marseille","lat":43.305989,"lon":5.37225,"is_reserved":false,"is_disabled":false,"rental_uris":{"android":"levelo://app?vid=684e555b-f2bb-4ca8-a0a0-3eef9f72ebe2","ios":"levelo://app?vid=684e555b-f2bb-4ca8-a0a0-3eef9f72ebe2"},"vehicle_type_id":"4","last_reported":1721941691,"current_range_meters":31200,"station_id":"ce4bgqh2rcd13ifvqc4g","pricing_plan_id":"cebpf4jnsgd1na2vs0mg"},{"bike_id":"90fe1d4f-2b4b-4827-bfca-7fd949654006","system_id":"levelo_inurba_marseille","lat":43.311211,"lon":5.377631,"is_reserved":false,"is_disabled":false,"rental_uris":{"android":"levelo://app?vid=90fe1d4f-2b4b-4827-bfca-7fd949654006","ios":"levelo://app?vid=90fe1d4f-2b4b-4827-bfca-7fd949654006"},"vehicle_type_id":"4","last_reported":1721941691,"current_range_meters":5600,"station_id":"ce4bgt92rcd13ifvqcg0","pricing_plan_id":"cebpf4jnsgd1na2vs0mg"},{"bike_id":"44c6d389-133a-4c86-bcfe-18f6662a269c","system_id":"levelo_inurba_marseille","lat":43.311131,"lon":5.377651,"is_reserved":false,"is_disabled":false,"rental_uris":{"android":"levelo://app?vid=44c6d389-133a-4c86-bcfe-18f6662a269c","ios":"levelo://app?vid=44c6d389-133a-4c86-bcfe-18f6662a269c"},"vehicle_type_id":"4","last_reported":1721941691,"current_range_meters":6400,"station_id":"ce4bgt92rcd13ifvqcg0","pricing_plan_id":"cebpf4jnsgd1na2vs0mg"},{"bike_id":"4744e093-5653-4eed-a1ac-19a4c69c62f1","system_id":"levelo_inurba_marseille","lat":43.311125,"lon":5.377624,"is_reserved":false,"is_disabled":false,"rental_uris":{"android":"levelo://app?vid=4744e093-5653-4eed-a1ac-19a4c69c62f1","ios":"levelo://app?vid=4744e093-5653-4eed-a1ac-19a4c69c62f1"},"vehicle_type_id":"4","last_reported":1721941691,"current_range_meters":27200,"station_id":"ce4bgt92rcd13ifvqcg0","pricing_plan_id":"cebpf4jnsgd1na2vs0mg"},{"bike_id":"fee9ab30-5301-4508-81c1-2ddbd8be9d17","system_id":"levelo_inurba_marseille","lat":43.311131,"lon":5.377651,"is_reserved":false,"is_disabled":false,"rental_uris":{"android":"levelo://app?vid=fee9ab30-5301-4508-81c1-2ddbd8be9d17","ios":"levelo://app?vid=fee9ab30-5301-4508-81c1-2ddbd8be9d17"},"vehicle_type_id":"4","last_reported":1721941691,"current_range_meters":0,"station_id":"ce4bgt92rcd13ifvqcg0","pricing_plan_id":"cebpf4jnsgd1na2vs0mg"},{"bike_id":"86ae272a-c7bc-4246-a2b4-38a9e3cc8c4d","system_id":"levelo_inurba_marseille","lat":43.311131,"lon":5.377651,"is_reserved":false,"is_disabled":false,"rental_uris":{"android":"levelo://app?vid=86ae272a-c7bc-4246-a2b4-38a9e3cc8c4d","ios":"levelo://app?vid=86ae272a-c7bc-4246-a2b4-38a9e3cc8c4d"},"vehicle_type_id":"4","last_reported":1721941691,"current_range_meters":800,"station_id":"ce4bgt92rcd13ifvqcg0","pricing_plan_id":"cebpf4jnsgd1na2vs0mg"},{"bike_id":"2a8c312a-1ca7-4fd8-b43f-255703bab8d2","system_id":"levelo_inurba_marseille","lat":43.307945,"lon":5.376487,"is_reserved":false,"is_disabled":false,"rental_uris":{"android":"levelo://app?vid=2a8c312a-1ca7-4fd8-b43f-255703bab8d2","ios":"levelo://app?vid=2a8c312a-1ca7-4fd8-b43f-255703bab8d2"},"vehicle_type_id":"4","last_reported":1721941691,"current_range_meters":24400,"station_id":"ce4bgv92rcd13ifvqcq0","pricing_plan_id":"cebpf4jnsgd1na2vs0mg"},{"bike_id":"618012ec-5ed6-4bf4-8c0e-b3d8f6c52ec9","system_id":"levelo_inurba_marseille","lat":43.30799,"lon":5.37654,"is_reserved":false,"is_disabled":false,"rental_uris":{"android":"levelo://app?vid=618012ec-5ed6-4bf4-8c0e-b3d8f6c52ec9","ios":"levelo://app?vid=618012ec-5ed6-4bf4-8c0e-b3d8f6c52ec9"},"vehicle_type_id":"4","last_reported":1721941691,"current_range_meters":4800,"station_id":"ce4bgv92rcd13ifvqcq0","pricing_plan_id":"cebpf4jnsgd1na2vs0mg"},{"bike_id":"63c8c00d-bd29-40eb-a033-e138e9a69314","system_id":"levelo_inurba_marseille","lat":43.307945,"lon":5.376487,"is_reserved":false,"is_disabled":false,"rental_uris":{"android":"levelo://app?vid=63c8c00d-bd29-40eb-a033-e138e9a69314","ios":"levelo://app?vid=63c8c00d-bd29-40eb-a033-e138e9a69314"},"vehicle_type_id":"4","last_reported":1721941691,"current_range_meters":16000,"station_id":"ce4bgv92rcd13ifvqcq0","pricing_plan_id":"cebpf4jnsgd1na2vs0mg"},{"bike_id":"debba078-daed-4766-9b3e-c5102db50493","system_id":"levelo_inurba_marseille","lat":43.307945,"lon":5.376487,"is_reserved":false,"is_disabled":false,"rental_uris":{"android":"levelo://app?vid=debba078-daed-4766-9b3e-c5102db50493","ios":"levelo://app?vid=debba078-daed-4766-9b3e-c5102db50493"},"vehicle_type_id":"4","last_reported":1721941691,"current_range_meters":21600,"station_id":"ce4bgv92rcd13ifvqcq0","pricing_plan_id":"cebpf4jnsgd1na2vs0mg"},{"bike_id":"f8e1b4f6-eee8-4c30-b6a5-dc02b9885b54","system_id":"levelo_inurba_marseille","lat":43.30304,"lon":5.368987,"is_reserved":false,"is_disabled":false,"rental_uris":{"android":"levelo://app?vid=f8e1b4f6-eee8-4c30-b6a5-dc02b9885b54","ios":"levelo://app?vid=f8e1b4f6-eee8-4c30-b6a5-dc02b9885b54"},"vehicle_type_id":"4","last_reported":1721941691,"current_range_meters":3600,"station_id":"ce4bgqh2rcd13ifvqc5g","pricing_plan_id":"cebpf4jnsgd1na2vs0mg"},{"bike_id":"1b0291c1-ce35-48b5-8d52-6f70cf21bf32","system_id":"levelo_inurba_marseille","lat":43.301939,"lon":5.366286,"is_reserved":false,"is_disabled":false,"rental_uris":{"android":"levelo://app?vid=1b0291c1-ce35-48b5-8d52-6f70cf21bf32","ios":"levelo://app?vid=1b0291c1-ce35-48b5-8d52-6f70cf21bf32"},"vehicle_type_id":"4","last_reported":1721941691,"current_range_meters":7200,"station_id":"ce4bgrh2rcd13ifvqc8g","pricing_plan_id":"cebpf4jnsgd1na2vs0mg"},{"bike_id":"bb760680-1754-4ca1-8146-99846c614d42","system_id":"levelo_inurba_marseille","lat":43.304606,"lon":5.379026,"is_reserved":false,"is_disabled":false,"rental_uris":{"android":"levelo://app?vid=bb760680-1754-4ca1-8146-99846c614d42","ios":"levelo://app?vid=bb760680-1754-4ca1-8146-99846c614d42"},"vehicle_type_id":"4","last_reported":1721941691,"current_range_meters":0,"station_id":"ce4bgup2rcd13ifvqcn0","pricing_plan_id":"cebpf4jnsgd1na2vs0mg"},{"bike_id":"a45f224b-eec0-499e-be2c-f84d4e5b03a9","system_id":"levelo_inurba_marseille","lat":43.324771,"lon":5.36557,"is_reserved":false,"is_disabled":false,"rental_uris":{"android":"levelo://app?vid=a45f224b-eec0-499e-be2c-f84d4e5b03a9","ios":"levelo://app?vid=a45f224b-eec0-499e-be2c-f84d4e5b03a9"},"vehicle_type_id":"4","last_reported":1721941691,"current_range_meters":5600,"station_id":"ce4bhs12rcd13ifvqhvg","pricing_plan_id":"cebpf4jnsgd1na2vs0mg"},{"bike_id":"813df9de-7104-4f2f-9858-7ba38d6265af","system_id":"levelo_inurba_marseille","lat":43.32477,"lon":5.3657,"is_reserved":false,"is_disabled":false,"rental_uris":{"android":"levelo://app?vid=813df9de-7104-4f2f-9858-7ba38d6265af","ios":"levelo://app?vid=813df9de-7104-4f2f-9858-7ba38d6265af"},"vehicle_type_id":"4","last_reported":1721941691,"current_range_meters":15200,"station_id":"ce4bhs12rcd13ifvqhvg","pricing_plan_id":"cebpf4jnsgd1na2vs0mg"},{"bike_id":"eb7ff226-9a37-4984-9dc1-a582bddbadbe","system_id":"levelo_inurba_marseille","lat":43.32478,"lon":5.36577,"is_reserved":false,"is_disabled":false,"rental_uris":{"android":"levelo://app?vid=eb7ff226-9a37-4984-9dc1-a582bddbadbe","ios":"levelo://app?vid=eb7ff226-9a37-4984-9dc1-a582bddbadbe"},"vehicle_type_id":"4","last_reported":1721941691,"current_range_meters":28800,"station_id":"ce4bhs12rcd13ifvqhvg","pricing_plan_id":"cebpf4jnsgd1na2vs0mg"},{"bike_id":"ff7e43d2-aaee-45c7-b611-207a1955f98d","system_id":"levelo_inurba_marseille","lat":43.324771,"lon":5.36557,"is_reserved":false,"is_disabled":false,"rental_uris":{"android":"levelo://app?vid=ff7e43d2-aaee-45c7-b611-207a1955f98d","ios":"levelo://app?vid=ff7e43d2-aaee-45c7-b611-207a1955f98d"},"vehicle_type_id":"4","last_reported":1721941691,"current_range_meters":26000,"station_id":"ce4bhs12rcd13ifvqhvg","pricing_plan_id":"cebpf4jnsgd1na2vs0mg"},{"bike_id":"089766af-1e7c-4cb9-8cb4-3eba9e6cbed8","system_id":"levelo_inurba_marseille","lat":43.310804,"lon":5.38359,"is_reserved":false,"is_disabled":false,"rental_uris":{"android":"levelo://app?vid=089766af-1e7c-4cb9-8cb4-3eba9e6cbed8","ios":"levelo://app?vid=089766af-1e7c-4cb9-8cb4-3eba9e6cbed8"},"vehicle_type_id":"4","last_reported":1721941691,"current_range_meters":2000,"station_id":"ce4bgv92rcd13ifvqcr0","pricing_plan_id":"cebpf4jnsgd1na2vs0mg"},{"bike_id":"b8c50968-9ced-44ff-ba34-2edcfbfc7184","system_id":"levelo_inurba_marseille","lat":43.310804,"lon":5.38359,"is_reserved":false,"is_disabled":false,"rental_uris":{"android":"levelo://app?vid=b8c50968-9ced-44ff-ba34-2edcfbfc7184","ios":"levelo://app?vid=b8c50968-9ced-44ff-ba34-2edcfbfc7184"},"vehicle_type_id":"4","last_reported":1721941691,"current_range_meters":26000,"station_id":"ce4bgv92rcd13ifvqcr0","pricing_plan_id":"cebpf4jnsgd1na2vs0mg"},{"bike_id":"59ea7697-72a7-4ed0-be53-866825334f6f","system_id":"levelo_inurba_marseille","lat":43.310804,"lon":5.38359,"is_reserved":false,"is_disabled":false,"rental_uris":{"android":"levelo://app?vid=59ea7697-72a7-4ed0-be53-866825334f6f","ios":"levelo://app?vid=59ea7697-72a7-4ed0-be53-866825334f6f"},"vehicle_type_id":"4","last_reported":1721941691,"current_range_meters":29600,"station_id":"ce4bgv92rcd13ifvqcr0","pricing_plan_id":"cebpf4jnsgd1na2vs0mg"},{"bike_id":"3a8d5a3b-7b1f-4e07-bb3e-f7d9392430dd","system_id":"levelo_inurba_marseille","lat":43.310804,"lon":5.38359,"is_reserved":false,"is_disabled":false,"rental_uris":{"android":"levelo://app?vid=3a8d5a3b-7b1f-4e07-bb3e-f7d9392430dd","ios":"levelo://app?vid=3a8d5a3b-7b1f-4e07-bb3e-f7d9392430dd"},"vehicle_type_id":"4","last_reported":1721941691,"current_range_meters":12000,"station_id":"ce4bgv92rcd13ifvqcr0","pricing_plan_id":"cebpf4jnsgd1na2vs0mg"},{"bike_id":"47d2c9d1-59cb-4860-b95d-b34d323e7e50","system_id":"levelo_inurba_marseille","lat":43.310804,"lon":5.38359,"is_reserved":false,"is_disabled":false,"rental_uris":{"android":"levelo://app?vid=47d2c9d1-59cb-4860-b95d-b34d323e7e50","ios":"levelo://app?vid=47d2c9d1-59cb-4860-b95d-b34d323e7e50"},"vehicle_type_id":"4","last_reported":1721941691,"current_range_meters":800,"station_id":"ce4bgv92rcd13ifvqcr0","pricing_plan_id":"cebpf4jnsgd1na2vs0mg"},{"bike_id":"f393135a-3042-4322-892a-021570b5e9bf","system_id":"levelo_inurba_marseille","lat":43.310804,"lon":5.38359,"is_reserved":false,"is_disabled":false,"rental_uris":{"android":"levelo://app?vid=f393135a-3042-4322-892a-021570b5e9bf","ios":"levelo://app?vid=f393135a-3042-4322-892a-021570b5e9bf"},"vehicle_type_id":"4","last_reported":1721941691,"current_range_meters":24000,"station_id":"ce4bgv92rcd13ifvqcr0","pricing_plan_id":"cebpf4jnsgd1na2vs0mg"},{"bike_id":"d6355855-8d2b-47ee-ac3b-bd1215bcc58d","system_id":"levelo_inurba_marseille","lat":43.310804,"lon":5.38359,"is_reserved":false,"is_disabled":false,"rental_uris":{"android":"levelo://app?vid=d6355855-8d2b-47ee-ac3b-bd1215bcc58d","ios":"levelo://app?vid=d6355855-8d2b-47ee-ac3b-bd1215bcc58d"},"vehicle_type_id":"4","last_reported":1721941691,"current_range_meters":26800,"station_id":"ce4bgv92rcd13ifvqcr0","pricing_plan_id":"cebpf4jnsgd1na2vs0mg"},{"bike_id":"730f683c-5ab4-4897-9ca4-f287c26d70d2","system_id":"levelo_inurba_marseille","lat":43.31995,"lon":5.38149,"is_reserved":false,"is_disabled":false,"rental_uris":{"android":"levelo://app?vid=730f683c-5ab4-4897-9ca4-f287c26d70d2","ios":"levelo://app?vid=730f683c-5ab4-4897-9ca4-f287c26d70d2"},"vehicle_type_id":"4","last_reported":1721941691,"current_range_meters":27600,"station_id":"ce4bhr12rcd13ifvqhpg","pricing_plan_id":"cebpf4jnsgd1na2vs0mg"},{"bike_id":"db69cf9b-347f-4bf7-a167-1baf57a6f084","system_id":"levelo_inurba_marseille","lat":43.319935,"lon":5.381699,"is_reserved":false,"is_disabled":false,"rental_uris":{"android":"levelo://app?vid=db69cf9b-347f-4bf7-a167-1baf57a6f084","ios":"levelo://app?vid=db69cf9b-347f-4bf7-a167-1baf57a6f084"},"vehicle_type_id":"4","last_reported":1721941691,"current_range_meters":23200,"station_id":"ce4bhr12rcd13ifvqhpg","pricing_plan_id":"cebpf4jnsgd1na2vs0mg"},{"bike_id":"4c2da8c1-d840-489c-8254-b223260b46f1","system_id":"levelo_inurba_marseille","lat":43.319935,"lon":5.381699,"is_reserved":false,"is_disabled":false,"rental_uris":{"android":"levelo://app?vid=4c2da8c1-d840-489c-8254-b223260b46f1","ios":"levelo://app?vid=4c2da8c1-d840-489c-8254-b223260b46f1"},"vehicle_type_id":"4","last_reported":1721941691,"current_range_meters":2400,"station_id":"ce4bhr12rcd13ifvqhpg","pricing_plan_id":"cebpf4jnsgd1na2vs0mg"},{"bike_id":"e24b173c-c76b-4318-a9d8-55076ddbc00a","system_id":"levelo_inurba_marseille","lat":43.319935,"lon":5.381699,"is_reserved":false,"is_disabled":false,"rental_uris":{"android":"levelo://app?vid=e24b173c-c76b-4318-a9d8-55076ddbc00a","ios":"levelo://app?vid=e24b173c-c76b-4318-a9d8-55076ddbc00a"},"vehicle_type_id":"4","last_reported":1721941691,"current_range_meters":31200,"station_id":"ce4bhr12rcd13ifvqhpg","pricing_plan_id":"cebpf4jnsgd1na2vs0mg"},{"bike_id":"938c8a11-fb8d-4247-a469-f39ac1d9501f","system_id":"levelo_inurba_marseille","lat":43.319935,"lon":5.381699,"is_reserved":false,"is_disabled":false,"rental_uris":{"android":"levelo://app?vid=938c8a11-fb8d-4247-a469-f39ac1d9501f","ios":"levelo://app?vid=938c8a11-fb8d-4247-a469-f39ac1d9501f"},"vehicle_type_id":"4","last_reported":1721941691,"current_range_meters":2400,"station_id":"ce4bhr12rcd13ifvqhpg","pricing_plan_id":"cebpf4jnsgd1na2vs0mg"},{"bike_id":"b5f42715-44ac-4f7b-aff8-e36ff53fc823","system_id":"levelo_inurba_marseille","lat":43.313571,"lon":5.384829,"is_reserved":false,"is_disabled":false,"rental_uris":{"android":"levelo://app?vid=b5f42715-44ac-4f7b-aff8-e36ff53fc823","ios":"levelo://app?vid=b5f42715-44ac-4f7b-aff8-e36ff53fc823"},"vehicle_type_id":"4","last_reported":1721941691,"current_range_meters":4400,"station_id":"ce4bgt92rcd13ifvqcf0","pricing_plan_id":"cebpf4jnsgd1na2vs0mg"},{"bike_id":"54ab7098-f579-472b-8284-33f9ae27e31b","system_id":"levelo_inurba_marseille","lat":43.313571,"lon":5.384829,"is_reserved":false,"is_disabled":false,"rental_uris":{"android":"levelo://app?vid=54ab7098-f579-472b-8284-33f9ae27e31b","ios":"levelo://app?vid=54ab7098-f579-472b-8284-33f9ae27e31b"},"vehicle_type_id":"4","last_reported":1721941691,"current_range_meters":20800,"station_id":"ce4bgt92rcd13ifvqcf0","pricing_plan_id":"cebpf4jnsgd1na2vs0mg"},{"bike_id":"838b1cca-c197-4a4d-9550-d9135a68f192","system_id":"levelo_inurba_marseille","lat":43.313571,"lon":5.384829,"is_reserved":false,"is_disabled":false,"rental_uris":{"android":"levelo://app?vid=838b1cca-c197-4a4d-9550-d9135a68f192","ios":"levelo://app?vid=838b1cca-c197-4a4d-9550-d9135a68f192"},"vehicle_type_id":"4","last_reported":1721941691,"current_range_meters":22800,"station_id":"ce4bgt92rcd13ifvqcf0","pricing_plan_id":"cebpf4jnsgd1na2vs0mg"},{"bike_id":"e56137c9-5024-4f6f-8d2d-633817e8c847","system_id":"levelo_inurba_marseille","lat":43.313571,"lon":5.384829,"is_reserved":false,"is_disabled":false,"rental_uris":{"android":"levelo://app?vid=e56137c9-5024-4f6f-8d2d-633817e8c847","ios":"levelo://app?vid=e56137c9-5024-4f6f-8d2d-633817e8c847"},"vehicle_type_id":"4","last_reported":1721941691,"current_range_meters":21200,"station_id":"ce4bgt92rcd13ifvqcf0","pricing_plan_id":"cebpf4jnsgd1na2vs0mg"},{"bike_id":"d943ca14-341a-4e45-94ba-1555bdbc6f44","system_id":"levelo_inurba_marseille","lat":43.313571,"lon":5.384829,"is_reserved":false,"is_disabled":false,"rental_uris":{"android":"levelo://app?vid=d943ca14-341a-4e45-94ba-1555bdbc6f44","ios":"levelo://app?vid=d943ca14-341a-4e45-94ba-1555bdbc6f44"},"vehicle_type_id":"4","last_reported":1721941691,"current_range_meters":22400,"station_id":"ce4bgt92rcd13ifvqcf0","pricing_plan_id":"cebpf4jnsgd1na2vs0mg"},{"bike_id":"9a057454-df37-4176-aa75-2a8d60b0a1e2","system_id":"levelo_inurba_marseille","lat":43.299724,"lon":5.371829,"is_reserved":false,"is_disabled":false,"rental_uris":{"android":"levelo://app?vid=9a057454-df37-4176-aa75-2a8d60b0a1e2","ios":"levelo://app?vid=9a057454-df37-4176-aa75-2a8d60b0a1e2"},"vehicle_type_id":"4","last_reported":1721941691,"current_range_meters":29200,"station_id":"ce4bgr92rcd13ifvqc7g","pricing_plan_id":"cebpf4jnsgd1na2vs0mg"},{"bike_id":"d3154234-4f23-4abb-b083-5b6124854a70","system_id":"levelo_inurba_marseille","lat":43.299724,"lon":5.371829,"is_reserved":false,"is_disabled":false,"rental_uris":{"android":"levelo://app?vid=d3154234-4f23-4abb-b083-5b6124854a70","ios":"levelo://app?vid=d3154234-4f23-4abb-b083-5b6124854a70"},"vehicle_type_id":"4","last_reported":1721941691,"current_range_meters":14400,"station_id":"ce4bgr92rcd13ifvqc7g","pricing_plan_id":"cebpf4jnsgd1na2vs0mg"},{"bike_id":"69892851-3177-4ca8-97aa-7d87fb54e6dc","system_id":"levelo_inurba_marseille","lat":43.299724,"lon":5.371829,"is_reserved":false,"is_disabled":false,"rental_uris":{"android":"levelo://app?vid=69892851-3177-4ca8-97aa-7d87fb54e6dc","ios":"levelo://app?vid=69892851-3177-4ca8-97aa-7d87fb54e6dc"},"vehicle_type_id":"4","last_reported":1721941691,"current_range_meters":1200,"station_id":"ce4bgr92rcd13ifvqc7g","pricing_plan_id":"cebpf4jnsgd1na2vs0mg"},{"bike_id":"ae7f2396-f6ff-4474-a1dc-fb2917f39d13","system_id":"levelo_inurba_marseille","lat":43.322872,"lon":5.382756,"is_reserved":false,"is_disabled":false,"rental_uris":{"android":"levelo://app?vid=ae7f2396-f6ff-4474-a1dc-fb2917f39d13","ios":"levelo://app?vid=ae7f2396-f6ff-4474-a1dc-fb2917f39d13"},"vehicle_type_id":"4","last_reported":1721941691,"current_range_meters":12400,"station_id":"ce4bhr12rcd13ifvqhqg","pricing_plan_id":"cebpf4jnsgd1na2vs0mg"},{"bike_id":"453e1f54-bc1c-4482-b2b0-5f555e221259","system_id":"levelo_inurba_marseille","lat":43.311722,"lon":5.387247,"is_reserved":false,"is_disabled":false,"rental_uris":{"android":"levelo://app?vid=453e1f54-bc1c-4482-b2b0-5f555e221259","ios":"levelo://app?vid=453e1f54-bc1c-4482-b2b0-5f555e221259"},"vehicle_type_id":"4","last_reported":1721941691,"current_range_meters":20400,"station_id":"ce4bgv12rcd13ifvqcp0","pricing_plan_id":"cebpf4jnsgd1na2vs0mg"},{"bike_id":"3bf5e46b-fd0e-4341-b657-687d1cd2bf44","system_id":"levelo_inurba_marseille","lat":43.31171,"lon":5.38706,"is_reserved":false,"is_disabled":false,"rental_uris":{"android":"levelo://app?vid=3bf5e46b-fd0e-4341-b657-687d1cd2bf44","ios":"levelo://app?vid=3bf5e46b-fd0e-4341-b657-687d1cd2bf44"},"vehicle_type_id":"4","last_reported":1721941691,"current_range_meters":18400,"station_id":"ce4bgv12rcd13ifvqcp0","pricing_plan_id":"cebpf4jnsgd1na2vs0mg"},{"bike_id":"a2ea553e-322a-425e-b3a6-795aa1254aa6","system_id":"levelo_inurba_marseille","lat":43.311722,"lon":5.387247,"is_reserved":false,"is_disabled":false,"rental_uris":{"android":"levelo://app?vid=a2ea553e-322a-425e-b3a6-795aa1254aa6","ios":"levelo://app?vid=a2ea553e-322a-425e-b3a6-795aa1254aa6"},"vehicle_type_id":"4","last_reported":1721941691,"current_range_meters":24000,"station_id":"ce4bgv12rcd13ifvqcp0","pricing_plan_id":"cebpf4jnsgd1na2vs0mg"},{"bike_id":"fbdbc67f-d5fd-42f2-95b8-e5f945477838","system_id":"levelo_inurba_marseille","lat":43.311722,"lon":5.387247,"is_reserved":false,"is_disabled":false,"rental_uris":{"android":"levelo://app?vid=fbdbc67f-d5fd-42f2-95b8-e5f945477838","ios":"levelo://app?vid=fbdbc67f-d5fd-42f2-95b8-e5f945477838"},"vehicle_type_id":"4","last_reported":1721941691,"current_range_meters":31600,"station_id":"ce4bgv12rcd13ifvqcp0","pricing_plan_id":"cebpf4jnsgd1na2vs0mg"},{"bike_id":"9ea2a1e7-a057-4880-beac-6b32dd595737","system_id":"levelo_inurba_marseille","lat":43.31173,"lon":5.38708,"is_reserved":false,"is_disabled":false,"rental_uris":{"android":"levelo://app?vid=9ea2a1e7-a057-4880-beac-6b32dd595737","ios":"levelo://app?vid=9ea2a1e7-a057-4880-beac-6b32dd595737"},"vehicle_type_id":"4","last_reported":1721941691,"current_range_meters":2800,"station_id":"ce4bgv12rcd13ifvqcp0","pricing_plan_id":"cebpf4jnsgd1na2vs0mg"},{"bike_id":"62c85cd2-e156-4d48-b323-b497afcf0e3b","system_id":"levelo_inurba_marseille","lat":43.311722,"lon":5.387247,"is_reserved":false,"is_disabled":false,"rental_uris":{"android":"levelo://app?vid=62c85cd2-e156-4d48-b323-b497afcf0e3b","ios":"levelo://app?vid=62c85cd2-e156-4d48-b323-b497afcf0e3b"},"vehicle_type_id":"4","last_reported":1721941691,"current_range_meters":11600,"station_id":"ce4bgv12rcd13ifvqcp0","pricing_plan_id":"cebpf4jnsgd1na2vs0mg"},{"bike_id":"6468817e-0e8f-4888-bcb2-0a82121a0243","system_id":"levelo_inurba_marseille","lat":43.311722,"lon":5.387247,"is_reserved":false,"is_disabled":false,"rental_uris":{"android":"levelo://app?vid=6468817e-0e8f-4888-bcb2-0a82121a0243","ios":"levelo://app?vid=6468817e-0e8f-4888-bcb2-0a82121a0243"},"vehicle_type_id":"4","last_reported":1721941691,"current_range_meters":2000,"station_id":"ce4bgv12rcd13ifvqcp0","pricing_plan_id":"cebpf4jnsgd1na2vs0mg"},{"bike_id":"d8fb52a0-a041-478d-9142-2c8d8fe4326a","system_id":"levelo_inurba_marseille","lat":43.311722,"lon":5.387247,"is_reserved":false,"is_disabled":false,"rental_uris":{"android":"levelo://app?vid=d8fb52a0-a041-478d-9142-2c8d8fe4326a","ios":"levelo://app?vid=d8fb52a0-a041-478d-9142-2c8d8fe4326a"},"vehicle_type_id":"4","last_reported":1721941691,"current_range_meters":20400,"station_id":"ce4bgv12rcd13ifvqcp0","pricing_plan_id":"cebpf4jnsgd1na2vs0mg"},{"bike_id":"69ea121f-95cc-4724-9c5a-83c41de66230","system_id":"levelo_inurba_marseille","lat":43.311722,"lon":5.387247,"is_reserved":false,"is_disabled":false,"rental_uris":{"android":"levelo://app?vid=69ea121f-95cc-4724-9c5a-83c41de66230","ios":"levelo://app?vid=69ea121f-95cc-4724-9c5a-83c41de66230"},"vehicle_type_id":"4","last_reported":1721941691,"current_range_meters":26000,"station_id":"ce4bgv12rcd13ifvqcp0","pricing_plan_id":"cebpf4jnsgd1na2vs0mg"},{"bike_id":"d6496aec-b6ae-4f0a-b7f0-c99152dfa7a5","system_id":"levelo_inurba_marseille","lat":43.311722,"lon":5.387247,"is_reserved":false,"is_disabled":false,"rental_uris":{"android":"levelo://app?vid=d6496aec-b6ae-4f0a-b7f0-c99152dfa7a5","ios":"levelo://app?vid=d6496aec-b6ae-4f0a-b7f0-c99152dfa7a5"},"vehicle_type_id":"4","last_reported":1721941691,"current_range_meters":22000,"station_id":"ce4bgv12rcd13ifvqcp0","pricing_plan_id":"cebpf4jnsgd1na2vs0mg"},{"bike_id":"af902747-d193-4a94-a6fe-a8a55b5c3866","system_id":"levelo_inurba_marseille","lat":43.311722,"lon":5.387247,"is_reserved":false,"is_disabled":false,"rental_uris":{"android":"levelo://app?vid=af902747-d193-4a94-a6fe-a8a55b5c3866","ios":"levelo://app?vid=af902747-d193-4a94-a6fe-a8a55b5c3866"},"vehicle_type_id":"4","last_reported":1721941691,"current_range_meters":14000,"station_id":"ce4bgv12rcd13ifvqcp0","pricing_plan_id":"cebpf4jnsgd1na2vs0mg"},{"bike_id":"96d6352c-1eeb-45a7-8a7e-a6ea1d6d5669","system_id":"levelo_inurba_marseille","lat":43.31166,"lon":5.38715,"is_reserved":false,"is_disabled":false,"rental_uris":{"android":"levelo://app?vid=96d6352c-1eeb-45a7-8a7e-a6ea1d6d5669","ios":"levelo://app?vid=96d6352c-1eeb-45a7-8a7e-a6ea1d6d5669"},"vehicle_type_id":"4","last_reported":1721941691,"current_range_meters":23600,"station_id":"ce4bgv12rcd13ifvqcp0","pricing_plan_id":"cebpf4jnsgd1na2vs0mg"},{"bike_id":"55d3545c-8c31-4d01-9125-789eea547938","system_id":"levelo_inurba_marseille","lat":43.31164,"lon":5.38715,"is_reserved":false,"is_disabled":false,"rental_uris":{"android":"levelo://app?vid=55d3545c-8c31-4d01-9125-789eea547938","ios":"levelo://app?vid=55d3545c-8c31-4d01-9125-789eea547938"},"vehicle_type_id":"4","last_reported":1721941691,"current_range_meters":12400,"station_id":"ce4bgv12rcd13ifvqcp0","pricing_plan_id":"cebpf4jnsgd1na2vs0mg"},{"bike_id":"8ffca9c1-6888-47cc-bb28-7ba6b1ab14b2","system_id":"levelo_inurba_marseille","lat":43.31164,"lon":5.38716,"is_reserved":false,"is_disabled":false,"rental_uris":{"android":"levelo://app?vid=8ffca9c1-6888-47cc-bb28-7ba6b1ab14b2","ios":"levelo://app?vid=8ffca9c1-6888-47cc-bb28-7ba6b1ab14b2"},"vehicle_type_id":"4","last_reported":1721941691,"current_range_meters":28400,"station_id":"ce4bgv12rcd13ifvqcp0","pricing_plan_id":"cebpf4jnsgd1na2vs0mg"},{"bike_id":"041c5402-21f2-4874-91c9-047f2310fc7c","system_id":"levelo_inurba_marseille","lat":43.31173,"lon":5.38717,"is_reserved":false,"is_disabled":false,"rental_uris":{"android":"levelo://app?vid=041c5402-21f2-4874-91c9-047f2310fc7c","ios":"levelo://app?vid=041c5402-21f2-4874-91c9-047f2310fc7c"},"vehicle_type_id":"4","last_reported":1721941691,"current_range_meters":27200,"station_id":"ce4bgv12rcd13ifvqcp0","pricing_plan_id":"cebpf4jnsgd1na2vs0mg"},{"bike_id":"9511b561-8cf4-41f0-a004-49a4c673ea1e","system_id":"levelo_inurba_marseille","lat":43.311722,"lon":5.387247,"is_reserved":false,"is_disabled":false,"rental_uris":{"android":"levelo://app?vid=9511b561-8cf4-41f0-a004-49a4c673ea1e","ios":"levelo://app?vid=9511b561-8cf4-41f0-a004-49a4c673ea1e"},"vehicle_type_id":"4","last_reported":1721941691,"current_range_meters":30800,"station_id":"ce4bgv12rcd13ifvqcp0","pricing_plan_id":"cebpf4jnsgd1na2vs0mg"},{"bike_id":"1943de8f-e816-4fad-96cf-68ee8249e649","system_id":"levelo_inurba_marseille","lat":43.31167,"lon":5.38718,"is_reserved":false,"is_disabled":false,"rental_uris":{"android":"levelo://app?vid=1943de8f-e816-4fad-96cf-68ee8249e649","ios":"levelo://app?vid=1943de8f-e816-4fad-96cf-68ee8249e649"},"vehicle_type_id":"4","last_reported":1721941691,"current_range_meters":14800,"station_id":"ce4bgv12rcd13ifvqcp0","pricing_plan_id":"cebpf4jnsgd1na2vs0mg"},{"bike_id":"f7721833-17e8-40da-bf55-6e97648edf36","system_id":"levelo_inurba_marseille","lat":43.311722,"lon":5.387247,"is_reserved":false,"is_disabled":false,"rental_uris":{"android":"levelo://app?vid=f7721833-17e8-40da-bf55-6e97648edf36","ios":"levelo://app?vid=f7721833-17e8-40da-bf55-6e97648edf36"},"vehicle_type_id":"4","last_reported":1721941691,"current_range_meters":12000,"station_id":"ce4bgv12rcd13ifvqcp0","pricing_plan_id":"cebpf4jnsgd1na2vs0mg"},{"bike_id":"21ab3183-21dc-4f08-8dee-c0eabb66a19e","system_id":"levelo_inurba_marseille","lat":43.31169,"lon":5.3872,"is_reserved":false,"is_disabled":false,"rental_uris":{"android":"levelo://app?vid=21ab3183-21dc-4f08-8dee-c0eabb66a19e","ios":"levelo://app?vid=21ab3183-21dc-4f08-8dee-c0eabb66a19e"},"vehicle_type_id":"4","last_reported":1721941691,"current_range_meters":10000,"station_id":"ce4bgv12rcd13ifvqcp0","pricing_plan_id":"cebpf4jnsgd1na2vs0mg"},{"bike_id":"ecfa6f80-5389-4452-8f0e-95285043831a","system_id":"levelo_inurba_marseille","lat":43.3116,"lon":5.38721,"is_reserved":false,"is_disabled":false,"rental_uris":{"android":"levelo://app?vid=ecfa6f80-5389-4452-8f0e-95285043831a","ios":"levelo://app?vid=ecfa6f80-5389-4452-8f0e-95285043831a"},"vehicle_type_id":"4","last_reported":1721941691,"current_range_meters":25200,"station_id":"ce4bgv12rcd13ifvqcp0","pricing_plan_id":"cebpf4jnsgd1na2vs0mg"},{"bike_id":"cfcec19f-7050-4a35-a816-8fb0f2e3c12b","system_id":"levelo_inurba_marseille","lat":43.31169,"lon":5.38723,"is_reserved":false,"is_disabled":false,"rental_uris":{"android":"levelo://app?vid=cfcec19f-7050-4a35-a816-8fb0f2e3c12b","ios":"levelo://app?vid=cfcec19f-7050-4a35-a816-8fb0f2e3c12b"},"vehicle_type_id":"4","last_reported":1721941691,"current_range_meters":3600,"station_id":"ce4bgv12rcd13ifvqcp0","pricing_plan_id":"cebpf4jnsgd1na2vs0mg"},{"bike_id":"18c273a8-7621-41c2-a9df-de8a82f32767","system_id":"levelo_inurba_marseille","lat":43.311722,"lon":5.387247,"is_reserved":false,"is_disabled":false,"rental_uris":{"android":"levelo://app?vid=18c273a8-7621-41c2-a9df-de8a82f32767","ios":"levelo://app?vid=18c273a8-7621-41c2-a9df-de8a82f32767"},"vehicle_type_id":"4","last_reported":1721941691,"current_range_meters":20400,"station_id":"ce4bgv12rcd13ifvqcp0","pricing_plan_id":"cebpf4jnsgd1na2vs0mg"},{"bike_id":"ebe7612f-4034-47f0-89ed-3481eb3df534","system_id":"levelo_inurba_marseille","lat":43.29795,"lon":5.37105,"is_reserved":false,"is_disabled":false,"rental_uris":{"android":"levelo://app?vid=ebe7612f-4034-47f0-89ed-3481eb3df534","ios":"levelo://app?vid=ebe7612f-4034-47f0-89ed-3481eb3df534"},"vehicle_type_id":"4","last_reported":1721941691,"current_range_meters":0,"station_id":"ce4bgop2rcd13ifvqc1g","pricing_plan_id":"cebpf4jnsgd1na2vs0mg"},{"bike_id":"fced7b5d-5c0d-4fc4-a8fa-d396379d23f8","system_id":"levelo_inurba_marseille","lat":43.29782,"lon":5.370855,"is_reserved":false,"is_disabled":false,"rental_uris":{"android":"levelo://app?vid=fced7b5d-5c0d-4fc4-a8fa-d396379d23f8","ios":"levelo://app?vid=fced7b5d-5c0d-4fc4-a8fa-d396379d23f8"},"vehicle_type_id":"4","last_reported":1721941691,"current_range_meters":31200,"station_id":"ce4bgop2rcd13ifvqc1g","pricing_plan_id":"cebpf4jnsgd1na2vs0mg"},{"bike_id":"0c8fdfd9-d937-4c39-8332-7f14ba38d5fa","system_id":"levelo_inurba_marseille","lat":43.297794,"lon":5.370888,"is_reserved":false,"is_disabled":false,"rental_uris":{"android":"levelo://app?vid=0c8fdfd9-d937-4c39-8332-7f14ba38d5fa","ios":"levelo://app?vid=0c8fdfd9-d937-4c39-8332-7f14ba38d5fa"},"vehicle_type_id":"4","last_reported":1721941691,"current_range_meters":21200,"station_id":"ce4bgop2rcd13ifvqc1g","pricing_plan_id":"cebpf4jnsgd1na2vs0mg"},{"bike_id":"cdfb6b3f-d6fb-4d7e-9a55-66403d9de1cd","system_id":"levelo_inurba_marseille","lat":43.32288,"lon":5.38256,"is_reserved":false,"is_disabled":false,"rental_uris":{"android":"levelo://app?vid=cdfb6b3f-d6fb-4d7e-9a55-66403d9de1cd","ios":"levelo://app?vid=cdfb6b3f-d6fb-4d7e-9a55-66403d9de1cd"},"vehicle_type_id":"4","last_reported":1721941691,"current_range_meters":4800,"station_id":"ce4bhr12rcd13ifvqhqg","pricing_plan_id":"cebpf4jnsgd1na2vs0mg"},{"bike_id":"47743f40-a840-46da-af79-1cb6fedbc7f2","system_id":"levelo_inurba_marseille","lat":43.322872,"lon":5.382756,"is_reserved":false,"is_disabled":false,"rental_uris":{"android":"levelo://app?vid=47743f40-a840-46da-af79-1cb6fedbc7f2","ios":"levelo://app?vid=47743f40-a840-46da-af79-1cb6fedbc7f2"},"vehicle_type_id":"4","last_reported":1721941691,"current_range_meters":12000,"station_id":"ce4bhr12rcd13ifvqhqg","pricing_plan_id":"cebpf4jnsgd1na2vs0mg"},{"bike_id":"02eafac8-b42a-4648-9272-c4702819261c","system_id":"levelo_inurba_marseille","lat":43.315194,"lon":5.387907,"is_reserved":false,"is_disabled":false,"rental_uris":{"android":"levelo://app?vid=02eafac8-b42a-4648-9272-c4702819261c","ios":"levelo://app?vid=02eafac8-b42a-4648-9272-c4702819261c"},"vehicle_type_id":"4","last_reported":1721941691,"current_range_meters":11600,"station_id":"","pricing_plan_id":"cebpf4jnsgd1na2vs0mg"},{"bike_id":"300d4909-1622-4e62-ae63-46576c69a65f","system_id":"levelo_inurba_marseille","lat":43.2968,"lon":5.37291,"is_reserved":false,"is_disabled":false,"rental_uris":{"android":"levelo://app?vid=300d4909-1622-4e62-ae63-46576c69a65f","ios":"levelo://app?vid=300d4909-1622-4e62-ae63-46576c69a65f"},"vehicle_type_id":"4","last_reported":1721941691,"current_range_meters":4000,"station_id":"ce4bgk12rcd13ifvqbj0","pricing_plan_id":"cebpf4jnsgd1na2vs0mg"},{"bike_id":"0c5294ee-08bc-4b64-bf42-d7325f6b8d77","system_id":"levelo_inurba_marseille","lat":43.2968,"lon":5.37291,"is_reserved":false,"is_disabled":false,"rental_uris":{"android":"levelo://app?vid=0c5294ee-08bc-4b64-bf42-d7325f6b8d77","ios":"levelo://app?vid=0c5294ee-08bc-4b64-bf42-d7325f6b8d77"},"vehicle_type_id":"4","last_reported":1721941691,"current_range_meters":26800,"station_id":"ce4bgk12rcd13ifvqbj0","pricing_plan_id":"cebpf4jnsgd1na2vs0mg"},{"bike_id":"3662f0c9-a831-4444-8d16-35ba7acabb3e","system_id":"levelo_inurba_marseille","lat":43.296129,"lon":5.370777,"is_reserved":false,"is_disabled":false,"rental_uris":{"android":"levelo://app?vid=3662f0c9-a831-4444-8d16-35ba7acabb3e","ios":"levelo://app?vid=3662f0c9-a831-4444-8d16-35ba7acabb3e"},"vehicle_type_id":"4","last_reported":1721941691,"current_range_meters":5200,"station_id":"ce4bgnh2rcd13ifvqc0g","pricing_plan_id":"cebpf4jnsgd1na2vs0mg"},{"bike_id":"4e3971fb-835f-4f49-8a41-dfc5c6fd3d26","system_id":"levelo_inurba_marseille","lat":43.2962,"lon":5.37162,"is_reserved":false,"is_disabled":false,"rental_uris":{"android":"levelo://app?vid=4e3971fb-835f-4f49-8a41-dfc5c6fd3d26","ios":"levelo://app?vid=4e3971fb-835f-4f49-8a41-dfc5c6fd3d26"},"vehicle_type_id":"4","last_reported":1721941691,"current_range_meters":31200,"station_id":"ce4bgnh2rcd13ifvqc0g","pricing_plan_id":"cebpf4jnsgd1na2vs0mg"},{"bike_id":"9ae849a2-ff65-4b2d-9b20-68952822e818","system_id":"levelo_inurba_marseille","lat":43.296129,"lon":5.370777,"is_reserved":false,"is_disabled":false,"rental_uris":{"android":"levelo://app?vid=9ae849a2-ff65-4b2d-9b20-68952822e818","ios":"levelo://app?vid=9ae849a2-ff65-4b2d-9b20-68952822e818"},"vehicle_type_id":"4","last_reported":1721941691,"current_range_meters":0,"station_id":"ce4bgnh2rcd13ifvqc0g","pricing_plan_id":"cebpf4jnsgd1na2vs0mg"},{"bike_id":"12633fb0-8c16-4445-9176-71aa1d4e0b3c","system_id":"levelo_inurba_marseille","lat":43.309589,"lon":5.390258,"is_reserved":false,"is_disabled":false,"rental_uris":{"android":"levelo://app?vid=12633fb0-8c16-4445-9176-71aa1d4e0b3c","ios":"levelo://app?vid=12633fb0-8c16-4445-9176-71aa1d4e0b3c"},"vehicle_type_id":"4","last_reported":1721941691,"current_range_meters":19200,"station_id":"ce4bgup2rcd13ifvqco0","pricing_plan_id":"cebpf4jnsgd1na2vs0mg"},{"bike_id":"dc80e0e2-ec6b-4174-a12d-54effa365ab3","system_id":"levelo_inurba_marseille","lat":43.309589,"lon":5.390258,"is_reserved":false,"is_disabled":false,"rental_uris":{"android":"levelo://app?vid=dc80e0e2-ec6b-4174-a12d-54effa365ab3","ios":"levelo://app?vid=dc80e0e2-ec6b-4174-a12d-54effa365ab3"},"vehicle_type_id":"4","last_reported":1721941691,"current_range_meters":31200,"station_id":"ce4bgup2rcd13ifvqco0","pricing_plan_id":"cebpf4jnsgd1na2vs0mg"},{"bike_id":"c367e7cd-890e-4558-8138-ed992aab372e","system_id":"levelo_inurba_marseille","lat":43.309589,"lon":5.390258,"is_reserved":false,"is_disabled":false,"rental_uris":{"android":"levelo://app?vid=c367e7cd-890e-4558-8138-ed992aab372e","ios":"levelo://app?vid=c367e7cd-890e-4558-8138-ed992aab372e"},"vehicle_type_id":"4","last_reported":1721941691,"current_range_meters":22400,"station_id":"ce4bgup2rcd13ifvqco0","pricing_plan_id":"cebpf4jnsgd1na2vs0mg"},{"bike_id":"c98a5101-6e72-41cb-9d2e-9a7c6a02b2db","system_id":"levelo_inurba_marseille","lat":43.309589,"lon":5.390258,"is_reserved":false,"is_disabled":false,"rental_uris":{"android":"levelo://app?vid=c98a5101-6e72-41cb-9d2e-9a7c6a02b2db","ios":"levelo://app?vid=c98a5101-6e72-41cb-9d2e-9a7c6a02b2db"},"vehicle_type_id":"4","last_reported":1721941691,"current_range_meters":5200,"station_id":"ce4bgup2rcd13ifvqco0","pricing_plan_id":"cebpf4jnsgd1na2vs0mg"},{"bike_id":"9f72fe38-c070-49e1-bf8c-9bd3e3bb25d7","system_id":"levelo_inurba_marseille","lat":43.30064,"lon":5.38397,"is_reserved":false,"is_disabled":false,"rental_uris":{"android":"levelo://app?vid=9f72fe38-c070-49e1-bf8c-9bd3e3bb25d7","ios":"levelo://app?vid=9f72fe38-c070-49e1-bf8c-9bd3e3bb25d7"},"vehicle_type_id":"4","last_reported":1721941691,"current_range_meters":7600,"station_id":"","pricing_plan_id":"cebpf4jnsgd1na2vs0mg"},{"bike_id":"9f3c496a-2bb8-4a3b-9916-aeaa7ad39f28","system_id":"levelo_inurba_marseille","lat":43.309589,"lon":5.390258,"is_reserved":false,"is_disabled":false,"rental_uris":{"android":"levelo://app?vid=9f3c496a-2bb8-4a3b-9916-aeaa7ad39f28","ios":"levelo://app?vid=9f3c496a-2bb8-4a3b-9916-aeaa7ad39f28"},"vehicle_type_id":"4","last_reported":1721941691,"current_range_meters":13600,"station_id":"ce4bgup2rcd13ifvqco0","pricing_plan_id":"cebpf4jnsgd1na2vs0mg"},{"bike_id":"574c7af5-f70a-41d8-a69d-405bd61c7a6d","system_id":"levelo_inurba_marseille","lat":43.309589,"lon":5.390258,"is_reserved":false,"is_disabled":false,"rental_uris":{"android":"levelo://app?vid=574c7af5-f70a-41d8-a69d-405bd61c7a6d","ios":"levelo://app?vid=574c7af5-f70a-41d8-a69d-405bd61c7a6d"},"vehicle_type_id":"4","last_reported":1721941691,"current_range_meters":18800,"station_id":"ce4bgup2rcd13ifvqco0","pricing_plan_id":"cebpf4jnsgd1na2vs0mg"},{"bike_id":"a4423f74-ee9a-4886-9e5e-a1ce6d1249a3","system_id":"levelo_inurba_marseille","lat":43.309589,"lon":5.390258,"is_reserved":false,"is_disabled":false,"rental_uris":{"android":"levelo://app?vid=a4423f74-ee9a-4886-9e5e-a1ce6d1249a3","ios":"levelo://app?vid=a4423f74-ee9a-4886-9e5e-a1ce6d1249a3"},"vehicle_type_id":"4","last_reported":1721941691,"current_range_meters":400,"station_id":"ce4bgup2rcd13ifvqco0","pricing_plan_id":"cebpf4jnsgd1na2vs0mg"},{"bike_id":"2f208530-73f3-427e-bf0a-0959510c8b9d","system_id":"levelo_inurba_marseille","lat":43.309589,"lon":5.390258,"is_reserved":false,"is_disabled":false,"rental_uris":{"android":"levelo://app?vid=2f208530-73f3-427e-bf0a-0959510c8b9d","ios":"levelo://app?vid=2f208530-73f3-427e-bf0a-0959510c8b9d"},"vehicle_type_id":"4","last_reported":1721941691,"current_range_meters":0,"station_id":"ce4bgup2rcd13ifvqco0","pricing_plan_id":"cebpf4jnsgd1na2vs0mg"},{"bike_id":"12889fd9-63a5-4032-a711-cb6f7141286a","system_id":"levelo_inurba_marseille","lat":43.309589,"lon":5.390258,"is_reserved":false,"is_disabled":false,"rental_uris":{"android":"levelo://app?vid=12889fd9-63a5-4032-a711-cb6f7141286a","ios":"levelo://app?vid=12889fd9-63a5-4032-a711-cb6f7141286a"},"vehicle_type_id":"4","last_reported":1721941691,"current_range_meters":21200,"station_id":"ce4bgup2rcd13ifvqco0","pricing_plan_id":"cebpf4jnsgd1na2vs0mg"},{"bike_id":"cd82fd7e-b946-486c-886a-102b4561f4af","system_id":"levelo_inurba_marseille","lat":43.309589,"lon":5.390258,"is_reserved":false,"is_disabled":false,"rental_uris":{"android":"levelo://app?vid=cd82fd7e-b946-486c-886a-102b4561f4af","ios":"levelo://app?vid=cd82fd7e-b946-486c-886a-102b4561f4af"},"vehicle_type_id":"4","last_reported":1721941691,"current_range_meters":0,"station_id":"ce4bgup2rcd13ifvqco0","pricing_plan_id":"cebpf4jnsgd1na2vs0mg"},{"bike_id":"90519bc8-1a7d-40bd-99d3-e02e0a21f5de","system_id":"levelo_inurba_marseille","lat":43.317557,"lon":5.390173,"is_reserved":false,"is_disabled":false,"rental_uris":{"android":"levelo://app?vid=90519bc8-1a7d-40bd-99d3-e02e0a21f5de","ios":"levelo://app?vid=90519bc8-1a7d-40bd-99d3-e02e0a21f5de"},"vehicle_type_id":"4","last_reported":1721941691,"current_range_meters":31200,"station_id":"ce4bhqp2rcd13ifvqhng","pricing_plan_id":"cebpf4jnsgd1na2vs0mg"},{"bike_id":"a562fadc-f995-4525-9853-81d5de3410c1","system_id":"levelo_inurba_marseille","lat":43.317557,"lon":5.390173,"is_reserved":false,"is_disabled":false,"rental_uris":{"android":"levelo://app?vid=a562fadc-f995-4525-9853-81d5de3410c1","ios":"levelo://app?vid=a562fadc-f995-4525-9853-81d5de3410c1"},"vehicle_type_id":"4","last_reported":1721941691,"current_range_meters":16400,"station_id":"ce4bhqp2rcd13ifvqhng","pricing_plan_id":"cebpf4jnsgd1na2vs0mg"},{"bike_id":"30c808df-47fc-4cf8-aec8-a8edc6f6eb01","system_id":"levelo_inurba_marseille","lat":43.317557,"lon":5.390173,"is_reserved":false,"is_disabled":false,"rental_uris":{"android":"levelo://app?vid=30c808df-47fc-4cf8-aec8-a8edc6f6eb01","ios":"levelo://app?vid=30c808df-47fc-4cf8-aec8-a8edc6f6eb01"},"vehicle_type_id":"4","last_reported":1721941691,"current_range_meters":16000,"station_id":"ce4bhqp2rcd13ifvqhng","pricing_plan_id":"cebpf4jnsgd1na2vs0mg"},{"bike_id":"79248592-d9de-4241-bf5e-37b5cd5cb962","system_id":"levelo_inurba_marseille","lat":43.317557,"lon":5.390173,"is_reserved":false,"is_disabled":false,"rental_uris":{"android":"levelo://app?vid=79248592-d9de-4241-bf5e-37b5cd5cb962","ios":"levelo://app?vid=79248592-d9de-4241-bf5e-37b5cd5cb962"},"vehicle_type_id":"4","last_reported":1721941691,"current_range_meters":26800,"station_id":"ce4bhqp2rcd13ifvqhng","pricing_plan_id":"cebpf4jnsgd1na2vs0mg"},{"bike_id":"975f73a4-5bac-48e4-aa0a-20cfe7c60723","system_id":"levelo_inurba_marseille","lat":43.29515,"lon":5.36397,"is_reserved":false,"is_disabled":false,"rental_uris":{"android":"levelo://app?vid=975f73a4-5bac-48e4-aa0a-20cfe7c60723","ios":"levelo://app?vid=975f73a4-5bac-48e4-aa0a-20cfe7c60723"},"vehicle_type_id":"4","last_reported":1721941691,"current_range_meters":24400,"station_id":"","pricing_plan_id":"cebpf4jnsgd1na2vs0mg"},{"bike_id":"88601343-ed5a-4a3d-9860-e1bdb54e4353","system_id":"levelo_inurba_marseille","lat":43.298037,"lon":5.381066,"is_reserved":false,"is_disabled":false,"rental_uris":{"android":"levelo://app?vid=88601343-ed5a-4a3d-9860-e1bdb54e4353","ios":"levelo://app?vid=88601343-ed5a-4a3d-9860-e1bdb54e4353"},"vehicle_type_id":"4","last_reported":1721941691,"current_range_meters":6400,"station_id":"ce4bgip2rcd13ifvqbb0","pricing_plan_id":"cebpf4jnsgd1na2vs0mg"},{"bike_id":"2d8ce04c-1ad2-441c-afb4-3e727011bf40","system_id":"levelo_inurba_marseille","lat":43.29795,"lon":5.38094,"is_reserved":false,"is_disabled":false,"rental_uris":{"android":"levelo://app?vid=2d8ce04c-1ad2-441c-afb4-3e727011bf40","ios":"levelo://app?vid=2d8ce04c-1ad2-441c-afb4-3e727011bf40"},"vehicle_type_id":"4","last_reported":1721941691,"current_range_meters":0,"station_id":"ce4bgip2rcd13ifvqbb0","pricing_plan_id":"cebpf4jnsgd1na2vs0mg"},{"bike_id":"026c0185-97a0-4783-96cd-e6727b559744","system_id":"levelo_inurba_marseille","lat":43.298037,"lon":5.381066,"is_reserved":false,"is_disabled":false,"rental_uris":{"android":"levelo://app?vid=026c0185-97a0-4783-96cd-e6727b559744","ios":"levelo://app?vid=026c0185-97a0-4783-96cd-e6727b559744"},"vehicle_type_id":"4","last_reported":1721941691,"current_range_meters":5600,"station_id":"ce4bgip2rcd13ifvqbb0","pricing_plan_id":"cebpf4jnsgd1na2vs0mg"},{"bike_id":"93c405bb-f3b5-4841-a570-a36cb7fc1ea8","system_id":"levelo_inurba_marseille","lat":43.30433,"lon":5.38888,"is_reserved":false,"is_disabled":false,"rental_uris":{"android":"levelo://app?vid=93c405bb-f3b5-4841-a570-a36cb7fc1ea8","ios":"levelo://app?vid=93c405bb-f3b5-4841-a570-a36cb7fc1ea8"},"vehicle_type_id":"4","last_reported":1721941691,"current_range_meters":12000,"station_id":"ce4bgk12rcd13ifvqbi0","pricing_plan_id":"cebpf4jnsgd1na2vs0mg"},{"bike_id":"9ff89b9b-4b2b-4b4e-b621-299c5be6573e","system_id":"levelo_inurba_marseille","lat":43.304278,"lon":5.388868,"is_reserved":false,"is_disabled":false,"rental_uris":{"android":"levelo://app?vid=9ff89b9b-4b2b-4b4e-b621-299c5be6573e","ios":"levelo://app?vid=9ff89b9b-4b2b-4b4e-b621-299c5be6573e"},"vehicle_type_id":"4","last_reported":1721941691,"current_range_meters":30000,"station_id":"ce4bgk12rcd13ifvqbi0","pricing_plan_id":"cebpf4jnsgd1na2vs0mg"},{"bike_id":"ca33ca96-41c3-4eea-bcb9-f170657f2ce8","system_id":"levelo_inurba_marseille","lat":43.29671,"lon":5.3784,"is_reserved":false,"is_disabled":false,"rental_uris":{"android":"levelo://app?vid=ca33ca96-41c3-4eea-bcb9-f170657f2ce8","ios":"levelo://app?vid=ca33ca96-41c3-4eea-bcb9-f170657f2ce8"},"vehicle_type_id":"4","last_reported":1721941691,"current_range_meters":29600,"station_id":"","pricing_plan_id":"cebpf4jnsgd1na2vs0mg"},{"bike_id":"4a2de373-5327-4da3-9d77-a417cc196215","system_id":"levelo_inurba_marseille","lat":43.304274,"lon":5.388873,"is_reserved":false,"is_disabled":false,"rental_uris":{"android":"levelo://app?vid=4a2de373-5327-4da3-9d77-a417cc196215","ios":"levelo://app?vid=4a2de373-5327-4da3-9d77-a417cc196215"},"vehicle_type_id":"4","last_reported":1721941691,"current_range_meters":9200,"station_id":"ce4bgk12rcd13ifvqbi0","pricing_plan_id":"cebpf4jnsgd1na2vs0mg"},{"bike_id":"b782eea2-e17e-4911-aea8-ca0686bfc9d5","system_id":"levelo_inurba_marseille","lat":43.304274,"lon":5.388873,"is_reserved":false,"is_disabled":false,"rental_uris":{"android":"levelo://app?vid=b782eea2-e17e-4911-aea8-ca0686bfc9d5","ios":"levelo://app?vid=b782eea2-e17e-4911-aea8-ca0686bfc9d5"},"vehicle_type_id":"4","last_reported":1721941691,"current_range_meters":16800,"station_id":"ce4bgk12rcd13ifvqbi0","pricing_plan_id":"cebpf4jnsgd1na2vs0mg"},{"bike_id":"420320e8-f070-4cf9-9f1b-2483e5ffbfdd","system_id":"levelo_inurba_marseille","lat":43.304274,"lon":5.388873,"is_reserved":false,"is_disabled":false,"rental_uris":{"android":"levelo://app?vid=420320e8-f070-4cf9-9f1b-2483e5ffbfdd","ios":"levelo://app?vid=420320e8-f070-4cf9-9f1b-2483e5ffbfdd"},"vehicle_type_id":"4","last_reported":1721941691,"current_range_meters":30800,"station_id":"ce4bgk12rcd13ifvqbi0","pricing_plan_id":"cebpf4jnsgd1na2vs0mg"},{"bike_id":"ab73ad04-6cf6-48f5-9af5-1f03a0d9422e","system_id":"levelo_inurba_marseille","lat":43.304274,"lon":5.388873,"is_reserved":false,"is_disabled":false,"rental_uris":{"android":"levelo://app?vid=ab73ad04-6cf6-48f5-9af5-1f03a0d9422e","ios":"levelo://app?vid=ab73ad04-6cf6-48f5-9af5-1f03a0d9422e"},"vehicle_type_id":"4","last_reported":1721941691,"current_range_meters":8000,"station_id":"ce4bgk12rcd13ifvqbi0","pricing_plan_id":"cebpf4jnsgd1na2vs0mg"},{"bike_id":"65e667a7-af73-47ab-8bf7-c833f97da469","system_id":"levelo_inurba_marseille","lat":43.304274,"lon":5.388873,"is_reserved":false,"is_disabled":false,"rental_uris":{"android":"levelo://app?vid=65e667a7-af73-47ab-8bf7-c833f97da469","ios":"levelo://app?vid=65e667a7-af73-47ab-8bf7-c833f97da469"},"vehicle_type_id":"4","last_reported":1721941691,"current_range_meters":26000,"station_id":"ce4bgk12rcd13ifvqbi0","pricing_plan_id":"cebpf4jnsgd1na2vs0mg"},{"bike_id":"ab8f529c-9deb-4eef-a453-3285e31b7c73","system_id":"levelo_inurba_marseille","lat":43.296277,"lon":5.377108,"is_reserved":false,"is_disabled":false,"rental_uris":{"android":"levelo://app?vid=ab8f529c-9deb-4eef-a453-3285e31b7c73","ios":"levelo://app?vid=ab8f529c-9deb-4eef-a453-3285e31b7c73"},"vehicle_type_id":"4","last_reported":1721941691,"current_range_meters":24000,"station_id":"ce4bgi92rcd13ifvqb90","pricing_plan_id":"cebpf4jnsgd1na2vs0mg"},{"bike_id":"b296616d-e195-446b-8137-9df45b343fa2","system_id":"levelo_inurba_marseille","lat":43.29786,"lon":5.38114,"is_reserved":false,"is_disabled":false,"rental_uris":{"android":"levelo://app?vid=b296616d-e195-446b-8137-9df45b343fa2","ios":"levelo://app?vid=b296616d-e195-446b-8137-9df45b343fa2"},"vehicle_type_id":"4","last_reported":1721941691,"current_range_meters":2400,"station_id":"ce4bgip2rcd13ifvqbb0","pricing_plan_id":"cebpf4jnsgd1na2vs0mg"},{"bike_id":"b0039ace-8722-4e45-a840-4a54f9e07732","system_id":"levelo_inurba_marseille","lat":43.29543,"lon":5.37454,"is_reserved":false,"is_disabled":false,"rental_uris":{"android":"levelo://app?vid=b0039ace-8722-4e45-a840-4a54f9e07732","ios":"levelo://app?vid=b0039ace-8722-4e45-a840-4a54f9e07732"},"vehicle_type_id":"4","last_reported":1721941691,"current_range_meters":30400,"station_id":"ce4bgkp2rcd13ifvqbmg","pricing_plan_id":"cebpf4jnsgd1na2vs0mg"},{"bike_id":"0e347db8-d23b-4e92-83ea-7050f81ea2bd","system_id":"levelo_inurba_marseille","lat":43.298037,"lon":5.381066,"is_reserved":false,"is_disabled":false,"rental_uris":{"android":"levelo://app?vid=0e347db8-d23b-4e92-83ea-7050f81ea2bd","ios":"levelo://app?vid=0e347db8-d23b-4e92-83ea-7050f81ea2bd"},"vehicle_type_id":"4","last_reported":1721941691,"current_range_meters":3600,"station_id":"ce4bgip2rcd13ifvqbb0","pricing_plan_id":"cebpf4jnsgd1na2vs0mg"},{"bike_id":"ed96fe54-3715-4212-a302-f86b86a8b2f8","system_id":"levelo_inurba_marseille","lat":43.2997,"lon":5.38489,"is_reserved":false,"is_disabled":false,"rental_uris":{"android":"levelo://app?vid=ed96fe54-3715-4212-a302-f86b86a8b2f8","ios":"levelo://app?vid=ed96fe54-3715-4212-a302-f86b86a8b2f8"},"vehicle_type_id":"4","last_reported":1721941691,"current_range_meters":27200,"station_id":"ce4bgj92rcd13ifvqbd0","pricing_plan_id":"cebpf4jnsgd1na2vs0mg"},{"bike_id":"9ba3bda0-9f91-431b-80e0-cdaeb867f4dc","system_id":"levelo_inurba_marseille","lat":43.29975,"lon":5.385,"is_reserved":false,"is_disabled":false,"rental_uris":{"android":"levelo://app?vid=9ba3bda0-9f91-431b-80e0-cdaeb867f4dc","ios":"levelo://app?vid=9ba3bda0-9f91-431b-80e0-cdaeb867f4dc"},"vehicle_type_id":"4","last_reported":1721941691,"current_range_meters":5200,"station_id":"ce4bgj92rcd13ifvqbd0","pricing_plan_id":"cebpf4jnsgd1na2vs0mg"},{"bike_id":"a8c73884-f4b8-475a-93f9-a5e85cc308f6","system_id":"levelo_inurba_marseille","lat":43.29968,"lon":5.38501,"is_reserved":false,"is_disabled":false,"rental_uris":{"android":"levelo://app?vid=a8c73884-f4b8-475a-93f9-a5e85cc308f6","ios":"levelo://app?vid=a8c73884-f4b8-475a-93f9-a5e85cc308f6"},"vehicle_type_id":"4","last_reported":1721941691,"current_range_meters":8000,"station_id":"ce4bgj92rcd13ifvqbd0","pricing_plan_id":"cebpf4jnsgd1na2vs0mg"},{"bike_id":"7184e54c-376e-4cbc-9216-380092f4c1b9","system_id":"levelo_inurba_marseille","lat":43.29969,"lon":5.38504,"is_reserved":false,"is_disabled":false,"rental_uris":{"android":"levelo://app?vid=7184e54c-376e-4cbc-9216-380092f4c1b9","ios":"levelo://app?vid=7184e54c-376e-4cbc-9216-380092f4c1b9"},"vehicle_type_id":"4","last_reported":1721941691,"current_range_meters":27600,"station_id":"ce4bgj92rcd13ifvqbd0","pricing_plan_id":"cebpf4jnsgd1na2vs0mg"},{"bike_id":"6dd17991-2360-476e-9cc4-394838b49cfc","system_id":"levelo_inurba_marseille","lat":43.296622,"lon":5.379564,"is_reserved":false,"is_disabled":false,"rental_uris":{"android":"levelo://app?vid=6dd17991-2360-476e-9cc4-394838b49cfc","ios":"levelo://app?vid=6dd17991-2360-476e-9cc4-394838b49cfc"},"vehicle_type_id":"4","last_reported":1721941691,"current_range_meters":800,"station_id":"","pricing_plan_id":"cebpf4jnsgd1na2vs0mg"},{"bike_id":"2085fb74-da63-4a8c-8f89-b97a1ed3ba60","system_id":"levelo_inurba_marseille","lat":43.29963,"lon":5.38498,"is_reserved":false,"is_disabled":false,"rental_uris":{"android":"levelo://app?vid=2085fb74-da63-4a8c-8f89-b97a1ed3ba60","ios":"levelo://app?vid=2085fb74-da63-4a8c-8f89-b97a1ed3ba60"},"vehicle_type_id":"4","last_reported":1721941691,"current_range_meters":28000,"station_id":"ce4bgj92rcd13ifvqbd0","pricing_plan_id":"cebpf4jnsgd1na2vs0mg"},{"bike_id":"a6830f49-36f8-41f6-b928-60e0b6f32b0e","system_id":"levelo_inurba_marseille","lat":43.29964,"lon":5.38501,"is_reserved":false,"is_disabled":false,"rental_uris":{"android":"levelo://app?vid=a6830f49-36f8-41f6-b928-60e0b6f32b0e","ios":"levelo://app?vid=a6830f49-36f8-41f6-b928-60e0b6f32b0e"},"vehicle_type_id":"4","last_reported":1721941691,"current_range_meters":23600,"station_id":"ce4bgj92rcd13ifvqbd0","pricing_plan_id":"cebpf4jnsgd1na2vs0mg"},{"bike_id":"731a8d85-e464-4549-8b48-02be6f4953ee","system_id":"levelo_inurba_marseille","lat":43.301396,"lon":5.387812,"is_reserved":false,"is_disabled":false,"rental_uris":{"android":"levelo://app?vid=731a8d85-e464-4549-8b48-02be6f4953ee","ios":"levelo://app?vid=731a8d85-e464-4549-8b48-02be6f4953ee"},"vehicle_type_id":"4","last_reported":1721941691,"current_range_meters":28000,"station_id":"ce4bghh2rcd13ifvqb60","pricing_plan_id":"cebpf4jnsgd1na2vs0mg"},{"bike_id":"f0fb6f09-eb92-47fc-b661-2f6c427e82e9","system_id":"levelo_inurba_marseille","lat":43.32367,"lon":5.388836,"is_reserved":false,"is_disabled":false,"rental_uris":{"android":"levelo://app?vid=f0fb6f09-eb92-47fc-b661-2f6c427e82e9","ios":"levelo://app?vid=f0fb6f09-eb92-47fc-b661-2f6c427e82e9"},"vehicle_type_id":"4","last_reported":1721941691,"current_range_meters":21200,"station_id":"ce4bhqp2rcd13ifvqhog","pricing_plan_id":"cebpf4jnsgd1na2vs0mg"},{"bike_id":"eb16e139-9e93-45f4-a7a6-1f1bea722756","system_id":"levelo_inurba_marseille","lat":43.32367,"lon":5.388836,"is_reserved":false,"is_disabled":false,"rental_uris":{"android":"levelo://app?vid=eb16e139-9e93-45f4-a7a6-1f1bea722756","ios":"levelo://app?vid=eb16e139-9e93-45f4-a7a6-1f1bea722756"},"vehicle_type_id":"4","last_reported":1721941691,"current_range_meters":30400,"station_id":"ce4bhqp2rcd13ifvqhog","pricing_plan_id":"cebpf4jnsgd1na2vs0mg"},{"bike_id":"41c8a164-4a6f-4dd6-9b59-a07169df2954","system_id":"levelo_inurba_marseille","lat":43.32367,"lon":5.388836,"is_reserved":false,"is_disabled":false,"rental_uris":{"android":"levelo://app?vid=41c8a164-4a6f-4dd6-9b59-a07169df2954","ios":"levelo://app?vid=41c8a164-4a6f-4dd6-9b59-a07169df2954"},"vehicle_type_id":"4","last_reported":1721941691,"current_range_meters":30800,"station_id":"ce4bhqp2rcd13ifvqhog","pricing_plan_id":"cebpf4jnsgd1na2vs0mg"},{"bike_id":"ec1d77ea-4b6f-4868-98b7-022ab2107e0f","system_id":"levelo_inurba_marseille","lat":43.32367,"lon":5.388836,"is_reserved":false,"is_disabled":false,"rental_uris":{"android":"levelo://app?vid=ec1d77ea-4b6f-4868-98b7-022ab2107e0f","ios":"levelo://app?vid=ec1d77ea-4b6f-4868-98b7-022ab2107e0f"},"vehicle_type_id":"4","last_reported":1721941691,"current_range_meters":19200,"station_id":"ce4bhqp2rcd13ifvqhog","pricing_plan_id":"cebpf4jnsgd1na2vs0mg"},{"bike_id":"dfa595c9-2300-44ee-94b3-8fb3be7560de","system_id":"levelo_inurba_marseille","lat":43.314811,"lon":5.373103,"is_reserved":false,"is_disabled":false,"rental_uris":{"android":"levelo://app?vid=dfa595c9-2300-44ee-94b3-8fb3be7560de","ios":"levelo://app?vid=dfa595c9-2300-44ee-94b3-8fb3be7560de"},"vehicle_type_id":"4","last_reported":1721941691,"current_range_meters":10000,"station_id":"ce4bgt12rcd13ifvqcd0","pricing_plan_id":"cebpf4jnsgd1na2vs0mg"},{"bike_id":"f3d689ce-6fcc-4fa4-beb2-f3c36a0bbebc","system_id":"levelo_inurba_marseille","lat":43.32367,"lon":5.388836,"is_reserved":false,"is_disabled":false,"rental_uris":{"android":"levelo://app?vid=f3d689ce-6fcc-4fa4-beb2-f3c36a0bbebc","ios":"levelo://app?vid=f3d689ce-6fcc-4fa4-beb2-f3c36a0bbebc"},"vehicle_type_id":"4","last_reported":1721941691,"current_range_meters":7200,"station_id":"ce4bhqp2rcd13ifvqhog","pricing_plan_id":"cebpf4jnsgd1na2vs0mg"},{"bike_id":"e7fa3156-09f2-41b5-b8f6-cc641eb2cccf","system_id":"levelo_inurba_marseille","lat":43.32367,"lon":5.388836,"is_reserved":false,"is_disabled":false,"rental_uris":{"android":"levelo://app?vid=e7fa3156-09f2-41b5-b8f6-cc641eb2cccf","ios":"levelo://app?vid=e7fa3156-09f2-41b5-b8f6-cc641eb2cccf"},"vehicle_type_id":"4","last_reported":1721941691,"current_range_meters":14000,"station_id":"ce4bhqp2rcd13ifvqhog","pricing_plan_id":"cebpf4jnsgd1na2vs0mg"},{"bike_id":"81d6e670-9d86-48d9-9a44-5d71f70165bb","system_id":"levelo_inurba_marseille","lat":43.32367,"lon":5.38886,"is_reserved":false,"is_disabled":false,"rental_uris":{"android":"levelo://app?vid=81d6e670-9d86-48d9-9a44-5d71f70165bb","ios":"levelo://app?vid=81d6e670-9d86-48d9-9a44-5d71f70165bb"},"vehicle_type_id":"4","last_reported":1721941691,"current_range_meters":25600,"station_id":"ce4bhqp2rcd13ifvqhog","pricing_plan_id":"cebpf4jnsgd1na2vs0mg"},{"bike_id":"b3fe764d-c9cb-42bf-a5b3-f9dba21ee105","system_id":"levelo_inurba_marseille","lat":43.323663,"lon":5.38887,"is_reserved":false,"is_disabled":false,"rental_uris":{"android":"levelo://app?vid=b3fe764d-c9cb-42bf-a5b3-f9dba21ee105","ios":"levelo://app?vid=b3fe764d-c9cb-42bf-a5b3-f9dba21ee105"},"vehicle_type_id":"4","last_reported":1721941691,"current_range_meters":17200,"station_id":"ce4bhqp2rcd13ifvqhog","pricing_plan_id":"cebpf4jnsgd1na2vs0mg"},{"bike_id":"063fb289-082a-48dc-a52a-a0f9ca7fd0a6","system_id":"levelo_inurba_marseille","lat":43.29602,"lon":5.381084,"is_reserved":false,"is_disabled":false,"rental_uris":{"android":"levelo://app?vid=063fb289-082a-48dc-a52a-a0f9ca7fd0a6","ios":"levelo://app?vid=063fb289-082a-48dc-a52a-a0f9ca7fd0a6"},"vehicle_type_id":"4","last_reported":1721941691,"current_range_meters":11600,"station_id":"ce4bgl12rcd13ifvqbo0","pricing_plan_id":"cebpf4jnsgd1na2vs0mg"},{"bike_id":"94807bb3-ad27-49dd-8bf9-5b1f68e48f64","system_id":"levelo_inurba_marseille","lat":43.29601,"lon":5.381084,"is_reserved":false,"is_disabled":false,"rental_uris":{"android":"levelo://app?vid=94807bb3-ad27-49dd-8bf9-5b1f68e48f64","ios":"levelo://app?vid=94807bb3-ad27-49dd-8bf9-5b1f68e48f64"},"vehicle_type_id":"4","last_reported":1721941691,"current_range_meters":22800,"station_id":"ce4bgl12rcd13ifvqbo0","pricing_plan_id":"cebpf4jnsgd1na2vs0mg"},{"bike_id":"6a8176e9-646a-44d1-a399-6934edecb212","system_id":"levelo_inurba_marseille","lat":43.29276,"lon":5.36838,"is_reserved":false,"is_disabled":false,"rental_uris":{"android":"levelo://app?vid=6a8176e9-646a-44d1-a399-6934edecb212","ios":"levelo://app?vid=6a8176e9-646a-44d1-a399-6934edecb212"},"vehicle_type_id":"4","last_reported":1721941691,"current_range_meters":0,"station_id":"ce4bhbp2rcd13ifvqesg","pricing_plan_id":"cebpf4jnsgd1na2vs0mg"},{"bike_id":"bc69a051-efc3-4149-8682-a06e2c851727","system_id":"levelo_inurba_marseille","lat":43.299243,"lon":5.374807,"is_reserved":false,"is_disabled":false,"rental_uris":{"android":"levelo://app?vid=bc69a051-efc3-4149-8682-a06e2c851727","ios":"levelo://app?vid=bc69a051-efc3-4149-8682-a06e2c851727"},"vehicle_type_id":"4","last_reported":1721941691,"current_range_meters":26400,"station_id":"ce4bgjh2rcd13ifvqbg0","pricing_plan_id":"cebpf4jnsgd1na2vs0mg"},{"bike_id":"211b605c-c39f-41ae-90df-2fac4e9fcff3","system_id":"levelo_inurba_marseille","lat":43.305994,"lon":5.393687,"is_reserved":false,"is_disabled":false,"rental_uris":{"android":"levelo://app?vid=211b605c-c39f-41ae-90df-2fac4e9fcff3","ios":"levelo://app?vid=211b605c-c39f-41ae-90df-2fac4e9fcff3"},"vehicle_type_id":"4","last_reported":1721941691,"current_range_meters":7600,"station_id":"ce4bh0p2rcd13ifvqd80","pricing_plan_id":"cebpf4jnsgd1na2vs0mg"},{"bike_id":"aff68bc2-1af5-4671-9609-7ed7041fd728","system_id":"levelo_inurba_marseille","lat":43.29245,"lon":5.37146,"is_reserved":false,"is_disabled":false,"rental_uris":{"android":"levelo://app?vid=aff68bc2-1af5-4671-9609-7ed7041fd728","ios":"levelo://app?vid=aff68bc2-1af5-4671-9609-7ed7041fd728"},"vehicle_type_id":"4","last_reported":1721941691,"current_range_meters":8000,"station_id":"","pricing_plan_id":"cebpf4jnsgd1na2vs0mg"},{"bike_id":"6f6dd3f7-183d-4afa-ab51-61745c7b55f9","system_id":"levelo_inurba_marseille","lat":43.305994,"lon":5.393687,"is_reserved":false,"is_disabled":false,"rental_uris":{"android":"levelo://app?vid=6f6dd3f7-183d-4afa-ab51-61745c7b55f9","ios":"levelo://app?vid=6f6dd3f7-183d-4afa-ab51-61745c7b55f9"},"vehicle_type_id":"4","last_reported":1721941691,"current_range_meters":400,"station_id":"ce4bh0p2rcd13ifvqd80","pricing_plan_id":"cebpf4jnsgd1na2vs0mg"},{"bike_id":"03a9e163-246f-4751-802a-936811552d9b","system_id":"levelo_inurba_marseille","lat":43.303002,"lon":5.392142,"is_reserved":false,"is_disabled":false,"rental_uris":{"android":"levelo://app?vid=03a9e163-246f-4751-802a-936811552d9b","ios":"levelo://app?vid=03a9e163-246f-4751-802a-936811552d9b"},"vehicle_type_id":"4","last_reported":1721941691,"current_range_meters":16400,"station_id":"ce4bgkh2rcd13ifvqbk0","pricing_plan_id":"cebpf4jnsgd1na2vs0mg"},{"bike_id":"2976ae69-881b-43cc-a50c-c4e0fcbfb438","system_id":"levelo_inurba_marseille","lat":43.302992,"lon":5.392136,"is_reserved":false,"is_disabled":false,"rental_uris":{"android":"levelo://app?vid=2976ae69-881b-43cc-a50c-c4e0fcbfb438","ios":"levelo://app?vid=2976ae69-881b-43cc-a50c-c4e0fcbfb438"},"vehicle_type_id":"4","last_reported":1721941691,"current_range_meters":8800,"station_id":"ce4bgkh2rcd13ifvqbk0","pricing_plan_id":"cebpf4jnsgd1na2vs0mg"},{"bike_id":"302e72b3-c998-4ef3-bcbe-72baaf37f1a6","system_id":"levelo_inurba_marseille","lat":43.302992,"lon":5.392136,"is_reserved":false,"is_disabled":false,"rental_uris":{"android":"levelo://app?vid=302e72b3-c998-4ef3-bcbe-72baaf37f1a6","ios":"levelo://app?vid=302e72b3-c998-4ef3-bcbe-72baaf37f1a6"},"vehicle_type_id":"4","last_reported":1721941691,"current_range_meters":22800,"station_id":"ce4bgkh2rcd13ifvqbk0","pricing_plan_id":"cebpf4jnsgd1na2vs0mg"},{"bike_id":"16c463b8-d02b-4f36-9c4d-920caae874de","system_id":"levelo_inurba_marseille","lat":43.2936,"lon":5.37835,"is_reserved":false,"is_disabled":false,"rental_uris":{"android":"levelo://app?vid=16c463b8-d02b-4f36-9c4d-920caae874de","ios":"levelo://app?vid=16c463b8-d02b-4f36-9c4d-920caae874de"},"vehicle_type_id":"4","last_reported":1721941691,"current_range_meters":0,"station_id":"ce4bgjh2rcd13ifvqbf0","pricing_plan_id":"cebpf4jnsgd1na2vs0mg"},{"bike_id":"f3ebcdc3-8f16-4714-9f75-3c4e63ea68eb","system_id":"levelo_inurba_marseille","lat":43.292005,"lon":5.357875,"is_reserved":false,"is_disabled":false,"rental_uris":{"android":"levelo://app?vid=f3ebcdc3-8f16-4714-9f75-3c4e63ea68eb","ios":"levelo://app?vid=f3ebcdc3-8f16-4714-9f75-3c4e63ea68eb"},"vehicle_type_id":"4","last_reported":1721941691,"current_range_meters":10000,"station_id":"ce4bhb12rcd13ifvqel0","pricing_plan_id":"cebpf4jnsgd1na2vs0mg"},{"bike_id":"308b6063-c104-462c-aa80-926888d59ead","system_id":"levelo_inurba_marseille","lat":43.292233,"lon":5.3607,"is_reserved":false,"is_disabled":false,"rental_uris":{"android":"levelo://app?vid=308b6063-c104-462c-aa80-926888d59ead","ios":"levelo://app?vid=308b6063-c104-462c-aa80-926888d59ead"},"vehicle_type_id":"4","last_reported":1721941691,"current_range_meters":0,"station_id":"ce4bhbh2rcd13ifvqeqg","pricing_plan_id":"cebpf4jnsgd1na2vs0mg"},{"bike_id":"cc109b77-0289-4c9c-89e8-d9f3b36bbf7a","system_id":"levelo_inurba_marseille","lat":43.30085,"lon":5.390856,"is_reserved":false,"is_disabled":false,"rental_uris":{"android":"levelo://app?vid=cc109b77-0289-4c9c-89e8-d9f3b36bbf7a","ios":"levelo://app?vid=cc109b77-0289-4c9c-89e8-d9f3b36bbf7a"},"vehicle_type_id":"4","last_reported":1721941691,"current_range_meters":7600,"station_id":"ce4bh192rcd13ifvqdb0","pricing_plan_id":"cebpf4jnsgd1na2vs0mg"},{"bike_id":"8058fd8a-744e-4fca-ab16-756b87ac3fc0","system_id":"levelo_inurba_marseille","lat":43.300852,"lon":5.390859,"is_reserved":false,"is_disabled":false,"rental_uris":{"android":"levelo://app?vid=8058fd8a-744e-4fca-ab16-756b87ac3fc0","ios":"levelo://app?vid=8058fd8a-744e-4fca-ab16-756b87ac3fc0"},"vehicle_type_id":"4","last_reported":1721941691,"current_range_meters":27600,"station_id":"ce4bh192rcd13ifvqdb0","pricing_plan_id":"cebpf4jnsgd1na2vs0mg"},{"bike_id":"ec2d46d9-d265-4a5a-8782-8b12aef13206","system_id":"levelo_inurba_marseille","lat":43.30085,"lon":5.390856,"is_reserved":false,"is_disabled":false,"rental_uris":{"android":"levelo://app?vid=ec2d46d9-d265-4a5a-8782-8b12aef13206","ios":"levelo://app?vid=ec2d46d9-d265-4a5a-8782-8b12aef13206"},"vehicle_type_id":"4","last_reported":1721941691,"current_range_meters":15600,"station_id":"ce4bh192rcd13ifvqdb0","pricing_plan_id":"cebpf4jnsgd1na2vs0mg"},{"bike_id":"1cfdd14a-6154-4392-ae30-8ba81a446e4e","system_id":"levelo_inurba_marseille","lat":43.292225,"lon":5.360595,"is_reserved":false,"is_disabled":false,"rental_uris":{"android":"levelo://app?vid=1cfdd14a-6154-4392-ae30-8ba81a446e4e","ios":"levelo://app?vid=1cfdd14a-6154-4392-ae30-8ba81a446e4e"},"vehicle_type_id":"4","last_reported":1721941691,"current_range_meters":0,"station_id":"ce4bhbh2rcd13ifvqeqg","pricing_plan_id":"cebpf4jnsgd1na2vs0mg"},{"bike_id":"d567ecd3-9f8b-4233-b4ce-1f204bb76673","system_id":"levelo_inurba_marseille","lat":43.298764,"lon":5.388973,"is_reserved":false,"is_disabled":false,"rental_uris":{"android":"levelo://app?vid=d567ecd3-9f8b-4233-b4ce-1f204bb76673","ios":"levelo://app?vid=d567ecd3-9f8b-4233-b4ce-1f204bb76673"},"vehicle_type_id":"4","last_reported":1721941691,"current_range_meters":27600,"station_id":"ce4bh392rcd13ifvqdl0","pricing_plan_id":"cebpf4jnsgd1na2vs0mg"},{"bike_id":"eeed0b9b-b317-4248-adb6-80c9bc990a78","system_id":"levelo_inurba_marseille","lat":43.298764,"lon":5.388973,"is_reserved":false,"is_disabled":false,"rental_uris":{"android":"levelo://app?vid=eeed0b9b-b317-4248-adb6-80c9bc990a78","ios":"levelo://app?vid=eeed0b9b-b317-4248-adb6-80c9bc990a78"},"vehicle_type_id":"4","last_reported":1721941691,"current_range_meters":21600,"station_id":"ce4bh392rcd13ifvqdl0","pricing_plan_id":"cebpf4jnsgd1na2vs0mg"},{"bike_id":"87004e5f-4839-4253-9563-21e3b15ede08","system_id":"levelo_inurba_marseille","lat":43.298764,"lon":5.388973,"is_reserved":false,"is_disabled":false,"rental_uris":{"android":"levelo://app?vid=87004e5f-4839-4253-9563-21e3b15ede08","ios":"levelo://app?vid=87004e5f-4839-4253-9563-21e3b15ede08"},"vehicle_type_id":"4","last_reported":1721941691,"current_range_meters":3600,"station_id":"ce4bh392rcd13ifvqdl0","pricing_plan_id":"cebpf4jnsgd1na2vs0mg"},{"bike_id":"7efd1283-e881-4565-9d3e-cc1618c0563f","system_id":"levelo_inurba_marseille","lat":43.29869,"lon":5.38907,"is_reserved":false,"is_disabled":false,"rental_uris":{"android":"levelo://app?vid=7efd1283-e881-4565-9d3e-cc1618c0563f","ios":"levelo://app?vid=7efd1283-e881-4565-9d3e-cc1618c0563f"},"vehicle_type_id":"4","last_reported":1721941691,"current_range_meters":30400,"station_id":"ce4bh392rcd13ifvqdl0","pricing_plan_id":"cebpf4jnsgd1na2vs0mg"},{"bike_id":"4c30d74a-d823-428a-bcb1-a051b4a6119b","system_id":"levelo_inurba_marseille","lat":43.29723,"lon":5.387307,"is_reserved":false,"is_disabled":false,"rental_uris":{"android":"levelo://app?vid=4c30d74a-d823-428a-bcb1-a051b4a6119b","ios":"levelo://app?vid=4c30d74a-d823-428a-bcb1-a051b4a6119b"},"vehicle_type_id":"4","last_reported":1721941691,"current_range_meters":0,"station_id":"","pricing_plan_id":"cebpf4jnsgd1na2vs0mg"},{"bike_id":"9da22fd7-b000-444a-b758-cb95ba237a63","system_id":"levelo_inurba_marseille","lat":43.313291,"lon":5.396838,"is_reserved":false,"is_disabled":false,"rental_uris":{"android":"levelo://app?vid=9da22fd7-b000-444a-b758-cb95ba237a63","ios":"levelo://app?vid=9da22fd7-b000-444a-b758-cb95ba237a63"},"vehicle_type_id":"4","last_reported":1721941691,"current_range_meters":16400,"station_id":"ce4bgvp2rcd13ifvqcu0","pricing_plan_id":"cebpf4jnsgd1na2vs0mg"},{"bike_id":"baba0ba9-a920-4331-a9a9-11449985bab6","system_id":"levelo_inurba_marseille","lat":43.308879,"lon":5.39635,"is_reserved":false,"is_disabled":false,"rental_uris":{"android":"levelo://app?vid=baba0ba9-a920-4331-a9a9-11449985bab6","ios":"levelo://app?vid=baba0ba9-a920-4331-a9a9-11449985bab6"},"vehicle_type_id":"4","last_reported":1721941691,"current_range_meters":3600,"station_id":"ce4bh012rcd13ifvqcv0","pricing_plan_id":"cebpf4jnsgd1na2vs0mg"},{"bike_id":"df69bc97-dafb-4acc-a418-f2f62b983950","system_id":"levelo_inurba_marseille","lat":43.29196,"lon":5.35803,"is_reserved":false,"is_disabled":false,"rental_uris":{"android":"levelo://app?vid=df69bc97-dafb-4acc-a418-f2f62b983950","ios":"levelo://app?vid=df69bc97-dafb-4acc-a418-f2f62b983950"},"vehicle_type_id":"4","last_reported":1721941691,"current_range_meters":0,"station_id":"ce4bhb12rcd13ifvqel0","pricing_plan_id":"cebpf4jnsgd1na2vs0mg"},{"bike_id":"9255652a-e46d-469e-8f01-62a3e6cd6d53","system_id":"levelo_inurba_marseille","lat":43.313291,"lon":5.396838,"is_reserved":false,"is_disabled":false,"rental_uris":{"android":"levelo://app?vid=9255652a-e46d-469e-8f01-62a3e6cd6d53","ios":"levelo://app?vid=9255652a-e46d-469e-8f01-62a3e6cd6d53"},"vehicle_type_id":"4","last_reported":1721941691,"current_range_meters":18400,"station_id":"ce4bgvp2rcd13ifvqcu0","pricing_plan_id":"cebpf4jnsgd1na2vs0mg"},{"bike_id":"ba32c2db-afdb-43bb-8fe1-5b636b4ec1fa","system_id":"levelo_inurba_marseille","lat":43.313291,"lon":5.396838,"is_reserved":false,"is_disabled":false,"rental_uris":{"android":"levelo://app?vid=ba32c2db-afdb-43bb-8fe1-5b636b4ec1fa","ios":"levelo://app?vid=ba32c2db-afdb-43bb-8fe1-5b636b4ec1fa"},"vehicle_type_id":"4","last_reported":1721941691,"current_range_meters":0,"station_id":"ce4bgvp2rcd13ifvqcu0","pricing_plan_id":"cebpf4jnsgd1na2vs0mg"},{"bike_id":"2ceca993-bd72-4c8b-aad8-02abb97f2a8e","system_id":"levelo_inurba_marseille","lat":43.313291,"lon":5.396838,"is_reserved":false,"is_disabled":false,"rental_uris":{"android":"levelo://app?vid=2ceca993-bd72-4c8b-aad8-02abb97f2a8e","ios":"levelo://app?vid=2ceca993-bd72-4c8b-aad8-02abb97f2a8e"},"vehicle_type_id":"4","last_reported":1721941691,"current_range_meters":2000,"station_id":"ce4bgvp2rcd13ifvqcu0","pricing_plan_id":"cebpf4jnsgd1na2vs0mg"},{"bike_id":"59da5bd8-8465-4a50-bc63-ff8e2f44455f","system_id":"levelo_inurba_marseille","lat":43.313291,"lon":5.396838,"is_reserved":false,"is_disabled":false,"rental_uris":{"android":"levelo://app?vid=59da5bd8-8465-4a50-bc63-ff8e2f44455f","ios":"levelo://app?vid=59da5bd8-8465-4a50-bc63-ff8e2f44455f"},"vehicle_type_id":"4","last_reported":1721941691,"current_range_meters":15200,"station_id":"ce4bgvp2rcd13ifvqcu0","pricing_plan_id":"cebpf4jnsgd1na2vs0mg"},{"bike_id":"39d025d5-3edb-43ce-a80c-1b954a9938c6","system_id":"levelo_inurba_marseille","lat":43.313291,"lon":5.396838,"is_reserved":false,"is_disabled":false,"rental_uris":{"android":"levelo://app?vid=39d025d5-3edb-43ce-a80c-1b954a9938c6","ios":"levelo://app?vid=39d025d5-3edb-43ce-a80c-1b954a9938c6"},"vehicle_type_id":"4","last_reported":1721941691,"current_range_meters":11600,"station_id":"ce4bgvp2rcd13ifvqcu0","pricing_plan_id":"cebpf4jnsgd1na2vs0mg"},{"bike_id":"5c10d4e6-1455-4980-b1f7-242a629fa8a2","system_id":"levelo_inurba_marseille","lat":43.313291,"lon":5.396838,"is_reserved":false,"is_disabled":false,"rental_uris":{"android":"levelo://app?vid=5c10d4e6-1455-4980-b1f7-242a629fa8a2","ios":"levelo://app?vid=5c10d4e6-1455-4980-b1f7-242a629fa8a2"},"vehicle_type_id":"4","last_reported":1721941691,"current_range_meters":2800,"station_id":"ce4bgvp2rcd13ifvqcu0","pricing_plan_id":"cebpf4jnsgd1na2vs0mg"},{"bike_id":"6ac968d9-918b-4f6a-8967-67be7a98834d","system_id":"levelo_inurba_marseille","lat":43.313291,"lon":5.396838,"is_reserved":false,"is_disabled":false,"rental_uris":{"android":"levelo://app?vid=6ac968d9-918b-4f6a-8967-67be7a98834d","ios":"levelo://app?vid=6ac968d9-918b-4f6a-8967-67be7a98834d"},"vehicle_type_id":"4","last_reported":1721941691,"current_range_meters":28000,"station_id":"ce4bgvp2rcd13ifvqcu0","pricing_plan_id":"cebpf4jnsgd1na2vs0mg"},{"bike_id":"e7027382-66c5-458c-807c-0f69aabc5443","system_id":"levelo_inurba_marseille","lat":43.313291,"lon":5.396838,"is_reserved":false,"is_disabled":false,"rental_uris":{"android":"levelo://app?vid=e7027382-66c5-458c-807c-0f69aabc5443","ios":"levelo://app?vid=e7027382-66c5-458c-807c-0f69aabc5443"},"vehicle_type_id":"4","last_reported":1721941691,"current_range_meters":3200,"station_id":"ce4bgvp2rcd13ifvqcu0","pricing_plan_id":"cebpf4jnsgd1na2vs0mg"},{"bike_id":"ba7467f7-e506-43ac-97e0-6762694c876a","system_id":"levelo_inurba_marseille","lat":43.313291,"lon":5.396838,"is_reserved":false,"is_disabled":false,"rental_uris":{"android":"levelo://app?vid=ba7467f7-e506-43ac-97e0-6762694c876a","ios":"levelo://app?vid=ba7467f7-e506-43ac-97e0-6762694c876a"},"vehicle_type_id":"4","last_reported":1721941691,"current_range_meters":800,"station_id":"ce4bgvp2rcd13ifvqcu0","pricing_plan_id":"cebpf4jnsgd1na2vs0mg"},{"bike_id":"a8e3b903-4658-4c72-9d47-c413e8432b87","system_id":"levelo_inurba_marseille","lat":43.309047,"lon":5.396551,"is_reserved":false,"is_disabled":false,"rental_uris":{"android":"levelo://app?vid=a8e3b903-4658-4c72-9d47-c413e8432b87","ios":"levelo://app?vid=a8e3b903-4658-4c72-9d47-c413e8432b87"},"vehicle_type_id":"4","last_reported":1721941691,"current_range_meters":27200,"station_id":"ce4bh012rcd13ifvqcv0","pricing_plan_id":"cebpf4jnsgd1na2vs0mg"},{"bike_id":"046ad1dd-719c-480e-917a-1c943d8765a9","system_id":"levelo_inurba_marseille","lat":43.309038,"lon":5.396546,"is_reserved":false,"is_disabled":false,"rental_uris":{"android":"levelo://app?vid=046ad1dd-719c-480e-917a-1c943d8765a9","ios":"levelo://app?vid=046ad1dd-719c-480e-917a-1c943d8765a9"},"vehicle_type_id":"4","last_reported":1721941691,"current_range_meters":11200,"station_id":"ce4bh012rcd13ifvqcv0","pricing_plan_id":"cebpf4jnsgd1na2vs0mg"},{"bike_id":"d9fc2c5c-af2b-4b00-81cf-7ae26f15c1c9","system_id":"levelo_inurba_marseille","lat":43.313291,"lon":5.396838,"is_reserved":false,"is_disabled":false,"rental_uris":{"android":"levelo://app?vid=d9fc2c5c-af2b-4b00-81cf-7ae26f15c1c9","ios":"levelo://app?vid=d9fc2c5c-af2b-4b00-81cf-7ae26f15c1c9"},"vehicle_type_id":"4","last_reported":1721941691,"current_range_meters":15600,"station_id":"ce4bgvp2rcd13ifvqcu0","pricing_plan_id":"cebpf4jnsgd1na2vs0mg"},{"bike_id":"0d0aa0e0-9b16-49ef-a549-d6c0a4864866","system_id":"levelo_inurba_marseille","lat":43.313291,"lon":5.396838,"is_reserved":false,"is_disabled":false,"rental_uris":{"android":"levelo://app?vid=0d0aa0e0-9b16-49ef-a549-d6c0a4864866","ios":"levelo://app?vid=0d0aa0e0-9b16-49ef-a549-d6c0a4864866"},"vehicle_type_id":"4","last_reported":1721941691,"current_range_meters":12000,"station_id":"ce4bgvp2rcd13ifvqcu0","pricing_plan_id":"cebpf4jnsgd1na2vs0mg"},{"bike_id":"28f0b5f8-e281-4c79-8409-de9491e1a0f1","system_id":"levelo_inurba_marseille","lat":43.309047,"lon":5.396551,"is_reserved":false,"is_disabled":false,"rental_uris":{"android":"levelo://app?vid=28f0b5f8-e281-4c79-8409-de9491e1a0f1","ios":"levelo://app?vid=28f0b5f8-e281-4c79-8409-de9491e1a0f1"},"vehicle_type_id":"4","last_reported":1721941691,"current_range_meters":22000,"station_id":"ce4bh012rcd13ifvqcv0","pricing_plan_id":"cebpf4jnsgd1na2vs0mg"},{"bike_id":"a15f1f76-3350-4091-a230-e003ce3a15c0","system_id":"levelo_inurba_marseille","lat":43.309038,"lon":5.396546,"is_reserved":false,"is_disabled":false,"rental_uris":{"android":"levelo://app?vid=a15f1f76-3350-4091-a230-e003ce3a15c0","ios":"levelo://app?vid=a15f1f76-3350-4091-a230-e003ce3a15c0"},"vehicle_type_id":"4","last_reported":1721941691,"current_range_meters":14800,"station_id":"ce4bh012rcd13ifvqcv0","pricing_plan_id":"cebpf4jnsgd1na2vs0mg"},{"bike_id":"76ac8210-92c0-42c5-b524-bd8249809476","system_id":"levelo_inurba_marseille","lat":43.29529,"lon":5.385581,"is_reserved":false,"is_disabled":false,"rental_uris":{"android":"levelo://app?vid=76ac8210-92c0-42c5-b524-bd8249809476","ios":"levelo://app?vid=76ac8210-92c0-42c5-b524-bd8249809476"},"vehicle_type_id":"4","last_reported":1721941691,"current_range_meters":31600,"station_id":"ce4bgih2rcd13ifvqba0","pricing_plan_id":"cebpf4jnsgd1na2vs0mg"},{"bike_id":"9e2321b5-a1dc-4a9b-af63-6c7a4e566d06","system_id":"levelo_inurba_marseille","lat":43.309038,"lon":5.396546,"is_reserved":false,"is_disabled":false,"rental_uris":{"android":"levelo://app?vid=9e2321b5-a1dc-4a9b-af63-6c7a4e566d06","ios":"levelo://app?vid=9e2321b5-a1dc-4a9b-af63-6c7a4e566d06"},"vehicle_type_id":"4","last_reported":1721941691,"current_range_meters":24400,"station_id":"ce4bh012rcd13ifvqcv0","pricing_plan_id":"cebpf4jnsgd1na2vs0mg"},{"bike_id":"9ff6c90c-bd81-4408-a1ff-34e0fc98e63b","system_id":"levelo_inurba_marseille","lat":43.309038,"lon":5.396546,"is_reserved":false,"is_disabled":false,"rental_uris":{"android":"levelo://app?vid=9ff6c90c-bd81-4408-a1ff-34e0fc98e63b","ios":"levelo://app?vid=9ff6c90c-bd81-4408-a1ff-34e0fc98e63b"},"vehicle_type_id":"4","last_reported":1721941691,"current_range_meters":22000,"station_id":"ce4bh012rcd13ifvqcv0","pricing_plan_id":"cebpf4jnsgd1na2vs0mg"},{"bike_id":"b73d77e8-13e1-4a52-8d7d-64dc550bdfbc","system_id":"levelo_inurba_marseille","lat":43.309047,"lon":5.396551,"is_reserved":false,"is_disabled":false,"rental_uris":{"android":"levelo://app?vid=b73d77e8-13e1-4a52-8d7d-64dc550bdfbc","ios":"levelo://app?vid=b73d77e8-13e1-4a52-8d7d-64dc550bdfbc"},"vehicle_type_id":"4","last_reported":1721941691,"current_range_meters":15200,"station_id":"ce4bh012rcd13ifvqcv0","pricing_plan_id":"cebpf4jnsgd1na2vs0mg"},{"bike_id":"90898d61-31a8-4ecc-9f53-38f9f7d0b564","system_id":"levelo_inurba_marseille","lat":43.309038,"lon":5.396546,"is_reserved":false,"is_disabled":false,"rental_uris":{"android":"levelo://app?vid=90898d61-31a8-4ecc-9f53-38f9f7d0b564","ios":"levelo://app?vid=90898d61-31a8-4ecc-9f53-38f9f7d0b564"},"vehicle_type_id":"4","last_reported":1721941691,"current_range_meters":3200,"station_id":"ce4bh012rcd13ifvqcv0","pricing_plan_id":"cebpf4jnsgd1na2vs0mg"},{"bike_id":"952e52c7-f1a0-4d45-9d53-ce6c3e62e5db","system_id":"levelo_inurba_marseille","lat":43.29529,"lon":5.385581,"is_reserved":false,"is_disabled":false,"rental_uris":{"android":"levelo://app?vid=952e52c7-f1a0-4d45-9d53-ce6c3e62e5db","ios":"levelo://app?vid=952e52c7-f1a0-4d45-9d53-ce6c3e62e5db"},"vehicle_type_id":"4","last_reported":1721941691,"current_range_meters":31600,"station_id":"ce4bgih2rcd13ifvqba0","pricing_plan_id":"cebpf4jnsgd1na2vs0mg"},{"bike_id":"794dd3eb-8af1-4328-be2a-985a86332c72","system_id":"levelo_inurba_marseille","lat":43.29529,"lon":5.385581,"is_reserved":false,"is_disabled":false,"rental_uris":{"android":"levelo://app?vid=794dd3eb-8af1-4328-be2a-985a86332c72","ios":"levelo://app?vid=794dd3eb-8af1-4328-be2a-985a86332c72"},"vehicle_type_id":"4","last_reported":1721941691,"current_range_meters":12000,"station_id":"ce4bgih2rcd13ifvqba0","pricing_plan_id":"cebpf4jnsgd1na2vs0mg"},{"bike_id":"f5c7c543-0a5e-4672-a09b-4192c7af7d58","system_id":"levelo_inurba_marseille","lat":43.29529,"lon":5.385581,"is_reserved":false,"is_disabled":false,"rental_uris":{"android":"levelo://app?vid=f5c7c543-0a5e-4672-a09b-4192c7af7d58","ios":"levelo://app?vid=f5c7c543-0a5e-4672-a09b-4192c7af7d58"},"vehicle_type_id":"4","last_reported":1721941691,"current_range_meters":6000,"station_id":"ce4bgih2rcd13ifvqba0","pricing_plan_id":"cebpf4jnsgd1na2vs0mg"},{"bike_id":"2d32b658-4b4d-4125-8881-6b360517fff5","system_id":"levelo_inurba_marseille","lat":43.29529,"lon":5.385581,"is_reserved":false,"is_disabled":false,"rental_uris":{"android":"levelo://app?vid=2d32b658-4b4d-4125-8881-6b360517fff5","ios":"levelo://app?vid=2d32b658-4b4d-4125-8881-6b360517fff5"},"vehicle_type_id":"4","last_reported":1721941691,"current_range_meters":13600,"station_id":"ce4bgih2rcd13ifvqba0","pricing_plan_id":"cebpf4jnsgd1na2vs0mg"},{"bike_id":"81bba8e2-734a-4431-9b69-c791728ce6fb","system_id":"levelo_inurba_marseille","lat":43.29529,"lon":5.385581,"is_reserved":false,"is_disabled":false,"rental_uris":{"android":"levelo://app?vid=81bba8e2-734a-4431-9b69-c791728ce6fb","ios":"levelo://app?vid=81bba8e2-734a-4431-9b69-c791728ce6fb"},"vehicle_type_id":"4","last_reported":1721941691,"current_range_meters":12400,"station_id":"ce4bgih2rcd13ifvqba0","pricing_plan_id":"cebpf4jnsgd1na2vs0mg"},{"bike_id":"81c86410-234c-4f8b-b030-37cce0f7f243","system_id":"levelo_inurba_marseille","lat":43.29529,"lon":5.385581,"is_reserved":false,"is_disabled":false,"rental_uris":{"android":"levelo://app?vid=81c86410-234c-4f8b-b030-37cce0f7f243","ios":"levelo://app?vid=81c86410-234c-4f8b-b030-37cce0f7f243"},"vehicle_type_id":"4","last_reported":1721941691,"current_range_meters":15200,"station_id":"ce4bgih2rcd13ifvqba0","pricing_plan_id":"cebpf4jnsgd1na2vs0mg"},{"bike_id":"f1caea80-be8d-4bef-94c2-caaf42c74f89","system_id":"levelo_inurba_marseille","lat":43.29529,"lon":5.385581,"is_reserved":false,"is_disabled":false,"rental_uris":{"android":"levelo://app?vid=f1caea80-be8d-4bef-94c2-caaf42c74f89","ios":"levelo://app?vid=f1caea80-be8d-4bef-94c2-caaf42c74f89"},"vehicle_type_id":"4","last_reported":1721941691,"current_range_meters":31200,"station_id":"ce4bgih2rcd13ifvqba0","pricing_plan_id":"cebpf4jnsgd1na2vs0mg"},{"bike_id":"1cdc4b63-4dc8-4023-a462-9b0b8fe15895","system_id":"levelo_inurba_marseille","lat":43.29529,"lon":5.385581,"is_reserved":false,"is_disabled":false,"rental_uris":{"android":"levelo://app?vid=1cdc4b63-4dc8-4023-a462-9b0b8fe15895","ios":"levelo://app?vid=1cdc4b63-4dc8-4023-a462-9b0b8fe15895"},"vehicle_type_id":"4","last_reported":1721941691,"current_range_meters":19600,"station_id":"ce4bgih2rcd13ifvqba0","pricing_plan_id":"cebpf4jnsgd1na2vs0mg"},{"bike_id":"d3a67db8-fffc-4d80-a28f-c0236f4b2cfd","system_id":"levelo_inurba_marseille","lat":43.29529,"lon":5.385581,"is_reserved":false,"is_disabled":false,"rental_uris":{"android":"levelo://app?vid=d3a67db8-fffc-4d80-a28f-c0236f4b2cfd","ios":"levelo://app?vid=d3a67db8-fffc-4d80-a28f-c0236f4b2cfd"},"vehicle_type_id":"4","last_reported":1721941691,"current_range_meters":21600,"station_id":"ce4bgih2rcd13ifvqba0","pricing_plan_id":"cebpf4jnsgd1na2vs0mg"},{"bike_id":"4d16567e-a112-464c-84be-dd90b5eb698b","system_id":"levelo_inurba_marseille","lat":43.29529,"lon":5.385581,"is_reserved":false,"is_disabled":false,"rental_uris":{"android":"levelo://app?vid=4d16567e-a112-464c-84be-dd90b5eb698b","ios":"levelo://app?vid=4d16567e-a112-464c-84be-dd90b5eb698b"},"vehicle_type_id":"4","last_reported":1721941691,"current_range_meters":16000,"station_id":"ce4bgih2rcd13ifvqba0","pricing_plan_id":"cebpf4jnsgd1na2vs0mg"},{"bike_id":"139f656f-682c-45af-85ed-b0a233dcea04","system_id":"levelo_inurba_marseille","lat":43.29529,"lon":5.385581,"is_reserved":false,"is_disabled":false,"rental_uris":{"android":"levelo://app?vid=139f656f-682c-45af-85ed-b0a233dcea04","ios":"levelo://app?vid=139f656f-682c-45af-85ed-b0a233dcea04"},"vehicle_type_id":"4","last_reported":1721941691,"current_range_meters":14000,"station_id":"ce4bgih2rcd13ifvqba0","pricing_plan_id":"cebpf4jnsgd1na2vs0mg"},{"bike_id":"33fa9252-1f1a-40e2-8743-7e4f5b2ec37f","system_id":"levelo_inurba_marseille","lat":43.2953,"lon":5.38549,"is_reserved":false,"is_disabled":false,"rental_uris":{"android":"levelo://app?vid=33fa9252-1f1a-40e2-8743-7e4f5b2ec37f","ios":"levelo://app?vid=33fa9252-1f1a-40e2-8743-7e4f5b2ec37f"},"vehicle_type_id":"4","last_reported":1721941691,"current_range_meters":31200,"station_id":"ce4bgih2rcd13ifvqba0","pricing_plan_id":"cebpf4jnsgd1na2vs0mg"},{"bike_id":"912a030f-1b7a-4bef-abfe-c096ef38cb6c","system_id":"levelo_inurba_marseille","lat":43.29526,"lon":5.38544,"is_reserved":false,"is_disabled":false,"rental_uris":{"android":"levelo://app?vid=912a030f-1b7a-4bef-abfe-c096ef38cb6c","ios":"levelo://app?vid=912a030f-1b7a-4bef-abfe-c096ef38cb6c"},"vehicle_type_id":"4","last_reported":1721941691,"current_range_meters":0,"station_id":"","pricing_plan_id":"cebpf4jnsgd1na2vs0mg"},{"bike_id":"5a265c30-f65c-4fa2-b689-30340b98017b","system_id":"levelo_inurba_marseille","lat":43.29529,"lon":5.385581,"is_reserved":false,"is_disabled":false,"rental_uris":{"android":"levelo://app?vid=5a265c30-f65c-4fa2-b689-30340b98017b","ios":"levelo://app?vid=5a265c30-f65c-4fa2-b689-30340b98017b"},"vehicle_type_id":"4","last_reported":1721941691,"current_range_meters":20400,"station_id":"ce4bgih2rcd13ifvqba0","pricing_plan_id":"cebpf4jnsgd1na2vs0mg"},{"bike_id":"494eb2d7-b720-410a-bca3-546bfebb7d9d","system_id":"levelo_inurba_marseille","lat":43.29529,"lon":5.385581,"is_reserved":false,"is_disabled":false,"rental_uris":{"android":"levelo://app?vid=494eb2d7-b720-410a-bca3-546bfebb7d9d","ios":"levelo://app?vid=494eb2d7-b720-410a-bca3-546bfebb7d9d"},"vehicle_type_id":"4","last_reported":1721941691,"current_range_meters":0,"station_id":"ce4bgih2rcd13ifvqba0","pricing_plan_id":"cebpf4jnsgd1na2vs0mg"},{"bike_id":"dd5b8ebd-a67a-415c-b6d8-2899cc83501a","system_id":"levelo_inurba_marseille","lat":43.29529,"lon":5.385581,"is_reserved":false,"is_disabled":false,"rental_uris":{"android":"levelo://app?vid=dd5b8ebd-a67a-415c-b6d8-2899cc83501a","ios":"levelo://app?vid=dd5b8ebd-a67a-415c-b6d8-2899cc83501a"},"vehicle_type_id":"4","last_reported":1721941691,"current_range_meters":21600,"station_id":"ce4bgih2rcd13ifvqba0","pricing_plan_id":"cebpf4jnsgd1na2vs0mg"},{"bike_id":"0ca82236-b7c4-49f8-8fb1-9944914494e1","system_id":"levelo_inurba_marseille","lat":43.290779,"lon":5.371482,"is_reserved":false,"is_disabled":false,"rental_uris":{"android":"levelo://app?vid=0ca82236-b7c4-49f8-8fb1-9944914494e1","ios":"levelo://app?vid=0ca82236-b7c4-49f8-8fb1-9944914494e1"},"vehicle_type_id":"4","last_reported":1721941691,"current_range_meters":1200,"station_id":"ce4bh5p2rcd13ifvqe4g","pricing_plan_id":"cebpf4jnsgd1na2vs0mg"},{"bike_id":"de6fc394-bfe4-4f7f-b179-fe7ce5f07b2f","system_id":"levelo_inurba_marseille","lat":43.302008,"lon":5.394694,"is_reserved":false,"is_disabled":false,"rental_uris":{"android":"levelo://app?vid=de6fc394-bfe4-4f7f-b179-fe7ce5f07b2f","ios":"levelo://app?vid=de6fc394-bfe4-4f7f-b179-fe7ce5f07b2f"},"vehicle_type_id":"4","last_reported":1721941691,"current_range_meters":18400,"station_id":"ce4bh0p2rcd13ifvqd70","pricing_plan_id":"cebpf4jnsgd1na2vs0mg"},{"bike_id":"096666a6-08dd-46c5-9398-91cb979a16b5","system_id":"levelo_inurba_marseille","lat":43.30215,"lon":5.39476,"is_reserved":false,"is_disabled":false,"rental_uris":{"android":"levelo://app?vid=096666a6-08dd-46c5-9398-91cb979a16b5","ios":"levelo://app?vid=096666a6-08dd-46c5-9398-91cb979a16b5"},"vehicle_type_id":"4","last_reported":1721941691,"current_range_meters":0,"station_id":"ce4bh0p2rcd13ifvqd70","pricing_plan_id":"cebpf4jnsgd1na2vs0mg"},{"bike_id":"f1b2b1ce-97b5-4b63-b2f4-74d6fa321cd5","system_id":"levelo_inurba_marseille","lat":43.294162,"lon":5.386292,"is_reserved":false,"is_disabled":false,"rental_uris":{"android":"levelo://app?vid=f1b2b1ce-97b5-4b63-b2f4-74d6fa321cd5","ios":"levelo://app?vid=f1b2b1ce-97b5-4b63-b2f4-74d6fa321cd5"},"vehicle_type_id":"4","last_reported":1721941691,"current_range_meters":11200,"station_id":"ce4bh2h2rcd13ifvqdh0","pricing_plan_id":"cebpf4jnsgd1na2vs0mg"},{"bike_id":"ef180a70-6a25-44ca-8afe-d010bf7ac6f1","system_id":"levelo_inurba_marseille","lat":43.2895,"lon":5.36644,"is_reserved":false,"is_disabled":false,"rental_uris":{"android":"levelo://app?vid=ef180a70-6a25-44ca-8afe-d010bf7ac6f1","ios":"levelo://app?vid=ef180a70-6a25-44ca-8afe-d010bf7ac6f1"},"vehicle_type_id":"4","last_reported":1721941691,"current_range_meters":0,"station_id":"ce4bhap2rcd13ifvqek0","pricing_plan_id":"cebpf4jnsgd1na2vs0mg"},{"bike_id":"a581e9d6-e2de-45e5-a9a8-6a938d2bd50a","system_id":"levelo_inurba_marseille","lat":43.29421,"lon":5.38621,"is_reserved":false,"is_disabled":false,"rental_uris":{"android":"levelo://app?vid=a581e9d6-e2de-45e5-a9a8-6a938d2bd50a","ios":"levelo://app?vid=a581e9d6-e2de-45e5-a9a8-6a938d2bd50a"},"vehicle_type_id":"4","last_reported":1721941691,"current_range_meters":14000,"station_id":"ce4bh2h2rcd13ifvqdh0","pricing_plan_id":"cebpf4jnsgd1na2vs0mg"},{"bike_id":"73194638-262c-4909-a6c8-f573bfd22414","system_id":"levelo_inurba_marseille","lat":43.29421,"lon":5.38622,"is_reserved":false,"is_disabled":false,"rental_uris":{"android":"levelo://app?vid=73194638-262c-4909-a6c8-f573bfd22414","ios":"levelo://app?vid=73194638-262c-4909-a6c8-f573bfd22414"},"vehicle_type_id":"4","last_reported":1721941691,"current_range_meters":5200,"station_id":"ce4bh2h2rcd13ifvqdh0","pricing_plan_id":"cebpf4jnsgd1na2vs0mg"},{"bike_id":"edf3f2c1-5e98-4bdd-a819-a870d373c592","system_id":"levelo_inurba_marseille","lat":43.294194,"lon":5.386198,"is_reserved":false,"is_disabled":false,"rental_uris":{"android":"levelo://app?vid=edf3f2c1-5e98-4bdd-a819-a870d373c592","ios":"levelo://app?vid=edf3f2c1-5e98-4bdd-a819-a870d373c592"},