{"last_updated":1769948829,"ttl":60,"version":"2.2","data":{"bikes":[{"bike_id":"a10fd5ac-f488-49bb-9865-a9b9fcb4d879","system_id":"levelo_inurba_marseille","lat":43.32386,"lon":5.37438,"is_reserved":false,"is_disabled":false,"rental_uris":{"android":"levelo://app?vid=a10fd5ac-f488-49bb-9865-a9b9fcb4d879","ios":"levelo://app?vid=a10fd5ac-f488-49bb-9865-a9b9fcb4d879"},"vehicle_type_id":"4","last_reported":1769948829,"current_range_meters":2800,"station_id":"","pricing_plan_id":"cebpf4jnsgd1na2vs0mg"},{"bike_id":"e035ba43-d8da-4113-82a3-06ed62a07f1d","system_id":"levelo_inurba_marseille","lat":43.23197,"lon":5.35552,"is_reserved":false,"is_disabled":false,"rental_uris":{"android":"levelo://app?vid=e035ba43-d8da-4113-82a3-06ed62a07f1d","ios":"levelo://app?vid=e035ba43-d8da-4113-82a3-06ed62a07f1d"},"vehicle_type_id":"4","last_reported":1769948829,"current_range_meters":2800,"station_id":"ce4bhu92rcd13ifvqi70","pricing_plan_id":"cebpf4jnsgd1na2vs0mg"},{"bike_id":"e62bf17d-777c-405e-87cc-f81784440870","system_id":"levelo_inurba_marseille","lat":43.25344,"lon":5.42168,"is_reserved":false,"is_disabled":false,"rental_uris":{"android":"levelo://app?vid=e62bf17d-777c-405e-87cc-f81784440870","ios":"levelo://app?vid=e62bf17d-777c-405e-87cc-f81784440870"},"vehicle_type_id":"4","last_reported":1769948829,"current_range_meters":2800,"station_id":"st_d2m65c5bi1j21697t3ng","pricing_plan_id":"cebpf4jnsgd1na2vs0mg"},{"bike_id":"76332bd6-e54c-4e1a-80e6-1fa0c52d5f1c","system_id":"levelo_inurba_marseille","lat":43.24091,"lon":5.37765,"is_reserved":false,"is_disabled":false,"rental_uris":{"android":"levelo://app?vid=76332bd6-e54c-4e1a-80e6-1fa0c52d5f1c","ios":"levelo://app?vid=76332bd6-e54c-4e1a-80e6-1fa0c52d5f1c"},"vehicle_type_id":"4","last_reported":1769948829,"current_range_meters":2800,"station_id":"ce4bhnp2rcd13ifvqgvg","pricing_plan_id":"cebpf4jnsgd1na2vs0mg"},{"bike_id":"c1c81367-70ee-426b-bbda-ed8be87ef382","system_id":"levelo_inurba_marseille","lat":43.29899,"lon":5.38133,"is_reserved":false,"is_disabled":false,"rental_uris":{"android":"levelo://app?vid=c1c81367-70ee-426b-bbda-ed8be87ef382","ios":"levelo://app?vid=c1c81367-70ee-426b-bbda-ed8be87ef382"},"vehicle_type_id":"4","last_reported":1769948829,"current_range_meters":2800,"station_id":"ce4bgj12rcd13ifvqbc0","pricing_plan_id":"cebpf4jnsgd1na2vs0mg"},{"bike_id":"f5f157ec-1359-4121-a3a6-bf808ad2afcc","system_id":"levelo_inurba_marseille","lat":43.29223,"lon":5.40255,"is_reserved":false,"is_disabled":false,"rental_uris":{"android":"levelo://app?vid=f5f157ec-1359-4121-a3a6-bf808ad2afcc","ios":"levelo://app?vid=f5f157ec-1359-4121-a3a6-bf808ad2afcc"},"vehicle_type_id":"4","last_reported":1769948829,"current_range_meters":2800,"station_id":"ce4bh312rcd13ifvqdk0","pricing_plan_id":"cebpf4jnsgd1na2vs0mg"},{"bike_id":"f4d6efa2-00bd-44bb-b3f9-95bebe7bedd2","system_id":"levelo_inurba_marseille","lat":43.30192,"lon":5.37991,"is_reserved":false,"is_disabled":false,"rental_uris":{"android":"levelo://app?vid=f4d6efa2-00bd-44bb-b3f9-95bebe7bedd2","ios":"levelo://app?vid=f4d6efa2-00bd-44bb-b3f9-95bebe7bedd2"},"vehicle_type_id":"4","last_reported":1769948829,"current_range_meters":2800,"station_id":"","pricing_plan_id":"cebpf4jnsgd1na2vs0mg"},{"bike_id":"acf8067a-41cb-44c4-9819-41025b6631d5","system_id":"levelo_inurba_marseille","lat":43.231881,"lon":5.399863,"is_reserved":false,"is_disabled":false,"rental_uris":{"android":"levelo://app?vid=acf8067a-41cb-44c4-9819-41025b6631d5","ios":"levelo://app?vid=acf8067a-41cb-44c4-9819-41025b6631d5"},"vehicle_type_id":"4","last_reported":1769948829,"current_range_meters":3200,"station_id":"ce4bhn12rcd13ifvqgqg","pricing_plan_id":"cebpf4jnsgd1na2vs0mg"},{"bike_id":"abdf906c-1d02-4d03-a8b9-85b3b5a13392","system_id":"levelo_inurba_marseille","lat":43.31491,"lon":5.37296,"is_reserved":false,"is_disabled":false,"rental_uris":{"android":"levelo://app?vid=abdf906c-1d02-4d03-a8b9-85b3b5a13392","ios":"levelo://app?vid=abdf906c-1d02-4d03-a8b9-85b3b5a13392"},"vehicle_type_id":"4","last_reported":1769948829,"current_range_meters":3200,"station_id":"ce4bgt12rcd13ifvqcd0","pricing_plan_id":"cebpf4jnsgd1na2vs0mg"},{"bike_id":"7cf2279d-37fb-4eea-9fcd-fa006a6f498b","system_id":"levelo_inurba_marseille","lat":43.273657,"lon":5.36261,"is_reserved":false,"is_disabled":false,"rental_uris":{"android":"levelo://app?vid=7cf2279d-37fb-4eea-9fcd-fa006a6f498b","ios":"levelo://app?vid=7cf2279d-37fb-4eea-9fcd-fa006a6f498b"},"vehicle_type_id":"4","last_reported":1769948829,"current_range_meters":3200,"station_id":"ce4bhbh2rcd13ifvqeo0","pricing_plan_id":"cebpf4jnsgd1na2vs0mg"},{"bike_id":"c2464a31-7450-4242-ba80-afe1660c1012","system_id":"levelo_inurba_marseille","lat":43.24951,"lon":5.40507,"is_reserved":false,"is_disabled":false,"rental_uris":{"android":"levelo://app?vid=c2464a31-7450-4242-ba80-afe1660c1012","ios":"levelo://app?vid=c2464a31-7450-4242-ba80-afe1660c1012"},"vehicle_type_id":"4","last_reported":1769948829,"current_range_meters":3200,"station_id":"st_d2ngiaodas8pm72gd1h0","pricing_plan_id":"cebpf4jnsgd1na2vs0mg"},{"bike_id":"e1ac8074-2692-47ad-8009-ca2728ad3bbf","system_id":"levelo_inurba_marseille","lat":43.27989,"lon":5.40016,"is_reserved":false,"is_disabled":false,"rental_uris":{"android":"levelo://app?vid=e1ac8074-2692-47ad-8009-ca2728ad3bbf","ios":"levelo://app?vid=e1ac8074-2692-47ad-8009-ca2728ad3bbf"},"vehicle_type_id":"4","last_reported":1769948829,"current_range_meters":3600,"station_id":"ce4bho92rcd13ifvqh4g","pricing_plan_id":"cebpf4jnsgd1na2vs0mg"},{"bike_id":"055d8d39-c891-472e-8a0d-a9ee39d8b8c7","system_id":"levelo_inurba_marseille","lat":43.331544,"lon":5.376858,"is_reserved":false,"is_disabled":true,"rental_uris":{"android":"levelo://app?vid=055d8d39-c891-472e-8a0d-a9ee39d8b8c7","ios":"levelo://app?vid=055d8d39-c891-472e-8a0d-a9ee39d8b8c7"},"vehicle_type_id":"4","last_reported":1769948829,"current_range_meters":3600,"station_id":"st_d46cu089ee8s73dldbu0","pricing_plan_id":"cebpf4jnsgd1na2vs0mg"},{"bike_id":"6259a571-4c97-41bc-9e30-1f15710670c6","system_id":"levelo_inurba_marseille","lat":43.24686,"lon":5.40109,"is_reserved":false,"is_disabled":false,"rental_uris":{"android":"levelo://app?vid=6259a571-4c97-41bc-9e30-1f15710670c6","ios":"levelo://app?vid=6259a571-4c97-41bc-9e30-1f15710670c6"},"vehicle_type_id":"4","last_reported":1769948829,"current_range_meters":3600,"station_id":"","pricing_plan_id":"cebpf4jnsgd1na2vs0mg"},{"bike_id":"6ccf591e-8325-4003-8624-56a059237579","system_id":"levelo_inurba_marseille","lat":43.21744,"lon":5.34613,"is_reserved":false,"is_disabled":false,"rental_uris":{"android":"levelo://app?vid=6ccf591e-8325-4003-8624-56a059237579","ios":"levelo://app?vid=6ccf591e-8325-4003-8624-56a059237579"},"vehicle_type_id":"4","last_reported":1769948829,"current_range_meters":3600,"station_id":"st_cvj6r9ubvosntc0bgbag","pricing_plan_id":"cebpf4jnsgd1na2vs0mg"},{"bike_id":"a591b198-ffd8-42c1-96f8-07f7188eff82","system_id":"levelo_inurba_marseille","lat":43.25583,"lon":5.3827,"is_reserved":false,"is_disabled":false,"rental_uris":{"android":"levelo://app?vid=a591b198-ffd8-42c1-96f8-07f7188eff82","ios":"levelo://app?vid=a591b198-ffd8-42c1-96f8-07f7188eff82"},"vehicle_type_id":"4","last_reported":1769948829,"current_range_meters":4000,"station_id":"ce4bhih2rcd13ifvqfs0","pricing_plan_id":"cebpf4jnsgd1na2vs0mg"},{"bike_id":"1f2355d4-8ec3-489d-9586-e5982f2527d0","system_id":"levelo_inurba_marseille","lat":43.29024,"lon":5.38122,"is_reserved":false,"is_disabled":false,"rental_uris":{"android":"levelo://app?vid=1f2355d4-8ec3-489d-9586-e5982f2527d0","ios":"levelo://app?vid=1f2355d4-8ec3-489d-9586-e5982f2527d0"},"vehicle_type_id":"4","last_reported":1769948829,"current_range_meters":4000,"station_id":"ce4bh4p2rcd13ifvqe1g","pricing_plan_id":"cebpf4jnsgd1na2vs0mg"},{"bike_id":"12da4aec-3f8c-4de6-b749-125886fbb053","system_id":"levelo_inurba_marseille","lat":43.21181,"lon":5.35077,"is_reserved":false,"is_disabled":false,"rental_uris":{"android":"levelo://app?vid=12da4aec-3f8c-4de6-b749-125886fbb053","ios":"levelo://app?vid=12da4aec-3f8c-4de6-b749-125886fbb053"},"vehicle_type_id":"4","last_reported":1769948829,"current_range_meters":4000,"station_id":"st_cvj6sg6p6f1abm77japg","pricing_plan_id":"cebpf4jnsgd1na2vs0mg"},{"bike_id":"3c07e8db-1d64-4b7a-879d-8b774c3d7e0c","system_id":"levelo_inurba_marseille","lat":43.27376,"lon":5.3626,"is_reserved":false,"is_disabled":false,"rental_uris":{"android":"levelo://app?vid=3c07e8db-1d64-4b7a-879d-8b774c3d7e0c","ios":"levelo://app?vid=3c07e8db-1d64-4b7a-879d-8b774c3d7e0c"},"vehicle_type_id":"4","last_reported":1769948829,"current_range_meters":4000,"station_id":"ce4bhbh2rcd13ifvqeo0","pricing_plan_id":"cebpf4jnsgd1na2vs0mg"},{"bike_id":"1dc97b2e-d1f5-4f3f-bf58-ab267d00c025","system_id":"levelo_inurba_marseille","lat":43.23217,"lon":5.35574,"is_reserved":false,"is_disabled":false,"rental_uris":{"android":"levelo://app?vid=1dc97b2e-d1f5-4f3f-bf58-ab267d00c025","ios":"levelo://app?vid=1dc97b2e-d1f5-4f3f-bf58-ab267d00c025"},"vehicle_type_id":"4","last_reported":1769948829,"current_range_meters":4000,"station_id":"ce4bhu92rcd13ifvqi70","pricing_plan_id":"cebpf4jnsgd1na2vs0mg"},{"bike_id":"3a018445-7fc8-4338-a2fe-4c4c2c7f595b","system_id":"levelo_inurba_marseille","lat":43.24168,"lon":5.36405,"is_reserved":false,"is_disabled":false,"rental_uris":{"android":"levelo://app?vid=3a018445-7fc8-4338-a2fe-4c4c2c7f595b","ios":"levelo://app?vid=3a018445-7fc8-4338-a2fe-4c4c2c7f595b"},"vehicle_type_id":"4","last_reported":1769948829,"current_range_meters":4000,"station_id":"cpo36qri1sfpv3e86is0","pricing_plan_id":"cebpf4jnsgd1na2vs0mg"},{"bike_id":"318133aa-3b05-4452-b847-cf5a32021652","system_id":"levelo_inurba_marseille","lat":43.25088,"lon":5.39524,"is_reserved":false,"is_disabled":false,"rental_uris":{"android":"levelo://app?vid=318133aa-3b05-4452-b847-cf5a32021652","ios":"levelo://app?vid=318133aa-3b05-4452-b847-cf5a32021652"},"vehicle_type_id":"4","last_reported":1769948829,"current_range_meters":4000,"station_id":"ce4bhm12rcd13ifvqgkg","pricing_plan_id":"cebpf4jnsgd1na2vs0mg"},{"bike_id":"37c5211e-5ae5-4086-a7bb-7181cb7b5804","system_id":"levelo_inurba_marseille","lat":43.28709,"lon":5.37373,"is_reserved":false,"is_disabled":false,"rental_uris":{"android":"levelo://app?vid=37c5211e-5ae5-4086-a7bb-7181cb7b5804","ios":"levelo://app?vid=37c5211e-5ae5-4086-a7bb-7181cb7b5804"},"vehicle_type_id":"4","last_reported":1769948829,"current_range_meters":4000,"station_id":"ce4bh3p2rcd13ifvqdq0","pricing_plan_id":"cebpf4jnsgd1na2vs0mg"},{"bike_id":"941a8c3a-4d34-49c3-88ae-ee770ffe0023","system_id":"levelo_inurba_marseille","lat":43.24388,"lon":5.3706,"is_reserved":false,"is_disabled":false,"rental_uris":{"android":"levelo://app?vid=941a8c3a-4d34-49c3-88ae-ee770ffe0023","ios":"levelo://app?vid=941a8c3a-4d34-49c3-88ae-ee770ffe0023"},"vehicle_type_id":"4","last_reported":1769948829,"current_range_meters":4000,"station_id":"ce4bhhh2rcd13ifvqfk0","pricing_plan_id":"cebpf4jnsgd1na2vs0mg"},{"bike_id":"2aa1b855-a67e-44a5-9e87-0b767dbf6e7a","system_id":"levelo_inurba_marseille","lat":43.27386,"lon":5.36261,"is_reserved":false,"is_disabled":false,"rental_uris":{"android":"levelo://app?vid=2aa1b855-a67e-44a5-9e87-0b767dbf6e7a","ios":"levelo://app?vid=2aa1b855-a67e-44a5-9e87-0b767dbf6e7a"},"vehicle_type_id":"4","last_reported":1769948829,"current_range_meters":4000,"station_id":"ce4bhbh2rcd13ifvqeo0","pricing_plan_id":"cebpf4jnsgd1na2vs0mg"},{"bike_id":"2635fd55-a9d1-4395-86c6-a81362d3da93","system_id":"levelo_inurba_marseille","lat":43.23968,"lon":5.36628,"is_reserved":false,"is_disabled":false,"rental_uris":{"android":"levelo://app?vid=2635fd55-a9d1-4395-86c6-a81362d3da93","ios":"levelo://app?vid=2635fd55-a9d1-4395-86c6-a81362d3da93"},"vehicle_type_id":"4","last_reported":1769948829,"current_range_meters":4000,"station_id":"ce4bhi12rcd13ifvqfp0","pricing_plan_id":"cebpf4jnsgd1na2vs0mg"},{"bike_id":"63e9723a-68fa-4be7-90c7-ed616b88a83f","system_id":"levelo_inurba_marseille","lat":43.25344,"lon":5.42173,"is_reserved":false,"is_disabled":false,"rental_uris":{"android":"levelo://app?vid=63e9723a-68fa-4be7-90c7-ed616b88a83f","ios":"levelo://app?vid=63e9723a-68fa-4be7-90c7-ed616b88a83f"},"vehicle_type_id":"4","last_reported":1769948829,"current_range_meters":4000,"station_id":"st_d2m65c5bi1j21697t3ng","pricing_plan_id":"cebpf4jnsgd1na2vs0mg"},{"bike_id":"4f3241e9-91aa-433f-8232-afda3cd35850","system_id":"levelo_inurba_marseille","lat":43.27376,"lon":5.3624,"is_reserved":false,"is_disabled":false,"rental_uris":{"android":"levelo://app?vid=4f3241e9-91aa-433f-8232-afda3cd35850","ios":"levelo://app?vid=4f3241e9-91aa-433f-8232-afda3cd35850"},"vehicle_type_id":"4","last_reported":1769948829,"current_range_meters":4000,"station_id":"ce4bhbh2rcd13ifvqeo0","pricing_plan_id":"cebpf4jnsgd1na2vs0mg"},{"bike_id":"04da1df6-4b42-4515-bc71-2524c0008b6a","system_id":"levelo_inurba_marseille","lat":43.27471,"lon":5.43593,"is_reserved":false,"is_disabled":false,"rental_uris":{"android":"levelo://app?vid=04da1df6-4b42-4515-bc71-2524c0008b6a","ios":"levelo://app?vid=04da1df6-4b42-4515-bc71-2524c0008b6a"},"vehicle_type_id":"4","last_reported":1769948829,"current_range_meters":4400,"station_id":"","pricing_plan_id":"cebpf4jnsgd1na2vs0mg"},{"bike_id":"9b0b72ce-8292-47cd-b165-f4a28fe1cfff","system_id":"levelo_inurba_marseille","lat":43.28505,"lon":5.3854,"is_reserved":false,"is_disabled":true,"rental_uris":{"android":"levelo://app?vid=9b0b72ce-8292-47cd-b165-f4a28fe1cfff","ios":"levelo://app?vid=9b0b72ce-8292-47cd-b165-f4a28fe1cfff"},"vehicle_type_id":"4","last_reported":1769948829,"current_range_meters":4400,"station_id":"ce4bh512rcd13ifvqe3g","pricing_plan_id":"cebpf4jnsgd1na2vs0mg"},{"bike_id":"4ae21097-68ff-4a44-bcb7-3e142e11d517","system_id":"levelo_inurba_marseille","lat":43.24187,"lon":5.36405,"is_reserved":false,"is_disabled":false,"rental_uris":{"android":"levelo://app?vid=4ae21097-68ff-4a44-bcb7-3e142e11d517","ios":"levelo://app?vid=4ae21097-68ff-4a44-bcb7-3e142e11d517"},"vehicle_type_id":"4","last_reported":1769948829,"current_range_meters":4400,"station_id":"cpo36qri1sfpv3e86is0","pricing_plan_id":"cebpf4jnsgd1na2vs0mg"},{"bike_id":"0100587f-39d4-44b6-b796-b9ca69eb9ee2","system_id":"levelo_inurba_marseille","lat":43.23157,"lon":5.43709,"is_reserved":false,"is_disabled":false,"rental_uris":{"android":"levelo://app?vid=0100587f-39d4-44b6-b796-b9ca69eb9ee2","ios":"levelo://app?vid=0100587f-39d4-44b6-b796-b9ca69eb9ee2"},"vehicle_type_id":"4","last_reported":1769948829,"current_range_meters":4400,"station_id":"ce4bhmp2rcd13ifvqgog","pricing_plan_id":"cebpf4jnsgd1na2vs0mg"},{"bike_id":"0ef936db-db3a-438a-ab7b-f5e6dec879d5","system_id":"levelo_inurba_marseille","lat":43.27377,"lon":5.36253,"is_reserved":false,"is_disabled":false,"rental_uris":{"android":"levelo://app?vid=0ef936db-db3a-438a-ab7b-f5e6dec879d5","ios":"levelo://app?vid=0ef936db-db3a-438a-ab7b-f5e6dec879d5"},"vehicle_type_id":"4","last_reported":1769948829,"current_range_meters":4400,"station_id":"ce4bhbh2rcd13ifvqeo0","pricing_plan_id":"cebpf4jnsgd1na2vs0mg"},{"bike_id":"1a488dbc-32c2-4461-b2a6-a7cd13f6244e","system_id":"levelo_inurba_marseille","lat":43.24155,"lon":5.36408,"is_reserved":false,"is_disabled":false,"rental_uris":{"android":"levelo://app?vid=1a488dbc-32c2-4461-b2a6-a7cd13f6244e","ios":"levelo://app?vid=1a488dbc-32c2-4461-b2a6-a7cd13f6244e"},"vehicle_type_id":"4","last_reported":1769948829,"current_range_meters":4400,"station_id":"cpo36qri1sfpv3e86is0","pricing_plan_id":"cebpf4jnsgd1na2vs0mg"},{"bike_id":"abf4a163-0b92-4b5d-b44c-fe7006934447","system_id":"levelo_inurba_marseille","lat":43.28486,"lon":5.38545,"is_reserved":false,"is_disabled":false,"rental_uris":{"android":"levelo://app?vid=abf4a163-0b92-4b5d-b44c-fe7006934447","ios":"levelo://app?vid=abf4a163-0b92-4b5d-b44c-fe7006934447"},"vehicle_type_id":"4","last_reported":1769948829,"current_range_meters":4400,"station_id":"ce4bh8p2rcd13ifvqeb0","pricing_plan_id":"cebpf4jnsgd1na2vs0mg"},{"bike_id":"bd0b3557-9fd7-4e9c-b122-eda4f40b316d","system_id":"levelo_inurba_marseille","lat":43.24809,"lon":5.37462,"is_reserved":false,"is_disabled":false,"rental_uris":{"android":"levelo://app?vid=bd0b3557-9fd7-4e9c-b122-eda4f40b316d","ios":"levelo://app?vid=bd0b3557-9fd7-4e9c-b122-eda4f40b316d"},"vehicle_type_id":"4","last_reported":1769948829,"current_range_meters":4800,"station_id":"ce4bhgh2rcd13ifvqfb0","pricing_plan_id":"cebpf4jnsgd1na2vs0mg"},{"bike_id":"6790413e-4740-4289-a22f-d3e7a54257b6","system_id":"levelo_inurba_marseille","lat":43.25338,"lon":5.42166,"is_reserved":false,"is_disabled":false,"rental_uris":{"android":"levelo://app?vid=6790413e-4740-4289-a22f-d3e7a54257b6","ios":"levelo://app?vid=6790413e-4740-4289-a22f-d3e7a54257b6"},"vehicle_type_id":"4","last_reported":1769948829,"current_range_meters":4800,"station_id":"st_d2m65c5bi1j21697t3ng","pricing_plan_id":"cebpf4jnsgd1na2vs0mg"},{"bike_id":"b27a0d4f-f345-47b9-b9a8-196c40313931","system_id":"levelo_inurba_marseille","lat":43.28421,"lon":5.34979,"is_reserved":false,"is_disabled":false,"rental_uris":{"android":"levelo://app?vid=b27a0d4f-f345-47b9-b9a8-196c40313931","ios":"levelo://app?vid=b27a0d4f-f345-47b9-b9a8-196c40313931"},"vehicle_type_id":"4","last_reported":1769948829,"current_range_meters":4800,"station_id":"ce4bhbh2rcd13ifvqepg","pricing_plan_id":"cebpf4jnsgd1na2vs0mg"},{"bike_id":"cb926d7d-dd81-4394-aeeb-9a10af19de0f","system_id":"levelo_inurba_marseille","lat":43.27177,"lon":5.40994,"is_reserved":false,"is_disabled":false,"rental_uris":{"android":"levelo://app?vid=cb926d7d-dd81-4394-aeeb-9a10af19de0f","ios":"levelo://app?vid=cb926d7d-dd81-4394-aeeb-9a10af19de0f"},"vehicle_type_id":"4","last_reported":1769948829,"current_range_meters":4800,"station_id":"ce4bhl12rcd13ifvqgf0","pricing_plan_id":"cebpf4jnsgd1na2vs0mg"},{"bike_id":"7725ea14-335e-4d54-91ac-40d50e39e00e","system_id":"levelo_inurba_marseille","lat":43.23185,"lon":5.39988,"is_reserved":false,"is_disabled":false,"rental_uris":{"android":"levelo://app?vid=7725ea14-335e-4d54-91ac-40d50e39e00e","ios":"levelo://app?vid=7725ea14-335e-4d54-91ac-40d50e39e00e"},"vehicle_type_id":"4","last_reported":1769948829,"current_range_meters":4800,"station_id":"ce4bhn12rcd13ifvqgqg","pricing_plan_id":"cebpf4jnsgd1na2vs0mg"},{"bike_id":"3d2668d9-3c48-4068-83fd-9f01b377bc30","system_id":"levelo_inurba_marseille","lat":43.32104,"lon":5.36793,"is_reserved":false,"is_disabled":false,"rental_uris":{"android":"levelo://app?vid=3d2668d9-3c48-4068-83fd-9f01b377bc30","ios":"levelo://app?vid=3d2668d9-3c48-4068-83fd-9f01b377bc30"},"vehicle_type_id":"4","last_reported":1769948829,"current_range_meters":4800,"station_id":"ce4bhrh2rcd13ifvqhug","pricing_plan_id":"cebpf4jnsgd1na2vs0mg"},{"bike_id":"44706e4f-eefc-44f2-bedd-4b6229aeb269","system_id":"levelo_inurba_marseille","lat":43.23061,"lon":5.35493,"is_reserved":false,"is_disabled":false,"rental_uris":{"android":"levelo://app?vid=44706e4f-eefc-44f2-bedd-4b6229aeb269","ios":"levelo://app?vid=44706e4f-eefc-44f2-bedd-4b6229aeb269"},"vehicle_type_id":"4","last_reported":1769948829,"current_range_meters":4800,"station_id":"cpo3342slgdg3j2ifvpg","pricing_plan_id":"cebpf4jnsgd1na2vs0mg"},{"bike_id":"3b62f3c8-9e2c-498f-9f58-5713f580cfa8","system_id":"levelo_inurba_marseille","lat":43.29303,"lon":5.40153,"is_reserved":false,"is_disabled":false,"rental_uris":{"android":"levelo://app?vid=3b62f3c8-9e2c-498f-9f58-5713f580cfa8","ios":"levelo://app?vid=3b62f3c8-9e2c-498f-9f58-5713f580cfa8"},"vehicle_type_id":"4","last_reported":1769948829,"current_range_meters":4800,"station_id":"ce4bh312rcd13ifvqdk0","pricing_plan_id":"cebpf4jnsgd1na2vs0mg"},{"bike_id":"d4d18011-2bf0-4a2b-a896-7a5c21af3b9d","system_id":"levelo_inurba_marseille","lat":43.28484,"lon":5.48388,"is_reserved":false,"is_disabled":false,"rental_uris":{"android":"levelo://app?vid=d4d18011-2bf0-4a2b-a896-7a5c21af3b9d","ios":"levelo://app?vid=d4d18011-2bf0-4a2b-a896-7a5c21af3b9d"},"vehicle_type_id":"4","last_reported":1769948829,"current_range_meters":4800,"station_id":"st_d3svhcjqgbts73a3dn0g","pricing_plan_id":"cebpf4jnsgd1na2vs0mg"},{"bike_id":"a4c4467a-de4f-4b56-8893-ebacb492a7a6","system_id":"levelo_inurba_marseille","lat":43.25348,"lon":5.42203,"is_reserved":false,"is_disabled":false,"rental_uris":{"android":"levelo://app?vid=a4c4467a-de4f-4b56-8893-ebacb492a7a6","ios":"levelo://app?vid=a4c4467a-de4f-4b56-8893-ebacb492a7a6"},"vehicle_type_id":"4","last_reported":1769948829,"current_range_meters":4800,"station_id":"st_d2m65c5bi1j21697t3ng","pricing_plan_id":"cebpf4jnsgd1na2vs0mg"},{"bike_id":"be225ef5-320f-4540-9f6e-c540e647f135","system_id":"levelo_inurba_marseille","lat":43.30156,"lon":5.38053,"is_reserved":false,"is_disabled":false,"rental_uris":{"android":"levelo://app?vid=be225ef5-320f-4540-9f6e-c540e647f135","ios":"levelo://app?vid=be225ef5-320f-4540-9f6e-c540e647f135"},"vehicle_type_id":"4","last_reported":1769948829,"current_range_meters":4800,"station_id":"ce4bgjp2rcd13ifvqbh0","pricing_plan_id":"cebpf4jnsgd1na2vs0mg"},{"bike_id":"837f081a-e646-4c00-93df-f959748be000","system_id":"levelo_inurba_marseille","lat":43.24685,"lon":5.38143,"is_reserved":false,"is_disabled":false,"rental_uris":{"android":"levelo://app?vid=837f081a-e646-4c00-93df-f959748be000","ios":"levelo://app?vid=837f081a-e646-4c00-93df-f959748be000"},"vehicle_type_id":"4","last_reported":1769948829,"current_range_meters":4800,"station_id":"ce4bhih2rcd13ifvqfr0","pricing_plan_id":"cebpf4jnsgd1na2vs0mg"},{"bike_id":"9a51c59d-9df1-4272-bf8a-962f7f317a04","system_id":"levelo_inurba_marseille","lat":43.25507,"lon":5.37642,"is_reserved":false,"is_disabled":false,"rental_uris":{"android":"levelo://app?vid=9a51c59d-9df1-4272-bf8a-962f7f317a04","ios":"levelo://app?vid=9a51c59d-9df1-4272-bf8a-962f7f317a04"},"vehicle_type_id":"4","last_reported":1769948829,"current_range_meters":4800,"station_id":"ce4bhh12rcd13ifvqff0","pricing_plan_id":"cebpf4jnsgd1na2vs0mg"},{"bike_id":"e2b4aeae-2a07-4d8f-86cf-4e3229263777","system_id":"levelo_inurba_marseille","lat":43.25001,"lon":5.3893,"is_reserved":false,"is_disabled":false,"rental_uris":{"android":"levelo://app?vid=e2b4aeae-2a07-4d8f-86cf-4e3229263777","ios":"levelo://app?vid=e2b4aeae-2a07-4d8f-86cf-4e3229263777"},"vehicle_type_id":"4","last_reported":1769948829,"current_range_meters":4800,"station_id":"ce4bhgp2rcd13ifvqfd0","pricing_plan_id":"cebpf4jnsgd1na2vs0mg"},{"bike_id":"250a761c-ae52-471b-a080-9d2fecb9f16a","system_id":"levelo_inurba_marseille","lat":43.30965,"lon":5.39056,"is_reserved":false,"is_disabled":false,"rental_uris":{"android":"levelo://app?vid=250a761c-ae52-471b-a080-9d2fecb9f16a","ios":"levelo://app?vid=250a761c-ae52-471b-a080-9d2fecb9f16a"},"vehicle_type_id":"4","last_reported":1769948829,"current_range_meters":5600,"station_id":"ce4bgup2rcd13ifvqco0","pricing_plan_id":"cebpf4jnsgd1na2vs0mg"},{"bike_id":"18fac332-3f37-4402-a2c5-fd894778b438","system_id":"levelo_inurba_marseille","lat":43.30149,"lon":5.38087,"is_reserved":false,"is_disabled":false,"rental_uris":{"android":"levelo://app?vid=18fac332-3f37-4402-a2c5-fd894778b438","ios":"levelo://app?vid=18fac332-3f37-4402-a2c5-fd894778b438"},"vehicle_type_id":"4","last_reported":1769948829,"current_range_meters":5600,"station_id":"ce4bgjp2rcd13ifvqbh0","pricing_plan_id":"cebpf4jnsgd1na2vs0mg"},{"bike_id":"52b1cbe8-1ee5-4218-9fc6-dffcdb694a57","system_id":"levelo_inurba_marseille","lat":43.28265,"lon":5.35066,"is_reserved":false,"is_disabled":false,"rental_uris":{"android":"levelo://app?vid=52b1cbe8-1ee5-4218-9fc6-dffcdb694a57","ios":"levelo://app?vid=52b1cbe8-1ee5-4218-9fc6-dffcdb694a57"},"vehicle_type_id":"4","last_reported":1769948829,"current_range_meters":5600,"station_id":"ce4bhbp2rcd13ifvqerg","pricing_plan_id":"cebpf4jnsgd1na2vs0mg"},{"bike_id":"f1afac7b-3a1b-4cac-a9fd-69907f58ad17","system_id":"levelo_inurba_marseille","lat":43.26875,"lon":5.40268,"is_reserved":false,"is_disabled":false,"rental_uris":{"android":"levelo://app?vid=f1afac7b-3a1b-4cac-a9fd-69907f58ad17","ios":"levelo://app?vid=f1afac7b-3a1b-4cac-a9fd-69907f58ad17"},"vehicle_type_id":"4","last_reported":1769948829,"current_range_meters":5600,"station_id":"cjm6bp8fraef2m0cb0m0","pricing_plan_id":"cebpf4jnsgd1na2vs0mg"},{"bike_id":"a0f4c4d9-b17d-4551-87f4-b3e192df9153","system_id":"levelo_inurba_marseille","lat":43.23038,"lon":5.35484,"is_reserved":false,"is_disabled":false,"rental_uris":{"android":"levelo://app?vid=a0f4c4d9-b17d-4551-87f4-b3e192df9153","ios":"levelo://app?vid=a0f4c4d9-b17d-4551-87f4-b3e192df9153"},"vehicle_type_id":"4","last_reported":1769948829,"current_range_meters":5600,"station_id":"cpo3342slgdg3j2ifvpg","pricing_plan_id":"cebpf4jnsgd1na2vs0mg"},{"bike_id":"b3ce92d8-ab73-49fb-b101-7782a24b5043","system_id":"levelo_inurba_marseille","lat":43.24378,"lon":5.37054,"is_reserved":false,"is_disabled":false,"rental_uris":{"android":"levelo://app?vid=b3ce92d8-ab73-49fb-b101-7782a24b5043","ios":"levelo://app?vid=b3ce92d8-ab73-49fb-b101-7782a24b5043"},"vehicle_type_id":"4","last_reported":1769948829,"current_range_meters":5600,"station_id":"ce4bhhh2rcd13ifvqfk0","pricing_plan_id":"cebpf4jnsgd1na2vs0mg"},{"bike_id":"f21b12c5-d93c-48d5-ab58-35de1e45acd5","system_id":"levelo_inurba_marseille","lat":43.29566,"lon":5.39965,"is_reserved":false,"is_disabled":false,"rental_uris":{"android":"levelo://app?vid=f21b12c5-d93c-48d5-ab58-35de1e45acd5","ios":"levelo://app?vid=f21b12c5-d93c-48d5-ab58-35de1e45acd5"},"vehicle_type_id":"4","last_reported":1769948829,"current_range_meters":5600,"station_id":"ce4bh312rcd13ifvqdj0","pricing_plan_id":"cebpf4jnsgd1na2vs0mg"},{"bike_id":"9c2cc992-186a-4b4e-a8c4-2416ec14609e","system_id":"levelo_inurba_marseille","lat":43.25865,"lon":5.39914,"is_reserved":false,"is_disabled":false,"rental_uris":{"android":"levelo://app?vid=9c2cc992-186a-4b4e-a8c4-2416ec14609e","ios":"levelo://app?vid=9c2cc992-186a-4b4e-a8c4-2416ec14609e"},"vehicle_type_id":"4","last_reported":1769948829,"current_range_meters":5600,"station_id":"ce4bhl92rcd13ifvqghg","pricing_plan_id":"cebpf4jnsgd1na2vs0mg"},{"bike_id":"a2d974ec-93f9-486d-a7df-0b31d92edb93","system_id":"levelo_inurba_marseille","lat":43.29007,"lon":5.35607,"is_reserved":false,"is_disabled":false,"rental_uris":{"android":"levelo://app?vid=a2d974ec-93f9-486d-a7df-0b31d92edb93","ios":"levelo://app?vid=a2d974ec-93f9-486d-a7df-0b31d92edb93"},"vehicle_type_id":"4","last_reported":1769948829,"current_range_meters":5600,"station_id":"ce4bhb92rcd13ifvqen0","pricing_plan_id":"cebpf4jnsgd1na2vs0mg"},{"bike_id":"bdc48a7a-316d-404a-9897-8965d044c2d8","system_id":"levelo_inurba_marseille","lat":43.29193,"lon":5.39324,"is_reserved":false,"is_disabled":false,"rental_uris":{"android":"levelo://app?vid=bdc48a7a-316d-404a-9897-8965d044c2d8","ios":"levelo://app?vid=bdc48a7a-316d-404a-9897-8965d044c2d8"},"vehicle_type_id":"4","last_reported":1769948829,"current_range_meters":5600,"station_id":"ce4bh192rcd13ifvqdd0","pricing_plan_id":"cebpf4jnsgd1na2vs0mg"},{"bike_id":"5be20501-8e04-4673-9119-891aadf1acc1","system_id":"levelo_inurba_marseille","lat":43.28482,"lon":5.48397,"is_reserved":false,"is_disabled":false,"rental_uris":{"android":"levelo://app?vid=5be20501-8e04-4673-9119-891aadf1acc1","ios":"levelo://app?vid=5be20501-8e04-4673-9119-891aadf1acc1"},"vehicle_type_id":"4","last_reported":1769948829,"current_range_meters":5600,"station_id":"","pricing_plan_id":"cebpf4jnsgd1na2vs0mg"},{"bike_id":"49c0b9bb-6c8e-4cb3-a2eb-f17052d51d8d","system_id":"levelo_inurba_marseille","lat":43.24663,"lon":5.38155,"is_reserved":false,"is_disabled":false,"rental_uris":{"android":"levelo://app?vid=49c0b9bb-6c8e-4cb3-a2eb-f17052d51d8d","ios":"levelo://app?vid=49c0b9bb-6c8e-4cb3-a2eb-f17052d51d8d"},"vehicle_type_id":"4","last_reported":1769948829,"current_range_meters":5600,"station_id":"ce4bhih2rcd13ifvqfr0","pricing_plan_id":"cebpf4jnsgd1na2vs0mg"},{"bike_id":"d5e67bfe-03c5-4643-9903-6eac267b87da","system_id":"levelo_inurba_marseille","lat":43.24021,"lon":5.37814,"is_reserved":false,"is_disabled":false,"rental_uris":{"android":"levelo://app?vid=d5e67bfe-03c5-4643-9903-6eac267b87da","ios":"levelo://app?vid=d5e67bfe-03c5-4643-9903-6eac267b87da"},"vehicle_type_id":"4","last_reported":1769948829,"current_range_meters":5600,"station_id":"","pricing_plan_id":"cebpf4jnsgd1na2vs0mg"},{"bike_id":"0232b269-ab9b-4a77-8c40-9a521b69a419","system_id":"levelo_inurba_marseille","lat":43.25587,"lon":5.38229,"is_reserved":false,"is_disabled":false,"rental_uris":{"android":"levelo://app?vid=0232b269-ab9b-4a77-8c40-9a521b69a419","ios":"levelo://app?vid=0232b269-ab9b-4a77-8c40-9a521b69a419"},"vehicle_type_id":"4","last_reported":1769948829,"current_range_meters":6000,"station_id":"ce4bhih2rcd13ifvqfs0","pricing_plan_id":"cebpf4jnsgd1na2vs0mg"},{"bike_id":"6270aada-d47c-40cf-9539-41cf6cf6c95b","system_id":"levelo_inurba_marseille","lat":43.28724,"lon":5.36102,"is_reserved":false,"is_disabled":false,"rental_uris":{"android":"levelo://app?vid=6270aada-d47c-40cf-9539-41cf6cf6c95b","ios":"levelo://app?vid=6270aada-d47c-40cf-9539-41cf6cf6c95b"},"vehicle_type_id":"4","last_reported":1769948829,"current_range_meters":6000,"station_id":"cki0cbj6b192h4jlfktg","pricing_plan_id":"cebpf4jnsgd1na2vs0mg"},{"bike_id":"7a4412cf-c498-4121-be46-049419c026d4","system_id":"levelo_inurba_marseille","lat":43.27944,"lon":5.41037,"is_reserved":false,"is_disabled":false,"rental_uris":{"android":"levelo://app?vid=7a4412cf-c498-4121-be46-049419c026d4","ios":"levelo://app?vid=7a4412cf-c498-4121-be46-049419c026d4"},"vehicle_type_id":"4","last_reported":1769948829,"current_range_meters":6000,"station_id":"ce4bhnp2rcd13ifvqh0g","pricing_plan_id":"cebpf4jnsgd1na2vs0mg"},{"bike_id":"67e9dbbc-b6b6-4374-909f-4ac4a68e9673","system_id":"levelo_inurba_marseille","lat":43.24175,"lon":5.36397,"is_reserved":false,"is_disabled":false,"rental_uris":{"android":"levelo://app?vid=67e9dbbc-b6b6-4374-909f-4ac4a68e9673","ios":"levelo://app?vid=67e9dbbc-b6b6-4374-909f-4ac4a68e9673"},"vehicle_type_id":"4","last_reported":1769948829,"current_range_meters":6000,"station_id":"cpo36qri1sfpv3e86is0","pricing_plan_id":"cebpf4jnsgd1na2vs0mg"},{"bike_id":"e66c0050-63ae-4842-902f-7ed4f4ed8737","system_id":"levelo_inurba_marseille","lat":43.22562,"lon":5.41624,"is_reserved":false,"is_disabled":false,"rental_uris":{"android":"levelo://app?vid=e66c0050-63ae-4842-902f-7ed4f4ed8737","ios":"levelo://app?vid=e66c0050-63ae-4842-902f-7ed4f4ed8737"},"vehicle_type_id":"4","last_reported":1769948829,"current_range_meters":6000,"station_id":"st_d2o4gvlbi1j2169b742g","pricing_plan_id":"cebpf4jnsgd1na2vs0mg"},{"bike_id":"d0765df0-cc90-4cba-8b79-61ce95080b49","system_id":"levelo_inurba_marseille","lat":43.22532,"lon":5.41548,"is_reserved":false,"is_disabled":false,"rental_uris":{"android":"levelo://app?vid=d0765df0-cc90-4cba-8b79-61ce95080b49","ios":"levelo://app?vid=d0765df0-cc90-4cba-8b79-61ce95080b49"},"vehicle_type_id":"4","last_reported":1769948829,"current_range_meters":6000,"station_id":"st_d2o4gvlbi1j2169b742g","pricing_plan_id":"cebpf4jnsgd1na2vs0mg"},{"bike_id":"ce82ab3e-8722-48bf-b3dc-98421a0f2a7b","system_id":"levelo_inurba_marseille","lat":43.29612,"lon":5.40601,"is_reserved":false,"is_disabled":false,"rental_uris":{"android":"levelo://app?vid=ce82ab3e-8722-48bf-b3dc-98421a0f2a7b","ios":"levelo://app?vid=ce82ab3e-8722-48bf-b3dc-98421a0f2a7b"},"vehicle_type_id":"4","last_reported":1769948829,"current_range_meters":6000,"station_id":"ce4bh0h2rcd13ifvqd60","pricing_plan_id":"cebpf4jnsgd1na2vs0mg"},{"bike_id":"38b77181-b3ce-4754-b533-7792bcc3267e","system_id":"levelo_inurba_marseille","lat":43.27381,"lon":5.36249,"is_reserved":false,"is_disabled":false,"rental_uris":{"android":"levelo://app?vid=38b77181-b3ce-4754-b533-7792bcc3267e","ios":"levelo://app?vid=38b77181-b3ce-4754-b533-7792bcc3267e"},"vehicle_type_id":"4","last_reported":1769948829,"current_range_meters":6000,"station_id":"ce4bhbh2rcd13ifvqeo0","pricing_plan_id":"cebpf4jnsgd1na2vs0mg"},{"bike_id":"72042119-f1c7-4a4b-9c5f-fb668d727686","system_id":"levelo_inurba_marseille","lat":43.25124,"lon":5.40346,"is_reserved":false,"is_disabled":false,"rental_uris":{"android":"levelo://app?vid=72042119-f1c7-4a4b-9c5f-fb668d727686","ios":"levelo://app?vid=72042119-f1c7-4a4b-9c5f-fb668d727686"},"vehicle_type_id":"4","last_reported":1769948829,"current_range_meters":6000,"station_id":"ce4bhlh2rcd13ifvqgig","pricing_plan_id":"cebpf4jnsgd1na2vs0mg"},{"bike_id":"ea996b6a-e4df-4475-a81a-600ad94271b6","system_id":"levelo_inurba_marseille","lat":43.30275,"lon":5.3979,"is_reserved":false,"is_disabled":false,"rental_uris":{"android":"levelo://app?vid=ea996b6a-e4df-4475-a81a-600ad94271b6","ios":"levelo://app?vid=ea996b6a-e4df-4475-a81a-600ad94271b6"},"vehicle_type_id":"4","last_reported":1769948829,"current_range_meters":6000,"station_id":"","pricing_plan_id":"cebpf4jnsgd1na2vs0mg"},{"bike_id":"bcd58453-c6d3-458d-8c23-f0e115fa2945","system_id":"levelo_inurba_marseille","lat":43.28872,"lon":5.42512,"is_reserved":false,"is_disabled":false,"rental_uris":{"android":"levelo://app?vid=bcd58453-c6d3-458d-8c23-f0e115fa2945","ios":"levelo://app?vid=bcd58453-c6d3-458d-8c23-f0e115fa2945"},"vehicle_type_id":"4","last_reported":1769948829,"current_range_meters":6000,"station_id":"st_d3b462108ojc7389ooeg","pricing_plan_id":"cebpf4jnsgd1na2vs0mg"},{"bike_id":"3a9d9d6b-764f-4558-a4a3-5611921af6a1","system_id":"levelo_inurba_marseille","lat":43.27967,"lon":5.41048,"is_reserved":false,"is_disabled":false,"rental_uris":{"android":"levelo://app?vid=3a9d9d6b-764f-4558-a4a3-5611921af6a1","ios":"levelo://app?vid=3a9d9d6b-764f-4558-a4a3-5611921af6a1"},"vehicle_type_id":"4","last_reported":1769948829,"current_range_meters":6000,"station_id":"ce4bhnp2rcd13ifvqh0g","pricing_plan_id":"cebpf4jnsgd1na2vs0mg"},{"bike_id":"2618561d-cd06-4493-b916-9511a3eac222","system_id":"levelo_inurba_marseille","lat":43.2738,"lon":5.36229,"is_reserved":false,"is_disabled":false,"rental_uris":{"android":"levelo://app?vid=2618561d-cd06-4493-b916-9511a3eac222","ios":"levelo://app?vid=2618561d-cd06-4493-b916-9511a3eac222"},"vehicle_type_id":"4","last_reported":1769948829,"current_range_meters":6000,"station_id":"ce4bhbh2rcd13ifvqeo0","pricing_plan_id":"cebpf4jnsgd1na2vs0mg"},{"bike_id":"e701a3f7-2e1f-487e-bad5-83c9140f1723","system_id":"levelo_inurba_marseille","lat":43.31785,"lon":5.37374,"is_reserved":false,"is_disabled":false,"rental_uris":{"android":"levelo://app?vid=e701a3f7-2e1f-487e-bad5-83c9140f1723","ios":"levelo://app?vid=e701a3f7-2e1f-487e-bad5-83c9140f1723"},"vehicle_type_id":"4","last_reported":1769948829,"current_range_meters":6000,"station_id":"","pricing_plan_id":"cebpf4jnsgd1na2vs0mg"},{"bike_id":"9bfe23e5-3791-47e8-8d29-f3e7fb3928fb","system_id":"levelo_inurba_marseille","lat":43.286102,"lon":5.351055,"is_reserved":false,"is_disabled":false,"rental_uris":{"android":"levelo://app?vid=9bfe23e5-3791-47e8-8d29-f3e7fb3928fb","ios":"levelo://app?vid=9bfe23e5-3791-47e8-8d29-f3e7fb3928fb"},"vehicle_type_id":"4","last_reported":1769948829,"current_range_meters":6000,"station_id":"ce4bhch2rcd13ifvqeug","pricing_plan_id":"cebpf4jnsgd1na2vs0mg"},{"bike_id":"0e681b67-3fdf-40b6-b942-590e1536d0c5","system_id":"levelo_inurba_marseille","lat":43.244037,"lon":5.370737,"is_reserved":false,"is_disabled":false,"rental_uris":{"android":"levelo://app?vid=0e681b67-3fdf-40b6-b942-590e1536d0c5","ios":"levelo://app?vid=0e681b67-3fdf-40b6-b942-590e1536d0c5"},"vehicle_type_id":"4","last_reported":1769948829,"current_range_meters":6000,"station_id":"ce4bhhh2rcd13ifvqfk0","pricing_plan_id":"cebpf4jnsgd1na2vs0mg"},{"bike_id":"9ec284a7-5619-4e2b-9311-1a9349102c34","system_id":"levelo_inurba_marseille","lat":43.24481,"lon":5.42547,"is_reserved":false,"is_disabled":false,"rental_uris":{"android":"levelo://app?vid=9ec284a7-5619-4e2b-9311-1a9349102c34","ios":"levelo://app?vid=9ec284a7-5619-4e2b-9311-1a9349102c34"},"vehicle_type_id":"4","last_reported":1769948829,"current_range_meters":6000,"station_id":"st_d4a3vfp97mjs738cd8kg","pricing_plan_id":"cebpf4jnsgd1na2vs0mg"},{"bike_id":"74856cd2-f709-469e-b628-27ee18812e7c","system_id":"levelo_inurba_marseille","lat":43.28161,"lon":5.42649,"is_reserved":false,"is_disabled":false,"rental_uris":{"android":"levelo://app?vid=74856cd2-f709-469e-b628-27ee18812e7c","ios":"levelo://app?vid=74856cd2-f709-469e-b628-27ee18812e7c"},"vehicle_type_id":"4","last_reported":1769948829,"current_range_meters":6000,"station_id":"ce4bhnh2rcd13ifvqgug","pricing_plan_id":"cebpf4jnsgd1na2vs0mg"},{"bike_id":"d01f7ac4-a0f3-4fa1-b992-b06fad12dbf9","system_id":"levelo_inurba_marseille","lat":43.21194,"lon":5.35076,"is_reserved":false,"is_disabled":false,"rental_uris":{"android":"levelo://app?vid=d01f7ac4-a0f3-4fa1-b992-b06fad12dbf9","ios":"levelo://app?vid=d01f7ac4-a0f3-4fa1-b992-b06fad12dbf9"},"vehicle_type_id":"4","last_reported":1769948829,"current_range_meters":6000,"station_id":"","pricing_plan_id":"cebpf4jnsgd1na2vs0mg"},{"bike_id":"cda423b0-114c-4365-aeb1-89fb80c8de39","system_id":"levelo_inurba_marseille","lat":43.2481,"lon":5.37479,"is_reserved":false,"is_disabled":false,"rental_uris":{"android":"levelo://app?vid=cda423b0-114c-4365-aeb1-89fb80c8de39","ios":"levelo://app?vid=cda423b0-114c-4365-aeb1-89fb80c8de39"},"vehicle_type_id":"4","last_reported":1769948829,"current_range_meters":6400,"station_id":"ce4bhgh2rcd13ifvqfb0","pricing_plan_id":"cebpf4jnsgd1na2vs0mg"},{"bike_id":"f63ad825-b273-458f-bf2e-2ef630e3fede","system_id":"levelo_inurba_marseille","lat":43.22576,"lon":5.41642,"is_reserved":false,"is_disabled":false,"rental_uris":{"android":"levelo://app?vid=f63ad825-b273-458f-bf2e-2ef630e3fede","ios":"levelo://app?vid=f63ad825-b273-458f-bf2e-2ef630e3fede"},"vehicle_type_id":"4","last_reported":1769948829,"current_range_meters":6400,"station_id":"st_d2o4gvlbi1j2169b742g","pricing_plan_id":"cebpf4jnsgd1na2vs0mg"},{"bike_id":"fb793f9e-27c8-4aa6-9e5b-d172f980944b","system_id":"levelo_inurba_marseille","lat":43.27945,"lon":5.41039,"is_reserved":false,"is_disabled":true,"rental_uris":{"android":"levelo://app?vid=fb793f9e-27c8-4aa6-9e5b-d172f980944b","ios":"levelo://app?vid=fb793f9e-27c8-4aa6-9e5b-d172f980944b"},"vehicle_type_id":"4","last_reported":1769948829,"current_range_meters":6400,"station_id":"ce4bhnp2rcd13ifvqh0g","pricing_plan_id":"cebpf4jnsgd1na2vs0mg"},{"bike_id":"0bbba5fd-b2e8-40f5-94d4-cb82b3e9e32b","system_id":"levelo_inurba_marseille","lat":43.21749,"lon":5.34619,"is_reserved":false,"is_disabled":false,"rental_uris":{"android":"levelo://app?vid=0bbba5fd-b2e8-40f5-94d4-cb82b3e9e32b","ios":"levelo://app?vid=0bbba5fd-b2e8-40f5-94d4-cb82b3e9e32b"},"vehicle_type_id":"4","last_reported":1769948829,"current_range_meters":6400,"station_id":"st_cvj6r9ubvosntc0bgbag","pricing_plan_id":"cebpf4jnsgd1na2vs0mg"},{"bike_id":"3471e8e7-8da3-45e0-a561-cdc2e5b04adf","system_id":"levelo_inurba_marseille","lat":43.24628,"lon":5.43142,"is_reserved":false,"is_disabled":false,"rental_uris":{"android":"levelo://app?vid=3471e8e7-8da3-45e0-a561-cdc2e5b04adf","ios":"levelo://app?vid=3471e8e7-8da3-45e0-a561-cdc2e5b04adf"},"vehicle_type_id":"4","last_reported":1769948829,"current_range_meters":6400,"station_id":"st_d2m6c4gdas8pm72e190g","pricing_plan_id":"cebpf4jnsgd1na2vs0mg"},{"bike_id":"1b262235-a4c8-42b2-9b62-c37b9e14300f","system_id":"levelo_inurba_marseille","lat":43.27813,"lon":5.4071,"is_reserved":false,"is_disabled":false,"rental_uris":{"android":"levelo://app?vid=1b262235-a4c8-42b2-9b62-c37b9e14300f","ios":"levelo://app?vid=1b262235-a4c8-42b2-9b62-c37b9e14300f"},"vehicle_type_id":"4","last_reported":1769948829,"current_range_meters":6400,"station_id":"ce4bhnh2rcd13ifvqgtg","pricing_plan_id":"cebpf4jnsgd1na2vs0mg"},{"bike_id":"16fde6d1-f51a-48e7-a728-f69430b0136e","system_id":"levelo_inurba_marseille","lat":43.24366,"lon":5.37066,"is_reserved":false,"is_disabled":false,"rental_uris":{"android":"levelo://app?vid=16fde6d1-f51a-48e7-a728-f69430b0136e","ios":"levelo://app?vid=16fde6d1-f51a-48e7-a728-f69430b0136e"},"vehicle_type_id":"4","last_reported":1769948829,"current_range_meters":6400,"station_id":"ce4bhhh2rcd13ifvqfk0","pricing_plan_id":"cebpf4jnsgd1na2vs0mg"},{"bike_id":"e9e16b9f-308d-4d4a-af45-5bc8ed5e6c7b","system_id":"levelo_inurba_marseille","lat":43.23787,"lon":5.36633,"is_reserved":false,"is_disabled":false,"rental_uris":{"android":"levelo://app?vid=e9e16b9f-308d-4d4a-af45-5bc8ed5e6c7b","ios":"levelo://app?vid=e9e16b9f-308d-4d4a-af45-5bc8ed5e6c7b"},"vehicle_type_id":"4","last_reported":1769948829,"current_range_meters":6400,"station_id":"st_d3nk18o9ro0c73en2l3g","pricing_plan_id":"cebpf4jnsgd1na2vs0mg"},{"bike_id":"180701fc-3466-4739-9acb-7f11e893ebe6","system_id":"levelo_inurba_marseille","lat":43.24466,"lon":5.42548,"is_reserved":false,"is_disabled":false,"rental_uris":{"android":"levelo://app?vid=180701fc-3466-4739-9acb-7f11e893ebe6","ios":"levelo://app?vid=180701fc-3466-4739-9acb-7f11e893ebe6"},"vehicle_type_id":"4","last_reported":1769948829,"current_range_meters":6400,"station_id":"st_d4a3vfp97mjs738cd8kg","pricing_plan_id":"cebpf4jnsgd1na2vs0mg"},{"bike_id":"4638d66d-068f-44f1-9e30-09a8b619e5d0","system_id":"levelo_inurba_marseille","lat":43.23148,"lon":5.43712,"is_reserved":false,"is_disabled":false,"rental_uris":{"android":"levelo://app?vid=4638d66d-068f-44f1-9e30-09a8b619e5d0","ios":"levelo://app?vid=4638d66d-068f-44f1-9e30-09a8b619e5d0"},"vehicle_type_id":"4","last_reported":1769948829,"current_range_meters":6400,"station_id":"ce4bhmp2rcd13ifvqgog","pricing_plan_id":"cebpf4jnsgd1na2vs0mg"},{"bike_id":"115ddb2d-f2e0-4a8b-a239-6b1b1fd18828","system_id":"levelo_inurba_marseille","lat":43.2319,"lon":5.35557,"is_reserved":false,"is_disabled":false,"rental_uris":{"android":"levelo://app?vid=115ddb2d-f2e0-4a8b-a239-6b1b1fd18828","ios":"levelo://app?vid=115ddb2d-f2e0-4a8b-a239-6b1b1fd18828"},"vehicle_type_id":"4","last_reported":1769948829,"current_range_meters":6400,"station_id":"ce4bhu92rcd13ifvqi70","pricing_plan_id":"cebpf4jnsgd1na2vs0mg"},{"bike_id":"b233dd4b-f1ae-41da-a580-dcfbbd843fa2","system_id":"levelo_inurba_marseille","lat":43.30782,"lon":5.3766,"is_reserved":false,"is_disabled":false,"rental_uris":{"android":"levelo://app?vid=b233dd4b-f1ae-41da-a580-dcfbbd843fa2","ios":"levelo://app?vid=b233dd4b-f1ae-41da-a580-dcfbbd843fa2"},"vehicle_type_id":"4","last_reported":1769948829,"current_range_meters":6400,"station_id":"ce4bgv92rcd13ifvqcq0","pricing_plan_id":"cebpf4jnsgd1na2vs0mg"},{"bike_id":"364597dc-cb47-4838-817d-8f52bd1a8ffe","system_id":"levelo_inurba_marseille","lat":43.29531,"lon":5.38541,"is_reserved":false,"is_disabled":false,"rental_uris":{"android":"levelo://app?vid=364597dc-cb47-4838-817d-8f52bd1a8ffe","ios":"levelo://app?vid=364597dc-cb47-4838-817d-8f52bd1a8ffe"},"vehicle_type_id":"4","last_reported":1769948829,"current_range_meters":6400,"station_id":"ce4bgih2rcd13ifvqba0","pricing_plan_id":"cebpf4jnsgd1na2vs0mg"},{"bike_id":"4193097a-ffb4-4520-8f06-ec418bbdd065","system_id":"levelo_inurba_marseille","lat":43.23136,"lon":5.43718,"is_reserved":false,"is_disabled":false,"rental_uris":{"android":"levelo://app?vid=4193097a-ffb4-4520-8f06-ec418bbdd065","ios":"levelo://app?vid=4193097a-ffb4-4520-8f06-ec418bbdd065"},"vehicle_type_id":"4","last_reported":1769948829,"current_range_meters":6400,"station_id":"ce4bhmp2rcd13ifvqgog","pricing_plan_id":"cebpf4jnsgd1na2vs0mg"},{"bike_id":"8a25a112-bffb-4bc9-b86f-e44087c71e58","system_id":"levelo_inurba_marseille","lat":43.28204,"lon":5.39054,"is_reserved":false,"is_disabled":false,"rental_uris":{"android":"levelo://app?vid=8a25a112-bffb-4bc9-b86f-e44087c71e58","ios":"levelo://app?vid=8a25a112-bffb-4bc9-b86f-e44087c71e58"},"vehicle_type_id":"4","last_reported":1769948829,"current_range_meters":6400,"station_id":"ce4bhn92rcd13ifvqgsg","pricing_plan_id":"cebpf4jnsgd1na2vs0mg"},{"bike_id":"51537cc6-1da6-49ad-a2e2-943864cdc5a6","system_id":"levelo_inurba_marseille","lat":43.30882,"lon":5.39638,"is_reserved":false,"is_disabled":false,"rental_uris":{"android":"levelo://app?vid=51537cc6-1da6-49ad-a2e2-943864cdc5a6","ios":"levelo://app?vid=51537cc6-1da6-49ad-a2e2-943864cdc5a6"},"vehicle_type_id":"4","last_reported":1769948829,"current_range_meters":6400,"station_id":"ce4bh012rcd13ifvqcv0","pricing_plan_id":"cebpf4jnsgd1na2vs0mg"},{"bike_id":"d3215a18-ac25-47b2-bc57-dcaef897eb36","system_id":"levelo_inurba_marseille","lat":43.31415,"lon":5.38569,"is_reserved":false,"is_disabled":false,"rental_uris":{"android":"levelo://app?vid=d3215a18-ac25-47b2-bc57-dcaef897eb36","ios":"levelo://app?vid=d3215a18-ac25-47b2-bc57-dcaef897eb36"},"vehicle_type_id":"4","last_reported":1769948829,"current_range_meters":6800,"station_id":"","pricing_plan_id":"cebpf4jnsgd1na2vs0mg"},{"bike_id":"1b9e7bf5-f399-4b7a-935f-44d1badb48a9","system_id":"levelo_inurba_marseille","lat":43.292661,"lon":5.384371,"is_reserved":false,"is_disabled":false,"rental_uris":{"android":"levelo://app?vid=1b9e7bf5-f399-4b7a-935f-44d1badb48a9","ios":"levelo://app?vid=1b9e7bf5-f399-4b7a-935f-44d1badb48a9"},"vehicle_type_id":"4","last_reported":1769948829,"current_range_meters":6800,"station_id":"ce4bh3p2rcd13ifvqdp0","pricing_plan_id":"cebpf4jnsgd1na2vs0mg"},{"bike_id":"1b85baa8-054d-452c-96ac-e14de5f87229","system_id":"levelo_inurba_marseille","lat":43.2656,"lon":5.403343,"is_reserved":false,"is_disabled":false,"rental_uris":{"android":"levelo://app?vid=1b85baa8-054d-452c-96ac-e14de5f87229","ios":"levelo://app?vid=1b85baa8-054d-452c-96ac-e14de5f87229"},"vehicle_type_id":"4","last_reported":1769948829,"current_range_meters":6800,"station_id":"ce4bhmp2rcd13ifvqgng","pricing_plan_id":"cebpf4jnsgd1na2vs0mg"},{"bike_id":"8d19955e-e09c-4b47-a6e3-ae607dbe5088","system_id":"levelo_inurba_marseille","lat":43.26253,"lon":5.37429,"is_reserved":false,"is_disabled":true,"rental_uris":{"android":"levelo://app?vid=8d19955e-e09c-4b47-a6e3-ae607dbe5088","ios":"levelo://app?vid=8d19955e-e09c-4b47-a6e3-ae607dbe5088"},"vehicle_type_id":"4","last_reported":1769948829,"current_range_meters":6800,"station_id":"","pricing_plan_id":"cebpf4jnsgd1na2vs0mg"},{"bike_id":"0fe6ea71-2744-457e-8689-d88d9ee6d7d2","system_id":"levelo_inurba_marseille","lat":43.239176,"lon":5.362711,"is_reserved":false,"is_disabled":false,"rental_uris":{"android":"levelo://app?vid=0fe6ea71-2744-457e-8689-d88d9ee6d7d2","ios":"levelo://app?vid=0fe6ea71-2744-457e-8689-d88d9ee6d7d2"},"vehicle_type_id":"4","last_reported":1769948829,"current_range_meters":6800,"station_id":"cpo3342slgdg3j2ifvpg","pricing_plan_id":"cebpf4jnsgd1na2vs0mg"},{"bike_id":"e19dcbee-55f5-4a14-8d7c-7f5193d4d389","system_id":"levelo_inurba_marseille","lat":43.27945,"lon":5.41044,"is_reserved":false,"is_disabled":false,"rental_uris":{"android":"levelo://app?vid=e19dcbee-55f5-4a14-8d7c-7f5193d4d389","ios":"levelo://app?vid=e19dcbee-55f5-4a14-8d7c-7f5193d4d389"},"vehicle_type_id":"4","last_reported":1769948829,"current_range_meters":6800,"station_id":"ce4bhnp2rcd13ifvqh0g","pricing_plan_id":"cebpf4jnsgd1na2vs0mg"},{"bike_id":"28fc3a98-3260-40e1-904c-1884cea4222b","system_id":"levelo_inurba_marseille","lat":43.28279,"lon":5.35084,"is_reserved":false,"is_disabled":false,"rental_uris":{"android":"levelo://app?vid=28fc3a98-3260-40e1-904c-1884cea4222b","ios":"levelo://app?vid=28fc3a98-3260-40e1-904c-1884cea4222b"},"vehicle_type_id":"4","last_reported":1769948829,"current_range_meters":6800,"station_id":"ce4bhbp2rcd13ifvqerg","pricing_plan_id":"cebpf4jnsgd1na2vs0mg"},{"bike_id":"ee39f90f-3222-4732-9961-b784c72f0999","system_id":"levelo_inurba_marseille","lat":43.23197,"lon":5.3555,"is_reserved":false,"is_disabled":false,"rental_uris":{"android":"levelo://app?vid=ee39f90f-3222-4732-9961-b784c72f0999","ios":"levelo://app?vid=ee39f90f-3222-4732-9961-b784c72f0999"},"vehicle_type_id":"4","last_reported":1769948829,"current_range_meters":6800,"station_id":"ce4bhu92rcd13ifvqi70","pricing_plan_id":"cebpf4jnsgd1na2vs0mg"},{"bike_id":"d8d7d7c6-6bfe-4fb0-85f9-b02b994f2a2a","system_id":"levelo_inurba_marseille","lat":43.29225,"lon":5.36057,"is_reserved":false,"is_disabled":true,"rental_uris":{"android":"levelo://app?vid=d8d7d7c6-6bfe-4fb0-85f9-b02b994f2a2a","ios":"levelo://app?vid=d8d7d7c6-6bfe-4fb0-85f9-b02b994f2a2a"},"vehicle_type_id":"4","last_reported":1769948829,"current_range_meters":7200,"station_id":"ce4bhbh2rcd13ifvqeqg","pricing_plan_id":"cebpf4jnsgd1na2vs0mg"},{"bike_id":"667a8115-c025-4bf7-9ff4-f5acd84dd723","system_id":"levelo_inurba_marseille","lat":43.29846,"lon":5.44088,"is_reserved":false,"is_disabled":false,"rental_uris":{"android":"levelo://app?vid=667a8115-c025-4bf7-9ff4-f5acd84dd723","ios":"levelo://app?vid=667a8115-c025-4bf7-9ff4-f5acd84dd723"},"vehicle_type_id":"4","last_reported":1769948829,"current_range_meters":7200,"station_id":"","pricing_plan_id":"cebpf4jnsgd1na2vs0mg"},{"bike_id":"b839137b-0a8e-4fb5-af84-e07b5e0e60bc","system_id":"levelo_inurba_marseille","lat":43.26377,"lon":5.41073,"is_reserved":false,"is_disabled":false,"rental_uris":{"android":"levelo://app?vid=b839137b-0a8e-4fb5-af84-e07b5e0e60bc","ios":"levelo://app?vid=b839137b-0a8e-4fb5-af84-e07b5e0e60bc"},"vehicle_type_id":"4","last_reported":1769948829,"current_range_meters":7200,"station_id":"st_d4e5ca6na9uc73bfl5fg","pricing_plan_id":"cebpf4jnsgd1na2vs0mg"},{"bike_id":"c264a993-cd3d-4651-98f5-66184e7cd94c","system_id":"levelo_inurba_marseille","lat":43.23969,"lon":5.36637,"is_reserved":false,"is_disabled":false,"rental_uris":{"android":"levelo://app?vid=c264a993-cd3d-4651-98f5-66184e7cd94c","ios":"levelo://app?vid=c264a993-cd3d-4651-98f5-66184e7cd94c"},"vehicle_type_id":"4","last_reported":1769948829,"current_range_meters":7200,"station_id":"ce4bhi12rcd13ifvqfp0","pricing_plan_id":"cebpf4jnsgd1na2vs0mg"},{"bike_id":"2c9d9ec4-87d2-4a0f-9375-615bf9c41c46","system_id":"levelo_inurba_marseille","lat":43.26184,"lon":5.37461,"is_reserved":false,"is_disabled":false,"rental_uris":{"android":"levelo://app?vid=2c9d9ec4-87d2-4a0f-9375-615bf9c41c46","ios":"levelo://app?vid=2c9d9ec4-87d2-4a0f-9375-615bf9c41c46"},"vehicle_type_id":"4","last_reported":1769948829,"current_range_meters":7200,"station_id":"ce4bhgp2rcd13ifvqfc0","pricing_plan_id":"cebpf4jnsgd1na2vs0mg"},{"bike_id":"5e1c4385-fefc-40d8-9043-9539df7efdd8","system_id":"levelo_inurba_marseille","lat":43.337444,"lon":5.374475,"is_reserved":false,"is_disabled":false,"rental_uris":{"android":"levelo://app?vid=5e1c4385-fefc-40d8-9043-9539df7efdd8","ios":"levelo://app?vid=5e1c4385-fefc-40d8-9043-9539df7efdd8"},"vehicle_type_id":"4","last_reported":1769948829,"current_range_meters":7200,"station_id":"ce4bhbp2rcd13ifvqesg","pricing_plan_id":"cebpf4jnsgd1na2vs0mg"},{"bike_id":"767dc731-f365-45e9-b7a0-0144ed9ff9a5","system_id":"levelo_inurba_marseille","lat":43.31237,"lon":5.36898,"is_reserved":false,"is_disabled":false,"rental_uris":{"android":"levelo://app?vid=767dc731-f365-45e9-b7a0-0144ed9ff9a5","ios":"levelo://app?vid=767dc731-f365-45e9-b7a0-0144ed9ff9a5"},"vehicle_type_id":"4","last_reported":1769948829,"current_range_meters":7200,"station_id":"ce4bgl92rcd13ifvqbq0","pricing_plan_id":"cebpf4jnsgd1na2vs0mg"},{"bike_id":"e4a5fe76-fff3-4cd4-aadd-454d0a68eb96","system_id":"levelo_inurba_marseille","lat":43.29003,"lon":5.35608,"is_reserved":false,"is_disabled":false,"rental_uris":{"android":"levelo://app?vid=e4a5fe76-fff3-4cd4-aadd-454d0a68eb96","ios":"levelo://app?vid=e4a5fe76-fff3-4cd4-aadd-454d0a68eb96"},"vehicle_type_id":"4","last_reported":1769948829,"current_range_meters":7200,"station_id":"ce4bhb92rcd13ifvqen0","pricing_plan_id":"cebpf4jnsgd1na2vs0mg"},{"bike_id":"26bd2557-3046-4212-82fc-da1fdbd42b2c","system_id":"levelo_inurba_marseille","lat":43.28527,"lon":5.4408,"is_reserved":false,"is_disabled":false,"rental_uris":{"android":"levelo://app?vid=26bd2557-3046-4212-82fc-da1fdbd42b2c","ios":"levelo://app?vid=26bd2557-3046-4212-82fc-da1fdbd42b2c"},"vehicle_type_id":"4","last_reported":1769948829,"current_range_meters":7200,"station_id":"st_d3j3df2ikq2c7380ej80","pricing_plan_id":"cebpf4jnsgd1na2vs0mg"},{"bike_id":"6dbb4a84-c243-4791-922e-d80eaf5646d6","system_id":"levelo_inurba_marseille","lat":43.292343,"lon":5.36073,"is_reserved":false,"is_disabled":false,"rental_uris":{"android":"levelo://app?vid=6dbb4a84-c243-4791-922e-d80eaf5646d6","ios":"levelo://app?vid=6dbb4a84-c243-4791-922e-d80eaf5646d6"},"vehicle_type_id":"4","last_reported":1769948829,"current_range_meters":7200,"station_id":"ce4bhb12rcd13ifvqel0","pricing_plan_id":"cebpf4jnsgd1na2vs0mg"},{"bike_id":"f74d4c3d-96e9-4afd-9bc9-921171cd5c0f","system_id":"levelo_inurba_marseille","lat":43.27826,"lon":5.40697,"is_reserved":false,"is_disabled":false,"rental_uris":{"android":"levelo://app?vid=f74d4c3d-96e9-4afd-9bc9-921171cd5c0f","ios":"levelo://app?vid=f74d4c3d-96e9-4afd-9bc9-921171cd5c0f"},"vehicle_type_id":"4","last_reported":1769948829,"current_range_meters":7200,"station_id":"ce4bhnh2rcd13ifvqgtg","pricing_plan_id":"cebpf4jnsgd1na2vs0mg"},{"bike_id":"fdb152c1-6e47-4a4a-a2d9-3ab5de199a7b","system_id":"levelo_inurba_marseille","lat":43.258713,"lon":5.399111,"is_reserved":false,"is_disabled":false,"rental_uris":{"android":"levelo://app?vid=fdb152c1-6e47-4a4a-a2d9-3ab5de199a7b","ios":"levelo://app?vid=fdb152c1-6e47-4a4a-a2d9-3ab5de199a7b"},"vehicle_type_id":"4","last_reported":1769948829,"current_range_meters":7200,"station_id":"ce4bhl92rcd13ifvqghg","pricing_plan_id":"cebpf4jnsgd1na2vs0mg"},{"bike_id":"bd3e9f4a-b909-4049-a15b-7cd6caee90b2","system_id":"levelo_inurba_marseille","lat":43.30164,"lon":5.38075,"is_reserved":false,"is_disabled":false,"rental_uris":{"android":"levelo://app?vid=bd3e9f4a-b909-4049-a15b-7cd6caee90b2","ios":"levelo://app?vid=bd3e9f4a-b909-4049-a15b-7cd6caee90b2"},"vehicle_type_id":"4","last_reported":1769948829,"current_range_meters":7200,"station_id":"ce4bgjp2rcd13ifvqbh0","pricing_plan_id":"cebpf4jnsgd1na2vs0mg"},{"bike_id":"0b595329-88a5-4dab-8a2c-b70bbda22e84","system_id":"levelo_inurba_marseille","lat":43.27957,"lon":5.41043,"is_reserved":false,"is_disabled":false,"rental_uris":{"android":"levelo://app?vid=0b595329-88a5-4dab-8a2c-b70bbda22e84","ios":"levelo://app?vid=0b595329-88a5-4dab-8a2c-b70bbda22e84"},"vehicle_type_id":"4","last_reported":1769948829,"current_range_meters":7200,"station_id":"ce4bhnp2rcd13ifvqh0g","pricing_plan_id":"cebpf4jnsgd1na2vs0mg"},{"bike_id":"5b4c0c7a-c0c9-4273-96c2-faded5f9cc26","system_id":"levelo_inurba_marseille","lat":43.27939,"lon":5.4103,"is_reserved":false,"is_disabled":false,"rental_uris":{"android":"levelo://app?vid=5b4c0c7a-c0c9-4273-96c2-faded5f9cc26","ios":"levelo://app?vid=5b4c0c7a-c0c9-4273-96c2-faded5f9cc26"},"vehicle_type_id":"4","last_reported":1769948829,"current_range_meters":8000,"station_id":"ce4bhnp2rcd13ifvqh0g","pricing_plan_id":"cebpf4jnsgd1na2vs0mg"},{"bike_id":"b4fbeb64-1fb9-4178-ae15-4108561043c9","system_id":"levelo_inurba_marseille","lat":43.25122,"lon":5.39448,"is_reserved":false,"is_disabled":false,"rental_uris":{"android":"levelo://app?vid=b4fbeb64-1fb9-4178-ae15-4108561043c9","ios":"levelo://app?vid=b4fbeb64-1fb9-4178-ae15-4108561043c9"},"vehicle_type_id":"4","last_reported":1769948829,"current_range_meters":8000,"station_id":"","pricing_plan_id":"cebpf4jnsgd1na2vs0mg"},{"bike_id":"eae001be-3b34-469f-b5f5-7615da95a4ed","system_id":"levelo_inurba_marseille","lat":43.27817,"lon":5.40689,"is_reserved":false,"is_disabled":false,"rental_uris":{"android":"levelo://app?vid=eae001be-3b34-469f-b5f5-7615da95a4ed","ios":"levelo://app?vid=eae001be-3b34-469f-b5f5-7615da95a4ed"},"vehicle_type_id":"4","last_reported":1769948829,"current_range_meters":8000,"station_id":"ce4bhnh2rcd13ifvqgtg","pricing_plan_id":"cebpf4jnsgd1na2vs0mg"},{"bike_id":"87a354e2-aacd-4ec9-ade6-6f6c8860ce28","system_id":"levelo_inurba_marseille","lat":43.280308,"lon":5.369444,"is_reserved":false,"is_disabled":false,"rental_uris":{"android":"levelo://app?vid=87a354e2-aacd-4ec9-ade6-6f6c8860ce28","ios":"levelo://app?vid=87a354e2-aacd-4ec9-ade6-6f6c8860ce28"},"vehicle_type_id":"4","last_reported":1769948829,"current_range_meters":8000,"station_id":"ce4bha12rcd13ifvqef0","pricing_plan_id":"cebpf4jnsgd1na2vs0mg"},{"bike_id":"a825a34e-c66c-4578-9dd4-68f63a09f21e","system_id":"levelo_inurba_marseille","lat":43.27369,"lon":5.36244,"is_reserved":false,"is_disabled":false,"rental_uris":{"android":"levelo://app?vid=a825a34e-c66c-4578-9dd4-68f63a09f21e","ios":"levelo://app?vid=a825a34e-c66c-4578-9dd4-68f63a09f21e"},"vehicle_type_id":"4","last_reported":1769948829,"current_range_meters":8000,"station_id":"ce4bhbh2rcd13ifvqeo0","pricing_plan_id":"cebpf4jnsgd1na2vs0mg"},{"bike_id":"6f8455de-cdcb-4115-8f9f-1a1c57d7cc8a","system_id":"levelo_inurba_marseille","lat":43.24995,"lon":5.38946,"is_reserved":false,"is_disabled":false,"rental_uris":{"android":"levelo://app?vid=6f8455de-cdcb-4115-8f9f-1a1c57d7cc8a","ios":"levelo://app?vid=6f8455de-cdcb-4115-8f9f-1a1c57d7cc8a"},"vehicle_type_id":"4","last_reported":1769948829,"current_range_meters":8000,"station_id":"ce4bhgp2rcd13ifvqfd0","pricing_plan_id":"cebpf4jnsgd1na2vs0mg"},{"bike_id":"7538f3bc-c504-457b-8867-886447e19dda","system_id":"levelo_inurba_marseille","lat":43.28076,"lon":5.36956,"is_reserved":false,"is_disabled":false,"rental_uris":{"android":"levelo://app?vid=7538f3bc-c504-457b-8867-886447e19dda","ios":"levelo://app?vid=7538f3bc-c504-457b-8867-886447e19dda"},"vehicle_type_id":"4","last_reported":1769948829,"current_range_meters":8000,"station_id":"ce4bha12rcd13ifvqef0","pricing_plan_id":"cebpf4jnsgd1na2vs0mg"},{"bike_id":"d431d2dc-fe64-4d55-be3e-18b6291747e9","system_id":"levelo_inurba_marseille","lat":43.23062,"lon":5.35487,"is_reserved":false,"is_disabled":false,"rental_uris":{"android":"levelo://app?vid=d431d2dc-fe64-4d55-be3e-18b6291747e9","ios":"levelo://app?vid=d431d2dc-fe64-4d55-be3e-18b6291747e9"},"vehicle_type_id":"4","last_reported":1769948829,"current_range_meters":8000,"station_id":"cpo3342slgdg3j2ifvpg","pricing_plan_id":"cebpf4jnsgd1na2vs0mg"},{"bike_id":"aa6e56cb-0634-45e8-8f98-9ee85bfc502c","system_id":"levelo_inurba_marseille","lat":43.3061,"lon":5.37224,"is_reserved":false,"is_disabled":false,"rental_uris":{"android":"levelo://app?vid=aa6e56cb-0634-45e8-8f98-9ee85bfc502c","ios":"levelo://app?vid=aa6e56cb-0634-45e8-8f98-9ee85bfc502c"},"vehicle_type_id":"4","last_reported":1769948829,"current_range_meters":8000,"station_id":"ce4bgqh2rcd13ifvqc4g","pricing_plan_id":"cebpf4jnsgd1na2vs0mg"},{"bike_id":"93e60425-8aae-4f4b-b447-57ef8147db67","system_id":"levelo_inurba_marseille","lat":43.28488,"lon":5.48414,"is_reserved":false,"is_disabled":false,"rental_uris":{"android":"levelo://app?vid=93e60425-8aae-4f4b-b447-57ef8147db67","ios":"levelo://app?vid=93e60425-8aae-4f4b-b447-57ef8147db67"},"vehicle_type_id":"4","last_reported":1769948829,"current_range_meters":8000,"station_id":"","pricing_plan_id":"cebpf4jnsgd1na2vs0mg"},{"bike_id":"fd887aca-98e1-464f-84ac-e7817b808a75","system_id":"levelo_inurba_marseille","lat":43.24394,"lon":5.37061,"is_reserved":false,"is_disabled":false,"rental_uris":{"android":"levelo://app?vid=fd887aca-98e1-464f-84ac-e7817b808a75","ios":"levelo://app?vid=fd887aca-98e1-464f-84ac-e7817b808a75"},"vehicle_type_id":"4","last_reported":1769948829,"current_range_meters":8000,"station_id":"ce4bhhh2rcd13ifvqfk0","pricing_plan_id":"cebpf4jnsgd1na2vs0mg"},{"bike_id":"cd7b7bdf-4c05-4832-ae9c-e7c59ccfd7c7","system_id":"levelo_inurba_marseille","lat":43.24387,"lon":5.37054,"is_reserved":false,"is_disabled":false,"rental_uris":{"android":"levelo://app?vid=cd7b7bdf-4c05-4832-ae9c-e7c59ccfd7c7","ios":"levelo://app?vid=cd7b7bdf-4c05-4832-ae9c-e7c59ccfd7c7"},"vehicle_type_id":"4","last_reported":1769948829,"current_range_meters":8000,"station_id":"ce4bhhh2rcd13ifvqfk0","pricing_plan_id":"cebpf4jnsgd1na2vs0mg"},{"bike_id":"a9976113-461f-4068-baa6-28ae0013e332","system_id":"levelo_inurba_marseille","lat":43.2535,"lon":5.42162,"is_reserved":false,"is_disabled":false,"rental_uris":{"android":"levelo://app?vid=a9976113-461f-4068-baa6-28ae0013e332","ios":"levelo://app?vid=a9976113-461f-4068-baa6-28ae0013e332"},"vehicle_type_id":"4","last_reported":1769948829,"current_range_meters":8000,"station_id":"st_d2m65c5bi1j21697t3ng","pricing_plan_id":"cebpf4jnsgd1na2vs0mg"},{"bike_id":"5dbd8b34-4be5-43ee-9493-728430020619","system_id":"levelo_inurba_marseille","lat":43.30134,"lon":5.38078,"is_reserved":false,"is_disabled":false,"rental_uris":{"android":"levelo://app?vid=5dbd8b34-4be5-43ee-9493-728430020619","ios":"levelo://app?vid=5dbd8b34-4be5-43ee-9493-728430020619"},"vehicle_type_id":"4","last_reported":1769948829,"current_range_meters":8000,"station_id":"ce4bgjp2rcd13ifvqbh0","pricing_plan_id":"cebpf4jnsgd1na2vs0mg"},{"bike_id":"a7920bb5-6aee-4e7e-9ec2-959b996c7fb7","system_id":"levelo_inurba_marseille","lat":43.28616,"lon":5.35102,"is_reserved":false,"is_disabled":false,"rental_uris":{"android":"levelo://app?vid=a7920bb5-6aee-4e7e-9ec2-959b996c7fb7","ios":"levelo://app?vid=a7920bb5-6aee-4e7e-9ec2-959b996c7fb7"},"vehicle_type_id":"4","last_reported":1769948829,"current_range_meters":8000,"station_id":"ce4bhch2rcd13ifvqeug","pricing_plan_id":"cebpf4jnsgd1na2vs0mg"},{"bike_id":"fb24d3d1-fd60-4775-b723-157c13e8fff0","system_id":"levelo_inurba_marseille","lat":43.25512,"lon":5.37662,"is_reserved":false,"is_disabled":false,"rental_uris":{"android":"levelo://app?vid=fb24d3d1-fd60-4775-b723-157c13e8fff0","ios":"levelo://app?vid=fb24d3d1-fd60-4775-b723-157c13e8fff0"},"vehicle_type_id":"4","last_reported":1769948829,"current_range_meters":8000,"station_id":"ce4bhh12rcd13ifvqff0","pricing_plan_id":"cebpf4jnsgd1na2vs0mg"},{"bike_id":"75e7e0f4-e18b-4bc3-90c8-b9bce55601cb","system_id":"levelo_inurba_marseille","lat":43.25355,"lon":5.4217,"is_reserved":false,"is_disabled":false,"rental_uris":{"android":"levelo://app?vid=75e7e0f4-e18b-4bc3-90c8-b9bce55601cb","ios":"levelo://app?vid=75e7e0f4-e18b-4bc3-90c8-b9bce55601cb"},"vehicle_type_id":"4","last_reported":1769948829,"current_range_meters":8000,"station_id":"st_d2m65c5bi1j21697t3ng","pricing_plan_id":"cebpf4jnsgd1na2vs0mg"},{"bike_id":"1c7cbc0d-5ae5-4855-986e-78375efc5518","system_id":"levelo_inurba_marseille","lat":43.29974,"lon":5.38489,"is_reserved":false,"is_disabled":false,"rental_uris":{"android":"levelo://app?vid=1c7cbc0d-5ae5-4855-986e-78375efc5518","ios":"levelo://app?vid=1c7cbc0d-5ae5-4855-986e-78375efc5518"},"vehicle_type_id":"4","last_reported":1769948829,"current_range_meters":8000,"station_id":"ce4bgj92rcd13ifvqbd0","pricing_plan_id":"cebpf4jnsgd1na2vs0mg"},{"bike_id":"75cda65d-696f-4f90-b8cd-a8680ade9131","system_id":"levelo_inurba_marseille","lat":43.29255,"lon":5.40934,"is_reserved":false,"is_disabled":false,"rental_uris":{"android":"levelo://app?vid=75cda65d-696f-4f90-b8cd-a8680ade9131","ios":"levelo://app?vid=75cda65d-696f-4f90-b8cd-a8680ade9131"},"vehicle_type_id":"4","last_reported":1769948829,"current_range_meters":8000,"station_id":"ce4bh192rcd13ifvqdc0","pricing_plan_id":"cebpf4jnsgd1na2vs0mg"},{"bike_id":"ce199291-65ae-4f98-9155-258d100ec324","system_id":"levelo_inurba_marseille","lat":43.29552,"lon":5.42294,"is_reserved":false,"is_disabled":false,"rental_uris":{"android":"levelo://app?vid=ce199291-65ae-4f98-9155-258d100ec324","ios":"levelo://app?vid=ce199291-65ae-4f98-9155-258d100ec324"},"vehicle_type_id":"4","last_reported":1769948829,"current_range_meters":8400,"station_id":"ce4bhph2rcd13ifvqhdg","pricing_plan_id":"cebpf4jnsgd1na2vs0mg"},{"bike_id":"f1afd73d-ec70-4dba-ac5d-df0bb8cc8cb8","system_id":"levelo_inurba_marseille","lat":43.24664,"lon":5.43126,"is_reserved":false,"is_disabled":false,"rental_uris":{"android":"levelo://app?vid=f1afd73d-ec70-4dba-ac5d-df0bb8cc8cb8","ios":"levelo://app?vid=f1afd73d-ec70-4dba-ac5d-df0bb8cc8cb8"},"vehicle_type_id":"4","last_reported":1769948829,"current_range_meters":8400,"station_id":"st_d2m6c4gdas8pm72e190g","pricing_plan_id":"cebpf4jnsgd1na2vs0mg"},{"bike_id":"0a1300ad-2f14-46b7-8956-d36a4a430b42","system_id":"levelo_inurba_marseille","lat":43.24815,"lon":5.3744,"is_reserved":false,"is_disabled":false,"rental_uris":{"android":"levelo://app?vid=0a1300ad-2f14-46b7-8956-d36a4a430b42","ios":"levelo://app?vid=0a1300ad-2f14-46b7-8956-d36a4a430b42"},"vehicle_type_id":"4","last_reported":1769948829,"current_range_meters":8400,"station_id":"ce4bhgh2rcd13ifvqfb0","pricing_plan_id":"cebpf4jnsgd1na2vs0mg"},{"bike_id":"a5fa5eb4-dba4-4657-ad87-40acdd8b2f31","system_id":"levelo_inurba_marseille","lat":43.31053,"lon":5.42451,"is_reserved":false,"is_disabled":false,"rental_uris":{"android":"levelo://app?vid=a5fa5eb4-dba4-4657-ad87-40acdd8b2f31","ios":"levelo://app?vid=a5fa5eb4-dba4-4657-ad87-40acdd8b2f31"},"vehicle_type_id":"4","last_reported":1769948829,"current_range_meters":8400,"station_id":"ce4bhp92rcd13ifvqhag","pricing_plan_id":"cebpf4jnsgd1na2vs0mg"},{"bike_id":"33073528-1e22-401a-900c-0ca191a8c4cf","system_id":"levelo_inurba_marseille","lat":43.22561,"lon":5.41621,"is_reserved":false,"is_disabled":false,"rental_uris":{"android":"levelo://app?vid=33073528-1e22-401a-900c-0ca191a8c4cf","ios":"levelo://app?vid=33073528-1e22-401a-900c-0ca191a8c4cf"},"vehicle_type_id":"4","last_reported":1769948829,"current_range_meters":8400,"station_id":"st_d2o4gvlbi1j2169b742g","pricing_plan_id":"cebpf4jnsgd1na2vs0mg"},{"bike_id":"d2ee53f1-49b6-44a6-a171-d364ff8162cf","system_id":"levelo_inurba_marseille","lat":43.33367,"lon":5.43112,"is_reserved":false,"is_disabled":false,"rental_uris":{"android":"levelo://app?vid=d2ee53f1-49b6-44a6-a171-d364ff8162cf","ios":"levelo://app?vid=d2ee53f1-49b6-44a6-a171-d364ff8162cf"},"vehicle_type_id":"4","last_reported":1769948829,"current_range_meters":8400,"station_id":"","pricing_plan_id":"cebpf4jnsgd1na2vs0mg"},{"bike_id":"8a9caeca-dfdf-438d-b0bf-186e18fcd4d1","system_id":"levelo_inurba_marseille","lat":43.30792,"lon":5.37655,"is_reserved":false,"is_disabled":false,"rental_uris":{"android":"levelo://app?vid=8a9caeca-dfdf-438d-b0bf-186e18fcd4d1","ios":"levelo://app?vid=8a9caeca-dfdf-438d-b0bf-186e18fcd4d1"},"vehicle_type_id":"4","last_reported":1769948829,"current_range_meters":8400,"station_id":"ce4bgv92rcd13ifvqcq0","pricing_plan_id":"cebpf4jnsgd1na2vs0mg"},{"bike_id":"cb16a0fb-a0f9-4601-ab2a-91a6d88760fa","system_id":"levelo_inurba_marseille","lat":43.26561,"lon":5.4033,"is_reserved":false,"is_disabled":false,"rental_uris":{"android":"levelo://app?vid=cb16a0fb-a0f9-4601-ab2a-91a6d88760fa","ios":"levelo://app?vid=cb16a0fb-a0f9-4601-ab2a-91a6d88760fa"},"vehicle_type_id":"4","last_reported":1769948829,"current_range_meters":8400,"station_id":"ce4bhmp2rcd13ifvqgng","pricing_plan_id":"cebpf4jnsgd1na2vs0mg"},{"bike_id":"51487434-2c5b-44ec-b6f1-b2d802fd5baf","system_id":"levelo_inurba_marseille","lat":43.295842,"lon":5.367472,"is_reserved":false,"is_disabled":false,"rental_uris":{"android":"levelo://app?vid=51487434-2c5b-44ec-b6f1-b2d802fd5baf","ios":"levelo://app?vid=51487434-2c5b-44ec-b6f1-b2d802fd5baf"},"vehicle_type_id":"4","last_reported":1769948829,"current_range_meters":8400,"station_id":"ce4bgph2rcd13ifvqc2g","pricing_plan_id":"cebpf4jnsgd1na2vs0mg"},{"bike_id":"004df261-4f08-4a49-a173-244244948504","system_id":"levelo_inurba_marseille","lat":43.29765,"lon":5.37762,"is_reserved":false,"is_disabled":false,"rental_uris":{"android":"levelo://app?vid=004df261-4f08-4a49-a173-244244948504","ios":"levelo://app?vid=004df261-4f08-4a49-a173-244244948504"},"vehicle_type_id":"4","last_reported":1769948829,"current_range_meters":8400,"station_id":"","pricing_plan_id":"cebpf4jnsgd1na2vs0mg"},{"bike_id":"2cfe0b76-7fe5-4fd9-b3a3-329506bfba9f","system_id":"levelo_inurba_marseille","lat":43.26586,"lon":5.39008,"is_reserved":false,"is_disabled":false,"rental_uris":{"android":"levelo://app?vid=2cfe0b76-7fe5-4fd9-b3a3-329506bfba9f","ios":"levelo://app?vid=2cfe0b76-7fe5-4fd9-b3a3-329506bfba9f"},"vehicle_type_id":"4","last_reported":1769948829,"current_range_meters":8400,"station_id":"ce4bhe12rcd13ifvqf30","pricing_plan_id":"cebpf4jnsgd1na2vs0mg"},{"bike_id":"4ad2da66-d00a-4006-af72-87c62567c87f","system_id":"levelo_inurba_marseille","lat":43.310331,"lon":5.386004,"is_reserved":false,"is_disabled":false,"rental_uris":{"android":"levelo://app?vid=4ad2da66-d00a-4006-af72-87c62567c87f","ios":"levelo://app?vid=4ad2da66-d00a-4006-af72-87c62567c87f"},"vehicle_type_id":"4","last_reported":1769948829,"current_range_meters":8400,"station_id":"","pricing_plan_id":"cebpf4jnsgd1na2vs0mg"},{"bike_id":"3b3a202d-165e-435b-bccc-86ec2425e7db","system_id":"levelo_inurba_marseille","lat":43.24474,"lon":5.42534,"is_reserved":false,"is_disabled":false,"rental_uris":{"android":"levelo://app?vid=3b3a202d-165e-435b-bccc-86ec2425e7db","ios":"levelo://app?vid=3b3a202d-165e-435b-bccc-86ec2425e7db"},"vehicle_type_id":"4","last_reported":1769948829,"current_range_meters":8400,"station_id":"st_d4a3vfp97mjs738cd8kg","pricing_plan_id":"cebpf4jnsgd1na2vs0mg"},{"bike_id":"2b052603-1775-4258-80ad-ae63b6286ef5","system_id":"levelo_inurba_marseille","lat":43.29794,"lon":5.35991,"is_reserved":false,"is_disabled":true,"rental_uris":{"android":"levelo://app?vid=2b052603-1775-4258-80ad-ae63b6286ef5","ios":"levelo://app?vid=2b052603-1775-4258-80ad-ae63b6286ef5"},"vehicle_type_id":"4","last_reported":1769948829,"current_range_meters":8400,"station_id":"","pricing_plan_id":"cebpf4jnsgd1na2vs0mg"},{"bike_id":"2e792e04-c2a5-4397-9a2d-1349c47495fb","system_id":"levelo_inurba_marseille","lat":43.2417,"lon":5.36399,"is_reserved":false,"is_disabled":false,"rental_uris":{"android":"levelo://app?vid=2e792e04-c2a5-4397-9a2d-1349c47495fb","ios":"levelo://app?vid=2e792e04-c2a5-4397-9a2d-1349c47495fb"},"vehicle_type_id":"4","last_reported":1769948829,"current_range_meters":8400,"station_id":"cpo36qri1sfpv3e86is0","pricing_plan_id":"cebpf4jnsgd1na2vs0mg"},{"bike_id":"6632b7eb-39fd-4ac6-ab18-a3a8fd79732f","system_id":"levelo_inurba_marseille","lat":43.30874,"lon":5.37146,"is_reserved":false,"is_disabled":false,"rental_uris":{"android":"levelo://app?vid=6632b7eb-39fd-4ac6-ab18-a3a8fd79732f","ios":"levelo://app?vid=6632b7eb-39fd-4ac6-ab18-a3a8fd79732f"},"vehicle_type_id":"4","last_reported":1769948829,"current_range_meters":8400,"station_id":"ce4bguh2rcd13ifvqckg","pricing_plan_id":"cebpf4jnsgd1na2vs0mg"},{"bike_id":"0529e12c-4e1f-43ba-b28c-b55b260e3e01","system_id":"levelo_inurba_marseille","lat":43.21755,"lon":5.34603,"is_reserved":false,"is_disabled":false,"rental_uris":{"android":"levelo://app?vid=0529e12c-4e1f-43ba-b28c-b55b260e3e01","ios":"levelo://app?vid=0529e12c-4e1f-43ba-b28c-b55b260e3e01"},"vehicle_type_id":"4","last_reported":1769948829,"current_range_meters":8400,"station_id":"st_cvj6r9ubvosntc0bgbag","pricing_plan_id":"cebpf4jnsgd1na2vs0mg"},{"bike_id":"58982c61-2f00-4e02-b620-223b4d372a1d","system_id":"levelo_inurba_marseille","lat":43.255755,"lon":5.38236,"is_reserved":false,"is_disabled":false,"rental_uris":{"android":"levelo://app?vid=58982c61-2f00-4e02-b620-223b4d372a1d","ios":"levelo://app?vid=58982c61-2f00-4e02-b620-223b4d372a1d"},"vehicle_type_id":"4","last_reported":1769948829,"current_range_meters":8400,"station_id":"ce4bhih2rcd13ifvqfs0","pricing_plan_id":"cebpf4jnsgd1na2vs0mg"},{"bike_id":"a5d517ba-f734-4f11-94b9-bd6939942f75","system_id":"levelo_inurba_marseille","lat":43.29526,"lon":5.37477,"is_reserved":false,"is_disabled":false,"rental_uris":{"android":"levelo://app?vid=a5d517ba-f734-4f11-94b9-bd6939942f75","ios":"levelo://app?vid=a5d517ba-f734-4f11-94b9-bd6939942f75"},"vehicle_type_id":"4","last_reported":1769948829,"current_range_meters":8800,"station_id":"ce4bgkp2rcd13ifvqbmg","pricing_plan_id":"cebpf4jnsgd1na2vs0mg"},{"bike_id":"dc3a1b63-0f11-4fec-b9bb-aabba7d597bf","system_id":"levelo_inurba_marseille","lat":43.23179,"lon":5.39996,"is_reserved":false,"is_disabled":false,"rental_uris":{"android":"levelo://app?vid=dc3a1b63-0f11-4fec-b9bb-aabba7d597bf","ios":"levelo://app?vid=dc3a1b63-0f11-4fec-b9bb-aabba7d597bf"},"vehicle_type_id":"4","last_reported":1769948829,"current_range_meters":8800,"station_id":"ce4bhn12rcd13ifvqgqg","pricing_plan_id":"cebpf4jnsgd1na2vs0mg"},{"bike_id":"b56c3648-8b3b-4f14-a640-cc11d18e2a7d","system_id":"levelo_inurba_marseille","lat":43.25732,"lon":5.41121,"is_reserved":false,"is_disabled":false,"rental_uris":{"android":"levelo://app?vid=b56c3648-8b3b-4f14-a640-cc11d18e2a7d","ios":"levelo://app?vid=b56c3648-8b3b-4f14-a640-cc11d18e2a7d"},"vehicle_type_id":"4","last_reported":1769948829,"current_range_meters":8800,"station_id":"ce4bhkp2rcd13ifvqgd0","pricing_plan_id":"cebpf4jnsgd1na2vs0mg"},{"bike_id":"ab6c83e0-5dad-4068-933a-4059e6467edb","system_id":"levelo_inurba_marseille","lat":43.2658,"lon":5.4034,"is_reserved":false,"is_disabled":false,"rental_uris":{"android":"levelo://app?vid=ab6c83e0-5dad-4068-933a-4059e6467edb","ios":"levelo://app?vid=ab6c83e0-5dad-4068-933a-4059e6467edb"},"vehicle_type_id":"4","last_reported":1769948829,"current_range_meters":8800,"station_id":"ce4bhmp2rcd13ifvqgng","pricing_plan_id":"cebpf4jnsgd1na2vs0mg"},{"bike_id":"b00753f6-9e43-40ef-9959-628446071746","system_id":"levelo_inurba_marseille","lat":43.27815,"lon":5.40711,"is_reserved":false,"is_disabled":true,"rental_uris":{"android":"levelo://app?vid=b00753f6-9e43-40ef-9959-628446071746","ios":"levelo://app?vid=b00753f6-9e43-40ef-9959-628446071746"},"vehicle_type_id":"4","last_reported":1769948829,"current_range_meters":8800,"station_id":"ce4bhnh2rcd13ifvqgtg","pricing_plan_id":"cebpf4jnsgd1na2vs0mg"},{"bike_id":"4c50b102-00aa-40e2-83bd-5e90d2e54b17","system_id":"levelo_inurba_marseille","lat":43.27998,"lon":5.40001,"is_reserved":false,"is_disabled":false,"rental_uris":{"android":"levelo://app?vid=4c50b102-00aa-40e2-83bd-5e90d2e54b17","ios":"levelo://app?vid=4c50b102-00aa-40e2-83bd-5e90d2e54b17"},"vehicle_type_id":"4","last_reported":1769948829,"current_range_meters":8800,"station_id":"ce4bho92rcd13ifvqh4g","pricing_plan_id":"cebpf4jnsgd1na2vs0mg"},{"bike_id":"27dcb8fb-bc37-437e-8d8b-62fa0efb4197","system_id":"levelo_inurba_marseille","lat":43.28417,"lon":5.34972,"is_reserved":false,"is_disabled":false,"rental_uris":{"android":"levelo://app?vid=27dcb8fb-bc37-437e-8d8b-62fa0efb4197","ios":"levelo://app?vid=27dcb8fb-bc37-437e-8d8b-62fa0efb4197"},"vehicle_type_id":"4","last_reported":1769948829,"current_range_meters":8800,"station_id":"ce4bhbh2rcd13ifvqepg","pricing_plan_id":"cebpf4jnsgd1na2vs0mg"},{"bike_id":"bafe06f4-691a-42ad-b544-2647048d76df","system_id":"levelo_inurba_marseille","lat":43.23029,"lon":5.35501,"is_reserved":false,"is_disabled":false,"rental_uris":{"android":"levelo://app?vid=bafe06f4-691a-42ad-b544-2647048d76df","ios":"levelo://app?vid=bafe06f4-691a-42ad-b544-2647048d76df"},"vehicle_type_id":"4","last_reported":1769948829,"current_range_meters":8800,"station_id":"cpo3342slgdg3j2ifvpg","pricing_plan_id":"cebpf4jnsgd1na2vs0mg"},{"bike_id":"f152d78c-f2e0-4c77-8d6e-dd0072285ace","system_id":"levelo_inurba_marseille","lat":43.24933,"lon":5.40515,"is_reserved":false,"is_disabled":false,"rental_uris":{"android":"levelo://app?vid=f152d78c-f2e0-4c77-8d6e-dd0072285ace","ios":"levelo://app?vid=f152d78c-f2e0-4c77-8d6e-dd0072285ace"},"vehicle_type_id":"4","last_reported":1769948829,"current_range_meters":8800,"station_id":"st_d2ngiaodas8pm72gd1h0","pricing_plan_id":"cebpf4jnsgd1na2vs0mg"},{"bike_id":"136c853a-1940-4c7d-bb4b-16c89af8a578","system_id":"levelo_inurba_marseille","lat":43.25014,"lon":5.38957,"is_reserved":false,"is_disabled":false,"rental_uris":{"android":"levelo://app?vid=136c853a-1940-4c7d-bb4b-16c89af8a578","ios":"levelo://app?vid=136c853a-1940-4c7d-bb4b-16c89af8a578"},"vehicle_type_id":"4","last_reported":1769948829,"current_range_meters":8800,"station_id":"ce4bhgp2rcd13ifvqfd0","pricing_plan_id":"cebpf4jnsgd1na2vs0mg"},{"bike_id":"8e505e74-0544-4309-bafa-aae3d897f637","system_id":"levelo_inurba_marseille","lat":43.28274,"lon":5.35068,"is_reserved":false,"is_disabled":false,"rental_uris":{"android":"levelo://app?vid=8e505e74-0544-4309-bafa-aae3d897f637","ios":"levelo://app?vid=8e505e74-0544-4309-bafa-aae3d897f637"},"vehicle_type_id":"4","last_reported":1769948829,"current_range_meters":8800,"station_id":"ce4bhbp2rcd13ifvqerg","pricing_plan_id":"cebpf4jnsgd1na2vs0mg"},{"bike_id":"988398a3-7ea1-401c-9290-5cadcd4b0590","system_id":"levelo_inurba_marseille","lat":43.24999,"lon":5.38966,"is_reserved":false,"is_disabled":false,"rental_uris":{"android":"levelo://app?vid=988398a3-7ea1-401c-9290-5cadcd4b0590","ios":"levelo://app?vid=988398a3-7ea1-401c-9290-5cadcd4b0590"},"vehicle_type_id":"4","last_reported":1769948829,"current_range_meters":8800,"station_id":"ce4bhgp2rcd13ifvqfd0","pricing_plan_id":"cebpf4jnsgd1na2vs0mg"},{"bike_id":"d6fd3dc6-4a1a-42ff-a99a-2a4b414e13ca","system_id":"levelo_inurba_marseille","lat":43.25333,"lon":5.42146,"is_reserved":false,"is_disabled":false,"rental_uris":{"android":"levelo://app?vid=d6fd3dc6-4a1a-42ff-a99a-2a4b414e13ca","ios":"levelo://app?vid=d6fd3dc6-4a1a-42ff-a99a-2a4b414e13ca"},"vehicle_type_id":"4","last_reported":1769948829,"current_range_meters":8800,"station_id":"st_d2m65c5bi1j21697t3ng","pricing_plan_id":"cebpf4jnsgd1na2vs0mg"},{"bike_id":"2f4b03ff-6994-4226-a583-6c5a84583b0a","system_id":"levelo_inurba_marseille","lat":43.30197,"lon":5.38049,"is_reserved":false,"is_disabled":false,"rental_uris":{"android":"levelo://app?vid=2f4b03ff-6994-4226-a583-6c5a84583b0a","ios":"levelo://app?vid=2f4b03ff-6994-4226-a583-6c5a84583b0a"},"vehicle_type_id":"4","last_reported":1769948829,"current_range_meters":9200,"station_id":"","pricing_plan_id":"cebpf4jnsgd1na2vs0mg"},{"bike_id":"d1a4c207-5791-4015-8c48-e9fcda8077be","system_id":"levelo_inurba_marseille","lat":43.33174,"lon":5.37698,"is_reserved":false,"is_disabled":false,"rental_uris":{"android":"levelo://app?vid=d1a4c207-5791-4015-8c48-e9fcda8077be","ios":"levelo://app?vid=d1a4c207-5791-4015-8c48-e9fcda8077be"},"vehicle_type_id":"4","last_reported":1769948829,"current_range_meters":9200,"station_id":"st_d46cu089ee8s73dldbu0","pricing_plan_id":"cebpf4jnsgd1na2vs0mg"},{"bike_id":"915f07f8-71e8-442d-9fd7-f7e4f42ace83","system_id":"levelo_inurba_marseille","lat":43.23787,"lon":5.36638,"is_reserved":false,"is_disabled":false,"rental_uris":{"android":"levelo://app?vid=915f07f8-71e8-442d-9fd7-f7e4f42ace83","ios":"levelo://app?vid=915f07f8-71e8-442d-9fd7-f7e4f42ace83"},"vehicle_type_id":"4","last_reported":1769948829,"current_range_meters":9200,"station_id":"st_d3nk18o9ro0c73en2l3g","pricing_plan_id":"cebpf4jnsgd1na2vs0mg"},{"bike_id":"d08a7e52-4178-491a-8e13-f27fd964c0b5","system_id":"levelo_inurba_marseille","lat":43.29015,"lon":5.35632,"is_reserved":false,"is_disabled":false,"rental_uris":{"android":"levelo://app?vid=d08a7e52-4178-491a-8e13-f27fd964c0b5","ios":"levelo://app?vid=d08a7e52-4178-491a-8e13-f27fd964c0b5"},"vehicle_type_id":"4","last_reported":1769948829,"current_range_meters":9200,"station_id":"ce4bhb92rcd13ifvqen0","pricing_plan_id":"cebpf4jnsgd1na2vs0mg"},{"bike_id":"aee55d88-d26d-4627-9e7c-8992b0fd22f2","system_id":"levelo_inurba_marseille","lat":43.26384,"lon":5.41078,"is_reserved":false,"is_disabled":false,"rental_uris":{"android":"levelo://app?vid=aee55d88-d26d-4627-9e7c-8992b0fd22f2","ios":"levelo://app?vid=aee55d88-d26d-4627-9e7c-8992b0fd22f2"},"vehicle_type_id":"4","last_reported":1769948829,"current_range_meters":9200,"station_id":"st_d4e5ca6na9uc73bfl5fg","pricing_plan_id":"cebpf4jnsgd1na2vs0mg"},{"bike_id":"67b22d03-789e-44cf-a597-0ecf35a562c9","system_id":"levelo_inurba_marseille","lat":43.270583,"lon":5.383067,"is_reserved":false,"is_disabled":false,"rental_uris":{"android":"levelo://app?vid=67b22d03-789e-44cf-a597-0ecf35a562c9","ios":"levelo://app?vid=67b22d03-789e-44cf-a597-0ecf35a562c9"},"vehicle_type_id":"4","last_reported":1769948829,"current_range_meters":9200,"station_id":"st_d3n2fo6cfp8s73cte1j0","pricing_plan_id":"cebpf4jnsgd1na2vs0mg"},{"bike_id":"1f005b1f-2ccf-45d7-9a7a-490a97fd75fb","system_id":"levelo_inurba_marseille","lat":43.24947,"lon":5.40488,"is_reserved":false,"is_disabled":false,"rental_uris":{"android":"levelo://app?vid=1f005b1f-2ccf-45d7-9a7a-490a97fd75fb","ios":"levelo://app?vid=1f005b1f-2ccf-45d7-9a7a-490a97fd75fb"},"vehicle_type_id":"4","last_reported":1769948829,"current_range_meters":9200,"station_id":"st_d2ngiaodas8pm72gd1h0","pricing_plan_id":"cebpf4jnsgd1na2vs0mg"},{"bike_id":"18ff94e7-9675-439c-981c-b4da6861725f","system_id":"levelo_inurba_marseille","lat":43.29004,"lon":5.35607,"is_reserved":false,"is_disabled":false,"rental_uris":{"android":"levelo://app?vid=18ff94e7-9675-439c-981c-b4da6861725f","ios":"levelo://app?vid=18ff94e7-9675-439c-981c-b4da6861725f"},"vehicle_type_id":"4","last_reported":1769948829,"current_range_meters":9200,"station_id":"ce4bhb92rcd13ifvqen0","pricing_plan_id":"cebpf4jnsgd1na2vs0mg"},{"bike_id":"ead9d525-178d-43f7-b202-498aac541976","system_id":"levelo_inurba_marseille","lat":43.22552,"lon":5.41637,"is_reserved":false,"is_disabled":false,"rental_uris":{"android":"levelo://app?vid=ead9d525-178d-43f7-b202-498aac541976","ios":"levelo://app?vid=ead9d525-178d-43f7-b202-498aac541976"},"vehicle_type_id":"4","last_reported":1769948829,"current_range_meters":9200,"station_id":"st_d2o4gvlbi1j2169b742g","pricing_plan_id":"cebpf4jnsgd1na2vs0mg"},{"bike_id":"cd8ea24e-6230-47d3-be29-bae49fed9930","system_id":"levelo_inurba_marseille","lat":43.27673,"lon":5.38878,"is_reserved":false,"is_disabled":false,"rental_uris":{"android":"levelo://app?vid=cd8ea24e-6230-47d3-be29-bae49fed9930","ios":"levelo://app?vid=cd8ea24e-6230-47d3-be29-bae49fed9930"},"vehicle_type_id":"4","last_reported":1769948829,"current_range_meters":9200,"station_id":"ce4bhi12rcd13ifvqfo0","pricing_plan_id":"cebpf4jnsgd1na2vs0mg"},{"bike_id":"5ae045ad-f8a1-4282-8e95-bd3bfad6b000","system_id":"levelo_inurba_marseille","lat":43.32037,"lon":5.41595,"is_reserved":false,"is_disabled":false,"rental_uris":{"android":"levelo://app?vid=5ae045ad-f8a1-4282-8e95-bd3bfad6b000","ios":"levelo://app?vid=5ae045ad-f8a1-4282-8e95-bd3bfad6b000"},"vehicle_type_id":"4","last_reported":1769948829,"current_range_meters":9200,"station_id":"ce4bhq92rcd13ifvqhkg","pricing_plan_id":"cebpf4jnsgd1na2vs0mg"},{"bike_id":"282b4c58-6430-4481-adf2-6fc926d2a7c4","system_id":"levelo_inurba_marseille","lat":43.23227,"lon":5.35692,"is_reserved":false,"is_disabled":false,"rental_uris":{"android":"levelo://app?vid=282b4c58-6430-4481-adf2-6fc926d2a7c4","ios":"levelo://app?vid=282b4c58-6430-4481-adf2-6fc926d2a7c4"},"vehicle_type_id":"4","last_reported":1769948829,"current_range_meters":9200,"station_id":"","pricing_plan_id":"cebpf4jnsgd1na2vs0mg"},{"bike_id":"6a1861d6-3bd8-4d97-b5bb-6ee921eaa6b3","system_id":"levelo_inurba_marseille","lat":43.297106,"lon":5.366134,"is_reserved":false,"is_disabled":false,"rental_uris":{"android":"levelo://app?vid=6a1861d6-3bd8-4d97-b5bb-6ee921eaa6b3","ios":"levelo://app?vid=6a1861d6-3bd8-4d97-b5bb-6ee921eaa6b3"},"vehicle_type_id":"4","last_reported":1769948829,"current_range_meters":9200,"station_id":"ce4bgn12rcd13ifvqbt0","pricing_plan_id":"cebpf4jnsgd1na2vs0mg"},{"bike_id":"3a58788c-4a23-4531-9872-db4b04a34512","system_id":"levelo_inurba_marseille","lat":43.250085,"lon":5.389207,"is_reserved":false,"is_disabled":false,"rental_uris":{"android":"levelo://app?vid=3a58788c-4a23-4531-9872-db4b04a34512","ios":"levelo://app?vid=3a58788c-4a23-4531-9872-db4b04a34512"},"vehicle_type_id":"4","last_reported":1769948829,"current_range_meters":9200,"station_id":"ce4bhgp2rcd13ifvqfd0","pricing_plan_id":"cebpf4jnsgd1na2vs0mg"},{"bike_id":"bad2142d-9f55-4621-b045-df305d11c2d1","system_id":"levelo_inurba_marseille","lat":43.31228,"lon":5.36861,"is_reserved":false,"is_disabled":false,"rental_uris":{"android":"levelo://app?vid=bad2142d-9f55-4621-b045-df305d11c2d1","ios":"levelo://app?vid=bad2142d-9f55-4621-b045-df305d11c2d1"},"vehicle_type_id":"4","last_reported":1769948829,"current_range_meters":9200,"station_id":"ce4bgl92rcd13ifvqbq0","pricing_plan_id":"cebpf4jnsgd1na2vs0mg"},{"bike_id":"b9a9097f-13d0-49a9-bb46-6f5237ccc9ec","system_id":"levelo_inurba_marseille","lat":43.27375,"lon":5.36242,"is_reserved":false,"is_disabled":false,"rental_uris":{"android":"levelo://app?vid=b9a9097f-13d0-49a9-bb46-6f5237ccc9ec","ios":"levelo://app?vid=b9a9097f-13d0-49a9-bb46-6f5237ccc9ec"},"vehicle_type_id":"4","last_reported":1769948829,"current_range_meters":9200,"station_id":"ce4bhbh2rcd13ifvqeo0","pricing_plan_id":"cebpf4jnsgd1na2vs0mg"},{"bike_id":"b26b7a51-932a-4045-96ca-602fdf1f8264","system_id":"levelo_inurba_marseille","lat":43.2306,"lon":5.35498,"is_reserved":false,"is_disabled":false,"rental_uris":{"android":"levelo://app?vid=b26b7a51-932a-4045-96ca-602fdf1f8264","ios":"levelo://app?vid=b26b7a51-932a-4045-96ca-602fdf1f8264"},"vehicle_type_id":"4","last_reported":1769948829,"current_range_meters":9200,"station_id":"cpo3342slgdg3j2ifvpg","pricing_plan_id":"cebpf4jnsgd1na2vs0mg"},{"bike_id":"0d7a9160-c92c-4194-9294-ed891e4353d4","system_id":"levelo_inurba_marseille","lat":43.2952,"lon":5.37494,"is_reserved":false,"is_disabled":false,"rental_uris":{"android":"levelo://app?vid=0d7a9160-c92c-4194-9294-ed891e4353d4","ios":"levelo://app?vid=0d7a9160-c92c-4194-9294-ed891e4353d4"},"vehicle_type_id":"4","last_reported":1769948829,"current_range_meters":9200,"station_id":"ce4bgkp2rcd13ifvqbmg","pricing_plan_id":"cebpf4jnsgd1na2vs0mg"},{"bike_id":"2d4ebfca-65a9-45df-94a7-d7bd8832fb59","system_id":"levelo_inurba_marseille","lat":43.27378,"lon":5.36261,"is_reserved":false,"is_disabled":false,"rental_uris":{"android":"levelo://app?vid=2d4ebfca-65a9-45df-94a7-d7bd8832fb59","ios":"levelo://app?vid=2d4ebfca-65a9-45df-94a7-d7bd8832fb59"},"vehicle_type_id":"4","last_reported":1769948829,"current_range_meters":9200,"station_id":"ce4bhbh2rcd13ifvqeo0","pricing_plan_id":"cebpf4jnsgd1na2vs0mg"},{"bike_id":"48defe86-fd01-4bdf-bb58-0b96240d5da2","system_id":"levelo_inurba_marseille","lat":43.28507,"lon":5.48371,"is_reserved":false,"is_disabled":false,"rental_uris":{"android":"levelo://app?vid=48defe86-fd01-4bdf-bb58-0b96240d5da2","ios":"levelo://app?vid=48defe86-fd01-4bdf-bb58-0b96240d5da2"},"vehicle_type_id":"4","last_reported":1769948829,"current_range_meters":9200,"station_id":"st_d3svhcjqgbts73a3dn0g","pricing_plan_id":"cebpf4jnsgd1na2vs0mg"},{"bike_id":"e09e2717-153b-489f-b446-f480f14d97b2","system_id":"levelo_inurba_marseille","lat":43.27949,"lon":5.41046,"is_reserved":false,"is_disabled":false,"rental_uris":{"android":"levelo://app?vid=e09e2717-153b-489f-b446-f480f14d97b2","ios":"levelo://app?vid=e09e2717-153b-489f-b446-f480f14d97b2"},"vehicle_type_id":"4","last_reported":1769948829,"current_range_meters":9600,"station_id":"ce4bhnp2rcd13ifvqh0g","pricing_plan_id":"cebpf4jnsgd1na2vs0mg"},{"bike_id":"7c0d9424-4c16-451a-a5e1-26585d6883f7","system_id":"levelo_inurba_marseille","lat":43.28858,"lon":5.42512,"is_reserved":false,"is_disabled":false,"rental_uris":{"android":"levelo://app?vid=7c0d9424-4c16-451a-a5e1-26585d6883f7","ios":"levelo://app?vid=7c0d9424-4c16-451a-a5e1-26585d6883f7"},"vehicle_type_id":"4","last_reported":1769948829,"current_range_meters":9600,"station_id":"st_d3b462108ojc7389ooeg","pricing_plan_id":"cebpf4jnsgd1na2vs0mg"},{"bike_id":"d7b7b9d4-bb98-4add-91b5-a99878779b6c","system_id":"levelo_inurba_marseille","lat":43.30138,"lon":5.4312,"is_reserved":false,"is_disabled":false,"rental_uris":{"android":"levelo://app?vid=d7b7b9d4-bb98-4add-91b5-a99878779b6c","ios":"levelo://app?vid=d7b7b9d4-bb98-4add-91b5-a99878779b6c"},"vehicle_type_id":"4","last_reported":1769948829,"current_range_meters":9600,"station_id":"st_d3js3co5814s73ftftug","pricing_plan_id":"cebpf4jnsgd1na2vs0mg"},{"bike_id":"da4baa9f-76eb-4760-9c99-0d3e638c4fe4","system_id":"levelo_inurba_marseille","lat":43.24472,"lon":5.42541,"is_reserved":false,"is_disabled":false,"rental_uris":{"android":"levelo://app?vid=da4baa9f-76eb-4760-9c99-0d3e638c4fe4","ios":"levelo://app?vid=da4baa9f-76eb-4760-9c99-0d3e638c4fe4"},"vehicle_type_id":"4","last_reported":1769948829,"current_range_meters":9600,"station_id":"st_d4a3vfp97mjs738cd8kg","pricing_plan_id":"cebpf4jnsgd1na2vs0mg"},{"bike_id":"e1d85e8f-816e-43e5-832f-fa3bb6c7d9fd","system_id":"levelo_inurba_marseille","lat":43.29811,"lon":5.4404,"is_reserved":false,"is_disabled":false,"rental_uris":{"android":"levelo://app?vid=e1d85e8f-816e-43e5-832f-fa3bb6c7d9fd","ios":"levelo://app?vid=e1d85e8f-816e-43e5-832f-fa3bb6c7d9fd"},"vehicle_type_id":"4","last_reported":1769948829,"current_range_meters":9600,"station_id":"st_d3jp68qikq2c7381ktn0","pricing_plan_id":"cebpf4jnsgd1na2vs0mg"},{"bike_id":"4d614b31-2487-459c-80b4-20568895cab0","system_id":"levelo_inurba_marseille","lat":43.24021,"lon":5.37803,"is_reserved":false,"is_disabled":true,"rental_uris":{"android":"levelo://app?vid=4d614b31-2487-459c-80b4-20568895cab0","ios":"levelo://app?vid=4d614b31-2487-459c-80b4-20568895cab0"},"vehicle_type_id":"4","last_reported":1769948829,"current_range_meters":9600,"station_id":"ce4bhnp2rcd13ifvqgvg","pricing_plan_id":"cebpf4jnsgd1na2vs0mg"},{"bike_id":"9add40cb-612c-4f96-a44a-21cd18318f32","system_id":"levelo_inurba_marseille","lat":43.29625,"lon":5.3716,"is_reserved":false,"is_disabled":false,"rental_uris":{"android":"levelo://app?vid=9add40cb-612c-4f96-a44a-21cd18318f32","ios":"levelo://app?vid=9add40cb-612c-4f96-a44a-21cd18318f32"},"vehicle_type_id":"4","last_reported":1769948829,"current_range_meters":9600,"station_id":"ce4bgnh2rcd13ifvqc0g","pricing_plan_id":"cebpf4jnsgd1na2vs0mg"},{"bike_id":"1d871e15-87dd-49cd-870e-4c3cf09f339c","system_id":"levelo_inurba_marseille","lat":43.23793,"lon":5.36625,"is_reserved":false,"is_disabled":false,"rental_uris":{"android":"levelo://app?vid=1d871e15-87dd-49cd-870e-4c3cf09f339c","ios":"levelo://app?vid=1d871e15-87dd-49cd-870e-4c3cf09f339c"},"vehicle_type_id":"4","last_reported":1769948829,"current_range_meters":9600,"station_id":"st_d3nk18o9ro0c73en2l3g","pricing_plan_id":"cebpf4jnsgd1na2vs0mg"},{"bike_id":"8eeed9ac-d136-43cb-813b-6b9d1566cfed","system_id":"levelo_inurba_marseille","lat":43.31266,"lon":5.36849,"is_reserved":false,"is_disabled":false,"rental_uris":{"android":"levelo://app?vid=8eeed9ac-d136-43cb-813b-6b9d1566cfed","ios":"levelo://app?vid=8eeed9ac-d136-43cb-813b-6b9d1566cfed"},"vehicle_type_id":"4","last_reported":1769948829,"current_range_meters":9600,"station_id":"ce4bgl92rcd13ifvqbq0","pricing_plan_id":"cebpf4jnsgd1na2vs0mg"},{"bike_id":"b5834476-4c2a-4a33-b658-82d31318c38e","system_id":"levelo_inurba_marseille","lat":43.28931,"lon":5.36636,"is_reserved":false,"is_disabled":false,"rental_uris":{"android":"levelo://app?vid=b5834476-4c2a-4a33-b658-82d31318c38e","ios":"levelo://app?vid=b5834476-4c2a-4a33-b658-82d31318c38e"},"vehicle_type_id":"4","last_reported":1769948829,"current_range_meters":9600,"station_id":"ce4bhap2rcd13ifvqek0","pricing_plan_id":"cebpf4jnsgd1na2vs0mg"},{"bike_id":"8659a37c-d753-41da-9ce3-905c08503bac","system_id":"levelo_inurba_marseille","lat":43.31179,"lon":5.36846,"is_reserved":false,"is_disabled":false,"rental_uris":{"android":"levelo://app?vid=8659a37c-d753-41da-9ce3-905c08503bac","ios":"levelo://app?vid=8659a37c-d753-41da-9ce3-905c08503bac"},"vehicle_type_id":"4","last_reported":1769948829,"current_range_meters":9600,"station_id":"","pricing_plan_id":"cebpf4jnsgd1na2vs0mg"},{"bike_id":"fcc56630-d6aa-427a-9b6b-6381e911d09d","system_id":"levelo_inurba_marseille","lat":43.27979,"lon":5.41085,"is_reserved":false,"is_disabled":false,"rental_uris":{"android":"levelo://app?vid=fcc56630-d6aa-427a-9b6b-6381e911d09d","ios":"levelo://app?vid=fcc56630-d6aa-427a-9b6b-6381e911d09d"},"vehicle_type_id":"4","last_reported":1769948829,"current_range_meters":10000,"station_id":"ce4bhnp2rcd13ifvqh0g","pricing_plan_id":"cebpf4jnsgd1na2vs0mg"},{"bike_id":"4b39f1cc-8d5c-4330-8483-0300616cf7c0","system_id":"levelo_inurba_marseille","lat":43.24065,"lon":5.36376,"is_reserved":false,"is_disabled":false,"rental_uris":{"android":"levelo://app?vid=4b39f1cc-8d5c-4330-8483-0300616cf7c0","ios":"levelo://app?vid=4b39f1cc-8d5c-4330-8483-0300616cf7c0"},"vehicle_type_id":"4","last_reported":1769948829,"current_range_meters":10000,"station_id":"","pricing_plan_id":"cebpf4jnsgd1na2vs0mg"},{"bike_id":"4048a30c-b9f9-4215-9beb-37c3b8bee380","system_id":"levelo_inurba_marseille","lat":43.22932,"lon":5.35386,"is_reserved":false,"is_disabled":false,"rental_uris":{"android":"levelo://app?vid=4048a30c-b9f9-4215-9beb-37c3b8bee380","ios":"levelo://app?vid=4048a30c-b9f9-4215-9beb-37c3b8bee380"},"vehicle_type_id":"4","last_reported":1769948829,"current_range_meters":10000,"station_id":"cpo3532slgdg3j2ikp40","pricing_plan_id":"cebpf4jnsgd1na2vs0mg"},{"bike_id":"6f19f971-321b-4d5e-a90c-c93c6e3bcf21","system_id":"levelo_inurba_marseille","lat":43.30163,"lon":5.38078,"is_reserved":false,"is_disabled":false,"rental_uris":{"android":"levelo://app?vid=6f19f971-321b-4d5e-a90c-c93c6e3bcf21","ios":"levelo://app?vid=6f19f971-321b-4d5e-a90c-c93c6e3bcf21"},"vehicle_type_id":"4","last_reported":1769948829,"current_range_meters":10000,"station_id":"ce4bgjp2rcd13ifvqbh0","pricing_plan_id":"cebpf4jnsgd1na2vs0mg"},{"bike_id":"46f0f3f7-4130-4488-aad8-caec724f7d56","system_id":"levelo_inurba_marseille","lat":43.25344,"lon":5.42157,"is_reserved":false,"is_disabled":false,"rental_uris":{"android":"levelo://app?vid=46f0f3f7-4130-4488-aad8-caec724f7d56","ios":"levelo://app?vid=46f0f3f7-4130-4488-aad8-caec724f7d56"},"vehicle_type_id":"4","last_reported":1769948829,"current_range_meters":10000,"station_id":"st_d2m65c5bi1j21697t3ng","pricing_plan_id":"cebpf4jnsgd1na2vs0mg"},{"bike_id":"d64baf67-1a62-4b86-9aae-88e7781f3b30","system_id":"levelo_inurba_marseille","lat":43.23172,"lon":5.39999,"is_reserved":false,"is_disabled":false,"rental_uris":{"android":"levelo://app?vid=d64baf67-1a62-4b86-9aae-88e7781f3b30","ios":"levelo://app?vid=d64baf67-1a62-4b86-9aae-88e7781f3b30"},"vehicle_type_id":"4","last_reported":1769948829,"current_range_meters":10000,"station_id":"ce4bhn12rcd13ifvqgqg","pricing_plan_id":"cebpf4jnsgd1na2vs0mg"},{"bike_id":"fff7e7d9-a5a2-4648-8c64-acd8db891467","system_id":"levelo_inurba_marseille","lat":43.26224,"lon":5.4045,"is_reserved":false,"is_disabled":true,"rental_uris":{"android":"levelo://app?vid=fff7e7d9-a5a2-4648-8c64-acd8db891467","ios":"levelo://app?vid=fff7e7d9-a5a2-4648-8c64-acd8db891467"},"vehicle_type_id":"4","last_reported":1769948829,"current_range_meters":10000,"station_id":"ce4bhmh2rcd13ifvqgmg","pricing_plan_id":"cebpf4jnsgd1na2vs0mg"},{"bike_id":"3b92c8bc-0cff-474f-afbf-78db16afe2d8","system_id":"levelo_inurba_marseille","lat":43.30795,"lon":5.40719,"is_reserved":false,"is_disabled":false,"rental_uris":{"android":"levelo://app?vid=3b92c8bc-0cff-474f-afbf-78db16afe2d8","ios":"levelo://app?vid=3b92c8bc-0cff-474f-afbf-78db16afe2d8"},"vehicle_type_id":"4","last_reported":1769948829,"current_range_meters":10000,"station_id":"","pricing_plan_id":"cebpf4jnsgd1na2vs0mg"},{"bike_id":"87f90149-6480-46ae-8bf1-4d309b1a7c08","system_id":"levelo_inurba_marseille","lat":43.253331,"lon":5.421716,"is_reserved":false,"is_disabled":false,"rental_uris":{"android":"levelo://app?vid=87f90149-6480-46ae-8bf1-4d309b1a7c08","ios":"levelo://app?vid=87f90149-6480-46ae-8bf1-4d309b1a7c08"},"vehicle_type_id":"4","last_reported":1769948829,"current_range_meters":10000,"station_id":"st_d2m65c5bi1j21697t3ng","pricing_plan_id":"cebpf4jnsgd1na2vs0mg"},{"bike_id":"647e8c67-198d-4317-8b12-fb4881b15010","system_id":"levelo_inurba_marseille","lat":43.2975,"lon":5.3645,"is_reserved":false,"is_disabled":false,"rental_uris":{"android":"levelo://app?vid=647e8c67-198d-4317-8b12-fb4881b15010","ios":"levelo://app?vid=647e8c67-198d-4317-8b12-fb4881b15010"},"vehicle_type_id":"4","last_reported":1769948829,"current_range_meters":10000,"station_id":"","pricing_plan_id":"cebpf4jnsgd1na2vs0mg"},{"bike_id":"e88e1399-a6a6-4d7e-b9d2-c3d0c70dccda","system_id":"levelo_inurba_marseille","lat":43.23932,"lon":5.36633,"is_reserved":false,"is_disabled":false,"rental_uris":{"android":"levelo://app?vid=e88e1399-a6a6-4d7e-b9d2-c3d0c70dccda","ios":"levelo://app?vid=e88e1399-a6a6-4d7e-b9d2-c3d0c70dccda"},"vehicle_type_id":"4","last_reported":1769948829,"current_range_meters":10000,"station_id":"ce4bhi12rcd13ifvqfp0","pricing_plan_id":"cebpf4jnsgd1na2vs0mg"},{"bike_id":"5f8c5bb9-3364-4a5b-a6a2-b3e874e3a885","system_id":"levelo_inurba_marseille","lat":43.23971,"lon":5.36638,"is_reserved":false,"is_disabled":false,"rental_uris":{"android":"levelo://app?vid=5f8c5bb9-3364-4a5b-a6a2-b3e874e3a885","ios":"levelo://app?vid=5f8c5bb9-3364-4a5b-a6a2-b3e874e3a885"},"vehicle_type_id":"4","last_reported":1769948829,"current_range_meters":10000,"station_id":"ce4bhi12rcd13ifvqfp0","pricing_plan_id":"cebpf4jnsgd1na2vs0mg"},{"bike_id":"7543f89c-5f93-4ae0-9c08-8625a1c1883e","system_id":"levelo_inurba_marseille","lat":43.30148,"lon":5.38093,"is_reserved":false,"is_disabled":false,"rental_uris":{"android":"levelo://app?vid=7543f89c-5f93-4ae0-9c08-8625a1c1883e","ios":"levelo://app?vid=7543f89c-5f93-4ae0-9c08-8625a1c1883e"},"vehicle_type_id":"4","last_reported":1769948829,"current_range_meters":10000,"station_id":"ce4bgjp2rcd13ifvqbh0","pricing_plan_id":"cebpf4jnsgd1na2vs0mg"},{"bike_id":"80f86e00-c283-4a17-a19a-e4aecae6582f","system_id":"levelo_inurba_marseille","lat":43.29199,"lon":5.39309,"is_reserved":false,"is_disabled":true,"rental_uris":{"android":"levelo://app?vid=80f86e00-c283-4a17-a19a-e4aecae6582f","ios":"levelo://app?vid=80f86e00-c283-4a17-a19a-e4aecae6582f"},"vehicle_type_id":"4","last_reported":1769948829,"current_range_meters":10000,"station_id":"ce4bh192rcd13ifvqdd0","pricing_plan_id":"cebpf4jnsgd1na2vs0mg"},{"bike_id":"cbd41836-519e-491b-817e-da80a25e8193","system_id":"levelo_inurba_marseille","lat":43.2862,"lon":5.35093,"is_reserved":false,"is_disabled":false,"rental_uris":{"android":"levelo://app?vid=cbd41836-519e-491b-817e-da80a25e8193","ios":"levelo://app?vid=cbd41836-519e-491b-817e-da80a25e8193"},"vehicle_type_id":"4","last_reported":1769948829,"current_range_meters":10000,"station_id":"ce4bhch2rcd13ifvqeug","pricing_plan_id":"cebpf4jnsgd1na2vs0mg"},{"bike_id":"598c3be9-e516-4a68-8ee3-e84cf24002f9","system_id":"levelo_inurba_marseille","lat":43.2501,"lon":5.38921,"is_reserved":false,"is_disabled":true,"rental_uris":{"android":"levelo://app?vid=598c3be9-e516-4a68-8ee3-e84cf24002f9","ios":"levelo://app?vid=598c3be9-e516-4a68-8ee3-e84cf24002f9"},"vehicle_type_id":"4","last_reported":1769948829,"current_range_meters":10000,"station_id":"ce4bhgp2rcd13ifvqfd0","pricing_plan_id":"cebpf4jnsgd1na2vs0mg"},{"bike_id":"1a817124-f0c9-43ef-98b3-16396dff4360","system_id":"levelo_inurba_marseille","lat":43.25336,"lon":5.42182,"is_reserved":false,"is_disabled":false,"rental_uris":{"android":"levelo://app?vid=1a817124-f0c9-43ef-98b3-16396dff4360","ios":"levelo://app?vid=1a817124-f0c9-43ef-98b3-16396dff4360"},"vehicle_type_id":"4","last_reported":1769948829,"current_range_meters":10000,"station_id":"st_d2m65c5bi1j21697t3ng","pricing_plan_id":"cebpf4jnsgd1na2vs0mg"},{"bike_id":"89512ca7-4d22-4a8b-98c1-53ce4881a45d","system_id":"levelo_inurba_marseille","lat":43.28999,"lon":5.35604,"is_reserved":false,"is_disabled":false,"rental_uris":{"android":"levelo://app?vid=89512ca7-4d22-4a8b-98c1-53ce4881a45d","ios":"levelo://app?vid=89512ca7-4d22-4a8b-98c1-53ce4881a45d"},"vehicle_type_id":"4","last_reported":1769948829,"current_range_meters":10000,"station_id":"ce4bhb92rcd13ifvqen0","pricing_plan_id":"cebpf4jnsgd1na2vs0mg"},{"bike_id":"d009f6e8-f4d6-4329-a549-cf33f5ef9bb8","system_id":"levelo_inurba_marseille","lat":43.31104,"lon":5.38456,"is_reserved":false,"is_disabled":false,"rental_uris":{"android":"levelo://app?vid=d009f6e8-f4d6-4329-a549-cf33f5ef9bb8","ios":"levelo://app?vid=d009f6e8-f4d6-4329-a549-cf33f5ef9bb8"},"vehicle_type_id":"4","last_reported":1769948829,"current_range_meters":10000,"station_id":"","pricing_plan_id":"cebpf4jnsgd1na2vs0mg"},{"bike_id":"2c2c4a97-bd3d-479d-8fa3-2384b522232d","system_id":"levelo_inurba_marseille","lat":43.25359,"lon":5.41928,"is_reserved":false,"is_disabled":false,"rental_uris":{"android":"levelo://app?vid=2c2c4a97-bd3d-479d-8fa3-2384b522232d","ios":"levelo://app?vid=2c2c4a97-bd3d-479d-8fa3-2384b522232d"},