{"last_updated":1777211890,"ttl":60,"version":"2.2","data":{"bikes":[{"bike_id":"1a8a8471-75ad-47a3-a946-fadf8de506d5","system_id":"levelo_inurba_marseille","lat":43.28257,"lon":5.35075,"is_reserved":false,"is_disabled":false,"rental_uris":{"android":"levelo://app?vid=1a8a8471-75ad-47a3-a946-fadf8de506d5","ios":"levelo://app?vid=1a8a8471-75ad-47a3-a946-fadf8de506d5"},"vehicle_type_id":"4","last_reported":1777211891,"current_range_meters":2800,"station_id":"ce4bhbp2rcd13ifvqerg","pricing_plan_id":"cebpf4jnsgd1na2vs0mg"},{"bike_id":"933fbca5-b9b0-42ec-b9b1-206fdc2e8dab","system_id":"levelo_inurba_marseille","lat":43.26948,"lon":5.38652,"is_reserved":false,"is_disabled":true,"rental_uris":{"android":"levelo://app?vid=933fbca5-b9b0-42ec-b9b1-206fdc2e8dab","ios":"levelo://app?vid=933fbca5-b9b0-42ec-b9b1-206fdc2e8dab"},"vehicle_type_id":"4","last_reported":1777211891,"current_range_meters":2800,"station_id":"ce4bhh92rcd13ifvqfh0","pricing_plan_id":"cebpf4jnsgd1na2vs0mg"},{"bike_id":"06c42ac0-cf89-4833-9c69-7c64be70d545","system_id":"levelo_inurba_marseille","lat":43.28997,"lon":5.35626,"is_reserved":false,"is_disabled":false,"rental_uris":{"android":"levelo://app?vid=06c42ac0-cf89-4833-9c69-7c64be70d545","ios":"levelo://app?vid=06c42ac0-cf89-4833-9c69-7c64be70d545"},"vehicle_type_id":"4","last_reported":1777211891,"current_range_meters":2800,"station_id":"ce4bhb92rcd13ifvqen0","pricing_plan_id":"cebpf4jnsgd1na2vs0mg"},{"bike_id":"b90743c0-34d9-4149-b875-bdd9413ee26c","system_id":"levelo_inurba_marseille","lat":43.27943,"lon":5.41048,"is_reserved":false,"is_disabled":false,"rental_uris":{"android":"levelo://app?vid=b90743c0-34d9-4149-b875-bdd9413ee26c","ios":"levelo://app?vid=b90743c0-34d9-4149-b875-bdd9413ee26c"},"vehicle_type_id":"4","last_reported":1777211891,"current_range_meters":2800,"station_id":"ce4bhnp2rcd13ifvqh0g","pricing_plan_id":"cebpf4jnsgd1na2vs0mg"},{"bike_id":"34a2cd6a-daee-40f5-b840-4151549940e6","system_id":"levelo_inurba_marseille","lat":43.28413,"lon":5.34977,"is_reserved":false,"is_disabled":false,"rental_uris":{"android":"levelo://app?vid=34a2cd6a-daee-40f5-b840-4151549940e6","ios":"levelo://app?vid=34a2cd6a-daee-40f5-b840-4151549940e6"},"vehicle_type_id":"4","last_reported":1777211891,"current_range_meters":2800,"station_id":"ce4bhbh2rcd13ifvqepg","pricing_plan_id":"cebpf4jnsgd1na2vs0mg"},{"bike_id":"13470a8b-d309-4980-ab91-84a07ea3c434","system_id":"levelo_inurba_marseille","lat":43.31025,"lon":5.39357,"is_reserved":false,"is_disabled":false,"rental_uris":{"android":"levelo://app?vid=13470a8b-d309-4980-ab91-84a07ea3c434","ios":"levelo://app?vid=13470a8b-d309-4980-ab91-84a07ea3c434"},"vehicle_type_id":"4","last_reported":1777211891,"current_range_meters":2800,"station_id":"","pricing_plan_id":"cebpf4jnsgd1na2vs0mg"},{"bike_id":"ae8b5b42-2e38-4cba-9184-14e4e4a514d8","system_id":"levelo_inurba_marseille","lat":43.29551,"lon":5.37507,"is_reserved":false,"is_disabled":false,"rental_uris":{"android":"levelo://app?vid=ae8b5b42-2e38-4cba-9184-14e4e4a514d8","ios":"levelo://app?vid=ae8b5b42-2e38-4cba-9184-14e4e4a514d8"},"vehicle_type_id":"4","last_reported":1777211891,"current_range_meters":2800,"station_id":"ce4bgkp2rcd13ifvqbmg","pricing_plan_id":"cebpf4jnsgd1na2vs0mg"},{"bike_id":"06558e5b-846f-4e20-b375-c8972d75dc5a","system_id":"levelo_inurba_marseille","lat":43.27358,"lon":5.43103,"is_reserved":false,"is_disabled":false,"rental_uris":{"android":"levelo://app?vid=06558e5b-846f-4e20-b375-c8972d75dc5a","ios":"levelo://app?vid=06558e5b-846f-4e20-b375-c8972d75dc5a"},"vehicle_type_id":"4","last_reported":1777211891,"current_range_meters":3200,"station_id":"","pricing_plan_id":"cebpf4jnsgd1na2vs0mg"},{"bike_id":"c11f26d5-66cf-40d4-add5-2bb265f5d0ec","system_id":"levelo_inurba_marseille","lat":43.28681,"lon":5.38654,"is_reserved":false,"is_disabled":false,"rental_uris":{"android":"levelo://app?vid=c11f26d5-66cf-40d4-add5-2bb265f5d0ec","ios":"levelo://app?vid=c11f26d5-66cf-40d4-add5-2bb265f5d0ec"},"vehicle_type_id":"4","last_reported":1777211891,"current_range_meters":3200,"station_id":"ce4bh492rcd13ifvqdug","pricing_plan_id":"cebpf4jnsgd1na2vs0mg"},{"bike_id":"657adeb9-6e35-4f96-b8cd-2f47e3604e37","system_id":"levelo_inurba_marseille","lat":43.24654,"lon":5.389,"is_reserved":false,"is_disabled":false,"rental_uris":{"android":"levelo://app?vid=657adeb9-6e35-4f96-b8cd-2f47e3604e37","ios":"levelo://app?vid=657adeb9-6e35-4f96-b8cd-2f47e3604e37"},"vehicle_type_id":"4","last_reported":1777211891,"current_range_meters":3200,"station_id":"ce4bhg12rcd13ifvqf60","pricing_plan_id":"cebpf4jnsgd1na2vs0mg"},{"bike_id":"bd8a0531-d53a-43db-95b8-c2de80f2c2ed","system_id":"levelo_inurba_marseille","lat":43.28418,"lon":5.34984,"is_reserved":false,"is_disabled":false,"rental_uris":{"android":"levelo://app?vid=bd8a0531-d53a-43db-95b8-c2de80f2c2ed","ios":"levelo://app?vid=bd8a0531-d53a-43db-95b8-c2de80f2c2ed"},"vehicle_type_id":"4","last_reported":1777211891,"current_range_meters":3200,"station_id":"ce4bhbh2rcd13ifvqepg","pricing_plan_id":"cebpf4jnsgd1na2vs0mg"},{"bike_id":"5c961337-8a2e-4405-96ed-8585106b3e57","system_id":"levelo_inurba_marseille","lat":43.28621,"lon":5.35099,"is_reserved":false,"is_disabled":false,"rental_uris":{"android":"levelo://app?vid=5c961337-8a2e-4405-96ed-8585106b3e57","ios":"levelo://app?vid=5c961337-8a2e-4405-96ed-8585106b3e57"},"vehicle_type_id":"4","last_reported":1777211891,"current_range_meters":3200,"station_id":"ce4bhch2rcd13ifvqeug","pricing_plan_id":"cebpf4jnsgd1na2vs0mg"},{"bike_id":"56cc0880-ee86-4408-83cc-5759cce21799","system_id":"levelo_inurba_marseille","lat":43.21754,"lon":5.34604,"is_reserved":false,"is_disabled":false,"rental_uris":{"android":"levelo://app?vid=56cc0880-ee86-4408-83cc-5759cce21799","ios":"levelo://app?vid=56cc0880-ee86-4408-83cc-5759cce21799"},"vehicle_type_id":"4","last_reported":1777211891,"current_range_meters":3200,"station_id":"st_cvj6r9ubvosntc0bgbag","pricing_plan_id":"cebpf4jnsgd1na2vs0mg"},{"bike_id":"d273df13-0ec8-4ab4-a440-70ca5c126721","system_id":"levelo_inurba_marseille","lat":43.31487,"lon":5.38638,"is_reserved":false,"is_disabled":false,"rental_uris":{"android":"levelo://app?vid=d273df13-0ec8-4ab4-a440-70ca5c126721","ios":"levelo://app?vid=d273df13-0ec8-4ab4-a440-70ca5c126721"},"vehicle_type_id":"4","last_reported":1777211891,"current_range_meters":3600,"station_id":"ce4bgt92rcd13ifvqcf0","pricing_plan_id":"cebpf4jnsgd1na2vs0mg"},{"bike_id":"e3a85734-967b-4e37-87a0-f489c025438e","system_id":"levelo_inurba_marseille","lat":43.3175,"lon":5.39027,"is_reserved":false,"is_disabled":true,"rental_uris":{"android":"levelo://app?vid=e3a85734-967b-4e37-87a0-f489c025438e","ios":"levelo://app?vid=e3a85734-967b-4e37-87a0-f489c025438e"},"vehicle_type_id":"4","last_reported":1777211891,"current_range_meters":3600,"station_id":"ce4bhqp2rcd13ifvqhng","pricing_plan_id":"cebpf4jnsgd1na2vs0mg"},{"bike_id":"40d69b45-a292-4d7d-b8e6-837b8b5a9d0c","system_id":"levelo_inurba_marseille","lat":43.28493,"lon":5.48388,"is_reserved":false,"is_disabled":false,"rental_uris":{"android":"levelo://app?vid=40d69b45-a292-4d7d-b8e6-837b8b5a9d0c","ios":"levelo://app?vid=40d69b45-a292-4d7d-b8e6-837b8b5a9d0c"},"vehicle_type_id":"4","last_reported":1777211891,"current_range_meters":3600,"station_id":"","pricing_plan_id":"cebpf4jnsgd1na2vs0mg"},{"bike_id":"36a9fef7-e71d-4059-acea-4fee01b07b10","system_id":"levelo_inurba_marseille","lat":43.27969,"lon":5.38741,"is_reserved":false,"is_disabled":false,"rental_uris":{"android":"levelo://app?vid=36a9fef7-e71d-4059-acea-4fee01b07b10","ios":"levelo://app?vid=36a9fef7-e71d-4059-acea-4fee01b07b10"},"vehicle_type_id":"4","last_reported":1777211891,"current_range_meters":3600,"station_id":"ce4bhg12rcd13ifvqf80","pricing_plan_id":"cebpf4jnsgd1na2vs0mg"},{"bike_id":"6656a7b6-bb48-4e86-af00-0efe04a9a7bc","system_id":"levelo_inurba_marseille","lat":43.2901,"lon":5.35588,"is_reserved":false,"is_disabled":false,"rental_uris":{"android":"levelo://app?vid=6656a7b6-bb48-4e86-af00-0efe04a9a7bc","ios":"levelo://app?vid=6656a7b6-bb48-4e86-af00-0efe04a9a7bc"},"vehicle_type_id":"4","last_reported":1777211891,"current_range_meters":3600,"station_id":"ce4bhb92rcd13ifvqen0","pricing_plan_id":"cebpf4jnsgd1na2vs0mg"},{"bike_id":"2b904323-62af-4cab-9f73-9e319f329ae3","system_id":"levelo_inurba_marseille","lat":43.29568,"lon":5.37506,"is_reserved":false,"is_disabled":true,"rental_uris":{"android":"levelo://app?vid=2b904323-62af-4cab-9f73-9e319f329ae3","ios":"levelo://app?vid=2b904323-62af-4cab-9f73-9e319f329ae3"},"vehicle_type_id":"4","last_reported":1777211891,"current_range_meters":3600,"station_id":"ce4bgh92rcd13ifvqb50","pricing_plan_id":"cebpf4jnsgd1na2vs0mg"},{"bike_id":"37c3f2ab-ff09-4234-bebe-6485280b79cb","system_id":"levelo_inurba_marseille","lat":43.273779,"lon":5.362439,"is_reserved":false,"is_disabled":false,"rental_uris":{"android":"levelo://app?vid=37c3f2ab-ff09-4234-bebe-6485280b79cb","ios":"levelo://app?vid=37c3f2ab-ff09-4234-bebe-6485280b79cb"},"vehicle_type_id":"4","last_reported":1777211891,"current_range_meters":3600,"station_id":"ce4bhbh2rcd13ifvqeo0","pricing_plan_id":"cebpf4jnsgd1na2vs0mg"},{"bike_id":"541dbded-315f-4ca8-ac49-47fcb4294bb7","system_id":"levelo_inurba_marseille","lat":43.33539,"lon":5.37463,"is_reserved":false,"is_disabled":false,"rental_uris":{"android":"levelo://app?vid=541dbded-315f-4ca8-ac49-47fcb4294bb7","ios":"levelo://app?vid=541dbded-315f-4ca8-ac49-47fcb4294bb7"},"vehicle_type_id":"4","last_reported":1777211891,"current_range_meters":3600,"station_id":"st_d46tts09ee8s73dlu43g","pricing_plan_id":"cebpf4jnsgd1na2vs0mg"},{"bike_id":"8d1cc07a-c87d-4a7b-8797-cd61ba104d31","system_id":"levelo_inurba_marseille","lat":43.29547,"lon":5.39007,"is_reserved":false,"is_disabled":true,"rental_uris":{"android":"levelo://app?vid=8d1cc07a-c87d-4a7b-8797-cd61ba104d31","ios":"levelo://app?vid=8d1cc07a-c87d-4a7b-8797-cd61ba104d31"},"vehicle_type_id":"4","last_reported":1777211891,"current_range_meters":3600,"station_id":"ce4bh3p2rcd13ifvqdp0","pricing_plan_id":"cebpf4jnsgd1na2vs0mg"},{"bike_id":"90fac789-06e9-4c33-94b9-e82543e03c21","system_id":"levelo_inurba_marseille","lat":43.22575,"lon":5.41622,"is_reserved":false,"is_disabled":true,"rental_uris":{"android":"levelo://app?vid=90fac789-06e9-4c33-94b9-e82543e03c21","ios":"levelo://app?vid=90fac789-06e9-4c33-94b9-e82543e03c21"},"vehicle_type_id":"4","last_reported":1777211891,"current_range_meters":3600,"station_id":"st_d2o4gvlbi1j2169b742g","pricing_plan_id":"cebpf4jnsgd1na2vs0mg"},{"bike_id":"02bdea52-d1de-474b-acce-91d90c02f046","system_id":"levelo_inurba_marseille","lat":43.21201,"lon":5.3507,"is_reserved":false,"is_disabled":false,"rental_uris":{"android":"levelo://app?vid=02bdea52-d1de-474b-acce-91d90c02f046","ios":"levelo://app?vid=02bdea52-d1de-474b-acce-91d90c02f046"},"vehicle_type_id":"4","last_reported":1777211891,"current_range_meters":3600,"station_id":"st_cvj6sg6p6f1abm77japg","pricing_plan_id":"cebpf4jnsgd1na2vs0mg"},{"bike_id":"54a0a787-6bff-4605-ad7e-693ac022106a","system_id":"levelo_inurba_marseille","lat":43.31166,"lon":5.38726,"is_reserved":false,"is_disabled":false,"rental_uris":{"android":"levelo://app?vid=54a0a787-6bff-4605-ad7e-693ac022106a","ios":"levelo://app?vid=54a0a787-6bff-4605-ad7e-693ac022106a"},"vehicle_type_id":"4","last_reported":1777211891,"current_range_meters":3600,"station_id":"ce4bgv12rcd13ifvqcp0","pricing_plan_id":"cebpf4jnsgd1na2vs0mg"},{"bike_id":"8108cb70-1036-428d-a561-7ed9ecbfc2a2","system_id":"levelo_inurba_marseille","lat":43.28469,"lon":5.35895,"is_reserved":false,"is_disabled":false,"rental_uris":{"android":"levelo://app?vid=8108cb70-1036-428d-a561-7ed9ecbfc2a2","ios":"levelo://app?vid=8108cb70-1036-428d-a561-7ed9ecbfc2a2"},"vehicle_type_id":"4","last_reported":1777211891,"current_range_meters":4000,"station_id":"ce4bhah2rcd13ifvqei0","pricing_plan_id":"cebpf4jnsgd1na2vs0mg"},{"bike_id":"84c8a771-33c9-421f-a5d6-bf9791123e26","system_id":"levelo_inurba_marseille","lat":43.31988,"lon":5.3814,"is_reserved":false,"is_disabled":false,"rental_uris":{"android":"levelo://app?vid=84c8a771-33c9-421f-a5d6-bf9791123e26","ios":"levelo://app?vid=84c8a771-33c9-421f-a5d6-bf9791123e26"},"vehicle_type_id":"4","last_reported":1777211891,"current_range_meters":4000,"station_id":"ce4bhr12rcd13ifvqhpg","pricing_plan_id":"cebpf4jnsgd1na2vs0mg"},{"bike_id":"33e8a599-5df3-47d5-adba-b244d04b6626","system_id":"levelo_inurba_marseille","lat":43.28414,"lon":5.34987,"is_reserved":false,"is_disabled":false,"rental_uris":{"android":"levelo://app?vid=33e8a599-5df3-47d5-adba-b244d04b6626","ios":"levelo://app?vid=33e8a599-5df3-47d5-adba-b244d04b6626"},"vehicle_type_id":"4","last_reported":1777211891,"current_range_meters":4000,"station_id":"ce4bhbh2rcd13ifvqepg","pricing_plan_id":"cebpf4jnsgd1na2vs0mg"},{"bike_id":"5a4163c6-002a-4c51-9595-ce1a05963235","system_id":"levelo_inurba_marseille","lat":43.29016,"lon":5.38124,"is_reserved":false,"is_disabled":true,"rental_uris":{"android":"levelo://app?vid=5a4163c6-002a-4c51-9595-ce1a05963235","ios":"levelo://app?vid=5a4163c6-002a-4c51-9595-ce1a05963235"},"vehicle_type_id":"4","last_reported":1777211891,"current_range_meters":4000,"station_id":"ce4bh4p2rcd13ifvqe1g","pricing_plan_id":"cebpf4jnsgd1na2vs0mg"},{"bike_id":"7e2350b6-365c-4127-ad80-d09ff7a63a56","system_id":"levelo_inurba_marseille","lat":43.27961,"lon":5.3872,"is_reserved":false,"is_disabled":false,"rental_uris":{"android":"levelo://app?vid=7e2350b6-365c-4127-ad80-d09ff7a63a56","ios":"levelo://app?vid=7e2350b6-365c-4127-ad80-d09ff7a63a56"},"vehicle_type_id":"4","last_reported":1777211891,"current_range_meters":4000,"station_id":"ce4bhg12rcd13ifvqf80","pricing_plan_id":"cebpf4jnsgd1na2vs0mg"},{"bike_id":"5c93e55a-53c1-44c5-9622-6eb9c11fee2f","system_id":"levelo_inurba_marseille","lat":43.25729,"lon":5.41104,"is_reserved":false,"is_disabled":false,"rental_uris":{"android":"levelo://app?vid=5c93e55a-53c1-44c5-9622-6eb9c11fee2f","ios":"levelo://app?vid=5c93e55a-53c1-44c5-9622-6eb9c11fee2f"},"vehicle_type_id":"4","last_reported":1777211891,"current_range_meters":4000,"station_id":"ce4bhkp2rcd13ifvqgd0","pricing_plan_id":"cebpf4jnsgd1na2vs0mg"},{"bike_id":"17fe3f56-b486-40dd-ac6a-710ede14c97d","system_id":"levelo_inurba_marseille","lat":43.314869,"lon":5.373029,"is_reserved":false,"is_disabled":false,"rental_uris":{"android":"levelo://app?vid=17fe3f56-b486-40dd-ac6a-710ede14c97d","ios":"levelo://app?vid=17fe3f56-b486-40dd-ac6a-710ede14c97d"},"vehicle_type_id":"4","last_reported":1777211891,"current_range_meters":4000,"station_id":"","pricing_plan_id":"cebpf4jnsgd1na2vs0mg"},{"bike_id":"6e7a6cff-c9ef-423e-ab8c-f6f1da41ca23","system_id":"levelo_inurba_marseille","lat":43.28276,"lon":5.35078,"is_reserved":false,"is_disabled":false,"rental_uris":{"android":"levelo://app?vid=6e7a6cff-c9ef-423e-ab8c-f6f1da41ca23","ios":"levelo://app?vid=6e7a6cff-c9ef-423e-ab8c-f6f1da41ca23"},"vehicle_type_id":"4","last_reported":1777211891,"current_range_meters":4000,"station_id":"ce4bhbp2rcd13ifvqerg","pricing_plan_id":"cebpf4jnsgd1na2vs0mg"},{"bike_id":"73b29586-6035-4b17-8f89-10c778399a16","system_id":"levelo_inurba_marseille","lat":43.32032,"lon":5.38146,"is_reserved":false,"is_disabled":false,"rental_uris":{"android":"levelo://app?vid=73b29586-6035-4b17-8f89-10c778399a16","ios":"levelo://app?vid=73b29586-6035-4b17-8f89-10c778399a16"},"vehicle_type_id":"4","last_reported":1777211891,"current_range_meters":4000,"station_id":"ce4bhr12rcd13ifvqhpg","pricing_plan_id":"cebpf4jnsgd1na2vs0mg"},{"bike_id":"e10d39b5-9510-4971-bd6f-21f0c7e72b27","system_id":"levelo_inurba_marseille","lat":43.2862,"lon":5.35107,"is_reserved":false,"is_disabled":false,"rental_uris":{"android":"levelo://app?vid=e10d39b5-9510-4971-bd6f-21f0c7e72b27","ios":"levelo://app?vid=e10d39b5-9510-4971-bd6f-21f0c7e72b27"},"vehicle_type_id":"4","last_reported":1777211891,"current_range_meters":4000,"station_id":"ce4bhch2rcd13ifvqeug","pricing_plan_id":"cebpf4jnsgd1na2vs0mg"},{"bike_id":"c6d1eb66-e114-4bfb-b39a-c84fc2a4ed98","system_id":"levelo_inurba_marseille","lat":43.29584,"lon":5.37515,"is_reserved":false,"is_disabled":false,"rental_uris":{"android":"levelo://app?vid=c6d1eb66-e114-4bfb-b39a-c84fc2a4ed98","ios":"levelo://app?vid=c6d1eb66-e114-4bfb-b39a-c84fc2a4ed98"},"vehicle_type_id":"4","last_reported":1777211891,"current_range_meters":4000,"station_id":"ce4bgh92rcd13ifvqb50","pricing_plan_id":"cebpf4jnsgd1na2vs0mg"},{"bike_id":"0cd2fd7c-6402-466e-aa1b-fa186d7a7ed3","system_id":"levelo_inurba_marseille","lat":43.33194,"lon":5.37792,"is_reserved":false,"is_disabled":false,"rental_uris":{"android":"levelo://app?vid=0cd2fd7c-6402-466e-aa1b-fa186d7a7ed3","ios":"levelo://app?vid=0cd2fd7c-6402-466e-aa1b-fa186d7a7ed3"},"vehicle_type_id":"4","last_reported":1777211891,"current_range_meters":4400,"station_id":"","pricing_plan_id":"cebpf4jnsgd1na2vs0mg"},{"bike_id":"c0126e79-e455-4033-aa6f-9cd2537e8b04","system_id":"levelo_inurba_marseille","lat":43.2871,"lon":5.46681,"is_reserved":false,"is_disabled":false,"rental_uris":{"android":"levelo://app?vid=c0126e79-e455-4033-aa6f-9cd2537e8b04","ios":"levelo://app?vid=c0126e79-e455-4033-aa6f-9cd2537e8b04"},"vehicle_type_id":"4","last_reported":1777211891,"current_range_meters":4400,"station_id":"st_d6tc3vkotcvc738tfjhg","pricing_plan_id":"cebpf4jnsgd1na2vs0mg"},{"bike_id":"a03ce919-3949-4c06-bbb8-c0f13ba943b2","system_id":"levelo_inurba_marseille","lat":43.25536,"lon":5.37637,"is_reserved":false,"is_disabled":true,"rental_uris":{"android":"levelo://app?vid=a03ce919-3949-4c06-bbb8-c0f13ba943b2","ios":"levelo://app?vid=a03ce919-3949-4c06-bbb8-c0f13ba943b2"},"vehicle_type_id":"4","last_reported":1777211891,"current_range_meters":4400,"station_id":"ce4bhh12rcd13ifvqff0","pricing_plan_id":"cebpf4jnsgd1na2vs0mg"},{"bike_id":"ace34436-51fe-4536-a1f6-cfa009f56977","system_id":"levelo_inurba_marseille","lat":43.33557,"lon":5.37502,"is_reserved":false,"is_disabled":false,"rental_uris":{"android":"levelo://app?vid=ace34436-51fe-4536-a1f6-cfa009f56977","ios":"levelo://app?vid=ace34436-51fe-4536-a1f6-cfa009f56977"},"vehicle_type_id":"4","last_reported":1777211891,"current_range_meters":4400,"station_id":"st_d46tts09ee8s73dlu43g","pricing_plan_id":"cebpf4jnsgd1na2vs0mg"},{"bike_id":"e9caee44-b787-4c36-a632-4bd6c1ec7cfa","system_id":"levelo_inurba_marseille","lat":43.28498,"lon":5.48358,"is_reserved":false,"is_disabled":false,"rental_uris":{"android":"levelo://app?vid=e9caee44-b787-4c36-a632-4bd6c1ec7cfa","ios":"levelo://app?vid=e9caee44-b787-4c36-a632-4bd6c1ec7cfa"},"vehicle_type_id":"4","last_reported":1777211891,"current_range_meters":4400,"station_id":"st_d3svhcjqgbts73a3dn0g","pricing_plan_id":"cebpf4jnsgd1na2vs0mg"},{"bike_id":"e79c3a6d-1b20-4bd2-99b7-9d73d3cb02a0","system_id":"levelo_inurba_marseille","lat":43.30211,"lon":5.3947,"is_reserved":false,"is_disabled":false,"rental_uris":{"android":"levelo://app?vid=e79c3a6d-1b20-4bd2-99b7-9d73d3cb02a0","ios":"levelo://app?vid=e79c3a6d-1b20-4bd2-99b7-9d73d3cb02a0"},"vehicle_type_id":"4","last_reported":1777211891,"current_range_meters":4400,"station_id":"ce4bh0p2rcd13ifvqd70","pricing_plan_id":"cebpf4jnsgd1na2vs0mg"},{"bike_id":"a4777433-fbe3-4aec-ac64-a023f9e9dbbf","system_id":"levelo_inurba_marseille","lat":43.2929,"lon":5.37447,"is_reserved":false,"is_disabled":false,"rental_uris":{"android":"levelo://app?vid=a4777433-fbe3-4aec-ac64-a023f9e9dbbf","ios":"levelo://app?vid=a4777433-fbe3-4aec-ac64-a023f9e9dbbf"},"vehicle_type_id":"4","last_reported":1777211891,"current_range_meters":4400,"station_id":"ce4bgi12rcd13ifvqb70","pricing_plan_id":"cebpf4jnsgd1na2vs0mg"},{"bike_id":"b5429b18-fda0-40c0-b21b-82b0b9a7a558","system_id":"levelo_inurba_marseille","lat":43.28406,"lon":5.34986,"is_reserved":false,"is_disabled":false,"rental_uris":{"android":"levelo://app?vid=b5429b18-fda0-40c0-b21b-82b0b9a7a558","ios":"levelo://app?vid=b5429b18-fda0-40c0-b21b-82b0b9a7a558"},"vehicle_type_id":"4","last_reported":1777211891,"current_range_meters":4400,"station_id":"ce4bhbh2rcd13ifvqepg","pricing_plan_id":"cebpf4jnsgd1na2vs0mg"},{"bike_id":"fb302d90-e64b-4e07-8e93-395cbc2da052","system_id":"levelo_inurba_marseille","lat":43.24814,"lon":5.37456,"is_reserved":false,"is_disabled":false,"rental_uris":{"android":"levelo://app?vid=fb302d90-e64b-4e07-8e93-395cbc2da052","ios":"levelo://app?vid=fb302d90-e64b-4e07-8e93-395cbc2da052"},"vehicle_type_id":"4","last_reported":1777211891,"current_range_meters":4400,"station_id":"ce4bhgh2rcd13ifvqfb0","pricing_plan_id":"cebpf4jnsgd1na2vs0mg"},{"bike_id":"f052f3ed-28f6-4c29-844b-cc3bffd83805","system_id":"levelo_inurba_marseille","lat":43.32347,"lon":5.36741,"is_reserved":false,"is_disabled":false,"rental_uris":{"android":"levelo://app?vid=f052f3ed-28f6-4c29-844b-cc3bffd83805","ios":"levelo://app?vid=f052f3ed-28f6-4c29-844b-cc3bffd83805"},"vehicle_type_id":"4","last_reported":1777211891,"current_range_meters":4400,"station_id":"ce4bhsh2rcd13ifvqi2g","pricing_plan_id":"cebpf4jnsgd1na2vs0mg"},{"bike_id":"540bef50-57bf-4312-ab4d-a31851e60dc9","system_id":"levelo_inurba_marseille","lat":43.2315,"lon":5.43721,"is_reserved":false,"is_disabled":false,"rental_uris":{"android":"levelo://app?vid=540bef50-57bf-4312-ab4d-a31851e60dc9","ios":"levelo://app?vid=540bef50-57bf-4312-ab4d-a31851e60dc9"},"vehicle_type_id":"4","last_reported":1777211891,"current_range_meters":4400,"station_id":"ce4bhmp2rcd13ifvqgog","pricing_plan_id":"cebpf4jnsgd1na2vs0mg"},{"bike_id":"0f126928-5121-4469-a9c9-6740d8de1e82","system_id":"levelo_inurba_marseille","lat":43.24412,"lon":5.37426,"is_reserved":false,"is_disabled":false,"rental_uris":{"android":"levelo://app?vid=0f126928-5121-4469-a9c9-6740d8de1e82","ios":"levelo://app?vid=0f126928-5121-4469-a9c9-6740d8de1e82"},"vehicle_type_id":"4","last_reported":1777211891,"current_range_meters":4400,"station_id":"","pricing_plan_id":"cebpf4jnsgd1na2vs0mg"},{"bike_id":"a1fa8530-65b9-4008-96f3-a6831b1af9e3","system_id":"levelo_inurba_marseille","lat":43.33539,"lon":5.37467,"is_reserved":false,"is_disabled":true,"rental_uris":{"android":"levelo://app?vid=a1fa8530-65b9-4008-96f3-a6831b1af9e3","ios":"levelo://app?vid=a1fa8530-65b9-4008-96f3-a6831b1af9e3"},"vehicle_type_id":"4","last_reported":1777211891,"current_range_meters":4400,"station_id":"st_d46tts09ee8s73dlu43g","pricing_plan_id":"cebpf4jnsgd1na2vs0mg"},{"bike_id":"413e4623-e4a6-44c0-8fe0-f06c3e224af8","system_id":"levelo_inurba_marseille","lat":43.31897,"lon":5.36814,"is_reserved":false,"is_disabled":false,"rental_uris":{"android":"levelo://app?vid=413e4623-e4a6-44c0-8fe0-f06c3e224af8","ios":"levelo://app?vid=413e4623-e4a6-44c0-8fe0-f06c3e224af8"},"vehicle_type_id":"4","last_reported":1777211891,"current_range_meters":4800,"station_id":"st_d6o2h0d0559c73evc1b0","pricing_plan_id":"cebpf4jnsgd1na2vs0mg"},{"bike_id":"a741ff1a-484b-4d8a-9c06-c4887c117baa","system_id":"levelo_inurba_marseille","lat":43.22547,"lon":5.34806,"is_reserved":false,"is_disabled":false,"rental_uris":{"android":"levelo://app?vid=a741ff1a-484b-4d8a-9c06-c4887c117baa","ios":"levelo://app?vid=a741ff1a-484b-4d8a-9c06-c4887c117baa"},"vehicle_type_id":"4","last_reported":1777211891,"current_range_meters":4800,"station_id":"st_cvj5dfep6f1abm77gieg","pricing_plan_id":"cebpf4jnsgd1na2vs0mg"},{"bike_id":"e7760414-c99e-4edb-8d77-254918982c51","system_id":"levelo_inurba_marseille","lat":43.280813,"lon":5.396654,"is_reserved":false,"is_disabled":false,"rental_uris":{"android":"levelo://app?vid=e7760414-c99e-4edb-8d77-254918982c51","ios":"levelo://app?vid=e7760414-c99e-4edb-8d77-254918982c51"},"vehicle_type_id":"4","last_reported":1777211891,"current_range_meters":4800,"station_id":"ce4bho12rcd13ifvqh2g","pricing_plan_id":"cebpf4jnsgd1na2vs0mg"},{"bike_id":"695c01e5-47e1-4cb1-99bb-36f23785780b","system_id":"levelo_inurba_marseille","lat":43.28269,"lon":5.35063,"is_reserved":false,"is_disabled":false,"rental_uris":{"android":"levelo://app?vid=695c01e5-47e1-4cb1-99bb-36f23785780b","ios":"levelo://app?vid=695c01e5-47e1-4cb1-99bb-36f23785780b"},"vehicle_type_id":"4","last_reported":1777211891,"current_range_meters":4800,"station_id":"ce4bhbp2rcd13ifvqerg","pricing_plan_id":"cebpf4jnsgd1na2vs0mg"},{"bike_id":"70578acc-b935-4f77-be23-bcde1db99b26","system_id":"levelo_inurba_marseille","lat":43.29794,"lon":5.38155,"is_reserved":false,"is_disabled":false,"rental_uris":{"android":"levelo://app?vid=70578acc-b935-4f77-be23-bcde1db99b26","ios":"levelo://app?vid=70578acc-b935-4f77-be23-bcde1db99b26"},"vehicle_type_id":"4","last_reported":1777211891,"current_range_meters":4800,"station_id":"ce4bgip2rcd13ifvqbb0","pricing_plan_id":"cebpf4jnsgd1na2vs0mg"},{"bike_id":"724d0869-017c-4e7e-9911-705be0df09b1","system_id":"levelo_inurba_marseille","lat":43.31458,"lon":5.37383,"is_reserved":false,"is_disabled":false,"rental_uris":{"android":"levelo://app?vid=724d0869-017c-4e7e-9911-705be0df09b1","ios":"levelo://app?vid=724d0869-017c-4e7e-9911-705be0df09b1"},"vehicle_type_id":"4","last_reported":1777211891,"current_range_meters":4800,"station_id":"","pricing_plan_id":"cebpf4jnsgd1na2vs0mg"},{"bike_id":"fd433ccd-97bc-45cd-82e1-09aa550bfe0d","system_id":"levelo_inurba_marseille","lat":43.28617,"lon":5.35104,"is_reserved":false,"is_disabled":false,"rental_uris":{"android":"levelo://app?vid=fd433ccd-97bc-45cd-82e1-09aa550bfe0d","ios":"levelo://app?vid=fd433ccd-97bc-45cd-82e1-09aa550bfe0d"},"vehicle_type_id":"4","last_reported":1777211891,"current_range_meters":4800,"station_id":"ce4bhch2rcd13ifvqeug","pricing_plan_id":"cebpf4jnsgd1na2vs0mg"},{"bike_id":"145e498f-8b55-461b-b266-35577193635f","system_id":"levelo_inurba_marseille","lat":43.21743,"lon":5.34604,"is_reserved":false,"is_disabled":false,"rental_uris":{"android":"levelo://app?vid=145e498f-8b55-461b-b266-35577193635f","ios":"levelo://app?vid=145e498f-8b55-461b-b266-35577193635f"},"vehicle_type_id":"4","last_reported":1777211891,"current_range_meters":4800,"station_id":"st_cvj6r9ubvosntc0bgbag","pricing_plan_id":"cebpf4jnsgd1na2vs0mg"},{"bike_id":"fea5a28c-0167-4a62-9062-e629ed9b3e8f","system_id":"levelo_inurba_marseille","lat":43.28478,"lon":5.48404,"is_reserved":false,"is_disabled":false,"rental_uris":{"android":"levelo://app?vid=fea5a28c-0167-4a62-9062-e629ed9b3e8f","ios":"levelo://app?vid=fea5a28c-0167-4a62-9062-e629ed9b3e8f"},"vehicle_type_id":"4","last_reported":1777211891,"current_range_meters":4800,"station_id":"st_d3svhcjqgbts73a3dn0g","pricing_plan_id":"cebpf4jnsgd1na2vs0mg"},{"bike_id":"9c644f7f-0806-4a4a-ad55-537b4c4aedb4","system_id":"levelo_inurba_marseille","lat":43.29807,"lon":5.38089,"is_reserved":false,"is_disabled":false,"rental_uris":{"android":"levelo://app?vid=9c644f7f-0806-4a4a-ad55-537b4c4aedb4","ios":"levelo://app?vid=9c644f7f-0806-4a4a-ad55-537b4c4aedb4"},"vehicle_type_id":"4","last_reported":1777211891,"current_range_meters":4800,"station_id":"ce4bgip2rcd13ifvqbb0","pricing_plan_id":"cebpf4jnsgd1na2vs0mg"},{"bike_id":"d108ce06-53ce-4fa3-8df0-39cae844d6be","system_id":"levelo_inurba_marseille","lat":43.27942,"lon":5.38708,"is_reserved":false,"is_disabled":false,"rental_uris":{"android":"levelo://app?vid=d108ce06-53ce-4fa3-8df0-39cae844d6be","ios":"levelo://app?vid=d108ce06-53ce-4fa3-8df0-39cae844d6be"},"vehicle_type_id":"4","last_reported":1777211891,"current_range_meters":4800,"station_id":"ce4bhg12rcd13ifvqf80","pricing_plan_id":"cebpf4jnsgd1na2vs0mg"},{"bike_id":"763676a2-3a65-4129-9cff-aa0a8e5eec05","system_id":"levelo_inurba_marseille","lat":43.30311,"lon":5.36905,"is_reserved":false,"is_disabled":false,"rental_uris":{"android":"levelo://app?vid=763676a2-3a65-4129-9cff-aa0a8e5eec05","ios":"levelo://app?vid=763676a2-3a65-4129-9cff-aa0a8e5eec05"},"vehicle_type_id":"4","last_reported":1777211891,"current_range_meters":4800,"station_id":"ce4bgqh2rcd13ifvqc5g","pricing_plan_id":"cebpf4jnsgd1na2vs0mg"},{"bike_id":"05a33fd5-e436-4ad0-a907-865e546c41d5","system_id":"levelo_inurba_marseille","lat":43.22554,"lon":5.41613,"is_reserved":false,"is_disabled":true,"rental_uris":{"android":"levelo://app?vid=05a33fd5-e436-4ad0-a907-865e546c41d5","ios":"levelo://app?vid=05a33fd5-e436-4ad0-a907-865e546c41d5"},"vehicle_type_id":"4","last_reported":1777211891,"current_range_meters":4800,"station_id":"","pricing_plan_id":"cebpf4jnsgd1na2vs0mg"},{"bike_id":"927fc73c-22d2-4adb-b1d5-46009b2fc07d","system_id":"levelo_inurba_marseille","lat":43.30317,"lon":5.36911,"is_reserved":false,"is_disabled":false,"rental_uris":{"android":"levelo://app?vid=927fc73c-22d2-4adb-b1d5-46009b2fc07d","ios":"levelo://app?vid=927fc73c-22d2-4adb-b1d5-46009b2fc07d"},"vehicle_type_id":"4","last_reported":1777211891,"current_range_meters":4800,"station_id":"ce4bgqh2rcd13ifvqc5g","pricing_plan_id":"cebpf4jnsgd1na2vs0mg"},{"bike_id":"cdf76281-cbe4-4bfe-a9b8-31758e439078","system_id":"levelo_inurba_marseille","lat":43.28618,"lon":5.35104,"is_reserved":false,"is_disabled":false,"rental_uris":{"android":"levelo://app?vid=cdf76281-cbe4-4bfe-a9b8-31758e439078","ios":"levelo://app?vid=cdf76281-cbe4-4bfe-a9b8-31758e439078"},"vehicle_type_id":"4","last_reported":1777211891,"current_range_meters":4800,"station_id":"ce4bhch2rcd13ifvqeug","pricing_plan_id":"cebpf4jnsgd1na2vs0mg"},{"bike_id":"77c3125d-06e0-47cd-93f4-f16b78ab7fd3","system_id":"levelo_inurba_marseille","lat":43.21751,"lon":5.34585,"is_reserved":false,"is_disabled":false,"rental_uris":{"android":"levelo://app?vid=77c3125d-06e0-47cd-93f4-f16b78ab7fd3","ios":"levelo://app?vid=77c3125d-06e0-47cd-93f4-f16b78ab7fd3"},"vehicle_type_id":"4","last_reported":1777211891,"current_range_meters":4800,"station_id":"st_cvj6r9ubvosntc0bgbag","pricing_plan_id":"cebpf4jnsgd1na2vs0mg"},{"bike_id":"e1996cb5-a857-4caa-a8a5-2e0906073d63","system_id":"levelo_inurba_marseille","lat":43.24394,"lon":5.37067,"is_reserved":false,"is_disabled":false,"rental_uris":{"android":"levelo://app?vid=e1996cb5-a857-4caa-a8a5-2e0906073d63","ios":"levelo://app?vid=e1996cb5-a857-4caa-a8a5-2e0906073d63"},"vehicle_type_id":"4","last_reported":1777211891,"current_range_meters":4800,"station_id":"ce4bhhh2rcd13ifvqfk0","pricing_plan_id":"cebpf4jnsgd1na2vs0mg"},{"bike_id":"37a2b74a-9815-476b-82e8-65f286ca52ec","system_id":"levelo_inurba_marseille","lat":43.21743,"lon":5.34591,"is_reserved":false,"is_disabled":false,"rental_uris":{"android":"levelo://app?vid=37a2b74a-9815-476b-82e8-65f286ca52ec","ios":"levelo://app?vid=37a2b74a-9815-476b-82e8-65f286ca52ec"},"vehicle_type_id":"4","last_reported":1777211891,"current_range_meters":4800,"station_id":"st_cvj6r9ubvosntc0bgbag","pricing_plan_id":"cebpf4jnsgd1na2vs0mg"},{"bike_id":"566d96b8-5e9f-424c-a211-21ad768be894","system_id":"levelo_inurba_marseille","lat":43.28529,"lon":5.44104,"is_reserved":false,"is_disabled":false,"rental_uris":{"android":"levelo://app?vid=566d96b8-5e9f-424c-a211-21ad768be894","ios":"levelo://app?vid=566d96b8-5e9f-424c-a211-21ad768be894"},"vehicle_type_id":"4","last_reported":1777211891,"current_range_meters":5600,"station_id":"st_d3j3df2ikq2c7380ej80","pricing_plan_id":"cebpf4jnsgd1na2vs0mg"},{"bike_id":"2670d991-0257-4b07-b03d-8eaa062ba0f0","system_id":"levelo_inurba_marseille","lat":43.3038,"lon":5.42481,"is_reserved":false,"is_disabled":false,"rental_uris":{"android":"levelo://app?vid=2670d991-0257-4b07-b03d-8eaa062ba0f0","ios":"levelo://app?vid=2670d991-0257-4b07-b03d-8eaa062ba0f0"},"vehicle_type_id":"4","last_reported":1777211891,"current_range_meters":5600,"station_id":"ce4bhoh2rcd13ifvqh6g","pricing_plan_id":"cebpf4jnsgd1na2vs0mg"},{"bike_id":"5627b9fb-aa51-4890-935d-6c0e0436f96c","system_id":"levelo_inurba_marseille","lat":43.28618,"lon":5.35092,"is_reserved":false,"is_disabled":false,"rental_uris":{"android":"levelo://app?vid=5627b9fb-aa51-4890-935d-6c0e0436f96c","ios":"levelo://app?vid=5627b9fb-aa51-4890-935d-6c0e0436f96c"},"vehicle_type_id":"4","last_reported":1777211891,"current_range_meters":5600,"station_id":"ce4bhch2rcd13ifvqeug","pricing_plan_id":"cebpf4jnsgd1na2vs0mg"},{"bike_id":"cac78484-c1ba-4abf-96e3-40d634447102","system_id":"levelo_inurba_marseille","lat":43.31498,"lon":5.37305,"is_reserved":false,"is_disabled":false,"rental_uris":{"android":"levelo://app?vid=cac78484-c1ba-4abf-96e3-40d634447102","ios":"levelo://app?vid=cac78484-c1ba-4abf-96e3-40d634447102"},"vehicle_type_id":"4","last_reported":1777211891,"current_range_meters":5600,"station_id":"ce4bgt12rcd13ifvqcd0","pricing_plan_id":"cebpf4jnsgd1na2vs0mg"},{"bike_id":"d364c5bd-56d9-4246-a54e-8ba21503d24d","system_id":"levelo_inurba_marseille","lat":43.28228,"lon":5.39058,"is_reserved":false,"is_disabled":false,"rental_uris":{"android":"levelo://app?vid=d364c5bd-56d9-4246-a54e-8ba21503d24d","ios":"levelo://app?vid=d364c5bd-56d9-4246-a54e-8ba21503d24d"},"vehicle_type_id":"4","last_reported":1777211891,"current_range_meters":5600,"station_id":"ce4bhn92rcd13ifvqgsg","pricing_plan_id":"cebpf4jnsgd1na2vs0mg"},{"bike_id":"71f77c9b-2474-4a80-ae75-64f6cd6ceed6","system_id":"levelo_inurba_marseille","lat":43.28267,"lon":5.35069,"is_reserved":false,"is_disabled":false,"rental_uris":{"android":"levelo://app?vid=71f77c9b-2474-4a80-ae75-64f6cd6ceed6","ios":"levelo://app?vid=71f77c9b-2474-4a80-ae75-64f6cd6ceed6"},"vehicle_type_id":"4","last_reported":1777211891,"current_range_meters":5600,"station_id":"ce4bhbp2rcd13ifvqerg","pricing_plan_id":"cebpf4jnsgd1na2vs0mg"},{"bike_id":"1ccfe6f4-e5d4-4b33-812d-52bd4f628f2d","system_id":"levelo_inurba_marseille","lat":43.24807,"lon":5.37468,"is_reserved":false,"is_disabled":false,"rental_uris":{"android":"levelo://app?vid=1ccfe6f4-e5d4-4b33-812d-52bd4f628f2d","ios":"levelo://app?vid=1ccfe6f4-e5d4-4b33-812d-52bd4f628f2d"},"vehicle_type_id":"4","last_reported":1777211891,"current_range_meters":5600,"station_id":"ce4bhgh2rcd13ifvqfb0","pricing_plan_id":"cebpf4jnsgd1na2vs0mg"},{"bike_id":"38e9b3d1-1686-448d-830c-bc86c39cac47","system_id":"levelo_inurba_marseille","lat":43.3137,"lon":5.3849,"is_reserved":false,"is_disabled":false,"rental_uris":{"android":"levelo://app?vid=38e9b3d1-1686-448d-830c-bc86c39cac47","ios":"levelo://app?vid=38e9b3d1-1686-448d-830c-bc86c39cac47"},"vehicle_type_id":"4","last_reported":1777211891,"current_range_meters":5600,"station_id":"ce4bgt92rcd13ifvqcf0","pricing_plan_id":"cebpf4jnsgd1na2vs0mg"},{"bike_id":"833d7be3-421b-4c5f-bc44-1a51dc01aed7","system_id":"levelo_inurba_marseille","lat":43.29675,"lon":5.37274,"is_reserved":false,"is_disabled":true,"rental_uris":{"android":"levelo://app?vid=833d7be3-421b-4c5f-bc44-1a51dc01aed7","ios":"levelo://app?vid=833d7be3-421b-4c5f-bc44-1a51dc01aed7"},"vehicle_type_id":"4","last_reported":1777211891,"current_range_meters":5600,"station_id":"ce4bgk12rcd13ifvqbj0","pricing_plan_id":"cebpf4jnsgd1na2vs0mg"},{"bike_id":"edc2a3bb-1aa4-404a-9f62-c14a9c4956a6","system_id":"levelo_inurba_marseille","lat":43.25414,"lon":5.41904,"is_reserved":false,"is_disabled":false,"rental_uris":{"android":"levelo://app?vid=edc2a3bb-1aa4-404a-9f62-c14a9c4956a6","ios":"levelo://app?vid=edc2a3bb-1aa4-404a-9f62-c14a9c4956a6"},"vehicle_type_id":"4","last_reported":1777211891,"current_range_meters":5600,"station_id":"","pricing_plan_id":"cebpf4jnsgd1na2vs0mg"},{"bike_id":"f33c6c9d-346a-4c73-9b31-f3ca6fe92254","system_id":"levelo_inurba_marseille","lat":43.29632,"lon":5.3771,"is_reserved":false,"is_disabled":true,"rental_uris":{"android":"levelo://app?vid=f33c6c9d-346a-4c73-9b31-f3ca6fe92254","ios":"levelo://app?vid=f33c6c9d-346a-4c73-9b31-f3ca6fe92254"},"vehicle_type_id":"4","last_reported":1777211891,"current_range_meters":5600,"station_id":"ce4bgi92rcd13ifvqb90","pricing_plan_id":"cebpf4jnsgd1na2vs0mg"},{"bike_id":"656f2a79-da32-4dc3-b19b-16b0fd0cffc6","system_id":"levelo_inurba_marseille","lat":43.30225,"lon":5.39472,"is_reserved":false,"is_disabled":false,"rental_uris":{"android":"levelo://app?vid=656f2a79-da32-4dc3-b19b-16b0fd0cffc6","ios":"levelo://app?vid=656f2a79-da32-4dc3-b19b-16b0fd0cffc6"},"vehicle_type_id":"4","last_reported":1777211891,"current_range_meters":5600,"station_id":"ce4bh0p2rcd13ifvqd70","pricing_plan_id":"cebpf4jnsgd1na2vs0mg"},{"bike_id":"8e7458ba-19e1-42b4-be8e-fe867adf5306","system_id":"levelo_inurba_marseille","lat":43.29195,"lon":5.35799,"is_reserved":false,"is_disabled":false,"rental_uris":{"android":"levelo://app?vid=8e7458ba-19e1-42b4-be8e-fe867adf5306","ios":"levelo://app?vid=8e7458ba-19e1-42b4-be8e-fe867adf5306"},"vehicle_type_id":"4","last_reported":1777211891,"current_range_meters":5600,"station_id":"ce4bhb12rcd13ifvqel0","pricing_plan_id":"cebpf4jnsgd1na2vs0mg"},{"bike_id":"5454f3c2-412a-4d92-8a5f-96286b8638ad","system_id":"levelo_inurba_marseille","lat":43.21765,"lon":5.34597,"is_reserved":false,"is_disabled":false,"rental_uris":{"android":"levelo://app?vid=5454f3c2-412a-4d92-8a5f-96286b8638ad","ios":"levelo://app?vid=5454f3c2-412a-4d92-8a5f-96286b8638ad"},"vehicle_type_id":"4","last_reported":1777211891,"current_range_meters":5600,"station_id":"st_cvj6r9ubvosntc0bgbag","pricing_plan_id":"cebpf4jnsgd1na2vs0mg"},{"bike_id":"89fb4dc6-3ddd-4fa4-8fb2-259bffb1ba6b","system_id":"levelo_inurba_marseille","lat":43.29894,"lon":5.38137,"is_reserved":false,"is_disabled":false,"rental_uris":{"android":"levelo://app?vid=89fb4dc6-3ddd-4fa4-8fb2-259bffb1ba6b","ios":"levelo://app?vid=89fb4dc6-3ddd-4fa4-8fb2-259bffb1ba6b"},"vehicle_type_id":"4","last_reported":1777211891,"current_range_meters":5600,"station_id":"ce4bgj12rcd13ifvqbc0","pricing_plan_id":"cebpf4jnsgd1na2vs0mg"},{"bike_id":"59df43ab-e007-45c0-b4ae-00eca9962a94","system_id":"levelo_inurba_marseille","lat":43.21763,"lon":5.34638,"is_reserved":false,"is_disabled":false,"rental_uris":{"android":"levelo://app?vid=59df43ab-e007-45c0-b4ae-00eca9962a94","ios":"levelo://app?vid=59df43ab-e007-45c0-b4ae-00eca9962a94"},"vehicle_type_id":"4","last_reported":1777211891,"current_range_meters":6000,"station_id":"st_cvj6r9ubvosntc0bgbag","pricing_plan_id":"cebpf4jnsgd1na2vs0mg"},{"bike_id":"9a7c39d8-ef30-4694-b180-b6fe0a089530","system_id":"levelo_inurba_marseille","lat":43.30124,"lon":5.43107,"is_reserved":false,"is_disabled":false,"rental_uris":{"android":"levelo://app?vid=9a7c39d8-ef30-4694-b180-b6fe0a089530","ios":"levelo://app?vid=9a7c39d8-ef30-4694-b180-b6fe0a089530"},"vehicle_type_id":"4","last_reported":1777211891,"current_range_meters":6000,"station_id":"st_d3js3co5814s73ftftug","pricing_plan_id":"cebpf4jnsgd1na2vs0mg"},{"bike_id":"27cd71a7-0940-4415-a67f-21597fbf1cd9","system_id":"levelo_inurba_marseille","lat":43.34671,"lon":5.37762,"is_reserved":false,"is_disabled":false,"rental_uris":{"android":"levelo://app?vid=27cd71a7-0940-4415-a67f-21597fbf1cd9","ios":"levelo://app?vid=27cd71a7-0940-4415-a67f-21597fbf1cd9"},"vehicle_type_id":"4","last_reported":1777211891,"current_range_meters":6000,"station_id":"","pricing_plan_id":"cebpf4jnsgd1na2vs0mg"},{"bike_id":"9762113e-a054-458e-a16d-f34215941270","system_id":"levelo_inurba_marseille","lat":43.29232,"lon":5.36067,"is_reserved":false,"is_disabled":true,"rental_uris":{"android":"levelo://app?vid=9762113e-a054-458e-a16d-f34215941270","ios":"levelo://app?vid=9762113e-a054-458e-a16d-f34215941270"},"vehicle_type_id":"4","last_reported":1777211891,"current_range_meters":6000,"station_id":"ce4bhbh2rcd13ifvqeqg","pricing_plan_id":"cebpf4jnsgd1na2vs0mg"},{"bike_id":"7d1bd3e1-6fa5-4a81-b0ce-045b4844a577","system_id":"levelo_inurba_marseille","lat":43.298096,"lon":5.380895,"is_reserved":false,"is_disabled":false,"rental_uris":{"android":"levelo://app?vid=7d1bd3e1-6fa5-4a81-b0ce-045b4844a577","ios":"levelo://app?vid=7d1bd3e1-6fa5-4a81-b0ce-045b4844a577"},"vehicle_type_id":"4","last_reported":1777211891,"current_range_meters":6000,"station_id":"ce4bgip2rcd13ifvqbb0","pricing_plan_id":"cebpf4jnsgd1na2vs0mg"},{"bike_id":"26d26955-b302-4311-88a8-057f7b19117a","system_id":"levelo_inurba_marseille","lat":43.29652,"lon":5.36063,"is_reserved":false,"is_disabled":false,"rental_uris":{"android":"levelo://app?vid=26d26955-b302-4311-88a8-057f7b19117a","ios":"levelo://app?vid=26d26955-b302-4311-88a8-057f7b19117a"},"vehicle_type_id":"4","last_reported":1777211891,"current_range_meters":6000,"station_id":"","pricing_plan_id":"cebpf4jnsgd1na2vs0mg"},{"bike_id":"5687bcf3-d7dc-457c-91e4-c37491638fcd","system_id":"levelo_inurba_marseille","lat":43.2416,"lon":5.36382,"is_reserved":false,"is_disabled":false,"rental_uris":{"android":"levelo://app?vid=5687bcf3-d7dc-457c-91e4-c37491638fcd","ios":"levelo://app?vid=5687bcf3-d7dc-457c-91e4-c37491638fcd"},"vehicle_type_id":"4","last_reported":1777211891,"current_range_meters":6000,"station_id":"cpo36qri1sfpv3e86is0","pricing_plan_id":"cebpf4jnsgd1na2vs0mg"},{"bike_id":"cf1f6864-c236-45f7-a603-0f4fe0032b57","system_id":"levelo_inurba_marseille","lat":43.29003,"lon":5.35606,"is_reserved":false,"is_disabled":false,"rental_uris":{"android":"levelo://app?vid=cf1f6864-c236-45f7-a603-0f4fe0032b57","ios":"levelo://app?vid=cf1f6864-c236-45f7-a603-0f4fe0032b57"},"vehicle_type_id":"4","last_reported":1777211891,"current_range_meters":6000,"station_id":"ce4bhb92rcd13ifvqen0","pricing_plan_id":"cebpf4jnsgd1na2vs0mg"},{"bike_id":"7f14f307-ed9b-4bde-a995-2c9126a5e681","system_id":"levelo_inurba_marseille","lat":43.30457,"lon":5.37881,"is_reserved":false,"is_disabled":true,"rental_uris":{"android":"levelo://app?vid=7f14f307-ed9b-4bde-a995-2c9126a5e681","ios":"levelo://app?vid=7f14f307-ed9b-4bde-a995-2c9126a5e681"},"vehicle_type_id":"4","last_reported":1777211891,"current_range_meters":6000,"station_id":"ce4bgup2rcd13ifvqcn0","pricing_plan_id":"cebpf4jnsgd1na2vs0mg"},{"bike_id":"3a1dde76-eca1-4259-a733-fe668960caa8","system_id":"levelo_inurba_marseille","lat":43.24493,"lon":5.39061,"is_reserved":false,"is_disabled":false,"rental_uris":{"android":"levelo://app?vid=3a1dde76-eca1-4259-a733-fe668960caa8","ios":"levelo://app?vid=3a1dde76-eca1-4259-a733-fe668960caa8"},"vehicle_type_id":"4","last_reported":1777211891,"current_range_meters":6000,"station_id":"","pricing_plan_id":"cebpf4jnsgd1na2vs0mg"},{"bike_id":"e79bde01-2f2e-4687-9114-2908a926683e","system_id":"levelo_inurba_marseille","lat":43.33553,"lon":5.37458,"is_reserved":false,"is_disabled":false,"rental_uris":{"android":"levelo://app?vid=e79bde01-2f2e-4687-9114-2908a926683e","ios":"levelo://app?vid=e79bde01-2f2e-4687-9114-2908a926683e"},"vehicle_type_id":"4","last_reported":1777211891,"current_range_meters":6000,"station_id":"st_d46tts09ee8s73dlu43g","pricing_plan_id":"cebpf4jnsgd1na2vs0mg"},{"bike_id":"482ceb54-a3ae-43f2-9f56-5275cc843a3e","system_id":"levelo_inurba_marseille","lat":43.29012,"lon":5.35605,"is_reserved":false,"is_disabled":false,"rental_uris":{"android":"levelo://app?vid=482ceb54-a3ae-43f2-9f56-5275cc843a3e","ios":"levelo://app?vid=482ceb54-a3ae-43f2-9f56-5275cc843a3e"},"vehicle_type_id":"4","last_reported":1777211891,"current_range_meters":6000,"station_id":"ce4bhb92rcd13ifvqen0","pricing_plan_id":"cebpf4jnsgd1na2vs0mg"},{"bike_id":"f2d456c1-c6bb-403a-b71b-029d33b57a86","system_id":"levelo_inurba_marseille","lat":43.2621,"lon":5.37444,"is_reserved":false,"is_disabled":false,"rental_uris":{"android":"levelo://app?vid=f2d456c1-c6bb-403a-b71b-029d33b57a86","ios":"levelo://app?vid=f2d456c1-c6bb-403a-b71b-029d33b57a86"},"vehicle_type_id":"4","last_reported":1777211891,"current_range_meters":6000,"station_id":"ce4bhgp2rcd13ifvqfc0","pricing_plan_id":"cebpf4jnsgd1na2vs0mg"},{"bike_id":"fd37538c-2d7b-450d-9253-65dc48c9a65a","system_id":"levelo_inurba_marseille","lat":43.28262,"lon":5.35087,"is_reserved":false,"is_disabled":false,"rental_uris":{"android":"levelo://app?vid=fd37538c-2d7b-450d-9253-65dc48c9a65a","ios":"levelo://app?vid=fd37538c-2d7b-450d-9253-65dc48c9a65a"},"vehicle_type_id":"4","last_reported":1777211891,"current_range_meters":6000,"station_id":"ce4bhbp2rcd13ifvqerg","pricing_plan_id":"cebpf4jnsgd1na2vs0mg"},{"bike_id":"5367fafd-42a5-4c52-bd35-5d85953af91c","system_id":"levelo_inurba_marseille","lat":43.30782,"lon":5.37457,"is_reserved":false,"is_disabled":true,"rental_uris":{"android":"levelo://app?vid=5367fafd-42a5-4c52-bd35-5d85953af91c","ios":"levelo://app?vid=5367fafd-42a5-4c52-bd35-5d85953af91c"},"vehicle_type_id":"4","last_reported":1777211891,"current_range_meters":6400,"station_id":"","pricing_plan_id":"cebpf4jnsgd1na2vs0mg"},{"bike_id":"72337c7c-15fe-4d9d-a055-b6365e7a1881","system_id":"levelo_inurba_marseille","lat":43.24968,"lon":5.40496,"is_reserved":false,"is_disabled":false,"rental_uris":{"android":"levelo://app?vid=72337c7c-15fe-4d9d-a055-b6365e7a1881","ios":"levelo://app?vid=72337c7c-15fe-4d9d-a055-b6365e7a1881"},"vehicle_type_id":"4","last_reported":1777211891,"current_range_meters":6400,"station_id":"st_d2ngiaodas8pm72gd1h0","pricing_plan_id":"cebpf4jnsgd1na2vs0mg"},{"bike_id":"085eefc3-42b6-4e5f-8fa3-5e096f60ac23","system_id":"levelo_inurba_marseille","lat":43.21754,"lon":5.34589,"is_reserved":false,"is_disabled":true,"rental_uris":{"android":"levelo://app?vid=085eefc3-42b6-4e5f-8fa3-5e096f60ac23","ios":"levelo://app?vid=085eefc3-42b6-4e5f-8fa3-5e096f60ac23"},"vehicle_type_id":"4","last_reported":1777211891,"current_range_meters":6400,"station_id":"st_cvj6r9ubvosntc0bgbag","pricing_plan_id":"cebpf4jnsgd1na2vs0mg"},{"bike_id":"adfeb2f2-21a5-4adf-a92e-a60a7bb66934","system_id":"levelo_inurba_marseille","lat":43.29015,"lon":5.35631,"is_reserved":false,"is_disabled":true,"rental_uris":{"android":"levelo://app?vid=adfeb2f2-21a5-4adf-a92e-a60a7bb66934","ios":"levelo://app?vid=adfeb2f2-21a5-4adf-a92e-a60a7bb66934"},"vehicle_type_id":"4","last_reported":1777211891,"current_range_meters":6400,"station_id":"ce4bhb92rcd13ifvqen0","pricing_plan_id":"cebpf4jnsgd1na2vs0mg"},{"bike_id":"b9ed9245-7019-4a6e-bd43-3c941d977295","system_id":"levelo_inurba_marseille","lat":43.2175,"lon":5.34609,"is_reserved":false,"is_disabled":false,"rental_uris":{"android":"levelo://app?vid=b9ed9245-7019-4a6e-bd43-3c941d977295","ios":"levelo://app?vid=b9ed9245-7019-4a6e-bd43-3c941d977295"},"vehicle_type_id":"4","last_reported":1777211891,"current_range_meters":6400,"station_id":"st_cvj6r9ubvosntc0bgbag","pricing_plan_id":"cebpf4jnsgd1na2vs0mg"},{"bike_id":"e6e0181d-d51b-42d7-93b1-7e8f4d00629c","system_id":"levelo_inurba_marseille","lat":43.2983,"lon":5.42034,"is_reserved":false,"is_disabled":true,"rental_uris":{"android":"levelo://app?vid=e6e0181d-d51b-42d7-93b1-7e8f4d00629c","ios":"levelo://app?vid=e6e0181d-d51b-42d7-93b1-7e8f4d00629c"},"vehicle_type_id":"4","last_reported":1777211891,"current_range_meters":6400,"station_id":"","pricing_plan_id":"cebpf4jnsgd1na2vs0mg"},{"bike_id":"31a0810d-88a4-4848-81b1-d2a86f111816","system_id":"levelo_inurba_marseille","lat":43.29886,"lon":5.38912,"is_reserved":false,"is_disabled":false,"rental_uris":{"android":"levelo://app?vid=31a0810d-88a4-4848-81b1-d2a86f111816","ios":"levelo://app?vid=31a0810d-88a4-4848-81b1-d2a86f111816"},"vehicle_type_id":"4","last_reported":1777211891,"current_range_meters":6400,"station_id":"ce4bh392rcd13ifvqdl0","pricing_plan_id":"cebpf4jnsgd1na2vs0mg"},{"bike_id":"4bcf0e64-be47-461c-b105-544ba4e9a730","system_id":"levelo_inurba_marseille","lat":43.27948,"lon":5.38683,"is_reserved":false,"is_disabled":true,"rental_uris":{"android":"levelo://app?vid=4bcf0e64-be47-461c-b105-544ba4e9a730","ios":"levelo://app?vid=4bcf0e64-be47-461c-b105-544ba4e9a730"},"vehicle_type_id":"4","last_reported":1777211891,"current_range_meters":6400,"station_id":"","pricing_plan_id":"cebpf4jnsgd1na2vs0mg"},{"bike_id":"0e385029-f21e-4196-be6e-7feb5fd87d07","system_id":"levelo_inurba_marseille","lat":43.31924,"lon":5.36817,"is_reserved":false,"is_disabled":false,"rental_uris":{"android":"levelo://app?vid=0e385029-f21e-4196-be6e-7feb5fd87d07","ios":"levelo://app?vid=0e385029-f21e-4196-be6e-7feb5fd87d07"},"vehicle_type_id":"4","last_reported":1777211891,"current_range_meters":6400,"station_id":"st_d6o2h0d0559c73evc1b0","pricing_plan_id":"cebpf4jnsgd1na2vs0mg"},{"bike_id":"bce420a6-5599-4be4-8fa7-2b5abfb08496","system_id":"levelo_inurba_marseille","lat":43.26214,"lon":5.37439,"is_reserved":false,"is_disabled":false,"rental_uris":{"android":"levelo://app?vid=bce420a6-5599-4be4-8fa7-2b5abfb08496","ios":"levelo://app?vid=bce420a6-5599-4be4-8fa7-2b5abfb08496"},"vehicle_type_id":"4","last_reported":1777211891,"current_range_meters":6400,"station_id":"ce4bhgp2rcd13ifvqfc0","pricing_plan_id":"cebpf4jnsgd1na2vs0mg"},{"bike_id":"a01084e1-e3bb-401b-8983-36e84e95f877","system_id":"levelo_inurba_marseille","lat":43.29014,"lon":5.35622,"is_reserved":false,"is_disabled":false,"rental_uris":{"android":"levelo://app?vid=a01084e1-e3bb-401b-8983-36e84e95f877","ios":"levelo://app?vid=a01084e1-e3bb-401b-8983-36e84e95f877"},"vehicle_type_id":"4","last_reported":1777211891,"current_range_meters":6400,"station_id":"ce4bhb92rcd13ifvqen0","pricing_plan_id":"cebpf4jnsgd1na2vs0mg"},{"bike_id":"5fdff1d7-b2d7-4e39-ad7f-00ed09411d1d","system_id":"levelo_inurba_marseille","lat":43.28478,"lon":5.48394,"is_reserved":false,"is_disabled":false,"rental_uris":{"android":"levelo://app?vid=5fdff1d7-b2d7-4e39-ad7f-00ed09411d1d","ios":"levelo://app?vid=5fdff1d7-b2d7-4e39-ad7f-00ed09411d1d"},"vehicle_type_id":"4","last_reported":1777211891,"current_range_meters":6800,"station_id":"st_d3svhcjqgbts73a3dn0g","pricing_plan_id":"cebpf4jnsgd1na2vs0mg"},{"bike_id":"757fdfcb-45d7-4c45-8e18-f9ab346e8260","system_id":"levelo_inurba_marseille","lat":43.2467,"lon":5.39815,"is_reserved":false,"is_disabled":false,"rental_uris":{"android":"levelo://app?vid=757fdfcb-45d7-4c45-8e18-f9ab346e8260","ios":"levelo://app?vid=757fdfcb-45d7-4c45-8e18-f9ab346e8260"},"vehicle_type_id":"4","last_reported":1777211891,"current_range_meters":6800,"station_id":"","pricing_plan_id":"cebpf4jnsgd1na2vs0mg"},{"bike_id":"dcf3c7cc-fd9e-448d-9a58-59ca264eaa33","system_id":"levelo_inurba_marseille","lat":43.23189,"lon":5.39994,"is_reserved":false,"is_disabled":false,"rental_uris":{"android":"levelo://app?vid=dcf3c7cc-fd9e-448d-9a58-59ca264eaa33","ios":"levelo://app?vid=dcf3c7cc-fd9e-448d-9a58-59ca264eaa33"},"vehicle_type_id":"4","last_reported":1777211891,"current_range_meters":6800,"station_id":"ce4bhn12rcd13ifvqgqg","pricing_plan_id":"cebpf4jnsgd1na2vs0mg"},{"bike_id":"8072cacb-a3e8-46da-82ae-1b43a1fd8ce5","system_id":"levelo_inurba_marseille","lat":43.27812,"lon":5.40705,"is_reserved":false,"is_disabled":false,"rental_uris":{"android":"levelo://app?vid=8072cacb-a3e8-46da-82ae-1b43a1fd8ce5","ios":"levelo://app?vid=8072cacb-a3e8-46da-82ae-1b43a1fd8ce5"},"vehicle_type_id":"4","last_reported":1777211891,"current_range_meters":6800,"station_id":"ce4bhnh2rcd13ifvqgtg","pricing_plan_id":"cebpf4jnsgd1na2vs0mg"},{"bike_id":"6cf3a600-b22f-4888-b1ea-a099526102d1","system_id":"levelo_inurba_marseille","lat":43.24657,"lon":5.38156,"is_reserved":false,"is_disabled":false,"rental_uris":{"android":"levelo://app?vid=6cf3a600-b22f-4888-b1ea-a099526102d1","ios":"levelo://app?vid=6cf3a600-b22f-4888-b1ea-a099526102d1"},"vehicle_type_id":"4","last_reported":1777211891,"current_range_meters":6800,"station_id":"ce4bhih2rcd13ifvqfr0","pricing_plan_id":"cebpf4jnsgd1na2vs0mg"},{"bike_id":"6b60b3c8-da35-492c-9411-418199a97ad7","system_id":"levelo_inurba_marseille","lat":43.28484,"lon":5.48391,"is_reserved":false,"is_disabled":false,"rental_uris":{"android":"levelo://app?vid=6b60b3c8-da35-492c-9411-418199a97ad7","ios":"levelo://app?vid=6b60b3c8-da35-492c-9411-418199a97ad7"},"vehicle_type_id":"4","last_reported":1777211891,"current_range_meters":6800,"station_id":"","pricing_plan_id":"cebpf4jnsgd1na2vs0mg"},{"bike_id":"f54ccc15-12bb-43a9-bcae-01eb62b17984","system_id":"levelo_inurba_marseille","lat":43.24807,"lon":5.37457,"is_reserved":false,"is_disabled":false,"rental_uris":{"android":"levelo://app?vid=f54ccc15-12bb-43a9-bcae-01eb62b17984","ios":"levelo://app?vid=f54ccc15-12bb-43a9-bcae-01eb62b17984"},"vehicle_type_id":"4","last_reported":1777211891,"current_range_meters":6800,"station_id":"ce4bhgh2rcd13ifvqfb0","pricing_plan_id":"cebpf4jnsgd1na2vs0mg"},{"bike_id":"673573fb-7457-48f9-bf98-23c4f082a93a","system_id":"levelo_inurba_marseille","lat":43.23187,"lon":5.39978,"is_reserved":false,"is_disabled":false,"rental_uris":{"android":"levelo://app?vid=673573fb-7457-48f9-bf98-23c4f082a93a","ios":"levelo://app?vid=673573fb-7457-48f9-bf98-23c4f082a93a"},"vehicle_type_id":"4","last_reported":1777211891,"current_range_meters":6800,"station_id":"ce4bhn12rcd13ifvqgqg","pricing_plan_id":"cebpf4jnsgd1na2vs0mg"},{"bike_id":"542aadd2-a086-4209-8c40-cbe465a012e2","system_id":"levelo_inurba_marseille","lat":43.284632,"lon":5.383991,"is_reserved":false,"is_disabled":false,"rental_uris":{"android":"levelo://app?vid=542aadd2-a086-4209-8c40-cbe465a012e2","ios":"levelo://app?vid=542aadd2-a086-4209-8c40-cbe465a012e2"},"vehicle_type_id":"4","last_reported":1777211891,"current_range_meters":6800,"station_id":"ce4bh512rcd13ifvqe3g","pricing_plan_id":"cebpf4jnsgd1na2vs0mg"},{"bike_id":"5e683b62-64f7-44d0-9ab4-412119859e25","system_id":"levelo_inurba_marseille","lat":43.28418,"lon":5.3499,"is_reserved":false,"is_disabled":false,"rental_uris":{"android":"levelo://app?vid=5e683b62-64f7-44d0-9ab4-412119859e25","ios":"levelo://app?vid=5e683b62-64f7-44d0-9ab4-412119859e25"},"vehicle_type_id":"4","last_reported":1777211891,"current_range_meters":6800,"station_id":"ce4bhbh2rcd13ifvqepg","pricing_plan_id":"cebpf4jnsgd1na2vs0mg"},{"bike_id":"f53330b9-0f9d-447e-9c64-11b14fd04f2c","system_id":"levelo_inurba_marseille","lat":43.26216,"lon":5.37439,"is_reserved":false,"is_disabled":false,"rental_uris":{"android":"levelo://app?vid=f53330b9-0f9d-447e-9c64-11b14fd04f2c","ios":"levelo://app?vid=f53330b9-0f9d-447e-9c64-11b14fd04f2c"},"vehicle_type_id":"4","last_reported":1777211891,"current_range_meters":6800,"station_id":"ce4bhgp2rcd13ifvqfc0","pricing_plan_id":"cebpf4jnsgd1na2vs0mg"},{"bike_id":"fda983b3-301e-40f3-bb07-e5c67ab620e4","system_id":"levelo_inurba_marseille","lat":43.25079,"lon":5.40461,"is_reserved":false,"is_disabled":false,"rental_uris":{"android":"levelo://app?vid=fda983b3-301e-40f3-bb07-e5c67ab620e4","ios":"levelo://app?vid=fda983b3-301e-40f3-bb07-e5c67ab620e4"},"vehicle_type_id":"4","last_reported":1777211891,"current_range_meters":6800,"station_id":"","pricing_plan_id":"cebpf4jnsgd1na2vs0mg"},{"bike_id":"b7166d00-058e-4f8a-ac08-8d7664362d9a","system_id":"levelo_inurba_marseille","lat":43.26545,"lon":5.37287,"is_reserved":false,"is_disabled":true,"rental_uris":{"android":"levelo://app?vid=b7166d00-058e-4f8a-ac08-8d7664362d9a","ios":"levelo://app?vid=b7166d00-058e-4f8a-ac08-8d7664362d9a"},"vehicle_type_id":"4","last_reported":1777211891,"current_range_meters":6800,"station_id":"ce4bhg12rcd13ifvqf70","pricing_plan_id":"cebpf4jnsgd1na2vs0mg"},{"bike_id":"8025febf-f4d5-4349-8a51-c17a308b0a80","system_id":"levelo_inurba_marseille","lat":43.23155,"lon":5.43715,"is_reserved":false,"is_disabled":false,"rental_uris":{"android":"levelo://app?vid=8025febf-f4d5-4349-8a51-c17a308b0a80","ios":"levelo://app?vid=8025febf-f4d5-4349-8a51-c17a308b0a80"},"vehicle_type_id":"4","last_reported":1777211891,"current_range_meters":6800,"station_id":"ce4bhmp2rcd13ifvqgog","pricing_plan_id":"cebpf4jnsgd1na2vs0mg"},{"bike_id":"995bb8fe-2e63-4c90-9423-26bbc684bf0a","system_id":"levelo_inurba_marseille","lat":43.29105,"lon":5.35502,"is_reserved":false,"is_disabled":false,"rental_uris":{"android":"levelo://app?vid=995bb8fe-2e63-4c90-9423-26bbc684bf0a","ios":"levelo://app?vid=995bb8fe-2e63-4c90-9423-26bbc684bf0a"},"vehicle_type_id":"4","last_reported":1777211891,"current_range_meters":6800,"station_id":"","pricing_plan_id":"cebpf4jnsgd1na2vs0mg"},{"bike_id":"d054276e-6372-4793-ae37-6281dafb78f8","system_id":"levelo_inurba_marseille","lat":43.3376,"lon":5.37435,"is_reserved":false,"is_disabled":false,"rental_uris":{"android":"levelo://app?vid=d054276e-6372-4793-ae37-6281dafb78f8","ios":"levelo://app?vid=d054276e-6372-4793-ae37-6281dafb78f8"},"vehicle_type_id":"4","last_reported":1777211891,"current_range_meters":6800,"station_id":"","pricing_plan_id":"cebpf4jnsgd1na2vs0mg"},{"bike_id":"577bfdf5-6f2c-490d-a748-b8e81e08342d","system_id":"levelo_inurba_marseille","lat":43.262,"lon":5.37931,"is_reserved":false,"is_disabled":false,"rental_uris":{"android":"levelo://app?vid=577bfdf5-6f2c-490d-a748-b8e81e08342d","ios":"levelo://app?vid=577bfdf5-6f2c-490d-a748-b8e81e08342d"},"vehicle_type_id":"4","last_reported":1777211891,"current_range_meters":6800,"station_id":"ce4bhjp2rcd13ifvqg90","pricing_plan_id":"cebpf4jnsgd1na2vs0mg"},{"bike_id":"fbae2ad0-8b58-45b7-a98a-5e8ab07ce62f","system_id":"levelo_inurba_marseille","lat":43.23171,"lon":5.4373,"is_reserved":false,"is_disabled":false,"rental_uris":{"android":"levelo://app?vid=fbae2ad0-8b58-45b7-a98a-5e8ab07ce62f","ios":"levelo://app?vid=fbae2ad0-8b58-45b7-a98a-5e8ab07ce62f"},"vehicle_type_id":"4","last_reported":1777211891,"current_range_meters":6800,"station_id":"ce4bhmp2rcd13ifvqgog","pricing_plan_id":"cebpf4jnsgd1na2vs0mg"},{"bike_id":"a7b351df-5bd2-470f-9c9e-360eff3d0098","system_id":"levelo_inurba_marseille","lat":43.24172,"lon":5.36394,"is_reserved":false,"is_disabled":false,"rental_uris":{"android":"levelo://app?vid=a7b351df-5bd2-470f-9c9e-360eff3d0098","ios":"levelo://app?vid=a7b351df-5bd2-470f-9c9e-360eff3d0098"},"vehicle_type_id":"4","last_reported":1777211891,"current_range_meters":6800,"station_id":"cpo36qri1sfpv3e86is0","pricing_plan_id":"cebpf4jnsgd1na2vs0mg"},{"bike_id":"494fd0fc-3b39-4504-a26b-321afbf22977","system_id":"levelo_inurba_marseille","lat":43.23837,"lon":5.38581,"is_reserved":false,"is_disabled":false,"rental_uris":{"android":"levelo://app?vid=494fd0fc-3b39-4504-a26b-321afbf22977","ios":"levelo://app?vid=494fd0fc-3b39-4504-a26b-321afbf22977"},"vehicle_type_id":"4","last_reported":1777211891,"current_range_meters":7200,"station_id":"","pricing_plan_id":"cebpf4jnsgd1na2vs0mg"},{"bike_id":"619b4b09-ecfc-4a0b-9115-5e9e5f758e17","system_id":"levelo_inurba_marseille","lat":43.26226,"lon":5.40452,"is_reserved":false,"is_disabled":false,"rental_uris":{"android":"levelo://app?vid=619b4b09-ecfc-4a0b-9115-5e9e5f758e17","ios":"levelo://app?vid=619b4b09-ecfc-4a0b-9115-5e9e5f758e17"},"vehicle_type_id":"4","last_reported":1777211891,"current_range_meters":7200,"station_id":"ce4bhmh2rcd13ifvqgmg","pricing_plan_id":"cebpf4jnsgd1na2vs0mg"},{"bike_id":"2d25305f-10ee-48ce-a748-fdeb99bbb7cd","system_id":"levelo_inurba_marseille","lat":43.28289,"lon":5.35079,"is_reserved":false,"is_disabled":false,"rental_uris":{"android":"levelo://app?vid=2d25305f-10ee-48ce-a748-fdeb99bbb7cd","ios":"levelo://app?vid=2d25305f-10ee-48ce-a748-fdeb99bbb7cd"},"vehicle_type_id":"4","last_reported":1777211891,"current_range_meters":7200,"station_id":"ce4bhbp2rcd13ifvqerg","pricing_plan_id":"cebpf4jnsgd1na2vs0mg"},{"bike_id":"1fa7c290-baf4-43ed-aa99-7181dabef99e","system_id":"levelo_inurba_marseille","lat":43.33565,"lon":5.37447,"is_reserved":false,"is_disabled":false,"rental_uris":{"android":"levelo://app?vid=1fa7c290-baf4-43ed-aa99-7181dabef99e","ios":"levelo://app?vid=1fa7c290-baf4-43ed-aa99-7181dabef99e"},"vehicle_type_id":"4","last_reported":1777211891,"current_range_meters":7200,"station_id":"st_d46tts09ee8s73dlu43g","pricing_plan_id":"cebpf4jnsgd1na2vs0mg"},{"bike_id":"1ac2bcff-881c-4de3-8192-4b57221e3702","system_id":"levelo_inurba_marseille","lat":43.28263,"lon":5.3506,"is_reserved":false,"is_disabled":false,"rental_uris":{"android":"levelo://app?vid=1ac2bcff-881c-4de3-8192-4b57221e3702","ios":"levelo://app?vid=1ac2bcff-881c-4de3-8192-4b57221e3702"},"vehicle_type_id":"4","last_reported":1777211891,"current_range_meters":7200,"station_id":"ce4bhbp2rcd13ifvqerg","pricing_plan_id":"cebpf4jnsgd1na2vs0mg"},{"bike_id":"0ac555e9-c797-43c9-bf5d-069ca57ec55b","system_id":"levelo_inurba_marseille","lat":43.27384,"lon":5.36247,"is_reserved":false,"is_disabled":false,"rental_uris":{"android":"levelo://app?vid=0ac555e9-c797-43c9-bf5d-069ca57ec55b","ios":"levelo://app?vid=0ac555e9-c797-43c9-bf5d-069ca57ec55b"},"vehicle_type_id":"4","last_reported":1777211891,"current_range_meters":7200,"station_id":"ce4bhbh2rcd13ifvqeo0","pricing_plan_id":"cebpf4jnsgd1na2vs0mg"},{"bike_id":"33360ac8-3529-4040-8de3-a2a99aa58a78","system_id":"levelo_inurba_marseille","lat":43.29624,"lon":5.37722,"is_reserved":false,"is_disabled":false,"rental_uris":{"android":"levelo://app?vid=33360ac8-3529-4040-8de3-a2a99aa58a78","ios":"levelo://app?vid=33360ac8-3529-4040-8de3-a2a99aa58a78"},"vehicle_type_id":"4","last_reported":1777211891,"current_range_meters":7200,"station_id":"ce4bgi92rcd13ifvqb90","pricing_plan_id":"cebpf4jnsgd1na2vs0mg"},{"bike_id":"be3dbaca-317c-43ef-8335-8f03df566046","system_id":"levelo_inurba_marseille","lat":43.28474,"lon":5.48407,"is_reserved":false,"is_disabled":true,"rental_uris":{"android":"levelo://app?vid=be3dbaca-317c-43ef-8335-8f03df566046","ios":"levelo://app?vid=be3dbaca-317c-43ef-8335-8f03df566046"},"vehicle_type_id":"4","last_reported":1777211891,"current_range_meters":7200,"station_id":"st_d3svhcjqgbts73a3dn0g","pricing_plan_id":"cebpf4jnsgd1na2vs0mg"},{"bike_id":"4470a9dc-0144-467a-9b93-3600a3a76722","system_id":"levelo_inurba_marseille","lat":43.2828,"lon":5.35076,"is_reserved":false,"is_disabled":false,"rental_uris":{"android":"levelo://app?vid=4470a9dc-0144-467a-9b93-3600a3a76722","ios":"levelo://app?vid=4470a9dc-0144-467a-9b93-3600a3a76722"},"vehicle_type_id":"4","last_reported":1777211891,"current_range_meters":7200,"station_id":"ce4bhbp2rcd13ifvqerg","pricing_plan_id":"cebpf4jnsgd1na2vs0mg"},{"bike_id":"9d1ed9ff-baf1-40fc-993f-5d81d5be1a06","system_id":"levelo_inurba_marseille","lat":43.28614,"lon":5.35122,"is_reserved":false,"is_disabled":false,"rental_uris":{"android":"levelo://app?vid=9d1ed9ff-baf1-40fc-993f-5d81d5be1a06","ios":"levelo://app?vid=9d1ed9ff-baf1-40fc-993f-5d81d5be1a06"},"vehicle_type_id":"4","last_reported":1777211891,"current_range_meters":7200,"station_id":"ce4bhch2rcd13ifvqeug","pricing_plan_id":"cebpf4jnsgd1na2vs0mg"},{"bike_id":"ce0be5c8-4b0c-40fe-a59a-3e397ca3838c","system_id":"levelo_inurba_marseille","lat":43.286049,"lon":5.351018,"is_reserved":false,"is_disabled":false,"rental_uris":{"android":"levelo://app?vid=ce0be5c8-4b0c-40fe-a59a-3e397ca3838c","ios":"levelo://app?vid=ce0be5c8-4b0c-40fe-a59a-3e397ca3838c"},"vehicle_type_id":"4","last_reported":1777211891,"current_range_meters":7200,"station_id":"ce4bhch2rcd13ifvqeug","pricing_plan_id":"cebpf4jnsgd1na2vs0mg"},{"bike_id":"15821033-207c-471b-9a63-5f746af38414","system_id":"levelo_inurba_marseille","lat":43.28256,"lon":5.3506,"is_reserved":false,"is_disabled":false,"rental_uris":{"android":"levelo://app?vid=15821033-207c-471b-9a63-5f746af38414","ios":"levelo://app?vid=15821033-207c-471b-9a63-5f746af38414"},"vehicle_type_id":"4","last_reported":1777211891,"current_range_meters":7200,"station_id":"ce4bhbp2rcd13ifvqerg","pricing_plan_id":"cebpf4jnsgd1na2vs0mg"},{"bike_id":"d435150b-197b-46a1-b32e-b70528f666dc","system_id":"levelo_inurba_marseille","lat":43.26378,"lon":5.41077,"is_reserved":false,"is_disabled":false,"rental_uris":{"android":"levelo://app?vid=d435150b-197b-46a1-b32e-b70528f666dc","ios":"levelo://app?vid=d435150b-197b-46a1-b32e-b70528f666dc"},"vehicle_type_id":"4","last_reported":1777211891,"current_range_meters":7200,"station_id":"st_d4e5ca6na9uc73bfl5fg","pricing_plan_id":"cebpf4jnsgd1na2vs0mg"},{"bike_id":"7593362a-9be7-459d-b776-70952d11c89d","system_id":"levelo_inurba_marseille","lat":43.28476,"lon":5.384364,"is_reserved":false,"is_disabled":false,"rental_uris":{"android":"levelo://app?vid=7593362a-9be7-459d-b776-70952d11c89d","ios":"levelo://app?vid=7593362a-9be7-459d-b776-70952d11c89d"},"vehicle_type_id":"4","last_reported":1777211891,"current_range_meters":7200,"station_id":"ce4bh512rcd13ifvqe3g","pricing_plan_id":"cebpf4jnsgd1na2vs0mg"},{"bike_id":"6e48a8c2-492c-4c01-beb0-e869aa979149","system_id":"levelo_inurba_marseille","lat":43.30517,"lon":5.36493,"is_reserved":false,"is_disabled":false,"rental_uris":{"android":"levelo://app?vid=6e48a8c2-492c-4c01-beb0-e869aa979149","ios":"levelo://app?vid=6e48a8c2-492c-4c01-beb0-e869aa979149"},"vehicle_type_id":"4","last_reported":1777211891,"current_range_meters":7200,"station_id":"","pricing_plan_id":"cebpf4jnsgd1na2vs0mg"},{"bike_id":"6642fb88-bb63-47a1-875b-f455ae5106b2","system_id":"levelo_inurba_marseille","lat":43.30561,"lon":5.3656,"is_reserved":false,"is_disabled":false,"rental_uris":{"android":"levelo://app?vid=6642fb88-bb63-47a1-875b-f455ae5106b2","ios":"levelo://app?vid=6642fb88-bb63-47a1-875b-f455ae5106b2"},"vehicle_type_id":"4","last_reported":1777211891,"current_range_meters":7200,"station_id":"ce4bgs12rcd13ifvqcag","pricing_plan_id":"cebpf4jnsgd1na2vs0mg"},{"bike_id":"58bc3e60-f18b-427c-b5e0-e156e759d6db","system_id":"levelo_inurba_marseille","lat":43.31342,"lon":5.36724,"is_reserved":false,"is_disabled":false,"rental_uris":{"android":"levelo://app?vid=58bc3e60-f18b-427c-b5e0-e156e759d6db","ios":"levelo://app?vid=58bc3e60-f18b-427c-b5e0-e156e759d6db"},"vehicle_type_id":"4","last_reported":1777211891,"current_range_meters":8000,"station_id":"ce4bgr92rcd13ifvqc6g","pricing_plan_id":"cebpf4jnsgd1na2vs0mg"},{"bike_id":"3dd88976-0db9-4f79-9d69-2b4de8a2650c","system_id":"levelo_inurba_marseille","lat":43.22563,"lon":5.41604,"is_reserved":false,"is_disabled":false,"rental_uris":{"android":"levelo://app?vid=3dd88976-0db9-4f79-9d69-2b4de8a2650c","ios":"levelo://app?vid=3dd88976-0db9-4f79-9d69-2b4de8a2650c"},"vehicle_type_id":"4","last_reported":1777211891,"current_range_meters":8000,"station_id":"st_d2o4gvlbi1j2169b742g","pricing_plan_id":"cebpf4jnsgd1na2vs0mg"},{"bike_id":"d84dad1f-3355-427c-a81e-a3f872caa973","system_id":"levelo_inurba_marseille","lat":43.28698,"lon":5.4668,"is_reserved":false,"is_disabled":false,"rental_uris":{"android":"levelo://app?vid=d84dad1f-3355-427c-a81e-a3f872caa973","ios":"levelo://app?vid=d84dad1f-3355-427c-a81e-a3f872caa973"},"vehicle_type_id":"4","last_reported":1777211891,"current_range_meters":8000,"station_id":"st_d6tc3vkotcvc738tfjhg","pricing_plan_id":"cebpf4jnsgd1na2vs0mg"},{"bike_id":"274b41c4-8b16-47b0-9c85-d9e012646b67","system_id":"levelo_inurba_marseille","lat":43.22924,"lon":5.35376,"is_reserved":false,"is_disabled":true,"rental_uris":{"android":"levelo://app?vid=274b41c4-8b16-47b0-9c85-d9e012646b67","ios":"levelo://app?vid=274b41c4-8b16-47b0-9c85-d9e012646b67"},"vehicle_type_id":"4","last_reported":1777211891,"current_range_meters":8000,"station_id":"cpo3532slgdg3j2ikp40","pricing_plan_id":"cebpf4jnsgd1na2vs0mg"},{"bike_id":"fb350924-3b39-4197-a891-8208914eef37","system_id":"levelo_inurba_marseille","lat":43.24811,"lon":5.37488,"is_reserved":false,"is_disabled":false,"rental_uris":{"android":"levelo://app?vid=fb350924-3b39-4197-a891-8208914eef37","ios":"levelo://app?vid=fb350924-3b39-4197-a891-8208914eef37"},"vehicle_type_id":"4","last_reported":1777211891,"current_range_meters":8000,"station_id":"ce4bhgh2rcd13ifvqfb0","pricing_plan_id":"cebpf4jnsgd1na2vs0mg"},{"bike_id":"a5d1c5f8-e551-41de-b7f3-a52119a1050b","system_id":"levelo_inurba_marseille","lat":43.27817,"lon":5.3744,"is_reserved":false,"is_disabled":false,"rental_uris":{"android":"levelo://app?vid=a5d1c5f8-e551-41de-b7f3-a52119a1050b","ios":"levelo://app?vid=a5d1c5f8-e551-41de-b7f3-a52119a1050b"},"vehicle_type_id":"4","last_reported":1777211891,"current_range_meters":8000,"station_id":"","pricing_plan_id":"cebpf4jnsgd1na2vs0mg"},{"bike_id":"19650c48-2ec5-4519-b39b-df65745fb483","system_id":"levelo_inurba_marseille","lat":43.27206,"lon":5.40969,"is_reserved":false,"is_disabled":false,"rental_uris":{"android":"levelo://app?vid=19650c48-2ec5-4519-b39b-df65745fb483","ios":"levelo://app?vid=19650c48-2ec5-4519-b39b-df65745fb483"},"vehicle_type_id":"4","last_reported":1777211891,"current_range_meters":8000,"station_id":"ce4bhl12rcd13ifvqgf0","pricing_plan_id":"cebpf4jnsgd1na2vs0mg"},{"bike_id":"0d585696-6ba0-434c-ad3b-bb41bdb279c5","system_id":"levelo_inurba_marseille","lat":43.28613,"lon":5.37064,"is_reserved":false,"is_disabled":false,"rental_uris":{"android":"levelo://app?vid=0d585696-6ba0-434c-ad3b-bb41bdb279c5","ios":"levelo://app?vid=0d585696-6ba0-434c-ad3b-bb41bdb279c5"},"vehicle_type_id":"4","last_reported":1777211891,"current_range_meters":8000,"station_id":"ce4bht12rcd13ifvqi60","pricing_plan_id":"cebpf4jnsgd1na2vs0mg"},{"bike_id":"adea3d3b-6ffc-4558-8661-26de84e3f93e","system_id":"levelo_inurba_marseille","lat":43.28417,"lon":5.34958,"is_reserved":false,"is_disabled":false,"rental_uris":{"android":"levelo://app?vid=adea3d3b-6ffc-4558-8661-26de84e3f93e","ios":"levelo://app?vid=adea3d3b-6ffc-4558-8661-26de84e3f93e"},"vehicle_type_id":"4","last_reported":1777211891,"current_range_meters":8000,"station_id":"ce4bhbh2rcd13ifvqepg","pricing_plan_id":"cebpf4jnsgd1na2vs0mg"},{"bike_id":"f9bf6010-09a3-4fc9-9548-198473e2b05e","system_id":"levelo_inurba_marseille","lat":43.29882,"lon":5.38895,"is_reserved":false,"is_disabled":false,"rental_uris":{"android":"levelo://app?vid=f9bf6010-09a3-4fc9-9548-198473e2b05e","ios":"levelo://app?vid=f9bf6010-09a3-4fc9-9548-198473e2b05e"},"vehicle_type_id":"4","last_reported":1777211891,"current_range_meters":8000,"station_id":"ce4bh392rcd13ifvqdl0","pricing_plan_id":"cebpf4jnsgd1na2vs0mg"},{"bike_id":"c6941364-0b3e-415d-827c-e48038694e60","system_id":"levelo_inurba_marseille","lat":43.30756,"lon":5.43446,"is_reserved":false,"is_disabled":false,"rental_uris":{"android":"levelo://app?vid=c6941364-0b3e-415d-827c-e48038694e60","ios":"levelo://app?vid=c6941364-0b3e-415d-827c-e48038694e60"},"vehicle_type_id":"4","last_reported":1777211891,"current_range_meters":8000,"station_id":"","pricing_plan_id":"cebpf4jnsgd1na2vs0mg"},{"bike_id":"572fe242-57c3-4491-bca2-38d28133c028","system_id":"levelo_inurba_marseille","lat":43.23151,"lon":5.43719,"is_reserved":false,"is_disabled":false,"rental_uris":{"android":"levelo://app?vid=572fe242-57c3-4491-bca2-38d28133c028","ios":"levelo://app?vid=572fe242-57c3-4491-bca2-38d28133c028"},"vehicle_type_id":"4","last_reported":1777211891,"current_range_meters":8000,"station_id":"ce4bhmp2rcd13ifvqgog","pricing_plan_id":"cebpf4jnsgd1na2vs0mg"},{"bike_id":"f7716b3d-5dc6-4c1f-94ea-dd8b69d23a22","system_id":"levelo_inurba_marseille","lat":43.27499,"lon":5.43467,"is_reserved":false,"is_disabled":false,"rental_uris":{"android":"levelo://app?vid=f7716b3d-5dc6-4c1f-94ea-dd8b69d23a22","ios":"levelo://app?vid=f7716b3d-5dc6-4c1f-94ea-dd8b69d23a22"},"vehicle_type_id":"4","last_reported":1777211891,"current_range_meters":8000,"station_id":"","pricing_plan_id":"cebpf4jnsgd1na2vs0mg"},{"bike_id":"cea31a32-5e3a-46c4-9d32-5011edfbb303","system_id":"levelo_inurba_marseille","lat":43.337444,"lon":5.374475,"is_reserved":false,"is_disabled":true,"rental_uris":{"android":"levelo://app?vid=cea31a32-5e3a-46c4-9d32-5011edfbb303","ios":"levelo://app?vid=cea31a32-5e3a-46c4-9d32-5011edfbb303"},"vehicle_type_id":"4","last_reported":1777211891,"current_range_meters":8400,"station_id":"","pricing_plan_id":"cebpf4jnsgd1na2vs0mg"},{"bike_id":"df75676a-7c3f-4d29-80c0-260795f2c62d","system_id":"levelo_inurba_marseille","lat":43.27974,"lon":5.40798,"is_reserved":false,"is_disabled":false,"rental_uris":{"android":"levelo://app?vid=df75676a-7c3f-4d29-80c0-260795f2c62d","ios":"levelo://app?vid=df75676a-7c3f-4d29-80c0-260795f2c62d"},"vehicle_type_id":"4","last_reported":1777211891,"current_range_meters":8400,"station_id":"","pricing_plan_id":"cebpf4jnsgd1na2vs0mg"},{"bike_id":"4b43a537-0025-4181-b3f0-3f1fa031f295","system_id":"levelo_inurba_marseille","lat":43.24403,"lon":5.37097,"is_reserved":false,"is_disabled":false,"rental_uris":{"android":"levelo://app?vid=4b43a537-0025-4181-b3f0-3f1fa031f295","ios":"levelo://app?vid=4b43a537-0025-4181-b3f0-3f1fa031f295"},"vehicle_type_id":"4","last_reported":1777211891,"current_range_meters":8400,"station_id":"ce4bhhh2rcd13ifvqfk0","pricing_plan_id":"cebpf4jnsgd1na2vs0mg"},{"bike_id":"f818e507-9a1c-4b95-bc22-abca566c1219","system_id":"levelo_inurba_marseille","lat":43.2902,"lon":5.35613,"is_reserved":false,"is_disabled":false,"rental_uris":{"android":"levelo://app?vid=f818e507-9a1c-4b95-bc22-abca566c1219","ios":"levelo://app?vid=f818e507-9a1c-4b95-bc22-abca566c1219"},"vehicle_type_id":"4","last_reported":1777211891,"current_range_meters":8400,"station_id":"ce4bhb92rcd13ifvqen0","pricing_plan_id":"cebpf4jnsgd1na2vs0mg"},{"bike_id":"3142bc3c-82f8-47a3-b9b7-bdb5ae2f4136","system_id":"levelo_inurba_marseille","lat":43.26036,"lon":5.37564,"is_reserved":false,"is_disabled":false,"rental_uris":{"android":"levelo://app?vid=3142bc3c-82f8-47a3-b9b7-bdb5ae2f4136","ios":"levelo://app?vid=3142bc3c-82f8-47a3-b9b7-bdb5ae2f4136"},"vehicle_type_id":"4","last_reported":1777211891,"current_range_meters":8400,"station_id":"ce4bhgh2rcd13ifvqfa0","pricing_plan_id":"cebpf4jnsgd1na2vs0mg"},{"bike_id":"6c03a756-6268-4631-a1f0-4d7b6ab3b005","system_id":"levelo_inurba_marseille","lat":43.26075,"lon":5.39386,"is_reserved":false,"is_disabled":false,"rental_uris":{"android":"levelo://app?vid=6c03a756-6268-4631-a1f0-4d7b6ab3b005","ios":"levelo://app?vid=6c03a756-6268-4631-a1f0-4d7b6ab3b005"},"vehicle_type_id":"4","last_reported":1777211891,"current_range_meters":8400,"station_id":"ce4bhh92rcd13ifvqfj0","pricing_plan_id":"cebpf4jnsgd1na2vs0mg"},{"bike_id":"d1063a8e-a667-4f9b-9166-4b2ea1244e5f","system_id":"levelo_inurba_marseille","lat":43.24801,"lon":5.37458,"is_reserved":false,"is_disabled":false,"rental_uris":{"android":"levelo://app?vid=d1063a8e-a667-4f9b-9166-4b2ea1244e5f","ios":"levelo://app?vid=d1063a8e-a667-4f9b-9166-4b2ea1244e5f"},"vehicle_type_id":"4","last_reported":1777211891,"current_range_meters":8400,"station_id":"ce4bhgh2rcd13ifvqfb0","pricing_plan_id":"cebpf4jnsgd1na2vs0mg"},{"bike_id":"ef48036c-d2f6-4078-970c-929c191fbd06","system_id":"levelo_inurba_marseille","lat":43.23153,"lon":5.43723,"is_reserved":false,"is_disabled":false,"rental_uris":{"android":"levelo://app?vid=ef48036c-d2f6-4078-970c-929c191fbd06","ios":"levelo://app?vid=ef48036c-d2f6-4078-970c-929c191fbd06"},"vehicle_type_id":"4","last_reported":1777211891,"current_range_meters":8400,"station_id":"ce4bhmp2rcd13ifvqgog","pricing_plan_id":"cebpf4jnsgd1na2vs0mg"},{"bike_id":"4d038beb-e607-4cd5-9c80-7fa3e9a0aff4","system_id":"levelo_inurba_marseille","lat":43.26027,"lon":5.37553,"is_reserved":false,"is_disabled":false,"rental_uris":{"android":"levelo://app?vid=4d038beb-e607-4cd5-9c80-7fa3e9a0aff4","ios":"levelo://app?vid=4d038beb-e607-4cd5-9c80-7fa3e9a0aff4"},"vehicle_type_id":"4","last_reported":1777211891,"current_range_meters":8400,"station_id":"ce4bhgh2rcd13ifvqfa0","pricing_plan_id":"cebpf4jnsgd1na2vs0mg"},{"bike_id":"8803d579-d794-4f89-872c-5b777334509c","system_id":"levelo_inurba_marseille","lat":43.28443,"lon":5.392,"is_reserved":false,"is_disabled":false,"rental_uris":{"android":"levelo://app?vid=8803d579-d794-4f89-872c-5b777334509c","ios":"levelo://app?vid=8803d579-d794-4f89-872c-5b777334509c"},"vehicle_type_id":"4","last_reported":1777211891,"current_range_meters":8400,"station_id":"ce4bhoh2rcd13ifvqh5g","pricing_plan_id":"cebpf4jnsgd1na2vs0mg"},{"bike_id":"eb62955f-8cdd-447c-8270-3bf1b0d4de5c","system_id":"levelo_inurba_marseille","lat":43.30379,"lon":5.42484,"is_reserved":false,"is_disabled":false,"rental_uris":{"android":"levelo://app?vid=eb62955f-8cdd-447c-8270-3bf1b0d4de5c","ios":"levelo://app?vid=eb62955f-8cdd-447c-8270-3bf1b0d4de5c"},"vehicle_type_id":"4","last_reported":1777211891,"current_range_meters":8400,"station_id":"ce4bhoh2rcd13ifvqh6g","pricing_plan_id":"cebpf4jnsgd1na2vs0mg"},{"bike_id":"1824cb51-548c-429d-a670-90cf85359a6c","system_id":"levelo_inurba_marseille","lat":43.27816,"lon":5.35488,"is_reserved":false,"is_disabled":false,"rental_uris":{"android":"levelo://app?vid=1824cb51-548c-429d-a670-90cf85359a6c","ios":"levelo://app?vid=1824cb51-548c-429d-a670-90cf85359a6c"},"vehicle_type_id":"4","last_reported":1777211891,"current_range_meters":8400,"station_id":"","pricing_plan_id":"cebpf4jnsgd1na2vs0mg"},{"bike_id":"528510cc-24a2-4ba8-8dcf-7d597d70df0d","system_id":"levelo_inurba_marseille","lat":43.26499,"lon":5.39538,"is_reserved":false,"is_disabled":false,"rental_uris":{"android":"levelo://app?vid=528510cc-24a2-4ba8-8dcf-7d597d70df0d","ios":"levelo://app?vid=528510cc-24a2-4ba8-8dcf-7d597d70df0d"},"vehicle_type_id":"4","last_reported":1777211891,"current_range_meters":8400,"station_id":"ce4bhi12rcd13ifvqfq0","pricing_plan_id":"cebpf4jnsgd1na2vs0mg"},{"bike_id":"867e4efb-03e8-466f-a027-d873140a375d","system_id":"levelo_inurba_marseille","lat":43.24808,"lon":5.37458,"is_reserved":false,"is_disabled":false,"rental_uris":{"android":"levelo://app?vid=867e4efb-03e8-466f-a027-d873140a375d","ios":"levelo://app?vid=867e4efb-03e8-466f-a027-d873140a375d"},"vehicle_type_id":"4","last_reported":1777211891,"current_range_meters":8400,"station_id":"ce4bhgh2rcd13ifvqfb0","pricing_plan_id":"cebpf4jnsgd1na2vs0mg"},{"bike_id":"2a6bd589-b4ff-4dbe-b290-a2edfaed780f","system_id":"levelo_inurba_marseille","lat":43.24393,"lon":5.37069,"is_reserved":false,"is_disabled":false,"rental_uris":{"android":"levelo://app?vid=2a6bd589-b4ff-4dbe-b290-a2edfaed780f","ios":"levelo://app?vid=2a6bd589-b4ff-4dbe-b290-a2edfaed780f"},"vehicle_type_id":"4","last_reported":1777211891,"current_range_meters":8400,"station_id":"ce4bhhh2rcd13ifvqfk0","pricing_plan_id":"cebpf4jnsgd1na2vs0mg"},{"bike_id":"6fefe45f-2e4d-4ce5-a9fc-a6bb1d77c1d3","system_id":"levelo_inurba_marseille","lat":43.28615,"lon":5.35093,"is_reserved":false,"is_disabled":false,"rental_uris":{"android":"levelo://app?vid=6fefe45f-2e4d-4ce5-a9fc-a6bb1d77c1d3","ios":"levelo://app?vid=6fefe45f-2e4d-4ce5-a9fc-a6bb1d77c1d3"},"vehicle_type_id":"4","last_reported":1777211891,"current_range_meters":8400,"station_id":"ce4bhch2rcd13ifvqeug","pricing_plan_id":"cebpf4jnsgd1na2vs0mg"},{"bike_id":"c6ad994a-5420-478e-9766-5e7927cd18cd","system_id":"levelo_inurba_marseille","lat":43.30953,"lon":5.39037,"is_reserved":false,"is_disabled":false,"rental_uris":{"android":"levelo://app?vid=c6ad994a-5420-478e-9766-5e7927cd18cd","ios":"levelo://app?vid=c6ad994a-5420-478e-9766-5e7927cd18cd"},"vehicle_type_id":"4","last_reported":1777211891,"current_range_meters":8800,"station_id":"ce4bgup2rcd13ifvqco0","pricing_plan_id":"cebpf4jnsgd1na2vs0mg"},{"bike_id":"5354cf07-79ed-432a-b193-14addfafc2f9","system_id":"levelo_inurba_marseille","lat":43.24386,"lon":5.37061,"is_reserved":false,"is_disabled":false,"rental_uris":{"android":"levelo://app?vid=5354cf07-79ed-432a-b193-14addfafc2f9","ios":"levelo://app?vid=5354cf07-79ed-432a-b193-14addfafc2f9"},"vehicle_type_id":"4","last_reported":1777211891,"current_range_meters":8800,"station_id":"ce4bhhh2rcd13ifvqfk0","pricing_plan_id":"cebpf4jnsgd1na2vs0mg"},{"bike_id":"5676b1df-3102-49f0-94ea-6bd037dc90c9","system_id":"levelo_inurba_marseille","lat":43.31135,"lon":5.38053,"is_reserved":false,"is_disabled":false,"rental_uris":{"android":"levelo://app?vid=5676b1df-3102-49f0-94ea-6bd037dc90c9","ios":"levelo://app?vid=5676b1df-3102-49f0-94ea-6bd037dc90c9"},"vehicle_type_id":"4","last_reported":1777211891,"current_range_meters":8800,"station_id":"","pricing_plan_id":"cebpf4jnsgd1na2vs0mg"},{"bike_id":"3641d640-2b8a-4f13-b91c-6c317e71d939","system_id":"levelo_inurba_marseille","lat":43.24169,"lon":5.36386,"is_reserved":false,"is_disabled":false,"rental_uris":{"android":"levelo://app?vid=3641d640-2b8a-4f13-b91c-6c317e71d939","ios":"levelo://app?vid=3641d640-2b8a-4f13-b91c-6c317e71d939"},"vehicle_type_id":"4","last_reported":1777211891,"current_range_meters":8800,"station_id":"cpo36qri1sfpv3e86is0","pricing_plan_id":"cebpf4jnsgd1na2vs0mg"},{"bike_id":"9bbf1e9d-6737-4217-8ec3-b0d06e6a1719","system_id":"levelo_inurba_marseille","lat":43.27383,"lon":5.36244,"is_reserved":false,"is_disabled":false,"rental_uris":{"android":"levelo://app?vid=9bbf1e9d-6737-4217-8ec3-b0d06e6a1719","ios":"levelo://app?vid=9bbf1e9d-6737-4217-8ec3-b0d06e6a1719"},"vehicle_type_id":"4","last_reported":1777211891,"current_range_meters":8800,"station_id":"ce4bhbh2rcd13ifvqeo0","pricing_plan_id":"cebpf4jnsgd1na2vs0mg"},{"bike_id":"c8602ec4-5bc5-4ff2-baee-83e5c094a5ed","system_id":"levelo_inurba_marseille","lat":43.29277,"lon":5.36828,"is_reserved":false,"is_disabled":false,"rental_uris":{"android":"levelo://app?vid=c8602ec4-5bc5-4ff2-baee-83e5c094a5ed","ios":"levelo://app?vid=c8602ec4-5bc5-4ff2-baee-83e5c094a5ed"},"vehicle_type_id":"4","last_reported":1777211891,"current_range_meters":8800,"station_id":"ce4bhbp2rcd13ifvqesg","pricing_plan_id":"cebpf4jnsgd1na2vs0mg"},{"bike_id":"9059f02d-804b-48f8-91d1-1e12e0aafd81","system_id":"levelo_inurba_marseille","lat":43.25508,"lon":5.37656,"is_reserved":false,"is_disabled":false,"rental_uris":{"android":"levelo://app?vid=9059f02d-804b-48f8-91d1-1e12e0aafd81","ios":"levelo://app?vid=9059f02d-804b-48f8-91d1-1e12e0aafd81"},"vehicle_type_id":"4","last_reported":1777211891,"current_range_meters":8800,"station_id":"ce4bhh12rcd13ifvqff0","pricing_plan_id":"cebpf4jnsgd1na2vs0mg"},{"bike_id":"52794c3c-7221-48bf-9fe8-8131b964eb21","system_id":"levelo_inurba_marseille","lat":43.21748,"lon":5.34599,"is_reserved":false,"is_disabled":false,"rental_uris":{"android":"levelo://app?vid=52794c3c-7221-48bf-9fe8-8131b964eb21","ios":"levelo://app?vid=52794c3c-7221-48bf-9fe8-8131b964eb21"},"vehicle_type_id":"4","last_reported":1777211891,"current_range_meters":8800,"station_id":"st_cvj6r9ubvosntc0bgbag","pricing_plan_id":"cebpf4jnsgd1na2vs0mg"},{"bike_id":"17f5223a-84d1-46d9-b55d-6a7e95a08bd7","system_id":"levelo_inurba_marseille","lat":43.24826,"lon":5.37444,"is_reserved":false,"is_disabled":false,"rental_uris":{"android":"levelo://app?vid=17f5223a-84d1-46d9-b55d-6a7e95a08bd7","ios":"levelo://app?vid=17f5223a-84d1-46d9-b55d-6a7e95a08bd7"},"vehicle_type_id":"4","last_reported":1777211891,"current_range_meters":8800,"station_id":"ce4bhgh2rcd13ifvqfb0","pricing_plan_id":"cebpf4jnsgd1na2vs0mg"},{"bike_id":"fa5864cb-8dc5-4a9e-9ad2-2cc146e40b34","system_id":"levelo_inurba_marseille","lat":43.29169,"lon":5.35812,"is_reserved":false,"is_disabled":false,"rental_uris":{"android":"levelo://app?vid=fa5864cb-8dc5-4a9e-9ad2-2cc146e40b34","ios":"levelo://app?vid=fa5864cb-8dc5-4a9e-9ad2-2cc146e40b34"},"vehicle_type_id":"4","last_reported":1777211891,"current_range_meters":8800,"station_id":"ce4bhb12rcd13ifvqel0","pricing_plan_id":"cebpf4jnsgd1na2vs0mg"},{"bike_id":"1db00e34-5de7-4dcd-8e5e-0acb9338b4b7","system_id":"levelo_inurba_marseille","lat":43.3212,"lon":5.36815,"is_reserved":false,"is_disabled":false,"rental_uris":{"android":"levelo://app?vid=1db00e34-5de7-4dcd-8e5e-0acb9338b4b7","ios":"levelo://app?vid=1db00e34-5de7-4dcd-8e5e-0acb9338b4b7"},"vehicle_type_id":"4","last_reported":1777211891,"current_range_meters":8800,"station_id":"","pricing_plan_id":"cebpf4jnsgd1na2vs0mg"},{"bike_id":"b21748b2-fb24-4ee6-8e6a-c7c61264faec","system_id":"levelo_inurba_marseille","lat":43.27391,"lon":5.42201,"is_reserved":false,"is_disabled":false,"rental_uris":{"android":"levelo://app?vid=b21748b2-fb24-4ee6-8e6a-c7c61264faec","ios":"levelo://app?vid=b21748b2-fb24-4ee6-8e6a-c7c61264faec"},"vehicle_type_id":"4","last_reported":1777211891,"current_range_meters":8800,"station_id":"","pricing_plan_id":"cebpf4jnsgd1na2vs0mg"},{"bike_id":"a78c4cf8-6f0f-4b95-a435-c6377aca3889","system_id":"levelo_inurba_marseille","lat":43.28403,"lon":5.34989,"is_reserved":false,"is_disabled":false,"rental_uris":{"android":"levelo://app?vid=a78c4cf8-6f0f-4b95-a435-c6377aca3889","ios":"levelo://app?vid=a78c4cf8-6f0f-4b95-a435-c6377aca3889"},"vehicle_type_id":"4","last_reported":1777211891,"current_range_meters":8800,"station_id":"ce4bhbh2rcd13ifvqepg","pricing_plan_id":"cebpf4jnsgd1na2vs0mg"},{"bike_id":"1f13452b-ac27-48ca-bbd2-1255b0865067","system_id":"levelo_inurba_marseille","lat":43.27864,"lon":5.37888,"is_reserved":false,"is_disabled":false,"rental_uris":{"android":"levelo://app?vid=1f13452b-ac27-48ca-bbd2-1255b0865067","ios":"levelo://app?vid=1f13452b-ac27-48ca-bbd2-1255b0865067"},"vehicle_type_id":"4","last_reported":1777211891,"current_range_meters":8800,"station_id":"","pricing_plan_id":"cebpf4jnsgd1na2vs0mg"},{"bike_id":"93378c7e-8a33-4e07-ab2a-fc9cc927fe7a","system_id":"levelo_inurba_marseille","lat":43.28838,"lon":5.39327,"is_reserved":false,"is_disabled":true,"rental_uris":{"android":"levelo://app?vid=93378c7e-8a33-4e07-ab2a-fc9cc927fe7a","ios":"levelo://app?vid=93378c7e-8a33-4e07-ab2a-fc9cc927fe7a"},"vehicle_type_id":"4","last_reported":1777211891,"current_range_meters":8800,"station_id":"ce4bh2p2rcd13ifvqdi0","pricing_plan_id":"cebpf4jnsgd1na2vs0mg"},{"bike_id":"321c104c-829f-4ada-a8eb-991123549690","system_id":"levelo_inurba_marseille","lat":43.26549,"lon":5.37289,"is_reserved":false,"is_disabled":false,"rental_uris":{"android":"levelo://app?vid=321c104c-829f-4ada-a8eb-991123549690","ios":"levelo://app?vid=321c104c-829f-4ada-a8eb-991123549690"},"vehicle_type_id":"4","last_reported":1777211891,"current_range_meters":8800,"station_id":"ce4bhg12rcd13ifvqf70","pricing_plan_id":"cebpf4jnsgd1na2vs0mg"},{"bike_id":"d5745ec8-244f-4a10-b0cf-ba5032b624de","system_id":"levelo_inurba_marseille","lat":43.23969,"lon":5.3663,"is_reserved":false,"is_disabled":false,"rental_uris":{"android":"levelo://app?vid=d5745ec8-244f-4a10-b0cf-ba5032b624de","ios":"levelo://app?vid=d5745ec8-244f-4a10-b0cf-ba5032b624de"},"vehicle_type_id":"4","last_reported":1777211891,"current_range_meters":8800,"station_id":"ce4bhi12rcd13ifvqfp0","pricing_plan_id":"cebpf4jnsgd1na2vs0mg"},{"bike_id":"e3228d37-a12b-4523-8abf-dd1030c7642c","system_id":"levelo_inurba_marseille","lat":43.29549,"lon":5.37491,"is_reserved":false,"is_disabled":false,"rental_uris":{"android":"levelo://app?vid=e3228d37-a12b-4523-8abf-dd1030c7642c","ios":"levelo://app?vid=e3228d37-a12b-4523-8abf-dd1030c7642c"},"vehicle_type_id":"4","last_reported":1777211891,"current_range_meters":8800,"station_id":"ce4bgkp2rcd13ifvqbmg","pricing_plan_id":"cebpf4jnsgd1na2vs0mg"},{"bike_id":"a4b0cc02-e7f6-4c0a-9453-e3df9ffc7e30","system_id":"levelo_inurba_marseille","lat":43.23961,"lon":5.36646,"is_reserved":false,"is_disabled":false,"rental_uris":{"android":"levelo://app?vid=a4b0cc02-e7f6-4c0a-9453-e3df9ffc7e30","ios":"levelo://app?vid=a4b0cc02-e7f6-4c0a-9453-e3df9ffc7e30"},"vehicle_type_id":"4","last_reported":1777211891,"current_range_meters":8800,"station_id":"ce4bhi12rcd13ifvqfp0","pricing_plan_id":"cebpf4jnsgd1na2vs0mg"},{"bike_id":"4be3d33b-af29-4d06-8e90-4a4bd20d65f4","system_id":"levelo_inurba_marseille","lat":43.28419,"lon":5.34998,"is_reserved":false,"is_disabled":false,"rental_uris":{"android":"levelo://app?vid=4be3d33b-af29-4d06-8e90-4a4bd20d65f4","ios":"levelo://app?vid=4be3d33b-af29-4d06-8e90-4a4bd20d65f4"},"vehicle_type_id":"4","last_reported":1777211891,"current_range_meters":8800,"station_id":"ce4bhbh2rcd13ifvqepg","pricing_plan_id":"cebpf4jnsgd1na2vs0mg"},{"bike_id":"6a8bdaab-2cbb-471f-9ba7-1037ac5d706a","system_id":"levelo_inurba_marseille","lat":43.2695,"lon":5.38628,"is_reserved":false,"is_disabled":false,"rental_uris":{"android":"levelo://app?vid=6a8bdaab-2cbb-471f-9ba7-1037ac5d706a","ios":"levelo://app?vid=6a8bdaab-2cbb-471f-9ba7-1037ac5d706a"},"vehicle_type_id":"4","last_reported":1777211891,"current_range_meters":8800,"station_id":"ce4bhh92rcd13ifvqfh0","pricing_plan_id":"cebpf4jnsgd1na2vs0mg"},{"bike_id":"43415a5b-93f6-43e7-9362-e8ca2b097157","system_id":"levelo_inurba_marseille","lat":43.28608,"lon":5.35008,"is_reserved":false,"is_disabled":false,"rental_uris":{"android":"levelo://app?vid=43415a5b-93f6-43e7-9362-e8ca2b097157","ios":"levelo://app?vid=43415a5b-93f6-43e7-9362-e8ca2b097157"},"vehicle_type_id":"4","last_reported":1777211891,"current_range_meters":8800,"station_id":"","pricing_plan_id":"cebpf4jnsgd1na2vs0mg"},{"bike_id":"ccf8874a-d284-407c-8e31-19494ed28d3e","system_id":"levelo_inurba_marseille","lat":43.23882,"lon":5.37464,"is_reserved":false,"is_disabled":false,"rental_uris":{"android":"levelo://app?vid=ccf8874a-d284-407c-8e31-19494ed28d3e","ios":"levelo://app?vid=ccf8874a-d284-407c-8e31-19494ed28d3e"},"vehicle_type_id":"4","last_reported":1777211891,"current_range_meters":8800,"station_id":"st_d6sm7csbq4hs73f8fpjg","pricing_plan_id":"cebpf4jnsgd1na2vs0mg"},{"bike_id":"7917a9d5-4ac9-40bd-8834-5d3047c76c9d","system_id":"levelo_inurba_marseille","lat":43.32497,"lon":5.40755,"is_reserved":false,"is_disabled":false,"rental_uris":{"android":"levelo://app?vid=7917a9d5-4ac9-40bd-8834-5d3047c76c9d","ios":"levelo://app?vid=7917a9d5-4ac9-40bd-8834-5d3047c76c9d"},"vehicle_type_id":"4","last_reported":1777211891,"current_range_meters":8800,"station_id":"","pricing_plan_id":"cebpf4jnsgd1na2vs0mg"},{"bike_id":"fc29bf68-a4a4-425a-93b6-68c4374f7320","system_id":"levelo_inurba_marseille","lat":43.23191,"lon":5.39995,"is_reserved":false,"is_disabled":false,"rental_uris":{"android":"levelo://app?vid=fc29bf68-a4a4-425a-93b6-68c4374f7320","ios":"levelo://app?vid=fc29bf68-a4a4-425a-93b6-68c4374f7320"},"vehicle_type_id":"4","last_reported":1777211891,"current_range_meters":8800,"station_id":"ce4bhn12rcd13ifvqgqg","pricing_plan_id":"cebpf4jnsgd1na2vs0mg"},{"bike_id":"50fcb081-4b05-4355-adf3-07f022c0399c","system_id":"levelo_inurba_marseille","lat":43.30993,"lon":5.37913,"is_reserved":false,"is_disabled":false,"rental_uris":{"android":"levelo://app?vid=50fcb081-4b05-4355-adf3-07f022c0399c","ios":"levelo://app?vid=50fcb081-4b05-4355-adf3-07f022c0399c"},"vehicle_type_id":"4","last_reported":1777211891,"current_range_meters":8800,"station_id":"","pricing_plan_id":"cebpf4jnsgd1na2vs0mg"},{"bike_id":"aaf5a42d-5091-41cb-8c81-8027f1ee4ea7","system_id":"levelo_inurba_marseille","lat":43.24809,"lon":5.37452,"is_reserved":false,"is_disabled":false,"rental_uris":{"android":"levelo://app?vid=aaf5a42d-5091-41cb-8c81-8027f1ee4ea7","ios":"levelo://app?vid=aaf5a42d-5091-41cb-8c81-8027f1ee4ea7"},"vehicle_type_id":"4","last_reported":1777211891,"current_range_meters":9200,"station_id":"ce4bhgh2rcd13ifvqfb0","pricing_plan_id":"cebpf4jnsgd1na2vs0mg"},{"bike_id":"b7e1ef32-a00c-4c75-aef9-92e59a65d816","system_id":"levelo_inurba_marseille","lat":43.27561,"lon":5.38427,"is_reserved":false,"is_disabled":false,"rental_uris":{"android":"levelo://app?vid=b7e1ef32-a00c-4c75-aef9-92e59a65d816","ios":"levelo://app?vid=b7e1ef32-a00c-4c75-aef9-92e59a65d816"},"vehicle_type_id":"4","last_reported":1777211891,"current_range_meters":9200,"station_id":"ce4bhh92rcd13ifvqfi0","pricing_plan_id":"cebpf4jnsgd1na2vs0mg"},{"bike_id":"57637c8a-471c-422e-9fb3-b88d26a22817","system_id":"levelo_inurba_marseille","lat":43.23965,"lon":5.36631,"is_reserved":false,"is_disabled":false,"rental_uris":{"android":"levelo://app?vid=57637c8a-471c-422e-9fb3-b88d26a22817","ios":"levelo://app?vid=57637c8a-471c-422e-9fb3-b88d26a22817"},"vehicle_type_id":"4","last_reported":1777211891,"current_range_meters":9200,"station_id":"ce4bhi12rcd13ifvqfp0","pricing_plan_id":"cebpf4jnsgd1na2vs0mg"},{"bike_id":"8341bb8b-c7f9-4309-bd02-9308cc09089c","system_id":"levelo_inurba_marseille","lat":43.28716,"lon":5.37942,"is_reserved":false,"is_disabled":false,"rental_uris":{"android":"levelo://app?vid=8341bb8b-c7f9-4309-bd02-9308cc09089c","ios":"levelo://app?vid=8341bb8b-c7f9-4309-bd02-9308cc09089c"},"vehicle_type_id":"4","last_reported":1777211891,"current_range_meters":9200,"station_id":"ce4bh9p2rcd13ifvqec0","pricing_plan_id":"cebpf4jnsgd1na2vs0mg"},{"bike_id":"32d8062d-b01e-46bc-92b9-65d5fbd8fc06","system_id":"levelo_inurba_marseille","lat":43.23951,"lon":5.36641,"is_reserved":false,"is_disabled":false,"rental_uris":{"android":"levelo://app?vid=32d8062d-b01e-46bc-92b9-65d5fbd8fc06","ios":"levelo://app?vid=32d8062d-b01e-46bc-92b9-65d5fbd8fc06"},"vehicle_type_id":"4","last_reported":1777211891,"current_range_meters":9200,"station_id":"ce4bhi12rcd13ifvqfp0","pricing_plan_id":"cebpf4jnsgd1na2vs0mg"},{"bike_id":"b7729d91-7b28-46df-b002-be015f5f18f4","system_id":"levelo_inurba_marseille","lat":43.28087,"lon":5.39659,"is_reserved":false,"is_disabled":false,"rental_uris":{"android":"levelo://app?vid=b7729d91-7b28-46df-b002-be015f5f18f4","ios":"levelo://app?vid=b7729d91-7b28-46df-b002-be015f5f18f4"},"vehicle_type_id":"4","last_reported":1777211891,"current_range_meters":9200,"station_id":"ce4bho12rcd13ifvqh2g","pricing_plan_id":"cebpf4jnsgd1na2vs0mg"},{"bike_id":"cfae915e-7759-4e10-bb0f-07d6de82e535","system_id":"levelo_inurba_marseille","lat":43.28864,"lon":5.42514,"is_reserved":false,"is_disabled":false,"rental_uris":{"android":"levelo://app?vid=cfae915e-7759-4e10-bb0f-07d6de82e535","ios":"levelo://app?vid=cfae915e-7759-4e10-bb0f-07d6de82e535"},"vehicle_type_id":"4","last_reported":1777211891,"current_range_meters":9200,"station_id":"st_d3b462108ojc7389ooeg","pricing_plan_id":"cebpf4jnsgd1na2vs0mg"},{"bike_id":"1dbbb389-5931-4d64-b29b-02449b2d67dc","system_id":"levelo_inurba_marseille","lat":43.24464,"lon":5.42535,"is_reserved":false,"is_disabled":false,"rental_uris":{"android":"levelo://app?vid=1dbbb389-5931-4d64-b29b-02449b2d67dc","ios":"levelo://app?vid=1dbbb389-5931-4d64-b29b-02449b2d67dc"},"vehicle_type_id":"4","last_reported":1777211891,"current_range_meters":9200,"station_id":"st_d4a3vfp97mjs738cd8kg","pricing_plan_id":"cebpf4jnsgd1na2vs0mg"},{"bike_id":"dd1cd394-a8a6-435f-a391-c311a204fe35","system_id":"levelo_inurba_marseille","lat":43.27975,"lon":5.38757,"is_reserved":false,"is_disabled":false,"rental_uris":{"android":"levelo://app?vid=dd1cd394-a8a6-435f-a391-c311a204fe35","ios":"levelo://app?vid=dd1cd394-a8a6-435f-a391-c311a204fe35"},"vehicle_type_id":"4","last_reported":1777211891,"current_range_meters":9200,"station_id":"ce4bhg12rcd13ifvqf80","pricing_plan_id":"cebpf4jnsgd1na2vs0mg"},{"bike_id":"9ec2bafa-621a-4d6a-9477-06704acd26ca","system_id":"levelo_inurba_marseille","lat":43.27521,"lon":5.41611,"is_reserved":false,"is_disabled":false,"rental_uris":{"android":"levelo://app?vid=9ec2bafa-621a-4d6a-9477-06704acd26ca","ios":"levelo://app?vid=9ec2bafa-621a-4d6a-9477-06704acd26ca"},"vehicle_type_id":"4","last_reported":1777211891,"current_range_meters":9200,"station_id":"st_d6im8g6chgec73a5pndg","pricing_plan_id":"cebpf4jnsgd1na2vs0mg"},{"bike_id":"5c26d52b-a6aa-4844-b3ba-08db3f750004","system_id":"levelo_inurba_marseille","lat":43.26492,"lon":5.39552,"is_reserved":false,"is_disabled":false,"rental_uris":{"android":"levelo://app?vid=5c26d52b-a6aa-4844-b3ba-08db3f750004","ios":"levelo://app?vid=5c26d52b-a6aa-4844-b3ba-08db3f750004"},"vehicle_type_id":"4","last_reported":1777211891,"current_range_meters":9200,"station_id":"ce4bhi12rcd13ifvqfq0","pricing_plan_id":"cebpf4jnsgd1na2vs0mg"},{"bike_id":"6b5b9e45-67f3-4a64-a294-ead66e30dbef","system_id":"levelo_inurba_marseille","lat":43.2467,"lon":5.38157,"is_reserved":false,"is_disabled":false,"rental_uris":{"android":"levelo://app?vid=6b5b9e45-67f3-4a64-a294-ead66e30dbef","ios":"levelo://app?vid=6b5b9e45-67f3-4a64-a294-ead66e30dbef"},"vehicle_type_id":"4","last_reported":1777211891,"current_range_meters":9200,"station_id":"ce4bhih2rcd13ifvqfr0","pricing_plan_id":"cebpf4jnsgd1na2vs0mg"},{"bike_id":"b44d4bbd-11b3-4ba9-9f43-6577832a81e3","system_id":"levelo_inurba_marseille","lat":43.30553,"lon":5.36521,"is_reserved":false,"is_disabled":false,"rental_uris":{"android":"levelo://app?vid=b44d4bbd-11b3-4ba9-9f43-6577832a81e3","ios":"levelo://app?vid=b44d4bbd-11b3-4ba9-9f43-6577832a81e3"},"vehicle_type_id":"4","last_reported":1777211891,"current_range_meters":9200,"station_id":"ce4bgs12rcd13ifvqcag","pricing_plan_id":"cebpf4jnsgd1na2vs0mg"},{"bike_id":"fa751cf9-28f3-4d65-b8f1-30773d90354d","system_id":"levelo_inurba_marseille","lat":43.24965,"lon":5.405,"is_reserved":false,"is_disabled":false,"rental_uris":{"android":"levelo://app?vid=fa751cf9-28f3-4d65-b8f1-30773d90354d","ios":"levelo://app?vid=fa751cf9-28f3-4d65-b8f1-30773d90354d"},"vehicle_type_id":"4","last_reported":1777211891,"current_range_meters":9200,"station_id":"st_d2ngiaodas8pm72gd1h0","pricing_plan_id":"cebpf4jnsgd1na2vs0mg"},{"bike_id":"1bfe4276-2cf8-4024-af06-28983ebb714d","system_id":"levelo_inurba_marseille","lat":43.29711,"lon":5.36602,"is_reserved":false,"is_disabled":false,"rental_uris":{"android":"levelo://app?vid=1bfe4276-2cf8-4024-af06-28983ebb714d","ios":"levelo://app?vid=1bfe4276-2cf8-4024-af06-28983ebb714d"},"vehicle_type_id":"4","last_reported":1777211891,"current_range_meters":9200,"station_id":"ce4bgn12rcd13ifvqbt0","pricing_plan_id":"cebpf4jnsgd1na2vs0mg"},{"bike_id":"cc784def-ac84-4b46-bab5-2521ddcb1307","system_id":"levelo_inurba_marseille","lat":43.26202,"lon":5.37448,"is_reserved":false,"is_disabled":false,"rental_uris":{"android":"levelo://app?vid=cc784def-ac84-4b46-bab5-2521ddcb1307","ios":"levelo://app?vid=cc784def-ac84-4b46-bab5-2521ddcb1307"},"vehicle_type_id":"4","last_reported":1777211891,"current_range_meters":9200,"station_id":"ce4bhgp2rcd13ifvqfc0","pricing_plan_id":"cebpf4jnsgd1na2vs0mg"},{"bike_id":"fd583349-9e7d-4e5b-8155-1da1a7a44b99","system_id":"levelo_inurba_marseille","lat":43.2796,"lon":5.41054,"is_reserved":false,"is_disabled":false,"rental_uris":{"android":"levelo://app?vid=fd583349-9e7d-4e5b-8155-1da1a7a44b99","ios":"levelo://app?vid=fd583349-9e7d-4e5b-8155-1da1a7a44b99"},"vehicle_type_id":"4","last_reported":1777211891,"current_range_meters":9200,"station_id":"ce4bhnp2rcd13ifvqh0g","pricing_plan_id":"cebpf4jnsgd1na2vs0mg"},{"bike_id":"4b49ab9b-eeca-4117-b1e9-4b53277a58b0","system_id":"levelo_inurba_marseille","lat":43.23415,"lon":5.35514,"is_reserved":false,"is_disabled":true,"rental_uris":{"android":"levelo://app?vid=4b49ab9b-eeca-4117-b1e9-4b53277a58b0","ios":"levelo://app?vid=4b49ab9b-eeca-4117-b1e9-4b53277a58b0"},"vehicle_type_id":"4","last_reported":1777211891,"current_range_meters":9200,"station_id":"","pricing_plan_id":"cebpf4jnsgd1na2vs0mg"},{"bike_id":"1c94fb5c-542d-4cb1-8558-d07c486a04ae","system_id":"levelo_inurba_marseille","lat":43.32495,"lon":5.38285,"is_reserved":false,"is_disabled":false,"rental_uris":{"android":"levelo://app?vid=1c94fb5c-542d-4cb1-8558-d07c486a04ae","ios":"levelo://app?vid=1c94fb5c-542d-4cb1-8558-d07c486a04ae"},"vehicle_type_id":"4","last_reported":1777211891,"current_range_meters":9200,"station_id":"st_d4asgbiv49dc73anf9m0","pricing_plan_id":"cebpf4jnsgd1na2vs0mg"},{"bike_id":"90dd5051-b351-4fd9-ad08-44f74f0b0e8e","system_id":"levelo_inurba_marseille","lat":43.21744,"lon":5.346,"is_reserved":false,"is_disabled":false,"rental_uris":{"android":"levelo://app?vid=90dd5051-b351-4fd9-ad08-44f74f0b0e8e","ios":"levelo://app?vid=90dd5051-b351-4fd9-ad08-44f74f0b0e8e"},"vehicle_type_id":"4","last_reported":1777211891,"current_range_meters":9200,"station_id":"st_cvj6r9ubvosntc0bgbag","pricing_plan_id":"cebpf4jnsgd1na2vs0mg"},{"bike_id":"7b9926f3-1d2b-4da5-87b5-bf4a0fec5f8c","system_id":"levelo_inurba_marseille","lat":43.24161,"lon":5.36393,"is_reserved":false,"is_disabled":false,"rental_uris":{"android":"levelo://app?vid=7b9926f3-1d2b-4da5-87b5-bf4a0fec5f8c","ios":"levelo://app?vid=7b9926f3-1d2b-4da5-87b5-bf4a0fec5f8c"},"vehicle_type_id":"4","last_reported":1777211891,"current_range_meters":9200,"station_id":"cpo36qri1sfpv3e86is0","pricing_plan_id":"cebpf4jnsgd1na2vs0mg"},{"bike_id":"ee7d83bf-8bde-4aff-b450-9d8bb70565f5","system_id":"levelo_inurba_marseille","lat":43.21191,"lon":5.35079,"is_reserved":false,"is_disabled":false,"rental_uris":{"android":"levelo://app?vid=ee7d83bf-8bde-4aff-b450-9d8bb70565f5","ios":"levelo://app?vid=ee7d83bf-8bde-4aff-b450-9d8bb70565f5"},"vehicle_type_id":"4","last_reported":1777211891,"current_range_meters":9200,"station_id":"st_cvj6sg6p6f1abm77japg","pricing_plan_id":"cebpf4jnsgd1na2vs0mg"},{"bike_id":"5cfd8da2-fbec-480c-928e-cb6bc4a7f554","system_id":"levelo_inurba_marseille","lat":43.279793,"lon":5.387534,"is_reserved":false,"is_disabled":false,"rental_uris":{"android":"levelo://app?vid=5cfd8da2-fbec-480c-928e-cb6bc4a7f554","ios":"levelo://app?vid=5cfd8da2-fbec-480c-928e-cb6bc4a7f554"},"vehicle_type_id":"4","last_reported":1777211891,"current_range_meters":9600,"station_id":"ce4bhg12rcd13ifvqf80","pricing_plan_id":"cebpf4jnsgd1na2vs0mg"},