{"last_updated":1768072068,"ttl":60,"version":"2.2","data":{"bikes":[{"bike_id":"b64e452a-bec0-47a7-9fd3-b6c2486866f5","system_id":"levelo_inurba_marseille","lat":43.284747,"lon":5.484052,"is_reserved":false,"is_disabled":false,"rental_uris":{"android":"levelo://app?vid=b64e452a-bec0-47a7-9fd3-b6c2486866f5","ios":"levelo://app?vid=b64e452a-bec0-47a7-9fd3-b6c2486866f5"},"vehicle_type_id":"4","last_reported":1768072069,"current_range_meters":2800,"station_id":"","pricing_plan_id":"cebpf4jnsgd1na2vs0mg"},{"bike_id":"667ce080-39d1-4488-b051-3094810dd8ad","system_id":"levelo_inurba_marseille","lat":43.29905,"lon":5.42872,"is_reserved":false,"is_disabled":false,"rental_uris":{"android":"levelo://app?vid=667ce080-39d1-4488-b051-3094810dd8ad","ios":"levelo://app?vid=667ce080-39d1-4488-b051-3094810dd8ad"},"vehicle_type_id":"4","last_reported":1768072069,"current_range_meters":2800,"station_id":"","pricing_plan_id":"cebpf4jnsgd1na2vs0mg"},{"bike_id":"2f148a40-08c3-4821-bb26-bd90d7a0c233","system_id":"levelo_inurba_marseille","lat":43.24387,"lon":5.37065,"is_reserved":false,"is_disabled":false,"rental_uris":{"android":"levelo://app?vid=2f148a40-08c3-4821-bb26-bd90d7a0c233","ios":"levelo://app?vid=2f148a40-08c3-4821-bb26-bd90d7a0c233"},"vehicle_type_id":"4","last_reported":1768072069,"current_range_meters":2800,"station_id":"ce4bhhh2rcd13ifvqfk0","pricing_plan_id":"cebpf4jnsgd1na2vs0mg"},{"bike_id":"acf9b465-5657-433f-abd2-b0a7dddb60bc","system_id":"levelo_inurba_marseille","lat":43.26548,"lon":5.373,"is_reserved":false,"is_disabled":false,"rental_uris":{"android":"levelo://app?vid=acf9b465-5657-433f-abd2-b0a7dddb60bc","ios":"levelo://app?vid=acf9b465-5657-433f-abd2-b0a7dddb60bc"},"vehicle_type_id":"4","last_reported":1768072069,"current_range_meters":2800,"station_id":"ce4bhg12rcd13ifvqf70","pricing_plan_id":"cebpf4jnsgd1na2vs0mg"},{"bike_id":"edf9ef2b-78e7-402e-b2e7-1f5952a3485d","system_id":"levelo_inurba_marseille","lat":43.25501,"lon":5.3765,"is_reserved":false,"is_disabled":false,"rental_uris":{"android":"levelo://app?vid=edf9ef2b-78e7-402e-b2e7-1f5952a3485d","ios":"levelo://app?vid=edf9ef2b-78e7-402e-b2e7-1f5952a3485d"},"vehicle_type_id":"4","last_reported":1768072069,"current_range_meters":2800,"station_id":"ce4bhh12rcd13ifvqff0","pricing_plan_id":"cebpf4jnsgd1na2vs0mg"},{"bike_id":"7954a23a-e0a9-4417-af11-7c5c70a27fba","system_id":"levelo_inurba_marseille","lat":43.24167,"lon":5.3639,"is_reserved":false,"is_disabled":false,"rental_uris":{"android":"levelo://app?vid=7954a23a-e0a9-4417-af11-7c5c70a27fba","ios":"levelo://app?vid=7954a23a-e0a9-4417-af11-7c5c70a27fba"},"vehicle_type_id":"4","last_reported":1768072069,"current_range_meters":2800,"station_id":"cpo36qri1sfpv3e86is0","pricing_plan_id":"cebpf4jnsgd1na2vs0mg"},{"bike_id":"19fb7724-0e9d-4762-8129-8058bc422f33","system_id":"levelo_inurba_marseille","lat":43.2924,"lon":5.37197,"is_reserved":false,"is_disabled":false,"rental_uris":{"android":"levelo://app?vid=19fb7724-0e9d-4762-8129-8058bc422f33","ios":"levelo://app?vid=19fb7724-0e9d-4762-8129-8058bc422f33"},"vehicle_type_id":"4","last_reported":1768072069,"current_range_meters":2800,"station_id":"","pricing_plan_id":"cebpf4jnsgd1na2vs0mg"},{"bike_id":"82ab8887-2d4c-4f3c-b774-e2b1aa0e7775","system_id":"levelo_inurba_marseille","lat":43.29571,"lon":5.3997,"is_reserved":false,"is_disabled":false,"rental_uris":{"android":"levelo://app?vid=82ab8887-2d4c-4f3c-b774-e2b1aa0e7775","ios":"levelo://app?vid=82ab8887-2d4c-4f3c-b774-e2b1aa0e7775"},"vehicle_type_id":"4","last_reported":1768072069,"current_range_meters":2800,"station_id":"ce4bh312rcd13ifvqdj0","pricing_plan_id":"cebpf4jnsgd1na2vs0mg"},{"bike_id":"7afafe8b-710d-46de-b7a0-496d048970e1","system_id":"levelo_inurba_marseille","lat":43.294327,"lon":5.397476,"is_reserved":false,"is_disabled":false,"rental_uris":{"android":"levelo://app?vid=7afafe8b-710d-46de-b7a0-496d048970e1","ios":"levelo://app?vid=7afafe8b-710d-46de-b7a0-496d048970e1"},"vehicle_type_id":"4","last_reported":1768072069,"current_range_meters":2800,"station_id":"ce4bhah2rcd13ifvqei0","pricing_plan_id":"cebpf4jnsgd1na2vs0mg"},{"bike_id":"cb5dfda0-6c58-4472-a281-3866eec3c2f7","system_id":"levelo_inurba_marseille","lat":43.22552,"lon":5.41614,"is_reserved":false,"is_disabled":false,"rental_uris":{"android":"levelo://app?vid=cb5dfda0-6c58-4472-a281-3866eec3c2f7","ios":"levelo://app?vid=cb5dfda0-6c58-4472-a281-3866eec3c2f7"},"vehicle_type_id":"4","last_reported":1768072069,"current_range_meters":2800,"station_id":"st_d2o4gvlbi1j2169b742g","pricing_plan_id":"cebpf4jnsgd1na2vs0mg"},{"bike_id":"c8010aab-d49e-4c99-a472-dfec19cf4fc8","system_id":"levelo_inurba_marseille","lat":43.230863,"lon":5.354892,"is_reserved":false,"is_disabled":false,"rental_uris":{"android":"levelo://app?vid=c8010aab-d49e-4c99-a472-dfec19cf4fc8","ios":"levelo://app?vid=c8010aab-d49e-4c99-a472-dfec19cf4fc8"},"vehicle_type_id":"4","last_reported":1768072069,"current_range_meters":2800,"station_id":"ce4bhu92rcd13ifvqi70","pricing_plan_id":"cebpf4jnsgd1na2vs0mg"},{"bike_id":"2416829d-3f10-4954-bbb3-bc994a74f29a","system_id":"levelo_inurba_marseille","lat":43.25587,"lon":5.38206,"is_reserved":false,"is_disabled":false,"rental_uris":{"android":"levelo://app?vid=2416829d-3f10-4954-bbb3-bc994a74f29a","ios":"levelo://app?vid=2416829d-3f10-4954-bbb3-bc994a74f29a"},"vehicle_type_id":"4","last_reported":1768072069,"current_range_meters":2800,"station_id":"","pricing_plan_id":"cebpf4jnsgd1na2vs0mg"},{"bike_id":"e1287728-cf41-48d4-a1aa-f5e17b19fca6","system_id":"levelo_inurba_marseille","lat":43.3088,"lon":5.39656,"is_reserved":false,"is_disabled":false,"rental_uris":{"android":"levelo://app?vid=e1287728-cf41-48d4-a1aa-f5e17b19fca6","ios":"levelo://app?vid=e1287728-cf41-48d4-a1aa-f5e17b19fca6"},"vehicle_type_id":"4","last_reported":1768072069,"current_range_meters":2800,"station_id":"ce4bh012rcd13ifvqcv0","pricing_plan_id":"cebpf4jnsgd1na2vs0mg"},{"bike_id":"b62ff4b3-6a3a-419d-85d1-6a59965f4e3e","system_id":"levelo_inurba_marseille","lat":43.22925,"lon":5.35377,"is_reserved":false,"is_disabled":false,"rental_uris":{"android":"levelo://app?vid=b62ff4b3-6a3a-419d-85d1-6a59965f4e3e","ios":"levelo://app?vid=b62ff4b3-6a3a-419d-85d1-6a59965f4e3e"},"vehicle_type_id":"4","last_reported":1768072069,"current_range_meters":2800,"station_id":"cpo3532slgdg3j2ikp40","pricing_plan_id":"cebpf4jnsgd1na2vs0mg"},{"bike_id":"91316810-d5d1-40ab-acb2-96912bfb5711","system_id":"levelo_inurba_marseille","lat":43.28077,"lon":5.39656,"is_reserved":false,"is_disabled":false,"rental_uris":{"android":"levelo://app?vid=91316810-d5d1-40ab-acb2-96912bfb5711","ios":"levelo://app?vid=91316810-d5d1-40ab-acb2-96912bfb5711"},"vehicle_type_id":"4","last_reported":1768072069,"current_range_meters":2800,"station_id":"ce4bho12rcd13ifvqh2g","pricing_plan_id":"cebpf4jnsgd1na2vs0mg"},{"bike_id":"e288dd09-a719-4af9-97ac-ef72cf8ca56d","system_id":"levelo_inurba_marseille","lat":43.24956,"lon":5.4049,"is_reserved":false,"is_disabled":false,"rental_uris":{"android":"levelo://app?vid=e288dd09-a719-4af9-97ac-ef72cf8ca56d","ios":"levelo://app?vid=e288dd09-a719-4af9-97ac-ef72cf8ca56d"},"vehicle_type_id":"4","last_reported":1768072069,"current_range_meters":2800,"station_id":"st_d2ngiaodas8pm72gd1h0","pricing_plan_id":"cebpf4jnsgd1na2vs0mg"},{"bike_id":"939c67ce-6377-4aee-8e6c-8ad0908b5630","system_id":"levelo_inurba_marseille","lat":43.25333,"lon":5.42176,"is_reserved":false,"is_disabled":false,"rental_uris":{"android":"levelo://app?vid=939c67ce-6377-4aee-8e6c-8ad0908b5630","ios":"levelo://app?vid=939c67ce-6377-4aee-8e6c-8ad0908b5630"},"vehicle_type_id":"4","last_reported":1768072069,"current_range_meters":3200,"station_id":"st_d2m65c5bi1j21697t3ng","pricing_plan_id":"cebpf4jnsgd1na2vs0mg"},{"bike_id":"865555d8-70a3-48c4-b89b-4cd7680516d4","system_id":"levelo_inurba_marseille","lat":43.23177,"lon":5.35562,"is_reserved":false,"is_disabled":false,"rental_uris":{"android":"levelo://app?vid=865555d8-70a3-48c4-b89b-4cd7680516d4","ios":"levelo://app?vid=865555d8-70a3-48c4-b89b-4cd7680516d4"},"vehicle_type_id":"4","last_reported":1768072069,"current_range_meters":3200,"station_id":"ce4bhu92rcd13ifvqi70","pricing_plan_id":"cebpf4jnsgd1na2vs0mg"},{"bike_id":"83427c2d-715f-4590-9a22-ef252304a7c4","system_id":"levelo_inurba_marseille","lat":43.28459,"lon":5.35892,"is_reserved":false,"is_disabled":false,"rental_uris":{"android":"levelo://app?vid=83427c2d-715f-4590-9a22-ef252304a7c4","ios":"levelo://app?vid=83427c2d-715f-4590-9a22-ef252304a7c4"},"vehicle_type_id":"4","last_reported":1768072069,"current_range_meters":3200,"station_id":"ce4bhah2rcd13ifvqei0","pricing_plan_id":"cebpf4jnsgd1na2vs0mg"},{"bike_id":"a206cebf-5573-46e2-83ef-9a959c495e41","system_id":"levelo_inurba_marseille","lat":43.226127,"lon":5.416092,"is_reserved":false,"is_disabled":false,"rental_uris":{"android":"levelo://app?vid=a206cebf-5573-46e2-83ef-9a959c495e41","ios":"levelo://app?vid=a206cebf-5573-46e2-83ef-9a959c495e41"},"vehicle_type_id":"4","last_reported":1768072069,"current_range_meters":3200,"station_id":"st_d2o4gvlbi1j2169b742g","pricing_plan_id":"cebpf4jnsgd1na2vs0mg"},{"bike_id":"58e8c8e3-8fd5-46e6-bb1c-3f8b36675cb0","system_id":"levelo_inurba_marseille","lat":43.31219,"lon":5.36854,"is_reserved":false,"is_disabled":false,"rental_uris":{"android":"levelo://app?vid=58e8c8e3-8fd5-46e6-bb1c-3f8b36675cb0","ios":"levelo://app?vid=58e8c8e3-8fd5-46e6-bb1c-3f8b36675cb0"},"vehicle_type_id":"4","last_reported":1768072069,"current_range_meters":3200,"station_id":"ce4bgl92rcd13ifvqbq0","pricing_plan_id":"cebpf4jnsgd1na2vs0mg"},{"bike_id":"3784f2bf-f44f-44f4-a8be-e3b125ce0193","system_id":"levelo_inurba_marseille","lat":43.27095,"lon":5.40475,"is_reserved":false,"is_disabled":false,"rental_uris":{"android":"levelo://app?vid=3784f2bf-f44f-44f4-a8be-e3b125ce0193","ios":"levelo://app?vid=3784f2bf-f44f-44f4-a8be-e3b125ce0193"},"vehicle_type_id":"4","last_reported":1768072069,"current_range_meters":3200,"station_id":"","pricing_plan_id":"cebpf4jnsgd1na2vs0mg"},{"bike_id":"f1c45a35-92f2-4bd0-bf90-dce9ddee18cb","system_id":"levelo_inurba_marseille","lat":43.25574,"lon":5.38235,"is_reserved":false,"is_disabled":false,"rental_uris":{"android":"levelo://app?vid=f1c45a35-92f2-4bd0-bf90-dce9ddee18cb","ios":"levelo://app?vid=f1c45a35-92f2-4bd0-bf90-dce9ddee18cb"},"vehicle_type_id":"4","last_reported":1768072069,"current_range_meters":3200,"station_id":"ce4bhih2rcd13ifvqfs0","pricing_plan_id":"cebpf4jnsgd1na2vs0mg"},{"bike_id":"75794bf1-7e41-4253-ae5a-3fa5df9953d2","system_id":"levelo_inurba_marseille","lat":43.29565,"lon":5.37507,"is_reserved":false,"is_disabled":false,"rental_uris":{"android":"levelo://app?vid=75794bf1-7e41-4253-ae5a-3fa5df9953d2","ios":"levelo://app?vid=75794bf1-7e41-4253-ae5a-3fa5df9953d2"},"vehicle_type_id":"4","last_reported":1768072069,"current_range_meters":3200,"station_id":"ce4bgh92rcd13ifvqb50","pricing_plan_id":"cebpf4jnsgd1na2vs0mg"},{"bike_id":"cc6a42bd-dd7c-4c64-b69f-e5073a2adae2","system_id":"levelo_inurba_marseille","lat":43.21753,"lon":5.34598,"is_reserved":false,"is_disabled":false,"rental_uris":{"android":"levelo://app?vid=cc6a42bd-dd7c-4c64-b69f-e5073a2adae2","ios":"levelo://app?vid=cc6a42bd-dd7c-4c64-b69f-e5073a2adae2"},"vehicle_type_id":"4","last_reported":1768072069,"current_range_meters":3600,"station_id":"st_cvj6r9ubvosntc0bgbag","pricing_plan_id":"cebpf4jnsgd1na2vs0mg"},{"bike_id":"64742b03-fea0-4166-b89a-7f2219b555e6","system_id":"levelo_inurba_marseille","lat":43.30105,"lon":5.39084,"is_reserved":false,"is_disabled":false,"rental_uris":{"android":"levelo://app?vid=64742b03-fea0-4166-b89a-7f2219b555e6","ios":"levelo://app?vid=64742b03-fea0-4166-b89a-7f2219b555e6"},"vehicle_type_id":"4","last_reported":1768072069,"current_range_meters":3600,"station_id":"ce4bh192rcd13ifvqdb0","pricing_plan_id":"cebpf4jnsgd1na2vs0mg"},{"bike_id":"dd5d9f87-e752-4468-b3a4-1e7ae177c553","system_id":"levelo_inurba_marseille","lat":43.25116,"lon":5.40322,"is_reserved":false,"is_disabled":false,"rental_uris":{"android":"levelo://app?vid=dd5d9f87-e752-4468-b3a4-1e7ae177c553","ios":"levelo://app?vid=dd5d9f87-e752-4468-b3a4-1e7ae177c553"},"vehicle_type_id":"4","last_reported":1768072069,"current_range_meters":3600,"station_id":"ce4bhlh2rcd13ifvqgig","pricing_plan_id":"cebpf4jnsgd1na2vs0mg"},{"bike_id":"8feb8aa3-686c-4f76-9db3-49fe1acf51ff","system_id":"levelo_inurba_marseille","lat":43.29036,"lon":5.39966,"is_reserved":false,"is_disabled":false,"rental_uris":{"android":"levelo://app?vid=8feb8aa3-686c-4f76-9db3-49fe1acf51ff","ios":"levelo://app?vid=8feb8aa3-686c-4f76-9db3-49fe1acf51ff"},"vehicle_type_id":"4","last_reported":1768072069,"current_range_meters":3600,"station_id":"ce4bh392rcd13ifvqdm0","pricing_plan_id":"cebpf4jnsgd1na2vs0mg"},{"bike_id":"958d733f-115d-4197-ad48-b02303b8c133","system_id":"levelo_inurba_marseille","lat":43.304316,"lon":5.413023,"is_reserved":false,"is_disabled":false,"rental_uris":{"android":"levelo://app?vid=958d733f-115d-4197-ad48-b02303b8c133","ios":"levelo://app?vid=958d733f-115d-4197-ad48-b02303b8c133"},"vehicle_type_id":"4","last_reported":1768072069,"current_range_meters":3600,"station_id":"ce4bhop2rcd13ifvqh8g","pricing_plan_id":"cebpf4jnsgd1na2vs0mg"},{"bike_id":"eb6bac7c-ea47-4981-b38d-8116727e3c2f","system_id":"levelo_inurba_marseille","lat":43.27841,"lon":5.40701,"is_reserved":false,"is_disabled":false,"rental_uris":{"android":"levelo://app?vid=eb6bac7c-ea47-4981-b38d-8116727e3c2f","ios":"levelo://app?vid=eb6bac7c-ea47-4981-b38d-8116727e3c2f"},"vehicle_type_id":"4","last_reported":1768072069,"current_range_meters":3600,"station_id":"ce4bhnh2rcd13ifvqgtg","pricing_plan_id":"cebpf4jnsgd1na2vs0mg"},{"bike_id":"97376048-d29d-495e-85a6-cf5c60a2c6a6","system_id":"levelo_inurba_marseille","lat":43.30779,"lon":5.37647,"is_reserved":false,"is_disabled":false,"rental_uris":{"android":"levelo://app?vid=97376048-d29d-495e-85a6-cf5c60a2c6a6","ios":"levelo://app?vid=97376048-d29d-495e-85a6-cf5c60a2c6a6"},"vehicle_type_id":"4","last_reported":1768072069,"current_range_meters":3600,"station_id":"ce4bgv92rcd13ifvqcq0","pricing_plan_id":"cebpf4jnsgd1na2vs0mg"},{"bike_id":"a6587fc2-d977-4e48-9cf2-37447cd6f5ac","system_id":"levelo_inurba_marseille","lat":43.24167,"lon":5.36408,"is_reserved":false,"is_disabled":false,"rental_uris":{"android":"levelo://app?vid=a6587fc2-d977-4e48-9cf2-37447cd6f5ac","ios":"levelo://app?vid=a6587fc2-d977-4e48-9cf2-37447cd6f5ac"},"vehicle_type_id":"4","last_reported":1768072069,"current_range_meters":3600,"station_id":"cpo36qri1sfpv3e86is0","pricing_plan_id":"cebpf4jnsgd1na2vs0mg"},{"bike_id":"e56b0b7c-2b79-4a6a-8fb3-475afe850fc8","system_id":"levelo_inurba_marseille","lat":43.29756,"lon":5.38043,"is_reserved":false,"is_disabled":false,"rental_uris":{"android":"levelo://app?vid=e56b0b7c-2b79-4a6a-8fb3-475afe850fc8","ios":"levelo://app?vid=e56b0b7c-2b79-4a6a-8fb3-475afe850fc8"},"vehicle_type_id":"4","last_reported":1768072069,"current_range_meters":3600,"station_id":"","pricing_plan_id":"cebpf4jnsgd1na2vs0mg"},{"bike_id":"0d766240-8416-4864-ac60-8bf893bba867","system_id":"levelo_inurba_marseille","lat":43.28649,"lon":5.37185,"is_reserved":false,"is_disabled":false,"rental_uris":{"android":"levelo://app?vid=0d766240-8416-4864-ac60-8bf893bba867","ios":"levelo://app?vid=0d766240-8416-4864-ac60-8bf893bba867"},"vehicle_type_id":"4","last_reported":1768072069,"current_range_meters":3600,"station_id":"","pricing_plan_id":"cebpf4jnsgd1na2vs0mg"},{"bike_id":"fc650174-b7d5-4b2e-95dd-a422f28dc36b","system_id":"levelo_inurba_marseille","lat":43.28732,"lon":5.37945,"is_reserved":false,"is_disabled":false,"rental_uris":{"android":"levelo://app?vid=fc650174-b7d5-4b2e-95dd-a422f28dc36b","ios":"levelo://app?vid=fc650174-b7d5-4b2e-95dd-a422f28dc36b"},"vehicle_type_id":"4","last_reported":1768072069,"current_range_meters":3600,"station_id":"ce4bh9p2rcd13ifvqec0","pricing_plan_id":"cebpf4jnsgd1na2vs0mg"},{"bike_id":"a47be726-5aa0-4047-ab13-aa30123a6130","system_id":"levelo_inurba_marseille","lat":43.318493,"lon":5.379959,"is_reserved":false,"is_disabled":false,"rental_uris":{"android":"levelo://app?vid=a47be726-5aa0-4047-ab13-aa30123a6130","ios":"levelo://app?vid=a47be726-5aa0-4047-ab13-aa30123a6130"},"vehicle_type_id":"4","last_reported":1768072069,"current_range_meters":3600,"station_id":"ce4bgth2rcd13ifvqch0","pricing_plan_id":"cebpf4jnsgd1na2vs0mg"},{"bike_id":"07b348dc-f214-46ea-bf70-62d12a25c610","system_id":"levelo_inurba_marseille","lat":43.29803,"lon":5.38096,"is_reserved":false,"is_disabled":false,"rental_uris":{"android":"levelo://app?vid=07b348dc-f214-46ea-bf70-62d12a25c610","ios":"levelo://app?vid=07b348dc-f214-46ea-bf70-62d12a25c610"},"vehicle_type_id":"4","last_reported":1768072069,"current_range_meters":3600,"station_id":"ce4bgip2rcd13ifvqbb0","pricing_plan_id":"cebpf4jnsgd1na2vs0mg"},{"bike_id":"f136f3c2-e008-4609-bd60-756b976f7f22","system_id":"levelo_inurba_marseille","lat":43.271881,"lon":5.392045,"is_reserved":false,"is_disabled":false,"rental_uris":{"android":"levelo://app?vid=f136f3c2-e008-4609-bd60-756b976f7f22","ios":"levelo://app?vid=f136f3c2-e008-4609-bd60-756b976f7f22"},"vehicle_type_id":"4","last_reported":1768072069,"current_range_meters":3600,"station_id":"ce4bhhp2rcd13ifvqfm0","pricing_plan_id":"cebpf4jnsgd1na2vs0mg"},{"bike_id":"fa3e977d-1e63-41e7-8315-0d9223984351","system_id":"levelo_inurba_marseille","lat":43.30085,"lon":5.38184,"is_reserved":false,"is_disabled":false,"rental_uris":{"android":"levelo://app?vid=fa3e977d-1e63-41e7-8315-0d9223984351","ios":"levelo://app?vid=fa3e977d-1e63-41e7-8315-0d9223984351"},"vehicle_type_id":"4","last_reported":1768072069,"current_range_meters":4000,"station_id":"","pricing_plan_id":"cebpf4jnsgd1na2vs0mg"},{"bike_id":"7c981463-6fea-45a4-a723-d804339d8781","system_id":"levelo_inurba_marseille","lat":43.26791,"lon":5.39409,"is_reserved":false,"is_disabled":false,"rental_uris":{"android":"levelo://app?vid=7c981463-6fea-45a4-a723-d804339d8781","ios":"levelo://app?vid=7c981463-6fea-45a4-a723-d804339d8781"},"vehicle_type_id":"4","last_reported":1768072069,"current_range_meters":4000,"station_id":"ce4bhh12rcd13ifvqfg0","pricing_plan_id":"cebpf4jnsgd1na2vs0mg"},{"bike_id":"cc1c2d2a-43d5-46f5-b6d2-bcf5b2d9c0f7","system_id":"levelo_inurba_marseille","lat":43.27168,"lon":5.40992,"is_reserved":false,"is_disabled":false,"rental_uris":{"android":"levelo://app?vid=cc1c2d2a-43d5-46f5-b6d2-bcf5b2d9c0f7","ios":"levelo://app?vid=cc1c2d2a-43d5-46f5-b6d2-bcf5b2d9c0f7"},"vehicle_type_id":"4","last_reported":1768072069,"current_range_meters":4000,"station_id":"ce4bhl12rcd13ifvqgf0","pricing_plan_id":"cebpf4jnsgd1na2vs0mg"},{"bike_id":"cc9ddcd0-2974-4b42-9d3b-c6332c2e183c","system_id":"levelo_inurba_marseille","lat":43.288471,"lon":5.393079,"is_reserved":false,"is_disabled":false,"rental_uris":{"android":"levelo://app?vid=cc9ddcd0-2974-4b42-9d3b-c6332c2e183c","ios":"levelo://app?vid=cc9ddcd0-2974-4b42-9d3b-c6332c2e183c"},"vehicle_type_id":"4","last_reported":1768072069,"current_range_meters":4000,"station_id":"","pricing_plan_id":"cebpf4jnsgd1na2vs0mg"},{"bike_id":"8245ec61-8e41-4ea8-b5dd-2dbb9e6e6b0b","system_id":"levelo_inurba_marseille","lat":43.292572,"lon":5.409003,"is_reserved":false,"is_disabled":false,"rental_uris":{"android":"levelo://app?vid=8245ec61-8e41-4ea8-b5dd-2dbb9e6e6b0b","ios":"levelo://app?vid=8245ec61-8e41-4ea8-b5dd-2dbb9e6e6b0b"},"vehicle_type_id":"4","last_reported":1768072069,"current_range_meters":4000,"station_id":"ce4bh192rcd13ifvqdc0","pricing_plan_id":"cebpf4jnsgd1na2vs0mg"},{"bike_id":"7cc51d27-450b-483c-8291-b85cf4f922ca","system_id":"levelo_inurba_marseille","lat":43.24809,"lon":5.37454,"is_reserved":false,"is_disabled":false,"rental_uris":{"android":"levelo://app?vid=7cc51d27-450b-483c-8291-b85cf4f922ca","ios":"levelo://app?vid=7cc51d27-450b-483c-8291-b85cf4f922ca"},"vehicle_type_id":"4","last_reported":1768072069,"current_range_meters":4000,"station_id":"ce4bhgh2rcd13ifvqfb0","pricing_plan_id":"cebpf4jnsgd1na2vs0mg"},{"bike_id":"4750dde3-1068-4d1c-91ff-e24a2c661d15","system_id":"levelo_inurba_marseille","lat":43.30118,"lon":5.43109,"is_reserved":false,"is_disabled":false,"rental_uris":{"android":"levelo://app?vid=4750dde3-1068-4d1c-91ff-e24a2c661d15","ios":"levelo://app?vid=4750dde3-1068-4d1c-91ff-e24a2c661d15"},"vehicle_type_id":"4","last_reported":1768072069,"current_range_meters":4000,"station_id":"st_d3js3co5814s73ftftug","pricing_plan_id":"cebpf4jnsgd1na2vs0mg"},{"bike_id":"0e99af7a-528e-4c47-86c9-baf47e2315c0","system_id":"levelo_inurba_marseille","lat":43.295278,"lon":5.375078,"is_reserved":false,"is_disabled":false,"rental_uris":{"android":"levelo://app?vid=0e99af7a-528e-4c47-86c9-baf47e2315c0","ios":"levelo://app?vid=0e99af7a-528e-4c47-86c9-baf47e2315c0"},"vehicle_type_id":"4","last_reported":1768072069,"current_range_meters":4000,"station_id":"","pricing_plan_id":"cebpf4jnsgd1na2vs0mg"},{"bike_id":"50c3ef0e-1a4a-429a-8acc-0df9b73d0d2b","system_id":"levelo_inurba_marseille","lat":43.23789,"lon":5.36619,"is_reserved":false,"is_disabled":false,"rental_uris":{"android":"levelo://app?vid=50c3ef0e-1a4a-429a-8acc-0df9b73d0d2b","ios":"levelo://app?vid=50c3ef0e-1a4a-429a-8acc-0df9b73d0d2b"},"vehicle_type_id":"4","last_reported":1768072069,"current_range_meters":4000,"station_id":"st_d3nk18o9ro0c73en2l3g","pricing_plan_id":"cebpf4jnsgd1na2vs0mg"},{"bike_id":"69d4f80e-3650-4ebf-ac5f-0e1544dea5ec","system_id":"levelo_inurba_marseille","lat":43.29199,"lon":5.39322,"is_reserved":false,"is_disabled":false,"rental_uris":{"android":"levelo://app?vid=69d4f80e-3650-4ebf-ac5f-0e1544dea5ec","ios":"levelo://app?vid=69d4f80e-3650-4ebf-ac5f-0e1544dea5ec"},"vehicle_type_id":"4","last_reported":1768072069,"current_range_meters":4000,"station_id":"ce4bh192rcd13ifvqdd0","pricing_plan_id":"cebpf4jnsgd1na2vs0mg"},{"bike_id":"76e4e42b-ff1f-4fe8-a54e-d42a16767785","system_id":"levelo_inurba_marseille","lat":43.260272,"lon":5.375561,"is_reserved":false,"is_disabled":false,"rental_uris":{"android":"levelo://app?vid=76e4e42b-ff1f-4fe8-a54e-d42a16767785","ios":"levelo://app?vid=76e4e42b-ff1f-4fe8-a54e-d42a16767785"},"vehicle_type_id":"4","last_reported":1768072069,"current_range_meters":4000,"station_id":"ce4bhgh2rcd13ifvqfa0","pricing_plan_id":"cebpf4jnsgd1na2vs0mg"},{"bike_id":"5fba3a5d-a6f6-4275-a39e-b3c41cc03d24","system_id":"levelo_inurba_marseille","lat":43.287,"lon":5.37394,"is_reserved":false,"is_disabled":false,"rental_uris":{"android":"levelo://app?vid=5fba3a5d-a6f6-4275-a39e-b3c41cc03d24","ios":"levelo://app?vid=5fba3a5d-a6f6-4275-a39e-b3c41cc03d24"},"vehicle_type_id":"4","last_reported":1768072069,"current_range_meters":4000,"station_id":"ce4bh3p2rcd13ifvqdq0","pricing_plan_id":"cebpf4jnsgd1na2vs0mg"},{"bike_id":"db3ac995-2db6-4f14-9716-1554520c2aa1","system_id":"levelo_inurba_marseille","lat":43.2842,"lon":5.37515,"is_reserved":false,"is_disabled":false,"rental_uris":{"android":"levelo://app?vid=db3ac995-2db6-4f14-9716-1554520c2aa1","ios":"levelo://app?vid=db3ac995-2db6-4f14-9716-1554520c2aa1"},"vehicle_type_id":"4","last_reported":1768072069,"current_range_meters":4000,"station_id":"ce4bh412rcd13ifvqds0","pricing_plan_id":"cebpf4jnsgd1na2vs0mg"},{"bike_id":"ae522ea6-6572-43ed-b09c-0ec35defe153","system_id":"levelo_inurba_marseille","lat":43.27215,"lon":5.39178,"is_reserved":false,"is_disabled":false,"rental_uris":{"android":"levelo://app?vid=ae522ea6-6572-43ed-b09c-0ec35defe153","ios":"levelo://app?vid=ae522ea6-6572-43ed-b09c-0ec35defe153"},"vehicle_type_id":"4","last_reported":1768072069,"current_range_meters":4000,"station_id":"ce4bhhp2rcd13ifvqfm0","pricing_plan_id":"cebpf4jnsgd1na2vs0mg"},{"bike_id":"6eee8232-be11-4ed4-98a2-ff867d38456f","system_id":"levelo_inurba_marseille","lat":43.299683,"lon":5.384884,"is_reserved":false,"is_disabled":false,"rental_uris":{"android":"levelo://app?vid=6eee8232-be11-4ed4-98a2-ff867d38456f","ios":"levelo://app?vid=6eee8232-be11-4ed4-98a2-ff867d38456f"},"vehicle_type_id":"4","last_reported":1768072069,"current_range_meters":4000,"station_id":"ce4bgj92rcd13ifvqbd0","pricing_plan_id":"cebpf4jnsgd1na2vs0mg"},{"bike_id":"015c40ff-ccdb-43f0-8f4f-c4761b65940c","system_id":"levelo_inurba_marseille","lat":43.2293,"lon":5.35361,"is_reserved":false,"is_disabled":false,"rental_uris":{"android":"levelo://app?vid=015c40ff-ccdb-43f0-8f4f-c4761b65940c","ios":"levelo://app?vid=015c40ff-ccdb-43f0-8f4f-c4761b65940c"},"vehicle_type_id":"4","last_reported":1768072069,"current_range_meters":4000,"station_id":"cpo3532slgdg3j2ikp40","pricing_plan_id":"cebpf4jnsgd1na2vs0mg"},{"bike_id":"07577fad-9855-43d4-ac63-d8d4cd02a390","system_id":"levelo_inurba_marseille","lat":43.265571,"lon":5.372809,"is_reserved":false,"is_disabled":false,"rental_uris":{"android":"levelo://app?vid=07577fad-9855-43d4-ac63-d8d4cd02a390","ios":"levelo://app?vid=07577fad-9855-43d4-ac63-d8d4cd02a390"},"vehicle_type_id":"4","last_reported":1768072069,"current_range_meters":4000,"station_id":"ce4bhg12rcd13ifvqf70","pricing_plan_id":"cebpf4jnsgd1na2vs0mg"},{"bike_id":"6baf710c-faa2-4c92-9e6d-dc396b05b269","system_id":"levelo_inurba_marseille","lat":43.31126,"lon":5.37758,"is_reserved":false,"is_disabled":false,"rental_uris":{"android":"levelo://app?vid=6baf710c-faa2-4c92-9e6d-dc396b05b269","ios":"levelo://app?vid=6baf710c-faa2-4c92-9e6d-dc396b05b269"},"vehicle_type_id":"4","last_reported":1768072069,"current_range_meters":4000,"station_id":"ce4bgt92rcd13ifvqcg0","pricing_plan_id":"cebpf4jnsgd1na2vs0mg"},{"bike_id":"d57d5aca-15f7-434e-8a03-17786af5ecb0","system_id":"levelo_inurba_marseille","lat":43.28417,"lon":5.34978,"is_reserved":false,"is_disabled":false,"rental_uris":{"android":"levelo://app?vid=d57d5aca-15f7-434e-8a03-17786af5ecb0","ios":"levelo://app?vid=d57d5aca-15f7-434e-8a03-17786af5ecb0"},"vehicle_type_id":"4","last_reported":1768072069,"current_range_meters":4000,"station_id":"ce4bhbh2rcd13ifvqepg","pricing_plan_id":"cebpf4jnsgd1na2vs0mg"},{"bike_id":"2a282b80-7b90-4dc8-964e-70060a433be7","system_id":"levelo_inurba_marseille","lat":43.231919,"lon":5.355568,"is_reserved":false,"is_disabled":false,"rental_uris":{"android":"levelo://app?vid=2a282b80-7b90-4dc8-964e-70060a433be7","ios":"levelo://app?vid=2a282b80-7b90-4dc8-964e-70060a433be7"},"vehicle_type_id":"4","last_reported":1768072069,"current_range_meters":4400,"station_id":"ce4bhu92rcd13ifvqi70","pricing_plan_id":"cebpf4jnsgd1na2vs0mg"},{"bike_id":"a31a5e09-760d-4df0-a42c-5ad4c665a29b","system_id":"levelo_inurba_marseille","lat":43.2549,"lon":5.37644,"is_reserved":false,"is_disabled":false,"rental_uris":{"android":"levelo://app?vid=a31a5e09-760d-4df0-a42c-5ad4c665a29b","ios":"levelo://app?vid=a31a5e09-760d-4df0-a42c-5ad4c665a29b"},"vehicle_type_id":"4","last_reported":1768072069,"current_range_meters":4400,"station_id":"ce4bhh12rcd13ifvqff0","pricing_plan_id":"cebpf4jnsgd1na2vs0mg"},{"bike_id":"8f6c4c1e-e47c-4a1f-a7a0-d3f75a03fcd5","system_id":"levelo_inurba_marseille","lat":43.25034,"lon":5.40315,"is_reserved":false,"is_disabled":false,"rental_uris":{"android":"levelo://app?vid=8f6c4c1e-e47c-4a1f-a7a0-d3f75a03fcd5","ios":"levelo://app?vid=8f6c4c1e-e47c-4a1f-a7a0-d3f75a03fcd5"},"vehicle_type_id":"4","last_reported":1768072069,"current_range_meters":4400,"station_id":"","pricing_plan_id":"cebpf4jnsgd1na2vs0mg"},{"bike_id":"5a82fe8d-945e-4ba0-89a9-6af09a158437","system_id":"levelo_inurba_marseille","lat":43.25582,"lon":5.38233,"is_reserved":false,"is_disabled":false,"rental_uris":{"android":"levelo://app?vid=5a82fe8d-945e-4ba0-89a9-6af09a158437","ios":"levelo://app?vid=5a82fe8d-945e-4ba0-89a9-6af09a158437"},"vehicle_type_id":"4","last_reported":1768072069,"current_range_meters":4400,"station_id":"ce4bhih2rcd13ifvqfs0","pricing_plan_id":"cebpf4jnsgd1na2vs0mg"},{"bike_id":"583dae6d-eb65-4298-b028-f59776703333","system_id":"levelo_inurba_marseille","lat":43.25122,"lon":5.40309,"is_reserved":false,"is_disabled":false,"rental_uris":{"android":"levelo://app?vid=583dae6d-eb65-4298-b028-f59776703333","ios":"levelo://app?vid=583dae6d-eb65-4298-b028-f59776703333"},"vehicle_type_id":"4","last_reported":1768072069,"current_range_meters":4400,"station_id":"ce4bhlh2rcd13ifvqgig","pricing_plan_id":"cebpf4jnsgd1na2vs0mg"},{"bike_id":"6008df05-617a-40de-8a54-037c9637743d","system_id":"levelo_inurba_marseille","lat":43.29267,"lon":5.38449,"is_reserved":false,"is_disabled":false,"rental_uris":{"android":"levelo://app?vid=6008df05-617a-40de-8a54-037c9637743d","ios":"levelo://app?vid=6008df05-617a-40de-8a54-037c9637743d"},"vehicle_type_id":"4","last_reported":1768072069,"current_range_meters":4400,"station_id":"ce4bh692rcd13ifvqea0","pricing_plan_id":"cebpf4jnsgd1na2vs0mg"},{"bike_id":"9be47716-b6c4-4f6e-b3d9-238d6399366b","system_id":"levelo_inurba_marseille","lat":43.31407,"lon":5.40425,"is_reserved":false,"is_disabled":false,"rental_uris":{"android":"levelo://app?vid=9be47716-b6c4-4f6e-b3d9-238d6399366b","ios":"levelo://app?vid=9be47716-b6c4-4f6e-b3d9-238d6399366b"},"vehicle_type_id":"4","last_reported":1768072069,"current_range_meters":4400,"station_id":"","pricing_plan_id":"cebpf4jnsgd1na2vs0mg"},{"bike_id":"a9fccba9-b754-4ee7-accb-83ed7cce913f","system_id":"levelo_inurba_marseille","lat":43.2315,"lon":5.43704,"is_reserved":false,"is_disabled":false,"rental_uris":{"android":"levelo://app?vid=a9fccba9-b754-4ee7-accb-83ed7cce913f","ios":"levelo://app?vid=a9fccba9-b754-4ee7-accb-83ed7cce913f"},"vehicle_type_id":"4","last_reported":1768072069,"current_range_meters":4800,"station_id":"ce4bhmp2rcd13ifvqgog","pricing_plan_id":"cebpf4jnsgd1na2vs0mg"},{"bike_id":"804a5bd5-e601-4558-8e6a-7cb09a01af91","system_id":"levelo_inurba_marseille","lat":43.29562,"lon":5.39963,"is_reserved":false,"is_disabled":false,"rental_uris":{"android":"levelo://app?vid=804a5bd5-e601-4558-8e6a-7cb09a01af91","ios":"levelo://app?vid=804a5bd5-e601-4558-8e6a-7cb09a01af91"},"vehicle_type_id":"4","last_reported":1768072069,"current_range_meters":4800,"station_id":"ce4bh312rcd13ifvqdj0","pricing_plan_id":"cebpf4jnsgd1na2vs0mg"},{"bike_id":"18c99692-3ca0-436c-9ab1-5135473130c4","system_id":"levelo_inurba_marseille","lat":43.23785,"lon":5.36621,"is_reserved":false,"is_disabled":false,"rental_uris":{"android":"levelo://app?vid=18c99692-3ca0-436c-9ab1-5135473130c4","ios":"levelo://app?vid=18c99692-3ca0-436c-9ab1-5135473130c4"},"vehicle_type_id":"4","last_reported":1768072069,"current_range_meters":4800,"station_id":"st_d3nk18o9ro0c73en2l3g","pricing_plan_id":"cebpf4jnsgd1na2vs0mg"},{"bike_id":"ab4cea80-13b3-4d64-b265-d0b7fa994e06","system_id":"levelo_inurba_marseille","lat":43.286838,"lon":5.373919,"is_reserved":false,"is_disabled":false,"rental_uris":{"android":"levelo://app?vid=ab4cea80-13b3-4d64-b265-d0b7fa994e06","ios":"levelo://app?vid=ab4cea80-13b3-4d64-b265-d0b7fa994e06"},"vehicle_type_id":"4","last_reported":1768072069,"current_range_meters":4800,"station_id":"","pricing_plan_id":"cebpf4jnsgd1na2vs0mg"},{"bike_id":"f645835c-e176-4cc8-8e4e-c25d11479cdb","system_id":"levelo_inurba_marseille","lat":43.289276,"lon":5.383861,"is_reserved":false,"is_disabled":false,"rental_uris":{"android":"levelo://app?vid=f645835c-e176-4cc8-8e4e-c25d11479cdb","ios":"levelo://app?vid=f645835c-e176-4cc8-8e4e-c25d11479cdb"},"vehicle_type_id":"4","last_reported":1768072069,"current_range_meters":4800,"station_id":"ce4bh612rcd13ifvqe6g","pricing_plan_id":"cebpf4jnsgd1na2vs0mg"},{"bike_id":"805cdd3d-a945-4905-be21-c606e2c4aea2","system_id":"levelo_inurba_marseille","lat":43.28749,"lon":5.38908,"is_reserved":false,"is_disabled":false,"rental_uris":{"android":"levelo://app?vid=805cdd3d-a945-4905-be21-c606e2c4aea2","ios":"levelo://app?vid=805cdd3d-a945-4905-be21-c606e2c4aea2"},"vehicle_type_id":"4","last_reported":1768072069,"current_range_meters":4800,"station_id":"","pricing_plan_id":"cebpf4jnsgd1na2vs0mg"},{"bike_id":"fb54c922-73a4-4918-a766-b56f627742d6","system_id":"levelo_inurba_marseille","lat":43.24416,"lon":5.37032,"is_reserved":false,"is_disabled":false,"rental_uris":{"android":"levelo://app?vid=fb54c922-73a4-4918-a766-b56f627742d6","ios":"levelo://app?vid=fb54c922-73a4-4918-a766-b56f627742d6"},"vehicle_type_id":"4","last_reported":1768072069,"current_range_meters":4800,"station_id":"ce4bhhh2rcd13ifvqfk0","pricing_plan_id":"cebpf4jnsgd1na2vs0mg"},{"bike_id":"a9a97530-f4ae-45c7-bbe9-02cb7807c19a","system_id":"levelo_inurba_marseille","lat":43.312755,"lon":5.401676,"is_reserved":false,"is_disabled":false,"rental_uris":{"android":"levelo://app?vid=a9a97530-f4ae-45c7-bbe9-02cb7807c19a","ios":"levelo://app?vid=a9a97530-f4ae-45c7-bbe9-02cb7807c19a"},"vehicle_type_id":"4","last_reported":1768072069,"current_range_meters":4800,"station_id":"","pricing_plan_id":"cebpf4jnsgd1na2vs0mg"},{"bike_id":"1444e0da-7b27-4f48-bdfa-30ab980c9925","system_id":"levelo_inurba_marseille","lat":43.25909,"lon":5.40914,"is_reserved":false,"is_disabled":false,"rental_uris":{"android":"levelo://app?vid=1444e0da-7b27-4f48-bdfa-30ab980c9925","ios":"levelo://app?vid=1444e0da-7b27-4f48-bdfa-30ab980c9925"},"vehicle_type_id":"4","last_reported":1768072069,"current_range_meters":4800,"station_id":"ce4bhm92rcd13ifvqglg","pricing_plan_id":"cebpf4jnsgd1na2vs0mg"},{"bike_id":"23d25c2f-1713-44f4-812e-c08229251eed","system_id":"levelo_inurba_marseille","lat":43.24392,"lon":5.37063,"is_reserved":false,"is_disabled":false,"rental_uris":{"android":"levelo://app?vid=23d25c2f-1713-44f4-812e-c08229251eed","ios":"levelo://app?vid=23d25c2f-1713-44f4-812e-c08229251eed"},"vehicle_type_id":"4","last_reported":1768072069,"current_range_meters":4800,"station_id":"ce4bhhh2rcd13ifvqfk0","pricing_plan_id":"cebpf4jnsgd1na2vs0mg"},{"bike_id":"87f67e97-3d5d-4e9b-a43f-2ccacab47334","system_id":"levelo_inurba_marseille","lat":43.26679,"lon":5.38264,"is_reserved":false,"is_disabled":false,"rental_uris":{"android":"levelo://app?vid=87f67e97-3d5d-4e9b-a43f-2ccacab47334","ios":"levelo://app?vid=87f67e97-3d5d-4e9b-a43f-2ccacab47334"},"vehicle_type_id":"4","last_reported":1768072069,"current_range_meters":4800,"station_id":"ce4bhg92rcd13ifvqf90","pricing_plan_id":"cebpf4jnsgd1na2vs0mg"},{"bike_id":"07a64454-6ccc-4399-bb05-db92d5dab39b","system_id":"levelo_inurba_marseille","lat":43.270629,"lon":5.383042,"is_reserved":false,"is_disabled":false,"rental_uris":{"android":"levelo://app?vid=07a64454-6ccc-4399-bb05-db92d5dab39b","ios":"levelo://app?vid=07a64454-6ccc-4399-bb05-db92d5dab39b"},"vehicle_type_id":"4","last_reported":1768072069,"current_range_meters":4800,"station_id":"st_d3n2fo6cfp8s73cte1j0","pricing_plan_id":"cebpf4jnsgd1na2vs0mg"},{"bike_id":"936c2bc9-f72d-49ef-812b-33b904299037","system_id":"levelo_inurba_marseille","lat":43.30891,"lon":5.37187,"is_reserved":false,"is_disabled":false,"rental_uris":{"android":"levelo://app?vid=936c2bc9-f72d-49ef-812b-33b904299037","ios":"levelo://app?vid=936c2bc9-f72d-49ef-812b-33b904299037"},"vehicle_type_id":"4","last_reported":1768072069,"current_range_meters":4800,"station_id":"ce4bguh2rcd13ifvqckg","pricing_plan_id":"cebpf4jnsgd1na2vs0mg"},{"bike_id":"3da59865-307e-4e18-a76b-1e8cc1080ec2","system_id":"levelo_inurba_marseille","lat":43.25087,"lon":5.39509,"is_reserved":false,"is_disabled":false,"rental_uris":{"android":"levelo://app?vid=3da59865-307e-4e18-a76b-1e8cc1080ec2","ios":"levelo://app?vid=3da59865-307e-4e18-a76b-1e8cc1080ec2"},"vehicle_type_id":"4","last_reported":1768072069,"current_range_meters":4800,"station_id":"ce4bhm12rcd13ifvqgkg","pricing_plan_id":"cebpf4jnsgd1na2vs0mg"},{"bike_id":"95da510d-8d81-451f-9e9c-645b35fe2028","system_id":"levelo_inurba_marseille","lat":43.260289,"lon":5.375499,"is_reserved":false,"is_disabled":false,"rental_uris":{"android":"levelo://app?vid=95da510d-8d81-451f-9e9c-645b35fe2028","ios":"levelo://app?vid=95da510d-8d81-451f-9e9c-645b35fe2028"},"vehicle_type_id":"4","last_reported":1768072069,"current_range_meters":4800,"station_id":"ce4bhgh2rcd13ifvqfa0","pricing_plan_id":"cebpf4jnsgd1na2vs0mg"},{"bike_id":"8bca3afd-6757-4e17-905d-276c8f7a07bb","system_id":"levelo_inurba_marseille","lat":43.30814,"lon":5.36959,"is_reserved":false,"is_disabled":false,"rental_uris":{"android":"levelo://app?vid=8bca3afd-6757-4e17-905d-276c8f7a07bb","ios":"levelo://app?vid=8bca3afd-6757-4e17-905d-276c8f7a07bb"},"vehicle_type_id":"4","last_reported":1768072069,"current_range_meters":4800,"station_id":"","pricing_plan_id":"cebpf4jnsgd1na2vs0mg"},{"bike_id":"ea58a22a-0b97-41e3-bf6e-9b43aa27f1c8","system_id":"levelo_inurba_marseille","lat":43.27999,"lon":5.41648,"is_reserved":false,"is_disabled":false,"rental_uris":{"android":"levelo://app?vid=ea58a22a-0b97-41e3-bf6e-9b43aa27f1c8","ios":"levelo://app?vid=ea58a22a-0b97-41e3-bf6e-9b43aa27f1c8"},"vehicle_type_id":"4","last_reported":1768072069,"current_range_meters":4800,"station_id":"ce4bho12rcd13ifvqh1g","pricing_plan_id":"cebpf4jnsgd1na2vs0mg"},{"bike_id":"2b3b1a4f-e03d-4324-9748-44ce9bb47871","system_id":"levelo_inurba_marseille","lat":43.28566,"lon":5.39496,"is_reserved":false,"is_disabled":false,"rental_uris":{"android":"levelo://app?vid=2b3b1a4f-e03d-4324-9748-44ce9bb47871","ios":"levelo://app?vid=2b3b1a4f-e03d-4324-9748-44ce9bb47871"},"vehicle_type_id":"4","last_reported":1768072069,"current_range_meters":4800,"station_id":"ce4bh292rcd13ifvqdg0","pricing_plan_id":"cebpf4jnsgd1na2vs0mg"},{"bike_id":"31b581bb-8a8e-4c20-9be1-ffc990affedc","system_id":"levelo_inurba_marseille","lat":43.30649,"lon":5.40105,"is_reserved":false,"is_disabled":false,"rental_uris":{"android":"levelo://app?vid=31b581bb-8a8e-4c20-9be1-ffc990affedc","ios":"levelo://app?vid=31b581bb-8a8e-4c20-9be1-ffc990affedc"},"vehicle_type_id":"4","last_reported":1768072069,"current_range_meters":5600,"station_id":"ce4bh112rcd13ifvqda0","pricing_plan_id":"cebpf4jnsgd1na2vs0mg"},{"bike_id":"655a9b99-52a8-4faf-885c-a661e20365be","system_id":"levelo_inurba_marseille","lat":43.260607,"lon":5.393993,"is_reserved":false,"is_disabled":false,"rental_uris":{"android":"levelo://app?vid=655a9b99-52a8-4faf-885c-a661e20365be","ios":"levelo://app?vid=655a9b99-52a8-4faf-885c-a661e20365be"},"vehicle_type_id":"4","last_reported":1768072069,"current_range_meters":5600,"station_id":"ce4bhh92rcd13ifvqfj0","pricing_plan_id":"cebpf4jnsgd1na2vs0mg"},{"bike_id":"968f5650-f7ac-46b6-a51a-97011a0e57d4","system_id":"levelo_inurba_marseille","lat":43.337568,"lon":5.374423,"is_reserved":false,"is_disabled":false,"rental_uris":{"android":"levelo://app?vid=968f5650-f7ac-46b6-a51a-97011a0e57d4","ios":"levelo://app?vid=968f5650-f7ac-46b6-a51a-97011a0e57d4"},"vehicle_type_id":"4","last_reported":1768072069,"current_range_meters":5600,"station_id":"","pricing_plan_id":"cebpf4jnsgd1na2vs0mg"},{"bike_id":"dce6399a-8ce7-4694-915a-75c4560d6a5b","system_id":"levelo_inurba_marseille","lat":43.292331,"lon":5.361914,"is_reserved":false,"is_disabled":false,"rental_uris":{"android":"levelo://app?vid=dce6399a-8ce7-4694-915a-75c4560d6a5b","ios":"levelo://app?vid=dce6399a-8ce7-4694-915a-75c4560d6a5b"},"vehicle_type_id":"4","last_reported":1768072069,"current_range_meters":5600,"station_id":"ce4bhbh2rcd13ifvqeqg","pricing_plan_id":"cebpf4jnsgd1na2vs0mg"},{"bike_id":"dbc4b21f-7495-4ea8-96fd-0bc38500e164","system_id":"levelo_inurba_marseille","lat":43.337444,"lon":5.374475,"is_reserved":false,"is_disabled":false,"rental_uris":{"android":"levelo://app?vid=dbc4b21f-7495-4ea8-96fd-0bc38500e164","ios":"levelo://app?vid=dbc4b21f-7495-4ea8-96fd-0bc38500e164"},"vehicle_type_id":"4","last_reported":1768072069,"current_range_meters":5600,"station_id":"","pricing_plan_id":"cebpf4jnsgd1na2vs0mg"},{"bike_id":"a35b0995-03f7-4205-aa95-793e1ec88754","system_id":"levelo_inurba_marseille","lat":43.24809,"lon":5.37453,"is_reserved":false,"is_disabled":false,"rental_uris":{"android":"levelo://app?vid=a35b0995-03f7-4205-aa95-793e1ec88754","ios":"levelo://app?vid=a35b0995-03f7-4205-aa95-793e1ec88754"},"vehicle_type_id":"4","last_reported":1768072069,"current_range_meters":5600,"station_id":"ce4bhgh2rcd13ifvqfb0","pricing_plan_id":"cebpf4jnsgd1na2vs0mg"},{"bike_id":"9ab8ec0b-173e-483a-a609-e947f01d9af1","system_id":"levelo_inurba_marseille","lat":43.29306,"lon":5.37149,"is_reserved":false,"is_disabled":false,"rental_uris":{"android":"levelo://app?vid=9ab8ec0b-173e-483a-a609-e947f01d9af1","ios":"levelo://app?vid=9ab8ec0b-173e-483a-a609-e947f01d9af1"},"vehicle_type_id":"4","last_reported":1768072069,"current_range_meters":5600,"station_id":"ce4bgh92rcd13ifvqb40","pricing_plan_id":"cebpf4jnsgd1na2vs0mg"},{"bike_id":"a8601da2-2020-4b9c-a126-4ba0f95f13ae","system_id":"levelo_inurba_marseille","lat":43.24074,"lon":5.37737,"is_reserved":false,"is_disabled":false,"rental_uris":{"android":"levelo://app?vid=a8601da2-2020-4b9c-a126-4ba0f95f13ae","ios":"levelo://app?vid=a8601da2-2020-4b9c-a126-4ba0f95f13ae"},"vehicle_type_id":"4","last_reported":1768072069,"current_range_meters":5600,"station_id":"","pricing_plan_id":"cebpf4jnsgd1na2vs0mg"},{"bike_id":"b1fb05e1-9aee-4d2c-a119-1ae455674895","system_id":"levelo_inurba_marseille","lat":43.283441,"lon":5.381055,"is_reserved":false,"is_disabled":false,"rental_uris":{"android":"levelo://app?vid=b1fb05e1-9aee-4d2c-a119-1ae455674895","ios":"levelo://app?vid=b1fb05e1-9aee-4d2c-a119-1ae455674895"},"vehicle_type_id":"4","last_reported":1768072069,"current_range_meters":5600,"station_id":"ce4bh412rcd13ifvqdr0","pricing_plan_id":"cebpf4jnsgd1na2vs0mg"},{"bike_id":"6773efea-6de1-4eff-881d-9d3652930047","system_id":"levelo_inurba_marseille","lat":43.29848,"lon":5.37569,"is_reserved":false,"is_disabled":false,"rental_uris":{"android":"levelo://app?vid=6773efea-6de1-4eff-881d-9d3652930047","ios":"levelo://app?vid=6773efea-6de1-4eff-881d-9d3652930047"},"vehicle_type_id":"4","last_reported":1768072069,"current_range_meters":5600,"station_id":"","pricing_plan_id":"cebpf4jnsgd1na2vs0mg"},{"bike_id":"16fafe03-446b-4e5b-ba06-bcd62288909d","system_id":"levelo_inurba_marseille","lat":43.25521,"lon":5.37627,"is_reserved":false,"is_disabled":false,"rental_uris":{"android":"levelo://app?vid=16fafe03-446b-4e5b-ba06-bcd62288909d","ios":"levelo://app?vid=16fafe03-446b-4e5b-ba06-bcd62288909d"},"vehicle_type_id":"4","last_reported":1768072069,"current_range_meters":5600,"station_id":"ce4bhh12rcd13ifvqff0","pricing_plan_id":"cebpf4jnsgd1na2vs0mg"},{"bike_id":"4ede9c30-c321-41b2-b903-6451a2d8375d","system_id":"levelo_inurba_marseille","lat":43.29268,"lon":5.38447,"is_reserved":false,"is_disabled":false,"rental_uris":{"android":"levelo://app?vid=4ede9c30-c321-41b2-b903-6451a2d8375d","ios":"levelo://app?vid=4ede9c30-c321-41b2-b903-6451a2d8375d"},"vehicle_type_id":"4","last_reported":1768072069,"current_range_meters":5600,"station_id":"ce4bh692rcd13ifvqea0","pricing_plan_id":"cebpf4jnsgd1na2vs0mg"},{"bike_id":"305ecb95-676c-4274-bf29-d3c4d44871be","system_id":"levelo_inurba_marseille","lat":43.27809,"lon":5.40707,"is_reserved":false,"is_disabled":false,"rental_uris":{"android":"levelo://app?vid=305ecb95-676c-4274-bf29-d3c4d44871be","ios":"levelo://app?vid=305ecb95-676c-4274-bf29-d3c4d44871be"},"vehicle_type_id":"4","last_reported":1768072069,"current_range_meters":5600,"station_id":"ce4bhnh2rcd13ifvqgtg","pricing_plan_id":"cebpf4jnsgd1na2vs0mg"},{"bike_id":"3a2dcbfc-0633-4987-adb1-86abc80d0f2c","system_id":"levelo_inurba_marseille","lat":43.29793,"lon":5.37102,"is_reserved":false,"is_disabled":false,"rental_uris":{"android":"levelo://app?vid=3a2dcbfc-0633-4987-adb1-86abc80d0f2c","ios":"levelo://app?vid=3a2dcbfc-0633-4987-adb1-86abc80d0f2c"},"vehicle_type_id":"4","last_reported":1768072069,"current_range_meters":5600,"station_id":"ce4bgop2rcd13ifvqc1g","pricing_plan_id":"cebpf4jnsgd1na2vs0mg"},{"bike_id":"040b9c6c-9df2-4007-9dda-b857783456c7","system_id":"levelo_inurba_marseille","lat":43.25501,"lon":5.37648,"is_reserved":false,"is_disabled":false,"rental_uris":{"android":"levelo://app?vid=040b9c6c-9df2-4007-9dda-b857783456c7","ios":"levelo://app?vid=040b9c6c-9df2-4007-9dda-b857783456c7"},"vehicle_type_id":"4","last_reported":1768072069,"current_range_meters":5600,"station_id":"ce4bhh12rcd13ifvqff0","pricing_plan_id":"cebpf4jnsgd1na2vs0mg"},{"bike_id":"e94bf1df-85ac-4a34-aa29-c2a137468383","system_id":"levelo_inurba_marseille","lat":43.29487,"lon":5.43311,"is_reserved":false,"is_disabled":false,"rental_uris":{"android":"levelo://app?vid=e94bf1df-85ac-4a34-aa29-c2a137468383","ios":"levelo://app?vid=e94bf1df-85ac-4a34-aa29-c2a137468383"},"vehicle_type_id":"4","last_reported":1768072069,"current_range_meters":5600,"station_id":"st_d3j5ugp08ojc73fj9d10","pricing_plan_id":"cebpf4jnsgd1na2vs0mg"},{"bike_id":"de8d2be0-8b71-43be-bad1-1f61c385abc8","system_id":"levelo_inurba_marseille","lat":43.297595,"lon":5.427745,"is_reserved":false,"is_disabled":false,"rental_uris":{"android":"levelo://app?vid=de8d2be0-8b71-43be-bad1-1f61c385abc8","ios":"levelo://app?vid=de8d2be0-8b71-43be-bad1-1f61c385abc8"},"vehicle_type_id":"4","last_reported":1768072069,"current_range_meters":6000,"station_id":"st_d3md5207bmas73dh9klg","pricing_plan_id":"cebpf4jnsgd1na2vs0mg"},{"bike_id":"6d489b60-c08b-4a05-a64d-ac6e847ab737","system_id":"levelo_inurba_marseille","lat":43.26216,"lon":5.37445,"is_reserved":false,"is_disabled":false,"rental_uris":{"android":"levelo://app?vid=6d489b60-c08b-4a05-a64d-ac6e847ab737","ios":"levelo://app?vid=6d489b60-c08b-4a05-a64d-ac6e847ab737"},"vehicle_type_id":"4","last_reported":1768072069,"current_range_meters":6000,"station_id":"ce4bhgp2rcd13ifvqfc0","pricing_plan_id":"cebpf4jnsgd1na2vs0mg"},{"bike_id":"9a3bcfa8-754c-46dc-9e23-cede3ccc5a9b","system_id":"levelo_inurba_marseille","lat":43.25575,"lon":5.38223,"is_reserved":false,"is_disabled":false,"rental_uris":{"android":"levelo://app?vid=9a3bcfa8-754c-46dc-9e23-cede3ccc5a9b","ios":"levelo://app?vid=9a3bcfa8-754c-46dc-9e23-cede3ccc5a9b"},"vehicle_type_id":"4","last_reported":1768072069,"current_range_meters":6000,"station_id":"ce4bhih2rcd13ifvqfs0","pricing_plan_id":"cebpf4jnsgd1na2vs0mg"},{"bike_id":"8d8b8cae-9059-4748-93cb-f8d1a9686abb","system_id":"levelo_inurba_marseille","lat":43.29193,"lon":5.35781,"is_reserved":false,"is_disabled":false,"rental_uris":{"android":"levelo://app?vid=8d8b8cae-9059-4748-93cb-f8d1a9686abb","ios":"levelo://app?vid=8d8b8cae-9059-4748-93cb-f8d1a9686abb"},"vehicle_type_id":"4","last_reported":1768072069,"current_range_meters":6000,"station_id":"ce4bhb12rcd13ifvqel0","pricing_plan_id":"cebpf4jnsgd1na2vs0mg"},{"bike_id":"71b36ab2-ce5d-4ce0-89a0-260e828bf57f","system_id":"levelo_inurba_marseille","lat":43.27173,"lon":5.41005,"is_reserved":false,"is_disabled":false,"rental_uris":{"android":"levelo://app?vid=71b36ab2-ce5d-4ce0-89a0-260e828bf57f","ios":"levelo://app?vid=71b36ab2-ce5d-4ce0-89a0-260e828bf57f"},"vehicle_type_id":"4","last_reported":1768072069,"current_range_meters":6000,"station_id":"ce4bhl12rcd13ifvqgf0","pricing_plan_id":"cebpf4jnsgd1na2vs0mg"},{"bike_id":"95382051-2edc-4c1a-ac56-d197c3294bdd","system_id":"levelo_inurba_marseille","lat":43.27988,"lon":5.41654,"is_reserved":false,"is_disabled":false,"rental_uris":{"android":"levelo://app?vid=95382051-2edc-4c1a-ac56-d197c3294bdd","ios":"levelo://app?vid=95382051-2edc-4c1a-ac56-d197c3294bdd"},"vehicle_type_id":"4","last_reported":1768072069,"current_range_meters":6000,"station_id":"ce4bho12rcd13ifvqh1g","pricing_plan_id":"cebpf4jnsgd1na2vs0mg"},{"bike_id":"683252c4-b50e-4aa8-9169-1a596f7fe423","system_id":"levelo_inurba_marseille","lat":43.28611,"lon":5.35104,"is_reserved":false,"is_disabled":false,"rental_uris":{"android":"levelo://app?vid=683252c4-b50e-4aa8-9169-1a596f7fe423","ios":"levelo://app?vid=683252c4-b50e-4aa8-9169-1a596f7fe423"},"vehicle_type_id":"4","last_reported":1768072069,"current_range_meters":6000,"station_id":"ce4bhch2rcd13ifvqeug","pricing_plan_id":"cebpf4jnsgd1na2vs0mg"},{"bike_id":"7a9ad836-4d79-4ba9-98d7-2ef50a4c96b5","system_id":"levelo_inurba_marseille","lat":43.29024,"lon":5.35909,"is_reserved":false,"is_disabled":false,"rental_uris":{"android":"levelo://app?vid=7a9ad836-4d79-4ba9-98d7-2ef50a4c96b5","ios":"levelo://app?vid=7a9ad836-4d79-4ba9-98d7-2ef50a4c96b5"},"vehicle_type_id":"4","last_reported":1768072069,"current_range_meters":6000,"station_id":"ce4bha92rcd13ifvqeg0","pricing_plan_id":"cebpf4jnsgd1na2vs0mg"},{"bike_id":"c2aa5331-b215-46e7-96cf-1458339c0b36","system_id":"levelo_inurba_marseille","lat":43.31219,"lon":5.36857,"is_reserved":false,"is_disabled":false,"rental_uris":{"android":"levelo://app?vid=c2aa5331-b215-46e7-96cf-1458339c0b36","ios":"levelo://app?vid=c2aa5331-b215-46e7-96cf-1458339c0b36"},"vehicle_type_id":"4","last_reported":1768072069,"current_range_meters":6000,"station_id":"ce4bgl92rcd13ifvqbq0","pricing_plan_id":"cebpf4jnsgd1na2vs0mg"},{"bike_id":"37335263-0ba0-41e1-bf1f-92d8ddde73f2","system_id":"levelo_inurba_marseille","lat":43.25584,"lon":5.38218,"is_reserved":false,"is_disabled":false,"rental_uris":{"android":"levelo://app?vid=37335263-0ba0-41e1-bf1f-92d8ddde73f2","ios":"levelo://app?vid=37335263-0ba0-41e1-bf1f-92d8ddde73f2"},"vehicle_type_id":"4","last_reported":1768072069,"current_range_meters":6000,"station_id":"ce4bhih2rcd13ifvqfs0","pricing_plan_id":"cebpf4jnsgd1na2vs0mg"},{"bike_id":"bc49e5f9-cb3c-4c3a-969f-53e2b27dc0e8","system_id":"levelo_inurba_marseille","lat":43.24174,"lon":5.36386,"is_reserved":false,"is_disabled":false,"rental_uris":{"android":"levelo://app?vid=bc49e5f9-cb3c-4c3a-969f-53e2b27dc0e8","ios":"levelo://app?vid=bc49e5f9-cb3c-4c3a-969f-53e2b27dc0e8"},"vehicle_type_id":"4","last_reported":1768072069,"current_range_meters":6000,"station_id":"cpo36qri1sfpv3e86is0","pricing_plan_id":"cebpf4jnsgd1na2vs0mg"},{"bike_id":"68e4ac97-aa70-4595-b19d-d1d280fbaa9b","system_id":"levelo_inurba_marseille","lat":43.295221,"lon":5.375047,"is_reserved":false,"is_disabled":false,"rental_uris":{"android":"levelo://app?vid=68e4ac97-aa70-4595-b19d-d1d280fbaa9b","ios":"levelo://app?vid=68e4ac97-aa70-4595-b19d-d1d280fbaa9b"},"vehicle_type_id":"4","last_reported":1768072069,"current_range_meters":6000,"station_id":"ce4bgkp2rcd13ifvqbmg","pricing_plan_id":"cebpf4jnsgd1na2vs0mg"},{"bike_id":"95308872-efcc-4759-9fe8-8d9da923fe01","system_id":"levelo_inurba_marseille","lat":43.29012,"lon":5.35602,"is_reserved":false,"is_disabled":false,"rental_uris":{"android":"levelo://app?vid=95308872-efcc-4759-9fe8-8d9da923fe01","ios":"levelo://app?vid=95308872-efcc-4759-9fe8-8d9da923fe01"},"vehicle_type_id":"4","last_reported":1768072069,"current_range_meters":6000,"station_id":"ce4bhb92rcd13ifvqen0","pricing_plan_id":"cebpf4jnsgd1na2vs0mg"},{"bike_id":"3a944ff1-8f80-4b3a-87d1-40b3f03c9b0c","system_id":"levelo_inurba_marseille","lat":43.31084,"lon":5.38628,"is_reserved":false,"is_disabled":false,"rental_uris":{"android":"levelo://app?vid=3a944ff1-8f80-4b3a-87d1-40b3f03c9b0c","ios":"levelo://app?vid=3a944ff1-8f80-4b3a-87d1-40b3f03c9b0c"},"vehicle_type_id":"4","last_reported":1768072069,"current_range_meters":6000,"station_id":"","pricing_plan_id":"cebpf4jnsgd1na2vs0mg"},{"bike_id":"c1746473-f69a-4b24-a447-b4b9ba7c4fbe","system_id":"levelo_inurba_marseille","lat":43.29727,"lon":5.37682,"is_reserved":false,"is_disabled":true,"rental_uris":{"android":"levelo://app?vid=c1746473-f69a-4b24-a447-b4b9ba7c4fbe","ios":"levelo://app?vid=c1746473-f69a-4b24-a447-b4b9ba7c4fbe"},"vehicle_type_id":"4","last_reported":1768072069,"current_range_meters":6000,"station_id":"ce4bgkh2rcd13ifvqbl0","pricing_plan_id":"cebpf4jnsgd1na2vs0mg"},{"bike_id":"07e92a42-5aca-4650-8312-443d35b7174b","system_id":"levelo_inurba_marseille","lat":43.28618,"lon":5.35102,"is_reserved":false,"is_disabled":false,"rental_uris":{"android":"levelo://app?vid=07e92a42-5aca-4650-8312-443d35b7174b","ios":"levelo://app?vid=07e92a42-5aca-4650-8312-443d35b7174b"},"vehicle_type_id":"4","last_reported":1768072069,"current_range_meters":6000,"station_id":"ce4bhch2rcd13ifvqeug","pricing_plan_id":"cebpf4jnsgd1na2vs0mg"},{"bike_id":"84e81d0a-237d-43d0-a5f8-bbf0e9103e34","system_id":"levelo_inurba_marseille","lat":43.31281,"lon":5.40159,"is_reserved":false,"is_disabled":false,"rental_uris":{"android":"levelo://app?vid=84e81d0a-237d-43d0-a5f8-bbf0e9103e34","ios":"levelo://app?vid=84e81d0a-237d-43d0-a5f8-bbf0e9103e34"},"vehicle_type_id":"4","last_reported":1768072069,"current_range_meters":6000,"station_id":"ce4bh092rcd13ifvqd30","pricing_plan_id":"cebpf4jnsgd1na2vs0mg"},{"bike_id":"c7ae765b-3237-432c-8dab-b11a28a12a8c","system_id":"levelo_inurba_marseille","lat":43.290037,"lon":5.35611,"is_reserved":false,"is_disabled":false,"rental_uris":{"android":"levelo://app?vid=c7ae765b-3237-432c-8dab-b11a28a12a8c","ios":"levelo://app?vid=c7ae765b-3237-432c-8dab-b11a28a12a8c"},"vehicle_type_id":"4","last_reported":1768072069,"current_range_meters":6000,"station_id":"ce4bhb92rcd13ifvqen0","pricing_plan_id":"cebpf4jnsgd1na2vs0mg"},{"bike_id":"e638738c-58ca-4e1f-a717-d6bee9a6f07f","system_id":"levelo_inurba_marseille","lat":43.30297,"lon":5.39201,"is_reserved":false,"is_disabled":false,"rental_uris":{"android":"levelo://app?vid=e638738c-58ca-4e1f-a717-d6bee9a6f07f","ios":"levelo://app?vid=e638738c-58ca-4e1f-a717-d6bee9a6f07f"},"vehicle_type_id":"4","last_reported":1768072069,"current_range_meters":6000,"station_id":"ce4bgkh2rcd13ifvqbk0","pricing_plan_id":"cebpf4jnsgd1na2vs0mg"},{"bike_id":"6d66916e-5f60-4895-8851-807d915bed50","system_id":"levelo_inurba_marseille","lat":43.29447,"lon":5.38476,"is_reserved":false,"is_disabled":false,"rental_uris":{"android":"levelo://app?vid=6d66916e-5f60-4895-8851-807d915bed50","ios":"levelo://app?vid=6d66916e-5f60-4895-8851-807d915bed50"},"vehicle_type_id":"4","last_reported":1768072069,"current_range_meters":6000,"station_id":"ce4bgih2rcd13ifvqba0","pricing_plan_id":"cebpf4jnsgd1na2vs0mg"},{"bike_id":"12b753d3-16f1-480b-9935-33bf56257aa4","system_id":"levelo_inurba_marseille","lat":43.27336,"lon":5.39074,"is_reserved":false,"is_disabled":false,"rental_uris":{"android":"levelo://app?vid=12b753d3-16f1-480b-9935-33bf56257aa4","ios":"levelo://app?vid=12b753d3-16f1-480b-9935-33bf56257aa4"},"vehicle_type_id":"4","last_reported":1768072069,"current_range_meters":6000,"station_id":"ce4bhgp2rcd13ifvqfe0","pricing_plan_id":"cebpf4jnsgd1na2vs0mg"},{"bike_id":"f74ae5a5-c816-4b46-b9f8-f7b7ebdeed57","system_id":"levelo_inurba_marseille","lat":43.298051,"lon":5.370943,"is_reserved":false,"is_disabled":false,"rental_uris":{"android":"levelo://app?vid=f74ae5a5-c816-4b46-b9f8-f7b7ebdeed57","ios":"levelo://app?vid=f74ae5a5-c816-4b46-b9f8-f7b7ebdeed57"},"vehicle_type_id":"4","last_reported":1768072069,"current_range_meters":6400,"station_id":"ce4bgop2rcd13ifvqc1g","pricing_plan_id":"cebpf4jnsgd1na2vs0mg"},{"bike_id":"7e72a930-d1d5-437d-9a7d-0685de38c257","system_id":"levelo_inurba_marseille","lat":43.31329,"lon":5.39697,"is_reserved":false,"is_disabled":false,"rental_uris":{"android":"levelo://app?vid=7e72a930-d1d5-437d-9a7d-0685de38c257","ios":"levelo://app?vid=7e72a930-d1d5-437d-9a7d-0685de38c257"},"vehicle_type_id":"4","last_reported":1768072069,"current_range_meters":6400,"station_id":"ce4bgvp2rcd13ifvqcu0","pricing_plan_id":"cebpf4jnsgd1na2vs0mg"},{"bike_id":"48b0096b-4b93-4282-970e-7e8c3824dede","system_id":"levelo_inurba_marseille","lat":43.22568,"lon":5.41625,"is_reserved":false,"is_disabled":false,"rental_uris":{"android":"levelo://app?vid=48b0096b-4b93-4282-970e-7e8c3824dede","ios":"levelo://app?vid=48b0096b-4b93-4282-970e-7e8c3824dede"},"vehicle_type_id":"4","last_reported":1768072069,"current_range_meters":6400,"station_id":"st_d2o4gvlbi1j2169b742g","pricing_plan_id":"cebpf4jnsgd1na2vs0mg"},{"bike_id":"ec28a168-dfc7-4c87-acb4-8f7b58e7fa89","system_id":"levelo_inurba_marseille","lat":43.243982,"lon":5.370807,"is_reserved":false,"is_disabled":false,"rental_uris":{"android":"levelo://app?vid=ec28a168-dfc7-4c87-acb4-8f7b58e7fa89","ios":"levelo://app?vid=ec28a168-dfc7-4c87-acb4-8f7b58e7fa89"},"vehicle_type_id":"4","last_reported":1768072069,"current_range_meters":6400,"station_id":"ce4bhhh2rcd13ifvqfk0","pricing_plan_id":"cebpf4jnsgd1na2vs0mg"},{"bike_id":"78f273ad-50c8-4563-88ec-37da2350266a","system_id":"levelo_inurba_marseille","lat":43.260295,"lon":5.375568,"is_reserved":false,"is_disabled":false,"rental_uris":{"android":"levelo://app?vid=78f273ad-50c8-4563-88ec-37da2350266a","ios":"levelo://app?vid=78f273ad-50c8-4563-88ec-37da2350266a"},"vehicle_type_id":"4","last_reported":1768072069,"current_range_meters":6400,"station_id":"ce4bhgh2rcd13ifvqfa0","pricing_plan_id":"cebpf4jnsgd1na2vs0mg"},{"bike_id":"9ef5c7cf-da71-4612-9646-f64e3744543c","system_id":"levelo_inurba_marseille","lat":43.22928,"lon":5.35374,"is_reserved":false,"is_disabled":false,"rental_uris":{"android":"levelo://app?vid=9ef5c7cf-da71-4612-9646-f64e3744543c","ios":"levelo://app?vid=9ef5c7cf-da71-4612-9646-f64e3744543c"},"vehicle_type_id":"4","last_reported":1768072069,"current_range_meters":6400,"station_id":"cpo3532slgdg3j2ikp40","pricing_plan_id":"cebpf4jnsgd1na2vs0mg"},{"bike_id":"df548035-cee1-4f4d-b0ba-fa4f5834db8f","system_id":"levelo_inurba_marseille","lat":43.24812,"lon":5.37449,"is_reserved":false,"is_disabled":false,"rental_uris":{"android":"levelo://app?vid=df548035-cee1-4f4d-b0ba-fa4f5834db8f","ios":"levelo://app?vid=df548035-cee1-4f4d-b0ba-fa4f5834db8f"},"vehicle_type_id":"4","last_reported":1768072069,"current_range_meters":6400,"station_id":"ce4bhgh2rcd13ifvqfb0","pricing_plan_id":"cebpf4jnsgd1na2vs0mg"},{"bike_id":"8925de67-46a6-4c30-94d8-302161298623","system_id":"levelo_inurba_marseille","lat":43.3108,"lon":5.36938,"is_reserved":false,"is_disabled":false,"rental_uris":{"android":"levelo://app?vid=8925de67-46a6-4c30-94d8-302161298623","ios":"levelo://app?vid=8925de67-46a6-4c30-94d8-302161298623"},"vehicle_type_id":"4","last_reported":1768072069,"current_range_meters":6400,"station_id":"","pricing_plan_id":"cebpf4jnsgd1na2vs0mg"},{"bike_id":"15705fcb-fc6a-4f08-9895-a6a73b2606cb","system_id":"levelo_inurba_marseille","lat":43.26074,"lon":5.39428,"is_reserved":false,"is_disabled":false,"rental_uris":{"android":"levelo://app?vid=15705fcb-fc6a-4f08-9895-a6a73b2606cb","ios":"levelo://app?vid=15705fcb-fc6a-4f08-9895-a6a73b2606cb"},"vehicle_type_id":"4","last_reported":1768072069,"current_range_meters":6400,"station_id":"ce4bhh92rcd13ifvqfj0","pricing_plan_id":"cebpf4jnsgd1na2vs0mg"},{"bike_id":"955472a9-f133-46c4-b5ee-028bf709d91e","system_id":"levelo_inurba_marseille","lat":43.28501,"lon":5.48379,"is_reserved":false,"is_disabled":false,"rental_uris":{"android":"levelo://app?vid=955472a9-f133-46c4-b5ee-028bf709d91e","ios":"levelo://app?vid=955472a9-f133-46c4-b5ee-028bf709d91e"},"vehicle_type_id":"4","last_reported":1768072069,"current_range_meters":6400,"station_id":"st_d3svhcjqgbts73a3dn0g","pricing_plan_id":"cebpf4jnsgd1na2vs0mg"},{"bike_id":"0d4e5ddc-b292-4c0e-8986-9cde00922dd9","system_id":"levelo_inurba_marseille","lat":43.30182,"lon":5.43206,"is_reserved":false,"is_disabled":false,"rental_uris":{"android":"levelo://app?vid=0d4e5ddc-b292-4c0e-8986-9cde00922dd9","ios":"levelo://app?vid=0d4e5ddc-b292-4c0e-8986-9cde00922dd9"},"vehicle_type_id":"4","last_reported":1768072069,"current_range_meters":6400,"station_id":"","pricing_plan_id":"cebpf4jnsgd1na2vs0mg"},{"bike_id":"9522ced3-0687-4ab6-be9c-1e0b905ed7b8","system_id":"levelo_inurba_marseille","lat":43.25356,"lon":5.42161,"is_reserved":false,"is_disabled":false,"rental_uris":{"android":"levelo://app?vid=9522ced3-0687-4ab6-be9c-1e0b905ed7b8","ios":"levelo://app?vid=9522ced3-0687-4ab6-be9c-1e0b905ed7b8"},"vehicle_type_id":"4","last_reported":1768072069,"current_range_meters":6400,"station_id":"st_d2m65c5bi1j21697t3ng","pricing_plan_id":"cebpf4jnsgd1na2vs0mg"},{"bike_id":"f807eb45-2249-4a58-ad9a-c278e707985e","system_id":"levelo_inurba_marseille","lat":43.28948,"lon":5.38556,"is_reserved":false,"is_disabled":false,"rental_uris":{"android":"levelo://app?vid=f807eb45-2249-4a58-ad9a-c278e707985e","ios":"levelo://app?vid=f807eb45-2249-4a58-ad9a-c278e707985e"},"vehicle_type_id":"4","last_reported":1768072069,"current_range_meters":6400,"station_id":"","pricing_plan_id":"cebpf4jnsgd1na2vs0mg"},{"bike_id":"126b66dd-efe2-4a33-b1c6-ca45951e385f","system_id":"levelo_inurba_marseille","lat":43.2721,"lon":5.39181,"is_reserved":false,"is_disabled":false,"rental_uris":{"android":"levelo://app?vid=126b66dd-efe2-4a33-b1c6-ca45951e385f","ios":"levelo://app?vid=126b66dd-efe2-4a33-b1c6-ca45951e385f"},"vehicle_type_id":"4","last_reported":1768072069,"current_range_meters":6400,"station_id":"ce4bhhp2rcd13ifvqfm0","pricing_plan_id":"cebpf4jnsgd1na2vs0mg"},{"bike_id":"a5d81b74-9da8-4266-adbe-00eec24e3cba","system_id":"levelo_inurba_marseille","lat":43.28838,"lon":5.35853,"is_reserved":false,"is_disabled":false,"rental_uris":{"android":"levelo://app?vid=a5d81b74-9da8-4266-adbe-00eec24e3cba","ios":"levelo://app?vid=a5d81b74-9da8-4266-adbe-00eec24e3cba"},"vehicle_type_id":"4","last_reported":1768072069,"current_range_meters":6400,"station_id":"ce4bhb12rcd13ifvqem0","pricing_plan_id":"cebpf4jnsgd1na2vs0mg"},{"bike_id":"99cbf376-51e2-4e16-9a3f-aeb4c11bff42","system_id":"levelo_inurba_marseille","lat":43.29539,"lon":5.37502,"is_reserved":false,"is_disabled":false,"rental_uris":{"android":"levelo://app?vid=99cbf376-51e2-4e16-9a3f-aeb4c11bff42","ios":"levelo://app?vid=99cbf376-51e2-4e16-9a3f-aeb4c11bff42"},"vehicle_type_id":"4","last_reported":1768072069,"current_range_meters":6400,"station_id":"ce4bgkp2rcd13ifvqbmg","pricing_plan_id":"cebpf4jnsgd1na2vs0mg"},{"bike_id":"068e5d0f-1e1d-47d3-8ea0-01a72ce64988","system_id":"levelo_inurba_marseille","lat":43.31278,"lon":5.40144,"is_reserved":false,"is_disabled":false,"rental_uris":{"android":"levelo://app?vid=068e5d0f-1e1d-47d3-8ea0-01a72ce64988","ios":"levelo://app?vid=068e5d0f-1e1d-47d3-8ea0-01a72ce64988"},"vehicle_type_id":"4","last_reported":1768072069,"current_range_meters":6800,"station_id":"ce4bh092rcd13ifvqd30","pricing_plan_id":"cebpf4jnsgd1na2vs0mg"},{"bike_id":"ff91d566-89da-4f23-a85f-8fe443e9709a","system_id":"levelo_inurba_marseille","lat":43.21752,"lon":5.34603,"is_reserved":false,"is_disabled":false,"rental_uris":{"android":"levelo://app?vid=ff91d566-89da-4f23-a85f-8fe443e9709a","ios":"levelo://app?vid=ff91d566-89da-4f23-a85f-8fe443e9709a"},"vehicle_type_id":"4","last_reported":1768072069,"current_range_meters":6800,"station_id":"st_cvj6r9ubvosntc0bgbag","pricing_plan_id":"cebpf4jnsgd1na2vs0mg"},{"bike_id":"ec2c36ed-79e6-401c-b68a-6c26524403de","system_id":"levelo_inurba_marseille","lat":43.29491,"lon":5.433,"is_reserved":false,"is_disabled":false,"rental_uris":{"android":"levelo://app?vid=ec2c36ed-79e6-401c-b68a-6c26524403de","ios":"levelo://app?vid=ec2c36ed-79e6-401c-b68a-6c26524403de"},"vehicle_type_id":"4","last_reported":1768072069,"current_range_meters":6800,"station_id":"st_d3j5ugp08ojc73fj9d10","pricing_plan_id":"cebpf4jnsgd1na2vs0mg"},{"bike_id":"604f78fd-36d7-4821-843f-e68feb228a98","system_id":"levelo_inurba_marseille","lat":43.241607,"lon":5.364217,"is_reserved":false,"is_disabled":false,"rental_uris":{"android":"levelo://app?vid=604f78fd-36d7-4821-843f-e68feb228a98","ios":"levelo://app?vid=604f78fd-36d7-4821-843f-e68feb228a98"},"vehicle_type_id":"4","last_reported":1768072069,"current_range_meters":6800,"station_id":"cpo36qri1sfpv3e86is0","pricing_plan_id":"cebpf4jnsgd1na2vs0mg"},{"bike_id":"2cfe55eb-b9f3-4214-b3e1-9949a796056f","system_id":"levelo_inurba_marseille","lat":43.25343,"lon":5.42179,"is_reserved":false,"is_disabled":false,"rental_uris":{"android":"levelo://app?vid=2cfe55eb-b9f3-4214-b3e1-9949a796056f","ios":"levelo://app?vid=2cfe55eb-b9f3-4214-b3e1-9949a796056f"},"vehicle_type_id":"4","last_reported":1768072069,"current_range_meters":6800,"station_id":"st_d2m65c5bi1j21697t3ng","pricing_plan_id":"cebpf4jnsgd1na2vs0mg"},{"bike_id":"fb38100b-0cde-48a6-8ce0-94d7fcae470a","system_id":"levelo_inurba_marseille","lat":43.30653,"lon":5.4008,"is_reserved":false,"is_disabled":false,"rental_uris":{"android":"levelo://app?vid=fb38100b-0cde-48a6-8ce0-94d7fcae470a","ios":"levelo://app?vid=fb38100b-0cde-48a6-8ce0-94d7fcae470a"},"vehicle_type_id":"4","last_reported":1768072069,"current_range_meters":6800,"station_id":"ce4bh112rcd13ifvqda0","pricing_plan_id":"cebpf4jnsgd1na2vs0mg"},{"bike_id":"ad41c0f7-771d-4855-a9c8-7ed87d5e9445","system_id":"levelo_inurba_marseille","lat":43.29741,"lon":5.38527,"is_reserved":false,"is_disabled":false,"rental_uris":{"android":"levelo://app?vid=ad41c0f7-771d-4855-a9c8-7ed87d5e9445","ios":"levelo://app?vid=ad41c0f7-771d-4855-a9c8-7ed87d5e9445"},"vehicle_type_id":"4","last_reported":1768072069,"current_range_meters":6800,"station_id":"","pricing_plan_id":"cebpf4jnsgd1na2vs0mg"},{"bike_id":"9f5afa43-f8cb-4afd-af07-f39d184a9f0d","system_id":"levelo_inurba_marseille","lat":43.28229,"lon":5.39064,"is_reserved":false,"is_disabled":false,"rental_uris":{"android":"levelo://app?vid=9f5afa43-f8cb-4afd-af07-f39d184a9f0d","ios":"levelo://app?vid=9f5afa43-f8cb-4afd-af07-f39d184a9f0d"},"vehicle_type_id":"4","last_reported":1768072069,"current_range_meters":6800,"station_id":"ce4bhn92rcd13ifvqgsg","pricing_plan_id":"cebpf4jnsgd1na2vs0mg"},{"bike_id":"aa4eff39-021d-4e2a-b304-d62cc4a3bf8a","system_id":"levelo_inurba_marseille","lat":43.26784,"lon":5.39417,"is_reserved":false,"is_disabled":false,"rental_uris":{"android":"levelo://app?vid=aa4eff39-021d-4e2a-b304-d62cc4a3bf8a","ios":"levelo://app?vid=aa4eff39-021d-4e2a-b304-d62cc4a3bf8a"},"vehicle_type_id":"4","last_reported":1768072069,"current_range_meters":6800,"station_id":"ce4bhh12rcd13ifvqfg0","pricing_plan_id":"cebpf4jnsgd1na2vs0mg"},{"bike_id":"9ba3abdd-ccf0-4033-8df7-7454ef98b00e","system_id":"levelo_inurba_marseille","lat":43.23795,"lon":5.36634,"is_reserved":false,"is_disabled":false,"rental_uris":{"android":"levelo://app?vid=9ba3abdd-ccf0-4033-8df7-7454ef98b00e","ios":"levelo://app?vid=9ba3abdd-ccf0-4033-8df7-7454ef98b00e"},"vehicle_type_id":"4","last_reported":1768072069,"current_range_meters":6800,"station_id":"st_d3nk18o9ro0c73en2l3g","pricing_plan_id":"cebpf4jnsgd1na2vs0mg"},{"bike_id":"06e44f9a-2a3d-4e4e-b14f-9ddbd130fe11","system_id":"levelo_inurba_marseille","lat":43.295749,"lon":5.375242,"is_reserved":false,"is_disabled":false,"rental_uris":{"android":"levelo://app?vid=06e44f9a-2a3d-4e4e-b14f-9ddbd130fe11","ios":"levelo://app?vid=06e44f9a-2a3d-4e4e-b14f-9ddbd130fe11"},"vehicle_type_id":"4","last_reported":1768072069,"current_range_meters":6800,"station_id":"ce4bgh92rcd13ifvqb50","pricing_plan_id":"cebpf4jnsgd1na2vs0mg"},{"bike_id":"78533221-0292-46cc-9ec2-a5294797e756","system_id":"levelo_inurba_marseille","lat":43.31704,"lon":5.38216,"is_reserved":false,"is_disabled":false,"rental_uris":{"android":"levelo://app?vid=78533221-0292-46cc-9ec2-a5294797e756","ios":"levelo://app?vid=78533221-0292-46cc-9ec2-a5294797e756"},"vehicle_type_id":"4","last_reported":1768072069,"current_range_meters":6800,"station_id":"","pricing_plan_id":"cebpf4jnsgd1na2vs0mg"},{"bike_id":"bc59256e-c7a1-4170-b244-63a563d9a590","system_id":"levelo_inurba_marseille","lat":43.24077,"lon":5.37752,"is_reserved":false,"is_disabled":false,"rental_uris":{"android":"levelo://app?vid=bc59256e-c7a1-4170-b244-63a563d9a590","ios":"levelo://app?vid=bc59256e-c7a1-4170-b244-63a563d9a590"},"vehicle_type_id":"4","last_reported":1768072069,"current_range_meters":6800,"station_id":"ce4bhnp2rcd13ifvqgvg","pricing_plan_id":"cebpf4jnsgd1na2vs0mg"},{"bike_id":"dbb60bc6-4fb6-45fc-959a-667b177859f9","system_id":"levelo_inurba_marseille","lat":43.2417,"lon":5.36383,"is_reserved":false,"is_disabled":false,"rental_uris":{"android":"levelo://app?vid=dbb60bc6-4fb6-45fc-959a-667b177859f9","ios":"levelo://app?vid=dbb60bc6-4fb6-45fc-959a-667b177859f9"},"vehicle_type_id":"4","last_reported":1768072069,"current_range_meters":6800,"station_id":"cpo36qri1sfpv3e86is0","pricing_plan_id":"cebpf4jnsgd1na2vs0mg"},{"bike_id":"81447faa-78d0-4898-9850-8a36431f7eba","system_id":"levelo_inurba_marseille","lat":43.237941,"lon":5.366254,"is_reserved":false,"is_disabled":false,"rental_uris":{"android":"levelo://app?vid=81447faa-78d0-4898-9850-8a36431f7eba","ios":"levelo://app?vid=81447faa-78d0-4898-9850-8a36431f7eba"},"vehicle_type_id":"4","last_reported":1768072069,"current_range_meters":6800,"station_id":"st_d3nk18o9ro0c73en2l3g","pricing_plan_id":"cebpf4jnsgd1na2vs0mg"},{"bike_id":"a1311eaa-4187-4150-8952-86e9204d9df1","system_id":"levelo_inurba_marseille","lat":43.28864,"lon":5.35847,"is_reserved":false,"is_disabled":false,"rental_uris":{"android":"levelo://app?vid=a1311eaa-4187-4150-8952-86e9204d9df1","ios":"levelo://app?vid=a1311eaa-4187-4150-8952-86e9204d9df1"},"vehicle_type_id":"4","last_reported":1768072069,"current_range_meters":6800,"station_id":"ce4bhb12rcd13ifvqem0","pricing_plan_id":"cebpf4jnsgd1na2vs0mg"},{"bike_id":"0df0619f-a2c8-421b-aaf4-672feef0bbcd","system_id":"levelo_inurba_marseille","lat":43.29565,"lon":5.37503,"is_reserved":false,"is_disabled":false,"rental_uris":{"android":"levelo://app?vid=0df0619f-a2c8-421b-aaf4-672feef0bbcd","ios":"levelo://app?vid=0df0619f-a2c8-421b-aaf4-672feef0bbcd"},"vehicle_type_id":"4","last_reported":1768072069,"current_range_meters":6800,"station_id":"ce4bgh92rcd13ifvqb50","pricing_plan_id":"cebpf4jnsgd1na2vs0mg"},{"bike_id":"ff3d50e0-84d7-4480-8463-680e83cf9f97","system_id":"levelo_inurba_marseille","lat":43.24947,"lon":5.40495,"is_reserved":false,"is_disabled":false,"rental_uris":{"android":"levelo://app?vid=ff3d50e0-84d7-4480-8463-680e83cf9f97","ios":"levelo://app?vid=ff3d50e0-84d7-4480-8463-680e83cf9f97"},"vehicle_type_id":"4","last_reported":1768072069,"current_range_meters":6800,"station_id":"st_d2ngiaodas8pm72gd1h0","pricing_plan_id":"cebpf4jnsgd1na2vs0mg"},{"bike_id":"779fd086-cda1-46fd-95ef-c920048c09f2","system_id":"levelo_inurba_marseille","lat":43.245419,"lon":5.395232,"is_reserved":false,"is_disabled":false,"rental_uris":{"android":"levelo://app?vid=779fd086-cda1-46fd-95ef-c920048c09f2","ios":"levelo://app?vid=779fd086-cda1-46fd-95ef-c920048c09f2"},"vehicle_type_id":"4","last_reported":1768072069,"current_range_meters":6800,"station_id":"ce4bhlp2rcd13ifvqgjg","pricing_plan_id":"cebpf4jnsgd1na2vs0mg"},{"bike_id":"a1dcd8bf-b300-4092-8c84-5204375249a5","system_id":"levelo_inurba_marseille","lat":43.24808,"lon":5.37458,"is_reserved":false,"is_disabled":false,"rental_uris":{"android":"levelo://app?vid=a1dcd8bf-b300-4092-8c84-5204375249a5","ios":"levelo://app?vid=a1dcd8bf-b300-4092-8c84-5204375249a5"},"vehicle_type_id":"4","last_reported":1768072069,"current_range_meters":7200,"station_id":"ce4bhgh2rcd13ifvqfb0","pricing_plan_id":"cebpf4jnsgd1na2vs0mg"},{"bike_id":"f8075f9d-b8a7-4230-8aa6-7f7f95cc5413","system_id":"levelo_inurba_marseille","lat":43.28218,"lon":5.39055,"is_reserved":false,"is_disabled":true,"rental_uris":{"android":"levelo://app?vid=f8075f9d-b8a7-4230-8aa6-7f7f95cc5413","ios":"levelo://app?vid=f8075f9d-b8a7-4230-8aa6-7f7f95cc5413"},"vehicle_type_id":"4","last_reported":1768072069,"current_range_meters":7200,"station_id":"ce4bhn92rcd13ifvqgsg","pricing_plan_id":"cebpf4jnsgd1na2vs0mg"},{"bike_id":"b1de97eb-9987-4268-a3de-fad899a3da21","system_id":"levelo_inurba_marseille","lat":43.25726,"lon":5.41114,"is_reserved":false,"is_disabled":false,"rental_uris":{"android":"levelo://app?vid=b1de97eb-9987-4268-a3de-fad899a3da21","ios":"levelo://app?vid=b1de97eb-9987-4268-a3de-fad899a3da21"},"vehicle_type_id":"4","last_reported":1768072069,"current_range_meters":7200,"station_id":"ce4bhkp2rcd13ifvqgd0","pricing_plan_id":"cebpf4jnsgd1na2vs0mg"},{"bike_id":"499b63c7-d47c-4bda-89d6-56b8c0a94a03","system_id":"levelo_inurba_marseille","lat":43.316698,"lon":5.430588,"is_reserved":false,"is_disabled":false,"rental_uris":{"android":"levelo://app?vid=499b63c7-d47c-4bda-89d6-56b8c0a94a03","ios":"levelo://app?vid=499b63c7-d47c-4bda-89d6-56b8c0a94a03"},"vehicle_type_id":"4","last_reported":1768072069,"current_range_meters":7200,"station_id":"","pricing_plan_id":"cebpf4jnsgd1na2vs0mg"},{"bike_id":"55fcea33-e7aa-4a56-8ac1-e90451a3f1d3","system_id":"levelo_inurba_marseille","lat":43.29205,"lon":5.35785,"is_reserved":false,"is_disabled":false,"rental_uris":{"android":"levelo://app?vid=55fcea33-e7aa-4a56-8ac1-e90451a3f1d3","ios":"levelo://app?vid=55fcea33-e7aa-4a56-8ac1-e90451a3f1d3"},"vehicle_type_id":"4","last_reported":1768072069,"current_range_meters":7200,"station_id":"ce4bhb12rcd13ifvqel0","pricing_plan_id":"cebpf4jnsgd1na2vs0mg"},{"bike_id":"611d5909-481c-4108-a2ce-d73d9b8234f6","system_id":"levelo_inurba_marseille","lat":43.26201,"lon":5.37445,"is_reserved":false,"is_disabled":false,"rental_uris":{"android":"levelo://app?vid=611d5909-481c-4108-a2ce-d73d9b8234f6","ios":"levelo://app?vid=611d5909-481c-4108-a2ce-d73d9b8234f6"},"vehicle_type_id":"4","last_reported":1768072069,"current_range_meters":7200,"station_id":"ce4bhgp2rcd13ifvqfc0","pricing_plan_id":"cebpf4jnsgd1na2vs0mg"},{"bike_id":"556e4c84-9680-46ee-96c7-8644be15b777","system_id":"levelo_inurba_marseille","lat":43.30148,"lon":5.38093,"is_reserved":false,"is_disabled":false,"rental_uris":{"android":"levelo://app?vid=556e4c84-9680-46ee-96c7-8644be15b777","ios":"levelo://app?vid=556e4c84-9680-46ee-96c7-8644be15b777"},"vehicle_type_id":"4","last_reported":1768072069,"current_range_meters":7200,"station_id":"ce4bgjp2rcd13ifvqbh0","pricing_plan_id":"cebpf4jnsgd1na2vs0mg"},{"bike_id":"0d9a28f3-f2a9-458c-abfb-9d5e6b00a237","system_id":"levelo_inurba_marseille","lat":43.231502,"lon":5.43718,"is_reserved":false,"is_disabled":false,"rental_uris":{"android":"levelo://app?vid=0d9a28f3-f2a9-458c-abfb-9d5e6b00a237","ios":"levelo://app?vid=0d9a28f3-f2a9-458c-abfb-9d5e6b00a237"},"vehicle_type_id":"4","last_reported":1768072069,"current_range_meters":7200,"station_id":"ce4bhmp2rcd13ifvqgog","pricing_plan_id":"cebpf4jnsgd1na2vs0mg"},{"bike_id":"2f94929b-7e6c-4e24-b276-2f585e92f29a","system_id":"levelo_inurba_marseille","lat":43.297576,"lon":5.427726,"is_reserved":false,"is_disabled":true,"rental_uris":{"android":"levelo://app?vid=2f94929b-7e6c-4e24-b276-2f585e92f29a","ios":"levelo://app?vid=2f94929b-7e6c-4e24-b276-2f585e92f29a"},"vehicle_type_id":"4","last_reported":1768072069,"current_range_meters":7200,"station_id":"st_d3md5207bmas73dh9klg","pricing_plan_id":"cebpf4jnsgd1na2vs0mg"},{"bike_id":"3f36b4e1-f8e9-4e04-a0b0-d07f836fd119","system_id":"levelo_inurba_marseille","lat":43.297135,"lon":5.376914,"is_reserved":false,"is_disabled":false,"rental_uris":{"android":"levelo://app?vid=3f36b4e1-f8e9-4e04-a0b0-d07f836fd119","ios":"levelo://app?vid=3f36b4e1-f8e9-4e04-a0b0-d07f836fd119"},"vehicle_type_id":"4","last_reported":1768072069,"current_range_meters":7200,"station_id":"ce4bgkh2rcd13ifvqbl0","pricing_plan_id":"cebpf4jnsgd1na2vs0mg"},{"bike_id":"d036b849-3104-46e1-8fb1-f8d5be60e569","system_id":"levelo_inurba_marseille","lat":43.301204,"lon":5.431184,"is_reserved":false,"is_disabled":false,"rental_uris":{"android":"levelo://app?vid=d036b849-3104-46e1-8fb1-f8d5be60e569","ios":"levelo://app?vid=d036b849-3104-46e1-8fb1-f8d5be60e569"},"vehicle_type_id":"4","last_reported":1768072069,"current_range_meters":7200,"station_id":"st_d3js3co5814s73ftftug","pricing_plan_id":"cebpf4jnsgd1na2vs0mg"},{"bike_id":"5ea8390a-b6bf-4d05-83f0-f449d44bf97e","system_id":"levelo_inurba_marseille","lat":43.25827,"lon":5.39417,"is_reserved":false,"is_disabled":false,"rental_uris":{"android":"levelo://app?vid=5ea8390a-b6bf-4d05-83f0-f449d44bf97e","ios":"levelo://app?vid=5ea8390a-b6bf-4d05-83f0-f449d44bf97e"},"vehicle_type_id":"4","last_reported":1768072069,"current_range_meters":7200,"station_id":"ce4bhip2rcd13ifvqft0","pricing_plan_id":"cebpf4jnsgd1na2vs0mg"},{"bike_id":"248f666c-97de-43b8-ba33-ea773cc06c95","system_id":"levelo_inurba_marseille","lat":43.26575,"lon":5.39849,"is_reserved":false,"is_disabled":false,"rental_uris":{"android":"levelo://app?vid=248f666c-97de-43b8-ba33-ea773cc06c95","ios":"levelo://app?vid=248f666c-97de-43b8-ba33-ea773cc06c95"},"vehicle_type_id":"4","last_reported":1768072069,"current_range_meters":7200,"station_id":"","pricing_plan_id":"cebpf4jnsgd1na2vs0mg"},{"bike_id":"1b1b65f2-5621-43a3-8721-1a01794caa40","system_id":"levelo_inurba_marseille","lat":43.2397,"lon":5.36604,"is_reserved":false,"is_disabled":false,"rental_uris":{"android":"levelo://app?vid=1b1b65f2-5621-43a3-8721-1a01794caa40","ios":"levelo://app?vid=1b1b65f2-5621-43a3-8721-1a01794caa40"},"vehicle_type_id":"4","last_reported":1768072069,"current_range_meters":7200,"station_id":"ce4bhi12rcd13ifvqfp0","pricing_plan_id":"cebpf4jnsgd1na2vs0mg"},{"bike_id":"3946f472-b8a7-4d59-bf38-d579b99a2b08","system_id":"levelo_inurba_marseille","lat":43.2552,"lon":5.3764,"is_reserved":false,"is_disabled":false,"rental_uris":{"android":"levelo://app?vid=3946f472-b8a7-4d59-bf38-d579b99a2b08","ios":"levelo://app?vid=3946f472-b8a7-4d59-bf38-d579b99a2b08"},"vehicle_type_id":"4","last_reported":1768072069,"current_range_meters":7200,"station_id":"ce4bhh12rcd13ifvqff0","pricing_plan_id":"cebpf4jnsgd1na2vs0mg"},{"bike_id":"39c11867-a6b6-4638-9a06-f924f2b38409","system_id":"levelo_inurba_marseille","lat":43.29252,"lon":5.37637,"is_reserved":false,"is_disabled":false,"rental_uris":{"android":"levelo://app?vid=39c11867-a6b6-4638-9a06-f924f2b38409","ios":"levelo://app?vid=39c11867-a6b6-4638-9a06-f924f2b38409"},"vehicle_type_id":"4","last_reported":1768072069,"current_range_meters":7200,"station_id":"ce4bgi12rcd13ifvqb80","pricing_plan_id":"cebpf4jnsgd1na2vs0mg"},{"bike_id":"2a9201d3-7ab5-4fe8-9e24-acec22c37a2c","system_id":"levelo_inurba_marseille","lat":43.24665,"lon":5.38146,"is_reserved":false,"is_disabled":false,"rental_uris":{"android":"levelo://app?vid=2a9201d3-7ab5-4fe8-9e24-acec22c37a2c","ios":"levelo://app?vid=2a9201d3-7ab5-4fe8-9e24-acec22c37a2c"},"vehicle_type_id":"4","last_reported":1768072069,"current_range_meters":7200,"station_id":"ce4bhih2rcd13ifvqfr0","pricing_plan_id":"cebpf4jnsgd1na2vs0mg"},{"bike_id":"dbe9e179-37a7-4bf6-8958-b4f7e3523bb3","system_id":"levelo_inurba_marseille","lat":43.28296,"lon":5.43027,"is_reserved":false,"is_disabled":false,"rental_uris":{"android":"levelo://app?vid=dbe9e179-37a7-4bf6-8958-b4f7e3523bb3","ios":"levelo://app?vid=dbe9e179-37a7-4bf6-8958-b4f7e3523bb3"},"vehicle_type_id":"4","last_reported":1768072069,"current_range_meters":7200,"station_id":"","pricing_plan_id":"cebpf4jnsgd1na2vs0mg"},{"bike_id":"2127d6e1-c349-475f-95f1-3a579f8cf683","system_id":"levelo_inurba_marseille","lat":43.284556,"lon":5.391897,"is_reserved":false,"is_disabled":false,"rental_uris":{"android":"levelo://app?vid=2127d6e1-c349-475f-95f1-3a579f8cf683","ios":"levelo://app?vid=2127d6e1-c349-475f-95f1-3a579f8cf683"},"vehicle_type_id":"4","last_reported":1768072069,"current_range_meters":7200,"station_id":"ce4bhoh2rcd13ifvqh5g","pricing_plan_id":"cebpf4jnsgd1na2vs0mg"},{"bike_id":"d041d3dd-9e7d-406c-a376-f7a1930c3e9a","system_id":"levelo_inurba_marseille","lat":43.28535,"lon":5.44089,"is_reserved":false,"is_disabled":false,"rental_uris":{"android":"levelo://app?vid=d041d3dd-9e7d-406c-a376-f7a1930c3e9a","ios":"levelo://app?vid=d041d3dd-9e7d-406c-a376-f7a1930c3e9a"},"vehicle_type_id":"4","last_reported":1768072069,"current_range_meters":7200,"station_id":"st_d3j3df2ikq2c7380ej80","pricing_plan_id":"cebpf4jnsgd1na2vs0mg"},{"bike_id":"d26f4054-daa5-4936-9c27-6bfc7457f4e6","system_id":"levelo_inurba_marseille","lat":43.288613,"lon":5.358451,"is_reserved":false,"is_disabled":false,"rental_uris":{"android":"levelo://app?vid=d26f4054-daa5-4936-9c27-6bfc7457f4e6","ios":"levelo://app?vid=d26f4054-daa5-4936-9c27-6bfc7457f4e6"},"vehicle_type_id":"4","last_reported":1768072069,"current_range_meters":7200,"station_id":"ce4bhb12rcd13ifvqem0","pricing_plan_id":"cebpf4jnsgd1na2vs0mg"},{"bike_id":"d29147e9-12b9-49d5-9a41-487e37c613b5","system_id":"levelo_inurba_marseille","lat":43.22571,"lon":5.41621,"is_reserved":false,"is_disabled":false,"rental_uris":{"android":"levelo://app?vid=d29147e9-12b9-49d5-9a41-487e37c613b5","ios":"levelo://app?vid=d29147e9-12b9-49d5-9a41-487e37c613b5"},"vehicle_type_id":"4","last_reported":1768072069,"current_range_meters":8000,"station_id":"st_d2o4gvlbi1j2169b742g","pricing_plan_id":"cebpf4jnsgd1na2vs0mg"},{"bike_id":"be9c053c-2d50-4fde-bac7-107ec637ca93","system_id":"levelo_inurba_marseille","lat":43.29913,"lon":5.38131,"is_reserved":false,"is_disabled":false,"rental_uris":{"android":"levelo://app?vid=be9c053c-2d50-4fde-bac7-107ec637ca93","ios":"levelo://app?vid=be9c053c-2d50-4fde-bac7-107ec637ca93"},"vehicle_type_id":"4","last_reported":1768072069,"current_range_meters":8000,"station_id":"ce4bgj12rcd13ifvqbc0","pricing_plan_id":"cebpf4jnsgd1na2vs0mg"},{"bike_id":"ff43ef99-a2e3-42cb-a87f-e919c3749872","system_id":"levelo_inurba_marseille","lat":43.29709,"lon":5.41464,"is_reserved":false,"is_disabled":false,"rental_uris":{"android":"levelo://app?vid=ff43ef99-a2e3-42cb-a87f-e919c3749872","ios":"levelo://app?vid=ff43ef99-a2e3-42cb-a87f-e919c3749872"},"vehicle_type_id":"4","last_reported":1768072069,"current_range_meters":8000,"station_id":"","pricing_plan_id":"cebpf4jnsgd1na2vs0mg"},{"bike_id":"4949cb6e-d9e4-4d5e-b3bc-16a67e8de49b","system_id":"levelo_inurba_marseille","lat":43.28475,"lon":5.3853,"is_reserved":false,"is_disabled":false,"rental_uris":{"android":"levelo://app?vid=4949cb6e-d9e4-4d5e-b3bc-16a67e8de49b","ios":"levelo://app?vid=4949cb6e-d9e4-4d5e-b3bc-16a67e8de49b"},"vehicle_type_id":"4","last_reported":1768072069,"current_range_meters":8000,"station_id":"ce4bh8p2rcd13ifvqeb0","pricing_plan_id":"cebpf4jnsgd1na2vs0mg"},{"bike_id":"b2295231-8d7a-4a3c-8ee1-7dbae04933b0","system_id":"levelo_inurba_marseille","lat":43.27069,"lon":5.40432,"is_reserved":false,"is_disabled":false,"rental_uris":{"android":"levelo://app?vid=b2295231-8d7a-4a3c-8ee1-7dbae04933b0","ios":"levelo://app?vid=b2295231-8d7a-4a3c-8ee1-7dbae04933b0"},"vehicle_type_id":"4","last_reported":1768072069,"current_range_meters":8000,"station_id":"ce4bhk92rcd13ifvqgc0","pricing_plan_id":"cebpf4jnsgd1na2vs0mg"},{"bike_id":"c771e32f-8268-48c3-904a-8acbbd85f57d","system_id":"levelo_inurba_marseille","lat":43.25848,"lon":5.39441,"is_reserved":false,"is_disabled":false,"rental_uris":{"android":"levelo://app?vid=c771e32f-8268-48c3-904a-8acbbd85f57d","ios":"levelo://app?vid=c771e32f-8268-48c3-904a-8acbbd85f57d"},"vehicle_type_id":"4","last_reported":1768072069,"current_range_meters":8000,"station_id":"ce4bhip2rcd13ifvqft0","pricing_plan_id":"cebpf4jnsgd1na2vs0mg"},{"bike_id":"9695ced4-9069-43de-9381-414e38a96d05","system_id":"levelo_inurba_marseille","lat":43.3004,"lon":5.37206,"is_reserved":false,"is_disabled":false,"rental_uris":{"android":"levelo://app?vid=9695ced4-9069-43de-9381-414e38a96d05","ios":"levelo://app?vid=9695ced4-9069-43de-9381-414e38a96d05"},"vehicle_type_id":"4","last_reported":1768072069,"current_range_meters":8000,"station_id":"","pricing_plan_id":"cebpf4jnsgd1na2vs0mg"},{"bike_id":"7f391882-abdd-4a67-9c14-bc81f5c2dbfb","system_id":"levelo_inurba_marseille","lat":43.24068,"lon":5.37754,"is_reserved":false,"is_disabled":false,"rental_uris":{"android":"levelo://app?vid=7f391882-abdd-4a67-9c14-bc81f5c2dbfb","ios":"levelo://app?vid=7f391882-abdd-4a67-9c14-bc81f5c2dbfb"},"vehicle_type_id":"4","last_reported":1768072069,"current_range_meters":8000,"station_id":"ce4bhnp2rcd13ifvqgvg","pricing_plan_id":"cebpf4jnsgd1na2vs0mg"},{"bike_id":"7c6e8543-32df-4a27-bc11-b68f55311974","system_id":"levelo_inurba_marseille","lat":43.28476,"lon":5.48396,"is_reserved":false,"is_disabled":false,"rental_uris":{"android":"levelo://app?vid=7c6e8543-32df-4a27-bc11-b68f55311974","ios":"levelo://app?vid=7c6e8543-32df-4a27-bc11-b68f55311974"},"vehicle_type_id":"4","last_reported":1768072069,"current_range_meters":8000,"station_id":"","pricing_plan_id":"cebpf4jnsgd1na2vs0mg"},{"bike_id":"f4a60f1b-2920-4fb8-8f42-1eaeaa00e372","system_id":"levelo_inurba_marseille","lat":43.301192,"lon":5.43121,"is_reserved":false,"is_disabled":false,"rental_uris":{"android":"levelo://app?vid=f4a60f1b-2920-4fb8-8f42-1eaeaa00e372","ios":"levelo://app?vid=f4a60f1b-2920-4fb8-8f42-1eaeaa00e372"},"vehicle_type_id":"4","last_reported":1768072069,"current_range_meters":8000,"station_id":"st_d3js3co5814s73ftftug","pricing_plan_id":"cebpf4jnsgd1na2vs0mg"},{"bike_id":"a20e324f-461e-49f1-9758-c1dce453e58f","system_id":"levelo_inurba_marseille","lat":43.22938,"lon":5.35387,"is_reserved":false,"is_disabled":false,"rental_uris":{"android":"levelo://app?vid=a20e324f-461e-49f1-9758-c1dce453e58f","ios":"levelo://app?vid=a20e324f-461e-49f1-9758-c1dce453e58f"},"vehicle_type_id":"4","last_reported":1768072069,"current_range_meters":8000,"station_id":"cpo3532slgdg3j2ikp40","pricing_plan_id":"cebpf4jnsgd1na2vs0mg"},{"bike_id":"c55c0d61-a18c-488b-9b3e-f242de2b2b66","system_id":"levelo_inurba_marseille","lat":43.28766,"lon":5.3841,"is_reserved":false,"is_disabled":false,"rental_uris":{"android":"levelo://app?vid=c55c0d61-a18c-488b-9b3e-f242de2b2b66","ios":"levelo://app?vid=c55c0d61-a18c-488b-9b3e-f242de2b2b66"},"vehicle_type_id":"4","last_reported":1768072069,"current_range_meters":8000,"station_id":"","pricing_plan_id":"cebpf4jnsgd1na2vs0mg"},{"bike_id":"1ff83627-1a0e-404a-ae39-167edf5a0cbf","system_id":"levelo_inurba_marseille","lat":43.25082,"lon":5.39512,"is_reserved":false,"is_disabled":false,"rental_uris":{"android":"levelo://app?vid=1ff83627-1a0e-404a-ae39-167edf5a0cbf","ios":"levelo://app?vid=1ff83627-1a0e-404a-ae39-167edf5a0cbf"},"vehicle_type_id":"4","last_reported":1768072069,"current_range_meters":8000,"station_id":"ce4bhm12rcd13ifvqgkg","pricing_plan_id":"cebpf4jnsgd1na2vs0mg"},{"bike_id":"c7c2fb25-2812-4554-a688-8c1334dc293c","system_id":"levelo_inurba_marseille","lat":43.33355,"lon":5.41126,"is_reserved":false,"is_disabled":false,"rental_uris":{"android":"levelo://app?vid=c7c2fb25-2812-4554-a688-8c1334dc293c","ios":"levelo://app?vid=c7c2fb25-2812-4554-a688-8c1334dc293c"},"vehicle_type_id":"4","last_reported":1768072069,"current_range_meters":8000,"station_id":"","pricing_plan_id":"cebpf4jnsgd1na2vs0mg"},{"bike_id":"7a6d9705-1624-4172-88da-1442588504f8","system_id":"levelo_inurba_marseille","lat":43.27376,"lon":5.36259,"is_reserved":false,"is_disabled":false,"rental_uris":{"android":"levelo://app?vid=7a6d9705-1624-4172-88da-1442588504f8","ios":"levelo://app?vid=7a6d9705-1624-4172-88da-1442588504f8"},"vehicle_type_id":"4","last_reported":1768072069,"current_range_meters":8000,"station_id":"ce4bhbh2rcd13ifvqeo0","pricing_plan_id":"cebpf4jnsgd1na2vs0mg"},{"bike_id":"61b4ef09-1538-45e6-92ac-ee7f07bd7453","system_id":"levelo_inurba_marseille","lat":43.29969,"lon":5.38487,"is_reserved":false,"is_disabled":false,"rental_uris":{"android":"levelo://app?vid=61b4ef09-1538-45e6-92ac-ee7f07bd7453","ios":"levelo://app?vid=61b4ef09-1538-45e6-92ac-ee7f07bd7453"},"vehicle_type_id":"4","last_reported":1768072069,"current_range_meters":8000,"station_id":"ce4bgj92rcd13ifvqbd0","pricing_plan_id":"cebpf4jnsgd1na2vs0mg"},{"bike_id":"8fe0b21c-6d66-4424-8b22-d3c800afd113","system_id":"levelo_inurba_marseille","lat":43.27212,"lon":5.39182,"is_reserved":false,"is_disabled":false,"rental_uris":{"android":"levelo://app?vid=8fe0b21c-6d66-4424-8b22-d3c800afd113","ios":"levelo://app?vid=8fe0b21c-6d66-4424-8b22-d3c800afd113"},"vehicle_type_id":"4","last_reported":1768072069,"current_range_meters":8000,"station_id":"ce4bhhp2rcd13ifvqfm0","pricing_plan_id":"cebpf4jnsgd1na2vs0mg"},{"bike_id":"3298400b-a581-435c-aa7d-6c0aebe8e78f","system_id":"levelo_inurba_marseille","lat":43.32479,"lon":5.36561,"is_reserved":false,"is_disabled":false,"rental_uris":{"android":"levelo://app?vid=3298400b-a581-435c-aa7d-6c0aebe8e78f","ios":"levelo://app?vid=3298400b-a581-435c-aa7d-6c0aebe8e78f"},"vehicle_type_id":"4","last_reported":1768072069,"current_range_meters":8400,"station_id":"ce4bhs12rcd13ifvqhvg","pricing_plan_id":"cebpf4jnsgd1na2vs0mg"},{"bike_id":"0bfdd968-7ec4-4560-9ed8-e29960122e68","system_id":"levelo_inurba_marseille","lat":43.27204,"lon":5.39178,"is_reserved":false,"is_disabled":false,"rental_uris":{"android":"levelo://app?vid=0bfdd968-7ec4-4560-9ed8-e29960122e68","ios":"levelo://app?vid=0bfdd968-7ec4-4560-9ed8-e29960122e68"},"vehicle_type_id":"4","last_reported":1768072069,"current_range_meters":8400,"station_id":"ce4bhhp2rcd13ifvqfm0","pricing_plan_id":"cebpf4jnsgd1na2vs0mg"},{"bike_id":"0b6bd1cc-4bba-47b8-8edc-033081e34e1d","system_id":"levelo_inurba_marseille","lat":43.30552,"lon":5.36535,"is_reserved":false,"is_disabled":false,"rental_uris":{"android":"levelo://app?vid=0b6bd1cc-4bba-47b8-8edc-033081e34e1d","ios":"levelo://app?vid=0b6bd1cc-4bba-47b8-8edc-033081e34e1d"},"vehicle_type_id":"4","last_reported":1768072069,"current_range_meters":8400,"station_id":"ce4bgs12rcd13ifvqcag","pricing_plan_id":"cebpf4jnsgd1na2vs0mg"},{"bike_id":"12d9a62c-f335-4928-885a-154550271442","system_id":"levelo_inurba_marseille","lat":43.27843,"lon":5.39205,"is_reserved":false,"is_disabled":false,"rental_uris":{"android":"levelo://app?vid=12d9a62c-f335-4928-885a-154550271442","ios":"levelo://app?vid=12d9a62c-f335-4928-885a-154550271442"},"vehicle_type_id":"4","last_reported":1768072069,"current_range_meters":8400,"station_id":"ce4bhjp2rcd13ifvqga0","pricing_plan_id":"cebpf4jnsgd1na2vs0mg"},{"bike_id":"de025d8b-9701-499a-99d0-5a88bfb4d63f","system_id":"levelo_inurba_marseille","lat":43.25587,"lon":5.38219,"is_reserved":false,"is_disabled":false,"rental_uris":{"android":"levelo://app?vid=de025d8b-9701-499a-99d0-5a88bfb4d63f","ios":"levelo://app?vid=de025d8b-9701-499a-99d0-5a88bfb4d63f"},"vehicle_type_id":"4","last_reported":1768072069,"current_range_meters":8400,"station_id":"ce4bhih2rcd13ifvqfs0","pricing_plan_id":"cebpf4jnsgd1na2vs0mg"},{"bike_id":"7a888b55-8b12-47bf-a465-ca5ac78ac086","system_id":"levelo_inurba_marseille","lat":43.28941,"lon":5.38399,"is_reserved":false,"is_disabled":false,"rental_uris":{"android":"levelo://app?vid=7a888b55-8b12-47bf-a465-ca5ac78ac086","ios":"levelo://app?vid=7a888b55-8b12-47bf-a465-ca5ac78ac086"},"vehicle_type_id":"4","last_reported":1768072069,"current_range_meters":8400,"station_id":"ce4bh612rcd13ifvqe6g","pricing_plan_id":"cebpf4jnsgd1na2vs0mg"},{"bike_id":"9e546458-c3a8-4e35-9b2b-b0910317fcfc","system_id":"levelo_inurba_marseille","lat":43.22928,"lon":5.35375,"is_reserved":false,"is_disabled":false,"rental_uris":{"android":"levelo://app?vid=9e546458-c3a8-4e35-9b2b-b0910317fcfc","ios":"levelo://app?vid=9e546458-c3a8-4e35-9b2b-b0910317fcfc"},"vehicle_type_id":"4","last_reported":1768072069,"current_range_meters":8400,"station_id":"cpo3532slgdg3j2ikp40","pricing_plan_id":"cebpf4jnsgd1na2vs0mg"},{"bike_id":"f0b507e4-289a-47f5-91bc-6cb1950546cc","system_id":"levelo_inurba_marseille","lat":43.26568,"lon":5.40316,"is_reserved":false,"is_disabled":false,"rental_uris":{"android":"levelo://app?vid=f0b507e4-289a-47f5-91bc-6cb1950546cc","ios":"levelo://app?vid=f0b507e4-289a-47f5-91bc-6cb1950546cc"},"vehicle_type_id":"4","last_reported":1768072069,"current_range_meters":8400,"station_id":"ce4bhmp2rcd13ifvqgng","pricing_plan_id":"cebpf4jnsgd1na2vs0mg"},{"bike_id":"732cbb35-6784-4618-9750-5802975204d4","system_id":"levelo_inurba_marseille","lat":43.29534,"lon":5.39402,"is_reserved":false,"is_disabled":false,"rental_uris":{"android":"levelo://app?vid=732cbb35-6784-4618-9750-5802975204d4","ios":"levelo://app?vid=732cbb35-6784-4618-9750-5802975204d4"},"vehicle_type_id":"4","last_reported":1768072069,"current_range_meters":8400,"station_id":"ce4bh292rcd13ifvqdf0","pricing_plan_id":"cebpf4jnsgd1na2vs0mg"},{"bike_id":"202b9ed5-8993-43b0-b2e5-5a58a7060431","system_id":"levelo_inurba_marseille","lat":43.28093,"lon":5.3966,"is_reserved":false,"is_disabled":false,"rental_uris":{"android":"levelo://app?vid=202b9ed5-8993-43b0-b2e5-5a58a7060431","ios":"levelo://app?vid=202b9ed5-8993-43b0-b2e5-5a58a7060431"},"vehicle_type_id":"4","last_reported":1768072069,"current_range_meters":8400,"station_id":"ce4bho12rcd13ifvqh2g","pricing_plan_id":"cebpf4jnsgd1na2vs0mg"},{"bike_id":"ee66d2db-c17a-4b2a-83f9-37da596d1de5","system_id":"levelo_inurba_marseille","lat":43.24167,"lon":5.364,"is_reserved":false,"is_disabled":false,"rental_uris":{"android":"levelo://app?vid=ee66d2db-c17a-4b2a-83f9-37da596d1de5","ios":"levelo://app?vid=ee66d2db-c17a-4b2a-83f9-37da596d1de5"},"vehicle_type_id":"4","last_reported":1768072069,"current_range_meters":8400,"station_id":"cpo36qri1sfpv3e86is0","pricing_plan_id":"cebpf4jnsgd1na2vs0mg"},{"bike_id":"6074d460-8355-43c9-ad00-28e850a7492f","system_id":"levelo_inurba_marseille","lat":43.28863,"lon":5.42514,"is_reserved":false,"is_disabled":false,"rental_uris":{"android":"levelo://app?vid=6074d460-8355-43c9-ad00-28e850a7492f","ios":"levelo://app?vid=6074d460-8355-43c9-ad00-28e850a7492f"},"vehicle_type_id":"4","last_reported":1768072069,"current_range_meters":8400,"station_id":"st_d3b462108ojc7389ooeg","pricing_plan_id":"cebpf4jnsgd1na2vs0mg"},{"bike_id":"86709c1a-db9f-4cb0-a547-2ddc56e50756","system_id":"levelo_inurba_marseille","lat":43.29018,"lon":5.38641,"is_reserved":false,"is_disabled":false,"rental_uris":{"android":"levelo://app?vid=86709c1a-db9f-4cb0-a547-2ddc56e50756","ios":"levelo://app?vid=86709c1a-db9f-4cb0-a547-2ddc56e50756"},"vehicle_type_id":"4","last_reported":1768072069,"current_range_meters":8400,"station_id":"ce4bh4p2rcd13ifvqe0g","pricing_plan_id":"cebpf4jnsgd1na2vs0mg"},{"bike_id":"7d830b5d-9ecf-4784-ac40-38317f2e4419","system_id":"levelo_inurba_marseille","lat":43.27619,"lon":5.36106,"is_reserved":false,"is_disabled":false,"rental_uris":{"android":"levelo://app?vid=7d830b5d-9ecf-4784-ac40-38317f2e4419","ios":"levelo://app?vid=7d830b5d-9ecf-4784-ac40-38317f2e4419"},"vehicle_type_id":"4","last_reported":1768072069,"current_range_meters":8400,"station_id":"ce4bgj92rcd13ifvqbe0","pricing_plan_id":"cebpf4jnsgd1na2vs0mg"},{"bike_id":"c827fcba-183f-4041-a9c5-61a3015970fa","system_id":"levelo_inurba_marseille","lat":43.26944,"lon":5.40236,"is_reserved":false,"is_disabled":false,"rental_uris":{"android":"levelo://app?vid=c827fcba-183f-4041-a9c5-61a3015970fa","ios":"levelo://app?vid=c827fcba-183f-4041-a9c5-61a3015970fa"},"vehicle_type_id":"4","last_reported":1768072069,"current_range_meters":8400,"station_id":"cjm6bp8fraef2m0cb0m0","pricing_plan_id":"cebpf4jnsgd1na2vs0mg"},{"bike_id":"9227257d-26df-4311-bdb9-080324817f5d","system_id":"levelo_inurba_marseille","lat":43.21737,"lon":5.34626,"is_reserved":false,"is_disabled":true,"rental_uris":{"android":"levelo://app?vid=9227257d-26df-4311-bdb9-080324817f5d","ios":"levelo://app?vid=9227257d-26df-4311-bdb9-080324817f5d"},"vehicle_type_id":"4","last_reported":1768072069,"current_range_meters":8400,"station_id":"","pricing_plan_id":"cebpf4jnsgd1na2vs0mg"},{"bike_id":"ea619f8c-453b-4f76-8e06-d5d7a36e5c9d","system_id":"levelo_inurba_marseille","lat":43.2901,"lon":5.35606,"is_reserved":false,"is_disabled":false,"rental_uris":{"android":"levelo://app?vid=ea619f8c-453b-4f76-8e06-d5d7a36e5c9d","ios":"levelo://app?vid=ea619f8c-453b-4f76-8e06-d5d7a36e5c9d"},"vehicle_type_id":"4","last_reported":1768072069,"current_range_meters":8400,"station_id":"ce4bhb92rcd13ifvqen0","pricing_plan_id":"cebpf4jnsgd1na2vs0mg"},{"bike_id":"635fd429-2cce-4980-bfd5-690559e60d36","system_id":"levelo_inurba_marseille","lat":43.2511,"lon":5.40319,"is_reserved":false,"is_disabled":false,"rental_uris":{"android":"levelo://app?vid=635fd429-2cce-4980-bfd5-690559e60d36","ios":"levelo://app?vid=635fd429-2cce-4980-bfd5-690559e60d36"},"vehicle_type_id":"4","last_reported":1768072069,"current_range_meters":8400,"station_id":"ce4bhlh2rcd13ifvqgig","pricing_plan_id":"cebpf4jnsgd1na2vs0mg"},{"bike_id":"975619be-42a7-4800-8abc-7cfc8ab91bb2","system_id":"levelo_inurba_marseille","lat":43.30912,"lon":5.36858,"is_reserved":false,"is_disabled":false,"rental_uris":{"android":"levelo://app?vid=975619be-42a7-4800-8abc-7cfc8ab91bb2","ios":"levelo://app?vid=975619be-42a7-4800-8abc-7cfc8ab91bb2"},"vehicle_type_id":"4","last_reported":1768072069,"current_range_meters":8400,"station_id":"ce4bgn92rcd13ifvqbvg","pricing_plan_id":"cebpf4jnsgd1na2vs0mg"},{"bike_id":"baebb161-7721-4b4d-afb9-a5c5e1f5e9ac","system_id":"levelo_inurba_marseille","lat":43.261997,"lon":5.37923,"is_reserved":false,"is_disabled":false,"rental_uris":{"android":"levelo://app?vid=baebb161-7721-4b4d-afb9-a5c5e1f5e9ac","ios":"levelo://app?vid=baebb161-7721-4b4d-afb9-a5c5e1f5e9ac"},"vehicle_type_id":"4","last_reported":1768072069,"current_range_meters":8800,"station_id":"ce4bhjp2rcd13ifvqg90","pricing_plan_id":"cebpf4jnsgd1na2vs0mg"},{"bike_id":"c46739cb-8652-48d3-972f-9096dc83781a","system_id":"levelo_inurba_marseille","lat":43.2319,"lon":5.35562,"is_reserved":false,"is_disabled":false,"rental_uris":{"android":"levelo://app?vid=c46739cb-8652-48d3-972f-9096dc83781a","ios":"levelo://app?vid=c46739cb-8652-48d3-972f-9096dc83781a"},"vehicle_type_id":"4","last_reported":1768072069,"current_range_meters":8800,"station_id":"ce4bhu92rcd13ifvqi70","pricing_plan_id":"cebpf4jnsgd1na2vs0mg"},{"bike_id":"e7e6cb92-4ba6-4878-a96f-e087afdbdbc0","system_id":"levelo_inurba_marseille","lat":43.22924,"lon":5.35379,"is_reserved":false,"is_disabled":false,"rental_uris":{"android":"levelo://app?vid=e7e6cb92-4ba6-4878-a96f-e087afdbdbc0","ios":"levelo://app?vid=e7e6cb92-4ba6-4878-a96f-e087afdbdbc0"},"vehicle_type_id":"4","last_reported":1768072069,"current_range_meters":8800,"station_id":"cpo3532slgdg3j2ikp40","pricing_plan_id":"cebpf4jnsgd1na2vs0mg"},{"bike_id":"6051ea28-4252-4234-a1eb-0b453028ae6e","system_id":"levelo_inurba_marseille","lat":43.28617,"lon":5.35106,"is_reserved":false,"is_disabled":false,"rental_uris":{"android":"levelo://app?vid=6051ea28-4252-4234-a1eb-0b453028ae6e","ios":"levelo://app?vid=6051ea28-4252-4234-a1eb-0b453028ae6e"},"vehicle_type_id":"4","last_reported":1768072069,"current_range_meters":8800,"station_id":"ce4bhch2rcd13ifvqeug","pricing_plan_id":"cebpf4jnsgd1na2vs0mg"},{"bike_id":"46ebeb50-46b9-4c40-ae16-bee4d759fc53","system_id":"levelo_inurba_marseille","lat":43.27333,"lon":5.39083,"is_reserved":false,"is_disabled":false,"rental_uris":{"android":"levelo://app?vid=46ebeb50-46b9-4c40-ae16-bee4d759fc53","ios":"levelo://app?vid=46ebeb50-46b9-4c40-ae16-bee4d759fc53"},"vehicle_type_id":"4","last_reported":1768072069,"current_range_meters":8800,"station_id":"ce4bhgp2rcd13ifvqfe0","pricing_plan_id":"cebpf4jnsgd1na2vs0mg"},{"bike_id":"e687f26e-1a6d-45be-8b63-1ccd629f02c6","system_id":"levelo_inurba_marseille","lat":43.29302,"lon":5.37173,"is_reserved":false,"is_disabled":false,"rental_uris":{"android":"levelo://app?vid=e687f26e-1a6d-45be-8b63-1ccd629f02c6","ios":"levelo://app?vid=e687f26e-1a6d-45be-8b63-1ccd629f02c6"},"vehicle_type_id":"4","last_reported":1768072069,"current_range_meters":8800,"station_id":"ce4bgh92rcd13ifvqb40","pricing_plan_id":"cebpf4jnsgd1na2vs0mg"},{"bike_id":"ec955e85-404c-470b-ba82-6e77d13503a7","system_id":"levelo_inurba_marseille","lat":43.28723,"lon":5.37932,"is_reserved":false,"is_disabled":false,"rental_uris":{"android":"levelo://app?vid=ec955e85-404c-470b-ba82-6e77d13503a7","ios":"levelo://app?vid=ec955e85-404c-470b-ba82-6e77d13503a7"},"vehicle_type_id":"4","last_reported":1768072069,"current_range_meters":8800,"station_id":"ce4bh9p2rcd13ifvqec0","pricing_plan_id":"cebpf4jnsgd1na2vs0mg"},{"bike_id":"5094aeb9-ac3f-47d1-a484-8aeeb36f0571","system_id":"levelo_inurba_marseille","lat":43.27993,"lon":5.41665,"is_reserved":false,"is_disabled":false,"rental_uris":{"android":"levelo://app?vid=5094aeb9-ac3f-47d1-a484-8aeeb36f0571","ios":"levelo://app?vid=5094aeb9-ac3f-47d1-a484-8aeeb36f0571"},"vehicle_type_id":"4","last_reported":1768072069,"current_range_meters":8800,"station_id":"ce4bho12rcd13ifvqh1g","pricing_plan_id":"cebpf4jnsgd1na2vs0mg"},{"bike_id":"ae427873-2ce0-47ee-826b-d04d8e4f867a","system_id":"levelo_inurba_marseille","lat":43.30122,"lon":5.43113,"is_reserved":false,"is_disabled":false,"rental_uris":{"android":"levelo://app?vid=ae427873-2ce0-47ee-826b-d04d8e4f867a","ios":"levelo://app?vid=ae427873-2ce0-47ee-826b-d04d8e4f867a"},"vehicle_type_id":"4","last_reported":1768072069,"current_range_meters":8800,"station_id":"st_d3js3co5814s73ftftug","pricing_plan_id":"cebpf4jnsgd1na2vs0mg"},