{"last_updated":1728400146,"ttl":60,"version":"2.2","data":{"bikes":[{"bike_id":"b6182a40-3f1f-40af-8c45-6b885ec4da05","system_id":"levelo_inurba_marseille","lat":43.28095,"lon":5.3784,"is_reserved":false,"is_disabled":false,"rental_uris":{"android":"levelo://app?vid=b6182a40-3f1f-40af-8c45-6b885ec4da05","ios":"levelo://app?vid=b6182a40-3f1f-40af-8c45-6b885ec4da05"},"vehicle_type_id":"4","last_reported":1728400146,"current_range_meters":38800,"station_id":"ce4bha12rcd13ifvqee0","pricing_plan_id":"cebpf4jnsgd1na2vs0mg"},{"bike_id":"52fda321-8c34-4ec2-847d-b36cae8fb7ef","system_id":"levelo_inurba_marseille","lat":43.26059,"lon":5.39391,"is_reserved":false,"is_disabled":false,"rental_uris":{"android":"levelo://app?vid=52fda321-8c34-4ec2-847d-b36cae8fb7ef","ios":"levelo://app?vid=52fda321-8c34-4ec2-847d-b36cae8fb7ef"},"vehicle_type_id":"4","last_reported":1728400146,"current_range_meters":38000,"station_id":"ce4bhh92rcd13ifvqfj0","pricing_plan_id":"cebpf4jnsgd1na2vs0mg"},{"bike_id":"2eebc418-81a4-48d2-8a61-21c87e83362a","system_id":"levelo_inurba_marseille","lat":43.27372,"lon":5.36262,"is_reserved":false,"is_disabled":false,"rental_uris":{"android":"levelo://app?vid=2eebc418-81a4-48d2-8a61-21c87e83362a","ios":"levelo://app?vid=2eebc418-81a4-48d2-8a61-21c87e83362a"},"vehicle_type_id":"4","last_reported":1728400146,"current_range_meters":6800,"station_id":"ce4bhbh2rcd13ifvqeo0","pricing_plan_id":"cebpf4jnsgd1na2vs0mg"},{"bike_id":"22f9c0f6-7bad-4a26-a6e3-ec3cb203ead2","system_id":"levelo_inurba_marseille","lat":43.27069,"lon":5.42277,"is_reserved":false,"is_disabled":false,"rental_uris":{"android":"levelo://app?vid=22f9c0f6-7bad-4a26-a6e3-ec3cb203ead2","ios":"levelo://app?vid=22f9c0f6-7bad-4a26-a6e3-ec3cb203ead2"},"vehicle_type_id":"4","last_reported":1728400146,"current_range_meters":38000,"station_id":"ce4bhk92rcd13ifvqgb0","pricing_plan_id":"cebpf4jnsgd1na2vs0mg"},{"bike_id":"75f11660-7622-4c47-b2e5-57a2baeae5dd","system_id":"levelo_inurba_marseille","lat":43.27374,"lon":5.36265,"is_reserved":false,"is_disabled":false,"rental_uris":{"android":"levelo://app?vid=75f11660-7622-4c47-b2e5-57a2baeae5dd","ios":"levelo://app?vid=75f11660-7622-4c47-b2e5-57a2baeae5dd"},"vehicle_type_id":"4","last_reported":1728400146,"current_range_meters":36800,"station_id":"ce4bhbh2rcd13ifvqeo0","pricing_plan_id":"cebpf4jnsgd1na2vs0mg"},{"bike_id":"3edccbad-c604-40df-acb2-6e9d91b67298","system_id":"levelo_inurba_marseille","lat":43.23055,"lon":5.3549,"is_reserved":false,"is_disabled":false,"rental_uris":{"android":"levelo://app?vid=3edccbad-c604-40df-acb2-6e9d91b67298","ios":"levelo://app?vid=3edccbad-c604-40df-acb2-6e9d91b67298"},"vehicle_type_id":"4","last_reported":1728400146,"current_range_meters":13600,"station_id":"cpo3342slgdg3j2ifvpg","pricing_plan_id":"cebpf4jnsgd1na2vs0mg"},{"bike_id":"7cb283dc-a597-4133-8b4c-efc793eaf21e","system_id":"levelo_inurba_marseille","lat":43.31763,"lon":5.3901,"is_reserved":false,"is_disabled":false,"rental_uris":{"android":"levelo://app?vid=7cb283dc-a597-4133-8b4c-efc793eaf21e","ios":"levelo://app?vid=7cb283dc-a597-4133-8b4c-efc793eaf21e"},"vehicle_type_id":"4","last_reported":1728400146,"current_range_meters":3200,"station_id":"ce4bhsp2rcd13ifvqi50","pricing_plan_id":"cebpf4jnsgd1na2vs0mg"},{"bike_id":"67ebd6da-710e-4d60-a838-10bcf1d78956","system_id":"levelo_inurba_marseille","lat":43.2784,"lon":5.39209,"is_reserved":false,"is_disabled":false,"rental_uris":{"android":"levelo://app?vid=67ebd6da-710e-4d60-a838-10bcf1d78956","ios":"levelo://app?vid=67ebd6da-710e-4d60-a838-10bcf1d78956"},"vehicle_type_id":"4","last_reported":1728400146,"current_range_meters":38000,"station_id":"ce4bhjp2rcd13ifvqga0","pricing_plan_id":"cebpf4jnsgd1na2vs0mg"},{"bike_id":"51953a59-945f-49e7-9ca9-3342cd8eb446","system_id":"levelo_inurba_marseille","lat":43.31227,"lon":5.36852,"is_reserved":false,"is_disabled":false,"rental_uris":{"android":"levelo://app?vid=51953a59-945f-49e7-9ca9-3342cd8eb446","ios":"levelo://app?vid=51953a59-945f-49e7-9ca9-3342cd8eb446"},"vehicle_type_id":"4","last_reported":1728400146,"current_range_meters":28400,"station_id":"ce4bgl92rcd13ifvqbq0","pricing_plan_id":"cebpf4jnsgd1na2vs0mg"},{"bike_id":"7f8896c9-e044-4169-ba02-75989da632b5","system_id":"levelo_inurba_marseille","lat":43.24812,"lon":5.37462,"is_reserved":false,"is_disabled":false,"rental_uris":{"android":"levelo://app?vid=7f8896c9-e044-4169-ba02-75989da632b5","ios":"levelo://app?vid=7f8896c9-e044-4169-ba02-75989da632b5"},"vehicle_type_id":"4","last_reported":1728400146,"current_range_meters":37600,"station_id":"ce4bhgh2rcd13ifvqfb0","pricing_plan_id":"cebpf4jnsgd1na2vs0mg"},{"bike_id":"13faf8a1-3e2f-4037-a920-bd3e405b13b8","system_id":"levelo_inurba_marseille","lat":43.28715,"lon":5.40036,"is_reserved":false,"is_disabled":false,"rental_uris":{"android":"levelo://app?vid=13faf8a1-3e2f-4037-a920-bd3e405b13b8","ios":"levelo://app?vid=13faf8a1-3e2f-4037-a920-bd3e405b13b8"},"vehicle_type_id":"4","last_reported":1728400146,"current_range_meters":8400,"station_id":"ce4bh3h2rcd13ifvqdn0","pricing_plan_id":"cebpf4jnsgd1na2vs0mg"},{"bike_id":"0fc690d3-bbac-4a0b-8e64-b137aabfe591","system_id":"levelo_inurba_marseille","lat":43.24667,"lon":5.38163,"is_reserved":false,"is_disabled":false,"rental_uris":{"android":"levelo://app?vid=0fc690d3-bbac-4a0b-8e64-b137aabfe591","ios":"levelo://app?vid=0fc690d3-bbac-4a0b-8e64-b137aabfe591"},"vehicle_type_id":"4","last_reported":1728400146,"current_range_meters":25600,"station_id":"ce4bhih2rcd13ifvqfr0","pricing_plan_id":"cebpf4jnsgd1na2vs0mg"},{"bike_id":"31e1bc34-97b5-4c1e-9f88-7aab4c68de02","system_id":"levelo_inurba_marseille","lat":43.29415,"lon":5.3863,"is_reserved":false,"is_disabled":false,"rental_uris":{"android":"levelo://app?vid=31e1bc34-97b5-4c1e-9f88-7aab4c68de02","ios":"levelo://app?vid=31e1bc34-97b5-4c1e-9f88-7aab4c68de02"},"vehicle_type_id":"4","last_reported":1728400146,"current_range_meters":20400,"station_id":"ce4bh2h2rcd13ifvqdh0","pricing_plan_id":"cebpf4jnsgd1na2vs0mg"},{"bike_id":"81b07a05-4c57-4e76-99d6-5f6e3acbb201","system_id":"levelo_inurba_marseille","lat":43.23064,"lon":5.35484,"is_reserved":false,"is_disabled":false,"rental_uris":{"android":"levelo://app?vid=81b07a05-4c57-4e76-99d6-5f6e3acbb201","ios":"levelo://app?vid=81b07a05-4c57-4e76-99d6-5f6e3acbb201"},"vehicle_type_id":"4","last_reported":1728400146,"current_range_meters":6400,"station_id":"cpo3342slgdg3j2ifvpg","pricing_plan_id":"cebpf4jnsgd1na2vs0mg"},{"bike_id":"553df947-caf6-4536-a36f-f5b78240b269","system_id":"levelo_inurba_marseille","lat":43.33024,"lon":5.39041,"is_reserved":false,"is_disabled":false,"rental_uris":{"android":"levelo://app?vid=553df947-caf6-4536-a36f-f5b78240b269","ios":"levelo://app?vid=553df947-caf6-4536-a36f-f5b78240b269"},"vehicle_type_id":"4","last_reported":1728400146,"current_range_meters":29600,"station_id":"ce4bhr92rcd13ifvqhrg","pricing_plan_id":"cebpf4jnsgd1na2vs0mg"},{"bike_id":"28befb3e-ae34-455b-9289-d680363a5ea5","system_id":"levelo_inurba_marseille","lat":43.292725,"lon":5.384403,"is_reserved":false,"is_disabled":false,"rental_uris":{"android":"levelo://app?vid=28befb3e-ae34-455b-9289-d680363a5ea5","ios":"levelo://app?vid=28befb3e-ae34-455b-9289-d680363a5ea5"},"vehicle_type_id":"4","last_reported":1728400146,"current_range_meters":5600,"station_id":"ce4bh692rcd13ifvqea0","pricing_plan_id":"cebpf4jnsgd1na2vs0mg"},{"bike_id":"aed40c7f-ef38-495a-9e7b-b131499173dd","system_id":"levelo_inurba_marseille","lat":43.28732,"lon":5.36083,"is_reserved":false,"is_disabled":false,"rental_uris":{"android":"levelo://app?vid=aed40c7f-ef38-495a-9e7b-b131499173dd","ios":"levelo://app?vid=aed40c7f-ef38-495a-9e7b-b131499173dd"},"vehicle_type_id":"4","last_reported":1728400146,"current_range_meters":38800,"station_id":"cki0cbj6b192h4jlfktg","pricing_plan_id":"cebpf4jnsgd1na2vs0mg"},{"bike_id":"ec695a5b-ed84-41e5-83a0-06c5862a2bb4","system_id":"levelo_inurba_marseille","lat":43.2466,"lon":5.38158,"is_reserved":false,"is_disabled":false,"rental_uris":{"android":"levelo://app?vid=ec695a5b-ed84-41e5-83a0-06c5862a2bb4","ios":"levelo://app?vid=ec695a5b-ed84-41e5-83a0-06c5862a2bb4"},"vehicle_type_id":"4","last_reported":1728400146,"current_range_meters":15200,"station_id":"ce4bhih2rcd13ifvqfr0","pricing_plan_id":"cebpf4jnsgd1na2vs0mg"},{"bike_id":"253774e6-3c6b-4f01-87f6-d3eecf51bb0f","system_id":"levelo_inurba_marseille","lat":43.31337,"lon":5.39679,"is_reserved":false,"is_disabled":false,"rental_uris":{"android":"levelo://app?vid=253774e6-3c6b-4f01-87f6-d3eecf51bb0f","ios":"levelo://app?vid=253774e6-3c6b-4f01-87f6-d3eecf51bb0f"},"vehicle_type_id":"4","last_reported":1728400146,"current_range_meters":10800,"station_id":"ce4bgvp2rcd13ifvqcu0","pricing_plan_id":"cebpf4jnsgd1na2vs0mg"},{"bike_id":"1d93b661-c870-4b62-adbd-7787f149d0f5","system_id":"levelo_inurba_marseille","lat":43.26487,"lon":5.39542,"is_reserved":false,"is_disabled":false,"rental_uris":{"android":"levelo://app?vid=1d93b661-c870-4b62-adbd-7787f149d0f5","ios":"levelo://app?vid=1d93b661-c870-4b62-adbd-7787f149d0f5"},"vehicle_type_id":"4","last_reported":1728400146,"current_range_meters":20800,"station_id":"ce4bhi12rcd13ifvqfq0","pricing_plan_id":"cebpf4jnsgd1na2vs0mg"},{"bike_id":"a1ff83cb-ab78-4193-baa5-5a1020b5177c","system_id":"levelo_inurba_marseille","lat":43.29221,"lon":5.36041,"is_reserved":false,"is_disabled":false,"rental_uris":{"android":"levelo://app?vid=a1ff83cb-ab78-4193-baa5-5a1020b5177c","ios":"levelo://app?vid=a1ff83cb-ab78-4193-baa5-5a1020b5177c"},"vehicle_type_id":"4","last_reported":1728400146,"current_range_meters":33600,"station_id":"ce4bhbh2rcd13ifvqeqg","pricing_plan_id":"cebpf4jnsgd1na2vs0mg"},{"bike_id":"5a9404ec-acde-4c8d-b47b-b8eecdb8be79","system_id":"levelo_inurba_marseille","lat":43.25501,"lon":5.3765,"is_reserved":false,"is_disabled":false,"rental_uris":{"android":"levelo://app?vid=5a9404ec-acde-4c8d-b47b-b8eecdb8be79","ios":"levelo://app?vid=5a9404ec-acde-4c8d-b47b-b8eecdb8be79"},"vehicle_type_id":"4","last_reported":1728400146,"current_range_meters":24800,"station_id":"ce4bhh12rcd13ifvqff0","pricing_plan_id":"cebpf4jnsgd1na2vs0mg"},{"bike_id":"aa3103db-f865-40d4-97ce-aa89e199ca1d","system_id":"levelo_inurba_marseille","lat":43.282686,"lon":5.350568,"is_reserved":false,"is_disabled":false,"rental_uris":{"android":"levelo://app?vid=aa3103db-f865-40d4-97ce-aa89e199ca1d","ios":"levelo://app?vid=aa3103db-f865-40d4-97ce-aa89e199ca1d"},"vehicle_type_id":"4","last_reported":1728400146,"current_range_meters":38400,"station_id":"ce4bhbp2rcd13ifvqerg","pricing_plan_id":"cebpf4jnsgd1na2vs0mg"},{"bike_id":"066ccb90-6b9a-4302-bde4-9c97dfce747d","system_id":"levelo_inurba_marseille","lat":43.33717,"lon":5.39187,"is_reserved":false,"is_disabled":false,"rental_uris":{"android":"levelo://app?vid=066ccb90-6b9a-4302-bde4-9c97dfce747d","ios":"levelo://app?vid=066ccb90-6b9a-4302-bde4-9c97dfce747d"},"vehicle_type_id":"4","last_reported":1728400146,"current_range_meters":36400,"station_id":"ce4bhr92rcd13ifvqhsg","pricing_plan_id":"cebpf4jnsgd1na2vs0mg"},{"bike_id":"f50162c6-b604-4fac-8f3c-6b59d21e8e0f","system_id":"levelo_inurba_marseille","lat":43.24178,"lon":5.39731,"is_reserved":false,"is_disabled":false,"rental_uris":{"android":"levelo://app?vid=f50162c6-b604-4fac-8f3c-6b59d21e8e0f","ios":"levelo://app?vid=f50162c6-b604-4fac-8f3c-6b59d21e8e0f"},"vehicle_type_id":"4","last_reported":1728400146,"current_range_meters":16800,"station_id":"ce4bhn12rcd13ifvqgpg","pricing_plan_id":"cebpf4jnsgd1na2vs0mg"},{"bike_id":"fe6105f7-aa47-4be8-ba57-eb6ff730c0c1","system_id":"levelo_inurba_marseille","lat":43.28275,"lon":5.35079,"is_reserved":false,"is_disabled":false,"rental_uris":{"android":"levelo://app?vid=fe6105f7-aa47-4be8-ba57-eb6ff730c0c1","ios":"levelo://app?vid=fe6105f7-aa47-4be8-ba57-eb6ff730c0c1"},"vehicle_type_id":"4","last_reported":1728400146,"current_range_meters":19200,"station_id":"ce4bhbp2rcd13ifvqerg","pricing_plan_id":"cebpf4jnsgd1na2vs0mg"},{"bike_id":"a0d73576-bdc6-46e1-b671-46fd2e984d3e","system_id":"levelo_inurba_marseille","lat":43.28101,"lon":5.37831,"is_reserved":false,"is_disabled":false,"rental_uris":{"android":"levelo://app?vid=a0d73576-bdc6-46e1-b671-46fd2e984d3e","ios":"levelo://app?vid=a0d73576-bdc6-46e1-b671-46fd2e984d3e"},"vehicle_type_id":"4","last_reported":1728400146,"current_range_meters":32800,"station_id":"ce4bha12rcd13ifvqee0","pricing_plan_id":"cebpf4jnsgd1na2vs0mg"},{"bike_id":"35db5aab-a536-4286-87d7-90ec43783f24","system_id":"levelo_inurba_marseille","lat":43.23193,"lon":5.35554,"is_reserved":false,"is_disabled":false,"rental_uris":{"android":"levelo://app?vid=35db5aab-a536-4286-87d7-90ec43783f24","ios":"levelo://app?vid=35db5aab-a536-4286-87d7-90ec43783f24"},"vehicle_type_id":"4","last_reported":1728400146,"current_range_meters":29600,"station_id":"ce4bhu92rcd13ifvqi70","pricing_plan_id":"cebpf4jnsgd1na2vs0mg"},{"bike_id":"13b7d507-8d06-4e72-a20c-4302c7175ecd","system_id":"levelo_inurba_marseille","lat":43.29529,"lon":5.38546,"is_reserved":false,"is_disabled":false,"rental_uris":{"android":"levelo://app?vid=13b7d507-8d06-4e72-a20c-4302c7175ecd","ios":"levelo://app?vid=13b7d507-8d06-4e72-a20c-4302c7175ecd"},"vehicle_type_id":"4","last_reported":1728400146,"current_range_meters":14000,"station_id":"ce4bgih2rcd13ifvqba0","pricing_plan_id":"cebpf4jnsgd1na2vs0mg"},{"bike_id":"e1dfa12e-3dea-4f23-9f6f-774ffb5856ba","system_id":"levelo_inurba_marseille","lat":43.27172,"lon":5.4099,"is_reserved":false,"is_disabled":false,"rental_uris":{"android":"levelo://app?vid=e1dfa12e-3dea-4f23-9f6f-774ffb5856ba","ios":"levelo://app?vid=e1dfa12e-3dea-4f23-9f6f-774ffb5856ba"},"vehicle_type_id":"4","last_reported":1728400146,"current_range_meters":22800,"station_id":"ce4bhl12rcd13ifvqgf0","pricing_plan_id":"cebpf4jnsgd1na2vs0mg"},{"bike_id":"c2b98b8d-6a7a-4620-a079-49e2a853f444","system_id":"levelo_inurba_marseille","lat":43.29588,"lon":5.38093,"is_reserved":false,"is_disabled":false,"rental_uris":{"android":"levelo://app?vid=c2b98b8d-6a7a-4620-a079-49e2a853f444","ios":"levelo://app?vid=c2b98b8d-6a7a-4620-a079-49e2a853f444"},"vehicle_type_id":"4","last_reported":1728400146,"current_range_meters":22000,"station_id":"ce4bgl12rcd13ifvqbo0","pricing_plan_id":"cebpf4jnsgd1na2vs0mg"},{"bike_id":"75f57a73-2404-4725-9a97-371aa6b98eed","system_id":"levelo_inurba_marseille","lat":43.34142,"lon":5.40898,"is_reserved":false,"is_disabled":false,"rental_uris":{"android":"levelo://app?vid=75f57a73-2404-4725-9a97-371aa6b98eed","ios":"levelo://app?vid=75f57a73-2404-4725-9a97-371aa6b98eed"},"vehicle_type_id":"4","last_reported":1728400146,"current_range_meters":17200,"station_id":"ce4bhqh2rcd13ifvqhlg","pricing_plan_id":"cebpf4jnsgd1na2vs0mg"},{"bike_id":"d95798ca-a97d-4a33-829f-9c7fd84a4020","system_id":"levelo_inurba_marseille","lat":43.29939,"lon":5.36556,"is_reserved":false,"is_disabled":false,"rental_uris":{"android":"levelo://app?vid=d95798ca-a97d-4a33-829f-9c7fd84a4020","ios":"levelo://app?vid=d95798ca-a97d-4a33-829f-9c7fd84a4020"},"vehicle_type_id":"4","last_reported":1728400146,"current_range_meters":38800,"station_id":"ce4bgm92rcd13ifvqbr0","pricing_plan_id":"cebpf4jnsgd1na2vs0mg"},{"bike_id":"105c3fe4-7df7-40b9-b41f-7d13cafaa2b2","system_id":"levelo_inurba_marseille","lat":43.29371,"lon":5.37847,"is_reserved":false,"is_disabled":false,"rental_uris":{"android":"levelo://app?vid=105c3fe4-7df7-40b9-b41f-7d13cafaa2b2","ios":"levelo://app?vid=105c3fe4-7df7-40b9-b41f-7d13cafaa2b2"},"vehicle_type_id":"4","last_reported":1728400146,"current_range_meters":33600,"station_id":"ce4bgjh2rcd13ifvqbf0","pricing_plan_id":"cebpf4jnsgd1na2vs0mg"},{"bike_id":"c5c7b103-a3d6-4563-904b-072b9a721b51","system_id":"levelo_inurba_marseille","lat":43.32286,"lon":5.38271,"is_reserved":false,"is_disabled":false,"rental_uris":{"android":"levelo://app?vid=c5c7b103-a3d6-4563-904b-072b9a721b51","ios":"levelo://app?vid=c5c7b103-a3d6-4563-904b-072b9a721b51"},"vehicle_type_id":"4","last_reported":1728400146,"current_range_meters":9200,"station_id":"ce4bhr12rcd13ifvqhqg","pricing_plan_id":"cebpf4jnsgd1na2vs0mg"},{"bike_id":"9d9de456-3f55-4909-a3cb-d4686c8dd2f8","system_id":"levelo_inurba_marseille","lat":43.23059,"lon":5.35487,"is_reserved":false,"is_disabled":false,"rental_uris":{"android":"levelo://app?vid=9d9de456-3f55-4909-a3cb-d4686c8dd2f8","ios":"levelo://app?vid=9d9de456-3f55-4909-a3cb-d4686c8dd2f8"},"vehicle_type_id":"4","last_reported":1728400146,"current_range_meters":6000,"station_id":"cpo3342slgdg3j2ifvpg","pricing_plan_id":"cebpf4jnsgd1na2vs0mg"},{"bike_id":"72f390d6-8036-4225-a9fd-bbdc6e34eeea","system_id":"levelo_inurba_marseille","lat":43.23184,"lon":5.39989,"is_reserved":false,"is_disabled":false,"rental_uris":{"android":"levelo://app?vid=72f390d6-8036-4225-a9fd-bbdc6e34eeea","ios":"levelo://app?vid=72f390d6-8036-4225-a9fd-bbdc6e34eeea"},"vehicle_type_id":"4","last_reported":1728400146,"current_range_meters":36800,"station_id":"ce4bhn12rcd13ifvqgqg","pricing_plan_id":"cebpf4jnsgd1na2vs0mg"},{"bike_id":"2a066864-957b-48bf-a7a4-acdf63b9750b","system_id":"levelo_inurba_marseille","lat":43.27619,"lon":5.36106,"is_reserved":false,"is_disabled":false,"rental_uris":{"android":"levelo://app?vid=2a066864-957b-48bf-a7a4-acdf63b9750b","ios":"levelo://app?vid=2a066864-957b-48bf-a7a4-acdf63b9750b"},"vehicle_type_id":"4","last_reported":1728400146,"current_range_meters":38800,"station_id":"ce4bgj92rcd13ifvqbe0","pricing_plan_id":"cebpf4jnsgd1na2vs0mg"},{"bike_id":"dad37918-1abb-4982-b6fb-0d94e28b4dca","system_id":"levelo_inurba_marseille","lat":43.248124,"lon":5.374582,"is_reserved":false,"is_disabled":false,"rental_uris":{"android":"levelo://app?vid=dad37918-1abb-4982-b6fb-0d94e28b4dca","ios":"levelo://app?vid=dad37918-1abb-4982-b6fb-0d94e28b4dca"},"vehicle_type_id":"4","last_reported":1728400146,"current_range_meters":39200,"station_id":"ce4bhgh2rcd13ifvqfb0","pricing_plan_id":"cebpf4jnsgd1na2vs0mg"},{"bike_id":"4af55307-045f-4c66-a045-a91d88bb4c16","system_id":"levelo_inurba_marseille","lat":43.22935,"lon":5.35369,"is_reserved":false,"is_disabled":false,"rental_uris":{"android":"levelo://app?vid=4af55307-045f-4c66-a045-a91d88bb4c16","ios":"levelo://app?vid=4af55307-045f-4c66-a045-a91d88bb4c16"},"vehicle_type_id":"4","last_reported":1728400146,"current_range_meters":20400,"station_id":"cpo3532slgdg3j2ikp40","pricing_plan_id":"cebpf4jnsgd1na2vs0mg"},{"bike_id":"1108f945-2562-4a37-b07f-6ae5d87c264e","system_id":"levelo_inurba_marseille","lat":43.337444,"lon":5.374475,"is_reserved":false,"is_disabled":false,"rental_uris":{"android":"levelo://app?vid=1108f945-2562-4a37-b07f-6ae5d87c264e","ios":"levelo://app?vid=1108f945-2562-4a37-b07f-6ae5d87c264e"},"vehicle_type_id":"4","last_reported":1728400146,"current_range_meters":37600,"station_id":"","pricing_plan_id":"cebpf4jnsgd1na2vs0mg"},{"bike_id":"80cb83e9-d79a-40ab-80bf-bf973bec9d81","system_id":"levelo_inurba_marseille","lat":43.28703,"lon":5.37404,"is_reserved":false,"is_disabled":false,"rental_uris":{"android":"levelo://app?vid=80cb83e9-d79a-40ab-80bf-bf973bec9d81","ios":"levelo://app?vid=80cb83e9-d79a-40ab-80bf-bf973bec9d81"},"vehicle_type_id":"4","last_reported":1728400146,"current_range_meters":22000,"station_id":"ce4bh3p2rcd13ifvqdq0","pricing_plan_id":"cebpf4jnsgd1na2vs0mg"},{"bike_id":"e5c19f01-9432-4fdf-8cc8-6bbbb5dc77b3","system_id":"levelo_inurba_marseille","lat":43.24177,"lon":5.39727,"is_reserved":false,"is_disabled":false,"rental_uris":{"android":"levelo://app?vid=e5c19f01-9432-4fdf-8cc8-6bbbb5dc77b3","ios":"levelo://app?vid=e5c19f01-9432-4fdf-8cc8-6bbbb5dc77b3"},"vehicle_type_id":"4","last_reported":1728400146,"current_range_meters":19600,"station_id":"ce4bhn12rcd13ifvqgpg","pricing_plan_id":"cebpf4jnsgd1na2vs0mg"},{"bike_id":"db0f2cbf-4105-441c-a97e-c64cac690ffc","system_id":"levelo_inurba_marseille","lat":43.27812,"lon":5.40713,"is_reserved":false,"is_disabled":false,"rental_uris":{"android":"levelo://app?vid=db0f2cbf-4105-441c-a97e-c64cac690ffc","ios":"levelo://app?vid=db0f2cbf-4105-441c-a97e-c64cac690ffc"},"vehicle_type_id":"4","last_reported":1728400146,"current_range_meters":28000,"station_id":"ce4bhnh2rcd13ifvqgtg","pricing_plan_id":"cebpf4jnsgd1na2vs0mg"},{"bike_id":"47efe985-66e3-4fb1-a00d-60851f779f19","system_id":"levelo_inurba_marseille","lat":43.32549,"lon":5.41424,"is_reserved":false,"is_disabled":false,"rental_uris":{"android":"levelo://app?vid=47efe985-66e3-4fb1-a00d-60851f779f19","ios":"levelo://app?vid=47efe985-66e3-4fb1-a00d-60851f779f19"},"vehicle_type_id":"4","last_reported":1728400146,"current_range_meters":25600,"station_id":"ce4bhq12rcd13ifvqhhg","pricing_plan_id":"cebpf4jnsgd1na2vs0mg"},{"bike_id":"a8175504-0858-4fee-97f8-a01c42b24860","system_id":"levelo_inurba_marseille","lat":43.283489,"lon":5.389146,"is_reserved":false,"is_disabled":false,"rental_uris":{"android":"levelo://app?vid=a8175504-0858-4fee-97f8-a01c42b24860","ios":"levelo://app?vid=a8175504-0858-4fee-97f8-a01c42b24860"},"vehicle_type_id":"4","last_reported":1728400146,"current_range_meters":22800,"station_id":"ce4bh292rcd13ifvqdg0","pricing_plan_id":"cebpf4jnsgd1na2vs0mg"},{"bike_id":"a5176cda-4456-4c1f-8fe1-3225489e0d2e","system_id":"levelo_inurba_marseille","lat":43.27831,"lon":5.3921,"is_reserved":false,"is_disabled":false,"rental_uris":{"android":"levelo://app?vid=a5176cda-4456-4c1f-8fe1-3225489e0d2e","ios":"levelo://app?vid=a5176cda-4456-4c1f-8fe1-3225489e0d2e"},"vehicle_type_id":"4","last_reported":1728400146,"current_range_meters":27200,"station_id":"ce4bhjp2rcd13ifvqga0","pricing_plan_id":"cebpf4jnsgd1na2vs0mg"},{"bike_id":"c12c46a4-bd86-493d-803e-5d507cd7924b","system_id":"levelo_inurba_marseille","lat":43.23204,"lon":5.35552,"is_reserved":false,"is_disabled":false,"rental_uris":{"android":"levelo://app?vid=c12c46a4-bd86-493d-803e-5d507cd7924b","ios":"levelo://app?vid=c12c46a4-bd86-493d-803e-5d507cd7924b"},"vehicle_type_id":"4","last_reported":1728400146,"current_range_meters":18000,"station_id":"ce4bhu92rcd13ifvqi70","pricing_plan_id":"cebpf4jnsgd1na2vs0mg"},{"bike_id":"1e22ea5d-d406-4b63-92d6-06a783dc0af8","system_id":"levelo_inurba_marseille","lat":43.23185,"lon":5.39978,"is_reserved":false,"is_disabled":false,"rental_uris":{"android":"levelo://app?vid=1e22ea5d-d406-4b63-92d6-06a783dc0af8","ios":"levelo://app?vid=1e22ea5d-d406-4b63-92d6-06a783dc0af8"},"vehicle_type_id":"4","last_reported":1728400146,"current_range_meters":18000,"station_id":"ce4bhn12rcd13ifvqgqg","pricing_plan_id":"cebpf4jnsgd1na2vs0mg"},{"bike_id":"c19e637b-a9df-4896-bb6a-b56e60a34764","system_id":"levelo_inurba_marseille","lat":43.2509,"lon":5.39516,"is_reserved":false,"is_disabled":false,"rental_uris":{"android":"levelo://app?vid=c19e637b-a9df-4896-bb6a-b56e60a34764","ios":"levelo://app?vid=c19e637b-a9df-4896-bb6a-b56e60a34764"},"vehicle_type_id":"4","last_reported":1728400146,"current_range_meters":18800,"station_id":"ce4bhm12rcd13ifvqgkg","pricing_plan_id":"cebpf4jnsgd1na2vs0mg"},{"bike_id":"78c5cb82-cf12-460e-a8fd-f317f7866279","system_id":"levelo_inurba_marseille","lat":43.30415,"lon":5.41276,"is_reserved":false,"is_disabled":false,"rental_uris":{"android":"levelo://app?vid=78c5cb82-cf12-460e-a8fd-f317f7866279","ios":"levelo://app?vid=78c5cb82-cf12-460e-a8fd-f317f7866279"},"vehicle_type_id":"4","last_reported":1728400146,"current_range_meters":37600,"station_id":"ce4bhop2rcd13ifvqh8g","pricing_plan_id":"cebpf4jnsgd1na2vs0mg"},{"bike_id":"662f4970-f45a-4eb7-8b5b-5f2d14dbdf57","system_id":"levelo_inurba_marseille","lat":43.26682,"lon":5.38272,"is_reserved":false,"is_disabled":false,"rental_uris":{"android":"levelo://app?vid=662f4970-f45a-4eb7-8b5b-5f2d14dbdf57","ios":"levelo://app?vid=662f4970-f45a-4eb7-8b5b-5f2d14dbdf57"},"vehicle_type_id":"4","last_reported":1728400146,"current_range_meters":36800,"station_id":"ce4bhg92rcd13ifvqf90","pricing_plan_id":"cebpf4jnsgd1na2vs0mg"},{"bike_id":"0f48cc18-ff15-4ecc-b9b2-8455d197eebf","system_id":"levelo_inurba_marseille","lat":43.31487,"lon":5.37308,"is_reserved":false,"is_disabled":false,"rental_uris":{"android":"levelo://app?vid=0f48cc18-ff15-4ecc-b9b2-8455d197eebf","ios":"levelo://app?vid=0f48cc18-ff15-4ecc-b9b2-8455d197eebf"},"vehicle_type_id":"4","last_reported":1728400146,"current_range_meters":36000,"station_id":"ce4bgt12rcd13ifvqcd0","pricing_plan_id":"cebpf4jnsgd1na2vs0mg"},{"bike_id":"a64ecdda-5801-4325-a09f-c3ffb9ecb014","system_id":"levelo_inurba_marseille","lat":43.283694,"lon":5.38134,"is_reserved":false,"is_disabled":false,"rental_uris":{"android":"levelo://app?vid=a64ecdda-5801-4325-a09f-c3ffb9ecb014","ios":"levelo://app?vid=a64ecdda-5801-4325-a09f-c3ffb9ecb014"},"vehicle_type_id":"4","last_reported":1728400146,"current_range_meters":10800,"station_id":"ce4bh412rcd13ifvqdr0","pricing_plan_id":"cebpf4jnsgd1na2vs0mg"},{"bike_id":"2eb7f17d-8753-446f-a598-1cde0700b33f","system_id":"levelo_inurba_marseille","lat":43.31077,"lon":5.38356,"is_reserved":false,"is_disabled":false,"rental_uris":{"android":"levelo://app?vid=2eb7f17d-8753-446f-a598-1cde0700b33f","ios":"levelo://app?vid=2eb7f17d-8753-446f-a598-1cde0700b33f"},"vehicle_type_id":"4","last_reported":1728400146,"current_range_meters":25200,"station_id":"ce4bgv92rcd13ifvqcr0","pricing_plan_id":"cebpf4jnsgd1na2vs0mg"},{"bike_id":"d6fc3b78-7b0e-4975-be79-ba0d24199cce","system_id":"levelo_inurba_marseille","lat":43.29871,"lon":5.39728,"is_reserved":false,"is_disabled":false,"rental_uris":{"android":"levelo://app?vid=d6fc3b78-7b0e-4975-be79-ba0d24199cce","ios":"levelo://app?vid=d6fc3b78-7b0e-4975-be79-ba0d24199cce"},"vehicle_type_id":"4","last_reported":1728400146,"current_range_meters":28800,"station_id":"ce4bh0h2rcd13ifvqd50","pricing_plan_id":"cebpf4jnsgd1na2vs0mg"},{"bike_id":"c1838dc1-8dbf-4f05-a968-5df5c821395c","system_id":"levelo_inurba_marseille","lat":43.29726,"lon":5.37691,"is_reserved":false,"is_disabled":false,"rental_uris":{"android":"levelo://app?vid=c1838dc1-8dbf-4f05-a968-5df5c821395c","ios":"levelo://app?vid=c1838dc1-8dbf-4f05-a968-5df5c821395c"},"vehicle_type_id":"4","last_reported":1728400146,"current_range_meters":38800,"station_id":"ce4bgkh2rcd13ifvqbl0","pricing_plan_id":"cebpf4jnsgd1na2vs0mg"},{"bike_id":"ae1c6773-1442-4b58-a210-7a9ddfea8222","system_id":"levelo_inurba_marseille","lat":43.32105,"lon":5.36772,"is_reserved":false,"is_disabled":false,"rental_uris":{"android":"levelo://app?vid=ae1c6773-1442-4b58-a210-7a9ddfea8222","ios":"levelo://app?vid=ae1c6773-1442-4b58-a210-7a9ddfea8222"},"vehicle_type_id":"4","last_reported":1728400146,"current_range_meters":7200,"station_id":"ce4bhrh2rcd13ifvqhug","pricing_plan_id":"cebpf4jnsgd1na2vs0mg"},{"bike_id":"8614b994-ae2d-4ba6-9c50-9dc14a4d72af","system_id":"levelo_inurba_marseille","lat":43.255,"lon":5.37654,"is_reserved":false,"is_disabled":false,"rental_uris":{"android":"levelo://app?vid=8614b994-ae2d-4ba6-9c50-9dc14a4d72af","ios":"levelo://app?vid=8614b994-ae2d-4ba6-9c50-9dc14a4d72af"},"vehicle_type_id":"4","last_reported":1728400146,"current_range_meters":28800,"station_id":"ce4bhh12rcd13ifvqff0","pricing_plan_id":"cebpf4jnsgd1na2vs0mg"},{"bike_id":"1c852732-d49a-4a4c-86e9-c4a33127f8ee","system_id":"levelo_inurba_marseille","lat":43.297627,"lon":5.37302,"is_reserved":false,"is_disabled":false,"rental_uris":{"android":"levelo://app?vid=1c852732-d49a-4a4c-86e9-c4a33127f8ee","ios":"levelo://app?vid=1c852732-d49a-4a4c-86e9-c4a33127f8ee"},"vehicle_type_id":"4","last_reported":1728400146,"current_range_meters":36400,"station_id":"","pricing_plan_id":"cebpf4jnsgd1na2vs0mg"},{"bike_id":"6b5668a9-0029-4b95-8860-61cea6d5c551","system_id":"levelo_inurba_marseille","lat":43.31363,"lon":5.38651,"is_reserved":false,"is_disabled":false,"rental_uris":{"android":"levelo://app?vid=6b5668a9-0029-4b95-8860-61cea6d5c551","ios":"levelo://app?vid=6b5668a9-0029-4b95-8860-61cea6d5c551"},"vehicle_type_id":"4","last_reported":1728400146,"current_range_meters":37600,"station_id":"","pricing_plan_id":"cebpf4jnsgd1na2vs0mg"},{"bike_id":"49f8af78-cff5-46a6-ad47-bdcd90cbae69","system_id":"levelo_inurba_marseille","lat":43.31494,"lon":5.37299,"is_reserved":false,"is_disabled":false,"rental_uris":{"android":"levelo://app?vid=49f8af78-cff5-46a6-ad47-bdcd90cbae69","ios":"levelo://app?vid=49f8af78-cff5-46a6-ad47-bdcd90cbae69"},"vehicle_type_id":"4","last_reported":1728400146,"current_range_meters":30400,"station_id":"ce4bgt12rcd13ifvqcd0","pricing_plan_id":"cebpf4jnsgd1na2vs0mg"},{"bike_id":"d00a3477-782a-4de0-b711-15ed9dd434f4","system_id":"levelo_inurba_marseille","lat":43.23054,"lon":5.35488,"is_reserved":false,"is_disabled":false,"rental_uris":{"android":"levelo://app?vid=d00a3477-782a-4de0-b711-15ed9dd434f4","ios":"levelo://app?vid=d00a3477-782a-4de0-b711-15ed9dd434f4"},"vehicle_type_id":"4","last_reported":1728400146,"current_range_meters":4000,"station_id":"cpo3342slgdg3j2ifvpg","pricing_plan_id":"cebpf4jnsgd1na2vs0mg"},{"bike_id":"428c9266-e011-4b54-8895-02f6fecf3d59","system_id":"levelo_inurba_marseille","lat":43.29426,"lon":5.3864,"is_reserved":false,"is_disabled":false,"rental_uris":{"android":"levelo://app?vid=428c9266-e011-4b54-8895-02f6fecf3d59","ios":"levelo://app?vid=428c9266-e011-4b54-8895-02f6fecf3d59"},"vehicle_type_id":"4","last_reported":1728400146,"current_range_meters":38800,"station_id":"ce4bh2h2rcd13ifvqdh0","pricing_plan_id":"cebpf4jnsgd1na2vs0mg"},{"bike_id":"9c3af4d4-180c-4a9c-8b71-2547a15c1de7","system_id":"levelo_inurba_marseille","lat":43.27495,"lon":5.42449,"is_reserved":false,"is_disabled":false,"rental_uris":{"android":"levelo://app?vid=9c3af4d4-180c-4a9c-8b71-2547a15c1de7","ios":"levelo://app?vid=9c3af4d4-180c-4a9c-8b71-2547a15c1de7"},"vehicle_type_id":"4","last_reported":1728400146,"current_range_meters":1200,"station_id":"ce4bhn92rcd13ifvqgrg","pricing_plan_id":"cebpf4jnsgd1na2vs0mg"},{"bike_id":"d231c387-c366-4e64-93d4-bed64601a769","system_id":"levelo_inurba_marseille","lat":43.28566,"lon":5.39496,"is_reserved":false,"is_disabled":false,"rental_uris":{"android":"levelo://app?vid=d231c387-c366-4e64-93d4-bed64601a769","ios":"levelo://app?vid=d231c387-c366-4e64-93d4-bed64601a769"},"vehicle_type_id":"4","last_reported":1728400146,"current_range_meters":12000,"station_id":"ce4bh292rcd13ifvqdg0","pricing_plan_id":"cebpf4jnsgd1na2vs0mg"},{"bike_id":"944b0cc0-98af-4e44-a504-185a99267779","system_id":"levelo_inurba_marseille","lat":43.2549,"lon":5.3766,"is_reserved":false,"is_disabled":false,"rental_uris":{"android":"levelo://app?vid=944b0cc0-98af-4e44-a504-185a99267779","ios":"levelo://app?vid=944b0cc0-98af-4e44-a504-185a99267779"},"vehicle_type_id":"4","last_reported":1728400146,"current_range_meters":17200,"station_id":"ce4bhh12rcd13ifvqff0","pricing_plan_id":"cebpf4jnsgd1na2vs0mg"},{"bike_id":"4194f02e-9dee-4b67-a55e-4e2f3473b859","system_id":"levelo_inurba_marseille","lat":43.31082,"lon":5.42428,"is_reserved":false,"is_disabled":false,"rental_uris":{"android":"levelo://app?vid=4194f02e-9dee-4b67-a55e-4e2f3473b859","ios":"levelo://app?vid=4194f02e-9dee-4b67-a55e-4e2f3473b859"},"vehicle_type_id":"4","last_reported":1728400146,"current_range_meters":9200,"station_id":"ce4bhp92rcd13ifvqhag","pricing_plan_id":"cebpf4jnsgd1na2vs0mg"},{"bike_id":"e8f38f77-6572-42be-9296-0cbe6e7cb972","system_id":"levelo_inurba_marseille","lat":43.23054,"lon":5.35492,"is_reserved":false,"is_disabled":false,"rental_uris":{"android":"levelo://app?vid=e8f38f77-6572-42be-9296-0cbe6e7cb972","ios":"levelo://app?vid=e8f38f77-6572-42be-9296-0cbe6e7cb972"},"vehicle_type_id":"4","last_reported":1728400146,"current_range_meters":30800,"station_id":"cpo3342slgdg3j2ifvpg","pricing_plan_id":"cebpf4jnsgd1na2vs0mg"},{"bike_id":"485bc90e-76e5-4ef0-8a60-6695dcc5102a","system_id":"levelo_inurba_marseille","lat":43.32481,"lon":5.36563,"is_reserved":false,"is_disabled":false,"rental_uris":{"android":"levelo://app?vid=485bc90e-76e5-4ef0-8a60-6695dcc5102a","ios":"levelo://app?vid=485bc90e-76e5-4ef0-8a60-6695dcc5102a"},"vehicle_type_id":"4","last_reported":1728400146,"current_range_meters":11200,"station_id":"ce4bhs12rcd13ifvqhvg","pricing_plan_id":"cebpf4jnsgd1na2vs0mg"},{"bike_id":"77d131a6-db5f-44eb-adb1-7fc7032d111b","system_id":"levelo_inurba_marseille","lat":43.24652,"lon":5.38897,"is_reserved":false,"is_disabled":false,"rental_uris":{"android":"levelo://app?vid=77d131a6-db5f-44eb-adb1-7fc7032d111b","ios":"levelo://app?vid=77d131a6-db5f-44eb-adb1-7fc7032d111b"},"vehicle_type_id":"4","last_reported":1728400146,"current_range_meters":12400,"station_id":"ce4bhg12rcd13ifvqf60","pricing_plan_id":"cebpf4jnsgd1na2vs0mg"},{"bike_id":"5f9eccde-896f-404e-980f-b4c05f546e97","system_id":"levelo_inurba_marseille","lat":43.26059,"lon":5.39388,"is_reserved":false,"is_disabled":false,"rental_uris":{"android":"levelo://app?vid=5f9eccde-896f-404e-980f-b4c05f546e97","ios":"levelo://app?vid=5f9eccde-896f-404e-980f-b4c05f546e97"},"vehicle_type_id":"4","last_reported":1728400146,"current_range_meters":16800,"station_id":"ce4bhh92rcd13ifvqfj0","pricing_plan_id":"cebpf4jnsgd1na2vs0mg"},{"bike_id":"4756f994-dcd0-40f0-8c02-f11efbc81576","system_id":"levelo_inurba_marseille","lat":43.25575,"lon":5.3823,"is_reserved":false,"is_disabled":false,"rental_uris":{"android":"levelo://app?vid=4756f994-dcd0-40f0-8c02-f11efbc81576","ios":"levelo://app?vid=4756f994-dcd0-40f0-8c02-f11efbc81576"},"vehicle_type_id":"4","last_reported":1728400146,"current_range_meters":28000,"station_id":"ce4bhih2rcd13ifvqfs0","pricing_plan_id":"cebpf4jnsgd1na2vs0mg"},{"bike_id":"539eacbc-92e3-40a6-ae36-ff0b108b53ac","system_id":"levelo_inurba_marseille","lat":43.31332,"lon":5.39695,"is_reserved":false,"is_disabled":false,"rental_uris":{"android":"levelo://app?vid=539eacbc-92e3-40a6-ae36-ff0b108b53ac","ios":"levelo://app?vid=539eacbc-92e3-40a6-ae36-ff0b108b53ac"},"vehicle_type_id":"4","last_reported":1728400146,"current_range_meters":3200,"station_id":"ce4bgvp2rcd13ifvqcu0","pricing_plan_id":"cebpf4jnsgd1na2vs0mg"},{"bike_id":"ece7584d-4fa3-4da1-87ab-48b1e7a7ad7f","system_id":"levelo_inurba_marseille","lat":43.24803,"lon":5.37465,"is_reserved":false,"is_disabled":false,"rental_uris":{"android":"levelo://app?vid=ece7584d-4fa3-4da1-87ab-48b1e7a7ad7f","ios":"levelo://app?vid=ece7584d-4fa3-4da1-87ab-48b1e7a7ad7f"},"vehicle_type_id":"4","last_reported":1728400146,"current_range_meters":19200,"station_id":"ce4bhgh2rcd13ifvqfb0","pricing_plan_id":"cebpf4jnsgd1na2vs0mg"},{"bike_id":"6e848d27-6a38-451e-bc82-464fcb19ae45","system_id":"levelo_inurba_marseille","lat":43.3108,"lon":5.42429,"is_reserved":false,"is_disabled":false,"rental_uris":{"android":"levelo://app?vid=6e848d27-6a38-451e-bc82-464fcb19ae45","ios":"levelo://app?vid=6e848d27-6a38-451e-bc82-464fcb19ae45"},"vehicle_type_id":"4","last_reported":1728400146,"current_range_meters":13600,"station_id":"ce4bhp92rcd13ifvqhag","pricing_plan_id":"cebpf4jnsgd1na2vs0mg"},{"bike_id":"b5142c12-3f3f-452c-853c-bcb33ce12fbf","system_id":"levelo_inurba_marseille","lat":43.23194,"lon":5.35551,"is_reserved":false,"is_disabled":false,"rental_uris":{"android":"levelo://app?vid=b5142c12-3f3f-452c-853c-bcb33ce12fbf","ios":"levelo://app?vid=b5142c12-3f3f-452c-853c-bcb33ce12fbf"},"vehicle_type_id":"4","last_reported":1728400146,"current_range_meters":36800,"station_id":"ce4bhu92rcd13ifvqi70","pricing_plan_id":"cebpf4jnsgd1na2vs0mg"},{"bike_id":"ad917d9a-84bc-4ef9-ac35-db9525c66b7d","system_id":"levelo_inurba_marseille","lat":43.29024,"lon":5.3864,"is_reserved":false,"is_disabled":false,"rental_uris":{"android":"levelo://app?vid=ad917d9a-84bc-4ef9-ac35-db9525c66b7d","ios":"levelo://app?vid=ad917d9a-84bc-4ef9-ac35-db9525c66b7d"},"vehicle_type_id":"4","last_reported":1728400146,"current_range_meters":4800,"station_id":"ce4bh4p2rcd13ifvqe0g","pricing_plan_id":"cebpf4jnsgd1na2vs0mg"},{"bike_id":"4261034b-ec64-48f4-9924-92b3e081e7fa","system_id":"levelo_inurba_marseille","lat":43.27997,"lon":5.40009,"is_reserved":false,"is_disabled":false,"rental_uris":{"android":"levelo://app?vid=4261034b-ec64-48f4-9924-92b3e081e7fa","ios":"levelo://app?vid=4261034b-ec64-48f4-9924-92b3e081e7fa"},"vehicle_type_id":"4","last_reported":1728400146,"current_range_meters":8800,"station_id":"ce4bho92rcd13ifvqh4g","pricing_plan_id":"cebpf4jnsgd1na2vs0mg"},{"bike_id":"d99b2ef3-a422-4150-a435-82ca786d2ad7","system_id":"levelo_inurba_marseille","lat":43.29932,"lon":5.3653,"is_reserved":false,"is_disabled":false,"rental_uris":{"android":"levelo://app?vid=d99b2ef3-a422-4150-a435-82ca786d2ad7","ios":"levelo://app?vid=d99b2ef3-a422-4150-a435-82ca786d2ad7"},"vehicle_type_id":"4","last_reported":1728400146,"current_range_meters":24400,"station_id":"ce4bgm92rcd13ifvqbr0","pricing_plan_id":"cebpf4jnsgd1na2vs0mg"},{"bike_id":"a9287964-1cdd-4811-b91c-b3c67b107db1","system_id":"levelo_inurba_marseille","lat":43.26551,"lon":5.37283,"is_reserved":false,"is_disabled":false,"rental_uris":{"android":"levelo://app?vid=a9287964-1cdd-4811-b91c-b3c67b107db1","ios":"levelo://app?vid=a9287964-1cdd-4811-b91c-b3c67b107db1"},"vehicle_type_id":"4","last_reported":1728400146,"current_range_meters":8400,"station_id":"ce4bhg12rcd13ifvqf70","pricing_plan_id":"cebpf4jnsgd1na2vs0mg"},{"bike_id":"2baef9d4-20b2-4f99-a7d2-fe2636021d9e","system_id":"levelo_inurba_marseille","lat":43.30923,"lon":5.40143,"is_reserved":false,"is_disabled":false,"rental_uris":{"android":"levelo://app?vid=2baef9d4-20b2-4f99-a7d2-fe2636021d9e","ios":"levelo://app?vid=2baef9d4-20b2-4f99-a7d2-fe2636021d9e"},"vehicle_type_id":"4","last_reported":1728400146,"current_range_meters":3600,"station_id":"ce4bgvp2rcd13ifvqct0","pricing_plan_id":"cebpf4jnsgd1na2vs0mg"},{"bike_id":"93d45870-2e1c-4ed1-9664-7b219a4ed443","system_id":"levelo_inurba_marseille","lat":43.22927,"lon":5.35381,"is_reserved":false,"is_disabled":false,"rental_uris":{"android":"levelo://app?vid=93d45870-2e1c-4ed1-9664-7b219a4ed443","ios":"levelo://app?vid=93d45870-2e1c-4ed1-9664-7b219a4ed443"},"vehicle_type_id":"4","last_reported":1728400146,"current_range_meters":30400,"station_id":"cpo3532slgdg3j2ikp40","pricing_plan_id":"cebpf4jnsgd1na2vs0mg"},{"bike_id":"95f43548-4515-42eb-8cb7-2e07628c19e7","system_id":"levelo_inurba_marseille","lat":43.29187,"lon":5.39304,"is_reserved":false,"is_disabled":false,"rental_uris":{"android":"levelo://app?vid=95f43548-4515-42eb-8cb7-2e07628c19e7","ios":"levelo://app?vid=95f43548-4515-42eb-8cb7-2e07628c19e7"},"vehicle_type_id":"4","last_reported":1728400146,"current_range_meters":13600,"station_id":"ce4bh192rcd13ifvqdd0","pricing_plan_id":"cebpf4jnsgd1na2vs0mg"},{"bike_id":"0e3bfff6-2bee-4be5-8568-766c0160a493","system_id":"levelo_inurba_marseille","lat":43.31707,"lon":5.43697,"is_reserved":false,"is_disabled":false,"rental_uris":{"android":"levelo://app?vid=0e3bfff6-2bee-4be5-8568-766c0160a493","ios":"levelo://app?vid=0e3bfff6-2bee-4be5-8568-766c0160a493"},"vehicle_type_id":"4","last_reported":1728400146,"current_range_meters":8000,"station_id":"ce4bhp92rcd13ifvqhcg","pricing_plan_id":"cebpf4jnsgd1na2vs0mg"},{"bike_id":"a4b060b7-c22d-4a31-b8a9-38afad5dd427","system_id":"levelo_inurba_marseille","lat":43.306427,"lon":5.400884,"is_reserved":false,"is_disabled":false,"rental_uris":{"android":"levelo://app?vid=a4b060b7-c22d-4a31-b8a9-38afad5dd427","ios":"levelo://app?vid=a4b060b7-c22d-4a31-b8a9-38afad5dd427"},"vehicle_type_id":"4","last_reported":1728400146,"current_range_meters":38800,"station_id":"ce4bgvh2rcd13ifvqcs0","pricing_plan_id":"cebpf4jnsgd1na2vs0mg"},{"bike_id":"68a15803-7161-4d8a-9c98-d979734f5b64","system_id":"levelo_inurba_marseille","lat":43.2603,"lon":5.37545,"is_reserved":false,"is_disabled":false,"rental_uris":{"android":"levelo://app?vid=68a15803-7161-4d8a-9c98-d979734f5b64","ios":"levelo://app?vid=68a15803-7161-4d8a-9c98-d979734f5b64"},"vehicle_type_id":"4","last_reported":1728400146,"current_range_meters":38800,"station_id":"ce4bhgh2rcd13ifvqfa0","pricing_plan_id":"cebpf4jnsgd1na2vs0mg"},{"bike_id":"2c84f6e3-82be-406f-be23-e8b760d43482","system_id":"levelo_inurba_marseille","lat":43.32485,"lon":5.3657,"is_reserved":false,"is_disabled":false,"rental_uris":{"android":"levelo://app?vid=2c84f6e3-82be-406f-be23-e8b760d43482","ios":"levelo://app?vid=2c84f6e3-82be-406f-be23-e8b760d43482"},"vehicle_type_id":"4","last_reported":1728400146,"current_range_meters":31200,"station_id":"ce4bhs12rcd13ifvqhvg","pricing_plan_id":"cebpf4jnsgd1na2vs0mg"},{"bike_id":"cce11f68-adf4-4211-bddf-7f27309ecc0f","system_id":"levelo_inurba_marseille","lat":43.23195,"lon":5.35549,"is_reserved":false,"is_disabled":false,"rental_uris":{"android":"levelo://app?vid=cce11f68-adf4-4211-bddf-7f27309ecc0f","ios":"levelo://app?vid=cce11f68-adf4-4211-bddf-7f27309ecc0f"},"vehicle_type_id":"4","last_reported":1728400146,"current_range_meters":22400,"station_id":"ce4bhu92rcd13ifvqi70","pricing_plan_id":"cebpf4jnsgd1na2vs0mg"},{"bike_id":"36457b37-07cd-4c97-87b0-3cd7108c65e2","system_id":"levelo_inurba_marseille","lat":43.295276,"lon":5.385405,"is_reserved":false,"is_disabled":false,"rental_uris":{"android":"levelo://app?vid=36457b37-07cd-4c97-87b0-3cd7108c65e2","ios":"levelo://app?vid=36457b37-07cd-4c97-87b0-3cd7108c65e2"},"vehicle_type_id":"4","last_reported":1728400146,"current_range_meters":11600,"station_id":"ce4bgih2rcd13ifvqba0","pricing_plan_id":"cebpf4jnsgd1na2vs0mg"},{"bike_id":"0e32d6b4-54b6-4867-a6b5-65fadc1f8d70","system_id":"levelo_inurba_marseille","lat":43.26785,"lon":5.39416,"is_reserved":false,"is_disabled":false,"rental_uris":{"android":"levelo://app?vid=0e32d6b4-54b6-4867-a6b5-65fadc1f8d70","ios":"levelo://app?vid=0e32d6b4-54b6-4867-a6b5-65fadc1f8d70"},"vehicle_type_id":"4","last_reported":1728400146,"current_range_meters":34800,"station_id":"ce4bhh12rcd13ifvqfg0","pricing_plan_id":"cebpf4jnsgd1na2vs0mg"},{"bike_id":"91a7ac52-16ac-4736-9fcd-924d1c836643","system_id":"levelo_inurba_marseille","lat":43.28671,"lon":5.36356,"is_reserved":false,"is_disabled":false,"rental_uris":{"android":"levelo://app?vid=91a7ac52-16ac-4736-9fcd-924d1c836643","ios":"levelo://app?vid=91a7ac52-16ac-4736-9fcd-924d1c836643"},"vehicle_type_id":"4","last_reported":1728400146,"current_range_meters":38000,"station_id":"ce4bhah2rcd13ifvqej0","pricing_plan_id":"cebpf4jnsgd1na2vs0mg"},{"bike_id":"a92f6206-1720-4e29-9ed4-ca1db6a5dc4b","system_id":"levelo_inurba_marseille","lat":43.29863,"lon":5.37601,"is_reserved":false,"is_disabled":false,"rental_uris":{"android":"levelo://app?vid=a92f6206-1720-4e29-9ed4-ca1db6a5dc4b","ios":"levelo://app?vid=a92f6206-1720-4e29-9ed4-ca1db6a5dc4b"},"vehicle_type_id":"4","last_reported":1728400146,"current_range_meters":28000,"station_id":"","pricing_plan_id":"cebpf4jnsgd1na2vs0mg"},{"bike_id":"de5c4d21-9cc0-4ee3-83f7-0c1a23eab3b2","system_id":"levelo_inurba_marseille","lat":43.290344,"lon":5.38644,"is_reserved":false,"is_disabled":false,"rental_uris":{"android":"levelo://app?vid=de5c4d21-9cc0-4ee3-83f7-0c1a23eab3b2","ios":"levelo://app?vid=de5c4d21-9cc0-4ee3-83f7-0c1a23eab3b2"},"vehicle_type_id":"4","last_reported":1728400146,"current_range_meters":14000,"station_id":"ce4bh4p2rcd13ifvqe0g","pricing_plan_id":"cebpf4jnsgd1na2vs0mg"},{"bike_id":"7ad06205-868a-4802-a1e3-0dc7e4c673d2","system_id":"levelo_inurba_marseille","lat":43.32483,"lon":5.36566,"is_reserved":false,"is_disabled":false,"rental_uris":{"android":"levelo://app?vid=7ad06205-868a-4802-a1e3-0dc7e4c673d2","ios":"levelo://app?vid=7ad06205-868a-4802-a1e3-0dc7e4c673d2"},"vehicle_type_id":"4","last_reported":1728400146,"current_range_meters":29600,"station_id":"ce4bhs12rcd13ifvqhvg","pricing_plan_id":"cebpf4jnsgd1na2vs0mg"},{"bike_id":"f7612392-4f4b-453b-a64c-499de3c2600f","system_id":"levelo_inurba_marseille","lat":43.24168,"lon":5.36389,"is_reserved":false,"is_disabled":false,"rental_uris":{"android":"levelo://app?vid=f7612392-4f4b-453b-a64c-499de3c2600f","ios":"levelo://app?vid=f7612392-4f4b-453b-a64c-499de3c2600f"},"vehicle_type_id":"4","last_reported":1728400146,"current_range_meters":30800,"station_id":"cpo36qri1sfpv3e86is0","pricing_plan_id":"cebpf4jnsgd1na2vs0mg"},{"bike_id":"20d732b6-9f6b-4a0b-a8c6-d962aac7d5f1","system_id":"levelo_inurba_marseille","lat":43.28154,"lon":5.42642,"is_reserved":false,"is_disabled":false,"rental_uris":{"android":"levelo://app?vid=20d732b6-9f6b-4a0b-a8c6-d962aac7d5f1","ios":"levelo://app?vid=20d732b6-9f6b-4a0b-a8c6-d962aac7d5f1"},"vehicle_type_id":"4","last_reported":1728400146,"current_range_meters":28800,"station_id":"ce4bhnh2rcd13ifvqgug","pricing_plan_id":"cebpf4jnsgd1na2vs0mg"},{"bike_id":"0a3ab112-4ffe-4f5b-9cef-91c9fef69939","system_id":"levelo_inurba_marseille","lat":43.2958,"lon":5.3674,"is_reserved":false,"is_disabled":false,"rental_uris":{"android":"levelo://app?vid=0a3ab112-4ffe-4f5b-9cef-91c9fef69939","ios":"levelo://app?vid=0a3ab112-4ffe-4f5b-9cef-91c9fef69939"},"vehicle_type_id":"4","last_reported":1728400146,"current_range_meters":14400,"station_id":"ce4bgph2rcd13ifvqc2g","pricing_plan_id":"cebpf4jnsgd1na2vs0mg"},{"bike_id":"41c9fdb8-fe00-4b88-abd8-9ed1f3551cdf","system_id":"levelo_inurba_marseille","lat":43.28084,"lon":5.39652,"is_reserved":false,"is_disabled":false,"rental_uris":{"android":"levelo://app?vid=41c9fdb8-fe00-4b88-abd8-9ed1f3551cdf","ios":"levelo://app?vid=41c9fdb8-fe00-4b88-abd8-9ed1f3551cdf"},"vehicle_type_id":"4","last_reported":1728400146,"current_range_meters":38800,"station_id":"ce4bho12rcd13ifvqh2g","pricing_plan_id":"cebpf4jnsgd1na2vs0mg"},{"bike_id":"27fe0b9c-01b7-4f6f-b335-93909e72e9ea","system_id":"levelo_inurba_marseille","lat":43.31078,"lon":5.3835,"is_reserved":false,"is_disabled":false,"rental_uris":{"android":"levelo://app?vid=27fe0b9c-01b7-4f6f-b335-93909e72e9ea","ios":"levelo://app?vid=27fe0b9c-01b7-4f6f-b335-93909e72e9ea"},"vehicle_type_id":"4","last_reported":1728400146,"current_range_meters":15200,"station_id":"ce4bgv92rcd13ifvqcr0","pricing_plan_id":"cebpf4jnsgd1na2vs0mg"},{"bike_id":"25521384-7c59-4ebb-ac86-7991098ac16c","system_id":"levelo_inurba_marseille","lat":43.3079,"lon":5.38148,"is_reserved":false,"is_disabled":false,"rental_uris":{"android":"levelo://app?vid=25521384-7c59-4ebb-ac86-7991098ac16c","ios":"levelo://app?vid=25521384-7c59-4ebb-ac86-7991098ac16c"},"vehicle_type_id":"4","last_reported":1728400146,"current_range_meters":16800,"station_id":"ce4bgt12rcd13ifvqce0","pricing_plan_id":"cebpf4jnsgd1na2vs0mg"},{"bike_id":"53998960-4fdd-4982-82ee-2dfb436e8866","system_id":"levelo_inurba_marseille","lat":43.291897,"lon":5.358751,"is_reserved":false,"is_disabled":false,"rental_uris":{"android":"levelo://app?vid=53998960-4fdd-4982-82ee-2dfb436e8866","ios":"levelo://app?vid=53998960-4fdd-4982-82ee-2dfb436e8866"},"vehicle_type_id":"4","last_reported":1728400146,"current_range_meters":24400,"station_id":"ce4bhb12rcd13ifvqel0","pricing_plan_id":"cebpf4jnsgd1na2vs0mg"},{"bike_id":"300f54cf-901c-4735-81dc-169e5609836a","system_id":"levelo_inurba_marseille","lat":43.25117,"lon":5.4032,"is_reserved":false,"is_disabled":false,"rental_uris":{"android":"levelo://app?vid=300f54cf-901c-4735-81dc-169e5609836a","ios":"levelo://app?vid=300f54cf-901c-4735-81dc-169e5609836a"},"vehicle_type_id":"4","last_reported":1728400146,"current_range_meters":4800,"station_id":"ce4bhlh2rcd13ifvqgig","pricing_plan_id":"cebpf4jnsgd1na2vs0mg"},{"bike_id":"8d743f7b-498a-4a0e-8416-c38fe9ca2da3","system_id":"levelo_inurba_marseille","lat":43.28673,"lon":5.38657,"is_reserved":false,"is_disabled":false,"rental_uris":{"android":"levelo://app?vid=8d743f7b-498a-4a0e-8416-c38fe9ca2da3","ios":"levelo://app?vid=8d743f7b-498a-4a0e-8416-c38fe9ca2da3"},"vehicle_type_id":"4","last_reported":1728400146,"current_range_meters":9600,"station_id":"ce4bh492rcd13ifvqdug","pricing_plan_id":"cebpf4jnsgd1na2vs0mg"},{"bike_id":"cf927195-cafe-4fe6-8a9b-b503bf9be2b0","system_id":"levelo_inurba_marseille","lat":43.23179,"lon":5.39987,"is_reserved":false,"is_disabled":false,"rental_uris":{"android":"levelo://app?vid=cf927195-cafe-4fe6-8a9b-b503bf9be2b0","ios":"levelo://app?vid=cf927195-cafe-4fe6-8a9b-b503bf9be2b0"},"vehicle_type_id":"4","last_reported":1728400146,"current_range_meters":36800,"station_id":"ce4bhn12rcd13ifvqgqg","pricing_plan_id":"cebpf4jnsgd1na2vs0mg"},{"bike_id":"8a003b6d-3bea-4049-a6ee-155ddc961d5b","system_id":"levelo_inurba_marseille","lat":43.28279,"lon":5.35077,"is_reserved":false,"is_disabled":false,"rental_uris":{"android":"levelo://app?vid=8a003b6d-3bea-4049-a6ee-155ddc961d5b","ios":"levelo://app?vid=8a003b6d-3bea-4049-a6ee-155ddc961d5b"},"vehicle_type_id":"4","last_reported":1728400146,"current_range_meters":18000,"station_id":"ce4bhbp2rcd13ifvqerg","pricing_plan_id":"cebpf4jnsgd1na2vs0mg"},{"bike_id":"3896316f-42f2-400d-a490-5efa8569cc6d","system_id":"levelo_inurba_marseille","lat":43.29967,"lon":5.3718,"is_reserved":false,"is_disabled":false,"rental_uris":{"android":"levelo://app?vid=3896316f-42f2-400d-a490-5efa8569cc6d","ios":"levelo://app?vid=3896316f-42f2-400d-a490-5efa8569cc6d"},"vehicle_type_id":"4","last_reported":1728400146,"current_range_meters":15200,"station_id":"ce4bgr92rcd13ifvqc7g","pricing_plan_id":"cebpf4jnsgd1na2vs0mg"},{"bike_id":"47d5a9c0-2c62-4cce-a497-70cd8b4916cb","system_id":"levelo_inurba_marseille","lat":43.31364,"lon":5.36697,"is_reserved":false,"is_disabled":false,"rental_uris":{"android":"levelo://app?vid=47d5a9c0-2c62-4cce-a497-70cd8b4916cb","ios":"levelo://app?vid=47d5a9c0-2c62-4cce-a497-70cd8b4916cb"},"vehicle_type_id":"4","last_reported":1728400146,"current_range_meters":6800,"station_id":"ce4bgr92rcd13ifvqc6g","pricing_plan_id":"cebpf4jnsgd1na2vs0mg"},{"bike_id":"a98f70c7-fbc4-48db-9988-438105eaf512","system_id":"levelo_inurba_marseille","lat":43.29224,"lon":5.36071,"is_reserved":false,"is_disabled":false,"rental_uris":{"android":"levelo://app?vid=a98f70c7-fbc4-48db-9988-438105eaf512","ios":"levelo://app?vid=a98f70c7-fbc4-48db-9988-438105eaf512"},"vehicle_type_id":"4","last_reported":1728400146,"current_range_meters":18000,"station_id":"ce4bhbh2rcd13ifvqeqg","pricing_plan_id":"cebpf4jnsgd1na2vs0mg"},{"bike_id":"499a6bd3-d754-437c-8136-929087827773","system_id":"levelo_inurba_marseille","lat":43.29032,"lon":5.39953,"is_reserved":false,"is_disabled":false,"rental_uris":{"android":"levelo://app?vid=499a6bd3-d754-437c-8136-929087827773","ios":"levelo://app?vid=499a6bd3-d754-437c-8136-929087827773"},"vehicle_type_id":"4","last_reported":1728400146,"current_range_meters":23200,"station_id":"ce4bh392rcd13ifvqdm0","pricing_plan_id":"cebpf4jnsgd1na2vs0mg"},{"bike_id":"554756f8-6f7e-4af1-8882-1f32f7e0cf48","system_id":"levelo_inurba_marseille","lat":43.32049,"lon":5.41551,"is_reserved":false,"is_disabled":false,"rental_uris":{"android":"levelo://app?vid=554756f8-6f7e-4af1-8882-1f32f7e0cf48","ios":"levelo://app?vid=554756f8-6f7e-4af1-8882-1f32f7e0cf48"},"vehicle_type_id":"4","last_reported":1728400146,"current_range_meters":20400,"station_id":"ce4bhq92rcd13ifvqhkg","pricing_plan_id":"cebpf4jnsgd1na2vs0mg"},{"bike_id":"6731d1b1-b391-47f7-84a2-e5222ded00d2","system_id":"levelo_inurba_marseille","lat":43.3302,"lon":5.39035,"is_reserved":false,"is_disabled":false,"rental_uris":{"android":"levelo://app?vid=6731d1b1-b391-47f7-84a2-e5222ded00d2","ios":"levelo://app?vid=6731d1b1-b391-47f7-84a2-e5222ded00d2"},"vehicle_type_id":"4","last_reported":1728400146,"current_range_meters":24800,"station_id":"ce4bhr92rcd13ifvqhrg","pricing_plan_id":"cebpf4jnsgd1na2vs0mg"},{"bike_id":"0b48fe96-5a73-4eb1-a1e0-ff84cc376fde","system_id":"levelo_inurba_marseille","lat":43.25503,"lon":5.37644,"is_reserved":false,"is_disabled":false,"rental_uris":{"android":"levelo://app?vid=0b48fe96-5a73-4eb1-a1e0-ff84cc376fde","ios":"levelo://app?vid=0b48fe96-5a73-4eb1-a1e0-ff84cc376fde"},"vehicle_type_id":"4","last_reported":1728400146,"current_range_meters":30400,"station_id":"ce4bhh12rcd13ifvqff0","pricing_plan_id":"cebpf4jnsgd1na2vs0mg"},{"bike_id":"39585e24-9284-4558-bd63-27a4a9dd3a64","system_id":"levelo_inurba_marseille","lat":43.25578,"lon":5.38235,"is_reserved":false,"is_disabled":false,"rental_uris":{"android":"levelo://app?vid=39585e24-9284-4558-bd63-27a4a9dd3a64","ios":"levelo://app?vid=39585e24-9284-4558-bd63-27a4a9dd3a64"},"vehicle_type_id":"4","last_reported":1728400146,"current_range_meters":14400,"station_id":"ce4bhih2rcd13ifvqfs0","pricing_plan_id":"cebpf4jnsgd1na2vs0mg"},{"bike_id":"6696e7e4-9669-4f59-8ecb-a4aa2ed88d95","system_id":"levelo_inurba_marseille","lat":43.25581,"lon":5.38241,"is_reserved":false,"is_disabled":false,"rental_uris":{"android":"levelo://app?vid=6696e7e4-9669-4f59-8ecb-a4aa2ed88d95","ios":"levelo://app?vid=6696e7e4-9669-4f59-8ecb-a4aa2ed88d95"},"vehicle_type_id":"4","last_reported":1728400146,"current_range_meters":37600,"station_id":"ce4bhih2rcd13ifvqfs0","pricing_plan_id":"cebpf4jnsgd1na2vs0mg"},{"bike_id":"da3c18b7-6aa0-4b85-aa9d-b6492fe1b3aa","system_id":"levelo_inurba_marseille","lat":43.28938,"lon":5.36635,"is_reserved":false,"is_disabled":false,"rental_uris":{"android":"levelo://app?vid=da3c18b7-6aa0-4b85-aa9d-b6492fe1b3aa","ios":"levelo://app?vid=da3c18b7-6aa0-4b85-aa9d-b6492fe1b3aa"},"vehicle_type_id":"4","last_reported":1728400146,"current_range_meters":24400,"station_id":"ce4bhap2rcd13ifvqek0","pricing_plan_id":"cebpf4jnsgd1na2vs0mg"},{"bike_id":"a2033ae2-f5b1-4c58-8721-decd66d10543","system_id":"levelo_inurba_marseille","lat":43.33721,"lon":5.3919,"is_reserved":false,"is_disabled":false,"rental_uris":{"android":"levelo://app?vid=a2033ae2-f5b1-4c58-8721-decd66d10543","ios":"levelo://app?vid=a2033ae2-f5b1-4c58-8721-decd66d10543"},"vehicle_type_id":"4","last_reported":1728400146,"current_range_meters":18800,"station_id":"ce4bhr92rcd13ifvqhsg","pricing_plan_id":"cebpf4jnsgd1na2vs0mg"},{"bike_id":"e0f72ac0-1c4a-45bd-919a-50a9c9d32d2c","system_id":"levelo_inurba_marseille","lat":43.24547,"lon":5.39523,"is_reserved":false,"is_disabled":false,"rental_uris":{"android":"levelo://app?vid=e0f72ac0-1c4a-45bd-919a-50a9c9d32d2c","ios":"levelo://app?vid=e0f72ac0-1c4a-45bd-919a-50a9c9d32d2c"},"vehicle_type_id":"4","last_reported":1728400146,"current_range_meters":11200,"station_id":"ce4bhlp2rcd13ifvqgjg","pricing_plan_id":"cebpf4jnsgd1na2vs0mg"},{"bike_id":"2b0f66da-8ffa-47b4-82fc-54df73d2a50d","system_id":"levelo_inurba_marseille","lat":43.30412,"lon":5.41286,"is_reserved":false,"is_disabled":false,"rental_uris":{"android":"levelo://app?vid=2b0f66da-8ffa-47b4-82fc-54df73d2a50d","ios":"levelo://app?vid=2b0f66da-8ffa-47b4-82fc-54df73d2a50d"},"vehicle_type_id":"4","last_reported":1728400146,"current_range_meters":30000,"station_id":"ce4bhop2rcd13ifvqh8g","pricing_plan_id":"cebpf4jnsgd1na2vs0mg"},{"bike_id":"f1510c6a-ec9a-4cb6-ba53-8ced3616703a","system_id":"levelo_inurba_marseille","lat":43.32479,"lon":5.36566,"is_reserved":false,"is_disabled":false,"rental_uris":{"android":"levelo://app?vid=f1510c6a-ec9a-4cb6-ba53-8ced3616703a","ios":"levelo://app?vid=f1510c6a-ec9a-4cb6-ba53-8ced3616703a"},"vehicle_type_id":"4","last_reported":1728400146,"current_range_meters":37600,"station_id":"ce4bhs12rcd13ifvqhvg","pricing_plan_id":"cebpf4jnsgd1na2vs0mg"},{"bike_id":"0a6a57e3-5612-489a-af92-dc78839cea9d","system_id":"levelo_inurba_marseille","lat":43.31075,"lon":5.38353,"is_reserved":false,"is_disabled":false,"rental_uris":{"android":"levelo://app?vid=0a6a57e3-5612-489a-af92-dc78839cea9d","ios":"levelo://app?vid=0a6a57e3-5612-489a-af92-dc78839cea9d"},"vehicle_type_id":"4","last_reported":1728400146,"current_range_meters":10800,"station_id":"ce4bgv92rcd13ifvqcr0","pricing_plan_id":"cebpf4jnsgd1na2vs0mg"},{"bike_id":"e6d86d2f-929e-412d-b639-89761e6c74e0","system_id":"levelo_inurba_marseille","lat":43.337444,"lon":5.374475,"is_reserved":false,"is_disabled":false,"rental_uris":{"android":"levelo://app?vid=e6d86d2f-929e-412d-b639-89761e6c74e0","ios":"levelo://app?vid=e6d86d2f-929e-412d-b639-89761e6c74e0"},"vehicle_type_id":"4","last_reported":1728400146,"current_range_meters":30000,"station_id":"","pricing_plan_id":"cebpf4jnsgd1na2vs0mg"},{"bike_id":"9c19317f-37f8-43bd-a80d-9147ec468e03","system_id":"levelo_inurba_marseille","lat":43.31081,"lon":5.42427,"is_reserved":false,"is_disabled":false,"rental_uris":{"android":"levelo://app?vid=9c19317f-37f8-43bd-a80d-9147ec468e03","ios":"levelo://app?vid=9c19317f-37f8-43bd-a80d-9147ec468e03"},"vehicle_type_id":"4","last_reported":1728400146,"current_range_meters":18800,"station_id":"ce4bhp92rcd13ifvqhag","pricing_plan_id":"cebpf4jnsgd1na2vs0mg"},{"bike_id":"73c3871d-e0f6-4ebf-8e66-925205ecd650","system_id":"levelo_inurba_marseille","lat":43.31077,"lon":5.42428,"is_reserved":false,"is_disabled":false,"rental_uris":{"android":"levelo://app?vid=73c3871d-e0f6-4ebf-8e66-925205ecd650","ios":"levelo://app?vid=73c3871d-e0f6-4ebf-8e66-925205ecd650"},"vehicle_type_id":"4","last_reported":1728400146,"current_range_meters":12800,"station_id":"ce4bhp92rcd13ifvqhag","pricing_plan_id":"cebpf4jnsgd1na2vs0mg"},{"bike_id":"7a284141-427f-4b3a-b279-a9138bc649ca","system_id":"levelo_inurba_marseille","lat":43.33024,"lon":5.39041,"is_reserved":false,"is_disabled":false,"rental_uris":{"android":"levelo://app?vid=7a284141-427f-4b3a-b279-a9138bc649ca","ios":"levelo://app?vid=7a284141-427f-4b3a-b279-a9138bc649ca"},"vehicle_type_id":"4","last_reported":1728400146,"current_range_meters":37600,"station_id":"ce4bhr92rcd13ifvqhrg","pricing_plan_id":"cebpf4jnsgd1na2vs0mg"},{"bike_id":"c190b4a1-ea1d-47e2-b2e8-eefa3099f9cc","system_id":"levelo_inurba_marseille","lat":43.23193,"lon":5.35551,"is_reserved":false,"is_disabled":false,"rental_uris":{"android":"levelo://app?vid=c190b4a1-ea1d-47e2-b2e8-eefa3099f9cc","ios":"levelo://app?vid=c190b4a1-ea1d-47e2-b2e8-eefa3099f9cc"},"vehicle_type_id":"4","last_reported":1728400146,"current_range_meters":35600,"station_id":"ce4bhu92rcd13ifvqi70","pricing_plan_id":"cebpf4jnsgd1na2vs0mg"},{"bike_id":"ff5ba5ff-b9bc-44eb-9be7-e35bd733d917","system_id":"levelo_inurba_marseille","lat":43.24169,"lon":5.36396,"is_reserved":false,"is_disabled":false,"rental_uris":{"android":"levelo://app?vid=ff5ba5ff-b9bc-44eb-9be7-e35bd733d917","ios":"levelo://app?vid=ff5ba5ff-b9bc-44eb-9be7-e35bd733d917"},"vehicle_type_id":"4","last_reported":1728400146,"current_range_meters":36800,"station_id":"cpo36qri1sfpv3e86is0","pricing_plan_id":"cebpf4jnsgd1na2vs0mg"},{"bike_id":"2a75358c-c53d-4d85-b84f-ba43cbf3d3c3","system_id":"levelo_inurba_marseille","lat":43.337444,"lon":5.374475,"is_reserved":false,"is_disabled":false,"rental_uris":{"android":"levelo://app?vid=2a75358c-c53d-4d85-b84f-ba43cbf3d3c3","ios":"levelo://app?vid=2a75358c-c53d-4d85-b84f-ba43cbf3d3c3"},"vehicle_type_id":"4","last_reported":1728400146,"current_range_meters":36800,"station_id":"","pricing_plan_id":"cebpf4jnsgd1na2vs0mg"},{"bike_id":"e34aea39-8e32-47a6-93ea-372f4c874ec1","system_id":"levelo_inurba_marseille","lat":43.29783,"lon":5.37094,"is_reserved":false,"is_disabled":false,"rental_uris":{"android":"levelo://app?vid=e34aea39-8e32-47a6-93ea-372f4c874ec1","ios":"levelo://app?vid=e34aea39-8e32-47a6-93ea-372f4c874ec1"},"vehicle_type_id":"4","last_reported":1728400146,"current_range_meters":11200,"station_id":"ce4bgop2rcd13ifvqc1g","pricing_plan_id":"cebpf4jnsgd1na2vs0mg"},{"bike_id":"99a8e7ff-4a3d-4048-9f80-44deefe9da74","system_id":"levelo_inurba_marseille","lat":43.29906,"lon":5.38143,"is_reserved":false,"is_disabled":false,"rental_uris":{"android":"levelo://app?vid=99a8e7ff-4a3d-4048-9f80-44deefe9da74","ios":"levelo://app?vid=99a8e7ff-4a3d-4048-9f80-44deefe9da74"},"vehicle_type_id":"4","last_reported":1728400146,"current_range_meters":36800,"station_id":"ce4bgj12rcd13ifvqbc0","pricing_plan_id":"cebpf4jnsgd1na2vs0mg"},{"bike_id":"09fde8b3-0e31-4b28-9660-cacfbe32f240","system_id":"levelo_inurba_marseille","lat":43.260595,"lon":5.39385,"is_reserved":false,"is_disabled":false,"rental_uris":{"android":"levelo://app?vid=09fde8b3-0e31-4b28-9660-cacfbe32f240","ios":"levelo://app?vid=09fde8b3-0e31-4b28-9660-cacfbe32f240"},"vehicle_type_id":"4","last_reported":1728400146,"current_range_meters":3600,"station_id":"ce4bhh92rcd13ifvqfj0","pricing_plan_id":"cebpf4jnsgd1na2vs0mg"},{"bike_id":"18bb4a9b-ac85-4d4e-a814-8c1540ada739","system_id":"levelo_inurba_marseille","lat":43.308929,"lon":5.396623,"is_reserved":false,"is_disabled":false,"rental_uris":{"android":"levelo://app?vid=18bb4a9b-ac85-4d4e-a814-8c1540ada739","ios":"levelo://app?vid=18bb4a9b-ac85-4d4e-a814-8c1540ada739"},"vehicle_type_id":"4","last_reported":1728400146,"current_range_meters":8400,"station_id":"ce4bh012rcd13ifvqcv0","pricing_plan_id":"cebpf4jnsgd1na2vs0mg"},{"bike_id":"630e65f1-4f55-4dea-a570-1b05513c56eb","system_id":"levelo_inurba_marseille","lat":43.33021,"lon":5.39034,"is_reserved":false,"is_disabled":false,"rental_uris":{"android":"levelo://app?vid=630e65f1-4f55-4dea-a570-1b05513c56eb","ios":"levelo://app?vid=630e65f1-4f55-4dea-a570-1b05513c56eb"},"vehicle_type_id":"4","last_reported":1728400146,"current_range_meters":4000,"station_id":"ce4bhr92rcd13ifvqhrg","pricing_plan_id":"cebpf4jnsgd1na2vs0mg"},{"bike_id":"3c372c91-2c1d-4e56-8813-0b94655503a7","system_id":"levelo_inurba_marseille","lat":43.29981,"lon":5.37195,"is_reserved":false,"is_disabled":false,"rental_uris":{"android":"levelo://app?vid=3c372c91-2c1d-4e56-8813-0b94655503a7","ios":"levelo://app?vid=3c372c91-2c1d-4e56-8813-0b94655503a7"},"vehicle_type_id":"4","last_reported":1728400146,"current_range_meters":38800,"station_id":"ce4bgr92rcd13ifvqc7g","pricing_plan_id":"cebpf4jnsgd1na2vs0mg"},{"bike_id":"17a046b5-e62e-4203-96a3-083c190c2a34","system_id":"levelo_inurba_marseille","lat":43.27615,"lon":5.36097,"is_reserved":false,"is_disabled":false,"rental_uris":{"android":"levelo://app?vid=17a046b5-e62e-4203-96a3-083c190c2a34","ios":"levelo://app?vid=17a046b5-e62e-4203-96a3-083c190c2a34"},"vehicle_type_id":"4","last_reported":1728400146,"current_range_meters":2000,"station_id":"ce4bgj92rcd13ifvqbe0","pricing_plan_id":"cebpf4jnsgd1na2vs0mg"},{"bike_id":"e42026bc-1eaf-4ab0-8872-58fafaf9f081","system_id":"levelo_inurba_marseille","lat":43.27057,"lon":5.40257,"is_reserved":false,"is_disabled":false,"rental_uris":{"android":"levelo://app?vid=e42026bc-1eaf-4ab0-8872-58fafaf9f081","ios":"levelo://app?vid=e42026bc-1eaf-4ab0-8872-58fafaf9f081"},"vehicle_type_id":"4","last_reported":1728400146,"current_range_meters":32000,"station_id":"ce4bhk92rcd13ifvqgc0","pricing_plan_id":"cebpf4jnsgd1na2vs0mg"},{"bike_id":"35037166-b750-4404-b126-abdb2a4ef364","system_id":"levelo_inurba_marseille","lat":43.3107,"lon":5.38341,"is_reserved":false,"is_disabled":false,"rental_uris":{"android":"levelo://app?vid=35037166-b750-4404-b126-abdb2a4ef364","ios":"levelo://app?vid=35037166-b750-4404-b126-abdb2a4ef364"},"vehicle_type_id":"4","last_reported":1728400146,"current_range_meters":38800,"station_id":"ce4bgv92rcd13ifvqcr0","pricing_plan_id":"cebpf4jnsgd1na2vs0mg"},{"bike_id":"ad08fee9-d15a-48b1-8006-57739b9cbee2","system_id":"levelo_inurba_marseille","lat":43.29362,"lon":5.37851,"is_reserved":false,"is_disabled":false,"rental_uris":{"android":"levelo://app?vid=ad08fee9-d15a-48b1-8006-57739b9cbee2","ios":"levelo://app?vid=ad08fee9-d15a-48b1-8006-57739b9cbee2"},"vehicle_type_id":"4","last_reported":1728400146,"current_range_meters":6800,"station_id":"ce4bgjh2rcd13ifvqbf0","pricing_plan_id":"cebpf4jnsgd1na2vs0mg"},{"bike_id":"dafbe001-ebbb-4e98-b3d7-c871b5fc47e0","system_id":"levelo_inurba_marseille","lat":43.31358,"lon":5.36702,"is_reserved":false,"is_disabled":false,"rental_uris":{"android":"levelo://app?vid=dafbe001-ebbb-4e98-b3d7-c871b5fc47e0","ios":"levelo://app?vid=dafbe001-ebbb-4e98-b3d7-c871b5fc47e0"},"vehicle_type_id":"4","last_reported":1728400146,"current_range_meters":30000,"station_id":"ce4bgr92rcd13ifvqc6g","pricing_plan_id":"cebpf4jnsgd1na2vs0mg"},{"bike_id":"79f12c1b-c99b-408b-b988-55b5506dd72b","system_id":"levelo_inurba_marseille","lat":43.30327,"lon":5.4043,"is_reserved":false,"is_disabled":false,"rental_uris":{"android":"levelo://app?vid=79f12c1b-c99b-408b-b988-55b5506dd72b","ios":"levelo://app?vid=79f12c1b-c99b-408b-b988-55b5506dd72b"},"vehicle_type_id":"4","last_reported":1728400146,"current_range_meters":38000,"station_id":"ce4bh012rcd13ifvqd10","pricing_plan_id":"cebpf4jnsgd1na2vs0mg"},{"bike_id":"f25cebb0-0412-47dc-8099-c1a18e123a0b","system_id":"levelo_inurba_marseille","lat":43.24801,"lon":5.3745,"is_reserved":false,"is_disabled":false,"rental_uris":{"android":"levelo://app?vid=f25cebb0-0412-47dc-8099-c1a18e123a0b","ios":"levelo://app?vid=f25cebb0-0412-47dc-8099-c1a18e123a0b"},"vehicle_type_id":"4","last_reported":1728400146,"current_range_meters":38800,"station_id":"ce4bhgh2rcd13ifvqfb0","pricing_plan_id":"cebpf4jnsgd1na2vs0mg"},{"bike_id":"7835ccc4-dc46-4842-84a8-a5c2e837c5e6","system_id":"levelo_inurba_marseille","lat":43.26035,"lon":5.3755,"is_reserved":false,"is_disabled":false,"rental_uris":{"android":"levelo://app?vid=7835ccc4-dc46-4842-84a8-a5c2e837c5e6","ios":"levelo://app?vid=7835ccc4-dc46-4842-84a8-a5c2e837c5e6"},"vehicle_type_id":"4","last_reported":1728400146,"current_range_meters":38800,"station_id":"ce4bhgh2rcd13ifvqfa0","pricing_plan_id":"cebpf4jnsgd1na2vs0mg"},{"bike_id":"89323adc-67ad-479c-bd6d-b95120522de9","system_id":"levelo_inurba_marseille","lat":43.28724,"lon":5.36094,"is_reserved":false,"is_disabled":false,"rental_uris":{"android":"levelo://app?vid=89323adc-67ad-479c-bd6d-b95120522de9","ios":"levelo://app?vid=89323adc-67ad-479c-bd6d-b95120522de9"},"vehicle_type_id":"4","last_reported":1728400146,"current_range_meters":38800,"station_id":"cki0cbj6b192h4jlfktg","pricing_plan_id":"cebpf4jnsgd1na2vs0mg"},{"bike_id":"b625834a-54ef-4eab-8c9d-e8c85e149a97","system_id":"levelo_inurba_marseille","lat":43.31081,"lon":5.4243,"is_reserved":false,"is_disabled":false,"rental_uris":{"android":"levelo://app?vid=b625834a-54ef-4eab-8c9d-e8c85e149a97","ios":"levelo://app?vid=b625834a-54ef-4eab-8c9d-e8c85e149a97"},"vehicle_type_id":"4","last_reported":1728400146,"current_range_meters":36800,"station_id":"ce4bhp92rcd13ifvqhag","pricing_plan_id":"cebpf4jnsgd1na2vs0mg"},{"bike_id":"49d325f6-fe3f-4108-b875-cd89db441b1d","system_id":"levelo_inurba_marseille","lat":43.29264,"lon":5.38432,"is_reserved":false,"is_disabled":false,"rental_uris":{"android":"levelo://app?vid=49d325f6-fe3f-4108-b875-cd89db441b1d","ios":"levelo://app?vid=49d325f6-fe3f-4108-b875-cd89db441b1d"},"vehicle_type_id":"4","last_reported":1728400146,"current_range_meters":8000,"station_id":"ce4bh692rcd13ifvqea0","pricing_plan_id":"cebpf4jnsgd1na2vs0mg"},{"bike_id":"87cb76c2-0d61-4527-8d7b-4918ced68e7b","system_id":"levelo_inurba_marseille","lat":43.28303,"lon":5.35072,"is_reserved":false,"is_disabled":false,"rental_uris":{"android":"levelo://app?vid=87cb76c2-0d61-4527-8d7b-4918ced68e7b","ios":"levelo://app?vid=87cb76c2-0d61-4527-8d7b-4918ced68e7b"},"vehicle_type_id":"4","last_reported":1728400146,"current_range_meters":38400,"station_id":"ce4bhbp2rcd13ifvqerg","pricing_plan_id":"cebpf4jnsgd1na2vs0mg"},{"bike_id":"e6df806f-73e9-4404-b299-ef263b1182cb","system_id":"levelo_inurba_marseille","lat":43.271852,"lon":5.41,"is_reserved":false,"is_disabled":false,"rental_uris":{"android":"levelo://app?vid=e6df806f-73e9-4404-b299-ef263b1182cb","ios":"levelo://app?vid=e6df806f-73e9-4404-b299-ef263b1182cb"},"vehicle_type_id":"4","last_reported":1728400146,"current_range_meters":22000,"station_id":"ce4bhl12rcd13ifvqgf0","pricing_plan_id":"cebpf4jnsgd1na2vs0mg"},{"bike_id":"d4b41b5a-4cec-47fc-8b0f-4ee889ae7964","system_id":"levelo_inurba_marseille","lat":43.31225,"lon":5.36855,"is_reserved":false,"is_disabled":false,"rental_uris":{"android":"levelo://app?vid=d4b41b5a-4cec-47fc-8b0f-4ee889ae7964","ios":"levelo://app?vid=d4b41b5a-4cec-47fc-8b0f-4ee889ae7964"},"vehicle_type_id":"4","last_reported":1728400146,"current_range_meters":27600,"station_id":"ce4bgl92rcd13ifvqbq0","pricing_plan_id":"cebpf4jnsgd1na2vs0mg"},{"bike_id":"35f168b6-058e-4e94-83c4-29ffaa654fd7","system_id":"levelo_inurba_marseille","lat":43.2885,"lon":5.39314,"is_reserved":false,"is_disabled":false,"rental_uris":{"android":"levelo://app?vid=35f168b6-058e-4e94-83c4-29ffaa654fd7","ios":"levelo://app?vid=35f168b6-058e-4e94-83c4-29ffaa654fd7"},"vehicle_type_id":"4","last_reported":1728400146,"current_range_meters":8800,"station_id":"ce4bh2p2rcd13ifvqdi0","pricing_plan_id":"cebpf4jnsgd1na2vs0mg"},{"bike_id":"8b2ae2e2-bf8c-4445-8c58-4af37144e487","system_id":"levelo_inurba_marseille","lat":43.32483,"lon":5.3657,"is_reserved":false,"is_disabled":false,"rental_uris":{"android":"levelo://app?vid=8b2ae2e2-bf8c-4445-8c58-4af37144e487","ios":"levelo://app?vid=8b2ae2e2-bf8c-4445-8c58-4af37144e487"},"vehicle_type_id":"4","last_reported":1728400146,"current_range_meters":32000,"station_id":"ce4bhs12rcd13ifvqhvg","pricing_plan_id":"cebpf4jnsgd1na2vs0mg"},{"bike_id":"dba3291d-8a7e-40f3-bc79-e96bd785d53d","system_id":"levelo_inurba_marseille","lat":43.2467,"lon":5.38161,"is_reserved":false,"is_disabled":false,"rental_uris":{"android":"levelo://app?vid=dba3291d-8a7e-40f3-bc79-e96bd785d53d","ios":"levelo://app?vid=dba3291d-8a7e-40f3-bc79-e96bd785d53d"},"vehicle_type_id":"4","last_reported":1728400146,"current_range_meters":4800,"station_id":"ce4bhih2rcd13ifvqfr0","pricing_plan_id":"cebpf4jnsgd1na2vs0mg"},{"bike_id":"6f97f862-47be-483f-8288-172e8fcca8c8","system_id":"levelo_inurba_marseille","lat":43.30089,"lon":5.39074,"is_reserved":false,"is_disabled":false,"rental_uris":{"android":"levelo://app?vid=6f97f862-47be-483f-8288-172e8fcca8c8","ios":"levelo://app?vid=6f97f862-47be-483f-8288-172e8fcca8c8"},"vehicle_type_id":"4","last_reported":1728400146,"current_range_meters":6800,"station_id":"ce4bh192rcd13ifvqdb0","pricing_plan_id":"cebpf4jnsgd1na2vs0mg"},{"bike_id":"902fe183-f6e9-41b2-875e-5edd0bb8a046","system_id":"levelo_inurba_marseille","lat":43.296051,"lon":5.378004,"is_reserved":false,"is_disabled":false,"rental_uris":{"android":"levelo://app?vid=902fe183-f6e9-41b2-875e-5edd0bb8a046","ios":"levelo://app?vid=902fe183-f6e9-41b2-875e-5edd0bb8a046"},"vehicle_type_id":"4","last_reported":1728400146,"current_range_meters":17200,"station_id":"ce4bgi92rcd13ifvqb90","pricing_plan_id":"cebpf4jnsgd1na2vs0mg"},{"bike_id":"3598cf4d-18ce-468f-a2e9-1d2b5f70b86a","system_id":"levelo_inurba_marseille","lat":43.30319,"lon":5.40444,"is_reserved":false,"is_disabled":false,"rental_uris":{"android":"levelo://app?vid=3598cf4d-18ce-468f-a2e9-1d2b5f70b86a","ios":"levelo://app?vid=3598cf4d-18ce-468f-a2e9-1d2b5f70b86a"},"vehicle_type_id":"4","last_reported":1728400146,"current_range_meters":6800,"station_id":"ce4bh012rcd13ifvqd10","pricing_plan_id":"cebpf4jnsgd1na2vs0mg"},{"bike_id":"7441c84f-1c12-42ed-ba31-636a365d72de","system_id":"levelo_inurba_marseille","lat":43.24667,"lon":5.38153,"is_reserved":false,"is_disabled":false,"rental_uris":{"android":"levelo://app?vid=7441c84f-1c12-42ed-ba31-636a365d72de","ios":"levelo://app?vid=7441c84f-1c12-42ed-ba31-636a365d72de"},"vehicle_type_id":"4","last_reported":1728400146,"current_range_meters":36400,"station_id":"ce4bhih2rcd13ifvqfr0","pricing_plan_id":"cebpf4jnsgd1na2vs0mg"},{"bike_id":"894b8092-90ad-43ba-92d6-799d1b3569fb","system_id":"levelo_inurba_marseille","lat":43.25102,"lon":5.40321,"is_reserved":false,"is_disabled":false,"rental_uris":{"android":"levelo://app?vid=894b8092-90ad-43ba-92d6-799d1b3569fb","ios":"levelo://app?vid=894b8092-90ad-43ba-92d6-799d1b3569fb"},"vehicle_type_id":"4","last_reported":1728400146,"current_range_meters":36800,"station_id":"ce4bhlh2rcd13ifvqgig","pricing_plan_id":"cebpf4jnsgd1na2vs0mg"},{"bike_id":"b0942749-6256-487c-832b-3dc4426cafa6","system_id":"levelo_inurba_marseille","lat":43.24802,"lon":5.37452,"is_reserved":false,"is_disabled":false,"rental_uris":{"android":"levelo://app?vid=b0942749-6256-487c-832b-3dc4426cafa6","ios":"levelo://app?vid=b0942749-6256-487c-832b-3dc4426cafa6"},"vehicle_type_id":"4","last_reported":1728400146,"current_range_meters":28400,"station_id":"ce4bhgh2rcd13ifvqfb0","pricing_plan_id":"cebpf4jnsgd1na2vs0mg"},{"bike_id":"c43a52d5-cd4d-445f-b4eb-5287fc552ed9","system_id":"levelo_inurba_marseille","lat":43.29867,"lon":5.39731,"is_reserved":false,"is_disabled":false,"rental_uris":{"android":"levelo://app?vid=c43a52d5-cd4d-445f-b4eb-5287fc552ed9","ios":"levelo://app?vid=c43a52d5-cd4d-445f-b4eb-5287fc552ed9"},"vehicle_type_id":"4","last_reported":1728400146,"current_range_meters":38000,"station_id":"ce4bh0h2rcd13ifvqd50","pricing_plan_id":"cebpf4jnsgd1na2vs0mg"},{"bike_id":"b33fbfff-3f7d-433e-94fa-6be9c0f53aa7","system_id":"levelo_inurba_marseille","lat":43.2959,"lon":5.38092,"is_reserved":false,"is_disabled":false,"rental_uris":{"android":"levelo://app?vid=b33fbfff-3f7d-433e-94fa-6be9c0f53aa7","ios":"levelo://app?vid=b33fbfff-3f7d-433e-94fa-6be9c0f53aa7"},"vehicle_type_id":"4","last_reported":1728400146,"current_range_meters":19200,"station_id":"ce4bgl12rcd13ifvqbo0","pricing_plan_id":"cebpf4jnsgd1na2vs0mg"},{"bike_id":"a26a2f89-8ae6-4036-bc24-451fc5641138","system_id":"levelo_inurba_marseille","lat":43.24385,"lon":5.37056,"is_reserved":false,"is_disabled":false,"rental_uris":{"android":"levelo://app?vid=a26a2f89-8ae6-4036-bc24-451fc5641138","ios":"levelo://app?vid=a26a2f89-8ae6-4036-bc24-451fc5641138"},"vehicle_type_id":"4","last_reported":1728400146,"current_range_meters":36400,"station_id":"ce4bhhh2rcd13ifvqfk0","pricing_plan_id":"cebpf4jnsgd1na2vs0mg"},{"bike_id":"2083f097-243c-41ea-9044-9c0afdb06f17","system_id":"levelo_inurba_marseille","lat":43.29269,"lon":5.38442,"is_reserved":false,"is_disabled":false,"rental_uris":{"android":"levelo://app?vid=2083f097-243c-41ea-9044-9c0afdb06f17","ios":"levelo://app?vid=2083f097-243c-41ea-9044-9c0afdb06f17"},"vehicle_type_id":"4","last_reported":1728400146,"current_range_meters":14000,"station_id":"ce4bh692rcd13ifvqea0","pricing_plan_id":"cebpf4jnsgd1na2vs0mg"},{"bike_id":"36b356da-f1c1-405b-ad58-39452f371f9f","system_id":"levelo_inurba_marseille","lat":43.23055,"lon":5.35483,"is_reserved":false,"is_disabled":false,"rental_uris":{"android":"levelo://app?vid=36b356da-f1c1-405b-ad58-39452f371f9f","ios":"levelo://app?vid=36b356da-f1c1-405b-ad58-39452f371f9f"},"vehicle_type_id":"4","last_reported":1728400146,"current_range_meters":12400,"station_id":"cpo3342slgdg3j2ifvpg","pricing_plan_id":"cebpf4jnsgd1na2vs0mg"},{"bike_id":"75b980f6-c1d3-40cc-b626-31e744acf317","system_id":"levelo_inurba_marseille","lat":43.27057,"lon":5.40258,"is_reserved":false,"is_disabled":false,"rental_uris":{"android":"levelo://app?vid=75b980f6-c1d3-40cc-b626-31e744acf317","ios":"levelo://app?vid=75b980f6-c1d3-40cc-b626-31e744acf317"},"vehicle_type_id":"4","last_reported":1728400146,"current_range_meters":18000,"station_id":"ce4bhk92rcd13ifvqgc0","pricing_plan_id":"cebpf4jnsgd1na2vs0mg"},{"bike_id":"06bd33d4-1560-4625-a005-35f43a40ea5e","system_id":"levelo_inurba_marseille","lat":43.31331,"lon":5.39688,"is_reserved":false,"is_disabled":false,"rental_uris":{"android":"levelo://app?vid=06bd33d4-1560-4625-a005-35f43a40ea5e","ios":"levelo://app?vid=06bd33d4-1560-4625-a005-35f43a40ea5e"},"vehicle_type_id":"4","last_reported":1728400146,"current_range_meters":17600,"station_id":"ce4bgvp2rcd13ifvqcu0","pricing_plan_id":"cebpf4jnsgd1na2vs0mg"},{"bike_id":"9504bc44-1d77-48b2-b981-33517cc4959c","system_id":"levelo_inurba_marseille","lat":43.24666,"lon":5.38153,"is_reserved":false,"is_disabled":false,"rental_uris":{"android":"levelo://app?vid=9504bc44-1d77-48b2-b981-33517cc4959c","ios":"levelo://app?vid=9504bc44-1d77-48b2-b981-33517cc4959c"},"vehicle_type_id":"4","last_reported":1728400146,"current_range_meters":28800,"station_id":"ce4bhih2rcd13ifvqfr0","pricing_plan_id":"cebpf4jnsgd1na2vs0mg"},{"bike_id":"de4c382d-2da7-4eaf-bda7-ee3698d63b5c","system_id":"levelo_inurba_marseille","lat":43.31362,"lon":5.38491,"is_reserved":false,"is_disabled":false,"rental_uris":{"android":"levelo://app?vid=de4c382d-2da7-4eaf-bda7-ee3698d63b5c","ios":"levelo://app?vid=de4c382d-2da7-4eaf-bda7-ee3698d63b5c"},"vehicle_type_id":"4","last_reported":1728400146,"current_range_meters":14800,"station_id":"ce4bgt92rcd13ifvqcf0","pricing_plan_id":"cebpf4jnsgd1na2vs0mg"},{"bike_id":"96a362ae-3215-4c66-b7e3-b195c572e2eb","system_id":"levelo_inurba_marseille","lat":43.26803,"lon":5.40265,"is_reserved":false,"is_disabled":false,"rental_uris":{"android":"levelo://app?vid=96a362ae-3215-4c66-b7e3-b195c572e2eb","ios":"levelo://app?vid=96a362ae-3215-4c66-b7e3-b195c572e2eb"},"vehicle_type_id":"4","last_reported":1728400146,"current_range_meters":36400,"station_id":"ce501612rcd8frsf0b60","pricing_plan_id":"cebpf4jnsgd1na2vs0mg"},{"bike_id":"c67a0a92-d5d5-4ffb-aa5d-c2e2bc5b5e0e","system_id":"levelo_inurba_marseille","lat":43.24807,"lon":5.37456,"is_reserved":false,"is_disabled":false,"rental_uris":{"android":"levelo://app?vid=c67a0a92-d5d5-4ffb-aa5d-c2e2bc5b5e0e","ios":"levelo://app?vid=c67a0a92-d5d5-4ffb-aa5d-c2e2bc5b5e0e"},"vehicle_type_id":"4","last_reported":1728400146,"current_range_meters":32800,"station_id":"ce4bhgh2rcd13ifvqfb0","pricing_plan_id":"cebpf4jnsgd1na2vs0mg"},{"bike_id":"30c98ae5-37a1-4761-a3fe-aaa74659fb8c","system_id":"levelo_inurba_marseille","lat":43.31074,"lon":5.38353,"is_reserved":false,"is_disabled":false,"rental_uris":{"android":"levelo://app?vid=30c98ae5-37a1-4761-a3fe-aaa74659fb8c","ios":"levelo://app?vid=30c98ae5-37a1-4761-a3fe-aaa74659fb8c"},"vehicle_type_id":"4","last_reported":1728400146,"current_range_meters":12000,"station_id":"ce4bhr12rcd13ifvqhqg","pricing_plan_id":"cebpf4jnsgd1na2vs0mg"},{"bike_id":"fbab334e-6568-46ac-88f7-b856d9d2d598","system_id":"levelo_inurba_marseille","lat":43.2319,"lon":5.3555,"is_reserved":false,"is_disabled":false,"rental_uris":{"android":"levelo://app?vid=fbab334e-6568-46ac-88f7-b856d9d2d598","ios":"levelo://app?vid=fbab334e-6568-46ac-88f7-b856d9d2d598"},"vehicle_type_id":"4","last_reported":1728400146,"current_range_meters":38800,"station_id":"ce4bhu92rcd13ifvqi70","pricing_plan_id":"cebpf4jnsgd1na2vs0mg"},{"bike_id":"354148a2-1ab4-416e-aab9-82dccb2c5389","system_id":"levelo_inurba_marseille","lat":43.295532,"lon":5.382917,"is_reserved":false,"is_disabled":false,"rental_uris":{"android":"levelo://app?vid=354148a2-1ab4-416e-aab9-82dccb2c5389","ios":"levelo://app?vid=354148a2-1ab4-416e-aab9-82dccb2c5389"},"vehicle_type_id":"4","last_reported":1728400146,"current_range_meters":28000,"station_id":"ce4bh312rcd13ifvqdk0","pricing_plan_id":"cebpf4jnsgd1na2vs0mg"},{"bike_id":"32006b6a-d004-47aa-9d47-81eab9eb94ed","system_id":"levelo_inurba_marseille","lat":43.29225,"lon":5.36052,"is_reserved":false,"is_disabled":false,"rental_uris":{"android":"levelo://app?vid=32006b6a-d004-47aa-9d47-81eab9eb94ed","ios":"levelo://app?vid=32006b6a-d004-47aa-9d47-81eab9eb94ed"},"vehicle_type_id":"4","last_reported":1728400146,"current_range_meters":30000,"station_id":"ce4bhbh2rcd13ifvqeqg","pricing_plan_id":"cebpf4jnsgd1na2vs0mg"},{"bike_id":"4db60aca-25a8-4e9e-9fbc-fe37f0842421","system_id":"levelo_inurba_marseille","lat":43.30531,"lon":5.36692,"is_reserved":false,"is_disabled":false,"rental_uris":{"android":"levelo://app?vid=4db60aca-25a8-4e9e-9fbc-fe37f0842421","ios":"levelo://app?vid=4db60aca-25a8-4e9e-9fbc-fe37f0842421"},"vehicle_type_id":"4","last_reported":1728400146,"current_range_meters":38800,"station_id":"ce4bgrp2rcd13ifvqc9g","pricing_plan_id":"cebpf4jnsgd1na2vs0mg"},{"bike_id":"abeac63c-3582-4c2f-bb63-def1b17e1206","system_id":"levelo_inurba_marseille","lat":43.29573,"lon":5.37512,"is_reserved":false,"is_disabled":false,"rental_uris":{"android":"levelo://app?vid=abeac63c-3582-4c2f-bb63-def1b17e1206","ios":"levelo://app?vid=abeac63c-3582-4c2f-bb63-def1b17e1206"},"vehicle_type_id":"4","last_reported":1728400146,"current_range_meters":30800,"station_id":"ce4bgh92rcd13ifvqb50","pricing_plan_id":"cebpf4jnsgd1na2vs0mg"},{"bike_id":"71f71f90-7b97-4e69-b4db-c2d197f1b6d8","system_id":"levelo_inurba_marseille","lat":43.28073,"lon":5.39656,"is_reserved":false,"is_disabled":false,"rental_uris":{"android":"levelo://app?vid=71f71f90-7b97-4e69-b4db-c2d197f1b6d8","ios":"levelo://app?vid=71f71f90-7b97-4e69-b4db-c2d197f1b6d8"},"vehicle_type_id":"4","last_reported":1728400146,"current_range_meters":19200,"station_id":"ce4bho12rcd13ifvqh2g","pricing_plan_id":"cebpf4jnsgd1na2vs0mg"},{"bike_id":"591bc896-d6f9-40d8-8835-ef2d8b63cd87","system_id":"levelo_inurba_marseille","lat":43.27909,"lon":5.3801,"is_reserved":false,"is_disabled":false,"rental_uris":{"android":"levelo://app?vid=591bc896-d6f9-40d8-8835-ef2d8b63cd87","ios":"levelo://app?vid=591bc896-d6f9-40d8-8835-ef2d8b63cd87"},"vehicle_type_id":"4","last_reported":1728400146,"current_range_meters":30000,"station_id":"ce4bhf92rcd13ifvqf50","pricing_plan_id":"cebpf4jnsgd1na2vs0mg"},{"bike_id":"0b776cd0-fc89-4a39-b4ba-e3877c52496d","system_id":"levelo_inurba_marseille","lat":43.30353,"lon":5.41876,"is_reserved":false,"is_disabled":false,"rental_uris":{"android":"levelo://app?vid=0b776cd0-fc89-4a39-b4ba-e3877c52496d","ios":"levelo://app?vid=0b776cd0-fc89-4a39-b4ba-e3877c52496d"},"vehicle_type_id":"4","last_reported":1728400146,"current_range_meters":39200,"station_id":"ce4bhop2rcd13ifvqh7g","pricing_plan_id":"cebpf4jnsgd1na2vs0mg"},{"bike_id":"fc168227-fa30-4223-897b-2bee06a8f0ad","system_id":"levelo_inurba_marseille","lat":43.30638,"lon":5.40087,"is_reserved":false,"is_disabled":false,"rental_uris":{"android":"levelo://app?vid=fc168227-fa30-4223-897b-2bee06a8f0ad","ios":"levelo://app?vid=fc168227-fa30-4223-897b-2bee06a8f0ad"},"vehicle_type_id":"4","last_reported":1728400146,"current_range_meters":39200,"station_id":"ce4bh112rcd13ifvqda0","pricing_plan_id":"cebpf4jnsgd1na2vs0mg"},{"bike_id":"ac63b881-53ef-4e4b-b5e6-9f4914bcf168","system_id":"levelo_inurba_marseille","lat":43.23057,"lon":5.35491,"is_reserved":false,"is_disabled":false,"rental_uris":{"android":"levelo://app?vid=ac63b881-53ef-4e4b-b5e6-9f4914bcf168","ios":"levelo://app?vid=ac63b881-53ef-4e4b-b5e6-9f4914bcf168"},"vehicle_type_id":"4","last_reported":1728400146,"current_range_meters":30000,"station_id":"cpo3342slgdg3j2ifvpg","pricing_plan_id":"cebpf4jnsgd1na2vs0mg"},{"bike_id":"78200431-8035-44f0-90ee-25d01c5be4bd","system_id":"levelo_inurba_marseille","lat":43.30418,"lon":5.41287,"is_reserved":false,"is_disabled":false,"rental_uris":{"android":"levelo://app?vid=78200431-8035-44f0-90ee-25d01c5be4bd","ios":"levelo://app?vid=78200431-8035-44f0-90ee-25d01c5be4bd"},"vehicle_type_id":"4","last_reported":1728400146,"current_range_meters":15200,"station_id":"ce4bhop2rcd13ifvqh8g","pricing_plan_id":"cebpf4jnsgd1na2vs0mg"},{"bike_id":"bfca5f58-54cc-434e-a15a-4f5cdee1e609","system_id":"levelo_inurba_marseille","lat":43.31234,"lon":5.36853,"is_reserved":false,"is_disabled":false,"rental_uris":{"android":"levelo://app?vid=bfca5f58-54cc-434e-a15a-4f5cdee1e609","ios":"levelo://app?vid=bfca5f58-54cc-434e-a15a-4f5cdee1e609"},"vehicle_type_id":"4","last_reported":1728400146,"current_range_meters":18800,"station_id":"ce4bgl92rcd13ifvqbq0","pricing_plan_id":"cebpf4jnsgd1na2vs0mg"},{"bike_id":"a185443f-1207-408b-8c72-393a999c91bf","system_id":"levelo_inurba_marseille","lat":43.23963,"lon":5.36636,"is_reserved":false,"is_disabled":false,"rental_uris":{"android":"levelo://app?vid=a185443f-1207-408b-8c72-393a999c91bf","ios":"levelo://app?vid=a185443f-1207-408b-8c72-393a999c91bf"},"vehicle_type_id":"4","last_reported":1728400146,"current_range_meters":22800,"station_id":"ce4bhi12rcd13ifvqfp0","pricing_plan_id":"cebpf4jnsgd1na2vs0mg"},{"bike_id":"3234222c-50d1-4610-b069-7eb9eada14ea","system_id":"levelo_inurba_marseille","lat":43.31359,"lon":5.3669,"is_reserved":false,"is_disabled":false,"rental_uris":{"android":"levelo://app?vid=3234222c-50d1-4610-b069-7eb9eada14ea","ios":"levelo://app?vid=3234222c-50d1-4610-b069-7eb9eada14ea"},"vehicle_type_id":"4","last_reported":1728400146,"current_range_meters":26000,"station_id":"ce4bgr92rcd13ifvqc6g","pricing_plan_id":"cebpf4jnsgd1na2vs0mg"},{"bike_id":"d3521246-ce27-4970-aa90-d08bd68d51ef","system_id":"levelo_inurba_marseille","lat":43.27912,"lon":5.39579,"is_reserved":false,"is_disabled":false,"rental_uris":{"android":"levelo://app?vid=d3521246-ce27-4970-aa90-d08bd68d51ef","ios":"levelo://app?vid=d3521246-ce27-4970-aa90-d08bd68d51ef"},"vehicle_type_id":"4","last_reported":1728400146,"current_range_meters":15200,"station_id":"ce4bhf92rcd13ifvqf40","pricing_plan_id":"cebpf4jnsgd1na2vs0mg"},{"bike_id":"f4fee2e1-fc79-474d-8c83-d16bae73772c","system_id":"levelo_inurba_marseille","lat":43.305343,"lon":5.367359,"is_reserved":false,"is_disabled":false,"rental_uris":{"android":"levelo://app?vid=f4fee2e1-fc79-474d-8c83-d16bae73772c","ios":"levelo://app?vid=f4fee2e1-fc79-474d-8c83-d16bae73772c"},"vehicle_type_id":"4","last_reported":1728400146,"current_range_meters":22400,"station_id":"ce4bgrp2rcd13ifvqc9g","pricing_plan_id":"cebpf4jnsgd1na2vs0mg"},{"bike_id":"c1364c46-255d-4a4d-ad8e-c96df616d3c2","system_id":"levelo_inurba_marseille","lat":43.24661,"lon":5.38164,"is_reserved":false,"is_disabled":false,"rental_uris":{"android":"levelo://app?vid=c1364c46-255d-4a4d-ad8e-c96df616d3c2","ios":"levelo://app?vid=c1364c46-255d-4a4d-ad8e-c96df616d3c2"},"vehicle_type_id":"4","last_reported":1728400146,"current_range_meters":38400,"station_id":"ce4bhih2rcd13ifvqfr0","pricing_plan_id":"cebpf4jnsgd1na2vs0mg"},{"bike_id":"ee3f614b-373b-449c-a58d-35e47f5eafd2","system_id":"levelo_inurba_marseille","lat":43.23194,"lon":5.35549,"is_reserved":false,"is_disabled":false,"rental_uris":{"android":"levelo://app?vid=ee3f614b-373b-449c-a58d-35e47f5eafd2","ios":"levelo://app?vid=ee3f614b-373b-449c-a58d-35e47f5eafd2"},"vehicle_type_id":"4","last_reported":1728400146,"current_range_meters":7200,"station_id":"ce4bhu92rcd13ifvqi70","pricing_plan_id":"cebpf4jnsgd1na2vs0mg"},{"bike_id":"ddf7a9aa-9bae-4147-a822-4b3bdaa76885","system_id":"levelo_inurba_marseille","lat":43.31115,"lon":5.37782,"is_reserved":false,"is_disabled":false,"rental_uris":{"android":"levelo://app?vid=ddf7a9aa-9bae-4147-a822-4b3bdaa76885","ios":"levelo://app?vid=ddf7a9aa-9bae-4147-a822-4b3bdaa76885"},"vehicle_type_id":"4","last_reported":1728400146,"current_range_meters":6000,"station_id":"ce4bgt92rcd13ifvqcg0","pricing_plan_id":"cebpf4jnsgd1na2vs0mg"},{"bike_id":"9e3fe2e1-eca8-4201-b615-2eaf2b4dc3f2","system_id":"levelo_inurba_marseille","lat":43.23196,"lon":5.35552,"is_reserved":false,"is_disabled":false,"rental_uris":{"android":"levelo://app?vid=9e3fe2e1-eca8-4201-b615-2eaf2b4dc3f2","ios":"levelo://app?vid=9e3fe2e1-eca8-4201-b615-2eaf2b4dc3f2"},"vehicle_type_id":"4","last_reported":1728400146,"current_range_meters":37600,"station_id":"ce4bhu92rcd13ifvqi70","pricing_plan_id":"cebpf4jnsgd1na2vs0mg"},{"bike_id":"5ed0dd18-6119-4573-9b97-340f2cfebce0","system_id":"levelo_inurba_marseille","lat":43.3055,"lon":5.36698,"is_reserved":false,"is_disabled":false,"rental_uris":{"android":"levelo://app?vid=5ed0dd18-6119-4573-9b97-340f2cfebce0","ios":"levelo://app?vid=5ed0dd18-6119-4573-9b97-340f2cfebce0"},"vehicle_type_id":"4","last_reported":1728400146,"current_range_meters":36000,"station_id":"ce4bgrp2rcd13ifvqc9g","pricing_plan_id":"cebpf4jnsgd1na2vs0mg"},{"bike_id":"b5ecda2e-df83-4afc-b297-0f50a1bf10c3","system_id":"levelo_inurba_marseille","lat":43.24385,"lon":5.37055,"is_reserved":false,"is_disabled":false,"rental_uris":{"android":"levelo://app?vid=b5ecda2e-df83-4afc-b297-0f50a1bf10c3","ios":"levelo://app?vid=b5ecda2e-df83-4afc-b297-0f50a1bf10c3"},"vehicle_type_id":"4","last_reported":1728400146,"current_range_meters":26000,"station_id":"ce4bhhh2rcd13ifvqfk0","pricing_plan_id":"cebpf4jnsgd1na2vs0mg"},{"bike_id":"a62e60d5-76e9-4d97-8bc0-b9f335121f55","system_id":"levelo_inurba_marseille","lat":43.31716,"lon":5.42389,"is_reserved":false,"is_disabled":false,"rental_uris":{"android":"levelo://app?vid=a62e60d5-76e9-4d97-8bc0-b9f335121f55","ios":"levelo://app?vid=a62e60d5-76e9-4d97-8bc0-b9f335121f55"},"vehicle_type_id":"4","last_reported":1728400146,"current_range_meters":11200,"station_id":"ce4bhp92rcd13ifvqhbg","pricing_plan_id":"cebpf4jnsgd1na2vs0mg"},{"bike_id":"a13c2d53-88ac-427c-9fc4-66917699615c","system_id":"levelo_inurba_marseille","lat":43.28409,"lon":5.38549,"is_reserved":false,"is_disabled":false,"rental_uris":{"android":"levelo://app?vid=a13c2d53-88ac-427c-9fc4-66917699615c","ios":"levelo://app?vid=a13c2d53-88ac-427c-9fc4-66917699615c"},"vehicle_type_id":"4","last_reported":1728400146,"current_range_meters":6800,"station_id":"","pricing_plan_id":"cebpf4jnsgd1na2vs0mg"},{"bike_id":"ee22a545-0a6f-4b82-96fa-cc88f7d0eb3d","system_id":"levelo_inurba_marseille","lat":43.29875,"lon":5.38904,"is_reserved":false,"is_disabled":false,"rental_uris":{"android":"levelo://app?vid=ee22a545-0a6f-4b82-96fa-cc88f7d0eb3d","ios":"levelo://app?vid=ee22a545-0a6f-4b82-96fa-cc88f7d0eb3d"},"vehicle_type_id":"4","last_reported":1728400146,"current_range_meters":33600,"station_id":"ce4bh392rcd13ifvqdl0","pricing_plan_id":"cebpf4jnsgd1na2vs0mg"},{"bike_id":"93b78575-5f08-42a0-a2c7-6d59ed48484a","system_id":"levelo_inurba_marseille","lat":43.29229,"lon":5.36067,"is_reserved":false,"is_disabled":false,"rental_uris":{"android":"levelo://app?vid=93b78575-5f08-42a0-a2c7-6d59ed48484a","ios":"levelo://app?vid=93b78575-5f08-42a0-a2c7-6d59ed48484a"},"vehicle_type_id":"4","last_reported":1728400146,"current_range_meters":28000,"station_id":"ce4bhbh2rcd13ifvqeqg","pricing_plan_id":"cebpf4jnsgd1na2vs0mg"},{"bike_id":"166789fa-2b03-47eb-aa5f-eb28fa348e0c","system_id":"levelo_inurba_marseille","lat":43.31675,"lon":5.3775,"is_reserved":false,"is_disabled":false,"rental_uris":{"android":"levelo://app?vid=166789fa-2b03-47eb-aa5f-eb28fa348e0c","ios":"levelo://app?vid=166789fa-2b03-47eb-aa5f-eb28fa348e0c"},"vehicle_type_id":"4","last_reported":1728400146,"current_range_meters":13600,"station_id":"ce4bgth2rcd13ifvqch0","pricing_plan_id":"cebpf4jnsgd1na2vs0mg"},{"bike_id":"b6daf9fc-781d-4722-a66b-97423a9e143f","system_id":"levelo_inurba_marseille","lat":43.26934,"lon":5.40244,"is_reserved":false,"is_disabled":false,"rental_uris":{"android":"levelo://app?vid=b6daf9fc-781d-4722-a66b-97423a9e143f","ios":"levelo://app?vid=b6daf9fc-781d-4722-a66b-97423a9e143f"},"vehicle_type_id":"4","last_reported":1728400146,"current_range_meters":36800,"station_id":"cjm6bp8fraef2m0cb0m0","pricing_plan_id":"cebpf4jnsgd1na2vs0mg"},{"bike_id":"4552a146-c9b7-4cae-ae0f-d674570d6500","system_id":"levelo_inurba_marseille","lat":43.33024,"lon":5.39036,"is_reserved":false,"is_disabled":false,"rental_uris":{"android":"levelo://app?vid=4552a146-c9b7-4cae-ae0f-d674570d6500","ios":"levelo://app?vid=4552a146-c9b7-4cae-ae0f-d674570d6500"},"vehicle_type_id":"4","last_reported":1728400146,"current_range_meters":11200,"station_id":"ce4bhr92rcd13ifvqhrg","pricing_plan_id":"cebpf4jnsgd1na2vs0mg"},{"bike_id":"bd9f54ab-c385-4e76-a472-770ce9a44bbc","system_id":"levelo_inurba_marseille","lat":43.31494,"lon":5.3731,"is_reserved":false,"is_disabled":false,"rental_uris":{"android":"levelo://app?vid=bd9f54ab-c385-4e76-a472-770ce9a44bbc","ios":"levelo://app?vid=bd9f54ab-c385-4e76-a472-770ce9a44bbc"},"vehicle_type_id":"4","last_reported":1728400146,"current_range_meters":37600,"station_id":"ce4bgs12rcd13ifvqcag","pricing_plan_id":"cebpf4jnsgd1na2vs0mg"},{"bike_id":"1dea810f-0827-4d99-b886-112e40858d41","system_id":"levelo_inurba_marseille","lat":43.304199,"lon":5.41309,"is_reserved":false,"is_disabled":false,"rental_uris":{"android":"levelo://app?vid=1dea810f-0827-4d99-b886-112e40858d41","ios":"levelo://app?vid=1dea810f-0827-4d99-b886-112e40858d41"},"vehicle_type_id":"4","last_reported":1728400146,"current_range_meters":33600,"station_id":"ce4bhop2rcd13ifvqh8g","pricing_plan_id":"cebpf4jnsgd1na2vs0mg"},{"bike_id":"7e28b154-6585-4493-ae66-fb26ab31d4ae","system_id":"levelo_inurba_marseille","lat":43.30322,"lon":5.40433,"is_reserved":false,"is_disabled":false,"rental_uris":{"android":"levelo://app?vid=7e28b154-6585-4493-ae66-fb26ab31d4ae","ios":"levelo://app?vid=7e28b154-6585-4493-ae66-fb26ab31d4ae"},"vehicle_type_id":"4","last_reported":1728400146,"current_range_meters":30800,"station_id":"ce4bgkp2rcd13ifvqbmg","pricing_plan_id":"cebpf4jnsgd1na2vs0mg"},{"bike_id":"8b10cb9f-15d9-4eb9-a18e-896430cdcbda","system_id":"levelo_inurba_marseille","lat":43.32032,"lon":5.40823,"is_reserved":false,"is_disabled":false,"rental_uris":{"android":"levelo://app?vid=8b10cb9f-15d9-4eb9-a18e-896430cdcbda","ios":"levelo://app?vid=8b10cb9f-15d9-4eb9-a18e-896430cdcbda"},"vehicle_type_id":"4","last_reported":1728400146,"current_range_meters":28400,"station_id":"ce4bhq92rcd13ifvqhjg","pricing_plan_id":"cebpf4jnsgd1na2vs0mg"},{"bike_id":"d8a12b73-43ce-4687-910a-87766cd222e6","system_id":"levelo_inurba_marseille","lat":43.24805,"lon":5.37455,"is_reserved":false,"is_disabled":false,"rental_uris":{"android":"levelo://app?vid=d8a12b73-43ce-4687-910a-87766cd222e6","ios":"levelo://app?vid=d8a12b73-43ce-4687-910a-87766cd222e6"},"vehicle_type_id":"4","last_reported":1728400146,"current_range_meters":24400,"station_id":"ce4bhgh2rcd13ifvqfb0","pricing_plan_id":"cebpf4jnsgd1na2vs0mg"},{"bike_id":"4089e08a-657c-4d30-a0d3-e00a813050ba","system_id":"levelo_inurba_marseille","lat":43.30884,"lon":5.39632,"is_reserved":false,"is_disabled":false,"rental_uris":{"android":"levelo://app?vid=4089e08a-657c-4d30-a0d3-e00a813050ba","ios":"levelo://app?vid=4089e08a-657c-4d30-a0d3-e00a813050ba"},"vehicle_type_id":"4","last_reported":1728400146,"current_range_meters":32400,"station_id":"ce4bh012rcd13ifvqcv0","pricing_plan_id":"cebpf4jnsgd1na2vs0mg"},{"bike_id":"7ac0e9d7-7b8d-4380-8817-c39ce47921a2","system_id":"levelo_inurba_marseille","lat":43.24661,"lon":5.38166,"is_reserved":false,"is_disabled":false,"rental_uris":{"android":"levelo://app?vid=7ac0e9d7-7b8d-4380-8817-c39ce47921a2","ios":"levelo://app?vid=7ac0e9d7-7b8d-4380-8817-c39ce47921a2"},"vehicle_type_id":"4","last_reported":1728400146,"current_range_meters":7200,"station_id":"ce4bhih2rcd13ifvqfr0","pricing_plan_id":"cebpf4jnsgd1na2vs0mg"},{"bike_id":"d497689f-9055-4c78-841d-43bd6f571c48","system_id":"levelo_inurba_marseille","lat":43.276164,"lon":5.361122,"is_reserved":false,"is_disabled":false,"rental_uris":{"android":"levelo://app?vid=d497689f-9055-4c78-841d-43bd6f571c48","ios":"levelo://app?vid=d497689f-9055-4c78-841d-43bd6f571c48"},"vehicle_type_id":"4","last_reported":1728400146,"current_range_meters":34000,"station_id":"ce4bgj92rcd13ifvqbe0","pricing_plan_id":"cebpf4jnsgd1na2vs0mg"},{"bike_id":"3941451e-1951-45d2-af76-7fa1cdd615b3","system_id":"levelo_inurba_marseille","lat":43.31085,"lon":5.42429,"is_reserved":false,"is_disabled":false,"rental_uris":{"android":"levelo://app?vid=3941451e-1951-45d2-af76-7fa1cdd615b3","ios":"levelo://app?vid=3941451e-1951-45d2-af76-7fa1cdd615b3"},"vehicle_type_id":"4","last_reported":1728400146,"current_range_meters":39200,"station_id":"ce4bhp92rcd13ifvqhag","pricing_plan_id":"cebpf4jnsgd1na2vs0mg"},{"bike_id":"e306bbc1-2ef1-48fe-b0b5-35917c2ffc98","system_id":"levelo_inurba_marseille","lat":43.31077,"lon":5.42429,"is_reserved":false,"is_disabled":false,"rental_uris":{"android":"levelo://app?vid=e306bbc1-2ef1-48fe-b0b5-35917c2ffc98","ios":"levelo://app?vid=e306bbc1-2ef1-48fe-b0b5-35917c2ffc98"},"vehicle_type_id":"4","last_reported":1728400146,"current_range_meters":36000,"station_id":"ce4bhp92rcd13ifvqhag","pricing_plan_id":"cebpf4jnsgd1na2vs0mg"},{"bike_id":"1027f6bf-9b3c-41af-9f81-0c58d1959e85","system_id":"levelo_inurba_marseille","lat":43.28612,"lon":5.35098,"is_reserved":false,"is_disabled":false,"rental_uris":{"android":"levelo://app?vid=1027f6bf-9b3c-41af-9f81-0c58d1959e85","ios":"levelo://app?vid=1027f6bf-9b3c-41af-9f81-0c58d1959e85"},"vehicle_type_id":"4","last_reported":1728400146,"current_range_meters":25600,"station_id":"ce4bhch2rcd13ifvqeug","pricing_plan_id":"cebpf4jnsgd1na2vs0mg"},{"bike_id":"b6fac5f4-1b4e-4c67-adf4-7c8e5d250ba8","system_id":"levelo_inurba_marseille","lat":43.28101,"lon":5.37832,"is_reserved":false,"is_disabled":false,"rental_uris":{"android":"levelo://app?vid=b6fac5f4-1b4e-4c67-adf4-7c8e5d250ba8","ios":"levelo://app?vid=b6fac5f4-1b4e-4c67-adf4-7c8e5d250ba8"},"vehicle_type_id":"4","last_reported":1728400146,"current_range_meters":38800,"station_id":"ce4bha12rcd13ifvqee0","pricing_plan_id":"cebpf4jnsgd1na2vs0mg"},{"bike_id":"76ea45b3-bfe9-411a-8737-ad1d7d999b7c","system_id":"levelo_inurba_marseille","lat":43.3055,"lon":5.36525,"is_reserved":false,"is_disabled":false,"rental_uris":{"android":"levelo://app?vid=76ea45b3-bfe9-411a-8737-ad1d7d999b7c","ios":"levelo://app?vid=76ea45b3-bfe9-411a-8737-ad1d7d999b7c"},"vehicle_type_id":"4","last_reported":1728400146,"current_range_meters":38800,"station_id":"ce4bgs12rcd13ifvqcag","pricing_plan_id":"cebpf4jnsgd1na2vs0mg"},{"bike_id":"4a7f32a5-45f9-4e4f-8b14-ad0c04f2fc35","system_id":"levelo_inurba_marseille","lat":43.25489,"lon":5.37649,"is_reserved":false,"is_disabled":false,"rental_uris":{"android":"levelo://app?vid=4a7f32a5-45f9-4e4f-8b14-ad0c04f2fc35","ios":"levelo://app?vid=4a7f32a5-45f9-4e4f-8b14-ad0c04f2fc35"},"vehicle_type_id":"4","last_reported":1728400146,"current_range_meters":10000,"station_id":"ce4bhh12rcd13ifvqff0","pricing_plan_id":"cebpf4jnsgd1na2vs0mg"},{"bike_id":"8e704d59-fe54-4d6d-bcc9-3044ce764b7f","system_id":"levelo_inurba_marseille","lat":43.31225,"lon":5.36855,"is_reserved":false,"is_disabled":false,"rental_uris":{"android":"levelo://app?vid=8e704d59-fe54-4d6d-bcc9-3044ce764b7f","ios":"levelo://app?vid=8e704d59-fe54-4d6d-bcc9-3044ce764b7f"},"vehicle_type_id":"4","last_reported":1728400146,"current_range_meters":24000,"station_id":"ce4bgl92rcd13ifvqbq0","pricing_plan_id":"cebpf4jnsgd1na2vs0mg"},{"bike_id":"54dc07f4-f44c-4646-a4c5-16cff81d162f","system_id":"levelo_inurba_marseille","lat":43.27567,"lon":5.39971,"is_reserved":false,"is_disabled":false,"rental_uris":{"android":"levelo://app?vid=54dc07f4-f44c-4646-a4c5-16cff81d162f","ios":"levelo://app?vid=54dc07f4-f44c-4646-a4c5-16cff81d162f"},"vehicle_type_id":"4","last_reported":1728400146,"current_range_meters":9600,"station_id":"","pricing_plan_id":"cebpf4jnsgd1na2vs0mg"},{"bike_id":"5d98e0b3-1c48-4bce-8ffe-0e2c2ea088a0","system_id":"levelo_inurba_marseille","lat":43.23054,"lon":5.35491,"is_reserved":false,"is_disabled":false,"rental_uris":{"android":"levelo://app?vid=5d98e0b3-1c48-4bce-8ffe-0e2c2ea088a0","ios":"levelo://app?vid=5d98e0b3-1c48-4bce-8ffe-0e2c2ea088a0"},"vehicle_type_id":"4","last_reported":1728400146,"current_range_meters":30400,"station_id":"cpo3342slgdg3j2ifvpg","pricing_plan_id":"cebpf4jnsgd1na2vs0mg"},{"bike_id":"edd5e180-0c26-43e7-b12a-39db2d1aa26f","system_id":"levelo_inurba_marseille","lat":43.31071,"lon":5.38341,"is_reserved":false,"is_disabled":false,"rental_uris":{"android":"levelo://app?vid=edd5e180-0c26-43e7-b12a-39db2d1aa26f","ios":"levelo://app?vid=edd5e180-0c26-43e7-b12a-39db2d1aa26f"},"vehicle_type_id":"4","last_reported":1728400146,"current_range_meters":36800,"station_id":"ce4bgv92rcd13ifvqcr0","pricing_plan_id":"cebpf4jnsgd1na2vs0mg"},{"bike_id":"1fe94854-bca7-4628-a77d-34cdb2a062d3","system_id":"levelo_inurba_marseille","lat":43.33024,"lon":5.39036,"is_reserved":false,"is_disabled":false,"rental_uris":{"android":"levelo://app?vid=1fe94854-bca7-4628-a77d-34cdb2a062d3","ios":"levelo://app?vid=1fe94854-bca7-4628-a77d-34cdb2a062d3"},"vehicle_type_id":"4","last_reported":1728400146,"current_range_meters":26800,"station_id":"ce4bhr92rcd13ifvqhrg","pricing_plan_id":"cebpf4jnsgd1na2vs0mg"},{"bike_id":"dc94ebbd-595e-4482-9f6f-04ffc5ece997","system_id":"levelo_inurba_marseille","lat":43.2927,"lon":5.38431,"is_reserved":false,"is_disabled":false,"rental_uris":{"android":"levelo://app?vid=dc94ebbd-595e-4482-9f6f-04ffc5ece997","ios":"levelo://app?vid=dc94ebbd-595e-4482-9f6f-04ffc5ece997"},"vehicle_type_id":"4","last_reported":1728400146,"current_range_meters":24400,"station_id":"ce4bh692rcd13ifvqea0","pricing_plan_id":"cebpf4jnsgd1na2vs0mg"},{"bike_id":"5850c62a-6540-4308-83bc-bb717d77a7c7","system_id":"levelo_inurba_marseille","lat":43.31995,"lon":5.38153,"is_reserved":false,"is_disabled":false,"rental_uris":{"android":"levelo://app?vid=5850c62a-6540-4308-83bc-bb717d77a7c7","ios":"levelo://app?vid=5850c62a-6540-4308-83bc-bb717d77a7c7"},"vehicle_type_id":"4","last_reported":1728400146,"current_range_meters":38800,"station_id":"ce4bhr12rcd13ifvqhpg","pricing_plan_id":"cebpf4jnsgd1na2vs0mg"},