{"last_updated":1751919143,"ttl":60,"version":"2.2","data":{"bikes":[{"bike_id":"3da29fb8-fc97-44c6-b9ac-31dd456b2fd4","system_id":"levelo_inurba_marseille","lat":43.33771,"lon":5.37424,"is_reserved":false,"is_disabled":true,"rental_uris":{"android":"levelo://app?vid=3da29fb8-fc97-44c6-b9ac-31dd456b2fd4","ios":"levelo://app?vid=3da29fb8-fc97-44c6-b9ac-31dd456b2fd4"},"vehicle_type_id":"4","last_reported":1751919143,"current_range_meters":0,"station_id":"","pricing_plan_id":"cebpf4jnsgd1na2vs0mg"},{"bike_id":"01861ad8-a8d7-4be6-816e-651927c87584","system_id":"levelo_inurba_marseille","lat":43.33751,"lon":5.37456,"is_reserved":false,"is_disabled":true,"rental_uris":{"android":"levelo://app?vid=01861ad8-a8d7-4be6-816e-651927c87584","ios":"levelo://app?vid=01861ad8-a8d7-4be6-816e-651927c87584"},"vehicle_type_id":"4","last_reported":1751919143,"current_range_meters":0,"station_id":"","pricing_plan_id":"cebpf4jnsgd1na2vs0mg"},{"bike_id":"95c194a9-5cae-4867-bc56-f8781828dc70","system_id":"levelo_inurba_marseille","lat":43.337444,"lon":5.374475,"is_reserved":false,"is_disabled":true,"rental_uris":{"android":"levelo://app?vid=95c194a9-5cae-4867-bc56-f8781828dc70","ios":"levelo://app?vid=95c194a9-5cae-4867-bc56-f8781828dc70"},"vehicle_type_id":"4","last_reported":1751919143,"current_range_meters":0,"station_id":"","pricing_plan_id":"cebpf4jnsgd1na2vs0mg"},{"bike_id":"f0a19a9e-f150-4c1e-bcc6-db3195370cac","system_id":"levelo_inurba_marseille","lat":43.32659,"lon":5.43049,"is_reserved":false,"is_disabled":true,"rental_uris":{"android":"levelo://app?vid=f0a19a9e-f150-4c1e-bcc6-db3195370cac","ios":"levelo://app?vid=f0a19a9e-f150-4c1e-bcc6-db3195370cac"},"vehicle_type_id":"4","last_reported":1751919143,"current_range_meters":0,"station_id":"","pricing_plan_id":"cebpf4jnsgd1na2vs0mg"},{"bike_id":"36fc43ff-930e-421b-9c9a-ac8fb9d1625b","system_id":"levelo_inurba_marseille","lat":43.29225,"lon":5.40558,"is_reserved":false,"is_disabled":true,"rental_uris":{"android":"levelo://app?vid=36fc43ff-930e-421b-9c9a-ac8fb9d1625b","ios":"levelo://app?vid=36fc43ff-930e-421b-9c9a-ac8fb9d1625b"},"vehicle_type_id":"4","last_reported":1751919143,"current_range_meters":0,"station_id":"","pricing_plan_id":"cebpf4jnsgd1na2vs0mg"},{"bike_id":"d79e8abb-d125-455b-83da-57d8b54a8b79","system_id":"levelo_inurba_marseille","lat":43.29528,"lon":5.38538,"is_reserved":false,"is_disabled":true,"rental_uris":{"android":"levelo://app?vid=d79e8abb-d125-455b-83da-57d8b54a8b79","ios":"levelo://app?vid=d79e8abb-d125-455b-83da-57d8b54a8b79"},"vehicle_type_id":"4","last_reported":1751919143,"current_range_meters":0,"station_id":"ce4bgih2rcd13ifvqba0","pricing_plan_id":"cebpf4jnsgd1na2vs0mg"},{"bike_id":"d1357d96-4a36-4c0e-ba97-d9f6deea1d7a","system_id":"levelo_inurba_marseille","lat":43.29421,"lon":5.38623,"is_reserved":false,"is_disabled":true,"rental_uris":{"android":"levelo://app?vid=d1357d96-4a36-4c0e-ba97-d9f6deea1d7a","ios":"levelo://app?vid=d1357d96-4a36-4c0e-ba97-d9f6deea1d7a"},"vehicle_type_id":"4","last_reported":1751919143,"current_range_meters":0,"station_id":"ce4bh2h2rcd13ifvqdh0","pricing_plan_id":"cebpf4jnsgd1na2vs0mg"},{"bike_id":"c584ffaf-40ec-4dff-a972-a593acb2e762","system_id":"levelo_inurba_marseille","lat":43.287075,"lon":5.373891,"is_reserved":false,"is_disabled":true,"rental_uris":{"android":"levelo://app?vid=c584ffaf-40ec-4dff-a972-a593acb2e762","ios":"levelo://app?vid=c584ffaf-40ec-4dff-a972-a593acb2e762"},"vehicle_type_id":"4","last_reported":1751919143,"current_range_meters":0,"station_id":"ce4bh3p2rcd13ifvqdq0","pricing_plan_id":"cebpf4jnsgd1na2vs0mg"},{"bike_id":"532d9743-c4a4-4845-bbb9-89f96a118f01","system_id":"levelo_inurba_marseille","lat":43.28422,"lon":5.3498,"is_reserved":false,"is_disabled":true,"rental_uris":{"android":"levelo://app?vid=532d9743-c4a4-4845-bbb9-89f96a118f01","ios":"levelo://app?vid=532d9743-c4a4-4845-bbb9-89f96a118f01"},"vehicle_type_id":"4","last_reported":1751919143,"current_range_meters":0,"station_id":"ce4bhbh2rcd13ifvqepg","pricing_plan_id":"cebpf4jnsgd1na2vs0mg"},{"bike_id":"8fb40566-9000-438d-8e69-7135a988d87f","system_id":"levelo_inurba_marseille","lat":43.25826,"lon":5.39434,"is_reserved":false,"is_disabled":true,"rental_uris":{"android":"levelo://app?vid=8fb40566-9000-438d-8e69-7135a988d87f","ios":"levelo://app?vid=8fb40566-9000-438d-8e69-7135a988d87f"},"vehicle_type_id":"4","last_reported":1751919143,"current_range_meters":0,"station_id":"ce4bhip2rcd13ifvqft0","pricing_plan_id":"cebpf4jnsgd1na2vs0mg"},{"bike_id":"15f74229-234f-42fe-a5d4-557c90639fe5","system_id":"levelo_inurba_marseille","lat":43.27791,"lon":5.40717,"is_reserved":false,"is_disabled":true,"rental_uris":{"android":"levelo://app?vid=15f74229-234f-42fe-a5d4-557c90639fe5","ios":"levelo://app?vid=15f74229-234f-42fe-a5d4-557c90639fe5"},"vehicle_type_id":"4","last_reported":1751919143,"current_range_meters":0,"station_id":"ce4bhnh2rcd13ifvqgtg","pricing_plan_id":"cebpf4jnsgd1na2vs0mg"},{"bike_id":"ae860f45-ccf6-4775-83ed-c41100c2e9c8","system_id":"levelo_inurba_marseille","lat":43.322988,"lon":5.406585,"is_reserved":false,"is_disabled":true,"rental_uris":{"android":"levelo://app?vid=ae860f45-ccf6-4775-83ed-c41100c2e9c8","ios":"levelo://app?vid=ae860f45-ccf6-4775-83ed-c41100c2e9c8"},"vehicle_type_id":"4","last_reported":1751919143,"current_range_meters":0,"station_id":"ce4bhq92rcd13ifvqhjg","pricing_plan_id":"cebpf4jnsgd1na2vs0mg"},{"bike_id":"3d508917-55ee-42b6-894b-89c2a444dc06","system_id":"levelo_inurba_marseille","lat":43.22502,"lon":5.34776,"is_reserved":false,"is_disabled":true,"rental_uris":{"android":"levelo://app?vid=3d508917-55ee-42b6-894b-89c2a444dc06","ios":"levelo://app?vid=3d508917-55ee-42b6-894b-89c2a444dc06"},"vehicle_type_id":"4","last_reported":1751919143,"current_range_meters":0,"station_id":"st_cvj5dfep6f1abm77gieg","pricing_plan_id":"cebpf4jnsgd1na2vs0mg"},{"bike_id":"e86ba8c9-208d-482c-a826-4c100938472a","system_id":"levelo_inurba_marseille","lat":43.211932,"lon":5.350673,"is_reserved":false,"is_disabled":true,"rental_uris":{"android":"levelo://app?vid=e86ba8c9-208d-482c-a826-4c100938472a","ios":"levelo://app?vid=e86ba8c9-208d-482c-a826-4c100938472a"},"vehicle_type_id":"4","last_reported":1751919143,"current_range_meters":0,"station_id":"st_cvj6sg6p6f1abm77japg","pricing_plan_id":"cebpf4jnsgd1na2vs0mg"},{"bike_id":"f3c15154-125b-4999-befc-0be83b0db2b9","system_id":"levelo_inurba_marseille","lat":43.30128,"lon":5.39866,"is_reserved":false,"is_disabled":true,"rental_uris":{"android":"levelo://app?vid=f3c15154-125b-4999-befc-0be83b0db2b9","ios":"levelo://app?vid=f3c15154-125b-4999-befc-0be83b0db2b9"},"vehicle_type_id":"4","last_reported":1751919143,"current_range_meters":800,"station_id":"ce4bh0h2rcd13ifvqd40","pricing_plan_id":"cebpf4jnsgd1na2vs0mg"},{"bike_id":"c32a44ab-b078-4729-9be5-e0735978229d","system_id":"levelo_inurba_marseille","lat":43.2119,"lon":5.35073,"is_reserved":false,"is_disabled":true,"rental_uris":{"android":"levelo://app?vid=c32a44ab-b078-4729-9be5-e0735978229d","ios":"levelo://app?vid=c32a44ab-b078-4729-9be5-e0735978229d"},"vehicle_type_id":"4","last_reported":1751919143,"current_range_meters":1200,"station_id":"st_cvj6sg6p6f1abm77japg","pricing_plan_id":"cebpf4jnsgd1na2vs0mg"},{"bike_id":"9d87a95b-f51c-4a1d-891e-45dc7a3b737e","system_id":"levelo_inurba_marseille","lat":43.26469,"lon":5.39571,"is_reserved":false,"is_disabled":true,"rental_uris":{"android":"levelo://app?vid=9d87a95b-f51c-4a1d-891e-45dc7a3b737e","ios":"levelo://app?vid=9d87a95b-f51c-4a1d-891e-45dc7a3b737e"},"vehicle_type_id":"4","last_reported":1751919143,"current_range_meters":1600,"station_id":"ce4bhi12rcd13ifvqfq0","pricing_plan_id":"cebpf4jnsgd1na2vs0mg"},{"bike_id":"ed6f4d31-e9ac-4a19-b000-be70672eafd9","system_id":"levelo_inurba_marseille","lat":43.3092,"lon":5.40153,"is_reserved":false,"is_disabled":true,"rental_uris":{"android":"levelo://app?vid=ed6f4d31-e9ac-4a19-b000-be70672eafd9","ios":"levelo://app?vid=ed6f4d31-e9ac-4a19-b000-be70672eafd9"},"vehicle_type_id":"4","last_reported":1751919143,"current_range_meters":2000,"station_id":"ce4bgvp2rcd13ifvqct0","pricing_plan_id":"cebpf4jnsgd1na2vs0mg"},{"bike_id":"8a909369-7c03-4063-9d64-8f6f576e1005","system_id":"levelo_inurba_marseille","lat":43.291006,"lon":5.381554,"is_reserved":false,"is_disabled":false,"rental_uris":{"android":"levelo://app?vid=8a909369-7c03-4063-9d64-8f6f576e1005","ios":"levelo://app?vid=8a909369-7c03-4063-9d64-8f6f576e1005"},"vehicle_type_id":"4","last_reported":1751919143,"current_range_meters":2800,"station_id":"ce4bh512rcd13ifvqe2g","pricing_plan_id":"cebpf4jnsgd1na2vs0mg"},{"bike_id":"46afdbe9-0c40-4e44-b39b-ca1c64d54453","system_id":"levelo_inurba_marseille","lat":43.30933,"lon":5.40146,"is_reserved":false,"is_disabled":false,"rental_uris":{"android":"levelo://app?vid=46afdbe9-0c40-4e44-b39b-ca1c64d54453","ios":"levelo://app?vid=46afdbe9-0c40-4e44-b39b-ca1c64d54453"},"vehicle_type_id":"4","last_reported":1751919143,"current_range_meters":3200,"station_id":"ce4bgvp2rcd13ifvqct0","pricing_plan_id":"cebpf4jnsgd1na2vs0mg"},{"bike_id":"7c406b35-b21f-4515-a710-96f738eec70d","system_id":"levelo_inurba_marseille","lat":43.264084,"lon":5.373582,"is_reserved":false,"is_disabled":false,"rental_uris":{"android":"levelo://app?vid=7c406b35-b21f-4515-a710-96f738eec70d","ios":"levelo://app?vid=7c406b35-b21f-4515-a710-96f738eec70d"},"vehicle_type_id":"4","last_reported":1751919143,"current_range_meters":3600,"station_id":"","pricing_plan_id":"cebpf4jnsgd1na2vs0mg"},{"bike_id":"86c92dc1-b4da-49d9-acb8-ba390f939865","system_id":"levelo_inurba_marseille","lat":43.33038,"lon":5.39239,"is_reserved":false,"is_disabled":false,"rental_uris":{"android":"levelo://app?vid=86c92dc1-b4da-49d9-acb8-ba390f939865","ios":"levelo://app?vid=86c92dc1-b4da-49d9-acb8-ba390f939865"},"vehicle_type_id":"4","last_reported":1751919143,"current_range_meters":4000,"station_id":"","pricing_plan_id":"cebpf4jnsgd1na2vs0mg"},{"bike_id":"4f4101ca-7cde-4ea1-ae90-822a5894155e","system_id":"levelo_inurba_marseille","lat":43.30904,"lon":5.36858,"is_reserved":false,"is_disabled":false,"rental_uris":{"android":"levelo://app?vid=4f4101ca-7cde-4ea1-ae90-822a5894155e","ios":"levelo://app?vid=4f4101ca-7cde-4ea1-ae90-822a5894155e"},"vehicle_type_id":"4","last_reported":1751919143,"current_range_meters":4000,"station_id":"ce4bgn92rcd13ifvqbvg","pricing_plan_id":"cebpf4jnsgd1na2vs0mg"},{"bike_id":"51b80871-88ba-4e5e-b6d7-61a3bbdd9b74","system_id":"levelo_inurba_marseille","lat":43.296842,"lon":5.372978,"is_reserved":false,"is_disabled":false,"rental_uris":{"android":"levelo://app?vid=51b80871-88ba-4e5e-b6d7-61a3bbdd9b74","ios":"levelo://app?vid=51b80871-88ba-4e5e-b6d7-61a3bbdd9b74"},"vehicle_type_id":"4","last_reported":1751919143,"current_range_meters":4400,"station_id":"ce4bgk12rcd13ifvqbj0","pricing_plan_id":"cebpf4jnsgd1na2vs0mg"},{"bike_id":"873da614-7b4e-4a2f-b96d-3804666d5372","system_id":"levelo_inurba_marseille","lat":43.2998,"lon":5.37183,"is_reserved":false,"is_disabled":false,"rental_uris":{"android":"levelo://app?vid=873da614-7b4e-4a2f-b96d-3804666d5372","ios":"levelo://app?vid=873da614-7b4e-4a2f-b96d-3804666d5372"},"vehicle_type_id":"4","last_reported":1751919143,"current_range_meters":4400,"station_id":"ce4bgr92rcd13ifvqc7g","pricing_plan_id":"cebpf4jnsgd1na2vs0mg"},{"bike_id":"ba8afbb9-343d-45ec-897e-d7e0a9d7a188","system_id":"levelo_inurba_marseille","lat":43.29636,"lon":5.40598,"is_reserved":false,"is_disabled":false,"rental_uris":{"android":"levelo://app?vid=ba8afbb9-343d-45ec-897e-d7e0a9d7a188","ios":"levelo://app?vid=ba8afbb9-343d-45ec-897e-d7e0a9d7a188"},"vehicle_type_id":"4","last_reported":1751919143,"current_range_meters":4400,"station_id":"ce4bh0h2rcd13ifvqd60","pricing_plan_id":"cebpf4jnsgd1na2vs0mg"},{"bike_id":"a38e69e3-a80f-4b4e-ba21-87616bbb3839","system_id":"levelo_inurba_marseille","lat":43.30134,"lon":5.39867,"is_reserved":false,"is_disabled":false,"rental_uris":{"android":"levelo://app?vid=a38e69e3-a80f-4b4e-ba21-87616bbb3839","ios":"levelo://app?vid=a38e69e3-a80f-4b4e-ba21-87616bbb3839"},"vehicle_type_id":"4","last_reported":1751919143,"current_range_meters":5600,"station_id":"ce4bh0h2rcd13ifvqd40","pricing_plan_id":"cebpf4jnsgd1na2vs0mg"},{"bike_id":"ac2880bd-2cdc-4596-9dbf-3f395c595487","system_id":"levelo_inurba_marseille","lat":43.28492,"lon":5.38415,"is_reserved":false,"is_disabled":false,"rental_uris":{"android":"levelo://app?vid=ac2880bd-2cdc-4596-9dbf-3f395c595487","ios":"levelo://app?vid=ac2880bd-2cdc-4596-9dbf-3f395c595487"},"vehicle_type_id":"4","last_reported":1751919143,"current_range_meters":5600,"station_id":"ce4bh512rcd13ifvqe3g","pricing_plan_id":"cebpf4jnsgd1na2vs0mg"},{"bike_id":"4016d973-b8a1-4328-97cb-669433c6d2b0","system_id":"levelo_inurba_marseille","lat":43.27071,"lon":5.42277,"is_reserved":false,"is_disabled":false,"rental_uris":{"android":"levelo://app?vid=4016d973-b8a1-4328-97cb-669433c6d2b0","ios":"levelo://app?vid=4016d973-b8a1-4328-97cb-669433c6d2b0"},"vehicle_type_id":"4","last_reported":1751919143,"current_range_meters":5600,"station_id":"ce4bhk92rcd13ifvqgb0","pricing_plan_id":"cebpf4jnsgd1na2vs0mg"},{"bike_id":"ed290504-6948-4f69-8584-2e2b0286febf","system_id":"levelo_inurba_marseille","lat":43.21179,"lon":5.35077,"is_reserved":false,"is_disabled":false,"rental_uris":{"android":"levelo://app?vid=ed290504-6948-4f69-8584-2e2b0286febf","ios":"levelo://app?vid=ed290504-6948-4f69-8584-2e2b0286febf"},"vehicle_type_id":"4","last_reported":1751919143,"current_range_meters":5600,"station_id":"st_cvj6sg6p6f1abm77japg","pricing_plan_id":"cebpf4jnsgd1na2vs0mg"},{"bike_id":"8155f9cd-97cb-4f1e-b64b-bc5aebf6ffc2","system_id":"levelo_inurba_marseille","lat":43.29414,"lon":5.38622,"is_reserved":false,"is_disabled":false,"rental_uris":{"android":"levelo://app?vid=8155f9cd-97cb-4f1e-b64b-bc5aebf6ffc2","ios":"levelo://app?vid=8155f9cd-97cb-4f1e-b64b-bc5aebf6ffc2"},"vehicle_type_id":"4","last_reported":1751919143,"current_range_meters":6000,"station_id":"ce4bh2h2rcd13ifvqdh0","pricing_plan_id":"cebpf4jnsgd1na2vs0mg"},{"bike_id":"cc9485f8-5355-4835-b3e8-0a96b0d6537d","system_id":"levelo_inurba_marseille","lat":43.25499,"lon":5.37648,"is_reserved":false,"is_disabled":false,"rental_uris":{"android":"levelo://app?vid=cc9485f8-5355-4835-b3e8-0a96b0d6537d","ios":"levelo://app?vid=cc9485f8-5355-4835-b3e8-0a96b0d6537d"},"vehicle_type_id":"4","last_reported":1751919143,"current_range_meters":6000,"station_id":"ce4bhh12rcd13ifvqff0","pricing_plan_id":"cebpf4jnsgd1na2vs0mg"},{"bike_id":"d33712a3-be4d-47e8-ba80-2a15e2db7377","system_id":"levelo_inurba_marseille","lat":43.28002,"lon":5.41666,"is_reserved":false,"is_disabled":false,"rental_uris":{"android":"levelo://app?vid=d33712a3-be4d-47e8-ba80-2a15e2db7377","ios":"levelo://app?vid=d33712a3-be4d-47e8-ba80-2a15e2db7377"},"vehicle_type_id":"4","last_reported":1751919143,"current_range_meters":6000,"station_id":"ce4bho12rcd13ifvqh1g","pricing_plan_id":"cebpf4jnsgd1na2vs0mg"},{"bike_id":"ebc91ff9-d68a-4a27-aa92-6a6196df5214","system_id":"levelo_inurba_marseille","lat":43.29031,"lon":5.38649,"is_reserved":false,"is_disabled":false,"rental_uris":{"android":"levelo://app?vid=ebc91ff9-d68a-4a27-aa92-6a6196df5214","ios":"levelo://app?vid=ebc91ff9-d68a-4a27-aa92-6a6196df5214"},"vehicle_type_id":"4","last_reported":1751919143,"current_range_meters":6400,"station_id":"ce4bh4p2rcd13ifvqe0g","pricing_plan_id":"cebpf4jnsgd1na2vs0mg"},{"bike_id":"a7753154-ad7f-4eb5-b7b3-df27edf18a53","system_id":"levelo_inurba_marseille","lat":43.22511,"lon":5.34773,"is_reserved":false,"is_disabled":false,"rental_uris":{"android":"levelo://app?vid=a7753154-ad7f-4eb5-b7b3-df27edf18a53","ios":"levelo://app?vid=a7753154-ad7f-4eb5-b7b3-df27edf18a53"},"vehicle_type_id":"4","last_reported":1751919143,"current_range_meters":6400,"station_id":"st_cvj5dfep6f1abm77gieg","pricing_plan_id":"cebpf4jnsgd1na2vs0mg"},{"bike_id":"bf08700d-8eb9-4589-abbe-3f25df6f6272","system_id":"levelo_inurba_marseille","lat":43.29535,"lon":5.3855,"is_reserved":false,"is_disabled":false,"rental_uris":{"android":"levelo://app?vid=bf08700d-8eb9-4589-abbe-3f25df6f6272","ios":"levelo://app?vid=bf08700d-8eb9-4589-abbe-3f25df6f6272"},"vehicle_type_id":"4","last_reported":1751919143,"current_range_meters":6800,"station_id":"ce4bgih2rcd13ifvqba0","pricing_plan_id":"cebpf4jnsgd1na2vs0mg"},{"bike_id":"2a644680-a682-4a1f-8cbd-3d0fb57685b4","system_id":"levelo_inurba_marseille","lat":43.21743,"lon":5.34598,"is_reserved":false,"is_disabled":false,"rental_uris":{"android":"levelo://app?vid=2a644680-a682-4a1f-8cbd-3d0fb57685b4","ios":"levelo://app?vid=2a644680-a682-4a1f-8cbd-3d0fb57685b4"},"vehicle_type_id":"4","last_reported":1751919143,"current_range_meters":6800,"station_id":"st_cvj6r9ubvosntc0bgbag","pricing_plan_id":"cebpf4jnsgd1na2vs0mg"},{"bike_id":"4df166d1-9bb1-4398-8cc9-8724a1c69172","system_id":"levelo_inurba_marseille","lat":43.28255,"lon":5.39161,"is_reserved":false,"is_disabled":false,"rental_uris":{"android":"levelo://app?vid=4df166d1-9bb1-4398-8cc9-8724a1c69172","ios":"levelo://app?vid=4df166d1-9bb1-4398-8cc9-8724a1c69172"},"vehicle_type_id":"4","last_reported":1751919143,"current_range_meters":7200,"station_id":"","pricing_plan_id":"cebpf4jnsgd1na2vs0mg"},{"bike_id":"bd1874bf-e30a-482e-a165-63d599b3ee06","system_id":"levelo_inurba_marseille","lat":43.31489,"lon":5.39756,"is_reserved":false,"is_disabled":false,"rental_uris":{"android":"levelo://app?vid=bd1874bf-e30a-482e-a165-63d599b3ee06","ios":"levelo://app?vid=bd1874bf-e30a-482e-a165-63d599b3ee06"},"vehicle_type_id":"4","last_reported":1751919143,"current_range_meters":7200,"station_id":"","pricing_plan_id":"cebpf4jnsgd1na2vs0mg"},{"bike_id":"85ede508-d9e6-4191-8e97-1b9929e6b05e","system_id":"levelo_inurba_marseille","lat":43.299599,"lon":5.385063,"is_reserved":false,"is_disabled":false,"rental_uris":{"android":"levelo://app?vid=85ede508-d9e6-4191-8e97-1b9929e6b05e","ios":"levelo://app?vid=85ede508-d9e6-4191-8e97-1b9929e6b05e"},"vehicle_type_id":"4","last_reported":1751919143,"current_range_meters":8000,"station_id":"ce4bgj92rcd13ifvqbd0","pricing_plan_id":"cebpf4jnsgd1na2vs0mg"},{"bike_id":"f63ae57f-5c69-46e0-b934-bc4e8e5ebb2a","system_id":"levelo_inurba_marseille","lat":43.28004,"lon":5.40014,"is_reserved":false,"is_disabled":false,"rental_uris":{"android":"levelo://app?vid=f63ae57f-5c69-46e0-b934-bc4e8e5ebb2a","ios":"levelo://app?vid=f63ae57f-5c69-46e0-b934-bc4e8e5ebb2a"},"vehicle_type_id":"4","last_reported":1751919143,"current_range_meters":8000,"station_id":"ce4bho92rcd13ifvqh4g","pricing_plan_id":"cebpf4jnsgd1na2vs0mg"},{"bike_id":"53cf5b2c-5067-4c9b-ac74-c3d14fa49a49","system_id":"levelo_inurba_marseille","lat":43.31371,"lon":5.38502,"is_reserved":false,"is_disabled":false,"rental_uris":{"android":"levelo://app?vid=53cf5b2c-5067-4c9b-ac74-c3d14fa49a49","ios":"levelo://app?vid=53cf5b2c-5067-4c9b-ac74-c3d14fa49a49"},"vehicle_type_id":"4","last_reported":1751919143,"current_range_meters":8400,"station_id":"ce4bgt92rcd13ifvqcf0","pricing_plan_id":"cebpf4jnsgd1na2vs0mg"},{"bike_id":"eded7ae2-3035-42aa-91bf-0a5203a63872","system_id":"levelo_inurba_marseille","lat":43.3021,"lon":5.39466,"is_reserved":false,"is_disabled":false,"rental_uris":{"android":"levelo://app?vid=eded7ae2-3035-42aa-91bf-0a5203a63872","ios":"levelo://app?vid=eded7ae2-3035-42aa-91bf-0a5203a63872"},"vehicle_type_id":"4","last_reported":1751919143,"current_range_meters":8400,"station_id":"ce4bh0p2rcd13ifvqd70","pricing_plan_id":"cebpf4jnsgd1na2vs0mg"},{"bike_id":"8488af10-92d7-41f0-8176-aa446bff0859","system_id":"levelo_inurba_marseille","lat":43.28457,"lon":5.35877,"is_reserved":false,"is_disabled":false,"rental_uris":{"android":"levelo://app?vid=8488af10-92d7-41f0-8176-aa446bff0859","ios":"levelo://app?vid=8488af10-92d7-41f0-8176-aa446bff0859"},"vehicle_type_id":"4","last_reported":1751919143,"current_range_meters":8400,"station_id":"ce4bhah2rcd13ifvqei0","pricing_plan_id":"cebpf4jnsgd1na2vs0mg"},{"bike_id":"e5ae00f1-8985-40c3-95c9-ada56325188d","system_id":"levelo_inurba_marseille","lat":43.25493,"lon":5.37652,"is_reserved":false,"is_disabled":false,"rental_uris":{"android":"levelo://app?vid=e5ae00f1-8985-40c3-95c9-ada56325188d","ios":"levelo://app?vid=e5ae00f1-8985-40c3-95c9-ada56325188d"},"vehicle_type_id":"4","last_reported":1751919143,"current_range_meters":8400,"station_id":"ce4bhh12rcd13ifvqff0","pricing_plan_id":"cebpf4jnsgd1na2vs0mg"},{"bike_id":"cfa9c844-14f8-4788-aaa2-7becd175bf6b","system_id":"levelo_inurba_marseille","lat":43.25086,"lon":5.39523,"is_reserved":false,"is_disabled":false,"rental_uris":{"android":"levelo://app?vid=cfa9c844-14f8-4788-aaa2-7becd175bf6b","ios":"levelo://app?vid=cfa9c844-14f8-4788-aaa2-7becd175bf6b"},"vehicle_type_id":"4","last_reported":1751919143,"current_range_meters":8400,"station_id":"ce4bhm12rcd13ifvqgkg","pricing_plan_id":"cebpf4jnsgd1na2vs0mg"},{"bike_id":"82104062-e880-4757-9235-1fb2291d7860","system_id":"levelo_inurba_marseille","lat":43.30311,"lon":5.36908,"is_reserved":false,"is_disabled":false,"rental_uris":{"android":"levelo://app?vid=82104062-e880-4757-9235-1fb2291d7860","ios":"levelo://app?vid=82104062-e880-4757-9235-1fb2291d7860"},"vehicle_type_id":"4","last_reported":1751919143,"current_range_meters":8800,"station_id":"ce4bgqh2rcd13ifvqc5g","pricing_plan_id":"cebpf4jnsgd1na2vs0mg"},{"bike_id":"ee51778d-f6d3-4b11-984a-639260351a63","system_id":"levelo_inurba_marseille","lat":43.29263,"lon":5.38446,"is_reserved":false,"is_disabled":false,"rental_uris":{"android":"levelo://app?vid=ee51778d-f6d3-4b11-984a-639260351a63","ios":"levelo://app?vid=ee51778d-f6d3-4b11-984a-639260351a63"},"vehicle_type_id":"4","last_reported":1751919143,"current_range_meters":8800,"station_id":"ce4bh692rcd13ifvqea0","pricing_plan_id":"cebpf4jnsgd1na2vs0mg"},{"bike_id":"98f46642-8fdc-43be-8379-a5bf33d8441b","system_id":"levelo_inurba_marseille","lat":43.21193,"lon":5.35064,"is_reserved":false,"is_disabled":false,"rental_uris":{"android":"levelo://app?vid=98f46642-8fdc-43be-8379-a5bf33d8441b","ios":"levelo://app?vid=98f46642-8fdc-43be-8379-a5bf33d8441b"},"vehicle_type_id":"4","last_reported":1751919143,"current_range_meters":8800,"station_id":"st_cvj6sg6p6f1abm77japg","pricing_plan_id":"cebpf4jnsgd1na2vs0mg"},{"bike_id":"7b527f00-f6ea-4963-b59d-8da04a2feedb","system_id":"levelo_inurba_marseille","lat":43.32087,"lon":5.40071,"is_reserved":false,"is_disabled":false,"rental_uris":{"android":"levelo://app?vid=7b527f00-f6ea-4963-b59d-8da04a2feedb","ios":"levelo://app?vid=7b527f00-f6ea-4963-b59d-8da04a2feedb"},"vehicle_type_id":"4","last_reported":1751919143,"current_range_meters":9200,"station_id":"","pricing_plan_id":"cebpf4jnsgd1na2vs0mg"},{"bike_id":"9d1c3eb6-4f2d-4cf3-9b26-9e595a1d4d3f","system_id":"levelo_inurba_marseille","lat":43.28487,"lon":5.38417,"is_reserved":false,"is_disabled":false,"rental_uris":{"android":"levelo://app?vid=9d1c3eb6-4f2d-4cf3-9b26-9e595a1d4d3f","ios":"levelo://app?vid=9d1c3eb6-4f2d-4cf3-9b26-9e595a1d4d3f"},"vehicle_type_id":"4","last_reported":1751919143,"current_range_meters":9200,"station_id":"ce4bh512rcd13ifvqe3g","pricing_plan_id":"cebpf4jnsgd1na2vs0mg"},{"bike_id":"f491e629-4b77-4b54-b939-7657809ad755","system_id":"levelo_inurba_marseille","lat":43.25116,"lon":5.40322,"is_reserved":false,"is_disabled":false,"rental_uris":{"android":"levelo://app?vid=f491e629-4b77-4b54-b939-7657809ad755","ios":"levelo://app?vid=f491e629-4b77-4b54-b939-7657809ad755"},"vehicle_type_id":"4","last_reported":1751919143,"current_range_meters":9200,"station_id":"ce4bhlh2rcd13ifvqgig","pricing_plan_id":"cebpf4jnsgd1na2vs0mg"},{"bike_id":"47b36a33-91bd-4988-849d-2538e403362e","system_id":"levelo_inurba_marseille","lat":43.28445,"lon":5.39189,"is_reserved":false,"is_disabled":false,"rental_uris":{"android":"levelo://app?vid=47b36a33-91bd-4988-849d-2538e403362e","ios":"levelo://app?vid=47b36a33-91bd-4988-849d-2538e403362e"},"vehicle_type_id":"4","last_reported":1751919143,"current_range_meters":9200,"station_id":"ce4bhoh2rcd13ifvqh5g","pricing_plan_id":"cebpf4jnsgd1na2vs0mg"},{"bike_id":"88ea42cb-cf0f-4e4a-8442-732645bc4ba5","system_id":"levelo_inurba_marseille","lat":43.31072,"lon":5.3671,"is_reserved":false,"is_disabled":false,"rental_uris":{"android":"levelo://app?vid=88ea42cb-cf0f-4e4a-8442-732645bc4ba5","ios":"levelo://app?vid=88ea42cb-cf0f-4e4a-8442-732645bc4ba5"},"vehicle_type_id":"4","last_reported":1751919143,"current_range_meters":9600,"station_id":"","pricing_plan_id":"cebpf4jnsgd1na2vs0mg"},{"bike_id":"dee0c70c-1cfc-4d55-a486-3860b742f10a","system_id":"levelo_inurba_marseille","lat":43.30803,"lon":5.38162,"is_reserved":false,"is_disabled":false,"rental_uris":{"android":"levelo://app?vid=dee0c70c-1cfc-4d55-a486-3860b742f10a","ios":"levelo://app?vid=dee0c70c-1cfc-4d55-a486-3860b742f10a"},"vehicle_type_id":"4","last_reported":1751919143,"current_range_meters":9600,"station_id":"ce4bgt12rcd13ifvqce0","pricing_plan_id":"cebpf4jnsgd1na2vs0mg"},{"bike_id":"3b22f952-d0bc-4c00-8fd3-7e27b88aea23","system_id":"levelo_inurba_marseille","lat":43.29659,"lon":5.36245,"is_reserved":false,"is_disabled":false,"rental_uris":{"android":"levelo://app?vid=3b22f952-d0bc-4c00-8fd3-7e27b88aea23","ios":"levelo://app?vid=3b22f952-d0bc-4c00-8fd3-7e27b88aea23"},"vehicle_type_id":"4","last_reported":1751919143,"current_range_meters":10000,"station_id":"","pricing_plan_id":"cebpf4jnsgd1na2vs0mg"},{"bike_id":"0a75309e-673b-4d41-b88f-15b3af225775","system_id":"levelo_inurba_marseille","lat":43.30926,"lon":5.40149,"is_reserved":false,"is_disabled":false,"rental_uris":{"android":"levelo://app?vid=0a75309e-673b-4d41-b88f-15b3af225775","ios":"levelo://app?vid=0a75309e-673b-4d41-b88f-15b3af225775"},"vehicle_type_id":"4","last_reported":1751919143,"current_range_meters":10000,"station_id":"ce4bgvp2rcd13ifvqct0","pricing_plan_id":"cebpf4jnsgd1na2vs0mg"},{"bike_id":"cc935aca-ec7e-4b63-a357-dec638fd72ac","system_id":"levelo_inurba_marseille","lat":43.29263,"lon":5.40157,"is_reserved":false,"is_disabled":false,"rental_uris":{"android":"levelo://app?vid=cc935aca-ec7e-4b63-a357-dec638fd72ac","ios":"levelo://app?vid=cc935aca-ec7e-4b63-a357-dec638fd72ac"},"vehicle_type_id":"4","last_reported":1751919143,"current_range_meters":10000,"station_id":"ce4bh312rcd13ifvqdk0","pricing_plan_id":"cebpf4jnsgd1na2vs0mg"},{"bike_id":"2580a786-ce1f-4713-a838-8bd018c0292c","system_id":"levelo_inurba_marseille","lat":43.29361,"lon":5.37262,"is_reserved":false,"is_disabled":false,"rental_uris":{"android":"levelo://app?vid=2580a786-ce1f-4713-a838-8bd018c0292c","ios":"levelo://app?vid=2580a786-ce1f-4713-a838-8bd018c0292c"},"vehicle_type_id":"4","last_reported":1751919143,"current_range_meters":10800,"station_id":"","pricing_plan_id":"cebpf4jnsgd1na2vs0mg"},{"bike_id":"f645b918-3552-4cac-9b5e-f8d85203308b","system_id":"levelo_inurba_marseille","lat":43.30324,"lon":5.4044,"is_reserved":false,"is_disabled":false,"rental_uris":{"android":"levelo://app?vid=f645b918-3552-4cac-9b5e-f8d85203308b","ios":"levelo://app?vid=f645b918-3552-4cac-9b5e-f8d85203308b"},"vehicle_type_id":"4","last_reported":1751919143,"current_range_meters":10800,"station_id":"ce4bh012rcd13ifvqd10","pricing_plan_id":"cebpf4jnsgd1na2vs0mg"},{"bike_id":"37f2becd-23f9-4f13-a711-38b8024eeec7","system_id":"levelo_inurba_marseille","lat":43.33768,"lon":5.37516,"is_reserved":false,"is_disabled":false,"rental_uris":{"android":"levelo://app?vid=37f2becd-23f9-4f13-a711-38b8024eeec7","ios":"levelo://app?vid=37f2becd-23f9-4f13-a711-38b8024eeec7"},"vehicle_type_id":"4","last_reported":1751919143,"current_range_meters":11200,"station_id":"","pricing_plan_id":"cebpf4jnsgd1na2vs0mg"},{"bike_id":"8f4167a4-8939-486f-b485-c719d6e89d1a","system_id":"levelo_inurba_marseille","lat":43.30647,"lon":5.401,"is_reserved":false,"is_disabled":false,"rental_uris":{"android":"levelo://app?vid=8f4167a4-8939-486f-b485-c719d6e89d1a","ios":"levelo://app?vid=8f4167a4-8939-486f-b485-c719d6e89d1a"},"vehicle_type_id":"4","last_reported":1751919143,"current_range_meters":11200,"station_id":"ce4bh112rcd13ifvqda0","pricing_plan_id":"cebpf4jnsgd1na2vs0mg"},{"bike_id":"ccc29df5-1113-42b5-b8de-771b9f206409","system_id":"levelo_inurba_marseille","lat":43.262608,"lon":5.374109,"is_reserved":false,"is_disabled":false,"rental_uris":{"android":"levelo://app?vid=ccc29df5-1113-42b5-b8de-771b9f206409","ios":"levelo://app?vid=ccc29df5-1113-42b5-b8de-771b9f206409"},"vehicle_type_id":"4","last_reported":1751919143,"current_range_meters":11600,"station_id":"","pricing_plan_id":"cebpf4jnsgd1na2vs0mg"},{"bike_id":"c61c2726-2368-4a4b-985f-1cbce85e8169","system_id":"levelo_inurba_marseille","lat":43.28971,"lon":5.37844,"is_reserved":false,"is_disabled":false,"rental_uris":{"android":"levelo://app?vid=c61c2726-2368-4a4b-985f-1cbce85e8169","ios":"levelo://app?vid=c61c2726-2368-4a4b-985f-1cbce85e8169"},"vehicle_type_id":"4","last_reported":1751919143,"current_range_meters":11600,"station_id":"ce4bh9p2rcd13ifvqed0","pricing_plan_id":"cebpf4jnsgd1na2vs0mg"},{"bike_id":"dec6e457-42bb-498d-9765-815d28fdb3f4","system_id":"levelo_inurba_marseille","lat":43.26781,"lon":5.39415,"is_reserved":false,"is_disabled":false,"rental_uris":{"android":"levelo://app?vid=dec6e457-42bb-498d-9765-815d28fdb3f4","ios":"levelo://app?vid=dec6e457-42bb-498d-9765-815d28fdb3f4"},"vehicle_type_id":"4","last_reported":1751919143,"current_range_meters":11600,"station_id":"ce4bhh12rcd13ifvqfg0","pricing_plan_id":"cebpf4jnsgd1na2vs0mg"},{"bike_id":"d941fde0-51e3-4372-abf4-1a7f3fd5b373","system_id":"levelo_inurba_marseille","lat":43.24187,"lon":5.39723,"is_reserved":false,"is_disabled":false,"rental_uris":{"android":"levelo://app?vid=d941fde0-51e3-4372-abf4-1a7f3fd5b373","ios":"levelo://app?vid=d941fde0-51e3-4372-abf4-1a7f3fd5b373"},"vehicle_type_id":"4","last_reported":1751919143,"current_range_meters":11600,"station_id":"ce4bhn12rcd13ifvqgpg","pricing_plan_id":"cebpf4jnsgd1na2vs0mg"},{"bike_id":"ec8c3a28-6b51-430f-bdb1-06760ee793ac","system_id":"levelo_inurba_marseille","lat":43.33611,"lon":5.41032,"is_reserved":false,"is_disabled":false,"rental_uris":{"android":"levelo://app?vid=ec8c3a28-6b51-430f-bdb1-06760ee793ac","ios":"levelo://app?vid=ec8c3a28-6b51-430f-bdb1-06760ee793ac"},"vehicle_type_id":"4","last_reported":1751919143,"current_range_meters":11600,"station_id":"ce4bhqh2rcd13ifvqhmg","pricing_plan_id":"cebpf4jnsgd1na2vs0mg"},{"bike_id":"a31d7b1d-f875-4f27-b8f6-640a4ac62493","system_id":"levelo_inurba_marseille","lat":43.33723,"lon":5.39193,"is_reserved":false,"is_disabled":false,"rental_uris":{"android":"levelo://app?vid=a31d7b1d-f875-4f27-b8f6-640a4ac62493","ios":"levelo://app?vid=a31d7b1d-f875-4f27-b8f6-640a4ac62493"},"vehicle_type_id":"4","last_reported":1751919143,"current_range_meters":11600,"station_id":"ce4bhr92rcd13ifvqhsg","pricing_plan_id":"cebpf4jnsgd1na2vs0mg"},{"bike_id":"c66f47fd-7019-43e3-803a-e27c274182cd","system_id":"levelo_inurba_marseille","lat":43.31724,"lon":5.4363,"is_reserved":false,"is_disabled":false,"rental_uris":{"android":"levelo://app?vid=c66f47fd-7019-43e3-803a-e27c274182cd","ios":"levelo://app?vid=c66f47fd-7019-43e3-803a-e27c274182cd"},"vehicle_type_id":"4","last_reported":1751919143,"current_range_meters":12000,"station_id":"","pricing_plan_id":"cebpf4jnsgd1na2vs0mg"},{"bike_id":"8cedac80-e365-451d-bfb2-e79bf0c2a8af","system_id":"levelo_inurba_marseille","lat":43.31665,"lon":5.39799,"is_reserved":false,"is_disabled":false,"rental_uris":{"android":"levelo://app?vid=8cedac80-e365-451d-bfb2-e79bf0c2a8af","ios":"levelo://app?vid=8cedac80-e365-451d-bfb2-e79bf0c2a8af"},"vehicle_type_id":"4","last_reported":1751919143,"current_range_meters":12000,"station_id":"","pricing_plan_id":"cebpf4jnsgd1na2vs0mg"},{"bike_id":"2c423baa-ecca-420a-87d7-ad0b7e0b9ebb","system_id":"levelo_inurba_marseille","lat":43.28047,"lon":5.35356,"is_reserved":false,"is_disabled":false,"rental_uris":{"android":"levelo://app?vid=2c423baa-ecca-420a-87d7-ad0b7e0b9ebb","ios":"levelo://app?vid=2c423baa-ecca-420a-87d7-ad0b7e0b9ebb"},"vehicle_type_id":"4","last_reported":1751919143,"current_range_meters":12000,"station_id":"","pricing_plan_id":"cebpf4jnsgd1na2vs0mg"},{"bike_id":"78c65a7f-d308-40b5-accc-8e6897ac9f8a","system_id":"levelo_inurba_marseille","lat":43.30089,"lon":5.37789,"is_reserved":false,"is_disabled":false,"rental_uris":{"android":"levelo://app?vid=78c65a7f-d308-40b5-accc-8e6897ac9f8a","ios":"levelo://app?vid=78c65a7f-d308-40b5-accc-8e6897ac9f8a"},"vehicle_type_id":"4","last_reported":1751919143,"current_range_meters":12000,"station_id":"","pricing_plan_id":"cebpf4jnsgd1na2vs0mg"},{"bike_id":"aae381a2-a135-4ee9-b7f6-7366e6683e05","system_id":"levelo_inurba_marseille","lat":43.3057,"lon":5.37215,"is_reserved":false,"is_disabled":false,"rental_uris":{"android":"levelo://app?vid=aae381a2-a135-4ee9-b7f6-7366e6683e05","ios":"levelo://app?vid=aae381a2-a135-4ee9-b7f6-7366e6683e05"},"vehicle_type_id":"4","last_reported":1751919143,"current_range_meters":12000,"station_id":"ce4bgqh2rcd13ifvqc4g","pricing_plan_id":"cebpf4jnsgd1na2vs0mg"},{"bike_id":"239d8cb5-aa1e-4272-b826-60060c933d75","system_id":"levelo_inurba_marseille","lat":43.27838,"lon":5.39208,"is_reserved":false,"is_disabled":false,"rental_uris":{"android":"levelo://app?vid=239d8cb5-aa1e-4272-b826-60060c933d75","ios":"levelo://app?vid=239d8cb5-aa1e-4272-b826-60060c933d75"},"vehicle_type_id":"4","last_reported":1751919143,"current_range_meters":12000,"station_id":"ce4bhjp2rcd13ifvqga0","pricing_plan_id":"cebpf4jnsgd1na2vs0mg"},{"bike_id":"29102da4-02a2-4f9c-99ed-89cdef887179","system_id":"levelo_inurba_marseille","lat":43.22506,"lon":5.34782,"is_reserved":false,"is_disabled":false,"rental_uris":{"android":"levelo://app?vid=29102da4-02a2-4f9c-99ed-89cdef887179","ios":"levelo://app?vid=29102da4-02a2-4f9c-99ed-89cdef887179"},"vehicle_type_id":"4","last_reported":1751919143,"current_range_meters":12000,"station_id":"st_cvj5dfep6f1abm77gieg","pricing_plan_id":"cebpf4jnsgd1na2vs0mg"},{"bike_id":"a70cfab5-f447-4d61-b80a-343a49825360","system_id":"levelo_inurba_marseille","lat":43.31769,"lon":5.37836,"is_reserved":false,"is_disabled":false,"rental_uris":{"android":"levelo://app?vid=a70cfab5-f447-4d61-b80a-343a49825360","ios":"levelo://app?vid=a70cfab5-f447-4d61-b80a-343a49825360"},"vehicle_type_id":"4","last_reported":1751919143,"current_range_meters":12400,"station_id":"","pricing_plan_id":"cebpf4jnsgd1na2vs0mg"},{"bike_id":"40a4d41c-4a98-4ff9-8fb7-1c8f7d63aa00","system_id":"levelo_inurba_marseille","lat":43.29447,"lon":5.39743,"is_reserved":false,"is_disabled":false,"rental_uris":{"android":"levelo://app?vid=40a4d41c-4a98-4ff9-8fb7-1c8f7d63aa00","ios":"levelo://app?vid=40a4d41c-4a98-4ff9-8fb7-1c8f7d63aa00"},"vehicle_type_id":"4","last_reported":1751919143,"current_range_meters":12400,"station_id":"ce4bh3h2rcd13ifvqdo0","pricing_plan_id":"cebpf4jnsgd1na2vs0mg"},{"bike_id":"218d1f16-f8a8-4528-8407-4c84f38a7294","system_id":"levelo_inurba_marseille","lat":43.31084,"lon":5.42425,"is_reserved":false,"is_disabled":false,"rental_uris":{"android":"levelo://app?vid=218d1f16-f8a8-4528-8407-4c84f38a7294","ios":"levelo://app?vid=218d1f16-f8a8-4528-8407-4c84f38a7294"},"vehicle_type_id":"4","last_reported":1751919143,"current_range_meters":12400,"station_id":"ce4bhp92rcd13ifvqhag","pricing_plan_id":"cebpf4jnsgd1na2vs0mg"},{"bike_id":"20c0674d-b5fd-4e8e-88c4-fe181160a0e2","system_id":"levelo_inurba_marseille","lat":43.21732,"lon":5.34589,"is_reserved":false,"is_disabled":false,"rental_uris":{"android":"levelo://app?vid=20c0674d-b5fd-4e8e-88c4-fe181160a0e2","ios":"levelo://app?vid=20c0674d-b5fd-4e8e-88c4-fe181160a0e2"},"vehicle_type_id":"4","last_reported":1751919143,"current_range_meters":12400,"station_id":"st_cvj6r9ubvosntc0bgbag","pricing_plan_id":"cebpf4jnsgd1na2vs0mg"},{"bike_id":"13c84df3-55fc-4465-b582-17389625d267","system_id":"levelo_inurba_marseille","lat":43.260072,"lon":5.417453,"is_reserved":false,"is_disabled":false,"rental_uris":{"android":"levelo://app?vid=13c84df3-55fc-4465-b582-17389625d267","ios":"levelo://app?vid=13c84df3-55fc-4465-b582-17389625d267"},"vehicle_type_id":"4","last_reported":1751919143,"current_range_meters":12800,"station_id":"","pricing_plan_id":"cebpf4jnsgd1na2vs0mg"},{"bike_id":"33f81a93-a2a0-48f8-ac54-078601f4600d","system_id":"levelo_inurba_marseille","lat":43.30928,"lon":5.40173,"is_reserved":false,"is_disabled":false,"rental_uris":{"android":"levelo://app?vid=33f81a93-a2a0-48f8-ac54-078601f4600d","ios":"levelo://app?vid=33f81a93-a2a0-48f8-ac54-078601f4600d"},"vehicle_type_id":"4","last_reported":1751919143,"current_range_meters":12800,"station_id":"ce4bgvp2rcd13ifvqct0","pricing_plan_id":"cebpf4jnsgd1na2vs0mg"},{"bike_id":"9a835e01-725b-41f5-8a1c-1a4de65a16a4","system_id":"levelo_inurba_marseille","lat":43.28036,"lon":5.36942,"is_reserved":false,"is_disabled":false,"rental_uris":{"android":"levelo://app?vid=9a835e01-725b-41f5-8a1c-1a4de65a16a4","ios":"levelo://app?vid=9a835e01-725b-41f5-8a1c-1a4de65a16a4"},"vehicle_type_id":"4","last_reported":1751919143,"current_range_meters":12800,"station_id":"ce4bha12rcd13ifvqef0","pricing_plan_id":"cebpf4jnsgd1na2vs0mg"},{"bike_id":"e77fccfc-5782-446e-bdeb-dcea0002c077","system_id":"levelo_inurba_marseille","lat":43.29262,"lon":5.36856,"is_reserved":false,"is_disabled":false,"rental_uris":{"android":"levelo://app?vid=e77fccfc-5782-446e-bdeb-dcea0002c077","ios":"levelo://app?vid=e77fccfc-5782-446e-bdeb-dcea0002c077"},"vehicle_type_id":"4","last_reported":1751919143,"current_range_meters":12800,"station_id":"ce4bhbp2rcd13ifvqesg","pricing_plan_id":"cebpf4jnsgd1na2vs0mg"},{"bike_id":"072aef18-8c4c-41ca-9032-1b5fba7539b3","system_id":"levelo_inurba_marseille","lat":43.31992,"lon":5.36752,"is_reserved":false,"is_disabled":false,"rental_uris":{"android":"levelo://app?vid=072aef18-8c4c-41ca-9032-1b5fba7539b3","ios":"levelo://app?vid=072aef18-8c4c-41ca-9032-1b5fba7539b3"},"vehicle_type_id":"4","last_reported":1751919143,"current_range_meters":12800,"station_id":"ce4bhrh2rcd13ifvqhug","pricing_plan_id":"cebpf4jnsgd1na2vs0mg"},{"bike_id":"bff287d5-0c9a-4575-8cd6-c178d6ab245e","system_id":"levelo_inurba_marseille","lat":43.30595,"lon":5.37235,"is_reserved":false,"is_disabled":false,"rental_uris":{"android":"levelo://app?vid=bff287d5-0c9a-4575-8cd6-c178d6ab245e","ios":"levelo://app?vid=bff287d5-0c9a-4575-8cd6-c178d6ab245e"},"vehicle_type_id":"4","last_reported":1751919143,"current_range_meters":13600,"station_id":"ce4bgqh2rcd13ifvqc4g","pricing_plan_id":"cebpf4jnsgd1na2vs0mg"},{"bike_id":"f127e164-77f1-450c-bce0-2a4962a66a4a","system_id":"levelo_inurba_marseille","lat":43.294311,"lon":5.386523,"is_reserved":false,"is_disabled":false,"rental_uris":{"android":"levelo://app?vid=f127e164-77f1-450c-bce0-2a4962a66a4a","ios":"levelo://app?vid=f127e164-77f1-450c-bce0-2a4962a66a4a"},"vehicle_type_id":"4","last_reported":1751919143,"current_range_meters":13600,"station_id":"ce4bh2h2rcd13ifvqdh0","pricing_plan_id":"cebpf4jnsgd1na2vs0mg"},{"bike_id":"8f13d38c-0510-4eaa-986c-62ae1fef2b49","system_id":"levelo_inurba_marseille","lat":43.28627,"lon":5.35093,"is_reserved":false,"is_disabled":false,"rental_uris":{"android":"levelo://app?vid=8f13d38c-0510-4eaa-986c-62ae1fef2b49","ios":"levelo://app?vid=8f13d38c-0510-4eaa-986c-62ae1fef2b49"},"vehicle_type_id":"4","last_reported":1751919143,"current_range_meters":13600,"station_id":"ce4bhch2rcd13ifvqeug","pricing_plan_id":"cebpf4jnsgd1na2vs0mg"},{"bike_id":"78a085b5-4474-4ac9-afea-71a44d22dd73","system_id":"levelo_inurba_marseille","lat":43.24809,"lon":5.37445,"is_reserved":false,"is_disabled":false,"rental_uris":{"android":"levelo://app?vid=78a085b5-4474-4ac9-afea-71a44d22dd73","ios":"levelo://app?vid=78a085b5-4474-4ac9-afea-71a44d22dd73"},"vehicle_type_id":"4","last_reported":1751919143,"current_range_meters":13600,"station_id":"ce4bhgh2rcd13ifvqfb0","pricing_plan_id":"cebpf4jnsgd1na2vs0mg"},{"bike_id":"4a3154ac-3048-463e-9c11-90185238f36f","system_id":"levelo_inurba_marseille","lat":43.30138,"lon":5.39884,"is_reserved":false,"is_disabled":false,"rental_uris":{"android":"levelo://app?vid=4a3154ac-3048-463e-9c11-90185238f36f","ios":"levelo://app?vid=4a3154ac-3048-463e-9c11-90185238f36f"},"vehicle_type_id":"4","last_reported":1751919143,"current_range_meters":14000,"station_id":"ce4bh0h2rcd13ifvqd40","pricing_plan_id":"cebpf4jnsgd1na2vs0mg"},{"bike_id":"43d12e7f-c3cd-4a6a-a228-c0298712c5ef","system_id":"levelo_inurba_marseille","lat":43.30593,"lon":5.39357,"is_reserved":false,"is_disabled":false,"rental_uris":{"android":"levelo://app?vid=43d12e7f-c3cd-4a6a-a228-c0298712c5ef","ios":"levelo://app?vid=43d12e7f-c3cd-4a6a-a228-c0298712c5ef"},"vehicle_type_id":"4","last_reported":1751919143,"current_range_meters":14000,"station_id":"ce4bh0p2rcd13ifvqd80","pricing_plan_id":"cebpf4jnsgd1na2vs0mg"},{"bike_id":"075ef568-3423-443a-9626-485c079b94e7","system_id":"levelo_inurba_marseille","lat":43.279023,"lon":5.395677,"is_reserved":false,"is_disabled":false,"rental_uris":{"android":"levelo://app?vid=075ef568-3423-443a-9626-485c079b94e7","ios":"levelo://app?vid=075ef568-3423-443a-9626-485c079b94e7"},"vehicle_type_id":"4","last_reported":1751919143,"current_range_meters":14000,"station_id":"ce4bhf92rcd13ifvqf40","pricing_plan_id":"cebpf4jnsgd1na2vs0mg"},{"bike_id":"942a983a-7094-47d3-97b7-ba4ab853d965","system_id":"levelo_inurba_marseille","lat":43.270704,"lon":5.422772,"is_reserved":false,"is_disabled":false,"rental_uris":{"android":"levelo://app?vid=942a983a-7094-47d3-97b7-ba4ab853d965","ios":"levelo://app?vid=942a983a-7094-47d3-97b7-ba4ab853d965"},"vehicle_type_id":"4","last_reported":1751919143,"current_range_meters":14000,"station_id":"ce4bhk92rcd13ifvqgb0","pricing_plan_id":"cebpf4jnsgd1na2vs0mg"},{"bike_id":"e79346c8-86fc-4daa-86ef-e1e68b65043e","system_id":"levelo_inurba_marseille","lat":43.24074,"lon":5.37761,"is_reserved":false,"is_disabled":false,"rental_uris":{"android":"levelo://app?vid=e79346c8-86fc-4daa-86ef-e1e68b65043e","ios":"levelo://app?vid=e79346c8-86fc-4daa-86ef-e1e68b65043e"},"vehicle_type_id":"4","last_reported":1751919143,"current_range_meters":14000,"station_id":"ce4bhnp2rcd13ifvqgvg","pricing_plan_id":"cebpf4jnsgd1na2vs0mg"},{"bike_id":"3940df16-67e4-48d2-ba98-0b9c909004b3","system_id":"levelo_inurba_marseille","lat":43.31492,"lon":5.3975,"is_reserved":false,"is_disabled":false,"rental_uris":{"android":"levelo://app?vid=3940df16-67e4-48d2-ba98-0b9c909004b3","ios":"levelo://app?vid=3940df16-67e4-48d2-ba98-0b9c909004b3"},"vehicle_type_id":"4","last_reported":1751919143,"current_range_meters":14400,"station_id":"","pricing_plan_id":"cebpf4jnsgd1na2vs0mg"},{"bike_id":"6bdf53af-6a27-45a0-8196-d235ba910ce9","system_id":"levelo_inurba_marseille","lat":43.31688,"lon":5.4048,"is_reserved":false,"is_disabled":false,"rental_uris":{"android":"levelo://app?vid=6bdf53af-6a27-45a0-8196-d235ba910ce9","ios":"levelo://app?vid=6bdf53af-6a27-45a0-8196-d235ba910ce9"},"vehicle_type_id":"4","last_reported":1751919143,"current_range_meters":14400,"station_id":"ce4bh012rcd13ifvqd00","pricing_plan_id":"cebpf4jnsgd1na2vs0mg"},{"bike_id":"619d70e3-2b35-4e8a-a603-3b119eab2a1a","system_id":"levelo_inurba_marseille","lat":43.29413,"lon":5.38626,"is_reserved":false,"is_disabled":false,"rental_uris":{"android":"levelo://app?vid=619d70e3-2b35-4e8a-a603-3b119eab2a1a","ios":"levelo://app?vid=619d70e3-2b35-4e8a-a603-3b119eab2a1a"},"vehicle_type_id":"4","last_reported":1751919143,"current_range_meters":14400,"station_id":"ce4bh2h2rcd13ifvqdh0","pricing_plan_id":"cebpf4jnsgd1na2vs0mg"},{"bike_id":"6f1b7768-92f9-426b-a478-8367723d6fc3","system_id":"levelo_inurba_marseille","lat":43.29872,"lon":5.38904,"is_reserved":false,"is_disabled":false,"rental_uris":{"android":"levelo://app?vid=6f1b7768-92f9-426b-a478-8367723d6fc3","ios":"levelo://app?vid=6f1b7768-92f9-426b-a478-8367723d6fc3"},"vehicle_type_id":"4","last_reported":1751919143,"current_range_meters":14400,"station_id":"ce4bh392rcd13ifvqdl0","pricing_plan_id":"cebpf4jnsgd1na2vs0mg"},{"bike_id":"c69270c8-b6f7-4220-b716-92695f626593","system_id":"levelo_inurba_marseille","lat":43.24999,"lon":5.3892,"is_reserved":false,"is_disabled":false,"rental_uris":{"android":"levelo://app?vid=c69270c8-b6f7-4220-b716-92695f626593","ios":"levelo://app?vid=c69270c8-b6f7-4220-b716-92695f626593"},"vehicle_type_id":"4","last_reported":1751919143,"current_range_meters":14400,"station_id":"ce4bhgp2rcd13ifvqfd0","pricing_plan_id":"cebpf4jnsgd1na2vs0mg"},{"bike_id":"c3ace2bc-d9b5-4ab7-b2f1-c7d52962181e","system_id":"levelo_inurba_marseille","lat":43.27989,"lon":5.40019,"is_reserved":false,"is_disabled":false,"rental_uris":{"android":"levelo://app?vid=c3ace2bc-d9b5-4ab7-b2f1-c7d52962181e","ios":"levelo://app?vid=c3ace2bc-d9b5-4ab7-b2f1-c7d52962181e"},"vehicle_type_id":"4","last_reported":1751919143,"current_range_meters":14400,"station_id":"ce4bho92rcd13ifvqh4g","pricing_plan_id":"cebpf4jnsgd1na2vs0mg"},{"bike_id":"d6c3738b-0c9a-4bf4-86f3-5a1899347e98","system_id":"levelo_inurba_marseille","lat":43.32047,"lon":5.41503,"is_reserved":false,"is_disabled":false,"rental_uris":{"android":"levelo://app?vid=d6c3738b-0c9a-4bf4-86f3-5a1899347e98","ios":"levelo://app?vid=d6c3738b-0c9a-4bf4-86f3-5a1899347e98"},"vehicle_type_id":"4","last_reported":1751919143,"current_range_meters":14400,"station_id":"ce4bhq92rcd13ifvqhkg","pricing_plan_id":"cebpf4jnsgd1na2vs0mg"},{"bike_id":"14848200-7a92-4aba-aa9b-67d638b0cd36","system_id":"levelo_inurba_marseille","lat":43.26924,"lon":5.40268,"is_reserved":false,"is_disabled":false,"rental_uris":{"android":"levelo://app?vid=14848200-7a92-4aba-aa9b-67d638b0cd36","ios":"levelo://app?vid=14848200-7a92-4aba-aa9b-67d638b0cd36"},"vehicle_type_id":"4","last_reported":1751919143,"current_range_meters":14400,"station_id":"cjm6bp8fraef2m0cb0m0","pricing_plan_id":"cebpf4jnsgd1na2vs0mg"},{"bike_id":"fce7c4f4-dd99-4b31-9110-14801993ff5f","system_id":"levelo_inurba_marseille","lat":43.21757,"lon":5.34595,"is_reserved":false,"is_disabled":false,"rental_uris":{"android":"levelo://app?vid=fce7c4f4-dd99-4b31-9110-14801993ff5f","ios":"levelo://app?vid=fce7c4f4-dd99-4b31-9110-14801993ff5f"},"vehicle_type_id":"4","last_reported":1751919143,"current_range_meters":14800,"station_id":"","pricing_plan_id":"cebpf4jnsgd1na2vs0mg"},{"bike_id":"5eace689-684d-4f7d-8bf9-3ba5b450ebdc","system_id":"levelo_inurba_marseille","lat":43.29535,"lon":5.38542,"is_reserved":false,"is_disabled":false,"rental_uris":{"android":"levelo://app?vid=5eace689-684d-4f7d-8bf9-3ba5b450ebdc","ios":"levelo://app?vid=5eace689-684d-4f7d-8bf9-3ba5b450ebdc"},"vehicle_type_id":"4","last_reported":1751919143,"current_range_meters":14800,"station_id":"ce4bgih2rcd13ifvqba0","pricing_plan_id":"cebpf4jnsgd1na2vs0mg"},{"bike_id":"33b186f2-f5a0-434c-836a-4b385fefc9f9","system_id":"levelo_inurba_marseille","lat":43.312456,"lon":5.368853,"is_reserved":false,"is_disabled":false,"rental_uris":{"android":"levelo://app?vid=33b186f2-f5a0-434c-836a-4b385fefc9f9","ios":"levelo://app?vid=33b186f2-f5a0-434c-836a-4b385fefc9f9"},"vehicle_type_id":"4","last_reported":1751919143,"current_range_meters":14800,"station_id":"ce4bgl92rcd13ifvqbq0","pricing_plan_id":"cebpf4jnsgd1na2vs0mg"},{"bike_id":"58f2a339-8157-4697-9978-8e6521de8d99","system_id":"levelo_inurba_marseille","lat":43.23147,"lon":5.43714,"is_reserved":false,"is_disabled":false,"rental_uris":{"android":"levelo://app?vid=58f2a339-8157-4697-9978-8e6521de8d99","ios":"levelo://app?vid=58f2a339-8157-4697-9978-8e6521de8d99"},"vehicle_type_id":"4","last_reported":1751919143,"current_range_meters":14800,"station_id":"ce4bhmp2rcd13ifvqgog","pricing_plan_id":"cebpf4jnsgd1na2vs0mg"},{"bike_id":"c2ee7d66-374b-44cd-b9d7-9ad64301293b","system_id":"levelo_inurba_marseille","lat":43.22504,"lon":5.34786,"is_reserved":false,"is_disabled":false,"rental_uris":{"android":"levelo://app?vid=c2ee7d66-374b-44cd-b9d7-9ad64301293b","ios":"levelo://app?vid=c2ee7d66-374b-44cd-b9d7-9ad64301293b"},"vehicle_type_id":"4","last_reported":1751919143,"current_range_meters":14800,"station_id":"st_cvj5dfep6f1abm77gieg","pricing_plan_id":"cebpf4jnsgd1na2vs0mg"},{"bike_id":"ca0055cc-6cae-498a-bd83-33d4ae75dc6e","system_id":"levelo_inurba_marseille","lat":43.31275,"lon":5.40168,"is_reserved":false,"is_disabled":false,"rental_uris":{"android":"levelo://app?vid=ca0055cc-6cae-498a-bd83-33d4ae75dc6e","ios":"levelo://app?vid=ca0055cc-6cae-498a-bd83-33d4ae75dc6e"},"vehicle_type_id":"4","last_reported":1751919143,"current_range_meters":15200,"station_id":"ce4bh092rcd13ifvqd30","pricing_plan_id":"cebpf4jnsgd1na2vs0mg"},{"bike_id":"82dc7477-d23f-4fe2-8763-1826918122f6","system_id":"levelo_inurba_marseille","lat":43.28048,"lon":5.36943,"is_reserved":false,"is_disabled":false,"rental_uris":{"android":"levelo://app?vid=82dc7477-d23f-4fe2-8763-1826918122f6","ios":"levelo://app?vid=82dc7477-d23f-4fe2-8763-1826918122f6"},"vehicle_type_id":"4","last_reported":1751919143,"current_range_meters":15200,"station_id":"ce4bha12rcd13ifvqef0","pricing_plan_id":"cebpf4jnsgd1na2vs0mg"},{"bike_id":"d83608bb-4437-43c9-8764-6af0d6d7dccf","system_id":"levelo_inurba_marseille","lat":43.28851,"lon":5.35841,"is_reserved":false,"is_disabled":false,"rental_uris":{"android":"levelo://app?vid=d83608bb-4437-43c9-8764-6af0d6d7dccf","ios":"levelo://app?vid=d83608bb-4437-43c9-8764-6af0d6d7dccf"},"vehicle_type_id":"4","last_reported":1751919143,"current_range_meters":15200,"station_id":"ce4bhb12rcd13ifvqem0","pricing_plan_id":"cebpf4jnsgd1na2vs0mg"},{"bike_id":"ee48f0e0-2efc-4007-86c7-16994a61d9e5","system_id":"levelo_inurba_marseille","lat":43.28612,"lon":5.35089,"is_reserved":false,"is_disabled":false,"rental_uris":{"android":"levelo://app?vid=ee48f0e0-2efc-4007-86c7-16994a61d9e5","ios":"levelo://app?vid=ee48f0e0-2efc-4007-86c7-16994a61d9e5"},"vehicle_type_id":"4","last_reported":1751919143,"current_range_meters":15200,"station_id":"ce4bhch2rcd13ifvqeug","pricing_plan_id":"cebpf4jnsgd1na2vs0mg"},{"bike_id":"4c4d4b94-5832-431b-a6a4-1addce77dff7","system_id":"levelo_inurba_marseille","lat":43.24394,"lon":5.37044,"is_reserved":false,"is_disabled":false,"rental_uris":{"android":"levelo://app?vid=4c4d4b94-5832-431b-a6a4-1addce77dff7","ios":"levelo://app?vid=4c4d4b94-5832-431b-a6a4-1addce77dff7"},"vehicle_type_id":"4","last_reported":1751919143,"current_range_meters":15200,"station_id":"ce4bhhh2rcd13ifvqfk0","pricing_plan_id":"cebpf4jnsgd1na2vs0mg"},{"bike_id":"8f3b260f-e53f-404f-8438-c3d7c8130e93","system_id":"levelo_inurba_marseille","lat":43.23152,"lon":5.43723,"is_reserved":false,"is_disabled":false,"rental_uris":{"android":"levelo://app?vid=8f3b260f-e53f-404f-8438-c3d7c8130e93","ios":"levelo://app?vid=8f3b260f-e53f-404f-8438-c3d7c8130e93"},"vehicle_type_id":"4","last_reported":1751919143,"current_range_meters":15200,"station_id":"ce4bhmp2rcd13ifvqgog","pricing_plan_id":"cebpf4jnsgd1na2vs0mg"},{"bike_id":"9bfc7d3d-4e60-4f8a-9c32-ef3d0e77ec5b","system_id":"levelo_inurba_marseille","lat":43.21215,"lon":5.35059,"is_reserved":false,"is_disabled":false,"rental_uris":{"android":"levelo://app?vid=9bfc7d3d-4e60-4f8a-9c32-ef3d0e77ec5b","ios":"levelo://app?vid=9bfc7d3d-4e60-4f8a-9c32-ef3d0e77ec5b"},"vehicle_type_id":"4","last_reported":1751919143,"current_range_meters":15200,"station_id":"st_cvj6sg6p6f1abm77japg","pricing_plan_id":"cebpf4jnsgd1na2vs0mg"},{"bike_id":"c3ada3f1-ddde-4bf5-8936-f4ee5b898c22","system_id":"levelo_inurba_marseille","lat":43.27678,"lon":5.3607,"is_reserved":false,"is_disabled":false,"rental_uris":{"android":"levelo://app?vid=c3ada3f1-ddde-4bf5-8936-f4ee5b898c22","ios":"levelo://app?vid=c3ada3f1-ddde-4bf5-8936-f4ee5b898c22"},"vehicle_type_id":"4","last_reported":1751919143,"current_range_meters":16000,"station_id":"","pricing_plan_id":"cebpf4jnsgd1na2vs0mg"},{"bike_id":"ae063a66-86c8-4dbf-85fb-211b53656a78","system_id":"levelo_inurba_marseille","lat":43.30765,"lon":5.37674,"is_reserved":false,"is_disabled":false,"rental_uris":{"android":"levelo://app?vid=ae063a66-86c8-4dbf-85fb-211b53656a78","ios":"levelo://app?vid=ae063a66-86c8-4dbf-85fb-211b53656a78"},"vehicle_type_id":"4","last_reported":1751919143,"current_range_meters":16000,"station_id":"ce4bgv92rcd13ifvqcq0","pricing_plan_id":"cebpf4jnsgd1na2vs0mg"},{"bike_id":"6b0469b8-ee50-4e28-aa0d-cbc669792310","system_id":"levelo_inurba_marseille","lat":43.28347,"lon":5.38108,"is_reserved":false,"is_disabled":false,"rental_uris":{"android":"levelo://app?vid=6b0469b8-ee50-4e28-aa0d-cbc669792310","ios":"levelo://app?vid=6b0469b8-ee50-4e28-aa0d-cbc669792310"},"vehicle_type_id":"4","last_reported":1751919143,"current_range_meters":16000,"station_id":"ce4bh412rcd13ifvqdr0","pricing_plan_id":"cebpf4jnsgd1na2vs0mg"},{"bike_id":"45bf0661-6be7-469e-ac50-cda1e6dcbb9c","system_id":"levelo_inurba_marseille","lat":43.28426,"lon":5.37518,"is_reserved":false,"is_disabled":false,"rental_uris":{"android":"levelo://app?vid=45bf0661-6be7-469e-ac50-cda1e6dcbb9c","ios":"levelo://app?vid=45bf0661-6be7-469e-ac50-cda1e6dcbb9c"},"vehicle_type_id":"4","last_reported":1751919143,"current_range_meters":16000,"station_id":"ce4bh412rcd13ifvqds0","pricing_plan_id":"cebpf4jnsgd1na2vs0mg"},{"bike_id":"0ae62828-32d2-4ec7-9fc9-cba31c077cc0","system_id":"levelo_inurba_marseille","lat":43.2926,"lon":5.38433,"is_reserved":false,"is_disabled":false,"rental_uris":{"android":"levelo://app?vid=0ae62828-32d2-4ec7-9fc9-cba31c077cc0","ios":"levelo://app?vid=0ae62828-32d2-4ec7-9fc9-cba31c077cc0"},"vehicle_type_id":"4","last_reported":1751919143,"current_range_meters":16000,"station_id":"ce4bh692rcd13ifvqea0","pricing_plan_id":"cebpf4jnsgd1na2vs0mg"},{"bike_id":"08341534-c916-4f3b-9a7a-746d96bf113c","system_id":"levelo_inurba_marseille","lat":43.27901,"lon":5.38014,"is_reserved":false,"is_disabled":false,"rental_uris":{"android":"levelo://app?vid=08341534-c916-4f3b-9a7a-746d96bf113c","ios":"levelo://app?vid=08341534-c916-4f3b-9a7a-746d96bf113c"},"vehicle_type_id":"4","last_reported":1751919143,"current_range_meters":16000,"station_id":"ce4bhf92rcd13ifvqf50","pricing_plan_id":"cebpf4jnsgd1na2vs0mg"},{"bike_id":"476a6051-92e6-4497-b1e3-27260c4929e4","system_id":"levelo_inurba_marseille","lat":43.2498,"lon":5.38946,"is_reserved":false,"is_disabled":false,"rental_uris":{"android":"levelo://app?vid=476a6051-92e6-4497-b1e3-27260c4929e4","ios":"levelo://app?vid=476a6051-92e6-4497-b1e3-27260c4929e4"},"vehicle_type_id":"4","last_reported":1751919143,"current_range_meters":16000,"station_id":"ce4bhgp2rcd13ifvqfd0","pricing_plan_id":"cebpf4jnsgd1na2vs0mg"},{"bike_id":"0e28a9ae-26b0-4409-896f-cfa314dde98a","system_id":"levelo_inurba_marseille","lat":43.24665,"lon":5.38163,"is_reserved":false,"is_disabled":false,"rental_uris":{"android":"levelo://app?vid=0e28a9ae-26b0-4409-896f-cfa314dde98a","ios":"levelo://app?vid=0e28a9ae-26b0-4409-896f-cfa314dde98a"},"vehicle_type_id":"4","last_reported":1751919143,"current_range_meters":16000,"station_id":"ce4bhih2rcd13ifvqfr0","pricing_plan_id":"cebpf4jnsgd1na2vs0mg"},{"bike_id":"2090512e-543d-4a55-b888-2423e2f84234","system_id":"levelo_inurba_marseille","lat":43.24049,"lon":5.37728,"is_reserved":false,"is_disabled":false,"rental_uris":{"android":"levelo://app?vid=2090512e-543d-4a55-b888-2423e2f84234","ios":"levelo://app?vid=2090512e-543d-4a55-b888-2423e2f84234"},"vehicle_type_id":"4","last_reported":1751919143,"current_range_meters":16000,"station_id":"ce4bhnp2rcd13ifvqgvg","pricing_plan_id":"cebpf4jnsgd1na2vs0mg"},{"bike_id":"bac13eb2-75b6-43a2-8750-65111fd6394f","system_id":"levelo_inurba_marseille","lat":43.32106,"lon":5.36788,"is_reserved":false,"is_disabled":false,"rental_uris":{"android":"levelo://app?vid=bac13eb2-75b6-43a2-8750-65111fd6394f","ios":"levelo://app?vid=bac13eb2-75b6-43a2-8750-65111fd6394f"},"vehicle_type_id":"4","last_reported":1751919143,"current_range_meters":16000,"station_id":"ce4bhrh2rcd13ifvqhug","pricing_plan_id":"cebpf4jnsgd1na2vs0mg"},{"bike_id":"4cc495d5-e597-4967-9c52-2a54104880ee","system_id":"levelo_inurba_marseille","lat":43.22934,"lon":5.35373,"is_reserved":false,"is_disabled":false,"rental_uris":{"android":"levelo://app?vid=4cc495d5-e597-4967-9c52-2a54104880ee","ios":"levelo://app?vid=4cc495d5-e597-4967-9c52-2a54104880ee"},"vehicle_type_id":"4","last_reported":1751919143,"current_range_meters":16000,"station_id":"cpo3532slgdg3j2ikp40","pricing_plan_id":"cebpf4jnsgd1na2vs0mg"},{"bike_id":"6ffc31bf-be63-440b-8353-4ff83386083b","system_id":"levelo_inurba_marseille","lat":43.29834,"lon":5.36412,"is_reserved":false,"is_disabled":false,"rental_uris":{"android":"levelo://app?vid=6ffc31bf-be63-440b-8353-4ff83386083b","ios":"levelo://app?vid=6ffc31bf-be63-440b-8353-4ff83386083b"},"vehicle_type_id":"4","last_reported":1751919143,"current_range_meters":16400,"station_id":"","pricing_plan_id":"cebpf4jnsgd1na2vs0mg"},{"bike_id":"a100467e-a047-4727-a8b5-0799928048be","system_id":"levelo_inurba_marseille","lat":43.29369,"lon":5.37852,"is_reserved":false,"is_disabled":false,"rental_uris":{"android":"levelo://app?vid=a100467e-a047-4727-a8b5-0799928048be","ios":"levelo://app?vid=a100467e-a047-4727-a8b5-0799928048be"},"vehicle_type_id":"4","last_reported":1751919143,"current_range_meters":16400,"station_id":"ce4bgjh2rcd13ifvqbf0","pricing_plan_id":"cebpf4jnsgd1na2vs0mg"},{"bike_id":"593b65f5-5d8e-4ba1-8e42-c2b1facb5061","system_id":"levelo_inurba_marseille","lat":43.29268,"lon":5.38436,"is_reserved":false,"is_disabled":false,"rental_uris":{"android":"levelo://app?vid=593b65f5-5d8e-4ba1-8e42-c2b1facb5061","ios":"levelo://app?vid=593b65f5-5d8e-4ba1-8e42-c2b1facb5061"},"vehicle_type_id":"4","last_reported":1751919143,"current_range_meters":16400,"station_id":"ce4bh692rcd13ifvqea0","pricing_plan_id":"cebpf4jnsgd1na2vs0mg"},{"bike_id":"b0f327d8-e91b-43f4-b745-d22a304329c3","system_id":"levelo_inurba_marseille","lat":43.28462,"lon":5.35881,"is_reserved":false,"is_disabled":false,"rental_uris":{"android":"levelo://app?vid=b0f327d8-e91b-43f4-b745-d22a304329c3","ios":"levelo://app?vid=b0f327d8-e91b-43f4-b745-d22a304329c3"},"vehicle_type_id":"4","last_reported":1751919143,"current_range_meters":16400,"station_id":"ce4bhah2rcd13ifvqei0","pricing_plan_id":"cebpf4jnsgd1na2vs0mg"},{"bike_id":"a11f7711-06b5-48d4-ad64-228f8a05b25d","system_id":"levelo_inurba_marseille","lat":43.26689,"lon":5.38261,"is_reserved":false,"is_disabled":false,"rental_uris":{"android":"levelo://app?vid=a11f7711-06b5-48d4-ad64-228f8a05b25d","ios":"levelo://app?vid=a11f7711-06b5-48d4-ad64-228f8a05b25d"},"vehicle_type_id":"4","last_reported":1751919143,"current_range_meters":16400,"station_id":"ce4bhg92rcd13ifvqf90","pricing_plan_id":"cebpf4jnsgd1na2vs0mg"},{"bike_id":"47504bfd-399a-4889-acd8-b9a1331dcb3c","system_id":"levelo_inurba_marseille","lat":43.30736,"lon":5.42448,"is_reserved":false,"is_disabled":false,"rental_uris":{"android":"levelo://app?vid=47504bfd-399a-4889-acd8-b9a1331dcb3c","ios":"levelo://app?vid=47504bfd-399a-4889-acd8-b9a1331dcb3c"},"vehicle_type_id":"4","last_reported":1751919143,"current_range_meters":16400,"station_id":"st_cvj6ca6bvosntc0bfgr0","pricing_plan_id":"cebpf4jnsgd1na2vs0mg"},{"bike_id":"fe7ecf40-9aa5-4d9b-9a98-8637aadd6e83","system_id":"levelo_inurba_marseille","lat":43.21753,"lon":5.34606,"is_reserved":false,"is_disabled":false,"rental_uris":{"android":"levelo://app?vid=fe7ecf40-9aa5-4d9b-9a98-8637aadd6e83","ios":"levelo://app?vid=fe7ecf40-9aa5-4d9b-9a98-8637aadd6e83"},"vehicle_type_id":"4","last_reported":1751919143,"current_range_meters":16400,"station_id":"st_cvj6r9ubvosntc0bgbag","pricing_plan_id":"cebpf4jnsgd1na2vs0mg"},{"bike_id":"64b4fa4f-0779-4ed7-89cb-2e78d143f36e","system_id":"levelo_inurba_marseille","lat":43.21739,"lon":5.346,"is_reserved":false,"is_disabled":false,"rental_uris":{"android":"levelo://app?vid=64b4fa4f-0779-4ed7-89cb-2e78d143f36e","ios":"levelo://app?vid=64b4fa4f-0779-4ed7-89cb-2e78d143f36e"},"vehicle_type_id":"4","last_reported":1751919143,"current_range_meters":16400,"station_id":"st_cvj6r9ubvosntc0bgbag","pricing_plan_id":"cebpf4jnsgd1na2vs0mg"},{"bike_id":"427cea64-fc3b-46a4-bd25-2bad84cd1642","system_id":"levelo_inurba_marseille","lat":43.21195,"lon":5.35058,"is_reserved":false,"is_disabled":false,"rental_uris":{"android":"levelo://app?vid=427cea64-fc3b-46a4-bd25-2bad84cd1642","ios":"levelo://app?vid=427cea64-fc3b-46a4-bd25-2bad84cd1642"},"vehicle_type_id":"4","last_reported":1751919143,"current_range_meters":16400,"station_id":"st_cvj6sg6p6f1abm77japg","pricing_plan_id":"cebpf4jnsgd1na2vs0mg"},{"bike_id":"6a3a3e65-1839-43d5-b574-3a73e4e32dac","system_id":"levelo_inurba_marseille","lat":43.32321,"lon":5.3887,"is_reserved":false,"is_disabled":false,"rental_uris":{"android":"levelo://app?vid=6a3a3e65-1839-43d5-b574-3a73e4e32dac","ios":"levelo://app?vid=6a3a3e65-1839-43d5-b574-3a73e4e32dac"},"vehicle_type_id":"4","last_reported":1751919143,"current_range_meters":16800,"station_id":"","pricing_plan_id":"cebpf4jnsgd1na2vs0mg"},{"bike_id":"888522e3-39b6-4ff3-ad74-ff6c6f771157","system_id":"levelo_inurba_marseille","lat":43.29498,"lon":5.402603,"is_reserved":false,"is_disabled":false,"rental_uris":{"android":"levelo://app?vid=888522e3-39b6-4ff3-ad74-ff6c6f771157","ios":"levelo://app?vid=888522e3-39b6-4ff3-ad74-ff6c6f771157"},"vehicle_type_id":"4","last_reported":1751919143,"current_range_meters":16800,"station_id":"","pricing_plan_id":"cebpf4jnsgd1na2vs0mg"},{"bike_id":"0a54a6fe-1efb-4eb9-a789-1ad738235b96","system_id":"levelo_inurba_marseille","lat":43.29538,"lon":5.38538,"is_reserved":false,"is_disabled":false,"rental_uris":{"android":"levelo://app?vid=0a54a6fe-1efb-4eb9-a789-1ad738235b96","ios":"levelo://app?vid=0a54a6fe-1efb-4eb9-a789-1ad738235b96"},"vehicle_type_id":"4","last_reported":1751919143,"current_range_meters":16800,"station_id":"ce4bgih2rcd13ifvqba0","pricing_plan_id":"cebpf4jnsgd1na2vs0mg"},{"bike_id":"7d8ec08a-1dba-454a-ad92-fea1080ab788","system_id":"levelo_inurba_marseille","lat":43.29269,"lon":5.38444,"is_reserved":false,"is_disabled":false,"rental_uris":{"android":"levelo://app?vid=7d8ec08a-1dba-454a-ad92-fea1080ab788","ios":"levelo://app?vid=7d8ec08a-1dba-454a-ad92-fea1080ab788"},"vehicle_type_id":"4","last_reported":1751919143,"current_range_meters":16800,"station_id":"ce4bh692rcd13ifvqea0","pricing_plan_id":"cebpf4jnsgd1na2vs0mg"},{"bike_id":"916782fd-fe1a-4a53-9911-360198328a06","system_id":"levelo_inurba_marseille","lat":43.27952,"lon":5.38703,"is_reserved":false,"is_disabled":false,"rental_uris":{"android":"levelo://app?vid=916782fd-fe1a-4a53-9911-360198328a06","ios":"levelo://app?vid=916782fd-fe1a-4a53-9911-360198328a06"},"vehicle_type_id":"4","last_reported":1751919143,"current_range_meters":16800,"station_id":"ce4bhg12rcd13ifvqf80","pricing_plan_id":"cebpf4jnsgd1na2vs0mg"},{"bike_id":"d5ef770d-9759-47e3-b3a5-7d2785ef76db","system_id":"levelo_inurba_marseille","lat":43.32929,"lon":5.39031,"is_reserved":false,"is_disabled":false,"rental_uris":{"android":"levelo://app?vid=d5ef770d-9759-47e3-b3a5-7d2785ef76db","ios":"levelo://app?vid=d5ef770d-9759-47e3-b3a5-7d2785ef76db"},"vehicle_type_id":"4","last_reported":1751919143,"current_range_meters":17200,"station_id":"","pricing_plan_id":"cebpf4jnsgd1na2vs0mg"},{"bike_id":"afd2c671-b274-4716-95f7-9abfdfc6dc55","system_id":"levelo_inurba_marseille","lat":43.31523,"lon":5.37432,"is_reserved":false,"is_disabled":false,"rental_uris":{"android":"levelo://app?vid=afd2c671-b274-4716-95f7-9abfdfc6dc55","ios":"levelo://app?vid=afd2c671-b274-4716-95f7-9abfdfc6dc55"},"vehicle_type_id":"4","last_reported":1751919143,"current_range_meters":17200,"station_id":"","pricing_plan_id":"cebpf4jnsgd1na2vs0mg"},{"bike_id":"3f596cfd-7319-4c8d-8f86-197b7930d477","system_id":"levelo_inurba_marseille","lat":43.28842,"lon":5.39324,"is_reserved":false,"is_disabled":false,"rental_uris":{"android":"levelo://app?vid=3f596cfd-7319-4c8d-8f86-197b7930d477","ios":"levelo://app?vid=3f596cfd-7319-4c8d-8f86-197b7930d477"},"vehicle_type_id":"4","last_reported":1751919143,"current_range_meters":17200,"station_id":"ce4bh2p2rcd13ifvqdi0","pricing_plan_id":"cebpf4jnsgd1na2vs0mg"},{"bike_id":"762784bc-76e0-4220-961c-3afad064fde2","system_id":"levelo_inurba_marseille","lat":43.320861,"lon":5.367714,"is_reserved":false,"is_disabled":false,"rental_uris":{"android":"levelo://app?vid=762784bc-76e0-4220-961c-3afad064fde2","ios":"levelo://app?vid=762784bc-76e0-4220-961c-3afad064fde2"},"vehicle_type_id":"4","last_reported":1751919143,"current_range_meters":17200,"station_id":"ce4bhrh2rcd13ifvqhug","pricing_plan_id":"cebpf4jnsgd1na2vs0mg"},{"bike_id":"51890362-46b0-4ee7-9f02-afbf036d064e","system_id":"levelo_inurba_marseille","lat":43.21215,"lon":5.35066,"is_reserved":false,"is_disabled":false,"rental_uris":{"android":"levelo://app?vid=51890362-46b0-4ee7-9f02-afbf036d064e","ios":"levelo://app?vid=51890362-46b0-4ee7-9f02-afbf036d064e"},"vehicle_type_id":"4","last_reported":1751919143,"current_range_meters":17200,"station_id":"st_cvj6sg6p6f1abm77japg","pricing_plan_id":"cebpf4jnsgd1na2vs0mg"},{"bike_id":"084f14d4-0bc9-446c-902e-a4f3b90135fe","system_id":"levelo_inurba_marseille","lat":43.32445,"lon":5.42878,"is_reserved":false,"is_disabled":false,"rental_uris":{"android":"levelo://app?vid=084f14d4-0bc9-446c-902e-a4f3b90135fe","ios":"levelo://app?vid=084f14d4-0bc9-446c-902e-a4f3b90135fe"},"vehicle_type_id":"4","last_reported":1751919143,"current_range_meters":17600,"station_id":"","pricing_plan_id":"cebpf4jnsgd1na2vs0mg"},{"bike_id":"9db15efa-62b5-43dc-beab-14a16c0840b9","system_id":"levelo_inurba_marseille","lat":43.304524,"lon":5.415534,"is_reserved":false,"is_disabled":false,"rental_uris":{"android":"levelo://app?vid=9db15efa-62b5-43dc-beab-14a16c0840b9","ios":"levelo://app?vid=9db15efa-62b5-43dc-beab-14a16c0840b9"},"vehicle_type_id":"4","last_reported":1751919143,"current_range_meters":17600,"station_id":"","pricing_plan_id":"cebpf4jnsgd1na2vs0mg"},{"bike_id":"d46d831f-9f60-42a0-9704-8719fb4b2b07","system_id":"levelo_inurba_marseille","lat":43.29909,"lon":5.38136,"is_reserved":false,"is_disabled":false,"rental_uris":{"android":"levelo://app?vid=d46d831f-9f60-42a0-9704-8719fb4b2b07","ios":"levelo://app?vid=d46d831f-9f60-42a0-9704-8719fb4b2b07"},"vehicle_type_id":"4","last_reported":1751919143,"current_range_meters":17600,"station_id":"ce4bgj12rcd13ifvqbc0","pricing_plan_id":"cebpf4jnsgd1na2vs0mg"},{"bike_id":"3ed5fc2c-bf1c-4743-abe1-129885190796","system_id":"levelo_inurba_marseille","lat":43.30144,"lon":5.38069,"is_reserved":false,"is_disabled":false,"rental_uris":{"android":"levelo://app?vid=3ed5fc2c-bf1c-4743-abe1-129885190796","ios":"levelo://app?vid=3ed5fc2c-bf1c-4743-abe1-129885190796"},"vehicle_type_id":"4","last_reported":1751919143,"current_range_meters":17600,"station_id":"ce4bgjp2rcd13ifvqbh0","pricing_plan_id":"cebpf4jnsgd1na2vs0mg"},{"bike_id":"d3ca13eb-9df2-41d9-86eb-53718659815f","system_id":"levelo_inurba_marseille","lat":43.30953,"lon":5.39029,"is_reserved":false,"is_disabled":false,"rental_uris":{"android":"levelo://app?vid=d3ca13eb-9df2-41d9-86eb-53718659815f","ios":"levelo://app?vid=d3ca13eb-9df2-41d9-86eb-53718659815f"},"vehicle_type_id":"4","last_reported":1751919143,"current_range_meters":17600,"station_id":"ce4bgup2rcd13ifvqco0","pricing_plan_id":"cebpf4jnsgd1na2vs0mg"},{"bike_id":"c5f83647-e0bc-4d1c-96d9-15bff83e5fe0","system_id":"levelo_inurba_marseille","lat":43.25078,"lon":5.39491,"is_reserved":false,"is_disabled":false,"rental_uris":{"android":"levelo://app?vid=c5f83647-e0bc-4d1c-96d9-15bff83e5fe0","ios":"levelo://app?vid=c5f83647-e0bc-4d1c-96d9-15bff83e5fe0"},"vehicle_type_id":"4","last_reported":1751919143,"current_range_meters":17600,"station_id":"ce4bhm12rcd13ifvqgkg","pricing_plan_id":"cebpf4jnsgd1na2vs0mg"},{"bike_id":"87c2d236-4978-4760-be77-27d7f5a212e4","system_id":"levelo_inurba_marseille","lat":43.29644,"lon":5.36205,"is_reserved":false,"is_disabled":false,"rental_uris":{"android":"levelo://app?vid=87c2d236-4978-4760-be77-27d7f5a212e4","ios":"levelo://app?vid=87c2d236-4978-4760-be77-27d7f5a212e4"},"vehicle_type_id":"4","last_reported":1751919143,"current_range_meters":18000,"station_id":"","pricing_plan_id":"cebpf4jnsgd1na2vs0mg"},{"bike_id":"2f175eb7-0eda-43a7-9c0b-12d57710c80e","system_id":"levelo_inurba_marseille","lat":43.30134,"lon":5.38787,"is_reserved":false,"is_disabled":false,"rental_uris":{"android":"levelo://app?vid=2f175eb7-0eda-43a7-9c0b-12d57710c80e","ios":"levelo://app?vid=2f175eb7-0eda-43a7-9c0b-12d57710c80e"},"vehicle_type_id":"4","last_reported":1751919143,"current_range_meters":18800,"station_id":"ce4bghh2rcd13ifvqb60","pricing_plan_id":"cebpf4jnsgd1na2vs0mg"},{"bike_id":"11c39605-a69d-4688-8110-703210775295","system_id":"levelo_inurba_marseille","lat":43.3133,"lon":5.3969,"is_reserved":false,"is_disabled":false,"rental_uris":{"android":"levelo://app?vid=11c39605-a69d-4688-8110-703210775295","ios":"levelo://app?vid=11c39605-a69d-4688-8110-703210775295"},"vehicle_type_id":"4","last_reported":1751919143,"current_range_meters":18800,"station_id":"ce4bgvp2rcd13ifvqcu0","pricing_plan_id":"cebpf4jnsgd1na2vs0mg"},{"bike_id":"2404ed00-eba1-4534-8cd4-b8ec07e55873","system_id":"levelo_inurba_marseille","lat":43.31326,"lon":5.39685,"is_reserved":false,"is_disabled":false,"rental_uris":{"android":"levelo://app?vid=2404ed00-eba1-4534-8cd4-b8ec07e55873","ios":"levelo://app?vid=2404ed00-eba1-4534-8cd4-b8ec07e55873"},"vehicle_type_id":"4","last_reported":1751919143,"current_range_meters":18800,"station_id":"ce4bgvp2rcd13ifvqcu0","pricing_plan_id":"cebpf4jnsgd1na2vs0mg"},{"bike_id":"8f79dc00-a15d-4197-9ff0-cceb654c0ae7","system_id":"levelo_inurba_marseille","lat":43.29441,"lon":5.38673,"is_reserved":false,"is_disabled":false,"rental_uris":{"android":"levelo://app?vid=8f79dc00-a15d-4197-9ff0-cceb654c0ae7","ios":"levelo://app?vid=8f79dc00-a15d-4197-9ff0-cceb654c0ae7"},"vehicle_type_id":"4","last_reported":1751919143,"current_range_meters":18800,"station_id":"ce4bh2h2rcd13ifvqdh0","pricing_plan_id":"cebpf4jnsgd1na2vs0mg"},{"bike_id":"36265403-f8e1-410b-b19f-79c8fabe993e","system_id":"levelo_inurba_marseille","lat":43.28104,"lon":5.37836,"is_reserved":false,"is_disabled":false,"rental_uris":{"android":"levelo://app?vid=36265403-f8e1-410b-b19f-79c8fabe993e","ios":"levelo://app?vid=36265403-f8e1-410b-b19f-79c8fabe993e"},"vehicle_type_id":"4","last_reported":1751919143,"current_range_meters":18800,"station_id":"ce4bha12rcd13ifvqee0","pricing_plan_id":"cebpf4jnsgd1na2vs0mg"},{"bike_id":"df0207e9-b0df-4a62-8e5c-8efdc445f97c","system_id":"levelo_inurba_marseille","lat":43.2606,"lon":5.39398,"is_reserved":false,"is_disabled":false,"rental_uris":{"android":"levelo://app?vid=df0207e9-b0df-4a62-8e5c-8efdc445f97c","ios":"levelo://app?vid=df0207e9-b0df-4a62-8e5c-8efdc445f97c"},"vehicle_type_id":"4","last_reported":1751919143,"current_range_meters":18800,"station_id":"ce4bhh92rcd13ifvqfj0","pricing_plan_id":"cebpf4jnsgd1na2vs0mg"},{"bike_id":"d78487cb-fa92-4db1-b4fa-56250fd7e81f","system_id":"levelo_inurba_marseille","lat":43.24894,"lon":5.39315,"is_reserved":false,"is_disabled":false,"rental_uris":{"android":"levelo://app?vid=d78487cb-fa92-4db1-b4fa-56250fd7e81f","ios":"levelo://app?vid=d78487cb-fa92-4db1-b4fa-56250fd7e81f"},"vehicle_type_id":"4","last_reported":1751919143,"current_range_meters":19200,"station_id":"","pricing_plan_id":"cebpf4jnsgd1na2vs0mg"},{"bike_id":"a50b49bc-49e1-4a57-acae-6fe4ba62c8c1","system_id":"levelo_inurba_marseille","lat":43.313723,"lon":5.384933,"is_reserved":false,"is_disabled":false,"rental_uris":{"android":"levelo://app?vid=a50b49bc-49e1-4a57-acae-6fe4ba62c8c1","ios":"levelo://app?vid=a50b49bc-49e1-4a57-acae-6fe4ba62c8c1"},"vehicle_type_id":"4","last_reported":1751919143,"current_range_meters":19200,"station_id":"ce4bgt92rcd13ifvqcf0","pricing_plan_id":"cebpf4jnsgd1na2vs0mg"},{"bike_id":"ac924fca-656a-4a6d-911e-5befa3a2c4ed","system_id":"levelo_inurba_marseille","lat":43.290284,"lon":5.386515,"is_reserved":false,"is_disabled":false,"rental_uris":{"android":"levelo://app?vid=ac924fca-656a-4a6d-911e-5befa3a2c4ed","ios":"levelo://app?vid=ac924fca-656a-4a6d-911e-5befa3a2c4ed"},"vehicle_type_id":"4","last_reported":1751919143,"current_range_meters":19200,"station_id":"ce4bh4p2rcd13ifvqe0g","pricing_plan_id":"cebpf4jnsgd1na2vs0mg"},{"bike_id":"2e63035f-7c49-436a-b3c7-09266caa3f67","system_id":"levelo_inurba_marseille","lat":43.29262,"lon":5.38449,"is_reserved":false,"is_disabled":false,"rental_uris":{"android":"levelo://app?vid=2e63035f-7c49-436a-b3c7-09266caa3f67","ios":"levelo://app?vid=2e63035f-7c49-436a-b3c7-09266caa3f67"},"vehicle_type_id":"4","last_reported":1751919143,"current_range_meters":19200,"station_id":"ce4bh692rcd13ifvqea0","pricing_plan_id":"cebpf4jnsgd1na2vs0mg"},{"bike_id":"58576875-89ce-44e2-aa39-7ed2b965fd4a","system_id":"levelo_inurba_marseille","lat":43.28622,"lon":5.35084,"is_reserved":false,"is_disabled":false,"rental_uris":{"android":"levelo://app?vid=58576875-89ce-44e2-aa39-7ed2b965fd4a","ios":"levelo://app?vid=58576875-89ce-44e2-aa39-7ed2b965fd4a"},"vehicle_type_id":"4","last_reported":1751919143,"current_range_meters":19200,"station_id":"ce4bhch2rcd13ifvqeug","pricing_plan_id":"cebpf4jnsgd1na2vs0mg"},{"bike_id":"f016af57-2b6e-4e7e-a93b-6df541ab8167","system_id":"levelo_inurba_marseille","lat":43.29603,"lon":5.38102,"is_reserved":false,"is_disabled":false,"rental_uris":{"android":"levelo://app?vid=f016af57-2b6e-4e7e-a93b-6df541ab8167","ios":"levelo://app?vid=f016af57-2b6e-4e7e-a93b-6df541ab8167"},"vehicle_type_id":"4","last_reported":1751919143,"current_range_meters":19600,"station_id":"ce4bgl12rcd13ifvqbo0","pricing_plan_id":"cebpf4jnsgd1na2vs0mg"},{"bike_id":"cf6840db-4b7a-47c2-8068-00d21969f468","system_id":"levelo_inurba_marseille","lat":43.28451,"lon":5.35887,"is_reserved":false,"is_disabled":false,"rental_uris":{"android":"levelo://app?vid=cf6840db-4b7a-47c2-8068-00d21969f468","ios":"levelo://app?vid=cf6840db-4b7a-47c2-8068-00d21969f468"},"vehicle_type_id":"4","last_reported":1751919143,"current_range_meters":19600,"station_id":"ce4bhah2rcd13ifvqei0","pricing_plan_id":"cebpf4jnsgd1na2vs0mg"},{"bike_id":"6e0cb045-7a78-4a10-92d3-cbf7399a39df","system_id":"levelo_inurba_marseille","lat":43.26944,"lon":5.3865,"is_reserved":false,"is_disabled":false,"rental_uris":{"android":"levelo://app?vid=6e0cb045-7a78-4a10-92d3-cbf7399a39df","ios":"levelo://app?vid=6e0cb045-7a78-4a10-92d3-cbf7399a39df"},"vehicle_type_id":"4","last_reported":1751919143,"current_range_meters":19600,"station_id":"ce4bhh92rcd13ifvqfh0","pricing_plan_id":"cebpf4jnsgd1na2vs0mg"},{"bike_id":"0151660b-0f1d-4cb7-8217-ed8026604fdc","system_id":"levelo_inurba_marseille","lat":43.26499,"lon":5.3957,"is_reserved":false,"is_disabled":false,"rental_uris":{"android":"levelo://app?vid=0151660b-0f1d-4cb7-8217-ed8026604fdc","ios":"levelo://app?vid=0151660b-0f1d-4cb7-8217-ed8026604fdc"},"vehicle_type_id":"4","last_reported":1751919143,"current_range_meters":19600,"station_id":"ce4bhi12rcd13ifvqfq0","pricing_plan_id":"cebpf4jnsgd1na2vs0mg"},{"bike_id":"ed24ef27-3f2f-4e32-848c-213c4e9bdacc","system_id":"levelo_inurba_marseille","lat":43.30337,"lon":5.38598,"is_reserved":false,"is_disabled":false,"rental_uris":{"android":"levelo://app?vid=ed24ef27-3f2f-4e32-848c-213c4e9bdacc","ios":"levelo://app?vid=ed24ef27-3f2f-4e32-848c-213c4e9bdacc"},"vehicle_type_id":"4","last_reported":1751919143,"current_range_meters":20000,"station_id":"","pricing_plan_id":"cebpf4jnsgd1na2vs0mg"},{"bike_id":"ea7df389-5dc0-4c58-88fe-80a5af035925","system_id":"levelo_inurba_marseille","lat":43.29847,"lon":5.36419,"is_reserved":false,"is_disabled":false,"rental_uris":{"android":"levelo://app?vid=ea7df389-5dc0-4c58-88fe-80a5af035925","ios":"levelo://app?vid=ea7df389-5dc0-4c58-88fe-80a5af035925"},"vehicle_type_id":"4","last_reported":1751919143,"current_range_meters":20000,"station_id":"","pricing_plan_id":"cebpf4jnsgd1na2vs0mg"},{"bike_id":"51f0e6bb-8e86-4a89-9f43-3305d7779a76","system_id":"levelo_inurba_marseille","lat":43.28846,"lon":5.39322,"is_reserved":false,"is_disabled":false,"rental_uris":{"android":"levelo://app?vid=51f0e6bb-8e86-4a89-9f43-3305d7779a76","ios":"levelo://app?vid=51f0e6bb-8e86-4a89-9f43-3305d7779a76"},"vehicle_type_id":"4","last_reported":1751919143,"current_range_meters":20000,"station_id":"ce4bh2p2rcd13ifvqdi0","pricing_plan_id":"cebpf4jnsgd1na2vs0mg"},{"bike_id":"1e336ee5-e03e-4dec-a9d1-e3df639a2860","system_id":"levelo_inurba_marseille","lat":43.29526,"lon":5.39051,"is_reserved":false,"is_disabled":false,"rental_uris":{"android":"levelo://app?vid=1e336ee5-e03e-4dec-a9d1-e3df639a2860","ios":"levelo://app?vid=1e336ee5-e03e-4dec-a9d1-e3df639a2860"},"vehicle_type_id":"4","last_reported":1751919143,"current_range_meters":20000,"station_id":"ce4bh3p2rcd13ifvqdp0","pricing_plan_id":"cebpf4jnsgd1na2vs0mg"},{"bike_id":"9e555447-bc4b-4551-8312-b095933eb62f","system_id":"levelo_inurba_marseille","lat":43.2902,"lon":5.38657,"is_reserved":false,"is_disabled":false,"rental_uris":{"android":"levelo://app?vid=9e555447-bc4b-4551-8312-b095933eb62f","ios":"levelo://app?vid=9e555447-bc4b-4551-8312-b095933eb62f"},"vehicle_type_id":"4","last_reported":1751919143,"current_range_meters":20000,"station_id":"ce4bh4p2rcd13ifvqe0g","pricing_plan_id":"cebpf4jnsgd1na2vs0mg"},{"bike_id":"92c6a9d9-2b7f-4402-84f4-471caf5ebfd6","system_id":"levelo_inurba_marseille","lat":43.24676,"lon":5.38146,"is_reserved":false,"is_disabled":false,"rental_uris":{"android":"levelo://app?vid=92c6a9d9-2b7f-4402-84f4-471caf5ebfd6","ios":"levelo://app?vid=92c6a9d9-2b7f-4402-84f4-471caf5ebfd6"},"vehicle_type_id":"4","last_reported":1751919143,"current_range_meters":20000,"station_id":"ce4bhih2rcd13ifvqfr0","pricing_plan_id":"cebpf4jnsgd1na2vs0mg"},{"bike_id":"08063da2-fe5c-4afe-a62a-7ddad854db72","system_id":"levelo_inurba_marseille","lat":43.24566,"lon":5.39513,"is_reserved":false,"is_disabled":false,"rental_uris":{"android":"levelo://app?vid=08063da2-fe5c-4afe-a62a-7ddad854db72","ios":"levelo://app?vid=08063da2-fe5c-4afe-a62a-7ddad854db72"},"vehicle_type_id":"4","last_reported":1751919143,"current_range_meters":20000,"station_id":"ce4bhlp2rcd13ifvqgjg","pricing_plan_id":"cebpf4jnsgd1na2vs0mg"},{"bike_id":"642e07f3-83dd-4aab-82d8-841f6bdb31a9","system_id":"levelo_inurba_marseille","lat":43.28155,"lon":5.42642,"is_reserved":false,"is_disabled":false,"rental_uris":{"android":"levelo://app?vid=642e07f3-83dd-4aab-82d8-841f6bdb31a9","ios":"levelo://app?vid=642e07f3-83dd-4aab-82d8-841f6bdb31a9"},"vehicle_type_id":"4","last_reported":1751919143,"current_range_meters":20000,"station_id":"ce4bhnh2rcd13ifvqgug","pricing_plan_id":"cebpf4jnsgd1na2vs0mg"},{"bike_id":"45b31e0b-1887-4def-b5f9-d8cd58c4e399","system_id":"levelo_inurba_marseille","lat":43.32366,"lon":5.38883,"is_reserved":false,"is_disabled":false,"rental_uris":{"android":"levelo://app?vid=45b31e0b-1887-4def-b5f9-d8cd58c4e399","ios":"levelo://app?vid=45b31e0b-1887-4def-b5f9-d8cd58c4e399"},"vehicle_type_id":"4","last_reported":1751919143,"current_range_meters":20000,"station_id":"ce4bhqp2rcd13ifvqhog","pricing_plan_id":"cebpf4jnsgd1na2vs0mg"},{"bike_id":"fadf3f42-97a9-48a3-8f3e-1acef98c68b4","system_id":"levelo_inurba_marseille","lat":43.32111,"lon":5.36767,"is_reserved":false,"is_disabled":false,"rental_uris":{"android":"levelo://app?vid=fadf3f42-97a9-48a3-8f3e-1acef98c68b4","ios":"levelo://app?vid=fadf3f42-97a9-48a3-8f3e-1acef98c68b4"},"vehicle_type_id":"4","last_reported":1751919143,"current_range_meters":20000,"station_id":"ce4bhrh2rcd13ifvqhug","pricing_plan_id":"cebpf4jnsgd1na2vs0mg"},{"bike_id":"318e2090-d9e4-4f2d-8b73-07fd341623c7","system_id":"levelo_inurba_marseille","lat":43.301197,"lon":5.39867,"is_reserved":false,"is_disabled":false,"rental_uris":{"android":"levelo://app?vid=318e2090-d9e4-4f2d-8b73-07fd341623c7","ios":"levelo://app?vid=318e2090-d9e4-4f2d-8b73-07fd341623c7"},"vehicle_type_id":"4","last_reported":1751919143,"current_range_meters":20400,"station_id":"ce4bh0h2rcd13ifvqd40","pricing_plan_id":"cebpf4jnsgd1na2vs0mg"},{"bike_id":"d44be792-e4c0-45b1-96b1-d9dfde42e217","system_id":"levelo_inurba_marseille","lat":43.28707,"lon":5.37374,"is_reserved":false,"is_disabled":false,"rental_uris":{"android":"levelo://app?vid=d44be792-e4c0-45b1-96b1-d9dfde42e217","ios":"levelo://app?vid=d44be792-e4c0-45b1-96b1-d9dfde42e217"},"vehicle_type_id":"4","last_reported":1751919143,"current_range_meters":20400,"station_id":"ce4bh3p2rcd13ifvqdq0","pricing_plan_id":"cebpf4jnsgd1na2vs0mg"},{"bike_id":"da3c16a7-1722-44ec-a60c-bdcaac1fbdad","system_id":"levelo_inurba_marseille","lat":43.28621,"lon":5.35099,"is_reserved":false,"is_disabled":false,"rental_uris":{"android":"levelo://app?vid=da3c16a7-1722-44ec-a60c-bdcaac1fbdad","ios":"levelo://app?vid=da3c16a7-1722-44ec-a60c-bdcaac1fbdad"},"vehicle_type_id":"4","last_reported":1751919143,"current_range_meters":20400,"station_id":"ce4bhch2rcd13ifvqeug","pricing_plan_id":"cebpf4jnsgd1na2vs0mg"},{"bike_id":"0e9f54b3-c8e2-48f4-8010-ac02c1d93c22","system_id":"levelo_inurba_marseille","lat":43.27975,"lon":5.38738,"is_reserved":false,"is_disabled":false,"rental_uris":{"android":"levelo://app?vid=0e9f54b3-c8e2-48f4-8010-ac02c1d93c22","ios":"levelo://app?vid=0e9f54b3-c8e2-48f4-8010-ac02c1d93c22"},"vehicle_type_id":"4","last_reported":1751919143,"current_range_meters":20400,"station_id":"ce4bhg12rcd13ifvqf80","pricing_plan_id":"cebpf4jnsgd1na2vs0mg"},{"bike_id":"b287377f-3d0b-47ac-86fe-9e0dfc1563de","system_id":"levelo_inurba_marseille","lat":43.22509,"lon":5.34764,"is_reserved":false,"is_disabled":false,"rental_uris":{"android":"levelo://app?vid=b287377f-3d0b-47ac-86fe-9e0dfc1563de","ios":"levelo://app?vid=b287377f-3d0b-47ac-86fe-9e0dfc1563de"},"vehicle_type_id":"4","last_reported":1751919143,"current_range_meters":20400,"station_id":"st_cvj5dfep6f1abm77gieg","pricing_plan_id":"cebpf4jnsgd1na2vs0mg"},{"bike_id":"0a967b9b-4d06-4142-9038-0014f7535902","system_id":"levelo_inurba_marseille","lat":43.29257,"lon":5.37601,"is_reserved":false,"is_disabled":false,"rental_uris":{"android":"levelo://app?vid=0a967b9b-4d06-4142-9038-0014f7535902","ios":"levelo://app?vid=0a967b9b-4d06-4142-9038-0014f7535902"},"vehicle_type_id":"4","last_reported":1751919143,"current_range_meters":20800,"station_id":"ce4bgi12rcd13ifvqb80","pricing_plan_id":"cebpf4jnsgd1na2vs0mg"},{"bike_id":"6f46f84a-b007-442d-a820-0abc1a532207","system_id":"levelo_inurba_marseille","lat":43.24652,"lon":5.38892,"is_reserved":false,"is_disabled":false,"rental_uris":{"android":"levelo://app?vid=6f46f84a-b007-442d-a820-0abc1a532207","ios":"levelo://app?vid=6f46f84a-b007-442d-a820-0abc1a532207"},"vehicle_type_id":"4","last_reported":1751919143,"current_range_meters":20800,"station_id":"ce4bhg12rcd13ifvqf60","pricing_plan_id":"cebpf4jnsgd1na2vs0mg"},{"bike_id":"01d7d53c-863f-472d-a438-ce48a0146924","system_id":"levelo_inurba_marseille","lat":43.26933,"lon":5.38651,"is_reserved":false,"is_disabled":false,"rental_uris":{"android":"levelo://app?vid=01d7d53c-863f-472d-a438-ce48a0146924","ios":"levelo://app?vid=01d7d53c-863f-472d-a438-ce48a0146924"},"vehicle_type_id":"4","last_reported":1751919143,"current_range_meters":20800,"station_id":"ce4bhh92rcd13ifvqfh0","pricing_plan_id":"cebpf4jnsgd1na2vs0mg"},{"bike_id":"d00bfd9c-d56c-4ae7-9e0e-bb6b7351d199","system_id":"levelo_inurba_marseille","lat":43.27995,"lon":5.40018,"is_reserved":false,"is_disabled":false,"rental_uris":{"android":"levelo://app?vid=d00bfd9c-d56c-4ae7-9e0e-bb6b7351d199","ios":"levelo://app?vid=d00bfd9c-d56c-4ae7-9e0e-bb6b7351d199"},"vehicle_type_id":"4","last_reported":1751919143,"current_range_meters":20800,"station_id":"ce4bho92rcd13ifvqh4g","pricing_plan_id":"cebpf4jnsgd1na2vs0mg"},{"bike_id":"f5c16f07-bc6f-4121-91a7-5ad90eec4f34","system_id":"levelo_inurba_marseille","lat":43.31259,"lon":5.37283,"is_reserved":false,"is_disabled":false,"rental_uris":{"android":"levelo://app?vid=f5c16f07-bc6f-4121-91a7-5ad90eec4f34","ios":"levelo://app?vid=f5c16f07-bc6f-4121-91a7-5ad90eec4f34"},"vehicle_type_id":"4","last_reported":1751919143,"current_range_meters":21600,"station_id":"","pricing_plan_id":"cebpf4jnsgd1na2vs0mg"},{"bike_id":"59231303-7f5b-42f0-8cec-b21355d1b7f5","system_id":"levelo_inurba_marseille","lat":43.30539,"lon":5.38422,"is_reserved":false,"is_disabled":false,"rental_uris":{"android":"levelo://app?vid=59231303-7f5b-42f0-8cec-b21355d1b7f5","ios":"levelo://app?vid=59231303-7f5b-42f0-8cec-b21355d1b7f5"},"vehicle_type_id":"4","last_reported":1751919143,"current_range_meters":21600,"station_id":"ce4bgg92rcd13ifvqb30","pricing_plan_id":"cebpf4jnsgd1na2vs0mg"},{"bike_id":"c974b7e0-9cba-4a77-a0db-b87b5b9151eb","system_id":"levelo_inurba_marseille","lat":43.30786,"lon":5.37653,"is_reserved":false,"is_disabled":false,"rental_uris":{"android":"levelo://app?vid=c974b7e0-9cba-4a77-a0db-b87b5b9151eb","ios":"levelo://app?vid=c974b7e0-9cba-4a77-a0db-b87b5b9151eb"},"vehicle_type_id":"4","last_reported":1751919143,"current_range_meters":21600,"station_id":"ce4bgv92rcd13ifvqcq0","pricing_plan_id":"cebpf4jnsgd1na2vs0mg"},{"bike_id":"e35c65f3-3f9e-44ac-9c35-d67050f82774","system_id":"levelo_inurba_marseille","lat":43.30796,"lon":5.43536,"is_reserved":false,"is_disabled":false,"rental_uris":{"android":"levelo://app?vid=e35c65f3-3f9e-44ac-9c35-d67050f82774","ios":"levelo://app?vid=e35c65f3-3f9e-44ac-9c35-d67050f82774"},"vehicle_type_id":"4","last_reported":1751919143,"current_range_meters":21600,"station_id":"ce4bhph2rcd13ifvqheg","pricing_plan_id":"cebpf4jnsgd1na2vs0mg"},{"bike_id":"e7364c6f-b3db-406d-9af4-6307b3e0bb35","system_id":"levelo_inurba_marseille","lat":43.29689,"lon":5.37279,"is_reserved":false,"is_disabled":false,"rental_uris":{"android":"levelo://app?vid=e7364c6f-b3db-406d-9af4-6307b3e0bb35","ios":"levelo://app?vid=e7364c6f-b3db-406d-9af4-6307b3e0bb35"},"vehicle_type_id":"4","last_reported":1751919143,"current_range_meters":22000,"station_id":"ce4bgk12rcd13ifvqbj0","pricing_plan_id":"cebpf4jnsgd1na2vs0mg"},{"bike_id":"a2036afa-02af-4c72-841c-ed135e7f13be","system_id":"levelo_inurba_marseille","lat":43.29875,"lon":5.38904,"is_reserved":false,"is_disabled":false,"rental_uris":{"android":"levelo://app?vid=a2036afa-02af-4c72-841c-ed135e7f13be","ios":"levelo://app?vid=a2036afa-02af-4c72-841c-ed135e7f13be"},"vehicle_type_id":"4","last_reported":1751919143,"current_range_meters":22000,"station_id":"ce4bh392rcd13ifvqdl0","pricing_plan_id":"cebpf4jnsgd1na2vs0mg"},{"bike_id":"6c6a8462-8c90-41b3-b94c-fd1c88449dfe","system_id":"levelo_inurba_marseille","lat":43.26498,"lon":5.39537,"is_reserved":false,"is_disabled":false,"rental_uris":{"android":"levelo://app?vid=6c6a8462-8c90-41b3-b94c-fd1c88449dfe","ios":"levelo://app?vid=6c6a8462-8c90-41b3-b94c-fd1c88449dfe"},"vehicle_type_id":"4","last_reported":1751919143,"current_range_meters":22000,"station_id":"ce4bhi12rcd13ifvqfq0","pricing_plan_id":"cebpf4jnsgd1na2vs0mg"},{"bike_id":"e4793d5e-b4cd-4c12-b9d4-446cb97752b9","system_id":"levelo_inurba_marseille","lat":43.292745,"lon":5.39054,"is_reserved":false,"is_disabled":false,"rental_uris":{"android":"levelo://app?vid=e4793d5e-b4cd-4c12-b9d4-446cb97752b9","ios":"levelo://app?vid=e4793d5e-b4cd-4c12-b9d4-446cb97752b9"},"vehicle_type_id":"4","last_reported":1751919143,"current_range_meters":22400,"station_id":"","pricing_plan_id":"cebpf4jnsgd1na2vs0mg"},{"bike_id":"5a5872c6-a97c-4e06-96d5-1828b33141df","system_id":"levelo_inurba_marseille","lat":43.31332,"lon":5.36894,"is_reserved":false,"is_disabled":false,"rental_uris":{"android":"levelo://app?vid=5a5872c6-a97c-4e06-96d5-1828b33141df","ios":"levelo://app?vid=5a5872c6-a97c-4e06-96d5-1828b33141df"},"vehicle_type_id":"4","last_reported":1751919143,"current_range_meters":22400,"station_id":"","pricing_plan_id":"cebpf4jnsgd1na2vs0mg"},{"bike_id":"06feb6af-5eb5-49ba-8d41-8d2f4dbe1ee1","system_id":"levelo_inurba_marseille","lat":43.2994,"lon":5.36562,"is_reserved":false,"is_disabled":false,"rental_uris":{"android":"levelo://app?vid=06feb6af-5eb5-49ba-8d41-8d2f4dbe1ee1","ios":"levelo://app?vid=06feb6af-5eb5-49ba-8d41-8d2f4dbe1ee1"},"vehicle_type_id":"4","last_reported":1751919143,"current_range_meters":22400,"station_id":"","pricing_plan_id":"cebpf4jnsgd1na2vs0mg"},{"bike_id":"2f4cddfb-e9fa-4020-b1eb-6aaa1eef7dcd","system_id":"levelo_inurba_marseille","lat":43.30921,"lon":5.3704,"is_reserved":false,"is_disabled":false,"rental_uris":{"android":"levelo://app?vid=2f4cddfb-e9fa-4020-b1eb-6aaa1eef7dcd","ios":"levelo://app?vid=2f4cddfb-e9fa-4020-b1eb-6aaa1eef7dcd"},"vehicle_type_id":"4","last_reported":1751919143,"current_range_meters":22400,"station_id":"","pricing_plan_id":"cebpf4jnsgd1na2vs0mg"},{"bike_id":"8d476013-7cbb-45e1-967f-5ff3258244cd","system_id":"levelo_inurba_marseille","lat":43.2938,"lon":5.3784,"is_reserved":false,"is_disabled":false,"rental_uris":{"android":"levelo://app?vid=8d476013-7cbb-45e1-967f-5ff3258244cd","ios":"levelo://app?vid=8d476013-7cbb-45e1-967f-5ff3258244cd"},"vehicle_type_id":"4","last_reported":1751919143,"current_range_meters":22400,"station_id":"ce4bgjh2rcd13ifvqbf0","pricing_plan_id":"cebpf4jnsgd1na2vs0mg"},{"bike_id":"c2b72fe0-bae6-4c7b-ad48-9e771b203dc8","system_id":"levelo_inurba_marseille","lat":43.31366,"lon":5.3846,"is_reserved":false,"is_disabled":false,"rental_uris":{"android":"levelo://app?vid=c2b72fe0-bae6-4c7b-ad48-9e771b203dc8","ios":"levelo://app?vid=c2b72fe0-bae6-4c7b-ad48-9e771b203dc8"},"vehicle_type_id":"4","last_reported":1751919143,"current_range_meters":22400,"station_id":"ce4bgt92rcd13ifvqcf0","pricing_plan_id":"cebpf4jnsgd1na2vs0mg"},{"bike_id":"9a779287-ca0a-4e0e-b967-70c69530567a","system_id":"levelo_inurba_marseille","lat":43.29032,"lon":5.38643,"is_reserved":false,"is_disabled":false,"rental_uris":{"android":"levelo://app?vid=9a779287-ca0a-4e0e-b967-70c69530567a","ios":"levelo://app?vid=9a779287-ca0a-4e0e-b967-70c69530567a"},"vehicle_type_id":"4","last_reported":1751919143,"current_range_meters":22400,"station_id":"ce4bh4p2rcd13ifvqe0g","pricing_plan_id":"cebpf4jnsgd1na2vs0mg"},{"bike_id":"1b0bf1a3-69b2-4604-b147-5e1e04fee197","system_id":"levelo_inurba_marseille","lat":43.28639,"lon":5.36394,"is_reserved":false,"is_disabled":false,"rental_uris":{"android":"levelo://app?vid=1b0bf1a3-69b2-4604-b147-5e1e04fee197","ios":"levelo://app?vid=1b0bf1a3-69b2-4604-b147-5e1e04fee197"},"vehicle_type_id":"4","last_reported":1751919143,"current_range_meters":22400,"station_id":"ce4bhah2rcd13ifvqej0","pricing_plan_id":"cebpf4jnsgd1na2vs0mg"},{"bike_id":"3fec0e9d-fbe6-49f1-98db-6877d74e6f50","system_id":"levelo_inurba_marseille","lat":43.24803,"lon":5.37452,"is_reserved":false,"is_disabled":false,"rental_uris":{"android":"levelo://app?vid=3fec0e9d-fbe6-49f1-98db-6877d74e6f50","ios":"levelo://app?vid=3fec0e9d-fbe6-49f1-98db-6877d74e6f50"},"vehicle_type_id":"4","last_reported":1751919143,"current_range_meters":22400,"station_id":"ce4bhgh2rcd13ifvqfb0","pricing_plan_id":"cebpf4jnsgd1na2vs0mg"},{"bike_id":"d0f48bf1-c52c-4bf6-a2e2-6466bb76b6b7","system_id":"levelo_inurba_marseille","lat":43.26815,"lon":5.40264,"is_reserved":false,"is_disabled":false,"rental_uris":{"android":"levelo://app?vid=d0f48bf1-c52c-4bf6-a2e2-6466bb76b6b7","ios":"levelo://app?vid=d0f48bf1-c52c-4bf6-a2e2-6466bb76b6b7"},"vehicle_type_id":"4","last_reported":1751919143,"current_range_meters":22400,"station_id":"ce501612rcd8frsf0b60","pricing_plan_id":"cebpf4jnsgd1na2vs0mg"},{"bike_id":"a8afc920-648c-43e2-b257-e486319c654b","system_id":"levelo_inurba_marseille","lat":43.28732,"lon":5.36082,"is_reserved":false,"is_disabled":false,"rental_uris":{"android":"levelo://app?vid=a8afc920-648c-43e2-b257-e486319c654b","ios":"levelo://app?vid=a8afc920-648c-43e2-b257-e486319c654b"},"vehicle_type_id":"4","last_reported":1751919143,"current_range_meters":22400,"station_id":"cki0cbj6b192h4jlfktg","pricing_plan_id":"cebpf4jnsgd1na2vs0mg"},{"bike_id":"8af3bab5-67ca-4001-a1bb-3e99bc14c96c","system_id":"levelo_inurba_marseille","lat":43.22922,"lon":5.35381,"is_reserved":false,"is_disabled":false,"rental_uris":{"android":"levelo://app?vid=8af3bab5-67ca-4001-a1bb-3e99bc14c96c","ios":"levelo://app?vid=8af3bab5-67ca-4001-a1bb-3e99bc14c96c"},"vehicle_type_id":"4","last_reported":1751919143,"current_range_meters":22400,"station_id":"cpo3532slgdg3j2ikp40","pricing_plan_id":"cebpf4jnsgd1na2vs0mg"},{"bike_id":"56eb3fdf-ea87-4fcf-85df-3680fa66363e","system_id":"levelo_inurba_marseille","lat":43.22509,"lon":5.34758,"is_reserved":false,"is_disabled":false,"rental_uris":{"android":"levelo://app?vid=56eb3fdf-ea87-4fcf-85df-3680fa66363e","ios":"levelo://app?vid=56eb3fdf-ea87-4fcf-85df-3680fa66363e"},"vehicle_type_id":"4","last_reported":1751919143,"current_range_meters":22400,"station_id":"st_cvj5dfep6f1abm77gieg","pricing_plan_id":"cebpf4jnsgd1na2vs0mg"},{"bike_id":"7f0c405c-cebd-402f-b8ba-98e46b99f50b","system_id":"levelo_inurba_marseille","lat":43.2115,"lon":5.35066,"is_reserved":false,"is_disabled":false,"rental_uris":{"android":"levelo://app?vid=7f0c405c-cebd-402f-b8ba-98e46b99f50b","ios":"levelo://app?vid=7f0c405c-cebd-402f-b8ba-98e46b99f50b"},"vehicle_type_id":"4","last_reported":1751919143,"current_range_meters":22400,"station_id":"st_cvj6sg6p6f1abm77japg","pricing_plan_id":"cebpf4jnsgd1na2vs0mg"},{"bike_id":"d0f90c24-dd03-411b-9731-55305f76b7c8","system_id":"levelo_inurba_marseille","lat":43.21181,"lon":5.35078,"is_reserved":false,"is_disabled":false,"rental_uris":{"android":"levelo://app?vid=d0f90c24-dd03-411b-9731-55305f76b7c8","ios":"levelo://app?vid=d0f90c24-dd03-411b-9731-55305f76b7c8"},"vehicle_type_id":"4","last_reported":1751919143,"current_range_meters":22400,"station_id":"st_cvj6sg6p6f1abm77japg","pricing_plan_id":"cebpf4jnsgd1na2vs0mg"},{"bike_id":"b757ffbb-2b71-4330-9f60-5f8a9d46d16e","system_id":"levelo_inurba_marseille","lat":43.2968,"lon":5.37123,"is_reserved":false,"is_disabled":false,"rental_uris":{"android":"levelo://app?vid=b757ffbb-2b71-4330-9f60-5f8a9d46d16e","ios":"levelo://app?vid=b757ffbb-2b71-4330-9f60-5f8a9d46d16e"},"vehicle_type_id":"4","last_reported":1751919143,"current_range_meters":22800,"station_id":"","pricing_plan_id":"cebpf4jnsgd1na2vs0mg"},{"bike_id":"8000dad4-ffe2-4127-a5a3-fdd3663f2c68","system_id":"levelo_inurba_marseille","lat":43.308082,"lon":5.381513,"is_reserved":false,"is_disabled":false,"rental_uris":{"android":"levelo://app?vid=8000dad4-ffe2-4127-a5a3-fdd3663f2c68","ios":"levelo://app?vid=8000dad4-ffe2-4127-a5a3-fdd3663f2c68"},"vehicle_type_id":"4","last_reported":1751919143,"current_range_meters":22800,"station_id":"ce4bgt12rcd13ifvqce0","pricing_plan_id":"cebpf4jnsgd1na2vs0mg"},{"bike_id":"170704e4-c43e-42a1-8398-648f7ca0ba0f","system_id":"levelo_inurba_marseille","lat":43.30781,"lon":5.37636,"is_reserved":false,"is_disabled":false,"rental_uris":{"android":"levelo://app?vid=170704e4-c43e-42a1-8398-648f7ca0ba0f","ios":"levelo://app?vid=170704e4-c43e-42a1-8398-648f7ca0ba0f"},"vehicle_type_id":"4","last_reported":1751919143,"current_range_meters":22800,"station_id":"ce4bgv92rcd13ifvqcq0","pricing_plan_id":"cebpf4jnsgd1na2vs0mg"},{"bike_id":"70f72318-2a88-4fe3-ae61-6ab01438d1b0","system_id":"levelo_inurba_marseille","lat":43.30213,"lon":5.39468,"is_reserved":false,"is_disabled":false,"rental_uris":{"android":"levelo://app?vid=70f72318-2a88-4fe3-ae61-6ab01438d1b0","ios":"levelo://app?vid=70f72318-2a88-4fe3-ae61-6ab01438d1b0"},"vehicle_type_id":"4","last_reported":1751919143,"current_range_meters":22800,"station_id":"ce4bh0p2rcd13ifvqd70","pricing_plan_id":"cebpf4jnsgd1na2vs0mg"},{"bike_id":"45b3962c-bde2-4028-9ebb-28603887973c","system_id":"levelo_inurba_marseille","lat":43.28971,"lon":5.37836,"is_reserved":false,"is_disabled":false,"rental_uris":{"android":"levelo://app?vid=45b3962c-bde2-4028-9ebb-28603887973c","ios":"levelo://app?vid=45b3962c-bde2-4028-9ebb-28603887973c"},"vehicle_type_id":"4","last_reported":1751919143,"current_range_meters":22800,"station_id":"ce4bh9p2rcd13ifvqed0","pricing_plan_id":"cebpf4jnsgd1na2vs0mg"},{"bike_id":"adb9594f-810d-4df0-a316-17dcf778036f","system_id":"levelo_inurba_marseille","lat":43.28666,"lon":5.36347,"is_reserved":false,"is_disabled":false,"rental_uris":{"android":"levelo://app?vid=adb9594f-810d-4df0-a316-17dcf778036f","ios":"levelo://app?vid=adb9594f-810d-4df0-a316-17dcf778036f"},"vehicle_type_id":"4","last_reported":1751919143,"current_range_meters":22800,"station_id":"ce4bhah2rcd13ifvqej0","pricing_plan_id":"cebpf4jnsgd1na2vs0mg"},{"bike_id":"da3276ab-30b5-4da6-993d-a1b719511e1c","system_id":"levelo_inurba_marseille","lat":43.28619,"lon":5.35103,"is_reserved":false,"is_disabled":false,"rental_uris":{"android":"levelo://app?vid=da3276ab-30b5-4da6-993d-a1b719511e1c","ios":"levelo://app?vid=da3276ab-30b5-4da6-993d-a1b719511e1c"},"vehicle_type_id":"4","last_reported":1751919143,"current_range_meters":22800,"station_id":"ce4bhch2rcd13ifvqeug","pricing_plan_id":"cebpf4jnsgd1na2vs0mg"},{"bike_id":"d49b19df-acd8-439e-a0fa-cbe39c8adac8","system_id":"levelo_inurba_marseille","lat":43.254984,"lon":5.376547,"is_reserved":false,"is_disabled":false,"rental_uris":{"android":"levelo://app?vid=d49b19df-acd8-439e-a0fa-cbe39c8adac8","ios":"levelo://app?vid=d49b19df-acd8-439e-a0fa-cbe39c8adac8"},"vehicle_type_id":"4","last_reported":1751919143,"current_range_meters":22800,"station_id":"ce4bhh12rcd13ifvqff0","pricing_plan_id":"cebpf4jnsgd1na2vs0mg"},{"bike_id":"24d3920e-4ded-48e3-b0dd-577d361085b0","system_id":"levelo_inurba_marseille","lat":43.23966,"lon":5.36639,"is_reserved":false,"is_disabled":false,"rental_uris":{"android":"levelo://app?vid=24d3920e-4ded-48e3-b0dd-577d361085b0","ios":"levelo://app?vid=24d3920e-4ded-48e3-b0dd-577d361085b0"},"vehicle_type_id":"4","last_reported":1751919143,"current_range_meters":22800,"station_id":"ce4bhi12rcd13ifvqfp0","pricing_plan_id":"cebpf4jnsgd1na2vs0mg"},{"bike_id":"811d479f-3524-481c-bd23-2f8975169585","system_id":"levelo_inurba_marseille","lat":43.25724,"lon":5.41124,"is_reserved":false,"is_disabled":false,"rental_uris":{"android":"levelo://app?vid=811d479f-3524-481c-bd23-2f8975169585","ios":"levelo://app?vid=811d479f-3524-481c-bd23-2f8975169585"},"vehicle_type_id":"4","last_reported":1751919143,"current_range_meters":22800,"station_id":"ce4bhkp2rcd13ifvqgd0","pricing_plan_id":"cebpf4jnsgd1na2vs0mg"},{"bike_id":"1e91cee9-7d4a-458c-9805-68ef6c30eb40","system_id":"levelo_inurba_marseille","lat":43.2175,"lon":5.3461,"is_reserved":false,"is_disabled":false,"rental_uris":{"android":"levelo://app?vid=1e91cee9-7d4a-458c-9805-68ef6c30eb40","ios":"levelo://app?vid=1e91cee9-7d4a-458c-9805-68ef6c30eb40"},"vehicle_type_id":"4","last_reported":1751919143,"current_range_meters":22800,"station_id":"st_cvj6r9ubvosntc0bgbag","pricing_plan_id":"cebpf4jnsgd1na2vs0mg"},{"bike_id":"b6d9b946-f66a-4c6f-96e5-5d23e176360c","system_id":"levelo_inurba_marseille","lat":43.31315,"lon":5.38172,"is_reserved":false,"is_disabled":false,"rental_uris":{"android":"levelo://app?vid=b6d9b946-f66a-4c6f-96e5-5d23e176360c","ios":"levelo://app?vid=b6d9b946-f66a-4c6f-96e5-5d23e176360c"},"vehicle_type_id":"4","last_reported":1751919143,"current_range_meters":23200,"station_id":"","pricing_plan_id":"cebpf4jnsgd1na2vs0mg"},{"bike_id":"b2caa530-bb19-4cc6-a6bd-61e3e1d7432e","system_id":"levelo_inurba_marseille","lat":43.33763,"lon":5.37461,"is_reserved":false,"is_disabled":false,"rental_uris":{"android":"levelo://app?vid=b2caa530-bb19-4cc6-a6bd-61e3e1d7432e","ios":"levelo://app?vid=b2caa530-bb19-4cc6-a6bd-61e3e1d7432e"},"vehicle_type_id":"4","last_reported":1751919143,"current_range_meters":23200,"station_id":"","pricing_plan_id":"cebpf4jnsgd1na2vs0mg"},{"bike_id":"3e5ae229-a7f4-4369-b174-15a8529b0b50","system_id":"levelo_inurba_marseille","lat":43.28673,"lon":5.38315,"is_reserved":false,"is_disabled":false,"rental_uris":{"android":"levelo://app?vid=3e5ae229-a7f4-4369-b174-15a8529b0b50","ios":"levelo://app?vid=3e5ae229-a7f4-4369-b174-15a8529b0b50"},"vehicle_type_id":"4","last_reported":1751919143,"current_range_meters":23200,"station_id":"","pricing_plan_id":"cebpf4jnsgd1na2vs0mg"},{"bike_id":"f0ff91ca-c092-40a4-8bc3-885afd83b4ec","system_id":"levelo_inurba_marseille","lat":43.29733,"lon":5.37686,"is_reserved":false,"is_disabled":false,"rental_uris":{"android":"levelo://app?vid=f0ff91ca-c092-40a4-8bc3-885afd83b4ec","ios":"levelo://app?vid=f0ff91ca-c092-40a4-8bc3-885afd83b4ec"},