{"last_updated":1705071986,"ttl":30,"version":"2.2","data":{"bikes":[{"bike_id":"f6e15b0e-0d4b-46f4-8ac5-69a62b551793","system_id":"levelo_inurba_marseille","lat":43.31346,"lon":5.36702,"is_reserved":false,"is_disabled":false,"rental_uris":{"android":"levelo://app?vid=f6e15b0e-0d4b-46f4-8ac5-69a62b551793","ios":"levelo://app?vid=f6e15b0e-0d4b-46f4-8ac5-69a62b551793"},"vehicle_type_id":"4","last_reported":1705071986,"current_range_meters":19600,"station_id":"ce4bgr92rcd13ifvqc6g","pricing_plan_id":"free"},{"bike_id":"4f9976c5-ca33-4a85-86c4-a9b600477776","system_id":"levelo_inurba_marseille","lat":43.31345,"lon":5.36713,"is_reserved":false,"is_disabled":false,"rental_uris":{"android":"levelo://app?vid=4f9976c5-ca33-4a85-86c4-a9b600477776","ios":"levelo://app?vid=4f9976c5-ca33-4a85-86c4-a9b600477776"},"vehicle_type_id":"4","last_reported":1705071986,"current_range_meters":12400,"station_id":"ce4bgr92rcd13ifvqc6g","pricing_plan_id":"free"},{"bike_id":"92769c2f-7076-414e-9c5d-8264796e6639","system_id":"levelo_inurba_marseille","lat":43.31341,"lon":5.367098,"is_reserved":false,"is_disabled":false,"rental_uris":{"android":"levelo://app?vid=92769c2f-7076-414e-9c5d-8264796e6639","ios":"levelo://app?vid=92769c2f-7076-414e-9c5d-8264796e6639"},"vehicle_type_id":"4","last_reported":1705071986,"current_range_meters":28000,"station_id":"ce4bgr92rcd13ifvqc6g","pricing_plan_id":"free"},{"bike_id":"96a3995e-99d7-4037-8931-4ea19fef3608","system_id":"levelo_inurba_marseille","lat":43.31341,"lon":5.367098,"is_reserved":false,"is_disabled":false,"rental_uris":{"android":"levelo://app?vid=96a3995e-99d7-4037-8931-4ea19fef3608","ios":"levelo://app?vid=96a3995e-99d7-4037-8931-4ea19fef3608"},"vehicle_type_id":"4","last_reported":1705071986,"current_range_meters":29200,"station_id":"ce4bgr92rcd13ifvqc6g","pricing_plan_id":"free"},{"bike_id":"28db9f16-3064-49a9-af59-e479388ec6fb","system_id":"levelo_inurba_marseille","lat":43.31348,"lon":5.367218,"is_reserved":false,"is_disabled":false,"rental_uris":{"android":"levelo://app?vid=28db9f16-3064-49a9-af59-e479388ec6fb","ios":"levelo://app?vid=28db9f16-3064-49a9-af59-e479388ec6fb"},"vehicle_type_id":"4","last_reported":1705071986,"current_range_meters":27200,"station_id":"ce4bgr92rcd13ifvqc6g","pricing_plan_id":"free"},{"bike_id":"f1685cb4-7e06-4111-9f18-cf0b98e695ac","system_id":"levelo_inurba_marseille","lat":43.313526,"lon":5.367072,"is_reserved":false,"is_disabled":false,"rental_uris":{"android":"levelo://app?vid=f1685cb4-7e06-4111-9f18-cf0b98e695ac","ios":"levelo://app?vid=f1685cb4-7e06-4111-9f18-cf0b98e695ac"},"vehicle_type_id":"4","last_reported":1705071986,"current_range_meters":31200,"station_id":"ce4bgr92rcd13ifvqc6g","pricing_plan_id":"free"},{"bike_id":"e7fc50c4-feb2-44bc-b909-91f17f7638f2","system_id":"levelo_inurba_marseille","lat":43.3136,"lon":5.36708,"is_reserved":false,"is_disabled":false,"rental_uris":{"android":"levelo://app?vid=e7fc50c4-feb2-44bc-b909-91f17f7638f2","ios":"levelo://app?vid=e7fc50c4-feb2-44bc-b909-91f17f7638f2"},"vehicle_type_id":"4","last_reported":1705071986,"current_range_meters":28000,"station_id":"ce4bgr92rcd13ifvqc6g","pricing_plan_id":"free"},{"bike_id":"0534caf2-9d74-4dd2-816a-bb8ff6b5733a","system_id":"levelo_inurba_marseille","lat":43.312239,"lon":5.368562,"is_reserved":false,"is_disabled":false,"rental_uris":{"android":"levelo://app?vid=0534caf2-9d74-4dd2-816a-bb8ff6b5733a","ios":"levelo://app?vid=0534caf2-9d74-4dd2-816a-bb8ff6b5733a"},"vehicle_type_id":"4","last_reported":1705071986,"current_range_meters":27600,"station_id":"ce4bgl92rcd13ifvqbq0","pricing_plan_id":"free"},{"bike_id":"2050fd5e-2378-4b4f-ad70-626752a7210c","system_id":"levelo_inurba_marseille","lat":43.309076,"lon":5.368465,"is_reserved":false,"is_disabled":false,"rental_uris":{"android":"levelo://app?vid=2050fd5e-2378-4b4f-ad70-626752a7210c","ios":"levelo://app?vid=2050fd5e-2378-4b4f-ad70-626752a7210c"},"vehicle_type_id":"4","last_reported":1705071986,"current_range_meters":28800,"station_id":"ce4bgn92rcd13ifvqbvg","pricing_plan_id":"free"},{"bike_id":"a5bb2b96-034a-4392-83f9-5e02509fcd6f","system_id":"levelo_inurba_marseille","lat":43.309076,"lon":5.368465,"is_reserved":false,"is_disabled":false,"rental_uris":{"android":"levelo://app?vid=a5bb2b96-034a-4392-83f9-5e02509fcd6f","ios":"levelo://app?vid=a5bb2b96-034a-4392-83f9-5e02509fcd6f"},"vehicle_type_id":"4","last_reported":1705071986,"current_range_meters":26000,"station_id":"ce4bgn92rcd13ifvqbvg","pricing_plan_id":"free"},{"bike_id":"a520ca40-e3ce-4e33-aa8f-01420f4aec8d","system_id":"levelo_inurba_marseille","lat":43.314811,"lon":5.373103,"is_reserved":false,"is_disabled":false,"rental_uris":{"android":"levelo://app?vid=a520ca40-e3ce-4e33-aa8f-01420f4aec8d","ios":"levelo://app?vid=a520ca40-e3ce-4e33-aa8f-01420f4aec8d"},"vehicle_type_id":"4","last_reported":1705071986,"current_range_meters":31600,"station_id":"ce4bgt12rcd13ifvqcd0","pricing_plan_id":"free"},{"bike_id":"92ab1d42-d797-4987-9ac3-7455790c7123","system_id":"levelo_inurba_marseille","lat":43.31503,"lon":5.37288,"is_reserved":false,"is_disabled":false,"rental_uris":{"android":"levelo://app?vid=92ab1d42-d797-4987-9ac3-7455790c7123","ios":"levelo://app?vid=92ab1d42-d797-4987-9ac3-7455790c7123"},"vehicle_type_id":"4","last_reported":1705071986,"current_range_meters":16400,"station_id":"ce4bgt12rcd13ifvqcd0","pricing_plan_id":"free"},{"bike_id":"e5aefdd4-bca8-437d-8bca-d5a549f071dc","system_id":"levelo_inurba_marseille","lat":43.314912,"lon":5.373027,"is_reserved":false,"is_disabled":false,"rental_uris":{"android":"levelo://app?vid=e5aefdd4-bca8-437d-8bca-d5a549f071dc","ios":"levelo://app?vid=e5aefdd4-bca8-437d-8bca-d5a549f071dc"},"vehicle_type_id":"4","last_reported":1705071986,"current_range_meters":7600,"station_id":"ce4bgt12rcd13ifvqcd0","pricing_plan_id":"free"},{"bike_id":"c2be9ebd-4cf0-4091-91e3-2cf7a42e68be","system_id":"levelo_inurba_marseille","lat":43.314811,"lon":5.373104,"is_reserved":false,"is_disabled":false,"rental_uris":{"android":"levelo://app?vid=c2be9ebd-4cf0-4091-91e3-2cf7a42e68be","ios":"levelo://app?vid=c2be9ebd-4cf0-4091-91e3-2cf7a42e68be"},"vehicle_type_id":"4","last_reported":1705071986,"current_range_meters":26400,"station_id":"ce4bgt12rcd13ifvqcd0","pricing_plan_id":"free"},{"bike_id":"718c915e-f60b-4c23-b252-a4e903a2233f","system_id":"levelo_inurba_marseille","lat":43.309039,"lon":5.371797,"is_reserved":false,"is_disabled":false,"rental_uris":{"android":"levelo://app?vid=718c915e-f60b-4c23-b252-a4e903a2233f","ios":"levelo://app?vid=718c915e-f60b-4c23-b252-a4e903a2233f"},"vehicle_type_id":"4","last_reported":1705071986,"current_range_meters":22000,"station_id":"ce4bguh2rcd13ifvqckg","pricing_plan_id":"free"},{"bike_id":"e20e121e-eea2-4282-8d29-ab499fc9d2a6","system_id":"levelo_inurba_marseille","lat":43.309039,"lon":5.371797,"is_reserved":false,"is_disabled":false,"rental_uris":{"android":"levelo://app?vid=e20e121e-eea2-4282-8d29-ab499fc9d2a6","ios":"levelo://app?vid=e20e121e-eea2-4282-8d29-ab499fc9d2a6"},"vehicle_type_id":"4","last_reported":1705071986,"current_range_meters":31600,"station_id":"ce4bguh2rcd13ifvqckg","pricing_plan_id":"free"},{"bike_id":"7830c6b6-b7fa-40bf-ba44-345ab3288c16","system_id":"levelo_inurba_marseille","lat":43.309039,"lon":5.371797,"is_reserved":false,"is_disabled":false,"rental_uris":{"android":"levelo://app?vid=7830c6b6-b7fa-40bf-ba44-345ab3288c16","ios":"levelo://app?vid=7830c6b6-b7fa-40bf-ba44-345ab3288c16"},"vehicle_type_id":"4","last_reported":1705071986,"current_range_meters":4000,"station_id":"ce4bguh2rcd13ifvqckg","pricing_plan_id":"free"},{"bike_id":"b31d2f7b-2d98-4be5-a812-605b06b84c98","system_id":"levelo_inurba_marseille","lat":43.309039,"lon":5.371797,"is_reserved":false,"is_disabled":false,"rental_uris":{"android":"levelo://app?vid=b31d2f7b-2d98-4be5-a812-605b06b84c98","ios":"levelo://app?vid=b31d2f7b-2d98-4be5-a812-605b06b84c98"},"vehicle_type_id":"4","last_reported":1705071986,"current_range_meters":22800,"station_id":"ce4bguh2rcd13ifvqckg","pricing_plan_id":"free"},{"bike_id":"04e2f6c7-1a22-4c1a-8201-f25e076331a4","system_id":"levelo_inurba_marseille","lat":43.305714,"lon":5.365633,"is_reserved":false,"is_disabled":false,"rental_uris":{"android":"levelo://app?vid=04e2f6c7-1a22-4c1a-8201-f25e076331a4","ios":"levelo://app?vid=04e2f6c7-1a22-4c1a-8201-f25e076331a4"},"vehicle_type_id":"4","last_reported":1705071986,"current_range_meters":27600,"station_id":"ce4bgs12rcd13ifvqcag","pricing_plan_id":"free"},{"bike_id":"6e2e16dc-d5da-4f58-a280-d174f63e27ac","system_id":"levelo_inurba_marseille","lat":43.305714,"lon":5.365633,"is_reserved":false,"is_disabled":false,"rental_uris":{"android":"levelo://app?vid=6e2e16dc-d5da-4f58-a280-d174f63e27ac","ios":"levelo://app?vid=6e2e16dc-d5da-4f58-a280-d174f63e27ac"},"vehicle_type_id":"4","last_reported":1705071986,"current_range_meters":16800,"station_id":"ce4bgs12rcd13ifvqcag","pricing_plan_id":"free"},{"bike_id":"08f8f7fb-6b26-4624-bd58-74b78c2fd5dc","system_id":"levelo_inurba_marseille","lat":43.30538,"lon":5.36542,"is_reserved":false,"is_disabled":false,"rental_uris":{"android":"levelo://app?vid=08f8f7fb-6b26-4624-bd58-74b78c2fd5dc","ios":"levelo://app?vid=08f8f7fb-6b26-4624-bd58-74b78c2fd5dc"},"vehicle_type_id":"4","last_reported":1705071986,"current_range_meters":9200,"station_id":"ce4bgs12rcd13ifvqcag","pricing_plan_id":"free"},{"bike_id":"34aa5867-54f1-4feb-86d6-f9768a3e9801","system_id":"levelo_inurba_marseille","lat":43.30539,"lon":5.36532,"is_reserved":false,"is_disabled":false,"rental_uris":{"android":"levelo://app?vid=34aa5867-54f1-4feb-86d6-f9768a3e9801","ios":"levelo://app?vid=34aa5867-54f1-4feb-86d6-f9768a3e9801"},"vehicle_type_id":"4","last_reported":1705071986,"current_range_meters":0,"station_id":"ce4bgs12rcd13ifvqcag","pricing_plan_id":"free"},{"bike_id":"16867b03-2db5-4fab-b3bb-161d4fd1c801","system_id":"levelo_inurba_marseille","lat":43.305706,"lon":5.365654,"is_reserved":false,"is_disabled":false,"rental_uris":{"android":"levelo://app?vid=16867b03-2db5-4fab-b3bb-161d4fd1c801","ios":"levelo://app?vid=16867b03-2db5-4fab-b3bb-161d4fd1c801"},"vehicle_type_id":"4","last_reported":1705071986,"current_range_meters":29200,"station_id":"ce4bgs12rcd13ifvqcag","pricing_plan_id":"free"},{"bike_id":"677198fa-6de7-4cb3-bd9d-edddaf0b7afd","system_id":"levelo_inurba_marseille","lat":43.305284,"lon":5.365456,"is_reserved":false,"is_disabled":false,"rental_uris":{"android":"levelo://app?vid=677198fa-6de7-4cb3-bd9d-edddaf0b7afd","ios":"levelo://app?vid=677198fa-6de7-4cb3-bd9d-edddaf0b7afd"},"vehicle_type_id":"4","last_reported":1705071986,"current_range_meters":31200,"station_id":"ce4bgs12rcd13ifvqcag","pricing_plan_id":"free"},{"bike_id":"3d49f712-023c-40f1-8622-56a4ac0953da","system_id":"levelo_inurba_marseille","lat":43.305706,"lon":5.365654,"is_reserved":false,"is_disabled":false,"rental_uris":{"android":"levelo://app?vid=3d49f712-023c-40f1-8622-56a4ac0953da","ios":"levelo://app?vid=3d49f712-023c-40f1-8622-56a4ac0953da"},"vehicle_type_id":"4","last_reported":1705071986,"current_range_meters":31600,"station_id":"ce4bgs12rcd13ifvqcag","pricing_plan_id":"free"},{"bike_id":"49a3f3ab-9ca4-4abf-b76f-885851744f17","system_id":"levelo_inurba_marseille","lat":43.305706,"lon":5.365654,"is_reserved":false,"is_disabled":false,"rental_uris":{"android":"levelo://app?vid=49a3f3ab-9ca4-4abf-b76f-885851744f17","ios":"levelo://app?vid=49a3f3ab-9ca4-4abf-b76f-885851744f17"},"vehicle_type_id":"4","last_reported":1705071986,"current_range_meters":24000,"station_id":"ce4bgs12rcd13ifvqcag","pricing_plan_id":"free"},{"bike_id":"3931e82b-29c6-4cf9-bf53-0bee87ad80ff","system_id":"levelo_inurba_marseille","lat":43.311131,"lon":5.377651,"is_reserved":false,"is_disabled":false,"rental_uris":{"android":"levelo://app?vid=3931e82b-29c6-4cf9-bf53-0bee87ad80ff","ios":"levelo://app?vid=3931e82b-29c6-4cf9-bf53-0bee87ad80ff"},"vehicle_type_id":"4","last_reported":1705071986,"current_range_meters":11200,"station_id":"ce4bgt92rcd13ifvqcg0","pricing_plan_id":"free"},{"bike_id":"6c8f267f-5556-45df-8a58-28b8579a6973","system_id":"levelo_inurba_marseille","lat":43.311131,"lon":5.377651,"is_reserved":false,"is_disabled":false,"rental_uris":{"android":"levelo://app?vid=6c8f267f-5556-45df-8a58-28b8579a6973","ios":"levelo://app?vid=6c8f267f-5556-45df-8a58-28b8579a6973"},"vehicle_type_id":"4","last_reported":1705071986,"current_range_meters":18800,"station_id":"ce4bgt92rcd13ifvqcg0","pricing_plan_id":"free"},{"bike_id":"c3abd01b-d53d-48c7-8328-c8d687b622d9","system_id":"levelo_inurba_marseille","lat":43.311131,"lon":5.377651,"is_reserved":false,"is_disabled":false,"rental_uris":{"android":"levelo://app?vid=c3abd01b-d53d-48c7-8328-c8d687b622d9","ios":"levelo://app?vid=c3abd01b-d53d-48c7-8328-c8d687b622d9"},"vehicle_type_id":"4","last_reported":1705071986,"current_range_meters":24400,"station_id":"ce4bgt92rcd13ifvqcg0","pricing_plan_id":"free"},{"bike_id":"0bf29943-5db3-43fd-aada-8de60c75fa94","system_id":"levelo_inurba_marseille","lat":43.311131,"lon":5.377651,"is_reserved":false,"is_disabled":false,"rental_uris":{"android":"levelo://app?vid=0bf29943-5db3-43fd-aada-8de60c75fa94","ios":"levelo://app?vid=0bf29943-5db3-43fd-aada-8de60c75fa94"},"vehicle_type_id":"4","last_reported":1705071986,"current_range_meters":27600,"station_id":"ce4bgt92rcd13ifvqcg0","pricing_plan_id":"free"},{"bike_id":"371ddf8c-8ad7-4264-a26a-6ed66881d37f","system_id":"levelo_inurba_marseille","lat":43.311125,"lon":5.377624,"is_reserved":false,"is_disabled":false,"rental_uris":{"android":"levelo://app?vid=371ddf8c-8ad7-4264-a26a-6ed66881d37f","ios":"levelo://app?vid=371ddf8c-8ad7-4264-a26a-6ed66881d37f"},"vehicle_type_id":"4","last_reported":1705071986,"current_range_meters":23200,"station_id":"ce4bgt92rcd13ifvqcg0","pricing_plan_id":"free"},{"bike_id":"039d3619-2062-4ce2-958b-3abbb74d9113","system_id":"levelo_inurba_marseille","lat":43.311131,"lon":5.377651,"is_reserved":false,"is_disabled":false,"rental_uris":{"android":"levelo://app?vid=039d3619-2062-4ce2-958b-3abbb74d9113","ios":"levelo://app?vid=039d3619-2062-4ce2-958b-3abbb74d9113"},"vehicle_type_id":"4","last_reported":1705071986,"current_range_meters":22800,"station_id":"ce4bgt92rcd13ifvqcg0","pricing_plan_id":"free"},{"bike_id":"7897ed6f-655a-4466-af1f-893c2f190c78","system_id":"levelo_inurba_marseille","lat":43.311131,"lon":5.377651,"is_reserved":false,"is_disabled":false,"rental_uris":{"android":"levelo://app?vid=7897ed6f-655a-4466-af1f-893c2f190c78","ios":"levelo://app?vid=7897ed6f-655a-4466-af1f-893c2f190c78"},"vehicle_type_id":"4","last_reported":1705071986,"current_range_meters":7200,"station_id":"ce4bgt92rcd13ifvqcg0","pricing_plan_id":"free"},{"bike_id":"ff049e61-f779-4edf-a3a0-1788fa5bfbad","system_id":"levelo_inurba_marseille","lat":43.307945,"lon":5.376487,"is_reserved":false,"is_disabled":false,"rental_uris":{"android":"levelo://app?vid=ff049e61-f779-4edf-a3a0-1788fa5bfbad","ios":"levelo://app?vid=ff049e61-f779-4edf-a3a0-1788fa5bfbad"},"vehicle_type_id":"4","last_reported":1705071986,"current_range_meters":21200,"station_id":"ce4bgv92rcd13ifvqcq0","pricing_plan_id":"free"},{"bike_id":"f50f8f66-13f6-4380-8f7a-39a47cd091a9","system_id":"levelo_inurba_marseille","lat":43.307945,"lon":5.376487,"is_reserved":false,"is_disabled":false,"rental_uris":{"android":"levelo://app?vid=f50f8f66-13f6-4380-8f7a-39a47cd091a9","ios":"levelo://app?vid=f50f8f66-13f6-4380-8f7a-39a47cd091a9"},"vehicle_type_id":"4","last_reported":1705071986,"current_range_meters":0,"station_id":"ce4bgv92rcd13ifvqcq0","pricing_plan_id":"free"},{"bike_id":"15f36a4b-d834-4c9e-93f0-a07739924e38","system_id":"levelo_inurba_marseille","lat":43.307945,"lon":5.376487,"is_reserved":false,"is_disabled":false,"rental_uris":{"android":"levelo://app?vid=15f36a4b-d834-4c9e-93f0-a07739924e38","ios":"levelo://app?vid=15f36a4b-d834-4c9e-93f0-a07739924e38"},"vehicle_type_id":"4","last_reported":1705071986,"current_range_meters":28400,"station_id":"ce4bgv92rcd13ifvqcq0","pricing_plan_id":"free"},{"bike_id":"1d3bd05d-44bb-443e-941b-3b07bbdfa1b6","system_id":"levelo_inurba_marseille","lat":43.307945,"lon":5.376487,"is_reserved":false,"is_disabled":false,"rental_uris":{"android":"levelo://app?vid=1d3bd05d-44bb-443e-941b-3b07bbdfa1b6","ios":"levelo://app?vid=1d3bd05d-44bb-443e-941b-3b07bbdfa1b6"},"vehicle_type_id":"4","last_reported":1705071986,"current_range_meters":15200,"station_id":"ce4bgv92rcd13ifvqcq0","pricing_plan_id":"free"},{"bike_id":"fbf8ddb3-9430-4232-8b3f-c7da765cce15","system_id":"levelo_inurba_marseille","lat":43.307945,"lon":5.376487,"is_reserved":false,"is_disabled":false,"rental_uris":{"android":"levelo://app?vid=fbf8ddb3-9430-4232-8b3f-c7da765cce15","ios":"levelo://app?vid=fbf8ddb3-9430-4232-8b3f-c7da765cce15"},"vehicle_type_id":"4","last_reported":1705071986,"current_range_meters":30000,"station_id":"ce4bgv92rcd13ifvqcq0","pricing_plan_id":"free"},{"bike_id":"c75434b0-03a7-4837-977c-3467c98eccba","system_id":"levelo_inurba_marseille","lat":43.317075,"lon":5.377367,"is_reserved":false,"is_disabled":false,"rental_uris":{"android":"levelo://app?vid=c75434b0-03a7-4837-977c-3467c98eccba","ios":"levelo://app?vid=c75434b0-03a7-4837-977c-3467c98eccba"},"vehicle_type_id":"4","last_reported":1705071986,"current_range_meters":21600,"station_id":"ce4bgth2rcd13ifvqch0","pricing_plan_id":"free"},{"bike_id":"0f598f26-4681-45e7-bcf5-08fd985078da","system_id":"levelo_inurba_marseille","lat":43.317075,"lon":5.377367,"is_reserved":false,"is_disabled":false,"rental_uris":{"android":"levelo://app?vid=0f598f26-4681-45e7-bcf5-08fd985078da","ios":"levelo://app?vid=0f598f26-4681-45e7-bcf5-08fd985078da"},"vehicle_type_id":"4","last_reported":1705071986,"current_range_meters":22800,"station_id":"ce4bgth2rcd13ifvqch0","pricing_plan_id":"free"},{"bike_id":"2b9eb1d4-0754-41f6-9301-60438c4b78d0","system_id":"levelo_inurba_marseille","lat":43.317075,"lon":5.377367,"is_reserved":false,"is_disabled":false,"rental_uris":{"android":"levelo://app?vid=2b9eb1d4-0754-41f6-9301-60438c4b78d0","ios":"levelo://app?vid=2b9eb1d4-0754-41f6-9301-60438c4b78d0"},"vehicle_type_id":"4","last_reported":1705071986,"current_range_meters":27200,"station_id":"ce4bgth2rcd13ifvqch0","pricing_plan_id":"free"},{"bike_id":"e52c587f-67bc-422c-8a43-8bc1c2eaa76d","system_id":"levelo_inurba_marseille","lat":43.317075,"lon":5.377367,"is_reserved":false,"is_disabled":false,"rental_uris":{"android":"levelo://app?vid=e52c587f-67bc-422c-8a43-8bc1c2eaa76d","ios":"levelo://app?vid=e52c587f-67bc-422c-8a43-8bc1c2eaa76d"},"vehicle_type_id":"4","last_reported":1705071986,"current_range_meters":19200,"station_id":"ce4bgth2rcd13ifvqch0","pricing_plan_id":"free"},{"bike_id":"550182d2-fa79-4a50-aef3-777f6fd8b079","system_id":"levelo_inurba_marseille","lat":43.317075,"lon":5.377367,"is_reserved":false,"is_disabled":false,"rental_uris":{"android":"levelo://app?vid=550182d2-fa79-4a50-aef3-777f6fd8b079","ios":"levelo://app?vid=550182d2-fa79-4a50-aef3-777f6fd8b079"},"vehicle_type_id":"4","last_reported":1705071986,"current_range_meters":30400,"station_id":"ce4bgth2rcd13ifvqch0","pricing_plan_id":"free"},{"bike_id":"6ccd192c-e272-452f-b08f-0ef9a71280c6","system_id":"levelo_inurba_marseille","lat":43.317075,"lon":5.377367,"is_reserved":false,"is_disabled":false,"rental_uris":{"android":"levelo://app?vid=6ccd192c-e272-452f-b08f-0ef9a71280c6","ios":"levelo://app?vid=6ccd192c-e272-452f-b08f-0ef9a71280c6"},"vehicle_type_id":"4","last_reported":1705071986,"current_range_meters":31600,"station_id":"ce4bgth2rcd13ifvqch0","pricing_plan_id":"free"},{"bike_id":"6bdafdc7-1f52-4435-9792-d17c098b9b88","system_id":"levelo_inurba_marseille","lat":43.317053,"lon":5.377582,"is_reserved":false,"is_disabled":false,"rental_uris":{"android":"levelo://app?vid=6bdafdc7-1f52-4435-9792-d17c098b9b88","ios":"levelo://app?vid=6bdafdc7-1f52-4435-9792-d17c098b9b88"},"vehicle_type_id":"4","last_reported":1705071986,"current_range_meters":27600,"station_id":"ce4bgth2rcd13ifvqch0","pricing_plan_id":"free"},{"bike_id":"3070ff87-c5c4-46ce-a60c-bfad443be469","system_id":"levelo_inurba_marseille","lat":43.317075,"lon":5.377367,"is_reserved":false,"is_disabled":false,"rental_uris":{"android":"levelo://app?vid=3070ff87-c5c4-46ce-a60c-bfad443be469","ios":"levelo://app?vid=3070ff87-c5c4-46ce-a60c-bfad443be469"},"vehicle_type_id":"4","last_reported":1705071986,"current_range_meters":24000,"station_id":"ce4bgth2rcd13ifvqch0","pricing_plan_id":"free"},{"bike_id":"005eae9a-acaa-4537-a198-dbcb43c7dc1d","system_id":"levelo_inurba_marseille","lat":43.30304,"lon":5.368987,"is_reserved":false,"is_disabled":false,"rental_uris":{"android":"levelo://app?vid=005eae9a-acaa-4537-a198-dbcb43c7dc1d","ios":"levelo://app?vid=005eae9a-acaa-4537-a198-dbcb43c7dc1d"},"vehicle_type_id":"4","last_reported":1705071986,"current_range_meters":17200,"station_id":"ce4bgqh2rcd13ifvqc5g","pricing_plan_id":"free"},{"bike_id":"60fd3122-5e74-4b46-b7da-f515869e30e3","system_id":"levelo_inurba_marseille","lat":43.315365,"lon":5.380333,"is_reserved":false,"is_disabled":false,"rental_uris":{"android":"levelo://app?vid=60fd3122-5e74-4b46-b7da-f515869e30e3","ios":"levelo://app?vid=60fd3122-5e74-4b46-b7da-f515869e30e3"},"vehicle_type_id":"4","last_reported":1705071986,"current_range_meters":27600,"station_id":"ce4bhsp2rcd13ifvqi50","pricing_plan_id":"free"},{"bike_id":"b4fba50a-2c62-49c7-867f-8977512034e9","system_id":"levelo_inurba_marseille","lat":43.308012,"lon":5.381511,"is_reserved":false,"is_disabled":false,"rental_uris":{"android":"levelo://app?vid=b4fba50a-2c62-49c7-867f-8977512034e9","ios":"levelo://app?vid=b4fba50a-2c62-49c7-867f-8977512034e9"},"vehicle_type_id":"4","last_reported":1705071986,"current_range_meters":26800,"station_id":"ce4bgt12rcd13ifvqce0","pricing_plan_id":"free"},{"bike_id":"92e7f229-6756-48f1-a41e-447635aed470","system_id":"levelo_inurba_marseille","lat":43.308012,"lon":5.381511,"is_reserved":false,"is_disabled":false,"rental_uris":{"android":"levelo://app?vid=92e7f229-6756-48f1-a41e-447635aed470","ios":"levelo://app?vid=92e7f229-6756-48f1-a41e-447635aed470"},"vehicle_type_id":"4","last_reported":1705071986,"current_range_meters":7600,"station_id":"ce4bgt12rcd13ifvqce0","pricing_plan_id":"free"},{"bike_id":"53d6484d-0746-4d1e-90f0-53fdea39e446","system_id":"levelo_inurba_marseille","lat":43.308012,"lon":5.381511,"is_reserved":false,"is_disabled":false,"rental_uris":{"android":"levelo://app?vid=53d6484d-0746-4d1e-90f0-53fdea39e446","ios":"levelo://app?vid=53d6484d-0746-4d1e-90f0-53fdea39e446"},"vehicle_type_id":"4","last_reported":1705071986,"current_range_meters":4000,"station_id":"ce4bgt12rcd13ifvqce0","pricing_plan_id":"free"},{"bike_id":"d8b043c4-922c-4825-80e5-1dfe54bcc50c","system_id":"levelo_inurba_marseille","lat":43.308012,"lon":5.381511,"is_reserved":false,"is_disabled":false,"rental_uris":{"android":"levelo://app?vid=d8b043c4-922c-4825-80e5-1dfe54bcc50c","ios":"levelo://app?vid=d8b043c4-922c-4825-80e5-1dfe54bcc50c"},"vehicle_type_id":"4","last_reported":1705071986,"current_range_meters":20000,"station_id":"ce4bgt12rcd13ifvqce0","pricing_plan_id":"free"},{"bike_id":"faf70a8e-4227-4440-9d5e-6b61db04ff83","system_id":"levelo_inurba_marseille","lat":43.308012,"lon":5.381511,"is_reserved":false,"is_disabled":false,"rental_uris":{"android":"levelo://app?vid=faf70a8e-4227-4440-9d5e-6b61db04ff83","ios":"levelo://app?vid=faf70a8e-4227-4440-9d5e-6b61db04ff83"},"vehicle_type_id":"4","last_reported":1705071986,"current_range_meters":29200,"station_id":"ce4bgt12rcd13ifvqce0","pricing_plan_id":"free"},{"bike_id":"5e6734d5-7d18-48fb-b90b-fcd5e163e967","system_id":"levelo_inurba_marseille","lat":43.308012,"lon":5.381511,"is_reserved":false,"is_disabled":false,"rental_uris":{"android":"levelo://app?vid=5e6734d5-7d18-48fb-b90b-fcd5e163e967","ios":"levelo://app?vid=5e6734d5-7d18-48fb-b90b-fcd5e163e967"},"vehicle_type_id":"4","last_reported":1705071986,"current_range_meters":19600,"station_id":"ce4bgt12rcd13ifvqce0","pricing_plan_id":"free"},{"bike_id":"950af946-0c30-472d-a18a-ac6e9eaa0ab9","system_id":"levelo_inurba_marseille","lat":43.300827,"lon":5.365856,"is_reserved":false,"is_disabled":false,"rental_uris":{"android":"levelo://app?vid=950af946-0c30-472d-a18a-ac6e9eaa0ab9","ios":"levelo://app?vid=950af946-0c30-472d-a18a-ac6e9eaa0ab9"},"vehicle_type_id":"4","last_reported":1705071986,"current_range_meters":4800,"station_id":"","pricing_plan_id":"free"},{"bike_id":"65d77922-5877-4280-8a43-4c9e7ddb7cd1","system_id":"levelo_inurba_marseille","lat":43.30463,"lon":5.37899,"is_reserved":false,"is_disabled":false,"rental_uris":{"android":"levelo://app?vid=65d77922-5877-4280-8a43-4c9e7ddb7cd1","ios":"levelo://app?vid=65d77922-5877-4280-8a43-4c9e7ddb7cd1"},"vehicle_type_id":"4","last_reported":1705071986,"current_range_meters":24000,"station_id":"ce4bgup2rcd13ifvqcn0","pricing_plan_id":"free"},{"bike_id":"c8ad3bab-19f7-42a0-8afd-9a183a566914","system_id":"levelo_inurba_marseille","lat":43.30462,"lon":5.37901,"is_reserved":false,"is_disabled":false,"rental_uris":{"android":"levelo://app?vid=c8ad3bab-19f7-42a0-8afd-9a183a566914","ios":"levelo://app?vid=c8ad3bab-19f7-42a0-8afd-9a183a566914"},"vehicle_type_id":"4","last_reported":1705071986,"current_range_meters":2400,"station_id":"ce4bgup2rcd13ifvqcn0","pricing_plan_id":"free"},{"bike_id":"24916cc9-fa7e-466f-b381-26dae346d957","system_id":"levelo_inurba_marseille","lat":43.30463,"lon":5.37903,"is_reserved":false,"is_disabled":false,"rental_uris":{"android":"levelo://app?vid=24916cc9-fa7e-466f-b381-26dae346d957","ios":"levelo://app?vid=24916cc9-fa7e-466f-b381-26dae346d957"},"vehicle_type_id":"4","last_reported":1705071986,"current_range_meters":13200,"station_id":"ce4bgup2rcd13ifvqcn0","pricing_plan_id":"free"},{"bike_id":"7a6ba8f2-6f64-49c3-8150-c8e8fa3bf6aa","system_id":"levelo_inurba_marseille","lat":43.301429,"lon":5.37413,"is_reserved":false,"is_disabled":false,"rental_uris":{"android":"levelo://app?vid=7a6ba8f2-6f64-49c3-8150-c8e8fa3bf6aa","ios":"levelo://app?vid=7a6ba8f2-6f64-49c3-8150-c8e8fa3bf6aa"},"vehicle_type_id":"4","last_reported":1705071986,"current_range_meters":800,"station_id":"ce4bgs92rcd13ifvqcc0","pricing_plan_id":"free"},{"bike_id":"f36e1e61-1fc8-4015-b1e6-f07b8efcb134","system_id":"levelo_inurba_marseille","lat":43.301429,"lon":5.37413,"is_reserved":false,"is_disabled":false,"rental_uris":{"android":"levelo://app?vid=f36e1e61-1fc8-4015-b1e6-f07b8efcb134","ios":"levelo://app?vid=f36e1e61-1fc8-4015-b1e6-f07b8efcb134"},"vehicle_type_id":"4","last_reported":1705071986,"current_range_meters":31600,"station_id":"ce4bgs92rcd13ifvqcc0","pricing_plan_id":"free"},{"bike_id":"570920df-4295-4dfc-adaf-f64484533147","system_id":"levelo_inurba_marseille","lat":43.30143,"lon":5.37413,"is_reserved":false,"is_disabled":false,"rental_uris":{"android":"levelo://app?vid=570920df-4295-4dfc-adaf-f64484533147","ios":"levelo://app?vid=570920df-4295-4dfc-adaf-f64484533147"},"vehicle_type_id":"4","last_reported":1705071986,"current_range_meters":11200,"station_id":"ce4bgs92rcd13ifvqcc0","pricing_plan_id":"free"},{"bike_id":"7e80fef3-8bfb-47f8-b03f-bd904cdaa958","system_id":"levelo_inurba_marseille","lat":43.319935,"lon":5.381699,"is_reserved":false,"is_disabled":false,"rental_uris":{"android":"levelo://app?vid=7e80fef3-8bfb-47f8-b03f-bd904cdaa958","ios":"levelo://app?vid=7e80fef3-8bfb-47f8-b03f-bd904cdaa958"},"vehicle_type_id":"4","last_reported":1705071986,"current_range_meters":9600,"station_id":"ce4bhr12rcd13ifvqhpg","pricing_plan_id":"free"},{"bike_id":"4a77b18d-8935-4b70-b427-bed755f05c94","system_id":"levelo_inurba_marseille","lat":43.313571,"lon":5.384829,"is_reserved":false,"is_disabled":false,"rental_uris":{"android":"levelo://app?vid=4a77b18d-8935-4b70-b427-bed755f05c94","ios":"levelo://app?vid=4a77b18d-8935-4b70-b427-bed755f05c94"},"vehicle_type_id":"4","last_reported":1705071986,"current_range_meters":15200,"station_id":"ce4bgt92rcd13ifvqcf0","pricing_plan_id":"free"},{"bike_id":"b9333f95-9390-4a74-bb30-43f4ec40ed9a","system_id":"levelo_inurba_marseille","lat":43.299222,"lon":5.365554,"is_reserved":false,"is_disabled":false,"rental_uris":{"android":"levelo://app?vid=b9333f95-9390-4a74-bb30-43f4ec40ed9a","ios":"levelo://app?vid=b9333f95-9390-4a74-bb30-43f4ec40ed9a"},"vehicle_type_id":"4","last_reported":1705071986,"current_range_meters":12000,"station_id":"ce4bgm92rcd13ifvqbr0","pricing_plan_id":"free"},{"bike_id":"74668a76-f567-4135-8c1c-69cdc4cbcebf","system_id":"levelo_inurba_marseille","lat":43.299222,"lon":5.365554,"is_reserved":false,"is_disabled":false,"rental_uris":{"android":"levelo://app?vid=74668a76-f567-4135-8c1c-69cdc4cbcebf","ios":"levelo://app?vid=74668a76-f567-4135-8c1c-69cdc4cbcebf"},"vehicle_type_id":"4","last_reported":1705071986,"current_range_meters":20000,"station_id":"ce4bgm92rcd13ifvqbr0","pricing_plan_id":"free"},{"bike_id":"781c629b-dc9b-4614-86bf-632078db10c1","system_id":"levelo_inurba_marseille","lat":43.299724,"lon":5.371829,"is_reserved":false,"is_disabled":false,"rental_uris":{"android":"levelo://app?vid=781c629b-dc9b-4614-86bf-632078db10c1","ios":"levelo://app?vid=781c629b-dc9b-4614-86bf-632078db10c1"},"vehicle_type_id":"4","last_reported":1705071986,"current_range_meters":21600,"station_id":"ce4bgr92rcd13ifvqc7g","pricing_plan_id":"free"},{"bike_id":"784ebb15-6704-4b08-bcaf-9416daaf6ce8","system_id":"levelo_inurba_marseille","lat":43.299724,"lon":5.371829,"is_reserved":false,"is_disabled":false,"rental_uris":{"android":"levelo://app?vid=784ebb15-6704-4b08-bcaf-9416daaf6ce8","ios":"levelo://app?vid=784ebb15-6704-4b08-bcaf-9416daaf6ce8"},"vehicle_type_id":"4","last_reported":1705071986,"current_range_meters":27600,"station_id":"ce4bgr92rcd13ifvqc7g","pricing_plan_id":"free"},{"bike_id":"2357474d-549a-4693-a0b9-36456541956b","system_id":"levelo_inurba_marseille","lat":43.299724,"lon":5.371829,"is_reserved":false,"is_disabled":false,"rental_uris":{"android":"levelo://app?vid=2357474d-549a-4693-a0b9-36456541956b","ios":"levelo://app?vid=2357474d-549a-4693-a0b9-36456541956b"},"vehicle_type_id":"4","last_reported":1705071986,"current_range_meters":18000,"station_id":"ce4bgr92rcd13ifvqc7g","pricing_plan_id":"free"},{"bike_id":"3e53eb74-e520-486e-b51d-b2f585be8131","system_id":"levelo_inurba_marseille","lat":43.314305,"lon":5.385497,"is_reserved":false,"is_disabled":false,"rental_uris":{"android":"levelo://app?vid=3e53eb74-e520-486e-b51d-b2f585be8131","ios":"levelo://app?vid=3e53eb74-e520-486e-b51d-b2f585be8131"},"vehicle_type_id":"4","last_reported":1705071986,"current_range_meters":400,"station_id":"","pricing_plan_id":"free"},{"bike_id":"a8baca07-692d-4466-8d57-62c889ae0682","system_id":"levelo_inurba_marseille","lat":43.298433,"lon":5.362774,"is_reserved":false,"is_disabled":false,"rental_uris":{"android":"levelo://app?vid=a8baca07-692d-4466-8d57-62c889ae0682","ios":"levelo://app?vid=a8baca07-692d-4466-8d57-62c889ae0682"},"vehicle_type_id":"4","last_reported":1705071986,"current_range_meters":16400,"station_id":"ce4bgpp2rcd13ifvqc3g","pricing_plan_id":"free"},{"bike_id":"bd00cfe8-049c-4058-bdb1-781c27d54f58","system_id":"levelo_inurba_marseille","lat":43.305364,"lon":5.384119,"is_reserved":false,"is_disabled":false,"rental_uris":{"android":"levelo://app?vid=bd00cfe8-049c-4058-bdb1-781c27d54f58","ios":"levelo://app?vid=bd00cfe8-049c-4058-bdb1-781c27d54f58"},"vehicle_type_id":"4","last_reported":1705071986,"current_range_meters":12000,"station_id":"ce4bgg92rcd13ifvqb30","pricing_plan_id":"free"},{"bike_id":"5c4dfb2f-0142-4cb1-8cac-bc36f8ea5d18","system_id":"levelo_inurba_marseille","lat":43.298433,"lon":5.362774,"is_reserved":false,"is_disabled":false,"rental_uris":{"android":"levelo://app?vid=5c4dfb2f-0142-4cb1-8cac-bc36f8ea5d18","ios":"levelo://app?vid=5c4dfb2f-0142-4cb1-8cac-bc36f8ea5d18"},"vehicle_type_id":"4","last_reported":1705071986,"current_range_meters":13600,"station_id":"ce4bgpp2rcd13ifvqc3g","pricing_plan_id":"free"},{"bike_id":"6aab9867-0c05-4d4e-8f87-8f8dccc95b3d","system_id":"levelo_inurba_marseille","lat":43.299077,"lon":5.374193,"is_reserved":false,"is_disabled":false,"rental_uris":{"android":"levelo://app?vid=6aab9867-0c05-4d4e-8f87-8f8dccc95b3d","ios":"levelo://app?vid=6aab9867-0c05-4d4e-8f87-8f8dccc95b3d"},"vehicle_type_id":"4","last_reported":1705071986,"current_range_meters":14800,"station_id":"","pricing_plan_id":"free"},{"bike_id":"d3507561-52a3-4d0c-9469-540af84bd96d","system_id":"levelo_inurba_marseille","lat":43.299243,"lon":5.374807,"is_reserved":false,"is_disabled":false,"rental_uris":{"android":"levelo://app?vid=d3507561-52a3-4d0c-9469-540af84bd96d","ios":"levelo://app?vid=d3507561-52a3-4d0c-9469-540af84bd96d"},"vehicle_type_id":"4","last_reported":1705071986,"current_range_meters":28000,"station_id":"ce4bgjh2rcd13ifvqbg0","pricing_plan_id":"free"},{"bike_id":"8bee6cb3-2693-4fe0-8c9d-ecc1838e9ac3","system_id":"levelo_inurba_marseille","lat":43.29917,"lon":5.374664,"is_reserved":false,"is_disabled":false,"rental_uris":{"android":"levelo://app?vid=8bee6cb3-2693-4fe0-8c9d-ecc1838e9ac3","ios":"levelo://app?vid=8bee6cb3-2693-4fe0-8c9d-ecc1838e9ac3"},"vehicle_type_id":"4","last_reported":1705071986,"current_range_meters":28000,"station_id":"ce4bgjh2rcd13ifvqbg0","pricing_plan_id":"free"},{"bike_id":"f2131d06-45c3-4b79-806c-8ba70d8be03e","system_id":"levelo_inurba_marseille","lat":43.29918,"lon":5.37475,"is_reserved":false,"is_disabled":false,"rental_uris":{"android":"levelo://app?vid=f2131d06-45c3-4b79-806c-8ba70d8be03e","ios":"levelo://app?vid=f2131d06-45c3-4b79-806c-8ba70d8be03e"},"vehicle_type_id":"4","last_reported":1705071986,"current_range_meters":16400,"station_id":"ce4bgjh2rcd13ifvqbg0","pricing_plan_id":"free"},{"bike_id":"a6f815d0-e3c5-4a3c-a703-5858f1668696","system_id":"levelo_inurba_marseille","lat":43.29914,"lon":5.37477,"is_reserved":false,"is_disabled":false,"rental_uris":{"android":"levelo://app?vid=a6f815d0-e3c5-4a3c-a703-5858f1668696","ios":"levelo://app?vid=a6f815d0-e3c5-4a3c-a703-5858f1668696"},"vehicle_type_id":"4","last_reported":1705071986,"current_range_meters":29600,"station_id":"ce4bgjh2rcd13ifvqbg0","pricing_plan_id":"free"},{"bike_id":"c2457139-916a-42d2-a244-71fd8891ae0e","system_id":"levelo_inurba_marseille","lat":43.311722,"lon":5.387247,"is_reserved":false,"is_disabled":false,"rental_uris":{"android":"levelo://app?vid=c2457139-916a-42d2-a244-71fd8891ae0e","ios":"levelo://app?vid=c2457139-916a-42d2-a244-71fd8891ae0e"},"vehicle_type_id":"4","last_reported":1705071986,"current_range_meters":16400,"station_id":"ce4bgv12rcd13ifvqcp0","pricing_plan_id":"free"},{"bike_id":"8fc2a519-fb1c-41df-8296-4fe6bc9fbb18","system_id":"levelo_inurba_marseille","lat":43.29913,"lon":5.3748,"is_reserved":false,"is_disabled":false,"rental_uris":{"android":"levelo://app?vid=8fc2a519-fb1c-41df-8296-4fe6bc9fbb18","ios":"levelo://app?vid=8fc2a519-fb1c-41df-8296-4fe6bc9fbb18"},"vehicle_type_id":"4","last_reported":1705071986,"current_range_meters":6400,"station_id":"ce4bgjh2rcd13ifvqbg0","pricing_plan_id":"free"},{"bike_id":"05f7a53e-d124-48dc-b1d3-b5b19c83fb34","system_id":"levelo_inurba_marseille","lat":43.299243,"lon":5.374807,"is_reserved":false,"is_disabled":false,"rental_uris":{"android":"levelo://app?vid=05f7a53e-d124-48dc-b1d3-b5b19c83fb34","ios":"levelo://app?vid=05f7a53e-d124-48dc-b1d3-b5b19c83fb34"},"vehicle_type_id":"4","last_reported":1705071986,"current_range_meters":20000,"station_id":"ce4bgjh2rcd13ifvqbg0","pricing_plan_id":"free"},{"bike_id":"b81ea238-d356-47ac-aeee-27e9c1b48cdb","system_id":"levelo_inurba_marseille","lat":43.297988,"lon":5.368432,"is_reserved":false,"is_disabled":false,"rental_uris":{"android":"levelo://app?vid=b81ea238-d356-47ac-aeee-27e9c1b48cdb","ios":"levelo://app?vid=b81ea238-d356-47ac-aeee-27e9c1b48cdb"},"vehicle_type_id":"4","last_reported":1705071986,"current_range_meters":5600,"station_id":"","pricing_plan_id":"free"},{"bike_id":"6ec0e3d2-9197-4a94-89d7-dd513f2f18f1","system_id":"levelo_inurba_marseille","lat":43.2978,"lon":5.370994,"is_reserved":false,"is_disabled":false,"rental_uris":{"android":"levelo://app?vid=6ec0e3d2-9197-4a94-89d7-dd513f2f18f1","ios":"levelo://app?vid=6ec0e3d2-9197-4a94-89d7-dd513f2f18f1"},"vehicle_type_id":"4","last_reported":1705071986,"current_range_meters":29200,"station_id":"ce4bgop2rcd13ifvqc1g","pricing_plan_id":"free"},{"bike_id":"70c221fb-d58b-460b-ad69-64fe7df6b206","system_id":"levelo_inurba_marseille","lat":43.32287,"lon":5.38257,"is_reserved":false,"is_disabled":false,"rental_uris":{"android":"levelo://app?vid=70c221fb-d58b-460b-ad69-64fe7df6b206","ios":"levelo://app?vid=70c221fb-d58b-460b-ad69-64fe7df6b206"},"vehicle_type_id":"4","last_reported":1705071986,"current_range_meters":26400,"station_id":"ce4bhr12rcd13ifvqhqg","pricing_plan_id":"free"},{"bike_id":"e3bbe24f-422c-4745-9bcc-0852747f7f37","system_id":"levelo_inurba_marseille","lat":43.32289,"lon":5.38261,"is_reserved":false,"is_disabled":false,"rental_uris":{"android":"levelo://app?vid=e3bbe24f-422c-4745-9bcc-0852747f7f37","ios":"levelo://app?vid=e3bbe24f-422c-4745-9bcc-0852747f7f37"},"vehicle_type_id":"4","last_reported":1705071986,"current_range_meters":8400,"station_id":"ce4bhr12rcd13ifvqhqg","pricing_plan_id":"free"},{"bike_id":"4d899553-d928-43f2-9434-010f54e3f861","system_id":"levelo_inurba_marseille","lat":43.322885,"lon":5.382618,"is_reserved":false,"is_disabled":false,"rental_uris":{"android":"levelo://app?vid=4d899553-d928-43f2-9434-010f54e3f861","ios":"levelo://app?vid=4d899553-d928-43f2-9434-010f54e3f861"},"vehicle_type_id":"4","last_reported":1705071986,"current_range_meters":30000,"station_id":"ce4bhr12rcd13ifvqhqg","pricing_plan_id":"free"},{"bike_id":"21316b62-42e0-46a7-b34c-2b2eac0cf0ce","system_id":"levelo_inurba_marseille","lat":43.322848,"lon":5.382667,"is_reserved":false,"is_disabled":false,"rental_uris":{"android":"levelo://app?vid=21316b62-42e0-46a7-b34c-2b2eac0cf0ce","ios":"levelo://app?vid=21316b62-42e0-46a7-b34c-2b2eac0cf0ce"},"vehicle_type_id":"4","last_reported":1705071986,"current_range_meters":29600,"station_id":"ce4bhr12rcd13ifvqhqg","pricing_plan_id":"free"},{"bike_id":"2b5bf558-57ca-4ae3-8734-74dde5ea563b","system_id":"levelo_inurba_marseille","lat":43.322866,"lon":5.382646,"is_reserved":false,"is_disabled":false,"rental_uris":{"android":"levelo://app?vid=2b5bf558-57ca-4ae3-8734-74dde5ea563b","ios":"levelo://app?vid=2b5bf558-57ca-4ae3-8734-74dde5ea563b"},"vehicle_type_id":"4","last_reported":1705071986,"current_range_meters":30000,"station_id":"ce4bhr12rcd13ifvqhqg","pricing_plan_id":"free"},{"bike_id":"ad6cd242-335f-47a9-ad3c-397639e84f74","system_id":"levelo_inurba_marseille","lat":43.322878,"lon":5.38267,"is_reserved":false,"is_disabled":false,"rental_uris":{"android":"levelo://app?vid=ad6cd242-335f-47a9-ad3c-397639e84f74","ios":"levelo://app?vid=ad6cd242-335f-47a9-ad3c-397639e84f74"},"vehicle_type_id":"4","last_reported":1705071986,"current_range_meters":10000,"station_id":"ce4bhr12rcd13ifvqhqg","pricing_plan_id":"free"},{"bike_id":"a28d4661-f307-4e07-91d6-125d0105db5a","system_id":"levelo_inurba_marseille","lat":43.3229,"lon":5.38265,"is_reserved":false,"is_disabled":false,"rental_uris":{"android":"levelo://app?vid=a28d4661-f307-4e07-91d6-125d0105db5a","ios":"levelo://app?vid=a28d4661-f307-4e07-91d6-125d0105db5a"},"vehicle_type_id":"4","last_reported":1705071986,"current_range_meters":30000,"station_id":"ce4bhr12rcd13ifvqhqg","pricing_plan_id":"free"},{"bike_id":"555f2928-05df-4910-a353-01300cd79126","system_id":"levelo_inurba_marseille","lat":43.328208,"lon":5.36674,"is_reserved":false,"is_disabled":false,"rental_uris":{"android":"levelo://app?vid=555f2928-05df-4910-a353-01300cd79126","ios":"levelo://app?vid=555f2928-05df-4910-a353-01300cd79126"},"vehicle_type_id":"4","last_reported":1705071986,"current_range_meters":26000,"station_id":"ce4bhs92rcd13ifvqi0g","pricing_plan_id":"free"},{"bike_id":"d6e71fc0-c662-46a4-9ce2-a4da97cef68b","system_id":"levelo_inurba_marseille","lat":43.328225,"lon":5.36677,"is_reserved":false,"is_disabled":false,"rental_uris":{"android":"levelo://app?vid=d6e71fc0-c662-46a4-9ce2-a4da97cef68b","ios":"levelo://app?vid=d6e71fc0-c662-46a4-9ce2-a4da97cef68b"},"vehicle_type_id":"4","last_reported":1705071986,"current_range_meters":23200,"station_id":"ce4bhs92rcd13ifvqi0g","pricing_plan_id":"free"},{"bike_id":"ebd1c3ae-d840-4cf1-b3ce-5dbd8e760142","system_id":"levelo_inurba_marseille","lat":43.32823,"lon":5.36681,"is_reserved":false,"is_disabled":false,"rental_uris":{"android":"levelo://app?vid=ebd1c3ae-d840-4cf1-b3ce-5dbd8e760142","ios":"levelo://app?vid=ebd1c3ae-d840-4cf1-b3ce-5dbd8e760142"},"vehicle_type_id":"4","last_reported":1705071986,"current_range_meters":12800,"station_id":"ce4bhs92rcd13ifvqi0g","pricing_plan_id":"free"},{"bike_id":"be5c14c2-d069-4824-b2b4-323fba6ab1b5","system_id":"levelo_inurba_marseille","lat":43.32823,"lon":5.36676,"is_reserved":false,"is_disabled":false,"rental_uris":{"android":"levelo://app?vid=be5c14c2-d069-4824-b2b4-323fba6ab1b5","ios":"levelo://app?vid=be5c14c2-d069-4824-b2b4-323fba6ab1b5"},"vehicle_type_id":"4","last_reported":1705071986,"current_range_meters":0,"station_id":"ce4bhs92rcd13ifvqi0g","pricing_plan_id":"free"},{"bike_id":"eb82efee-7e46-4cef-a643-d731882b95f4","system_id":"levelo_inurba_marseille","lat":43.32824,"lon":5.36684,"is_reserved":false,"is_disabled":false,"rental_uris":{"android":"levelo://app?vid=eb82efee-7e46-4cef-a643-d731882b95f4","ios":"levelo://app?vid=eb82efee-7e46-4cef-a643-d731882b95f4"},"vehicle_type_id":"4","last_reported":1705071986,"current_range_meters":6400,"station_id":"ce4bhs92rcd13ifvqi0g","pricing_plan_id":"free"},{"bike_id":"947a5c0b-0299-4cd2-aecd-5f351114aaf8","system_id":"levelo_inurba_marseille","lat":43.328244,"lon":5.366838,"is_reserved":false,"is_disabled":false,"rental_uris":{"android":"levelo://app?vid=947a5c0b-0299-4cd2-aecd-5f351114aaf8","ios":"levelo://app?vid=947a5c0b-0299-4cd2-aecd-5f351114aaf8"},"vehicle_type_id":"4","last_reported":1705071986,"current_range_meters":18800,"station_id":"ce4bhs92rcd13ifvqi0g","pricing_plan_id":"free"},{"bike_id":"e38d20ff-3711-42f9-8598-8b7af98ee7b5","system_id":"levelo_inurba_marseille","lat":43.328268,"lon":5.366789,"is_reserved":false,"is_disabled":false,"rental_uris":{"android":"levelo://app?vid=e38d20ff-3711-42f9-8598-8b7af98ee7b5","ios":"levelo://app?vid=e38d20ff-3711-42f9-8598-8b7af98ee7b5"},"vehicle_type_id":"4","last_reported":1705071986,"current_range_meters":14400,"station_id":"ce4bhs92rcd13ifvqi0g","pricing_plan_id":"free"},{"bike_id":"9949c318-cd33-4e7f-93e5-9b978c57ddec","system_id":"levelo_inurba_marseille","lat":43.32831,"lon":5.3668,"is_reserved":false,"is_disabled":false,"rental_uris":{"android":"levelo://app?vid=9949c318-cd33-4e7f-93e5-9b978c57ddec","ios":"levelo://app?vid=9949c318-cd33-4e7f-93e5-9b978c57ddec"},"vehicle_type_id":"4","last_reported":1705071986,"current_range_meters":14000,"station_id":"ce4bhs92rcd13ifvqi0g","pricing_plan_id":"free"},{"bike_id":"00240506-f51a-4e5e-8e4b-da47fbef48ec","system_id":"levelo_inurba_marseille","lat":43.328312,"lon":5.366752,"is_reserved":false,"is_disabled":false,"rental_uris":{"android":"levelo://app?vid=00240506-f51a-4e5e-8e4b-da47fbef48ec","ios":"levelo://app?vid=00240506-f51a-4e5e-8e4b-da47fbef48ec"},"vehicle_type_id":"4","last_reported":1705071986,"current_range_meters":20800,"station_id":"ce4bhs92rcd13ifvqi0g","pricing_plan_id":"free"},{"bike_id":"b7f19553-caf3-42e9-85f2-de3629dabc8e","system_id":"levelo_inurba_marseille","lat":43.328331,"lon":5.366859,"is_reserved":false,"is_disabled":false,"rental_uris":{"android":"levelo://app?vid=b7f19553-caf3-42e9-85f2-de3629dabc8e","ios":"levelo://app?vid=b7f19553-caf3-42e9-85f2-de3629dabc8e"},"vehicle_type_id":"4","last_reported":1705071986,"current_range_meters":22400,"station_id":"ce4bhs92rcd13ifvqi0g","pricing_plan_id":"free"},{"bike_id":"9fbabc07-7e3e-4dc7-aad6-5f93ddb8699a","system_id":"levelo_inurba_marseille","lat":43.32834,"lon":5.36681,"is_reserved":false,"is_disabled":false,"rental_uris":{"android":"levelo://app?vid=9fbabc07-7e3e-4dc7-aad6-5f93ddb8699a","ios":"levelo://app?vid=9fbabc07-7e3e-4dc7-aad6-5f93ddb8699a"},"vehicle_type_id":"4","last_reported":1705071986,"current_range_meters":8800,"station_id":"ce4bhs92rcd13ifvqi0g","pricing_plan_id":"free"},{"bike_id":"38082c03-fac1-44d3-a79f-5142b4a113a9","system_id":"levelo_inurba_marseille","lat":43.328373,"lon":5.366902,"is_reserved":false,"is_disabled":false,"rental_uris":{"android":"levelo://app?vid=38082c03-fac1-44d3-a79f-5142b4a113a9","ios":"levelo://app?vid=38082c03-fac1-44d3-a79f-5142b4a113a9"},"vehicle_type_id":"4","last_reported":1705071986,"current_range_meters":18000,"station_id":"ce4bhs92rcd13ifvqi0g","pricing_plan_id":"free"},{"bike_id":"c1dbb28d-acf0-476d-8991-92e6d48da7bf","system_id":"levelo_inurba_marseille","lat":43.296801,"lon":5.372822,"is_reserved":false,"is_disabled":false,"rental_uris":{"android":"levelo://app?vid=c1dbb28d-acf0-476d-8991-92e6d48da7bf","ios":"levelo://app?vid=c1dbb28d-acf0-476d-8991-92e6d48da7bf"},"vehicle_type_id":"4","last_reported":1705071986,"current_range_meters":3600,"station_id":"","pricing_plan_id":"free"},{"bike_id":"74d824a3-24cd-42b4-8f4f-c5488488e4ac","system_id":"levelo_inurba_marseille","lat":43.317557,"lon":5.390173,"is_reserved":false,"is_disabled":false,"rental_uris":{"android":"levelo://app?vid=74d824a3-24cd-42b4-8f4f-c5488488e4ac","ios":"levelo://app?vid=74d824a3-24cd-42b4-8f4f-c5488488e4ac"},"vehicle_type_id":"4","last_reported":1705071986,"current_range_meters":21600,"station_id":"ce4bhqp2rcd13ifvqhng","pricing_plan_id":"free"},{"bike_id":"0c72375a-c0e8-453d-9fff-a181e9e615f1","system_id":"levelo_inurba_marseille","lat":43.296129,"lon":5.370777,"is_reserved":false,"is_disabled":false,"rental_uris":{"android":"levelo://app?vid=0c72375a-c0e8-453d-9fff-a181e9e615f1","ios":"levelo://app?vid=0c72375a-c0e8-453d-9fff-a181e9e615f1"},"vehicle_type_id":"4","last_reported":1705071986,"current_range_meters":6400,"station_id":"ce4bgnh2rcd13ifvqc0g","pricing_plan_id":"free"},{"bike_id":"9e89494a-821f-4b23-91b0-11ee5d0eb099","system_id":"levelo_inurba_marseille","lat":43.296921,"lon":5.376579,"is_reserved":false,"is_disabled":false,"rental_uris":{"android":"levelo://app?vid=9e89494a-821f-4b23-91b0-11ee5d0eb099","ios":"levelo://app?vid=9e89494a-821f-4b23-91b0-11ee5d0eb099"},"vehicle_type_id":"4","last_reported":1705071986,"current_range_meters":13200,"station_id":"ce4bgkh2rcd13ifvqbl0","pricing_plan_id":"free"},{"bike_id":"cb4bbf2d-1efc-4895-b774-b7dd69d08521","system_id":"levelo_inurba_marseille","lat":43.299202,"lon":5.381513,"is_reserved":false,"is_disabled":false,"rental_uris":{"android":"levelo://app?vid=cb4bbf2d-1efc-4895-b774-b7dd69d08521","ios":"levelo://app?vid=cb4bbf2d-1efc-4895-b774-b7dd69d08521"},"vehicle_type_id":"4","last_reported":1705071986,"current_range_meters":6000,"station_id":"","pricing_plan_id":"free"},{"bike_id":"35f73777-3f7e-4d59-a483-b264935ab955","system_id":"levelo_inurba_marseille","lat":43.309589,"lon":5.390258,"is_reserved":false,"is_disabled":false,"rental_uris":{"android":"levelo://app?vid=35f73777-3f7e-4d59-a483-b264935ab955","ios":"levelo://app?vid=35f73777-3f7e-4d59-a483-b264935ab955"},"vehicle_type_id":"4","last_reported":1705071986,"current_range_meters":10800,"station_id":"ce4bgup2rcd13ifvqco0","pricing_plan_id":"free"},{"bike_id":"baa78dd4-4e50-4cae-88c4-ac36ac595279","system_id":"levelo_inurba_marseille","lat":43.29905,"lon":5.38131,"is_reserved":false,"is_disabled":false,"rental_uris":{"android":"levelo://app?vid=baa78dd4-4e50-4cae-88c4-ac36ac595279","ios":"levelo://app?vid=baa78dd4-4e50-4cae-88c4-ac36ac595279"},"vehicle_type_id":"4","last_reported":1705071986,"current_range_meters":26000,"station_id":"ce4bgj12rcd13ifvqbc0","pricing_plan_id":"free"},{"bike_id":"6e6619a6-bb7d-432d-a736-0d5d9d781fff","system_id":"levelo_inurba_marseille","lat":43.309485,"lon":5.39025,"is_reserved":false,"is_disabled":false,"rental_uris":{"android":"levelo://app?vid=6e6619a6-bb7d-432d-a736-0d5d9d781fff","ios":"levelo://app?vid=6e6619a6-bb7d-432d-a736-0d5d9d781fff"},"vehicle_type_id":"4","last_reported":1705071986,"current_range_meters":12000,"station_id":"ce4bgup2rcd13ifvqco0","pricing_plan_id":"free"},{"bike_id":"e8217c8b-1902-4915-bf50-f08bd1d734f5","system_id":"levelo_inurba_marseille","lat":43.309461,"lon":5.390276,"is_reserved":false,"is_disabled":false,"rental_uris":{"android":"levelo://app?vid=e8217c8b-1902-4915-bf50-f08bd1d734f5","ios":"levelo://app?vid=e8217c8b-1902-4915-bf50-f08bd1d734f5"},"vehicle_type_id":"4","last_reported":1705071986,"current_range_meters":26000,"station_id":"ce4bgup2rcd13ifvqco0","pricing_plan_id":"free"},{"bike_id":"8ce7d17e-6218-4b95-a150-33c5f317637f","system_id":"levelo_inurba_marseille","lat":43.30958,"lon":5.39031,"is_reserved":false,"is_disabled":false,"rental_uris":{"android":"levelo://app?vid=8ce7d17e-6218-4b95-a150-33c5f317637f","ios":"levelo://app?vid=8ce7d17e-6218-4b95-a150-33c5f317637f"},"vehicle_type_id":"4","last_reported":1705071986,"current_range_meters":18800,"station_id":"ce4bgup2rcd13ifvqco0","pricing_plan_id":"free"},{"bike_id":"c0a85d68-41f8-40e9-bf79-6688a39d0478","system_id":"levelo_inurba_marseille","lat":43.309589,"lon":5.390258,"is_reserved":false,"is_disabled":false,"rental_uris":{"android":"levelo://app?vid=c0a85d68-41f8-40e9-bf79-6688a39d0478","ios":"levelo://app?vid=c0a85d68-41f8-40e9-bf79-6688a39d0478"},"vehicle_type_id":"4","last_reported":1705071986,"current_range_meters":18800,"station_id":"ce4bgup2rcd13ifvqco0","pricing_plan_id":"free"},{"bike_id":"d3e62cd9-66b0-432b-abfc-a78eada04cd8","system_id":"levelo_inurba_marseille","lat":43.296921,"lon":5.376579,"is_reserved":false,"is_disabled":false,"rental_uris":{"android":"levelo://app?vid=d3e62cd9-66b0-432b-abfc-a78eada04cd8","ios":"levelo://app?vid=d3e62cd9-66b0-432b-abfc-a78eada04cd8"},"vehicle_type_id":"4","last_reported":1705071986,"current_range_meters":10400,"station_id":"ce4bgkh2rcd13ifvqbl0","pricing_plan_id":"free"},{"bike_id":"9a188e3d-6dc0-434d-8cf0-f3fbeee2e832","system_id":"levelo_inurba_marseille","lat":43.296921,"lon":5.376579,"is_reserved":false,"is_disabled":false,"rental_uris":{"android":"levelo://app?vid=9a188e3d-6dc0-434d-8cf0-f3fbeee2e832","ios":"levelo://app?vid=9a188e3d-6dc0-434d-8cf0-f3fbeee2e832"},"vehicle_type_id":"4","last_reported":1705071986,"current_range_meters":31600,"station_id":"ce4bgkh2rcd13ifvqbl0","pricing_plan_id":"free"},{"bike_id":"7d8d8fc0-0da6-4c5e-a753-3b49b79ff5c8","system_id":"levelo_inurba_marseille","lat":43.30961,"lon":5.39038,"is_reserved":false,"is_disabled":false,"rental_uris":{"android":"levelo://app?vid=7d8d8fc0-0da6-4c5e-a753-3b49b79ff5c8","ios":"levelo://app?vid=7d8d8fc0-0da6-4c5e-a753-3b49b79ff5c8"},"vehicle_type_id":"4","last_reported":1705071986,"current_range_meters":6000,"station_id":"ce4bgup2rcd13ifvqco0","pricing_plan_id":"free"},{"bike_id":"9d7b3110-7d5c-4876-94c6-3e15df13b497","system_id":"levelo_inurba_marseille","lat":43.30953,"lon":5.39036,"is_reserved":false,"is_disabled":false,"rental_uris":{"android":"levelo://app?vid=9d7b3110-7d5c-4876-94c6-3e15df13b497","ios":"levelo://app?vid=9d7b3110-7d5c-4876-94c6-3e15df13b497"},"vehicle_type_id":"4","last_reported":1705071986,"current_range_meters":28800,"station_id":"ce4bgup2rcd13ifvqco0","pricing_plan_id":"free"},{"bike_id":"7acdf3f5-82fe-47a4-9c2a-bc6619823298","system_id":"levelo_inurba_marseille","lat":43.309589,"lon":5.390258,"is_reserved":false,"is_disabled":false,"rental_uris":{"android":"levelo://app?vid=7acdf3f5-82fe-47a4-9c2a-bc6619823298","ios":"levelo://app?vid=7acdf3f5-82fe-47a4-9c2a-bc6619823298"},"vehicle_type_id":"4","last_reported":1705071986,"current_range_meters":17600,"station_id":"ce4bgup2rcd13ifvqco0","pricing_plan_id":"free"},{"bike_id":"3b41762a-fcde-4024-8045-d61e21a95482","system_id":"levelo_inurba_marseille","lat":43.309589,"lon":5.390258,"is_reserved":false,"is_disabled":false,"rental_uris":{"android":"levelo://app?vid=3b41762a-fcde-4024-8045-d61e21a95482","ios":"levelo://app?vid=3b41762a-fcde-4024-8045-d61e21a95482"},"vehicle_type_id":"4","last_reported":1705071986,"current_range_meters":15200,"station_id":"ce4bgup2rcd13ifvqco0","pricing_plan_id":"free"},{"bike_id":"5cd3e34d-5e6e-4b74-8278-59cd39d5dd13","system_id":"levelo_inurba_marseille","lat":43.296935,"lon":5.376544,"is_reserved":false,"is_disabled":false,"rental_uris":{"android":"levelo://app?vid=5cd3e34d-5e6e-4b74-8278-59cd39d5dd13","ios":"levelo://app?vid=5cd3e34d-5e6e-4b74-8278-59cd39d5dd13"},"vehicle_type_id":"4","last_reported":1705071986,"current_range_meters":18400,"station_id":"ce4bgkh2rcd13ifvqbl0","pricing_plan_id":"free"},{"bike_id":"f96dd2e8-f545-485d-855a-299156846841","system_id":"levelo_inurba_marseille","lat":43.3097,"lon":5.39043,"is_reserved":false,"is_disabled":false,"rental_uris":{"android":"levelo://app?vid=f96dd2e8-f545-485d-855a-299156846841","ios":"levelo://app?vid=f96dd2e8-f545-485d-855a-299156846841"},"vehicle_type_id":"4","last_reported":1705071986,"current_range_meters":0,"station_id":"ce4bgup2rcd13ifvqco0","pricing_plan_id":"free"},{"bike_id":"f2d4996d-0453-4c9e-a10f-3cacc9ca7cb0","system_id":"levelo_inurba_marseille","lat":43.296921,"lon":5.376579,"is_reserved":false,"is_disabled":false,"rental_uris":{"android":"levelo://app?vid=f2d4996d-0453-4c9e-a10f-3cacc9ca7cb0","ios":"levelo://app?vid=f2d4996d-0453-4c9e-a10f-3cacc9ca7cb0"},"vehicle_type_id":"4","last_reported":1705071986,"current_range_meters":19600,"station_id":"ce4bgkh2rcd13ifvqbl0","pricing_plan_id":"free"},{"bike_id":"54cc88f3-279c-4eb7-94e7-e7058c4478cb","system_id":"levelo_inurba_marseille","lat":43.309589,"lon":5.390258,"is_reserved":false,"is_disabled":false,"rental_uris":{"android":"levelo://app?vid=54cc88f3-279c-4eb7-94e7-e7058c4478cb","ios":"levelo://app?vid=54cc88f3-279c-4eb7-94e7-e7058c4478cb"},"vehicle_type_id":"4","last_reported":1705071986,"current_range_meters":31600,"station_id":"ce4bgup2rcd13ifvqco0","pricing_plan_id":"free"},{"bike_id":"f19598d0-6b82-4980-92d5-d81bd2dd8753","system_id":"levelo_inurba_marseille","lat":43.296935,"lon":5.376544,"is_reserved":false,"is_disabled":false,"rental_uris":{"android":"levelo://app?vid=f19598d0-6b82-4980-92d5-d81bd2dd8753","ios":"levelo://app?vid=f19598d0-6b82-4980-92d5-d81bd2dd8753"},"vehicle_type_id":"4","last_reported":1705071986,"current_range_meters":26400,"station_id":"ce4bgkh2rcd13ifvqbl0","pricing_plan_id":"free"},{"bike_id":"2143ddaa-3bcb-4262-b0a1-e78fb35d561f","system_id":"levelo_inurba_marseille","lat":43.30959,"lon":5.39042,"is_reserved":false,"is_disabled":false,"rental_uris":{"android":"levelo://app?vid=2143ddaa-3bcb-4262-b0a1-e78fb35d561f","ios":"levelo://app?vid=2143ddaa-3bcb-4262-b0a1-e78fb35d561f"},"vehicle_type_id":"4","last_reported":1705071986,"current_range_meters":24000,"station_id":"ce4bgup2rcd13ifvqco0","pricing_plan_id":"free"},{"bike_id":"c8c0b7ca-7a54-4eaa-96a7-4ae564e61d9b","system_id":"levelo_inurba_marseille","lat":43.296921,"lon":5.376579,"is_reserved":false,"is_disabled":false,"rental_uris":{"android":"levelo://app?vid=c8c0b7ca-7a54-4eaa-96a7-4ae564e61d9b","ios":"levelo://app?vid=c8c0b7ca-7a54-4eaa-96a7-4ae564e61d9b"},"vehicle_type_id":"4","last_reported":1705071986,"current_range_meters":1200,"station_id":"ce4bgkh2rcd13ifvqbl0","pricing_plan_id":"free"},{"bike_id":"ef542112-dd31-458f-aef9-857236309331","system_id":"levelo_inurba_marseille","lat":43.309515,"lon":5.390427,"is_reserved":false,"is_disabled":false,"rental_uris":{"android":"levelo://app?vid=ef542112-dd31-458f-aef9-857236309331","ios":"levelo://app?vid=ef542112-dd31-458f-aef9-857236309331"},"vehicle_type_id":"4","last_reported":1705071986,"current_range_meters":12000,"station_id":"ce4bgup2rcd13ifvqco0","pricing_plan_id":"free"},{"bike_id":"5cab3a83-a9b4-4132-bbce-798691950619","system_id":"levelo_inurba_marseille","lat":43.309472,"lon":5.39047,"is_reserved":false,"is_disabled":false,"rental_uris":{"android":"levelo://app?vid=5cab3a83-a9b4-4132-bbce-798691950619","ios":"levelo://app?vid=5cab3a83-a9b4-4132-bbce-798691950619"},"vehicle_type_id":"4","last_reported":1705071986,"current_range_meters":18000,"station_id":"ce4bgup2rcd13ifvqco0","pricing_plan_id":"free"},{"bike_id":"08f18c28-69a0-45cc-b4a1-8f3963230de6","system_id":"levelo_inurba_marseille","lat":43.296935,"lon":5.376544,"is_reserved":false,"is_disabled":false,"rental_uris":{"android":"levelo://app?vid=08f18c28-69a0-45cc-b4a1-8f3963230de6","ios":"levelo://app?vid=08f18c28-69a0-45cc-b4a1-8f3963230de6"},"vehicle_type_id":"4","last_reported":1705071986,"current_range_meters":0,"station_id":"ce4bgkh2rcd13ifvqbl0","pricing_plan_id":"free"},{"bike_id":"50fd873f-1dbb-456d-848a-5c365d370a22","system_id":"levelo_inurba_marseille","lat":43.31756,"lon":5.39012,"is_reserved":false,"is_disabled":false,"rental_uris":{"android":"levelo://app?vid=50fd873f-1dbb-456d-848a-5c365d370a22","ios":"levelo://app?vid=50fd873f-1dbb-456d-848a-5c365d370a22"},"vehicle_type_id":"4","last_reported":1705071986,"current_range_meters":25200,"station_id":"ce4bhqp2rcd13ifvqhng","pricing_plan_id":"free"},{"bike_id":"8ce4bc77-9e03-4c49-8246-3572d38df609","system_id":"levelo_inurba_marseille","lat":43.31763,"lon":5.39012,"is_reserved":false,"is_disabled":false,"rental_uris":{"android":"levelo://app?vid=8ce4bc77-9e03-4c49-8246-3572d38df609","ios":"levelo://app?vid=8ce4bc77-9e03-4c49-8246-3572d38df609"},"vehicle_type_id":"4","last_reported":1705071986,"current_range_meters":31200,"station_id":"ce4bhqp2rcd13ifvqhng","pricing_plan_id":"free"},{"bike_id":"90b53e98-48b3-435e-95e4-c5f7e2badff6","system_id":"levelo_inurba_marseille","lat":43.298037,"lon":5.381066,"is_reserved":false,"is_disabled":false,"rental_uris":{"android":"levelo://app?vid=90b53e98-48b3-435e-95e4-c5f7e2badff6","ios":"levelo://app?vid=90b53e98-48b3-435e-95e4-c5f7e2badff6"},"vehicle_type_id":"4","last_reported":1705071986,"current_range_meters":31600,"station_id":"ce4bgip2rcd13ifvqbb0","pricing_plan_id":"free"},{"bike_id":"371f6a44-cf24-4137-b4d1-d6dd8319b6ac","system_id":"levelo_inurba_marseille","lat":43.298037,"lon":5.381066,"is_reserved":false,"is_disabled":false,"rental_uris":{"android":"levelo://app?vid=371f6a44-cf24-4137-b4d1-d6dd8319b6ac","ios":"levelo://app?vid=371f6a44-cf24-4137-b4d1-d6dd8319b6ac"},"vehicle_type_id":"4","last_reported":1705071986,"current_range_meters":0,"station_id":"ce4bgip2rcd13ifvqbb0","pricing_plan_id":"free"},{"bike_id":"5281aead-0e75-4da1-b71f-f8b9b0fdece0","system_id":"levelo_inurba_marseille","lat":43.296921,"lon":5.376579,"is_reserved":false,"is_disabled":false,"rental_uris":{"android":"levelo://app?vid=5281aead-0e75-4da1-b71f-f8b9b0fdece0","ios":"levelo://app?vid=5281aead-0e75-4da1-b71f-f8b9b0fdece0"},"vehicle_type_id":"4","last_reported":1705071986,"current_range_meters":19200,"station_id":"ce4bgkh2rcd13ifvqbl0","pricing_plan_id":"free"},{"bike_id":"f02d4469-9eea-4f36-bf2c-d9318d4471eb","system_id":"levelo_inurba_marseille","lat":43.304278,"lon":5.388868,"is_reserved":false,"is_disabled":false,"rental_uris":{"android":"levelo://app?vid=f02d4469-9eea-4f36-bf2c-d9318d4471eb","ios":"levelo://app?vid=f02d4469-9eea-4f36-bf2c-d9318d4471eb"},"vehicle_type_id":"4","last_reported":1705071986,"current_range_meters":7600,"station_id":"ce4bgk12rcd13ifvqbi0","pricing_plan_id":"free"},{"bike_id":"1af802c9-48bc-4d94-9cc4-1c7a4dfeadcf","system_id":"levelo_inurba_marseille","lat":43.304278,"lon":5.388868,"is_reserved":false,"is_disabled":false,"rental_uris":{"android":"levelo://app?vid=1af802c9-48bc-4d94-9cc4-1c7a4dfeadcf","ios":"levelo://app?vid=1af802c9-48bc-4d94-9cc4-1c7a4dfeadcf"},"vehicle_type_id":"4","last_reported":1705071986,"current_range_meters":9600,"station_id":"ce4bgk12rcd13ifvqbi0","pricing_plan_id":"free"},{"bike_id":"e6a9243a-5846-4a22-8092-766066d3d707","system_id":"levelo_inurba_marseille","lat":43.304274,"lon":5.388873,"is_reserved":false,"is_disabled":false,"rental_uris":{"android":"levelo://app?vid=e6a9243a-5846-4a22-8092-766066d3d707","ios":"levelo://app?vid=e6a9243a-5846-4a22-8092-766066d3d707"},"vehicle_type_id":"4","last_reported":1705071986,"current_range_meters":19600,"station_id":"ce4bgk12rcd13ifvqbi0","pricing_plan_id":"free"},{"bike_id":"e1680f7e-db40-49a1-a558-bee900d4e087","system_id":"levelo_inurba_marseille","lat":43.29985,"lon":5.38479,"is_reserved":false,"is_disabled":false,"rental_uris":{"android":"levelo://app?vid=e1680f7e-db40-49a1-a558-bee900d4e087","ios":"levelo://app?vid=e1680f7e-db40-49a1-a558-bee900d4e087"},"vehicle_type_id":"4","last_reported":1705071986,"current_range_meters":12400,"station_id":"ce4bgj92rcd13ifvqbd0","pricing_plan_id":"free"},{"bike_id":"e9430b67-e8ee-4893-bb28-3b0fe546a7a0","system_id":"levelo_inurba_marseille","lat":43.29985,"lon":5.38487,"is_reserved":false,"is_disabled":false,"rental_uris":{"android":"levelo://app?vid=e9430b67-e8ee-4893-bb28-3b0fe546a7a0","ios":"levelo://app?vid=e9430b67-e8ee-4893-bb28-3b0fe546a7a0"},"vehicle_type_id":"4","last_reported":1705071986,"current_range_meters":29200,"station_id":"ce4bgj92rcd13ifvqbd0","pricing_plan_id":"free"},{"bike_id":"a07eb01b-f0f4-4325-a040-26ce6cf623f6","system_id":"levelo_inurba_marseille","lat":43.299707,"lon":5.384859,"is_reserved":false,"is_disabled":false,"rental_uris":{"android":"levelo://app?vid=a07eb01b-f0f4-4325-a040-26ce6cf623f6","ios":"levelo://app?vid=a07eb01b-f0f4-4325-a040-26ce6cf623f6"},"vehicle_type_id":"4","last_reported":1705071986,"current_range_meters":24000,"station_id":"ce4bgj92rcd13ifvqbd0","pricing_plan_id":"free"},{"bike_id":"54b29d33-ad5e-4b7f-995c-aff3ac72113e","system_id":"levelo_inurba_marseille","lat":43.29978,"lon":5.38491,"is_reserved":false,"is_disabled":false,"rental_uris":{"android":"levelo://app?vid=54b29d33-ad5e-4b7f-995c-aff3ac72113e","ios":"levelo://app?vid=54b29d33-ad5e-4b7f-995c-aff3ac72113e"},"vehicle_type_id":"4","last_reported":1705071986,"current_range_meters":11200,"station_id":"ce4bgj92rcd13ifvqbd0","pricing_plan_id":"free"},{"bike_id":"8825ff70-1bf7-46c4-8d4a-f842964163c0","system_id":"levelo_inurba_marseille","lat":43.299724,"lon":5.384848,"is_reserved":false,"is_disabled":false,"rental_uris":{"android":"levelo://app?vid=8825ff70-1bf7-46c4-8d4a-f842964163c0","ios":"levelo://app?vid=8825ff70-1bf7-46c4-8d4a-f842964163c0"},"vehicle_type_id":"4","last_reported":1705071986,"current_range_meters":20800,"station_id":"ce4bgj92rcd13ifvqbd0","pricing_plan_id":"free"},{"bike_id":"e62b1d0a-f35a-4ad0-bdcd-de4f5b06c98e","system_id":"levelo_inurba_marseille","lat":43.299717,"lon":5.384845,"is_reserved":false,"is_disabled":false,"rental_uris":{"android":"levelo://app?vid=e62b1d0a-f35a-4ad0-bdcd-de4f5b06c98e","ios":"levelo://app?vid=e62b1d0a-f35a-4ad0-bdcd-de4f5b06c98e"},"vehicle_type_id":"4","last_reported":1705071986,"current_range_meters":29200,"station_id":"ce4bgj92rcd13ifvqbd0","pricing_plan_id":"free"},{"bike_id":"5a99f4a7-35dd-44ce-ba77-e85c169dc75e","system_id":"levelo_inurba_marseille","lat":43.299724,"lon":5.384848,"is_reserved":false,"is_disabled":false,"rental_uris":{"android":"levelo://app?vid=5a99f4a7-35dd-44ce-ba77-e85c169dc75e","ios":"levelo://app?vid=5a99f4a7-35dd-44ce-ba77-e85c169dc75e"},"vehicle_type_id":"4","last_reported":1705071986,"current_range_meters":18800,"station_id":"ce4bgj92rcd13ifvqbd0","pricing_plan_id":"free"},{"bike_id":"0d212e0f-5290-4e8a-9bd6-c91e95a83c8c","system_id":"levelo_inurba_marseille","lat":43.299724,"lon":5.384848,"is_reserved":false,"is_disabled":false,"rental_uris":{"android":"levelo://app?vid=0d212e0f-5290-4e8a-9bd6-c91e95a83c8c","ios":"levelo://app?vid=0d212e0f-5290-4e8a-9bd6-c91e95a83c8c"},"vehicle_type_id":"4","last_reported":1705071986,"current_range_meters":8400,"station_id":"ce4bgj92rcd13ifvqbd0","pricing_plan_id":"free"},{"bike_id":"9ff1140d-2be0-4042-9314-fb0ac59d9015","system_id":"levelo_inurba_marseille","lat":43.299724,"lon":5.384848,"is_reserved":false,"is_disabled":false,"rental_uris":{"android":"levelo://app?vid=9ff1140d-2be0-4042-9314-fb0ac59d9015","ios":"levelo://app?vid=9ff1140d-2be0-4042-9314-fb0ac59d9015"},"vehicle_type_id":"4","last_reported":1705071986,"current_range_meters":22000,"station_id":"ce4bgj92rcd13ifvqbd0","pricing_plan_id":"free"},{"bike_id":"4469e9df-1d39-4a76-8888-54626d565d84","system_id":"levelo_inurba_marseille","lat":43.29965,"lon":5.384997,"is_reserved":false,"is_disabled":false,"rental_uris":{"android":"levelo://app?vid=4469e9df-1d39-4a76-8888-54626d565d84","ios":"levelo://app?vid=4469e9df-1d39-4a76-8888-54626d565d84"},"vehicle_type_id":"4","last_reported":1705071986,"current_range_meters":7600,"station_id":"ce4bgj92rcd13ifvqbd0","pricing_plan_id":"free"},{"bike_id":"25f5fd0e-ed90-4b33-a0ef-2c9e6bb212ed","system_id":"levelo_inurba_marseille","lat":43.323663,"lon":5.388777,"is_reserved":false,"is_disabled":false,"rental_uris":{"android":"levelo://app?vid=25f5fd0e-ed90-4b33-a0ef-2c9e6bb212ed","ios":"levelo://app?vid=25f5fd0e-ed90-4b33-a0ef-2c9e6bb212ed"},"vehicle_type_id":"4","last_reported":1705071986,"current_range_meters":6800,"station_id":"ce4bhqp2rcd13ifvqhog","pricing_plan_id":"free"},{"bike_id":"3e29f5a9-1d58-41c0-a22c-c5a725ce2283","system_id":"levelo_inurba_marseille","lat":43.32367,"lon":5.388836,"is_reserved":false,"is_disabled":false,"rental_uris":{"android":"levelo://app?vid=3e29f5a9-1d58-41c0-a22c-c5a725ce2283","ios":"levelo://app?vid=3e29f5a9-1d58-41c0-a22c-c5a725ce2283"},"vehicle_type_id":"4","last_reported":1705071986,"current_range_meters":12400,"station_id":"ce4bhqp2rcd13ifvqhog","pricing_plan_id":"free"},{"bike_id":"b9f3042b-33f8-4e67-a419-fcf7e0a521ff","system_id":"levelo_inurba_marseille","lat":43.32365,"lon":5.38882,"is_reserved":false,"is_disabled":false,"rental_uris":{"android":"levelo://app?vid=b9f3042b-33f8-4e67-a419-fcf7e0a521ff","ios":"levelo://app?vid=b9f3042b-33f8-4e67-a419-fcf7e0a521ff"},"vehicle_type_id":"4","last_reported":1705071986,"current_range_meters":5200,"station_id":"ce4bhqp2rcd13ifvqhog","pricing_plan_id":"free"},{"bike_id":"f4066241-6ace-41bf-a596-e12478f7b6d4","system_id":"levelo_inurba_marseille","lat":43.32367,"lon":5.388836,"is_reserved":false,"is_disabled":false,"rental_uris":{"android":"levelo://app?vid=f4066241-6ace-41bf-a596-e12478f7b6d4","ios":"levelo://app?vid=f4066241-6ace-41bf-a596-e12478f7b6d4"},"vehicle_type_id":"4","last_reported":1705071986,"current_range_meters":28000,"station_id":"ce4bhqp2rcd13ifvqhog","pricing_plan_id":"free"},{"bike_id":"196abc4f-5591-4679-bc84-42ef02bf1e5b","system_id":"levelo_inurba_marseille","lat":43.32367,"lon":5.388836,"is_reserved":false,"is_disabled":false,"rental_uris":{"android":"levelo://app?vid=196abc4f-5591-4679-bc84-42ef02bf1e5b","ios":"levelo://app?vid=196abc4f-5591-4679-bc84-42ef02bf1e5b"},"vehicle_type_id":"4","last_reported":1705071986,"current_range_meters":24400,"station_id":"ce4bhqp2rcd13ifvqhog","pricing_plan_id":"free"},{"bike_id":"74dc2f64-9af3-484c-adee-8432120654b8","system_id":"levelo_inurba_marseille","lat":43.29601,"lon":5.381084,"is_reserved":false,"is_disabled":false,"rental_uris":{"android":"levelo://app?vid=74dc2f64-9af3-484c-adee-8432120654b8","ios":"levelo://app?vid=74dc2f64-9af3-484c-adee-8432120654b8"},"vehicle_type_id":"4","last_reported":1705071986,"current_range_meters":21200,"station_id":"ce4bgl12rcd13ifvqbo0","pricing_plan_id":"free"},{"bike_id":"88a555a1-15db-4a38-ac7d-91424b7166dc","system_id":"levelo_inurba_marseille","lat":43.29601,"lon":5.381084,"is_reserved":false,"is_disabled":false,"rental_uris":{"android":"levelo://app?vid=88a555a1-15db-4a38-ac7d-91424b7166dc","ios":"levelo://app?vid=88a555a1-15db-4a38-ac7d-91424b7166dc"},"vehicle_type_id":"4","last_reported":1705071986,"current_range_meters":9600,"station_id":"ce4bgl12rcd13ifvqbo0","pricing_plan_id":"free"},{"bike_id":"963506f7-5dd4-4c0f-8386-1bf76f7fa7d3","system_id":"levelo_inurba_marseille","lat":43.29602,"lon":5.381084,"is_reserved":false,"is_disabled":false,"rental_uris":{"android":"levelo://app?vid=963506f7-5dd4-4c0f-8386-1bf76f7fa7d3","ios":"levelo://app?vid=963506f7-5dd4-4c0f-8386-1bf76f7fa7d3"},"vehicle_type_id":"4","last_reported":1705071986,"current_range_meters":10000,"station_id":"ce4bgl12rcd13ifvqbo0","pricing_plan_id":"free"},{"bike_id":"35f85da4-b9f5-4cec-8f05-6738b5c1e9f0","system_id":"levelo_inurba_marseille","lat":43.29602,"lon":5.381084,"is_reserved":false,"is_disabled":false,"rental_uris":{"android":"levelo://app?vid=35f85da4-b9f5-4cec-8f05-6738b5c1e9f0","ios":"levelo://app?vid=35f85da4-b9f5-4cec-8f05-6738b5c1e9f0"},"vehicle_type_id":"4","last_reported":1705071986,"current_range_meters":14800,"station_id":"ce4bgl12rcd13ifvqbo0","pricing_plan_id":"free"},{"bike_id":"783a742e-ee88-43f7-83cd-2c06cd647aa7","system_id":"levelo_inurba_marseille","lat":43.29602,"lon":5.381084,"is_reserved":false,"is_disabled":false,"rental_uris":{"android":"levelo://app?vid=783a742e-ee88-43f7-83cd-2c06cd647aa7","ios":"levelo://app?vid=783a742e-ee88-43f7-83cd-2c06cd647aa7"},"vehicle_type_id":"4","last_reported":1705071986,"current_range_meters":31200,"station_id":"ce4bgl12rcd13ifvqbo0","pricing_plan_id":"free"},{"bike_id":"e22f7fae-2250-4ee8-a5b4-a02ef56dae80","system_id":"levelo_inurba_marseille","lat":43.29602,"lon":5.381084,"is_reserved":false,"is_disabled":false,"rental_uris":{"android":"levelo://app?vid=e22f7fae-2250-4ee8-a5b4-a02ef56dae80","ios":"levelo://app?vid=e22f7fae-2250-4ee8-a5b4-a02ef56dae80"},"vehicle_type_id":"4","last_reported":1705071986,"current_range_meters":6000,"station_id":"ce4bgl12rcd13ifvqbo0","pricing_plan_id":"free"},{"bike_id":"767c3f01-0f65-4d4e-996e-0897fe734ee0","system_id":"levelo_inurba_marseille","lat":43.302335,"lon":5.390395,"is_reserved":false,"is_disabled":false,"rental_uris":{"android":"levelo://app?vid=767c3f01-0f65-4d4e-996e-0897fe734ee0","ios":"levelo://app?vid=767c3f01-0f65-4d4e-996e-0897fe734ee0"},"vehicle_type_id":"4","last_reported":1705071986,"current_range_meters":0,"station_id":"","pricing_plan_id":"free"},{"bike_id":"87b9b444-5f49-435a-acf2-c97e65e22b23","system_id":"levelo_inurba_marseille","lat":43.293009,"lon":5.374584,"is_reserved":false,"is_disabled":false,"rental_uris":{"android":"levelo://app?vid=87b9b444-5f49-435a-acf2-c97e65e22b23","ios":"levelo://app?vid=87b9b444-5f49-435a-acf2-c97e65e22b23"},"vehicle_type_id":"4","last_reported":1705071986,"current_range_meters":19600,"station_id":"ce4bgi12rcd13ifvqb70","pricing_plan_id":"free"},{"bike_id":"c1ca44c2-863b-4c7b-9e02-67febfe54037","system_id":"levelo_inurba_marseille","lat":43.30591,"lon":5.39353,"is_reserved":false,"is_disabled":false,"rental_uris":{"android":"levelo://app?vid=c1ca44c2-863b-4c7b-9e02-67febfe54037","ios":"levelo://app?vid=c1ca44c2-863b-4c7b-9e02-67febfe54037"},"vehicle_type_id":"4","last_reported":1705071986,"current_range_meters":0,"station_id":"ce4bh0p2rcd13ifvqd80","pricing_plan_id":"free"},{"bike_id":"d8022755-3aa0-4c95-8f16-0f9ca78add83","system_id":"levelo_inurba_marseille","lat":43.30314,"lon":5.39206,"is_reserved":false,"is_disabled":false,"rental_uris":{"android":"levelo://app?vid=d8022755-3aa0-4c95-8f16-0f9ca78add83","ios":"levelo://app?vid=d8022755-3aa0-4c95-8f16-0f9ca78add83"},"vehicle_type_id":"4","last_reported":1705071986,"current_range_meters":3600,"station_id":"ce4bgkh2rcd13ifvqbk0","pricing_plan_id":"free"},{"bike_id":"640526fa-0fca-48b7-82e0-7c16c78d3042","system_id":"levelo_inurba_marseille","lat":43.303002,"lon":5.392142,"is_reserved":false,"is_disabled":false,"rental_uris":{"android":"levelo://app?vid=640526fa-0fca-48b7-82e0-7c16c78d3042","ios":"levelo://app?vid=640526fa-0fca-48b7-82e0-7c16c78d3042"},"vehicle_type_id":"4","last_reported":1705071986,"current_range_meters":3200,"station_id":"ce4bgkh2rcd13ifvqbk0","pricing_plan_id":"free"},{"bike_id":"8a061bdb-fdd4-4b08-87f7-8be6a301b016","system_id":"levelo_inurba_marseille","lat":43.292311,"lon":5.360731,"is_reserved":false,"is_disabled":false,"rental_uris":{"android":"levelo://app?vid=8a061bdb-fdd4-4b08-87f7-8be6a301b016","ios":"levelo://app?vid=8a061bdb-fdd4-4b08-87f7-8be6a301b016"},"vehicle_type_id":"4","last_reported":1705071986,"current_range_meters":1200,"station_id":"ce4bhbh2rcd13ifvqeqg","pricing_plan_id":"free"},{"bike_id":"63c33f2a-f3e7-4cc8-929d-3723c42ddf8d","system_id":"levelo_inurba_marseille","lat":43.292311,"lon":5.360731,"is_reserved":false,"is_disabled":false,"rental_uris":{"android":"levelo://app?vid=63c33f2a-f3e7-4cc8-929d-3723c42ddf8d","ios":"levelo://app?vid=63c33f2a-f3e7-4cc8-929d-3723c42ddf8d"},"vehicle_type_id":"4","last_reported":1705071986,"current_range_meters":24800,"station_id":"ce4bhbh2rcd13ifvqeqg","pricing_plan_id":"free"},{"bike_id":"96c6af05-6b47-4b7d-87ca-9334eea46430","system_id":"levelo_inurba_marseille","lat":43.292311,"lon":5.360731,"is_reserved":false,"is_disabled":false,"rental_uris":{"android":"levelo://app?vid=96c6af05-6b47-4b7d-87ca-9334eea46430","ios":"levelo://app?vid=96c6af05-6b47-4b7d-87ca-9334eea46430"},"vehicle_type_id":"4","last_reported":1705071986,"current_range_meters":23200,"station_id":"ce4bhbh2rcd13ifvqeqg","pricing_plan_id":"free"},{"bike_id":"e707522d-1d04-4db2-a322-f40fc538b3ba","system_id":"levelo_inurba_marseille","lat":43.292206,"lon":5.360503,"is_reserved":false,"is_disabled":false,"rental_uris":{"android":"levelo://app?vid=e707522d-1d04-4db2-a322-f40fc538b3ba","ios":"levelo://app?vid=e707522d-1d04-4db2-a322-f40fc538b3ba"},"vehicle_type_id":"4","last_reported":1705071986,"current_range_meters":31200,"station_id":"ce4bhbh2rcd13ifvqeqg","pricing_plan_id":"free"},{"bike_id":"90768e79-524e-46ba-9570-bbc6659ac47d","system_id":"levelo_inurba_marseille","lat":43.291671,"lon":5.371575,"is_reserved":false,"is_disabled":false,"rental_uris":{"android":"levelo://app?vid=90768e79-524e-46ba-9570-bbc6659ac47d","ios":"levelo://app?vid=90768e79-524e-46ba-9570-bbc6659ac47d"},"vehicle_type_id":"4","last_reported":1705071986,"current_range_meters":0,"station_id":"ce4bha92rcd13ifvqeh0","pricing_plan_id":"free"},{"bike_id":"49976f3e-1a79-4129-b024-14f3727e33ab","system_id":"levelo_inurba_marseille","lat":43.291671,"lon":5.371575,"is_reserved":false,"is_disabled":false,"rental_uris":{"android":"levelo://app?vid=49976f3e-1a79-4129-b024-14f3727e33ab","ios":"levelo://app?vid=49976f3e-1a79-4129-b024-14f3727e33ab"},"vehicle_type_id":"4","last_reported":1705071986,"current_range_meters":12000,"station_id":"ce4bha92rcd13ifvqeh0","pricing_plan_id":"free"},{"bike_id":"fc7ee3f5-8840-4206-9160-bc17b9f428fe","system_id":"levelo_inurba_marseille","lat":43.291671,"lon":5.371575,"is_reserved":false,"is_disabled":false,"rental_uris":{"android":"levelo://app?vid=fc7ee3f5-8840-4206-9160-bc17b9f428fe","ios":"levelo://app?vid=fc7ee3f5-8840-4206-9160-bc17b9f428fe"},"vehicle_type_id":"4","last_reported":1705071986,"current_range_meters":5200,"station_id":"ce4bha92rcd13ifvqeh0","pricing_plan_id":"free"},{"bike_id":"0e2c9933-b828-4695-bced-bba47a0c30e6","system_id":"levelo_inurba_marseille","lat":43.326164,"lon":5.390118,"is_reserved":false,"is_disabled":false,"rental_uris":{"android":"levelo://app?vid=0e2c9933-b828-4695-bced-bba47a0c30e6","ios":"levelo://app?vid=0e2c9933-b828-4695-bced-bba47a0c30e6"},"vehicle_type_id":"4","last_reported":1705071986,"current_range_meters":31200,"station_id":"","pricing_plan_id":"free"},{"bike_id":"00b9cbb8-d3be-4719-80b3-2f400ea4f56d","system_id":"levelo_inurba_marseille","lat":43.309038,"lon":5.396546,"is_reserved":false,"is_disabled":false,"rental_uris":{"android":"levelo://app?vid=00b9cbb8-d3be-4719-80b3-2f400ea4f56d","ios":"levelo://app?vid=00b9cbb8-d3be-4719-80b3-2f400ea4f56d"},"vehicle_type_id":"4","last_reported":1705071986,"current_range_meters":27600,"station_id":"ce4bh012rcd13ifvqcv0","pricing_plan_id":"free"},{"bike_id":"05f4d455-ef77-424e-a35f-0a0c45d50c91","system_id":"levelo_inurba_marseille","lat":43.291994,"lon":5.357886,"is_reserved":false,"is_disabled":false,"rental_uris":{"android":"levelo://app?vid=05f4d455-ef77-424e-a35f-0a0c45d50c91","ios":"levelo://app?vid=05f4d455-ef77-424e-a35f-0a0c45d50c91"},"vehicle_type_id":"4","last_reported":1705071986,"current_range_meters":4800,"station_id":"ce4bhb12rcd13ifvqel0","pricing_plan_id":"free"},{"bike_id":"4d2174ba-1243-4a59-88fe-688fe9c0c876","system_id":"levelo_inurba_marseille","lat":43.291994,"lon":5.357886,"is_reserved":false,"is_disabled":false,"rental_uris":{"android":"levelo://app?vid=4d2174ba-1243-4a59-88fe-688fe9c0c876","ios":"levelo://app?vid=4d2174ba-1243-4a59-88fe-688fe9c0c876"},"vehicle_type_id":"4","last_reported":1705071986,"current_range_meters":3600,"station_id":"ce4bhb12rcd13ifvqel0","pricing_plan_id":"free"},{"bike_id":"079e669a-5ab4-4380-a9b8-0e00bb6e0b00","system_id":"levelo_inurba_marseille","lat":43.313291,"lon":5.396838,"is_reserved":false,"is_disabled":false,"rental_uris":{"android":"levelo://app?vid=079e669a-5ab4-4380-a9b8-0e00bb6e0b00","ios":"levelo://app?vid=079e669a-5ab4-4380-a9b8-0e00bb6e0b00"},"vehicle_type_id":"4","last_reported":1705071986,"current_range_meters":16800,"station_id":"ce4bgvp2rcd13ifvqcu0","pricing_plan_id":"free"},{"bike_id":"adbf2db9-f451-4af2-bbc9-232cad35c9e0","system_id":"levelo_inurba_marseille","lat":43.291994,"lon":5.357886,"is_reserved":false,"is_disabled":false,"rental_uris":{"android":"levelo://app?vid=adbf2db9-f451-4af2-bbc9-232cad35c9e0","ios":"levelo://app?vid=adbf2db9-f451-4af2-bbc9-232cad35c9e0"},"vehicle_type_id":"4","last_reported":1705071986,"current_range_meters":13600,"station_id":"ce4bhb12rcd13ifvqel0","pricing_plan_id":"free"},{"bike_id":"c4ce1e39-6e8e-4305-9c36-0868fb2c4989","system_id":"levelo_inurba_marseille","lat":43.313291,"lon":5.396838,"is_reserved":false,"is_disabled":false,"rental_uris":{"android":"levelo://app?vid=c4ce1e39-6e8e-4305-9c36-0868fb2c4989","ios":"levelo://app?vid=c4ce1e39-6e8e-4305-9c36-0868fb2c4989"},"vehicle_type_id":"4","last_reported":1705071986,"current_range_meters":15600,"station_id":"ce4bgvp2rcd13ifvqcu0","pricing_plan_id":"free"},{"bike_id":"8e7dd56d-26ba-43f0-ab9a-98885fc90a28","system_id":"levelo_inurba_marseille","lat":43.313291,"lon":5.396838,"is_reserved":false,"is_disabled":false,"rental_uris":{"android":"levelo://app?vid=8e7dd56d-26ba-43f0-ab9a-98885fc90a28","ios":"levelo://app?vid=8e7dd56d-26ba-43f0-ab9a-98885fc90a28"},"vehicle_type_id":"4","last_reported":1705071986,"current_range_meters":5200,"station_id":"ce4bgvp2rcd13ifvqcu0","pricing_plan_id":"free"},{"bike_id":"9dece63d-71cd-4f51-8e2c-c1bccc7e9ffe","system_id":"levelo_inurba_marseille","lat":43.309038,"lon":5.396546,"is_reserved":false,"is_disabled":false,"rental_uris":{"android":"levelo://app?vid=9dece63d-71cd-4f51-8e2c-c1bccc7e9ffe","ios":"levelo://app?vid=9dece63d-71cd-4f51-8e2c-c1bccc7e9ffe"},"vehicle_type_id":"4","last_reported":1705071986,"current_range_meters":30000,"station_id":"ce4bh012rcd13ifvqcv0","pricing_plan_id":"free"},{"bike_id":"693770dc-4150-417c-a286-2b9ee51c341c","system_id":"levelo_inurba_marseille","lat":43.309038,"lon":5.396546,"is_reserved":false,"is_disabled":false,"rental_uris":{"android":"levelo://app?vid=693770dc-4150-417c-a286-2b9ee51c341c","ios":"levelo://app?vid=693770dc-4150-417c-a286-2b9ee51c341c"},"vehicle_type_id":"4","last_reported":1705071986,"current_range_meters":11200,"station_id":"ce4bh012rcd13ifvqcv0","pricing_plan_id":"free"},{"bike_id":"d3df2b90-1cf8-4545-b1e3-938b51757906","system_id":"levelo_inurba_marseille","lat":43.291994,"lon":5.357886,"is_reserved":false,"is_disabled":false,"rental_uris":{"android":"levelo://app?vid=d3df2b90-1cf8-4545-b1e3-938b51757906","ios":"levelo://app?vid=d3df2b90-1cf8-4545-b1e3-938b51757906"},"vehicle_type_id":"4","last_reported":1705071986,"current_range_meters":800,"station_id":"ce4bhb12rcd13ifvqel0","pricing_plan_id":"free"},{"bike_id":"1d67a76c-5074-4e44-b521-60ec4ece4cf1","system_id":"levelo_inurba_marseille","lat":43.309038,"lon":5.396546,"is_reserved":false,"is_disabled":false,"rental_uris":{"android":"levelo://app?vid=1d67a76c-5074-4e44-b521-60ec4ece4cf1","ios":"levelo://app?vid=1d67a76c-5074-4e44-b521-60ec4ece4cf1"},"vehicle_type_id":"4","last_reported":1705071986,"current_range_meters":6000,"station_id":"ce4bh012rcd13ifvqcv0","pricing_plan_id":"free"},{"bike_id":"cb1f17e6-37b0-4da2-80f8-cdd07a2bc114","system_id":"levelo_inurba_marseille","lat":43.309038,"lon":5.396546,"is_reserved":false,"is_disabled":false,"rental_uris":{"android":"levelo://app?vid=cb1f17e6-37b0-4da2-80f8-cdd07a2bc114","ios":"levelo://app?vid=cb1f17e6-37b0-4da2-80f8-cdd07a2bc114"},"vehicle_type_id":"4","last_reported":1705071986,"current_range_meters":17200,"station_id":"ce4bh012rcd13ifvqcv0","pricing_plan_id":"free"},{"bike_id":"0a68ca76-f6dd-486d-878c-07bf04511818","system_id":"levelo_inurba_marseille","lat":43.309038,"lon":5.396546,"is_reserved":false,"is_disabled":false,"rental_uris":{"android":"levelo://app?vid=0a68ca76-f6dd-486d-878c-07bf04511818","ios":"levelo://app?vid=0a68ca76-f6dd-486d-878c-07bf04511818"},"vehicle_type_id":"4","last_reported":1705071986,"current_range_meters":26400,"station_id":"ce4bh012rcd13ifvqcv0","pricing_plan_id":"free"},{"bike_id":"3ec46beb-a0ae-4b82-b228-d816b8700898","system_id":"levelo_inurba_marseille","lat":43.29529,"lon":5.385581,"is_reserved":false,"is_disabled":false,"rental_uris":{"android":"levelo://app?vid=3ec46beb-a0ae-4b82-b228-d816b8700898","ios":"levelo://app?vid=3ec46beb-a0ae-4b82-b228-d816b8700898"},"vehicle_type_id":"4","last_reported":1705071986,"current_range_meters":30000,"station_id":"ce4bgih2rcd13ifvqba0","pricing_plan_id":"free"},{"bike_id":"22ae580f-6021-4448-b544-fd5e41f12fed","system_id":"levelo_inurba_marseille","lat":43.302008,"lon":5.394694,"is_reserved":false,"is_disabled":false,"rental_uris":{"android":"levelo://app?vid=22ae580f-6021-4448-b544-fd5e41f12fed","ios":"levelo://app?vid=22ae580f-6021-4448-b544-fd5e41f12fed"},"vehicle_type_id":"4","last_reported":1705071986,"current_range_meters":17200,"station_id":"ce4bh0p2rcd13ifvqd70","pricing_plan_id":"free"},{"bike_id":"0c5a9a75-bc47-4208-9db1-427f47bbe3c4","system_id":"levelo_inurba_marseille","lat":43.302008,"lon":5.394694,"is_reserved":false,"is_disabled":false,"rental_uris":{"android":"levelo://app?vid=0c5a9a75-bc47-4208-9db1-427f47bbe3c4","ios":"levelo://app?vid=0c5a9a75-bc47-4208-9db1-427f47bbe3c4"},"vehicle_type_id":"4","last_reported":1705071986,"current_range_meters":4400,"station_id":"ce4bh0p2rcd13ifvqd70","pricing_plan_id":"free"},{"bike_id":"5c5b7950-1139-45a0-9717-d4a8b2602a28","system_id":"levelo_inurba_marseille","lat":43.294162,"lon":5.386292,"is_reserved":false,"is_disabled":false,"rental_uris":{"android":"levelo://app?vid=5c5b7950-1139-45a0-9717-d4a8b2602a28","ios":"levelo://app?vid=5c5b7950-1139-45a0-9717-d4a8b2602a28"},"vehicle_type_id":"4","last_reported":1705071986,"current_range_meters":17200,"station_id":"ce4bh2h2rcd13ifvqdh0","pricing_plan_id":"free"},{"bike_id":"3fb14ff8-08e8-4e44-8433-617743c87c9e","system_id":"levelo_inurba_marseille","lat":43.294162,"lon":5.386292,"is_reserved":false,"is_disabled":false,"rental_uris":{"android":"levelo://app?vid=3fb14ff8-08e8-4e44-8433-617743c87c9e","ios":"levelo://app?vid=3fb14ff8-08e8-4e44-8433-617743c87c9e"},"vehicle_type_id":"4","last_reported":1705071986,"current_range_meters":31600,"station_id":"ce4bh2h2rcd13ifvqdh0","pricing_plan_id":"free"},{"bike_id":"d998f972-74f4-4a69-8219-6251fc794451","system_id":"levelo_inurba_marseille","lat":43.289184,"lon":5.366408,"is_reserved":false,"is_disabled":false,"rental_uris":{"android":"levelo://app?vid=d998f972-74f4-4a69-8219-6251fc794451","ios":"levelo://app?vid=d998f972-74f4-4a69-8219-6251fc794451"},"vehicle_type_id":"4","last_reported":1705071986,"current_range_meters":18000,"station_id":"ce4bhap2rcd13ifvqek0","pricing_plan_id":"free"},{"bike_id":"5fbbede9-318e-4b66-9fcd-289df3e2079e","system_id":"levelo_inurba_marseille","lat":43.289184,"lon":5.366408,"is_reserved":false,"is_disabled":false,"rental_uris":{"android":"levelo://app?vid=5fbbede9-318e-4b66-9fcd-289df3e2079e","ios":"levelo://app?vid=5fbbede9-318e-4b66-9fcd-289df3e2079e"},"vehicle_type_id":"4","last_reported":1705071986,"current_range_meters":23200,"station_id":"ce4bhap2rcd13ifvqek0","pricing_plan_id":"free"},{"bike_id":"ab1cff81-a44c-4f3c-b717-870da75fab42","system_id":"levelo_inurba_marseille","lat":43.289184,"lon":5.366408,"is_reserved":false,"is_disabled":false,"rental_uris":{"android":"levelo://app?vid=ab1cff81-a44c-4f3c-b717-870da75fab42","ios":"levelo://app?vid=ab1cff81-a44c-4f3c-b717-870da75fab42"},"vehicle_type_id":"4","last_reported":1705071986,"current_range_meters":5600,"station_id":"ce4bhap2rcd13ifvqek0","pricing_plan_id":"free"},{"bike_id":"74847947-967d-4b38-8e33-95169a86c7b3","system_id":"levelo_inurba_marseille","lat":43.289468,"lon":5.363719,"is_reserved":false,"is_disabled":false,"rental_uris":{"android":"levelo://app?vid=74847947-967d-4b38-8e33-95169a86c7b3","ios":"levelo://app?vid=74847947-967d-4b38-8e33-95169a86c7b3"},"vehicle_type_id":"4","last_reported":1705071986,"current_range_meters":21200,"station_id":"ce4bhc92rcd13ifvqetg","pricing_plan_id":"free"},{"bike_id":"191f092f-c2ea-4d2f-9fd4-4e0480d96234","system_id":"levelo_inurba_marseille","lat":43.289468,"lon":5.363719,"is_reserved":false,"is_disabled":false,"rental_uris":{"android":"levelo://app?vid=191f092f-c2ea-4d2f-9fd4-4e0480d96234","ios":"levelo://app?vid=191f092f-c2ea-4d2f-9fd4-4e0480d96234"},"vehicle_type_id":"4","last_reported":1705071986,"current_range_meters":8400,"station_id":"ce4bhc92rcd13ifvqetg","pricing_plan_id":"free"},{"bike_id":"0b865bcd-2f49-400b-8a99-d0c7752baef5","system_id":"levelo_inurba_marseille","lat":43.304274,"lon":5.397513,"is_reserved":false,"is_disabled":false,"rental_uris":{"android":"levelo://app?vid=0b865bcd-2f49-400b-8a99-d0c7752baef5","ios":"levelo://app?vid=0b865bcd-2f49-400b-8a99-d0c7752baef5"},"vehicle_type_id":"4","last_reported":1705071986,"current_range_meters":1200,"station_id":"ce4bh092rcd13ifvqd20","pricing_plan_id":"free"},{"bike_id":"06c2fc4e-7b4e-4d04-bfd7-6689a7a319a8","system_id":"levelo_inurba_marseille","lat":43.290995,"lon":5.381361,"is_reserved":false,"is_disabled":false,"rental_uris":{"android":"levelo://app?vid=06c2fc4e-7b4e-4d04-bfd7-6689a7a319a8","ios":"levelo://app?vid=06c2fc4e-7b4e-4d04-bfd7-6689a7a319a8"},"vehicle_type_id":"4","last_reported":1705071986,"current_range_meters":17200,"station_id":"ce4bh512rcd13ifvqe2g","pricing_plan_id":"free"},{"bike_id":"1c4b0e3b-7c9e-43fd-a539-47d10bfa2787","system_id":"levelo_inurba_marseille","lat":43.290935,"lon":5.381435,"is_reserved":false,"is_disabled":false,"rental_uris":{"android":"levelo://app?vid=1c4b0e3b-7c9e-43fd-a539-47d10bfa2787","ios":"levelo://app?vid=1c4b0e3b-7c9e-43fd-a539-47d10bfa2787"},"vehicle_type_id":"4","last_reported":1705071986,"current_range_meters":11600,"station_id":"ce4bh512rcd13ifvqe2g","pricing_plan_id":"free"},{"bike_id":"b6a26226-4e11-4826-9b91-ab9f340c09c6","system_id":"levelo_inurba_marseille","lat":43.295169,"lon":5.390426,"is_reserved":false,"is_disabled":false,"rental_uris":{"android":"levelo://app?vid=b6a26226-4e11-4826-9b91-ab9f340c09c6","ios":"levelo://app?vid=b6a26226-4e11-4826-9b91-ab9f340c09c6"},"vehicle_type_id":"4","last_reported":1705071986,"current_range_meters":9600,"station_id":"ce4bh3p2rcd13ifvqdp0","pricing_plan_id":"free"},{"bike_id":"ceb52b2f-7142-40af-89d4-c72064d02ac6","system_id":"levelo_inurba_marseille","lat":43.330442,"lon":5.389148,"is_reserved":false,"is_disabled":false,"rental_uris":{"android":"levelo://app?vid=ceb52b2f-7142-40af-89d4-c72064d02ac6","ios":"levelo://app?vid=ceb52b2f-7142-40af-89d4-c72064d02ac6"},"vehicle_type_id":"4","last_reported":1705071986,"current_range_meters":7200,"station_id":"ce4bhr92rcd13ifvqhrg","pricing_plan_id":"free"},{"bike_id":"0bb990c7-5962-417e-8d75-e902ef21aa88","system_id":"levelo_inurba_marseille","lat":43.295169,"lon":5.390426,"is_reserved":false,"is_disabled":false,"rental_uris":{"android":"levelo://app?vid=0bb990c7-5962-417e-8d75-e902ef21aa88","ios":"levelo://app?vid=0bb990c7-5962-417e-8d75-e902ef21aa88"},"vehicle_type_id":"4","last_reported":1705071986,"current_range_meters":13600,"station_id":"ce4bh3p2rcd13ifvqdp0","pricing_plan_id":"free"},{"bike_id":"5e21ea74-79fb-445f-a1fd-0d2b8da69ae3","system_id":"levelo_inurba_marseille","lat":43.330442,"lon":5.389148,"is_reserved":false,"is_disabled":false,"rental_uris":{"android":"levelo://app?vid=5e21ea74-79fb-445f-a1fd-0d2b8da69ae3","ios":"levelo://app?vid=5e21ea74-79fb-445f-a1fd-0d2b8da69ae3"},"vehicle_type_id":"4","last_reported":1705071986,"current_range_meters":16000,"station_id":"ce4bhr92rcd13ifvqhrg","pricing_plan_id":"free"},{"bike_id":"2c9150ba-7995-4a6a-baa1-5befa28ee810","system_id":"levelo_inurba_marseille","lat":43.2953,"lon":5.39052,"is_reserved":false,"is_disabled":false,"rental_uris":{"android":"levelo://app?vid=2c9150ba-7995-4a6a-baa1-5befa28ee810","ios":"levelo://app?vid=2c9150ba-7995-4a6a-baa1-5befa28ee810"},"vehicle_type_id":"4","last_reported":1705071986,"current_range_meters":9200,"station_id":"ce4bh3p2rcd13ifvqdp0","pricing_plan_id":"free"},{"bike_id":"f7ff301f-4bfe-4aba-8d36-fa2819f428ac","system_id":"levelo_inurba_marseille","lat":43.330442,"lon":5.389148,"is_reserved":false,"is_disabled":false,"rental_uris":{"android":"levelo://app?vid=f7ff301f-4bfe-4aba-8d36-fa2819f428ac","ios":"levelo://app?vid=f7ff301f-4bfe-4aba-8d36-fa2819f428ac"},"vehicle_type_id":"4","last_reported":1705071986,"current_range_meters":12400,"station_id":"ce4bhr92rcd13ifvqhrg","pricing_plan_id":"free"},{"bike_id":"e862e3f2-cfa1-4a54-aba0-d024483c69ef","system_id":"levelo_inurba_marseille","lat":43.330442,"lon":5.389148,"is_reserved":false,"is_disabled":false,"rental_uris":{"android":"levelo://app?vid=e862e3f2-cfa1-4a54-aba0-d024483c69ef","ios":"levelo://app?vid=e862e3f2-cfa1-4a54-aba0-d024483c69ef"},"vehicle_type_id":"4","last_reported":1705071986,"current_range_meters":8800,"station_id":"ce4bhr92rcd13ifvqhrg","pricing_plan_id":"free"},{"bike_id":"99e22c66-4fcd-4762-b5d4-8a2504216092","system_id":"levelo_inurba_marseille","lat":43.29512,"lon":5.39044,"is_reserved":false,"is_disabled":false,"rental_uris":{"android":"levelo://app?vid=99e22c66-4fcd-4762-b5d4-8a2504216092","ios":"levelo://app?vid=99e22c66-4fcd-4762-b5d4-8a2504216092"},"vehicle_type_id":"4","last_reported":1705071986,"current_range_meters":23600,"station_id":"ce4bh3p2rcd13ifvqdp0","pricing_plan_id":"free"},{"bike_id":"1999a224-1129-4ee0-94ec-6186962eff0f","system_id":"levelo_inurba_marseille","lat":43.290207,"lon":5.381289,"is_reserved":false,"is_disabled":false,"rental_uris":{"android":"levelo://app?vid=1999a224-1129-4ee0-94ec-6186962eff0f","ios":"levelo://app?vid=1999a224-1129-4ee0-94ec-6186962eff0f"},"vehicle_type_id":"4","last_reported":1705071986,"current_range_meters":0,"station_id":"ce4bh4p2rcd13ifvqe1g","pricing_plan_id":"free"},{"bike_id":"aa905037-c8fd-4eb8-be56-d12dc9dac691","system_id":"levelo_inurba_marseille","lat":43.28856,"lon":5.358371,"is_reserved":false,"is_disabled":false,"rental_uris":{"android":"levelo://app?vid=aa905037-c8fd-4eb8-be56-d12dc9dac691","ios":"levelo://app?vid=aa905037-c8fd-4eb8-be56-d12dc9dac691"},"vehicle_type_id":"4","last_reported":1705071986,"current_range_meters":11200,"station_id":"ce4bhb12rcd13ifvqem0","pricing_plan_id":"free"},{"bike_id":"122eccc7-9891-461d-b79b-7b114c39e69b","system_id":"levelo_inurba_marseille","lat":43.312609,"lon":5.401662,"is_reserved":false,"is_disabled":false,"rental_uris":{"android":"levelo://app?vid=122eccc7-9891-461d-b79b-7b114c39e69b","ios":"levelo://app?vid=122eccc7-9891-461d-b79b-7b114c39e69b"},"vehicle_type_id":"4","last_reported":1705071986,"current_range_meters":15600,"station_id":"ce4bh092rcd13ifvqd30","pricing_plan_id":"free"},{"bike_id":"72f2ef17-e8f8-402a-849f-95409ed144d8","system_id":"levelo_inurba_marseille","lat":43.309371,"lon":5.401449,"is_reserved":false,"is_disabled":false,"rental_uris":{"android":"levelo://app?vid=72f2ef17-e8f8-402a-849f-95409ed144d8","ios":"levelo://app?vid=72f2ef17-e8f8-402a-849f-95409ed144d8"},"vehicle_type_id":"4","last_reported":1705071986,"current_range_meters":23600,"station_id":"ce4bgvp2rcd13ifvqct0","pricing_plan_id":"free"},{"bike_id":"d91a859e-1ba3-442c-989f-bfb868660359","system_id":"levelo_inurba_marseille","lat":43.309371,"lon":5.401449,"is_reserved":false,"is_disabled":false,"rental_uris":{"android":"levelo://app?vid=d91a859e-1ba3-442c-989f-bfb868660359","ios":"levelo://app?vid=d91a859e-1ba3-442c-989f-bfb868660359"},"vehicle_type_id":"4","last_reported":1705071986,"current_range_meters":21200,"station_id":"ce4bgvp2rcd13ifvqct0","pricing_plan_id":"free"},{"bike_id":"be7e0739-e506-479f-8cd5-8363a05db0f5","system_id":"levelo_inurba_marseille","lat":43.309371,"lon":5.401449,"is_reserved":false,"is_disabled":false,"rental_uris":{"android":"levelo://app?vid=be7e0739-e506-479f-8cd5-8363a05db0f5","ios":"levelo://app?vid=be7e0739-e506-479f-8cd5-8363a05db0f5"},"vehicle_type_id":"4","last_reported":1705071986,"current_range_meters":22800,"station_id":"ce4bgvp2rcd13ifvqct0","pricing_plan_id":"free"},{"bike_id":"8b65e9d2-32df-49fc-9c80-87d7eea4efa7","system_id":"levelo_inurba_marseille","lat":43.33766,"lon":5.37446,"is_reserved":false,"is_disabled":false,"rental_uris":{"android":"levelo://app?vid=8b65e9d2-32df-49fc-9c80-87d7eea4efa7","ios":"levelo://app?vid=8b65e9d2-32df-49fc-9c80-87d7eea4efa7"},"vehicle_type_id":"4","last_reported":1705071986,"current_range_meters":30800,"station_id":"","pricing_plan_id":"free"},{"bike_id":"0e9c85c0-0f4c-497f-bacc-f762b7f20cd8","system_id":"levelo_inurba_marseille","lat":43.30642,"lon":5.401031,"is_reserved":false,"is_disabled":false,"rental_uris":{"android":"levelo://app?vid=0e9c85c0-0f4c-497f-bacc-f762b7f20cd8","ios":"levelo://app?vid=0e9c85c0-0f4c-497f-bacc-f762b7f20cd8"},"vehicle_type_id":"4","last_reported":1705071986,"current_range_meters":28000,"station_id":"ce4bh112rcd13ifvqda0","pricing_plan_id":"free"},{"bike_id":"d80a2cf7-d310-4df9-b549-302bde723034","system_id":"levelo_inurba_marseille","lat":43.306412,"lon":5.401035,"is_reserved":false,"is_disabled":false,"rental_uris":{"android":"levelo://app?vid=d80a2cf7-d310-4df9-b549-302bde723034","ios":"levelo://app?vid=d80a2cf7-d310-4df9-b549-302bde723034"},"vehicle_type_id":"4","last_reported":1705071986,"current_range_meters":28800,"station_id":"ce4bh112rcd13ifvqda0","pricing_plan_id":"free"},{"bike_id":"413500b1-7359-4388-8bc9-2119a9f87178","system_id":"levelo_inurba_marseille","lat":43.301117,"lon":5.398795,"is_reserved":false,"is_disabled":false,"rental_uris":{"android":"levelo://app?vid=413500b1-7359-4388-8bc9-2119a9f87178","ios":"levelo://app?vid=413500b1-7359-4388-8bc9-2119a9f87178"},"vehicle_type_id":"4","last_reported":1705071986,"current_range_meters":1600,"station_id":"ce4bh0h2rcd13ifvqd40","pricing_plan_id":"free"},{"bike_id":"6ae3b176-440d-433b-9b7c-45f7d9cdab52","system_id":"levelo_inurba_marseille","lat":43.301117,"lon":5.398795,"is_reserved":false,"is_disabled":false,"rental_uris":{"android":"levelo://app?vid=6ae3b176-440d-433b-9b7c-45f7d9cdab52","ios":"levelo://app?vid=6ae3b176-440d-433b-9b7c-45f7d9cdab52"},"vehicle_type_id":"4","last_reported":1705071986,"current_range_meters":24000,"station_id":"ce4bh0h2rcd13ifvqd40","pricing_plan_id":"free"},{"bike_id":"2b6df1fc-f8d6-4a1e-b8b5-1c16967c1b4e","system_id":"levelo_inurba_marseille","lat":43.28727,"lon":5.36078,"is_reserved":false,"is_disabled":false,"rental_uris":{"android":"levelo://app?vid=2b6df1fc-f8d6-4a1e-b8b5-1c16967c1b4e","ios":"levelo://app?vid=2b6df1fc-f8d6-4a1e-b8b5-1c16967c1b4e"},"vehicle_type_id":"4","last_reported":1705071986,"current_range_meters":17200,"station_id":"cki0cbj6b192h4jlfktg","pricing_plan_id":"free"},{"bike_id":"bd6850f3-480c-42b0-b660-46f38927b68e","system_id":"levelo_inurba_marseille","lat":43.286961,"lon":5.373785,"is_reserved":false,"is_disabled":false,"rental_uris":{"android":"levelo://app?vid=bd6850f3-480c-42b0-b660-46f38927b68e","ios":"levelo://app?vid=bd6850f3-480c-42b0-b660-46f38927b68e"},"vehicle_type_id":"4","last_reported":1705071986,"current_range_meters":29200,"station_id":"ce4bh3p2rcd13ifvqdq0","pricing_plan_id":"free"},{"bike_id":"e2af263d-1b89-4903-b88c-89f11b2f7dd6","system_id":"levelo_inurba_marseille","lat":43.286961,"lon":5.373785,"is_reserved":false,"is_disabled":false,"rental_uris":{"android":"levelo://app?vid=e2af263d-1b89-4903-b88c-89f11b2f7dd6","ios":"levelo://app?vid=e2af263d-1b89-4903-b88c-89f11b2f7dd6"},"vehicle_type_id":"4","last_reported":1705071986,"current_range_meters":23600,"station_id":"ce4bh3p2rcd13ifvqdq0","pricing_plan_id":"free"},{"bike_id":"c9b658f4-0f15-4b51-ac54-62b7192e8615","system_id":"levelo_inurba_marseille","lat":43.295196,"lon":5.39397,"is_reserved":false,"is_disabled":false,"rental_uris":{"android":"levelo://app?vid=c9b658f4-0f15-4b51-ac54-62b7192e8615","ios":"levelo://app?vid=c9b658f4-0f15-4b51-ac54-62b7192e8615"},"vehicle_type_id":"4","last_reported":1705071986,"current_range_meters":28800,"station_id":"ce4bh292rcd13ifvqdf0","pricing_plan_id":"free"},{"bike_id":"68d72bd0-eaa9-4792-a68f-8e14895ff27e","system_id":"levelo_inurba_marseille","lat":43.286961,"lon":5.373785,"is_reserved":false,"is_disabled":false,"rental_uris":{"android":"levelo://app?vid=68d72bd0-eaa9-4792-a68f-8e14895ff27e","ios":"levelo://app?vid=68d72bd0-eaa9-4792-a68f-8e14895ff27e"},"vehicle_type_id":"4","last_reported":1705071986,"current_range_meters":22000,"station_id":"ce4bh3p2rcd13ifvqdq0","pricing_plan_id":"free"},{"bike_id":"a24ad633-a1fc-4588-b72c-319d1ed1074f","system_id":"levelo_inurba_marseille","lat":43.286961,"lon":5.373785,"is_reserved":false,"is_disabled":false,"rental_uris":{"android":"levelo://app?vid=a24ad633-a1fc-4588-b72c-319d1ed1074f","ios":"levelo://app?vid=a24ad633-a1fc-4588-b72c-319d1ed1074f"},"vehicle_type_id":"4","last_reported":1705071986,"current_range_meters":31600,"station_id":"ce4bh3p2rcd13ifvqdq0","pricing_plan_id":"free"},{"bike_id":"d526d91e-a340-4c8c-ac5b-9b2838e35262","system_id":"levelo_inurba_marseille","lat":43.286961,"lon":5.373785,"is_reserved":false,"is_disabled":false,"rental_uris":{"android":"levelo://app?vid=d526d91e-a340-4c8c-ac5b-9b2838e35262","ios":"levelo://app?vid=d526d91e-a340-4c8c-ac5b-9b2838e35262"},"vehicle_type_id":"4","last_reported":1705071986,"current_range_meters":12800,"station_id":"ce4bh3p2rcd13ifvqdq0","pricing_plan_id":"free"},{"bike_id":"096d94e9-614d-4a18-b2ee-db4f60d65e25","system_id":"levelo_inurba_marseille","lat":43.286591,"lon":5.363346,"is_reserved":false,"is_disabled":false,"rental_uris":{"android":"levelo://app?vid=096d94e9-614d-4a18-b2ee-db4f60d65e25","ios":"levelo://app?vid=096d94e9-614d-4a18-b2ee-db4f60d65e25"},"vehicle_type_id":"4","last_reported":1705071986,"current_range_meters":32000,"station_id":"ce4bhah2rcd13ifvqej0","pricing_plan_id":"free"},{"bike_id":"2879cac0-54a8-475d-931d-94d5d66623b7","system_id":"levelo_inurba_marseille","lat":43.286591,"lon":5.363346,"is_reserved":false,"is_disabled":false,"rental_uris":{"android":"levelo://app?vid=2879cac0-54a8-475d-931d-94d5d66623b7","ios":"levelo://app?vid=2879cac0-54a8-475d-931d-94d5d66623b7"},"vehicle_type_id":"4","last_reported":1705071986,"current_range_meters":27600,"station_id":"ce4bhah2rcd13ifvqej0","pricing_plan_id":"free"},{"bike_id":"8379b5c9-4c92-4808-ac07-e5c7a4032911","system_id":"levelo_inurba_marseille","lat":43.286591,"lon":5.363346,"is_reserved":false,"is_disabled":false,"rental_uris":{"android":"levelo://app?vid=8379b5c9-4c92-4808-ac07-e5c7a4032911","ios":"levelo://app?vid=8379b5c9-4c92-4808-ac07-e5c7a4032911"},"vehicle_type_id":"4","last_reported":1705071986,"current_range_meters":22800,"station_id":"ce4bhah2rcd13ifvqej0","pricing_plan_id":"free"},{"bike_id":"f8cc5d26-4638-4ba5-92da-f9392b4e98ab","system_id":"levelo_inurba_marseille","lat":43.286591,"lon":5.363346,"is_reserved":false,"is_disabled":false,"rental_uris":{"android":"levelo://app?vid=f8cc5d26-4638-4ba5-92da-f9392b4e98ab","ios":"levelo://app?vid=f8cc5d26-4638-4ba5-92da-f9392b4e98ab"},"vehicle_type_id":"4","last_reported":1705071986,"current_range_meters":21600,"station_id":"ce4bhah2rcd13ifvqej0","pricing_plan_id":"free"},