{"last_updated":1758568083,"ttl":60,"version":"2.2","data":{"bikes":[{"bike_id":"adc70151-d6e6-4f3f-84e2-8a150d1c317d","system_id":"levelo_inurba_marseille","lat":43.26559,"lon":5.37284,"is_reserved":false,"is_disabled":false,"rental_uris":{"android":"levelo://app?vid=adc70151-d6e6-4f3f-84e2-8a150d1c317d","ios":"levelo://app?vid=adc70151-d6e6-4f3f-84e2-8a150d1c317d"},"vehicle_type_id":"4","last_reported":1758568083,"current_range_meters":2800,"station_id":"ce4bhg12rcd13ifvqf70","pricing_plan_id":"cebpf4jnsgd1na2vs0mg"},{"bike_id":"fb6a49d0-a540-4ebd-9b5c-4adce62173da","system_id":"levelo_inurba_marseille","lat":43.25858,"lon":5.39907,"is_reserved":false,"is_disabled":false,"rental_uris":{"android":"levelo://app?vid=fb6a49d0-a540-4ebd-9b5c-4adce62173da","ios":"levelo://app?vid=fb6a49d0-a540-4ebd-9b5c-4adce62173da"},"vehicle_type_id":"4","last_reported":1758568083,"current_range_meters":2800,"station_id":"ce4bhl92rcd13ifvqghg","pricing_plan_id":"cebpf4jnsgd1na2vs0mg"},{"bike_id":"5b8373bb-23a9-4e3a-a648-8f59583a1e38","system_id":"levelo_inurba_marseille","lat":43.2493,"lon":5.39039,"is_reserved":false,"is_disabled":true,"rental_uris":{"android":"levelo://app?vid=5b8373bb-23a9-4e3a-a648-8f59583a1e38","ios":"levelo://app?vid=5b8373bb-23a9-4e3a-a648-8f59583a1e38"},"vehicle_type_id":"4","last_reported":1758568083,"current_range_meters":2800,"station_id":"","pricing_plan_id":"cebpf4jnsgd1na2vs0mg"},{"bike_id":"c78ce9f1-1912-4313-9f7c-e6dd49f8d0cb","system_id":"levelo_inurba_marseille","lat":43.25864,"lon":5.39897,"is_reserved":false,"is_disabled":false,"rental_uris":{"android":"levelo://app?vid=c78ce9f1-1912-4313-9f7c-e6dd49f8d0cb","ios":"levelo://app?vid=c78ce9f1-1912-4313-9f7c-e6dd49f8d0cb"},"vehicle_type_id":"4","last_reported":1758568083,"current_range_meters":2800,"station_id":"ce4bhl92rcd13ifvqghg","pricing_plan_id":"cebpf4jnsgd1na2vs0mg"},{"bike_id":"e033a0ed-8002-45fb-a630-f0e3314097e7","system_id":"levelo_inurba_marseille","lat":43.25711,"lon":5.41118,"is_reserved":false,"is_disabled":false,"rental_uris":{"android":"levelo://app?vid=e033a0ed-8002-45fb-a630-f0e3314097e7","ios":"levelo://app?vid=e033a0ed-8002-45fb-a630-f0e3314097e7"},"vehicle_type_id":"4","last_reported":1758568083,"current_range_meters":2800,"station_id":"ce4bhkp2rcd13ifvqgd0","pricing_plan_id":"cebpf4jnsgd1na2vs0mg"},{"bike_id":"f3a3f0a8-2cd7-4d3e-bb14-e55b4639850a","system_id":"levelo_inurba_marseille","lat":43.28679,"lon":5.38665,"is_reserved":false,"is_disabled":false,"rental_uris":{"android":"levelo://app?vid=f3a3f0a8-2cd7-4d3e-bb14-e55b4639850a","ios":"levelo://app?vid=f3a3f0a8-2cd7-4d3e-bb14-e55b4639850a"},"vehicle_type_id":"4","last_reported":1758568083,"current_range_meters":3200,"station_id":"ce4bh492rcd13ifvqdug","pricing_plan_id":"cebpf4jnsgd1na2vs0mg"},{"bike_id":"0102be35-e2f9-45d1-9f5f-42699704ce8c","system_id":"levelo_inurba_marseille","lat":43.29575,"lon":5.39979,"is_reserved":false,"is_disabled":false,"rental_uris":{"android":"levelo://app?vid=0102be35-e2f9-45d1-9f5f-42699704ce8c","ios":"levelo://app?vid=0102be35-e2f9-45d1-9f5f-42699704ce8c"},"vehicle_type_id":"4","last_reported":1758568083,"current_range_meters":3200,"station_id":"ce4bh312rcd13ifvqdj0","pricing_plan_id":"cebpf4jnsgd1na2vs0mg"},{"bike_id":"0f7caa9f-1d1a-40d7-9b4a-2f8720e63681","system_id":"levelo_inurba_marseille","lat":43.30827,"lon":5.37557,"is_reserved":false,"is_disabled":false,"rental_uris":{"android":"levelo://app?vid=0f7caa9f-1d1a-40d7-9b4a-2f8720e63681","ios":"levelo://app?vid=0f7caa9f-1d1a-40d7-9b4a-2f8720e63681"},"vehicle_type_id":"4","last_reported":1758568083,"current_range_meters":3200,"station_id":"","pricing_plan_id":"cebpf4jnsgd1na2vs0mg"},{"bike_id":"d5398dec-4201-49e5-9877-a2048cd4fa71","system_id":"levelo_inurba_marseille","lat":43.26486,"lon":5.39549,"is_reserved":false,"is_disabled":false,"rental_uris":{"android":"levelo://app?vid=d5398dec-4201-49e5-9877-a2048cd4fa71","ios":"levelo://app?vid=d5398dec-4201-49e5-9877-a2048cd4fa71"},"vehicle_type_id":"4","last_reported":1758568083,"current_range_meters":3200,"station_id":"ce4bhi12rcd13ifvqfq0","pricing_plan_id":"cebpf4jnsgd1na2vs0mg"},{"bike_id":"9dd89cfb-328c-437f-8777-73d134f29848","system_id":"levelo_inurba_marseille","lat":43.21753,"lon":5.34602,"is_reserved":false,"is_disabled":false,"rental_uris":{"android":"levelo://app?vid=9dd89cfb-328c-437f-8777-73d134f29848","ios":"levelo://app?vid=9dd89cfb-328c-437f-8777-73d134f29848"},"vehicle_type_id":"4","last_reported":1758568083,"current_range_meters":3200,"station_id":"st_cvj6r9ubvosntc0bgbag","pricing_plan_id":"cebpf4jnsgd1na2vs0mg"},{"bike_id":"5ce8c195-7706-4cfc-ab9c-fcadcd8345c7","system_id":"levelo_inurba_marseille","lat":43.24388,"lon":5.37053,"is_reserved":false,"is_disabled":false,"rental_uris":{"android":"levelo://app?vid=5ce8c195-7706-4cfc-ab9c-fcadcd8345c7","ios":"levelo://app?vid=5ce8c195-7706-4cfc-ab9c-fcadcd8345c7"},"vehicle_type_id":"4","last_reported":1758568083,"current_range_meters":3200,"station_id":"ce4bhhh2rcd13ifvqfk0","pricing_plan_id":"cebpf4jnsgd1na2vs0mg"},{"bike_id":"d0d284b1-b084-4b2f-8478-be0cd4e3beb5","system_id":"levelo_inurba_marseille","lat":43.28571,"lon":5.39498,"is_reserved":false,"is_disabled":false,"rental_uris":{"android":"levelo://app?vid=d0d284b1-b084-4b2f-8478-be0cd4e3beb5","ios":"levelo://app?vid=d0d284b1-b084-4b2f-8478-be0cd4e3beb5"},"vehicle_type_id":"4","last_reported":1758568083,"current_range_meters":3200,"station_id":"ce4bh292rcd13ifvqdg0","pricing_plan_id":"cebpf4jnsgd1na2vs0mg"},{"bike_id":"77a2f00c-72e8-4a70-b98c-f834035d1a66","system_id":"levelo_inurba_marseille","lat":43.22423,"lon":5.34653,"is_reserved":false,"is_disabled":false,"rental_uris":{"android":"levelo://app?vid=77a2f00c-72e8-4a70-b98c-f834035d1a66","ios":"levelo://app?vid=77a2f00c-72e8-4a70-b98c-f834035d1a66"},"vehicle_type_id":"4","last_reported":1758568083,"current_range_meters":3600,"station_id":"","pricing_plan_id":"cebpf4jnsgd1na2vs0mg"},{"bike_id":"b32633c9-7221-4b52-9ca6-9f25e5346370","system_id":"levelo_inurba_marseille","lat":43.33602,"lon":5.40998,"is_reserved":false,"is_disabled":true,"rental_uris":{"android":"levelo://app?vid=b32633c9-7221-4b52-9ca6-9f25e5346370","ios":"levelo://app?vid=b32633c9-7221-4b52-9ca6-9f25e5346370"},"vehicle_type_id":"4","last_reported":1758568083,"current_range_meters":3600,"station_id":"ce4bhqh2rcd13ifvqhmg","pricing_plan_id":"cebpf4jnsgd1na2vs0mg"},{"bike_id":"c8e120c3-9088-43ef-ad76-a47d7e7fd086","system_id":"levelo_inurba_marseille","lat":43.21746,"lon":5.34606,"is_reserved":false,"is_disabled":false,"rental_uris":{"android":"levelo://app?vid=c8e120c3-9088-43ef-ad76-a47d7e7fd086","ios":"levelo://app?vid=c8e120c3-9088-43ef-ad76-a47d7e7fd086"},"vehicle_type_id":"4","last_reported":1758568083,"current_range_meters":3600,"station_id":"st_cvj6r9ubvosntc0bgbag","pricing_plan_id":"cebpf4jnsgd1na2vs0mg"},{"bike_id":"06d9d889-bd98-48a6-981b-78af160a16bf","system_id":"levelo_inurba_marseille","lat":43.29034,"lon":5.38658,"is_reserved":false,"is_disabled":false,"rental_uris":{"android":"levelo://app?vid=06d9d889-bd98-48a6-981b-78af160a16bf","ios":"levelo://app?vid=06d9d889-bd98-48a6-981b-78af160a16bf"},"vehicle_type_id":"4","last_reported":1758568083,"current_range_meters":3600,"station_id":"ce4bh4p2rcd13ifvqe0g","pricing_plan_id":"cebpf4jnsgd1na2vs0mg"},{"bike_id":"075ff789-91e5-4e77-ae92-86e9401bd19c","system_id":"levelo_inurba_marseille","lat":43.29966,"lon":5.37168,"is_reserved":false,"is_disabled":false,"rental_uris":{"android":"levelo://app?vid=075ff789-91e5-4e77-ae92-86e9401bd19c","ios":"levelo://app?vid=075ff789-91e5-4e77-ae92-86e9401bd19c"},"vehicle_type_id":"4","last_reported":1758568083,"current_range_meters":400,"station_id":"ce4bgr92rcd13ifvqc7g","pricing_plan_id":"cebpf4jnsgd1na2vs0mg"},{"bike_id":"7dca31d3-ee42-4cb8-a730-67e18efbf846","system_id":"levelo_inurba_marseille","lat":43.28672,"lon":5.3867,"is_reserved":false,"is_disabled":false,"rental_uris":{"android":"levelo://app?vid=7dca31d3-ee42-4cb8-a730-67e18efbf846","ios":"levelo://app?vid=7dca31d3-ee42-4cb8-a730-67e18efbf846"},"vehicle_type_id":"4","last_reported":1758568083,"current_range_meters":4000,"station_id":"ce4bh492rcd13ifvqdug","pricing_plan_id":"cebpf4jnsgd1na2vs0mg"},{"bike_id":"ad4f0e3b-ec90-4f84-9733-c3c4fd397687","system_id":"levelo_inurba_marseille","lat":43.27947,"lon":5.41046,"is_reserved":false,"is_disabled":true,"rental_uris":{"android":"levelo://app?vid=ad4f0e3b-ec90-4f84-9733-c3c4fd397687","ios":"levelo://app?vid=ad4f0e3b-ec90-4f84-9733-c3c4fd397687"},"vehicle_type_id":"4","last_reported":1758568083,"current_range_meters":4000,"station_id":"ce4bhnp2rcd13ifvqh0g","pricing_plan_id":"cebpf4jnsgd1na2vs0mg"},{"bike_id":"eec26b2a-8dd1-4e3f-8c19-23ce392729df","system_id":"levelo_inurba_marseille","lat":43.32358,"lon":5.36747,"is_reserved":false,"is_disabled":false,"rental_uris":{"android":"levelo://app?vid=eec26b2a-8dd1-4e3f-8c19-23ce392729df","ios":"levelo://app?vid=eec26b2a-8dd1-4e3f-8c19-23ce392729df"},"vehicle_type_id":"4","last_reported":1758568083,"current_range_meters":4000,"station_id":"ce4bhsh2rcd13ifvqi2g","pricing_plan_id":"cebpf4jnsgd1na2vs0mg"},{"bike_id":"9cca3a93-2274-441e-a14b-30a19e976681","system_id":"levelo_inurba_marseille","lat":43.28673,"lon":5.38676,"is_reserved":false,"is_disabled":false,"rental_uris":{"android":"levelo://app?vid=9cca3a93-2274-441e-a14b-30a19e976681","ios":"levelo://app?vid=9cca3a93-2274-441e-a14b-30a19e976681"},"vehicle_type_id":"4","last_reported":1758568083,"current_range_meters":4400,"station_id":"ce4bh492rcd13ifvqdug","pricing_plan_id":"cebpf4jnsgd1na2vs0mg"},{"bike_id":"1a7203fc-683a-4111-b197-6b768a6067b0","system_id":"levelo_inurba_marseille","lat":43.33786,"lon":5.37432,"is_reserved":false,"is_disabled":false,"rental_uris":{"android":"levelo://app?vid=1a7203fc-683a-4111-b197-6b768a6067b0","ios":"levelo://app?vid=1a7203fc-683a-4111-b197-6b768a6067b0"},"vehicle_type_id":"4","last_reported":1758568083,"current_range_meters":4400,"station_id":"ce4bh512rcd13ifvqe2g","pricing_plan_id":"cebpf4jnsgd1na2vs0mg"},{"bike_id":"91e1562d-b5cb-4c16-8ee0-afab8bf604a2","system_id":"levelo_inurba_marseille","lat":43.30422,"lon":5.4129,"is_reserved":false,"is_disabled":false,"rental_uris":{"android":"levelo://app?vid=91e1562d-b5cb-4c16-8ee0-afab8bf604a2","ios":"levelo://app?vid=91e1562d-b5cb-4c16-8ee0-afab8bf604a2"},"vehicle_type_id":"4","last_reported":1758568083,"current_range_meters":4400,"station_id":"ce4bhop2rcd13ifvqh8g","pricing_plan_id":"cebpf4jnsgd1na2vs0mg"},{"bike_id":"1b4415bd-e67f-425f-a593-872444089258","system_id":"levelo_inurba_marseille","lat":43.24662,"lon":5.38163,"is_reserved":false,"is_disabled":false,"rental_uris":{"android":"levelo://app?vid=1b4415bd-e67f-425f-a593-872444089258","ios":"levelo://app?vid=1b4415bd-e67f-425f-a593-872444089258"},"vehicle_type_id":"4","last_reported":1758568083,"current_range_meters":4400,"station_id":"ce4bhih2rcd13ifvqfr0","pricing_plan_id":"cebpf4jnsgd1na2vs0mg"},{"bike_id":"66f4dfeb-8402-4c83-ab49-d9beafc6f234","system_id":"levelo_inurba_marseille","lat":43.29251,"lon":5.4091,"is_reserved":false,"is_disabled":false,"rental_uris":{"android":"levelo://app?vid=66f4dfeb-8402-4c83-ab49-d9beafc6f234","ios":"levelo://app?vid=66f4dfeb-8402-4c83-ab49-d9beafc6f234"},"vehicle_type_id":"4","last_reported":1758568083,"current_range_meters":4400,"station_id":"ce4bh192rcd13ifvqdc0","pricing_plan_id":"cebpf4jnsgd1na2vs0mg"},{"bike_id":"1a516f3a-a978-4c97-a659-c4676a9d15fa","system_id":"levelo_inurba_marseille","lat":43.2656,"lon":5.39017,"is_reserved":false,"is_disabled":false,"rental_uris":{"android":"levelo://app?vid=1a516f3a-a978-4c97-a659-c4676a9d15fa","ios":"levelo://app?vid=1a516f3a-a978-4c97-a659-c4676a9d15fa"},"vehicle_type_id":"4","last_reported":1758568083,"current_range_meters":4400,"station_id":"ce4bhe12rcd13ifvqf30","pricing_plan_id":"cebpf4jnsgd1na2vs0mg"},{"bike_id":"fdaa2144-8c2d-494e-bf8b-1dc3e7a77bf1","system_id":"levelo_inurba_marseille","lat":43.28847,"lon":5.39328,"is_reserved":false,"is_disabled":false,"rental_uris":{"android":"levelo://app?vid=fdaa2144-8c2d-494e-bf8b-1dc3e7a77bf1","ios":"levelo://app?vid=fdaa2144-8c2d-494e-bf8b-1dc3e7a77bf1"},"vehicle_type_id":"4","last_reported":1758568083,"current_range_meters":4400,"station_id":"ce4bh2p2rcd13ifvqdi0","pricing_plan_id":"cebpf4jnsgd1na2vs0mg"},{"bike_id":"7d94938e-3f8a-4943-aa14-740e6e305b69","system_id":"levelo_inurba_marseille","lat":43.281,"lon":5.3784,"is_reserved":false,"is_disabled":false,"rental_uris":{"android":"levelo://app?vid=7d94938e-3f8a-4943-aa14-740e6e305b69","ios":"levelo://app?vid=7d94938e-3f8a-4943-aa14-740e6e305b69"},"vehicle_type_id":"4","last_reported":1758568083,"current_range_meters":4400,"station_id":"ce4bha12rcd13ifvqee0","pricing_plan_id":"cebpf4jnsgd1na2vs0mg"},{"bike_id":"a07a513e-e5a9-4481-8592-d991379bc662","system_id":"levelo_inurba_marseille","lat":43.337536,"lon":5.374536,"is_reserved":false,"is_disabled":false,"rental_uris":{"android":"levelo://app?vid=a07a513e-e5a9-4481-8592-d991379bc662","ios":"levelo://app?vid=a07a513e-e5a9-4481-8592-d991379bc662"},"vehicle_type_id":"4","last_reported":1758568083,"current_range_meters":4400,"station_id":"","pricing_plan_id":"cebpf4jnsgd1na2vs0mg"},{"bike_id":"fd5aa7bb-669d-472e-93c2-9cc753f3ff45","system_id":"levelo_inurba_marseille","lat":43.2439,"lon":5.37056,"is_reserved":false,"is_disabled":false,"rental_uris":{"android":"levelo://app?vid=fd5aa7bb-669d-472e-93c2-9cc753f3ff45","ios":"levelo://app?vid=fd5aa7bb-669d-472e-93c2-9cc753f3ff45"},"vehicle_type_id":"4","last_reported":1758568083,"current_range_meters":4800,"station_id":"ce4bhhh2rcd13ifvqfk0","pricing_plan_id":"cebpf4jnsgd1na2vs0mg"},{"bike_id":"2dd237b5-c078-48a7-9814-69724818e21a","system_id":"levelo_inurba_marseille","lat":43.29288,"lon":5.36848,"is_reserved":false,"is_disabled":false,"rental_uris":{"android":"levelo://app?vid=2dd237b5-c078-48a7-9814-69724818e21a","ios":"levelo://app?vid=2dd237b5-c078-48a7-9814-69724818e21a"},"vehicle_type_id":"4","last_reported":1758568083,"current_range_meters":4800,"station_id":"ce4bhbp2rcd13ifvqesg","pricing_plan_id":"cebpf4jnsgd1na2vs0mg"},{"bike_id":"52d08afd-5c61-4b44-94fd-8a1ec85cade5","system_id":"levelo_inurba_marseille","lat":43.24548,"lon":5.39524,"is_reserved":false,"is_disabled":false,"rental_uris":{"android":"levelo://app?vid=52d08afd-5c61-4b44-94fd-8a1ec85cade5","ios":"levelo://app?vid=52d08afd-5c61-4b44-94fd-8a1ec85cade5"},"vehicle_type_id":"4","last_reported":1758568083,"current_range_meters":4800,"station_id":"ce4bhlp2rcd13ifvqgjg","pricing_plan_id":"cebpf4jnsgd1na2vs0mg"},{"bike_id":"c8f109eb-7fe3-44c5-b768-81f7bdc425d1","system_id":"levelo_inurba_marseille","lat":43.29279,"lon":5.38437,"is_reserved":false,"is_disabled":false,"rental_uris":{"android":"levelo://app?vid=c8f109eb-7fe3-44c5-b768-81f7bdc425d1","ios":"levelo://app?vid=c8f109eb-7fe3-44c5-b768-81f7bdc425d1"},"vehicle_type_id":"4","last_reported":1758568083,"current_range_meters":4800,"station_id":"ce4bh692rcd13ifvqea0","pricing_plan_id":"cebpf4jnsgd1na2vs0mg"},{"bike_id":"d7decc6c-3b87-4f99-824e-2ad202ab330b","system_id":"levelo_inurba_marseille","lat":43.27904,"lon":5.39569,"is_reserved":false,"is_disabled":false,"rental_uris":{"android":"levelo://app?vid=d7decc6c-3b87-4f99-824e-2ad202ab330b","ios":"levelo://app?vid=d7decc6c-3b87-4f99-824e-2ad202ab330b"},"vehicle_type_id":"4","last_reported":1758568083,"current_range_meters":4800,"station_id":"ce4bhf92rcd13ifvqf40","pricing_plan_id":"cebpf4jnsgd1na2vs0mg"},{"bike_id":"b2c1e3ce-859a-4d5b-afbd-1688480b946c","system_id":"levelo_inurba_marseille","lat":43.29262,"lon":5.38434,"is_reserved":false,"is_disabled":false,"rental_uris":{"android":"levelo://app?vid=b2c1e3ce-859a-4d5b-afbd-1688480b946c","ios":"levelo://app?vid=b2c1e3ce-859a-4d5b-afbd-1688480b946c"},"vehicle_type_id":"4","last_reported":1758568083,"current_range_meters":4800,"station_id":"ce4bh692rcd13ifvqea0","pricing_plan_id":"cebpf4jnsgd1na2vs0mg"},{"bike_id":"6737c082-d393-4bdf-81c8-ed095487dbc8","system_id":"levelo_inurba_marseille","lat":43.28452,"lon":5.39209,"is_reserved":false,"is_disabled":false,"rental_uris":{"android":"levelo://app?vid=6737c082-d393-4bdf-81c8-ed095487dbc8","ios":"levelo://app?vid=6737c082-d393-4bdf-81c8-ed095487dbc8"},"vehicle_type_id":"4","last_reported":1758568083,"current_range_meters":4800,"station_id":"ce4bhoh2rcd13ifvqh5g","pricing_plan_id":"cebpf4jnsgd1na2vs0mg"},{"bike_id":"986ffd67-0bee-4ccd-ad83-18197631549d","system_id":"levelo_inurba_marseille","lat":43.290304,"lon":5.386445,"is_reserved":false,"is_disabled":false,"rental_uris":{"android":"levelo://app?vid=986ffd67-0bee-4ccd-ad83-18197631549d","ios":"levelo://app?vid=986ffd67-0bee-4ccd-ad83-18197631549d"},"vehicle_type_id":"4","last_reported":1758568083,"current_range_meters":4800,"station_id":"ce4bh4p2rcd13ifvqe0g","pricing_plan_id":"cebpf4jnsgd1na2vs0mg"},{"bike_id":"c2f8161b-3c19-4c7a-a7de-492a0dc4798b","system_id":"levelo_inurba_marseille","lat":43.308352,"lon":5.381073,"is_reserved":false,"is_disabled":false,"rental_uris":{"android":"levelo://app?vid=c2f8161b-3c19-4c7a-a7de-492a0dc4798b","ios":"levelo://app?vid=c2f8161b-3c19-4c7a-a7de-492a0dc4798b"},"vehicle_type_id":"4","last_reported":1758568083,"current_range_meters":4800,"station_id":"ce4bgt12rcd13ifvqce0","pricing_plan_id":"cebpf4jnsgd1na2vs0mg"},{"bike_id":"d0da9ab9-9401-42f7-908b-2b861b5465c4","system_id":"levelo_inurba_marseille","lat":43.28486,"lon":5.38555,"is_reserved":false,"is_disabled":false,"rental_uris":{"android":"levelo://app?vid=d0da9ab9-9401-42f7-908b-2b861b5465c4","ios":"levelo://app?vid=d0da9ab9-9401-42f7-908b-2b861b5465c4"},"vehicle_type_id":"4","last_reported":1758568083,"current_range_meters":4800,"station_id":"ce4bh8p2rcd13ifvqeb0","pricing_plan_id":"cebpf4jnsgd1na2vs0mg"},{"bike_id":"47468391-67dc-4c3a-9b81-0757945a5664","system_id":"levelo_inurba_marseille","lat":43.295319,"lon":5.38539,"is_reserved":false,"is_disabled":false,"rental_uris":{"android":"levelo://app?vid=47468391-67dc-4c3a-9b81-0757945a5664","ios":"levelo://app?vid=47468391-67dc-4c3a-9b81-0757945a5664"},"vehicle_type_id":"4","last_reported":1758568083,"current_range_meters":5600,"station_id":"ce4bgih2rcd13ifvqba0","pricing_plan_id":"cebpf4jnsgd1na2vs0mg"},{"bike_id":"81779ee0-ac92-4725-9d1b-bc3c52262d5e","system_id":"levelo_inurba_marseille","lat":43.270691,"lon":5.422826,"is_reserved":false,"is_disabled":false,"rental_uris":{"android":"levelo://app?vid=81779ee0-ac92-4725-9d1b-bc3c52262d5e","ios":"levelo://app?vid=81779ee0-ac92-4725-9d1b-bc3c52262d5e"},"vehicle_type_id":"4","last_reported":1758568083,"current_range_meters":5600,"station_id":"ce4bhk92rcd13ifvqgb0","pricing_plan_id":"cebpf4jnsgd1na2vs0mg"},{"bike_id":"2289a0ff-9c3e-4f79-ad38-4b41158d6057","system_id":"levelo_inurba_marseille","lat":43.29882,"lon":5.37911,"is_reserved":false,"is_disabled":false,"rental_uris":{"android":"levelo://app?vid=2289a0ff-9c3e-4f79-ad38-4b41158d6057","ios":"levelo://app?vid=2289a0ff-9c3e-4f79-ad38-4b41158d6057"},"vehicle_type_id":"4","last_reported":1758568083,"current_range_meters":6000,"station_id":"","pricing_plan_id":"cebpf4jnsgd1na2vs0mg"},{"bike_id":"0fd984d8-7fc6-42b8-896f-86d7eb2678ba","system_id":"levelo_inurba_marseille","lat":43.29259,"lon":5.38439,"is_reserved":false,"is_disabled":false,"rental_uris":{"android":"levelo://app?vid=0fd984d8-7fc6-42b8-896f-86d7eb2678ba","ios":"levelo://app?vid=0fd984d8-7fc6-42b8-896f-86d7eb2678ba"},"vehicle_type_id":"4","last_reported":1758568083,"current_range_meters":5600,"station_id":"ce4bh692rcd13ifvqea0","pricing_plan_id":"cebpf4jnsgd1na2vs0mg"},{"bike_id":"64e48e64-fc4a-4584-bca4-a0f08d68f5dc","system_id":"levelo_inurba_marseille","lat":43.2928,"lon":5.40116,"is_reserved":false,"is_disabled":false,"rental_uris":{"android":"levelo://app?vid=64e48e64-fc4a-4584-bca4-a0f08d68f5dc","ios":"levelo://app?vid=64e48e64-fc4a-4584-bca4-a0f08d68f5dc"},"vehicle_type_id":"4","last_reported":1758568083,"current_range_meters":5600,"station_id":"ce4bh312rcd13ifvqdk0","pricing_plan_id":"cebpf4jnsgd1na2vs0mg"},{"bike_id":"95b2c900-07a9-4d99-822d-5f69058b55f4","system_id":"levelo_inurba_marseille","lat":43.28684,"lon":5.39994,"is_reserved":false,"is_disabled":true,"rental_uris":{"android":"levelo://app?vid=95b2c900-07a9-4d99-822d-5f69058b55f4","ios":"levelo://app?vid=95b2c900-07a9-4d99-822d-5f69058b55f4"},"vehicle_type_id":"4","last_reported":1758568083,"current_range_meters":6000,"station_id":"ce4bho92rcd13ifvqh3g","pricing_plan_id":"cebpf4jnsgd1na2vs0mg"},{"bike_id":"0aa7b754-1146-4f9c-8f78-1cb74fc3136b","system_id":"levelo_inurba_marseille","lat":43.27832,"lon":5.39218,"is_reserved":false,"is_disabled":false,"rental_uris":{"android":"levelo://app?vid=0aa7b754-1146-4f9c-8f78-1cb74fc3136b","ios":"levelo://app?vid=0aa7b754-1146-4f9c-8f78-1cb74fc3136b"},"vehicle_type_id":"4","last_reported":1758568083,"current_range_meters":6000,"station_id":"ce4bhjp2rcd13ifvqga0","pricing_plan_id":"cebpf4jnsgd1na2vs0mg"},{"bike_id":"55d1bc08-fd54-4a82-afc7-2adcaa7b1c4e","system_id":"levelo_inurba_marseille","lat":43.30046,"lon":5.37681,"is_reserved":false,"is_disabled":false,"rental_uris":{"android":"levelo://app?vid=55d1bc08-fd54-4a82-afc7-2adcaa7b1c4e","ios":"levelo://app?vid=55d1bc08-fd54-4a82-afc7-2adcaa7b1c4e"},"vehicle_type_id":"4","last_reported":1758568083,"current_range_meters":6000,"station_id":"","pricing_plan_id":"cebpf4jnsgd1na2vs0mg"},{"bike_id":"7149f839-f5a3-47dd-99a2-9fe14e84f908","system_id":"levelo_inurba_marseille","lat":43.24183,"lon":5.39727,"is_reserved":false,"is_disabled":false,"rental_uris":{"android":"levelo://app?vid=7149f839-f5a3-47dd-99a2-9fe14e84f908","ios":"levelo://app?vid=7149f839-f5a3-47dd-99a2-9fe14e84f908"},"vehicle_type_id":"4","last_reported":1758568083,"current_range_meters":6000,"station_id":"ce4bhn12rcd13ifvqgpg","pricing_plan_id":"cebpf4jnsgd1na2vs0mg"},{"bike_id":"5649d81a-4df7-4678-8591-fbc821f686cd","system_id":"levelo_inurba_marseille","lat":43.29258,"lon":5.38432,"is_reserved":false,"is_disabled":false,"rental_uris":{"android":"levelo://app?vid=5649d81a-4df7-4678-8591-fbc821f686cd","ios":"levelo://app?vid=5649d81a-4df7-4678-8591-fbc821f686cd"},"vehicle_type_id":"4","last_reported":1758568083,"current_range_meters":6000,"station_id":"ce4bh692rcd13ifvqea0","pricing_plan_id":"cebpf4jnsgd1na2vs0mg"},{"bike_id":"b2628abf-e7ac-42b4-a9de-b77ac6e922a7","system_id":"levelo_inurba_marseille","lat":43.29367,"lon":5.3786,"is_reserved":false,"is_disabled":false,"rental_uris":{"android":"levelo://app?vid=b2628abf-e7ac-42b4-a9de-b77ac6e922a7","ios":"levelo://app?vid=b2628abf-e7ac-42b4-a9de-b77ac6e922a7"},"vehicle_type_id":"4","last_reported":1758568083,"current_range_meters":6000,"station_id":"ce4bgjh2rcd13ifvqbf0","pricing_plan_id":"cebpf4jnsgd1na2vs0mg"},{"bike_id":"0ad5c6a5-8b05-4faa-8590-609348c11288","system_id":"levelo_inurba_marseille","lat":43.27808,"lon":5.40716,"is_reserved":false,"is_disabled":true,"rental_uris":{"android":"levelo://app?vid=0ad5c6a5-8b05-4faa-8590-609348c11288","ios":"levelo://app?vid=0ad5c6a5-8b05-4faa-8590-609348c11288"},"vehicle_type_id":"4","last_reported":1758568083,"current_range_meters":6400,"station_id":"ce4bhnh2rcd13ifvqgtg","pricing_plan_id":"cebpf4jnsgd1na2vs0mg"},{"bike_id":"1d335fdf-d771-45e4-800b-2b100992edde","system_id":"levelo_inurba_marseille","lat":43.3064,"lon":5.40105,"is_reserved":false,"is_disabled":false,"rental_uris":{"android":"levelo://app?vid=1d335fdf-d771-45e4-800b-2b100992edde","ios":"levelo://app?vid=1d335fdf-d771-45e4-800b-2b100992edde"},"vehicle_type_id":"4","last_reported":1758568083,"current_range_meters":6400,"station_id":"ce4bh112rcd13ifvqda0","pricing_plan_id":"cebpf4jnsgd1na2vs0mg"},{"bike_id":"c98b450b-c8dc-49b9-b4a6-08c20f099762","system_id":"levelo_inurba_marseille","lat":43.29004,"lon":5.38623,"is_reserved":false,"is_disabled":false,"rental_uris":{"android":"levelo://app?vid=c98b450b-c8dc-49b9-b4a6-08c20f099762","ios":"levelo://app?vid=c98b450b-c8dc-49b9-b4a6-08c20f099762"},"vehicle_type_id":"4","last_reported":1758568083,"current_range_meters":6400,"station_id":"ce4bh4p2rcd13ifvqe0g","pricing_plan_id":"cebpf4jnsgd1na2vs0mg"},{"bike_id":"88099584-aec4-41c5-9e59-c1418d97c60b","system_id":"levelo_inurba_marseille","lat":43.28708,"lon":5.37395,"is_reserved":false,"is_disabled":false,"rental_uris":{"android":"levelo://app?vid=88099584-aec4-41c5-9e59-c1418d97c60b","ios":"levelo://app?vid=88099584-aec4-41c5-9e59-c1418d97c60b"},"vehicle_type_id":"4","last_reported":1758568083,"current_range_meters":6400,"station_id":"ce4bh3p2rcd13ifvqdq0","pricing_plan_id":"cebpf4jnsgd1na2vs0mg"},{"bike_id":"bf3b7724-dfac-4720-80d9-88008d0ed103","system_id":"levelo_inurba_marseille","lat":43.31708,"lon":5.4371,"is_reserved":false,"is_disabled":false,"rental_uris":{"android":"levelo://app?vid=bf3b7724-dfac-4720-80d9-88008d0ed103","ios":"levelo://app?vid=bf3b7724-dfac-4720-80d9-88008d0ed103"},"vehicle_type_id":"4","last_reported":1758568083,"current_range_meters":6400,"station_id":"ce4bhp92rcd13ifvqhcg","pricing_plan_id":"cebpf4jnsgd1na2vs0mg"},{"bike_id":"e7ccca18-cbc5-400b-8dbf-af33ddf3dea2","system_id":"levelo_inurba_marseille","lat":43.30651,"lon":5.4009,"is_reserved":false,"is_disabled":false,"rental_uris":{"android":"levelo://app?vid=e7ccca18-cbc5-400b-8dbf-af33ddf3dea2","ios":"levelo://app?vid=e7ccca18-cbc5-400b-8dbf-af33ddf3dea2"},"vehicle_type_id":"4","last_reported":1758568083,"current_range_meters":6800,"station_id":"ce4bh112rcd13ifvqda0","pricing_plan_id":"cebpf4jnsgd1na2vs0mg"},{"bike_id":"9d3015cf-094b-4191-b8ef-bd308a958a71","system_id":"levelo_inurba_marseille","lat":43.29032,"lon":5.38641,"is_reserved":false,"is_disabled":false,"rental_uris":{"android":"levelo://app?vid=9d3015cf-094b-4191-b8ef-bd308a958a71","ios":"levelo://app?vid=9d3015cf-094b-4191-b8ef-bd308a958a71"},"vehicle_type_id":"4","last_reported":1758568083,"current_range_meters":6800,"station_id":"ce4bh4p2rcd13ifvqe0g","pricing_plan_id":"cebpf4jnsgd1na2vs0mg"},{"bike_id":"4c28edb3-4a15-455e-98ef-4c809100b9c9","system_id":"levelo_inurba_marseille","lat":43.26027,"lon":5.3755,"is_reserved":false,"is_disabled":false,"rental_uris":{"android":"levelo://app?vid=4c28edb3-4a15-455e-98ef-4c809100b9c9","ios":"levelo://app?vid=4c28edb3-4a15-455e-98ef-4c809100b9c9"},"vehicle_type_id":"4","last_reported":1758568083,"current_range_meters":6800,"station_id":"ce4bhgh2rcd13ifvqfa0","pricing_plan_id":"cebpf4jnsgd1na2vs0mg"},{"bike_id":"b6536b39-d494-42d8-975e-cdd406476798","system_id":"levelo_inurba_marseille","lat":43.26781,"lon":5.39426,"is_reserved":false,"is_disabled":true,"rental_uris":{"android":"levelo://app?vid=b6536b39-d494-42d8-975e-cdd406476798","ios":"levelo://app?vid=b6536b39-d494-42d8-975e-cdd406476798"},"vehicle_type_id":"4","last_reported":1758568083,"current_range_meters":6800,"station_id":"ce4bhh12rcd13ifvqfg0","pricing_plan_id":"cebpf4jnsgd1na2vs0mg"},{"bike_id":"68adab37-f5ad-4072-b58a-fe6c68285ca6","system_id":"levelo_inurba_marseille","lat":43.30633,"lon":5.37634,"is_reserved":false,"is_disabled":false,"rental_uris":{"android":"levelo://app?vid=68adab37-f5ad-4072-b58a-fe6c68285ca6","ios":"levelo://app?vid=68adab37-f5ad-4072-b58a-fe6c68285ca6"},"vehicle_type_id":"4","last_reported":1758568083,"current_range_meters":6800,"station_id":"","pricing_plan_id":"cebpf4jnsgd1na2vs0mg"},{"bike_id":"4b4433a1-5f03-46dc-9cde-98800859df22","system_id":"levelo_inurba_marseille","lat":43.26208,"lon":5.37921,"is_reserved":false,"is_disabled":false,"rental_uris":{"android":"levelo://app?vid=4b4433a1-5f03-46dc-9cde-98800859df22","ios":"levelo://app?vid=4b4433a1-5f03-46dc-9cde-98800859df22"},"vehicle_type_id":"4","last_reported":1758568083,"current_range_meters":6800,"station_id":"ce4bhjp2rcd13ifvqg90","pricing_plan_id":"cebpf4jnsgd1na2vs0mg"},{"bike_id":"fe3fd3ec-c652-4173-9e74-99984dbd1200","system_id":"levelo_inurba_marseille","lat":43.31472,"lon":5.39256,"is_reserved":false,"is_disabled":false,"rental_uris":{"android":"levelo://app?vid=fe3fd3ec-c652-4173-9e74-99984dbd1200","ios":"levelo://app?vid=fe3fd3ec-c652-4173-9e74-99984dbd1200"},"vehicle_type_id":"4","last_reported":1758568083,"current_range_meters":6800,"station_id":"","pricing_plan_id":"cebpf4jnsgd1na2vs0mg"},{"bike_id":"2f30aeeb-74b2-4d24-8093-623ea49b0dc3","system_id":"levelo_inurba_marseille","lat":43.30298,"lon":5.39212,"is_reserved":false,"is_disabled":false,"rental_uris":{"android":"levelo://app?vid=2f30aeeb-74b2-4d24-8093-623ea49b0dc3","ios":"levelo://app?vid=2f30aeeb-74b2-4d24-8093-623ea49b0dc3"},"vehicle_type_id":"4","last_reported":1758568083,"current_range_meters":7200,"station_id":"ce4bgkh2rcd13ifvqbk0","pricing_plan_id":"cebpf4jnsgd1na2vs0mg"},{"bike_id":"512380c4-b408-4c5d-a370-8ed3c327b288","system_id":"levelo_inurba_marseille","lat":43.29604,"lon":5.38091,"is_reserved":false,"is_disabled":false,"rental_uris":{"android":"levelo://app?vid=512380c4-b408-4c5d-a370-8ed3c327b288","ios":"levelo://app?vid=512380c4-b408-4c5d-a370-8ed3c327b288"},"vehicle_type_id":"4","last_reported":1758568083,"current_range_meters":7200,"station_id":"ce4bgl12rcd13ifvqbo0","pricing_plan_id":"cebpf4jnsgd1na2vs0mg"},{"bike_id":"9c9ff537-c399-4793-83f2-0f8fbccdf2ea","system_id":"levelo_inurba_marseille","lat":43.2479,"lon":5.3746,"is_reserved":false,"is_disabled":false,"rental_uris":{"android":"levelo://app?vid=9c9ff537-c399-4793-83f2-0f8fbccdf2ea","ios":"levelo://app?vid=9c9ff537-c399-4793-83f2-0f8fbccdf2ea"},"vehicle_type_id":"4","last_reported":1758568083,"current_range_meters":7200,"station_id":"ce4bhgh2rcd13ifvqfb0","pricing_plan_id":"cebpf4jnsgd1na2vs0mg"},{"bike_id":"b5efe5fe-f661-4ad8-bf89-c64dc70497a2","system_id":"levelo_inurba_marseille","lat":43.27081,"lon":5.39247,"is_reserved":false,"is_disabled":false,"rental_uris":{"android":"levelo://app?vid=b5efe5fe-f661-4ad8-bf89-c64dc70497a2","ios":"levelo://app?vid=b5efe5fe-f661-4ad8-bf89-c64dc70497a2"},"vehicle_type_id":"4","last_reported":1758568083,"current_range_meters":7200,"station_id":"","pricing_plan_id":"cebpf4jnsgd1na2vs0mg"},{"bike_id":"1b790372-5d34-489f-a29a-5f2319ad70e0","system_id":"levelo_inurba_marseille","lat":43.28261,"lon":5.35048,"is_reserved":false,"is_disabled":true,"rental_uris":{"android":"levelo://app?vid=1b790372-5d34-489f-a29a-5f2319ad70e0","ios":"levelo://app?vid=1b790372-5d34-489f-a29a-5f2319ad70e0"},"vehicle_type_id":"4","last_reported":1758568083,"current_range_meters":7200,"station_id":"ce4bhbp2rcd13ifvqerg","pricing_plan_id":"cebpf4jnsgd1na2vs0mg"},{"bike_id":"6def32da-00ac-4b41-aafb-f39d48a93c05","system_id":"levelo_inurba_marseille","lat":43.28944,"lon":5.36639,"is_reserved":false,"is_disabled":false,"rental_uris":{"android":"levelo://app?vid=6def32da-00ac-4b41-aafb-f39d48a93c05","ios":"levelo://app?vid=6def32da-00ac-4b41-aafb-f39d48a93c05"},"vehicle_type_id":"4","last_reported":1758568083,"current_range_meters":7200,"station_id":"ce4bhap2rcd13ifvqek0","pricing_plan_id":"cebpf4jnsgd1na2vs0mg"},{"bike_id":"0d471893-2b2a-40ec-a4a3-b89cf3e1494a","system_id":"levelo_inurba_marseille","lat":43.28854,"lon":5.3932,"is_reserved":false,"is_disabled":false,"rental_uris":{"android":"levelo://app?vid=0d471893-2b2a-40ec-a4a3-b89cf3e1494a","ios":"levelo://app?vid=0d471893-2b2a-40ec-a4a3-b89cf3e1494a"},"vehicle_type_id":"4","last_reported":1758568083,"current_range_meters":7200,"station_id":"ce4bh2p2rcd13ifvqdi0","pricing_plan_id":"cebpf4jnsgd1na2vs0mg"},{"bike_id":"1427a82d-8d24-447e-bf1c-0b5507b1b77e","system_id":"levelo_inurba_marseille","lat":43.29272,"lon":5.38446,"is_reserved":false,"is_disabled":false,"rental_uris":{"android":"levelo://app?vid=1427a82d-8d24-447e-bf1c-0b5507b1b77e","ios":"levelo://app?vid=1427a82d-8d24-447e-bf1c-0b5507b1b77e"},"vehicle_type_id":"4","last_reported":1758568083,"current_range_meters":7200,"station_id":"ce4bh692rcd13ifvqea0","pricing_plan_id":"cebpf4jnsgd1na2vs0mg"},{"bike_id":"3d7f41b0-b7ac-4df3-8ac2-ab135bba0095","system_id":"levelo_inurba_marseille","lat":43.30536,"lon":5.3654,"is_reserved":false,"is_disabled":false,"rental_uris":{"android":"levelo://app?vid=3d7f41b0-b7ac-4df3-8ac2-ab135bba0095","ios":"levelo://app?vid=3d7f41b0-b7ac-4df3-8ac2-ab135bba0095"},"vehicle_type_id":"4","last_reported":1758568083,"current_range_meters":8000,"station_id":"ce4bgs12rcd13ifvqcag","pricing_plan_id":"cebpf4jnsgd1na2vs0mg"},{"bike_id":"0dbc7da0-0362-4020-94e8-7c158950cbc3","system_id":"levelo_inurba_marseille","lat":43.27056,"lon":5.40269,"is_reserved":false,"is_disabled":true,"rental_uris":{"android":"levelo://app?vid=0dbc7da0-0362-4020-94e8-7c158950cbc3","ios":"levelo://app?vid=0dbc7da0-0362-4020-94e8-7c158950cbc3"},"vehicle_type_id":"4","last_reported":1758568083,"current_range_meters":8000,"station_id":"ce4bhk92rcd13ifvqgc0","pricing_plan_id":"cebpf4jnsgd1na2vs0mg"},{"bike_id":"f581ccb4-ae4a-44ef-9aee-8da2f62ff531","system_id":"levelo_inurba_marseille","lat":43.31244,"lon":5.36824,"is_reserved":false,"is_disabled":false,"rental_uris":{"android":"levelo://app?vid=f581ccb4-ae4a-44ef-9aee-8da2f62ff531","ios":"levelo://app?vid=f581ccb4-ae4a-44ef-9aee-8da2f62ff531"},"vehicle_type_id":"4","last_reported":1758568083,"current_range_meters":8000,"station_id":"ce4bgl92rcd13ifvqbq0","pricing_plan_id":"cebpf4jnsgd1na2vs0mg"},{"bike_id":"d8f4b972-b0ec-412f-bbb7-e63ad86099df","system_id":"levelo_inurba_marseille","lat":43.31889,"lon":5.40733,"is_reserved":false,"is_disabled":false,"rental_uris":{"android":"levelo://app?vid=d8f4b972-b0ec-412f-bbb7-e63ad86099df","ios":"levelo://app?vid=d8f4b972-b0ec-412f-bbb7-e63ad86099df"},"vehicle_type_id":"4","last_reported":1758568083,"current_range_meters":8000,"station_id":"ce4bhq12rcd13ifvqhig","pricing_plan_id":"cebpf4jnsgd1na2vs0mg"},{"bike_id":"7b875571-dea1-4f32-8d89-abe0b79cafa9","system_id":"levelo_inurba_marseille","lat":43.25826,"lon":5.3943,"is_reserved":false,"is_disabled":false,"rental_uris":{"android":"levelo://app?vid=7b875571-dea1-4f32-8d89-abe0b79cafa9","ios":"levelo://app?vid=7b875571-dea1-4f32-8d89-abe0b79cafa9"},"vehicle_type_id":"4","last_reported":1758568083,"current_range_meters":8000,"station_id":"ce4bhip2rcd13ifvqft0","pricing_plan_id":"cebpf4jnsgd1na2vs0mg"},{"bike_id":"197bffbd-8a89-489d-bd9f-dae3c7cfa3b6","system_id":"levelo_inurba_marseille","lat":43.29266,"lon":5.38449,"is_reserved":false,"is_disabled":false,"rental_uris":{"android":"levelo://app?vid=197bffbd-8a89-489d-bd9f-dae3c7cfa3b6","ios":"levelo://app?vid=197bffbd-8a89-489d-bd9f-dae3c7cfa3b6"},"vehicle_type_id":"4","last_reported":1758568083,"current_range_meters":8000,"station_id":"ce4bh692rcd13ifvqea0","pricing_plan_id":"cebpf4jnsgd1na2vs0mg"},{"bike_id":"70c3d816-90a7-457f-b679-d59c8b420a59","system_id":"levelo_inurba_marseille","lat":43.29256,"lon":5.38439,"is_reserved":false,"is_disabled":false,"rental_uris":{"android":"levelo://app?vid=70c3d816-90a7-457f-b679-d59c8b420a59","ios":"levelo://app?vid=70c3d816-90a7-457f-b679-d59c8b420a59"},"vehicle_type_id":"4","last_reported":1758568083,"current_range_meters":8000,"station_id":"ce4bh692rcd13ifvqea0","pricing_plan_id":"cebpf4jnsgd1na2vs0mg"},{"bike_id":"9278c8e4-f92e-4b80-9d1a-f8764c260a72","system_id":"levelo_inurba_marseille","lat":43.21751,"lon":5.34604,"is_reserved":false,"is_disabled":false,"rental_uris":{"android":"levelo://app?vid=9278c8e4-f92e-4b80-9d1a-f8764c260a72","ios":"levelo://app?vid=9278c8e4-f92e-4b80-9d1a-f8764c260a72"},"vehicle_type_id":"4","last_reported":1758568083,"current_range_meters":8400,"station_id":"st_cvj6r9ubvosntc0bgbag","pricing_plan_id":"cebpf4jnsgd1na2vs0mg"},{"bike_id":"a95a546a-691f-414b-9f19-eb455305a59b","system_id":"levelo_inurba_marseille","lat":43.21741,"lon":5.346,"is_reserved":false,"is_disabled":false,"rental_uris":{"android":"levelo://app?vid=a95a546a-691f-414b-9f19-eb455305a59b","ios":"levelo://app?vid=a95a546a-691f-414b-9f19-eb455305a59b"},"vehicle_type_id":"4","last_reported":1758568083,"current_range_meters":8400,"station_id":"st_cvj6r9ubvosntc0bgbag","pricing_plan_id":"cebpf4jnsgd1na2vs0mg"},{"bike_id":"3b93d9ee-fba6-45a6-9d28-94807e2fe326","system_id":"levelo_inurba_marseille","lat":43.29279,"lon":5.40116,"is_reserved":false,"is_disabled":false,"rental_uris":{"android":"levelo://app?vid=3b93d9ee-fba6-45a6-9d28-94807e2fe326","ios":"levelo://app?vid=3b93d9ee-fba6-45a6-9d28-94807e2fe326"},"vehicle_type_id":"4","last_reported":1758568083,"current_range_meters":8400,"station_id":"ce4bh312rcd13ifvqdk0","pricing_plan_id":"cebpf4jnsgd1na2vs0mg"},{"bike_id":"3b6ec900-427e-4f42-a1f2-55274523a86c","system_id":"levelo_inurba_marseille","lat":43.29197,"lon":5.37143,"is_reserved":false,"is_disabled":false,"rental_uris":{"android":"levelo://app?vid=3b6ec900-427e-4f42-a1f2-55274523a86c","ios":"levelo://app?vid=3b6ec900-427e-4f42-a1f2-55274523a86c"},"vehicle_type_id":"4","last_reported":1758568083,"current_range_meters":8400,"station_id":"ce4bha92rcd13ifvqeh0","pricing_plan_id":"cebpf4jnsgd1na2vs0mg"},{"bike_id":"43441ed8-9202-4a95-a23d-310a539cdec8","system_id":"levelo_inurba_marseille","lat":43.295319,"lon":5.385362,"is_reserved":false,"is_disabled":false,"rental_uris":{"android":"levelo://app?vid=43441ed8-9202-4a95-a23d-310a539cdec8","ios":"levelo://app?vid=43441ed8-9202-4a95-a23d-310a539cdec8"},"vehicle_type_id":"4","last_reported":1758568083,"current_range_meters":8400,"station_id":"ce4bgih2rcd13ifvqba0","pricing_plan_id":"cebpf4jnsgd1na2vs0mg"},{"bike_id":"b3ee816f-19cc-49a8-9318-eed4d78b7758","system_id":"levelo_inurba_marseille","lat":43.2916,"lon":5.38295,"is_reserved":false,"is_disabled":false,"rental_uris":{"android":"levelo://app?vid=b3ee816f-19cc-49a8-9318-eed4d78b7758","ios":"levelo://app?vid=b3ee816f-19cc-49a8-9318-eed4d78b7758"},"vehicle_type_id":"4","last_reported":1758568083,"current_range_meters":8400,"station_id":"","pricing_plan_id":"cebpf4jnsgd1na2vs0mg"},{"bike_id":"54b3de99-6f20-4756-9886-db2bd8dd170c","system_id":"levelo_inurba_marseille","lat":43.29254,"lon":5.40903,"is_reserved":false,"is_disabled":false,"rental_uris":{"android":"levelo://app?vid=54b3de99-6f20-4756-9886-db2bd8dd170c","ios":"levelo://app?vid=54b3de99-6f20-4756-9886-db2bd8dd170c"},"vehicle_type_id":"4","last_reported":1758568083,"current_range_meters":8400,"station_id":"ce4bh192rcd13ifvqdc0","pricing_plan_id":"cebpf4jnsgd1na2vs0mg"},{"bike_id":"9602260e-492a-4b1a-bb6e-bd603b0b3d42","system_id":"levelo_inurba_marseille","lat":43.29264,"lon":5.38436,"is_reserved":false,"is_disabled":false,"rental_uris":{"android":"levelo://app?vid=9602260e-492a-4b1a-bb6e-bd603b0b3d42","ios":"levelo://app?vid=9602260e-492a-4b1a-bb6e-bd603b0b3d42"},"vehicle_type_id":"4","last_reported":1758568083,"current_range_meters":8400,"station_id":"ce4bh692rcd13ifvqea0","pricing_plan_id":"cebpf4jnsgd1na2vs0mg"},{"bike_id":"76bbf107-7ec5-4826-b296-ab629ecd14ab","system_id":"levelo_inurba_marseille","lat":43.29808,"lon":5.42093,"is_reserved":false,"is_disabled":false,"rental_uris":{"android":"levelo://app?vid=76bbf107-7ec5-4826-b296-ab629ecd14ab","ios":"levelo://app?vid=76bbf107-7ec5-4826-b296-ab629ecd14ab"},"vehicle_type_id":"4","last_reported":1758568083,"current_range_meters":8400,"station_id":"","pricing_plan_id":"cebpf4jnsgd1na2vs0mg"},{"bike_id":"90a5a83b-f23a-405e-a312-5d937daeb425","system_id":"levelo_inurba_marseille","lat":43.25116,"lon":5.40324,"is_reserved":false,"is_disabled":false,"rental_uris":{"android":"levelo://app?vid=90a5a83b-f23a-405e-a312-5d937daeb425","ios":"levelo://app?vid=90a5a83b-f23a-405e-a312-5d937daeb425"},"vehicle_type_id":"4","last_reported":1758568083,"current_range_meters":8800,"station_id":"ce4bhlh2rcd13ifvqgig","pricing_plan_id":"cebpf4jnsgd1na2vs0mg"},{"bike_id":"59362b21-e7ae-4d89-a581-7623f0cabe74","system_id":"levelo_inurba_marseille","lat":43.29006,"lon":5.35619,"is_reserved":false,"is_disabled":true,"rental_uris":{"android":"levelo://app?vid=59362b21-e7ae-4d89-a581-7623f0cabe74","ios":"levelo://app?vid=59362b21-e7ae-4d89-a581-7623f0cabe74"},"vehicle_type_id":"4","last_reported":1758568083,"current_range_meters":9200,"station_id":"ce4bhb92rcd13ifvqen0","pricing_plan_id":"cebpf4jnsgd1na2vs0mg"},{"bike_id":"c62055c2-a0a8-45b7-94e8-10b54396c6f4","system_id":"levelo_inurba_marseille","lat":43.25341,"lon":5.42172,"is_reserved":false,"is_disabled":false,"rental_uris":{"android":"levelo://app?vid=c62055c2-a0a8-45b7-94e8-10b54396c6f4","ios":"levelo://app?vid=c62055c2-a0a8-45b7-94e8-10b54396c6f4"},"vehicle_type_id":"4","last_reported":1758568083,"current_range_meters":8800,"station_id":"st_d2m65c5bi1j21697t3ng","pricing_plan_id":"cebpf4jnsgd1na2vs0mg"},{"bike_id":"ca7cfd93-60d9-4fda-b2da-28a86ec02074","system_id":"levelo_inurba_marseille","lat":43.33476,"lon":5.36239,"is_reserved":false,"is_disabled":false,"rental_uris":{"android":"levelo://app?vid=ca7cfd93-60d9-4fda-b2da-28a86ec02074","ios":"levelo://app?vid=ca7cfd93-60d9-4fda-b2da-28a86ec02074"},"vehicle_type_id":"4","last_reported":1758568083,"current_range_meters":8800,"station_id":"","pricing_plan_id":"cebpf4jnsgd1na2vs0mg"},{"bike_id":"ec379092-8ab3-484f-9b1a-d395816e9d90","system_id":"levelo_inurba_marseille","lat":43.303225,"lon":5.404436,"is_reserved":false,"is_disabled":false,"rental_uris":{"android":"levelo://app?vid=ec379092-8ab3-484f-9b1a-d395816e9d90","ios":"levelo://app?vid=ec379092-8ab3-484f-9b1a-d395816e9d90"},"vehicle_type_id":"4","last_reported":1758568083,"current_range_meters":8800,"station_id":"ce4bh012rcd13ifvqd10","pricing_plan_id":"cebpf4jnsgd1na2vs0mg"},{"bike_id":"aba30b74-d7bf-426e-9d06-18587ca4acb9","system_id":"levelo_inurba_marseille","lat":43.29465,"lon":5.3812,"is_reserved":false,"is_disabled":false,"rental_uris":{"android":"levelo://app?vid=aba30b74-d7bf-426e-9d06-18587ca4acb9","ios":"levelo://app?vid=aba30b74-d7bf-426e-9d06-18587ca4acb9"},"vehicle_type_id":"4","last_reported":1758568083,"current_range_meters":8800,"station_id":"","pricing_plan_id":"cebpf4jnsgd1na2vs0mg"},{"bike_id":"d078ca7c-25c3-4861-8e45-4fd0d1ee2d70","system_id":"levelo_inurba_marseille","lat":43.27922,"lon":5.39577,"is_reserved":false,"is_disabled":false,"rental_uris":{"android":"levelo://app?vid=d078ca7c-25c3-4861-8e45-4fd0d1ee2d70","ios":"levelo://app?vid=d078ca7c-25c3-4861-8e45-4fd0d1ee2d70"},"vehicle_type_id":"4","last_reported":1758568083,"current_range_meters":8800,"station_id":"ce4bhf92rcd13ifvqf40","pricing_plan_id":"cebpf4jnsgd1na2vs0mg"},{"bike_id":"9176512c-2cc1-4df2-a8e0-6be514fbcdbf","system_id":"levelo_inurba_marseille","lat":43.33748,"lon":5.37465,"is_reserved":false,"is_disabled":false,"rental_uris":{"android":"levelo://app?vid=9176512c-2cc1-4df2-a8e0-6be514fbcdbf","ios":"levelo://app?vid=9176512c-2cc1-4df2-a8e0-6be514fbcdbf"},"vehicle_type_id":"4","last_reported":1758568083,"current_range_meters":8800,"station_id":"","pricing_plan_id":"cebpf4jnsgd1na2vs0mg"},{"bike_id":"8d77caf4-1639-4faf-8309-4108179f0c25","system_id":"levelo_inurba_marseille","lat":43.231526,"lon":5.437105,"is_reserved":false,"is_disabled":false,"rental_uris":{"android":"levelo://app?vid=8d77caf4-1639-4faf-8309-4108179f0c25","ios":"levelo://app?vid=8d77caf4-1639-4faf-8309-4108179f0c25"},"vehicle_type_id":"4","last_reported":1758568083,"current_range_meters":8800,"station_id":"ce4bhmp2rcd13ifvqgog","pricing_plan_id":"cebpf4jnsgd1na2vs0mg"},{"bike_id":"206592c7-37fc-437b-b812-340dac935611","system_id":"levelo_inurba_marseille","lat":43.29964,"lon":5.38497,"is_reserved":false,"is_disabled":false,"rental_uris":{"android":"levelo://app?vid=206592c7-37fc-437b-b812-340dac935611","ios":"levelo://app?vid=206592c7-37fc-437b-b812-340dac935611"},"vehicle_type_id":"4","last_reported":1758568083,"current_range_meters":9200,"station_id":"ce4bgj92rcd13ifvqbd0","pricing_plan_id":"cebpf4jnsgd1na2vs0mg"},{"bike_id":"8a569a47-46ff-4e91-972f-c6991b590b75","system_id":"levelo_inurba_marseille","lat":43.30248,"lon":5.40075,"is_reserved":false,"is_disabled":true,"rental_uris":{"android":"levelo://app?vid=8a569a47-46ff-4e91-972f-c6991b590b75","ios":"levelo://app?vid=8a569a47-46ff-4e91-972f-c6991b590b75"},"vehicle_type_id":"4","last_reported":1758568083,"current_range_meters":9200,"station_id":"ce4bgvh2rcd13ifvqcs0","pricing_plan_id":"cebpf4jnsgd1na2vs0mg"},{"bike_id":"6ab2afba-8e3f-4ee2-acfc-42ffb15268b9","system_id":"levelo_inurba_marseille","lat":43.24185,"lon":5.3973,"is_reserved":false,"is_disabled":false,"rental_uris":{"android":"levelo://app?vid=6ab2afba-8e3f-4ee2-acfc-42ffb15268b9","ios":"levelo://app?vid=6ab2afba-8e3f-4ee2-acfc-42ffb15268b9"},"vehicle_type_id":"4","last_reported":1758568083,"current_range_meters":9200,"station_id":"ce4bhn12rcd13ifvqgpg","pricing_plan_id":"cebpf4jnsgd1na2vs0mg"},{"bike_id":"82ee648a-7372-4d5b-a4e4-df42ff240408","system_id":"levelo_inurba_marseille","lat":43.289303,"lon":5.366451,"is_reserved":false,"is_disabled":false,"rental_uris":{"android":"levelo://app?vid=82ee648a-7372-4d5b-a4e4-df42ff240408","ios":"levelo://app?vid=82ee648a-7372-4d5b-a4e4-df42ff240408"},"vehicle_type_id":"4","last_reported":1758568083,"current_range_meters":9200,"station_id":"ce4bhap2rcd13ifvqek0","pricing_plan_id":"cebpf4jnsgd1na2vs0mg"},{"bike_id":"57a554c8-313b-4697-ac11-481f5aecffc8","system_id":"levelo_inurba_marseille","lat":43.29194,"lon":5.37118,"is_reserved":false,"is_disabled":false,"rental_uris":{"android":"levelo://app?vid=57a554c8-313b-4697-ac11-481f5aecffc8","ios":"levelo://app?vid=57a554c8-313b-4697-ac11-481f5aecffc8"},"vehicle_type_id":"4","last_reported":1758568083,"current_range_meters":9200,"station_id":"ce4bha92rcd13ifvqeh0","pricing_plan_id":"cebpf4jnsgd1na2vs0mg"},{"bike_id":"b8326fe6-4e46-4be4-be1e-880748c1dab4","system_id":"levelo_inurba_marseille","lat":43.30373,"lon":5.42487,"is_reserved":false,"is_disabled":false,"rental_uris":{"android":"levelo://app?vid=b8326fe6-4e46-4be4-be1e-880748c1dab4","ios":"levelo://app?vid=b8326fe6-4e46-4be4-be1e-880748c1dab4"},"vehicle_type_id":"4","last_reported":1758568083,"current_range_meters":9200,"station_id":"ce4bhoh2rcd13ifvqh6g","pricing_plan_id":"cebpf4jnsgd1na2vs0mg"},{"bike_id":"438ead59-de14-4fa0-a61d-03a70a4122ae","system_id":"levelo_inurba_marseille","lat":43.97285,"lon":4.89134,"is_reserved":false,"is_disabled":true,"rental_uris":{"android":"levelo://app?vid=438ead59-de14-4fa0-a61d-03a70a4122ae","ios":"levelo://app?vid=438ead59-de14-4fa0-a61d-03a70a4122ae"},"vehicle_type_id":"4","last_reported":1758568083,"current_range_meters":9200,"station_id":"","pricing_plan_id":"cebpf4jnsgd1na2vs0mg"},{"bike_id":"0402438e-d72b-4870-8e22-17facef5f22b","system_id":"levelo_inurba_marseille","lat":43.29582,"lon":5.39148,"is_reserved":false,"is_disabled":false,"rental_uris":{"android":"levelo://app?vid=0402438e-d72b-4870-8e22-17facef5f22b","ios":"levelo://app?vid=0402438e-d72b-4870-8e22-17facef5f22b"},"vehicle_type_id":"4","last_reported":1758568083,"current_range_meters":9600,"station_id":"","pricing_plan_id":"cebpf4jnsgd1na2vs0mg"},{"bike_id":"a15e48c8-16c3-437e-a237-62b9e19d84cb","system_id":"levelo_inurba_marseille","lat":43.21758,"lon":5.34596,"is_reserved":false,"is_disabled":false,"rental_uris":{"android":"levelo://app?vid=a15e48c8-16c3-437e-a237-62b9e19d84cb","ios":"levelo://app?vid=a15e48c8-16c3-437e-a237-62b9e19d84cb"},"vehicle_type_id":"4","last_reported":1758568083,"current_range_meters":9600,"station_id":"st_cvj6r9ubvosntc0bgbag","pricing_plan_id":"cebpf4jnsgd1na2vs0mg"},{"bike_id":"1772f16e-1e0d-4b56-920e-306c16a49a09","system_id":"levelo_inurba_marseille","lat":43.276709,"lon":5.388813,"is_reserved":false,"is_disabled":false,"rental_uris":{"android":"levelo://app?vid=1772f16e-1e0d-4b56-920e-306c16a49a09","ios":"levelo://app?vid=1772f16e-1e0d-4b56-920e-306c16a49a09"},"vehicle_type_id":"4","last_reported":1758568083,"current_range_meters":9600,"station_id":"ce4bhi12rcd13ifvqfo0","pricing_plan_id":"cebpf4jnsgd1na2vs0mg"},{"bike_id":"21b332ff-d200-4512-b147-e9a4034e1bab","system_id":"levelo_inurba_marseille","lat":43.27815,"lon":5.40706,"is_reserved":false,"is_disabled":false,"rental_uris":{"android":"levelo://app?vid=21b332ff-d200-4512-b147-e9a4034e1bab","ios":"levelo://app?vid=21b332ff-d200-4512-b147-e9a4034e1bab"},"vehicle_type_id":"4","last_reported":1758568083,"current_range_meters":9600,"station_id":"ce4bhnh2rcd13ifvqgtg","pricing_plan_id":"cebpf4jnsgd1na2vs0mg"},{"bike_id":"ac5f2ba4-2094-44f1-b353-5eb1f10e4364","system_id":"levelo_inurba_marseille","lat":43.25004,"lon":5.38927,"is_reserved":false,"is_disabled":false,"rental_uris":{"android":"levelo://app?vid=ac5f2ba4-2094-44f1-b353-5eb1f10e4364","ios":"levelo://app?vid=ac5f2ba4-2094-44f1-b353-5eb1f10e4364"},"vehicle_type_id":"4","last_reported":1758568083,"current_range_meters":9600,"station_id":"ce4bhgp2rcd13ifvqfd0","pricing_plan_id":"cebpf4jnsgd1na2vs0mg"},{"bike_id":"287decd1-d801-41e9-87df-96c8a951912f","system_id":"levelo_inurba_marseille","lat":43.28937,"lon":5.36638,"is_reserved":false,"is_disabled":false,"rental_uris":{"android":"levelo://app?vid=287decd1-d801-41e9-87df-96c8a951912f","ios":"levelo://app?vid=287decd1-d801-41e9-87df-96c8a951912f"},"vehicle_type_id":"4","last_reported":1758568083,"current_range_meters":9600,"station_id":"ce4bhap2rcd13ifvqek0","pricing_plan_id":"cebpf4jnsgd1na2vs0mg"},{"bike_id":"a86157b7-cfac-433a-ae95-58ad4ca399ba","system_id":"levelo_inurba_marseille","lat":43.29263,"lon":5.38448,"is_reserved":false,"is_disabled":false,"rental_uris":{"android":"levelo://app?vid=a86157b7-cfac-433a-ae95-58ad4ca399ba","ios":"levelo://app?vid=a86157b7-cfac-433a-ae95-58ad4ca399ba"},"vehicle_type_id":"4","last_reported":1758568083,"current_range_meters":9600,"station_id":"ce4bh692rcd13ifvqea0","pricing_plan_id":"cebpf4jnsgd1na2vs0mg"},{"bike_id":"8fc2af90-e224-4234-979d-2bc5b42d81c6","system_id":"levelo_inurba_marseille","lat":43.29268,"lon":5.3844,"is_reserved":false,"is_disabled":false,"rental_uris":{"android":"levelo://app?vid=8fc2af90-e224-4234-979d-2bc5b42d81c6","ios":"levelo://app?vid=8fc2af90-e224-4234-979d-2bc5b42d81c6"},"vehicle_type_id":"4","last_reported":1758568083,"current_range_meters":9600,"station_id":"ce4bh692rcd13ifvqea0","pricing_plan_id":"cebpf4jnsgd1na2vs0mg"},{"bike_id":"d61b1e0c-e049-47df-a8d7-021fbb892a46","system_id":"levelo_inurba_marseille","lat":43.29265,"lon":5.38436,"is_reserved":false,"is_disabled":false,"rental_uris":{"android":"levelo://app?vid=d61b1e0c-e049-47df-a8d7-021fbb892a46","ios":"levelo://app?vid=d61b1e0c-e049-47df-a8d7-021fbb892a46"},"vehicle_type_id":"4","last_reported":1758568083,"current_range_meters":10000,"station_id":"ce4bh692rcd13ifvqea0","pricing_plan_id":"cebpf4jnsgd1na2vs0mg"},{"bike_id":"7a69a16f-467e-4090-a81a-8f6f5df7d6b2","system_id":"levelo_inurba_marseille","lat":43.290565,"lon":5.370578,"is_reserved":false,"is_disabled":false,"rental_uris":{"android":"levelo://app?vid=7a69a16f-467e-4090-a81a-8f6f5df7d6b2","ios":"levelo://app?vid=7a69a16f-467e-4090-a81a-8f6f5df7d6b2"},"vehicle_type_id":"4","last_reported":1758568083,"current_range_meters":10000,"station_id":"ce4bh5p2rcd13ifvqe4g","pricing_plan_id":"cebpf4jnsgd1na2vs0mg"},{"bike_id":"1acc509b-af85-4b58-bd74-e0c052811dd7","system_id":"levelo_inurba_marseille","lat":43.30284,"lon":5.396613,"is_reserved":false,"is_disabled":false,"rental_uris":{"android":"levelo://app?vid=1acc509b-af85-4b58-bd74-e0c052811dd7","ios":"levelo://app?vid=1acc509b-af85-4b58-bd74-e0c052811dd7"},"vehicle_type_id":"4","last_reported":1758568083,"current_range_meters":10000,"station_id":"","pricing_plan_id":"cebpf4jnsgd1na2vs0mg"},{"bike_id":"0ca405c5-50f7-42f0-ad59-fa4f401dba3d","system_id":"levelo_inurba_marseille","lat":43.24654,"lon":5.38167,"is_reserved":false,"is_disabled":true,"rental_uris":{"android":"levelo://app?vid=0ca405c5-50f7-42f0-ad59-fa4f401dba3d","ios":"levelo://app?vid=0ca405c5-50f7-42f0-ad59-fa4f401dba3d"},"vehicle_type_id":"4","last_reported":1758568083,"current_range_meters":10000,"station_id":"ce4bhih2rcd13ifvqfr0","pricing_plan_id":"cebpf4jnsgd1na2vs0mg"},{"bike_id":"3e93349c-6864-45ee-97b2-b77ee952da83","system_id":"levelo_inurba_marseille","lat":43.24661,"lon":5.38163,"is_reserved":false,"is_disabled":false,"rental_uris":{"android":"levelo://app?vid=3e93349c-6864-45ee-97b2-b77ee952da83","ios":"levelo://app?vid=3e93349c-6864-45ee-97b2-b77ee952da83"},"vehicle_type_id":"4","last_reported":1758568083,"current_range_meters":10000,"station_id":"ce4bhih2rcd13ifvqfr0","pricing_plan_id":"cebpf4jnsgd1na2vs0mg"},{"bike_id":"96557ea5-0866-452a-b77b-a48b35a29d44","system_id":"levelo_inurba_marseille","lat":43.2784,"lon":5.39203,"is_reserved":false,"is_disabled":false,"rental_uris":{"android":"levelo://app?vid=96557ea5-0866-452a-b77b-a48b35a29d44","ios":"levelo://app?vid=96557ea5-0866-452a-b77b-a48b35a29d44"},"vehicle_type_id":"4","last_reported":1758568083,"current_range_meters":10000,"station_id":"ce4bhjp2rcd13ifvqga0","pricing_plan_id":"cebpf4jnsgd1na2vs0mg"},{"bike_id":"e78e76b0-1782-4d7a-814e-9b08fdee93ee","system_id":"levelo_inurba_marseille","lat":43.29246,"lon":5.38433,"is_reserved":false,"is_disabled":false,"rental_uris":{"android":"levelo://app?vid=e78e76b0-1782-4d7a-814e-9b08fdee93ee","ios":"levelo://app?vid=e78e76b0-1782-4d7a-814e-9b08fdee93ee"},"vehicle_type_id":"4","last_reported":1758568083,"current_range_meters":10000,"station_id":"ce4bh692rcd13ifvqea0","pricing_plan_id":"cebpf4jnsgd1na2vs0mg"},{"bike_id":"902b19cd-3c32-4696-90a7-574e99df3da9","system_id":"levelo_inurba_marseille","lat":43.25336,"lon":5.42178,"is_reserved":false,"is_disabled":false,"rental_uris":{"android":"levelo://app?vid=902b19cd-3c32-4696-90a7-574e99df3da9","ios":"levelo://app?vid=902b19cd-3c32-4696-90a7-574e99df3da9"},"vehicle_type_id":"4","last_reported":1758568083,"current_range_meters":10000,"station_id":"st_d2m65c5bi1j21697t3ng","pricing_plan_id":"cebpf4jnsgd1na2vs0mg"},{"bike_id":"4ebd049d-ad8c-4caf-9c98-ab95492ac68b","system_id":"levelo_inurba_marseille","lat":43.29308,"lon":5.37171,"is_reserved":false,"is_disabled":false,"rental_uris":{"android":"levelo://app?vid=4ebd049d-ad8c-4caf-9c98-ab95492ac68b","ios":"levelo://app?vid=4ebd049d-ad8c-4caf-9c98-ab95492ac68b"},"vehicle_type_id":"4","last_reported":1758568083,"current_range_meters":10000,"station_id":"ce4bgh92rcd13ifvqb40","pricing_plan_id":"cebpf4jnsgd1na2vs0mg"},{"bike_id":"0c4c16cf-5f25-46e8-8f1d-8b1fdc091e13","system_id":"levelo_inurba_marseille","lat":43.29878,"lon":5.38134,"is_reserved":false,"is_disabled":false,"rental_uris":{"android":"levelo://app?vid=0c4c16cf-5f25-46e8-8f1d-8b1fdc091e13","ios":"levelo://app?vid=0c4c16cf-5f25-46e8-8f1d-8b1fdc091e13"},"vehicle_type_id":"4","last_reported":1758568083,"current_range_meters":10000,"station_id":"ce4bgj12rcd13ifvqbc0","pricing_plan_id":"cebpf4jnsgd1na2vs0mg"},{"bike_id":"393f4824-2049-4d74-bf48-45741e475fd3","system_id":"levelo_inurba_marseille","lat":43.2952,"lon":5.38535,"is_reserved":false,"is_disabled":false,"rental_uris":{"android":"levelo://app?vid=393f4824-2049-4d74-bf48-45741e475fd3","ios":"levelo://app?vid=393f4824-2049-4d74-bf48-45741e475fd3"},"vehicle_type_id":"4","last_reported":1758568083,"current_range_meters":10800,"station_id":"ce4bgih2rcd13ifvqba0","pricing_plan_id":"cebpf4jnsgd1na2vs0mg"},{"bike_id":"5dd24075-722f-4979-91f7-41828ca0486f","system_id":"levelo_inurba_marseille","lat":43.29294,"lon":5.3717,"is_reserved":false,"is_disabled":false,"rental_uris":{"android":"levelo://app?vid=5dd24075-722f-4979-91f7-41828ca0486f","ios":"levelo://app?vid=5dd24075-722f-4979-91f7-41828ca0486f"},"vehicle_type_id":"4","last_reported":1758568083,"current_range_meters":9600,"station_id":"ce4bgh92rcd13ifvqb40","pricing_plan_id":"cebpf4jnsgd1na2vs0mg"},{"bike_id":"5abdf218-4f6f-43c0-9423-719e92d02d64","system_id":"levelo_inurba_marseille","lat":43.29527,"lon":5.385177,"is_reserved":false,"is_disabled":false,"rental_uris":{"android":"levelo://app?vid=5abdf218-4f6f-43c0-9423-719e92d02d64","ios":"levelo://app?vid=5abdf218-4f6f-43c0-9423-719e92d02d64"},"vehicle_type_id":"4","last_reported":1758568083,"current_range_meters":10800,"station_id":"ce4bgih2rcd13ifvqba0","pricing_plan_id":"cebpf4jnsgd1na2vs0mg"},{"bike_id":"6e417fed-8d43-4963-b52e-c54cd79d652e","system_id":"levelo_inurba_marseille","lat":43.30135,"lon":5.38777,"is_reserved":false,"is_disabled":true,"rental_uris":{"android":"levelo://app?vid=6e417fed-8d43-4963-b52e-c54cd79d652e","ios":"levelo://app?vid=6e417fed-8d43-4963-b52e-c54cd79d652e"},"vehicle_type_id":"4","last_reported":1758568083,"current_range_meters":10800,"station_id":"ce4bghh2rcd13ifvqb60","pricing_plan_id":"cebpf4jnsgd1na2vs0mg"},{"bike_id":"6910a784-9ded-46d2-a4b5-f5e004b10189","system_id":"levelo_inurba_marseille","lat":43.29257,"lon":5.38436,"is_reserved":false,"is_disabled":false,"rental_uris":{"android":"levelo://app?vid=6910a784-9ded-46d2-a4b5-f5e004b10189","ios":"levelo://app?vid=6910a784-9ded-46d2-a4b5-f5e004b10189"},"vehicle_type_id":"4","last_reported":1758568083,"current_range_meters":10800,"station_id":"ce4bh692rcd13ifvqea0","pricing_plan_id":"cebpf4jnsgd1na2vs0mg"},{"bike_id":"df143966-21f7-4109-ae57-dae6e6d6ca82","system_id":"levelo_inurba_marseille","lat":43.29965,"lon":5.385,"is_reserved":false,"is_disabled":false,"rental_uris":{"android":"levelo://app?vid=df143966-21f7-4109-ae57-dae6e6d6ca82","ios":"levelo://app?vid=df143966-21f7-4109-ae57-dae6e6d6ca82"},"vehicle_type_id":"4","last_reported":1758568083,"current_range_meters":10800,"station_id":"ce4bgj92rcd13ifvqbd0","pricing_plan_id":"cebpf4jnsgd1na2vs0mg"},{"bike_id":"876179c2-88a9-44d1-b316-c2bd85d2a686","system_id":"levelo_inurba_marseille","lat":43.29535,"lon":5.38545,"is_reserved":false,"is_disabled":false,"rental_uris":{"android":"levelo://app?vid=876179c2-88a9-44d1-b316-c2bd85d2a686","ios":"levelo://app?vid=876179c2-88a9-44d1-b316-c2bd85d2a686"},"vehicle_type_id":"4","last_reported":1758568083,"current_range_meters":10800,"station_id":"ce4bgih2rcd13ifvqba0","pricing_plan_id":"cebpf4jnsgd1na2vs0mg"},{"bike_id":"2d6be877-7cb5-4ea4-a80b-f321695a041a","system_id":"levelo_inurba_marseille","lat":43.29267,"lon":5.38436,"is_reserved":false,"is_disabled":false,"rental_uris":{"android":"levelo://app?vid=2d6be877-7cb5-4ea4-a80b-f321695a041a","ios":"levelo://app?vid=2d6be877-7cb5-4ea4-a80b-f321695a041a"},"vehicle_type_id":"4","last_reported":1758568083,"current_range_meters":10800,"station_id":"ce4bh692rcd13ifvqea0","pricing_plan_id":"cebpf4jnsgd1na2vs0mg"},{"bike_id":"76395fb0-39b9-4418-b45f-5caf81c7a357","system_id":"levelo_inurba_marseille","lat":43.28459,"lon":5.35898,"is_reserved":false,"is_disabled":false,"rental_uris":{"android":"levelo://app?vid=76395fb0-39b9-4418-b45f-5caf81c7a357","ios":"levelo://app?vid=76395fb0-39b9-4418-b45f-5caf81c7a357"},"vehicle_type_id":"4","last_reported":1758568083,"current_range_meters":12800,"station_id":"ce4bhah2rcd13ifvqei0","pricing_plan_id":"cebpf4jnsgd1na2vs0mg"},{"bike_id":"c0e4423a-98c7-4947-b9a2-7a696cef5ee0","system_id":"levelo_inurba_marseille","lat":43.29274,"lon":5.36849,"is_reserved":false,"is_disabled":false,"rental_uris":{"android":"levelo://app?vid=c0e4423a-98c7-4947-b9a2-7a696cef5ee0","ios":"levelo://app?vid=c0e4423a-98c7-4947-b9a2-7a696cef5ee0"},"vehicle_type_id":"4","last_reported":1758568083,"current_range_meters":11200,"station_id":"ce4bhbp2rcd13ifvqesg","pricing_plan_id":"cebpf4jnsgd1na2vs0mg"},{"bike_id":"e4ea16a5-702e-46c5-8e88-c5049e80a55f","system_id":"levelo_inurba_marseille","lat":43.28949,"lon":5.36404,"is_reserved":false,"is_disabled":false,"rental_uris":{"android":"levelo://app?vid=e4ea16a5-702e-46c5-8e88-c5049e80a55f","ios":"levelo://app?vid=e4ea16a5-702e-46c5-8e88-c5049e80a55f"},"vehicle_type_id":"4","last_reported":1758568083,"current_range_meters":11200,"station_id":"ce4bhc92rcd13ifvqetg","pricing_plan_id":"cebpf4jnsgd1na2vs0mg"},{"bike_id":"bc5bdce1-bf12-446e-b31e-3cfc29bb8dd1","system_id":"levelo_inurba_marseille","lat":43.29558,"lon":5.38174,"is_reserved":false,"is_disabled":false,"rental_uris":{"android":"levelo://app?vid=bc5bdce1-bf12-446e-b31e-3cfc29bb8dd1","ios":"levelo://app?vid=bc5bdce1-bf12-446e-b31e-3cfc29bb8dd1"},"vehicle_type_id":"4","last_reported":1758568083,"current_range_meters":11200,"station_id":"","pricing_plan_id":"cebpf4jnsgd1na2vs0mg"},{"bike_id":"1c78969b-5bf9-46e6-a127-3b56932d2971","system_id":"levelo_inurba_marseille","lat":43.26199,"lon":5.37932,"is_reserved":false,"is_disabled":false,"rental_uris":{"android":"levelo://app?vid=1c78969b-5bf9-46e6-a127-3b56932d2971","ios":"levelo://app?vid=1c78969b-5bf9-46e6-a127-3b56932d2971"},"vehicle_type_id":"4","last_reported":1758568083,"current_range_meters":11200,"station_id":"ce4bhjp2rcd13ifvqg90","pricing_plan_id":"cebpf4jnsgd1na2vs0mg"},{"bike_id":"2a2fbf45-e13d-4c58-b779-b4c75a4a65c4","system_id":"levelo_inurba_marseille","lat":43.27062,"lon":5.40269,"is_reserved":false,"is_disabled":false,"rental_uris":{"android":"levelo://app?vid=2a2fbf45-e13d-4c58-b779-b4c75a4a65c4","ios":"levelo://app?vid=2a2fbf45-e13d-4c58-b779-b4c75a4a65c4"},"vehicle_type_id":"4","last_reported":1758568083,"current_range_meters":11200,"station_id":"ce4bhk92rcd13ifvqgc0","pricing_plan_id":"cebpf4jnsgd1na2vs0mg"},{"bike_id":"a8ec4b87-8730-4f30-a6fc-299b9d5480da","system_id":"levelo_inurba_marseille","lat":43.25722,"lon":5.41114,"is_reserved":false,"is_disabled":false,"rental_uris":{"android":"levelo://app?vid=a8ec4b87-8730-4f30-a6fc-299b9d5480da","ios":"levelo://app?vid=a8ec4b87-8730-4f30-a6fc-299b9d5480da"},"vehicle_type_id":"4","last_reported":1758568083,"current_range_meters":11200,"station_id":"ce4bhkp2rcd13ifvqgd0","pricing_plan_id":"cebpf4jnsgd1na2vs0mg"},{"bike_id":"bb3cb1c2-b8b8-4955-ad40-ec30cd13f911","system_id":"levelo_inurba_marseille","lat":43.296293,"lon":5.377472,"is_reserved":false,"is_disabled":false,"rental_uris":{"android":"levelo://app?vid=bb3cb1c2-b8b8-4955-ad40-ec30cd13f911","ios":"levelo://app?vid=bb3cb1c2-b8b8-4955-ad40-ec30cd13f911"},"vehicle_type_id":"4","last_reported":1758568083,"current_range_meters":11200,"station_id":"ce4bgip2rcd13ifvqbb0","pricing_plan_id":"cebpf4jnsgd1na2vs0mg"},{"bike_id":"b11b2329-2c7e-4aa7-bad5-398885a2c905","system_id":"levelo_inurba_marseille","lat":43.29537,"lon":5.38547,"is_reserved":false,"is_disabled":false,"rental_uris":{"android":"levelo://app?vid=b11b2329-2c7e-4aa7-bad5-398885a2c905","ios":"levelo://app?vid=b11b2329-2c7e-4aa7-bad5-398885a2c905"},"vehicle_type_id":"4","last_reported":1758568083,"current_range_meters":11200,"station_id":"ce4bgih2rcd13ifvqba0","pricing_plan_id":"cebpf4jnsgd1na2vs0mg"},{"bike_id":"808a9b44-8be5-4bc1-9e2e-f5a2591309e1","system_id":"levelo_inurba_marseille","lat":43.27966,"lon":5.38727,"is_reserved":false,"is_disabled":false,"rental_uris":{"android":"levelo://app?vid=808a9b44-8be5-4bc1-9e2e-f5a2591309e1","ios":"levelo://app?vid=808a9b44-8be5-4bc1-9e2e-f5a2591309e1"},"vehicle_type_id":"4","last_reported":1758568083,"current_range_meters":11600,"station_id":"ce4bhg12rcd13ifvqf80","pricing_plan_id":"cebpf4jnsgd1na2vs0mg"},{"bike_id":"8d620b4e-af54-4eb9-aecd-1fb7d5c30461","system_id":"levelo_inurba_marseille","lat":43.26931,"lon":5.40264,"is_reserved":false,"is_disabled":false,"rental_uris":{"android":"levelo://app?vid=8d620b4e-af54-4eb9-aecd-1fb7d5c30461","ios":"levelo://app?vid=8d620b4e-af54-4eb9-aecd-1fb7d5c30461"},"vehicle_type_id":"4","last_reported":1758568083,"current_range_meters":11600,"station_id":"cjm6bp8fraef2m0cb0m0","pricing_plan_id":"cebpf4jnsgd1na2vs0mg"},{"bike_id":"8b7a9ebc-8383-4311-9c40-d96d0f5ec46a","system_id":"levelo_inurba_marseille","lat":43.29911,"lon":5.4038,"is_reserved":false,"is_disabled":false,"rental_uris":{"android":"levelo://app?vid=8b7a9ebc-8383-4311-9c40-d96d0f5ec46a","ios":"levelo://app?vid=8b7a9ebc-8383-4311-9c40-d96d0f5ec46a"},"vehicle_type_id":"4","last_reported":1758568083,"current_range_meters":11600,"station_id":"","pricing_plan_id":"cebpf4jnsgd1na2vs0mg"},{"bike_id":"9c2ccff5-320c-4b97-ba3a-43c93808cb98","system_id":"levelo_inurba_marseille","lat":43.29278,"lon":5.40117,"is_reserved":false,"is_disabled":false,"rental_uris":{"android":"levelo://app?vid=9c2ccff5-320c-4b97-ba3a-43c93808cb98","ios":"levelo://app?vid=9c2ccff5-320c-4b97-ba3a-43c93808cb98"},"vehicle_type_id":"4","last_reported":1758568083,"current_range_meters":11600,"station_id":"ce4bh312rcd13ifvqdk0","pricing_plan_id":"cebpf4jnsgd1na2vs0mg"},{"bike_id":"90e14a2d-1c9e-457a-a1d7-7257e3270581","system_id":"levelo_inurba_marseille","lat":43.28012,"lon":5.41668,"is_reserved":false,"is_disabled":true,"rental_uris":{"android":"levelo://app?vid=90e14a2d-1c9e-457a-a1d7-7257e3270581","ios":"levelo://app?vid=90e14a2d-1c9e-457a-a1d7-7257e3270581"},"vehicle_type_id":"4","last_reported":1758568083,"current_range_meters":11600,"station_id":"ce4bho12rcd13ifvqh1g","pricing_plan_id":"cebpf4jnsgd1na2vs0mg"},{"bike_id":"0d44ec6f-f962-411c-8477-a78e54b07bcf","system_id":"levelo_inurba_marseille","lat":43.29065,"lon":5.37166,"is_reserved":false,"is_disabled":false,"rental_uris":{"android":"levelo://app?vid=0d44ec6f-f962-411c-8477-a78e54b07bcf","ios":"levelo://app?vid=0d44ec6f-f962-411c-8477-a78e54b07bcf"},"vehicle_type_id":"4","last_reported":1758568083,"current_range_meters":11600,"station_id":"ce4bh5p2rcd13ifvqe4g","pricing_plan_id":"cebpf4jnsgd1na2vs0mg"},{"bike_id":"9d9648da-eee6-4dda-acb2-2db004b07585","system_id":"levelo_inurba_marseille","lat":43.2927,"lon":5.38451,"is_reserved":false,"is_disabled":false,"rental_uris":{"android":"levelo://app?vid=9d9648da-eee6-4dda-acb2-2db004b07585","ios":"levelo://app?vid=9d9648da-eee6-4dda-acb2-2db004b07585"},"vehicle_type_id":"4","last_reported":1758568083,"current_range_meters":11600,"station_id":"ce4bh692rcd13ifvqea0","pricing_plan_id":"cebpf4jnsgd1na2vs0mg"},{"bike_id":"d7b5015e-42d5-4884-9559-b5e724af1f7a","system_id":"levelo_inurba_marseille","lat":43.30243,"lon":5.40097,"is_reserved":false,"is_disabled":false,"rental_uris":{"android":"levelo://app?vid=d7b5015e-42d5-4884-9559-b5e724af1f7a","ios":"levelo://app?vid=d7b5015e-42d5-4884-9559-b5e724af1f7a"},"vehicle_type_id":"4","last_reported":1758568083,"current_range_meters":6800,"station_id":"ce4bgvh2rcd13ifvqcs0","pricing_plan_id":"cebpf4jnsgd1na2vs0mg"},{"bike_id":"7d73570a-4165-46a4-a4d9-6c3b91773a9c","system_id":"levelo_inurba_marseille","lat":43.22923,"lon":5.35381,"is_reserved":false,"is_disabled":false,"rental_uris":{"android":"levelo://app?vid=7d73570a-4165-46a4-a4d9-6c3b91773a9c","ios":"levelo://app?vid=7d73570a-4165-46a4-a4d9-6c3b91773a9c"},"vehicle_type_id":"4","last_reported":1758568083,"current_range_meters":12000,"station_id":"cpo3532slgdg3j2ikp40","pricing_plan_id":"cebpf4jnsgd1na2vs0mg"},{"bike_id":"94dc763b-5c60-4e8c-a6fc-573bcaf8f7f0","system_id":"levelo_inurba_marseille","lat":43.32487,"lon":5.36557,"is_reserved":false,"is_disabled":false,"rental_uris":{"android":"levelo://app?vid=94dc763b-5c60-4e8c-a6fc-573bcaf8f7f0","ios":"levelo://app?vid=94dc763b-5c60-4e8c-a6fc-573bcaf8f7f0"},"vehicle_type_id":"4","last_reported":1758568083,"current_range_meters":12000,"station_id":"ce4bhs12rcd13ifvqhvg","pricing_plan_id":"cebpf4jnsgd1na2vs0mg"},{"bike_id":"c733e7dc-50be-412b-be24-1c3b4a94d355","system_id":"levelo_inurba_marseille","lat":43.27328,"lon":5.39094,"is_reserved":false,"is_disabled":false,"rental_uris":{"android":"levelo://app?vid=c733e7dc-50be-412b-be24-1c3b4a94d355","ios":"levelo://app?vid=c733e7dc-50be-412b-be24-1c3b4a94d355"},"vehicle_type_id":"4","last_reported":1758568083,"current_range_meters":12000,"station_id":"ce4bhgp2rcd13ifvqfe0","pricing_plan_id":"cebpf4jnsgd1na2vs0mg"},{"bike_id":"51d92c87-aa59-4783-b818-f9c5a7eebd73","system_id":"levelo_inurba_marseille","lat":43.29527,"lon":5.37428,"is_reserved":false,"is_disabled":false,"rental_uris":{"android":"levelo://app?vid=51d92c87-aa59-4783-b818-f9c5a7eebd73","ios":"levelo://app?vid=51d92c87-aa59-4783-b818-f9c5a7eebd73"},"vehicle_type_id":"4","last_reported":1758568083,"current_range_meters":12400,"station_id":"","pricing_plan_id":"cebpf4jnsgd1na2vs0mg"},{"bike_id":"18cbb4ba-7884-4958-8671-7120ee946be0","system_id":"levelo_inurba_marseille","lat":43.27302,"lon":5.39135,"is_reserved":false,"is_disabled":false,"rental_uris":{"android":"levelo://app?vid=18cbb4ba-7884-4958-8671-7120ee946be0","ios":"levelo://app?vid=18cbb4ba-7884-4958-8671-7120ee946be0"},"vehicle_type_id":"4","last_reported":1758568083,"current_range_meters":12400,"station_id":"ce4bhgp2rcd13ifvqfe0","pricing_plan_id":"cebpf4jnsgd1na2vs0mg"},{"bike_id":"dc495131-9885-4579-af8a-e69205387433","system_id":"levelo_inurba_marseille","lat":43.29574,"lon":5.39977,"is_reserved":false,"is_disabled":false,"rental_uris":{"android":"levelo://app?vid=dc495131-9885-4579-af8a-e69205387433","ios":"levelo://app?vid=dc495131-9885-4579-af8a-e69205387433"},"vehicle_type_id":"4","last_reported":1758568083,"current_range_meters":12400,"station_id":"ce4bh312rcd13ifvqdj0","pricing_plan_id":"cebpf4jnsgd1na2vs0mg"},{"bike_id":"61770c49-cf1c-4cdb-8a76-b62d53617107","system_id":"levelo_inurba_marseille","lat":43.2743,"lon":5.3942,"is_reserved":false,"is_disabled":false,"rental_uris":{"android":"levelo://app?vid=61770c49-cf1c-4cdb-8a76-b62d53617107","ios":"levelo://app?vid=61770c49-cf1c-4cdb-8a76-b62d53617107"},"vehicle_type_id":"4","last_reported":1758568083,"current_range_meters":12400,"station_id":"ce4bhdp2rcd13ifvqf20","pricing_plan_id":"cebpf4jnsgd1na2vs0mg"},{"bike_id":"c608481a-f40e-4e69-a9e6-3b5db78dac0f","system_id":"levelo_inurba_marseille","lat":43.29693,"lon":5.37299,"is_reserved":false,"is_disabled":false,"rental_uris":{"android":"levelo://app?vid=c608481a-f40e-4e69-a9e6-3b5db78dac0f","ios":"levelo://app?vid=c608481a-f40e-4e69-a9e6-3b5db78dac0f"},"vehicle_type_id":"4","last_reported":1758568083,"current_range_meters":12400,"station_id":"ce4bgk12rcd13ifvqbj0","pricing_plan_id":"cebpf4jnsgd1na2vs0mg"},{"bike_id":"77eeb9b5-0e68-4a7b-b5d1-530ce6c04cd4","system_id":"levelo_inurba_marseille","lat":43.22929,"lon":5.35373,"is_reserved":false,"is_disabled":false,"rental_uris":{"android":"levelo://app?vid=77eeb9b5-0e68-4a7b-b5d1-530ce6c04cd4","ios":"levelo://app?vid=77eeb9b5-0e68-4a7b-b5d1-530ce6c04cd4"},"vehicle_type_id":"4","last_reported":1758568083,"current_range_meters":12400,"station_id":"cpo3532slgdg3j2ikp40","pricing_plan_id":"cebpf4jnsgd1na2vs0mg"},{"bike_id":"029edfd3-eb71-4f08-bd6d-cab8dc2610eb","system_id":"levelo_inurba_marseille","lat":43.29167,"lon":5.37156,"is_reserved":false,"is_disabled":false,"rental_uris":{"android":"levelo://app?vid=029edfd3-eb71-4f08-bd6d-cab8dc2610eb","ios":"levelo://app?vid=029edfd3-eb71-4f08-bd6d-cab8dc2610eb"},"vehicle_type_id":"4","last_reported":1758568083,"current_range_meters":12400,"station_id":"ce4bha92rcd13ifvqeh0","pricing_plan_id":"cebpf4jnsgd1na2vs0mg"},{"bike_id":"4b48803f-529e-4120-b8cd-cb33a8f1cec2","system_id":"levelo_inurba_marseille","lat":43.30608,"lon":5.3722,"is_reserved":false,"is_disabled":false,"rental_uris":{"android":"levelo://app?vid=4b48803f-529e-4120-b8cd-cb33a8f1cec2","ios":"levelo://app?vid=4b48803f-529e-4120-b8cd-cb33a8f1cec2"},"vehicle_type_id":"4","last_reported":1758568083,"current_range_meters":12400,"station_id":"ce4bgqh2rcd13ifvqc4g","pricing_plan_id":"cebpf4jnsgd1na2vs0mg"},{"bike_id":"9be757a7-0337-4d5e-b75e-02e11094eefc","system_id":"levelo_inurba_marseille","lat":43.31891,"lon":5.40732,"is_reserved":false,"is_disabled":false,"rental_uris":{"android":"levelo://app?vid=9be757a7-0337-4d5e-b75e-02e11094eefc","ios":"levelo://app?vid=9be757a7-0337-4d5e-b75e-02e11094eefc"},"vehicle_type_id":"4","last_reported":1758568083,"current_range_meters":12400,"station_id":"ce4bhq12rcd13ifvqhig","pricing_plan_id":"cebpf4jnsgd1na2vs0mg"},{"bike_id":"5bf622f2-8889-4c8b-bc74-869bf3d0e0d6","system_id":"levelo_inurba_marseille","lat":43.26228,"lon":5.40456,"is_reserved":false,"is_disabled":false,"rental_uris":{"android":"levelo://app?vid=5bf622f2-8889-4c8b-bc74-869bf3d0e0d6","ios":"levelo://app?vid=5bf622f2-8889-4c8b-bc74-869bf3d0e0d6"},"vehicle_type_id":"4","last_reported":1758568083,"current_range_meters":12400,"station_id":"ce4bhmh2rcd13ifvqgmg","pricing_plan_id":"cebpf4jnsgd1na2vs0mg"},{"bike_id":"dac385b7-26fc-4f7d-b894-a8fcbfb72098","system_id":"levelo_inurba_marseille","lat":43.29278,"lon":5.3684,"is_reserved":false,"is_disabled":false,"rental_uris":{"android":"levelo://app?vid=dac385b7-26fc-4f7d-b894-a8fcbfb72098","ios":"levelo://app?vid=dac385b7-26fc-4f7d-b894-a8fcbfb72098"},"vehicle_type_id":"4","last_reported":1758568083,"current_range_meters":12400,"station_id":"ce4bhbp2rcd13ifvqesg","pricing_plan_id":"cebpf4jnsgd1na2vs0mg"},{"bike_id":"6a077151-2089-47d0-bcd1-faf1c42cc7b3","system_id":"levelo_inurba_marseille","lat":43.28865,"lon":5.42524,"is_reserved":false,"is_disabled":false,"rental_uris":{"android":"levelo://app?vid=6a077151-2089-47d0-bcd1-faf1c42cc7b3","ios":"levelo://app?vid=6a077151-2089-47d0-bcd1-faf1c42cc7b3"},"vehicle_type_id":"4","last_reported":1758568083,"current_range_meters":12800,"station_id":"","pricing_plan_id":"cebpf4jnsgd1na2vs0mg"},{"bike_id":"5b6b3b7d-c808-4e60-988f-97a17f8a001f","system_id":"levelo_inurba_marseille","lat":43.284023,"lon":5.375293,"is_reserved":false,"is_disabled":true,"rental_uris":{"android":"levelo://app?vid=5b6b3b7d-c808-4e60-988f-97a17f8a001f","ios":"levelo://app?vid=5b6b3b7d-c808-4e60-988f-97a17f8a001f"},"vehicle_type_id":"4","last_reported":1758568083,"current_range_meters":12800,"station_id":"ce4bh412rcd13ifvqds0","pricing_plan_id":"cebpf4jnsgd1na2vs0mg"},{"bike_id":"0b2230e3-adb9-421c-91b1-c113eb397705","system_id":"levelo_inurba_marseille","lat":43.28906,"lon":5.37667,"is_reserved":false,"is_disabled":false,"rental_uris":{"android":"levelo://app?vid=0b2230e3-adb9-421c-91b1-c113eb397705","ios":"levelo://app?vid=0b2230e3-adb9-421c-91b1-c113eb397705"},"vehicle_type_id":"4","last_reported":1758568083,"current_range_meters":12800,"station_id":"","pricing_plan_id":"cebpf4jnsgd1na2vs0mg"},{"bike_id":"019c2967-2126-4f6c-b1ee-058cf8692138","system_id":"levelo_inurba_marseille","lat":43.29268,"lon":5.38444,"is_reserved":false,"is_disabled":false,"rental_uris":{"android":"levelo://app?vid=019c2967-2126-4f6c-b1ee-058cf8692138","ios":"levelo://app?vid=019c2967-2126-4f6c-b1ee-058cf8692138"},"vehicle_type_id":"4","last_reported":1758568083,"current_range_meters":13600,"station_id":"ce4bh692rcd13ifvqea0","pricing_plan_id":"cebpf4jnsgd1na2vs0mg"},{"bike_id":"b39ffcde-8d4a-4e25-86c3-967d542890a2","system_id":"levelo_inurba_marseille","lat":43.2694,"lon":5.40257,"is_reserved":false,"is_disabled":true,"rental_uris":{"android":"levelo://app?vid=b39ffcde-8d4a-4e25-86c3-967d542890a2","ios":"levelo://app?vid=b39ffcde-8d4a-4e25-86c3-967d542890a2"},"vehicle_type_id":"4","last_reported":1758568083,"current_range_meters":13600,"station_id":"cjm6bp8fraef2m0cb0m0","pricing_plan_id":"cebpf4jnsgd1na2vs0mg"},{"bike_id":"c5cd09a9-4157-45d6-bb24-5def97052511","system_id":"levelo_inurba_marseille","lat":43.26567,"lon":5.373,"is_reserved":false,"is_disabled":false,"rental_uris":{"android":"levelo://app?vid=c5cd09a9-4157-45d6-bb24-5def97052511","ios":"levelo://app?vid=c5cd09a9-4157-45d6-bb24-5def97052511"},"vehicle_type_id":"4","last_reported":1758568083,"current_range_meters":13600,"station_id":"ce4bhg12rcd13ifvqf70","pricing_plan_id":"cebpf4jnsgd1na2vs0mg"},{"bike_id":"94d430e6-52b3-4d21-80c9-c6dd4519a8fb","system_id":"levelo_inurba_marseille","lat":43.31758,"lon":5.38298,"is_reserved":false,"is_disabled":false,"rental_uris":{"android":"levelo://app?vid=94d430e6-52b3-4d21-80c9-c6dd4519a8fb","ios":"levelo://app?vid=94d430e6-52b3-4d21-80c9-c6dd4519a8fb"},"vehicle_type_id":"4","last_reported":1758568083,"current_range_meters":13600,"station_id":"","pricing_plan_id":"cebpf4jnsgd1na2vs0mg"},{"bike_id":"d1d1aac8-f5c0-4ced-a6fe-c9bd87f16172","system_id":"levelo_inurba_marseille","lat":43.2706,"lon":5.40258,"is_reserved":false,"is_disabled":false,"rental_uris":{"android":"levelo://app?vid=d1d1aac8-f5c0-4ced-a6fe-c9bd87f16172","ios":"levelo://app?vid=d1d1aac8-f5c0-4ced-a6fe-c9bd87f16172"},"vehicle_type_id":"4","last_reported":1758568083,"current_range_meters":13600,"station_id":"ce4bhk92rcd13ifvqgc0","pricing_plan_id":"cebpf4jnsgd1na2vs0mg"},{"bike_id":"78be8a01-f42e-4962-9977-ef1824b66235","system_id":"levelo_inurba_marseille","lat":43.28986,"lon":5.3783,"is_reserved":false,"is_disabled":false,"rental_uris":{"android":"levelo://app?vid=78be8a01-f42e-4962-9977-ef1824b66235","ios":"levelo://app?vid=78be8a01-f42e-4962-9977-ef1824b66235"},"vehicle_type_id":"4","last_reported":1758568083,"current_range_meters":13600,"station_id":"ce4bh9p2rcd13ifvqed0","pricing_plan_id":"cebpf4jnsgd1na2vs0mg"},{"bike_id":"27b0760d-df19-4858-82ad-d0c4a025109b","system_id":"levelo_inurba_marseille","lat":43.29528,"lon":5.38528,"is_reserved":false,"is_disabled":false,"rental_uris":{"android":"levelo://app?vid=27b0760d-df19-4858-82ad-d0c4a025109b","ios":"levelo://app?vid=27b0760d-df19-4858-82ad-d0c4a025109b"},"vehicle_type_id":"4","last_reported":1758568083,"current_range_meters":13600,"station_id":"ce4bgih2rcd13ifvqba0","pricing_plan_id":"cebpf4jnsgd1na2vs0mg"},{"bike_id":"b2be2404-53eb-4f74-9829-8104df3de106","system_id":"levelo_inurba_marseille","lat":43.3361,"lon":5.35431,"is_reserved":false,"is_disabled":false,"rental_uris":{"android":"levelo://app?vid=b2be2404-53eb-4f74-9829-8104df3de106","ios":"levelo://app?vid=b2be2404-53eb-4f74-9829-8104df3de106"},"vehicle_type_id":"4","last_reported":1758568083,"current_range_meters":13600,"station_id":"","pricing_plan_id":"cebpf4jnsgd1na2vs0mg"},{"bike_id":"a8173706-8534-43a1-9d9b-728c64fdfe61","system_id":"levelo_inurba_marseille","lat":43.27212,"lon":5.39225,"is_reserved":false,"is_disabled":true,"rental_uris":{"android":"levelo://app?vid=a8173706-8534-43a1-9d9b-728c64fdfe61","ios":"levelo://app?vid=a8173706-8534-43a1-9d9b-728c64fdfe61"},"vehicle_type_id":"4","last_reported":1758568083,"current_range_meters":14000,"station_id":"ce4bhhp2rcd13ifvqfm0","pricing_plan_id":"cebpf4jnsgd1na2vs0mg"},{"bike_id":"ef75d15d-c28a-4fe7-853a-ed887e41d629","system_id":"levelo_inurba_marseille","lat":43.2175,"lon":5.34597,"is_reserved":false,"is_disabled":false,"rental_uris":{"android":"levelo://app?vid=ef75d15d-c28a-4fe7-853a-ed887e41d629","ios":"levelo://app?vid=ef75d15d-c28a-4fe7-853a-ed887e41d629"},"vehicle_type_id":"4","last_reported":1758568083,"current_range_meters":14000,"station_id":"st_cvj6r9ubvosntc0bgbag","pricing_plan_id":"cebpf4jnsgd1na2vs0mg"},{"bike_id":"adc33d04-1500-4118-acbd-4c46343cb09c","system_id":"levelo_inurba_marseille","lat":43.27917,"lon":5.3957,"is_reserved":false,"is_disabled":false,"rental_uris":{"android":"levelo://app?vid=adc33d04-1500-4118-acbd-4c46343cb09c","ios":"levelo://app?vid=adc33d04-1500-4118-acbd-4c46343cb09c"},"vehicle_type_id":"4","last_reported":1758568083,"current_range_meters":14000,"station_id":"ce4bhf92rcd13ifvqf40","pricing_plan_id":"cebpf4jnsgd1na2vs0mg"},{"bike_id":"3bb425d0-4cb3-4bde-8649-a5fec2d1166a","system_id":"levelo_inurba_marseille","lat":43.31069,"lon":5.38356,"is_reserved":false,"is_disabled":false,"rental_uris":{"android":"levelo://app?vid=3bb425d0-4cb3-4bde-8649-a5fec2d1166a","ios":"levelo://app?vid=3bb425d0-4cb3-4bde-8649-a5fec2d1166a"},"vehicle_type_id":"4","last_reported":1758568083,"current_range_meters":14000,"station_id":"ce4bgv92rcd13ifvqcr0","pricing_plan_id":"cebpf4jnsgd1na2vs0mg"},{"bike_id":"7f63abf6-c351-4659-a653-d356862ac27b","system_id":"levelo_inurba_marseille","lat":43.25718,"lon":5.41114,"is_reserved":false,"is_disabled":false,"rental_uris":{"android":"levelo://app?vid=7f63abf6-c351-4659-a653-d356862ac27b","ios":"levelo://app?vid=7f63abf6-c351-4659-a653-d356862ac27b"},"vehicle_type_id":"4","last_reported":1758568083,"current_range_meters":14000,"station_id":"ce4bhkp2rcd13ifvqgd0","pricing_plan_id":"cebpf4jnsgd1na2vs0mg"},{"bike_id":"a0a6b2b0-998c-48c2-a07d-42952c4cddec","system_id":"levelo_inurba_marseille","lat":43.25868,"lon":5.39897,"is_reserved":false,"is_disabled":false,"rental_uris":{"android":"levelo://app?vid=a0a6b2b0-998c-48c2-a07d-42952c4cddec","ios":"levelo://app?vid=a0a6b2b0-998c-48c2-a07d-42952c4cddec"},"vehicle_type_id":"4","last_reported":1758568083,"current_range_meters":14000,"station_id":"ce4bhl92rcd13ifvqghg","pricing_plan_id":"cebpf4jnsgd1na2vs0mg"},{"bike_id":"d38407fe-69ea-4c06-87e2-b0debf692ccd","system_id":"levelo_inurba_marseille","lat":43.29261,"lon":5.38445,"is_reserved":false,"is_disabled":false,"rental_uris":{"android":"levelo://app?vid=d38407fe-69ea-4c06-87e2-b0debf692ccd","ios":"levelo://app?vid=d38407fe-69ea-4c06-87e2-b0debf692ccd"},"vehicle_type_id":"4","last_reported":1758568083,"current_range_meters":14000,"station_id":"ce4bh692rcd13ifvqea0","pricing_plan_id":"cebpf4jnsgd1na2vs0mg"},{"bike_id":"eb14e0c2-3194-45ec-8471-2fc50af87dad","system_id":"levelo_inurba_marseille","lat":43.22932,"lon":5.35376,"is_reserved":false,"is_disabled":false,"rental_uris":{"android":"levelo://app?vid=eb14e0c2-3194-45ec-8471-2fc50af87dad","ios":"levelo://app?vid=eb14e0c2-3194-45ec-8471-2fc50af87dad"},"vehicle_type_id":"4","last_reported":1758568083,"current_range_meters":14400,"station_id":"cpo3532slgdg3j2ikp40","pricing_plan_id":"cebpf4jnsgd1na2vs0mg"},{"bike_id":"37498fe1-4d5e-42f1-b1cc-f316f5b83da8","system_id":"levelo_inurba_marseille","lat":43.29313,"lon":5.37159,"is_reserved":false,"is_disabled":false,"rental_uris":{"android":"levelo://app?vid=37498fe1-4d5e-42f1-b1cc-f316f5b83da8","ios":"levelo://app?vid=37498fe1-4d5e-42f1-b1cc-f316f5b83da8"},"vehicle_type_id":"4","last_reported":1758568083,"current_range_meters":14400,"station_id":"ce4bgh92rcd13ifvqb40","pricing_plan_id":"cebpf4jnsgd1na2vs0mg"},{"bike_id":"37306240-1f8b-4d9d-950f-5144697742a5","system_id":"levelo_inurba_marseille","lat":43.28788,"lon":5.40014,"is_reserved":false,"is_disabled":true,"rental_uris":{"android":"levelo://app?vid=37306240-1f8b-4d9d-950f-5144697742a5","ios":"levelo://app?vid=37306240-1f8b-4d9d-950f-5144697742a5"},"vehicle_type_id":"4","last_reported":1758568083,"current_range_meters":14400,"station_id":"","pricing_plan_id":"cebpf4jnsgd1na2vs0mg"},{"bike_id":"1408c3bd-5443-49da-b8b2-c92bb2488b38","system_id":"levelo_inurba_marseille","lat":43.29519,"lon":5.39402,"is_reserved":false,"is_disabled":false,"rental_uris":{"android":"levelo://app?vid=1408c3bd-5443-49da-b8b2-c92bb2488b38","ios":"levelo://app?vid=1408c3bd-5443-49da-b8b2-c92bb2488b38"},"vehicle_type_id":"4","last_reported":1758568083,"current_range_meters":14400,"station_id":"ce4bh292rcd13ifvqdf0","pricing_plan_id":"cebpf4jnsgd1na2vs0mg"},{"bike_id":"3d210c87-141c-444b-a484-58bba1f93959","system_id":"levelo_inurba_marseille","lat":43.26779,"lon":5.39434,"is_reserved":false,"is_disabled":false,"rental_uris":{"android":"levelo://app?vid=3d210c87-141c-444b-a484-58bba1f93959","ios":"levelo://app?vid=3d210c87-141c-444b-a484-58bba1f93959"},"vehicle_type_id":"4","last_reported":1758568083,"current_range_meters":14400,"station_id":"ce4bhh12rcd13ifvqfg0","pricing_plan_id":"cebpf4jnsgd1na2vs0mg"},{"bike_id":"34072093-f9b6-4017-998e-95b181d82c91","system_id":"levelo_inurba_marseille","lat":43.29436,"lon":5.38816,"is_reserved":false,"is_disabled":false,"rental_uris":{"android":"levelo://app?vid=34072093-f9b6-4017-998e-95b181d82c91","ios":"levelo://app?vid=34072093-f9b6-4017-998e-95b181d82c91"},"vehicle_type_id":"4","last_reported":1758568083,"current_range_meters":14400,"station_id":"","pricing_plan_id":"cebpf4jnsgd1na2vs0mg"},{"bike_id":"1dc0664d-bbc9-48d4-b7a9-aa5bd6be4dfc","system_id":"levelo_inurba_marseille","lat":43.24181,"lon":5.39724,"is_reserved":false,"is_disabled":false,"rental_uris":{"android":"levelo://app?vid=1dc0664d-bbc9-48d4-b7a9-aa5bd6be4dfc","ios":"levelo://app?vid=1dc0664d-bbc9-48d4-b7a9-aa5bd6be4dfc"},"vehicle_type_id":"4","last_reported":1758568083,"current_range_meters":14400,"station_id":"ce4bhn12rcd13ifvqgpg","pricing_plan_id":"cebpf4jnsgd1na2vs0mg"},{"bike_id":"503a8f18-fa3d-43b2-af46-fcf76149ac95","system_id":"levelo_inurba_marseille","lat":43.27517,"lon":5.39519,"is_reserved":false,"is_disabled":false,"rental_uris":{"android":"levelo://app?vid=503a8f18-fa3d-43b2-af46-fcf76149ac95","ios":"levelo://app?vid=503a8f18-fa3d-43b2-af46-fcf76149ac95"},"vehicle_type_id":"4","last_reported":1758568083,"current_range_meters":14400,"station_id":"","pricing_plan_id":"cebpf4jnsgd1na2vs0mg"},{"bike_id":"0a4e2f91-9a4c-477e-8bf4-4fa601db5196","system_id":"levelo_inurba_marseille","lat":43.30268,"lon":5.37703,"is_reserved":false,"is_disabled":false,"rental_uris":{"android":"levelo://app?vid=0a4e2f91-9a4c-477e-8bf4-4fa601db5196","ios":"levelo://app?vid=0a4e2f91-9a4c-477e-8bf4-4fa601db5196"},"vehicle_type_id":"4","last_reported":1758568083,"current_range_meters":14400,"station_id":"ce4bguh2rcd13ifvqcj0","pricing_plan_id":"cebpf4jnsgd1na2vs0mg"},{"bike_id":"e4482bd4-178c-4704-bd4f-831af977e1f8","system_id":"levelo_inurba_marseille","lat":43.29544,"lon":5.38541,"is_reserved":false,"is_disabled":false,"rental_uris":{"android":"levelo://app?vid=e4482bd4-178c-4704-bd4f-831af977e1f8","ios":"levelo://app?vid=e4482bd4-178c-4704-bd4f-831af977e1f8"},"vehicle_type_id":"4","last_reported":1758568083,"current_range_meters":14800,"station_id":"ce4bgih2rcd13ifvqba0","pricing_plan_id":"cebpf4jnsgd1na2vs0mg"},{"bike_id":"31ce0716-1e59-46fe-9a33-16c3b81be277","system_id":"levelo_inurba_marseille","lat":43.280415,"lon":5.36943,"is_reserved":false,"is_disabled":false,"rental_uris":{"android":"levelo://app?vid=31ce0716-1e59-46fe-9a33-16c3b81be277","ios":"levelo://app?vid=31ce0716-1e59-46fe-9a33-16c3b81be277"},"vehicle_type_id":"4","last_reported":1758568083,"current_range_meters":14800,"station_id":"ce4bha12rcd13ifvqef0","pricing_plan_id":"cebpf4jnsgd1na2vs0mg"},{"bike_id":"d4bdf2d6-948f-4a05-9a56-4f63b315de17","system_id":"levelo_inurba_marseille","lat":43.30796,"lon":5.38154,"is_reserved":false,"is_disabled":false,"rental_uris":{"android":"levelo://app?vid=d4bdf2d6-948f-4a05-9a56-4f63b315de17","ios":"levelo://app?vid=d4bdf2d6-948f-4a05-9a56-4f63b315de17"},"vehicle_type_id":"4","last_reported":1758568083,"current_range_meters":14800,"station_id":"ce4bgt12rcd13ifvqce0","pricing_plan_id":"cebpf4jnsgd1na2vs0mg"},{"bike_id":"47fe8ecd-0327-4d83-b8c0-ab7264c95b0b","system_id":"levelo_inurba_marseille","lat":43.24543,"lon":5.39526,"is_reserved":false,"is_disabled":false,"rental_uris":{"android":"levelo://app?vid=47fe8ecd-0327-4d83-b8c0-ab7264c95b0b","ios":"levelo://app?vid=47fe8ecd-0327-4d83-b8c0-ab7264c95b0b"},"vehicle_type_id":"4","last_reported":1758568083,"current_range_meters":14800,"station_id":"ce4bhlp2rcd13ifvqgjg","pricing_plan_id":"cebpf4jnsgd1na2vs0mg"},{"bike_id":"d5cc46b8-e2e3-449e-bae5-96857657ca74","system_id":"levelo_inurba_marseille","lat":43.25698,"lon":5.41081,"is_reserved":false,"is_disabled":false,"rental_uris":{"android":"levelo://app?vid=d5cc46b8-e2e3-449e-bae5-96857657ca74","ios":"levelo://app?vid=d5cc46b8-e2e3-449e-bae5-96857657ca74"},"vehicle_type_id":"4","last_reported":1758568083,"current_range_meters":14800,"station_id":"ce4bhkp2rcd13ifvqgd0","pricing_plan_id":"cebpf4jnsgd1na2vs0mg"},{"bike_id":"7bb4df4e-2320-4fac-9d2f-52410b3e28de","system_id":"levelo_inurba_marseille","lat":43.2733,"lon":5.39068,"is_reserved":false,"is_disabled":false,"rental_uris":{"android":"levelo://app?vid=7bb4df4e-2320-4fac-9d2f-52410b3e28de","ios":"levelo://app?vid=7bb4df4e-2320-4fac-9d2f-52410b3e28de"},"vehicle_type_id":"4","last_reported":1758568083,"current_range_meters":15200,"station_id":"ce4bhgp2rcd13ifvqfe0","pricing_plan_id":"cebpf4jnsgd1na2vs0mg"},{"bike_id":"008ebb32-5aa8-426b-9d61-7ec90601a3e4","system_id":"levelo_inurba_marseille","lat":43.29528,"lon":5.38535,"is_reserved":false,"is_disabled":false,"rental_uris":{"android":"levelo://app?vid=008ebb32-5aa8-426b-9d61-7ec90601a3e4","ios":"levelo://app?vid=008ebb32-5aa8-426b-9d61-7ec90601a3e4"},"vehicle_type_id":"4","last_reported":1758568083,"current_range_meters":15200,"station_id":"ce4bgih2rcd13ifvqba0","pricing_plan_id":"cebpf4jnsgd1na2vs0mg"},{"bike_id":"09daac6c-a59a-4959-bd59-1366ab6f80c8","system_id":"levelo_inurba_marseille","lat":43.26811,"lon":5.40257,"is_reserved":false,"is_disabled":false,"rental_uris":{"android":"levelo://app?vid=09daac6c-a59a-4959-bd59-1366ab6f80c8","ios":"levelo://app?vid=09daac6c-a59a-4959-bd59-1366ab6f80c8"},"vehicle_type_id":"4","last_reported":1758568083,"current_range_meters":15200,"station_id":"ce501612rcd8frsf0b60","pricing_plan_id":"cebpf4jnsgd1na2vs0mg"},{"bike_id":"fcf97d58-0ef2-4dc7-bbff-8b1faa9c6aad","system_id":"levelo_inurba_marseille","lat":43.27423,"lon":5.39428,"is_reserved":false,"is_disabled":false,"rental_uris":{"android":"levelo://app?vid=fcf97d58-0ef2-4dc7-bbff-8b1faa9c6aad","ios":"levelo://app?vid=fcf97d58-0ef2-4dc7-bbff-8b1faa9c6aad"},"vehicle_type_id":"4","last_reported":1758568083,"current_range_meters":15200,"station_id":"ce4bhdp2rcd13ifvqf20","pricing_plan_id":"cebpf4jnsgd1na2vs0mg"},{"bike_id":"f2792417-e5fc-46a0-b2c7-608346358bdb","system_id":"levelo_inurba_marseille","lat":43.25722,"lon":5.41112,"is_reserved":false,"is_disabled":false,"rental_uris":{"android":"levelo://app?vid=f2792417-e5fc-46a0-b2c7-608346358bdb","ios":"levelo://app?vid=f2792417-e5fc-46a0-b2c7-608346358bdb"},"vehicle_type_id":"4","last_reported":1758568083,"current_range_meters":15200,"station_id":"ce4bhkp2rcd13ifvqgd0","pricing_plan_id":"cebpf4jnsgd1na2vs0mg"},{"bike_id":"396649d1-8c17-4df3-aa3a-bf0d0c91c89b","system_id":"levelo_inurba_marseille","lat":43.26938,"lon":5.40254,"is_reserved":false,"is_disabled":false,"rental_uris":{"android":"levelo://app?vid=396649d1-8c17-4df3-aa3a-bf0d0c91c89b","ios":"levelo://app?vid=396649d1-8c17-4df3-aa3a-bf0d0c91c89b"},"vehicle_type_id":"4","last_reported":1758568083,"current_range_meters":15200,"station_id":"cjm6bp8fraef2m0cb0m0","pricing_plan_id":"cebpf4jnsgd1na2vs0mg"},{"bike_id":"042c189f-0ad3-4065-98ac-60e64d2fd2d2","system_id":"levelo_inurba_marseille","lat":43.29802,"lon":5.39342,"is_reserved":false,"is_disabled":false,"rental_uris":{"android":"levelo://app?vid=042c189f-0ad3-4065-98ac-60e64d2fd2d2","ios":"levelo://app?vid=042c189f-0ad3-4065-98ac-60e64d2fd2d2"},"vehicle_type_id":"4","last_reported":1758568083,"current_range_meters":15200,"station_id":"chh1huq6cuj3fo74tm60","pricing_plan_id":"cebpf4jnsgd1na2vs0mg"},{"bike_id":"d6ab3676-de66-43a4-b858-2cd7dc831362","system_id":"levelo_inurba_marseille","lat":43.311781,"lon":5.387165,"is_reserved":false,"is_disabled":false,"rental_uris":{"android":"levelo://app?vid=d6ab3676-de66-43a4-b858-2cd7dc831362","ios":"levelo://app?vid=d6ab3676-de66-43a4-b858-2cd7dc831362"},"vehicle_type_id":"4","last_reported":1758568083,"current_range_meters":15200,"station_id":"ce4bgv12rcd13ifvqcp0","pricing_plan_id":"cebpf4jnsgd1na2vs0mg"},{"bike_id":"eba01587-aeed-4123-b2ce-9abc98879f91","system_id":"levelo_inurba_marseille","lat":43.27064,"lon":5.42281,"is_reserved":false,"is_disabled":true,"rental_uris":{"android":"levelo://app?vid=eba01587-aeed-4123-b2ce-9abc98879f91","ios":"levelo://app?vid=eba01587-aeed-4123-b2ce-9abc98879f91"},"vehicle_type_id":"4","last_reported":1758568083,"current_range_meters":16000,"station_id":"ce4bhk92rcd13ifvqgb0","pricing_plan_id":"cebpf4jnsgd1na2vs0mg"},{"bike_id":"2a10047d-cde4-4adf-b11d-b8818c7913a4","system_id":"levelo_inurba_marseille","lat":43.25727,"lon":5.41113,"is_reserved":false,"is_disabled":false,"rental_uris":{"android":"levelo://app?vid=2a10047d-cde4-4adf-b11d-b8818c7913a4","ios":"levelo://app?vid=2a10047d-cde4-4adf-b11d-b8818c7913a4"},"vehicle_type_id":"4","last_reported":1758568083,"current_range_meters":16000,"station_id":"ce4bhkp2rcd13ifvqgd0","pricing_plan_id":"cebpf4jnsgd1na2vs0mg"},{"bike_id":"7de5da8a-e4bb-461f-939f-a54cb1c4c947","system_id":"levelo_inurba_marseille","lat":43.29269,"lon":5.38436,"is_reserved":false,"is_disabled":false,"rental_uris":{"android":"levelo://app?vid=7de5da8a-e4bb-461f-939f-a54cb1c4c947","ios":"levelo://app?vid=7de5da8a-e4bb-461f-939f-a54cb1c4c947"},"vehicle_type_id":"4","last_reported":1758568083,"current_range_meters":16000,"station_id":"ce4bh692rcd13ifvqea0","pricing_plan_id":"cebpf4jnsgd1na2vs0mg"},{"bike_id":"8cac3fdd-5ea7-4c4c-ae1f-15a49ee56f1c","system_id":"levelo_inurba_marseille","lat":43.26827,"lon":5.40346,"is_reserved":false,"is_disabled":false,"rental_uris":{"android":"levelo://app?vid=8cac3fdd-5ea7-4c4c-ae1f-15a49ee56f1c","ios":"levelo://app?vid=8cac3fdd-5ea7-4c4c-ae1f-15a49ee56f1c"},"vehicle_type_id":"4","last_reported":1758568083,"current_range_meters":16000,"station_id":"","pricing_plan_id":"cebpf4jnsgd1na2vs0mg"},{"bike_id":"30a45839-bcf9-4766-8e20-c8b30ef16a15","system_id":"levelo_inurba_marseille","lat":43.32345,"lon":5.40618,"is_reserved":false,"is_disabled":false,"rental_uris":{"android":"levelo://app?vid=30a45839-bcf9-4766-8e20-c8b30ef16a15","ios":"levelo://app?vid=30a45839-bcf9-4766-8e20-c8b30ef16a15"},"vehicle_type_id":"4","last_reported":1758568083,"current_range_meters":16000,"station_id":"ce4bhq92rcd13ifvqhjg","pricing_plan_id":"cebpf4jnsgd1na2vs0mg"},{"bike_id":"5922c286-282e-4b40-b2c0-d57aae387a5e","system_id":"levelo_inurba_marseille","lat":43.293017,"lon":5.371757,"is_reserved":false,"is_disabled":false,"rental_uris":{"android":"levelo://app?vid=5922c286-282e-4b40-b2c0-d57aae387a5e","ios":"levelo://app?vid=5922c286-282e-4b40-b2c0-d57aae387a5e"},"vehicle_type_id":"4","last_reported":1758568083,"current_range_meters":16000,"station_id":"ce4bgh92rcd13ifvqb40","pricing_plan_id":"cebpf4jnsgd1na2vs0mg"},{"bike_id":"b39d4814-e9e4-4c28-8c50-525791cc33f5","system_id":"levelo_inurba_marseille","lat":43.29981,"lon":5.38497,"is_reserved":false,"is_disabled":true,"rental_uris":{"android":"levelo://app?vid=b39d4814-e9e4-4c28-8c50-525791cc33f5","ios":"levelo://app?vid=b39d4814-e9e4-4c28-8c50-525791cc33f5"},"vehicle_type_id":"4","last_reported":1758568083,"current_range_meters":16000,"station_id":"ce4bgj92rcd13ifvqbd0","pricing_plan_id":"cebpf4jnsgd1na2vs0mg"},{"bike_id":"385b6599-d75d-4283-964e-8e10ba698a60","system_id":"levelo_inurba_marseille","lat":43.28408,"lon":5.3751,"is_reserved":false,"is_disabled":false,"rental_uris":{"android":"levelo://app?vid=385b6599-d75d-4283-964e-8e10ba698a60","ios":"levelo://app?vid=385b6599-d75d-4283-964e-8e10ba698a60"},"vehicle_type_id":"4","last_reported":1758568083,"current_range_meters":16000,"station_id":"ce4bh412rcd13ifvqds0","pricing_plan_id":"cebpf4jnsgd1na2vs0mg"},{"bike_id":"5337dcdc-c6f5-44ae-a466-a1ebe14dfbb3","system_id":"levelo_inurba_marseille","lat":43.24167,"lon":5.36414,"is_reserved":false,"is_disabled":false,"rental_uris":{"android":"levelo://app?vid=5337dcdc-c6f5-44ae-a466-a1ebe14dfbb3","ios":"levelo://app?vid=5337dcdc-c6f5-44ae-a466-a1ebe14dfbb3"},"vehicle_type_id":"4","last_reported":1758568083,"current_range_meters":16000,"station_id":"cpo36qri1sfpv3e86is0","pricing_plan_id":"cebpf4jnsgd1na2vs0mg"},{"bike_id":"fa8188cd-f5cc-4028-ab49-33c73924243f","system_id":"levelo_inurba_marseille","lat":43.28161,"lon":5.42649,"is_reserved":false,"is_disabled":false,"rental_uris":{"android":"levelo://app?vid=fa8188cd-f5cc-4028-ab49-33c73924243f","ios":"levelo://app?vid=fa8188cd-f5cc-4028-ab49-33c73924243f"},"vehicle_type_id":"4","last_reported":1758568083,"current_range_meters":16000,"station_id":"ce4bhnh2rcd13ifvqgug","pricing_plan_id":"cebpf4jnsgd1na2vs0mg"},{"bike_id":"667ac0cb-e24e-4533-863a-1f39da01e97e","system_id":"levelo_inurba_marseille","lat":43.29274,"lon":5.36849,"is_reserved":false,"is_disabled":false,"rental_uris":{"android":"levelo://app?vid=667ac0cb-e24e-4533-863a-1f39da01e97e","ios":"levelo://app?vid=667ac0cb-e24e-4533-863a-1f39da01e97e"},"vehicle_type_id":"4","last_reported":1758568083,"current_range_meters":16000,"station_id":"ce4bhbp2rcd13ifvqesg","pricing_plan_id":"cebpf4jnsgd1na2vs0mg"},{"bike_id":"4519ded0-f3b9-42bd-af35-e69456d100e8","system_id":"levelo_inurba_marseille","lat":43.29284,"lon":5.3836,"is_reserved":false,"is_disabled":false,"rental_uris":{"android":"levelo://app?vid=4519ded0-f3b9-42bd-af35-e69456d100e8","ios":"levelo://app?vid=4519ded0-f3b9-42bd-af35-e69456d100e8"},"vehicle_type_id":"4","last_reported":1758568083,"current_range_meters":16000,"station_id":"","pricing_plan_id":"cebpf4jnsgd1na2vs0mg"},{"bike_id":"3d2a051c-db7e-4fc1-9774-95d76b22d108","system_id":"levelo_inurba_marseille","lat":43.29259,"lon":5.38441,"is_reserved":false,"is_disabled":false,"rental_uris":{"android":"levelo://app?vid=3d2a051c-db7e-4fc1-9774-95d76b22d108","ios":"levelo://app?vid=3d2a051c-db7e-4fc1-9774-95d76b22d108"},"vehicle_type_id":"4","last_reported":1758568083,"current_range_meters":16400,"station_id":"ce4bh692rcd13ifvqea0","pricing_plan_id":"cebpf4jnsgd1na2vs0mg"},{"bike_id":"bf878ec6-d729-4443-a3b4-9fa5cc136616","system_id":"levelo_inurba_marseille","lat":43.27609,"lon":5.42658,"is_reserved":false,"is_disabled":false,"rental_uris":{"android":"levelo://app?vid=bf878ec6-d729-4443-a3b4-9fa5cc136616","ios":"levelo://app?vid=bf878ec6-d729-4443-a3b4-9fa5cc136616"},"vehicle_type_id":"4","last_reported":1758568083,"current_range_meters":16400,"station_id":"","pricing_plan_id":"cebpf4jnsgd1na2vs0mg"},{"bike_id":"2fe447d4-ef2c-44a7-8a4f-84fef8b9c6d2","system_id":"levelo_inurba_marseille","lat":43.27214,"lon":5.39194,"is_reserved":false,"is_disabled":false,"rental_uris":{"android":"levelo://app?vid=2fe447d4-ef2c-44a7-8a4f-84fef8b9c6d2","ios":"levelo://app?vid=2fe447d4-ef2c-44a7-8a4f-84fef8b9c6d2"},"vehicle_type_id":"4","last_reported":1758568083,"current_range_meters":16400,"station_id":"ce4bhhp2rcd13ifvqfm0","pricing_plan_id":"cebpf4jnsgd1na2vs0mg"},{"bike_id":"eaef9b8e-467c-45da-8bb1-3bd68983dd09","system_id":"levelo_inurba_marseille","lat":43.29961,"lon":5.38503,"is_reserved":false,"is_disabled":false,"rental_uris":{"android":"levelo://app?vid=eaef9b8e-467c-45da-8bb1-3bd68983dd09","ios":"levelo://app?vid=eaef9b8e-467c-45da-8bb1-3bd68983dd09"},"vehicle_type_id":"4","last_reported":1758568083,"current_range_meters":17200,"station_id":"ce4bgj92rcd13ifvqbd0","pricing_plan_id":"cebpf4jnsgd1na2vs0mg"},{"bike_id":"e519d887-a19a-423d-b8a7-432adc3b605a","system_id":"levelo_inurba_marseille","lat":43.28198,"lon":5.39046,"is_reserved":false,"is_disabled":false,"rental_uris":{"android":"levelo://app?vid=e519d887-a19a-423d-b8a7-432adc3b605a","ios":"levelo://app?vid=e519d887-a19a-423d-b8a7-432adc3b605a"},"vehicle_type_id":"4","last_reported":1758568083,"current_range_meters":16400,"station_id":"ce4bhn92rcd13ifvqgsg","pricing_plan_id":"cebpf4jnsgd1na2vs0mg"},{"bike_id":"0b3d5a85-8297-4194-a25b-5a1a25801181","system_id":"levelo_inurba_marseille","lat":43.26783,"lon":5.3942,"is_reserved":false,"is_disabled":false,"rental_uris":{"android":"levelo://app?vid=0b3d5a85-8297-4194-a25b-5a1a25801181","ios":"levelo://app?vid=0b3d5a85-8297-4194-a25b-5a1a25801181"},"vehicle_type_id":"4","last_reported":1758568083,"current_range_meters":16400,"station_id":"ce4bhh12rcd13ifvqfg0","pricing_plan_id":"cebpf4jnsgd1na2vs0mg"},{"bike_id":"a189709b-1477-4790-b930-a23d96d7df8f","system_id":"levelo_inurba_marseille","lat":43.30648,"lon":5.40102,"is_reserved":false,"is_disabled":false,"rental_uris":{"android":"levelo://app?vid=a189709b-1477-4790-b930-a23d96d7df8f","ios":"levelo://app?vid=a189709b-1477-4790-b930-a23d96d7df8f"},"vehicle_type_id":"4","last_reported":1758568083,"current_range_meters":16400,"station_id":"ce4bh112rcd13ifvqda0","pricing_plan_id":"cebpf4jnsgd1na2vs0mg"},{"bike_id":"831c5b0e-9215-45ad-a790-ab757fbab0cd","system_id":"levelo_inurba_marseille","lat":43.27994,"lon":5.40017,"is_reserved":false,"is_disabled":false,"rental_uris":{"android":"levelo://app?vid=831c5b0e-9215-45ad-a790-ab757fbab0cd","ios":"levelo://app?vid=831c5b0e-9215-45ad-a790-ab757fbab0cd"},"vehicle_type_id":"4","last_reported":1758568083,"current_range_meters":16400,"station_id":"ce4bho92rcd13ifvqh4g","pricing_plan_id":"cebpf4jnsgd1na2vs0mg"},{"bike_id":"8805ab6e-6f37-4330-b53d-36ca2a84c6b9","system_id":"levelo_inurba_marseille","lat":43.28126,"lon":5.37827,"is_reserved":false,"is_disabled":false,"rental_uris":{"android":"levelo://app?vid=8805ab6e-6f37-4330-b53d-36ca2a84c6b9","ios":"levelo://app?vid=8805ab6e-6f37-4330-b53d-36ca2a84c6b9"},"vehicle_type_id":"4","last_reported":1758568083,"current_range_meters":16400,"station_id":"ce4bha12rcd13ifvqee0","pricing_plan_id":"cebpf4jnsgd1na2vs0mg"},