{"last_updated":1728749375,"ttl":60,"version":"2.2","data":{"bikes":[{"bike_id":"a90cfefd-ccd4-4d2f-906c-f11429f46878","system_id":"levelo_inurba_marseille","lat":43.30371,"lon":5.3647,"is_reserved":false,"is_disabled":false,"rental_uris":{"android":"levelo://app?vid=a90cfefd-ccd4-4d2f-906c-f11429f46878","ios":"levelo://app?vid=a90cfefd-ccd4-4d2f-906c-f11429f46878"},"vehicle_type_id":"4","last_reported":1728749375,"current_range_meters":3600,"station_id":"","pricing_plan_id":"cebpf4jnsgd1na2vs0mg"},{"bike_id":"a88cc3d5-4214-4799-a463-c01d33dbb23e","system_id":"levelo_inurba_marseille","lat":43.25008,"lon":5.38913,"is_reserved":false,"is_disabled":false,"rental_uris":{"android":"levelo://app?vid=a88cc3d5-4214-4799-a463-c01d33dbb23e","ios":"levelo://app?vid=a88cc3d5-4214-4799-a463-c01d33dbb23e"},"vehicle_type_id":"4","last_reported":1728749375,"current_range_meters":21600,"station_id":"ce4bhgp2rcd13ifvqfd0","pricing_plan_id":"cebpf4jnsgd1na2vs0mg"},{"bike_id":"b0be9d77-1ec2-452d-ab85-1c491e24eeb3","system_id":"levelo_inurba_marseille","lat":43.29577,"lon":5.37508,"is_reserved":false,"is_disabled":false,"rental_uris":{"android":"levelo://app?vid=b0be9d77-1ec2-452d-ab85-1c491e24eeb3","ios":"levelo://app?vid=b0be9d77-1ec2-452d-ab85-1c491e24eeb3"},"vehicle_type_id":"4","last_reported":1728749375,"current_range_meters":10800,"station_id":"ce4bgh92rcd13ifvqb50","pricing_plan_id":"cebpf4jnsgd1na2vs0mg"},{"bike_id":"dfc73125-20e9-4b72-9649-d06407fdb3a3","system_id":"levelo_inurba_marseille","lat":43.24656,"lon":5.38904,"is_reserved":false,"is_disabled":false,"rental_uris":{"android":"levelo://app?vid=dfc73125-20e9-4b72-9649-d06407fdb3a3","ios":"levelo://app?vid=dfc73125-20e9-4b72-9649-d06407fdb3a3"},"vehicle_type_id":"4","last_reported":1728749375,"current_range_meters":39200,"station_id":"ce4bhg12rcd13ifvqf60","pricing_plan_id":"cebpf4jnsgd1na2vs0mg"},{"bike_id":"480c36bc-dd66-41df-b09a-76735c76211b","system_id":"levelo_inurba_marseille","lat":43.27993,"lon":5.41669,"is_reserved":false,"is_disabled":false,"rental_uris":{"android":"levelo://app?vid=480c36bc-dd66-41df-b09a-76735c76211b","ios":"levelo://app?vid=480c36bc-dd66-41df-b09a-76735c76211b"},"vehicle_type_id":"4","last_reported":1728749375,"current_range_meters":38400,"station_id":"ce4bho12rcd13ifvqh1g","pricing_plan_id":"cebpf4jnsgd1na2vs0mg"},{"bike_id":"23f16744-d012-463a-aa60-1fc35407fb86","system_id":"levelo_inurba_marseille","lat":43.29844,"lon":5.36279,"is_reserved":false,"is_disabled":false,"rental_uris":{"android":"levelo://app?vid=23f16744-d012-463a-aa60-1fc35407fb86","ios":"levelo://app?vid=23f16744-d012-463a-aa60-1fc35407fb86"},"vehicle_type_id":"4","last_reported":1728749375,"current_range_meters":6400,"station_id":"ce4bgpp2rcd13ifvqc3g","pricing_plan_id":"cebpf4jnsgd1na2vs0mg"},{"bike_id":"6b061c03-a31d-4cf0-ab45-278fd80a592a","system_id":"levelo_inurba_marseille","lat":43.29031,"lon":5.35917,"is_reserved":false,"is_disabled":false,"rental_uris":{"android":"levelo://app?vid=6b061c03-a31d-4cf0-ab45-278fd80a592a","ios":"levelo://app?vid=6b061c03-a31d-4cf0-ab45-278fd80a592a"},"vehicle_type_id":"4","last_reported":1728749375,"current_range_meters":4400,"station_id":"ce4bha92rcd13ifvqeg0","pricing_plan_id":"cebpf4jnsgd1na2vs0mg"},{"bike_id":"3ef42292-5f8b-43cb-a0ec-0de8543cadff","system_id":"levelo_inurba_marseille","lat":43.33025,"lon":5.39036,"is_reserved":false,"is_disabled":false,"rental_uris":{"android":"levelo://app?vid=3ef42292-5f8b-43cb-a0ec-0de8543cadff","ios":"levelo://app?vid=3ef42292-5f8b-43cb-a0ec-0de8543cadff"},"vehicle_type_id":"4","last_reported":1728749375,"current_range_meters":35200,"station_id":"ce4bhr92rcd13ifvqhrg","pricing_plan_id":"cebpf4jnsgd1na2vs0mg"},{"bike_id":"61432fa4-e69a-43e1-a752-60da459a1e2e","system_id":"levelo_inurba_marseille","lat":43.33732,"lon":5.39184,"is_reserved":false,"is_disabled":false,"rental_uris":{"android":"levelo://app?vid=61432fa4-e69a-43e1-a752-60da459a1e2e","ios":"levelo://app?vid=61432fa4-e69a-43e1-a752-60da459a1e2e"},"vehicle_type_id":"4","last_reported":1728749375,"current_range_meters":36800,"station_id":"ce4bhr92rcd13ifvqhsg","pricing_plan_id":"cebpf4jnsgd1na2vs0mg"},{"bike_id":"53fa5faf-ab43-4ad1-a775-03c050230e6f","system_id":"levelo_inurba_marseille","lat":43.29709,"lon":5.36611,"is_reserved":false,"is_disabled":false,"rental_uris":{"android":"levelo://app?vid=53fa5faf-ab43-4ad1-a775-03c050230e6f","ios":"levelo://app?vid=53fa5faf-ab43-4ad1-a775-03c050230e6f"},"vehicle_type_id":"4","last_reported":1728749375,"current_range_meters":29600,"station_id":"ce4bgn12rcd13ifvqbt0","pricing_plan_id":"cebpf4jnsgd1na2vs0mg"},{"bike_id":"9e130e82-44ee-4956-ba94-91b6fc5d0cab","system_id":"levelo_inurba_marseille","lat":43.31709,"lon":5.37762,"is_reserved":false,"is_disabled":false,"rental_uris":{"android":"levelo://app?vid=9e130e82-44ee-4956-ba94-91b6fc5d0cab","ios":"levelo://app?vid=9e130e82-44ee-4956-ba94-91b6fc5d0cab"},"vehicle_type_id":"4","last_reported":1728749375,"current_range_meters":23200,"station_id":"ce4bgth2rcd13ifvqch0","pricing_plan_id":"cebpf4jnsgd1na2vs0mg"},{"bike_id":"5478a3d2-c2ee-4a89-aa83-e762ee9240f8","system_id":"levelo_inurba_marseille","lat":43.26943,"lon":5.40255,"is_reserved":false,"is_disabled":false,"rental_uris":{"android":"levelo://app?vid=5478a3d2-c2ee-4a89-aa83-e762ee9240f8","ios":"levelo://app?vid=5478a3d2-c2ee-4a89-aa83-e762ee9240f8"},"vehicle_type_id":"4","last_reported":1728749375,"current_range_meters":32400,"station_id":"cjm6bp8fraef2m0cb0m0","pricing_plan_id":"cebpf4jnsgd1na2vs0mg"},{"bike_id":"af965d61-9088-4807-915b-ea32923e4324","system_id":"levelo_inurba_marseille","lat":43.29727,"lon":5.37682,"is_reserved":false,"is_disabled":false,"rental_uris":{"android":"levelo://app?vid=af965d61-9088-4807-915b-ea32923e4324","ios":"levelo://app?vid=af965d61-9088-4807-915b-ea32923e4324"},"vehicle_type_id":"4","last_reported":1728749375,"current_range_meters":36800,"station_id":"ce4bgkh2rcd13ifvqbl0","pricing_plan_id":"cebpf4jnsgd1na2vs0mg"},{"bike_id":"fbbff8ce-e9f5-4fce-a5ed-f3af87565871","system_id":"levelo_inurba_marseille","lat":43.23961,"lon":5.3663,"is_reserved":false,"is_disabled":false,"rental_uris":{"android":"levelo://app?vid=fbbff8ce-e9f5-4fce-a5ed-f3af87565871","ios":"levelo://app?vid=fbbff8ce-e9f5-4fce-a5ed-f3af87565871"},"vehicle_type_id":"4","last_reported":1728749375,"current_range_meters":33200,"station_id":"ce4bhi12rcd13ifvqfp0","pricing_plan_id":"cebpf4jnsgd1na2vs0mg"},{"bike_id":"b0911f2f-980f-419e-85e3-795a5b177f22","system_id":"levelo_inurba_marseille","lat":43.23195,"lon":5.3555,"is_reserved":false,"is_disabled":false,"rental_uris":{"android":"levelo://app?vid=b0911f2f-980f-419e-85e3-795a5b177f22","ios":"levelo://app?vid=b0911f2f-980f-419e-85e3-795a5b177f22"},"vehicle_type_id":"4","last_reported":1728749375,"current_range_meters":22800,"station_id":"ce4bhu92rcd13ifvqi70","pricing_plan_id":"cebpf4jnsgd1na2vs0mg"},{"bike_id":"c5c33660-077d-4f97-b2f0-40691ac09116","system_id":"levelo_inurba_marseille","lat":43.24392,"lon":5.37058,"is_reserved":false,"is_disabled":false,"rental_uris":{"android":"levelo://app?vid=c5c33660-077d-4f97-b2f0-40691ac09116","ios":"levelo://app?vid=c5c33660-077d-4f97-b2f0-40691ac09116"},"vehicle_type_id":"4","last_reported":1728749375,"current_range_meters":37600,"station_id":"ce4bhhh2rcd13ifvqfk0","pricing_plan_id":"cebpf4jnsgd1na2vs0mg"},{"bike_id":"931d1f9c-4cb2-40a2-a856-914a1c55fcf3","system_id":"levelo_inurba_marseille","lat":43.24574,"lon":5.4166,"is_reserved":false,"is_disabled":false,"rental_uris":{"android":"levelo://app?vid=931d1f9c-4cb2-40a2-a856-914a1c55fcf3","ios":"levelo://app?vid=931d1f9c-4cb2-40a2-a856-914a1c55fcf3"},"vehicle_type_id":"4","last_reported":1728749375,"current_range_meters":10800,"station_id":"","pricing_plan_id":"cebpf4jnsgd1na2vs0mg"},{"bike_id":"a43578db-ee88-4ec2-b403-42d4485342bd","system_id":"levelo_inurba_marseille","lat":43.30329,"lon":5.40443,"is_reserved":false,"is_disabled":false,"rental_uris":{"android":"levelo://app?vid=a43578db-ee88-4ec2-b403-42d4485342bd","ios":"levelo://app?vid=a43578db-ee88-4ec2-b403-42d4485342bd"},"vehicle_type_id":"4","last_reported":1728749375,"current_range_meters":12000,"station_id":"ce4bh012rcd13ifvqd10","pricing_plan_id":"cebpf4jnsgd1na2vs0mg"},{"bike_id":"c608054c-4ff9-4a56-abdf-fe2d0250f280","system_id":"levelo_inurba_marseille","lat":43.30597,"lon":5.3723,"is_reserved":false,"is_disabled":false,"rental_uris":{"android":"levelo://app?vid=c608054c-4ff9-4a56-abdf-fe2d0250f280","ios":"levelo://app?vid=c608054c-4ff9-4a56-abdf-fe2d0250f280"},"vehicle_type_id":"4","last_reported":1728749375,"current_range_meters":16800,"station_id":"ce4bgqh2rcd13ifvqc4g","pricing_plan_id":"cebpf4jnsgd1na2vs0mg"},{"bike_id":"3e60b11f-d675-430d-9979-c4e64a7c6c68","system_id":"levelo_inurba_marseille","lat":43.29619,"lon":5.3716,"is_reserved":false,"is_disabled":false,"rental_uris":{"android":"levelo://app?vid=3e60b11f-d675-430d-9979-c4e64a7c6c68","ios":"levelo://app?vid=3e60b11f-d675-430d-9979-c4e64a7c6c68"},"vehicle_type_id":"4","last_reported":1728749375,"current_range_meters":24400,"station_id":"ce4bgnh2rcd13ifvqc0g","pricing_plan_id":"cebpf4jnsgd1na2vs0mg"},{"bike_id":"7467bc71-2591-464b-8f46-01ff50b3730e","system_id":"levelo_inurba_marseille","lat":43.29577,"lon":5.37523,"is_reserved":false,"is_disabled":false,"rental_uris":{"android":"levelo://app?vid=7467bc71-2591-464b-8f46-01ff50b3730e","ios":"levelo://app?vid=7467bc71-2591-464b-8f46-01ff50b3730e"},"vehicle_type_id":"4","last_reported":1728749375,"current_range_meters":32400,"station_id":"ce4bgh92rcd13ifvqb50","pricing_plan_id":"cebpf4jnsgd1na2vs0mg"},{"bike_id":"13f81a24-2de7-42a3-8c49-a41fd52c7948","system_id":"levelo_inurba_marseille","lat":43.301,"lon":5.39073,"is_reserved":false,"is_disabled":false,"rental_uris":{"android":"levelo://app?vid=13f81a24-2de7-42a3-8c49-a41fd52c7948","ios":"levelo://app?vid=13f81a24-2de7-42a3-8c49-a41fd52c7948"},"vehicle_type_id":"4","last_reported":1728749375,"current_range_meters":30800,"station_id":"ce4bh192rcd13ifvqdb0","pricing_plan_id":"cebpf4jnsgd1na2vs0mg"},{"bike_id":"6eb1fc1b-efd5-4f15-be9d-6bfaf1c4cbf1","system_id":"levelo_inurba_marseille","lat":43.27566,"lon":5.38429,"is_reserved":false,"is_disabled":false,"rental_uris":{"android":"levelo://app?vid=6eb1fc1b-efd5-4f15-be9d-6bfaf1c4cbf1","ios":"levelo://app?vid=6eb1fc1b-efd5-4f15-be9d-6bfaf1c4cbf1"},"vehicle_type_id":"4","last_reported":1728749375,"current_range_meters":13600,"station_id":"ce4bhh92rcd13ifvqfi0","pricing_plan_id":"cebpf4jnsgd1na2vs0mg"},{"bike_id":"20ce8fd8-6ac6-41d9-9a5e-d5aa1ec5c4bb","system_id":"levelo_inurba_marseille","lat":43.28942,"lon":5.36642,"is_reserved":false,"is_disabled":false,"rental_uris":{"android":"levelo://app?vid=20ce8fd8-6ac6-41d9-9a5e-d5aa1ec5c4bb","ios":"levelo://app?vid=20ce8fd8-6ac6-41d9-9a5e-d5aa1ec5c4bb"},"vehicle_type_id":"4","last_reported":1728749375,"current_range_meters":2800,"station_id":"ce4bhap2rcd13ifvqek0","pricing_plan_id":"cebpf4jnsgd1na2vs0mg"},{"bike_id":"94c4912e-eac6-4ca2-ae8f-ac2fad25a3fd","system_id":"levelo_inurba_marseille","lat":43.25114,"lon":5.40322,"is_reserved":false,"is_disabled":false,"rental_uris":{"android":"levelo://app?vid=94c4912e-eac6-4ca2-ae8f-ac2fad25a3fd","ios":"levelo://app?vid=94c4912e-eac6-4ca2-ae8f-ac2fad25a3fd"},"vehicle_type_id":"4","last_reported":1728749375,"current_range_meters":20800,"station_id":"ce4bhlh2rcd13ifvqgig","pricing_plan_id":"cebpf4jnsgd1na2vs0mg"},{"bike_id":"48c4d20f-d4f7-489e-b5ab-a0d13963421f","system_id":"levelo_inurba_marseille","lat":43.33025,"lon":5.39037,"is_reserved":false,"is_disabled":false,"rental_uris":{"android":"levelo://app?vid=48c4d20f-d4f7-489e-b5ab-a0d13963421f","ios":"levelo://app?vid=48c4d20f-d4f7-489e-b5ab-a0d13963421f"},"vehicle_type_id":"4","last_reported":1728749375,"current_range_meters":3600,"station_id":"ce4bhr92rcd13ifvqhrg","pricing_plan_id":"cebpf4jnsgd1na2vs0mg"},{"bike_id":"4551742e-7f71-430b-8996-f78d99237d01","system_id":"levelo_inurba_marseille","lat":43.27616,"lon":5.36119,"is_reserved":false,"is_disabled":false,"rental_uris":{"android":"levelo://app?vid=4551742e-7f71-430b-8996-f78d99237d01","ios":"levelo://app?vid=4551742e-7f71-430b-8996-f78d99237d01"},"vehicle_type_id":"4","last_reported":1728749375,"current_range_meters":30800,"station_id":"ce4bgj92rcd13ifvqbe0","pricing_plan_id":"cebpf4jnsgd1na2vs0mg"},{"bike_id":"3d56fd43-7f3a-478f-a81b-fba7289193d9","system_id":"levelo_inurba_marseille","lat":43.28,"lon":5.41666,"is_reserved":false,"is_disabled":false,"rental_uris":{"android":"levelo://app?vid=3d56fd43-7f3a-478f-a81b-fba7289193d9","ios":"levelo://app?vid=3d56fd43-7f3a-478f-a81b-fba7289193d9"},"vehicle_type_id":"4","last_reported":1728749375,"current_range_meters":24800,"station_id":"ce4bho12rcd13ifvqh1g","pricing_plan_id":"cebpf4jnsgd1na2vs0mg"},{"bike_id":"9d0f36cf-8bc6-4fdb-8a42-87ab259e208c","system_id":"levelo_inurba_marseille","lat":43.31076,"lon":5.38345,"is_reserved":false,"is_disabled":false,"rental_uris":{"android":"levelo://app?vid=9d0f36cf-8bc6-4fdb-8a42-87ab259e208c","ios":"levelo://app?vid=9d0f36cf-8bc6-4fdb-8a42-87ab259e208c"},"vehicle_type_id":"4","last_reported":1728749375,"current_range_meters":28800,"station_id":"ce4bgv92rcd13ifvqcr0","pricing_plan_id":"cebpf4jnsgd1na2vs0mg"},{"bike_id":"7c65f3c1-29be-4bb2-a986-410ed48b24c6","system_id":"levelo_inurba_marseille","lat":43.26952,"lon":5.38628,"is_reserved":false,"is_disabled":false,"rental_uris":{"android":"levelo://app?vid=7c65f3c1-29be-4bb2-a986-410ed48b24c6","ios":"levelo://app?vid=7c65f3c1-29be-4bb2-a986-410ed48b24c6"},"vehicle_type_id":"4","last_reported":1728749375,"current_range_meters":35600,"station_id":"ce4bhh92rcd13ifvqfh0","pricing_plan_id":"cebpf4jnsgd1na2vs0mg"},{"bike_id":"e765ecd5-a765-426f-9f71-b8c6fe2c823e","system_id":"levelo_inurba_marseille","lat":43.27619,"lon":5.36116,"is_reserved":false,"is_disabled":false,"rental_uris":{"android":"levelo://app?vid=e765ecd5-a765-426f-9f71-b8c6fe2c823e","ios":"levelo://app?vid=e765ecd5-a765-426f-9f71-b8c6fe2c823e"},"vehicle_type_id":"4","last_reported":1728749375,"current_range_meters":4400,"station_id":"ce4bgj92rcd13ifvqbe0","pricing_plan_id":"cebpf4jnsgd1na2vs0mg"},{"bike_id":"3eab7a2c-f72d-45dd-ba65-fb7201386b04","system_id":"levelo_inurba_marseille","lat":43.29232,"lon":5.36073,"is_reserved":false,"is_disabled":false,"rental_uris":{"android":"levelo://app?vid=3eab7a2c-f72d-45dd-ba65-fb7201386b04","ios":"levelo://app?vid=3eab7a2c-f72d-45dd-ba65-fb7201386b04"},"vehicle_type_id":"4","last_reported":1728749375,"current_range_meters":8000,"station_id":"ce4bhbh2rcd13ifvqeqg","pricing_plan_id":"cebpf4jnsgd1na2vs0mg"},{"bike_id":"816b26a3-73c2-46bb-8c0e-15f2dd381289","system_id":"levelo_inurba_marseille","lat":43.29558,"lon":5.42294,"is_reserved":false,"is_disabled":false,"rental_uris":{"android":"levelo://app?vid=816b26a3-73c2-46bb-8c0e-15f2dd381289","ios":"levelo://app?vid=816b26a3-73c2-46bb-8c0e-15f2dd381289"},"vehicle_type_id":"4","last_reported":1728749375,"current_range_meters":18800,"station_id":"ce4bhph2rcd13ifvqhdg","pricing_plan_id":"cebpf4jnsgd1na2vs0mg"},{"bike_id":"dd26c2c0-4031-49f7-afde-18a02cce525c","system_id":"levelo_inurba_marseille","lat":43.24074,"lon":5.37756,"is_reserved":false,"is_disabled":false,"rental_uris":{"android":"levelo://app?vid=dd26c2c0-4031-49f7-afde-18a02cce525c","ios":"levelo://app?vid=dd26c2c0-4031-49f7-afde-18a02cce525c"},"vehicle_type_id":"4","last_reported":1728749375,"current_range_meters":34000,"station_id":"ce4bhnp2rcd13ifvqgvg","pricing_plan_id":"cebpf4jnsgd1na2vs0mg"},{"bike_id":"86851483-6460-4f2a-8d92-b3b47e5c55aa","system_id":"levelo_inurba_marseille","lat":43.23965,"lon":5.36625,"is_reserved":false,"is_disabled":false,"rental_uris":{"android":"levelo://app?vid=86851483-6460-4f2a-8d92-b3b47e5c55aa","ios":"levelo://app?vid=86851483-6460-4f2a-8d92-b3b47e5c55aa"},"vehicle_type_id":"4","last_reported":1728749375,"current_range_meters":39200,"station_id":"ce4bhi12rcd13ifvqfp0","pricing_plan_id":"cebpf4jnsgd1na2vs0mg"},{"bike_id":"c8a56390-90d7-4f63-a62a-c62b6cb8d076","system_id":"levelo_inurba_marseille","lat":43.2893,"lon":5.38402,"is_reserved":false,"is_disabled":false,"rental_uris":{"android":"levelo://app?vid=c8a56390-90d7-4f63-a62a-c62b6cb8d076","ios":"levelo://app?vid=c8a56390-90d7-4f63-a62a-c62b6cb8d076"},"vehicle_type_id":"4","last_reported":1728749375,"current_range_meters":38000,"station_id":"ce4bh612rcd13ifvqe6g","pricing_plan_id":"cebpf4jnsgd1na2vs0mg"},{"bike_id":"900d410e-a263-4441-80a1-af67345a66d2","system_id":"levelo_inurba_marseille","lat":43.24396,"lon":5.37055,"is_reserved":false,"is_disabled":false,"rental_uris":{"android":"levelo://app?vid=900d410e-a263-4441-80a1-af67345a66d2","ios":"levelo://app?vid=900d410e-a263-4441-80a1-af67345a66d2"},"vehicle_type_id":"4","last_reported":1728749375,"current_range_meters":23200,"station_id":"ce4bhhh2rcd13ifvqfk0","pricing_plan_id":"cebpf4jnsgd1na2vs0mg"},{"bike_id":"93cf6e6a-b59b-4d63-9a00-c25bf3ea1f05","system_id":"levelo_inurba_marseille","lat":43.29894,"lon":5.43656,"is_reserved":false,"is_disabled":false,"rental_uris":{"android":"levelo://app?vid=93cf6e6a-b59b-4d63-9a00-c25bf3ea1f05","ios":"levelo://app?vid=93cf6e6a-b59b-4d63-9a00-c25bf3ea1f05"},"vehicle_type_id":"4","last_reported":1728749375,"current_range_meters":40000,"station_id":"ce4bhpp2rcd13ifvqhfg","pricing_plan_id":"cebpf4jnsgd1na2vs0mg"},{"bike_id":"9cba5319-72f6-4474-84a6-d5742eaaa38f","system_id":"levelo_inurba_marseille","lat":43.26211,"lon":5.37444,"is_reserved":false,"is_disabled":false,"rental_uris":{"android":"levelo://app?vid=9cba5319-72f6-4474-84a6-d5742eaaa38f","ios":"levelo://app?vid=9cba5319-72f6-4474-84a6-d5742eaaa38f"},"vehicle_type_id":"4","last_reported":1728749375,"current_range_meters":3600,"station_id":"ce4bhgp2rcd13ifvqfc0","pricing_plan_id":"cebpf4jnsgd1na2vs0mg"},{"bike_id":"f8e0d7fe-c882-4bde-99c8-563454686a55","system_id":"levelo_inurba_marseille","lat":43.25081,"lon":5.39517,"is_reserved":false,"is_disabled":false,"rental_uris":{"android":"levelo://app?vid=f8e0d7fe-c882-4bde-99c8-563454686a55","ios":"levelo://app?vid=f8e0d7fe-c882-4bde-99c8-563454686a55"},"vehicle_type_id":"4","last_reported":1728749375,"current_range_meters":18000,"station_id":"ce4bhm12rcd13ifvqgkg","pricing_plan_id":"cebpf4jnsgd1na2vs0mg"},{"bike_id":"715a27b7-59c5-4d1b-a0dd-06f21d803df4","system_id":"levelo_inurba_marseille","lat":43.26949,"lon":5.38633,"is_reserved":false,"is_disabled":false,"rental_uris":{"android":"levelo://app?vid=715a27b7-59c5-4d1b-a0dd-06f21d803df4","ios":"levelo://app?vid=715a27b7-59c5-4d1b-a0dd-06f21d803df4"},"vehicle_type_id":"4","last_reported":1728749375,"current_range_meters":37600,"station_id":"ce4bhh92rcd13ifvqfh0","pricing_plan_id":"cebpf4jnsgd1na2vs0mg"},{"bike_id":"ee3d77b2-c4c3-417a-8170-d8edb7edeab8","system_id":"levelo_inurba_marseille","lat":43.22936,"lon":5.35375,"is_reserved":false,"is_disabled":false,"rental_uris":{"android":"levelo://app?vid=ee3d77b2-c4c3-417a-8170-d8edb7edeab8","ios":"levelo://app?vid=ee3d77b2-c4c3-417a-8170-d8edb7edeab8"},"vehicle_type_id":"4","last_reported":1728749375,"current_range_meters":11600,"station_id":"cpo3532slgdg3j2ikp40","pricing_plan_id":"cebpf4jnsgd1na2vs0mg"},{"bike_id":"9acd4607-4cec-4d8b-a5a3-b06df4186daa","system_id":"levelo_inurba_marseille","lat":43.2894,"lon":5.36395,"is_reserved":false,"is_disabled":false,"rental_uris":{"android":"levelo://app?vid=9acd4607-4cec-4d8b-a5a3-b06df4186daa","ios":"levelo://app?vid=9acd4607-4cec-4d8b-a5a3-b06df4186daa"},"vehicle_type_id":"4","last_reported":1728749375,"current_range_meters":6800,"station_id":"ce4bhc92rcd13ifvqetg","pricing_plan_id":"cebpf4jnsgd1na2vs0mg"},{"bike_id":"9f0f7dd8-b3fe-4a72-80da-9359e3ea8ed1","system_id":"levelo_inurba_marseille","lat":43.27941,"lon":5.41053,"is_reserved":false,"is_disabled":false,"rental_uris":{"android":"levelo://app?vid=9f0f7dd8-b3fe-4a72-80da-9359e3ea8ed1","ios":"levelo://app?vid=9f0f7dd8-b3fe-4a72-80da-9359e3ea8ed1"},"vehicle_type_id":"4","last_reported":1728749375,"current_range_meters":14000,"station_id":"ce4bhnp2rcd13ifvqh0g","pricing_plan_id":"cebpf4jnsgd1na2vs0mg"},{"bike_id":"59337b9f-8c74-4938-b5cf-c56f4c4b2077","system_id":"levelo_inurba_marseille","lat":43.24806,"lon":5.37454,"is_reserved":false,"is_disabled":false,"rental_uris":{"android":"levelo://app?vid=59337b9f-8c74-4938-b5cf-c56f4c4b2077","ios":"levelo://app?vid=59337b9f-8c74-4938-b5cf-c56f4c4b2077"},"vehicle_type_id":"4","last_reported":1728749375,"current_range_meters":28000,"station_id":"ce4bhgh2rcd13ifvqfb0","pricing_plan_id":"cebpf4jnsgd1na2vs0mg"},{"bike_id":"862222f0-8185-489d-b301-ffffabb4511c","system_id":"levelo_inurba_marseille","lat":43.30535,"lon":5.36706,"is_reserved":false,"is_disabled":false,"rental_uris":{"android":"levelo://app?vid=862222f0-8185-489d-b301-ffffabb4511c","ios":"levelo://app?vid=862222f0-8185-489d-b301-ffffabb4511c"},"vehicle_type_id":"4","last_reported":1728749375,"current_range_meters":38800,"station_id":"ce4bgrp2rcd13ifvqc9g","pricing_plan_id":"cebpf4jnsgd1na2vs0mg"},{"bike_id":"b8ff2bd8-4502-4c6f-bf9a-3ec4e5cc4cc6","system_id":"levelo_inurba_marseille","lat":43.28721,"lon":5.36083,"is_reserved":false,"is_disabled":false,"rental_uris":{"android":"levelo://app?vid=b8ff2bd8-4502-4c6f-bf9a-3ec4e5cc4cc6","ios":"levelo://app?vid=b8ff2bd8-4502-4c6f-bf9a-3ec4e5cc4cc6"},"vehicle_type_id":"4","last_reported":1728749375,"current_range_meters":10000,"station_id":"cki0cbj6b192h4jlfktg","pricing_plan_id":"cebpf4jnsgd1na2vs0mg"},{"bike_id":"bc0f52d5-4b8d-4288-a3f2-8a743f110fe6","system_id":"levelo_inurba_marseille","lat":43.26571,"lon":5.3901,"is_reserved":false,"is_disabled":false,"rental_uris":{"android":"levelo://app?vid=bc0f52d5-4b8d-4288-a3f2-8a743f110fe6","ios":"levelo://app?vid=bc0f52d5-4b8d-4288-a3f2-8a743f110fe6"},"vehicle_type_id":"4","last_reported":1728749375,"current_range_meters":14400,"station_id":"ce4bhe12rcd13ifvqf30","pricing_plan_id":"cebpf4jnsgd1na2vs0mg"},{"bike_id":"5dbc7dcc-9d48-4fd7-8ea7-69f4e7ca2466","system_id":"levelo_inurba_marseille","lat":43.26551,"lon":5.37286,"is_reserved":false,"is_disabled":false,"rental_uris":{"android":"levelo://app?vid=5dbc7dcc-9d48-4fd7-8ea7-69f4e7ca2466","ios":"levelo://app?vid=5dbc7dcc-9d48-4fd7-8ea7-69f4e7ca2466"},"vehicle_type_id":"4","last_reported":1728749375,"current_range_meters":38800,"station_id":"ce4bhg12rcd13ifvqf70","pricing_plan_id":"cebpf4jnsgd1na2vs0mg"},{"bike_id":"149e83d7-9dcc-4ede-9aee-f1b734bfc952","system_id":"levelo_inurba_marseille","lat":43.22933,"lon":5.35374,"is_reserved":false,"is_disabled":false,"rental_uris":{"android":"levelo://app?vid=149e83d7-9dcc-4ede-9aee-f1b734bfc952","ios":"levelo://app?vid=149e83d7-9dcc-4ede-9aee-f1b734bfc952"},"vehicle_type_id":"4","last_reported":1728749375,"current_range_meters":19200,"station_id":"cpo3532slgdg3j2ikp40","pricing_plan_id":"cebpf4jnsgd1na2vs0mg"},{"bike_id":"caac0ae9-97a5-4abe-bfc2-b67d3e720f3d","system_id":"levelo_inurba_marseille","lat":43.2962,"lon":5.3717,"is_reserved":false,"is_disabled":false,"rental_uris":{"android":"levelo://app?vid=caac0ae9-97a5-4abe-bfc2-b67d3e720f3d","ios":"levelo://app?vid=caac0ae9-97a5-4abe-bfc2-b67d3e720f3d"},"vehicle_type_id":"4","last_reported":1728749375,"current_range_meters":28800,"station_id":"ce4bgnh2rcd13ifvqc0g","pricing_plan_id":"cebpf4jnsgd1na2vs0mg"},{"bike_id":"8dd78ca9-9222-49e2-ae71-45c00c5ac4e2","system_id":"levelo_inurba_marseille","lat":43.27375,"lon":5.36267,"is_reserved":false,"is_disabled":false,"rental_uris":{"android":"levelo://app?vid=8dd78ca9-9222-49e2-ae71-45c00c5ac4e2","ios":"levelo://app?vid=8dd78ca9-9222-49e2-ae71-45c00c5ac4e2"},"vehicle_type_id":"4","last_reported":1728749375,"current_range_meters":20400,"station_id":"ce4bhbh2rcd13ifvqeo0","pricing_plan_id":"cebpf4jnsgd1na2vs0mg"},{"bike_id":"a751214b-619f-4483-a2f5-200322f27979","system_id":"levelo_inurba_marseille","lat":43.29841,"lon":5.36268,"is_reserved":false,"is_disabled":false,"rental_uris":{"android":"levelo://app?vid=a751214b-619f-4483-a2f5-200322f27979","ios":"levelo://app?vid=a751214b-619f-4483-a2f5-200322f27979"},"vehicle_type_id":"4","last_reported":1728749375,"current_range_meters":16000,"station_id":"ce4bgpp2rcd13ifvqc3g","pricing_plan_id":"cebpf4jnsgd1na2vs0mg"},{"bike_id":"fa1be27d-8b16-4fc7-b2dd-84282e045451","system_id":"levelo_inurba_marseille","lat":43.30143,"lon":5.37425,"is_reserved":false,"is_disabled":false,"rental_uris":{"android":"levelo://app?vid=fa1be27d-8b16-4fc7-b2dd-84282e045451","ios":"levelo://app?vid=fa1be27d-8b16-4fc7-b2dd-84282e045451"},"vehicle_type_id":"4","last_reported":1728749375,"current_range_meters":19600,"station_id":"ce4bgs92rcd13ifvqcc0","pricing_plan_id":"cebpf4jnsgd1na2vs0mg"},{"bike_id":"9583e85d-e0c1-43e9-b0c4-edb69ccbe24a","system_id":"levelo_inurba_marseille","lat":43.28974,"lon":5.37838,"is_reserved":false,"is_disabled":false,"rental_uris":{"android":"levelo://app?vid=9583e85d-e0c1-43e9-b0c4-edb69ccbe24a","ios":"levelo://app?vid=9583e85d-e0c1-43e9-b0c4-edb69ccbe24a"},"vehicle_type_id":"4","last_reported":1728749375,"current_range_meters":26000,"station_id":"ce4bh9p2rcd13ifvqed0","pricing_plan_id":"cebpf4jnsgd1na2vs0mg"},{"bike_id":"c8de669e-13c9-4500-9ddd-4ef32ab87101","system_id":"levelo_inurba_marseille","lat":43.25119,"lon":5.4033,"is_reserved":false,"is_disabled":false,"rental_uris":{"android":"levelo://app?vid=c8de669e-13c9-4500-9ddd-4ef32ab87101","ios":"levelo://app?vid=c8de669e-13c9-4500-9ddd-4ef32ab87101"},"vehicle_type_id":"4","last_reported":1728749375,"current_range_meters":4800,"station_id":"ce4bhlh2rcd13ifvqgig","pricing_plan_id":"cebpf4jnsgd1na2vs0mg"},{"bike_id":"366c89d8-8272-4fbd-8651-581f952e2e4a","system_id":"levelo_inurba_marseille","lat":43.30436,"lon":5.38894,"is_reserved":false,"is_disabled":false,"rental_uris":{"android":"levelo://app?vid=366c89d8-8272-4fbd-8651-581f952e2e4a","ios":"levelo://app?vid=366c89d8-8272-4fbd-8651-581f952e2e4a"},"vehicle_type_id":"4","last_reported":1728749375,"current_range_meters":36800,"station_id":"ce4bgk12rcd13ifvqbi0","pricing_plan_id":"cebpf4jnsgd1na2vs0mg"},{"bike_id":"1f1319e5-4702-4f88-906e-39a6240bb97c","system_id":"levelo_inurba_marseille","lat":43.29079,"lon":5.37165,"is_reserved":false,"is_disabled":false,"rental_uris":{"android":"levelo://app?vid=1f1319e5-4702-4f88-906e-39a6240bb97c","ios":"levelo://app?vid=1f1319e5-4702-4f88-906e-39a6240bb97c"},"vehicle_type_id":"4","last_reported":1728749375,"current_range_meters":9600,"station_id":"ce4bh5p2rcd13ifvqe4g","pricing_plan_id":"cebpf4jnsgd1na2vs0mg"},{"bike_id":"da9b31ee-43b4-4389-85de-211de3ba1c9a","system_id":"levelo_inurba_marseille","lat":43.2465,"lon":5.38891,"is_reserved":false,"is_disabled":false,"rental_uris":{"android":"levelo://app?vid=da9b31ee-43b4-4389-85de-211de3ba1c9a","ios":"levelo://app?vid=da9b31ee-43b4-4389-85de-211de3ba1c9a"},"vehicle_type_id":"4","last_reported":1728749375,"current_range_meters":24000,"station_id":"ce4bhg12rcd13ifvqf60","pricing_plan_id":"cebpf4jnsgd1na2vs0mg"},{"bike_id":"d017348f-9255-4a44-ad98-bf65bfceb73e","system_id":"levelo_inurba_marseille","lat":43.28932,"lon":5.38404,"is_reserved":false,"is_disabled":false,"rental_uris":{"android":"levelo://app?vid=d017348f-9255-4a44-ad98-bf65bfceb73e","ios":"levelo://app?vid=d017348f-9255-4a44-ad98-bf65bfceb73e"},"vehicle_type_id":"4","last_reported":1728749375,"current_range_meters":2800,"station_id":"ce4bh612rcd13ifvqe6g","pricing_plan_id":"cebpf4jnsgd1na2vs0mg"},{"bike_id":"a971c569-7ff6-44a0-8429-f91840895046","system_id":"levelo_inurba_marseille","lat":43.29097,"lon":5.38139,"is_reserved":false,"is_disabled":false,"rental_uris":{"android":"levelo://app?vid=a971c569-7ff6-44a0-8429-f91840895046","ios":"levelo://app?vid=a971c569-7ff6-44a0-8429-f91840895046"},"vehicle_type_id":"4","last_reported":1728749375,"current_range_meters":32000,"station_id":"ce4bh512rcd13ifvqe2g","pricing_plan_id":"cebpf4jnsgd1na2vs0mg"},{"bike_id":"56c62ade-06e9-444f-ba50-b0fc3f256e59","system_id":"levelo_inurba_marseille","lat":43.24078,"lon":5.3776,"is_reserved":false,"is_disabled":false,"rental_uris":{"android":"levelo://app?vid=56c62ade-06e9-444f-ba50-b0fc3f256e59","ios":"levelo://app?vid=56c62ade-06e9-444f-ba50-b0fc3f256e59"},"vehicle_type_id":"4","last_reported":1728749375,"current_range_meters":13600,"station_id":"ce4bhnp2rcd13ifvqgvg","pricing_plan_id":"cebpf4jnsgd1na2vs0mg"},{"bike_id":"7f0a376b-7a52-471a-aa1d-d0872b6ef77d","system_id":"levelo_inurba_marseille","lat":43.2926,"lon":5.36845,"is_reserved":false,"is_disabled":false,"rental_uris":{"android":"levelo://app?vid=7f0a376b-7a52-471a-aa1d-d0872b6ef77d","ios":"levelo://app?vid=7f0a376b-7a52-471a-aa1d-d0872b6ef77d"},"vehicle_type_id":"4","last_reported":1728749375,"current_range_meters":22800,"station_id":"ce4bhbp2rcd13ifvqesg","pricing_plan_id":"cebpf4jnsgd1na2vs0mg"},{"bike_id":"c5675f9c-0a26-411d-9f36-379bac3614a9","system_id":"levelo_inurba_marseille","lat":43.30176,"lon":5.36616,"is_reserved":false,"is_disabled":false,"rental_uris":{"android":"levelo://app?vid=c5675f9c-0a26-411d-9f36-379bac3614a9","ios":"levelo://app?vid=c5675f9c-0a26-411d-9f36-379bac3614a9"},"vehicle_type_id":"4","last_reported":1728749375,"current_range_meters":7200,"station_id":"ce4bgrh2rcd13ifvqc8g","pricing_plan_id":"cebpf4jnsgd1na2vs0mg"},{"bike_id":"b1f3fa12-d871-44a8-a652-7e0dd2b77536","system_id":"levelo_inurba_marseille","lat":43.30952,"lon":5.39036,"is_reserved":false,"is_disabled":false,"rental_uris":{"android":"levelo://app?vid=b1f3fa12-d871-44a8-a652-7e0dd2b77536","ios":"levelo://app?vid=b1f3fa12-d871-44a8-a652-7e0dd2b77536"},"vehicle_type_id":"4","last_reported":1728749375,"current_range_meters":22000,"station_id":"ce4bgup2rcd13ifvqco0","pricing_plan_id":"cebpf4jnsgd1na2vs0mg"},{"bike_id":"2fd3fc85-901e-4125-9eb8-61951126a742","system_id":"levelo_inurba_marseille","lat":43.24079,"lon":5.37763,"is_reserved":false,"is_disabled":false,"rental_uris":{"android":"levelo://app?vid=2fd3fc85-901e-4125-9eb8-61951126a742","ios":"levelo://app?vid=2fd3fc85-901e-4125-9eb8-61951126a742"},"vehicle_type_id":"4","last_reported":1728749375,"current_range_meters":14400,"station_id":"ce4bhnp2rcd13ifvqgvg","pricing_plan_id":"cebpf4jnsgd1na2vs0mg"},{"bike_id":"252f8728-7e85-4bf1-87ef-35a692e8f283","system_id":"levelo_inurba_marseille","lat":43.30301,"lon":5.3921,"is_reserved":false,"is_disabled":false,"rental_uris":{"android":"levelo://app?vid=252f8728-7e85-4bf1-87ef-35a692e8f283","ios":"levelo://app?vid=252f8728-7e85-4bf1-87ef-35a692e8f283"},"vehicle_type_id":"4","last_reported":1728749375,"current_range_meters":18800,"station_id":"ce4bgkh2rcd13ifvqbk0","pricing_plan_id":"cebpf4jnsgd1na2vs0mg"},{"bike_id":"ad9508a3-6339-4b15-ad7f-7867f29affe1","system_id":"levelo_inurba_marseille","lat":43.23968,"lon":5.36629,"is_reserved":false,"is_disabled":false,"rental_uris":{"android":"levelo://app?vid=ad9508a3-6339-4b15-ad7f-7867f29affe1","ios":"levelo://app?vid=ad9508a3-6339-4b15-ad7f-7867f29affe1"},"vehicle_type_id":"4","last_reported":1728749375,"current_range_meters":28800,"station_id":"ce4bhi12rcd13ifvqfp0","pricing_plan_id":"cebpf4jnsgd1na2vs0mg"},{"bike_id":"759ce870-3bc5-4a2e-a8c9-bec4e8008e45","system_id":"levelo_inurba_marseille","lat":43.337444,"lon":5.374475,"is_reserved":false,"is_disabled":false,"rental_uris":{"android":"levelo://app?vid=759ce870-3bc5-4a2e-a8c9-bec4e8008e45","ios":"levelo://app?vid=759ce870-3bc5-4a2e-a8c9-bec4e8008e45"},"vehicle_type_id":"4","last_reported":1728749375,"current_range_meters":27200,"station_id":"","pricing_plan_id":"cebpf4jnsgd1na2vs0mg"},{"bike_id":"e8dad087-0e79-4a71-a9b8-a450539a630d","system_id":"levelo_inurba_marseille","lat":43.29008,"lon":5.35606,"is_reserved":false,"is_disabled":false,"rental_uris":{"android":"levelo://app?vid=e8dad087-0e79-4a71-a9b8-a450539a630d","ios":"levelo://app?vid=e8dad087-0e79-4a71-a9b8-a450539a630d"},"vehicle_type_id":"4","last_reported":1728749375,"current_range_meters":24400,"station_id":"ce4bhb92rcd13ifvqen0","pricing_plan_id":"cebpf4jnsgd1na2vs0mg"},{"bike_id":"112c3988-122e-4dfb-ab3d-b929f72b153c","system_id":"levelo_inurba_marseille","lat":43.26492,"lon":5.39543,"is_reserved":false,"is_disabled":false,"rental_uris":{"android":"levelo://app?vid=112c3988-122e-4dfb-ab3d-b929f72b153c","ios":"levelo://app?vid=112c3988-122e-4dfb-ab3d-b929f72b153c"},"vehicle_type_id":"4","last_reported":1728749375,"current_range_meters":13600,"station_id":"ce4bhi12rcd13ifvqfq0","pricing_plan_id":"cebpf4jnsgd1na2vs0mg"},{"bike_id":"2cc8e14a-fcef-48f8-abf6-305a9f5ff4d3","system_id":"levelo_inurba_marseille","lat":43.27491,"lon":5.42449,"is_reserved":false,"is_disabled":false,"rental_uris":{"android":"levelo://app?vid=2cc8e14a-fcef-48f8-abf6-305a9f5ff4d3","ios":"levelo://app?vid=2cc8e14a-fcef-48f8-abf6-305a9f5ff4d3"},"vehicle_type_id":"4","last_reported":1728749375,"current_range_meters":22400,"station_id":"ce4bhn92rcd13ifvqgrg","pricing_plan_id":"cebpf4jnsgd1na2vs0mg"},{"bike_id":"543e20bb-2a3b-4641-a9b0-594106236770","system_id":"levelo_inurba_marseille","lat":43.27674,"lon":5.38888,"is_reserved":false,"is_disabled":false,"rental_uris":{"android":"levelo://app?vid=543e20bb-2a3b-4641-a9b0-594106236770","ios":"levelo://app?vid=543e20bb-2a3b-4641-a9b0-594106236770"},"vehicle_type_id":"4","last_reported":1728749375,"current_range_meters":4000,"station_id":"ce4bhi12rcd13ifvqfo0","pricing_plan_id":"cebpf4jnsgd1na2vs0mg"},{"bike_id":"42fcb9ea-9b6e-4c76-bdd9-ed276ae24c84","system_id":"levelo_inurba_marseille","lat":43.26957,"lon":5.38625,"is_reserved":false,"is_disabled":false,"rental_uris":{"android":"levelo://app?vid=42fcb9ea-9b6e-4c76-bdd9-ed276ae24c84","ios":"levelo://app?vid=42fcb9ea-9b6e-4c76-bdd9-ed276ae24c84"},"vehicle_type_id":"4","last_reported":1728749375,"current_range_meters":20800,"station_id":"ce4bhh92rcd13ifvqfh0","pricing_plan_id":"cebpf4jnsgd1na2vs0mg"},{"bike_id":"421fa21c-9e44-4635-8cc9-ee0082d77a17","system_id":"levelo_inurba_marseille","lat":43.28716,"lon":5.37948,"is_reserved":false,"is_disabled":false,"rental_uris":{"android":"levelo://app?vid=421fa21c-9e44-4635-8cc9-ee0082d77a17","ios":"levelo://app?vid=421fa21c-9e44-4635-8cc9-ee0082d77a17"},"vehicle_type_id":"4","last_reported":1728749375,"current_range_meters":8400,"station_id":"ce4bh9p2rcd13ifvqec0","pricing_plan_id":"cebpf4jnsgd1na2vs0mg"},{"bike_id":"abbce51d-3f60-49d8-a989-d4f276afb1bf","system_id":"levelo_inurba_marseille","lat":43.29965,"lon":5.38502,"is_reserved":false,"is_disabled":false,"rental_uris":{"android":"levelo://app?vid=abbce51d-3f60-49d8-a989-d4f276afb1bf","ios":"levelo://app?vid=abbce51d-3f60-49d8-a989-d4f276afb1bf"},"vehicle_type_id":"4","last_reported":1728749375,"current_range_meters":6800,"station_id":"ce4bgj92rcd13ifvqbd0","pricing_plan_id":"cebpf4jnsgd1na2vs0mg"},{"bike_id":"e266114d-389b-4e86-bb41-f347240eafe0","system_id":"levelo_inurba_marseille","lat":43.32537,"lon":5.41436,"is_reserved":false,"is_disabled":false,"rental_uris":{"android":"levelo://app?vid=e266114d-389b-4e86-bb41-f347240eafe0","ios":"levelo://app?vid=e266114d-389b-4e86-bb41-f347240eafe0"},"vehicle_type_id":"4","last_reported":1728749375,"current_range_meters":37600,"station_id":"ce4bhq12rcd13ifvqhhg","pricing_plan_id":"cebpf4jnsgd1na2vs0mg"},{"bike_id":"83269766-c430-4ac8-94fd-7296295b8135","system_id":"levelo_inurba_marseille","lat":43.26807,"lon":5.40272,"is_reserved":false,"is_disabled":false,"rental_uris":{"android":"levelo://app?vid=83269766-c430-4ac8-94fd-7296295b8135","ios":"levelo://app?vid=83269766-c430-4ac8-94fd-7296295b8135"},"vehicle_type_id":"4","last_reported":1728749375,"current_range_meters":25600,"station_id":"ce501612rcd8frsf0b60","pricing_plan_id":"cebpf4jnsgd1na2vs0mg"},{"bike_id":"d0dfc7e9-38a8-423e-9b51-208163dfaedc","system_id":"levelo_inurba_marseille","lat":43.28458,"lon":5.359,"is_reserved":false,"is_disabled":false,"rental_uris":{"android":"levelo://app?vid=d0dfc7e9-38a8-423e-9b51-208163dfaedc","ios":"levelo://app?vid=d0dfc7e9-38a8-423e-9b51-208163dfaedc"},"vehicle_type_id":"4","last_reported":1728749375,"current_range_meters":2000,"station_id":"ce4bhah2rcd13ifvqei0","pricing_plan_id":"cebpf4jnsgd1na2vs0mg"},{"bike_id":"6f10db3e-0815-4ea2-abae-3e920a5ebc04","system_id":"levelo_inurba_marseille","lat":43.28412,"lon":5.37522,"is_reserved":false,"is_disabled":false,"rental_uris":{"android":"levelo://app?vid=6f10db3e-0815-4ea2-abae-3e920a5ebc04","ios":"levelo://app?vid=6f10db3e-0815-4ea2-abae-3e920a5ebc04"},"vehicle_type_id":"4","last_reported":1728749375,"current_range_meters":2000,"station_id":"ce4bh412rcd13ifvqds0","pricing_plan_id":"cebpf4jnsgd1na2vs0mg"},{"bike_id":"98f23933-0743-4813-895e-8d2629e680e6","system_id":"levelo_inurba_marseille","lat":43.27997,"lon":5.41662,"is_reserved":false,"is_disabled":false,"rental_uris":{"android":"levelo://app?vid=98f23933-0743-4813-895e-8d2629e680e6","ios":"levelo://app?vid=98f23933-0743-4813-895e-8d2629e680e6"},"vehicle_type_id":"4","last_reported":1728749375,"current_range_meters":6400,"station_id":"ce4bho12rcd13ifvqh1g","pricing_plan_id":"cebpf4jnsgd1na2vs0mg"},{"bike_id":"fd301c4f-88d0-470b-8444-02e732c4a052","system_id":"levelo_inurba_marseille","lat":43.24977,"lon":5.38099,"is_reserved":false,"is_disabled":false,"rental_uris":{"android":"levelo://app?vid=fd301c4f-88d0-470b-8444-02e732c4a052","ios":"levelo://app?vid=fd301c4f-88d0-470b-8444-02e732c4a052"},"vehicle_type_id":"4","last_reported":1728749375,"current_range_meters":27600,"station_id":"","pricing_plan_id":"cebpf4jnsgd1na2vs0mg"},{"bike_id":"67f04806-dab4-4bfb-95ef-97906df6f684","system_id":"levelo_inurba_marseille","lat":43.28463,"lon":5.35886,"is_reserved":false,"is_disabled":false,"rental_uris":{"android":"levelo://app?vid=67f04806-dab4-4bfb-95ef-97906df6f684","ios":"levelo://app?vid=67f04806-dab4-4bfb-95ef-97906df6f684"},"vehicle_type_id":"4","last_reported":1728749375,"current_range_meters":30000,"station_id":"ce4bhah2rcd13ifvqei0","pricing_plan_id":"cebpf4jnsgd1na2vs0mg"},{"bike_id":"b8f90421-7564-4f3a-a9c8-26764beb1784","system_id":"levelo_inurba_marseille","lat":43.29713,"lon":5.36609,"is_reserved":false,"is_disabled":false,"rental_uris":{"android":"levelo://app?vid=b8f90421-7564-4f3a-a9c8-26764beb1784","ios":"levelo://app?vid=b8f90421-7564-4f3a-a9c8-26764beb1784"},"vehicle_type_id":"4","last_reported":1728749375,"current_range_meters":28000,"station_id":"ce4bgn12rcd13ifvqbt0","pricing_plan_id":"cebpf4jnsgd1na2vs0mg"},{"bike_id":"f2ec553b-f583-4634-bf60-a39b93078fc1","system_id":"levelo_inurba_marseille","lat":43.24393,"lon":5.37063,"is_reserved":false,"is_disabled":false,"rental_uris":{"android":"levelo://app?vid=f2ec553b-f583-4634-bf60-a39b93078fc1","ios":"levelo://app?vid=f2ec553b-f583-4634-bf60-a39b93078fc1"},"vehicle_type_id":"4","last_reported":1728749375,"current_range_meters":28000,"station_id":"ce4bhhh2rcd13ifvqfk0","pricing_plan_id":"cebpf4jnsgd1na2vs0mg"},{"bike_id":"54887b4f-fee3-474b-abbd-7336ddf1ae33","system_id":"levelo_inurba_marseille","lat":43.31684,"lon":5.40479,"is_reserved":false,"is_disabled":false,"rental_uris":{"android":"levelo://app?vid=54887b4f-fee3-474b-abbd-7336ddf1ae33","ios":"levelo://app?vid=54887b4f-fee3-474b-abbd-7336ddf1ae33"},"vehicle_type_id":"4","last_reported":1728749375,"current_range_meters":19600,"station_id":"ce4bh012rcd13ifvqd00","pricing_plan_id":"cebpf4jnsgd1na2vs0mg"},{"bike_id":"794b7b04-11a7-4f66-b706-71c47e237818","system_id":"levelo_inurba_marseille","lat":43.28472,"lon":5.35901,"is_reserved":false,"is_disabled":false,"rental_uris":{"android":"levelo://app?vid=794b7b04-11a7-4f66-b706-71c47e237818","ios":"levelo://app?vid=794b7b04-11a7-4f66-b706-71c47e237818"},"vehicle_type_id":"4","last_reported":1728749375,"current_range_meters":15200,"station_id":"ce4bhah2rcd13ifvqei0","pricing_plan_id":"cebpf4jnsgd1na2vs0mg"},{"bike_id":"1a90ad3a-447a-4014-8cf5-1bb8f629a10e","system_id":"levelo_inurba_marseille","lat":43.29584,"lon":5.36744,"is_reserved":false,"is_disabled":false,"rental_uris":{"android":"levelo://app?vid=1a90ad3a-447a-4014-8cf5-1bb8f629a10e","ios":"levelo://app?vid=1a90ad3a-447a-4014-8cf5-1bb8f629a10e"},"vehicle_type_id":"4","last_reported":1728749375,"current_range_meters":24400,"station_id":"ce4bgph2rcd13ifvqc2g","pricing_plan_id":"cebpf4jnsgd1na2vs0mg"},{"bike_id":"92c1af36-5649-40f5-84ed-a7b062884571","system_id":"levelo_inurba_marseille","lat":43.23967,"lon":5.36628,"is_reserved":false,"is_disabled":false,"rental_uris":{"android":"levelo://app?vid=92c1af36-5649-40f5-84ed-a7b062884571","ios":"levelo://app?vid=92c1af36-5649-40f5-84ed-a7b062884571"},"vehicle_type_id":"4","last_reported":1728749375,"current_range_meters":33600,"station_id":"ce4bhi12rcd13ifvqfp0","pricing_plan_id":"cebpf4jnsgd1na2vs0mg"},{"bike_id":"6cb5b02c-2401-484a-8b7d-b4d2106d6b08","system_id":"levelo_inurba_marseille","lat":43.2319,"lon":5.35557,"is_reserved":false,"is_disabled":false,"rental_uris":{"android":"levelo://app?vid=6cb5b02c-2401-484a-8b7d-b4d2106d6b08","ios":"levelo://app?vid=6cb5b02c-2401-484a-8b7d-b4d2106d6b08"},"vehicle_type_id":"4","last_reported":1728749375,"current_range_meters":30800,"station_id":"ce4bhu92rcd13ifvqi70","pricing_plan_id":"cebpf4jnsgd1na2vs0mg"},{"bike_id":"ea203679-8246-41bb-bc64-80edd7e095b0","system_id":"levelo_inurba_marseille","lat":43.33028,"lon":5.39049,"is_reserved":false,"is_disabled":false,"rental_uris":{"android":"levelo://app?vid=ea203679-8246-41bb-bc64-80edd7e095b0","ios":"levelo://app?vid=ea203679-8246-41bb-bc64-80edd7e095b0"},"vehicle_type_id":"4","last_reported":1728749375,"current_range_meters":22400,"station_id":"ce4bhr92rcd13ifvqhrg","pricing_plan_id":"cebpf4jnsgd1na2vs0mg"},{"bike_id":"f7dd1dc7-fa4b-4758-aac5-4419d54d56ad","system_id":"levelo_inurba_marseille","lat":43.31758,"lon":5.39019,"is_reserved":false,"is_disabled":false,"rental_uris":{"android":"levelo://app?vid=f7dd1dc7-fa4b-4758-aac5-4419d54d56ad","ios":"levelo://app?vid=f7dd1dc7-fa4b-4758-aac5-4419d54d56ad"},"vehicle_type_id":"4","last_reported":1728749375,"current_range_meters":38800,"station_id":"ce4bhqp2rcd13ifvqhng","pricing_plan_id":"cebpf4jnsgd1na2vs0mg"},{"bike_id":"c88cdfb0-4bf9-4a8c-8ce2-b63c2598193b","system_id":"levelo_inurba_marseille","lat":43.29581,"lon":5.36742,"is_reserved":false,"is_disabled":false,"rental_uris":{"android":"levelo://app?vid=c88cdfb0-4bf9-4a8c-8ce2-b63c2598193b","ios":"levelo://app?vid=c88cdfb0-4bf9-4a8c-8ce2-b63c2598193b"},"vehicle_type_id":"4","last_reported":1728749375,"current_range_meters":36800,"station_id":"ce4bgph2rcd13ifvqc2g","pricing_plan_id":"cebpf4jnsgd1na2vs0mg"},{"bike_id":"a04cb922-42d1-45da-9135-d58b017dc81b","system_id":"levelo_inurba_marseille","lat":43.27978,"lon":5.38735,"is_reserved":false,"is_disabled":false,"rental_uris":{"android":"levelo://app?vid=a04cb922-42d1-45da-9135-d58b017dc81b","ios":"levelo://app?vid=a04cb922-42d1-45da-9135-d58b017dc81b"},"vehicle_type_id":"4","last_reported":1728749375,"current_range_meters":35600,"station_id":"ce4bhg12rcd13ifvqf80","pricing_plan_id":"cebpf4jnsgd1na2vs0mg"},{"bike_id":"e127945e-8a8f-445a-bed2-c2f39230a867","system_id":"levelo_inurba_marseille","lat":43.29013,"lon":5.38145,"is_reserved":false,"is_disabled":false,"rental_uris":{"android":"levelo://app?vid=e127945e-8a8f-445a-bed2-c2f39230a867","ios":"levelo://app?vid=e127945e-8a8f-445a-bed2-c2f39230a867"},"vehicle_type_id":"4","last_reported":1728749375,"current_range_meters":27200,"station_id":"ce4bh4p2rcd13ifvqe1g","pricing_plan_id":"cebpf4jnsgd1na2vs0mg"},{"bike_id":"eac4e8f1-ac84-4048-ad4c-5213afa836f2","system_id":"levelo_inurba_marseille","lat":43.27133,"lon":5.40011,"is_reserved":false,"is_disabled":false,"rental_uris":{"android":"levelo://app?vid=eac4e8f1-ac84-4048-ad4c-5213afa836f2","ios":"levelo://app?vid=eac4e8f1-ac84-4048-ad4c-5213afa836f2"},"vehicle_type_id":"4","last_reported":1728749375,"current_range_meters":24400,"station_id":"","pricing_plan_id":"cebpf4jnsgd1na2vs0mg"},{"bike_id":"3cefb2cd-0e86-429c-b21e-6c0c5fe39dde","system_id":"levelo_inurba_marseille","lat":43.26783,"lon":5.39414,"is_reserved":false,"is_disabled":false,"rental_uris":{"android":"levelo://app?vid=3cefb2cd-0e86-429c-b21e-6c0c5fe39dde","ios":"levelo://app?vid=3cefb2cd-0e86-429c-b21e-6c0c5fe39dde"},"vehicle_type_id":"4","last_reported":1728749375,"current_range_meters":38800,"station_id":"ce4bhh12rcd13ifvqfg0","pricing_plan_id":"cebpf4jnsgd1na2vs0mg"},{"bike_id":"5660055a-cbdf-49e8-9d08-c5177e678b49","system_id":"levelo_inurba_marseille","lat":43.26938,"lon":5.40266,"is_reserved":false,"is_disabled":false,"rental_uris":{"android":"levelo://app?vid=5660055a-cbdf-49e8-9d08-c5177e678b49","ios":"levelo://app?vid=5660055a-cbdf-49e8-9d08-c5177e678b49"},"vehicle_type_id":"4","last_reported":1728749375,"current_range_meters":8800,"station_id":"cjm6bp8fraef2m0cb0m0","pricing_plan_id":"cebpf4jnsgd1na2vs0mg"},{"bike_id":"accb871e-a6d6-4416-b0e7-cca548384eeb","system_id":"levelo_inurba_marseille","lat":43.26552,"lon":5.37294,"is_reserved":false,"is_disabled":false,"rental_uris":{"android":"levelo://app?vid=accb871e-a6d6-4416-b0e7-cca548384eeb","ios":"levelo://app?vid=accb871e-a6d6-4416-b0e7-cca548384eeb"},"vehicle_type_id":"4","last_reported":1728749375,"current_range_meters":36800,"station_id":"ce4bhg12rcd13ifvqf70","pricing_plan_id":"cebpf4jnsgd1na2vs0mg"},{"bike_id":"b93e1d22-da02-4463-b7cf-6df40b34bd2b","system_id":"levelo_inurba_marseille","lat":43.24997,"lon":5.38934,"is_reserved":false,"is_disabled":false,"rental_uris":{"android":"levelo://app?vid=b93e1d22-da02-4463-b7cf-6df40b34bd2b","ios":"levelo://app?vid=b93e1d22-da02-4463-b7cf-6df40b34bd2b"},"vehicle_type_id":"4","last_reported":1728749375,"current_range_meters":25200,"station_id":"ce4bhgp2rcd13ifvqfd0","pricing_plan_id":"cebpf4jnsgd1na2vs0mg"},{"bike_id":"c675b22c-c93c-44bd-ada5-be134af7cbc6","system_id":"levelo_inurba_marseille","lat":43.31893,"lon":5.40733,"is_reserved":false,"is_disabled":false,"rental_uris":{"android":"levelo://app?vid=c675b22c-c93c-44bd-ada5-be134af7cbc6","ios":"levelo://app?vid=c675b22c-c93c-44bd-ada5-be134af7cbc6"},"vehicle_type_id":"4","last_reported":1728749375,"current_range_meters":38800,"station_id":"ce4bhq12rcd13ifvqhig","pricing_plan_id":"cebpf4jnsgd1na2vs0mg"},{"bike_id":"96971402-df6f-4dda-89c0-4c4699a70141","system_id":"levelo_inurba_marseille","lat":43.29861,"lon":5.39748,"is_reserved":false,"is_disabled":false,"rental_uris":{"android":"levelo://app?vid=96971402-df6f-4dda-89c0-4c4699a70141","ios":"levelo://app?vid=96971402-df6f-4dda-89c0-4c4699a70141"},"vehicle_type_id":"4","last_reported":1728749375,"current_range_meters":24800,"station_id":"ce4bh0h2rcd13ifvqd50","pricing_plan_id":"cebpf4jnsgd1na2vs0mg"},{"bike_id":"a7af2b24-b34f-4ff1-9187-b19dc418c6d7","system_id":"levelo_inurba_marseille","lat":43.25865,"lon":5.39906,"is_reserved":false,"is_disabled":false,"rental_uris":{"android":"levelo://app?vid=a7af2b24-b34f-4ff1-9187-b19dc418c6d7","ios":"levelo://app?vid=a7af2b24-b34f-4ff1-9187-b19dc418c6d7"},"vehicle_type_id":"4","last_reported":1728749375,"current_range_meters":37600,"station_id":"ce4bhl92rcd13ifvqghg","pricing_plan_id":"cebpf4jnsgd1na2vs0mg"},{"bike_id":"0aec9888-f885-4420-b80a-01742ec700c3","system_id":"levelo_inurba_marseille","lat":43.30933,"lon":5.39072,"is_reserved":false,"is_disabled":false,"rental_uris":{"android":"levelo://app?vid=0aec9888-f885-4420-b80a-01742ec700c3","ios":"levelo://app?vid=0aec9888-f885-4420-b80a-01742ec700c3"},"vehicle_type_id":"4","last_reported":1728749375,"current_range_meters":7200,"station_id":"ce4bgup2rcd13ifvqcn0","pricing_plan_id":"cebpf4jnsgd1na2vs0mg"},{"bike_id":"01dcbdb8-26bd-4cf3-b8d6-b1019cbe1ddb","system_id":"levelo_inurba_marseille","lat":43.27809,"lon":5.40704,"is_reserved":false,"is_disabled":false,"rental_uris":{"android":"levelo://app?vid=01dcbdb8-26bd-4cf3-b8d6-b1019cbe1ddb","ios":"levelo://app?vid=01dcbdb8-26bd-4cf3-b8d6-b1019cbe1ddb"},"vehicle_type_id":"4","last_reported":1728749375,"current_range_meters":38800,"station_id":"ce4bhnh2rcd13ifvqgtg","pricing_plan_id":"cebpf4jnsgd1na2vs0mg"},{"bike_id":"25e59862-8a09-482d-b3a5-7138deb4afc5","system_id":"levelo_inurba_marseille","lat":43.2306,"lon":5.35496,"is_reserved":false,"is_disabled":false,"rental_uris":{"android":"levelo://app?vid=25e59862-8a09-482d-b3a5-7138deb4afc5","ios":"levelo://app?vid=25e59862-8a09-482d-b3a5-7138deb4afc5"},"vehicle_type_id":"4","last_reported":1728749375,"current_range_meters":8800,"station_id":"cpo3342slgdg3j2ifvpg","pricing_plan_id":"cebpf4jnsgd1na2vs0mg"},{"bike_id":"7bac7836-a75a-491f-98e0-0ff022602dac","system_id":"levelo_inurba_marseille","lat":43.2962,"lon":5.37171,"is_reserved":false,"is_disabled":false,"rental_uris":{"android":"levelo://app?vid=7bac7836-a75a-491f-98e0-0ff022602dac","ios":"levelo://app?vid=7bac7836-a75a-491f-98e0-0ff022602dac"},"vehicle_type_id":"4","last_reported":1728749375,"current_range_meters":14000,"station_id":"ce4bgnh2rcd13ifvqc0g","pricing_plan_id":"cebpf4jnsgd1na2vs0mg"},{"bike_id":"71812201-473e-41b9-a985-01a6e6c72275","system_id":"levelo_inurba_marseille","lat":43.305519,"lon":5.367621,"is_reserved":false,"is_disabled":false,"rental_uris":{"android":"levelo://app?vid=71812201-473e-41b9-a985-01a6e6c72275","ios":"levelo://app?vid=71812201-473e-41b9-a985-01a6e6c72275"},"vehicle_type_id":"4","last_reported":1728749375,"current_range_meters":4000,"station_id":"ce4bgrp2rcd13ifvqc9g","pricing_plan_id":"cebpf4jnsgd1na2vs0mg"},{"bike_id":"b933402b-d1ca-49a8-bbf7-fb19281d941c","system_id":"levelo_inurba_marseille","lat":43.2319,"lon":5.35558,"is_reserved":false,"is_disabled":false,"rental_uris":{"android":"levelo://app?vid=b933402b-d1ca-49a8-bbf7-fb19281d941c","ios":"levelo://app?vid=b933402b-d1ca-49a8-bbf7-fb19281d941c"},"vehicle_type_id":"4","last_reported":1728749375,"current_range_meters":20000,"station_id":"ce4bhu92rcd13ifvqi70","pricing_plan_id":"cebpf4jnsgd1na2vs0mg"},{"bike_id":"68a48546-28ec-4218-a008-021a1ba46359","system_id":"levelo_inurba_marseille","lat":43.25581,"lon":5.3823,"is_reserved":false,"is_disabled":false,"rental_uris":{"android":"levelo://app?vid=68a48546-28ec-4218-a008-021a1ba46359","ios":"levelo://app?vid=68a48546-28ec-4218-a008-021a1ba46359"},"vehicle_type_id":"4","last_reported":1728749375,"current_range_meters":37600,"station_id":"ce4bhih2rcd13ifvqfs0","pricing_plan_id":"cebpf4jnsgd1na2vs0mg"},{"bike_id":"96ca4fc6-25e7-4235-bbf2-f9215435a5c2","system_id":"levelo_inurba_marseille","lat":43.26796,"lon":5.39411,"is_reserved":false,"is_disabled":false,"rental_uris":{"android":"levelo://app?vid=96ca4fc6-25e7-4235-bbf2-f9215435a5c2","ios":"levelo://app?vid=96ca4fc6-25e7-4235-bbf2-f9215435a5c2"},"vehicle_type_id":"4","last_reported":1728749375,"current_range_meters":27600,"station_id":"ce4bhh12rcd13ifvqfg0","pricing_plan_id":"cebpf4jnsgd1na2vs0mg"},{"bike_id":"95202704-be5a-4cbf-bd53-d52f5537c310","system_id":"levelo_inurba_marseille","lat":43.29098,"lon":5.3814,"is_reserved":false,"is_disabled":false,"rental_uris":{"android":"levelo://app?vid=95202704-be5a-4cbf-bd53-d52f5537c310","ios":"levelo://app?vid=95202704-be5a-4cbf-bd53-d52f5537c310"},"vehicle_type_id":"4","last_reported":1728749375,"current_range_meters":37600,"station_id":"ce4bh512rcd13ifvqe2g","pricing_plan_id":"cebpf4jnsgd1na2vs0mg"},{"bike_id":"13cea10b-aa15-43fe-9a85-70a22d46d926","system_id":"levelo_inurba_marseille","lat":43.32108,"lon":5.36767,"is_reserved":false,"is_disabled":false,"rental_uris":{"android":"levelo://app?vid=13cea10b-aa15-43fe-9a85-70a22d46d926","ios":"levelo://app?vid=13cea10b-aa15-43fe-9a85-70a22d46d926"},"vehicle_type_id":"4","last_reported":1728749375,"current_range_meters":22800,"station_id":"ce4bhrh2rcd13ifvqhug","pricing_plan_id":"cebpf4jnsgd1na2vs0mg"},{"bike_id":"a830dc1e-9e92-4e32-96f4-c27b1757034a","system_id":"levelo_inurba_marseille","lat":43.29028,"lon":5.38147,"is_reserved":false,"is_disabled":false,"rental_uris":{"android":"levelo://app?vid=a830dc1e-9e92-4e32-96f4-c27b1757034a","ios":"levelo://app?vid=a830dc1e-9e92-4e32-96f4-c27b1757034a"},"vehicle_type_id":"4","last_reported":1728749375,"current_range_meters":38800,"station_id":"ce4bh4p2rcd13ifvqe1g","pricing_plan_id":"cebpf4jnsgd1na2vs0mg"},{"bike_id":"3f98ae76-f367-4063-b908-9bca6410c3dd","system_id":"levelo_inurba_marseille","lat":43.29796,"lon":5.38105,"is_reserved":false,"is_disabled":false,"rental_uris":{"android":"levelo://app?vid=3f98ae76-f367-4063-b908-9bca6410c3dd","ios":"levelo://app?vid=3f98ae76-f367-4063-b908-9bca6410c3dd"},"vehicle_type_id":"4","last_reported":1728749375,"current_range_meters":28800,"station_id":"ce4bgip2rcd13ifvqbb0","pricing_plan_id":"cebpf4jnsgd1na2vs0mg"},{"bike_id":"e7b0720c-b352-4541-ad0f-d1f07c461b65","system_id":"levelo_inurba_marseille","lat":43.2997,"lon":5.38488,"is_reserved":false,"is_disabled":false,"rental_uris":{"android":"levelo://app?vid=e7b0720c-b352-4541-ad0f-d1f07c461b65","ios":"levelo://app?vid=e7b0720c-b352-4541-ad0f-d1f07c461b65"},"vehicle_type_id":"4","last_reported":1728749375,"current_range_meters":24800,"station_id":"ce4bgj92rcd13ifvqbd0","pricing_plan_id":"cebpf4jnsgd1na2vs0mg"},{"bike_id":"32bd1155-58da-45be-b4a3-786c57faf977","system_id":"levelo_inurba_marseille","lat":43.3054,"lon":5.38428,"is_reserved":false,"is_disabled":false,"rental_uris":{"android":"levelo://app?vid=32bd1155-58da-45be-b4a3-786c57faf977","ios":"levelo://app?vid=32bd1155-58da-45be-b4a3-786c57faf977"},"vehicle_type_id":"4","last_reported":1728749375,"current_range_meters":38800,"station_id":"ce4bgg92rcd13ifvqb30","pricing_plan_id":"cebpf4jnsgd1na2vs0mg"},{"bike_id":"baaf49ad-6587-45be-b11a-cd44a617fcf1","system_id":"levelo_inurba_marseille","lat":43.27997,"lon":5.40007,"is_reserved":false,"is_disabled":false,"rental_uris":{"android":"levelo://app?vid=baaf49ad-6587-45be-b11a-cd44a617fcf1","ios":"levelo://app?vid=baaf49ad-6587-45be-b11a-cd44a617fcf1"},"vehicle_type_id":"4","last_reported":1728749375,"current_range_meters":12000,"station_id":"ce4bho92rcd13ifvqh4g","pricing_plan_id":"cebpf4jnsgd1na2vs0mg"},{"bike_id":"d1ab5e3f-2a17-4f92-b44f-8a4184e5871e","system_id":"levelo_inurba_marseille","lat":43.24808,"lon":5.37458,"is_reserved":false,"is_disabled":false,"rental_uris":{"android":"levelo://app?vid=d1ab5e3f-2a17-4f92-b44f-8a4184e5871e","ios":"levelo://app?vid=d1ab5e3f-2a17-4f92-b44f-8a4184e5871e"},"vehicle_type_id":"4","last_reported":1728749375,"current_range_meters":10800,"station_id":"ce4bhgh2rcd13ifvqfb0","pricing_plan_id":"cebpf4jnsgd1na2vs0mg"},{"bike_id":"f53f4fb9-6e52-425d-83a0-652ff05fd177","system_id":"levelo_inurba_marseille","lat":43.28413,"lon":5.37502,"is_reserved":false,"is_disabled":false,"rental_uris":{"android":"levelo://app?vid=f53f4fb9-6e52-425d-83a0-652ff05fd177","ios":"levelo://app?vid=f53f4fb9-6e52-425d-83a0-652ff05fd177"},"vehicle_type_id":"4","last_reported":1728749375,"current_range_meters":32800,"station_id":"ce4bh412rcd13ifvqds0","pricing_plan_id":"cebpf4jnsgd1na2vs0mg"},{"bike_id":"e4a3467e-fab8-472a-b7be-5d4d1f9882ff","system_id":"levelo_inurba_marseille","lat":43.31358,"lon":5.36709,"is_reserved":false,"is_disabled":false,"rental_uris":{"android":"levelo://app?vid=e4a3467e-fab8-472a-b7be-5d4d1f9882ff","ios":"levelo://app?vid=e4a3467e-fab8-472a-b7be-5d4d1f9882ff"},"vehicle_type_id":"4","last_reported":1728749375,"current_range_meters":38000,"station_id":"ce4bgr92rcd13ifvqc6g","pricing_plan_id":"cebpf4jnsgd1na2vs0mg"},{"bike_id":"93c0f3ba-6e12-482b-ab7e-289360e9ab3c","system_id":"levelo_inurba_marseille","lat":43.28661,"lon":5.36352,"is_reserved":false,"is_disabled":false,"rental_uris":{"android":"levelo://app?vid=93c0f3ba-6e12-482b-ab7e-289360e9ab3c","ios":"levelo://app?vid=93c0f3ba-6e12-482b-ab7e-289360e9ab3c"},"vehicle_type_id":"4","last_reported":1728749375,"current_range_meters":33600,"station_id":"ce4bhah2rcd13ifvqej0","pricing_plan_id":"cebpf4jnsgd1na2vs0mg"},{"bike_id":"99100f06-c397-48b7-b87b-1b8bddb1d7d1","system_id":"levelo_inurba_marseille","lat":43.28468,"lon":5.38413,"is_reserved":false,"is_disabled":false,"rental_uris":{"android":"levelo://app?vid=99100f06-c397-48b7-b87b-1b8bddb1d7d1","ios":"levelo://app?vid=99100f06-c397-48b7-b87b-1b8bddb1d7d1"},"vehicle_type_id":"4","last_reported":1728749375,"current_range_meters":5600,"station_id":"ce4bh512rcd13ifvqe3g","pricing_plan_id":"cebpf4jnsgd1na2vs0mg"},{"bike_id":"30fa29f6-99b6-43bc-abfc-62873fbefb16","system_id":"levelo_inurba_marseille","lat":43.22932,"lon":5.35375,"is_reserved":false,"is_disabled":false,"rental_uris":{"android":"levelo://app?vid=30fa29f6-99b6-43bc-abfc-62873fbefb16","ios":"levelo://app?vid=30fa29f6-99b6-43bc-abfc-62873fbefb16"},"vehicle_type_id":"4","last_reported":1728749375,"current_range_meters":9200,"station_id":"cpo3532slgdg3j2ikp40","pricing_plan_id":"cebpf4jnsgd1na2vs0mg"},{"bike_id":"a07f585e-3484-40df-b0ec-ae33855567f1","system_id":"levelo_inurba_marseille","lat":43.27676,"lon":5.38877,"is_reserved":false,"is_disabled":false,"rental_uris":{"android":"levelo://app?vid=a07f585e-3484-40df-b0ec-ae33855567f1","ios":"levelo://app?vid=a07f585e-3484-40df-b0ec-ae33855567f1"},"vehicle_type_id":"4","last_reported":1728749375,"current_range_meters":22000,"station_id":"ce4bhi12rcd13ifvqfo0","pricing_plan_id":"cebpf4jnsgd1na2vs0mg"},{"bike_id":"fad1fea0-bac3-4330-8597-1b20baac27f5","system_id":"levelo_inurba_marseille","lat":43.28849,"lon":5.39312,"is_reserved":false,"is_disabled":false,"rental_uris":{"android":"levelo://app?vid=fad1fea0-bac3-4330-8597-1b20baac27f5","ios":"levelo://app?vid=fad1fea0-bac3-4330-8597-1b20baac27f5"},"vehicle_type_id":"4","last_reported":1728749375,"current_range_meters":38000,"station_id":"ce4bh2p2rcd13ifvqdi0","pricing_plan_id":"cebpf4jnsgd1na2vs0mg"},{"bike_id":"62622ce8-5517-46cf-9ec6-064501fd3008","system_id":"levelo_inurba_marseille","lat":43.29577,"lon":5.36738,"is_reserved":false,"is_disabled":false,"rental_uris":{"android":"levelo://app?vid=62622ce8-5517-46cf-9ec6-064501fd3008","ios":"levelo://app?vid=62622ce8-5517-46cf-9ec6-064501fd3008"},"vehicle_type_id":"4","last_reported":1728749375,"current_range_meters":18000,"station_id":"ce4bgph2rcd13ifvqc2g","pricing_plan_id":"cebpf4jnsgd1na2vs0mg"},{"bike_id":"e4f0f21e-0c3d-4d74-b01c-3addb8ce8acf","system_id":"levelo_inurba_marseille","lat":43.28346,"lon":5.38112,"is_reserved":false,"is_disabled":false,"rental_uris":{"android":"levelo://app?vid=e4f0f21e-0c3d-4d74-b01c-3addb8ce8acf","ios":"levelo://app?vid=e4f0f21e-0c3d-4d74-b01c-3addb8ce8acf"},"vehicle_type_id":"4","last_reported":1728749375,"current_range_meters":7200,"station_id":"ce4bh412rcd13ifvqdr0","pricing_plan_id":"cebpf4jnsgd1na2vs0mg"},{"bike_id":"e6336660-e5d0-4336-aab6-9e2081b4b551","system_id":"levelo_inurba_marseille","lat":43.33726,"lon":5.39198,"is_reserved":false,"is_disabled":false,"rental_uris":{"android":"levelo://app?vid=e6336660-e5d0-4336-aab6-9e2081b4b551","ios":"levelo://app?vid=e6336660-e5d0-4336-aab6-9e2081b4b551"},"vehicle_type_id":"4","last_reported":1728749375,"current_range_meters":23200,"station_id":"ce4bhr92rcd13ifvqhsg","pricing_plan_id":"cebpf4jnsgd1na2vs0mg"},{"bike_id":"ab47664c-0450-4138-b005-9b8e1b8810bd","system_id":"levelo_inurba_marseille","lat":43.29578,"lon":5.36739,"is_reserved":false,"is_disabled":false,"rental_uris":{"android":"levelo://app?vid=ab47664c-0450-4138-b005-9b8e1b8810bd","ios":"levelo://app?vid=ab47664c-0450-4138-b005-9b8e1b8810bd"},"vehicle_type_id":"4","last_reported":1728749375,"current_range_meters":38800,"station_id":"ce4bgph2rcd13ifvqc2g","pricing_plan_id":"cebpf4jnsgd1na2vs0mg"},{"bike_id":"bedb9e4a-3550-477a-9ca9-3981b4c82cdd","system_id":"levelo_inurba_marseille","lat":43.25297,"lon":5.40216,"is_reserved":false,"is_disabled":false,"rental_uris":{"android":"levelo://app?vid=bedb9e4a-3550-477a-9ca9-3981b4c82cdd","ios":"levelo://app?vid=bedb9e4a-3550-477a-9ca9-3981b4c82cdd"},"vehicle_type_id":"4","last_reported":1728749375,"current_range_meters":2000,"station_id":"","pricing_plan_id":"cebpf4jnsgd1na2vs0mg"},{"bike_id":"8fe8aa96-9d30-4c4c-b911-77ddb0f9b595","system_id":"levelo_inurba_marseille","lat":43.29619,"lon":5.37153,"is_reserved":false,"is_disabled":false,"rental_uris":{"android":"levelo://app?vid=8fe8aa96-9d30-4c4c-b911-77ddb0f9b595","ios":"levelo://app?vid=8fe8aa96-9d30-4c4c-b911-77ddb0f9b595"},"vehicle_type_id":"4","last_reported":1728749375,"current_range_meters":39200,"station_id":"ce4bgnh2rcd13ifvqc0g","pricing_plan_id":"cebpf4jnsgd1na2vs0mg"},{"bike_id":"61b53570-b52f-4405-8b6f-5bef45ed2ae9","system_id":"levelo_inurba_marseille","lat":43.2936,"lon":5.37835,"is_reserved":false,"is_disabled":false,"rental_uris":{"android":"levelo://app?vid=61b53570-b52f-4405-8b6f-5bef45ed2ae9","ios":"levelo://app?vid=61b53570-b52f-4405-8b6f-5bef45ed2ae9"},"vehicle_type_id":"4","last_reported":1728749375,"current_range_meters":9600,"station_id":"ce4bgjh2rcd13ifvqbf0","pricing_plan_id":"cebpf4jnsgd1na2vs0mg"},{"bike_id":"55582e1e-1cd8-4e96-933c-025471d1c473","system_id":"levelo_inurba_marseille","lat":43.26933,"lon":5.38934,"is_reserved":false,"is_disabled":false,"rental_uris":{"android":"levelo://app?vid=55582e1e-1cd8-4e96-933c-025471d1c473","ios":"levelo://app?vid=55582e1e-1cd8-4e96-933c-025471d1c473"},"vehicle_type_id":"4","last_reported":1728749375,"current_range_meters":10000,"station_id":"ce4bhhh2rcd13ifvqfl0","pricing_plan_id":"cebpf4jnsgd1na2vs0mg"},{"bike_id":"0350a35a-eb89-4df2-b964-a2a9cda65013","system_id":"levelo_inurba_marseille","lat":43.26058,"lon":5.394,"is_reserved":false,"is_disabled":false,"rental_uris":{"android":"levelo://app?vid=0350a35a-eb89-4df2-b964-a2a9cda65013","ios":"levelo://app?vid=0350a35a-eb89-4df2-b964-a2a9cda65013"},"vehicle_type_id":"4","last_reported":1728749375,"current_range_meters":34000,"station_id":"ce4bhh92rcd13ifvqfj0","pricing_plan_id":"cebpf4jnsgd1na2vs0mg"},{"bike_id":"501db06c-b8f9-4193-86d3-9b3aec374ced","system_id":"levelo_inurba_marseille","lat":43.29574,"lon":5.37521,"is_reserved":false,"is_disabled":false,"rental_uris":{"android":"levelo://app?vid=501db06c-b8f9-4193-86d3-9b3aec374ced","ios":"levelo://app?vid=501db06c-b8f9-4193-86d3-9b3aec374ced"},"vehicle_type_id":"4","last_reported":1728749375,"current_range_meters":38000,"station_id":"ce4bgh92rcd13ifvqb50","pricing_plan_id":"cebpf4jnsgd1na2vs0mg"},{"bike_id":"ee051660-567f-455b-962a-2f2ee930e880","system_id":"levelo_inurba_marseille","lat":43.29792,"lon":5.38126,"is_reserved":false,"is_disabled":false,"rental_uris":{"android":"levelo://app?vid=ee051660-567f-455b-962a-2f2ee930e880","ios":"levelo://app?vid=ee051660-567f-455b-962a-2f2ee930e880"},"vehicle_type_id":"4","last_reported":1728749375,"current_range_meters":37600,"station_id":"ce4bgip2rcd13ifvqbb0","pricing_plan_id":"cebpf4jnsgd1na2vs0mg"},{"bike_id":"17f0a58b-fa96-470d-a1b0-89c2a0c2bfbe","system_id":"levelo_inurba_marseille","lat":43.23189,"lon":5.3555,"is_reserved":false,"is_disabled":false,"rental_uris":{"android":"levelo://app?vid=17f0a58b-fa96-470d-a1b0-89c2a0c2bfbe","ios":"levelo://app?vid=17f0a58b-fa96-470d-a1b0-89c2a0c2bfbe"},"vehicle_type_id":"4","last_reported":1728749375,"current_range_meters":23200,"station_id":"ce4bhu92rcd13ifvqi70","pricing_plan_id":"cebpf4jnsgd1na2vs0mg"},{"bike_id":"22c1a906-1aa6-4ebb-b567-4c04aa2b7e60","system_id":"levelo_inurba_marseille","lat":43.30558,"lon":5.36537,"is_reserved":false,"is_disabled":false,"rental_uris":{"android":"levelo://app?vid=22c1a906-1aa6-4ebb-b567-4c04aa2b7e60","ios":"levelo://app?vid=22c1a906-1aa6-4ebb-b567-4c04aa2b7e60"},"vehicle_type_id":"4","last_reported":1728749375,"current_range_meters":14800,"station_id":"ce4bgs12rcd13ifvqcag","pricing_plan_id":"cebpf4jnsgd1na2vs0mg"},{"bike_id":"056a0a27-af60-4335-8b8a-e9af7dceff45","system_id":"levelo_inurba_marseille","lat":43.30549,"lon":5.36707,"is_reserved":false,"is_disabled":false,"rental_uris":{"android":"levelo://app?vid=056a0a27-af60-4335-8b8a-e9af7dceff45","ios":"levelo://app?vid=056a0a27-af60-4335-8b8a-e9af7dceff45"},"vehicle_type_id":"4","last_reported":1728749375,"current_range_meters":38800,"station_id":"ce4bgrp2rcd13ifvqc9g","pricing_plan_id":"cebpf4jnsgd1na2vs0mg"},{"bike_id":"b4fe6d13-1615-4b86-8f32-872b8b25da13","system_id":"levelo_inurba_marseille","lat":43.28463,"lon":5.35901,"is_reserved":false,"is_disabled":false,"rental_uris":{"android":"levelo://app?vid=b4fe6d13-1615-4b86-8f32-872b8b25da13","ios":"levelo://app?vid=b4fe6d13-1615-4b86-8f32-872b8b25da13"},"vehicle_type_id":"4","last_reported":1728749375,"current_range_meters":10800,"station_id":"ce4bhah2rcd13ifvqei0","pricing_plan_id":"cebpf4jnsgd1na2vs0mg"},{"bike_id":"0383fd16-e9b8-4410-b536-493a9708d1c6","system_id":"levelo_inurba_marseille","lat":43.33026,"lon":5.39033,"is_reserved":false,"is_disabled":false,"rental_uris":{"android":"levelo://app?vid=0383fd16-e9b8-4410-b536-493a9708d1c6","ios":"levelo://app?vid=0383fd16-e9b8-4410-b536-493a9708d1c6"},"vehicle_type_id":"4","last_reported":1728749375,"current_range_meters":16000,"station_id":"ce4bhr92rcd13ifvqhrg","pricing_plan_id":"cebpf4jnsgd1na2vs0mg"},{"bike_id":"b25409bc-df4d-476a-893e-c6a5838692b2","system_id":"levelo_inurba_marseille","lat":43.23195,"lon":5.35553,"is_reserved":false,"is_disabled":false,"rental_uris":{"android":"levelo://app?vid=b25409bc-df4d-476a-893e-c6a5838692b2","ios":"levelo://app?vid=b25409bc-df4d-476a-893e-c6a5838692b2"},"vehicle_type_id":"4","last_reported":1728749375,"current_range_meters":39200,"station_id":"ce4bhu92rcd13ifvqi70","pricing_plan_id":"cebpf4jnsgd1na2vs0mg"},{"bike_id":"e640d8b5-8e62-42a3-a280-762a3161a760","system_id":"levelo_inurba_marseille","lat":43.29075,"lon":5.37167,"is_reserved":false,"is_disabled":false,"rental_uris":{"android":"levelo://app?vid=e640d8b5-8e62-42a3-a280-762a3161a760","ios":"levelo://app?vid=e640d8b5-8e62-42a3-a280-762a3161a760"},"vehicle_type_id":"4","last_reported":1728749375,"current_range_meters":16400,"station_id":"ce4bh5p2rcd13ifvqe4g","pricing_plan_id":"cebpf4jnsgd1na2vs0mg"},{"bike_id":"8fb2b431-bcb9-46ba-80fb-e26e84592fc5","system_id":"levelo_inurba_marseille","lat":43.23192,"lon":5.35555,"is_reserved":false,"is_disabled":false,"rental_uris":{"android":"levelo://app?vid=8fb2b431-bcb9-46ba-80fb-e26e84592fc5","ios":"levelo://app?vid=8fb2b431-bcb9-46ba-80fb-e26e84592fc5"},"vehicle_type_id":"4","last_reported":1728749375,"current_range_meters":30800,"station_id":"ce4bhu92rcd13ifvqi70","pricing_plan_id":"cebpf4jnsgd1na2vs0mg"},{"bike_id":"3b838b7d-61e5-4ebf-a7bc-5955890a35ae","system_id":"levelo_inurba_marseille","lat":43.29623,"lon":5.3716,"is_reserved":false,"is_disabled":false,"rental_uris":{"android":"levelo://app?vid=3b838b7d-61e5-4ebf-a7bc-5955890a35ae","ios":"levelo://app?vid=3b838b7d-61e5-4ebf-a7bc-5955890a35ae"},"vehicle_type_id":"4","last_reported":1728749375,"current_range_meters":15200,"station_id":"ce4bgnh2rcd13ifvqc0g","pricing_plan_id":"cebpf4jnsgd1na2vs0mg"},{"bike_id":"e2f25126-29b7-4581-a4fe-9e458716fb1d","system_id":"levelo_inurba_marseille","lat":43.239573,"lon":5.366327,"is_reserved":false,"is_disabled":false,"rental_uris":{"android":"levelo://app?vid=e2f25126-29b7-4581-a4fe-9e458716fb1d","ios":"levelo://app?vid=e2f25126-29b7-4581-a4fe-9e458716fb1d"},"vehicle_type_id":"4","last_reported":1728749375,"current_range_meters":28000,"station_id":"ce4bhi12rcd13ifvqfp0","pricing_plan_id":"cebpf4jnsgd1na2vs0mg"},{"bike_id":"eac55711-30d0-4672-9fdf-194c98293c8f","system_id":"levelo_inurba_marseille","lat":43.29848,"lon":5.36286,"is_reserved":false,"is_disabled":false,"rental_uris":{"android":"levelo://app?vid=eac55711-30d0-4672-9fdf-194c98293c8f","ios":"levelo://app?vid=eac55711-30d0-4672-9fdf-194c98293c8f"},"vehicle_type_id":"4","last_reported":1728749375,"current_range_meters":38800,"station_id":"ce4bgpp2rcd13ifvqc3g","pricing_plan_id":"cebpf4jnsgd1na2vs0mg"},{"bike_id":"8dc8b5c8-f938-440d-b2c2-9a921dbd5488","system_id":"levelo_inurba_marseille","lat":43.26933,"lon":5.38911,"is_reserved":false,"is_disabled":false,"rental_uris":{"android":"levelo://app?vid=8dc8b5c8-f938-440d-b2c2-9a921dbd5488","ios":"levelo://app?vid=8dc8b5c8-f938-440d-b2c2-9a921dbd5488"},"vehicle_type_id":"4","last_reported":1728749375,"current_range_meters":38800,"station_id":"ce4bhhh2rcd13ifvqfl0","pricing_plan_id":"cebpf4jnsgd1na2vs0mg"},{"bike_id":"e6d95782-3d20-4b54-bda7-485ef01c4d65","system_id":"levelo_inurba_marseille","lat":43.27436,"lon":5.39428,"is_reserved":false,"is_disabled":false,"rental_uris":{"android":"levelo://app?vid=e6d95782-3d20-4b54-bda7-485ef01c4d65","ios":"levelo://app?vid=e6d95782-3d20-4b54-bda7-485ef01c4d65"},"vehicle_type_id":"4","last_reported":1728749375,"current_range_meters":38800,"station_id":"ce4bhdp2rcd13ifvqf20","pricing_plan_id":"cebpf4jnsgd1na2vs0mg"},{"bike_id":"972e1e50-2e1e-454f-8635-5ea35f00e6a7","system_id":"levelo_inurba_marseille","lat":43.30468,"lon":5.40184,"is_reserved":false,"is_disabled":false,"rental_uris":{"android":"levelo://app?vid=972e1e50-2e1e-454f-8635-5ea35f00e6a7","ios":"levelo://app?vid=972e1e50-2e1e-454f-8635-5ea35f00e6a7"},"vehicle_type_id":"4","last_reported":1728749375,"current_range_meters":36800,"station_id":"","pricing_plan_id":"cebpf4jnsgd1na2vs0mg"},{"bike_id":"31cec4d5-fc46-4d30-b195-48c7381fa4a7","system_id":"levelo_inurba_marseille","lat":43.29004,"lon":5.3562,"is_reserved":false,"is_disabled":false,"rental_uris":{"android":"levelo://app?vid=31cec4d5-fc46-4d30-b195-48c7381fa4a7","ios":"levelo://app?vid=31cec4d5-fc46-4d30-b195-48c7381fa4a7"},"vehicle_type_id":"4","last_reported":1728749375,"current_range_meters":8000,"station_id":"ce4bhb92rcd13ifvqen0","pricing_plan_id":"cebpf4jnsgd1na2vs0mg"},{"bike_id":"1904b3e2-0c52-4d36-8b7f-38e52d106852","system_id":"levelo_inurba_marseille","lat":43.30531,"lon":5.3672,"is_reserved":false,"is_disabled":false,"rental_uris":{"android":"levelo://app?vid=1904b3e2-0c52-4d36-8b7f-38e52d106852","ios":"levelo://app?vid=1904b3e2-0c52-4d36-8b7f-38e52d106852"},"vehicle_type_id":"4","last_reported":1728749375,"current_range_meters":38000,"station_id":"ce4bgrp2rcd13ifvqc9g","pricing_plan_id":"cebpf4jnsgd1na2vs0mg"},{"bike_id":"b3b2de45-6e13-4551-8667-b0149c47447a","system_id":"levelo_inurba_marseille","lat":43.23156,"lon":5.437,"is_reserved":false,"is_disabled":false,"rental_uris":{"android":"levelo://app?vid=b3b2de45-6e13-4551-8667-b0149c47447a","ios":"levelo://app?vid=b3b2de45-6e13-4551-8667-b0149c47447a"},"vehicle_type_id":"4","last_reported":1728749375,"current_range_meters":19600,"station_id":"ce4bhmp2rcd13ifvqgog","pricing_plan_id":"cebpf4jnsgd1na2vs0mg"},{"bike_id":"f5c43ebf-2a33-4a15-a797-5081e854f886","system_id":"levelo_inurba_marseille","lat":43.24545,"lon":5.39523,"is_reserved":false,"is_disabled":false,"rental_uris":{"android":"levelo://app?vid=f5c43ebf-2a33-4a15-a797-5081e854f886","ios":"levelo://app?vid=f5c43ebf-2a33-4a15-a797-5081e854f886"},"vehicle_type_id":"4","last_reported":1728749375,"current_range_meters":4400,"station_id":"ce4bhlp2rcd13ifvqgjg","pricing_plan_id":"cebpf4jnsgd1na2vs0mg"},{"bike_id":"e6049eb7-a913-4c30-b891-92576278de4c","system_id":"levelo_inurba_marseille","lat":43.24803,"lon":5.37451,"is_reserved":false,"is_disabled":false,"rental_uris":{"android":"levelo://app?vid=e6049eb7-a913-4c30-b891-92576278de4c","ios":"levelo://app?vid=e6049eb7-a913-4c30-b891-92576278de4c"},"vehicle_type_id":"4","last_reported":1728749375,"current_range_meters":32400,"station_id":"ce4bhgh2rcd13ifvqfb0","pricing_plan_id":"cebpf4jnsgd1na2vs0mg"},{"bike_id":"64d3378c-e0ea-4570-8db3-f47dc1281eb5","system_id":"levelo_inurba_marseille","lat":43.24803,"lon":5.3745,"is_reserved":false,"is_disabled":false,"rental_uris":{"android":"levelo://app?vid=64d3378c-e0ea-4570-8db3-f47dc1281eb5","ios":"levelo://app?vid=64d3378c-e0ea-4570-8db3-f47dc1281eb5"},"vehicle_type_id":"4","last_reported":1728749375,"current_range_meters":9600,"station_id":"ce4bhgh2rcd13ifvqfb0","pricing_plan_id":"cebpf4jnsgd1na2vs0mg"},{"bike_id":"3995ecb7-d449-4ee1-8785-e5517cffed3d","system_id":"levelo_inurba_marseille","lat":43.27561,"lon":5.38423,"is_reserved":false,"is_disabled":false,"rental_uris":{"android":"levelo://app?vid=3995ecb7-d449-4ee1-8785-e5517cffed3d","ios":"levelo://app?vid=3995ecb7-d449-4ee1-8785-e5517cffed3d"},"vehicle_type_id":"4","last_reported":1728749375,"current_range_meters":38800,"station_id":"ce4bhh92rcd13ifvqfi0","pricing_plan_id":"cebpf4jnsgd1na2vs0mg"},{"bike_id":"74b1faaa-befe-426d-9eeb-8893e46be489","system_id":"levelo_inurba_marseille","lat":43.30301,"lon":5.39208,"is_reserved":false,"is_disabled":false,"rental_uris":{"android":"levelo://app?vid=74b1faaa-befe-426d-9eeb-8893e46be489","ios":"levelo://app?vid=74b1faaa-befe-426d-9eeb-8893e46be489"},"vehicle_type_id":"4","last_reported":1728749375,"current_range_meters":8400,"station_id":"ce4bgkh2rcd13ifvqbk0","pricing_plan_id":"cebpf4jnsgd1na2vs0mg"},{"bike_id":"333a6d74-2798-479a-841e-b7857dc38d5d","system_id":"levelo_inurba_marseille","lat":43.28106,"lon":5.37849,"is_reserved":false,"is_disabled":false,"rental_uris":{"android":"levelo://app?vid=333a6d74-2798-479a-841e-b7857dc38d5d","ios":"levelo://app?vid=333a6d74-2798-479a-841e-b7857dc38d5d"},"vehicle_type_id":"4","last_reported":1728749375,"current_range_meters":20800,"station_id":"ce4bha12rcd13ifvqee0","pricing_plan_id":"cebpf4jnsgd1na2vs0mg"},{"bike_id":"19e0e40e-63be-4804-b3b8-2787230e9bca","system_id":"levelo_inurba_marseille","lat":43.2962,"lon":5.37165,"is_reserved":false,"is_disabled":false,"rental_uris":{"android":"levelo://app?vid=19e0e40e-63be-4804-b3b8-2787230e9bca","ios":"levelo://app?vid=19e0e40e-63be-4804-b3b8-2787230e9bca"},"vehicle_type_id":"4","last_reported":1728749375,"current_range_meters":38800,"station_id":"ce4bgnh2rcd13ifvqc0g","pricing_plan_id":"cebpf4jnsgd1na2vs0mg"},{"bike_id":"b9a64df2-122d-44d5-b6d8-c291946ea5f0","system_id":"levelo_inurba_marseille","lat":43.2923,"lon":5.36077,"is_reserved":false,"is_disabled":false,"rental_uris":{"android":"levelo://app?vid=b9a64df2-122d-44d5-b6d8-c291946ea5f0","ios":"levelo://app?vid=b9a64df2-122d-44d5-b6d8-c291946ea5f0"},"vehicle_type_id":"4","last_reported":1728749375,"current_range_meters":30400,"station_id":"ce4bhbh2rcd13ifvqeqg","pricing_plan_id":"cebpf4jnsgd1na2vs0mg"},{"bike_id":"a3b990e1-d55b-440c-9480-31946d2d9e8e","system_id":"levelo_inurba_marseille","lat":43.29786,"lon":5.37112,"is_reserved":false,"is_disabled":false,"rental_uris":{"android":"levelo://app?vid=a3b990e1-d55b-440c-9480-31946d2d9e8e","ios":"levelo://app?vid=a3b990e1-d55b-440c-9480-31946d2d9e8e"},"vehicle_type_id":"4","last_reported":1728749375,"current_range_meters":37600,"station_id":"ce4bgop2rcd13ifvqc1g","pricing_plan_id":"cebpf4jnsgd1na2vs0mg"},{"bike_id":"5cbb7ada-0830-4b0b-bae4-0033737e1a0c","system_id":"levelo_inurba_marseille","lat":43.297943,"lon":5.380873,"is_reserved":false,"is_disabled":false,"rental_uris":{"android":"levelo://app?vid=5cbb7ada-0830-4b0b-bae4-0033737e1a0c","ios":"levelo://app?vid=5cbb7ada-0830-4b0b-bae4-0033737e1a0c"},"vehicle_type_id":"4","last_reported":1728749375,"current_range_meters":35200,"station_id":"ce4bgip2rcd13ifvqbb0","pricing_plan_id":"cebpf4jnsgd1na2vs0mg"},{"bike_id":"133f35eb-be84-49cf-8db4-2afb09de71e4","system_id":"levelo_inurba_marseille","lat":43.31355,"lon":5.36713,"is_reserved":false,"is_disabled":false,"rental_uris":{"android":"levelo://app?vid=133f35eb-be84-49cf-8db4-2afb09de71e4","ios":"levelo://app?vid=133f35eb-be84-49cf-8db4-2afb09de71e4"},"vehicle_type_id":"4","last_reported":1728749375,"current_range_meters":37600,"station_id":"ce4bgr92rcd13ifvqc6g","pricing_plan_id":"cebpf4jnsgd1na2vs0mg"},{"bike_id":"d7213e9f-e259-4043-a9b0-926d0b5839fd","system_id":"levelo_inurba_marseille","lat":43.299727,"lon":5.384957,"is_reserved":false,"is_disabled":false,"rental_uris":{"android":"levelo://app?vid=d7213e9f-e259-4043-a9b0-926d0b5839fd","ios":"levelo://app?vid=d7213e9f-e259-4043-a9b0-926d0b5839fd"},"vehicle_type_id":"4","last_reported":1728749375,"current_range_meters":38800,"station_id":"ce4bgj92rcd13ifvqbd0","pricing_plan_id":"cebpf4jnsgd1na2vs0mg"},{"bike_id":"cf0f704e-a23b-44fc-83ee-0e52b6b85b67","system_id":"levelo_inurba_marseille","lat":43.29517,"lon":5.39402,"is_reserved":false,"is_disabled":false,"rental_uris":{"android":"levelo://app?vid=cf0f704e-a23b-44fc-83ee-0e52b6b85b67","ios":"levelo://app?vid=cf0f704e-a23b-44fc-83ee-0e52b6b85b67"},"vehicle_type_id":"4","last_reported":1728749375,"current_range_meters":32000,"station_id":"ce4bh292rcd13ifvqdf0","pricing_plan_id":"cebpf4jnsgd1na2vs0mg"},{"bike_id":"3fb0b7aa-5417-46e4-a111-4a706fec7cd6","system_id":"levelo_inurba_marseille","lat":43.26547,"lon":5.3729,"is_reserved":false,"is_disabled":false,"rental_uris":{"android":"levelo://app?vid=3fb0b7aa-5417-46e4-a111-4a706fec7cd6","ios":"levelo://app?vid=3fb0b7aa-5417-46e4-a111-4a706fec7cd6"},"vehicle_type_id":"4","last_reported":1728749375,"current_range_meters":36800,"station_id":"ce4bhg12rcd13ifvqf70","pricing_plan_id":"cebpf4jnsgd1na2vs0mg"},{"bike_id":"5ab70f1b-3f2c-4f8b-a0cc-cdba02fd83d4","system_id":"levelo_inurba_marseille","lat":43.32492,"lon":5.36561,"is_reserved":false,"is_disabled":false,"rental_uris":{"android":"levelo://app?vid=5ab70f1b-3f2c-4f8b-a0cc-cdba02fd83d4","ios":"levelo://app?vid=5ab70f1b-3f2c-4f8b-a0cc-cdba02fd83d4"},"vehicle_type_id":"4","last_reported":1728749375,"current_range_meters":32000,"station_id":"ce4bhs12rcd13ifvqhvg","pricing_plan_id":"cebpf4jnsgd1na2vs0mg"},{"bike_id":"82b1435a-84e5-4132-9004-bbe5f834e986","system_id":"levelo_inurba_marseille","lat":43.29571,"lon":5.39974,"is_reserved":false,"is_disabled":false,"rental_uris":{"android":"levelo://app?vid=82b1435a-84e5-4132-9004-bbe5f834e986","ios":"levelo://app?vid=82b1435a-84e5-4132-9004-bbe5f834e986"},"vehicle_type_id":"4","last_reported":1728749375,"current_range_meters":9600,"station_id":"ce4bh312rcd13ifvqdj0","pricing_plan_id":"cebpf4jnsgd1na2vs0mg"},{"bike_id":"4ef6fcc8-e29f-4f7b-bfb6-492772c7e8d5","system_id":"levelo_inurba_marseille","lat":43.26204,"lon":5.37925,"is_reserved":false,"is_disabled":false,"rental_uris":{"android":"levelo://app?vid=4ef6fcc8-e29f-4f7b-bfb6-492772c7e8d5","ios":"levelo://app?vid=4ef6fcc8-e29f-4f7b-bfb6-492772c7e8d5"},"vehicle_type_id":"4","last_reported":1728749375,"current_range_meters":39200,"station_id":"ce4bhjp2rcd13ifvqg90","pricing_plan_id":"cebpf4jnsgd1na2vs0mg"},{"bike_id":"226f67a9-6412-4cd8-9fe6-13d70400db8a","system_id":"levelo_inurba_marseille","lat":43.304499,"lon":5.378546,"is_reserved":false,"is_disabled":false,"rental_uris":{"android":"levelo://app?vid=226f67a9-6412-4cd8-9fe6-13d70400db8a","ios":"levelo://app?vid=226f67a9-6412-4cd8-9fe6-13d70400db8a"},"vehicle_type_id":"4","last_reported":1728749375,"current_range_meters":3600,"station_id":"ce4bgup2rcd13ifvqcn0","pricing_plan_id":"cebpf4jnsgd1na2vs0mg"},{"bike_id":"092b0836-7fc6-4398-a8ce-013142346652","system_id":"levelo_inurba_marseille","lat":43.29557,"lon":5.42289,"is_reserved":false,"is_disabled":false,"rental_uris":{"android":"levelo://app?vid=092b0836-7fc6-4398-a8ce-013142346652","ios":"levelo://app?vid=092b0836-7fc6-4398-a8ce-013142346652"},"vehicle_type_id":"4","last_reported":1728749375,"current_range_meters":16400,"station_id":"ce4bhph2rcd13ifvqhdg","pricing_plan_id":"cebpf4jnsgd1na2vs0mg"},{"bike_id":"5215c02b-9ef4-43e3-a63b-5be648682d97","system_id":"levelo_inurba_marseille","lat":43.29269,"lon":5.36849,"is_reserved":false,"is_disabled":false,"rental_uris":{"android":"levelo://app?vid=5215c02b-9ef4-43e3-a63b-5be648682d97","ios":"levelo://app?vid=5215c02b-9ef4-43e3-a63b-5be648682d97"},"vehicle_type_id":"4","last_reported":1728749375,"current_range_meters":4800,"station_id":"ce4bhbp2rcd13ifvqesg","pricing_plan_id":"cebpf4jnsgd1na2vs0mg"},{"bike_id":"0e05ad9f-cdae-4c0b-871f-37599bddacee","system_id":"levelo_inurba_marseille","lat":43.29076,"lon":5.37167,"is_reserved":false,"is_disabled":false,"rental_uris":{"android":"levelo://app?vid=0e05ad9f-cdae-4c0b-871f-37599bddacee","ios":"levelo://app?vid=0e05ad9f-cdae-4c0b-871f-37599bddacee"},"vehicle_type_id":"4","last_reported":1728749375,"current_range_meters":23200,"station_id":"ce4bh5p2rcd13ifvqe4g","pricing_plan_id":"cebpf4jnsgd1na2vs0mg"},{"bike_id":"d0651a74-94b8-4487-bb06-15aba081fe2c","system_id":"levelo_inurba_marseille","lat":43.24652,"lon":5.38897,"is_reserved":false,"is_disabled":false,"rental_uris":{"android":"levelo://app?vid=d0651a74-94b8-4487-bb06-15aba081fe2c","ios":"levelo://app?vid=d0651a74-94b8-4487-bb06-15aba081fe2c"},"vehicle_type_id":"4","last_reported":1728749375,"current_range_meters":19600,"station_id":"ce4bhg12rcd13ifvqf60","pricing_plan_id":"cebpf4jnsgd1na2vs0mg"},{"bike_id":"ba683a66-bc5f-42b6-85bb-0f00dad8b260","system_id":"levelo_inurba_marseille","lat":43.26939,"lon":5.38915,"is_reserved":false,"is_disabled":false,"rental_uris":{"android":"levelo://app?vid=ba683a66-bc5f-42b6-85bb-0f00dad8b260","ios":"levelo://app?vid=ba683a66-bc5f-42b6-85bb-0f00dad8b260"},"vehicle_type_id":"4","last_reported":1728749375,"current_range_meters":38800,"station_id":"ce4bhhh2rcd13ifvqfl0","pricing_plan_id":"cebpf4jnsgd1na2vs0mg"},{"bike_id":"1db455cd-57ef-4a47-a30a-353a9feeb44b","system_id":"levelo_inurba_marseille","lat":43.2549,"lon":5.37646,"is_reserved":false,"is_disabled":false,"rental_uris":{"android":"levelo://app?vid=1db455cd-57ef-4a47-a30a-353a9feeb44b","ios":"levelo://app?vid=1db455cd-57ef-4a47-a30a-353a9feeb44b"},"vehicle_type_id":"4","last_reported":1728749375,"current_range_meters":36800,"station_id":"ce4bhh12rcd13ifvqff0","pricing_plan_id":"cebpf4jnsgd1na2vs0mg"},{"bike_id":"c12cb0d6-db93-4418-b913-57eec8fad5ea","system_id":"levelo_inurba_marseille","lat":43.27941,"lon":5.41058,"is_reserved":false,"is_disabled":false,"rental_uris":{"android":"levelo://app?vid=c12cb0d6-db93-4418-b913-57eec8fad5ea","ios":"levelo://app?vid=c12cb0d6-db93-4418-b913-57eec8fad5ea"},"vehicle_type_id":"4","last_reported":1728749375,"current_range_meters":20800,"station_id":"ce4bhnp2rcd13ifvqh0g","pricing_plan_id":"cebpf4jnsgd1na2vs0mg"},{"bike_id":"86ed83e0-1da4-4e1c-b886-47cb78f1e72c","system_id":"levelo_inurba_marseille","lat":43.298944,"lon":5.387454,"is_reserved":false,"is_disabled":false,"rental_uris":{"android":"levelo://app?vid=86ed83e0-1da4-4e1c-b886-47cb78f1e72c","ios":"levelo://app?vid=86ed83e0-1da4-4e1c-b886-47cb78f1e72c"},"vehicle_type_id":"4","last_reported":1728749375,"current_range_meters":14800,"station_id":"ce4bh392rcd13ifvqdl0","pricing_plan_id":"cebpf4jnsgd1na2vs0mg"},{"bike_id":"aad69708-28ac-43e6-945e-619f5a7c6bfd","system_id":"levelo_inurba_marseille","lat":43.33781,"lon":5.37443,"is_reserved":false,"is_disabled":false,"rental_uris":{"android":"levelo://app?vid=aad69708-28ac-43e6-945e-619f5a7c6bfd","ios":"levelo://app?vid=aad69708-28ac-43e6-945e-619f5a7c6bfd"},"vehicle_type_id":"4","last_reported":1728749375,"current_range_meters":37600,"station_id":"","pricing_plan_id":"cebpf4jnsgd1na2vs0mg"},{"bike_id":"909060be-16ac-4f85-99c1-a245975c4b39","system_id":"levelo_inurba_marseille","lat":43.26063,"lon":5.39399,"is_reserved":false,"is_disabled":false,"rental_uris":{"android":"levelo://app?vid=909060be-16ac-4f85-99c1-a245975c4b39","ios":"levelo://app?vid=909060be-16ac-4f85-99c1-a245975c4b39"},"vehicle_type_id":"4","last_reported":1728749375,"current_range_meters":3600,"station_id":"ce4bhh92rcd13ifvqfj0","pricing_plan_id":"cebpf4jnsgd1na2vs0mg"},{"bike_id":"38f8d8fa-22f0-4874-a214-3777dfe7b164","system_id":"levelo_inurba_marseille","lat":43.3033,"lon":5.40436,"is_reserved":false,"is_disabled":false,"rental_uris":{"android":"levelo://app?vid=38f8d8fa-22f0-4874-a214-3777dfe7b164","ios":"levelo://app?vid=38f8d8fa-22f0-4874-a214-3777dfe7b164"},"vehicle_type_id":"4","last_reported":1728749375,"current_range_meters":25600,"station_id":"ce4bh012rcd13ifvqd10","pricing_plan_id":"cebpf4jnsgd1na2vs0mg"},{"bike_id":"5da60a60-14d7-4af7-8365-357176cb210b","system_id":"levelo_inurba_marseille","lat":43.290375,"lon":5.375643,"is_reserved":false,"is_disabled":false,"rental_uris":{"android":"levelo://app?vid=5da60a60-14d7-4af7-8365-357176cb210b","ios":"levelo://app?vid=5da60a60-14d7-4af7-8365-357176cb210b"},"vehicle_type_id":"4","last_reported":1728749375,"current_range_meters":24000,"station_id":"ce4bhh92rcd13ifvqfi0","pricing_plan_id":"cebpf4jnsgd1na2vs0mg"},{"bike_id":"caf01ea7-6241-430c-b6ef-8f83ebdb589c","system_id":"levelo_inurba_marseille","lat":43.27577,"lon":5.38422,"is_reserved":false,"is_disabled":false,"rental_uris":{"android":"levelo://app?vid=caf01ea7-6241-430c-b6ef-8f83ebdb589c","ios":"levelo://app?vid=caf01ea7-6241-430c-b6ef-8f83ebdb589c"},"vehicle_type_id":"4","last_reported":1728749375,"current_range_meters":31200,"station_id":"ce4bhh92rcd13ifvqfi0","pricing_plan_id":"cebpf4jnsgd1na2vs0mg"},{"bike_id":"81cb336a-5e63-4ed3-a7d7-0e5d8927891d","system_id":"levelo_inurba_marseille","lat":43.29036,"lon":5.37567,"is_reserved":false,"is_disabled":false,"rental_uris":{"android":"levelo://app?vid=81cb336a-5e63-4ed3-a7d7-0e5d8927891d","ios":"levelo://app?vid=81cb336a-5e63-4ed3-a7d7-0e5d8927891d"},"vehicle_type_id":"4","last_reported":1728749375,"current_range_meters":38800,"station_id":"ce4bh692rcd13ifvqe90","pricing_plan_id":"cebpf4jnsgd1na2vs0mg"},{"bike_id":"4434b190-fef3-498b-95e3-51d840a4d87c","system_id":"levelo_inurba_marseille","lat":43.30134,"lon":5.39868,"is_reserved":false,"is_disabled":false,"rental_uris":{"android":"levelo://app?vid=4434b190-fef3-498b-95e3-51d840a4d87c","ios":"levelo://app?vid=4434b190-fef3-498b-95e3-51d840a4d87c"},"vehicle_type_id":"4","last_reported":1728749375,"current_range_meters":28800,"station_id":"ce4bh0h2rcd13ifvqd40","pricing_plan_id":"cebpf4jnsgd1na2vs0mg"},{"bike_id":"dbc68946-c891-4683-a222-612ae931f5b8","system_id":"levelo_inurba_marseille","lat":43.278259,"lon":5.392096,"is_reserved":false,"is_disabled":false,"rental_uris":{"android":"levelo://app?vid=dbc68946-c891-4683-a222-612ae931f5b8","ios":"levelo://app?vid=dbc68946-c891-4683-a222-612ae931f5b8"},"vehicle_type_id":"4","last_reported":1728749375,"current_range_meters":28000,"station_id":"ce4bhjp2rcd13ifvqga0","pricing_plan_id":"cebpf4jnsgd1na2vs0mg"},{"bike_id":"e95c1dcf-3473-4d09-95f4-726e791c83ce","system_id":"levelo_inurba_marseille","lat":43.25584,"lon":5.38244,"is_reserved":false,"is_disabled":false,"rental_uris":{"android":"levelo://app?vid=e95c1dcf-3473-4d09-95f4-726e791c83ce","ios":"levelo://app?vid=e95c1dcf-3473-4d09-95f4-726e791c83ce"},"vehicle_type_id":"4","last_reported":1728749375,"current_range_meters":18000,"station_id":"ce4bhih2rcd13ifvqfs0","pricing_plan_id":"cebpf4jnsgd1na2vs0mg"},{"bike_id":"8509fa5d-c6d9-4cb2-b4b1-4f2065b2666e","system_id":"levelo_inurba_marseille","lat":43.28343,"lon":5.41058,"is_reserved":false,"is_disabled":false,"rental_uris":{"android":"levelo://app?vid=8509fa5d-c6d9-4cb2-b4b1-4f2065b2666e","ios":"levelo://app?vid=8509fa5d-c6d9-4cb2-b4b1-4f2065b2666e"},"vehicle_type_id":"4","last_reported":1728749375,"current_range_meters":4400,"station_id":"","pricing_plan_id":"cebpf4jnsgd1na2vs0mg"},{"bike_id":"f3b036a0-1ce6-4f68-8abb-a355707a33f9","system_id":"levelo_inurba_marseille","lat":43.29868,"lon":5.39731,"is_reserved":false,"is_disabled":false,"rental_uris":{"android":"levelo://app?vid=f3b036a0-1ce6-4f68-8abb-a355707a33f9","ios":"levelo://app?vid=f3b036a0-1ce6-4f68-8abb-a355707a33f9"},"vehicle_type_id":"4","last_reported":1728749375,"current_range_meters":6400,"station_id":"ce4bh0h2rcd13ifvqd50","pricing_plan_id":"cebpf4jnsgd1na2vs0mg"},{"bike_id":"a3ea275e-07a6-49a3-b85c-be297ac1b071","system_id":"levelo_inurba_marseille","lat":43.24074,"lon":5.37764,"is_reserved":false,"is_disabled":false,"rental_uris":{"android":"levelo://app?vid=a3ea275e-07a6-49a3-b85c-be297ac1b071","ios":"levelo://app?vid=a3ea275e-07a6-49a3-b85c-be297ac1b071"},"vehicle_type_id":"4","last_reported":1728749375,"current_range_meters":2800,"station_id":"ce4bhnp2rcd13ifvqgvg","pricing_plan_id":"cebpf4jnsgd1na2vs0mg"},{"bike_id":"d1822047-b0bb-483d-a419-c2f300fb3ac6","system_id":"levelo_inurba_marseille","lat":43.24065,"lon":5.37764,"is_reserved":false,"is_disabled":false,"rental_uris":{"android":"levelo://app?vid=d1822047-b0bb-483d-a419-c2f300fb3ac6","ios":"levelo://app?vid=d1822047-b0bb-483d-a419-c2f300fb3ac6"},"vehicle_type_id":"4","last_reported":1728749375,"current_range_meters":24400,"station_id":"ce4bhnp2rcd13ifvqgvg","pricing_plan_id":"cebpf4jnsgd1na2vs0mg"},{"bike_id":"27311a75-ebb6-43d6-9fb5-f3ba72a10e0e","system_id":"levelo_inurba_marseille","lat":43.29899,"lon":5.43656,"is_reserved":false,"is_disabled":false,"rental_uris":{"android":"levelo://app?vid=27311a75-ebb6-43d6-9fb5-f3ba72a10e0e","ios":"levelo://app?vid=27311a75-ebb6-43d6-9fb5-f3ba72a10e0e"},"vehicle_type_id":"4","last_reported":1728749375,"current_range_meters":23200,"station_id":"ce4bhpp2rcd13ifvqhfg","pricing_plan_id":"cebpf4jnsgd1na2vs0mg"},{"bike_id":"da499a84-b98e-4a5b-8c36-fac69794e49c","system_id":"levelo_inurba_marseille","lat":43.29716,"lon":5.37695,"is_reserved":false,"is_disabled":false,"rental_uris":{"android":"levelo://app?vid=da499a84-b98e-4a5b-8c36-fac69794e49c","ios":"levelo://app?vid=da499a84-b98e-4a5b-8c36-fac69794e49c"},"vehicle_type_id":"4","last_reported":1728749375,"current_range_meters":27600,"station_id":"ce4bgkh2rcd13ifvqbl0","pricing_plan_id":"cebpf4jnsgd1na2vs0mg"},{"bike_id":"febaa1fe-2cbb-414d-a22e-d37c36e7c935","system_id":"levelo_inurba_marseille","lat":43.27815,"lon":5.4071,"is_reserved":false,"is_disabled":false,"rental_uris":{"android":"levelo://app?vid=febaa1fe-2cbb-414d-a22e-d37c36e7c935","ios":"levelo://app?vid=febaa1fe-2cbb-414d-a22e-d37c36e7c935"},"vehicle_type_id":"4","last_reported":1728749375,"current_range_meters":36400,"station_id":"ce4bhnh2rcd13ifvqgtg","pricing_plan_id":"cebpf4jnsgd1na2vs0mg"},{"bike_id":"07cfd4fd-4c9f-4a22-98d2-86f13933e51d","system_id":"levelo_inurba_marseille","lat":43.29555,"lon":5.42286,"is_reserved":false,"is_disabled":false,"rental_uris":{"android":"levelo://app?vid=07cfd4fd-4c9f-4a22-98d2-86f13933e51d","ios":"levelo://app?vid=07cfd4fd-4c9f-4a22-98d2-86f13933e51d"},"vehicle_type_id":"4","last_reported":1728749375,"current_range_meters":24800,"station_id":"ce4bhph2rcd13ifvqhdg","pricing_plan_id":"cebpf4jnsgd1na2vs0mg"},{"bike_id":"245fcbf4-9ada-45ed-bbb4-5e3a7af24679","system_id":"levelo_inurba_marseille","lat":43.29798,"lon":5.40404,"is_reserved":false,"is_disabled":false,"rental_uris":{"android":"levelo://app?vid=245fcbf4-9ada-45ed-bbb4-5e3a7af24679","ios":"levelo://app?vid=245fcbf4-9ada-45ed-bbb4-5e3a7af24679"},"vehicle_type_id":"4","last_reported":1728749375,"current_range_meters":32000,"station_id":"ce4bh112rcd13ifvqd90","pricing_plan_id":"cebpf4jnsgd1na2vs0mg"},{"bike_id":"300f0f74-468e-40f0-8e10-64faad95ce88","system_id":"levelo_inurba_marseille","lat":43.30946,"lon":5.39045,"is_reserved":false,"is_disabled":false,"rental_uris":{"android":"levelo://app?vid=300f0f74-468e-40f0-8e10-64faad95ce88","ios":"levelo://app?vid=300f0f74-468e-40f0-8e10-64faad95ce88"},"vehicle_type_id":"4","last_reported":1728749375,"current_range_meters":9600,"station_id":"ce4bgup2rcd13ifvqco0","pricing_plan_id":"cebpf4jnsgd1na2vs0mg"},{"bike_id":"2e73b65c-05eb-4812-845a-932bba9eb19d","system_id":"levelo_inurba_marseille","lat":43.29618,"lon":5.37148,"is_reserved":false,"is_disabled":false,"rental_uris":{"android":"levelo://app?vid=2e73b65c-05eb-4812-845a-932bba9eb19d","ios":"levelo://app?vid=2e73b65c-05eb-4812-845a-932bba9eb19d"},"vehicle_type_id":"4","last_reported":1728749375,"current_range_meters":19600,"station_id":"ce4bgnh2rcd13ifvqc0g","pricing_plan_id":"cebpf4jnsgd1na2vs0mg"},{"bike_id":"54baefa9-fbb4-4f0d-b372-424f5a9c938d","system_id":"levelo_inurba_marseille","lat":43.32485,"lon":5.36561,"is_reserved":false,"is_disabled":false,"rental_uris":{"android":"levelo://app?vid=54baefa9-fbb4-4f0d-b372-424f5a9c938d","ios":"levelo://app?vid=54baefa9-fbb4-4f0d-b372-424f5a9c938d"},"vehicle_type_id":"4","last_reported":1728749375,"current_range_meters":39200,"station_id":"ce4bhs12rcd13ifvqhvg","pricing_plan_id":"cebpf4jnsgd1na2vs0mg"},{"bike_id":"e4a563c4-a5a5-4da9-8dd1-c782a1bc18fe","system_id":"levelo_inurba_marseille","lat":43.26554,"lon":5.37282,"is_reserved":false,"is_disabled":false,"rental_uris":{"android":"levelo://app?vid=e4a563c4-a5a5-4da9-8dd1-c782a1bc18fe","ios":"levelo://app?vid=e4a563c4-a5a5-4da9-8dd1-c782a1bc18fe"},"vehicle_type_id":"4","last_reported":1728749375,"current_range_meters":38800,"station_id":"ce4bhg12rcd13ifvqf70","pricing_plan_id":"cebpf4jnsgd1na2vs0mg"},{"bike_id":"20f06317-6073-4c49-8a22-231ba8100d07","system_id":"levelo_inurba_marseille","lat":43.28032,"lon":5.3696,"is_reserved":false,"is_disabled":false,"rental_uris":{"android":"levelo://app?vid=20f06317-6073-4c49-8a22-231ba8100d07","ios":"levelo://app?vid=20f06317-6073-4c49-8a22-231ba8100d07"},"vehicle_type_id":"4","last_reported":1728749375,"current_range_meters":12800,"station_id":"ce4bha12rcd13ifvqef0","pricing_plan_id":"cebpf4jnsgd1na2vs0mg"},{"bike_id":"7a86ccf0-8763-43b0-b3ca-0d5a2df7225d","system_id":"levelo_inurba_marseille","lat":43.28422,"lon":5.3752,"is_reserved":false,"is_disabled":false,"rental_uris":{"android":"levelo://app?vid=7a86ccf0-8763-43b0-b3ca-0d5a2df7225d","ios":"levelo://app?vid=7a86ccf0-8763-43b0-b3ca-0d5a2df7225d"},"vehicle_type_id":"4","last_reported":1728749375,"current_range_meters":26800,"station_id":"ce4bh412rcd13ifvqds0","pricing_plan_id":"cebpf4jnsgd1na2vs0mg"},{"bike_id":"f0349b43-3e1a-46cd-b1af-951379d5f7e0","system_id":"levelo_inurba_marseille","lat":43.2937,"lon":5.37841,"is_reserved":false,"is_disabled":false,"rental_uris":{"android":"levelo://app?vid=f0349b43-3e1a-46cd-b1af-951379d5f7e0","ios":"levelo://app?vid=f0349b43-3e1a-46cd-b1af-951379d5f7e0"},"vehicle_type_id":"4","last_reported":1728749375,"current_range_meters":1600,"station_id":"ce4bgjh2rcd13ifvqbf0","pricing_plan_id":"cebpf4jnsgd1na2vs0mg"},{"bike_id":"72ade63f-e3f7-44ed-a0d7-5b78be04197b","system_id":"levelo_inurba_marseille","lat":43.30535,"lon":5.36543,"is_reserved":false,"is_disabled":false,"rental_uris":{"android":"levelo://app?vid=72ade63f-e3f7-44ed-a0d7-5b78be04197b","ios":"levelo://app?vid=72ade63f-e3f7-44ed-a0d7-5b78be04197b"},"vehicle_type_id":"4","last_reported":1728749375,"current_range_meters":32400,"station_id":"ce4bgs12rcd13ifvqcag","pricing_plan_id":"cebpf4jnsgd1na2vs0mg"},{"bike_id":"f0aa32d8-4ddd-496a-9571-e8bae9de7c44","system_id":"levelo_inurba_marseille","lat":43.271575,"lon":5.386044,"is_reserved":false,"is_disabled":false,"rental_uris":{"android":"levelo://app?vid=f0aa32d8-4ddd-496a-9571-e8bae9de7c44","ios":"levelo://app?vid=f0aa32d8-4ddd-496a-9571-e8bae9de7c44"},"vehicle_type_id":"4","last_reported":1728749375,"current_range_meters":14000,"station_id":"","pricing_plan_id":"cebpf4jnsgd1na2vs0mg"},{"bike_id":"e8960b91-22e8-41ea-895b-30144552e0d5","system_id":"levelo_inurba_marseille","lat":43.26552,"lon":5.37293,"is_reserved":false,"is_disabled":false,"rental_uris":{"android":"levelo://app?vid=e8960b91-22e8-41ea-895b-30144552e0d5","ios":"levelo://app?vid=e8960b91-22e8-41ea-895b-30144552e0d5"},"vehicle_type_id":"4","last_reported":1728749375,"current_range_meters":38800,"station_id":"ce4bhg12rcd13ifvqf70","pricing_plan_id":"cebpf4jnsgd1na2vs0mg"},{"bike_id":"3b2e55c3-662a-40b8-9774-1a39486344eb","system_id":"levelo_inurba_marseille","lat":43.32535,"lon":5.41448,"is_reserved":false,"is_disabled":false,"rental_uris":{"android":"levelo://app?vid=3b2e55c3-662a-40b8-9774-1a39486344eb","ios":"levelo://app?vid=3b2e55c3-662a-40b8-9774-1a39486344eb"},"vehicle_type_id":"4","last_reported":1728749375,"current_range_meters":4400,"station_id":"ce4bhq12rcd13ifvqhhg","pricing_plan_id":"cebpf4jnsgd1na2vs0mg"},{"bike_id":"06254218-f69e-4075-87f9-1812a5e73a7f","system_id":"levelo_inurba_marseille","lat":43.29188,"lon":5.35819,"is_reserved":false,"is_disabled":false,"rental_uris":{"android":"levelo://app?vid=06254218-f69e-4075-87f9-1812a5e73a7f","ios":"levelo://app?vid=06254218-f69e-4075-87f9-1812a5e73a7f"},"vehicle_type_id":"4","last_reported":1728749375,"current_range_meters":4400,"station_id":"ce4bhb12rcd13ifvqel0","pricing_plan_id":"cebpf4jnsgd1na2vs0mg"},{"bike_id":"a799b24c-0726-4b4b-9df3-2653e7e55535","system_id":"levelo_inurba_marseille","lat":43.30145,"lon":5.38793,"is_reserved":false,"is_disabled":false,"rental_uris":{"android":"levelo://app?vid=a799b24c-0726-4b4b-9df3-2653e7e55535","ios":"levelo://app?vid=a799b24c-0726-4b4b-9df3-2653e7e55535"},"vehicle_type_id":"4","last_reported":1728749375,"current_range_meters":38800,"station_id":"ce4bghh2rcd13ifvqb60","pricing_plan_id":"cebpf4jnsgd1na2vs0mg"},{"bike_id":"06b25f59-1ba9-4db4-891a-712066c8e545","system_id":"levelo_inurba_marseille","lat":43.24394,"lon":5.37066,"is_reserved":false,"is_disabled":false,"rental_uris":{"android":"levelo://app?vid=06b25f59-1ba9-4db4-891a-712066c8e545","ios":"levelo://app?vid=06b25f59-1ba9-4db4-891a-712066c8e545"},"vehicle_type_id":"4","last_reported":1728749375,"current_range_meters":26000,"station_id":"ce4bhhh2rcd13ifvqfk0","pricing_plan_id":"cebpf4jnsgd1na2vs0mg"},{"bike_id":"42006aa6-7aec-4704-bb84-014f53bba7f6","system_id":"levelo_inurba_marseille","lat":43.33028,"lon":5.39035,"is_reserved":false,"is_disabled":false,"rental_uris":{"android":"levelo://app?vid=42006aa6-7aec-4704-bb84-014f53bba7f6","ios":"levelo://app?vid=42006aa6-7aec-4704-bb84-014f53bba7f6"},"vehicle_type_id":"4","last_reported":1728749375,"current_range_meters":10800,"station_id":"ce4bhr92rcd13ifvqhrg","pricing_plan_id":"cebpf4jnsgd1na2vs0mg"},{"bike_id":"238e03cb-2d0f-490f-b701-2b47aa7b8da9","system_id":"levelo_inurba_marseille","lat":43.29614,"lon":5.3772,"is_reserved":false,"is_disabled":false,"rental_uris":{"android":"levelo://app?vid=238e03cb-2d0f-490f-b701-2b47aa7b8da9","ios":"levelo://app?vid=238e03cb-2d0f-490f-b701-2b47aa7b8da9"},"vehicle_type_id":"4","last_reported":1728749375,"current_range_meters":36800,"station_id":"ce4bgi92rcd13ifvqb90","pricing_plan_id":"cebpf4jnsgd1na2vs0mg"},{"bike_id":"a312356e-c807-443a-b56c-e00bf3459424","system_id":"levelo_inurba_marseille","lat":43.25864,"lon":5.399,"is_reserved":false,"is_disabled":false,"rental_uris":{"android":"levelo://app?vid=a312356e-c807-443a-b56c-e00bf3459424","ios":"levelo://app?vid=a312356e-c807-443a-b56c-e00bf3459424"},"vehicle_type_id":"4","last_reported":1728749375,"current_range_meters":4400,"station_id":"ce4bhl92rcd13ifvqghg","pricing_plan_id":"cebpf4jnsgd1na2vs0mg"},{"bike_id":"4e5d65c2-b838-44d4-9d94-66eb2b21490e","system_id":"levelo_inurba_marseille","lat":43.29622,"lon":5.37711,"is_reserved":false,"is_disabled":false,"rental_uris":{"android":"levelo://app?vid=4e5d65c2-b838-44d4-9d94-66eb2b21490e","ios":"levelo://app?vid=4e5d65c2-b838-44d4-9d94-66eb2b21490e"},"vehicle_type_id":"4","last_reported":1728749375,"current_range_meters":7200,"station_id":"ce4bgi92rcd13ifvqb90","pricing_plan_id":"cebpf4jnsgd1na2vs0mg"},{"bike_id":"a3f61fe9-c0bc-4705-84fd-680b036cb72f","system_id":"levelo_inurba_marseille","lat":43.2979,"lon":5.38114,"is_reserved":false,"is_disabled":false,"rental_uris":{"android":"levelo://app?vid=a3f61fe9-c0bc-4705-84fd-680b036cb72f","ios":"levelo://app?vid=a3f61fe9-c0bc-4705-84fd-680b036cb72f"},"vehicle_type_id":"4","last_reported":1728749375,"current_range_meters":6800,"station_id":"ce4bgip2rcd13ifvqbb0","pricing_plan_id":"cebpf4jnsgd1na2vs0mg"},{"bike_id":"f8d023de-be2b-4cde-a045-42d21fdf53e2","system_id":"levelo_inurba_marseille","lat":43.25,"lon":5.38918,"is_reserved":false,"is_disabled":false,"rental_uris":{"android":"levelo://app?vid=f8d023de-be2b-4cde-a045-42d21fdf53e2","ios":"levelo://app?vid=f8d023de-be2b-4cde-a045-42d21fdf53e2"},"vehicle_type_id":"4","last_reported":1728749375,"current_range_meters":38000,"station_id":"ce4bhgp2rcd13ifvqfd0","pricing_plan_id":"cebpf4jnsgd1na2vs0mg"},{"bike_id":"f3e9e8f2-9b45-40ae-a222-60ced6060517","system_id":"levelo_inurba_marseille","lat":43.30144,"lon":5.38789,"is_reserved":false,"is_disabled":false,"rental_uris":{"android":"levelo://app?vid=f3e9e8f2-9b45-40ae-a222-60ced6060517","ios":"levelo://app?vid=f3e9e8f2-9b45-40ae-a222-60ced6060517"},"vehicle_type_id":"4","last_reported":1728749375,"current_range_meters":3200,"station_id":"ce4bgg92rcd13ifvqb30","pricing_plan_id":"cebpf4jnsgd1na2vs0mg"},