{"last_updated":1727550452,"ttl":60,"version":"2.2","data":{"bikes":[{"bike_id":"2713031b-7879-48ff-8abe-6c9306427eba","system_id":"levelo_inurba_marseille","lat":43.31848,"lon":5.40492,"is_reserved":false,"is_disabled":false,"rental_uris":{"android":"levelo://app?vid=2713031b-7879-48ff-8abe-6c9306427eba","ios":"levelo://app?vid=2713031b-7879-48ff-8abe-6c9306427eba"},"vehicle_type_id":"4","last_reported":1727550453,"current_range_meters":8000,"station_id":"ce4bhq12rcd13ifvqhig","pricing_plan_id":"cebpf4jnsgd1na2vs0mg"},{"bike_id":"8a2a3758-9f66-44f2-9ccd-c751b3b64b33","system_id":"levelo_inurba_marseille","lat":43.29578,"lon":5.3675,"is_reserved":false,"is_disabled":false,"rental_uris":{"android":"levelo://app?vid=8a2a3758-9f66-44f2-9ccd-c751b3b64b33","ios":"levelo://app?vid=8a2a3758-9f66-44f2-9ccd-c751b3b64b33"},"vehicle_type_id":"4","last_reported":1727550453,"current_range_meters":22800,"station_id":"ce4bgph2rcd13ifvqc2g","pricing_plan_id":"cebpf4jnsgd1na2vs0mg"},{"bike_id":"409f8e56-7b05-4fc8-983d-fadc6468525f","system_id":"levelo_inurba_marseille","lat":43.284359,"lon":5.3918,"is_reserved":false,"is_disabled":false,"rental_uris":{"android":"levelo://app?vid=409f8e56-7b05-4fc8-983d-fadc6468525f","ios":"levelo://app?vid=409f8e56-7b05-4fc8-983d-fadc6468525f"},"vehicle_type_id":"4","last_reported":1727550453,"current_range_meters":38800,"station_id":"ce4bhoh2rcd13ifvqh5g","pricing_plan_id":"cebpf4jnsgd1na2vs0mg"},{"bike_id":"7e3082b5-6233-452e-83c2-191c30240751","system_id":"levelo_inurba_marseille","lat":43.29596,"lon":5.40254,"is_reserved":false,"is_disabled":false,"rental_uris":{"android":"levelo://app?vid=7e3082b5-6233-452e-83c2-191c30240751","ios":"levelo://app?vid=7e3082b5-6233-452e-83c2-191c30240751"},"vehicle_type_id":"4","last_reported":1727550453,"current_range_meters":6000,"station_id":"","pricing_plan_id":"cebpf4jnsgd1na2vs0mg"},{"bike_id":"65d74cb2-8710-46ea-a0ed-2195d71ea502","system_id":"levelo_inurba_marseille","lat":43.25821,"lon":5.39435,"is_reserved":false,"is_disabled":false,"rental_uris":{"android":"levelo://app?vid=65d74cb2-8710-46ea-a0ed-2195d71ea502","ios":"levelo://app?vid=65d74cb2-8710-46ea-a0ed-2195d71ea502"},"vehicle_type_id":"4","last_reported":1727550453,"current_range_meters":38000,"station_id":"ce4bhip2rcd13ifvqft0","pricing_plan_id":"cebpf4jnsgd1na2vs0mg"},{"bike_id":"acf0da7d-e6b3-48a2-8905-5de8bc3b795a","system_id":"levelo_inurba_marseille","lat":43.32,"lon":5.38158,"is_reserved":false,"is_disabled":false,"rental_uris":{"android":"levelo://app?vid=acf0da7d-e6b3-48a2-8905-5de8bc3b795a","ios":"levelo://app?vid=acf0da7d-e6b3-48a2-8905-5de8bc3b795a"},"vehicle_type_id":"4","last_reported":1727550453,"current_range_meters":12000,"station_id":"ce4bhr12rcd13ifvqhpg","pricing_plan_id":"cebpf4jnsgd1na2vs0mg"},{"bike_id":"0ea9e4c4-cc08-41d9-862d-a80f7d54740c","system_id":"levelo_inurba_marseille","lat":43.32287,"lon":5.38278,"is_reserved":false,"is_disabled":false,"rental_uris":{"android":"levelo://app?vid=0ea9e4c4-cc08-41d9-862d-a80f7d54740c","ios":"levelo://app?vid=0ea9e4c4-cc08-41d9-862d-a80f7d54740c"},"vehicle_type_id":"4","last_reported":1727550453,"current_range_meters":38800,"station_id":"ce4bhr12rcd13ifvqhqg","pricing_plan_id":"cebpf4jnsgd1na2vs0mg"},{"bike_id":"b3a3010d-b0fb-4cb8-8ae4-8ef701528ab7","system_id":"levelo_inurba_marseille","lat":43.28713,"lon":5.37395,"is_reserved":false,"is_disabled":false,"rental_uris":{"android":"levelo://app?vid=b3a3010d-b0fb-4cb8-8ae4-8ef701528ab7","ios":"levelo://app?vid=b3a3010d-b0fb-4cb8-8ae4-8ef701528ab7"},"vehicle_type_id":"4","last_reported":1727550453,"current_range_meters":28400,"station_id":"ce4bh3p2rcd13ifvqdq0","pricing_plan_id":"cebpf4jnsgd1na2vs0mg"},{"bike_id":"a7f78ba6-f302-4191-9898-adba7098a8f9","system_id":"levelo_inurba_marseille","lat":43.25001,"lon":5.38932,"is_reserved":false,"is_disabled":false,"rental_uris":{"android":"levelo://app?vid=a7f78ba6-f302-4191-9898-adba7098a8f9","ios":"levelo://app?vid=a7f78ba6-f302-4191-9898-adba7098a8f9"},"vehicle_type_id":"4","last_reported":1727550453,"current_range_meters":16800,"station_id":"ce4bhgp2rcd13ifvqfd0","pricing_plan_id":"cebpf4jnsgd1na2vs0mg"},{"bike_id":"b9b4e362-aaec-480b-9381-c970e50bcb62","system_id":"levelo_inurba_marseille","lat":43.29305,"lon":5.37178,"is_reserved":false,"is_disabled":false,"rental_uris":{"android":"levelo://app?vid=b9b4e362-aaec-480b-9381-c970e50bcb62","ios":"levelo://app?vid=b9b4e362-aaec-480b-9381-c970e50bcb62"},"vehicle_type_id":"4","last_reported":1727550453,"current_range_meters":22000,"station_id":"ce4bgh92rcd13ifvqb40","pricing_plan_id":"cebpf4jnsgd1na2vs0mg"},{"bike_id":"56dbbee4-6e87-4cbc-bd41-dc63efb4a5a9","system_id":"levelo_inurba_marseille","lat":43.26582,"lon":5.39004,"is_reserved":false,"is_disabled":false,"rental_uris":{"android":"levelo://app?vid=56dbbee4-6e87-4cbc-bd41-dc63efb4a5a9","ios":"levelo://app?vid=56dbbee4-6e87-4cbc-bd41-dc63efb4a5a9"},"vehicle_type_id":"4","last_reported":1727550453,"current_range_meters":38000,"station_id":"ce4bhe12rcd13ifvqf30","pricing_plan_id":"cebpf4jnsgd1na2vs0mg"},{"bike_id":"e8f339a7-5e65-4275-8576-718fc09f5e43","system_id":"levelo_inurba_marseille","lat":43.2761,"lon":5.36126,"is_reserved":false,"is_disabled":false,"rental_uris":{"android":"levelo://app?vid=e8f339a7-5e65-4275-8576-718fc09f5e43","ios":"levelo://app?vid=e8f339a7-5e65-4275-8576-718fc09f5e43"},"vehicle_type_id":"4","last_reported":1727550453,"current_range_meters":13600,"station_id":"ce4bgj92rcd13ifvqbe0","pricing_plan_id":"cebpf4jnsgd1na2vs0mg"},{"bike_id":"6539d11d-b912-4c2c-877b-a117076010a6","system_id":"levelo_inurba_marseille","lat":43.26489,"lon":5.3956,"is_reserved":false,"is_disabled":false,"rental_uris":{"android":"levelo://app?vid=6539d11d-b912-4c2c-877b-a117076010a6","ios":"levelo://app?vid=6539d11d-b912-4c2c-877b-a117076010a6"},"vehicle_type_id":"4","last_reported":1727550453,"current_range_meters":2800,"station_id":"ce4bhi12rcd13ifvqfq0","pricing_plan_id":"cebpf4jnsgd1na2vs0mg"},{"bike_id":"89ad9680-da1c-4569-8e9c-c338910e0b6a","system_id":"levelo_inurba_marseille","lat":43.25581,"lon":5.38227,"is_reserved":false,"is_disabled":false,"rental_uris":{"android":"levelo://app?vid=89ad9680-da1c-4569-8e9c-c338910e0b6a","ios":"levelo://app?vid=89ad9680-da1c-4569-8e9c-c338910e0b6a"},"vehicle_type_id":"4","last_reported":1727550453,"current_range_meters":14000,"station_id":"ce4bhih2rcd13ifvqfs0","pricing_plan_id":"cebpf4jnsgd1na2vs0mg"},{"bike_id":"8fb9a0ee-a314-472a-99d5-f99430eaf598","system_id":"levelo_inurba_marseille","lat":43.29027,"lon":5.38136,"is_reserved":false,"is_disabled":false,"rental_uris":{"android":"levelo://app?vid=8fb9a0ee-a314-472a-99d5-f99430eaf598","ios":"levelo://app?vid=8fb9a0ee-a314-472a-99d5-f99430eaf598"},"vehicle_type_id":"4","last_reported":1727550453,"current_range_meters":38800,"station_id":"ce4bh4p2rcd13ifvqe1g","pricing_plan_id":"cebpf4jnsgd1na2vs0mg"},{"bike_id":"9a47dcb1-61bb-411f-affb-55731480b4cc","system_id":"levelo_inurba_marseille","lat":43.23962,"lon":5.36642,"is_reserved":false,"is_disabled":false,"rental_uris":{"android":"levelo://app?vid=9a47dcb1-61bb-411f-affb-55731480b4cc","ios":"levelo://app?vid=9a47dcb1-61bb-411f-affb-55731480b4cc"},"vehicle_type_id":"4","last_reported":1727550453,"current_range_meters":38800,"station_id":"ce4bhi12rcd13ifvqfp0","pricing_plan_id":"cebpf4jnsgd1na2vs0mg"},{"bike_id":"1d06ed4b-c111-42ba-b148-03d3f2f9ffd7","system_id":"levelo_inurba_marseille","lat":43.31176,"lon":5.38724,"is_reserved":false,"is_disabled":false,"rental_uris":{"android":"levelo://app?vid=1d06ed4b-c111-42ba-b148-03d3f2f9ffd7","ios":"levelo://app?vid=1d06ed4b-c111-42ba-b148-03d3f2f9ffd7"},"vehicle_type_id":"4","last_reported":1727550453,"current_range_meters":31200,"station_id":"ce4bgv12rcd13ifvqcp0","pricing_plan_id":"cebpf4jnsgd1na2vs0mg"},{"bike_id":"576374d5-b88c-4f97-93c5-4616825c8fc9","system_id":"levelo_inurba_marseille","lat":43.27429,"lon":5.39415,"is_reserved":false,"is_disabled":false,"rental_uris":{"android":"levelo://app?vid=576374d5-b88c-4f97-93c5-4616825c8fc9","ios":"levelo://app?vid=576374d5-b88c-4f97-93c5-4616825c8fc9"},"vehicle_type_id":"4","last_reported":1727550453,"current_range_meters":38000,"station_id":"ce4bhdp2rcd13ifvqf20","pricing_plan_id":"cebpf4jnsgd1na2vs0mg"},{"bike_id":"a5564a9a-3d9e-405c-b3bf-4c7bb6eae734","system_id":"levelo_inurba_marseille","lat":43.286072,"lon":5.37064,"is_reserved":false,"is_disabled":false,"rental_uris":{"android":"levelo://app?vid=a5564a9a-3d9e-405c-b3bf-4c7bb6eae734","ios":"levelo://app?vid=a5564a9a-3d9e-405c-b3bf-4c7bb6eae734"},"vehicle_type_id":"4","last_reported":1727550453,"current_range_meters":14400,"station_id":"ce4bht12rcd13ifvqi60","pricing_plan_id":"cebpf4jnsgd1na2vs0mg"},{"bike_id":"73861ad5-d60d-4349-92f5-465e313dbaad","system_id":"levelo_inurba_marseille","lat":43.28461,"lon":5.35888,"is_reserved":false,"is_disabled":false,"rental_uris":{"android":"levelo://app?vid=73861ad5-d60d-4349-92f5-465e313dbaad","ios":"levelo://app?vid=73861ad5-d60d-4349-92f5-465e313dbaad"},"vehicle_type_id":"4","last_reported":1727550453,"current_range_meters":38400,"station_id":"ce4bhah2rcd13ifvqei0","pricing_plan_id":"cebpf4jnsgd1na2vs0mg"},{"bike_id":"7bdb6542-34d4-409e-96e4-4aeb97032ede","system_id":"levelo_inurba_marseille","lat":43.29544,"lon":5.42291,"is_reserved":false,"is_disabled":false,"rental_uris":{"android":"levelo://app?vid=7bdb6542-34d4-409e-96e4-4aeb97032ede","ios":"levelo://app?vid=7bdb6542-34d4-409e-96e4-4aeb97032ede"},"vehicle_type_id":"4","last_reported":1727550453,"current_range_meters":8800,"station_id":"ce4bhph2rcd13ifvqhdg","pricing_plan_id":"cebpf4jnsgd1na2vs0mg"},{"bike_id":"3e6e1ceb-a24f-4168-975f-85fdba36e6e5","system_id":"levelo_inurba_marseille","lat":43.299,"lon":5.43667,"is_reserved":false,"is_disabled":false,"rental_uris":{"android":"levelo://app?vid=3e6e1ceb-a24f-4168-975f-85fdba36e6e5","ios":"levelo://app?vid=3e6e1ceb-a24f-4168-975f-85fdba36e6e5"},"vehicle_type_id":"4","last_reported":1727550453,"current_range_meters":10000,"station_id":"ce4bhpp2rcd13ifvqhfg","pricing_plan_id":"cebpf4jnsgd1na2vs0mg"},{"bike_id":"c529090c-5370-45e9-ba3f-f55585b5289b","system_id":"levelo_inurba_marseille","lat":43.25001,"lon":5.3893,"is_reserved":false,"is_disabled":false,"rental_uris":{"android":"levelo://app?vid=c529090c-5370-45e9-ba3f-f55585b5289b","ios":"levelo://app?vid=c529090c-5370-45e9-ba3f-f55585b5289b"},"vehicle_type_id":"4","last_reported":1727550453,"current_range_meters":30800,"station_id":"ce4bhgp2rcd13ifvqfd0","pricing_plan_id":"cebpf4jnsgd1na2vs0mg"},{"bike_id":"9d4bebe4-4cbe-4aba-9ace-d74e45fb3e99","system_id":"levelo_inurba_marseille","lat":43.29979,"lon":5.37194,"is_reserved":false,"is_disabled":false,"rental_uris":{"android":"levelo://app?vid=9d4bebe4-4cbe-4aba-9ace-d74e45fb3e99","ios":"levelo://app?vid=9d4bebe4-4cbe-4aba-9ace-d74e45fb3e99"},"vehicle_type_id":"4","last_reported":1727550453,"current_range_meters":19600,"station_id":"ce4bgr92rcd13ifvqc7g","pricing_plan_id":"cebpf4jnsgd1na2vs0mg"},{"bike_id":"c43bfb47-f661-42db-9c96-07abfa6154d1","system_id":"levelo_inurba_marseille","lat":43.28712,"lon":5.39996,"is_reserved":false,"is_disabled":false,"rental_uris":{"android":"levelo://app?vid=c43bfb47-f661-42db-9c96-07abfa6154d1","ios":"levelo://app?vid=c43bfb47-f661-42db-9c96-07abfa6154d1"},"vehicle_type_id":"4","last_reported":1727550453,"current_range_meters":15200,"station_id":"ce4bho92rcd13ifvqh3g","pricing_plan_id":"cebpf4jnsgd1na2vs0mg"},{"bike_id":"2b5b0782-e7ec-4d31-9996-c5b5a6d3e80d","system_id":"levelo_inurba_marseille","lat":43.29591,"lon":5.36734,"is_reserved":false,"is_disabled":false,"rental_uris":{"android":"levelo://app?vid=2b5b0782-e7ec-4d31-9996-c5b5a6d3e80d","ios":"levelo://app?vid=2b5b0782-e7ec-4d31-9996-c5b5a6d3e80d"},"vehicle_type_id":"4","last_reported":1727550453,"current_range_meters":38800,"station_id":"ce4bgph2rcd13ifvqc2g","pricing_plan_id":"cebpf4jnsgd1na2vs0mg"},{"bike_id":"1ce7c25b-6bd2-4b64-b4ae-543ea784fc5d","system_id":"levelo_inurba_marseille","lat":43.337444,"lon":5.374475,"is_reserved":false,"is_disabled":false,"rental_uris":{"android":"levelo://app?vid=1ce7c25b-6bd2-4b64-b4ae-543ea784fc5d","ios":"levelo://app?vid=1ce7c25b-6bd2-4b64-b4ae-543ea784fc5d"},"vehicle_type_id":"4","last_reported":1727550453,"current_range_meters":36000,"station_id":"","pricing_plan_id":"cebpf4jnsgd1na2vs0mg"},{"bike_id":"8a019057-df41-4cd9-8391-6e887f9eb193","system_id":"levelo_inurba_marseille","lat":43.29309,"lon":5.3718,"is_reserved":false,"is_disabled":false,"rental_uris":{"android":"levelo://app?vid=8a019057-df41-4cd9-8391-6e887f9eb193","ios":"levelo://app?vid=8a019057-df41-4cd9-8391-6e887f9eb193"},"vehicle_type_id":"4","last_reported":1727550453,"current_range_meters":8800,"station_id":"ce4bgh92rcd13ifvqb40","pricing_plan_id":"cebpf4jnsgd1na2vs0mg"},{"bike_id":"35a6ca74-a0b6-4f73-bcf2-e86397ec7a04","system_id":"levelo_inurba_marseille","lat":43.24811,"lon":5.37466,"is_reserved":false,"is_disabled":false,"rental_uris":{"android":"levelo://app?vid=35a6ca74-a0b6-4f73-bcf2-e86397ec7a04","ios":"levelo://app?vid=35a6ca74-a0b6-4f73-bcf2-e86397ec7a04"},"vehicle_type_id":"4","last_reported":1727550453,"current_range_meters":6400,"station_id":"ce4bhgh2rcd13ifvqfb0","pricing_plan_id":"cebpf4jnsgd1na2vs0mg"},{"bike_id":"0635666d-c02e-4eae-b7f1-848a4f219b37","system_id":"levelo_inurba_marseille","lat":43.28935,"lon":5.39638,"is_reserved":false,"is_disabled":false,"rental_uris":{"android":"levelo://app?vid=0635666d-c02e-4eae-b7f1-848a4f219b37","ios":"levelo://app?vid=0635666d-c02e-4eae-b7f1-848a4f219b37"},"vehicle_type_id":"4","last_reported":1727550453,"current_range_meters":15200,"station_id":"ce4bh3h2rcd13ifvqdn0","pricing_plan_id":"cebpf4jnsgd1na2vs0mg"},{"bike_id":"0c6a3edd-0259-43fd-a8d1-3d4bb6023605","system_id":"levelo_inurba_marseille","lat":43.24388,"lon":5.37051,"is_reserved":false,"is_disabled":false,"rental_uris":{"android":"levelo://app?vid=0c6a3edd-0259-43fd-a8d1-3d4bb6023605","ios":"levelo://app?vid=0c6a3edd-0259-43fd-a8d1-3d4bb6023605"},"vehicle_type_id":"4","last_reported":1727550453,"current_range_meters":38800,"station_id":"ce4bhhh2rcd13ifvqfk0","pricing_plan_id":"cebpf4jnsgd1na2vs0mg"},{"bike_id":"ff8188b8-9b00-49b7-822c-c50acd6dfada","system_id":"levelo_inurba_marseille","lat":43.29514,"lon":5.39408,"is_reserved":false,"is_disabled":false,"rental_uris":{"android":"levelo://app?vid=ff8188b8-9b00-49b7-822c-c50acd6dfada","ios":"levelo://app?vid=ff8188b8-9b00-49b7-822c-c50acd6dfada"},"vehicle_type_id":"4","last_reported":1727550453,"current_range_meters":37600,"station_id":"ce4bh292rcd13ifvqdf0","pricing_plan_id":"cebpf4jnsgd1na2vs0mg"},{"bike_id":"ee93d334-b520-44ab-b5a7-2094a6c9fd2b","system_id":"levelo_inurba_marseille","lat":43.31344,"lon":5.36723,"is_reserved":false,"is_disabled":false,"rental_uris":{"android":"levelo://app?vid=ee93d334-b520-44ab-b5a7-2094a6c9fd2b","ios":"levelo://app?vid=ee93d334-b520-44ab-b5a7-2094a6c9fd2b"},"vehicle_type_id":"4","last_reported":1727550453,"current_range_meters":37600,"station_id":"ce4bgr92rcd13ifvqc6g","pricing_plan_id":"cebpf4jnsgd1na2vs0mg"},{"bike_id":"b66932d9-32db-446e-b439-29b88a88e699","system_id":"levelo_inurba_marseille","lat":43.26947,"lon":5.40256,"is_reserved":false,"is_disabled":false,"rental_uris":{"android":"levelo://app?vid=b66932d9-32db-446e-b439-29b88a88e699","ios":"levelo://app?vid=b66932d9-32db-446e-b439-29b88a88e699"},"vehicle_type_id":"4","last_reported":1727550453,"current_range_meters":19600,"station_id":"cjm6bp8fraef2m0cb0m0","pricing_plan_id":"cebpf4jnsgd1na2vs0mg"},{"bike_id":"b835983a-9553-403f-958c-0f0673e0b3a7","system_id":"levelo_inurba_marseille","lat":43.3414,"lon":5.40904,"is_reserved":false,"is_disabled":false,"rental_uris":{"android":"levelo://app?vid=b835983a-9553-403f-958c-0f0673e0b3a7","ios":"levelo://app?vid=b835983a-9553-403f-958c-0f0673e0b3a7"},"vehicle_type_id":"4","last_reported":1727550453,"current_range_meters":32800,"station_id":"ce4bhqh2rcd13ifvqhlg","pricing_plan_id":"cebpf4jnsgd1na2vs0mg"},{"bike_id":"ed2c929d-ccf1-4bc4-8bed-19cb9b4ec13a","system_id":"levelo_inurba_marseille","lat":43.29273,"lon":5.38453,"is_reserved":false,"is_disabled":false,"rental_uris":{"android":"levelo://app?vid=ed2c929d-ccf1-4bc4-8bed-19cb9b4ec13a","ios":"levelo://app?vid=ed2c929d-ccf1-4bc4-8bed-19cb9b4ec13a"},"vehicle_type_id":"4","last_reported":1727550453,"current_range_meters":21600,"station_id":"ce4bh692rcd13ifvqea0","pricing_plan_id":"cebpf4jnsgd1na2vs0mg"},{"bike_id":"6a52f468-9bf5-46c2-819d-2c732c18128e","system_id":"levelo_inurba_marseille","lat":43.23957,"lon":5.36641,"is_reserved":false,"is_disabled":false,"rental_uris":{"android":"levelo://app?vid=6a52f468-9bf5-46c2-819d-2c732c18128e","ios":"levelo://app?vid=6a52f468-9bf5-46c2-819d-2c732c18128e"},"vehicle_type_id":"4","last_reported":1727550453,"current_range_meters":38800,"station_id":"ce4bhi12rcd13ifvqfp0","pricing_plan_id":"cebpf4jnsgd1na2vs0mg"},{"bike_id":"9b2415e9-bcef-442c-90bf-ae59fcc2f9f9","system_id":"levelo_inurba_marseille","lat":43.30798,"lon":5.381485,"is_reserved":false,"is_disabled":false,"rental_uris":{"android":"levelo://app?vid=9b2415e9-bcef-442c-90bf-ae59fcc2f9f9","ios":"levelo://app?vid=9b2415e9-bcef-442c-90bf-ae59fcc2f9f9"},"vehicle_type_id":"4","last_reported":1727550453,"current_range_meters":28400,"station_id":"ce4bgt12rcd13ifvqce0","pricing_plan_id":"cebpf4jnsgd1na2vs0mg"},{"bike_id":"778e9c2f-1cc2-458a-a19a-0eb94688ae23","system_id":"levelo_inurba_marseille","lat":43.25581,"lon":5.38237,"is_reserved":false,"is_disabled":false,"rental_uris":{"android":"levelo://app?vid=778e9c2f-1cc2-458a-a19a-0eb94688ae23","ios":"levelo://app?vid=778e9c2f-1cc2-458a-a19a-0eb94688ae23"},"vehicle_type_id":"4","last_reported":1727550453,"current_range_meters":28400,"station_id":"ce4bhih2rcd13ifvqfs0","pricing_plan_id":"cebpf4jnsgd1na2vs0mg"},{"bike_id":"72be6392-a3f1-4c72-9845-ba02653fbb3f","system_id":"levelo_inurba_marseille","lat":43.29261,"lon":5.3845,"is_reserved":false,"is_disabled":false,"rental_uris":{"android":"levelo://app?vid=72be6392-a3f1-4c72-9845-ba02653fbb3f","ios":"levelo://app?vid=72be6392-a3f1-4c72-9845-ba02653fbb3f"},"vehicle_type_id":"4","last_reported":1727550453,"current_range_meters":38800,"station_id":"ce4bh692rcd13ifvqea0","pricing_plan_id":"cebpf4jnsgd1na2vs0mg"},{"bike_id":"67b9eb05-c36e-4582-9b61-98d56d57348d","system_id":"levelo_inurba_marseille","lat":43.26058,"lon":5.39397,"is_reserved":false,"is_disabled":false,"rental_uris":{"android":"levelo://app?vid=67b9eb05-c36e-4582-9b61-98d56d57348d","ios":"levelo://app?vid=67b9eb05-c36e-4582-9b61-98d56d57348d"},"vehicle_type_id":"4","last_reported":1727550453,"current_range_meters":38800,"station_id":"ce4bhh92rcd13ifvqfj0","pricing_plan_id":"cebpf4jnsgd1na2vs0mg"},{"bike_id":"1a08eb27-5616-4615-8c7f-aaa33811054b","system_id":"levelo_inurba_marseille","lat":43.24805,"lon":5.37462,"is_reserved":false,"is_disabled":false,"rental_uris":{"android":"levelo://app?vid=1a08eb27-5616-4615-8c7f-aaa33811054b","ios":"levelo://app?vid=1a08eb27-5616-4615-8c7f-aaa33811054b"},"vehicle_type_id":"4","last_reported":1727550453,"current_range_meters":37600,"station_id":"ce4bhgh2rcd13ifvqfb0","pricing_plan_id":"cebpf4jnsgd1na2vs0mg"},{"bike_id":"a79cd993-7ebd-4a8d-9fbf-95a06dc866e6","system_id":"levelo_inurba_marseille","lat":43.30592,"lon":5.39362,"is_reserved":false,"is_disabled":false,"rental_uris":{"android":"levelo://app?vid=a79cd993-7ebd-4a8d-9fbf-95a06dc866e6","ios":"levelo://app?vid=a79cd993-7ebd-4a8d-9fbf-95a06dc866e6"},"vehicle_type_id":"4","last_reported":1727550453,"current_range_meters":31200,"station_id":"ce4bh0p2rcd13ifvqd80","pricing_plan_id":"cebpf4jnsgd1na2vs0mg"},{"bike_id":"10e5794b-8d63-4d89-b262-c5c57a30e9f2","system_id":"levelo_inurba_marseille","lat":43.28353,"lon":5.38103,"is_reserved":false,"is_disabled":false,"rental_uris":{"android":"levelo://app?vid=10e5794b-8d63-4d89-b262-c5c57a30e9f2","ios":"levelo://app?vid=10e5794b-8d63-4d89-b262-c5c57a30e9f2"},"vehicle_type_id":"4","last_reported":1727550453,"current_range_meters":27200,"station_id":"ce4bh412rcd13ifvqdr0","pricing_plan_id":"cebpf4jnsgd1na2vs0mg"},{"bike_id":"84fe5dbc-6da3-4064-b700-83e5e6284ff0","system_id":"levelo_inurba_marseille","lat":43.28937,"lon":5.38392,"is_reserved":false,"is_disabled":false,"rental_uris":{"android":"levelo://app?vid=84fe5dbc-6da3-4064-b700-83e5e6284ff0","ios":"levelo://app?vid=84fe5dbc-6da3-4064-b700-83e5e6284ff0"},"vehicle_type_id":"4","last_reported":1727550453,"current_range_meters":19200,"station_id":"ce4bh612rcd13ifvqe6g","pricing_plan_id":"cebpf4jnsgd1na2vs0mg"},{"bike_id":"0e06076c-ac02-4695-9a35-ac6e6a0290c4","system_id":"levelo_inurba_marseille","lat":43.31274,"lon":5.40179,"is_reserved":false,"is_disabled":false,"rental_uris":{"android":"levelo://app?vid=0e06076c-ac02-4695-9a35-ac6e6a0290c4","ios":"levelo://app?vid=0e06076c-ac02-4695-9a35-ac6e6a0290c4"},"vehicle_type_id":"4","last_reported":1727550453,"current_range_meters":28400,"station_id":"ce4bh092rcd13ifvqd30","pricing_plan_id":"cebpf4jnsgd1na2vs0mg"},{"bike_id":"80174867-478e-4b18-98ab-2ea7779a0f88","system_id":"levelo_inurba_marseille","lat":43.28711,"lon":5.37402,"is_reserved":false,"is_disabled":false,"rental_uris":{"android":"levelo://app?vid=80174867-478e-4b18-98ab-2ea7779a0f88","ios":"levelo://app?vid=80174867-478e-4b18-98ab-2ea7779a0f88"},"vehicle_type_id":"4","last_reported":1727550453,"current_range_meters":38800,"station_id":"ce4bh3p2rcd13ifvqdq0","pricing_plan_id":"cebpf4jnsgd1na2vs0mg"},{"bike_id":"bbbd51b3-765a-4c6b-bcea-d2ed1c46173d","system_id":"levelo_inurba_marseille","lat":43.2657,"lon":5.39032,"is_reserved":false,"is_disabled":false,"rental_uris":{"android":"levelo://app?vid=bbbd51b3-765a-4c6b-bcea-d2ed1c46173d","ios":"levelo://app?vid=bbbd51b3-765a-4c6b-bcea-d2ed1c46173d"},"vehicle_type_id":"4","last_reported":1727550453,"current_range_meters":29600,"station_id":"ce4bhe12rcd13ifvqf30","pricing_plan_id":"cebpf4jnsgd1na2vs0mg"},{"bike_id":"1035aa3c-b191-41ce-8638-b8167f1145bc","system_id":"levelo_inurba_marseille","lat":43.279067,"lon":5.380137,"is_reserved":false,"is_disabled":false,"rental_uris":{"android":"levelo://app?vid=1035aa3c-b191-41ce-8638-b8167f1145bc","ios":"levelo://app?vid=1035aa3c-b191-41ce-8638-b8167f1145bc"},"vehicle_type_id":"4","last_reported":1727550453,"current_range_meters":28400,"station_id":"ce4bhf92rcd13ifvqf50","pricing_plan_id":"cebpf4jnsgd1na2vs0mg"},{"bike_id":"cf2a99f0-171d-46e2-b5f9-b8e518581e33","system_id":"levelo_inurba_marseille","lat":43.23957,"lon":5.36633,"is_reserved":false,"is_disabled":false,"rental_uris":{"android":"levelo://app?vid=cf2a99f0-171d-46e2-b5f9-b8e518581e33","ios":"levelo://app?vid=cf2a99f0-171d-46e2-b5f9-b8e518581e33"},"vehicle_type_id":"4","last_reported":1727550453,"current_range_meters":36800,"station_id":"ce4bhi12rcd13ifvqfp0","pricing_plan_id":"cebpf4jnsgd1na2vs0mg"},{"bike_id":"e5f96fcd-0538-4d74-8ab8-d19e4df7cc95","system_id":"levelo_inurba_marseille","lat":43.31757,"lon":5.39016,"is_reserved":false,"is_disabled":false,"rental_uris":{"android":"levelo://app?vid=e5f96fcd-0538-4d74-8ab8-d19e4df7cc95","ios":"levelo://app?vid=e5f96fcd-0538-4d74-8ab8-d19e4df7cc95"},"vehicle_type_id":"4","last_reported":1727550453,"current_range_meters":14400,"station_id":"ce4bhqp2rcd13ifvqhng","pricing_plan_id":"cebpf4jnsgd1na2vs0mg"},{"bike_id":"af27e55c-9092-4f57-a5c6-7251428e651f","system_id":"levelo_inurba_marseille","lat":43.23201,"lon":5.3555,"is_reserved":false,"is_disabled":false,"rental_uris":{"android":"levelo://app?vid=af27e55c-9092-4f57-a5c6-7251428e651f","ios":"levelo://app?vid=af27e55c-9092-4f57-a5c6-7251428e651f"},"vehicle_type_id":"4","last_reported":1727550453,"current_range_meters":14000,"station_id":"ce4bhu92rcd13ifvqi70","pricing_plan_id":"cebpf4jnsgd1na2vs0mg"},{"bike_id":"fdb61897-97d0-4689-adc4-02e79ee31d57","system_id":"levelo_inurba_marseille","lat":43.23955,"lon":5.36635,"is_reserved":false,"is_disabled":false,"rental_uris":{"android":"levelo://app?vid=fdb61897-97d0-4689-adc4-02e79ee31d57","ios":"levelo://app?vid=fdb61897-97d0-4689-adc4-02e79ee31d57"},"vehicle_type_id":"4","last_reported":1727550453,"current_range_meters":38800,"station_id":"ce4bhi12rcd13ifvqfp0","pricing_plan_id":"cebpf4jnsgd1na2vs0mg"},{"bike_id":"52f17877-110a-422d-89ae-fdeda162e6f3","system_id":"levelo_inurba_marseille","lat":43.23956,"lon":5.36641,"is_reserved":false,"is_disabled":false,"rental_uris":{"android":"levelo://app?vid=52f17877-110a-422d-89ae-fdeda162e6f3","ios":"levelo://app?vid=52f17877-110a-422d-89ae-fdeda162e6f3"},"vehicle_type_id":"4","last_reported":1727550453,"current_range_meters":10000,"station_id":"ce4bhi12rcd13ifvqfp0","pricing_plan_id":"cebpf4jnsgd1na2vs0mg"},{"bike_id":"7a8f28c6-ab6f-49c3-b59d-8e597cfc4655","system_id":"levelo_inurba_marseille","lat":43.33724,"lon":5.39178,"is_reserved":false,"is_disabled":false,"rental_uris":{"android":"levelo://app?vid=7a8f28c6-ab6f-49c3-b59d-8e597cfc4655","ios":"levelo://app?vid=7a8f28c6-ab6f-49c3-b59d-8e597cfc4655"},"vehicle_type_id":"4","last_reported":1727550453,"current_range_meters":22800,"station_id":"ce4bhr92rcd13ifvqhsg","pricing_plan_id":"cebpf4jnsgd1na2vs0mg"},{"bike_id":"ab994941-8182-4cf4-af2e-1d33fc2c5393","system_id":"levelo_inurba_marseille","lat":43.2573,"lon":5.41111,"is_reserved":false,"is_disabled":false,"rental_uris":{"android":"levelo://app?vid=ab994941-8182-4cf4-af2e-1d33fc2c5393","ios":"levelo://app?vid=ab994941-8182-4cf4-af2e-1d33fc2c5393"},"vehicle_type_id":"4","last_reported":1727550453,"current_range_meters":6800,"station_id":"ce4bhkp2rcd13ifvqgd0","pricing_plan_id":"cebpf4jnsgd1na2vs0mg"},{"bike_id":"1347408c-e17f-4890-9dba-2621d2b63fef","system_id":"levelo_inurba_marseille","lat":43.28076,"lon":5.39665,"is_reserved":false,"is_disabled":false,"rental_uris":{"android":"levelo://app?vid=1347408c-e17f-4890-9dba-2621d2b63fef","ios":"levelo://app?vid=1347408c-e17f-4890-9dba-2621d2b63fef"},"vehicle_type_id":"4","last_reported":1727550453,"current_range_meters":27600,"station_id":"ce4bho12rcd13ifvqh2g","pricing_plan_id":"cebpf4jnsgd1na2vs0mg"},{"bike_id":"8706dbad-74a1-4401-bd4a-b4ae01455ac4","system_id":"levelo_inurba_marseille","lat":43.27608,"lon":5.36123,"is_reserved":false,"is_disabled":false,"rental_uris":{"android":"levelo://app?vid=8706dbad-74a1-4401-bd4a-b4ae01455ac4","ios":"levelo://app?vid=8706dbad-74a1-4401-bd4a-b4ae01455ac4"},"vehicle_type_id":"4","last_reported":1727550453,"current_range_meters":20000,"station_id":"ce4bgj92rcd13ifvqbe0","pricing_plan_id":"cebpf4jnsgd1na2vs0mg"},{"bike_id":"94003590-928e-492a-a7e0-3e6985160229","system_id":"levelo_inurba_marseille","lat":43.29279,"lon":5.3684,"is_reserved":false,"is_disabled":false,"rental_uris":{"android":"levelo://app?vid=94003590-928e-492a-a7e0-3e6985160229","ios":"levelo://app?vid=94003590-928e-492a-a7e0-3e6985160229"},"vehicle_type_id":"4","last_reported":1727550453,"current_range_meters":6000,"station_id":"ce4bhbp2rcd13ifvqesg","pricing_plan_id":"cebpf4jnsgd1na2vs0mg"},{"bike_id":"9e0e602a-711e-4e75-a4b3-f0d70db8f823","system_id":"levelo_inurba_marseille","lat":43.23958,"lon":5.36641,"is_reserved":false,"is_disabled":false,"rental_uris":{"android":"levelo://app?vid=9e0e602a-711e-4e75-a4b3-f0d70db8f823","ios":"levelo://app?vid=9e0e602a-711e-4e75-a4b3-f0d70db8f823"},"vehicle_type_id":"4","last_reported":1727550453,"current_range_meters":18800,"station_id":"ce4bhi12rcd13ifvqfp0","pricing_plan_id":"cebpf4jnsgd1na2vs0mg"},{"bike_id":"0b70659b-826c-4cb0-8faa-bce4f3dbdbd5","system_id":"levelo_inurba_marseille","lat":43.29305,"lon":5.3718,"is_reserved":false,"is_disabled":false,"rental_uris":{"android":"levelo://app?vid=0b70659b-826c-4cb0-8faa-bce4f3dbdbd5","ios":"levelo://app?vid=0b70659b-826c-4cb0-8faa-bce4f3dbdbd5"},"vehicle_type_id":"4","last_reported":1727550453,"current_range_meters":9200,"station_id":"ce4bgh92rcd13ifvqb40","pricing_plan_id":"cebpf4jnsgd1na2vs0mg"},{"bike_id":"5e73d38c-ea54-45ea-bc16-3da2a4a29655","system_id":"levelo_inurba_marseille","lat":43.29713,"lon":5.36613,"is_reserved":false,"is_disabled":false,"rental_uris":{"android":"levelo://app?vid=5e73d38c-ea54-45ea-bc16-3da2a4a29655","ios":"levelo://app?vid=5e73d38c-ea54-45ea-bc16-3da2a4a29655"},"vehicle_type_id":"4","last_reported":1727550453,"current_range_meters":20000,"station_id":"ce4bgn12rcd13ifvqbt0","pricing_plan_id":"cebpf4jnsgd1na2vs0mg"},{"bike_id":"224ec7b4-9252-4c73-b9c6-85b68e5a5d40","system_id":"levelo_inurba_marseille","lat":43.30838,"lon":5.36847,"is_reserved":false,"is_disabled":false,"rental_uris":{"android":"levelo://app?vid=224ec7b4-9252-4c73-b9c6-85b68e5a5d40","ios":"levelo://app?vid=224ec7b4-9252-4c73-b9c6-85b68e5a5d40"},"vehicle_type_id":"4","last_reported":1727550453,"current_range_meters":36000,"station_id":"ce4bgph2rcd13ifvqc2g","pricing_plan_id":"cebpf4jnsgd1na2vs0mg"},{"bike_id":"c0ec6a01-d163-4a51-aaae-770298e876cf","system_id":"levelo_inurba_marseille","lat":43.29259,"lon":5.38441,"is_reserved":false,"is_disabled":false,"rental_uris":{"android":"levelo://app?vid=c0ec6a01-d163-4a51-aaae-770298e876cf","ios":"levelo://app?vid=c0ec6a01-d163-4a51-aaae-770298e876cf"},"vehicle_type_id":"4","last_reported":1727550453,"current_range_meters":29600,"station_id":"ce4bh692rcd13ifvqea0","pricing_plan_id":"cebpf4jnsgd1na2vs0mg"},{"bike_id":"ce987245-adda-45c6-9c5d-48d5eda057cd","system_id":"levelo_inurba_marseille","lat":43.27426,"lon":5.39417,"is_reserved":false,"is_disabled":false,"rental_uris":{"android":"levelo://app?vid=ce987245-adda-45c6-9c5d-48d5eda057cd","ios":"levelo://app?vid=ce987245-adda-45c6-9c5d-48d5eda057cd"},"vehicle_type_id":"4","last_reported":1727550453,"current_range_meters":16400,"station_id":"ce4bhdp2rcd13ifvqf20","pricing_plan_id":"cebpf4jnsgd1na2vs0mg"},{"bike_id":"801dee94-6df9-4ac7-b8ff-19b18de3acb6","system_id":"levelo_inurba_marseille","lat":43.32001,"lon":5.38158,"is_reserved":false,"is_disabled":false,"rental_uris":{"android":"levelo://app?vid=801dee94-6df9-4ac7-b8ff-19b18de3acb6","ios":"levelo://app?vid=801dee94-6df9-4ac7-b8ff-19b18de3acb6"},"vehicle_type_id":"4","last_reported":1727550453,"current_range_meters":26000,"station_id":"ce4bhr12rcd13ifvqhpg","pricing_plan_id":"cebpf4jnsgd1na2vs0mg"},{"bike_id":"76702d69-028a-4093-a56a-5e5d34d277ec","system_id":"levelo_inurba_marseille","lat":43.29603,"lon":5.38104,"is_reserved":false,"is_disabled":false,"rental_uris":{"android":"levelo://app?vid=76702d69-028a-4093-a56a-5e5d34d277ec","ios":"levelo://app?vid=76702d69-028a-4093-a56a-5e5d34d277ec"},"vehicle_type_id":"4","last_reported":1727550453,"current_range_meters":23200,"station_id":"ce4bgl12rcd13ifvqbo0","pricing_plan_id":"cebpf4jnsgd1na2vs0mg"},{"bike_id":"848da01c-249f-40a1-a74f-e4a7991db9ba","system_id":"levelo_inurba_marseille","lat":43.27555,"lon":5.38437,"is_reserved":false,"is_disabled":false,"rental_uris":{"android":"levelo://app?vid=848da01c-249f-40a1-a74f-e4a7991db9ba","ios":"levelo://app?vid=848da01c-249f-40a1-a74f-e4a7991db9ba"},"vehicle_type_id":"4","last_reported":1727550453,"current_range_meters":8800,"station_id":"ce4bhh92rcd13ifvqfi0","pricing_plan_id":"cebpf4jnsgd1na2vs0mg"},{"bike_id":"5bbbf151-f2eb-4ec9-a233-7adde8f9915f","system_id":"levelo_inurba_marseille","lat":43.29905,"lon":5.38124,"is_reserved":false,"is_disabled":false,"rental_uris":{"android":"levelo://app?vid=5bbbf151-f2eb-4ec9-a233-7adde8f9915f","ios":"levelo://app?vid=5bbbf151-f2eb-4ec9-a233-7adde8f9915f"},"vehicle_type_id":"4","last_reported":1727550453,"current_range_meters":3200,"station_id":"ce4bgj12rcd13ifvqbc0","pricing_plan_id":"cebpf4jnsgd1na2vs0mg"},{"bike_id":"2460b135-74e3-4523-9196-84ed5acf9f6d","system_id":"levelo_inurba_marseille","lat":43.311829,"lon":5.376286,"is_reserved":false,"is_disabled":false,"rental_uris":{"android":"levelo://app?vid=2460b135-74e3-4523-9196-84ed5acf9f6d","ios":"levelo://app?vid=2460b135-74e3-4523-9196-84ed5acf9f6d"},"vehicle_type_id":"4","last_reported":1727550453,"current_range_meters":3200,"station_id":"ce4bgt92rcd13ifvqcg0","pricing_plan_id":"cebpf4jnsgd1na2vs0mg"},{"bike_id":"92e94053-03d5-4b18-9f9d-c68736addb44","system_id":"levelo_inurba_marseille","lat":43.28949,"lon":5.39632,"is_reserved":false,"is_disabled":false,"rental_uris":{"android":"levelo://app?vid=92e94053-03d5-4b18-9f9d-c68736addb44","ios":"levelo://app?vid=92e94053-03d5-4b18-9f9d-c68736addb44"},"vehicle_type_id":"4","last_reported":1727550453,"current_range_meters":22800,"station_id":"ce4bh3h2rcd13ifvqdn0","pricing_plan_id":"cebpf4jnsgd1na2vs0mg"},{"bike_id":"258e025d-f605-4338-84a0-17f713af0b8d","system_id":"levelo_inurba_marseille","lat":43.24806,"lon":5.37452,"is_reserved":false,"is_disabled":false,"rental_uris":{"android":"levelo://app?vid=258e025d-f605-4338-84a0-17f713af0b8d","ios":"levelo://app?vid=258e025d-f605-4338-84a0-17f713af0b8d"},"vehicle_type_id":"4","last_reported":1727550453,"current_range_meters":38400,"station_id":"ce4bhgh2rcd13ifvqfb0","pricing_plan_id":"cebpf4jnsgd1na2vs0mg"},{"bike_id":"2aafe473-62f3-4b3d-ac4d-5d695d7cf49a","system_id":"levelo_inurba_marseille","lat":43.29081,"lon":5.38167,"is_reserved":false,"is_disabled":false,"rental_uris":{"android":"levelo://app?vid=2aafe473-62f3-4b3d-ac4d-5d695d7cf49a","ios":"levelo://app?vid=2aafe473-62f3-4b3d-ac4d-5d695d7cf49a"},"vehicle_type_id":"4","last_reported":1727550453,"current_range_meters":34000,"station_id":"ce4bh512rcd13ifvqe2g","pricing_plan_id":"cebpf4jnsgd1na2vs0mg"},{"bike_id":"48ac0a00-7daa-4c12-9a4d-5dab28220f2e","system_id":"levelo_inurba_marseille","lat":43.32379,"lon":5.38891,"is_reserved":false,"is_disabled":false,"rental_uris":{"android":"levelo://app?vid=48ac0a00-7daa-4c12-9a4d-5dab28220f2e","ios":"levelo://app?vid=48ac0a00-7daa-4c12-9a4d-5dab28220f2e"},"vehicle_type_id":"4","last_reported":1727550453,"current_range_meters":10000,"station_id":"ce4bhqp2rcd13ifvqhog","pricing_plan_id":"cebpf4jnsgd1na2vs0mg"},{"bike_id":"937ae9ba-4750-482e-be10-8463290fb54f","system_id":"levelo_inurba_marseille","lat":43.28856,"lon":5.39315,"is_reserved":false,"is_disabled":false,"rental_uris":{"android":"levelo://app?vid=937ae9ba-4750-482e-be10-8463290fb54f","ios":"levelo://app?vid=937ae9ba-4750-482e-be10-8463290fb54f"},"vehicle_type_id":"4","last_reported":1727550453,"current_range_meters":38800,"station_id":"ce4bh2p2rcd13ifvqdi0","pricing_plan_id":"cebpf4jnsgd1na2vs0mg"},{"bike_id":"1f313afb-1cf8-4bb7-8831-2c9f193c2d0c","system_id":"levelo_inurba_marseille","lat":43.24814,"lon":5.37464,"is_reserved":false,"is_disabled":false,"rental_uris":{"android":"levelo://app?vid=1f313afb-1cf8-4bb7-8831-2c9f193c2d0c","ios":"levelo://app?vid=1f313afb-1cf8-4bb7-8831-2c9f193c2d0c"},"vehicle_type_id":"4","last_reported":1727550453,"current_range_meters":38800,"station_id":"ce4bhgh2rcd13ifvqfb0","pricing_plan_id":"cebpf4jnsgd1na2vs0mg"},{"bike_id":"a63d4449-4f5a-4f1c-9a3c-27c8d74bd2a3","system_id":"levelo_inurba_marseille","lat":43.2439,"lon":5.37066,"is_reserved":false,"is_disabled":false,"rental_uris":{"android":"levelo://app?vid=a63d4449-4f5a-4f1c-9a3c-27c8d74bd2a3","ios":"levelo://app?vid=a63d4449-4f5a-4f1c-9a3c-27c8d74bd2a3"},"vehicle_type_id":"4","last_reported":1727550453,"current_range_meters":14400,"station_id":"ce4bhhh2rcd13ifvqfk0","pricing_plan_id":"cebpf4jnsgd1na2vs0mg"},{"bike_id":"992cb370-e993-4ebc-b568-4d12aa4c7d55","system_id":"levelo_inurba_marseille","lat":43.29706,"lon":5.36605,"is_reserved":false,"is_disabled":false,"rental_uris":{"android":"levelo://app?vid=992cb370-e993-4ebc-b568-4d12aa4c7d55","ios":"levelo://app?vid=992cb370-e993-4ebc-b568-4d12aa4c7d55"},"vehicle_type_id":"4","last_reported":1727550453,"current_range_meters":24800,"station_id":"ce4bgn12rcd13ifvqbt0","pricing_plan_id":"cebpf4jnsgd1na2vs0mg"},{"bike_id":"3e741017-2423-453a-bb3a-7aec8a140001","system_id":"levelo_inurba_marseille","lat":43.28974,"lon":5.37838,"is_reserved":false,"is_disabled":false,"rental_uris":{"android":"levelo://app?vid=3e741017-2423-453a-bb3a-7aec8a140001","ios":"levelo://app?vid=3e741017-2423-453a-bb3a-7aec8a140001"},"vehicle_type_id":"4","last_reported":1727550453,"current_range_meters":38800,"station_id":"ce4bh9p2rcd13ifvqed0","pricing_plan_id":"cebpf4jnsgd1na2vs0mg"},{"bike_id":"4bcfa510-3bbf-4b77-9a27-4c81ec787120","system_id":"levelo_inurba_marseille","lat":43.28845,"lon":5.39319,"is_reserved":false,"is_disabled":false,"rental_uris":{"android":"levelo://app?vid=4bcfa510-3bbf-4b77-9a27-4c81ec787120","ios":"levelo://app?vid=4bcfa510-3bbf-4b77-9a27-4c81ec787120"},"vehicle_type_id":"4","last_reported":1727550453,"current_range_meters":7200,"station_id":"ce4bh2p2rcd13ifvqdi0","pricing_plan_id":"cebpf4jnsgd1na2vs0mg"},{"bike_id":"638865c7-2a86-4e66-a9b0-1c28e20e4ac7","system_id":"levelo_inurba_marseille","lat":43.30277,"lon":5.3771,"is_reserved":false,"is_disabled":false,"rental_uris":{"android":"levelo://app?vid=638865c7-2a86-4e66-a9b0-1c28e20e4ac7","ios":"levelo://app?vid=638865c7-2a86-4e66-a9b0-1c28e20e4ac7"},"vehicle_type_id":"4","last_reported":1727550453,"current_range_meters":25600,"station_id":"ce4bguh2rcd13ifvqcj0","pricing_plan_id":"cebpf4jnsgd1na2vs0mg"},{"bike_id":"bc7dc6a9-589f-4649-9e06-6ce7434d3293","system_id":"levelo_inurba_marseille","lat":43.2866,"lon":5.36351,"is_reserved":false,"is_disabled":false,"rental_uris":{"android":"levelo://app?vid=bc7dc6a9-589f-4649-9e06-6ce7434d3293","ios":"levelo://app?vid=bc7dc6a9-589f-4649-9e06-6ce7434d3293"},"vehicle_type_id":"4","last_reported":1727550453,"current_range_meters":24400,"station_id":"ce4bhah2rcd13ifvqej0","pricing_plan_id":"cebpf4jnsgd1na2vs0mg"},{"bike_id":"f8cd1665-2182-42bb-993d-799437deb95c","system_id":"levelo_inurba_marseille","lat":43.23195,"lon":5.35573,"is_reserved":false,"is_disabled":false,"rental_uris":{"android":"levelo://app?vid=f8cd1665-2182-42bb-993d-799437deb95c","ios":"levelo://app?vid=f8cd1665-2182-42bb-993d-799437deb95c"},"vehicle_type_id":"4","last_reported":1727550453,"current_range_meters":7200,"station_id":"ce4bhu92rcd13ifvqi70","pricing_plan_id":"cebpf4jnsgd1na2vs0mg"},{"bike_id":"0ce2bd77-f8db-4549-bfb7-e61ed7f1e2db","system_id":"levelo_inurba_marseille","lat":43.29622,"lon":5.37161,"is_reserved":false,"is_disabled":false,"rental_uris":{"android":"levelo://app?vid=0ce2bd77-f8db-4549-bfb7-e61ed7f1e2db","ios":"levelo://app?vid=0ce2bd77-f8db-4549-bfb7-e61ed7f1e2db"},"vehicle_type_id":"4","last_reported":1727550453,"current_range_meters":36400,"station_id":"ce4bgnh2rcd13ifvqc0g","pricing_plan_id":"cebpf4jnsgd1na2vs0mg"},{"bike_id":"7d072fc5-ac0b-4d8f-8800-2b8d73fff42b","system_id":"levelo_inurba_marseille","lat":43.28104,"lon":5.37843,"is_reserved":false,"is_disabled":false,"rental_uris":{"android":"levelo://app?vid=7d072fc5-ac0b-4d8f-8800-2b8d73fff42b","ios":"levelo://app?vid=7d072fc5-ac0b-4d8f-8800-2b8d73fff42b"},"vehicle_type_id":"4","last_reported":1727550453,"current_range_meters":11600,"station_id":"ce4bha12rcd13ifvqee0","pricing_plan_id":"cebpf4jnsgd1na2vs0mg"},{"bike_id":"7a461302-f167-4111-92d7-631e3861ed34","system_id":"levelo_inurba_marseille","lat":43.26569,"lon":5.3902,"is_reserved":false,"is_disabled":false,"rental_uris":{"android":"levelo://app?vid=7a461302-f167-4111-92d7-631e3861ed34","ios":"levelo://app?vid=7a461302-f167-4111-92d7-631e3861ed34"},"vehicle_type_id":"4","last_reported":1727550453,"current_range_meters":25200,"station_id":"ce4bhe12rcd13ifvqf30","pricing_plan_id":"cebpf4jnsgd1na2vs0mg"},{"bike_id":"6ae57fba-775f-425a-9925-8eae1e70d0a8","system_id":"levelo_inurba_marseille","lat":43.31116,"lon":5.37779,"is_reserved":false,"is_disabled":false,"rental_uris":{"android":"levelo://app?vid=6ae57fba-775f-425a-9925-8eae1e70d0a8","ios":"levelo://app?vid=6ae57fba-775f-425a-9925-8eae1e70d0a8"},"vehicle_type_id":"4","last_reported":1727550453,"current_range_meters":35200,"station_id":"ce4bgt92rcd13ifvqcg0","pricing_plan_id":"cebpf4jnsgd1na2vs0mg"},{"bike_id":"8ad40e9a-f7fa-4e4f-a5cb-206a7b1526c8","system_id":"levelo_inurba_marseille","lat":43.29874,"lon":5.39736,"is_reserved":false,"is_disabled":false,"rental_uris":{"android":"levelo://app?vid=8ad40e9a-f7fa-4e4f-a5cb-206a7b1526c8","ios":"levelo://app?vid=8ad40e9a-f7fa-4e4f-a5cb-206a7b1526c8"},"vehicle_type_id":"4","last_reported":1727550453,"current_range_meters":24000,"station_id":"ce4bh0h2rcd13ifvqd50","pricing_plan_id":"cebpf4jnsgd1na2vs0mg"},{"bike_id":"25b87977-7405-42da-8315-2c24e0328519","system_id":"levelo_inurba_marseille","lat":43.30134,"lon":5.39855,"is_reserved":false,"is_disabled":false,"rental_uris":{"android":"levelo://app?vid=25b87977-7405-42da-8315-2c24e0328519","ios":"levelo://app?vid=25b87977-7405-42da-8315-2c24e0328519"},"vehicle_type_id":"4","last_reported":1727550453,"current_range_meters":4800,"station_id":"ce4bh0h2rcd13ifvqd40","pricing_plan_id":"cebpf4jnsgd1na2vs0mg"},{"bike_id":"3b170ecf-4bbb-421f-886d-94818fba1de8","system_id":"levelo_inurba_marseille","lat":43.28491,"lon":5.40052,"is_reserved":false,"is_disabled":false,"rental_uris":{"android":"levelo://app?vid=3b170ecf-4bbb-421f-886d-94818fba1de8","ios":"levelo://app?vid=3b170ecf-4bbb-421f-886d-94818fba1de8"},"vehicle_type_id":"4","last_reported":1727550453,"current_range_meters":36000,"station_id":"ce4bh2h2rcd13ifvqdh0","pricing_plan_id":"cebpf4jnsgd1na2vs0mg"},{"bike_id":"6eabd25d-9438-45bd-9aad-24f3fa5f91ba","system_id":"levelo_inurba_marseille","lat":43.26945,"lon":5.38635,"is_reserved":false,"is_disabled":false,"rental_uris":{"android":"levelo://app?vid=6eabd25d-9438-45bd-9aad-24f3fa5f91ba","ios":"levelo://app?vid=6eabd25d-9438-45bd-9aad-24f3fa5f91ba"},"vehicle_type_id":"4","last_reported":1727550453,"current_range_meters":38800,"station_id":"ce4bhh92rcd13ifvqfh0","pricing_plan_id":"cebpf4jnsgd1na2vs0mg"},{"bike_id":"de704d9e-d5ce-4f43-a84a-56dc0f451b48","system_id":"levelo_inurba_marseille","lat":43.29415,"lon":5.38632,"is_reserved":false,"is_disabled":false,"rental_uris":{"android":"levelo://app?vid=de704d9e-d5ce-4f43-a84a-56dc0f451b48","ios":"levelo://app?vid=de704d9e-d5ce-4f43-a84a-56dc0f451b48"},"vehicle_type_id":"4","last_reported":1727550453,"current_range_meters":38400,"station_id":"ce4bh2h2rcd13ifvqdh0","pricing_plan_id":"cebpf4jnsgd1na2vs0mg"},{"bike_id":"d40ceebd-8d5f-44eb-b89c-f03636e27a7f","system_id":"levelo_inurba_marseille","lat":43.2953,"lon":5.38537,"is_reserved":false,"is_disabled":false,"rental_uris":{"android":"levelo://app?vid=d40ceebd-8d5f-44eb-b89c-f03636e27a7f","ios":"levelo://app?vid=d40ceebd-8d5f-44eb-b89c-f03636e27a7f"},"vehicle_type_id":"4","last_reported":1727550453,"current_range_meters":12000,"station_id":"ce4bgih2rcd13ifvqba0","pricing_plan_id":"cebpf4jnsgd1na2vs0mg"},{"bike_id":"de3ca0ce-601a-4c2d-9698-5635c756a39e","system_id":"levelo_inurba_marseille","lat":43.2826,"lon":5.35069,"is_reserved":false,"is_disabled":false,"rental_uris":{"android":"levelo://app?vid=de3ca0ce-601a-4c2d-9698-5635c756a39e","ios":"levelo://app?vid=de3ca0ce-601a-4c2d-9698-5635c756a39e"},"vehicle_type_id":"4","last_reported":1727550453,"current_range_meters":39200,"station_id":"ce4bhbp2rcd13ifvqerg","pricing_plan_id":"cebpf4jnsgd1na2vs0mg"},{"bike_id":"8f1adf28-1e5a-4a9e-b3d1-69d9e33a370b","system_id":"levelo_inurba_marseille","lat":43.29256,"lon":5.3844,"is_reserved":false,"is_disabled":false,"rental_uris":{"android":"levelo://app?vid=8f1adf28-1e5a-4a9e-b3d1-69d9e33a370b","ios":"levelo://app?vid=8f1adf28-1e5a-4a9e-b3d1-69d9e33a370b"},"vehicle_type_id":"4","last_reported":1727550453,"current_range_meters":30800,"station_id":"ce4bh692rcd13ifvqea0","pricing_plan_id":"cebpf4jnsgd1na2vs0mg"},{"bike_id":"5ecbc28a-05b5-4078-b0cc-a4c909caf3c4","system_id":"levelo_inurba_marseille","lat":43.2872,"lon":5.36092,"is_reserved":false,"is_disabled":false,"rental_uris":{"android":"levelo://app?vid=5ecbc28a-05b5-4078-b0cc-a4c909caf3c4","ios":"levelo://app?vid=5ecbc28a-05b5-4078-b0cc-a4c909caf3c4"},"vehicle_type_id":"4","last_reported":1727550453,"current_range_meters":37600,"station_id":"cki0cbj6b192h4jlfktg","pricing_plan_id":"cebpf4jnsgd1na2vs0mg"},{"bike_id":"717434f7-984e-494a-bdf3-d68848066a35","system_id":"levelo_inurba_marseille","lat":43.30137,"lon":5.37422,"is_reserved":false,"is_disabled":false,"rental_uris":{"android":"levelo://app?vid=717434f7-984e-494a-bdf3-d68848066a35","ios":"levelo://app?vid=717434f7-984e-494a-bdf3-d68848066a35"},"vehicle_type_id":"4","last_reported":1727550453,"current_range_meters":17600,"station_id":"ce4bgs92rcd13ifvqcc0","pricing_plan_id":"cebpf4jnsgd1na2vs0mg"},{"bike_id":"e8369901-f00f-4c98-b72b-d50466b1ab0f","system_id":"levelo_inurba_marseille","lat":43.29583,"lon":5.37506,"is_reserved":false,"is_disabled":false,"rental_uris":{"android":"levelo://app?vid=e8369901-f00f-4c98-b72b-d50466b1ab0f","ios":"levelo://app?vid=e8369901-f00f-4c98-b72b-d50466b1ab0f"},"vehicle_type_id":"4","last_reported":1727550453,"current_range_meters":36400,"station_id":"ce4bgh92rcd13ifvqb50","pricing_plan_id":"cebpf4jnsgd1na2vs0mg"},{"bike_id":"27303931-5963-4fe4-8cc3-ab58c99ef9b9","system_id":"levelo_inurba_marseille","lat":43.27942,"lon":5.41047,"is_reserved":false,"is_disabled":false,"rental_uris":{"android":"levelo://app?vid=27303931-5963-4fe4-8cc3-ab58c99ef9b9","ios":"levelo://app?vid=27303931-5963-4fe4-8cc3-ab58c99ef9b9"},"vehicle_type_id":"4","last_reported":1727550453,"current_range_meters":30400,"station_id":"ce4bhnp2rcd13ifvqh0g","pricing_plan_id":"cebpf4jnsgd1na2vs0mg"},{"bike_id":"0366810a-018b-4fc2-93d5-9c21f3d9e109","system_id":"levelo_inurba_marseille","lat":43.29307,"lon":5.37185,"is_reserved":false,"is_disabled":false,"rental_uris":{"android":"levelo://app?vid=0366810a-018b-4fc2-93d5-9c21f3d9e109","ios":"levelo://app?vid=0366810a-018b-4fc2-93d5-9c21f3d9e109"},"vehicle_type_id":"4","last_reported":1727550453,"current_range_meters":31200,"station_id":"ce4bgh92rcd13ifvqb40","pricing_plan_id":"cebpf4jnsgd1na2vs0mg"},{"bike_id":"fff7ca58-9a03-4aea-a8e5-eccdf53b0b4b","system_id":"levelo_inurba_marseille","lat":43.28439,"lon":5.39186,"is_reserved":false,"is_disabled":false,"rental_uris":{"android":"levelo://app?vid=fff7ca58-9a03-4aea-a8e5-eccdf53b0b4b","ios":"levelo://app?vid=fff7ca58-9a03-4aea-a8e5-eccdf53b0b4b"},"vehicle_type_id":"4","last_reported":1727550453,"current_range_meters":37600,"station_id":"ce4bhoh2rcd13ifvqh5g","pricing_plan_id":"cebpf4jnsgd1na2vs0mg"},{"bike_id":"eb35b74a-e100-4849-baf8-86135e114bef","system_id":"levelo_inurba_marseille","lat":43.23157,"lon":5.437,"is_reserved":false,"is_disabled":false,"rental_uris":{"android":"levelo://app?vid=eb35b74a-e100-4849-baf8-86135e114bef","ios":"levelo://app?vid=eb35b74a-e100-4849-baf8-86135e114bef"},"vehicle_type_id":"4","last_reported":1727550453,"current_range_meters":36400,"station_id":"ce4bhmp2rcd13ifvqgog","pricing_plan_id":"cebpf4jnsgd1na2vs0mg"},{"bike_id":"1b5b4caa-d6d6-4856-bf01-f3a7cca85928","system_id":"levelo_inurba_marseille","lat":43.27948,"lon":5.38701,"is_reserved":false,"is_disabled":false,"rental_uris":{"android":"levelo://app?vid=1b5b4caa-d6d6-4856-bf01-f3a7cca85928","ios":"levelo://app?vid=1b5b4caa-d6d6-4856-bf01-f3a7cca85928"},"vehicle_type_id":"4","last_reported":1727550453,"current_range_meters":4000,"station_id":"ce4bhg12rcd13ifvqf80","pricing_plan_id":"cebpf4jnsgd1na2vs0mg"},{"bike_id":"21f5ad32-b40f-48fe-b398-7e037effba14","system_id":"levelo_inurba_marseille","lat":43.29605,"lon":5.38107,"is_reserved":false,"is_disabled":false,"rental_uris":{"android":"levelo://app?vid=21f5ad32-b40f-48fe-b398-7e037effba14","ios":"levelo://app?vid=21f5ad32-b40f-48fe-b398-7e037effba14"},"vehicle_type_id":"4","last_reported":1727550453,"current_range_meters":38800,"station_id":"ce4bgl12rcd13ifvqbo0","pricing_plan_id":"cebpf4jnsgd1na2vs0mg"},{"bike_id":"e5043f39-22d0-4e86-91b1-40a84b7b455c","system_id":"levelo_inurba_marseille","lat":43.27909,"lon":5.3801,"is_reserved":false,"is_disabled":false,"rental_uris":{"android":"levelo://app?vid=e5043f39-22d0-4e86-91b1-40a84b7b455c","ios":"levelo://app?vid=e5043f39-22d0-4e86-91b1-40a84b7b455c"},"vehicle_type_id":"4","last_reported":1727550453,"current_range_meters":8000,"station_id":"ce4bhf92rcd13ifvqf50","pricing_plan_id":"cebpf4jnsgd1na2vs0mg"},{"bike_id":"8eb5911f-c95e-4f31-a6d6-b3cd459f46bc","system_id":"levelo_inurba_marseille","lat":43.32481,"lon":5.36575,"is_reserved":false,"is_disabled":false,"rental_uris":{"android":"levelo://app?vid=8eb5911f-c95e-4f31-a6d6-b3cd459f46bc","ios":"levelo://app?vid=8eb5911f-c95e-4f31-a6d6-b3cd459f46bc"},"vehicle_type_id":"4","last_reported":1727550453,"current_range_meters":18800,"station_id":"ce4bhs12rcd13ifvqhvg","pricing_plan_id":"cebpf4jnsgd1na2vs0mg"},{"bike_id":"45ba24be-2fca-441a-a9fd-6f1c591e15ef","system_id":"levelo_inurba_marseille","lat":43.30131,"lon":5.3989,"is_reserved":false,"is_disabled":false,"rental_uris":{"android":"levelo://app?vid=45ba24be-2fca-441a-a9fd-6f1c591e15ef","ios":"levelo://app?vid=45ba24be-2fca-441a-a9fd-6f1c591e15ef"},"vehicle_type_id":"4","last_reported":1727550453,"current_range_meters":6800,"station_id":"ce4bh0h2rcd13ifvqd40","pricing_plan_id":"cebpf4jnsgd1na2vs0mg"},{"bike_id":"5f64a3f2-14f7-4b0f-8a26-518a6dfa9da8","system_id":"levelo_inurba_marseille","lat":43.29592,"lon":5.381,"is_reserved":false,"is_disabled":false,"rental_uris":{"android":"levelo://app?vid=5f64a3f2-14f7-4b0f-8a26-518a6dfa9da8","ios":"levelo://app?vid=5f64a3f2-14f7-4b0f-8a26-518a6dfa9da8"},"vehicle_type_id":"4","last_reported":1727550453,"current_range_meters":38800,"station_id":"ce4bgl12rcd13ifvqbo0","pricing_plan_id":"cebpf4jnsgd1na2vs0mg"},{"bike_id":"12e93208-c1ce-41ff-aad9-0a3045a85909","system_id":"levelo_inurba_marseille","lat":43.29265,"lon":5.38429,"is_reserved":false,"is_disabled":false,"rental_uris":{"android":"levelo://app?vid=12e93208-c1ce-41ff-aad9-0a3045a85909","ios":"levelo://app?vid=12e93208-c1ce-41ff-aad9-0a3045a85909"},"vehicle_type_id":"4","last_reported":1727550453,"current_range_meters":10800,"station_id":"ce4bh692rcd13ifvqea0","pricing_plan_id":"cebpf4jnsgd1na2vs0mg"},{"bike_id":"78e7eb68-c5a1-41bf-b3fc-237206bd21c7","system_id":"levelo_inurba_marseille","lat":43.29527,"lon":5.39399,"is_reserved":false,"is_disabled":false,"rental_uris":{"android":"levelo://app?vid=78e7eb68-c5a1-41bf-b3fc-237206bd21c7","ios":"levelo://app?vid=78e7eb68-c5a1-41bf-b3fc-237206bd21c7"},"vehicle_type_id":"4","last_reported":1727550453,"current_range_meters":20800,"station_id":"ce4bh292rcd13ifvqdf0","pricing_plan_id":"cebpf4jnsgd1na2vs0mg"},{"bike_id":"c0117ef1-a20d-4df0-8965-82062dfc7d03","system_id":"levelo_inurba_marseille","lat":43.28973,"lon":5.378387,"is_reserved":false,"is_disabled":false,"rental_uris":{"android":"levelo://app?vid=c0117ef1-a20d-4df0-8965-82062dfc7d03","ios":"levelo://app?vid=c0117ef1-a20d-4df0-8965-82062dfc7d03"},"vehicle_type_id":"4","last_reported":1727550453,"current_range_meters":38800,"station_id":"ce4bh9p2rcd13ifvqed0","pricing_plan_id":"cebpf4jnsgd1na2vs0mg"},{"bike_id":"d6b39798-ddbe-4702-8ab7-ca959a272957","system_id":"levelo_inurba_marseille","lat":43.29022,"lon":5.38632,"is_reserved":false,"is_disabled":false,"rental_uris":{"android":"levelo://app?vid=d6b39798-ddbe-4702-8ab7-ca959a272957","ios":"levelo://app?vid=d6b39798-ddbe-4702-8ab7-ca959a272957"},"vehicle_type_id":"4","last_reported":1727550453,"current_range_meters":38000,"station_id":"ce4bh4p2rcd13ifvqe0g","pricing_plan_id":"cebpf4jnsgd1na2vs0mg"},{"bike_id":"cf14aa84-81e8-44fc-87a1-fe3250a6d504","system_id":"levelo_inurba_marseille","lat":43.29416,"lon":5.38634,"is_reserved":false,"is_disabled":false,"rental_uris":{"android":"levelo://app?vid=cf14aa84-81e8-44fc-87a1-fe3250a6d504","ios":"levelo://app?vid=cf14aa84-81e8-44fc-87a1-fe3250a6d504"},"vehicle_type_id":"4","last_reported":1727550453,"current_range_meters":14400,"station_id":"ce4bh2h2rcd13ifvqdh0","pricing_plan_id":"cebpf4jnsgd1na2vs0mg"},{"bike_id":"9efdf05c-571e-4c3a-a0bf-af0e0fbc032d","system_id":"levelo_inurba_marseille","lat":43.25092,"lon":5.39515,"is_reserved":false,"is_disabled":false,"rental_uris":{"android":"levelo://app?vid=9efdf05c-571e-4c3a-a0bf-af0e0fbc032d","ios":"levelo://app?vid=9efdf05c-571e-4c3a-a0bf-af0e0fbc032d"},"vehicle_type_id":"4","last_reported":1727550453,"current_range_meters":22400,"station_id":"ce4bhm12rcd13ifvqgkg","pricing_plan_id":"cebpf4jnsgd1na2vs0mg"},{"bike_id":"f429bdb6-7808-4367-8637-adab7a63bac2","system_id":"levelo_inurba_marseille","lat":43.29305,"lon":5.37173,"is_reserved":false,"is_disabled":false,"rental_uris":{"android":"levelo://app?vid=f429bdb6-7808-4367-8637-adab7a63bac2","ios":"levelo://app?vid=f429bdb6-7808-4367-8637-adab7a63bac2"},"vehicle_type_id":"4","last_reported":1727550453,"current_range_meters":24400,"station_id":"ce4bgh92rcd13ifvqb40","pricing_plan_id":"cebpf4jnsgd1na2vs0mg"},{"bike_id":"e47f2e2b-11d7-4f57-8122-4040f6d77bde","system_id":"levelo_inurba_marseille","lat":43.29295,"lon":5.37445,"is_reserved":false,"is_disabled":false,"rental_uris":{"android":"levelo://app?vid=e47f2e2b-11d7-4f57-8122-4040f6d77bde","ios":"levelo://app?vid=e47f2e2b-11d7-4f57-8122-4040f6d77bde"},"vehicle_type_id":"4","last_reported":1727550453,"current_range_meters":17600,"station_id":"ce4bgi12rcd13ifvqb70","pricing_plan_id":"cebpf4jnsgd1na2vs0mg"},{"bike_id":"8537bd26-c143-480b-ac7c-86d2b5338011","system_id":"levelo_inurba_marseille","lat":43.26214,"lon":5.37444,"is_reserved":false,"is_disabled":false,"rental_uris":{"android":"levelo://app?vid=8537bd26-c143-480b-ac7c-86d2b5338011","ios":"levelo://app?vid=8537bd26-c143-480b-ac7c-86d2b5338011"},"vehicle_type_id":"4","last_reported":1727550453,"current_range_meters":38800,"station_id":"ce4bhgp2rcd13ifvqfc0","pricing_plan_id":"cebpf4jnsgd1na2vs0mg"},{"bike_id":"199f764e-7942-4511-a407-33ff4a7dc457","system_id":"levelo_inurba_marseille","lat":43.26028,"lon":5.37557,"is_reserved":false,"is_disabled":false,"rental_uris":{"android":"levelo://app?vid=199f764e-7942-4511-a407-33ff4a7dc457","ios":"levelo://app?vid=199f764e-7942-4511-a407-33ff4a7dc457"},"vehicle_type_id":"4","last_reported":1727550453,"current_range_meters":38800,"station_id":"ce4bhgh2rcd13ifvqfa0","pricing_plan_id":"cebpf4jnsgd1na2vs0mg"},{"bike_id":"000095aa-5437-4a81-883b-ac275ad3635e","system_id":"levelo_inurba_marseille","lat":43.2902,"lon":5.38144,"is_reserved":false,"is_disabled":false,"rental_uris":{"android":"levelo://app?vid=000095aa-5437-4a81-883b-ac275ad3635e","ios":"levelo://app?vid=000095aa-5437-4a81-883b-ac275ad3635e"},"vehicle_type_id":"4","last_reported":1727550453,"current_range_meters":38800,"station_id":"ce4bh4p2rcd13ifvqe1g","pricing_plan_id":"cebpf4jnsgd1na2vs0mg"},{"bike_id":"0701cf2a-674c-4c9d-af1e-6650acbaaf74","system_id":"levelo_inurba_marseille","lat":43.283786,"lon":5.37295,"is_reserved":false,"is_disabled":false,"rental_uris":{"android":"levelo://app?vid=0701cf2a-674c-4c9d-af1e-6650acbaaf74","ios":"levelo://app?vid=0701cf2a-674c-4c9d-af1e-6650acbaaf74"},"vehicle_type_id":"4","last_reported":1727550453,"current_range_meters":14400,"station_id":"","pricing_plan_id":"cebpf4jnsgd1na2vs0mg"},{"bike_id":"b8407427-007e-4308-aa94-574ca72b27a3","system_id":"levelo_inurba_marseille","lat":43.24176,"lon":5.39738,"is_reserved":false,"is_disabled":false,"rental_uris":{"android":"levelo://app?vid=b8407427-007e-4308-aa94-574ca72b27a3","ios":"levelo://app?vid=b8407427-007e-4308-aa94-574ca72b27a3"},"vehicle_type_id":"4","last_reported":1727550453,"current_range_meters":11200,"station_id":"ce4bhn12rcd13ifvqgpg","pricing_plan_id":"cebpf4jnsgd1na2vs0mg"},{"bike_id":"8322d833-412a-4896-b074-5af23b88aa36","system_id":"levelo_inurba_marseille","lat":43.29536,"lon":5.38556,"is_reserved":false,"is_disabled":false,"rental_uris":{"android":"levelo://app?vid=8322d833-412a-4896-b074-5af23b88aa36","ios":"levelo://app?vid=8322d833-412a-4896-b074-5af23b88aa36"},"vehicle_type_id":"4","last_reported":1727550453,"current_range_meters":12800,"station_id":"ce4bgih2rcd13ifvqba0","pricing_plan_id":"cebpf4jnsgd1na2vs0mg"},{"bike_id":"d44884e7-ce63-46ab-af8e-d3ae8af89ab4","system_id":"levelo_inurba_marseille","lat":43.28373,"lon":5.38109,"is_reserved":false,"is_disabled":false,"rental_uris":{"android":"levelo://app?vid=d44884e7-ce63-46ab-af8e-d3ae8af89ab4","ios":"levelo://app?vid=d44884e7-ce63-46ab-af8e-d3ae8af89ab4"},"vehicle_type_id":"4","last_reported":1727550453,"current_range_meters":19200,"station_id":"ce4bh412rcd13ifvqdr0","pricing_plan_id":"cebpf4jnsgd1na2vs0mg"},{"bike_id":"8dc67aea-8c43-4618-97ea-d8c40591f0a3","system_id":"levelo_inurba_marseille","lat":43.30884,"lon":5.39667,"is_reserved":false,"is_disabled":false,"rental_uris":{"android":"levelo://app?vid=8dc67aea-8c43-4618-97ea-d8c40591f0a3","ios":"levelo://app?vid=8dc67aea-8c43-4618-97ea-d8c40591f0a3"},"vehicle_type_id":"4","last_reported":1727550453,"current_range_meters":6800,"station_id":"ce4bh012rcd13ifvqcv0","pricing_plan_id":"cebpf4jnsgd1na2vs0mg"},{"bike_id":"ca5469d5-bef3-431d-883e-94729c177632","system_id":"levelo_inurba_marseille","lat":43.29519,"lon":5.37521,"is_reserved":false,"is_disabled":false,"rental_uris":{"android":"levelo://app?vid=ca5469d5-bef3-431d-883e-94729c177632","ios":"levelo://app?vid=ca5469d5-bef3-431d-883e-94729c177632"},"vehicle_type_id":"4","last_reported":1727550453,"current_range_meters":11200,"station_id":"ce4bgkp2rcd13ifvqbmg","pricing_plan_id":"cebpf4jnsgd1na2vs0mg"},{"bike_id":"6cdca13d-24d1-4302-912a-54d18c748242","system_id":"levelo_inurba_marseille","lat":43.31083,"lon":5.40132,"is_reserved":false,"is_disabled":false,"rental_uris":{"android":"levelo://app?vid=6cdca13d-24d1-4302-912a-54d18c748242","ios":"levelo://app?vid=6cdca13d-24d1-4302-912a-54d18c748242"},"vehicle_type_id":"4","last_reported":1727550453,"current_range_meters":8400,"station_id":"","pricing_plan_id":"cebpf4jnsgd1na2vs0mg"},{"bike_id":"ee62f405-8239-4a06-be32-2aa9ede402f9","system_id":"levelo_inurba_marseille","lat":43.27423,"lon":5.39421,"is_reserved":false,"is_disabled":false,"rental_uris":{"android":"levelo://app?vid=ee62f405-8239-4a06-be32-2aa9ede402f9","ios":"levelo://app?vid=ee62f405-8239-4a06-be32-2aa9ede402f9"},"vehicle_type_id":"4","last_reported":1727550453,"current_range_meters":38800,"station_id":"ce4bhdp2rcd13ifvqf20","pricing_plan_id":"cebpf4jnsgd1na2vs0mg"},{"bike_id":"7a00023f-56c4-4783-b2a5-18ce5d78331a","system_id":"levelo_inurba_marseille","lat":43.25088,"lon":5.39529,"is_reserved":false,"is_disabled":false,"rental_uris":{"android":"levelo://app?vid=7a00023f-56c4-4783-b2a5-18ce5d78331a","ios":"levelo://app?vid=7a00023f-56c4-4783-b2a5-18ce5d78331a"},"vehicle_type_id":"4","last_reported":1727550453,"current_range_meters":6400,"station_id":"ce4bhm12rcd13ifvqgkg","pricing_plan_id":"cebpf4jnsgd1na2vs0mg"},{"bike_id":"28aed500-fdb8-463a-a072-0d412aa281ea","system_id":"levelo_inurba_marseille","lat":43.31083,"lon":5.42436,"is_reserved":false,"is_disabled":false,"rental_uris":{"android":"levelo://app?vid=28aed500-fdb8-463a-a072-0d412aa281ea","ios":"levelo://app?vid=28aed500-fdb8-463a-a072-0d412aa281ea"},"vehicle_type_id":"4","last_reported":1727550453,"current_range_meters":20800,"station_id":"ce4bhp92rcd13ifvqhag","pricing_plan_id":"cebpf4jnsgd1na2vs0mg"},{"bike_id":"2caf75ec-0d47-424f-9d72-0df1f54aad59","system_id":"levelo_inurba_marseille","lat":43.292053,"lon":5.39324,"is_reserved":false,"is_disabled":false,"rental_uris":{"android":"levelo://app?vid=2caf75ec-0d47-424f-9d72-0df1f54aad59","ios":"levelo://app?vid=2caf75ec-0d47-424f-9d72-0df1f54aad59"},"vehicle_type_id":"4","last_reported":1727550453,"current_range_meters":34000,"station_id":"ce4bh192rcd13ifvqdd0","pricing_plan_id":"cebpf4jnsgd1na2vs0mg"},{"bike_id":"d95cafd2-6ec0-4b24-8abf-5f45e8563d38","system_id":"levelo_inurba_marseille","lat":43.26034,"lon":5.3755,"is_reserved":false,"is_disabled":false,"rental_uris":{"android":"levelo://app?vid=d95cafd2-6ec0-4b24-8abf-5f45e8563d38","ios":"levelo://app?vid=d95cafd2-6ec0-4b24-8abf-5f45e8563d38"},"vehicle_type_id":"4","last_reported":1727550453,"current_range_meters":36400,"station_id":"ce4bhgh2rcd13ifvqfa0","pricing_plan_id":"cebpf4jnsgd1na2vs0mg"},{"bike_id":"86b89f8f-9b5e-4240-b590-327a9ab59701","system_id":"levelo_inurba_marseille","lat":43.2904,"lon":5.38661,"is_reserved":false,"is_disabled":false,"rental_uris":{"android":"levelo://app?vid=86b89f8f-9b5e-4240-b590-327a9ab59701","ios":"levelo://app?vid=86b89f8f-9b5e-4240-b590-327a9ab59701"},"vehicle_type_id":"4","last_reported":1727550453,"current_range_meters":38800,"station_id":"ce4bh4p2rcd13ifvqe0g","pricing_plan_id":"cebpf4jnsgd1na2vs0mg"},{"bike_id":"40d2e1c6-9971-4b75-b3b8-5b7efcecfe17","system_id":"levelo_inurba_marseille","lat":43.29513,"lon":5.39405,"is_reserved":false,"is_disabled":false,"rental_uris":{"android":"levelo://app?vid=40d2e1c6-9971-4b75-b3b8-5b7efcecfe17","ios":"levelo://app?vid=40d2e1c6-9971-4b75-b3b8-5b7efcecfe17"},"vehicle_type_id":"4","last_reported":1727550453,"current_range_meters":9600,"station_id":"ce4bh292rcd13ifvqdf0","pricing_plan_id":"cebpf4jnsgd1na2vs0mg"},{"bike_id":"5220e7ba-5183-450c-986e-1a09b217d618","system_id":"levelo_inurba_marseille","lat":43.28274,"lon":5.35079,"is_reserved":false,"is_disabled":false,"rental_uris":{"android":"levelo://app?vid=5220e7ba-5183-450c-986e-1a09b217d618","ios":"levelo://app?vid=5220e7ba-5183-450c-986e-1a09b217d618"},"vehicle_type_id":"4","last_reported":1727550453,"current_range_meters":4800,"station_id":"ce4bhbp2rcd13ifvqerg","pricing_plan_id":"cebpf4jnsgd1na2vs0mg"},{"bike_id":"3407da71-e9f5-4375-9956-506983640a2f","system_id":"levelo_inurba_marseille","lat":43.28989,"lon":5.3758,"is_reserved":false,"is_disabled":false,"rental_uris":{"android":"levelo://app?vid=3407da71-e9f5-4375-9956-506983640a2f","ios":"levelo://app?vid=3407da71-e9f5-4375-9956-506983640a2f"},"vehicle_type_id":"4","last_reported":1727550453,"current_range_meters":27600,"station_id":"ce4bh692rcd13ifvqe90","pricing_plan_id":"cebpf4jnsgd1na2vs0mg"},{"bike_id":"e2ec1377-333c-4f48-91f4-d041b1187c20","system_id":"levelo_inurba_marseille","lat":43.29044,"lon":5.38671,"is_reserved":false,"is_disabled":false,"rental_uris":{"android":"levelo://app?vid=e2ec1377-333c-4f48-91f4-d041b1187c20","ios":"levelo://app?vid=e2ec1377-333c-4f48-91f4-d041b1187c20"},"vehicle_type_id":"4","last_reported":1727550453,"current_range_meters":17200,"station_id":"ce4bh4p2rcd13ifvqe0g","pricing_plan_id":"cebpf4jnsgd1na2vs0mg"},{"bike_id":"50706d55-3aa6-40fe-9c0c-e224fd895e38","system_id":"levelo_inurba_marseille","lat":43.3136,"lon":5.38497,"is_reserved":false,"is_disabled":false,"rental_uris":{"android":"levelo://app?vid=50706d55-3aa6-40fe-9c0c-e224fd895e38","ios":"levelo://app?vid=50706d55-3aa6-40fe-9c0c-e224fd895e38"},"vehicle_type_id":"4","last_reported":1727550453,"current_range_meters":30800,"station_id":"ce4bgt92rcd13ifvqcf0","pricing_plan_id":"cebpf4jnsgd1na2vs0mg"},{"bike_id":"59e8455c-8c7c-463b-8a4a-59105cd6420e","system_id":"levelo_inurba_marseille","lat":43.30134,"lon":5.39871,"is_reserved":false,"is_disabled":false,"rental_uris":{"android":"levelo://app?vid=59e8455c-8c7c-463b-8a4a-59105cd6420e","ios":"levelo://app?vid=59e8455c-8c7c-463b-8a4a-59105cd6420e"},"vehicle_type_id":"4","last_reported":1727550453,"current_range_meters":7200,"station_id":"ce4bh0h2rcd13ifvqd40","pricing_plan_id":"cebpf4jnsgd1na2vs0mg"},{"bike_id":"d76dccaf-8c44-4da5-be3e-d7392fe238c9","system_id":"levelo_inurba_marseille","lat":43.30601,"lon":5.39357,"is_reserved":false,"is_disabled":false,"rental_uris":{"android":"levelo://app?vid=d76dccaf-8c44-4da5-be3e-d7392fe238c9","ios":"levelo://app?vid=d76dccaf-8c44-4da5-be3e-d7392fe238c9"},"vehicle_type_id":"4","last_reported":1727550453,"current_range_meters":13600,"station_id":"ce4bh0p2rcd13ifvqd80","pricing_plan_id":"cebpf4jnsgd1na2vs0mg"},{"bike_id":"bb7c892b-8353-4481-a878-0be9adc1f508","system_id":"levelo_inurba_marseille","lat":43.31333,"lon":5.397,"is_reserved":false,"is_disabled":false,"rental_uris":{"android":"levelo://app?vid=bb7c892b-8353-4481-a878-0be9adc1f508","ios":"levelo://app?vid=bb7c892b-8353-4481-a878-0be9adc1f508"},"vehicle_type_id":"4","last_reported":1727550453,"current_range_meters":9600,"station_id":"ce4bgvp2rcd13ifvqcu0","pricing_plan_id":"cebpf4jnsgd1na2vs0mg"},{"bike_id":"d595f585-d257-4c51-ba15-c33e9d20289e","system_id":"levelo_inurba_marseille","lat":43.24998,"lon":5.38937,"is_reserved":false,"is_disabled":false,"rental_uris":{"android":"levelo://app?vid=d595f585-d257-4c51-ba15-c33e9d20289e","ios":"levelo://app?vid=d595f585-d257-4c51-ba15-c33e9d20289e"},"vehicle_type_id":"4","last_reported":1727550453,"current_range_meters":24000,"station_id":"ce4bhgp2rcd13ifvqfd0","pricing_plan_id":"cebpf4jnsgd1na2vs0mg"},{"bike_id":"bfd00496-1643-434b-86b2-4b91a4b3a05e","system_id":"levelo_inurba_marseille","lat":43.2318,"lon":5.39989,"is_reserved":false,"is_disabled":false,"rental_uris":{"android":"levelo://app?vid=bfd00496-1643-434b-86b2-4b91a4b3a05e","ios":"levelo://app?vid=bfd00496-1643-434b-86b2-4b91a4b3a05e"},"vehicle_type_id":"4","last_reported":1727550453,"current_range_meters":17600,"station_id":"ce4bhn12rcd13ifvqgqg","pricing_plan_id":"cebpf4jnsgd1na2vs0mg"},{"bike_id":"1ebf1f2c-3eb1-4163-8ca3-221f7958d82d","system_id":"levelo_inurba_marseille","lat":43.28703,"lon":5.39986,"is_reserved":false,"is_disabled":false,"rental_uris":{"android":"levelo://app?vid=1ebf1f2c-3eb1-4163-8ca3-221f7958d82d","ios":"levelo://app?vid=1ebf1f2c-3eb1-4163-8ca3-221f7958d82d"},"vehicle_type_id":"4","last_reported":1727550453,"current_range_meters":11200,"station_id":"ce4bho92rcd13ifvqh3g","pricing_plan_id":"cebpf4jnsgd1na2vs0mg"},{"bike_id":"275b0a25-1a9f-498c-9202-be550b06c3de","system_id":"levelo_inurba_marseille","lat":43.32294,"lon":5.3828,"is_reserved":false,"is_disabled":false,"rental_uris":{"android":"levelo://app?vid=275b0a25-1a9f-498c-9202-be550b06c3de","ios":"levelo://app?vid=275b0a25-1a9f-498c-9202-be550b06c3de"},"vehicle_type_id":"4","last_reported":1727550453,"current_range_meters":38800,"station_id":"ce4bhr12rcd13ifvqhqg","pricing_plan_id":"cebpf4jnsgd1na2vs0mg"},{"bike_id":"cb9bad39-690b-4d5c-b4b7-1c96e9f87e0c","system_id":"levelo_inurba_marseille","lat":43.25088,"lon":5.39527,"is_reserved":false,"is_disabled":false,"rental_uris":{"android":"levelo://app?vid=cb9bad39-690b-4d5c-b4b7-1c96e9f87e0c","ios":"levelo://app?vid=cb9bad39-690b-4d5c-b4b7-1c96e9f87e0c"},"vehicle_type_id":"4","last_reported":1727550453,"current_range_meters":38400,"station_id":"ce4bhm12rcd13ifvqgkg","pricing_plan_id":"cebpf4jnsgd1na2vs0mg"},{"bike_id":"e0448498-1923-4013-96e2-5aec4fc93af7","system_id":"levelo_inurba_marseille","lat":43.24804,"lon":5.37454,"is_reserved":false,"is_disabled":false,"rental_uris":{"android":"levelo://app?vid=e0448498-1923-4013-96e2-5aec4fc93af7","ios":"levelo://app?vid=e0448498-1923-4013-96e2-5aec4fc93af7"},"vehicle_type_id":"4","last_reported":1727550453,"current_range_meters":38000,"station_id":"ce4bhgh2rcd13ifvqfb0","pricing_plan_id":"cebpf4jnsgd1na2vs0mg"},{"bike_id":"0c3f0369-7cdf-4cba-a0db-09435ab8c8da","system_id":"levelo_inurba_marseille","lat":43.23183,"lon":5.4,"is_reserved":false,"is_disabled":false,"rental_uris":{"android":"levelo://app?vid=0c3f0369-7cdf-4cba-a0db-09435ab8c8da","ios":"levelo://app?vid=0c3f0369-7cdf-4cba-a0db-09435ab8c8da"},"vehicle_type_id":"4","last_reported":1727550453,"current_range_meters":29600,"station_id":"ce4bhn12rcd13ifvqgqg","pricing_plan_id":"cebpf4jnsgd1na2vs0mg"},{"bike_id":"e960e534-5791-498f-8d19-6d860f6c8973","system_id":"levelo_inurba_marseille","lat":43.29583,"lon":5.36739,"is_reserved":false,"is_disabled":false,"rental_uris":{"android":"levelo://app?vid=e960e534-5791-498f-8d19-6d860f6c8973","ios":"levelo://app?vid=e960e534-5791-498f-8d19-6d860f6c8973"},"vehicle_type_id":"4","last_reported":1727550453,"current_range_meters":20400,"station_id":"ce4bgph2rcd13ifvqc2g","pricing_plan_id":"cebpf4jnsgd1na2vs0mg"},{"bike_id":"3f2f07e2-5884-481b-87a4-17ba3a9c69b8","system_id":"levelo_inurba_marseille","lat":43.30144,"lon":5.38781,"is_reserved":false,"is_disabled":false,"rental_uris":{"android":"levelo://app?vid=3f2f07e2-5884-481b-87a4-17ba3a9c69b8","ios":"levelo://app?vid=3f2f07e2-5884-481b-87a4-17ba3a9c69b8"},"vehicle_type_id":"4","last_reported":1727550453,"current_range_meters":8000,"station_id":"ce4bghh2rcd13ifvqb60","pricing_plan_id":"cebpf4jnsgd1na2vs0mg"},{"bike_id":"5a82e63b-00bc-4dd6-999c-0f820645be1c","system_id":"levelo_inurba_marseille","lat":43.31354,"lon":5.38501,"is_reserved":false,"is_disabled":false,"rental_uris":{"android":"levelo://app?vid=5a82e63b-00bc-4dd6-999c-0f820645be1c","ios":"levelo://app?vid=5a82e63b-00bc-4dd6-999c-0f820645be1c"},"vehicle_type_id":"4","last_reported":1727550453,"current_range_meters":9600,"station_id":"ce4bgt92rcd13ifvqcf0","pricing_plan_id":"cebpf4jnsgd1na2vs0mg"},{"bike_id":"ab6dc925-331c-4640-a0a0-ddeda01fa995","system_id":"levelo_inurba_marseille","lat":43.25493,"lon":5.37651,"is_reserved":false,"is_disabled":false,"rental_uris":{"android":"levelo://app?vid=ab6dc925-331c-4640-a0a0-ddeda01fa995","ios":"levelo://app?vid=ab6dc925-331c-4640-a0a0-ddeda01fa995"},"vehicle_type_id":"4","last_reported":1727550453,"current_range_meters":38400,"station_id":"ce4bhh12rcd13ifvqff0","pricing_plan_id":"cebpf4jnsgd1na2vs0mg"},{"bike_id":"601385b5-2b2c-4206-9740-d7d2a9552369","system_id":"levelo_inurba_marseille","lat":43.30897,"lon":5.37186,"is_reserved":false,"is_disabled":false,"rental_uris":{"android":"levelo://app?vid=601385b5-2b2c-4206-9740-d7d2a9552369","ios":"levelo://app?vid=601385b5-2b2c-4206-9740-d7d2a9552369"},"vehicle_type_id":"4","last_reported":1727550453,"current_range_meters":13600,"station_id":"ce4bguh2rcd13ifvqckg","pricing_plan_id":"cebpf4jnsgd1na2vs0mg"},{"bike_id":"cd6da31a-c051-4515-b883-77718034ff6b","system_id":"levelo_inurba_marseille","lat":43.25862,"lon":5.39902,"is_reserved":false,"is_disabled":false,"rental_uris":{"android":"levelo://app?vid=cd6da31a-c051-4515-b883-77718034ff6b","ios":"levelo://app?vid=cd6da31a-c051-4515-b883-77718034ff6b"},"vehicle_type_id":"4","last_reported":1727550453,"current_range_meters":11600,"station_id":"ce4bhl92rcd13ifvqghg","pricing_plan_id":"cebpf4jnsgd1na2vs0mg"},{"bike_id":"d8e32f1c-4c32-4777-922d-4d90b15b71c7","system_id":"levelo_inurba_marseille","lat":43.30863,"lon":5.3685,"is_reserved":false,"is_disabled":false,"rental_uris":{"android":"levelo://app?vid=d8e32f1c-4c32-4777-922d-4d90b15b71c7","ios":"levelo://app?vid=d8e32f1c-4c32-4777-922d-4d90b15b71c7"},"vehicle_type_id":"4","last_reported":1727550453,"current_range_meters":8400,"station_id":"ce4bgn92rcd13ifvqbvg","pricing_plan_id":"cebpf4jnsgd1na2vs0mg"},{"bike_id":"b470945e-f45c-4291-ac95-d7061c9aab44","system_id":"levelo_inurba_marseille","lat":43.27377,"lon":5.41217,"is_reserved":false,"is_disabled":false,"rental_uris":{"android":"levelo://app?vid=b470945e-f45c-4291-ac95-d7061c9aab44","ios":"levelo://app?vid=b470945e-f45c-4291-ac95-d7061c9aab44"},"vehicle_type_id":"4","last_reported":1727550453,"current_range_meters":27200,"station_id":"","pricing_plan_id":"cebpf4jnsgd1na2vs0mg"},{"bike_id":"fc34c4dc-99af-4303-b9e3-3a0ed0515bc7","system_id":"levelo_inurba_marseille","lat":43.28415,"lon":5.37509,"is_reserved":false,"is_disabled":false,"rental_uris":{"android":"levelo://app?vid=fc34c4dc-99af-4303-b9e3-3a0ed0515bc7","ios":"levelo://app?vid=fc34c4dc-99af-4303-b9e3-3a0ed0515bc7"},"vehicle_type_id":"4","last_reported":1727550453,"current_range_meters":28000,"station_id":"ce4bh412rcd13ifvqds0","pricing_plan_id":"cebpf4jnsgd1na2vs0mg"},{"bike_id":"ba48508c-4bf3-4e93-b06c-a1aca97b82ff","system_id":"levelo_inurba_marseille","lat":43.26555,"lon":5.37285,"is_reserved":false,"is_disabled":false,"rental_uris":{"android":"levelo://app?vid=ba48508c-4bf3-4e93-b06c-a1aca97b82ff","ios":"levelo://app?vid=ba48508c-4bf3-4e93-b06c-a1aca97b82ff"},"vehicle_type_id":"4","last_reported":1727550453,"current_range_meters":38800,"station_id":"ce4bhg12rcd13ifvqf70","pricing_plan_id":"cebpf4jnsgd1na2vs0mg"},{"bike_id":"e75b23b3-28c1-4001-8136-fe712a22764c","system_id":"levelo_inurba_marseille","lat":43.29923,"lon":5.37474,"is_reserved":false,"is_disabled":false,"rental_uris":{"android":"levelo://app?vid=e75b23b3-28c1-4001-8136-fe712a22764c","ios":"levelo://app?vid=e75b23b3-28c1-4001-8136-fe712a22764c"},"vehicle_type_id":"4","last_reported":1727550453,"current_range_meters":5600,"station_id":"ce4bgjh2rcd13ifvqbg0","pricing_plan_id":"cebpf4jnsgd1na2vs0mg"},{"bike_id":"e4361fa2-90d9-45ff-9d8a-e7b112f4e011","system_id":"levelo_inurba_marseille","lat":43.28516,"lon":5.39129,"is_reserved":false,"is_disabled":false,"rental_uris":{"android":"levelo://app?vid=e4361fa2-90d9-45ff-9d8a-e7b112f4e011","ios":"levelo://app?vid=e4361fa2-90d9-45ff-9d8a-e7b112f4e011"},"vehicle_type_id":"4","last_reported":1727550453,"current_range_meters":31200,"station_id":"ce4bh3p2rcd13ifvqdp0","pricing_plan_id":"cebpf4jnsgd1na2vs0mg"},{"bike_id":"e43c70b1-d5df-47fe-bb37-fa2a94a46504","system_id":"levelo_inurba_marseille","lat":43.29035,"lon":5.38641,"is_reserved":false,"is_disabled":false,"rental_uris":{"android":"levelo://app?vid=e43c70b1-d5df-47fe-bb37-fa2a94a46504","ios":"levelo://app?vid=e43c70b1-d5df-47fe-bb37-fa2a94a46504"},"vehicle_type_id":"4","last_reported":1727550453,"current_range_meters":4800,"station_id":"ce4bh4p2rcd13ifvqe0g","pricing_plan_id":"cebpf4jnsgd1na2vs0mg"},{"bike_id":"65f828c7-d12b-47c9-87f8-27b2e7121317","system_id":"levelo_inurba_marseille","lat":43.249973,"lon":5.389302,"is_reserved":false,"is_disabled":false,"rental_uris":{"android":"levelo://app?vid=65f828c7-d12b-47c9-87f8-27b2e7121317","ios":"levelo://app?vid=65f828c7-d12b-47c9-87f8-27b2e7121317"},"vehicle_type_id":"4","last_reported":1727550453,"current_range_meters":12400,"station_id":"ce4bhgp2rcd13ifvqfd0","pricing_plan_id":"cebpf4jnsgd1na2vs0mg"},{"bike_id":"e857968e-f56b-4d87-9c77-58233f291fc5","system_id":"levelo_inurba_marseille","lat":43.28695,"lon":5.37397,"is_reserved":false,"is_disabled":false,"rental_uris":{"android":"levelo://app?vid=e857968e-f56b-4d87-9c77-58233f291fc5","ios":"levelo://app?vid=e857968e-f56b-4d87-9c77-58233f291fc5"},"vehicle_type_id":"4","last_reported":1727550453,"current_range_meters":6400,"station_id":"ce4bh3p2rcd13ifvqdq0","pricing_plan_id":"cebpf4jnsgd1na2vs0mg"},{"bike_id":"cab45fd0-efbe-42f4-815f-9d32eba24a97","system_id":"levelo_inurba_marseille","lat":43.27911,"lon":5.41221,"is_reserved":false,"is_disabled":false,"rental_uris":{"android":"levelo://app?vid=cab45fd0-efbe-42f4-815f-9d32eba24a97","ios":"levelo://app?vid=cab45fd0-efbe-42f4-815f-9d32eba24a97"},"vehicle_type_id":"4","last_reported":1727550453,"current_range_meters":17600,"station_id":"","pricing_plan_id":"cebpf4jnsgd1na2vs0mg"},{"bike_id":"6eff8d2d-61fa-4715-9388-b30a052d3e98","system_id":"levelo_inurba_marseille","lat":43.337444,"lon":5.374475,"is_reserved":false,"is_disabled":false,"rental_uris":{"android":"levelo://app?vid=6eff8d2d-61fa-4715-9388-b30a052d3e98","ios":"levelo://app?vid=6eff8d2d-61fa-4715-9388-b30a052d3e98"},"vehicle_type_id":"4","last_reported":1727550453,"current_range_meters":31200,"station_id":"","pricing_plan_id":"cebpf4jnsgd1na2vs0mg"},{"bike_id":"f8d096f1-f39c-4cad-8cb5-d320fe6d4912","system_id":"levelo_inurba_marseille","lat":43.28468,"lon":5.35888,"is_reserved":false,"is_disabled":false,"rental_uris":{"android":"levelo://app?vid=f8d096f1-f39c-4cad-8cb5-d320fe6d4912","ios":"levelo://app?vid=f8d096f1-f39c-4cad-8cb5-d320fe6d4912"},"vehicle_type_id":"4","last_reported":1727550453,"current_range_meters":18800,"station_id":"ce4bhah2rcd13ifvqei0","pricing_plan_id":"cebpf4jnsgd1na2vs0mg"},{"bike_id":"f28eac4e-967c-495e-8bd3-694e0a5f9d01","system_id":"levelo_inurba_marseille","lat":43.32342,"lon":5.40628,"is_reserved":false,"is_disabled":false,"rental_uris":{"android":"levelo://app?vid=f28eac4e-967c-495e-8bd3-694e0a5f9d01","ios":"levelo://app?vid=f28eac4e-967c-495e-8bd3-694e0a5f9d01"},"vehicle_type_id":"4","last_reported":1727550453,"current_range_meters":9600,"station_id":"ce4bhq92rcd13ifvqhjg","pricing_plan_id":"cebpf4jnsgd1na2vs0mg"},{"bike_id":"85e38823-8772-4b82-8b7e-2d2471ce8f0b","system_id":"levelo_inurba_marseille","lat":43.29624,"lon":5.40595,"is_reserved":false,"is_disabled":false,"rental_uris":{"android":"levelo://app?vid=85e38823-8772-4b82-8b7e-2d2471ce8f0b","ios":"levelo://app?vid=85e38823-8772-4b82-8b7e-2d2471ce8f0b"},"vehicle_type_id":"4","last_reported":1727550453,"current_range_meters":6400,"station_id":"ce4bh0h2rcd13ifvqd60","pricing_plan_id":"cebpf4jnsgd1na2vs0mg"},{"bike_id":"771d0ad1-e0b2-4a03-b696-9445d5f39839","system_id":"levelo_inurba_marseille","lat":43.31274,"lon":5.40173,"is_reserved":false,"is_disabled":false,"rental_uris":{"android":"levelo://app?vid=771d0ad1-e0b2-4a03-b696-9445d5f39839","ios":"levelo://app?vid=771d0ad1-e0b2-4a03-b696-9445d5f39839"},"vehicle_type_id":"4","last_reported":1727550453,"current_range_meters":20400,"station_id":"ce4bh092rcd13ifvqd30","pricing_plan_id":"cebpf4jnsgd1na2vs0mg"},{"bike_id":"d41d2ea8-9e8c-4ffa-b651-7abce7399fb3","system_id":"levelo_inurba_marseille","lat":43.3229,"lon":5.3828,"is_reserved":false,"is_disabled":false,"rental_uris":{"android":"levelo://app?vid=d41d2ea8-9e8c-4ffa-b651-7abce7399fb3","ios":"levelo://app?vid=d41d2ea8-9e8c-4ffa-b651-7abce7399fb3"},"vehicle_type_id":"4","last_reported":1727550453,"current_range_meters":36000,"station_id":"ce4bhr12rcd13ifvqhqg","pricing_plan_id":"cebpf4jnsgd1na2vs0mg"},{"bike_id":"49103c36-092f-43a6-a665-96ac4218adb8","system_id":"levelo_inurba_marseille","lat":43.3229,"lon":5.38272,"is_reserved":false,"is_disabled":false,"rental_uris":{"android":"levelo://app?vid=49103c36-092f-43a6-a665-96ac4218adb8","ios":"levelo://app?vid=49103c36-092f-43a6-a665-96ac4218adb8"},"vehicle_type_id":"4","last_reported":1727550453,"current_range_meters":38800,"station_id":"ce4bhr12rcd13ifvqhqg","pricing_plan_id":"cebpf4jnsgd1na2vs0mg"},{"bike_id":"117e53b7-c7ee-4526-a38a-9f774b3c5a13","system_id":"levelo_inurba_marseille","lat":43.28406,"lon":5.37526,"is_reserved":false,"is_disabled":false,"rental_uris":{"android":"levelo://app?vid=117e53b7-c7ee-4526-a38a-9f774b3c5a13","ios":"levelo://app?vid=117e53b7-c7ee-4526-a38a-9f774b3c5a13"},"vehicle_type_id":"4","last_reported":1727550453,"current_range_meters":11200,"station_id":"ce4bh412rcd13ifvqds0","pricing_plan_id":"cebpf4jnsgd1na2vs0mg"},{"bike_id":"48a79560-eabe-4291-8ef5-f2ed8dc0c6e7","system_id":"levelo_inurba_marseille","lat":43.27208,"lon":5.39188,"is_reserved":false,"is_disabled":false,"rental_uris":{"android":"levelo://app?vid=48a79560-eabe-4291-8ef5-f2ed8dc0c6e7","ios":"levelo://app?vid=48a79560-eabe-4291-8ef5-f2ed8dc0c6e7"},"vehicle_type_id":"4","last_reported":1727550453,"current_range_meters":38800,"station_id":"ce4bhhp2rcd13ifvqfm0","pricing_plan_id":"cebpf4jnsgd1na2vs0mg"},{"bike_id":"202f0daa-e472-43ad-a650-a5496e538b4e","system_id":"levelo_inurba_marseille","lat":43.28103,"lon":5.37846,"is_reserved":false,"is_disabled":false,"rental_uris":{"android":"levelo://app?vid=202f0daa-e472-43ad-a650-a5496e538b4e","ios":"levelo://app?vid=202f0daa-e472-43ad-a650-a5496e538b4e"},"vehicle_type_id":"4","last_reported":1727550453,"current_range_meters":33200,"station_id":"ce4bha12rcd13ifvqee0","pricing_plan_id":"cebpf4jnsgd1na2vs0mg"},{"bike_id":"6f0f9c32-de70-4574-9b89-cca29ab0554e","system_id":"levelo_inurba_marseille","lat":43.337444,"lon":5.374475,"is_reserved":false,"is_disabled":false,"rental_uris":{"android":"levelo://app?vid=6f0f9c32-de70-4574-9b89-cca29ab0554e","ios":"levelo://app?vid=6f0f9c32-de70-4574-9b89-cca29ab0554e"},"vehicle_type_id":"4","last_reported":1727550453,"current_range_meters":29600,"station_id":"","pricing_plan_id":"cebpf4jnsgd1na2vs0mg"},{"bike_id":"388f2d68-15c1-4089-a895-b189f1eafbb4","system_id":"levelo_inurba_marseille","lat":43.29728,"lon":5.37684,"is_reserved":false,"is_disabled":false,"rental_uris":{"android":"levelo://app?vid=388f2d68-15c1-4089-a895-b189f1eafbb4","ios":"levelo://app?vid=388f2d68-15c1-4089-a895-b189f1eafbb4"},"vehicle_type_id":"4","last_reported":1727550453,"current_range_meters":400,"station_id":"ce4bgkh2rcd13ifvqbl0","pricing_plan_id":"cebpf4jnsgd1na2vs0mg"},{"bike_id":"44839918-e841-4578-a34d-4d8014b09bc8","system_id":"levelo_inurba_marseille","lat":43.31233,"lon":5.36855,"is_reserved":false,"is_disabled":false,"rental_uris":{"android":"levelo://app?vid=44839918-e841-4578-a34d-4d8014b09bc8","ios":"levelo://app?vid=44839918-e841-4578-a34d-4d8014b09bc8"},"vehicle_type_id":"4","last_reported":1727550453,"current_range_meters":38800,"station_id":"ce4bgl92rcd13ifvqbq0","pricing_plan_id":"cebpf4jnsgd1na2vs0mg"},{"bike_id":"0c1a718d-aee5-47ce-8ae9-81ca78336608","system_id":"levelo_inurba_marseille","lat":43.29268,"lon":5.40897,"is_reserved":false,"is_disabled":false,"rental_uris":{"android":"levelo://app?vid=0c1a718d-aee5-47ce-8ae9-81ca78336608","ios":"levelo://app?vid=0c1a718d-aee5-47ce-8ae9-81ca78336608"},"vehicle_type_id":"4","last_reported":1727550453,"current_range_meters":36400,"station_id":"ce4bh192rcd13ifvqdc0","pricing_plan_id":"cebpf4jnsgd1na2vs0mg"},{"bike_id":"0687a646-be72-47a3-8907-22e0afb02a46","system_id":"levelo_inurba_marseille","lat":43.23954,"lon":5.36636,"is_reserved":false,"is_disabled":false,"rental_uris":{"android":"levelo://app?vid=0687a646-be72-47a3-8907-22e0afb02a46","ios":"levelo://app?vid=0687a646-be72-47a3-8907-22e0afb02a46"},"vehicle_type_id":"4","last_reported":1727550453,"current_range_meters":35200,"station_id":"ce4bhi12rcd13ifvqfp0","pricing_plan_id":"cebpf4jnsgd1na2vs0mg"},{"bike_id":"cd00f807-363f-44a3-a6d4-09923ffae01c","system_id":"levelo_inurba_marseille","lat":43.28854,"lon":5.39323,"is_reserved":false,"is_disabled":false,"rental_uris":{"android":"levelo://app?vid=cd00f807-363f-44a3-a6d4-09923ffae01c","ios":"levelo://app?vid=cd00f807-363f-44a3-a6d4-09923ffae01c"},"vehicle_type_id":"4","last_reported":1727550453,"current_range_meters":5600,"station_id":"ce4bh2p2rcd13ifvqdi0","pricing_plan_id":"cebpf4jnsgd1na2vs0mg"},{"bike_id":"a056ca3e-bfa1-4f94-8d7b-b557439f640b","system_id":"levelo_inurba_marseille","lat":43.29305,"lon":5.37182,"is_reserved":false,"is_disabled":false,"rental_uris":{"android":"levelo://app?vid=a056ca3e-bfa1-4f94-8d7b-b557439f640b","ios":"levelo://app?vid=a056ca3e-bfa1-4f94-8d7b-b557439f640b"},"vehicle_type_id":"4","last_reported":1727550453,"current_range_meters":11600,"station_id":"ce4bgh92rcd13ifvqb40","pricing_plan_id":"cebpf4jnsgd1na2vs0mg"},{"bike_id":"90c05d40-f5db-4a12-95b3-f8d41ae2e51b","system_id":"levelo_inurba_marseille","lat":43.32377,"lon":5.3892,"is_reserved":false,"is_disabled":false,"rental_uris":{"android":"levelo://app?vid=90c05d40-f5db-4a12-95b3-f8d41ae2e51b","ios":"levelo://app?vid=90c05d40-f5db-4a12-95b3-f8d41ae2e51b"},"vehicle_type_id":"4","last_reported":1727550453,"current_range_meters":33200,"station_id":"ce4bhqp2rcd13ifvqhog","pricing_plan_id":"cebpf4jnsgd1na2vs0mg"},{"bike_id":"f1382a0c-1653-45e4-8b7b-d85c7918349f","system_id":"levelo_inurba_marseille","lat":43.30325,"lon":5.4044,"is_reserved":false,"is_disabled":false,"rental_uris":{"android":"levelo://app?vid=f1382a0c-1653-45e4-8b7b-d85c7918349f","ios":"levelo://app?vid=f1382a0c-1653-45e4-8b7b-d85c7918349f"},"vehicle_type_id":"4","last_reported":1727550453,"current_range_meters":25600,"station_id":"ce4bh012rcd13ifvqd10","pricing_plan_id":"cebpf4jnsgd1na2vs0mg"},{"bike_id":"f6f6c34c-adda-4d02-90da-ea4cae3024f3","system_id":"levelo_inurba_marseille","lat":43.29716,"lon":5.36615,"is_reserved":false,"is_disabled":false,"rental_uris":{"android":"levelo://app?vid=f6f6c34c-adda-4d02-90da-ea4cae3024f3","ios":"levelo://app?vid=f6f6c34c-adda-4d02-90da-ea4cae3024f3"},"vehicle_type_id":"4","last_reported":1727550453,"current_range_meters":18800,"station_id":"ce4bgn12rcd13ifvqbt0","pricing_plan_id":"cebpf4jnsgd1na2vs0mg"},{"bike_id":"a74d10f0-ac26-44fc-8904-ea95d1a07492","system_id":"levelo_inurba_marseille","lat":43.29572,"lon":5.39967,"is_reserved":false,"is_disabled":false,"rental_uris":{"android":"levelo://app?vid=a74d10f0-ac26-44fc-8904-ea95d1a07492","ios":"levelo://app?vid=a74d10f0-ac26-44fc-8904-ea95d1a07492"},"vehicle_type_id":"4","last_reported":1727550453,"current_range_meters":22000,"station_id":"ce4bh312rcd13ifvqdj0","pricing_plan_id":"cebpf4jnsgd1na2vs0mg"},{"bike_id":"9718fbbd-1dc9-4dd3-8f34-6d00675cdcb0","system_id":"levelo_inurba_marseille","lat":43.27941,"lon":5.41047,"is_reserved":false,"is_disabled":false,"rental_uris":{"android":"levelo://app?vid=9718fbbd-1dc9-4dd3-8f34-6d00675cdcb0","ios":"levelo://app?vid=9718fbbd-1dc9-4dd3-8f34-6d00675cdcb0"},"vehicle_type_id":"4","last_reported":1727550453,"current_range_meters":38800,"station_id":"ce4bhnp2rcd13ifvqh0g","pricing_plan_id":"cebpf4jnsgd1na2vs0mg"},{"bike_id":"986f9990-5301-421f-b3a0-1eb0439a3e9a","system_id":"levelo_inurba_marseille","lat":43.29636,"lon":5.40594,"is_reserved":false,"is_disabled":false,"rental_uris":{"android":"levelo://app?vid=986f9990-5301-421f-b3a0-1eb0439a3e9a","ios":"levelo://app?vid=986f9990-5301-421f-b3a0-1eb0439a3e9a"},"vehicle_type_id":"4","last_reported":1727550453,"current_range_meters":38400,"station_id":"ce4bh0h2rcd13ifvqd60","pricing_plan_id":"cebpf4jnsgd1na2vs0mg"},{"bike_id":"74c873d0-9765-497b-aeae-ea969d14617c","system_id":"levelo_inurba_marseille","lat":43.30909,"lon":5.36848,"is_reserved":false,"is_disabled":false,"rental_uris":{"android":"levelo://app?vid=74c873d0-9765-497b-aeae-ea969d14617c","ios":"levelo://app?vid=74c873d0-9765-497b-aeae-ea969d14617c"},"vehicle_type_id":"4","last_reported":1727550453,"current_range_meters":38400,"station_id":"ce4bgn92rcd13ifvqbvg","pricing_plan_id":"cebpf4jnsgd1na2vs0mg"},{"bike_id":"9fcb71b8-23d8-4fcd-abcf-98182e2b2bbc","system_id":"levelo_inurba_marseille","lat":43.28033,"lon":5.36945,"is_reserved":false,"is_disabled":false,"rental_uris":{"android":"levelo://app?vid=9fcb71b8-23d8-4fcd-abcf-98182e2b2bbc","ios":"levelo://app?vid=9fcb71b8-23d8-4fcd-abcf-98182e2b2bbc"},"vehicle_type_id":"4","last_reported":1727550453,"current_range_meters":34000,"station_id":"ce4bha12rcd13ifvqef0","pricing_plan_id":"cebpf4jnsgd1na2vs0mg"},{"bike_id":"8f8dbdbf-cd41-48d3-8068-7fe58722ae8d","system_id":"levelo_inurba_marseille","lat":43.25499,"lon":5.37655,"is_reserved":false,"is_disabled":false,"rental_uris":{"android":"levelo://app?vid=8f8dbdbf-cd41-48d3-8068-7fe58722ae8d","ios":"levelo://app?vid=8f8dbdbf-cd41-48d3-8068-7fe58722ae8d"},"vehicle_type_id":"4","last_reported":1727550453,"current_range_meters":38800,"station_id":"ce4bhh12rcd13ifvqff0","pricing_plan_id":"cebpf4jnsgd1na2vs0mg"},{"bike_id":"a5a150f6-b2ee-4d41-b02c-c5259f7e4d0b","system_id":"levelo_inurba_marseille","lat":43.2603,"lon":5.37551,"is_reserved":false,"is_disabled":false,"rental_uris":{"android":"levelo://app?vid=a5a150f6-b2ee-4d41-b02c-c5259f7e4d0b","ios":"levelo://app?vid=a5a150f6-b2ee-4d41-b02c-c5259f7e4d0b"},"vehicle_type_id":"4","last_reported":1727550453,"current_range_meters":38800,"station_id":"ce4bhgh2rcd13ifvqfa0","pricing_plan_id":"cebpf4jnsgd1na2vs0mg"},{"bike_id":"b87fd8b5-092f-40d5-8cb6-a081decbefd2","system_id":"levelo_inurba_marseille","lat":43.25584,"lon":5.38234,"is_reserved":false,"is_disabled":false,"rental_uris":{"android":"levelo://app?vid=b87fd8b5-092f-40d5-8cb6-a081decbefd2","ios":"levelo://app?vid=b87fd8b5-092f-40d5-8cb6-a081decbefd2"},"vehicle_type_id":"4","last_reported":1727550453,"current_range_meters":2000,"station_id":"ce4bhih2rcd13ifvqfs0","pricing_plan_id":"cebpf4jnsgd1na2vs0mg"},{"bike_id":"028d212c-707e-4101-9a89-51abe4ea2ac4","system_id":"levelo_inurba_marseille","lat":43.31174,"lon":5.38724,"is_reserved":false,"is_disabled":false,"rental_uris":{"android":"levelo://app?vid=028d212c-707e-4101-9a89-51abe4ea2ac4","ios":"levelo://app?vid=028d212c-707e-4101-9a89-51abe4ea2ac4"},"vehicle_type_id":"4","last_reported":1727550453,"current_range_meters":17200,"station_id":"ce4bgv12rcd13ifvqcp0","pricing_plan_id":"cebpf4jnsgd1na2vs0mg"},{"bike_id":"3357c55b-6f49-4ceb-ad5b-5378b86c00e0","system_id":"levelo_inurba_marseille","lat":43.26836,"lon":5.41122,"is_reserved":false,"is_disabled":false,"rental_uris":{"android":"levelo://app?vid=3357c55b-6f49-4ceb-ad5b-5378b86c00e0","ios":"levelo://app?vid=3357c55b-6f49-4ceb-ad5b-5378b86c00e0"},"vehicle_type_id":"4","last_reported":1727550453,"current_range_meters":21600,"station_id":"","pricing_plan_id":"cebpf4jnsgd1na2vs0mg"},{"bike_id":"0bd3aeea-82cb-4f0a-a1f2-0ce638de257d","system_id":"levelo_inurba_marseille","lat":43.27559,"lon":5.38431,"is_reserved":false,"is_disabled":false,"rental_uris":{"android":"levelo://app?vid=0bd3aeea-82cb-4f0a-a1f2-0ce638de257d","ios":"levelo://app?vid=0bd3aeea-82cb-4f0a-a1f2-0ce638de257d"},"vehicle_type_id":"4","last_reported":1727550453,"current_range_meters":24400,"station_id":"ce4bhh92rcd13ifvqfi0","pricing_plan_id":"cebpf4jnsgd1na2vs0mg"},{"bike_id":"d1c7d800-89c4-4c6b-9fcd-73070e68866c","system_id":"levelo_inurba_marseille","lat":43.29704,"lon":5.36606,"is_reserved":false,"is_disabled":false,"rental_uris":{"android":"levelo://app?vid=d1c7d800-89c4-4c6b-9fcd-73070e68866c","ios":"levelo://app?vid=d1c7d800-89c4-4c6b-9fcd-73070e68866c"},"vehicle_type_id":"4","last_reported":1727550453,"current_range_meters":38800,"station_id":"ce4bgn12rcd13ifvqbt0","pricing_plan_id":"cebpf4jnsgd1na2vs0mg"},{"bike_id":"9d933d2a-f72c-492c-ae3d-eb238dac3442","system_id":"levelo_inurba_marseille","lat":43.317589,"lon":5.390251,"is_reserved":false,"is_disabled":false,"rental_uris":{"android":"levelo://app?vid=9d933d2a-f72c-492c-ae3d-eb238dac3442","ios":"levelo://app?vid=9d933d2a-f72c-492c-ae3d-eb238dac3442"},"vehicle_type_id":"4","last_reported":1727550453,"current_range_meters":16800,"station_id":"ce4bhqp2rcd13ifvqhng","pricing_plan_id":"cebpf4jnsgd1na2vs0mg"},{"bike_id":"0a71bbf4-40bf-4e8e-9d71-87a87c2646aa","system_id":"levelo_inurba_marseille","lat":43.28045,"lon":5.41023,"is_reserved":false,"is_disabled":false,"rental_uris":{"android":"levelo://app?vid=0a71bbf4-40bf-4e8e-9d71-87a87c2646aa","ios":"levelo://app?vid=0a71bbf4-40bf-4e8e-9d71-87a87c2646aa"},"vehicle_type_id":"4","last_reported":1727550453,"current_range_meters":8000,"station_id":"","pricing_plan_id":"cebpf4jnsgd1na2vs0mg"},{"bike_id":"9fe1728d-14a5-4ba9-a3b0-6bb75530f402","system_id":"levelo_inurba_marseille","lat":43.28987,"lon":5.3785,"is_reserved":false,"is_disabled":false,"rental_uris":{"android":"levelo://app?vid=9fe1728d-14a5-4ba9-a3b0-6bb75530f402","ios":"levelo://app?vid=9fe1728d-14a5-4ba9-a3b0-6bb75530f402"},"vehicle_type_id":"4","last_reported":1727550453,"current_range_meters":10800,"station_id":"ce4bh9p2rcd13ifvqed0","pricing_plan_id":"cebpf4jnsgd1na2vs0mg"},{"bike_id":"c9641e8d-5849-4651-b4ee-af905ce3cbcb","system_id":"levelo_inurba_marseille","lat":43.30595,"lon":5.37219,"is_reserved":false,"is_disabled":false,"rental_uris":{"android":"levelo://app?vid=c9641e8d-5849-4651-b4ee-af905ce3cbcb","ios":"levelo://app?vid=c9641e8d-5849-4651-b4ee-af905ce3cbcb"},"vehicle_type_id":"4","last_reported":1727550453,"current_range_meters":6800,"station_id":"ce4bgqh2rcd13ifvqc4g","pricing_plan_id":"cebpf4jnsgd1na2vs0mg"},{"bike_id":"0a5ac62e-7e07-43c2-8081-3fd2d7701a3b","system_id":"levelo_inurba_marseille","lat":43.2693,"lon":5.38915,"is_reserved":false,"is_disabled":false,"rental_uris":{"android":"levelo://app?vid=0a5ac62e-7e07-43c2-8081-3fd2d7701a3b","ios":"levelo://app?vid=0a5ac62e-7e07-43c2-8081-3fd2d7701a3b"},"vehicle_type_id":"4","last_reported":1727550453,"current_range_meters":28800,"station_id":"ce4bhhh2rcd13ifvqfl0","pricing_plan_id":"cebpf4jnsgd1na2vs0mg"},{"bike_id":"27c48c26-5a20-4bc6-bf6b-c86c4e62eaa7","system_id":"levelo_inurba_marseille","lat":43.3266,"lon":5.40994,"is_reserved":false,"is_disabled":false,"rental_uris":{"android":"levelo://app?vid=27c48c26-5a20-4bc6-bf6b-c86c4e62eaa7","ios":"levelo://app?vid=27c48c26-5a20-4bc6-bf6b-c86c4e62eaa7"},"vehicle_type_id":"4","last_reported":1727550453,"current_range_meters":28000,"station_id":"ce4bhpp2rcd13ifvqhgg","pricing_plan_id":"cebpf4jnsgd1na2vs0mg"},{"bike_id":"031d4b38-e5d6-4052-bb25-22636cd0d771","system_id":"levelo_inurba_marseille","lat":43.28148,"lon":5.42646,"is_reserved":false,"is_disabled":false,"rental_uris":{"android":"levelo://app?vid=031d4b38-e5d6-4052-bb25-22636cd0d771","ios":"levelo://app?vid=031d4b38-e5d6-4052-bb25-22636cd0d771"},"vehicle_type_id":"4","last_reported":1727550453,"current_range_meters":38000,"station_id":"ce4bhnh2rcd13ifvqgug","pricing_plan_id":"cebpf4jnsgd1na2vs0mg"},{"bike_id":"ae420688-5730-4c04-90f7-fb439220597f","system_id":"levelo_inurba_marseille","lat":43.337444,"lon":5.374475,"is_reserved":false,"is_disabled":false,"rental_uris":{"android":"levelo://app?vid=ae420688-5730-4c04-90f7-fb439220597f","ios":"levelo://app?vid=ae420688-5730-4c04-90f7-fb439220597f"},"vehicle_type_id":"4","last_reported":1727550453,"current_range_meters":32400,"station_id":"","pricing_plan_id":"cebpf4jnsgd1na2vs0mg"},{"bike_id":"64c5a41d-9764-4555-8564-e0109a27d62f","system_id":"levelo_inurba_marseille","lat":43.32261,"lon":5.38284,"is_reserved":false,"is_disabled":false,"rental_uris":{"android":"levelo://app?vid=64c5a41d-9764-4555-8564-e0109a27d62f","ios":"levelo://app?vid=64c5a41d-9764-4555-8564-e0109a27d62f"},"vehicle_type_id":"4","last_reported":1727550453,"current_range_meters":19600,"station_id":"ce4bhr12rcd13ifvqhqg","pricing_plan_id":"cebpf4jnsgd1na2vs0mg"},{"bike_id":"f602a99a-8945-4d4f-8888-b097e0039ba6","system_id":"levelo_inurba_marseille","lat":43.29674,"lon":5.40035,"is_reserved":false,"is_disabled":false,"rental_uris":{"android":"levelo://app?vid=f602a99a-8945-4d4f-8888-b097e0039ba6","ios":"levelo://app?vid=f602a99a-8945-4d4f-8888-b097e0039ba6"},"vehicle_type_id":"4","last_reported":1727550453,"current_range_meters":25600,"station_id":"ce4bh312rcd13ifvqdj0","pricing_plan_id":"cebpf4jnsgd1na2vs0mg"},{"bike_id":"86a71ee8-d43f-4ebe-bee2-169dfe2232ae","system_id":"levelo_inurba_marseille","lat":43.23961,"lon":5.36637,"is_reserved":false,"is_disabled":false,"rental_uris":{"android":"levelo://app?vid=86a71ee8-d43f-4ebe-bee2-169dfe2232ae","ios":"levelo://app?vid=86a71ee8-d43f-4ebe-bee2-169dfe2232ae"},"vehicle_type_id":"4","last_reported":1727550453,"current_range_meters":37600,"station_id":"ce4bhi12rcd13ifvqfp0","pricing_plan_id":"cebpf4jnsgd1na2vs0mg"},{"bike_id":"2aa95e35-181d-4561-8dc4-88cecaab12ea","system_id":"levelo_inurba_marseille","lat":43.29916,"lon":5.38542,"is_reserved":false,"is_disabled":false,"rental_uris":{"android":"levelo://app?vid=2aa95e35-181d-4561-8dc4-88cecaab12ea","ios":"levelo://app?vid=2aa95e35-181d-4561-8dc4-88cecaab12ea"},"vehicle_type_id":"4","last_reported":1727550453,"current_range_meters":3200,"station_id":"","pricing_plan_id":"cebpf4jnsgd1na2vs0mg"},{"bike_id":"4887abc8-1b4e-4d25-854f-c00c42c01709","system_id":"levelo_inurba_marseille","lat":43.31355,"lon":5.38503,"is_reserved":false,"is_disabled":false,"rental_uris":{"android":"levelo://app?vid=4887abc8-1b4e-4d25-854f-c00c42c01709","ios":"levelo://app?vid=4887abc8-1b4e-4d25-854f-c00c42c01709"},"vehicle_type_id":"4","last_reported":1727550453,"current_range_meters":10800,"station_id":"ce4bgt92rcd13ifvqcf0","pricing_plan_id":"cebpf4jnsgd1na2vs0mg"},{"bike_id":"2120281d-853d-4458-aec2-de006de68b30","system_id":"levelo_inurba_marseille","lat":43.25573,"lon":5.3824,"is_reserved":false,"is_disabled":false,"rental_uris":{"android":"levelo://app?vid=2120281d-853d-4458-aec2-de006de68b30","ios":"levelo://app?vid=2120281d-853d-4458-aec2-de006de68b30"},"vehicle_type_id":"4","last_reported":1727550453,"current_range_meters":6800,"station_id":"ce4bhih2rcd13ifvqfs0","pricing_plan_id":"cebpf4jnsgd1na2vs0mg"},{"bike_id":"7640342b-f279-4ed4-951d-4a7763146fac","system_id":"levelo_inurba_marseille","lat":43.30791,"lon":5.37649,"is_reserved":false,"is_disabled":false,"rental_uris":{"android":"levelo://app?vid=7640342b-f279-4ed4-951d-4a7763146fac","ios":"levelo://app?vid=7640342b-f279-4ed4-951d-4a7763146fac"},"vehicle_type_id":"4","last_reported":1727550453,"current_range_meters":7200,"station_id":"ce4bgv92rcd13ifvqcq0","pricing_plan_id":"cebpf4jnsgd1na2vs0mg"},{"bike_id":"ad369e33-3554-4011-a785-c08677a7ca19","system_id":"levelo_inurba_marseille","lat":43.249969,"lon":5.389228,"is_reserved":false,"is_disabled":false,"rental_uris":{"android":"levelo://app?vid=ad369e33-3554-4011-a785-c08677a7ca19","ios":"levelo://app?vid=ad369e33-3554-4011-a785-c08677a7ca19"},"vehicle_type_id":"4","last_reported":1727550453,"current_range_meters":32400,"station_id":"ce4bhh12rcd13ifvqff0","pricing_plan_id":"cebpf4jnsgd1na2vs0mg"},{"bike_id":"e84dbbea-098e-4898-8c38-fed2e39e1df8","system_id":"levelo_inurba_marseille","lat":43.29346,"lon":5.4072,"is_reserved":false,"is_disabled":false,"rental_uris":{"android":"levelo://app?vid=e84dbbea-098e-4898-8c38-fed2e39e1df8","ios":"levelo://app?vid=e84dbbea-098e-4898-8c38-fed2e39e1df8"},"vehicle_type_id":"4","last_reported":1727550453,"current_range_meters":36400,"station_id":"ce4bh312rcd13ifvqdj0","pricing_plan_id":"cebpf4jnsgd1na2vs0mg"},{"bike_id":"74301422-07e4-4e1b-8f4d-03a7d4a87b3c","system_id":"levelo_inurba_marseille","lat":43.30137,"lon":5.37423,"is_reserved":false,"is_disabled":false,"rental_uris":{"android":"levelo://app?vid=74301422-07e4-4e1b-8f4d-03a7d4a87b3c","ios":"levelo://app?vid=74301422-07e4-4e1b-8f4d-03a7d4a87b3c"},"vehicle_type_id":"4","last_reported":1727550453,"current_range_meters":26000,"station_id":"ce4bgs92rcd13ifvqcc0","pricing_plan_id":"cebpf4jnsgd1na2vs0mg"},{"bike_id":"80046b3f-c9c2-4f7b-ae88-29d7e08c6fce","system_id":"levelo_inurba_marseille","lat":43.23959,"lon":5.36641,"is_reserved":false,"is_disabled":false,"rental_uris":{"android":"levelo://app?vid=80046b3f-c9c2-4f7b-ae88-29d7e08c6fce","ios":"levelo://app?vid=80046b3f-c9c2-4f7b-ae88-29d7e08c6fce"},"vehicle_type_id":"4","last_reported":1727550453,"current_range_meters":12800,"station_id":"ce4bhi12rcd13ifvqfp0","pricing_plan_id":"cebpf4jnsgd1na2vs0mg"},{"bike_id":"e91f058a-6b69-467f-8d4c-c1967a7fdde4","system_id":"levelo_inurba_marseille","lat":43.2868,"lon":5.38669,"is_reserved":false,"is_disabled":false,"rental_uris":{"android":"levelo://app?vid=e91f058a-6b69-467f-8d4c-c1967a7fdde4","ios":"levelo://app?vid=e91f058a-6b69-467f-8d4c-c1967a7fdde4"},"vehicle_type_id":"4","last_reported":1727550453,"current_range_meters":36800,"station_id":"ce4bh492rcd13ifvqdug","pricing_plan_id":"cebpf4jnsgd1na2vs0mg"},{"bike_id":"ed94ae71-5ed4-45d5-82ca-bd84a6379bf8","system_id":"levelo_inurba_marseille","lat":43.31355,"lon":5.38499,"is_reserved":false,"is_disabled":false,"rental_uris":{"android":"levelo://app?vid=ed94ae71-5ed4-45d5-82ca-bd84a6379bf8","ios":"levelo://app?vid=ed94ae71-5ed4-45d5-82ca-bd84a6379bf8"},"vehicle_type_id":"4","last_reported":1727550453,"current_range_meters":36800,"station_id":"ce4bgt92rcd13ifvqcf0","pricing_plan_id":"cebpf4jnsgd1na2vs0mg"},{"bike_id":"4d318b26-d482-4682-9243-230890c1826a","system_id":"levelo_inurba_marseille","lat":43.25821,"lon":5.39428,"is_reserved":false,"is_disabled":false,"rental_uris":{"android":"levelo://app?vid=4d318b26-d482-4682-9243-230890c1826a","ios":"levelo://app?vid=4d318b26-d482-4682-9243-230890c1826a"},"vehicle_type_id":"4","last_reported":1727550453,"current_range_meters":38800,"station_id":"ce4bhip2rcd13ifvqft0","pricing_plan_id":"cebpf4jnsgd1na2vs0mg"},{"bike_id":"62762cff-0ad7-45cf-9fc9-5bdc1a2e9eb8","system_id":"levelo_inurba_marseille","lat":43.31175,"lon":5.38724,"is_reserved":false,"is_disabled":false,"rental_uris":{"android":"levelo://app?vid=62762cff-0ad7-45cf-9fc9-5bdc1a2e9eb8","ios":"levelo://app?vid=62762cff-0ad7-45cf-9fc9-5bdc1a2e9eb8"},"vehicle_type_id":"4","last_reported":1727550453,"current_range_meters":30400,"station_id":"ce4bgv12rcd13ifvqcp0","pricing_plan_id":"cebpf4jnsgd1na2vs0mg"},{"bike_id":"a3de4e3f-6b0e-444e-9027-15c1b6d1768e","system_id":"levelo_inurba_marseille","lat":43.2942,"lon":5.38624,"is_reserved":false,"is_disabled":false,"rental_uris":{"android":"levelo://app?vid=a3de4e3f-6b0e-444e-9027-15c1b6d1768e","ios":"levelo://app?vid=a3de4e3f-6b0e-444e-9027-15c1b6d1768e"},"vehicle_type_id":"4","last_reported":1727550453,"current_range_meters":36400,"station_id":"ce4bh2h2rcd13ifvqdh0","pricing_plan_id":"cebpf4jnsgd1na2vs0mg"},