{"last_updated":1767888995,"ttl":60,"version":"2.2","data":{"bikes":[{"bike_id":"80afe481-1004-4d71-88f3-793e2c1bd048","system_id":"levelo_inurba_marseille","lat":43.29215,"lon":5.36064,"is_reserved":false,"is_disabled":false,"rental_uris":{"android":"levelo://app?vid=80afe481-1004-4d71-88f3-793e2c1bd048","ios":"levelo://app?vid=80afe481-1004-4d71-88f3-793e2c1bd048"},"vehicle_type_id":"4","last_reported":1767888996,"current_range_meters":2800,"station_id":"ce4bhbh2rcd13ifvqeqg","pricing_plan_id":"cebpf4jnsgd1na2vs0mg"},{"bike_id":"6a86bbe6-64ce-4baa-a34f-80549fdb5325","system_id":"levelo_inurba_marseille","lat":43.26202,"lon":5.37931,"is_reserved":false,"is_disabled":false,"rental_uris":{"android":"levelo://app?vid=6a86bbe6-64ce-4baa-a34f-80549fdb5325","ios":"levelo://app?vid=6a86bbe6-64ce-4baa-a34f-80549fdb5325"},"vehicle_type_id":"4","last_reported":1767888996,"current_range_meters":2800,"station_id":"ce4bhjp2rcd13ifvqg90","pricing_plan_id":"cebpf4jnsgd1na2vs0mg"},{"bike_id":"e9fbb55b-45ea-4b51-8726-aff775b6f253","system_id":"levelo_inurba_marseille","lat":43.22918,"lon":5.35384,"is_reserved":false,"is_disabled":false,"rental_uris":{"android":"levelo://app?vid=e9fbb55b-45ea-4b51-8726-aff775b6f253","ios":"levelo://app?vid=e9fbb55b-45ea-4b51-8726-aff775b6f253"},"vehicle_type_id":"4","last_reported":1767888996,"current_range_meters":2800,"station_id":"cpo3532slgdg3j2ikp40","pricing_plan_id":"cebpf4jnsgd1na2vs0mg"},{"bike_id":"d21ff029-4464-405c-b8f2-da86562c1e99","system_id":"levelo_inurba_marseille","lat":43.22927,"lon":5.35372,"is_reserved":false,"is_disabled":false,"rental_uris":{"android":"levelo://app?vid=d21ff029-4464-405c-b8f2-da86562c1e99","ios":"levelo://app?vid=d21ff029-4464-405c-b8f2-da86562c1e99"},"vehicle_type_id":"4","last_reported":1767888996,"current_range_meters":2800,"station_id":"cpo3532slgdg3j2ikp40","pricing_plan_id":"cebpf4jnsgd1na2vs0mg"},{"bike_id":"ea450acb-6919-4abf-a377-57a51d1d6762","system_id":"levelo_inurba_marseille","lat":43.29267,"lon":5.36844,"is_reserved":false,"is_disabled":false,"rental_uris":{"android":"levelo://app?vid=ea450acb-6919-4abf-a377-57a51d1d6762","ios":"levelo://app?vid=ea450acb-6919-4abf-a377-57a51d1d6762"},"vehicle_type_id":"4","last_reported":1767888996,"current_range_meters":2800,"station_id":"ce4bhbp2rcd13ifvqesg","pricing_plan_id":"cebpf4jnsgd1na2vs0mg"},{"bike_id":"44833d54-0e08-4546-b788-0c7150b05378","system_id":"levelo_inurba_marseille","lat":43.28484,"lon":5.48388,"is_reserved":false,"is_disabled":false,"rental_uris":{"android":"levelo://app?vid=44833d54-0e08-4546-b788-0c7150b05378","ios":"levelo://app?vid=44833d54-0e08-4546-b788-0c7150b05378"},"vehicle_type_id":"4","last_reported":1767888996,"current_range_meters":2800,"station_id":"st_d3svhcjqgbts73a3dn0g","pricing_plan_id":"cebpf4jnsgd1na2vs0mg"},{"bike_id":"f96412fb-997e-42d9-b749-fc2d5aec351b","system_id":"levelo_inurba_marseille","lat":43.323693,"lon":5.38885,"is_reserved":false,"is_disabled":false,"rental_uris":{"android":"levelo://app?vid=f96412fb-997e-42d9-b749-fc2d5aec351b","ios":"levelo://app?vid=f96412fb-997e-42d9-b749-fc2d5aec351b"},"vehicle_type_id":"4","last_reported":1767888996,"current_range_meters":2800,"station_id":"ce4bhqp2rcd13ifvqhog","pricing_plan_id":"cebpf4jnsgd1na2vs0mg"},{"bike_id":"138edadd-eb1a-4b60-9d89-5db13b009bd1","system_id":"levelo_inurba_marseille","lat":43.25922,"lon":5.40926,"is_reserved":false,"is_disabled":false,"rental_uris":{"android":"levelo://app?vid=138edadd-eb1a-4b60-9d89-5db13b009bd1","ios":"levelo://app?vid=138edadd-eb1a-4b60-9d89-5db13b009bd1"},"vehicle_type_id":"4","last_reported":1767888996,"current_range_meters":2800,"station_id":"ce4bhm92rcd13ifvqglg","pricing_plan_id":"cebpf4jnsgd1na2vs0mg"},{"bike_id":"35c3cbbb-0469-478d-b4da-bfb159e2f13b","system_id":"levelo_inurba_marseille","lat":43.25928,"lon":5.40899,"is_reserved":false,"is_disabled":false,"rental_uris":{"android":"levelo://app?vid=35c3cbbb-0469-478d-b4da-bfb159e2f13b","ios":"levelo://app?vid=35c3cbbb-0469-478d-b4da-bfb159e2f13b"},"vehicle_type_id":"4","last_reported":1767888996,"current_range_meters":2800,"station_id":"ce4bhm92rcd13ifvqglg","pricing_plan_id":"cebpf4jnsgd1na2vs0mg"},{"bike_id":"adc1542e-8e80-4166-8795-c8a48be62130","system_id":"levelo_inurba_marseille","lat":43.28934,"lon":5.36636,"is_reserved":false,"is_disabled":false,"rental_uris":{"android":"levelo://app?vid=adc1542e-8e80-4166-8795-c8a48be62130","ios":"levelo://app?vid=adc1542e-8e80-4166-8795-c8a48be62130"},"vehicle_type_id":"4","last_reported":1767888996,"current_range_meters":2800,"station_id":"ce4bhap2rcd13ifvqek0","pricing_plan_id":"cebpf4jnsgd1na2vs0mg"},{"bike_id":"b27b46e0-7e7d-4f9d-bc66-e08206c9cda3","system_id":"levelo_inurba_marseille","lat":43.27809,"lon":5.40718,"is_reserved":false,"is_disabled":false,"rental_uris":{"android":"levelo://app?vid=b27b46e0-7e7d-4f9d-bc66-e08206c9cda3","ios":"levelo://app?vid=b27b46e0-7e7d-4f9d-bc66-e08206c9cda3"},"vehicle_type_id":"4","last_reported":1767888996,"current_range_meters":2800,"station_id":"ce4bhnh2rcd13ifvqgtg","pricing_plan_id":"cebpf4jnsgd1na2vs0mg"},{"bike_id":"69b1c199-fbcb-4ed6-b21a-1a9ed3f8ba24","system_id":"levelo_inurba_marseille","lat":43.26792,"lon":5.39438,"is_reserved":false,"is_disabled":false,"rental_uris":{"android":"levelo://app?vid=69b1c199-fbcb-4ed6-b21a-1a9ed3f8ba24","ios":"levelo://app?vid=69b1c199-fbcb-4ed6-b21a-1a9ed3f8ba24"},"vehicle_type_id":"4","last_reported":1767888996,"current_range_meters":2800,"station_id":"ce4bhh12rcd13ifvqfg0","pricing_plan_id":"cebpf4jnsgd1na2vs0mg"},{"bike_id":"67d11be0-e6fc-45cf-9510-ea8c0226d011","system_id":"levelo_inurba_marseille","lat":43.29816,"lon":5.440751,"is_reserved":false,"is_disabled":true,"rental_uris":{"android":"levelo://app?vid=67d11be0-e6fc-45cf-9510-ea8c0226d011","ios":"levelo://app?vid=67d11be0-e6fc-45cf-9510-ea8c0226d011"},"vehicle_type_id":"4","last_reported":1767888996,"current_range_meters":2800,"station_id":"st_d3jp68qikq2c7381ktn0","pricing_plan_id":"cebpf4jnsgd1na2vs0mg"},{"bike_id":"98249e23-d727-42e2-bc64-1013f35aedc9","system_id":"levelo_inurba_marseille","lat":43.23058,"lon":5.35511,"is_reserved":false,"is_disabled":false,"rental_uris":{"android":"levelo://app?vid=98249e23-d727-42e2-bc64-1013f35aedc9","ios":"levelo://app?vid=98249e23-d727-42e2-bc64-1013f35aedc9"},"vehicle_type_id":"4","last_reported":1767888996,"current_range_meters":3200,"station_id":"cpo3342slgdg3j2ifvpg","pricing_plan_id":"cebpf4jnsgd1na2vs0mg"},{"bike_id":"c3a7e177-4abd-4d94-8aa0-b7070aef2604","system_id":"levelo_inurba_marseille","lat":43.28856,"lon":5.35859,"is_reserved":false,"is_disabled":false,"rental_uris":{"android":"levelo://app?vid=c3a7e177-4abd-4d94-8aa0-b7070aef2604","ios":"levelo://app?vid=c3a7e177-4abd-4d94-8aa0-b7070aef2604"},"vehicle_type_id":"4","last_reported":1767888996,"current_range_meters":3200,"station_id":"ce4bhb12rcd13ifvqem0","pricing_plan_id":"cebpf4jnsgd1na2vs0mg"},{"bike_id":"948bd2ed-8fdc-4ef6-9827-a943cc835e12","system_id":"levelo_inurba_marseille","lat":43.30128,"lon":5.43114,"is_reserved":false,"is_disabled":false,"rental_uris":{"android":"levelo://app?vid=948bd2ed-8fdc-4ef6-9827-a943cc835e12","ios":"levelo://app?vid=948bd2ed-8fdc-4ef6-9827-a943cc835e12"},"vehicle_type_id":"4","last_reported":1767888996,"current_range_meters":3200,"station_id":"st_d3js3co5814s73ftftug","pricing_plan_id":"cebpf4jnsgd1na2vs0mg"},{"bike_id":"b20f2698-37ad-43b3-8970-8d8c2984bbfd","system_id":"levelo_inurba_marseille","lat":43.29267,"lon":5.36854,"is_reserved":false,"is_disabled":false,"rental_uris":{"android":"levelo://app?vid=b20f2698-37ad-43b3-8970-8d8c2984bbfd","ios":"levelo://app?vid=b20f2698-37ad-43b3-8970-8d8c2984bbfd"},"vehicle_type_id":"4","last_reported":1767888996,"current_range_meters":3200,"station_id":"ce4bhbp2rcd13ifvqesg","pricing_plan_id":"cebpf4jnsgd1na2vs0mg"},{"bike_id":"4ad01c95-0381-485d-92ac-6478e0abdc37","system_id":"levelo_inurba_marseille","lat":43.253448,"lon":5.421757,"is_reserved":false,"is_disabled":false,"rental_uris":{"android":"levelo://app?vid=4ad01c95-0381-485d-92ac-6478e0abdc37","ios":"levelo://app?vid=4ad01c95-0381-485d-92ac-6478e0abdc37"},"vehicle_type_id":"4","last_reported":1767888996,"current_range_meters":3200,"station_id":"st_d2m65c5bi1j21697t3ng","pricing_plan_id":"cebpf4jnsgd1na2vs0mg"},{"bike_id":"1474699b-b954-474a-8344-bbf94fd2e604","system_id":"levelo_inurba_marseille","lat":43.258264,"lon":5.394269,"is_reserved":false,"is_disabled":false,"rental_uris":{"android":"levelo://app?vid=1474699b-b954-474a-8344-bbf94fd2e604","ios":"levelo://app?vid=1474699b-b954-474a-8344-bbf94fd2e604"},"vehicle_type_id":"4","last_reported":1767888996,"current_range_meters":3200,"station_id":"ce4bhip2rcd13ifvqft0","pricing_plan_id":"cebpf4jnsgd1na2vs0mg"},{"bike_id":"4cffb3bc-6cb7-4fb3-8e35-ce4d3792bbf1","system_id":"levelo_inurba_marseille","lat":43.284035,"lon":5.375553,"is_reserved":false,"is_disabled":false,"rental_uris":{"android":"levelo://app?vid=4cffb3bc-6cb7-4fb3-8e35-ce4d3792bbf1","ios":"levelo://app?vid=4cffb3bc-6cb7-4fb3-8e35-ce4d3792bbf1"},"vehicle_type_id":"4","last_reported":1767888996,"current_range_meters":3200,"station_id":"ce4bh412rcd13ifvqds0","pricing_plan_id":"cebpf4jnsgd1na2vs0mg"},{"bike_id":"7f2a4271-f382-42bf-bbca-088d4222db94","system_id":"levelo_inurba_marseille","lat":43.3026,"lon":5.37732,"is_reserved":false,"is_disabled":false,"rental_uris":{"android":"levelo://app?vid=7f2a4271-f382-42bf-bbca-088d4222db94","ios":"levelo://app?vid=7f2a4271-f382-42bf-bbca-088d4222db94"},"vehicle_type_id":"4","last_reported":1767888996,"current_range_meters":3200,"station_id":"ce4bguh2rcd13ifvqcj0","pricing_plan_id":"cebpf4jnsgd1na2vs0mg"},{"bike_id":"a7e8b4f8-15c7-4593-b8a1-1dc1d30ad189","system_id":"levelo_inurba_marseille","lat":43.32053,"lon":5.38408,"is_reserved":false,"is_disabled":false,"rental_uris":{"android":"levelo://app?vid=a7e8b4f8-15c7-4593-b8a1-1dc1d30ad189","ios":"levelo://app?vid=a7e8b4f8-15c7-4593-b8a1-1dc1d30ad189"},"vehicle_type_id":"4","last_reported":1767888996,"current_range_meters":3200,"station_id":"","pricing_plan_id":"cebpf4jnsgd1na2vs0mg"},{"bike_id":"ce52b8f8-9066-45a8-8b05-34bc7d40a28f","system_id":"levelo_inurba_marseille","lat":43.284118,"lon":5.349969,"is_reserved":false,"is_disabled":false,"rental_uris":{"android":"levelo://app?vid=ce52b8f8-9066-45a8-8b05-34bc7d40a28f","ios":"levelo://app?vid=ce52b8f8-9066-45a8-8b05-34bc7d40a28f"},"vehicle_type_id":"4","last_reported":1767888996,"current_range_meters":3200,"station_id":"ce4bhbh2rcd13ifvqepg","pricing_plan_id":"cebpf4jnsgd1na2vs0mg"},{"bike_id":"870a302a-4149-492b-a93d-5631ff07a3cf","system_id":"levelo_inurba_marseille","lat":43.27615,"lon":5.361073,"is_reserved":false,"is_disabled":false,"rental_uris":{"android":"levelo://app?vid=870a302a-4149-492b-a93d-5631ff07a3cf","ios":"levelo://app?vid=870a302a-4149-492b-a93d-5631ff07a3cf"},"vehicle_type_id":"4","last_reported":1767888996,"current_range_meters":3200,"station_id":"ce4bgj92rcd13ifvqbe0","pricing_plan_id":"cebpf4jnsgd1na2vs0mg"},{"bike_id":"d9391320-ed27-4f58-ae52-ce6c4803fa9a","system_id":"levelo_inurba_marseille","lat":43.29572,"lon":5.37522,"is_reserved":false,"is_disabled":false,"rental_uris":{"android":"levelo://app?vid=d9391320-ed27-4f58-ae52-ce6c4803fa9a","ios":"levelo://app?vid=d9391320-ed27-4f58-ae52-ce6c4803fa9a"},"vehicle_type_id":"4","last_reported":1767888996,"current_range_meters":3200,"station_id":"ce4bgh92rcd13ifvqb50","pricing_plan_id":"cebpf4jnsgd1na2vs0mg"},{"bike_id":"d0d67774-3af3-4c86-b7b6-8109c321647b","system_id":"levelo_inurba_marseille","lat":43.22933,"lon":5.35385,"is_reserved":false,"is_disabled":false,"rental_uris":{"android":"levelo://app?vid=d0d67774-3af3-4c86-b7b6-8109c321647b","ios":"levelo://app?vid=d0d67774-3af3-4c86-b7b6-8109c321647b"},"vehicle_type_id":"4","last_reported":1767888996,"current_range_meters":3200,"station_id":"cpo3532slgdg3j2ikp40","pricing_plan_id":"cebpf4jnsgd1na2vs0mg"},{"bike_id":"52bce4c1-0ad0-4e65-8942-f974ea2e2d9a","system_id":"levelo_inurba_marseille","lat":43.29036,"lon":5.35926,"is_reserved":false,"is_disabled":false,"rental_uris":{"android":"levelo://app?vid=52bce4c1-0ad0-4e65-8942-f974ea2e2d9a","ios":"levelo://app?vid=52bce4c1-0ad0-4e65-8942-f974ea2e2d9a"},"vehicle_type_id":"4","last_reported":1767888996,"current_range_meters":3200,"station_id":"ce4bha92rcd13ifvqeg0","pricing_plan_id":"cebpf4jnsgd1na2vs0mg"},{"bike_id":"b149c117-98ef-4c38-aceb-298ce1f4a106","system_id":"levelo_inurba_marseille","lat":43.30808,"lon":5.37617,"is_reserved":false,"is_disabled":false,"rental_uris":{"android":"levelo://app?vid=b149c117-98ef-4c38-aceb-298ce1f4a106","ios":"levelo://app?vid=b149c117-98ef-4c38-aceb-298ce1f4a106"},"vehicle_type_id":"4","last_reported":1767888996,"current_range_meters":3600,"station_id":"ce4bgv92rcd13ifvqcq0","pricing_plan_id":"cebpf4jnsgd1na2vs0mg"},{"bike_id":"796165dd-6233-4b3e-bc69-5c2707fdcdd0","system_id":"levelo_inurba_marseille","lat":43.25506,"lon":5.37645,"is_reserved":false,"is_disabled":false,"rental_uris":{"android":"levelo://app?vid=796165dd-6233-4b3e-bc69-5c2707fdcdd0","ios":"levelo://app?vid=796165dd-6233-4b3e-bc69-5c2707fdcdd0"},"vehicle_type_id":"4","last_reported":1767888996,"current_range_meters":3600,"station_id":"ce4bhh12rcd13ifvqff0","pricing_plan_id":"cebpf4jnsgd1na2vs0mg"},{"bike_id":"e2027e2d-ad96-4852-93c8-8c07125cd696","system_id":"levelo_inurba_marseille","lat":43.30094,"lon":5.39075,"is_reserved":false,"is_disabled":false,"rental_uris":{"android":"levelo://app?vid=e2027e2d-ad96-4852-93c8-8c07125cd696","ios":"levelo://app?vid=e2027e2d-ad96-4852-93c8-8c07125cd696"},"vehicle_type_id":"4","last_reported":1767888996,"current_range_meters":3600,"station_id":"ce4bh192rcd13ifvqdb0","pricing_plan_id":"cebpf4jnsgd1na2vs0mg"},{"bike_id":"9b9e7c0d-8b05-4d0a-9b2e-71cd579eefc9","system_id":"levelo_inurba_marseille","lat":43.32346,"lon":5.36752,"is_reserved":false,"is_disabled":false,"rental_uris":{"android":"levelo://app?vid=9b9e7c0d-8b05-4d0a-9b2e-71cd579eefc9","ios":"levelo://app?vid=9b9e7c0d-8b05-4d0a-9b2e-71cd579eefc9"},"vehicle_type_id":"4","last_reported":1767888996,"current_range_meters":3600,"station_id":"ce4bhsh2rcd13ifvqi2g","pricing_plan_id":"cebpf4jnsgd1na2vs0mg"},{"bike_id":"ff8302a9-d32b-4626-86db-b5e36f362cd5","system_id":"levelo_inurba_marseille","lat":43.33759,"lon":5.37472,"is_reserved":false,"is_disabled":false,"rental_uris":{"android":"levelo://app?vid=ff8302a9-d32b-4626-86db-b5e36f362cd5","ios":"levelo://app?vid=ff8302a9-d32b-4626-86db-b5e36f362cd5"},"vehicle_type_id":"4","last_reported":1767888996,"current_range_meters":3600,"station_id":"","pricing_plan_id":"cebpf4jnsgd1na2vs0mg"},{"bike_id":"f9694d4b-6e2f-4fc5-ae06-59dad6b1ea4d","system_id":"levelo_inurba_marseille","lat":43.25012,"lon":5.3753,"is_reserved":false,"is_disabled":false,"rental_uris":{"android":"levelo://app?vid=f9694d4b-6e2f-4fc5-ae06-59dad6b1ea4d","ios":"levelo://app?vid=f9694d4b-6e2f-4fc5-ae06-59dad6b1ea4d"},"vehicle_type_id":"4","last_reported":1767888996,"current_range_meters":4000,"station_id":"","pricing_plan_id":"cebpf4jnsgd1na2vs0mg"},{"bike_id":"f949a5d4-4547-4cd0-b5c6-911032435d44","system_id":"levelo_inurba_marseille","lat":43.26211,"lon":5.37451,"is_reserved":false,"is_disabled":false,"rental_uris":{"android":"levelo://app?vid=f949a5d4-4547-4cd0-b5c6-911032435d44","ios":"levelo://app?vid=f949a5d4-4547-4cd0-b5c6-911032435d44"},"vehicle_type_id":"4","last_reported":1767888996,"current_range_meters":4000,"station_id":"ce4bhgp2rcd13ifvqfc0","pricing_plan_id":"cebpf4jnsgd1na2vs0mg"},{"bike_id":"318ab7ee-cd4e-4fbb-a198-dc67360e53a7","system_id":"levelo_inurba_marseille","lat":43.229295,"lon":5.353737,"is_reserved":false,"is_disabled":false,"rental_uris":{"android":"levelo://app?vid=318ab7ee-cd4e-4fbb-a198-dc67360e53a7","ios":"levelo://app?vid=318ab7ee-cd4e-4fbb-a198-dc67360e53a7"},"vehicle_type_id":"4","last_reported":1767888996,"current_range_meters":4000,"station_id":"cpo3532slgdg3j2ikp40","pricing_plan_id":"cebpf4jnsgd1na2vs0mg"},{"bike_id":"24b170ad-2325-4ff2-a3cc-a7aef8427e41","system_id":"levelo_inurba_marseille","lat":43.27661,"lon":5.38894,"is_reserved":false,"is_disabled":false,"rental_uris":{"android":"levelo://app?vid=24b170ad-2325-4ff2-a3cc-a7aef8427e41","ios":"levelo://app?vid=24b170ad-2325-4ff2-a3cc-a7aef8427e41"},"vehicle_type_id":"4","last_reported":1767888996,"current_range_meters":4000,"station_id":"ce4bhi12rcd13ifvqfo0","pricing_plan_id":"cebpf4jnsgd1na2vs0mg"},{"bike_id":"180d89c6-a78f-469f-9195-bf47c219695f","system_id":"levelo_inurba_marseille","lat":43.25583,"lon":5.38243,"is_reserved":false,"is_disabled":false,"rental_uris":{"android":"levelo://app?vid=180d89c6-a78f-469f-9195-bf47c219695f","ios":"levelo://app?vid=180d89c6-a78f-469f-9195-bf47c219695f"},"vehicle_type_id":"4","last_reported":1767888996,"current_range_meters":4000,"station_id":"ce4bhih2rcd13ifvqfs0","pricing_plan_id":"cebpf4jnsgd1na2vs0mg"},{"bike_id":"8e9cd320-222e-4849-8f3f-db8fcd5c5954","system_id":"levelo_inurba_marseille","lat":43.3181,"lon":5.36853,"is_reserved":false,"is_disabled":false,"rental_uris":{"android":"levelo://app?vid=8e9cd320-222e-4849-8f3f-db8fcd5c5954","ios":"levelo://app?vid=8e9cd320-222e-4849-8f3f-db8fcd5c5954"},"vehicle_type_id":"4","last_reported":1767888996,"current_range_meters":4000,"station_id":"","pricing_plan_id":"cebpf4jnsgd1na2vs0mg"},{"bike_id":"8f8477b6-07ed-4fdd-aa03-c89764869fff","system_id":"levelo_inurba_marseille","lat":43.29774,"lon":5.38103,"is_reserved":false,"is_disabled":false,"rental_uris":{"android":"levelo://app?vid=8f8477b6-07ed-4fdd-aa03-c89764869fff","ios":"levelo://app?vid=8f8477b6-07ed-4fdd-aa03-c89764869fff"},"vehicle_type_id":"4","last_reported":1767888996,"current_range_meters":4000,"station_id":"ce4bgip2rcd13ifvqbb0","pricing_plan_id":"cebpf4jnsgd1na2vs0mg"},{"bike_id":"4b18eba3-f419-4bd8-a516-c1fae3c7b4a2","system_id":"levelo_inurba_marseille","lat":43.291742,"lon":5.371493,"is_reserved":false,"is_disabled":false,"rental_uris":{"android":"levelo://app?vid=4b18eba3-f419-4bd8-a516-c1fae3c7b4a2","ios":"levelo://app?vid=4b18eba3-f419-4bd8-a516-c1fae3c7b4a2"},"vehicle_type_id":"4","last_reported":1767888996,"current_range_meters":4000,"station_id":"ce4bha92rcd13ifvqeh0","pricing_plan_id":"cebpf4jnsgd1na2vs0mg"},{"bike_id":"ea7ede2a-3e90-4a8d-8cd9-ff500eb197b4","system_id":"levelo_inurba_marseille","lat":43.30923,"lon":5.40139,"is_reserved":false,"is_disabled":false,"rental_uris":{"android":"levelo://app?vid=ea7ede2a-3e90-4a8d-8cd9-ff500eb197b4","ios":"levelo://app?vid=ea7ede2a-3e90-4a8d-8cd9-ff500eb197b4"},"vehicle_type_id":"4","last_reported":1767888996,"current_range_meters":4400,"station_id":"ce4bgvp2rcd13ifvqct0","pricing_plan_id":"cebpf4jnsgd1na2vs0mg"},{"bike_id":"3ced845c-979a-490d-9b93-69105a405450","system_id":"levelo_inurba_marseille","lat":43.27066,"lon":5.42277,"is_reserved":false,"is_disabled":false,"rental_uris":{"android":"levelo://app?vid=3ced845c-979a-490d-9b93-69105a405450","ios":"levelo://app?vid=3ced845c-979a-490d-9b93-69105a405450"},"vehicle_type_id":"4","last_reported":1767888996,"current_range_meters":4400,"station_id":"ce4bhk92rcd13ifvqgb0","pricing_plan_id":"cebpf4jnsgd1na2vs0mg"},{"bike_id":"5a68ff48-3ca4-4b8d-81f5-0545c9e06ce5","system_id":"levelo_inurba_marseille","lat":43.28858,"lon":5.42532,"is_reserved":false,"is_disabled":false,"rental_uris":{"android":"levelo://app?vid=5a68ff48-3ca4-4b8d-81f5-0545c9e06ce5","ios":"levelo://app?vid=5a68ff48-3ca4-4b8d-81f5-0545c9e06ce5"},"vehicle_type_id":"4","last_reported":1767888996,"current_range_meters":4800,"station_id":"st_d3b462108ojc7389ooeg","pricing_plan_id":"cebpf4jnsgd1na2vs0mg"},{"bike_id":"3678ce70-35cc-4f23-a412-a66d50bba044","system_id":"levelo_inurba_marseille","lat":43.28142,"lon":5.38333,"is_reserved":false,"is_disabled":false,"rental_uris":{"android":"levelo://app?vid=3678ce70-35cc-4f23-a412-a66d50bba044","ios":"levelo://app?vid=3678ce70-35cc-4f23-a412-a66d50bba044"},"vehicle_type_id":"4","last_reported":1767888996,"current_range_meters":4800,"station_id":"","pricing_plan_id":"cebpf4jnsgd1na2vs0mg"},{"bike_id":"7e56ead6-0dcc-483d-86d1-d4af73c68e4a","system_id":"levelo_inurba_marseille","lat":43.29386,"lon":5.38612,"is_reserved":false,"is_disabled":true,"rental_uris":{"android":"levelo://app?vid=7e56ead6-0dcc-483d-86d1-d4af73c68e4a","ios":"levelo://app?vid=7e56ead6-0dcc-483d-86d1-d4af73c68e4a"},"vehicle_type_id":"4","last_reported":1767888996,"current_range_meters":4800,"station_id":"","pricing_plan_id":"cebpf4jnsgd1na2vs0mg"},{"bike_id":"cca37f41-75c9-4589-a8ae-12bfd7f639e2","system_id":"levelo_inurba_marseille","lat":43.28858,"lon":5.42518,"is_reserved":false,"is_disabled":false,"rental_uris":{"android":"levelo://app?vid=cca37f41-75c9-4589-a8ae-12bfd7f639e2","ios":"levelo://app?vid=cca37f41-75c9-4589-a8ae-12bfd7f639e2"},"vehicle_type_id":"4","last_reported":1767888996,"current_range_meters":4800,"station_id":"st_d3b462108ojc7389ooeg","pricing_plan_id":"cebpf4jnsgd1na2vs0mg"},{"bike_id":"01b7341c-b3a7-4a3f-a5cd-de1c6082dfb5","system_id":"levelo_inurba_marseille","lat":43.27065,"lon":5.38299,"is_reserved":false,"is_disabled":false,"rental_uris":{"android":"levelo://app?vid=01b7341c-b3a7-4a3f-a5cd-de1c6082dfb5","ios":"levelo://app?vid=01b7341c-b3a7-4a3f-a5cd-de1c6082dfb5"},"vehicle_type_id":"4","last_reported":1767888996,"current_range_meters":4800,"station_id":"st_d3n2fo6cfp8s73cte1j0","pricing_plan_id":"cebpf4jnsgd1na2vs0mg"},{"bike_id":"662b526c-8c27-4d2d-b35e-6a1cdf3512ce","system_id":"levelo_inurba_marseille","lat":43.24799,"lon":5.37459,"is_reserved":false,"is_disabled":false,"rental_uris":{"android":"levelo://app?vid=662b526c-8c27-4d2d-b35e-6a1cdf3512ce","ios":"levelo://app?vid=662b526c-8c27-4d2d-b35e-6a1cdf3512ce"},"vehicle_type_id":"4","last_reported":1767888996,"current_range_meters":4800,"station_id":"ce4bhgh2rcd13ifvqfb0","pricing_plan_id":"cebpf4jnsgd1na2vs0mg"},{"bike_id":"01d8e2c9-d4ce-48e6-afef-8bf3104cf069","system_id":"levelo_inurba_marseille","lat":43.27193,"lon":5.40967,"is_reserved":false,"is_disabled":false,"rental_uris":{"android":"levelo://app?vid=01d8e2c9-d4ce-48e6-afef-8bf3104cf069","ios":"levelo://app?vid=01d8e2c9-d4ce-48e6-afef-8bf3104cf069"},"vehicle_type_id":"4","last_reported":1767888996,"current_range_meters":4800,"station_id":"ce4bhl12rcd13ifvqgf0","pricing_plan_id":"cebpf4jnsgd1na2vs0mg"},{"bike_id":"627ad4fb-d3f7-406d-9fa6-760355e4142d","system_id":"levelo_inurba_marseille","lat":43.23188,"lon":5.35554,"is_reserved":false,"is_disabled":false,"rental_uris":{"android":"levelo://app?vid=627ad4fb-d3f7-406d-9fa6-760355e4142d","ios":"levelo://app?vid=627ad4fb-d3f7-406d-9fa6-760355e4142d"},"vehicle_type_id":"4","last_reported":1767888996,"current_range_meters":4800,"station_id":"ce4bhu92rcd13ifvqi70","pricing_plan_id":"cebpf4jnsgd1na2vs0mg"},{"bike_id":"e3ffb854-e428-4a18-904d-ea5ddd084e10","system_id":"levelo_inurba_marseille","lat":43.3234,"lon":5.36751,"is_reserved":false,"is_disabled":false,"rental_uris":{"android":"levelo://app?vid=e3ffb854-e428-4a18-904d-ea5ddd084e10","ios":"levelo://app?vid=e3ffb854-e428-4a18-904d-ea5ddd084e10"},"vehicle_type_id":"4","last_reported":1767888996,"current_range_meters":4800,"station_id":"ce4bhsh2rcd13ifvqi2g","pricing_plan_id":"cebpf4jnsgd1na2vs0mg"},{"bike_id":"dee1e9d8-96a9-4dec-91e8-d51fb72112fd","system_id":"levelo_inurba_marseille","lat":43.22567,"lon":5.4163,"is_reserved":false,"is_disabled":false,"rental_uris":{"android":"levelo://app?vid=dee1e9d8-96a9-4dec-91e8-d51fb72112fd","ios":"levelo://app?vid=dee1e9d8-96a9-4dec-91e8-d51fb72112fd"},"vehicle_type_id":"4","last_reported":1767888996,"current_range_meters":4800,"station_id":"st_d2o4gvlbi1j2169b742g","pricing_plan_id":"cebpf4jnsgd1na2vs0mg"},{"bike_id":"cec5766b-b25a-4f7c-a1de-8578aaedbf56","system_id":"levelo_inurba_marseille","lat":43.309536,"lon":5.368078,"is_reserved":false,"is_disabled":false,"rental_uris":{"android":"levelo://app?vid=cec5766b-b25a-4f7c-a1de-8578aaedbf56","ios":"levelo://app?vid=cec5766b-b25a-4f7c-a1de-8578aaedbf56"},"vehicle_type_id":"4","last_reported":1767888996,"current_range_meters":4800,"station_id":"","pricing_plan_id":"cebpf4jnsgd1na2vs0mg"},{"bike_id":"d75a90cd-5dce-4bdd-84ef-6b9526859b57","system_id":"levelo_inurba_marseille","lat":43.32491,"lon":5.38304,"is_reserved":false,"is_disabled":false,"rental_uris":{"android":"levelo://app?vid=d75a90cd-5dce-4bdd-84ef-6b9526859b57","ios":"levelo://app?vid=d75a90cd-5dce-4bdd-84ef-6b9526859b57"},"vehicle_type_id":"4","last_reported":1767888996,"current_range_meters":4800,"station_id":"st_d4asgbiv49dc73anf9m0","pricing_plan_id":"cebpf4jnsgd1na2vs0mg"},{"bike_id":"f139dc33-0315-4e3b-806c-1c4763fe230a","system_id":"levelo_inurba_marseille","lat":43.32367,"lon":5.3674,"is_reserved":false,"is_disabled":false,"rental_uris":{"android":"levelo://app?vid=f139dc33-0315-4e3b-806c-1c4763fe230a","ios":"levelo://app?vid=f139dc33-0315-4e3b-806c-1c4763fe230a"},"vehicle_type_id":"4","last_reported":1767888996,"current_range_meters":4800,"station_id":"ce4bhsh2rcd13ifvqi2g","pricing_plan_id":"cebpf4jnsgd1na2vs0mg"},{"bike_id":"547c1058-2d20-411e-a42d-4cc1bc95097b","system_id":"levelo_inurba_marseille","lat":43.263046,"lon":5.396712,"is_reserved":false,"is_disabled":false,"rental_uris":{"android":"levelo://app?vid=547c1058-2d20-411e-a42d-4cc1bc95097b","ios":"levelo://app?vid=547c1058-2d20-411e-a42d-4cc1bc95097b"},"vehicle_type_id":"4","last_reported":1767888996,"current_range_meters":4800,"station_id":"ce4bhl92rcd13ifvqghg","pricing_plan_id":"cebpf4jnsgd1na2vs0mg"},{"bike_id":"54bf261d-8f8c-4f5e-9d97-c0598fc02432","system_id":"levelo_inurba_marseille","lat":43.24809,"lon":5.37463,"is_reserved":false,"is_disabled":false,"rental_uris":{"android":"levelo://app?vid=54bf261d-8f8c-4f5e-9d97-c0598fc02432","ios":"levelo://app?vid=54bf261d-8f8c-4f5e-9d97-c0598fc02432"},"vehicle_type_id":"4","last_reported":1767888996,"current_range_meters":4800,"station_id":"ce4bhgh2rcd13ifvqfb0","pricing_plan_id":"cebpf4jnsgd1na2vs0mg"},{"bike_id":"80c12dbf-2ba0-4bb0-90cb-c3e8a5e3e1e8","system_id":"levelo_inurba_marseille","lat":43.29564,"lon":5.37526,"is_reserved":false,"is_disabled":false,"rental_uris":{"android":"levelo://app?vid=80c12dbf-2ba0-4bb0-90cb-c3e8a5e3e1e8","ios":"levelo://app?vid=80c12dbf-2ba0-4bb0-90cb-c3e8a5e3e1e8"},"vehicle_type_id":"4","last_reported":1767888996,"current_range_meters":4800,"station_id":"ce4bgh92rcd13ifvqb50","pricing_plan_id":"cebpf4jnsgd1na2vs0mg"},{"bike_id":"bcffa3a6-ff3c-45db-9b63-989d56235791","system_id":"levelo_inurba_marseille","lat":43.24472,"lon":5.42536,"is_reserved":false,"is_disabled":false,"rental_uris":{"android":"levelo://app?vid=bcffa3a6-ff3c-45db-9b63-989d56235791","ios":"levelo://app?vid=bcffa3a6-ff3c-45db-9b63-989d56235791"},"vehicle_type_id":"4","last_reported":1767888996,"current_range_meters":5600,"station_id":"st_d4a3vfp97mjs738cd8kg","pricing_plan_id":"cebpf4jnsgd1na2vs0mg"},{"bike_id":"4df48156-dd6c-425a-aaac-7de4e5d50530","system_id":"levelo_inurba_marseille","lat":43.29005,"lon":5.35753,"is_reserved":false,"is_disabled":false,"rental_uris":{"android":"levelo://app?vid=4df48156-dd6c-425a-aaac-7de4e5d50530","ios":"levelo://app?vid=4df48156-dd6c-425a-aaac-7de4e5d50530"},"vehicle_type_id":"4","last_reported":1767888996,"current_range_meters":5600,"station_id":"","pricing_plan_id":"cebpf4jnsgd1na2vs0mg"},{"bike_id":"fe99a84f-5ce7-4cef-a997-e79fffe9bddd","system_id":"levelo_inurba_marseille","lat":43.320951,"lon":5.367758,"is_reserved":false,"is_disabled":false,"rental_uris":{"android":"levelo://app?vid=fe99a84f-5ce7-4cef-a997-e79fffe9bddd","ios":"levelo://app?vid=fe99a84f-5ce7-4cef-a997-e79fffe9bddd"},"vehicle_type_id":"4","last_reported":1767888996,"current_range_meters":5600,"station_id":"ce4bhrh2rcd13ifvqhug","pricing_plan_id":"cebpf4jnsgd1na2vs0mg"},{"bike_id":"17ffc005-fa72-4d1f-9413-b31aab6a3fd6","system_id":"levelo_inurba_marseille","lat":43.32353,"lon":5.36757,"is_reserved":false,"is_disabled":false,"rental_uris":{"android":"levelo://app?vid=17ffc005-fa72-4d1f-9413-b31aab6a3fd6","ios":"levelo://app?vid=17ffc005-fa72-4d1f-9413-b31aab6a3fd6"},"vehicle_type_id":"4","last_reported":1767888996,"current_range_meters":5600,"station_id":"ce4bhsh2rcd13ifvqi2g","pricing_plan_id":"cebpf4jnsgd1na2vs0mg"},{"bike_id":"e8c34c4a-7c8b-4704-b631-04bf63abaf6b","system_id":"levelo_inurba_marseille","lat":43.25822,"lon":5.39423,"is_reserved":false,"is_disabled":false,"rental_uris":{"android":"levelo://app?vid=e8c34c4a-7c8b-4704-b631-04bf63abaf6b","ios":"levelo://app?vid=e8c34c4a-7c8b-4704-b631-04bf63abaf6b"},"vehicle_type_id":"4","last_reported":1767888996,"current_range_meters":5600,"station_id":"ce4bhip2rcd13ifvqft0","pricing_plan_id":"cebpf4jnsgd1na2vs0mg"},{"bike_id":"98d4d33e-2d32-450d-9ef3-2cf8a5265716","system_id":"levelo_inurba_marseille","lat":43.295268,"lon":5.385238,"is_reserved":false,"is_disabled":false,"rental_uris":{"android":"levelo://app?vid=98d4d33e-2d32-450d-9ef3-2cf8a5265716","ios":"levelo://app?vid=98d4d33e-2d32-450d-9ef3-2cf8a5265716"},"vehicle_type_id":"4","last_reported":1767888996,"current_range_meters":5600,"station_id":"ce4bgih2rcd13ifvqba0","pricing_plan_id":"cebpf4jnsgd1na2vs0mg"},{"bike_id":"e333ef92-9481-476e-a416-b4070e2823b7","system_id":"levelo_inurba_marseille","lat":43.25497,"lon":5.37616,"is_reserved":false,"is_disabled":false,"rental_uris":{"android":"levelo://app?vid=e333ef92-9481-476e-a416-b4070e2823b7","ios":"levelo://app?vid=e333ef92-9481-476e-a416-b4070e2823b7"},"vehicle_type_id":"4","last_reported":1767888996,"current_range_meters":5600,"station_id":"ce4bhh12rcd13ifvqff0","pricing_plan_id":"cebpf4jnsgd1na2vs0mg"},{"bike_id":"fbcc26d1-a8cc-40af-a8da-f3f1443e14a2","system_id":"levelo_inurba_marseille","lat":43.299156,"lon":5.374634,"is_reserved":false,"is_disabled":false,"rental_uris":{"android":"levelo://app?vid=fbcc26d1-a8cc-40af-a8da-f3f1443e14a2","ios":"levelo://app?vid=fbcc26d1-a8cc-40af-a8da-f3f1443e14a2"},"vehicle_type_id":"4","last_reported":1767888996,"current_range_meters":5600,"station_id":"ce4bgjh2rcd13ifvqbg0","pricing_plan_id":"cebpf4jnsgd1na2vs0mg"},{"bike_id":"028756d9-bfe4-42e7-8035-4b002ff65672","system_id":"levelo_inurba_marseille","lat":43.229287,"lon":5.353781,"is_reserved":false,"is_disabled":false,"rental_uris":{"android":"levelo://app?vid=028756d9-bfe4-42e7-8035-4b002ff65672","ios":"levelo://app?vid=028756d9-bfe4-42e7-8035-4b002ff65672"},"vehicle_type_id":"4","last_reported":1767888996,"current_range_meters":5600,"station_id":"cpo3532slgdg3j2ikp40","pricing_plan_id":"cebpf4jnsgd1na2vs0mg"},{"bike_id":"04ca6b22-995e-4a22-a561-b7ea4ec24e4b","system_id":"levelo_inurba_marseille","lat":43.28473,"lon":5.48405,"is_reserved":false,"is_disabled":false,"rental_uris":{"android":"levelo://app?vid=04ca6b22-995e-4a22-a561-b7ea4ec24e4b","ios":"levelo://app?vid=04ca6b22-995e-4a22-a561-b7ea4ec24e4b"},"vehicle_type_id":"4","last_reported":1767888996,"current_range_meters":5600,"station_id":"st_d3svhcjqgbts73a3dn0g","pricing_plan_id":"cebpf4jnsgd1na2vs0mg"},{"bike_id":"5f3933f1-8f15-451a-843e-42960e021121","system_id":"levelo_inurba_marseille","lat":43.29583,"lon":5.37496,"is_reserved":false,"is_disabled":false,"rental_uris":{"android":"levelo://app?vid=5f3933f1-8f15-451a-843e-42960e021121","ios":"levelo://app?vid=5f3933f1-8f15-451a-843e-42960e021121"},"vehicle_type_id":"4","last_reported":1767888996,"current_range_meters":6000,"station_id":"ce4bgh92rcd13ifvqb50","pricing_plan_id":"cebpf4jnsgd1na2vs0mg"},{"bike_id":"42f02f13-932e-40dd-ae79-3a7a1a874e34","system_id":"levelo_inurba_marseille","lat":43.29501,"lon":5.43337,"is_reserved":false,"is_disabled":false,"rental_uris":{"android":"levelo://app?vid=42f02f13-932e-40dd-ae79-3a7a1a874e34","ios":"levelo://app?vid=42f02f13-932e-40dd-ae79-3a7a1a874e34"},"vehicle_type_id":"4","last_reported":1767888996,"current_range_meters":6000,"station_id":"st_d3j5ugp08ojc73fj9d10","pricing_plan_id":"cebpf4jnsgd1na2vs0mg"},{"bike_id":"aba7ea30-1026-499d-8351-ae41547f888c","system_id":"levelo_inurba_marseille","lat":43.30292,"lon":5.36913,"is_reserved":false,"is_disabled":false,"rental_uris":{"android":"levelo://app?vid=aba7ea30-1026-499d-8351-ae41547f888c","ios":"levelo://app?vid=aba7ea30-1026-499d-8351-ae41547f888c"},"vehicle_type_id":"4","last_reported":1767888996,"current_range_meters":6000,"station_id":"ce4bgqh2rcd13ifvqc5g","pricing_plan_id":"cebpf4jnsgd1na2vs0mg"},{"bike_id":"75a911db-50bf-4f58-9f92-6bb6f2d03e7c","system_id":"levelo_inurba_marseille","lat":43.29643,"lon":5.40134,"is_reserved":false,"is_disabled":false,"rental_uris":{"android":"levelo://app?vid=75a911db-50bf-4f58-9f92-6bb6f2d03e7c","ios":"levelo://app?vid=75a911db-50bf-4f58-9f92-6bb6f2d03e7c"},"vehicle_type_id":"4","last_reported":1767888996,"current_range_meters":6000,"station_id":"","pricing_plan_id":"cebpf4jnsgd1na2vs0mg"},{"bike_id":"806c7c13-7cf6-4c60-8b2c-87780272a0fa","system_id":"levelo_inurba_marseille","lat":43.27207,"lon":5.39179,"is_reserved":false,"is_disabled":false,"rental_uris":{"android":"levelo://app?vid=806c7c13-7cf6-4c60-8b2c-87780272a0fa","ios":"levelo://app?vid=806c7c13-7cf6-4c60-8b2c-87780272a0fa"},"vehicle_type_id":"4","last_reported":1767888996,"current_range_meters":6000,"station_id":"ce4bhhp2rcd13ifvqfm0","pricing_plan_id":"cebpf4jnsgd1na2vs0mg"},{"bike_id":"212da61f-e45f-49da-8ac8-22c9c61d8835","system_id":"levelo_inurba_marseille","lat":43.31741,"lon":5.38515,"is_reserved":false,"is_disabled":false,"rental_uris":{"android":"levelo://app?vid=212da61f-e45f-49da-8ac8-22c9c61d8835","ios":"levelo://app?vid=212da61f-e45f-49da-8ac8-22c9c61d8835"},"vehicle_type_id":"4","last_reported":1767888996,"current_range_meters":6000,"station_id":"","pricing_plan_id":"cebpf4jnsgd1na2vs0mg"},{"bike_id":"ecd3c884-b625-4122-929d-6367a66201b9","system_id":"levelo_inurba_marseille","lat":43.30298,"lon":5.36895,"is_reserved":false,"is_disabled":false,"rental_uris":{"android":"levelo://app?vid=ecd3c884-b625-4122-929d-6367a66201b9","ios":"levelo://app?vid=ecd3c884-b625-4122-929d-6367a66201b9"},"vehicle_type_id":"4","last_reported":1767888996,"current_range_meters":6000,"station_id":"ce4bgqh2rcd13ifvqc5g","pricing_plan_id":"cebpf4jnsgd1na2vs0mg"},{"bike_id":"7ae2676e-e662-4a9a-a79a-d5011de94824","system_id":"levelo_inurba_marseille","lat":43.24172,"lon":5.36402,"is_reserved":false,"is_disabled":false,"rental_uris":{"android":"levelo://app?vid=7ae2676e-e662-4a9a-a79a-d5011de94824","ios":"levelo://app?vid=7ae2676e-e662-4a9a-a79a-d5011de94824"},"vehicle_type_id":"4","last_reported":1767888996,"current_range_meters":6000,"station_id":"cpo36qri1sfpv3e86is0","pricing_plan_id":"cebpf4jnsgd1na2vs0mg"},{"bike_id":"e986fce2-0dcf-4a72-8226-b2117b200211","system_id":"levelo_inurba_marseille","lat":43.231519,"lon":5.437108,"is_reserved":false,"is_disabled":false,"rental_uris":{"android":"levelo://app?vid=e986fce2-0dcf-4a72-8226-b2117b200211","ios":"levelo://app?vid=e986fce2-0dcf-4a72-8226-b2117b200211"},"vehicle_type_id":"4","last_reported":1767888996,"current_range_meters":6000,"station_id":"ce4bhmp2rcd13ifvqgog","pricing_plan_id":"cebpf4jnsgd1na2vs0mg"},{"bike_id":"80bdd1a4-b1ab-42ae-bb23-cfddeda5c12d","system_id":"levelo_inurba_marseille","lat":43.29893,"lon":5.38331,"is_reserved":false,"is_disabled":true,"rental_uris":{"android":"levelo://app?vid=80bdd1a4-b1ab-42ae-bb23-cfddeda5c12d","ios":"levelo://app?vid=80bdd1a4-b1ab-42ae-bb23-cfddeda5c12d"},"vehicle_type_id":"4","last_reported":1767888996,"current_range_meters":6000,"station_id":"","pricing_plan_id":"cebpf4jnsgd1na2vs0mg"},{"bike_id":"c8b397ed-bac3-4365-ab3d-2489421bfff7","system_id":"levelo_inurba_marseille","lat":43.29793,"lon":5.37614,"is_reserved":false,"is_disabled":false,"rental_uris":{"android":"levelo://app?vid=c8b397ed-bac3-4365-ab3d-2489421bfff7","ios":"levelo://app?vid=c8b397ed-bac3-4365-ab3d-2489421bfff7"},"vehicle_type_id":"4","last_reported":1767888996,"current_range_meters":6000,"station_id":"","pricing_plan_id":"cebpf4jnsgd1na2vs0mg"},{"bike_id":"97cff578-9487-45d7-830b-d574144586d1","system_id":"levelo_inurba_marseille","lat":43.30254,"lon":5.40083,"is_reserved":false,"is_disabled":false,"rental_uris":{"android":"levelo://app?vid=97cff578-9487-45d7-830b-d574144586d1","ios":"levelo://app?vid=97cff578-9487-45d7-830b-d574144586d1"},"vehicle_type_id":"4","last_reported":1767888996,"current_range_meters":6000,"station_id":"ce4bgvh2rcd13ifvqcs0","pricing_plan_id":"cebpf4jnsgd1na2vs0mg"},{"bike_id":"fbd9125a-b267-4b51-9a53-55b02a7f944e","system_id":"levelo_inurba_marseille","lat":43.29258,"lon":5.40916,"is_reserved":false,"is_disabled":false,"rental_uris":{"android":"levelo://app?vid=fbd9125a-b267-4b51-9a53-55b02a7f944e","ios":"levelo://app?vid=fbd9125a-b267-4b51-9a53-55b02a7f944e"},"vehicle_type_id":"4","last_reported":1767888996,"current_range_meters":6000,"station_id":"ce4bh192rcd13ifvqdc0","pricing_plan_id":"cebpf4jnsgd1na2vs0mg"},{"bike_id":"eb861559-f4a9-4c83-89aa-289b16e18c99","system_id":"levelo_inurba_marseille","lat":43.29572,"lon":5.37521,"is_reserved":false,"is_disabled":false,"rental_uris":{"android":"levelo://app?vid=eb861559-f4a9-4c83-89aa-289b16e18c99","ios":"levelo://app?vid=eb861559-f4a9-4c83-89aa-289b16e18c99"},"vehicle_type_id":"4","last_reported":1767888996,"current_range_meters":6400,"station_id":"ce4bgh92rcd13ifvqb50","pricing_plan_id":"cebpf4jnsgd1na2vs0mg"},{"bike_id":"19e15d06-cf4c-459d-8887-b3feaa0bcacf","system_id":"levelo_inurba_marseille","lat":43.32835,"lon":5.40476,"is_reserved":false,"is_disabled":false,"rental_uris":{"android":"levelo://app?vid=19e15d06-cf4c-459d-8887-b3feaa0bcacf","ios":"levelo://app?vid=19e15d06-cf4c-459d-8887-b3feaa0bcacf"},"vehicle_type_id":"4","last_reported":1767888996,"current_range_meters":6400,"station_id":"ce4bhq92rcd13ifvqhkg","pricing_plan_id":"cebpf4jnsgd1na2vs0mg"},{"bike_id":"c10c03af-eba1-4f9f-a373-ad08e2aac44e","system_id":"levelo_inurba_marseille","lat":43.25931,"lon":5.40907,"is_reserved":false,"is_disabled":false,"rental_uris":{"android":"levelo://app?vid=c10c03af-eba1-4f9f-a373-ad08e2aac44e","ios":"levelo://app?vid=c10c03af-eba1-4f9f-a373-ad08e2aac44e"},"vehicle_type_id":"4","last_reported":1767888996,"current_range_meters":6400,"station_id":"ce4bhm92rcd13ifvqglg","pricing_plan_id":"cebpf4jnsgd1na2vs0mg"},{"bike_id":"6df19930-e3eb-4eb3-9a45-a01da3418078","system_id":"levelo_inurba_marseille","lat":43.25823,"lon":5.39429,"is_reserved":false,"is_disabled":false,"rental_uris":{"android":"levelo://app?vid=6df19930-e3eb-4eb3-9a45-a01da3418078","ios":"levelo://app?vid=6df19930-e3eb-4eb3-9a45-a01da3418078"},"vehicle_type_id":"4","last_reported":1767888996,"current_range_meters":6400,"station_id":"ce4bhip2rcd13ifvqft0","pricing_plan_id":"cebpf4jnsgd1na2vs0mg"},{"bike_id":"55cc6835-83f4-4658-8940-3ac462eb94c0","system_id":"levelo_inurba_marseille","lat":43.27066,"lon":5.3831,"is_reserved":false,"is_disabled":false,"rental_uris":{"android":"levelo://app?vid=55cc6835-83f4-4658-8940-3ac462eb94c0","ios":"levelo://app?vid=55cc6835-83f4-4658-8940-3ac462eb94c0"},"vehicle_type_id":"4","last_reported":1767888996,"current_range_meters":6400,"station_id":"st_d3n2fo6cfp8s73cte1j0","pricing_plan_id":"cebpf4jnsgd1na2vs0mg"},{"bike_id":"b9ef6aa6-7590-46c5-a49a-18293bf99c6e","system_id":"levelo_inurba_marseille","lat":43.27337,"lon":5.39107,"is_reserved":false,"is_disabled":false,"rental_uris":{"android":"levelo://app?vid=b9ef6aa6-7590-46c5-a49a-18293bf99c6e","ios":"levelo://app?vid=b9ef6aa6-7590-46c5-a49a-18293bf99c6e"},"vehicle_type_id":"4","last_reported":1767888996,"current_range_meters":6400,"station_id":"ce4bhgp2rcd13ifvqfe0","pricing_plan_id":"cebpf4jnsgd1na2vs0mg"},{"bike_id":"774b3820-8377-4fa7-aa69-afcc7faa47e4","system_id":"levelo_inurba_marseille","lat":43.287079,"lon":5.373882,"is_reserved":false,"is_disabled":false,"rental_uris":{"android":"levelo://app?vid=774b3820-8377-4fa7-aa69-afcc7faa47e4","ios":"levelo://app?vid=774b3820-8377-4fa7-aa69-afcc7faa47e4"},"vehicle_type_id":"4","last_reported":1767888996,"current_range_meters":6400,"station_id":"ce4bh3p2rcd13ifvqdq0","pricing_plan_id":"cebpf4jnsgd1na2vs0mg"},{"bike_id":"6dd96e51-0ed6-4297-9c0e-283504dcbf10","system_id":"levelo_inurba_marseille","lat":43.280856,"lon":5.396638,"is_reserved":false,"is_disabled":false,"rental_uris":{"android":"levelo://app?vid=6dd96e51-0ed6-4297-9c0e-283504dcbf10","ios":"levelo://app?vid=6dd96e51-0ed6-4297-9c0e-283504dcbf10"},"vehicle_type_id":"4","last_reported":1767888996,"current_range_meters":6400,"station_id":"ce4bho12rcd13ifvqh2g","pricing_plan_id":"cebpf4jnsgd1na2vs0mg"},{"bike_id":"a6462651-ffd6-4de0-ac89-ac14a3f92140","system_id":"levelo_inurba_marseille","lat":43.23781,"lon":5.36629,"is_reserved":false,"is_disabled":false,"rental_uris":{"android":"levelo://app?vid=a6462651-ffd6-4de0-ac89-ac14a3f92140","ios":"levelo://app?vid=a6462651-ffd6-4de0-ac89-ac14a3f92140"},"vehicle_type_id":"4","last_reported":1767888996,"current_range_meters":6400,"station_id":"st_d3nk18o9ro0c73en2l3g","pricing_plan_id":"cebpf4jnsgd1na2vs0mg"},{"bike_id":"9c3981e0-5f2d-40cd-b439-b3c3f726bc99","system_id":"levelo_inurba_marseille","lat":43.29526,"lon":5.3854,"is_reserved":false,"is_disabled":false,"rental_uris":{"android":"levelo://app?vid=9c3981e0-5f2d-40cd-b439-b3c3f726bc99","ios":"levelo://app?vid=9c3981e0-5f2d-40cd-b439-b3c3f726bc99"},"vehicle_type_id":"4","last_reported":1767888996,"current_range_meters":6400,"station_id":"ce4bgih2rcd13ifvqba0","pricing_plan_id":"cebpf4jnsgd1na2vs0mg"},{"bike_id":"5df5c3c8-c819-4481-bf37-90026d7491fe","system_id":"levelo_inurba_marseille","lat":43.31155,"lon":5.39014,"is_reserved":false,"is_disabled":false,"rental_uris":{"android":"levelo://app?vid=5df5c3c8-c819-4481-bf37-90026d7491fe","ios":"levelo://app?vid=5df5c3c8-c819-4481-bf37-90026d7491fe"},"vehicle_type_id":"4","last_reported":1767888996,"current_range_meters":6400,"station_id":"","pricing_plan_id":"cebpf4jnsgd1na2vs0mg"},{"bike_id":"00ed0159-9192-42ca-bf9a-113fb0281cb3","system_id":"levelo_inurba_marseille","lat":43.26208,"lon":5.37452,"is_reserved":false,"is_disabled":false,"rental_uris":{"android":"levelo://app?vid=00ed0159-9192-42ca-bf9a-113fb0281cb3","ios":"levelo://app?vid=00ed0159-9192-42ca-bf9a-113fb0281cb3"},"vehicle_type_id":"4","last_reported":1767888996,"current_range_meters":6400,"station_id":"ce4bhgp2rcd13ifvqfc0","pricing_plan_id":"cebpf4jnsgd1na2vs0mg"},{"bike_id":"49ab2055-cf91-4dc1-ac53-d99d0ee2a0d1","system_id":"levelo_inurba_marseille","lat":43.28352,"lon":5.38093,"is_reserved":false,"is_disabled":false,"rental_uris":{"android":"levelo://app?vid=49ab2055-cf91-4dc1-ac53-d99d0ee2a0d1","ios":"levelo://app?vid=49ab2055-cf91-4dc1-ac53-d99d0ee2a0d1"},"vehicle_type_id":"4","last_reported":1767888996,"current_range_meters":6400,"station_id":"ce4bh412rcd13ifvqdr0","pricing_plan_id":"cebpf4jnsgd1na2vs0mg"},{"bike_id":"d19d32de-fe7f-42ca-93fe-613a15438278","system_id":"levelo_inurba_marseille","lat":43.28429,"lon":5.35,"is_reserved":false,"is_disabled":false,"rental_uris":{"android":"levelo://app?vid=d19d32de-fe7f-42ca-93fe-613a15438278","ios":"levelo://app?vid=d19d32de-fe7f-42ca-93fe-613a15438278"},"vehicle_type_id":"4","last_reported":1767888996,"current_range_meters":6400,"station_id":"ce4bhbh2rcd13ifvqepg","pricing_plan_id":"cebpf4jnsgd1na2vs0mg"},{"bike_id":"01b959ab-7f6d-49f2-98ad-07d747a3856f","system_id":"levelo_inurba_marseille","lat":43.30873,"lon":5.39647,"is_reserved":false,"is_disabled":false,"rental_uris":{"android":"levelo://app?vid=01b959ab-7f6d-49f2-98ad-07d747a3856f","ios":"levelo://app?vid=01b959ab-7f6d-49f2-98ad-07d747a3856f"},"vehicle_type_id":"4","last_reported":1767888996,"current_range_meters":6400,"station_id":"ce4bh012rcd13ifvqcv0","pricing_plan_id":"cebpf4jnsgd1na2vs0mg"},{"bike_id":"b52c9f97-77ef-4722-bbb2-514cd7657445","system_id":"levelo_inurba_marseille","lat":43.30802,"lon":5.38162,"is_reserved":false,"is_disabled":false,"rental_uris":{"android":"levelo://app?vid=b52c9f97-77ef-4722-bbb2-514cd7657445","ios":"levelo://app?vid=b52c9f97-77ef-4722-bbb2-514cd7657445"},"vehicle_type_id":"4","last_reported":1767888996,"current_range_meters":6400,"station_id":"ce4bgt12rcd13ifvqce0","pricing_plan_id":"cebpf4jnsgd1na2vs0mg"},{"bike_id":"845bee73-fea8-4b21-9671-09bb9a36c361","system_id":"levelo_inurba_marseille","lat":43.25102,"lon":5.39531,"is_reserved":false,"is_disabled":false,"rental_uris":{"android":"levelo://app?vid=845bee73-fea8-4b21-9671-09bb9a36c361","ios":"levelo://app?vid=845bee73-fea8-4b21-9671-09bb9a36c361"},"vehicle_type_id":"4","last_reported":1767888996,"current_range_meters":6400,"station_id":"ce4bhm12rcd13ifvqgkg","pricing_plan_id":"cebpf4jnsgd1na2vs0mg"},{"bike_id":"26251df8-74b6-4622-a854-fef4826e7216","system_id":"levelo_inurba_marseille","lat":43.29568,"lon":5.37515,"is_reserved":false,"is_disabled":false,"rental_uris":{"android":"levelo://app?vid=26251df8-74b6-4622-a854-fef4826e7216","ios":"levelo://app?vid=26251df8-74b6-4622-a854-fef4826e7216"},"vehicle_type_id":"4","last_reported":1767888996,"current_range_meters":6400,"station_id":"ce4bgh92rcd13ifvqb50","pricing_plan_id":"cebpf4jnsgd1na2vs0mg"},{"bike_id":"d24d285e-9609-4a05-b62d-3c973f9ec4cd","system_id":"levelo_inurba_marseille","lat":43.27382,"lon":5.36211,"is_reserved":false,"is_disabled":false,"rental_uris":{"android":"levelo://app?vid=d24d285e-9609-4a05-b62d-3c973f9ec4cd","ios":"levelo://app?vid=d24d285e-9609-4a05-b62d-3c973f9ec4cd"},"vehicle_type_id":"4","last_reported":1767888996,"current_range_meters":6400,"station_id":"","pricing_plan_id":"cebpf4jnsgd1na2vs0mg"},{"bike_id":"d0f55402-a426-4c89-a654-75e53989ebf5","system_id":"levelo_inurba_marseille","lat":43.28762,"lon":5.38378,"is_reserved":false,"is_disabled":false,"rental_uris":{"android":"levelo://app?vid=d0f55402-a426-4c89-a654-75e53989ebf5","ios":"levelo://app?vid=d0f55402-a426-4c89-a654-75e53989ebf5"},"vehicle_type_id":"4","last_reported":1767888996,"current_range_meters":6400,"station_id":"","pricing_plan_id":"cebpf4jnsgd1na2vs0mg"},{"bike_id":"193e45c2-364c-423e-a140-ddc02a071b0f","system_id":"levelo_inurba_marseille","lat":43.28422,"lon":5.34987,"is_reserved":false,"is_disabled":false,"rental_uris":{"android":"levelo://app?vid=193e45c2-364c-423e-a140-ddc02a071b0f","ios":"levelo://app?vid=193e45c2-364c-423e-a140-ddc02a071b0f"},"vehicle_type_id":"4","last_reported":1767888996,"current_range_meters":6400,"station_id":"ce4bhbh2rcd13ifvqepg","pricing_plan_id":"cebpf4jnsgd1na2vs0mg"},{"bike_id":"e87e13ae-d69b-4129-94d6-fdb38119b5d3","system_id":"levelo_inurba_marseille","lat":43.28411,"lon":5.34996,"is_reserved":false,"is_disabled":false,"rental_uris":{"android":"levelo://app?vid=e87e13ae-d69b-4129-94d6-fdb38119b5d3","ios":"levelo://app?vid=e87e13ae-d69b-4129-94d6-fdb38119b5d3"},"vehicle_type_id":"4","last_reported":1767888996,"current_range_meters":6400,"station_id":"ce4bhbh2rcd13ifvqepg","pricing_plan_id":"cebpf4jnsgd1na2vs0mg"},{"bike_id":"5ddc36fe-25ae-4411-85cc-e5b7ed02f34a","system_id":"levelo_inurba_marseille","lat":43.28594,"lon":5.37064,"is_reserved":false,"is_disabled":false,"rental_uris":{"android":"levelo://app?vid=5ddc36fe-25ae-4411-85cc-e5b7ed02f34a","ios":"levelo://app?vid=5ddc36fe-25ae-4411-85cc-e5b7ed02f34a"},"vehicle_type_id":"4","last_reported":1767888996,"current_range_meters":6400,"station_id":"ce4bht12rcd13ifvqi60","pricing_plan_id":"cebpf4jnsgd1na2vs0mg"},{"bike_id":"98a3c282-3de7-4af5-a8dc-d02f11f0213b","system_id":"levelo_inurba_marseille","lat":43.2937,"lon":5.37859,"is_reserved":false,"is_disabled":false,"rental_uris":{"android":"levelo://app?vid=98a3c282-3de7-4af5-a8dc-d02f11f0213b","ios":"levelo://app?vid=98a3c282-3de7-4af5-a8dc-d02f11f0213b"},"vehicle_type_id":"4","last_reported":1767888996,"current_range_meters":6400,"station_id":"ce4bgjh2rcd13ifvqbf0","pricing_plan_id":"cebpf4jnsgd1na2vs0mg"},{"bike_id":"7401be6f-cce5-4127-bfd0-4e81a357cf0d","system_id":"levelo_inurba_marseille","lat":43.25564,"lon":5.38235,"is_reserved":false,"is_disabled":false,"rental_uris":{"android":"levelo://app?vid=7401be6f-cce5-4127-bfd0-4e81a357cf0d","ios":"levelo://app?vid=7401be6f-cce5-4127-bfd0-4e81a357cf0d"},"vehicle_type_id":"4","last_reported":1767888996,"current_range_meters":6400,"station_id":"ce4bhih2rcd13ifvqfs0","pricing_plan_id":"cebpf4jnsgd1na2vs0mg"},{"bike_id":"d732fcd7-f8ed-43d6-b6ef-d29b2b97a6d4","system_id":"levelo_inurba_marseille","lat":43.27373,"lon":5.36257,"is_reserved":false,"is_disabled":false,"rental_uris":{"android":"levelo://app?vid=d732fcd7-f8ed-43d6-b6ef-d29b2b97a6d4","ios":"levelo://app?vid=d732fcd7-f8ed-43d6-b6ef-d29b2b97a6d4"},"vehicle_type_id":"4","last_reported":1767888996,"current_range_meters":6400,"station_id":"ce4bhbh2rcd13ifvqeo0","pricing_plan_id":"cebpf4jnsgd1na2vs0mg"},{"bike_id":"4b620995-d6fb-462e-a20d-8f9beb3fd129","system_id":"levelo_inurba_marseille","lat":43.29255,"lon":5.40903,"is_reserved":false,"is_disabled":false,"rental_uris":{"android":"levelo://app?vid=4b620995-d6fb-462e-a20d-8f9beb3fd129","ios":"levelo://app?vid=4b620995-d6fb-462e-a20d-8f9beb3fd129"},"vehicle_type_id":"4","last_reported":1767888996,"current_range_meters":6400,"station_id":"ce4bh192rcd13ifvqdc0","pricing_plan_id":"cebpf4jnsgd1na2vs0mg"},{"bike_id":"47d0a8b3-c4fc-4d20-befe-0d9c69ad92a9","system_id":"levelo_inurba_marseille","lat":43.23778,"lon":5.36648,"is_reserved":false,"is_disabled":false,"rental_uris":{"android":"levelo://app?vid=47d0a8b3-c4fc-4d20-befe-0d9c69ad92a9","ios":"levelo://app?vid=47d0a8b3-c4fc-4d20-befe-0d9c69ad92a9"},"vehicle_type_id":"4","last_reported":1767888996,"current_range_meters":6400,"station_id":"st_d3nk18o9ro0c73en2l3g","pricing_plan_id":"cebpf4jnsgd1na2vs0mg"},{"bike_id":"84d7a35c-f0ae-49a9-8cd1-325e7f1ca1d6","system_id":"levelo_inurba_marseille","lat":43.30512,"lon":5.36549,"is_reserved":false,"is_disabled":false,"rental_uris":{"android":"levelo://app?vid=84d7a35c-f0ae-49a9-8cd1-325e7f1ca1d6","ios":"levelo://app?vid=84d7a35c-f0ae-49a9-8cd1-325e7f1ca1d6"},"vehicle_type_id":"4","last_reported":1767888996,"current_range_meters":6800,"station_id":"","pricing_plan_id":"cebpf4jnsgd1na2vs0mg"},{"bike_id":"9c202c24-a1c8-4fad-95ee-379e797dad6e","system_id":"levelo_inurba_marseille","lat":43.29803,"lon":5.38084,"is_reserved":false,"is_disabled":false,"rental_uris":{"android":"levelo://app?vid=9c202c24-a1c8-4fad-95ee-379e797dad6e","ios":"levelo://app?vid=9c202c24-a1c8-4fad-95ee-379e797dad6e"},"vehicle_type_id":"4","last_reported":1767888996,"current_range_meters":6800,"station_id":"ce4bgip2rcd13ifvqbb0","pricing_plan_id":"cebpf4jnsgd1na2vs0mg"},{"bike_id":"4a6fd0da-9345-4d40-9549-183a93c3f929","system_id":"levelo_inurba_marseille","lat":43.30533,"lon":5.36526,"is_reserved":false,"is_disabled":false,"rental_uris":{"android":"levelo://app?vid=4a6fd0da-9345-4d40-9549-183a93c3f929","ios":"levelo://app?vid=4a6fd0da-9345-4d40-9549-183a93c3f929"},"vehicle_type_id":"4","last_reported":1767888996,"current_range_meters":6800,"station_id":"ce4bgs12rcd13ifvqcag","pricing_plan_id":"cebpf4jnsgd1na2vs0mg"},{"bike_id":"610c81c3-dfeb-424f-b50d-2de599f913b7","system_id":"levelo_inurba_marseille","lat":43.30891,"lon":5.36819,"is_reserved":false,"is_disabled":false,"rental_uris":{"android":"levelo://app?vid=610c81c3-dfeb-424f-b50d-2de599f913b7","ios":"levelo://app?vid=610c81c3-dfeb-424f-b50d-2de599f913b7"},"vehicle_type_id":"4","last_reported":1767888996,"current_range_meters":6800,"station_id":"ce4bgn92rcd13ifvqbvg","pricing_plan_id":"cebpf4jnsgd1na2vs0mg"},{"bike_id":"89d31037-815d-4ebf-9cf1-7e6e32f17ab3","system_id":"levelo_inurba_marseille","lat":43.27215,"lon":5.40991,"is_reserved":false,"is_disabled":false,"rental_uris":{"android":"levelo://app?vid=89d31037-815d-4ebf-9cf1-7e6e32f17ab3","ios":"levelo://app?vid=89d31037-815d-4ebf-9cf1-7e6e32f17ab3"},"vehicle_type_id":"4","last_reported":1767888996,"current_range_meters":6800,"station_id":"ce4bhl12rcd13ifvqgf0","pricing_plan_id":"cebpf4jnsgd1na2vs0mg"},{"bike_id":"23fa44c7-9e8d-448d-ada8-4511f2b80b0a","system_id":"levelo_inurba_marseille","lat":43.28615,"lon":5.35112,"is_reserved":false,"is_disabled":false,"rental_uris":{"android":"levelo://app?vid=23fa44c7-9e8d-448d-ada8-4511f2b80b0a","ios":"levelo://app?vid=23fa44c7-9e8d-448d-ada8-4511f2b80b0a"},"vehicle_type_id":"4","last_reported":1767888996,"current_range_meters":6800,"station_id":"ce4bhch2rcd13ifvqeug","pricing_plan_id":"cebpf4jnsgd1na2vs0mg"},{"bike_id":"1d0bc78d-4a45-4f6c-8f05-c91c3fe4c6fc","system_id":"levelo_inurba_marseille","lat":43.29907,"lon":5.3747,"is_reserved":false,"is_disabled":false,"rental_uris":{"android":"levelo://app?vid=1d0bc78d-4a45-4f6c-8f05-c91c3fe4c6fc","ios":"levelo://app?vid=1d0bc78d-4a45-4f6c-8f05-c91c3fe4c6fc"},"vehicle_type_id":"4","last_reported":1767888996,"current_range_meters":6800,"station_id":"ce4bgjh2rcd13ifvqbg0","pricing_plan_id":"cebpf4jnsgd1na2vs0mg"},{"bike_id":"bc098567-800c-4912-b379-6accc2bf050c","system_id":"levelo_inurba_marseille","lat":43.30413,"lon":5.41288,"is_reserved":false,"is_disabled":false,"rental_uris":{"android":"levelo://app?vid=bc098567-800c-4912-b379-6accc2bf050c","ios":"levelo://app?vid=bc098567-800c-4912-b379-6accc2bf050c"},"vehicle_type_id":"4","last_reported":1767888996,"current_range_meters":6800,"station_id":"ce4bhop2rcd13ifvqh8g","pricing_plan_id":"cebpf4jnsgd1na2vs0mg"},{"bike_id":"0753808a-bb36-4a4b-9cb3-11f3d3daa7d7","system_id":"levelo_inurba_marseille","lat":43.25932,"lon":5.40902,"is_reserved":false,"is_disabled":false,"rental_uris":{"android":"levelo://app?vid=0753808a-bb36-4a4b-9cb3-11f3d3daa7d7","ios":"levelo://app?vid=0753808a-bb36-4a4b-9cb3-11f3d3daa7d7"},"vehicle_type_id":"4","last_reported":1767888996,"current_range_meters":6800,"station_id":"ce4bhm92rcd13ifvqglg","pricing_plan_id":"cebpf4jnsgd1na2vs0mg"},{"bike_id":"def7dce9-fdc4-4df2-baea-27b2ff2b32ca","system_id":"levelo_inurba_marseille","lat":43.29183,"lon":5.37128,"is_reserved":false,"is_disabled":false,"rental_uris":{"android":"levelo://app?vid=def7dce9-fdc4-4df2-baea-27b2ff2b32ca","ios":"levelo://app?vid=def7dce9-fdc4-4df2-baea-27b2ff2b32ca"},"vehicle_type_id":"4","last_reported":1767888996,"current_range_meters":6800,"station_id":"ce4bha92rcd13ifvqeh0","pricing_plan_id":"cebpf4jnsgd1na2vs0mg"},{"bike_id":"abd4f237-c812-4344-bfeb-7094dc895bf0","system_id":"levelo_inurba_marseille","lat":43.30304,"lon":5.36907,"is_reserved":false,"is_disabled":false,"rental_uris":{"android":"levelo://app?vid=abd4f237-c812-4344-bfeb-7094dc895bf0","ios":"levelo://app?vid=abd4f237-c812-4344-bfeb-7094dc895bf0"},"vehicle_type_id":"4","last_reported":1767888996,"current_range_meters":6800,"station_id":"ce4bgqh2rcd13ifvqc5g","pricing_plan_id":"cebpf4jnsgd1na2vs0mg"},{"bike_id":"61e533a6-acc9-488b-a636-f42dc7ec3e94","system_id":"levelo_inurba_marseille","lat":43.23965,"lon":5.36633,"is_reserved":false,"is_disabled":false,"rental_uris":{"android":"levelo://app?vid=61e533a6-acc9-488b-a636-f42dc7ec3e94","ios":"levelo://app?vid=61e533a6-acc9-488b-a636-f42dc7ec3e94"},"vehicle_type_id":"4","last_reported":1767888996,"current_range_meters":6800,"station_id":"ce4bhi12rcd13ifvqfp0","pricing_plan_id":"cebpf4jnsgd1na2vs0mg"},{"bike_id":"2bdef769-2e65-45de-b85d-b85908d14762","system_id":"levelo_inurba_marseille","lat":43.29536,"lon":5.38533,"is_reserved":false,"is_disabled":false,"rental_uris":{"android":"levelo://app?vid=2bdef769-2e65-45de-b85d-b85908d14762","ios":"levelo://app?vid=2bdef769-2e65-45de-b85d-b85908d14762"},"vehicle_type_id":"4","last_reported":1767888996,"current_range_meters":6800,"station_id":"ce4bgih2rcd13ifvqba0","pricing_plan_id":"cebpf4jnsgd1na2vs0mg"},{"bike_id":"ef8b8eb6-6226-4146-95a1-d01c656eb60d","system_id":"levelo_inurba_marseille","lat":43.28468,"lon":5.48386,"is_reserved":false,"is_disabled":false,"rental_uris":{"android":"levelo://app?vid=ef8b8eb6-6226-4146-95a1-d01c656eb60d","ios":"levelo://app?vid=ef8b8eb6-6226-4146-95a1-d01c656eb60d"},"vehicle_type_id":"4","last_reported":1767888996,"current_range_meters":6800,"station_id":"st_d3svhcjqgbts73a3dn0g","pricing_plan_id":"cebpf4jnsgd1na2vs0mg"},{"bike_id":"e9be6d9d-169b-4cae-9a40-1aae9b41881f","system_id":"levelo_inurba_marseille","lat":43.28767,"lon":5.38072,"is_reserved":false,"is_disabled":false,"rental_uris":{"android":"levelo://app?vid=e9be6d9d-169b-4cae-9a40-1aae9b41881f","ios":"levelo://app?vid=e9be6d9d-169b-4cae-9a40-1aae9b41881f"},"vehicle_type_id":"4","last_reported":1767888996,"current_range_meters":6800,"station_id":"","pricing_plan_id":"cebpf4jnsgd1na2vs0mg"},{"bike_id":"357563d8-d33e-4f70-862e-8fab05436ef0","system_id":"levelo_inurba_marseille","lat":43.289776,"lon":5.378228,"is_reserved":false,"is_disabled":false,"rental_uris":{"android":"levelo://app?vid=357563d8-d33e-4f70-862e-8fab05436ef0","ios":"levelo://app?vid=357563d8-d33e-4f70-862e-8fab05436ef0"},"vehicle_type_id":"4","last_reported":1767888996,"current_range_meters":6800,"station_id":"","pricing_plan_id":"cebpf4jnsgd1na2vs0mg"},{"bike_id":"b7478445-5f6a-4340-adac-fb734b2f2129","system_id":"levelo_inurba_marseille","lat":43.24954,"lon":5.40494,"is_reserved":false,"is_disabled":false,"rental_uris":{"android":"levelo://app?vid=b7478445-5f6a-4340-adac-fb734b2f2129","ios":"levelo://app?vid=b7478445-5f6a-4340-adac-fb734b2f2129"},"vehicle_type_id":"4","last_reported":1767888996,"current_range_meters":6800,"station_id":"st_d2ngiaodas8pm72gd1h0","pricing_plan_id":"cebpf4jnsgd1na2vs0mg"},{"bike_id":"9b223d13-a14f-4b17-99c3-51931f640024","system_id":"levelo_inurba_marseille","lat":43.30413,"lon":5.41287,"is_reserved":false,"is_disabled":false,"rental_uris":{"android":"levelo://app?vid=9b223d13-a14f-4b17-99c3-51931f640024","ios":"levelo://app?vid=9b223d13-a14f-4b17-99c3-51931f640024"},"vehicle_type_id":"4","last_reported":1767888996,"current_range_meters":6800,"station_id":"ce4bhop2rcd13ifvqh8g","pricing_plan_id":"cebpf4jnsgd1na2vs0mg"},{"bike_id":"3ada1a6b-6031-458a-b05a-7b349030768e","system_id":"levelo_inurba_marseille","lat":43.3054,"lon":5.36822,"is_reserved":false,"is_disabled":false,"rental_uris":{"android":"levelo://app?vid=3ada1a6b-6031-458a-b05a-7b349030768e","ios":"levelo://app?vid=3ada1a6b-6031-458a-b05a-7b349030768e"},"vehicle_type_id":"4","last_reported":1767888996,"current_range_meters":6800,"station_id":"","pricing_plan_id":"cebpf4jnsgd1na2vs0mg"},{"bike_id":"9cfbd8f3-4d7f-4285-b2d4-c98e63f13b19","system_id":"levelo_inurba_marseille","lat":43.28525,"lon":5.38535,"is_reserved":false,"is_disabled":false,"rental_uris":{"android":"levelo://app?vid=9cfbd8f3-4d7f-4285-b2d4-c98e63f13b19","ios":"levelo://app?vid=9cfbd8f3-4d7f-4285-b2d4-c98e63f13b19"},"vehicle_type_id":"4","last_reported":1767888996,"current_range_meters":6800,"station_id":"","pricing_plan_id":"cebpf4jnsgd1na2vs0mg"},{"bike_id":"9cfeff17-a54a-4b3c-baa8-c7ed795fc5f2","system_id":"levelo_inurba_marseille","lat":43.241658,"lon":5.36396,"is_reserved":false,"is_disabled":false,"rental_uris":{"android":"levelo://app?vid=9cfeff17-a54a-4b3c-baa8-c7ed795fc5f2","ios":"levelo://app?vid=9cfeff17-a54a-4b3c-baa8-c7ed795fc5f2"},"vehicle_type_id":"4","last_reported":1767888996,"current_range_meters":7200,"station_id":"cpo36qri1sfpv3e86is0","pricing_plan_id":"cebpf4jnsgd1na2vs0mg"},{"bike_id":"dfe5a3d6-a632-4015-9d6d-e392452a5f87","system_id":"levelo_inurba_marseille","lat":43.24805,"lon":5.37461,"is_reserved":false,"is_disabled":false,"rental_uris":{"android":"levelo://app?vid=dfe5a3d6-a632-4015-9d6d-e392452a5f87","ios":"levelo://app?vid=dfe5a3d6-a632-4015-9d6d-e392452a5f87"},"vehicle_type_id":"4","last_reported":1767888996,"current_range_meters":7200,"station_id":"ce4bhgh2rcd13ifvqfb0","pricing_plan_id":"cebpf4jnsgd1na2vs0mg"},{"bike_id":"92ec400a-1816-464b-b776-d8ae8599bbc7","system_id":"levelo_inurba_marseille","lat":43.253127,"lon":5.381125,"is_reserved":false,"is_disabled":false,"rental_uris":{"android":"levelo://app?vid=92ec400a-1816-464b-b776-d8ae8599bbc7","ios":"levelo://app?vid=92ec400a-1816-464b-b776-d8ae8599bbc7"},"vehicle_type_id":"4","last_reported":1767888996,"current_range_meters":7200,"station_id":"","pricing_plan_id":"cebpf4jnsgd1na2vs0mg"},{"bike_id":"873ae146-395a-40ee-8fdf-3d973ffd9442","system_id":"levelo_inurba_marseille","lat":43.25927,"lon":5.40917,"is_reserved":false,"is_disabled":false,"rental_uris":{"android":"levelo://app?vid=873ae146-395a-40ee-8fdf-3d973ffd9442","ios":"levelo://app?vid=873ae146-395a-40ee-8fdf-3d973ffd9442"},"vehicle_type_id":"4","last_reported":1767888996,"current_range_meters":7200,"station_id":"ce4bhm92rcd13ifvqglg","pricing_plan_id":"cebpf4jnsgd1na2vs0mg"},{"bike_id":"79b07b5a-ec48-494b-80f5-1c129a1f1ef3","system_id":"levelo_inurba_marseille","lat":43.30148,"lon":5.380809,"is_reserved":false,"is_disabled":false,"rental_uris":{"android":"levelo://app?vid=79b07b5a-ec48-494b-80f5-1c129a1f1ef3","ios":"levelo://app?vid=79b07b5a-ec48-494b-80f5-1c129a1f1ef3"},"vehicle_type_id":"4","last_reported":1767888996,"current_range_meters":7200,"station_id":"ce4bgjp2rcd13ifvqbh0","pricing_plan_id":"cebpf4jnsgd1na2vs0mg"},{"bike_id":"d0f601ee-1b49-4e5c-bcf6-f3d46e0314b0","system_id":"levelo_inurba_marseille","lat":43.274118,"lon":5.39408,"is_reserved":false,"is_disabled":false,"rental_uris":{"android":"levelo://app?vid=d0f601ee-1b49-4e5c-bcf6-f3d46e0314b0","ios":"levelo://app?vid=d0f601ee-1b49-4e5c-bcf6-f3d46e0314b0"},"vehicle_type_id":"4","last_reported":1767888996,"current_range_meters":7200,"station_id":"ce4bhdp2rcd13ifvqf20","pricing_plan_id":"cebpf4jnsgd1na2vs0mg"},{"bike_id":"064c8191-3107-4a12-b80e-6dc34a12a072","system_id":"levelo_inurba_marseille","lat":43.24809,"lon":5.37459,"is_reserved":false,"is_disabled":false,"rental_uris":{"android":"levelo://app?vid=064c8191-3107-4a12-b80e-6dc34a12a072","ios":"levelo://app?vid=064c8191-3107-4a12-b80e-6dc34a12a072"},"vehicle_type_id":"4","last_reported":1767888996,"current_range_meters":7200,"station_id":"ce4bhgh2rcd13ifvqfb0","pricing_plan_id":"cebpf4jnsgd1na2vs0mg"},{"bike_id":"ac64f432-9ab8-4dd9-b132-5f28fccbe7fd","system_id":"levelo_inurba_marseille","lat":43.30534,"lon":5.36773,"is_reserved":false,"is_disabled":false,"rental_uris":{"android":"levelo://app?vid=ac64f432-9ab8-4dd9-b132-5f28fccbe7fd","ios":"levelo://app?vid=ac64f432-9ab8-4dd9-b132-5f28fccbe7fd"},"vehicle_type_id":"4","last_reported":1767888996,"current_range_meters":7200,"station_id":"ce4bgrp2rcd13ifvqc9g","pricing_plan_id":"cebpf4jnsgd1na2vs0mg"},{"bike_id":"82582fec-7dfe-4668-947f-7bf0439e6b8e","system_id":"levelo_inurba_marseille","lat":43.284784,"lon":5.484046,"is_reserved":false,"is_disabled":false,"rental_uris":{"android":"levelo://app?vid=82582fec-7dfe-4668-947f-7bf0439e6b8e","ios":"levelo://app?vid=82582fec-7dfe-4668-947f-7bf0439e6b8e"},"vehicle_type_id":"4","last_reported":1767888996,"current_range_meters":7200,"station_id":"","pricing_plan_id":"cebpf4jnsgd1na2vs0mg"},{"bike_id":"fd7ea456-172a-44ec-a331-70f9dbf3b68a","system_id":"levelo_inurba_marseille","lat":43.26567,"lon":5.39,"is_reserved":false,"is_disabled":false,"rental_uris":{"android":"levelo://app?vid=fd7ea456-172a-44ec-a331-70f9dbf3b68a","ios":"levelo://app?vid=fd7ea456-172a-44ec-a331-70f9dbf3b68a"},"vehicle_type_id":"4","last_reported":1767888996,"current_range_meters":7200,"station_id":"ce4bhe12rcd13ifvqf30","pricing_plan_id":"cebpf4jnsgd1na2vs0mg"},{"bike_id":"7079bdb2-fe45-4309-a762-84cee8c3e4fd","system_id":"levelo_inurba_marseille","lat":43.26547,"lon":5.37296,"is_reserved":false,"is_disabled":false,"rental_uris":{"android":"levelo://app?vid=7079bdb2-fe45-4309-a762-84cee8c3e4fd","ios":"levelo://app?vid=7079bdb2-fe45-4309-a762-84cee8c3e4fd"},"vehicle_type_id":"4","last_reported":1767888996,"current_range_meters":7200,"station_id":"ce4bhg12rcd13ifvqf70","pricing_plan_id":"cebpf4jnsgd1na2vs0mg"},{"bike_id":"63e4976f-7d93-49f6-a2b3-f7ce857422dd","system_id":"levelo_inurba_marseille","lat":43.30298,"lon":5.3922,"is_reserved":false,"is_disabled":true,"rental_uris":{"android":"levelo://app?vid=63e4976f-7d93-49f6-a2b3-f7ce857422dd","ios":"levelo://app?vid=63e4976f-7d93-49f6-a2b3-f7ce857422dd"},"vehicle_type_id":"4","last_reported":1767888996,"current_range_meters":7200,"station_id":"ce4bgkh2rcd13ifvqbk0","pricing_plan_id":"cebpf4jnsgd1na2vs0mg"},{"bike_id":"1a68cb84-5015-4254-8743-ae34d93b9057","system_id":"levelo_inurba_marseille","lat":43.28615,"lon":5.35123,"is_reserved":false,"is_disabled":false,"rental_uris":{"android":"levelo://app?vid=1a68cb84-5015-4254-8743-ae34d93b9057","ios":"levelo://app?vid=1a68cb84-5015-4254-8743-ae34d93b9057"},"vehicle_type_id":"4","last_reported":1767888996,"current_range_meters":7200,"station_id":"ce4bhch2rcd13ifvqeug","pricing_plan_id":"cebpf4jnsgd1na2vs0mg"},{"bike_id":"978ec5f8-496f-4a84-af0e-c84c7fe1cff2","system_id":"levelo_inurba_marseille","lat":43.30928,"lon":5.40118,"is_reserved":false,"is_disabled":false,"rental_uris":{"android":"levelo://app?vid=978ec5f8-496f-4a84-af0e-c84c7fe1cff2","ios":"levelo://app?vid=978ec5f8-496f-4a84-af0e-c84c7fe1cff2"},"vehicle_type_id":"4","last_reported":1767888996,"current_range_meters":7200,"station_id":"ce4bgvp2rcd13ifvqct0","pricing_plan_id":"cebpf4jnsgd1na2vs0mg"},{"bike_id":"d5c1c553-9204-43c8-8cf5-216603484439","system_id":"levelo_inurba_marseille","lat":43.29521,"lon":5.37479,"is_reserved":false,"is_disabled":false,"rental_uris":{"android":"levelo://app?vid=d5c1c553-9204-43c8-8cf5-216603484439","ios":"levelo://app?vid=d5c1c553-9204-43c8-8cf5-216603484439"},"vehicle_type_id":"4","last_reported":1767888996,"current_range_meters":7200,"station_id":"ce4bgkp2rcd13ifvqbmg","pricing_plan_id":"cebpf4jnsgd1na2vs0mg"},{"bike_id":"0fd80f10-4304-4c12-9af3-a94a305f109a","system_id":"levelo_inurba_marseille","lat":43.26049,"lon":5.39402,"is_reserved":false,"is_disabled":false,"rental_uris":{"android":"levelo://app?vid=0fd80f10-4304-4c12-9af3-a94a305f109a","ios":"levelo://app?vid=0fd80f10-4304-4c12-9af3-a94a305f109a"},"vehicle_type_id":"4","last_reported":1767888996,"current_range_meters":7200,"station_id":"ce4bhh92rcd13ifvqfj0","pricing_plan_id":"cebpf4jnsgd1na2vs0mg"},{"bike_id":"39efe3e1-9d88-48e5-bb46-2b1e39c86adc","system_id":"levelo_inurba_marseille","lat":43.305517,"lon":5.365335,"is_reserved":false,"is_disabled":false,"rental_uris":{"android":"levelo://app?vid=39efe3e1-9d88-48e5-bb46-2b1e39c86adc","ios":"levelo://app?vid=39efe3e1-9d88-48e5-bb46-2b1e39c86adc"},"vehicle_type_id":"4","last_reported":1767888996,"current_range_meters":8000,"station_id":"ce4bgs12rcd13ifvqcag","pricing_plan_id":"cebpf4jnsgd1na2vs0mg"},{"bike_id":"6fad9ca1-61fd-4cab-8c8e-75dda08e921f","system_id":"levelo_inurba_marseille","lat":43.31974,"lon":5.37438,"is_reserved":false,"is_disabled":false,"rental_uris":{"android":"levelo://app?vid=6fad9ca1-61fd-4cab-8c8e-75dda08e921f","ios":"levelo://app?vid=6fad9ca1-61fd-4cab-8c8e-75dda08e921f"},"vehicle_type_id":"4","last_reported":1767888996,"current_range_meters":8000,"station_id":"","pricing_plan_id":"cebpf4jnsgd1na2vs0mg"},{"bike_id":"5407fece-b1e5-43a9-86e2-b54a7e31d89d","system_id":"levelo_inurba_marseille","lat":43.26204,"lon":5.37451,"is_reserved":false,"is_disabled":false,"rental_uris":{"android":"levelo://app?vid=5407fece-b1e5-43a9-86e2-b54a7e31d89d","ios":"levelo://app?vid=5407fece-b1e5-43a9-86e2-b54a7e31d89d"},"vehicle_type_id":"4","last_reported":1767888996,"current_range_meters":8000,"station_id":"ce4bhgp2rcd13ifvqfc0","pricing_plan_id":"cebpf4jnsgd1na2vs0mg"},{"bike_id":"97452125-5d86-4a9e-b4a3-a2dd4fe9ffac","system_id":"levelo_inurba_marseille","lat":43.25488,"lon":5.37646,"is_reserved":false,"is_disabled":false,"rental_uris":{"android":"levelo://app?vid=97452125-5d86-4a9e-b4a3-a2dd4fe9ffac","ios":"levelo://app?vid=97452125-5d86-4a9e-b4a3-a2dd4fe9ffac"},"vehicle_type_id":"4","last_reported":1767888996,"current_range_meters":8000,"station_id":"ce4bhh12rcd13ifvqff0","pricing_plan_id":"cebpf4jnsgd1na2vs0mg"},{"bike_id":"3e14d0f1-1ab2-46b7-a760-c908c28eb465","system_id":"levelo_inurba_marseille","lat":43.29775,"lon":5.38104,"is_reserved":false,"is_disabled":false,"rental_uris":{"android":"levelo://app?vid=3e14d0f1-1ab2-46b7-a760-c908c28eb465","ios":"levelo://app?vid=3e14d0f1-1ab2-46b7-a760-c908c28eb465"},"vehicle_type_id":"4","last_reported":1767888996,"current_range_meters":8000,"station_id":"ce4bgip2rcd13ifvqbb0","pricing_plan_id":"cebpf4jnsgd1na2vs0mg"},{"bike_id":"49693813-6422-4c0b-883f-2f9444f40ff2","system_id":"levelo_inurba_marseille","lat":43.25492,"lon":5.37647,"is_reserved":false,"is_disabled":false,"rental_uris":{"android":"levelo://app?vid=49693813-6422-4c0b-883f-2f9444f40ff2","ios":"levelo://app?vid=49693813-6422-4c0b-883f-2f9444f40ff2"},"vehicle_type_id":"4","last_reported":1767888996,"current_range_meters":8000,"station_id":"ce4bhh12rcd13ifvqff0","pricing_plan_id":"cebpf4jnsgd1na2vs0mg"},{"bike_id":"e27220fa-4ab2-46b6-9b5f-f0fdfc4200e7","system_id":"levelo_inurba_marseille","lat":43.27244,"lon":5.39173,"is_reserved":false,"is_disabled":false,"rental_uris":{"android":"levelo://app?vid=e27220fa-4ab2-46b6-9b5f-f0fdfc4200e7","ios":"levelo://app?vid=e27220fa-4ab2-46b6-9b5f-f0fdfc4200e7"},"vehicle_type_id":"4","last_reported":1767888996,"current_range_meters":8000,"station_id":"ce4bhhp2rcd13ifvqfm0","pricing_plan_id":"cebpf4jnsgd1na2vs0mg"},{"bike_id":"e7ae9442-528d-4e6e-9257-e247add9ef1b","system_id":"levelo_inurba_marseille","lat":43.25571,"lon":5.38249,"is_reserved":false,"is_disabled":false,"rental_uris":{"android":"levelo://app?vid=e7ae9442-528d-4e6e-9257-e247add9ef1b","ios":"levelo://app?vid=e7ae9442-528d-4e6e-9257-e247add9ef1b"},"vehicle_type_id":"4","last_reported":1767888996,"current_range_meters":8000,"station_id":"ce4bhih2rcd13ifvqfs0","pricing_plan_id":"cebpf4jnsgd1na2vs0mg"},{"bike_id":"e412bd1f-9559-40df-baea-da06ff8409ea","system_id":"levelo_inurba_marseille","lat":43.31051,"lon":5.37165,"is_reserved":false,"is_disabled":true,"rental_uris":{"android":"levelo://app?vid=e412bd1f-9559-40df-baea-da06ff8409ea","ios":"levelo://app?vid=e412bd1f-9559-40df-baea-da06ff8409ea"},"vehicle_type_id":"4","last_reported":1767888996,"current_range_meters":8000,"station_id":"st_d4kl2rp97mjs73e7tdfg","pricing_plan_id":"cebpf4jnsgd1na2vs0mg"},{"bike_id":"f253e77b-0591-49c5-85ea-813f627d28a9","system_id":"levelo_inurba_marseille","lat":43.26553,"lon":5.39009,"is_reserved":false,"is_disabled":false,"rental_uris":{"android":"levelo://app?vid=f253e77b-0591-49c5-85ea-813f627d28a9","ios":"levelo://app?vid=f253e77b-0591-49c5-85ea-813f627d28a9"},"vehicle_type_id":"4","last_reported":1767888996,"current_range_meters":8000,"station_id":"ce4bhe12rcd13ifvqf30","pricing_plan_id":"cebpf4jnsgd1na2vs0mg"},{"bike_id":"8ddd903e-4b58-445b-933d-a20697560094","system_id":"levelo_inurba_marseille","lat":43.33409,"lon":5.40074,"is_reserved":false,"is_disabled":false,"rental_uris":{"android":"levelo://app?vid=8ddd903e-4b58-445b-933d-a20697560094","ios":"levelo://app?vid=8ddd903e-4b58-445b-933d-a20697560094"},"vehicle_type_id":"4","last_reported":1767888996,"current_range_meters":8000,"station_id":"","pricing_plan_id":"cebpf4jnsgd1na2vs0mg"},{"bike_id":"ca952edf-7616-4a9b-8a99-3a013bbb51d1","system_id":"levelo_inurba_marseille","lat":43.27562,"lon":5.38384,"is_reserved":false,"is_disabled":false,"rental_uris":{"android":"levelo://app?vid=ca952edf-7616-4a9b-8a99-3a013bbb51d1","ios":"levelo://app?vid=ca952edf-7616-4a9b-8a99-3a013bbb51d1"},"vehicle_type_id":"4","last_reported":1767888996,"current_range_meters":8000,"station_id":"ce4bhh92rcd13ifvqfi0","pricing_plan_id":"cebpf4jnsgd1na2vs0mg"},{"bike_id":"79544bb9-349f-409e-b2bb-723f19511937","system_id":"levelo_inurba_marseille","lat":43.28543,"lon":5.44085,"is_reserved":false,"is_disabled":false,"rental_uris":{"android":"levelo://app?vid=79544bb9-349f-409e-b2bb-723f19511937","ios":"levelo://app?vid=79544bb9-349f-409e-b2bb-723f19511937"},"vehicle_type_id":"4","last_reported":1767888996,"current_range_meters":8000,"station_id":"st_d3j3df2ikq2c7380ej80","pricing_plan_id":"cebpf4jnsgd1na2vs0mg"},{"bike_id":"52231639-7e94-4b26-96e0-dc8870e4c69b","system_id":"levelo_inurba_marseille","lat":43.2603,"lon":5.37541,"is_reserved":false,"is_disabled":false,"rental_uris":{"android":"levelo://app?vid=52231639-7e94-4b26-96e0-dc8870e4c69b","ios":"levelo://app?vid=52231639-7e94-4b26-96e0-dc8870e4c69b"},"vehicle_type_id":"4","last_reported":1767888996,"current_range_meters":8000,"station_id":"ce4bhgh2rcd13ifvqfa0","pricing_plan_id":"cebpf4jnsgd1na2vs0mg"},{"bike_id":"748e6a5e-97a9-489d-8fdc-20f62045411a","system_id":"levelo_inurba_marseille","lat":43.28899,"lon":5.39697,"is_reserved":false,"is_disabled":false,"rental_uris":{"android":"levelo://app?vid=748e6a5e-97a9-489d-8fdc-20f62045411a","ios":"levelo://app?vid=748e6a5e-97a9-489d-8fdc-20f62045411a"},"vehicle_type_id":"4","last_reported":1767888996,"current_range_meters":8000,"station_id":"","pricing_plan_id":"cebpf4jnsgd1na2vs0mg"},{"bike_id":"b7848946-7e1e-40e3-a464-831c68f425f8","system_id":"levelo_inurba_marseille","lat":43.29783,"lon":5.38058,"is_reserved":false,"is_disabled":false,"rental_uris":{"android":"levelo://app?vid=b7848946-7e1e-40e3-a464-831c68f425f8","ios":"levelo://app?vid=b7848946-7e1e-40e3-a464-831c68f425f8"},"vehicle_type_id":"4","last_reported":1767888996,"current_range_meters":8000,"station_id":"ce4bgip2rcd13ifvqbb0","pricing_plan_id":"cebpf4jnsgd1na2vs0mg"},{"bike_id":"ae4ea6af-ac8e-4f9d-acb8-d08926e47bb1","system_id":"levelo_inurba_marseille","lat":43.33159,"lon":5.37687,"is_reserved":false,"is_disabled":false,"rental_uris":{"android":"levelo://app?vid=ae4ea6af-ac8e-4f9d-acb8-d08926e47bb1","ios":"levelo://app?vid=ae4ea6af-ac8e-4f9d-acb8-d08926e47bb1"},"vehicle_type_id":"4","last_reported":1767888996,"current_range_meters":8400,"station_id":"st_d46cu089ee8s73dldbu0","pricing_plan_id":"cebpf4jnsgd1na2vs0mg"},{"bike_id":"8f870c12-c0c3-4b7a-8d0a-24f628ad1788","system_id":"levelo_inurba_marseille","lat":43.31004,"lon":5.37939,"is_reserved":false,"is_disabled":false,"rental_uris":{"android":"levelo://app?vid=8f870c12-c0c3-4b7a-8d0a-24f628ad1788","ios":"levelo://app?vid=8f870c12-c0c3-4b7a-8d0a-24f628ad1788"},"vehicle_type_id":"4","last_reported":1767888996,"current_range_meters":8400,"station_id":"","pricing_plan_id":"cebpf4jnsgd1na2vs0mg"},{"bike_id":"7934d010-f2d3-4873-969e-5816454b4a28","system_id":"levelo_inurba_marseille","lat":43.29928,"lon":5.36527,"is_reserved":false,"is_disabled":false,"rental_uris":{"android":"levelo://app?vid=7934d010-f2d3-4873-969e-5816454b4a28","ios":"levelo://app?vid=7934d010-f2d3-4873-969e-5816454b4a28"},"vehicle_type_id":"4","last_reported":1767888996,"current_range_meters":8400,"station_id":"ce4bgm92rcd13ifvqbr0","pricing_plan_id":"cebpf4jnsgd1na2vs0mg"},{"bike_id":"e98dc820-6aac-4f48-9094-e49c757a1537","system_id":"levelo_inurba_marseille","lat":43.3053,"lon":5.3656,"is_reserved":false,"is_disabled":false,"rental_uris":{"android":"levelo://app?vid=e98dc820-6aac-4f48-9094-e49c757a1537","ios":"levelo://app?vid=e98dc820-6aac-4f48-9094-e49c757a1537"},"vehicle_type_id":"4","last_reported":1767888996,"current_range_meters":8400,"station_id":"ce4bgs12rcd13ifvqcag","pricing_plan_id":"cebpf4jnsgd1na2vs0mg"},{"bike_id":"e41d8bea-ffd2-440d-b446-b472b1d04e4d","system_id":"levelo_inurba_marseille","lat":43.239606,"lon":5.36623,"is_reserved":false,"is_disabled":false,"rental_uris":{"android":"levelo://app?vid=e41d8bea-ffd2-440d-b446-b472b1d04e4d","ios":"levelo://app?vid=e41d8bea-ffd2-440d-b446-b472b1d04e4d"},"vehicle_type_id":"4","last_reported":1767888996,"current_range_meters":8400,"station_id":"ce4bhi12rcd13ifvqfp0","pricing_plan_id":"cebpf4jnsgd1na2vs0mg"},{"bike_id":"08763cfa-f8a3-4140-bbe3-bb5180406344","system_id":"levelo_inurba_marseille","lat":43.231997,"lon":5.355566,"is_reserved":false,"is_disabled":false,"rental_uris":{"android":"levelo://app?vid=08763cfa-f8a3-4140-bbe3-bb5180406344","ios":"levelo://app?vid=08763cfa-f8a3-4140-bbe3-bb5180406344"},"vehicle_type_id":"4","last_reported":1767888996,"current_range_meters":8400,"station_id":"ce4bhu92rcd13ifvqi70","pricing_plan_id":"cebpf4jnsgd1na2vs0mg"},{"bike_id":"deebbad2-3d9f-4a3a-9f32-10dfba089115","system_id":"levelo_inurba_marseille","lat":43.3015,"lon":5.38084,"is_reserved":false,"is_disabled":false,"rental_uris":{"android":"levelo://app?vid=deebbad2-3d9f-4a3a-9f32-10dfba089115","ios":"levelo://app?vid=deebbad2-3d9f-4a3a-9f32-10dfba089115"},"vehicle_type_id":"4","last_reported":1767888996,"current_range_meters":8400,"station_id":"ce4bgjp2rcd13ifvqbh0","pricing_plan_id":"cebpf4jnsgd1na2vs0mg"},{"bike_id":"617ca6f2-1481-4c5f-a165-87db9947444a","system_id":"levelo_inurba_marseille","lat":43.2848,"lon":5.483878,"is_reserved":false,"is_disabled":false,"rental_uris":{"android":"levelo://app?vid=617ca6f2-1481-4c5f-a165-87db9947444a","ios":"levelo://app?vid=617ca6f2-1481-4c5f-a165-87db9947444a"},"vehicle_type_id":"4","last_reported":1767888996,"current_range_meters":8400,"station_id":"st_d3svhcjqgbts73a3dn0g","pricing_plan_id":"cebpf4jnsgd1na2vs0mg"},{"bike_id":"ce3cc1d9-9ec8-4064-92e2-4915f0b7e6ce","system_id":"levelo_inurba_marseille","lat":43.24635,"lon":5.4313,"is_reserved":false,"is_disabled":false,"rental_uris":{"android":"levelo://app?vid=ce3cc1d9-9ec8-4064-92e2-4915f0b7e6ce","ios":"levelo://app?vid=ce3cc1d9-9ec8-4064-92e2-4915f0b7e6ce"},"vehicle_type_id":"4","last_reported":1767888996,"current_range_meters":8400,"station_id":"st_d2m6c4gdas8pm72e190g","pricing_plan_id":"cebpf4jnsgd1na2vs0mg"},{"bike_id":"6e25dc48-4fec-4f46-b8f0-01cdde0a6af0","system_id":"levelo_inurba_marseille","lat":43.30206,"lon":5.36624,"is_reserved":false,"is_disabled":false,"rental_uris":{"android":"levelo://app?vid=6e25dc48-4fec-4f46-b8f0-01cdde0a6af0","ios":"levelo://app?vid=6e25dc48-4fec-4f46-b8f0-01cdde0a6af0"},"vehicle_type_id":"4","last_reported":1767888996,"current_range_meters":8400,"station_id":"ce4bgrh2rcd13ifvqc8g","pricing_plan_id":"cebpf4jnsgd1na2vs0mg"},{"bike_id":"6ced9933-a7b3-4fa1-aedd-aa0efe62c41a","system_id":"levelo_inurba_marseille","lat":43.28526,"lon":5.44099,"is_reserved":false,"is_disabled":false,"rental_uris":{"android":"levelo://app?vid=6ced9933-a7b3-4fa1-aedd-aa0efe62c41a","ios":"levelo://app?vid=6ced9933-a7b3-4fa1-aedd-aa0efe62c41a"},"vehicle_type_id":"4","last_reported":1767888996,"current_range_meters":8400,"station_id":"st_d3j3df2ikq2c7380ej80","pricing_plan_id":"cebpf4jnsgd1na2vs0mg"},{"bike_id":"51273839-cbf2-4f06-a0ae-7cd213f5b6f3","system_id":"levelo_inurba_marseille","lat":43.3209,"lon":5.36804,"is_reserved":false,"is_disabled":false,"rental_uris":{"android":"levelo://app?vid=51273839-cbf2-4f06-a0ae-7cd213f5b6f3","ios":"levelo://app?vid=51273839-cbf2-4f06-a0ae-7cd213f5b6f3"},"vehicle_type_id":"4","last_reported":1767888996,"current_range_meters":8400,"station_id":"ce4bhrh2rcd13ifvqhug","pricing_plan_id":"cebpf4jnsgd1na2vs0mg"},{"bike_id":"fccaf6f7-baf9-48c5-830d-2c66ed734257","system_id":"levelo_inurba_marseille","lat":43.27303,"lon":5.39138,"is_reserved":false,"is_disabled":false,"rental_uris":{"android":"levelo://app?vid=fccaf6f7-baf9-48c5-830d-2c66ed734257","ios":"levelo://app?vid=fccaf6f7-baf9-48c5-830d-2c66ed734257"},"vehicle_type_id":"4","last_reported":1767888996,"current_range_meters":8400,"station_id":"","pricing_plan_id":"cebpf4jnsgd1na2vs0mg"},{"bike_id":"755fddff-196e-4df8-9ed5-b269f8727526","system_id":"levelo_inurba_marseille","lat":43.27206,"lon":5.41,"is_reserved":false,"is_disabled":false,"rental_uris":{"android":"levelo://app?vid=755fddff-196e-4df8-9ed5-b269f8727526","ios":"levelo://app?vid=755fddff-196e-4df8-9ed5-b269f8727526"},"vehicle_type_id":"4","last_reported":1767888996,"current_range_meters":8400,"station_id":"ce4bhl12rcd13ifvqgf0","pricing_plan_id":"cebpf4jnsgd1na2vs0mg"},{"bike_id":"6303a2a8-293e-4e56-9ba3-4b2ef32a8f51","system_id":"levelo_inurba_marseille","lat":43.29705,"lon":5.36612,"is_reserved":false,"is_disabled":false,"rental_uris":{"android":"levelo://app?vid=6303a2a8-293e-4e56-9ba3-4b2ef32a8f51","ios":"levelo://app?vid=6303a2a8-293e-4e56-9ba3-4b2ef32a8f51"},"vehicle_type_id":"4","last_reported":1767888996,"current_range_meters":8400,"station_id":"ce4bgn12rcd13ifvqbt0","pricing_plan_id":"cebpf4jnsgd1na2vs0mg"},{"bike_id":"d7da1e9f-1b2b-45a2-b171-eb1d5aec8165","system_id":"levelo_inurba_marseille","lat":43.28609,"lon":5.39859,"is_reserved":false,"is_disabled":false,"rental_uris":{"android":"levelo://app?vid=d7da1e9f-1b2b-45a2-b171-eb1d5aec8165","ios":"levelo://app?vid=d7da1e9f-1b2b-45a2-b171-eb1d5aec8165"},"vehicle_type_id":"4","last_reported":1767888996,"current_range_meters":8400,"station_id":"st_d4a7ka997mjs738ck50g","pricing_plan_id":"cebpf4jnsgd1na2vs0mg"},{"bike_id":"5738473e-8b55-4ba4-be4c-7d2f6039aed5","system_id":"levelo_inurba_marseille","lat":43.312738,"lon":5.401731,"is_reserved":false,"is_disabled":false,"rental_uris":{"android":"levelo://app?vid=5738473e-8b55-4ba4-be4c-7d2f6039aed5","ios":"levelo://app?vid=5738473e-8b55-4ba4-be4c-7d2f6039aed5"},"vehicle_type_id":"4","last_reported":1767888996,"current_range_meters":8400,"station_id":"ce4bh092rcd13ifvqd30","pricing_plan_id":"cebpf4jnsgd1na2vs0mg"},{"bike_id":"bb31644e-bb91-4647-b13d-c52f0e9ba3b0","system_id":"levelo_inurba_marseille","lat":43.27554,"lon":5.38427,"is_reserved":false,"is_disabled":false,"rental_uris":{"android":"levelo://app?vid=bb31644e-bb91-4647-b13d-c52f0e9ba3b0","ios":"levelo://app?vid=bb31644e-bb91-4647-b13d-c52f0e9ba3b0"},"vehicle_type_id":"4","last_reported":1767888996,"current_range_meters":8400,"station_id":"ce4bhh92rcd13ifvqfi0","pricing_plan_id":"cebpf4jnsgd1na2vs0mg"},{"bike_id":"df8ff779-90c8-4b65-a5d0-99687c060dae","system_id":"levelo_inurba_marseille","lat":43.3233,"lon":5.367,"is_reserved":false,"is_disabled":false,"rental_uris":{"android":"levelo://app?vid=df8ff779-90c8-4b65-a5d0-99687c060dae","ios":"levelo://app?vid=df8ff779-90c8-4b65-a5d0-99687c060dae"},"vehicle_type_id":"4","last_reported":1767888996,"current_range_meters":8400,"station_id":"ce4bhsh2rcd13ifvqi2g","pricing_plan_id":"cebpf4jnsgd1na2vs0mg"},{"bike_id":"83d5f245-fb0f-4ec6-9063-867f9d0f37e7","system_id":"levelo_inurba_marseille","lat":43.23149,"lon":5.43727,"is_reserved":false,"is_disabled":false,"rental_uris":{"android":"levelo://app?vid=83d5f245-fb0f-4ec6-9063-867f9d0f37e7","ios":"levelo://app?vid=83d5f245-fb0f-4ec6-9063-867f9d0f37e7"},"vehicle_type_id":"4","last_reported":1767888996,"current_range_meters":8400,"station_id":"ce4bhmp2rcd13ifvqgog","pricing_plan_id":"cebpf4jnsgd1na2vs0mg"},{"bike_id":"36c3097c-2122-4b98-a149-c16b13fb82b9","system_id":"levelo_inurba_marseille","lat":43.26054,"lon":5.39381,"is_reserved":false,"is_disabled":false,"rental_uris":{"android":"levelo://app?vid=36c3097c-2122-4b98-a149-c16b13fb82b9","ios":"levelo://app?vid=36c3097c-2122-4b98-a149-c16b13fb82b9"},"vehicle_type_id":"4","last_reported":1767888996,"current_range_meters":8400,"station_id":"ce4bhh92rcd13ifvqfj0","pricing_plan_id":"cebpf4jnsgd1na2vs0mg"},{"bike_id":"08f98311-1098-47c1-aad4-24d1eee10af1","system_id":"levelo_inurba_marseille","lat":43.32089,"lon":5.36796,"is_reserved":false,"is_disabled":false,"rental_uris":{"android":"levelo://app?vid=08f98311-1098-47c1-aad4-24d1eee10af1","ios":"levelo://app?vid=08f98311-1098-47c1-aad4-24d1eee10af1"},"vehicle_type_id":"4","last_reported":1767888996,"current_range_meters":8400,"station_id":"ce4bhrh2rcd13ifvqhug","pricing_plan_id":"cebpf4jnsgd1na2vs0mg"},{"bike_id":"17762773-6da0-40f8-a3af-5de53ec0677e","system_id":"levelo_inurba_marseille","lat":43.30309,"lon":5.3922,"is_reserved":false,"is_disabled":false,"rental_uris":{"android":"levelo://app?vid=17762773-6da0-40f8-a3af-5de53ec0677e","ios":"levelo://app?vid=17762773-6da0-40f8-a3af-5de53ec0677e"},"vehicle_type_id":"4","last_reported":1767888996,"current_range_meters":8400,"station_id":"ce4bgkh2rcd13ifvqbk0","pricing_plan_id":"cebpf4jnsgd1na2vs0mg"},{"bike_id":"f6e97619-c3b0-42b6-b03b-7ec6023f5aca","system_id":"levelo_inurba_marseille","lat":43.2842,"lon":5.34977,"is_reserved":false,"is_disabled":false,"rental_uris":{"android":"levelo://app?vid=f6e97619-c3b0-42b6-b03b-7ec6023f5aca","ios":"levelo://app?vid=f6e97619-c3b0-42b6-b03b-7ec6023f5aca"},"vehicle_type_id":"4","last_reported":1767888996,"current_range_meters":8400,"station_id":"ce4bhbh2rcd13ifvqepg","pricing_plan_id":"cebpf4jnsgd1na2vs0mg"},{"bike_id":"a05e4379-7c2e-4edc-831a-4c3fbe80a60c","system_id":"levelo_inurba_marseille","lat":43.30125,"lon":5.43117,"is_reserved":false,"is_disabled":false,"rental_uris":{"android":"levelo://app?vid=a05e4379-7c2e-4edc-831a-4c3fbe80a60c","ios":"levelo://app?vid=a05e4379-7c2e-4edc-831a-4c3fbe80a60c"},"vehicle_type_id":"4","last_reported":1767888996,"current_range_meters":8800,"station_id":"st_d3js3co5814s73ftftug","pricing_plan_id":"cebpf4jnsgd1na2vs0mg"},{"bike_id":"8fe35b16-d007-4c4c-b09c-0267f82449f9","system_id":"levelo_inurba_marseille","lat":43.26795,"lon":5.39469,"is_reserved":false,"is_disabled":false,"rental_uris":{"android":"levelo://app?vid=8fe35b16-d007-4c4c-b09c-0267f82449f9","ios":"levelo://app?vid=8fe35b16-d007-4c4c-b09c-0267f82449f9"},"vehicle_type_id":"4","last_reported":1767888996,"current_range_meters":8800,"station_id":"ce4bhh12rcd13ifvqfg0","pricing_plan_id":"cebpf4jnsgd1na2vs0mg"},{"bike_id":"75f78644-8c40-4fbe-ab0f-aa79aaadb7e6","system_id":"levelo_inurba_marseille","lat":43.22555,"lon":5.41632,"is_reserved":false,"is_disabled":false,"rental_uris":{"android":"levelo://app?vid=75f78644-8c40-4fbe-ab0f-aa79aaadb7e6","ios":"levelo://app?vid=75f78644-8c40-4fbe-ab0f-aa79aaadb7e6"},"vehicle_type_id":"4","last_reported":1767888996,"current_range_meters":8800,"station_id":"st_d2o4gvlbi1j2169b742g","pricing_plan_id":"cebpf4jnsgd1na2vs0mg"},{"bike_id":"528852f0-b3e1-4361-91fd-d35d5de704d7","system_id":"levelo_inurba_marseille","lat":43.25504,"lon":5.37654,"is_reserved":false,"is_disabled":false,"rental_uris":{"android":"levelo://app?vid=528852f0-b3e1-4361-91fd-d35d5de704d7","ios":"levelo://app?vid=528852f0-b3e1-4361-91fd-d35d5de704d7"},"vehicle_type_id":"4","last_reported":1767888996,"current_range_meters":8800,"station_id":"ce4bhh12rcd13ifvqff0","pricing_plan_id":"cebpf4jnsgd1na2vs0mg"},{"bike_id":"b2a3da8f-bf56-4eb9-9359-d00614059d44","system_id":"levelo_inurba_marseille","lat":43.29066,"lon":5.38069,"is_reserved":false,"is_disabled":false,"rental_uris":{"android":"levelo://app?vid=b2a3da8f-bf56-4eb9-9359-d00614059d44","ios":"levelo://app?vid=b2a3da8f-bf56-4eb9-9359-d00614059d44"},"vehicle_type_id":"4","last_reported":1767888996,"current_range_meters":8800,"station_id":"","pricing_plan_id":"cebpf4jnsgd1na2vs0mg"},{"bike_id":"c674c454-2af5-49f7-821c-c3b83a90b616","system_id":"levelo_inurba_marseille","lat":43.311647,"lon":5.40717,"is_reserved":false,"is_disabled":false,"rental_uris":{"android":"levelo://app?vid=c674c454-2af5-49f7-821c-c3b83a90b616","ios":"levelo://app?vid=c674c454-2af5-49f7-821c-c3b83a90b616"},"vehicle_type_id":"4","last_reported":1767888996,"current_range_meters":8800,"station_id":"","pricing_plan_id":"cebpf4jnsgd1na2vs0mg"},{"bike_id":"18afa7e5-a060-43b9-bd3e-ab224bbb7669","system_id":"levelo_inurba_marseille","lat":43.28853,"lon":5.42525,"is_reserved":false,"is_disabled":false,"rental_uris":{"android":"levelo://app?vid=18afa7e5-a060-43b9-bd3e-ab224bbb7669","ios":"levelo://app?vid=18afa7e5-a060-43b9-bd3e-ab224bbb7669"},"vehicle_type_id":"4","last_reported":1767888996,"current_range_meters":8800,"station_id":"st_d3b462108ojc7389ooeg","pricing_plan_id":"cebpf4jnsgd1na2vs0mg"},{"bike_id":"88436fbc-a867-41fd-9af6-6ae673233f14","system_id":"levelo_inurba_marseille","lat":43.24548,"lon":5.39522,"is_reserved":false,"is_disabled":false,"rental_uris":{"android":"levelo://app?vid=88436fbc-a867-41fd-9af6-6ae673233f14","ios":"levelo://app?vid=88436fbc-a867-41fd-9af6-6ae673233f14"},"vehicle_type_id":"4","last_reported":1767888996,"current_range_meters":8800,"station_id":"ce4bhlp2rcd13ifvqgjg","pricing_plan_id":"cebpf4jnsgd1na2vs0mg"},{"bike_id":"9998da3e-2cb9-4177-a40d-a24c49c6d9c9","system_id":"levelo_inurba_marseille","lat":43.31036,"lon":5.37176,"is_reserved":false,"is_disabled":false,"rental_uris":{"android":"levelo://app?vid=9998da3e-2cb9-4177-a40d-a24c49c6d9c9","ios":"levelo://app?vid=9998da3e-2cb9-4177-a40d-a24c49c6d9c9"},"vehicle_type_id":"4","last_reported":1767888996,"current_range_meters":8800,"station_id":"st_d4kl2rp97mjs73e7tdfg","pricing_plan_id":"cebpf4jnsgd1na2vs0mg"},{"bike_id":"52c545a6-4990-49e9-b5f1-ef579ddc71f3","system_id":"levelo_inurba_marseille","lat":43.25582,"lon":5.38245,"is_reserved":false,"is_disabled":false,"rental_uris":{"android":"levelo://app?vid=52c545a6-4990-49e9-b5f1-ef579ddc71f3","ios":"levelo://app?vid=52c545a6-4990-49e9-b5f1-ef579ddc71f3"},"vehicle_type_id":"4","last_reported":1767888996,"current_range_meters":8800,"station_id":"ce4bhih2rcd13ifvqfs0","pricing_plan_id":"cebpf4jnsgd1na2vs0mg"},{"bike_id":"e9e47edb-3408-4550-a3c1-0afbcbe6744b","system_id":"levelo_inurba_marseille","lat":43.301306,"lon":5.398612,"is_reserved":false,"is_disabled":false,"rental_uris":{"android":"levelo://app?vid=e9e47edb-3408-4550-a3c1-0afbcbe6744b","ios":"levelo://app?vid=e9e47edb-3408-4550-a3c1-0afbcbe6744b"},"vehicle_type_id":"4","last_reported":1767888996,"current_range_meters":8800,"station_id":"ce4bh0h2rcd13ifvqd40","pricing_plan_id":"cebpf4jnsgd1na2vs0mg"},{"bike_id":"a0a6f12f-a5d5-404e-8e38-7c198f4db9a4","system_id":"levelo_inurba_marseille","lat":43.24177,"lon":5.39719,"is_reserved":false,"is_disabled":false,"rental_uris":{"android":"levelo://app?vid=a0a6f12f-a5d5-404e-8e38-7c198f4db9a4","ios":"levelo://app?vid=a0a6f12f-a5d5-404e-8e38-7c198f4db9a4"},"vehicle_type_id":"4","last_reported":1767888996,"current_range_meters":8800,"station_id":"ce4bhn12rcd13ifvqgpg","pricing_plan_id":"cebpf4jnsgd1na2vs0mg"},{"bike_id":"84be322d-3f5a-42b3-b4ff-9332fdae0ce8","system_id":"levelo_inurba_marseille","lat":43.3316,"lon":5.37695,"is_reserved":false,"is_disabled":false,"rental_uris":{"android":"levelo://app?vid=84be322d-3f5a-42b3-b4ff-9332fdae0ce8","ios":"levelo://app?vid=84be322d-3f5a-42b3-b4ff-9332fdae0ce8"},"vehicle_type_id":"4","last_reported":1767888996,"current_range_meters":8800,"station_id":"st_d46cu089ee8s73dldbu0","pricing_plan_id":"cebpf4jnsgd1na2vs0mg"},{"bike_id":"e4b543e4-7198-4112-93ae-6c25b36bd4a3","system_id":"levelo_inurba_marseille","lat":43.2378,"lon":5.36638,"is_reserved":false,"is_disabled":false,"rental_uris":{"android":"levelo://app?vid=e4b543e4-7198-4112-93ae-6c25b36bd4a3","ios":"levelo://app?vid=e4b543e4-7198-4112-93ae-6c25b36bd4a3"},"vehicle_type_id":"4","last_reported":1767888996,"current_range_meters":8800,"station_id":"st_d3nk18o9ro0c73en2l3g","pricing_plan_id":"cebpf4jnsgd1na2vs0mg"},{"bike_id":"31447a0e-5f20-40ed-81c7-81b3e7eb8db6","system_id":"levelo_inurba_marseille","lat":43.31377,"lon":5.38575,"is_reserved":false,"is_disabled":false,"rental_uris":{"android":"levelo://app?vid=31447a0e-5f20-40ed-81c7-81b3e7eb8db6","ios":"levelo://app?vid=31447a0e-5f20-40ed-81c7-81b3e7eb8db6"},"vehicle_type_id":"4","last_reported":1767888996,"current_range_meters":8800,"station_id":"","pricing_plan_id":"cebpf4jnsgd1na2vs0mg"},{"bike_id":"02fbedcf-0ea4-4d04-a895-b6fc85e856b0","system_id":"levelo_inurba_marseille","lat":43.23961,"lon":5.36628,"is_reserved":false,"is_disabled":false,"rental_uris":{"android":"levelo://app?vid=02fbedcf-0ea4-4d04-a895-b6fc85e856b0","ios":"levelo://app?vid=02fbedcf-0ea4-4d04-a895-b6fc85e856b0"},"vehicle_type_id":"4","last_reported":1767888996,"current_range_meters":8800,"station_id":"ce4bhi12rcd13ifvqfp0","pricing_plan_id":"cebpf4jnsgd1na2vs0mg"},{"bike_id":"1ec94ba1-41d1-4288-80e5-6a131d1cb21d","system_id":"levelo_inurba_marseille","lat":43.25337,"lon":5.42172,"is_reserved":false,"is_disabled":false,"rental_uris":{"android":"levelo://app?vid=1ec94ba1-41d1-4288-80e5-6a131d1cb21d","ios":"levelo://app?vid=1ec94ba1-41d1-4288-80e5-6a131d1cb21d"},"vehicle_type_id":"4","last_reported":1767888996,"current_range_meters":8800,"station_id":"st_d2m65c5bi1j21697t3ng","pricing_plan_id":"cebpf4jnsgd1na2vs0mg"},{"bike_id":"4d420ccf-16ba-4785-b0fc-fb514672ff05","system_id":"levelo_inurba_marseille","lat":43.280975,"lon":5.378336,"is_reserved":false,"is_disabled":false,"rental_uris":{"android":"levelo://app?vid=4d420ccf-16ba-4785-b0fc-fb514672ff05","ios":"levelo://app?vid=4d420ccf-16ba-4785-b0fc-fb514672ff05"},"vehicle_type_id":"4","last_reported":1767888996,"current_range_meters":8800,"station_id":"ce4bha12rcd13ifvqee0","pricing_plan_id":"cebpf4jnsgd1na2vs0mg"},{"bike_id":"8c90c973-d813-4351-b024-6a22ded6d260","system_id":"levelo_inurba_marseille","lat":43.32334,"lon":5.36746,"is_reserved":false,"is_disabled":false,"rental_uris":{"android":"levelo://app?vid=8c90c973-d813-4351-b024-6a22ded6d260","ios":"levelo://app?vid=8c90c973-d813-4351-b024-6a22ded6d260"},"vehicle_type_id":"4","last_reported":1767888996,"current_range_meters":8800,"station_id":"ce4bhsh2rcd13ifvqi2g","pricing_plan_id":"cebpf4jnsgd1na2vs0mg"},{"bike_id":"d564640e-8980-4d50-9141-d01b2d41a726","system_id":"levelo_inurba_marseille","lat":43.24158,"lon":5.3642,"is_reserved":false,"is_disabled":false,"rental_uris":{"android":"levelo://app?vid=d564640e-8980-4d50-9141-d01b2d41a726","ios":"levelo://app?vid=d564640e-8980-4d50-9141-d01b2d41a726"},"vehicle_type_id":"4","last_reported":1767888996,"current_range_meters":8800,"station_id":"cpo36qri1sfpv3e86is0","pricing_plan_id":"cebpf4jnsgd1na2vs0mg"},{"bike_id":"995cf739-8cec-4377-8f23-0413c744714b","system_id":"levelo_inurba_marseille","lat":43.26589,"lon":5.37224,"is_reserved":false,"is_disabled":false,"rental_uris":{"android":"levelo://app?vid=995cf739-8cec-4377-8f23-0413c744714b","ios":"levelo://app?vid=995cf739-8cec-4377-8f23-0413c744714b"},"vehicle_type_id":"4","last_reported":1767888996,"current_range_meters":8800,"station_id":"","pricing_plan_id":"cebpf4jnsgd1na2vs0mg"},{"bike_id":"7a631b64-15fe-4f3c-8962-0c8af4bff951","system_id":"levelo_inurba_marseille","lat":43.29738,"lon":5.37674,"is_reserved":false,"is_disabled":false,"rental_uris":{"android":"levelo://app?vid=7a631b64-15fe-4f3c-8962-0c8af4bff951","ios":"levelo://app?vid=7a631b64-15fe-4f3c-8962-0c8af4bff951"},"vehicle_type_id":"4","last_reported":1767888996,"current_range_meters":8800,"station_id":"ce4bgkh2rcd13ifvqbl0","pricing_plan_id":"cebpf4jnsgd1na2vs0mg"},{"bike_id":"108a97aa-251e-488f-aae8-3f7dadd7dad5","system_id":"levelo_inurba_marseille","lat":43.24164,"lon":5.36396,"is_reserved":false,"is_disabled":false,"rental_uris":{"android":"levelo://app?vid=108a97aa-251e-488f-aae8-3f7dadd7dad5","ios":"levelo://app?vid=108a97aa-251e-488f-aae8-3f7dadd7dad5"},"vehicle_type_id":"4","last_reported":1767888996,"current_range_meters":8800,"station_id":"cpo36qri1sfpv3e86is0","pricing_plan_id":"cebpf4jnsgd1na2vs0mg"},{"bike_id":"88ad2eff-3086-4a93-ba03-b1d3df4be0c3","system_id":"levelo_inurba_marseille","lat":43.22563,"lon":5.41627,"is_reserved":false,"is_disabled":false,"rental_uris":{"android":"levelo://app?vid=88ad2eff-3086-4a93-ba03-b1d3df4be0c3","ios":"levelo://app?vid=88ad2eff-3086-4a93-ba03-b1d3df4be0c3"},"vehicle_type_id":"4","last_reported":1767888996,"current_range_meters":8800,"station_id":"st_d2o4gvlbi1j2169b742g","pricing_plan_id":"cebpf4jnsgd1na2vs0mg"},{"bike_id":"98437e2e-6787-4de3-9d87-777e7f0115f1","system_id":"levelo_inurba_marseille","lat":43.2981,"lon":5.38097,"is_reserved":false,"is_disabled":false,"rental_uris":{"android":"levelo://app?vid=98437e2e-6787-4de3-9d87-777e7f0115f1","ios":"levelo://app?vid=98437e2e-6787-4de3-9d87-777e7f0115f1"},"vehicle_type_id":"4","last_reported":1767888996,"current_range_meters":9200,"station_id":"ce4bgip2rcd13ifvqbb0","pricing_plan_id":"cebpf4jnsgd1na2vs0mg"},{"bike_id":"38a434cd-ec16-49a5-bbd4-0d1e5ec8ec2c","system_id":"levelo_inurba_marseille","lat":43.295835,"lon":5.375103,"is_reserved":false,"is_disabled":false,"rental_uris":{"android":"levelo://app?vid=38a434cd-ec16-49a5-bbd4-0d1e5ec8ec2c","ios":"levelo://app?vid=38a434cd-ec16-49a5-bbd4-0d1e5ec8ec2c"},"vehicle_type_id":"4","last_reported":1767888996,"current_range_meters":9200,"station_id":"ce4bgh92rcd13ifvqb50","pricing_plan_id":"cebpf4jnsgd1na2vs0mg"},{"bike_id":"b64e452a-bec0-47a7-9fd3-b6c2486866f5","system_id":"levelo_inurba_marseille","lat":43.28471,"lon":5.48405,"is_reserved":false,"is_disabled":false,"rental_uris":{"android":"levelo://app?vid=b64e452a-bec0-47a7-9fd3-b6c2486866f5","ios":"levelo://app?vid=b64e452a-bec0-47a7-9fd3-b6c2486866f5"},"vehicle_type_id":"4","last_reported":1767888996,"current_range_meters":9200,"station_id":"","pricing_plan_id":"cebpf4jnsgd1na2vs0mg"},{"bike_id":"778a562f-09e1-4798-9f85-0d433ca9f585","system_id":"levelo_inurba_marseille","lat":43.25934,"lon":5.40918,"is_reserved":false,"is_disabled":false,"rental_uris":{"android":"levelo://app?vid=778a562f-09e1-4798-9f85-0d433ca9f585","ios":"levelo://app?vid=778a562f-09e1-4798-9f85-0d433ca9f585"},"vehicle_type_id":"4","last_reported":1767888996,"current_range_meters":9200,"station_id":"ce4bhm92rcd13ifvqglg","pricing_plan_id":"cebpf4jnsgd1na2vs0mg"},{"bike_id":"79240f33-4a9c-4431-ac4a-e3c6cfd448c3","system_id":"levelo_inurba_marseille","lat":43.27998,"lon":5.39991,"is_reserved":false,"is_disabled":false,"rental_uris":{"android":"levelo://app?vid=79240f33-4a9c-4431-ac4a-e3c6cfd448c3","ios":"levelo://app?vid=79240f33-4a9c-4431-ac4a-e3c6cfd448c3"},"vehicle_type_id":"4","last_reported":1767888996,"current_range_meters":9200,"station_id":"ce4bho92rcd13ifvqh4g","pricing_plan_id":"cebpf4jnsgd1na2vs0mg"},{"bike_id":"0a50421a-c489-494d-bf6a-aa7e31233387","system_id":"levelo_inurba_marseille","lat":43.27184,"lon":5.40967,"is_reserved":false,"is_disabled":false,"rental_uris":{"android":"levelo://app?vid=0a50421a-c489-494d-bf6a-aa7e31233387","ios":"levelo://app?vid=0a50421a-c489-494d-bf6a-aa7e31233387"},"vehicle_type_id":"4","last_reported":1767888996,"current_range_meters":9200,"station_id":"ce4bhl12rcd13ifvqgf0","pricing_plan_id":"cebpf4jnsgd1na2vs0mg"},{"bike_id":"8795babc-a435-476e-b6ff-1fc72895a3d1","system_id":"levelo_inurba_marseille","lat":43.30298,"lon":5.36897,"is_reserved":false,"is_disabled":false,"rental_uris":{"android":"levelo://app?vid=8795babc-a435-476e-b6ff-1fc72895a3d1","ios":"levelo://app?vid=8795babc-a435-476e-b6ff-1fc72895a3d1"},"vehicle_type_id":"4","last_reported":1767888996,"current_range_meters":9200,"station_id":"ce4bgqh2rcd13ifvqc5g","pricing_plan_id":"cebpf4jnsgd1na2vs0mg"},{"bike_id":"577b404b-63b1-4b8e-82e8-29162d5c26c7","system_id":"levelo_inurba_marseille","lat":43.32558,"lon":5.36541,"is_reserved":false,"is_disabled":false,"rental_uris":{"android":"levelo://app?vid=577b404b-63b1-4b8e-82e8-29162d5c26c7","ios":"levelo://app?vid=577b404b-63b1-4b8e-82e8-29162d5c26c7"},"vehicle_type_id":"4","last_reported":1767888996,"current_range_meters":9200,"station_id":"","pricing_plan_id":"cebpf4jnsgd1na2vs0mg"},{"bike_id":"d7c0afbb-a477-4e6a-a799-62a927fb66d9","system_id":"levelo_inurba_marseille","lat":43.27063,"lon":5.42276,"is_reserved":false,"is_disabled":false,"rental_uris":{"android":"levelo://app?vid=d7c0afbb-a477-4e6a-a799-62a927fb66d9","ios":"levelo://app?vid=d7c0afbb-a477-4e6a-a799-62a927fb66d9"},"vehicle_type_id":"4","last_reported":1767888996,"current_range_meters":9200,"station_id":"ce4bhk92rcd13ifvqgb0","pricing_plan_id":"cebpf4jnsgd1na2vs0mg"},{"bike_id":"44491c90-1504-4e05-8f58-4e419eb8353c","system_id":"levelo_inurba_marseille","lat":43.28968,"lon":5.37834,"is_reserved":false,"is_disabled":false,"rental_uris":{"android":"levelo://app?vid=44491c90-1504-4e05-8f58-4e419eb8353c","ios":"levelo://app?vid=44491c90-1504-4e05-8f58-4e419eb8353c"},"vehicle_type_id":"4","last_reported":1767888996,"current_range_meters":9200,"station_id":"ce4bh9p2rcd13ifvqed0","pricing_plan_id":"cebpf4jnsgd1na2vs0mg"},{"bike_id":"a8e18155-d5ce-4d37-9cc5-12efc31f909e","system_id":"levelo_inurba_marseille","lat":43.241655,"lon":5.363931,"is_reserved":false,"is_disabled":false,"rental_uris":{"android":"levelo://app?vid=a8e18155-d5ce-4d37-9cc5-12efc31f909e","ios":"levelo://app?vid=a8e18155-d5ce-4d37-9cc5-12efc31f909e"},"vehicle_type_id":"4","last_reported":1767888996,"current_range_meters":9200,"station_id":"cpo36qri1sfpv3e86is0","pricing_plan_id":"cebpf4jnsgd1na2vs0mg"},