{"last_updated":1679186552,"ttl":30,"version":"2.2","data":{"bikes":[{"bike_id":"42469294-4d87-441d-a8a7-0536443f3064","system_id":"levelo_inurba_marseille","lat":43.31227,"lon":5.36845,"is_reserved":false,"is_disabled":false,"rental_uris":{"android":"levelo://app?vid=42469294-4d87-441d-a8a7-0536443f3064","ios":"levelo://app?vid=42469294-4d87-441d-a8a7-0536443f3064"},"vehicle_type_id":"4","last_reported":1679186553,"current_range_meters":20800,"station_id":"ce4bgl92rcd13ifvqbq0","pricing_plan_id":"free"},{"bike_id":"4a4c18da-2bc5-4135-82ea-fae1c9ad9138","system_id":"levelo_inurba_marseille","lat":43.312239,"lon":5.368562,"is_reserved":false,"is_disabled":false,"rental_uris":{"android":"levelo://app?vid=4a4c18da-2bc5-4135-82ea-fae1c9ad9138","ios":"levelo://app?vid=4a4c18da-2bc5-4135-82ea-fae1c9ad9138"},"vehicle_type_id":"4","last_reported":1679186553,"current_range_meters":15600,"station_id":"ce4bgl92rcd13ifvqbq0","pricing_plan_id":"free"},{"bike_id":"8ac507ac-f884-447a-b248-9a7ce31ae60e","system_id":"levelo_inurba_marseille","lat":43.312138,"lon":5.36872,"is_reserved":false,"is_disabled":false,"rental_uris":{"android":"levelo://app?vid=8ac507ac-f884-447a-b248-9a7ce31ae60e","ios":"levelo://app?vid=8ac507ac-f884-447a-b248-9a7ce31ae60e"},"vehicle_type_id":"4","last_reported":1679186553,"current_range_meters":12000,"station_id":"ce4bgl92rcd13ifvqbq0","pricing_plan_id":"free"},{"bike_id":"15818c45-f59e-44b5-857b-57b5ad91fac0","system_id":"levelo_inurba_marseille","lat":43.312239,"lon":5.368562,"is_reserved":false,"is_disabled":false,"rental_uris":{"android":"levelo://app?vid=15818c45-f59e-44b5-857b-57b5ad91fac0","ios":"levelo://app?vid=15818c45-f59e-44b5-857b-57b5ad91fac0"},"vehicle_type_id":"4","last_reported":1679186553,"current_range_meters":15200,"station_id":"ce4bgl92rcd13ifvqbq0","pricing_plan_id":"free"},{"bike_id":"acb33caf-9c9e-4e19-b496-cfcfb6a4b49e","system_id":"levelo_inurba_marseille","lat":43.312239,"lon":5.368562,"is_reserved":false,"is_disabled":false,"rental_uris":{"android":"levelo://app?vid=acb33caf-9c9e-4e19-b496-cfcfb6a4b49e","ios":"levelo://app?vid=acb33caf-9c9e-4e19-b496-cfcfb6a4b49e"},"vehicle_type_id":"4","last_reported":1679186553,"current_range_meters":0,"station_id":"ce4bgl92rcd13ifvqbq0","pricing_plan_id":"free"},{"bike_id":"c2415f66-f02f-41d0-96d7-c54a9c25a74c","system_id":"levelo_inurba_marseille","lat":43.312239,"lon":5.368562,"is_reserved":false,"is_disabled":false,"rental_uris":{"android":"levelo://app?vid=c2415f66-f02f-41d0-96d7-c54a9c25a74c","ios":"levelo://app?vid=c2415f66-f02f-41d0-96d7-c54a9c25a74c"},"vehicle_type_id":"4","last_reported":1679186553,"current_range_meters":14000,"station_id":"ce4bgl92rcd13ifvqbq0","pricing_plan_id":"free"},{"bike_id":"84c0f80e-a27e-48e2-b682-1ccfad0e6534","system_id":"levelo_inurba_marseille","lat":43.314811,"lon":5.373103,"is_reserved":false,"is_disabled":false,"rental_uris":{"android":"levelo://app?vid=84c0f80e-a27e-48e2-b682-1ccfad0e6534","ios":"levelo://app?vid=84c0f80e-a27e-48e2-b682-1ccfad0e6534"},"vehicle_type_id":"4","last_reported":1679186553,"current_range_meters":14800,"station_id":"ce4bgt12rcd13ifvqcd0","pricing_plan_id":"free"},{"bike_id":"cc688031-0adb-4047-90cb-df5faaf433cc","system_id":"levelo_inurba_marseille","lat":43.314811,"lon":5.373103,"is_reserved":false,"is_disabled":false,"rental_uris":{"android":"levelo://app?vid=cc688031-0adb-4047-90cb-df5faaf433cc","ios":"levelo://app?vid=cc688031-0adb-4047-90cb-df5faaf433cc"},"vehicle_type_id":"4","last_reported":1679186553,"current_range_meters":14400,"station_id":"ce4bgt12rcd13ifvqcd0","pricing_plan_id":"free"},{"bike_id":"e8642000-fad5-480d-a4af-846cb4b3e782","system_id":"levelo_inurba_marseille","lat":43.314811,"lon":5.373103,"is_reserved":false,"is_disabled":false,"rental_uris":{"android":"levelo://app?vid=e8642000-fad5-480d-a4af-846cb4b3e782","ios":"levelo://app?vid=e8642000-fad5-480d-a4af-846cb4b3e782"},"vehicle_type_id":"4","last_reported":1679186553,"current_range_meters":18400,"station_id":"ce4bgt12rcd13ifvqcd0","pricing_plan_id":"free"},{"bike_id":"6ecf8b68-1a76-4d17-bd5d-d8e48b2f1a62","system_id":"levelo_inurba_marseille","lat":43.301939,"lon":5.366286,"is_reserved":false,"is_disabled":false,"rental_uris":{"android":"levelo://app?vid=6ecf8b68-1a76-4d17-bd5d-d8e48b2f1a62","ios":"levelo://app?vid=6ecf8b68-1a76-4d17-bd5d-d8e48b2f1a62"},"vehicle_type_id":"4","last_reported":1679186553,"current_range_meters":1600,"station_id":"ce4bgrh2rcd13ifvqc8g","pricing_plan_id":"free"},{"bike_id":"791b91e9-f3fa-482a-81bc-f4d011d71bf5","system_id":"levelo_inurba_marseille","lat":43.308012,"lon":5.381511,"is_reserved":false,"is_disabled":false,"rental_uris":{"android":"levelo://app?vid=791b91e9-f3fa-482a-81bc-f4d011d71bf5","ios":"levelo://app?vid=791b91e9-f3fa-482a-81bc-f4d011d71bf5"},"vehicle_type_id":"4","last_reported":1679186553,"current_range_meters":4400,"station_id":"ce4bgt12rcd13ifvqce0","pricing_plan_id":"free"},{"bike_id":"96e1c2e5-063f-4dc4-b654-27a4b229cb9d","system_id":"levelo_inurba_marseille","lat":43.304606,"lon":5.379026,"is_reserved":false,"is_disabled":false,"rental_uris":{"android":"levelo://app?vid=96e1c2e5-063f-4dc4-b654-27a4b229cb9d","ios":"levelo://app?vid=96e1c2e5-063f-4dc4-b654-27a4b229cb9d"},"vehicle_type_id":"4","last_reported":1679186553,"current_range_meters":6800,"station_id":"ce4bgup2rcd13ifvqcn0","pricing_plan_id":"free"},{"bike_id":"3ce1dd38-7e00-4010-98bc-9fe654d34d56","system_id":"levelo_inurba_marseille","lat":43.304606,"lon":5.379026,"is_reserved":false,"is_disabled":false,"rental_uris":{"android":"levelo://app?vid=3ce1dd38-7e00-4010-98bc-9fe654d34d56","ios":"levelo://app?vid=3ce1dd38-7e00-4010-98bc-9fe654d34d56"},"vehicle_type_id":"4","last_reported":1679186553,"current_range_meters":400,"station_id":"ce4bgup2rcd13ifvqcn0","pricing_plan_id":"free"},{"bike_id":"f3748c22-131c-48f4-8392-2318cb87ce1f","system_id":"levelo_inurba_marseille","lat":43.304606,"lon":5.379026,"is_reserved":false,"is_disabled":false,"rental_uris":{"android":"levelo://app?vid=f3748c22-131c-48f4-8392-2318cb87ce1f","ios":"levelo://app?vid=f3748c22-131c-48f4-8392-2318cb87ce1f"},"vehicle_type_id":"4","last_reported":1679186553,"current_range_meters":19600,"station_id":"ce4bgup2rcd13ifvqcn0","pricing_plan_id":"free"},{"bike_id":"a3a26f8a-52f1-484d-b06c-552e0f98d28c","system_id":"levelo_inurba_marseille","lat":43.301425,"lon":5.37409,"is_reserved":false,"is_disabled":false,"rental_uris":{"android":"levelo://app?vid=a3a26f8a-52f1-484d-b06c-552e0f98d28c","ios":"levelo://app?vid=a3a26f8a-52f1-484d-b06c-552e0f98d28c"},"vehicle_type_id":"4","last_reported":1679186553,"current_range_meters":0,"station_id":"ce4bgs92rcd13ifvqcc0","pricing_plan_id":"free"},{"bike_id":"3fe933c9-0aac-4c6d-b23f-0ba644538ac0","system_id":"levelo_inurba_marseille","lat":43.301388,"lon":5.374181,"is_reserved":false,"is_disabled":false,"rental_uris":{"android":"levelo://app?vid=3fe933c9-0aac-4c6d-b23f-0ba644538ac0","ios":"levelo://app?vid=3fe933c9-0aac-4c6d-b23f-0ba644538ac0"},"vehicle_type_id":"4","last_reported":1679186553,"current_range_meters":0,"station_id":"ce4bgs92rcd13ifvqcc0","pricing_plan_id":"free"},{"bike_id":"52dac2d3-f258-4c49-9d68-b46744136d95","system_id":"levelo_inurba_marseille","lat":43.313571,"lon":5.384829,"is_reserved":false,"is_disabled":false,"rental_uris":{"android":"levelo://app?vid=52dac2d3-f258-4c49-9d68-b46744136d95","ios":"levelo://app?vid=52dac2d3-f258-4c49-9d68-b46744136d95"},"vehicle_type_id":"4","last_reported":1679186553,"current_range_meters":0,"station_id":"ce4bgt92rcd13ifvqcf0","pricing_plan_id":"free"},{"bike_id":"38e1d3d0-8303-4d39-b587-bd90ae804685","system_id":"levelo_inurba_marseille","lat":43.313571,"lon":5.384829,"is_reserved":false,"is_disabled":false,"rental_uris":{"android":"levelo://app?vid=38e1d3d0-8303-4d39-b587-bd90ae804685","ios":"levelo://app?vid=38e1d3d0-8303-4d39-b587-bd90ae804685"},"vehicle_type_id":"4","last_reported":1679186553,"current_range_meters":6400,"station_id":"ce4bgt92rcd13ifvqcf0","pricing_plan_id":"free"},{"bike_id":"0ebfb709-cdc2-41c6-b005-5dbfa83d1b7d","system_id":"levelo_inurba_marseille","lat":43.313571,"lon":5.384829,"is_reserved":false,"is_disabled":false,"rental_uris":{"android":"levelo://app?vid=0ebfb709-cdc2-41c6-b005-5dbfa83d1b7d","ios":"levelo://app?vid=0ebfb709-cdc2-41c6-b005-5dbfa83d1b7d"},"vehicle_type_id":"4","last_reported":1679186553,"current_range_meters":24400,"station_id":"ce4bgt92rcd13ifvqcf0","pricing_plan_id":"free"},{"bike_id":"00d87b19-02c8-47aa-b164-9e152e11fb3a","system_id":"levelo_inurba_marseille","lat":43.298433,"lon":5.362774,"is_reserved":false,"is_disabled":false,"rental_uris":{"android":"levelo://app?vid=00d87b19-02c8-47aa-b164-9e152e11fb3a","ios":"levelo://app?vid=00d87b19-02c8-47aa-b164-9e152e11fb3a"},"vehicle_type_id":"4","last_reported":1679186553,"current_range_meters":21200,"station_id":"ce4bgpp2rcd13ifvqc3g","pricing_plan_id":"free"},{"bike_id":"1f26d716-302e-4a39-a08e-f701c177217c","system_id":"levelo_inurba_marseille","lat":43.311722,"lon":5.387247,"is_reserved":false,"is_disabled":false,"rental_uris":{"android":"levelo://app?vid=1f26d716-302e-4a39-a08e-f701c177217c","ios":"levelo://app?vid=1f26d716-302e-4a39-a08e-f701c177217c"},"vehicle_type_id":"4","last_reported":1679186553,"current_range_meters":12400,"station_id":"ce4bgv12rcd13ifvqcp0","pricing_plan_id":"free"},{"bike_id":"d7f6a013-90d9-4030-aa0a-32811f328799","system_id":"levelo_inurba_marseille","lat":43.299243,"lon":5.374807,"is_reserved":false,"is_disabled":false,"rental_uris":{"android":"levelo://app?vid=d7f6a013-90d9-4030-aa0a-32811f328799","ios":"levelo://app?vid=d7f6a013-90d9-4030-aa0a-32811f328799"},"vehicle_type_id":"4","last_reported":1679186553,"current_range_meters":0,"station_id":"ce4bgjh2rcd13ifvqbg0","pricing_plan_id":"free"},{"bike_id":"c77f5a1f-2bab-40c9-99fd-0d635774132a","system_id":"levelo_inurba_marseille","lat":43.311773,"lon":5.387223,"is_reserved":false,"is_disabled":false,"rental_uris":{"android":"levelo://app?vid=c77f5a1f-2bab-40c9-99fd-0d635774132a","ios":"levelo://app?vid=c77f5a1f-2bab-40c9-99fd-0d635774132a"},"vehicle_type_id":"4","last_reported":1679186553,"current_range_meters":6000,"station_id":"ce4bgv12rcd13ifvqcp0","pricing_plan_id":"free"},{"bike_id":"51d5848e-824e-40da-b27f-af64ce8509ac","system_id":"levelo_inurba_marseille","lat":43.297293,"lon":5.376618,"is_reserved":false,"is_disabled":false,"rental_uris":{"android":"levelo://app?vid=51d5848e-824e-40da-b27f-af64ce8509ac","ios":"levelo://app?vid=51d5848e-824e-40da-b27f-af64ce8509ac"},"vehicle_type_id":"4","last_reported":1679186553,"current_range_meters":0,"station_id":"","pricing_plan_id":"free"},{"bike_id":"c8af9e7e-70a5-42e9-bfdb-223fda6d5082","system_id":"levelo_inurba_marseille","lat":43.309589,"lon":5.390258,"is_reserved":false,"is_disabled":false,"rental_uris":{"android":"levelo://app?vid=c8af9e7e-70a5-42e9-bfdb-223fda6d5082","ios":"levelo://app?vid=c8af9e7e-70a5-42e9-bfdb-223fda6d5082"},"vehicle_type_id":"4","last_reported":1679186553,"current_range_meters":16000,"station_id":"ce4bgup2rcd13ifvqco0","pricing_plan_id":"free"},{"bike_id":"43aeac86-0638-45e0-bb53-d2079e26eef6","system_id":"levelo_inurba_marseille","lat":43.309589,"lon":5.390258,"is_reserved":false,"is_disabled":false,"rental_uris":{"android":"levelo://app?vid=43aeac86-0638-45e0-bb53-d2079e26eef6","ios":"levelo://app?vid=43aeac86-0638-45e0-bb53-d2079e26eef6"},"vehicle_type_id":"4","last_reported":1679186553,"current_range_meters":29200,"station_id":"ce4bgup2rcd13ifvqco0","pricing_plan_id":"free"},{"bike_id":"7acf979e-3c86-4160-b8d9-bf7af2b894b1","system_id":"levelo_inurba_marseille","lat":43.317586,"lon":5.39017,"is_reserved":false,"is_disabled":false,"rental_uris":{"android":"levelo://app?vid=7acf979e-3c86-4160-b8d9-bf7af2b894b1","ios":"levelo://app?vid=7acf979e-3c86-4160-b8d9-bf7af2b894b1"},"vehicle_type_id":"4","last_reported":1679186553,"current_range_meters":0,"station_id":"","pricing_plan_id":"free"},{"bike_id":"8d7af8a9-9299-4e79-a8a5-80764c2c494a","system_id":"levelo_inurba_marseille","lat":43.304274,"lon":5.388873,"is_reserved":false,"is_disabled":false,"rental_uris":{"android":"levelo://app?vid=8d7af8a9-9299-4e79-a8a5-80764c2c494a","ios":"levelo://app?vid=8d7af8a9-9299-4e79-a8a5-80764c2c494a"},"vehicle_type_id":"4","last_reported":1679186553,"current_range_meters":10400,"station_id":"ce4bgk12rcd13ifvqbi0","pricing_plan_id":"free"},{"bike_id":"2e232e61-985d-467e-9a5c-c93d78252ef2","system_id":"levelo_inurba_marseille","lat":43.29617,"lon":5.377176,"is_reserved":false,"is_disabled":false,"rental_uris":{"android":"levelo://app?vid=2e232e61-985d-467e-9a5c-c93d78252ef2","ios":"levelo://app?vid=2e232e61-985d-467e-9a5c-c93d78252ef2"},"vehicle_type_id":"4","last_reported":1679186553,"current_range_meters":0,"station_id":"","pricing_plan_id":"free"},{"bike_id":"2e1d1032-c7cc-4597-b25e-d7f5e58534d5","system_id":"levelo_inurba_marseille","lat":43.296277,"lon":5.377108,"is_reserved":false,"is_disabled":false,"rental_uris":{"android":"levelo://app?vid=2e1d1032-c7cc-4597-b25e-d7f5e58534d5","ios":"levelo://app?vid=2e1d1032-c7cc-4597-b25e-d7f5e58534d5"},"vehicle_type_id":"4","last_reported":1679186553,"current_range_meters":0,"station_id":"ce4bgi92rcd13ifvqb90","pricing_plan_id":"free"},{"bike_id":"6a09acc2-f020-433b-a8d3-6aec9d7b88ac","system_id":"levelo_inurba_marseille","lat":43.29975,"lon":5.38487,"is_reserved":false,"is_disabled":false,"rental_uris":{"android":"levelo://app?vid=6a09acc2-f020-433b-a8d3-6aec9d7b88ac","ios":"levelo://app?vid=6a09acc2-f020-433b-a8d3-6aec9d7b88ac"},"vehicle_type_id":"4","last_reported":1679186553,"current_range_meters":10400,"station_id":"ce4bgj92rcd13ifvqbd0","pricing_plan_id":"free"},{"bike_id":"5971bedb-4e55-4cca-a827-15c1c85bce63","system_id":"levelo_inurba_marseille","lat":43.299691,"lon":5.384942,"is_reserved":false,"is_disabled":false,"rental_uris":{"android":"levelo://app?vid=5971bedb-4e55-4cca-a827-15c1c85bce63","ios":"levelo://app?vid=5971bedb-4e55-4cca-a827-15c1c85bce63"},"vehicle_type_id":"4","last_reported":1679186553,"current_range_meters":0,"station_id":"ce4bgj92rcd13ifvqbd0","pricing_plan_id":"free"},{"bike_id":"0ee17032-ad2e-4291-899b-1b72f2f34597","system_id":"levelo_inurba_marseille","lat":43.32358,"lon":5.38873,"is_reserved":false,"is_disabled":false,"rental_uris":{"android":"levelo://app?vid=0ee17032-ad2e-4291-899b-1b72f2f34597","ios":"levelo://app?vid=0ee17032-ad2e-4291-899b-1b72f2f34597"},"vehicle_type_id":"4","last_reported":1679186553,"current_range_meters":0,"station_id":"ce4bhqp2rcd13ifvqhog","pricing_plan_id":"free"},{"bike_id":"90745e93-3e4e-4248-af91-77f98ca477a1","system_id":"levelo_inurba_marseille","lat":43.323615,"lon":5.388778,"is_reserved":false,"is_disabled":false,"rental_uris":{"android":"levelo://app?vid=90745e93-3e4e-4248-af91-77f98ca477a1","ios":"levelo://app?vid=90745e93-3e4e-4248-af91-77f98ca477a1"},"vehicle_type_id":"4","last_reported":1679186553,"current_range_meters":21200,"station_id":"ce4bhqp2rcd13ifvqhog","pricing_plan_id":"free"},{"bike_id":"8ee722c3-cfd3-40d6-953f-42f233fdf582","system_id":"levelo_inurba_marseille","lat":43.323556,"lon":5.388843,"is_reserved":false,"is_disabled":false,"rental_uris":{"android":"levelo://app?vid=8ee722c3-cfd3-40d6-953f-42f233fdf582","ios":"levelo://app?vid=8ee722c3-cfd3-40d6-953f-42f233fdf582"},"vehicle_type_id":"4","last_reported":1679186553,"current_range_meters":20000,"station_id":"ce4bhqp2rcd13ifvqhog","pricing_plan_id":"free"},{"bike_id":"deb37c96-3348-4d98-a426-72a96f26f7ee","system_id":"levelo_inurba_marseille","lat":43.3236,"lon":5.38886,"is_reserved":false,"is_disabled":false,"rental_uris":{"android":"levelo://app?vid=deb37c96-3348-4d98-a426-72a96f26f7ee","ios":"levelo://app?vid=deb37c96-3348-4d98-a426-72a96f26f7ee"},"vehicle_type_id":"4","last_reported":1679186553,"current_range_meters":800,"station_id":"ce4bhqp2rcd13ifvqhog","pricing_plan_id":"free"},{"bike_id":"40dcf835-58c7-406a-8fb1-1b5823f9644d","system_id":"levelo_inurba_marseille","lat":43.32367,"lon":5.388836,"is_reserved":false,"is_disabled":false,"rental_uris":{"android":"levelo://app?vid=40dcf835-58c7-406a-8fb1-1b5823f9644d","ios":"levelo://app?vid=40dcf835-58c7-406a-8fb1-1b5823f9644d"},"vehicle_type_id":"4","last_reported":1679186553,"current_range_meters":5600,"station_id":"ce4bhqp2rcd13ifvqhog","pricing_plan_id":"free"},{"bike_id":"4acf4a6e-610b-4acb-b648-9bcdf0839ce4","system_id":"levelo_inurba_marseille","lat":43.32367,"lon":5.388836,"is_reserved":false,"is_disabled":false,"rental_uris":{"android":"levelo://app?vid=4acf4a6e-610b-4acb-b648-9bcdf0839ce4","ios":"levelo://app?vid=4acf4a6e-610b-4acb-b648-9bcdf0839ce4"},"vehicle_type_id":"4","last_reported":1679186553,"current_range_meters":2400,"station_id":"ce4bhqp2rcd13ifvqhog","pricing_plan_id":"free"},{"bike_id":"4385a8c2-fe29-43d4-9bc6-b3c21db78f50","system_id":"levelo_inurba_marseille","lat":43.32367,"lon":5.388836,"is_reserved":false,"is_disabled":false,"rental_uris":{"android":"levelo://app?vid=4385a8c2-fe29-43d4-9bc6-b3c21db78f50","ios":"levelo://app?vid=4385a8c2-fe29-43d4-9bc6-b3c21db78f50"},"vehicle_type_id":"4","last_reported":1679186553,"current_range_meters":20800,"station_id":"ce4bhqp2rcd13ifvqhog","pricing_plan_id":"free"},{"bike_id":"94d1e135-d62d-4a9f-a23a-e81d613ea8e7","system_id":"levelo_inurba_marseille","lat":43.293009,"lon":5.374584,"is_reserved":false,"is_disabled":false,"rental_uris":{"android":"levelo://app?vid=94d1e135-d62d-4a9f-a23a-e81d613ea8e7","ios":"levelo://app?vid=94d1e135-d62d-4a9f-a23a-e81d613ea8e7"},"vehicle_type_id":"4","last_reported":1679186553,"current_range_meters":14800,"station_id":"ce4bgi12rcd13ifvqb70","pricing_plan_id":"free"},{"bike_id":"8fabcd63-47ad-4866-84fe-f33066e79256","system_id":"levelo_inurba_marseille","lat":43.2936,"lon":5.37835,"is_reserved":false,"is_disabled":false,"rental_uris":{"android":"levelo://app?vid=8fabcd63-47ad-4866-84fe-f33066e79256","ios":"levelo://app?vid=8fabcd63-47ad-4866-84fe-f33066e79256"},"vehicle_type_id":"4","last_reported":1679186553,"current_range_meters":12400,"station_id":"ce4bgjh2rcd13ifvqbf0","pricing_plan_id":"free"},{"bike_id":"a2ea142d-6b25-4c4d-905b-a7ef4e1690ac","system_id":"levelo_inurba_marseille","lat":43.295868,"lon":5.386581,"is_reserved":false,"is_disabled":false,"rental_uris":{"android":"levelo://app?vid=a2ea142d-6b25-4c4d-905b-a7ef4e1690ac","ios":"levelo://app?vid=a2ea142d-6b25-4c4d-905b-a7ef4e1690ac"},"vehicle_type_id":"4","last_reported":1679186553,"current_range_meters":0,"station_id":"","pricing_plan_id":"free"},{"bike_id":"75ef4e91-50c0-4afa-8853-55b7aa7df4a3","system_id":"levelo_inurba_marseille","lat":43.290327,"lon":5.375711,"is_reserved":false,"is_disabled":false,"rental_uris":{"android":"levelo://app?vid=75ef4e91-50c0-4afa-8853-55b7aa7df4a3","ios":"levelo://app?vid=75ef4e91-50c0-4afa-8853-55b7aa7df4a3"},"vehicle_type_id":"4","last_reported":1679186553,"current_range_meters":10000,"station_id":"ce4bh692rcd13ifvqe90","pricing_plan_id":"free"},{"bike_id":"cba7054e-93cc-41a9-9c88-96f0ba5c2462","system_id":"levelo_inurba_marseille","lat":43.290319,"lon":5.375732,"is_reserved":false,"is_disabled":false,"rental_uris":{"android":"levelo://app?vid=cba7054e-93cc-41a9-9c88-96f0ba5c2462","ios":"levelo://app?vid=cba7054e-93cc-41a9-9c88-96f0ba5c2462"},"vehicle_type_id":"4","last_reported":1679186553,"current_range_meters":0,"station_id":"ce4bh692rcd13ifvqe90","pricing_plan_id":"free"},{"bike_id":"235e48cd-2644-4ed4-a3fc-ebed6f9d97b3","system_id":"levelo_inurba_marseille","lat":43.289184,"lon":5.366408,"is_reserved":false,"is_disabled":false,"rental_uris":{"android":"levelo://app?vid=235e48cd-2644-4ed4-a3fc-ebed6f9d97b3","ios":"levelo://app?vid=235e48cd-2644-4ed4-a3fc-ebed6f9d97b3"},"vehicle_type_id":"4","last_reported":1679186553,"current_range_meters":2800,"station_id":"ce4bhap2rcd13ifvqek0","pricing_plan_id":"free"},{"bike_id":"0d473379-5741-4c48-bcdb-ed6cacf30b1e","system_id":"levelo_inurba_marseille","lat":43.289468,"lon":5.363719,"is_reserved":false,"is_disabled":false,"rental_uris":{"android":"levelo://app?vid=0d473379-5741-4c48-bcdb-ed6cacf30b1e","ios":"levelo://app?vid=0d473379-5741-4c48-bcdb-ed6cacf30b1e"},"vehicle_type_id":"4","last_reported":1679186553,"current_range_meters":0,"station_id":"ce4bhc92rcd13ifvqetg","pricing_plan_id":"free"},{"bike_id":"3ef5c721-c142-4987-b996-49b82317e027","system_id":"levelo_inurba_marseille","lat":43.330442,"lon":5.389148,"is_reserved":false,"is_disabled":false,"rental_uris":{"android":"levelo://app?vid=3ef5c721-c142-4987-b996-49b82317e027","ios":"levelo://app?vid=3ef5c721-c142-4987-b996-49b82317e027"},"vehicle_type_id":"4","last_reported":1679186553,"current_range_meters":7200,"station_id":"ce4bhr92rcd13ifvqhrg","pricing_plan_id":"free"},{"bike_id":"28cb8c96-fbff-4e6f-b114-7355be64be23","system_id":"levelo_inurba_marseille","lat":43.330442,"lon":5.389148,"is_reserved":false,"is_disabled":false,"rental_uris":{"android":"levelo://app?vid=28cb8c96-fbff-4e6f-b114-7355be64be23","ios":"levelo://app?vid=28cb8c96-fbff-4e6f-b114-7355be64be23"},"vehicle_type_id":"4","last_reported":1679186553,"current_range_meters":2000,"station_id":"ce4bhr92rcd13ifvqhrg","pricing_plan_id":"free"},{"bike_id":"621c087d-85cc-4eaa-b933-04755e299abb","system_id":"levelo_inurba_marseille","lat":43.330442,"lon":5.389148,"is_reserved":false,"is_disabled":false,"rental_uris":{"android":"levelo://app?vid=621c087d-85cc-4eaa-b933-04755e299abb","ios":"levelo://app?vid=621c087d-85cc-4eaa-b933-04755e299abb"},"vehicle_type_id":"4","last_reported":1679186553,"current_range_meters":5200,"station_id":"ce4bhr92rcd13ifvqhrg","pricing_plan_id":"free"},{"bike_id":"7d849be3-0160-444b-a50e-11d8c19781fd","system_id":"levelo_inurba_marseille","lat":43.290993,"lon":5.381509,"is_reserved":false,"is_disabled":false,"rental_uris":{"android":"levelo://app?vid=7d849be3-0160-444b-a50e-11d8c19781fd","ios":"levelo://app?vid=7d849be3-0160-444b-a50e-11d8c19781fd"},"vehicle_type_id":"4","last_reported":1679186553,"current_range_meters":0,"station_id":"","pricing_plan_id":"free"},{"bike_id":"cda6f778-58a9-4640-8a33-02f2eaaebe50","system_id":"levelo_inurba_marseille","lat":43.28856,"lon":5.358371,"is_reserved":false,"is_disabled":false,"rental_uris":{"android":"levelo://app?vid=cda6f778-58a9-4640-8a33-02f2eaaebe50","ios":"levelo://app?vid=cda6f778-58a9-4640-8a33-02f2eaaebe50"},"vehicle_type_id":"4","last_reported":1679186553,"current_range_meters":27600,"station_id":"ce4bhb12rcd13ifvqem0","pricing_plan_id":"free"},{"bike_id":"c3187b56-e7c8-48ef-8515-3cb0857512fd","system_id":"levelo_inurba_marseille","lat":43.28856,"lon":5.358371,"is_reserved":false,"is_disabled":false,"rental_uris":{"android":"levelo://app?vid=c3187b56-e7c8-48ef-8515-3cb0857512fd","ios":"levelo://app?vid=c3187b56-e7c8-48ef-8515-3cb0857512fd"},"vehicle_type_id":"4","last_reported":1679186553,"current_range_meters":6800,"station_id":"ce4bhb12rcd13ifvqem0","pricing_plan_id":"free"},{"bike_id":"f0888a5d-8469-4a4a-aa32-e51183159fbe","system_id":"levelo_inurba_marseille","lat":43.337455,"lon":5.374605,"is_reserved":false,"is_disabled":false,"rental_uris":{"android":"levelo://app?vid=f0888a5d-8469-4a4a-aa32-e51183159fbe","ios":"levelo://app?vid=f0888a5d-8469-4a4a-aa32-e51183159fbe"},"vehicle_type_id":"4","last_reported":1679186553,"current_range_meters":10000,"station_id":"","pricing_plan_id":"free"},{"bike_id":"3691d997-1cad-46ed-b7e6-586680d35f2f","system_id":"levelo_inurba_marseille","lat":43.337455,"lon":5.37464,"is_reserved":false,"is_disabled":false,"rental_uris":{"android":"levelo://app?vid=3691d997-1cad-46ed-b7e6-586680d35f2f","ios":"levelo://app?vid=3691d997-1cad-46ed-b7e6-586680d35f2f"},"vehicle_type_id":"4","last_reported":1679186553,"current_range_meters":19600,"station_id":"ce4rr2p2rcd13i802rgg","pricing_plan_id":"free"},{"bike_id":"97a70748-85a2-4139-aa8d-3426ee2a5b86","system_id":"levelo_inurba_marseille","lat":43.337501,"lon":5.374448,"is_reserved":false,"is_disabled":false,"rental_uris":{"android":"levelo://app?vid=97a70748-85a2-4139-aa8d-3426ee2a5b86","ios":"levelo://app?vid=97a70748-85a2-4139-aa8d-3426ee2a5b86"},"vehicle_type_id":"4","last_reported":1679186553,"current_range_meters":0,"station_id":"","pricing_plan_id":"free"},{"bike_id":"f3e60a9c-2b74-43cb-ac11-5dfafdbb73c0","system_id":"levelo_inurba_marseille","lat":43.337573,"lon":5.37467,"is_reserved":false,"is_disabled":false,"rental_uris":{"android":"levelo://app?vid=f3e60a9c-2b74-43cb-ac11-5dfafdbb73c0","ios":"levelo://app?vid=f3e60a9c-2b74-43cb-ac11-5dfafdbb73c0"},"vehicle_type_id":"4","last_reported":1679186553,"current_range_meters":24400,"station_id":"","pricing_plan_id":"free"},{"bike_id":"7aade30f-6a06-4b4a-b5bb-f0ce4847b5bc","system_id":"levelo_inurba_marseille","lat":43.29523,"lon":5.39415,"is_reserved":false,"is_disabled":false,"rental_uris":{"android":"levelo://app?vid=7aade30f-6a06-4b4a-b5bb-f0ce4847b5bc","ios":"levelo://app?vid=7aade30f-6a06-4b4a-b5bb-f0ce4847b5bc"},"vehicle_type_id":"4","last_reported":1679186553,"current_range_meters":5200,"station_id":"ce4bh212rcd13ifvqde0","pricing_plan_id":"free"},{"bike_id":"af89031f-0f64-4687-bb3f-f66993b3d859","system_id":"levelo_inurba_marseille","lat":43.316517,"lon":5.404375,"is_reserved":false,"is_disabled":false,"rental_uris":{"android":"levelo://app?vid=af89031f-0f64-4687-bb3f-f66993b3d859","ios":"levelo://app?vid=af89031f-0f64-4687-bb3f-f66993b3d859"},"vehicle_type_id":"4","last_reported":1679186553,"current_range_meters":400,"station_id":"ce4bh012rcd13ifvqd00","pricing_plan_id":"free"},{"bike_id":"a856019f-9b62-4c44-909a-e3757f690c99","system_id":"levelo_inurba_marseille","lat":43.284624,"lon":5.358959,"is_reserved":false,"is_disabled":false,"rental_uris":{"android":"levelo://app?vid=a856019f-9b62-4c44-909a-e3757f690c99","ios":"levelo://app?vid=a856019f-9b62-4c44-909a-e3757f690c99"},"vehicle_type_id":"4","last_reported":1679186553,"current_range_meters":0,"station_id":"ce4bhah2rcd13ifvqei0","pricing_plan_id":"free"},{"bike_id":"4a33ba6f-5260-41cd-80ca-e6c65b6e0ffe","system_id":"levelo_inurba_marseille","lat":43.28463,"lon":5.35887,"is_reserved":false,"is_disabled":false,"rental_uris":{"android":"levelo://app?vid=4a33ba6f-5260-41cd-80ca-e6c65b6e0ffe","ios":"levelo://app?vid=4a33ba6f-5260-41cd-80ca-e6c65b6e0ffe"},"vehicle_type_id":"4","last_reported":1679186553,"current_range_meters":18000,"station_id":"ce4bhah2rcd13ifvqei0","pricing_plan_id":"free"},{"bike_id":"70fab64f-a366-47a2-8203-66a5dc3f2505","system_id":"levelo_inurba_marseille","lat":43.284534,"lon":5.358662,"is_reserved":false,"is_disabled":false,"rental_uris":{"android":"levelo://app?vid=70fab64f-a366-47a2-8203-66a5dc3f2505","ios":"levelo://app?vid=70fab64f-a366-47a2-8203-66a5dc3f2505"},"vehicle_type_id":"4","last_reported":1679186553,"current_range_meters":0,"station_id":"ce4bhah2rcd13ifvqei0","pricing_plan_id":"free"},{"bike_id":"336e0652-bd15-4ea8-824f-54fdc3765340","system_id":"levelo_inurba_marseille","lat":43.284534,"lon":5.358662,"is_reserved":false,"is_disabled":false,"rental_uris":{"android":"levelo://app?vid=336e0652-bd15-4ea8-824f-54fdc3765340","ios":"levelo://app?vid=336e0652-bd15-4ea8-824f-54fdc3765340"},"vehicle_type_id":"4","last_reported":1679186553,"current_range_meters":8400,"station_id":"ce4bhah2rcd13ifvqei0","pricing_plan_id":"free"},{"bike_id":"694a0eb1-6ae8-49e1-b8f0-3b119fcd36cc","system_id":"levelo_inurba_marseille","lat":43.284534,"lon":5.358662,"is_reserved":false,"is_disabled":false,"rental_uris":{"android":"levelo://app?vid=694a0eb1-6ae8-49e1-b8f0-3b119fcd36cc","ios":"levelo://app?vid=694a0eb1-6ae8-49e1-b8f0-3b119fcd36cc"},"vehicle_type_id":"4","last_reported":1679186553,"current_range_meters":10400,"station_id":"ce4bhah2rcd13ifvqei0","pricing_plan_id":"free"},{"bike_id":"1cba454c-9d37-4020-b2b1-9db7958393ff","system_id":"levelo_inurba_marseille","lat":43.286595,"lon":5.386795,"is_reserved":false,"is_disabled":false,"rental_uris":{"android":"levelo://app?vid=1cba454c-9d37-4020-b2b1-9db7958393ff","ios":"levelo://app?vid=1cba454c-9d37-4020-b2b1-9db7958393ff"},"vehicle_type_id":"4","last_reported":1679186553,"current_range_meters":2000,"station_id":"ce4bh492rcd13ifvqdug","pricing_plan_id":"free"},{"bike_id":"9a5b6c2b-edf4-4a86-9878-4f70f3050e75","system_id":"levelo_inurba_marseille","lat":43.33717,"lon":5.391857,"is_reserved":false,"is_disabled":false,"rental_uris":{"android":"levelo://app?vid=9a5b6c2b-edf4-4a86-9878-4f70f3050e75","ios":"levelo://app?vid=9a5b6c2b-edf4-4a86-9878-4f70f3050e75"},"vehicle_type_id":"4","last_reported":1679186553,"current_range_meters":17600,"station_id":"ce4bhr92rcd13ifvqhsg","pricing_plan_id":"free"},{"bike_id":"2256a0a0-f5f3-4f95-bc79-2ee019fd15f3","system_id":"levelo_inurba_marseille","lat":43.3234,"lon":5.40622,"is_reserved":false,"is_disabled":false,"rental_uris":{"android":"levelo://app?vid=2256a0a0-f5f3-4f95-bc79-2ee019fd15f3","ios":"levelo://app?vid=2256a0a0-f5f3-4f95-bc79-2ee019fd15f3"},"vehicle_type_id":"4","last_reported":1679186553,"current_range_meters":13200,"station_id":"","pricing_plan_id":"free"},{"bike_id":"3aefbdbc-5f38-4591-979a-6173272a0a4f","system_id":"levelo_inurba_marseille","lat":43.323398,"lon":5.406232,"is_reserved":false,"is_disabled":false,"rental_uris":{"android":"levelo://app?vid=3aefbdbc-5f38-4591-979a-6173272a0a4f","ios":"levelo://app?vid=3aefbdbc-5f38-4591-979a-6173272a0a4f"},"vehicle_type_id":"4","last_reported":1679186553,"current_range_meters":5600,"station_id":"","pricing_plan_id":"free"},{"bike_id":"caa7e5e8-4334-4f87-b24c-41db3be8c50c","system_id":"levelo_inurba_marseille","lat":43.284793,"lon":5.384119,"is_reserved":false,"is_disabled":false,"rental_uris":{"android":"levelo://app?vid=caa7e5e8-4334-4f87-b24c-41db3be8c50c","ios":"levelo://app?vid=caa7e5e8-4334-4f87-b24c-41db3be8c50c"},"vehicle_type_id":"4","last_reported":1679186553,"current_range_meters":20800,"station_id":"ce4bh512rcd13ifvqe3g","pricing_plan_id":"free"},{"bike_id":"bcd2876d-2b9d-4d49-bd93-b37ee89b571f","system_id":"levelo_inurba_marseille","lat":43.288501,"lon":5.393087,"is_reserved":false,"is_disabled":false,"rental_uris":{"android":"levelo://app?vid=bcd2876d-2b9d-4d49-bd93-b37ee89b571f","ios":"levelo://app?vid=bcd2876d-2b9d-4d49-bd93-b37ee89b571f"},"vehicle_type_id":"4","last_reported":1679186553,"current_range_meters":8800,"station_id":"ce4bh2p2rcd13ifvqdi0","pricing_plan_id":"free"},{"bike_id":"5f532e4f-6390-4317-a231-6196b4687cdc","system_id":"levelo_inurba_marseille","lat":43.288501,"lon":5.393087,"is_reserved":false,"is_disabled":false,"rental_uris":{"android":"levelo://app?vid=5f532e4f-6390-4317-a231-6196b4687cdc","ios":"levelo://app?vid=5f532e4f-6390-4317-a231-6196b4687cdc"},"vehicle_type_id":"4","last_reported":1679186553,"current_range_meters":7600,"station_id":"ce4bh2p2rcd13ifvqdi0","pricing_plan_id":"free"},{"bike_id":"c0a2a658-41d7-4335-9ab5-ee428580e2e7","system_id":"levelo_inurba_marseille","lat":43.290797,"lon":5.397393,"is_reserved":false,"is_disabled":false,"rental_uris":{"android":"levelo://app?vid=c0a2a658-41d7-4335-9ab5-ee428580e2e7","ios":"levelo://app?vid=c0a2a658-41d7-4335-9ab5-ee428580e2e7"},"vehicle_type_id":"4","last_reported":1679186553,"current_range_meters":23200,"station_id":"","pricing_plan_id":"free"},{"bike_id":"bb90ae35-4120-4278-8891-ae944617aa5c","system_id":"levelo_inurba_marseille","lat":43.289363,"lon":5.396322,"is_reserved":false,"is_disabled":false,"rental_uris":{"android":"levelo://app?vid=bb90ae35-4120-4278-8891-ae944617aa5c","ios":"levelo://app?vid=bb90ae35-4120-4278-8891-ae944617aa5c"},"vehicle_type_id":"4","last_reported":1679186553,"current_range_meters":10000,"station_id":"ce4bh3h2rcd13ifvqdn0","pricing_plan_id":"free"},{"bike_id":"b10b60a5-7b72-41ed-bd83-b94fda7dda6b","system_id":"levelo_inurba_marseille","lat":43.280382,"lon":5.369291,"is_reserved":false,"is_disabled":false,"rental_uris":{"android":"levelo://app?vid=b10b60a5-7b72-41ed-bd83-b94fda7dda6b","ios":"levelo://app?vid=b10b60a5-7b72-41ed-bd83-b94fda7dda6b"},"vehicle_type_id":"4","last_reported":1679186553,"current_range_meters":19200,"station_id":"ce4bha12rcd13ifvqef0","pricing_plan_id":"free"},{"bike_id":"d181b1dc-8a27-44b6-b3db-54080f3a580b","system_id":"levelo_inurba_marseille","lat":43.281789,"lon":5.352736,"is_reserved":false,"is_disabled":false,"rental_uris":{"android":"levelo://app?vid=d181b1dc-8a27-44b6-b3db-54080f3a580b","ios":"levelo://app?vid=d181b1dc-8a27-44b6-b3db-54080f3a580b"},"vehicle_type_id":"4","last_reported":1679186553,"current_range_meters":0,"station_id":"","pricing_plan_id":"free"},{"bike_id":"ec1c4208-8525-4a00-b6ba-025f55caaf1f","system_id":"levelo_inurba_marseille","lat":43.28104,"lon":5.37841,"is_reserved":false,"is_disabled":false,"rental_uris":{"android":"levelo://app?vid=ec1c4208-8525-4a00-b6ba-025f55caaf1f","ios":"levelo://app?vid=ec1c4208-8525-4a00-b6ba-025f55caaf1f"},"vehicle_type_id":"4","last_reported":1679186553,"current_range_meters":24800,"station_id":"ce4bha12rcd13ifvqee0","pricing_plan_id":"free"},{"bike_id":"d73bdb86-5c6e-46e3-8fef-9829ee704e20","system_id":"levelo_inurba_marseille","lat":43.328606,"lon":5.410082,"is_reserved":false,"is_disabled":false,"rental_uris":{"android":"levelo://app?vid=d73bdb86-5c6e-46e3-8fef-9829ee704e20","ios":"levelo://app?vid=d73bdb86-5c6e-46e3-8fef-9829ee704e20"},"vehicle_type_id":"4","last_reported":1679186553,"current_range_meters":0,"station_id":"","pricing_plan_id":"free"},{"bike_id":"f276a7a1-ac2a-4567-b8cf-9d38f3495f64","system_id":"levelo_inurba_marseille","lat":43.320575,"lon":5.41539,"is_reserved":false,"is_disabled":false,"rental_uris":{"android":"levelo://app?vid=f276a7a1-ac2a-4567-b8cf-9d38f3495f64","ios":"levelo://app?vid=f276a7a1-ac2a-4567-b8cf-9d38f3495f64"},"vehicle_type_id":"4","last_reported":1679186553,"current_range_meters":0,"station_id":"","pricing_plan_id":"free"},{"bike_id":"73296a4b-a47e-4a89-b792-3270f1d35e4a","system_id":"levelo_inurba_marseille","lat":43.299579,"lon":5.413255,"is_reserved":false,"is_disabled":false,"rental_uris":{"android":"levelo://app?vid=73296a4b-a47e-4a89-b792-3270f1d35e4a","ios":"levelo://app?vid=73296a4b-a47e-4a89-b792-3270f1d35e4a"},"vehicle_type_id":"4","last_reported":1679186553,"current_range_meters":800,"station_id":"ce4bhp12rcd13ifvqh9g","pricing_plan_id":"free"},{"bike_id":"a4d73dcf-ab40-4584-8432-0d5792ae5e6c","system_id":"levelo_inurba_marseille","lat":43.279742,"lon":5.38744,"is_reserved":false,"is_disabled":false,"rental_uris":{"android":"levelo://app?vid=a4d73dcf-ab40-4584-8432-0d5792ae5e6c","ios":"levelo://app?vid=a4d73dcf-ab40-4584-8432-0d5792ae5e6c"},"vehicle_type_id":"4","last_reported":1679186553,"current_range_meters":6800,"station_id":"ce4bhg12rcd13ifvqf80","pricing_plan_id":"free"},{"bike_id":"2f454740-0b4f-4abc-9d61-60c7eebac267","system_id":"levelo_inurba_marseille","lat":43.32479,"lon":5.414299,"is_reserved":false,"is_disabled":false,"rental_uris":{"android":"levelo://app?vid=2f454740-0b4f-4abc-9d61-60c7eebac267","ios":"levelo://app?vid=2f454740-0b4f-4abc-9d61-60c7eebac267"},"vehicle_type_id":"4","last_reported":1679186553,"current_range_meters":8000,"station_id":"","pricing_plan_id":"free"},{"bike_id":"4e924825-18da-48fb-b5bc-28bbbc060640","system_id":"levelo_inurba_marseille","lat":43.325243,"lon":5.414326,"is_reserved":false,"is_disabled":false,"rental_uris":{"android":"levelo://app?vid=4e924825-18da-48fb-b5bc-28bbbc060640","ios":"levelo://app?vid=4e924825-18da-48fb-b5bc-28bbbc060640"},"vehicle_type_id":"4","last_reported":1679186553,"current_range_meters":28000,"station_id":"ce4bhq12rcd13ifvqhhg","pricing_plan_id":"free"},{"bike_id":"5f11de16-2911-4b4f-b726-c59123cc1e79","system_id":"levelo_inurba_marseille","lat":43.325233,"lon":5.414318,"is_reserved":false,"is_disabled":false,"rental_uris":{"android":"levelo://app?vid=5f11de16-2911-4b4f-b726-c59123cc1e79","ios":"levelo://app?vid=5f11de16-2911-4b4f-b726-c59123cc1e79"},"vehicle_type_id":"4","last_reported":1679186553,"current_range_meters":28400,"station_id":"ce4bhq12rcd13ifvqhhg","pricing_plan_id":"free"},{"bike_id":"82c0197b-5828-4710-a88c-34b63d75cfda","system_id":"levelo_inurba_marseille","lat":43.325233,"lon":5.414318,"is_reserved":false,"is_disabled":false,"rental_uris":{"android":"levelo://app?vid=82c0197b-5828-4710-a88c-34b63d75cfda","ios":"levelo://app?vid=82c0197b-5828-4710-a88c-34b63d75cfda"},"vehicle_type_id":"4","last_reported":1679186553,"current_range_meters":26000,"station_id":"ce4bhq12rcd13ifvqhhg","pricing_plan_id":"free"},{"bike_id":"51d76d32-5703-4de6-9544-9d06ddb31cbf","system_id":"levelo_inurba_marseille","lat":43.325243,"lon":5.414326,"is_reserved":false,"is_disabled":false,"rental_uris":{"android":"levelo://app?vid=51d76d32-5703-4de6-9544-9d06ddb31cbf","ios":"levelo://app?vid=51d76d32-5703-4de6-9544-9d06ddb31cbf"},"vehicle_type_id":"4","last_reported":1679186553,"current_range_meters":23600,"station_id":"ce4bhq12rcd13ifvqhhg","pricing_plan_id":"free"},{"bike_id":"ed38afd4-d724-4e08-ba37-6f0d0c8cafa0","system_id":"levelo_inurba_marseille","lat":43.325233,"lon":5.414318,"is_reserved":false,"is_disabled":false,"rental_uris":{"android":"levelo://app?vid=ed38afd4-d724-4e08-ba37-6f0d0c8cafa0","ios":"levelo://app?vid=ed38afd4-d724-4e08-ba37-6f0d0c8cafa0"},"vehicle_type_id":"4","last_reported":1679186553,"current_range_meters":29200,"station_id":"ce4bhq12rcd13ifvqhhg","pricing_plan_id":"free"},{"bike_id":"8150e8e1-709e-4295-8bac-b8326d350b70","system_id":"levelo_inurba_marseille","lat":43.32394,"lon":5.41515,"is_reserved":false,"is_disabled":false,"rental_uris":{"android":"levelo://app?vid=8150e8e1-709e-4295-8bac-b8326d350b70","ios":"levelo://app?vid=8150e8e1-709e-4295-8bac-b8326d350b70"},"vehicle_type_id":"4","last_reported":1679186553,"current_range_meters":7200,"station_id":"","pricing_plan_id":"free"},{"bike_id":"d5b853cc-8bf0-4a1e-a013-652267b292ea","system_id":"levelo_inurba_marseille","lat":43.325243,"lon":5.414326,"is_reserved":false,"is_disabled":false,"rental_uris":{"android":"levelo://app?vid=d5b853cc-8bf0-4a1e-a013-652267b292ea","ios":"levelo://app?vid=d5b853cc-8bf0-4a1e-a013-652267b292ea"},"vehicle_type_id":"4","last_reported":1679186553,"current_range_meters":24400,"station_id":"ce4bhq12rcd13ifvqhhg","pricing_plan_id":"free"},{"bike_id":"69d4dd91-dfcd-4995-966b-ec2f27d43f39","system_id":"levelo_inurba_marseille","lat":43.280784,"lon":5.396622,"is_reserved":false,"is_disabled":false,"rental_uris":{"android":"levelo://app?vid=69d4dd91-dfcd-4995-966b-ec2f27d43f39","ios":"levelo://app?vid=69d4dd91-dfcd-4995-966b-ec2f27d43f39"},"vehicle_type_id":"4","last_reported":1679186553,"current_range_meters":0,"station_id":"ce4bho12rcd13ifvqh2g","pricing_plan_id":"free"},{"bike_id":"eb462c0b-2666-46c8-b365-bcbf64fc0073","system_id":"levelo_inurba_marseille","lat":43.2738,"lon":5.36251,"is_reserved":false,"is_disabled":false,"rental_uris":{"android":"levelo://app?vid=eb462c0b-2666-46c8-b365-bcbf64fc0073","ios":"levelo://app?vid=eb462c0b-2666-46c8-b365-bcbf64fc0073"},"vehicle_type_id":"4","last_reported":1679186553,"current_range_meters":6800,"station_id":"ce4bhbh2rcd13ifvqeo0","pricing_plan_id":"free"},{"bike_id":"2abcf298-3819-478b-95ea-54cc72544c00","system_id":"levelo_inurba_marseille","lat":43.336148,"lon":5.410349,"is_reserved":false,"is_disabled":false,"rental_uris":{"android":"levelo://app?vid=2abcf298-3819-478b-95ea-54cc72544c00","ios":"levelo://app?vid=2abcf298-3819-478b-95ea-54cc72544c00"},"vehicle_type_id":"4","last_reported":1679186553,"current_range_meters":9200,"station_id":"ce4bhqh2rcd13ifvqhmg","pricing_plan_id":"free"},{"bike_id":"350d6b89-8c6e-4cbd-a303-a381f1965236","system_id":"levelo_inurba_marseille","lat":43.336134,"lon":5.410341,"is_reserved":false,"is_disabled":false,"rental_uris":{"android":"levelo://app?vid=350d6b89-8c6e-4cbd-a303-a381f1965236","ios":"levelo://app?vid=350d6b89-8c6e-4cbd-a303-a381f1965236"},"vehicle_type_id":"4","last_reported":1679186553,"current_range_meters":21200,"station_id":"ce4bhqh2rcd13ifvqhmg","pricing_plan_id":"free"},{"bike_id":"27a138ec-ac35-43df-9be7-1ff43296cc01","system_id":"levelo_inurba_marseille","lat":43.317319,"lon":5.424032,"is_reserved":false,"is_disabled":false,"rental_uris":{"android":"levelo://app?vid=27a138ec-ac35-43df-9be7-1ff43296cc01","ios":"levelo://app?vid=27a138ec-ac35-43df-9be7-1ff43296cc01"},"vehicle_type_id":"4","last_reported":1679186553,"current_range_meters":13600,"station_id":"ce4bhp92rcd13ifvqhbg","pricing_plan_id":"free"},{"bike_id":"a8843578-c01d-4af1-8848-3e7987c51a6a","system_id":"levelo_inurba_marseille","lat":43.295523,"lon":5.422926,"is_reserved":false,"is_disabled":false,"rental_uris":{"android":"levelo://app?vid=a8843578-c01d-4af1-8848-3e7987c51a6a","ios":"levelo://app?vid=a8843578-c01d-4af1-8848-3e7987c51a6a"},"vehicle_type_id":"4","last_reported":1679186553,"current_range_meters":0,"station_id":"ce4bhph2rcd13ifvqhdg","pricing_plan_id":"free"},{"bike_id":"b170044d-c7bc-4687-8c61-d20e1d905ffc","system_id":"levelo_inurba_marseille","lat":43.295511,"lon":5.422926,"is_reserved":false,"is_disabled":false,"rental_uris":{"android":"levelo://app?vid=b170044d-c7bc-4687-8c61-d20e1d905ffc","ios":"levelo://app?vid=b170044d-c7bc-4687-8c61-d20e1d905ffc"},"vehicle_type_id":"4","last_reported":1679186553,"current_range_meters":7600,"station_id":"ce4bhph2rcd13ifvqhdg","pricing_plan_id":"free"},{"bike_id":"7fdcc3f8-7dc4-4f87-854d-ae11d4a14639","system_id":"levelo_inurba_marseille","lat":43.295511,"lon":5.422926,"is_reserved":false,"is_disabled":false,"rental_uris":{"android":"levelo://app?vid=7fdcc3f8-7dc4-4f87-854d-ae11d4a14639","ios":"levelo://app?vid=7fdcc3f8-7dc4-4f87-854d-ae11d4a14639"},"vehicle_type_id":"4","last_reported":1679186553,"current_range_meters":4400,"station_id":"ce4bhph2rcd13ifvqhdg","pricing_plan_id":"free"},{"bike_id":"500ba279-d765-4469-a69f-fc786362a5b0","system_id":"levelo_inurba_marseille","lat":43.295504,"lon":5.422852,"is_reserved":false,"is_disabled":false,"rental_uris":{"android":"levelo://app?vid=500ba279-d765-4469-a69f-fc786362a5b0","ios":"levelo://app?vid=500ba279-d765-4469-a69f-fc786362a5b0"},"vehicle_type_id":"4","last_reported":1679186553,"current_range_meters":16800,"station_id":"ce4bhph2rcd13ifvqhdg","pricing_plan_id":"free"},{"bike_id":"9af2e8d5-dc01-40cf-80dd-c962bc5ccd43","system_id":"levelo_inurba_marseille","lat":43.295511,"lon":5.422926,"is_reserved":false,"is_disabled":false,"rental_uris":{"android":"levelo://app?vid=9af2e8d5-dc01-40cf-80dd-c962bc5ccd43","ios":"levelo://app?vid=9af2e8d5-dc01-40cf-80dd-c962bc5ccd43"},"vehicle_type_id":"4","last_reported":1679186553,"current_range_meters":4000,"station_id":"ce4bhph2rcd13ifvqhdg","pricing_plan_id":"free"},{"bike_id":"f9f8ef73-9cb4-4a4f-bc57-9f13bfc750bc","system_id":"levelo_inurba_marseille","lat":43.295511,"lon":5.422926,"is_reserved":false,"is_disabled":false,"rental_uris":{"android":"levelo://app?vid=f9f8ef73-9cb4-4a4f-bc57-9f13bfc750bc","ios":"levelo://app?vid=f9f8ef73-9cb4-4a4f-bc57-9f13bfc750bc"},"vehicle_type_id":"4","last_reported":1679186553,"current_range_meters":16400,"station_id":"ce4bhph2rcd13ifvqhdg","pricing_plan_id":"free"},{"bike_id":"74e5040a-5bcd-40f5-b497-9bbe76bcd25c","system_id":"levelo_inurba_marseille","lat":43.27996,"lon":5.41664,"is_reserved":false,"is_disabled":false,"rental_uris":{"android":"levelo://app?vid=74e5040a-5bcd-40f5-b497-9bbe76bcd25c","ios":"levelo://app?vid=74e5040a-5bcd-40f5-b497-9bbe76bcd25c"},"vehicle_type_id":"4","last_reported":1679186553,"current_range_meters":22400,"station_id":"ce4bho12rcd13ifvqh1g","pricing_plan_id":"free"},{"bike_id":"e64489c4-592d-410b-ab06-d7f4db460c24","system_id":"levelo_inurba_marseille","lat":43.308051,"lon":5.43527,"is_reserved":false,"is_disabled":false,"rental_uris":{"android":"levelo://app?vid=e64489c4-592d-410b-ab06-d7f4db460c24","ios":"levelo://app?vid=e64489c4-592d-410b-ab06-d7f4db460c24"},"vehicle_type_id":"4","last_reported":1679186553,"current_range_meters":4800,"station_id":"ce4bhph2rcd13ifvqheg","pricing_plan_id":"free"},{"bike_id":"e651345b-5632-477d-b311-e5090b529272","system_id":"levelo_inurba_marseille","lat":43.308051,"lon":5.43527,"is_reserved":false,"is_disabled":false,"rental_uris":{"android":"levelo://app?vid=e651345b-5632-477d-b311-e5090b529272","ios":"levelo://app?vid=e651345b-5632-477d-b311-e5090b529272"},"vehicle_type_id":"4","last_reported":1679186553,"current_range_meters":3600,"station_id":"ce4bhph2rcd13ifvqheg","pricing_plan_id":"free"},{"bike_id":"dd04f92d-dbda-45bd-8d5e-0a739a24bdea","system_id":"levelo_inurba_marseille","lat":43.30797,"lon":5.43526,"is_reserved":false,"is_disabled":false,"rental_uris":{"android":"levelo://app?vid=dd04f92d-dbda-45bd-8d5e-0a739a24bdea","ios":"levelo://app?vid=dd04f92d-dbda-45bd-8d5e-0a739a24bdea"},"vehicle_type_id":"4","last_reported":1679186553,"current_range_meters":0,"station_id":"ce4bhph2rcd13ifvqheg","pricing_plan_id":"free"},{"bike_id":"8bbbcc37-39f2-481d-9c0f-90371390543a","system_id":"levelo_inurba_marseille","lat":43.308051,"lon":5.43527,"is_reserved":false,"is_disabled":false,"rental_uris":{"android":"levelo://app?vid=8bbbcc37-39f2-481d-9c0f-90371390543a","ios":"levelo://app?vid=8bbbcc37-39f2-481d-9c0f-90371390543a"},"vehicle_type_id":"4","last_reported":1679186553,"current_range_meters":5200,"station_id":"ce4bhph2rcd13ifvqheg","pricing_plan_id":"free"},{"bike_id":"7c3e4dc0-a7e8-4178-b3c7-70ceb02652cc","system_id":"levelo_inurba_marseille","lat":43.308051,"lon":5.43527,"is_reserved":false,"is_disabled":false,"rental_uris":{"android":"levelo://app?vid=7c3e4dc0-a7e8-4178-b3c7-70ceb02652cc","ios":"levelo://app?vid=7c3e4dc0-a7e8-4178-b3c7-70ceb02652cc"},"vehicle_type_id":"4","last_reported":1679186553,"current_range_meters":8800,"station_id":"ce4bhph2rcd13ifvqheg","pricing_plan_id":"free"},{"bike_id":"e75bbaa1-beed-4674-a728-48aee5d3b251","system_id":"levelo_inurba_marseille","lat":43.29248,"lon":5.44137,"is_reserved":false,"is_disabled":false,"rental_uris":{"android":"levelo://app?vid=e75bbaa1-beed-4674-a728-48aee5d3b251","ios":"levelo://app?vid=e75bbaa1-beed-4674-a728-48aee5d3b251"},"vehicle_type_id":"4","last_reported":1679186553,"current_range_meters":22400,"station_id":"","pricing_plan_id":"free"},{"bike_id":"4dd25867-d2d0-4b1f-b424-3c67ad36544b","system_id":"levelo_inurba_marseille","lat":43.255756,"lon":5.382303,"is_reserved":false,"is_disabled":false,"rental_uris":{"android":"levelo://app?vid=4dd25867-d2d0-4b1f-b424-3c67ad36544b","ios":"levelo://app?vid=4dd25867-d2d0-4b1f-b424-3c67ad36544b"},"vehicle_type_id":"4","last_reported":1679186553,"current_range_meters":22800,"station_id":"ce4bhih2rcd13ifvqfs0","pricing_plan_id":"free"},{"bike_id":"6f0614e8-a7ca-40b7-a0cf-f5e3029b8583","system_id":"levelo_inurba_marseille","lat":43.2707,"lon":5.42283,"is_reserved":false,"is_disabled":false,"rental_uris":{"android":"levelo://app?vid=6f0614e8-a7ca-40b7-a0cf-f5e3029b8583","ios":"levelo://app?vid=6f0614e8-a7ca-40b7-a0cf-f5e3029b8583"},"vehicle_type_id":"4","last_reported":1679186553,"current_range_meters":13200,"station_id":"ce4bhk92rcd13ifvqgb0","pricing_plan_id":"free"},{"bike_id":"c2bd7769-3b16-4159-87b2-94391b964763","system_id":"levelo_inurba_marseille","lat":43.250009,"lon":5.389195,"is_reserved":false,"is_disabled":false,"rental_uris":{"android":"levelo://app?vid=c2bd7769-3b16-4159-87b2-94391b964763","ios":"levelo://app?vid=c2bd7769-3b16-4159-87b2-94391b964763"},"vehicle_type_id":"4","last_reported":1679186553,"current_range_meters":16400,"station_id":"ce4bhgp2rcd13ifvqfd0","pricing_plan_id":"free"},{"bike_id":"96186fc4-e261-4c9c-b25c-ccd926aa07dd","system_id":"levelo_inurba_marseille","lat":43.24815,"lon":5.37462,"is_reserved":false,"is_disabled":false,"rental_uris":{"android":"levelo://app?vid=96186fc4-e261-4c9c-b25c-ccd926aa07dd","ios":"levelo://app?vid=96186fc4-e261-4c9c-b25c-ccd926aa07dd"},"vehicle_type_id":"4","last_reported":1679186553,"current_range_meters":14000,"station_id":"","pricing_plan_id":"free"},{"bike_id":"22af5f68-1fad-4b6c-a857-f8f55f963a3b","system_id":"levelo_inurba_marseille","lat":43.24815,"lon":5.37463,"is_reserved":false,"is_disabled":false,"rental_uris":{"android":"levelo://app?vid=22af5f68-1fad-4b6c-a857-f8f55f963a3b","ios":"levelo://app?vid=22af5f68-1fad-4b6c-a857-f8f55f963a3b"},"vehicle_type_id":"4","last_reported":1679186553,"current_range_meters":9200,"station_id":"","pricing_plan_id":"free"},{"bike_id":"4198d439-6bcd-4695-a8dc-ae254dd71863","system_id":"levelo_inurba_marseille","lat":43.24809,"lon":5.37456,"is_reserved":false,"is_disabled":false,"rental_uris":{"android":"levelo://app?vid=4198d439-6bcd-4695-a8dc-ae254dd71863","ios":"levelo://app?vid=4198d439-6bcd-4695-a8dc-ae254dd71863"},"vehicle_type_id":"4","last_reported":1679186553,"current_range_meters":30000,"station_id":"","pricing_plan_id":"free"},{"bike_id":"ac1d3187-6aa5-46dc-8375-00c0c462c6d3","system_id":"levelo_inurba_marseille","lat":43.24806,"lon":5.37457,"is_reserved":false,"is_disabled":false,"rental_uris":{"android":"levelo://app?vid=ac1d3187-6aa5-46dc-8375-00c0c462c6d3","ios":"levelo://app?vid=ac1d3187-6aa5-46dc-8375-00c0c462c6d3"},"vehicle_type_id":"4","last_reported":1679186553,"current_range_meters":13600,"station_id":"ce4bhgh2rcd13ifvqfb0","pricing_plan_id":"free"},{"bike_id":"32d47f2d-0bbe-4cc0-a374-e84fb1c4a813","system_id":"levelo_inurba_marseille","lat":43.24805,"lon":5.37453,"is_reserved":false,"is_disabled":false,"rental_uris":{"android":"levelo://app?vid=32d47f2d-0bbe-4cc0-a374-e84fb1c4a813","ios":"levelo://app?vid=32d47f2d-0bbe-4cc0-a374-e84fb1c4a813"},"vehicle_type_id":"4","last_reported":1679186553,"current_range_meters":28400,"station_id":"","pricing_plan_id":"free"},{"bike_id":"d7697645-5c87-4b1e-b85f-dae3668138f1","system_id":"levelo_inurba_marseille","lat":43.24801,"lon":5.37453,"is_reserved":false,"is_disabled":false,"rental_uris":{"android":"levelo://app?vid=d7697645-5c87-4b1e-b85f-dae3668138f1","ios":"levelo://app?vid=d7697645-5c87-4b1e-b85f-dae3668138f1"},"vehicle_type_id":"4","last_reported":1679186553,"current_range_meters":5600,"station_id":"","pricing_plan_id":"free"},{"bike_id":"87b02d55-bd4c-47e7-b4a2-8e6a3fd9412c","system_id":"levelo_inurba_marseille","lat":43.250966,"lon":5.395186,"is_reserved":false,"is_disabled":false,"rental_uris":{"android":"levelo://app?vid=87b02d55-bd4c-47e7-b4a2-8e6a3fd9412c","ios":"levelo://app?vid=87b02d55-bd4c-47e7-b4a2-8e6a3fd9412c"},"vehicle_type_id":"4","last_reported":1679186553,"current_range_meters":18400,"station_id":"ce4bhm12rcd13ifvqgkg","pricing_plan_id":"free"},{"bike_id":"6226b057-c565-4f10-824c-4158b47e8105","system_id":"levelo_inurba_marseille","lat":43.250966,"lon":5.395186,"is_reserved":false,"is_disabled":false,"rental_uris":{"android":"levelo://app?vid=6226b057-c565-4f10-824c-4158b47e8105","ios":"levelo://app?vid=6226b057-c565-4f10-824c-4158b47e8105"},"vehicle_type_id":"4","last_reported":1679186553,"current_range_meters":2400,"station_id":"ce4bhm12rcd13ifvqgkg","pricing_plan_id":"free"},{"bike_id":"246e0911-2090-4290-9ee8-620cd0253e1f","system_id":"levelo_inurba_marseille","lat":43.25102,"lon":5.403214,"is_reserved":false,"is_disabled":false,"rental_uris":{"android":"levelo://app?vid=246e0911-2090-4290-9ee8-620cd0253e1f","ios":"levelo://app?vid=246e0911-2090-4290-9ee8-620cd0253e1f"},"vehicle_type_id":"4","last_reported":1679186553,"current_range_meters":18800,"station_id":"ce4bhlh2rcd13ifvqgig","pricing_plan_id":"free"},{"bike_id":"cb880012-c3cb-4c51-a580-f7c1d13a54ff","system_id":"levelo_inurba_marseille","lat":43.24659,"lon":5.38159,"is_reserved":false,"is_disabled":false,"rental_uris":{"android":"levelo://app?vid=cb880012-c3cb-4c51-a580-f7c1d13a54ff","ios":"levelo://app?vid=cb880012-c3cb-4c51-a580-f7c1d13a54ff"},"vehicle_type_id":"4","last_reported":1679186553,"current_range_meters":0,"station_id":"","pricing_plan_id":"free"},{"bike_id":"875d5d08-cfe6-456e-884a-2e9b70ba5783","system_id":"levelo_inurba_marseille","lat":43.25102,"lon":5.403214,"is_reserved":false,"is_disabled":false,"rental_uris":{"android":"levelo://app?vid=875d5d08-cfe6-456e-884a-2e9b70ba5783","ios":"levelo://app?vid=875d5d08-cfe6-456e-884a-2e9b70ba5783"},"vehicle_type_id":"4","last_reported":1679186553,"current_range_meters":9600,"station_id":"ce4bhlh2rcd13ifvqgig","pricing_plan_id":"free"},{"bike_id":"84e201f5-fd74-4daf-b70a-0c8b6bb115c7","system_id":"levelo_inurba_marseille","lat":43.25102,"lon":5.403214,"is_reserved":false,"is_disabled":false,"rental_uris":{"android":"levelo://app?vid=84e201f5-fd74-4daf-b70a-0c8b6bb115c7","ios":"levelo://app?vid=84e201f5-fd74-4daf-b70a-0c8b6bb115c7"},"vehicle_type_id":"4","last_reported":1679186553,"current_range_meters":12000,"station_id":"ce4bhlh2rcd13ifvqgig","pricing_plan_id":"free"},{"bike_id":"26545bc5-7353-408d-9699-715d1aece88c","system_id":"levelo_inurba_marseille","lat":43.25102,"lon":5.403214,"is_reserved":false,"is_disabled":false,"rental_uris":{"android":"levelo://app?vid=26545bc5-7353-408d-9699-715d1aece88c","ios":"levelo://app?vid=26545bc5-7353-408d-9699-715d1aece88c"},"vehicle_type_id":"4","last_reported":1679186553,"current_range_meters":31600,"station_id":"ce4bhlh2rcd13ifvqgig","pricing_plan_id":"free"},{"bike_id":"13b6f600-6bf7-44e2-9643-255e5169245c","system_id":"levelo_inurba_marseille","lat":43.2484,"lon":5.39375,"is_reserved":false,"is_disabled":false,"rental_uris":{"android":"levelo://app?vid=13b6f600-6bf7-44e2-9643-255e5169245c","ios":"levelo://app?vid=13b6f600-6bf7-44e2-9643-255e5169245c"},"vehicle_type_id":"4","last_reported":1679186553,"current_range_meters":13600,"station_id":"","pricing_plan_id":"free"},{"bike_id":"a7aa3cfd-0818-478f-aaac-3109f9877811","system_id":"levelo_inurba_marseille","lat":43.243884,"lon":5.370736,"is_reserved":false,"is_disabled":false,"rental_uris":{"android":"levelo://app?vid=a7aa3cfd-0818-478f-aaac-3109f9877811","ios":"levelo://app?vid=a7aa3cfd-0818-478f-aaac-3109f9877811"},"vehicle_type_id":"4","last_reported":1679186553,"current_range_meters":9600,"station_id":"ce4bhhh2rcd13ifvqfk0","pricing_plan_id":"free"},{"bike_id":"088a25f1-4e71-4e12-b29e-c5b32ef46c65","system_id":"levelo_inurba_marseille","lat":43.245581,"lon":5.395069,"is_reserved":false,"is_disabled":false,"rental_uris":{"android":"levelo://app?vid=088a25f1-4e71-4e12-b29e-c5b32ef46c65","ios":"levelo://app?vid=088a25f1-4e71-4e12-b29e-c5b32ef46c65"},"vehicle_type_id":"4","last_reported":1679186553,"current_range_meters":2800,"station_id":"ce4bhlp2rcd13ifvqgjg","pricing_plan_id":"free"},{"bike_id":"96addcf5-71c3-4884-9d98-5c9c93876129","system_id":"levelo_inurba_marseille","lat":43.24072,"lon":5.37763,"is_reserved":false,"is_disabled":false,"rental_uris":{"android":"levelo://app?vid=96addcf5-71c3-4884-9d98-5c9c93876129","ios":"levelo://app?vid=96addcf5-71c3-4884-9d98-5c9c93876129"},"vehicle_type_id":"4","last_reported":1679186553,"current_range_meters":12800,"station_id":"","pricing_plan_id":"free"},{"bike_id":"4f98cc0f-5688-4d40-91c4-e1bbe0362004","system_id":"levelo_inurba_marseille","lat":43.2407,"lon":5.37763,"is_reserved":false,"is_disabled":false,"rental_uris":{"android":"levelo://app?vid=4f98cc0f-5688-4d40-91c4-e1bbe0362004","ios":"levelo://app?vid=4f98cc0f-5688-4d40-91c4-e1bbe0362004"},"vehicle_type_id":"4","last_reported":1679186553,"current_range_meters":16400,"station_id":"","pricing_plan_id":"free"},{"bike_id":"91895e72-70c3-4fff-8de2-9c7d84433031","system_id":"levelo_inurba_marseille","lat":43.23967,"lon":5.36634,"is_reserved":false,"is_disabled":false,"rental_uris":{"android":"levelo://app?vid=91895e72-70c3-4fff-8de2-9c7d84433031","ios":"levelo://app?vid=91895e72-70c3-4fff-8de2-9c7d84433031"},"vehicle_type_id":"4","last_reported":1679186553,"current_range_meters":13200,"station_id":"ce4bhi12rcd13ifvqfp0","pricing_plan_id":"free"},{"bike_id":"aee4b4a6-f9ab-4084-a4f7-edd5ccad8d40","system_id":"levelo_inurba_marseille","lat":43.239588,"lon":5.366238,"is_reserved":false,"is_disabled":false,"rental_uris":{"android":"levelo://app?vid=aee4b4a6-f9ab-4084-a4f7-edd5ccad8d40","ios":"levelo://app?vid=aee4b4a6-f9ab-4084-a4f7-edd5ccad8d40"},"vehicle_type_id":"4","last_reported":1679186553,"current_range_meters":18000,"station_id":"ce4bhi12rcd13ifvqfp0","pricing_plan_id":"free"},{"bike_id":"b9eb7df5-4549-486d-acf3-adcd910c731d","system_id":"levelo_inurba_marseille","lat":43.239648,"lon":5.366388,"is_reserved":false,"is_disabled":false,"rental_uris":{"android":"levelo://app?vid=b9eb7df5-4549-486d-acf3-adcd910c731d","ios":"levelo://app?vid=b9eb7df5-4549-486d-acf3-adcd910c731d"},"vehicle_type_id":"4","last_reported":1679186553,"current_range_meters":6800,"station_id":"","pricing_plan_id":"free"},{"bike_id":"60ec317c-9c95-456f-90a7-3e1b12c23fe5","system_id":"levelo_inurba_marseille","lat":43.239588,"lon":5.366238,"is_reserved":false,"is_disabled":false,"rental_uris":{"android":"levelo://app?vid=60ec317c-9c95-456f-90a7-3e1b12c23fe5","ios":"levelo://app?vid=60ec317c-9c95-456f-90a7-3e1b12c23fe5"},"vehicle_type_id":"4","last_reported":1679186553,"current_range_meters":4000,"station_id":"ce4bhi12rcd13ifvqfp0","pricing_plan_id":"free"},{"bike_id":"dcfbe225-2601-4561-81df-92cf185c56f6","system_id":"levelo_inurba_marseille","lat":43.239588,"lon":5.366238,"is_reserved":false,"is_disabled":false,"rental_uris":{"android":"levelo://app?vid=dcfbe225-2601-4561-81df-92cf185c56f6","ios":"levelo://app?vid=dcfbe225-2601-4561-81df-92cf185c56f6"},"vehicle_type_id":"4","last_reported":1679186553,"current_range_meters":5600,"station_id":"ce4bhi12rcd13ifvqfp0","pricing_plan_id":"free"},{"bike_id":"95ed0060-cb4c-4172-94be-0a06d5bb64ee","system_id":"levelo_inurba_marseille","lat":43.241782,"lon":5.397264,"is_reserved":false,"is_disabled":false,"rental_uris":{"android":"levelo://app?vid=95ed0060-cb4c-4172-94be-0a06d5bb64ee","ios":"levelo://app?vid=95ed0060-cb4c-4172-94be-0a06d5bb64ee"},"vehicle_type_id":"4","last_reported":1679186553,"current_range_meters":4000,"station_id":"ce4bhn12rcd13ifvqgpg","pricing_plan_id":"free"},{"bike_id":"870e2db0-f3e6-44cd-9996-40e824331de9","system_id":"levelo_inurba_marseille","lat":43.241782,"lon":5.397264,"is_reserved":false,"is_disabled":false,"rental_uris":{"android":"levelo://app?vid=870e2db0-f3e6-44cd-9996-40e824331de9","ios":"levelo://app?vid=870e2db0-f3e6-44cd-9996-40e824331de9"},"vehicle_type_id":"4","last_reported":1679186553,"current_range_meters":0,"station_id":"ce4bhn12rcd13ifvqgpg","pricing_plan_id":"free"},{"bike_id":"badd26db-d74e-47d1-a8af-80511d09ad4e","system_id":"levelo_inurba_marseille","lat":43.241782,"lon":5.397264,"is_reserved":false,"is_disabled":false,"rental_uris":{"android":"levelo://app?vid=badd26db-d74e-47d1-a8af-80511d09ad4e","ios":"levelo://app?vid=badd26db-d74e-47d1-a8af-80511d09ad4e"},"vehicle_type_id":"4","last_reported":1679186553,"current_range_meters":10000,"station_id":"ce4bhn12rcd13ifvqgpg","pricing_plan_id":"free"},{"bike_id":"beaf722f-8cce-48cc-9f08-62b9af3ed634","system_id":"levelo_inurba_marseille","lat":43.23199,"lon":5.35554,"is_reserved":false,"is_disabled":false,"rental_uris":{"android":"levelo://app?vid=beaf722f-8cce-48cc-9f08-62b9af3ed634","ios":"levelo://app?vid=beaf722f-8cce-48cc-9f08-62b9af3ed634"},"vehicle_type_id":"4","last_reported":1679186553,"current_range_meters":23600,"station_id":"","pricing_plan_id":"free"},{"bike_id":"0510984e-f649-44d1-8242-9d987e2a499a","system_id":"levelo_inurba_marseille","lat":43.231984,"lon":5.355523,"is_reserved":false,"is_disabled":false,"rental_uris":{"android":"levelo://app?vid=0510984e-f649-44d1-8242-9d987e2a499a","ios":"levelo://app?vid=0510984e-f649-44d1-8242-9d987e2a499a"},"vehicle_type_id":"4","last_reported":1679186553,"current_range_meters":24400,"station_id":"ce4bhu92rcd13ifvqi70","pricing_plan_id":"free"},{"bike_id":"b71d4bb3-9dd8-4f9d-8402-e3595c6b6b91","system_id":"levelo_inurba_marseille","lat":43.231955,"lon":5.355524,"is_reserved":false,"is_disabled":false,"rental_uris":{"android":"levelo://app?vid=b71d4bb3-9dd8-4f9d-8402-e3595c6b6b91","ios":"levelo://app?vid=b71d4bb3-9dd8-4f9d-8402-e3595c6b6b91"},"vehicle_type_id":"4","last_reported":1679186553,"current_range_meters":24400,"station_id":"","pricing_plan_id":"free"},{"bike_id":"2f1e89bb-26de-4f28-9f9c-8145daa23f89","system_id":"levelo_inurba_marseille","lat":43.231944,"lon":5.355587,"is_reserved":false,"is_disabled":false,"rental_uris":{"android":"levelo://app?vid=2f1e89bb-26de-4f28-9f9c-8145daa23f89","ios":"levelo://app?vid=2f1e89bb-26de-4f28-9f9c-8145daa23f89"},"vehicle_type_id":"4","last_reported":1679186553,"current_range_meters":31600,"station_id":"","pricing_plan_id":"free"},{"bike_id":"b9f6f4f0-f36b-4f70-8715-1fede5862196","system_id":"levelo_inurba_marseille","lat":43.23193,"lon":5.35553,"is_reserved":false,"is_disabled":false,"rental_uris":{"android":"levelo://app?vid=b9f6f4f0-f36b-4f70-8715-1fede5862196","ios":"levelo://app?vid=b9f6f4f0-f36b-4f70-8715-1fede5862196"},"vehicle_type_id":"4","last_reported":1679186553,"current_range_meters":29200,"station_id":"ce4bhu92rcd13ifvqi70","pricing_plan_id":"free"},{"bike_id":"956fe110-a343-4414-91a1-6e3d50bfa094","system_id":"levelo_inurba_marseille","lat":43.231923,"lon":5.355545,"is_reserved":false,"is_disabled":false,"rental_uris":{"android":"levelo://app?vid=956fe110-a343-4414-91a1-6e3d50bfa094","ios":"levelo://app?vid=956fe110-a343-4414-91a1-6e3d50bfa094"},"vehicle_type_id":"4","last_reported":1679186553,"current_range_meters":31200,"station_id":"ce4bhu92rcd13ifvqi70","pricing_plan_id":"free"},{"bike_id":"c4a765e8-1981-4501-b559-fd423b924ef4","system_id":"levelo_inurba_marseille","lat":43.231923,"lon":5.355545,"is_reserved":false,"is_disabled":false,"rental_uris":{"android":"levelo://app?vid=c4a765e8-1981-4501-b559-fd423b924ef4","ios":"levelo://app?vid=c4a765e8-1981-4501-b559-fd423b924ef4"},"vehicle_type_id":"4","last_reported":1679186553,"current_range_meters":27200,"station_id":"ce4bhu92rcd13ifvqi70","pricing_plan_id":"free"},{"bike_id":"8057768e-761b-41d6-916d-02a9ceb83bc6","system_id":"levelo_inurba_marseille","lat":43.23192,"lon":5.355562,"is_reserved":false,"is_disabled":false,"rental_uris":{"android":"levelo://app?vid=8057768e-761b-41d6-916d-02a9ceb83bc6","ios":"levelo://app?vid=8057768e-761b-41d6-916d-02a9ceb83bc6"},"vehicle_type_id":"4","last_reported":1679186553,"current_range_meters":27600,"station_id":"ce4bhu92rcd13ifvqi70","pricing_plan_id":"free"},{"bike_id":"9396a642-8421-4ca9-b20d-a2492104caf9","system_id":"levelo_inurba_marseille","lat":43.23192,"lon":5.35556,"is_reserved":false,"is_disabled":false,"rental_uris":{"android":"levelo://app?vid=9396a642-8421-4ca9-b20d-a2492104caf9","ios":"levelo://app?vid=9396a642-8421-4ca9-b20d-a2492104caf9"},"vehicle_type_id":"4","last_reported":1679186553,"current_range_meters":30000,"station_id":"","pricing_plan_id":"free"},{"bike_id":"ff98316f-748f-4069-a942-b27635abd352","system_id":"levelo_inurba_marseille","lat":43.231923,"lon":5.355545,"is_reserved":false,"is_disabled":false,"rental_uris":{"android":"levelo://app?vid=ff98316f-748f-4069-a942-b27635abd352","ios":"levelo://app?vid=ff98316f-748f-4069-a942-b27635abd352"},"vehicle_type_id":"4","last_reported":1679186553,"current_range_meters":31600,"station_id":"ce4bhu92rcd13ifvqi70","pricing_plan_id":"free"},{"bike_id":"e8fea5b7-48a9-48c9-b449-fe6211bd9de6","system_id":"levelo_inurba_marseille","lat":43.231923,"lon":5.355545,"is_reserved":false,"is_disabled":false,"rental_uris":{"android":"levelo://app?vid=e8fea5b7-48a9-48c9-b449-fe6211bd9de6","ios":"levelo://app?vid=e8fea5b7-48a9-48c9-b449-fe6211bd9de6"},"vehicle_type_id":"4","last_reported":1679186553,"current_range_meters":27200,"station_id":"ce4bhu92rcd13ifvqi70","pricing_plan_id":"free"},{"bike_id":"aa784494-bcc8-4b38-921b-25d4252dc6ab","system_id":"levelo_inurba_marseille","lat":43.23191,"lon":5.35553,"is_reserved":false,"is_disabled":false,"rental_uris":{"android":"levelo://app?vid=aa784494-bcc8-4b38-921b-25d4252dc6ab","ios":"levelo://app?vid=aa784494-bcc8-4b38-921b-25d4252dc6ab"},"vehicle_type_id":"4","last_reported":1679186553,"current_range_meters":8800,"station_id":"ce4bhu92rcd13ifvqi70","pricing_plan_id":"free"},{"bike_id":"0010ebe6-0da4-49c8-96ff-1cfa6d1925a0","system_id":"levelo_inurba_marseille","lat":43.2319,"lon":5.35556,"is_reserved":false,"is_disabled":false,"rental_uris":{"android":"levelo://app?vid=0010ebe6-0da4-49c8-96ff-1cfa6d1925a0","ios":"levelo://app?vid=0010ebe6-0da4-49c8-96ff-1cfa6d1925a0"},"vehicle_type_id":"4","last_reported":1679186553,"current_range_meters":26000,"station_id":"ce4bhu92rcd13ifvqi70","pricing_plan_id":"free"}]}}