{"last_updated":1758132821,"ttl":60,"version":"2.2","data":{"bikes":[{"bike_id":"d765e876-dc94-417e-ad8c-0ac49bf5261a","system_id":"levelo_inurba_marseille","lat":43.3343,"lon":5.36382,"is_reserved":false,"is_disabled":false,"rental_uris":{"android":"levelo://app?vid=d765e876-dc94-417e-ad8c-0ac49bf5261a","ios":"levelo://app?vid=d765e876-dc94-417e-ad8c-0ac49bf5261a"},"vehicle_type_id":"4","last_reported":1758132821,"current_range_meters":2800,"station_id":"","pricing_plan_id":"cebpf4jnsgd1na2vs0mg"},{"bike_id":"27845fff-9600-4edb-9d11-e33a0d9664ca","system_id":"levelo_inurba_marseille","lat":43.29869,"lon":5.39731,"is_reserved":false,"is_disabled":false,"rental_uris":{"android":"levelo://app?vid=27845fff-9600-4edb-9d11-e33a0d9664ca","ios":"levelo://app?vid=27845fff-9600-4edb-9d11-e33a0d9664ca"},"vehicle_type_id":"4","last_reported":1758132821,"current_range_meters":2800,"station_id":"ce4bh0h2rcd13ifvqd50","pricing_plan_id":"cebpf4jnsgd1na2vs0mg"},{"bike_id":"68c3b0fd-499b-43c1-a0a4-76260790347d","system_id":"levelo_inurba_marseille","lat":43.307975,"lon":5.435301,"is_reserved":false,"is_disabled":false,"rental_uris":{"android":"levelo://app?vid=68c3b0fd-499b-43c1-a0a4-76260790347d","ios":"levelo://app?vid=68c3b0fd-499b-43c1-a0a4-76260790347d"},"vehicle_type_id":"4","last_reported":1758132821,"current_range_meters":2800,"station_id":"ce4bhph2rcd13ifvqheg","pricing_plan_id":"cebpf4jnsgd1na2vs0mg"},{"bike_id":"76b8342c-e665-4599-bc8b-e0d01a6dc59c","system_id":"levelo_inurba_marseille","lat":43.25702,"lon":5.41113,"is_reserved":false,"is_disabled":false,"rental_uris":{"android":"levelo://app?vid=76b8342c-e665-4599-bc8b-e0d01a6dc59c","ios":"levelo://app?vid=76b8342c-e665-4599-bc8b-e0d01a6dc59c"},"vehicle_type_id":"4","last_reported":1758132821,"current_range_meters":2800,"station_id":"ce4bhkp2rcd13ifvqgd0","pricing_plan_id":"cebpf4jnsgd1na2vs0mg"},{"bike_id":"07b71641-b32a-4042-ab22-70a8d186db15","system_id":"levelo_inurba_marseille","lat":43.295318,"lon":5.385414,"is_reserved":false,"is_disabled":false,"rental_uris":{"android":"levelo://app?vid=07b71641-b32a-4042-ab22-70a8d186db15","ios":"levelo://app?vid=07b71641-b32a-4042-ab22-70a8d186db15"},"vehicle_type_id":"4","last_reported":1758132821,"current_range_meters":3200,"station_id":"ce4bgih2rcd13ifvqba0","pricing_plan_id":"cebpf4jnsgd1na2vs0mg"},{"bike_id":"5d48e186-d2d5-43b6-b2f1-c83dbd3cced0","system_id":"levelo_inurba_marseille","lat":43.25717,"lon":5.41114,"is_reserved":false,"is_disabled":false,"rental_uris":{"android":"levelo://app?vid=5d48e186-d2d5-43b6-b2f1-c83dbd3cced0","ios":"levelo://app?vid=5d48e186-d2d5-43b6-b2f1-c83dbd3cced0"},"vehicle_type_id":"4","last_reported":1758132821,"current_range_meters":3200,"station_id":"ce4bhkp2rcd13ifvqgd0","pricing_plan_id":"cebpf4jnsgd1na2vs0mg"},{"bike_id":"322c1f5a-85db-4ef6-bcd4-1b5c417c8ee0","system_id":"levelo_inurba_marseille","lat":43.3377,"lon":5.37488,"is_reserved":false,"is_disabled":false,"rental_uris":{"android":"levelo://app?vid=322c1f5a-85db-4ef6-bcd4-1b5c417c8ee0","ios":"levelo://app?vid=322c1f5a-85db-4ef6-bcd4-1b5c417c8ee0"},"vehicle_type_id":"4","last_reported":1758132821,"current_range_meters":3200,"station_id":"","pricing_plan_id":"cebpf4jnsgd1na2vs0mg"},{"bike_id":"a288ee11-20da-4354-b5b0-83a3653d6a00","system_id":"levelo_inurba_marseille","lat":43.22488,"lon":5.34802,"is_reserved":false,"is_disabled":false,"rental_uris":{"android":"levelo://app?vid=a288ee11-20da-4354-b5b0-83a3653d6a00","ios":"levelo://app?vid=a288ee11-20da-4354-b5b0-83a3653d6a00"},"vehicle_type_id":"4","last_reported":1758132821,"current_range_meters":3200,"station_id":"","pricing_plan_id":"cebpf4jnsgd1na2vs0mg"},{"bike_id":"8f5cef69-0784-44f0-81a3-49e307a89a88","system_id":"levelo_inurba_marseille","lat":43.27065,"lon":5.42283,"is_reserved":false,"is_disabled":false,"rental_uris":{"android":"levelo://app?vid=8f5cef69-0784-44f0-81a3-49e307a89a88","ios":"levelo://app?vid=8f5cef69-0784-44f0-81a3-49e307a89a88"},"vehicle_type_id":"4","last_reported":1758132821,"current_range_meters":3600,"station_id":"ce4bhk92rcd13ifvqgb0","pricing_plan_id":"cebpf4jnsgd1na2vs0mg"},{"bike_id":"bf1f0dd3-5093-434c-b641-1612bc54d8d4","system_id":"levelo_inurba_marseille","lat":43.24699,"lon":5.39972,"is_reserved":false,"is_disabled":false,"rental_uris":{"android":"levelo://app?vid=bf1f0dd3-5093-434c-b641-1612bc54d8d4","ios":"levelo://app?vid=bf1f0dd3-5093-434c-b641-1612bc54d8d4"},"vehicle_type_id":"4","last_reported":1758132821,"current_range_meters":3600,"station_id":"","pricing_plan_id":"cebpf4jnsgd1na2vs0mg"},{"bike_id":"de11473f-cc84-477f-bda9-33e8393c9483","system_id":"levelo_inurba_marseille","lat":43.23962,"lon":5.36634,"is_reserved":false,"is_disabled":false,"rental_uris":{"android":"levelo://app?vid=de11473f-cc84-477f-bda9-33e8393c9483","ios":"levelo://app?vid=de11473f-cc84-477f-bda9-33e8393c9483"},"vehicle_type_id":"4","last_reported":1758132821,"current_range_meters":3200,"station_id":"ce4bhi12rcd13ifvqfp0","pricing_plan_id":"cebpf4jnsgd1na2vs0mg"},{"bike_id":"979ff122-7c9e-4b0a-b11f-87ce9ea6569b","system_id":"levelo_inurba_marseille","lat":43.31662,"lon":5.39954,"is_reserved":false,"is_disabled":false,"rental_uris":{"android":"levelo://app?vid=979ff122-7c9e-4b0a-b11f-87ce9ea6569b","ios":"levelo://app?vid=979ff122-7c9e-4b0a-b11f-87ce9ea6569b"},"vehicle_type_id":"4","last_reported":1758132821,"current_range_meters":3600,"station_id":"","pricing_plan_id":"cebpf4jnsgd1na2vs0mg"},{"bike_id":"9dade191-0aaa-4744-ad03-ea52a909e2f3","system_id":"levelo_inurba_marseille","lat":43.31884,"lon":5.40741,"is_reserved":false,"is_disabled":false,"rental_uris":{"android":"levelo://app?vid=9dade191-0aaa-4744-ad03-ea52a909e2f3","ios":"levelo://app?vid=9dade191-0aaa-4744-ad03-ea52a909e2f3"},"vehicle_type_id":"4","last_reported":1758132821,"current_range_meters":3600,"station_id":"ce4bhq12rcd13ifvqhig","pricing_plan_id":"cebpf4jnsgd1na2vs0mg"},{"bike_id":"a4d1d1de-e6e1-415a-b8f8-7290c72b5f36","system_id":"levelo_inurba_marseille","lat":43.27967,"lon":5.38739,"is_reserved":false,"is_disabled":false,"rental_uris":{"android":"levelo://app?vid=a4d1d1de-e6e1-415a-b8f8-7290c72b5f36","ios":"levelo://app?vid=a4d1d1de-e6e1-415a-b8f8-7290c72b5f36"},"vehicle_type_id":"4","last_reported":1758132821,"current_range_meters":3600,"station_id":"ce4bhg12rcd13ifvqf80","pricing_plan_id":"cebpf4jnsgd1na2vs0mg"},{"bike_id":"b36483e4-07c0-4fac-88ce-8a5c4608b2f6","system_id":"levelo_inurba_marseille","lat":43.29256,"lon":5.40912,"is_reserved":false,"is_disabled":false,"rental_uris":{"android":"levelo://app?vid=b36483e4-07c0-4fac-88ce-8a5c4608b2f6","ios":"levelo://app?vid=b36483e4-07c0-4fac-88ce-8a5c4608b2f6"},"vehicle_type_id":"4","last_reported":1758132821,"current_range_meters":4000,"station_id":"ce4bh192rcd13ifvqdc0","pricing_plan_id":"cebpf4jnsgd1na2vs0mg"},{"bike_id":"a7b169ab-9544-49c0-a6b3-323d00916642","system_id":"levelo_inurba_marseille","lat":43.26499,"lon":5.39068,"is_reserved":false,"is_disabled":false,"rental_uris":{"android":"levelo://app?vid=a7b169ab-9544-49c0-a6b3-323d00916642","ios":"levelo://app?vid=a7b169ab-9544-49c0-a6b3-323d00916642"},"vehicle_type_id":"4","last_reported":1758132821,"current_range_meters":4000,"station_id":"","pricing_plan_id":"cebpf4jnsgd1na2vs0mg"},{"bike_id":"c3ad4594-4e4a-42f9-93e2-c25c45a735b2","system_id":"levelo_inurba_marseille","lat":43.28867,"lon":5.42532,"is_reserved":false,"is_disabled":false,"rental_uris":{"android":"levelo://app?vid=c3ad4594-4e4a-42f9-93e2-c25c45a735b2","ios":"levelo://app?vid=c3ad4594-4e4a-42f9-93e2-c25c45a735b2"},"vehicle_type_id":"4","last_reported":1758132821,"current_range_meters":4000,"station_id":"","pricing_plan_id":"cebpf4jnsgd1na2vs0mg"},{"bike_id":"2763cedf-8e0e-4179-a945-ba4c5545e4a3","system_id":"levelo_inurba_marseille","lat":43.29883,"lon":5.38908,"is_reserved":false,"is_disabled":false,"rental_uris":{"android":"levelo://app?vid=2763cedf-8e0e-4179-a945-ba4c5545e4a3","ios":"levelo://app?vid=2763cedf-8e0e-4179-a945-ba4c5545e4a3"},"vehicle_type_id":"4","last_reported":1758132821,"current_range_meters":4000,"station_id":"ce4bh392rcd13ifvqdl0","pricing_plan_id":"cebpf4jnsgd1na2vs0mg"},{"bike_id":"cf6576e5-4fa8-42ae-bdd1-1283ee380eec","system_id":"levelo_inurba_marseille","lat":43.31114,"lon":5.37763,"is_reserved":false,"is_disabled":false,"rental_uris":{"android":"levelo://app?vid=cf6576e5-4fa8-42ae-bdd1-1283ee380eec","ios":"levelo://app?vid=cf6576e5-4fa8-42ae-bdd1-1283ee380eec"},"vehicle_type_id":"4","last_reported":1758132821,"current_range_meters":4400,"station_id":"ce4bgt92rcd13ifvqcg0","pricing_plan_id":"cebpf4jnsgd1na2vs0mg"},{"bike_id":"c07e7a2d-d8a6-4efd-8723-e965be4d1a74","system_id":"levelo_inurba_marseille","lat":43.22533,"lon":5.348367,"is_reserved":false,"is_disabled":false,"rental_uris":{"android":"levelo://app?vid=c07e7a2d-d8a6-4efd-8723-e965be4d1a74","ios":"levelo://app?vid=c07e7a2d-d8a6-4efd-8723-e965be4d1a74"},"vehicle_type_id":"4","last_reported":1758132821,"current_range_meters":4400,"station_id":"","pricing_plan_id":"cebpf4jnsgd1na2vs0mg"},{"bike_id":"cf683d54-1707-410d-8f0a-96b4729623c1","system_id":"levelo_inurba_marseille","lat":43.29851,"lon":5.38922,"is_reserved":false,"is_disabled":false,"rental_uris":{"android":"levelo://app?vid=cf683d54-1707-410d-8f0a-96b4729623c1","ios":"levelo://app?vid=cf683d54-1707-410d-8f0a-96b4729623c1"},"vehicle_type_id":"4","last_reported":1758132821,"current_range_meters":4800,"station_id":"ce4bh392rcd13ifvqdl0","pricing_plan_id":"cebpf4jnsgd1na2vs0mg"},{"bike_id":"03d608e4-f6cc-4d6a-a363-b20960dea9de","system_id":"levelo_inurba_marseille","lat":43.30326,"lon":5.40434,"is_reserved":false,"is_disabled":false,"rental_uris":{"android":"levelo://app?vid=03d608e4-f6cc-4d6a-a363-b20960dea9de","ios":"levelo://app?vid=03d608e4-f6cc-4d6a-a363-b20960dea9de"},"vehicle_type_id":"4","last_reported":1758132821,"current_range_meters":4400,"station_id":"ce4bh012rcd13ifvqd10","pricing_plan_id":"cebpf4jnsgd1na2vs0mg"},{"bike_id":"1f190aee-b3c1-4ae9-8d3d-34151ef5abba","system_id":"levelo_inurba_marseille","lat":43.30251,"lon":5.40084,"is_reserved":false,"is_disabled":false,"rental_uris":{"android":"levelo://app?vid=1f190aee-b3c1-4ae9-8d3d-34151ef5abba","ios":"levelo://app?vid=1f190aee-b3c1-4ae9-8d3d-34151ef5abba"},"vehicle_type_id":"4","last_reported":1758132821,"current_range_meters":4800,"station_id":"ce4bgvh2rcd13ifvqcs0","pricing_plan_id":"cebpf4jnsgd1na2vs0mg"},{"bike_id":"5c9a72e5-5a8c-40f8-8cf5-4561290136e1","system_id":"levelo_inurba_marseille","lat":43.3054,"lon":5.36556,"is_reserved":false,"is_disabled":false,"rental_uris":{"android":"levelo://app?vid=5c9a72e5-5a8c-40f8-8cf5-4561290136e1","ios":"levelo://app?vid=5c9a72e5-5a8c-40f8-8cf5-4561290136e1"},"vehicle_type_id":"4","last_reported":1758132821,"current_range_meters":4800,"station_id":"ce4bgs12rcd13ifvqcag","pricing_plan_id":"cebpf4jnsgd1na2vs0mg"},{"bike_id":"3399316b-e5d3-4fd0-a16c-6ebfe051177c","system_id":"levelo_inurba_marseille","lat":43.265781,"lon":5.394845,"is_reserved":false,"is_disabled":false,"rental_uris":{"android":"levelo://app?vid=3399316b-e5d3-4fd0-a16c-6ebfe051177c","ios":"levelo://app?vid=3399316b-e5d3-4fd0-a16c-6ebfe051177c"},"vehicle_type_id":"4","last_reported":1758132821,"current_range_meters":4400,"station_id":"ce4bhi12rcd13ifvqfq0","pricing_plan_id":"cebpf4jnsgd1na2vs0mg"},{"bike_id":"9c5d74aa-a202-49ad-a18c-7558ec382055","system_id":"levelo_inurba_marseille","lat":43.29029,"lon":5.38129,"is_reserved":false,"is_disabled":false,"rental_uris":{"android":"levelo://app?vid=9c5d74aa-a202-49ad-a18c-7558ec382055","ios":"levelo://app?vid=9c5d74aa-a202-49ad-a18c-7558ec382055"},"vehicle_type_id":"4","last_reported":1758132821,"current_range_meters":4800,"station_id":"ce4bh4p2rcd13ifvqe1g","pricing_plan_id":"cebpf4jnsgd1na2vs0mg"},{"bike_id":"7c97a7a3-e0b8-4113-9448-e439198e2af9","system_id":"levelo_inurba_marseille","lat":43.30801,"lon":5.43529,"is_reserved":false,"is_disabled":false,"rental_uris":{"android":"levelo://app?vid=7c97a7a3-e0b8-4113-9448-e439198e2af9","ios":"levelo://app?vid=7c97a7a3-e0b8-4113-9448-e439198e2af9"},"vehicle_type_id":"4","last_reported":1758132821,"current_range_meters":4800,"station_id":"ce4bhph2rcd13ifvqheg","pricing_plan_id":"cebpf4jnsgd1na2vs0mg"},{"bike_id":"daa1d259-a3f9-49f6-aff4-52841da8dcb3","system_id":"levelo_inurba_marseille","lat":43.28384,"lon":5.37526,"is_reserved":false,"is_disabled":false,"rental_uris":{"android":"levelo://app?vid=daa1d259-a3f9-49f6-aff4-52841da8dcb3","ios":"levelo://app?vid=daa1d259-a3f9-49f6-aff4-52841da8dcb3"},"vehicle_type_id":"4","last_reported":1758132821,"current_range_meters":4800,"station_id":"ce4bh412rcd13ifvqds0","pricing_plan_id":"cebpf4jnsgd1na2vs0mg"},{"bike_id":"e7ed0036-7160-42be-9393-0c456b0a169c","system_id":"levelo_inurba_marseille","lat":43.29962,"lon":5.38497,"is_reserved":false,"is_disabled":false,"rental_uris":{"android":"levelo://app?vid=e7ed0036-7160-42be-9393-0c456b0a169c","ios":"levelo://app?vid=e7ed0036-7160-42be-9393-0c456b0a169c"},"vehicle_type_id":"4","last_reported":1758132821,"current_range_meters":5600,"station_id":"ce4bgj92rcd13ifvqbd0","pricing_plan_id":"cebpf4jnsgd1na2vs0mg"},{"bike_id":"4ec12827-de76-4d85-8a3c-7e66ede5c3f2","system_id":"levelo_inurba_marseille","lat":43.29569,"lon":5.39964,"is_reserved":false,"is_disabled":false,"rental_uris":{"android":"levelo://app?vid=4ec12827-de76-4d85-8a3c-7e66ede5c3f2","ios":"levelo://app?vid=4ec12827-de76-4d85-8a3c-7e66ede5c3f2"},"vehicle_type_id":"4","last_reported":1758132821,"current_range_meters":5600,"station_id":"ce4bh312rcd13ifvqdj0","pricing_plan_id":"cebpf4jnsgd1na2vs0mg"},{"bike_id":"716e5300-b208-41dd-b274-1d6e58914318","system_id":"levelo_inurba_marseille","lat":43.295225,"lon":5.390425,"is_reserved":false,"is_disabled":false,"rental_uris":{"android":"levelo://app?vid=716e5300-b208-41dd-b274-1d6e58914318","ios":"levelo://app?vid=716e5300-b208-41dd-b274-1d6e58914318"},"vehicle_type_id":"4","last_reported":1758132821,"current_range_meters":5600,"station_id":"ce4bh3p2rcd13ifvqdp0","pricing_plan_id":"cebpf4jnsgd1na2vs0mg"},{"bike_id":"690b2ad9-2bc6-4024-95d1-95b998ee6573","system_id":"levelo_inurba_marseille","lat":43.31723,"lon":5.42401,"is_reserved":false,"is_disabled":false,"rental_uris":{"android":"levelo://app?vid=690b2ad9-2bc6-4024-95d1-95b998ee6573","ios":"levelo://app?vid=690b2ad9-2bc6-4024-95d1-95b998ee6573"},"vehicle_type_id":"4","last_reported":1758132821,"current_range_meters":6000,"station_id":"ce4bhp92rcd13ifvqhbg","pricing_plan_id":"cebpf4jnsgd1na2vs0mg"},{"bike_id":"f24ed20a-b65b-41bc-bad1-0b89825fcc7d","system_id":"levelo_inurba_marseille","lat":43.30931,"lon":5.40171,"is_reserved":false,"is_disabled":false,"rental_uris":{"android":"levelo://app?vid=f24ed20a-b65b-41bc-bad1-0b89825fcc7d","ios":"levelo://app?vid=f24ed20a-b65b-41bc-bad1-0b89825fcc7d"},"vehicle_type_id":"4","last_reported":1758132821,"current_range_meters":6000,"station_id":"ce4bgvp2rcd13ifvqct0","pricing_plan_id":"cebpf4jnsgd1na2vs0mg"},{"bike_id":"fbcabeb8-b5c0-464c-8b99-afcceab2bbf4","system_id":"levelo_inurba_marseille","lat":43.30186,"lon":5.36635,"is_reserved":false,"is_disabled":false,"rental_uris":{"android":"levelo://app?vid=fbcabeb8-b5c0-464c-8b99-afcceab2bbf4","ios":"levelo://app?vid=fbcabeb8-b5c0-464c-8b99-afcceab2bbf4"},"vehicle_type_id":"4","last_reported":1758132821,"current_range_meters":5600,"station_id":"ce4bgrh2rcd13ifvqc8g","pricing_plan_id":"cebpf4jnsgd1na2vs0mg"},{"bike_id":"562ab3b6-d88e-4a26-8755-481c9b6f8a60","system_id":"levelo_inurba_marseille","lat":43.30419,"lon":5.41291,"is_reserved":false,"is_disabled":false,"rental_uris":{"android":"levelo://app?vid=562ab3b6-d88e-4a26-8755-481c9b6f8a60","ios":"levelo://app?vid=562ab3b6-d88e-4a26-8755-481c9b6f8a60"},"vehicle_type_id":"4","last_reported":1758132821,"current_range_meters":6000,"station_id":"ce4bhop2rcd13ifvqh8g","pricing_plan_id":"cebpf4jnsgd1na2vs0mg"},{"bike_id":"80278d9c-6f00-4562-acd6-97dca68dfbfe","system_id":"levelo_inurba_marseille","lat":43.29527,"lon":5.38548,"is_reserved":false,"is_disabled":false,"rental_uris":{"android":"levelo://app?vid=80278d9c-6f00-4562-acd6-97dca68dfbfe","ios":"levelo://app?vid=80278d9c-6f00-4562-acd6-97dca68dfbfe"},"vehicle_type_id":"4","last_reported":1758132821,"current_range_meters":6400,"station_id":"ce4bgih2rcd13ifvqba0","pricing_plan_id":"cebpf4jnsgd1na2vs0mg"},{"bike_id":"e0d90ae9-b2e5-4500-9cbe-d6e0e75dbfc5","system_id":"levelo_inurba_marseille","lat":43.24541,"lon":5.39531,"is_reserved":false,"is_disabled":false,"rental_uris":{"android":"levelo://app?vid=e0d90ae9-b2e5-4500-9cbe-d6e0e75dbfc5","ios":"levelo://app?vid=e0d90ae9-b2e5-4500-9cbe-d6e0e75dbfc5"},"vehicle_type_id":"4","last_reported":1758132821,"current_range_meters":6400,"station_id":"ce4bhlp2rcd13ifvqgjg","pricing_plan_id":"cebpf4jnsgd1na2vs0mg"},{"bike_id":"c6cee574-ca65-4512-a86a-ab47ccb015f7","system_id":"levelo_inurba_marseille","lat":43.28095,"lon":5.3784,"is_reserved":false,"is_disabled":false,"rental_uris":{"android":"levelo://app?vid=c6cee574-ca65-4512-a86a-ab47ccb015f7","ios":"levelo://app?vid=c6cee574-ca65-4512-a86a-ab47ccb015f7"},"vehicle_type_id":"4","last_reported":1758132821,"current_range_meters":13600,"station_id":"ce4bha12rcd13ifvqee0","pricing_plan_id":"cebpf4jnsgd1na2vs0mg"},{"bike_id":"32ca9d94-8781-4edc-b80f-cdc9cf1fb9fc","system_id":"levelo_inurba_marseille","lat":43.21752,"lon":5.34597,"is_reserved":false,"is_disabled":true,"rental_uris":{"android":"levelo://app?vid=32ca9d94-8781-4edc-b80f-cdc9cf1fb9fc","ios":"levelo://app?vid=32ca9d94-8781-4edc-b80f-cdc9cf1fb9fc"},"vehicle_type_id":"4","last_reported":1758132821,"current_range_meters":6400,"station_id":"st_cvj6r9ubvosntc0bgbag","pricing_plan_id":"cebpf4jnsgd1na2vs0mg"},{"bike_id":"6ce3762e-c07d-4f48-b4f8-45a74efbe3e7","system_id":"levelo_inurba_marseille","lat":43.31885,"lon":5.40733,"is_reserved":false,"is_disabled":false,"rental_uris":{"android":"levelo://app?vid=6ce3762e-c07d-4f48-b4f8-45a74efbe3e7","ios":"levelo://app?vid=6ce3762e-c07d-4f48-b4f8-45a74efbe3e7"},"vehicle_type_id":"4","last_reported":1758132821,"current_range_meters":6800,"station_id":"ce4bhq12rcd13ifvqhig","pricing_plan_id":"cebpf4jnsgd1na2vs0mg"},{"bike_id":"4e8df986-329f-4641-804c-4f1628745aee","system_id":"levelo_inurba_marseille","lat":43.3171,"lon":5.37749,"is_reserved":false,"is_disabled":false,"rental_uris":{"android":"levelo://app?vid=4e8df986-329f-4641-804c-4f1628745aee","ios":"levelo://app?vid=4e8df986-329f-4641-804c-4f1628745aee"},"vehicle_type_id":"4","last_reported":1758132821,"current_range_meters":6800,"station_id":"","pricing_plan_id":"cebpf4jnsgd1na2vs0mg"},{"bike_id":"13d4eea8-9844-42fe-8267-eaf155e127a2","system_id":"levelo_inurba_marseille","lat":43.2998,"lon":5.37178,"is_reserved":false,"is_disabled":true,"rental_uris":{"android":"levelo://app?vid=13d4eea8-9844-42fe-8267-eaf155e127a2","ios":"levelo://app?vid=13d4eea8-9844-42fe-8267-eaf155e127a2"},"vehicle_type_id":"4","last_reported":1758132821,"current_range_meters":6800,"station_id":"","pricing_plan_id":"cebpf4jnsgd1na2vs0mg"},{"bike_id":"c9663e89-1884-4dfe-81e9-3d530f9908e1","system_id":"levelo_inurba_marseille","lat":43.24545,"lon":5.39524,"is_reserved":false,"is_disabled":false,"rental_uris":{"android":"levelo://app?vid=c9663e89-1884-4dfe-81e9-3d530f9908e1","ios":"levelo://app?vid=c9663e89-1884-4dfe-81e9-3d530f9908e1"},"vehicle_type_id":"4","last_reported":1758132821,"current_range_meters":6800,"station_id":"ce4bhlp2rcd13ifvqgjg","pricing_plan_id":"cebpf4jnsgd1na2vs0mg"},{"bike_id":"cac4472a-2b1e-4adc-b27f-2e66b6afd57d","system_id":"levelo_inurba_marseille","lat":43.30137,"lon":5.3983,"is_reserved":false,"is_disabled":false,"rental_uris":{"android":"levelo://app?vid=cac4472a-2b1e-4adc-b27f-2e66b6afd57d","ios":"levelo://app?vid=cac4472a-2b1e-4adc-b27f-2e66b6afd57d"},"vehicle_type_id":"4","last_reported":1758132821,"current_range_meters":6800,"station_id":"ce4bh0h2rcd13ifvqd40","pricing_plan_id":"cebpf4jnsgd1na2vs0mg"},{"bike_id":"be647011-8116-479d-93ea-c63d089421f7","system_id":"levelo_inurba_marseille","lat":43.32032,"lon":5.41558,"is_reserved":false,"is_disabled":false,"rental_uris":{"android":"levelo://app?vid=be647011-8116-479d-93ea-c63d089421f7","ios":"levelo://app?vid=be647011-8116-479d-93ea-c63d089421f7"},"vehicle_type_id":"4","last_reported":1758132821,"current_range_meters":6800,"station_id":"ce4bhq92rcd13ifvqhkg","pricing_plan_id":"cebpf4jnsgd1na2vs0mg"},{"bike_id":"e183c86e-9482-49c3-8502-016dc2a33f16","system_id":"levelo_inurba_marseille","lat":43.31995,"lon":5.38158,"is_reserved":false,"is_disabled":false,"rental_uris":{"android":"levelo://app?vid=e183c86e-9482-49c3-8502-016dc2a33f16","ios":"levelo://app?vid=e183c86e-9482-49c3-8502-016dc2a33f16"},"vehicle_type_id":"4","last_reported":1758132821,"current_range_meters":7200,"station_id":"ce4bhr12rcd13ifvqhpg","pricing_plan_id":"cebpf4jnsgd1na2vs0mg"},{"bike_id":"b94db76c-a883-4fe5-8cff-427a0350b40d","system_id":"levelo_inurba_marseille","lat":43.29269,"lon":5.38445,"is_reserved":false,"is_disabled":false,"rental_uris":{"android":"levelo://app?vid=b94db76c-a883-4fe5-8cff-427a0350b40d","ios":"levelo://app?vid=b94db76c-a883-4fe5-8cff-427a0350b40d"},"vehicle_type_id":"4","last_reported":1758132821,"current_range_meters":7200,"station_id":"ce4bh692rcd13ifvqea0","pricing_plan_id":"cebpf4jnsgd1na2vs0mg"},{"bike_id":"f895eb90-d970-4448-b096-5a166a903f92","system_id":"levelo_inurba_marseille","lat":43.26554,"lon":5.37293,"is_reserved":false,"is_disabled":true,"rental_uris":{"android":"levelo://app?vid=f895eb90-d970-4448-b096-5a166a903f92","ios":"levelo://app?vid=f895eb90-d970-4448-b096-5a166a903f92"},"vehicle_type_id":"4","last_reported":1758132821,"current_range_meters":8000,"station_id":"ce4bhg12rcd13ifvqf70","pricing_plan_id":"cebpf4jnsgd1na2vs0mg"},{"bike_id":"1b6a995d-34ac-45d5-9528-44d2f8bbd183","system_id":"levelo_inurba_marseille","lat":43.285171,"lon":5.359162,"is_reserved":false,"is_disabled":false,"rental_uris":{"android":"levelo://app?vid=1b6a995d-34ac-45d5-9528-44d2f8bbd183","ios":"levelo://app?vid=1b6a995d-34ac-45d5-9528-44d2f8bbd183"},"vehicle_type_id":"4","last_reported":1758132821,"current_range_meters":8000,"station_id":"","pricing_plan_id":"cebpf4jnsgd1na2vs0mg"},{"bike_id":"51118d9c-c764-41f4-b417-8898a441bc79","system_id":"levelo_inurba_marseille","lat":43.26936,"lon":5.38925,"is_reserved":false,"is_disabled":false,"rental_uris":{"android":"levelo://app?vid=51118d9c-c764-41f4-b417-8898a441bc79","ios":"levelo://app?vid=51118d9c-c764-41f4-b417-8898a441bc79"},"vehicle_type_id":"4","last_reported":1758132821,"current_range_meters":7200,"station_id":"ce4bhhh2rcd13ifvqfl0","pricing_plan_id":"cebpf4jnsgd1na2vs0mg"},{"bike_id":"181194e1-471e-41ff-9c1f-fdbfcf136db0","system_id":"levelo_inurba_marseille","lat":43.28941,"lon":5.36644,"is_reserved":false,"is_disabled":false,"rental_uris":{"android":"levelo://app?vid=181194e1-471e-41ff-9c1f-fdbfcf136db0","ios":"levelo://app?vid=181194e1-471e-41ff-9c1f-fdbfcf136db0"},"vehicle_type_id":"4","last_reported":1758132821,"current_range_meters":7200,"station_id":"ce4bhap2rcd13ifvqek0","pricing_plan_id":"cebpf4jnsgd1na2vs0mg"},{"bike_id":"1c8498c4-8d02-4bfa-9351-a109a6ce6b4f","system_id":"levelo_inurba_marseille","lat":43.28679,"lon":5.3866,"is_reserved":false,"is_disabled":true,"rental_uris":{"android":"levelo://app?vid=1c8498c4-8d02-4bfa-9351-a109a6ce6b4f","ios":"levelo://app?vid=1c8498c4-8d02-4bfa-9351-a109a6ce6b4f"},"vehicle_type_id":"4","last_reported":1758132821,"current_range_meters":8000,"station_id":"ce4bh492rcd13ifvqdug","pricing_plan_id":"cebpf4jnsgd1na2vs0mg"},{"bike_id":"c42f08db-e7aa-4121-a86f-b02b1e613ae1","system_id":"levelo_inurba_marseille","lat":43.29015,"lon":5.38125,"is_reserved":false,"is_disabled":false,"rental_uris":{"android":"levelo://app?vid=c42f08db-e7aa-4121-a86f-b02b1e613ae1","ios":"levelo://app?vid=c42f08db-e7aa-4121-a86f-b02b1e613ae1"},"vehicle_type_id":"4","last_reported":1758132821,"current_range_meters":8400,"station_id":"ce4bh4p2rcd13ifvqe1g","pricing_plan_id":"cebpf4jnsgd1na2vs0mg"},{"bike_id":"ef526b9e-c777-4a8f-9d06-ab9e76825ccb","system_id":"levelo_inurba_marseille","lat":43.25085,"lon":5.3951,"is_reserved":false,"is_disabled":false,"rental_uris":{"android":"levelo://app?vid=ef526b9e-c777-4a8f-9d06-ab9e76825ccb","ios":"levelo://app?vid=ef526b9e-c777-4a8f-9d06-ab9e76825ccb"},"vehicle_type_id":"4","last_reported":1758132821,"current_range_meters":8400,"station_id":"ce4bhm12rcd13ifvqgkg","pricing_plan_id":"cebpf4jnsgd1na2vs0mg"},{"bike_id":"d4e93f07-1d81-4734-b426-8482c2dbaa30","system_id":"levelo_inurba_marseille","lat":43.30798,"lon":5.43524,"is_reserved":false,"is_disabled":false,"rental_uris":{"android":"levelo://app?vid=d4e93f07-1d81-4734-b426-8482c2dbaa30","ios":"levelo://app?vid=d4e93f07-1d81-4734-b426-8482c2dbaa30"},"vehicle_type_id":"4","last_reported":1758132821,"current_range_meters":8400,"station_id":"ce4bhph2rcd13ifvqheg","pricing_plan_id":"cebpf4jnsgd1na2vs0mg"},{"bike_id":"3b26aa0d-3679-4b4c-9b55-1096f6d08a9d","system_id":"levelo_inurba_marseille","lat":43.31301,"lon":5.39398,"is_reserved":false,"is_disabled":false,"rental_uris":{"android":"levelo://app?vid=3b26aa0d-3679-4b4c-9b55-1096f6d08a9d","ios":"levelo://app?vid=3b26aa0d-3679-4b4c-9b55-1096f6d08a9d"},"vehicle_type_id":"4","last_reported":1758132821,"current_range_meters":8400,"station_id":"","pricing_plan_id":"cebpf4jnsgd1na2vs0mg"},{"bike_id":"9023d84f-8ef9-4749-9cb8-a2ef6b71e57a","system_id":"levelo_inurba_marseille","lat":43.27949,"lon":5.41057,"is_reserved":false,"is_disabled":true,"rental_uris":{"android":"levelo://app?vid=9023d84f-8ef9-4749-9cb8-a2ef6b71e57a","ios":"levelo://app?vid=9023d84f-8ef9-4749-9cb8-a2ef6b71e57a"},"vehicle_type_id":"4","last_reported":1758132821,"current_range_meters":8400,"station_id":"ce4bhnp2rcd13ifvqh0g","pricing_plan_id":"cebpf4jnsgd1na2vs0mg"},{"bike_id":"216f95b1-f799-4501-8e7d-d552c104f5e3","system_id":"levelo_inurba_marseille","lat":43.29303,"lon":5.3745,"is_reserved":false,"is_disabled":false,"rental_uris":{"android":"levelo://app?vid=216f95b1-f799-4501-8e7d-d552c104f5e3","ios":"levelo://app?vid=216f95b1-f799-4501-8e7d-d552c104f5e3"},"vehicle_type_id":"4","last_reported":1758132821,"current_range_meters":8000,"station_id":"ce4bgi12rcd13ifvqb70","pricing_plan_id":"cebpf4jnsgd1na2vs0mg"},{"bike_id":"b878969e-0167-4bb0-b49f-f2c086c9b3d9","system_id":"levelo_inurba_marseille","lat":43.26852,"lon":5.40685,"is_reserved":false,"is_disabled":false,"rental_uris":{"android":"levelo://app?vid=b878969e-0167-4bb0-b49f-f2c086c9b3d9","ios":"levelo://app?vid=b878969e-0167-4bb0-b49f-f2c086c9b3d9"},"vehicle_type_id":"4","last_reported":1758132821,"current_range_meters":8400,"station_id":"","pricing_plan_id":"cebpf4jnsgd1na2vs0mg"},{"bike_id":"409f5257-56fa-4150-bdff-704aef159af1","system_id":"levelo_inurba_marseille","lat":43.27555,"lon":5.38428,"is_reserved":false,"is_disabled":false,"rental_uris":{"android":"levelo://app?vid=409f5257-56fa-4150-bdff-704aef159af1","ios":"levelo://app?vid=409f5257-56fa-4150-bdff-704aef159af1"},"vehicle_type_id":"4","last_reported":1758132821,"current_range_meters":8400,"station_id":"ce4bhh92rcd13ifvqfi0","pricing_plan_id":"cebpf4jnsgd1na2vs0mg"},{"bike_id":"a1bccc3e-30ae-4af5-b7fb-fa51d9ba8e5f","system_id":"levelo_inurba_marseille","lat":43.22557,"lon":5.41637,"is_reserved":false,"is_disabled":false,"rental_uris":{"android":"levelo://app?vid=a1bccc3e-30ae-4af5-b7fb-fa51d9ba8e5f","ios":"levelo://app?vid=a1bccc3e-30ae-4af5-b7fb-fa51d9ba8e5f"},"vehicle_type_id":"4","last_reported":1758132821,"current_range_meters":8400,"station_id":"st_d2o4gvlbi1j2169b742g","pricing_plan_id":"cebpf4jnsgd1na2vs0mg"},{"bike_id":"336c74d9-d9c9-46d7-a94b-134b36ad023a","system_id":"levelo_inurba_marseille","lat":43.29858,"lon":5.37969,"is_reserved":false,"is_disabled":false,"rental_uris":{"android":"levelo://app?vid=336c74d9-d9c9-46d7-a94b-134b36ad023a","ios":"levelo://app?vid=336c74d9-d9c9-46d7-a94b-134b36ad023a"},"vehicle_type_id":"4","last_reported":1758132821,"current_range_meters":8800,"station_id":"","pricing_plan_id":"cebpf4jnsgd1na2vs0mg"},{"bike_id":"b46e706e-9285-4361-bc27-a24fe0a21db4","system_id":"levelo_inurba_marseille","lat":43.31708,"lon":5.43696,"is_reserved":false,"is_disabled":false,"rental_uris":{"android":"levelo://app?vid=b46e706e-9285-4361-bc27-a24fe0a21db4","ios":"levelo://app?vid=b46e706e-9285-4361-bc27-a24fe0a21db4"},"vehicle_type_id":"4","last_reported":1758132821,"current_range_meters":8800,"station_id":"ce4bhp92rcd13ifvqhcg","pricing_plan_id":"cebpf4jnsgd1na2vs0mg"},{"bike_id":"443426b7-6310-40da-8c89-42ff1a12dc2b","system_id":"levelo_inurba_marseille","lat":43.24078,"lon":5.37755,"is_reserved":false,"is_disabled":false,"rental_uris":{"android":"levelo://app?vid=443426b7-6310-40da-8c89-42ff1a12dc2b","ios":"levelo://app?vid=443426b7-6310-40da-8c89-42ff1a12dc2b"},"vehicle_type_id":"4","last_reported":1758132821,"current_range_meters":8400,"station_id":"ce4bhnp2rcd13ifvqgvg","pricing_plan_id":"cebpf4jnsgd1na2vs0mg"},{"bike_id":"690c677b-27e7-40a3-b8f1-122454d03577","system_id":"levelo_inurba_marseille","lat":43.270667,"lon":5.422798,"is_reserved":false,"is_disabled":false,"rental_uris":{"android":"levelo://app?vid=690c677b-27e7-40a3-b8f1-122454d03577","ios":"levelo://app?vid=690c677b-27e7-40a3-b8f1-122454d03577"},"vehicle_type_id":"4","last_reported":1758132821,"current_range_meters":6000,"station_id":"ce4bhk92rcd13ifvqgb0","pricing_plan_id":"cebpf4jnsgd1na2vs0mg"},{"bike_id":"0ede21be-37d9-4495-b672-80274a6292be","system_id":"levelo_inurba_marseille","lat":43.35059,"lon":5.34113,"is_reserved":false,"is_disabled":false,"rental_uris":{"android":"levelo://app?vid=0ede21be-37d9-4495-b672-80274a6292be","ios":"levelo://app?vid=0ede21be-37d9-4495-b672-80274a6292be"},"vehicle_type_id":"4","last_reported":1758132821,"current_range_meters":8800,"station_id":"","pricing_plan_id":"cebpf4jnsgd1na2vs0mg"},{"bike_id":"003515e8-8117-44bb-979d-5f47e8d50fda","system_id":"levelo_inurba_marseille","lat":43.30618,"lon":5.37574,"is_reserved":false,"is_disabled":false,"rental_uris":{"android":"levelo://app?vid=003515e8-8117-44bb-979d-5f47e8d50fda","ios":"levelo://app?vid=003515e8-8117-44bb-979d-5f47e8d50fda"},"vehicle_type_id":"4","last_reported":1758132821,"current_range_meters":9600,"station_id":"","pricing_plan_id":"cebpf4jnsgd1na2vs0mg"},{"bike_id":"775af279-8ac9-4585-9121-809be9b13265","system_id":"levelo_inurba_marseille","lat":43.33783,"lon":5.37442,"is_reserved":false,"is_disabled":false,"rental_uris":{"android":"levelo://app?vid=775af279-8ac9-4585-9121-809be9b13265","ios":"levelo://app?vid=775af279-8ac9-4585-9121-809be9b13265"},"vehicle_type_id":"4","last_reported":1758132821,"current_range_meters":9600,"station_id":"","pricing_plan_id":"cebpf4jnsgd1na2vs0mg"},{"bike_id":"05eeda8d-199a-458b-89bc-f4007da7d881","system_id":"levelo_inurba_marseille","lat":43.29305,"lon":5.37176,"is_reserved":false,"is_disabled":false,"rental_uris":{"android":"levelo://app?vid=05eeda8d-199a-458b-89bc-f4007da7d881","ios":"levelo://app?vid=05eeda8d-199a-458b-89bc-f4007da7d881"},"vehicle_type_id":"4","last_reported":1758132821,"current_range_meters":9600,"station_id":"ce4bgh92rcd13ifvqb40","pricing_plan_id":"cebpf4jnsgd1na2vs0mg"},{"bike_id":"50df05c5-9e78-4a32-8c15-ea1e068d3278","system_id":"levelo_inurba_marseille","lat":43.26938,"lon":5.3865,"is_reserved":false,"is_disabled":true,"rental_uris":{"android":"levelo://app?vid=50df05c5-9e78-4a32-8c15-ea1e068d3278","ios":"levelo://app?vid=50df05c5-9e78-4a32-8c15-ea1e068d3278"},"vehicle_type_id":"4","last_reported":1758132821,"current_range_meters":9600,"station_id":"ce4bhh92rcd13ifvqfh0","pricing_plan_id":"cebpf4jnsgd1na2vs0mg"},{"bike_id":"047a426e-2204-47be-af08-9e633095cb42","system_id":"levelo_inurba_marseille","lat":43.28693,"lon":5.39979,"is_reserved":false,"is_disabled":false,"rental_uris":{"android":"levelo://app?vid=047a426e-2204-47be-af08-9e633095cb42","ios":"levelo://app?vid=047a426e-2204-47be-af08-9e633095cb42"},"vehicle_type_id":"4","last_reported":1758132821,"current_range_meters":9200,"station_id":"ce4bho92rcd13ifvqh3g","pricing_plan_id":"cebpf4jnsgd1na2vs0mg"},{"bike_id":"0ac20b4b-a9b9-46e2-900f-5cf05390616f","system_id":"levelo_inurba_marseille","lat":43.2953,"lon":5.38552,"is_reserved":false,"is_disabled":false,"rental_uris":{"android":"levelo://app?vid=0ac20b4b-a9b9-46e2-900f-5cf05390616f","ios":"levelo://app?vid=0ac20b4b-a9b9-46e2-900f-5cf05390616f"},"vehicle_type_id":"4","last_reported":1758132821,"current_range_meters":9600,"station_id":"ce4bgih2rcd13ifvqba0","pricing_plan_id":"cebpf4jnsgd1na2vs0mg"},{"bike_id":"c58c85be-1e35-4873-9cb0-4f7304dfeea6","system_id":"levelo_inurba_marseille","lat":43.231915,"lon":5.399901,"is_reserved":false,"is_disabled":false,"rental_uris":{"android":"levelo://app?vid=c58c85be-1e35-4873-9cb0-4f7304dfeea6","ios":"levelo://app?vid=c58c85be-1e35-4873-9cb0-4f7304dfeea6"},"vehicle_type_id":"4","last_reported":1758132821,"current_range_meters":9600,"station_id":"ce4bhn12rcd13ifvqgqg","pricing_plan_id":"cebpf4jnsgd1na2vs0mg"},{"bike_id":"087b9c37-7cfd-4846-9cb6-12dadb09532d","system_id":"levelo_inurba_marseille","lat":43.29096,"lon":5.38137,"is_reserved":false,"is_disabled":false,"rental_uris":{"android":"levelo://app?vid=087b9c37-7cfd-4846-9cb6-12dadb09532d","ios":"levelo://app?vid=087b9c37-7cfd-4846-9cb6-12dadb09532d"},"vehicle_type_id":"4","last_reported":1758132821,"current_range_meters":9200,"station_id":"ce4bh512rcd13ifvqe2g","pricing_plan_id":"cebpf4jnsgd1na2vs0mg"},{"bike_id":"be550be2-a2ed-43bf-b18c-646836d305c3","system_id":"levelo_inurba_marseille","lat":43.2119,"lon":5.35076,"is_reserved":false,"is_disabled":false,"rental_uris":{"android":"levelo://app?vid=be550be2-a2ed-43bf-b18c-646836d305c3","ios":"levelo://app?vid=be550be2-a2ed-43bf-b18c-646836d305c3"},"vehicle_type_id":"4","last_reported":1758132821,"current_range_meters":10000,"station_id":"st_cvj6sg6p6f1abm77japg","pricing_plan_id":"cebpf4jnsgd1na2vs0mg"},{"bike_id":"fcd56ccc-f0ab-49ef-a538-8c498b5ecd49","system_id":"levelo_inurba_marseille","lat":43.22561,"lon":5.41634,"is_reserved":false,"is_disabled":false,"rental_uris":{"android":"levelo://app?vid=fcd56ccc-f0ab-49ef-a538-8c498b5ecd49","ios":"levelo://app?vid=fcd56ccc-f0ab-49ef-a538-8c498b5ecd49"},"vehicle_type_id":"4","last_reported":1758132821,"current_range_meters":10000,"station_id":"st_d2o4gvlbi1j2169b742g","pricing_plan_id":"cebpf4jnsgd1na2vs0mg"},{"bike_id":"57e10721-cfb1-4f3c-9f9d-a7cc5a1af08a","system_id":"levelo_inurba_marseille","lat":43.26933,"lon":5.38911,"is_reserved":false,"is_disabled":false,"rental_uris":{"android":"levelo://app?vid=57e10721-cfb1-4f3c-9f9d-a7cc5a1af08a","ios":"levelo://app?vid=57e10721-cfb1-4f3c-9f9d-a7cc5a1af08a"},"vehicle_type_id":"4","last_reported":1758132821,"current_range_meters":9600,"station_id":"ce4bhhh2rcd13ifvqfl0","pricing_plan_id":"cebpf4jnsgd1na2vs0mg"},{"bike_id":"bc35acc6-7472-44a2-875d-fbda2088f1c4","system_id":"levelo_inurba_marseille","lat":43.28571,"lon":5.39497,"is_reserved":false,"is_disabled":false,"rental_uris":{"android":"levelo://app?vid=bc35acc6-7472-44a2-875d-fbda2088f1c4","ios":"levelo://app?vid=bc35acc6-7472-44a2-875d-fbda2088f1c4"},"vehicle_type_id":"4","last_reported":1758132821,"current_range_meters":9600,"station_id":"ce4bh292rcd13ifvqdg0","pricing_plan_id":"cebpf4jnsgd1na2vs0mg"},{"bike_id":"3f9dec96-bbfe-422a-97f5-552c1de84a6e","system_id":"levelo_inurba_marseille","lat":43.25332,"lon":5.42175,"is_reserved":false,"is_disabled":false,"rental_uris":{"android":"levelo://app?vid=3f9dec96-bbfe-422a-97f5-552c1de84a6e","ios":"levelo://app?vid=3f9dec96-bbfe-422a-97f5-552c1de84a6e"},"vehicle_type_id":"4","last_reported":1758132821,"current_range_meters":10000,"station_id":"st_d2m65c5bi1j21697t3ng","pricing_plan_id":"cebpf4jnsgd1na2vs0mg"},{"bike_id":"dc056a5f-dd0c-437c-bb54-187cc2a010ce","system_id":"levelo_inurba_marseille","lat":43.29787,"lon":5.39345,"is_reserved":false,"is_disabled":true,"rental_uris":{"android":"levelo://app?vid=dc056a5f-dd0c-437c-bb54-187cc2a010ce","ios":"levelo://app?vid=dc056a5f-dd0c-437c-bb54-187cc2a010ce"},"vehicle_type_id":"4","last_reported":1758132821,"current_range_meters":10000,"station_id":"chh1huq6cuj3fo74tm60","pricing_plan_id":"cebpf4jnsgd1na2vs0mg"},{"bike_id":"e51d0a08-ed72-438f-87cb-8f9f8f6dcd31","system_id":"levelo_inurba_marseille","lat":43.25084,"lon":5.39519,"is_reserved":false,"is_disabled":false,"rental_uris":{"android":"levelo://app?vid=e51d0a08-ed72-438f-87cb-8f9f8f6dcd31","ios":"levelo://app?vid=e51d0a08-ed72-438f-87cb-8f9f8f6dcd31"},"vehicle_type_id":"4","last_reported":1758132821,"current_range_meters":10800,"station_id":"ce4bhm12rcd13ifvqgkg","pricing_plan_id":"cebpf4jnsgd1na2vs0mg"},{"bike_id":"f7d74e15-6986-4faf-931c-c870deead0e9","system_id":"levelo_inurba_marseille","lat":43.31879,"lon":5.40739,"is_reserved":false,"is_disabled":false,"rental_uris":{"android":"levelo://app?vid=f7d74e15-6986-4faf-931c-c870deead0e9","ios":"levelo://app?vid=f7d74e15-6986-4faf-931c-c870deead0e9"},"vehicle_type_id":"4","last_reported":1758132821,"current_range_meters":10800,"station_id":"ce4bhq12rcd13ifvqhig","pricing_plan_id":"cebpf4jnsgd1na2vs0mg"},{"bike_id":"1dc20174-e7c9-4de8-87b0-6b13fd969055","system_id":"levelo_inurba_marseille","lat":43.2872,"lon":5.3794,"is_reserved":false,"is_disabled":false,"rental_uris":{"android":"levelo://app?vid=1dc20174-e7c9-4de8-87b0-6b13fd969055","ios":"levelo://app?vid=1dc20174-e7c9-4de8-87b0-6b13fd969055"},"vehicle_type_id":"4","last_reported":1758132821,"current_range_meters":10800,"station_id":"ce4bh9p2rcd13ifvqec0","pricing_plan_id":"cebpf4jnsgd1na2vs0mg"},{"bike_id":"5cebaa99-7be9-4a3f-9cc0-5cdfdaef03f0","system_id":"levelo_inurba_marseille","lat":43.225319,"lon":5.348348,"is_reserved":false,"is_disabled":false,"rental_uris":{"android":"levelo://app?vid=5cebaa99-7be9-4a3f-9cc0-5cdfdaef03f0","ios":"levelo://app?vid=5cebaa99-7be9-4a3f-9cc0-5cdfdaef03f0"},"vehicle_type_id":"4","last_reported":1758132821,"current_range_meters":10800,"station_id":"","pricing_plan_id":"cebpf4jnsgd1na2vs0mg"},{"bike_id":"31507f51-eda7-44db-aeec-856bd2e0639f","system_id":"levelo_inurba_marseille","lat":43.28029,"lon":5.3696,"is_reserved":false,"is_disabled":false,"rental_uris":{"android":"levelo://app?vid=31507f51-eda7-44db-aeec-856bd2e0639f","ios":"levelo://app?vid=31507f51-eda7-44db-aeec-856bd2e0639f"},"vehicle_type_id":"4","last_reported":1758132821,"current_range_meters":10800,"station_id":"ce4bha12rcd13ifvqef0","pricing_plan_id":"cebpf4jnsgd1na2vs0mg"},{"bike_id":"ca5a1340-d41e-49f3-95f8-599734e0a36c","system_id":"levelo_inurba_marseille","lat":43.225336,"lon":5.348339,"is_reserved":false,"is_disabled":false,"rental_uris":{"android":"levelo://app?vid=ca5a1340-d41e-49f3-95f8-599734e0a36c","ios":"levelo://app?vid=ca5a1340-d41e-49f3-95f8-599734e0a36c"},"vehicle_type_id":"4","last_reported":1758132821,"current_range_meters":11200,"station_id":"","pricing_plan_id":"cebpf4jnsgd1na2vs0mg"},{"bike_id":"0903b8bd-08f9-4105-8e6e-ccbc20987662","system_id":"levelo_inurba_marseille","lat":43.2707,"lon":5.42283,"is_reserved":false,"is_disabled":false,"rental_uris":{"android":"levelo://app?vid=0903b8bd-08f9-4105-8e6e-ccbc20987662","ios":"levelo://app?vid=0903b8bd-08f9-4105-8e6e-ccbc20987662"},"vehicle_type_id":"4","last_reported":1758132821,"current_range_meters":11200,"station_id":"ce4bhk92rcd13ifvqgb0","pricing_plan_id":"cebpf4jnsgd1na2vs0mg"},{"bike_id":"d2d21405-7d84-46d6-9542-57aa659023fa","system_id":"levelo_inurba_marseille","lat":43.330894,"lon":5.379463,"is_reserved":false,"is_disabled":false,"rental_uris":{"android":"levelo://app?vid=d2d21405-7d84-46d6-9542-57aa659023fa","ios":"levelo://app?vid=d2d21405-7d84-46d6-9542-57aa659023fa"},"vehicle_type_id":"4","last_reported":1758132821,"current_range_meters":11200,"station_id":"","pricing_plan_id":"cebpf4jnsgd1na2vs0mg"},{"bike_id":"977a1f5f-10f4-403e-a8d0-1bba3050fe9c","system_id":"levelo_inurba_marseille","lat":43.31159,"lon":5.38721,"is_reserved":false,"is_disabled":false,"rental_uris":{"android":"levelo://app?vid=977a1f5f-10f4-403e-a8d0-1bba3050fe9c","ios":"levelo://app?vid=977a1f5f-10f4-403e-a8d0-1bba3050fe9c"},"vehicle_type_id":"4","last_reported":1758132821,"current_range_meters":11200,"station_id":"ce4bgv12rcd13ifvqcp0","pricing_plan_id":"cebpf4jnsgd1na2vs0mg"},{"bike_id":"44a77851-e677-4194-9d04-5b82df6e2b61","system_id":"levelo_inurba_marseille","lat":43.29001,"lon":5.37201,"is_reserved":false,"is_disabled":false,"rental_uris":{"android":"levelo://app?vid=44a77851-e677-4194-9d04-5b82df6e2b61","ios":"levelo://app?vid=44a77851-e677-4194-9d04-5b82df6e2b61"},"vehicle_type_id":"4","last_reported":1758132821,"current_range_meters":11200,"station_id":"ce4bh5p2rcd13ifvqe4g","pricing_plan_id":"cebpf4jnsgd1na2vs0mg"},{"bike_id":"b7233893-8a10-4559-bede-9056473e90e7","system_id":"levelo_inurba_marseille","lat":43.28704,"lon":5.39987,"is_reserved":false,"is_disabled":false,"rental_uris":{"android":"levelo://app?vid=b7233893-8a10-4559-bede-9056473e90e7","ios":"levelo://app?vid=b7233893-8a10-4559-bede-9056473e90e7"},"vehicle_type_id":"4","last_reported":1758132821,"current_range_meters":11200,"station_id":"ce4bho92rcd13ifvqh3g","pricing_plan_id":"cebpf4jnsgd1na2vs0mg"},{"bike_id":"914fd8b1-aff6-40cb-8c30-921ae0a26581","system_id":"levelo_inurba_marseille","lat":43.291,"lon":5.38119,"is_reserved":false,"is_disabled":false,"rental_uris":{"android":"levelo://app?vid=914fd8b1-aff6-40cb-8c30-921ae0a26581","ios":"levelo://app?vid=914fd8b1-aff6-40cb-8c30-921ae0a26581"},"vehicle_type_id":"4","last_reported":1758132821,"current_range_meters":10800,"station_id":"ce4bh512rcd13ifvqe2g","pricing_plan_id":"cebpf4jnsgd1na2vs0mg"},{"bike_id":"dee0908a-7226-4b92-ac4e-c69b7d1dc77f","system_id":"levelo_inurba_marseille","lat":43.23177,"lon":5.3999,"is_reserved":false,"is_disabled":false,"rental_uris":{"android":"levelo://app?vid=dee0908a-7226-4b92-ac4e-c69b7d1dc77f","ios":"levelo://app?vid=dee0908a-7226-4b92-ac4e-c69b7d1dc77f"},"vehicle_type_id":"4","last_reported":1758132821,"current_range_meters":11600,"station_id":"ce4bhn12rcd13ifvqgqg","pricing_plan_id":"cebpf4jnsgd1na2vs0mg"},{"bike_id":"d6fcff4e-dd75-4120-9968-c33a8245e563","system_id":"levelo_inurba_marseille","lat":43.22924,"lon":5.35376,"is_reserved":false,"is_disabled":false,"rental_uris":{"android":"levelo://app?vid=d6fcff4e-dd75-4120-9968-c33a8245e563","ios":"levelo://app?vid=d6fcff4e-dd75-4120-9968-c33a8245e563"},"vehicle_type_id":"4","last_reported":1758132821,"current_range_meters":11600,"station_id":"cpo3532slgdg3j2ikp40","pricing_plan_id":"cebpf4jnsgd1na2vs0mg"},{"bike_id":"e6b00fa4-d185-4661-bb58-21625e90fcf1","system_id":"levelo_inurba_marseille","lat":43.29256,"lon":5.4091,"is_reserved":false,"is_disabled":false,"rental_uris":{"android":"levelo://app?vid=e6b00fa4-d185-4661-bb58-21625e90fcf1","ios":"levelo://app?vid=e6b00fa4-d185-4661-bb58-21625e90fcf1"},"vehicle_type_id":"4","last_reported":1758132821,"current_range_meters":11600,"station_id":"ce4bh192rcd13ifvqdc0","pricing_plan_id":"cebpf4jnsgd1na2vs0mg"},{"bike_id":"ccfa29ef-df7d-422b-bdec-b8b869902862","system_id":"levelo_inurba_marseille","lat":43.31755,"lon":5.39022,"is_reserved":false,"is_disabled":false,"rental_uris":{"android":"levelo://app?vid=ccfa29ef-df7d-422b-bdec-b8b869902862","ios":"levelo://app?vid=ccfa29ef-df7d-422b-bdec-b8b869902862"},"vehicle_type_id":"4","last_reported":1758132821,"current_range_meters":11600,"station_id":"ce4bhqp2rcd13ifvqhng","pricing_plan_id":"cebpf4jnsgd1na2vs0mg"},{"bike_id":"a916879f-7fad-409e-bbc8-bca9ac08320c","system_id":"levelo_inurba_marseille","lat":43.29276,"lon":5.36847,"is_reserved":false,"is_disabled":false,"rental_uris":{"android":"levelo://app?vid=a916879f-7fad-409e-bbc8-bca9ac08320c","ios":"levelo://app?vid=a916879f-7fad-409e-bbc8-bca9ac08320c"},"vehicle_type_id":"4","last_reported":1758132821,"current_range_meters":11600,"station_id":"ce4bhbp2rcd13ifvqesg","pricing_plan_id":"cebpf4jnsgd1na2vs0mg"},{"bike_id":"53923efc-dde2-4b83-9b67-8acec49fce5b","system_id":"levelo_inurba_marseille","lat":43.29513,"lon":5.39052,"is_reserved":false,"is_disabled":false,"rental_uris":{"android":"levelo://app?vid=53923efc-dde2-4b83-9b67-8acec49fce5b","ios":"levelo://app?vid=53923efc-dde2-4b83-9b67-8acec49fce5b"},"vehicle_type_id":"4","last_reported":1758132821,"current_range_meters":11600,"station_id":"ce4bh3p2rcd13ifvqdp0","pricing_plan_id":"cebpf4jnsgd1na2vs0mg"},{"bike_id":"97fac187-45a1-4e8f-be9b-a5c24559a733","system_id":"levelo_inurba_marseille","lat":43.21742,"lon":5.346,"is_reserved":false,"is_disabled":false,"rental_uris":{"android":"levelo://app?vid=97fac187-45a1-4e8f-be9b-a5c24559a733","ios":"levelo://app?vid=97fac187-45a1-4e8f-be9b-a5c24559a733"},"vehicle_type_id":"4","last_reported":1758132821,"current_range_meters":12000,"station_id":"st_cvj6r9ubvosntc0bgbag","pricing_plan_id":"cebpf4jnsgd1na2vs0mg"},{"bike_id":"2a5e641a-ca90-4f3a-9350-63bb94d9cebf","system_id":"levelo_inurba_marseille","lat":43.255641,"lon":5.391831,"is_reserved":false,"is_disabled":false,"rental_uris":{"android":"levelo://app?vid=2a5e641a-ca90-4f3a-9350-63bb94d9cebf","ios":"levelo://app?vid=2a5e641a-ca90-4f3a-9350-63bb94d9cebf"},"vehicle_type_id":"4","last_reported":1758132821,"current_range_meters":12000,"station_id":"","pricing_plan_id":"cebpf4jnsgd1na2vs0mg"},{"bike_id":"2c9c748f-420d-4b81-9b57-f2e7b1ac83bb","system_id":"levelo_inurba_marseille","lat":43.295394,"lon":5.391735,"is_reserved":false,"is_disabled":false,"rental_uris":{"android":"levelo://app?vid=2c9c748f-420d-4b81-9b57-f2e7b1ac83bb","ios":"levelo://app?vid=2c9c748f-420d-4b81-9b57-f2e7b1ac83bb"},"vehicle_type_id":"4","last_reported":1758132821,"current_range_meters":12400,"station_id":"ce4bh3p2rcd13ifvqdp0","pricing_plan_id":"cebpf4jnsgd1na2vs0mg"},{"bike_id":"09734f56-1274-4913-8cd9-7e86f641ab44","system_id":"levelo_inurba_marseille","lat":43.29538,"lon":5.3854,"is_reserved":false,"is_disabled":true,"rental_uris":{"android":"levelo://app?vid=09734f56-1274-4913-8cd9-7e86f641ab44","ios":"levelo://app?vid=09734f56-1274-4913-8cd9-7e86f641ab44"},"vehicle_type_id":"4","last_reported":1758132821,"current_range_meters":12400,"station_id":"ce4bgih2rcd13ifvqba0","pricing_plan_id":"cebpf4jnsgd1na2vs0mg"},{"bike_id":"62ad0034-2f00-484d-b4a7-d0313ae59052","system_id":"levelo_inurba_marseille","lat":43.2815,"lon":5.42651,"is_reserved":false,"is_disabled":false,"rental_uris":{"android":"levelo://app?vid=62ad0034-2f00-484d-b4a7-d0313ae59052","ios":"levelo://app?vid=62ad0034-2f00-484d-b4a7-d0313ae59052"},"vehicle_type_id":"4","last_reported":1758132821,"current_range_meters":12400,"station_id":"ce4bhnh2rcd13ifvqgug","pricing_plan_id":"cebpf4jnsgd1na2vs0mg"},{"bike_id":"be7e6a52-5f32-4f5d-ab19-09bbc34d35a2","system_id":"levelo_inurba_marseille","lat":43.21191,"lon":5.35079,"is_reserved":false,"is_disabled":false,"rental_uris":{"android":"levelo://app?vid=be7e6a52-5f32-4f5d-ab19-09bbc34d35a2","ios":"levelo://app?vid=be7e6a52-5f32-4f5d-ab19-09bbc34d35a2"},"vehicle_type_id":"4","last_reported":1758132821,"current_range_meters":12400,"station_id":"st_cvj6sg6p6f1abm77japg","pricing_plan_id":"cebpf4jnsgd1na2vs0mg"},{"bike_id":"dc0a72d1-3356-4b88-9e06-5f7d4a99242a","system_id":"levelo_inurba_marseille","lat":43.30087,"lon":5.39078,"is_reserved":false,"is_disabled":false,"rental_uris":{"android":"levelo://app?vid=dc0a72d1-3356-4b88-9e06-5f7d4a99242a","ios":"levelo://app?vid=dc0a72d1-3356-4b88-9e06-5f7d4a99242a"},"vehicle_type_id":"4","last_reported":1758132821,"current_range_meters":12000,"station_id":"ce4bh192rcd13ifvqdb0","pricing_plan_id":"cebpf4jnsgd1na2vs0mg"},{"bike_id":"e051852e-5267-4d2e-9d0d-9d70aefdcd5e","system_id":"levelo_inurba_marseille","lat":43.2572,"lon":5.41117,"is_reserved":false,"is_disabled":false,"rental_uris":{"android":"levelo://app?vid=e051852e-5267-4d2e-9d0d-9d70aefdcd5e","ios":"levelo://app?vid=e051852e-5267-4d2e-9d0d-9d70aefdcd5e"},"vehicle_type_id":"4","last_reported":1758132821,"current_range_meters":12400,"station_id":"ce4bhkp2rcd13ifvqgd0","pricing_plan_id":"cebpf4jnsgd1na2vs0mg"},{"bike_id":"0a2e2756-8bf6-4279-a120-8478c237834b","system_id":"levelo_inurba_marseille","lat":43.26486,"lon":5.3956,"is_reserved":false,"is_disabled":true,"rental_uris":{"android":"levelo://app?vid=0a2e2756-8bf6-4279-a120-8478c237834b","ios":"levelo://app?vid=0a2e2756-8bf6-4279-a120-8478c237834b"},"vehicle_type_id":"4","last_reported":1758132821,"current_range_meters":12400,"station_id":"ce4bhi12rcd13ifvqfq0","pricing_plan_id":"cebpf4jnsgd1na2vs0mg"},{"bike_id":"b7a9be1c-6745-4e91-a42a-7e1c96585cec","system_id":"levelo_inurba_marseille","lat":43.29307,"lon":5.37171,"is_reserved":false,"is_disabled":false,"rental_uris":{"android":"levelo://app?vid=b7a9be1c-6745-4e91-a42a-7e1c96585cec","ios":"levelo://app?vid=b7a9be1c-6745-4e91-a42a-7e1c96585cec"},"vehicle_type_id":"4","last_reported":1758132821,"current_range_meters":12400,"station_id":"","pricing_plan_id":"cebpf4jnsgd1na2vs0mg"},{"bike_id":"5701fe9c-3e98-4b9f-a910-5eb395d4e5d3","system_id":"levelo_inurba_marseille","lat":43.305389,"lon":5.384223,"is_reserved":false,"is_disabled":false,"rental_uris":{"android":"levelo://app?vid=5701fe9c-3e98-4b9f-a910-5eb395d4e5d3","ios":"levelo://app?vid=5701fe9c-3e98-4b9f-a910-5eb395d4e5d3"},"vehicle_type_id":"4","last_reported":1758132821,"current_range_meters":12400,"station_id":"ce4bgg92rcd13ifvqb30","pricing_plan_id":"cebpf4jnsgd1na2vs0mg"},{"bike_id":"8a579c81-4d54-4821-879b-7ddac48d80fa","system_id":"levelo_inurba_marseille","lat":43.24631,"lon":5.43145,"is_reserved":false,"is_disabled":false,"rental_uris":{"android":"levelo://app?vid=8a579c81-4d54-4821-879b-7ddac48d80fa","ios":"levelo://app?vid=8a579c81-4d54-4821-879b-7ddac48d80fa"},"vehicle_type_id":"4","last_reported":1758132821,"current_range_meters":12400,"station_id":"st_d2m6c4gdas8pm72e190g","pricing_plan_id":"cebpf4jnsgd1na2vs0mg"},{"bike_id":"95afad83-7b70-45d9-bb66-090156db5e7a","system_id":"levelo_inurba_marseille","lat":43.286096,"lon":5.351075,"is_reserved":false,"is_disabled":false,"rental_uris":{"android":"levelo://app?vid=95afad83-7b70-45d9-bb66-090156db5e7a","ios":"levelo://app?vid=95afad83-7b70-45d9-bb66-090156db5e7a"},"vehicle_type_id":"4","last_reported":1758132821,"current_range_meters":12800,"station_id":"ce4bhch2rcd13ifvqeug","pricing_plan_id":"cebpf4jnsgd1na2vs0mg"},{"bike_id":"7c53e1e0-9efc-4c15-9c29-668d4dac4c59","system_id":"levelo_inurba_marseille","lat":43.22511,"lon":5.34848,"is_reserved":false,"is_disabled":false,"rental_uris":{"android":"levelo://app?vid=7c53e1e0-9efc-4c15-9c29-668d4dac4c59","ios":"levelo://app?vid=7c53e1e0-9efc-4c15-9c29-668d4dac4c59"},"vehicle_type_id":"4","last_reported":1758132821,"current_range_meters":12800,"station_id":"","pricing_plan_id":"cebpf4jnsgd1na2vs0mg"},{"bike_id":"c1cb85bf-58f5-47d2-b093-c0da29c4d2c3","system_id":"levelo_inurba_marseille","lat":43.29527,"lon":5.38548,"is_reserved":false,"is_disabled":false,"rental_uris":{"android":"levelo://app?vid=c1cb85bf-58f5-47d2-b093-c0da29c4d2c3","ios":"levelo://app?vid=c1cb85bf-58f5-47d2-b093-c0da29c4d2c3"},"vehicle_type_id":"4","last_reported":1758132821,"current_range_meters":12800,"station_id":"ce4bgih2rcd13ifvqba0","pricing_plan_id":"cebpf4jnsgd1na2vs0mg"},{"bike_id":"65854fe7-484f-4538-8c9b-93eeb0063f0f","system_id":"levelo_inurba_marseille","lat":43.25321,"lon":5.42162,"is_reserved":false,"is_disabled":false,"rental_uris":{"android":"levelo://app?vid=65854fe7-484f-4538-8c9b-93eeb0063f0f","ios":"levelo://app?vid=65854fe7-484f-4538-8c9b-93eeb0063f0f"},"vehicle_type_id":"4","last_reported":1758132821,"current_range_meters":13600,"station_id":"st_d2m65c5bi1j21697t3ng","pricing_plan_id":"cebpf4jnsgd1na2vs0mg"},{"bike_id":"9db8014a-fd55-45db-a0df-2119d14f3ffd","system_id":"levelo_inurba_marseille","lat":43.29023,"lon":5.38638,"is_reserved":false,"is_disabled":false,"rental_uris":{"android":"levelo://app?vid=9db8014a-fd55-45db-a0df-2119d14f3ffd","ios":"levelo://app?vid=9db8014a-fd55-45db-a0df-2119d14f3ffd"},"vehicle_type_id":"4","last_reported":1758132821,"current_range_meters":13600,"station_id":"ce4bh4p2rcd13ifvqe0g","pricing_plan_id":"cebpf4jnsgd1na2vs0mg"},{"bike_id":"e76ef879-317f-45ff-b2d9-c6c8304d675f","system_id":"levelo_inurba_marseille","lat":43.229297,"lon":5.353755,"is_reserved":false,"is_disabled":false,"rental_uris":{"android":"levelo://app?vid=e76ef879-317f-45ff-b2d9-c6c8304d675f","ios":"levelo://app?vid=e76ef879-317f-45ff-b2d9-c6c8304d675f"},"vehicle_type_id":"4","last_reported":1758132821,"current_range_meters":13600,"station_id":"cpo3532slgdg3j2ikp40","pricing_plan_id":"cebpf4jnsgd1na2vs0mg"},{"bike_id":"6019f563-1f3e-4266-ab70-47e474f20654","system_id":"levelo_inurba_marseille","lat":43.29024,"lon":5.38131,"is_reserved":false,"is_disabled":false,"rental_uris":{"android":"levelo://app?vid=6019f563-1f3e-4266-ab70-47e474f20654","ios":"levelo://app?vid=6019f563-1f3e-4266-ab70-47e474f20654"},"vehicle_type_id":"4","last_reported":1758132821,"current_range_meters":13600,"station_id":"ce4bh4p2rcd13ifvqe1g","pricing_plan_id":"cebpf4jnsgd1na2vs0mg"},{"bike_id":"4a9f1525-bb38-489e-be29-d6e9a5dc713e","system_id":"levelo_inurba_marseille","lat":43.27494,"lon":5.42452,"is_reserved":false,"is_disabled":false,"rental_uris":{"android":"levelo://app?vid=4a9f1525-bb38-489e-be29-d6e9a5dc713e","ios":"levelo://app?vid=4a9f1525-bb38-489e-be29-d6e9a5dc713e"},"vehicle_type_id":"4","last_reported":1758132821,"current_range_meters":13600,"station_id":"ce4bhn92rcd13ifvqgrg","pricing_plan_id":"cebpf4jnsgd1na2vs0mg"},{"bike_id":"ac4ae767-d42a-438b-ae79-28c76de0c817","system_id":"levelo_inurba_marseille","lat":43.2582,"lon":5.39437,"is_reserved":false,"is_disabled":false,"rental_uris":{"android":"levelo://app?vid=ac4ae767-d42a-438b-ae79-28c76de0c817","ios":"levelo://app?vid=ac4ae767-d42a-438b-ae79-28c76de0c817"},"vehicle_type_id":"4","last_reported":1758132821,"current_range_meters":12800,"station_id":"ce4bhip2rcd13ifvqft0","pricing_plan_id":"cebpf4jnsgd1na2vs0mg"},{"bike_id":"9d0ea263-c611-4605-bd2e-497041306194","system_id":"levelo_inurba_marseille","lat":43.24653,"lon":5.38167,"is_reserved":false,"is_disabled":false,"rental_uris":{"android":"levelo://app?vid=9d0ea263-c611-4605-bd2e-497041306194","ios":"levelo://app?vid=9d0ea263-c611-4605-bd2e-497041306194"},"vehicle_type_id":"4","last_reported":1758132821,"current_range_meters":13600,"station_id":"ce4bhih2rcd13ifvqfr0","pricing_plan_id":"cebpf4jnsgd1na2vs0mg"},{"bike_id":"c7669eb0-22f7-4392-9539-b009785ce429","system_id":"levelo_inurba_marseille","lat":43.29964,"lon":5.38503,"is_reserved":false,"is_disabled":false,"rental_uris":{"android":"levelo://app?vid=c7669eb0-22f7-4392-9539-b009785ce429","ios":"levelo://app?vid=c7669eb0-22f7-4392-9539-b009785ce429"},"vehicle_type_id":"4","last_reported":1758132821,"current_range_meters":12800,"station_id":"ce4bgj92rcd13ifvqbd0","pricing_plan_id":"cebpf4jnsgd1na2vs0mg"},{"bike_id":"3236d451-36f3-4ae4-a4e0-5414e7f984eb","system_id":"levelo_inurba_marseille","lat":43.24546,"lon":5.39526,"is_reserved":false,"is_disabled":false,"rental_uris":{"android":"levelo://app?vid=3236d451-36f3-4ae4-a4e0-5414e7f984eb","ios":"levelo://app?vid=3236d451-36f3-4ae4-a4e0-5414e7f984eb"},"vehicle_type_id":"4","last_reported":1758132821,"current_range_meters":14000,"station_id":"ce4bhlp2rcd13ifvqgjg","pricing_plan_id":"cebpf4jnsgd1na2vs0mg"},{"bike_id":"ba248c1c-0e09-489a-9cab-05bfc6c18e2d","system_id":"levelo_inurba_marseille","lat":43.28608,"lon":5.35121,"is_reserved":false,"is_disabled":false,"rental_uris":{"android":"levelo://app?vid=ba248c1c-0e09-489a-9cab-05bfc6c18e2d","ios":"levelo://app?vid=ba248c1c-0e09-489a-9cab-05bfc6c18e2d"},"vehicle_type_id":"4","last_reported":1758132821,"current_range_meters":14000,"station_id":"ce4bhch2rcd13ifvqeug","pricing_plan_id":"cebpf4jnsgd1na2vs0mg"},{"bike_id":"c99b6713-7403-4fdf-8afe-2c146097a93c","system_id":"levelo_inurba_marseille","lat":43.29245,"lon":5.373,"is_reserved":false,"is_disabled":false,"rental_uris":{"android":"levelo://app?vid=c99b6713-7403-4fdf-8afe-2c146097a93c","ios":"levelo://app?vid=c99b6713-7403-4fdf-8afe-2c146097a93c"},"vehicle_type_id":"4","last_reported":1758132821,"current_range_meters":14000,"station_id":"","pricing_plan_id":"cebpf4jnsgd1na2vs0mg"},{"bike_id":"55dfb17a-dc13-4669-82ac-2c676d600c2d","system_id":"levelo_inurba_marseille","lat":43.31351,"lon":5.37936,"is_reserved":false,"is_disabled":false,"rental_uris":{"android":"levelo://app?vid=55dfb17a-dc13-4669-82ac-2c676d600c2d","ios":"levelo://app?vid=55dfb17a-dc13-4669-82ac-2c676d600c2d"},"vehicle_type_id":"4","last_reported":1758132821,"current_range_meters":14400,"station_id":"","pricing_plan_id":"cebpf4jnsgd1na2vs0mg"},{"bike_id":"3a5880cd-3aaa-45e3-acd9-2ccd914d29dd","system_id":"levelo_inurba_marseille","lat":43.24066,"lon":5.37761,"is_reserved":false,"is_disabled":false,"rental_uris":{"android":"levelo://app?vid=3a5880cd-3aaa-45e3-acd9-2ccd914d29dd","ios":"levelo://app?vid=3a5880cd-3aaa-45e3-acd9-2ccd914d29dd"},"vehicle_type_id":"4","last_reported":1758132821,"current_range_meters":14400,"station_id":"ce4bhnp2rcd13ifvqgvg","pricing_plan_id":"cebpf4jnsgd1na2vs0mg"},{"bike_id":"f87394ef-87e2-46ac-8212-12825111ca57","system_id":"levelo_inurba_marseille","lat":43.296204,"lon":5.377111,"is_reserved":false,"is_disabled":false,"rental_uris":{"android":"levelo://app?vid=f87394ef-87e2-46ac-8212-12825111ca57","ios":"levelo://app?vid=f87394ef-87e2-46ac-8212-12825111ca57"},"vehicle_type_id":"4","last_reported":1758132821,"current_range_meters":14800,"station_id":"ce4bgi92rcd13ifvqb90","pricing_plan_id":"cebpf4jnsgd1na2vs0mg"},{"bike_id":"f3ab05e4-bdb6-4d46-87bb-1aa4a543d8d4","system_id":"levelo_inurba_marseille","lat":43.29773,"lon":5.37108,"is_reserved":false,"is_disabled":false,"rental_uris":{"android":"levelo://app?vid=f3ab05e4-bdb6-4d46-87bb-1aa4a543d8d4","ios":"levelo://app?vid=f3ab05e4-bdb6-4d46-87bb-1aa4a543d8d4"},"vehicle_type_id":"4","last_reported":1758132821,"current_range_meters":14000,"station_id":"ce4bgop2rcd13ifvqc1g","pricing_plan_id":"cebpf4jnsgd1na2vs0mg"},{"bike_id":"f7254990-f51d-45fe-83e3-57aceffccbc4","system_id":"levelo_inurba_marseille","lat":43.22563,"lon":5.41655,"is_reserved":false,"is_disabled":false,"rental_uris":{"android":"levelo://app?vid=f7254990-f51d-45fe-83e3-57aceffccbc4","ios":"levelo://app?vid=f7254990-f51d-45fe-83e3-57aceffccbc4"},"vehicle_type_id":"4","last_reported":1758132821,"current_range_meters":14800,"station_id":"st_d2o4gvlbi1j2169b742g","pricing_plan_id":"cebpf4jnsgd1na2vs0mg"},{"bike_id":"3072794b-93ac-48aa-b4b0-a1afb4777c60","system_id":"levelo_inurba_marseille","lat":43.30235,"lon":5.4006,"is_reserved":false,"is_disabled":false,"rental_uris":{"android":"levelo://app?vid=3072794b-93ac-48aa-b4b0-a1afb4777c60","ios":"levelo://app?vid=3072794b-93ac-48aa-b4b0-a1afb4777c60"},"vehicle_type_id":"4","last_reported":1758132821,"current_range_meters":14800,"station_id":"ce4bgvh2rcd13ifvqcs0","pricing_plan_id":"cebpf4jnsgd1na2vs0mg"},{"bike_id":"7749cf44-4cab-4330-8733-d5d6708d8a17","system_id":"levelo_inurba_marseille","lat":43.29281,"lon":5.40122,"is_reserved":false,"is_disabled":false,"rental_uris":{"android":"levelo://app?vid=7749cf44-4cab-4330-8733-d5d6708d8a17","ios":"levelo://app?vid=7749cf44-4cab-4330-8733-d5d6708d8a17"},"vehicle_type_id":"4","last_reported":1758132821,"current_range_meters":14800,"station_id":"ce4bh312rcd13ifvqdk0","pricing_plan_id":"cebpf4jnsgd1na2vs0mg"},{"bike_id":"bb2210d8-26fc-4857-aaf4-c536a05b6b25","system_id":"levelo_inurba_marseille","lat":43.281466,"lon":5.426271,"is_reserved":false,"is_disabled":false,"rental_uris":{"android":"levelo://app?vid=bb2210d8-26fc-4857-aaf4-c536a05b6b25","ios":"levelo://app?vid=bb2210d8-26fc-4857-aaf4-c536a05b6b25"},"vehicle_type_id":"4","last_reported":1758132821,"current_range_meters":14400,"station_id":"ce4bhnh2rcd13ifvqgug","pricing_plan_id":"cebpf4jnsgd1na2vs0mg"},{"bike_id":"9c9375e0-f642-47f0-ae73-0e864f64a137","system_id":"levelo_inurba_marseille","lat":43.23191,"lon":5.39985,"is_reserved":false,"is_disabled":false,"rental_uris":{"android":"levelo://app?vid=9c9375e0-f642-47f0-ae73-0e864f64a137","ios":"levelo://app?vid=9c9375e0-f642-47f0-ae73-0e864f64a137"},"vehicle_type_id":"4","last_reported":1758132821,"current_range_meters":14800,"station_id":"ce4bhn12rcd13ifvqgqg","pricing_plan_id":"cebpf4jnsgd1na2vs0mg"},{"bike_id":"415c4760-3f5f-4b04-a35e-b796950cbe55","system_id":"levelo_inurba_marseille","lat":43.30139,"lon":5.38781,"is_reserved":false,"is_disabled":false,"rental_uris":{"android":"levelo://app?vid=415c4760-3f5f-4b04-a35e-b796950cbe55","ios":"levelo://app?vid=415c4760-3f5f-4b04-a35e-b796950cbe55"},"vehicle_type_id":"4","last_reported":1758132821,"current_range_meters":14800,"station_id":"ce4bghh2rcd13ifvqb60","pricing_plan_id":"cebpf4jnsgd1na2vs0mg"},{"bike_id":"49230824-e0b0-4942-b254-aed72b06d282","system_id":"levelo_inurba_marseille","lat":43.26949,"lon":5.40557,"is_reserved":false,"is_disabled":false,"rental_uris":{"android":"levelo://app?vid=49230824-e0b0-4942-b254-aed72b06d282","ios":"levelo://app?vid=49230824-e0b0-4942-b254-aed72b06d282"},"vehicle_type_id":"4","last_reported":1758132821,"current_range_meters":15200,"station_id":"","pricing_plan_id":"cebpf4jnsgd1na2vs0mg"},{"bike_id":"0a714f01-7287-46f8-bbb6-81d9c8aaefe2","system_id":"levelo_inurba_marseille","lat":43.29692,"lon":5.39142,"is_reserved":false,"is_disabled":false,"rental_uris":{"android":"levelo://app?vid=0a714f01-7287-46f8-bbb6-81d9c8aaefe2","ios":"levelo://app?vid=0a714f01-7287-46f8-bbb6-81d9c8aaefe2"},"vehicle_type_id":"4","last_reported":1758132821,"current_range_meters":15200,"station_id":"","pricing_plan_id":"cebpf4jnsgd1na2vs0mg"},{"bike_id":"046ba709-b940-4fa3-9690-1d81db536e4b","system_id":"levelo_inurba_marseille","lat":43.225723,"lon":5.416015,"is_reserved":false,"is_disabled":false,"rental_uris":{"android":"levelo://app?vid=046ba709-b940-4fa3-9690-1d81db536e4b","ios":"levelo://app?vid=046ba709-b940-4fa3-9690-1d81db536e4b"},"vehicle_type_id":"4","last_reported":1758132821,"current_range_meters":15200,"station_id":"st_d2o4gvlbi1j2169b742g","pricing_plan_id":"cebpf4jnsgd1na2vs0mg"},{"bike_id":"df2c6ce1-3df7-4976-bcc8-22b068fb0f46","system_id":"levelo_inurba_marseille","lat":43.29311,"lon":5.37193,"is_reserved":false,"is_disabled":false,"rental_uris":{"android":"levelo://app?vid=df2c6ce1-3df7-4976-bcc8-22b068fb0f46","ios":"levelo://app?vid=df2c6ce1-3df7-4976-bcc8-22b068fb0f46"},"vehicle_type_id":"4","last_reported":1758132821,"current_range_meters":15200,"station_id":"","pricing_plan_id":"cebpf4jnsgd1na2vs0mg"},{"bike_id":"f686b32f-0a3c-4732-a2f2-3df8c0c22d86","system_id":"levelo_inurba_marseille","lat":43.24657,"lon":5.38174,"is_reserved":false,"is_disabled":false,"rental_uris":{"android":"levelo://app?vid=f686b32f-0a3c-4732-a2f2-3df8c0c22d86","ios":"levelo://app?vid=f686b32f-0a3c-4732-a2f2-3df8c0c22d86"},"vehicle_type_id":"4","last_reported":1758132821,"current_range_meters":15200,"station_id":"ce4bhih2rcd13ifvqfr0","pricing_plan_id":"cebpf4jnsgd1na2vs0mg"},{"bike_id":"9058d3f3-4ed8-4db2-84c1-f93b0233c607","system_id":"levelo_inurba_marseille","lat":43.31679,"lon":5.4048,"is_reserved":false,"is_disabled":false,"rental_uris":{"android":"levelo://app?vid=9058d3f3-4ed8-4db2-84c1-f93b0233c607","ios":"levelo://app?vid=9058d3f3-4ed8-4db2-84c1-f93b0233c607"},"vehicle_type_id":"4","last_reported":1758132821,"current_range_meters":15200,"station_id":"ce4bh012rcd13ifvqd00","pricing_plan_id":"cebpf4jnsgd1na2vs0mg"},{"bike_id":"22f0687d-25d3-4094-9c4a-293a61e189a6","system_id":"levelo_inurba_marseille","lat":43.24711,"lon":5.3977,"is_reserved":false,"is_disabled":false,"rental_uris":{"android":"levelo://app?vid=22f0687d-25d3-4094-9c4a-293a61e189a6","ios":"levelo://app?vid=22f0687d-25d3-4094-9c4a-293a61e189a6"},"vehicle_type_id":"4","last_reported":1758132821,"current_range_meters":15200,"station_id":"","pricing_plan_id":"cebpf4jnsgd1na2vs0mg"},{"bike_id":"38f16850-97fc-4456-96e9-1adbf3fb6a25","system_id":"levelo_inurba_marseille","lat":43.22927,"lon":5.35383,"is_reserved":false,"is_disabled":false,"rental_uris":{"android":"levelo://app?vid=38f16850-97fc-4456-96e9-1adbf3fb6a25","ios":"levelo://app?vid=38f16850-97fc-4456-96e9-1adbf3fb6a25"},"vehicle_type_id":"4","last_reported":1758132821,"current_range_meters":16000,"station_id":"cpo3532slgdg3j2ikp40","pricing_plan_id":"cebpf4jnsgd1na2vs0mg"},{"bike_id":"3d158815-0ba1-449f-90dd-2b69cf190d13","system_id":"levelo_inurba_marseille","lat":43.32947,"lon":5.39284,"is_reserved":false,"is_disabled":false,"rental_uris":{"android":"levelo://app?vid=3d158815-0ba1-449f-90dd-2b69cf190d13","ios":"levelo://app?vid=3d158815-0ba1-449f-90dd-2b69cf190d13"},"vehicle_type_id":"4","last_reported":1758132821,"current_range_meters":16000,"station_id":"","pricing_plan_id":"cebpf4jnsgd1na2vs0mg"},{"bike_id":"308af7de-1e9c-4493-9f48-569e91ac2793","system_id":"levelo_inurba_marseille","lat":43.31327,"lon":5.39698,"is_reserved":false,"is_disabled":false,"rental_uris":{"android":"levelo://app?vid=308af7de-1e9c-4493-9f48-569e91ac2793","ios":"levelo://app?vid=308af7de-1e9c-4493-9f48-569e91ac2793"},"vehicle_type_id":"4","last_reported":1758132821,"current_range_meters":15200,"station_id":"ce4bgvp2rcd13ifvqcu0","pricing_plan_id":"cebpf4jnsgd1na2vs0mg"},{"bike_id":"1a8ca02f-8c12-4d51-8079-45099886e890","system_id":"levelo_inurba_marseille","lat":43.23964,"lon":5.36636,"is_reserved":false,"is_disabled":false,"rental_uris":{"android":"levelo://app?vid=1a8ca02f-8c12-4d51-8079-45099886e890","ios":"levelo://app?vid=1a8ca02f-8c12-4d51-8079-45099886e890"},"vehicle_type_id":"4","last_reported":1758132821,"current_range_meters":16000,"station_id":"ce4bhi12rcd13ifvqfp0","pricing_plan_id":"cebpf4jnsgd1na2vs0mg"},{"bike_id":"d26ecb6f-c6de-4d2b-86d3-827240a9f84d","system_id":"levelo_inurba_marseille","lat":43.31749,"lon":5.39019,"is_reserved":false,"is_disabled":false,"rental_uris":{"android":"levelo://app?vid=d26ecb6f-c6de-4d2b-86d3-827240a9f84d","ios":"levelo://app?vid=d26ecb6f-c6de-4d2b-86d3-827240a9f84d"},"vehicle_type_id":"4","last_reported":1758132821,"current_range_meters":16000,"station_id":"ce4bhqp2rcd13ifvqhng","pricing_plan_id":"cebpf4jnsgd1na2vs0mg"},{"bike_id":"03cbb016-3b2e-4728-9a21-257f9f7fe35c","system_id":"levelo_inurba_marseille","lat":43.25576,"lon":5.38245,"is_reserved":false,"is_disabled":false,"rental_uris":{"android":"levelo://app?vid=03cbb016-3b2e-4728-9a21-257f9f7fe35c","ios":"levelo://app?vid=03cbb016-3b2e-4728-9a21-257f9f7fe35c"},"vehicle_type_id":"4","last_reported":1758132821,"current_range_meters":16400,"station_id":"ce4bhih2rcd13ifvqfs0","pricing_plan_id":"cebpf4jnsgd1na2vs0mg"},{"bike_id":"31263953-3f92-4e8a-abeb-2c4b4f60f09c","system_id":"levelo_inurba_marseille","lat":43.32364,"lon":5.38892,"is_reserved":false,"is_disabled":false,"rental_uris":{"android":"levelo://app?vid=31263953-3f92-4e8a-abeb-2c4b4f60f09c","ios":"levelo://app?vid=31263953-3f92-4e8a-abeb-2c4b4f60f09c"},"vehicle_type_id":"4","last_reported":1758132821,"current_range_meters":16400,"station_id":"ce4bhqp2rcd13ifvqhog","pricing_plan_id":"cebpf4jnsgd1na2vs0mg"},{"bike_id":"d9fbdefa-6598-4c0d-b9bb-306fb3f466a4","system_id":"levelo_inurba_marseille","lat":43.29527,"lon":5.38553,"is_reserved":false,"is_disabled":false,"rental_uris":{"android":"levelo://app?vid=d9fbdefa-6598-4c0d-b9bb-306fb3f466a4","ios":"levelo://app?vid=d9fbdefa-6598-4c0d-b9bb-306fb3f466a4"},"vehicle_type_id":"4","last_reported":1758132821,"current_range_meters":16400,"station_id":"ce4bgih2rcd13ifvqba0","pricing_plan_id":"cebpf4jnsgd1na2vs0mg"},{"bike_id":"cc0efac9-033f-49db-8300-a557764f479a","system_id":"levelo_inurba_marseille","lat":43.28611,"lon":5.35112,"is_reserved":false,"is_disabled":false,"rental_uris":{"android":"levelo://app?vid=cc0efac9-033f-49db-8300-a557764f479a","ios":"levelo://app?vid=cc0efac9-033f-49db-8300-a557764f479a"},"vehicle_type_id":"4","last_reported":1758132821,"current_range_meters":16400,"station_id":"ce4bhch2rcd13ifvqeug","pricing_plan_id":"cebpf4jnsgd1na2vs0mg"},{"bike_id":"152b725d-6f61-44b0-bc66-f31437aa6fe9","system_id":"levelo_inurba_marseille","lat":43.22558,"lon":5.4163,"is_reserved":false,"is_disabled":false,"rental_uris":{"android":"levelo://app?vid=152b725d-6f61-44b0-bc66-f31437aa6fe9","ios":"levelo://app?vid=152b725d-6f61-44b0-bc66-f31437aa6fe9"},"vehicle_type_id":"4","last_reported":1758132821,"current_range_meters":16400,"station_id":"st_d2o4gvlbi1j2169b742g","pricing_plan_id":"cebpf4jnsgd1na2vs0mg"},{"bike_id":"387c8295-5c1a-4e62-91c6-560b703e4279","system_id":"levelo_inurba_marseille","lat":43.32438,"lon":5.42685,"is_reserved":false,"is_disabled":false,"rental_uris":{"android":"levelo://app?vid=387c8295-5c1a-4e62-91c6-560b703e4279","ios":"levelo://app?vid=387c8295-5c1a-4e62-91c6-560b703e4279"},"vehicle_type_id":"4","last_reported":1758132821,"current_range_meters":16400,"station_id":"","pricing_plan_id":"cebpf4jnsgd1na2vs0mg"},{"bike_id":"80332322-52bb-49f4-b738-0ea587c53538","system_id":"levelo_inurba_marseille","lat":43.225357,"lon":5.34837,"is_reserved":false,"is_disabled":false,"rental_uris":{"android":"levelo://app?vid=80332322-52bb-49f4-b738-0ea587c53538","ios":"levelo://app?vid=80332322-52bb-49f4-b738-0ea587c53538"},"vehicle_type_id":"4","last_reported":1758132821,"current_range_meters":16400,"station_id":"","pricing_plan_id":"cebpf4jnsgd1na2vs0mg"},{"bike_id":"9d181f5a-58ca-49a0-bbcc-8286d3ed3228","system_id":"levelo_inurba_marseille","lat":43.313691,"lon":5.383466,"is_reserved":false,"is_disabled":false,"rental_uris":{"android":"levelo://app?vid=9d181f5a-58ca-49a0-bbcc-8286d3ed3228","ios":"levelo://app?vid=9d181f5a-58ca-49a0-bbcc-8286d3ed3228"},"vehicle_type_id":"4","last_reported":1758132821,"current_range_meters":16400,"station_id":"","pricing_plan_id":"cebpf4jnsgd1na2vs0mg"},{"bike_id":"d1788760-0706-4b90-8999-db00a9e42210","system_id":"levelo_inurba_marseille","lat":43.32797,"lon":5.41011,"is_reserved":false,"is_disabled":false,"rental_uris":{"android":"levelo://app?vid=d1788760-0706-4b90-8999-db00a9e42210","ios":"levelo://app?vid=d1788760-0706-4b90-8999-db00a9e42210"},"vehicle_type_id":"4","last_reported":1758132821,"current_range_meters":16400,"station_id":"","pricing_plan_id":"cebpf4jnsgd1na2vs0mg"},{"bike_id":"4e6f9d08-fb5c-42d2-a817-8c4ec2eafe7a","system_id":"levelo_inurba_marseille","lat":43.29273,"lon":5.37234,"is_reserved":false,"is_disabled":false,"rental_uris":{"android":"levelo://app?vid=4e6f9d08-fb5c-42d2-a817-8c4ec2eafe7a","ios":"levelo://app?vid=4e6f9d08-fb5c-42d2-a817-8c4ec2eafe7a"},"vehicle_type_id":"4","last_reported":1758132821,"current_range_meters":16400,"station_id":"","pricing_plan_id":"cebpf4jnsgd1na2vs0mg"},{"bike_id":"c9428a13-531d-4329-9024-c941417cbcbf","system_id":"levelo_inurba_marseille","lat":43.28401,"lon":5.37524,"is_reserved":false,"is_disabled":false,"rental_uris":{"android":"levelo://app?vid=c9428a13-531d-4329-9024-c941417cbcbf","ios":"levelo://app?vid=c9428a13-531d-4329-9024-c941417cbcbf"},"vehicle_type_id":"4","last_reported":1758132821,"current_range_meters":16800,"station_id":"ce4bh412rcd13ifvqds0","pricing_plan_id":"cebpf4jnsgd1na2vs0mg"},{"bike_id":"84909a53-7cee-4dda-aefc-0cfd0ab4f8b1","system_id":"levelo_inurba_marseille","lat":43.2119,"lon":5.35076,"is_reserved":false,"is_disabled":false,"rental_uris":{"android":"levelo://app?vid=84909a53-7cee-4dda-aefc-0cfd0ab4f8b1","ios":"levelo://app?vid=84909a53-7cee-4dda-aefc-0cfd0ab4f8b1"},"vehicle_type_id":"4","last_reported":1758132821,"current_range_meters":16800,"station_id":"st_cvj6sg6p6f1abm77japg","pricing_plan_id":"cebpf4jnsgd1na2vs0mg"},{"bike_id":"9026a71d-7719-46b4-8409-fcaf98f4294f","system_id":"levelo_inurba_marseille","lat":43.29269,"lon":5.36849,"is_reserved":false,"is_disabled":false,"rental_uris":{"android":"levelo://app?vid=9026a71d-7719-46b4-8409-fcaf98f4294f","ios":"levelo://app?vid=9026a71d-7719-46b4-8409-fcaf98f4294f"},"vehicle_type_id":"4","last_reported":1758132821,"current_range_meters":16800,"station_id":"ce4bhbp2rcd13ifvqesg","pricing_plan_id":"cebpf4jnsgd1na2vs0mg"},{"bike_id":"67e391bd-c9ee-4557-a108-56f7f6b7084d","system_id":"levelo_inurba_marseille","lat":43.29597,"lon":5.38107,"is_reserved":false,"is_disabled":false,"rental_uris":{"android":"levelo://app?vid=67e391bd-c9ee-4557-a108-56f7f6b7084d","ios":"levelo://app?vid=67e391bd-c9ee-4557-a108-56f7f6b7084d"},"vehicle_type_id":"4","last_reported":1758132821,"current_range_meters":16800,"station_id":"","pricing_plan_id":"cebpf4jnsgd1na2vs0mg"},{"bike_id":"64d7a212-b295-4b69-8ba1-05a039a2ce89","system_id":"levelo_inurba_marseille","lat":43.243065,"lon":5.375261,"is_reserved":false,"is_disabled":false,"rental_uris":{"android":"levelo://app?vid=64d7a212-b295-4b69-8ba1-05a039a2ce89","ios":"levelo://app?vid=64d7a212-b295-4b69-8ba1-05a039a2ce89"},"vehicle_type_id":"4","last_reported":1758132821,"current_range_meters":17200,"station_id":"","pricing_plan_id":"cebpf4jnsgd1na2vs0mg"},{"bike_id":"0609b588-e68f-4395-bb7a-acadd140d875","system_id":"levelo_inurba_marseille","lat":43.211899,"lon":5.350714,"is_reserved":false,"is_disabled":false,"rental_uris":{"android":"levelo://app?vid=0609b588-e68f-4395-bb7a-acadd140d875","ios":"levelo://app?vid=0609b588-e68f-4395-bb7a-acadd140d875"},"vehicle_type_id":"4","last_reported":1758132821,"current_range_meters":16800,"station_id":"st_cvj6sg6p6f1abm77japg","pricing_plan_id":"cebpf4jnsgd1na2vs0mg"},{"bike_id":"3e05f3ed-8e5b-42af-9ba3-918515acc360","system_id":"levelo_inurba_marseille","lat":43.22932,"lon":5.35373,"is_reserved":false,"is_disabled":false,"rental_uris":{"android":"levelo://app?vid=3e05f3ed-8e5b-42af-9ba3-918515acc360","ios":"levelo://app?vid=3e05f3ed-8e5b-42af-9ba3-918515acc360"},"vehicle_type_id":"4","last_reported":1758132821,"current_range_meters":17200,"station_id":"cpo3532slgdg3j2ikp40","pricing_plan_id":"cebpf4jnsgd1na2vs0mg"},{"bike_id":"162dbf71-41d9-4795-a794-84df6b34b338","system_id":"levelo_inurba_marseille","lat":43.30794,"lon":5.43532,"is_reserved":false,"is_disabled":false,"rental_uris":{"android":"levelo://app?vid=162dbf71-41d9-4795-a794-84df6b34b338","ios":"levelo://app?vid=162dbf71-41d9-4795-a794-84df6b34b338"},"vehicle_type_id":"4","last_reported":1758132821,"current_range_meters":17200,"station_id":"ce4bhph2rcd13ifvqheg","pricing_plan_id":"cebpf4jnsgd1na2vs0mg"},{"bike_id":"cf66592a-d8fa-4c6c-9927-5d7a9fef5026","system_id":"levelo_inurba_marseille","lat":43.26237,"lon":5.39876,"is_reserved":false,"is_disabled":false,"rental_uris":{"android":"levelo://app?vid=cf66592a-d8fa-4c6c-9927-5d7a9fef5026","ios":"levelo://app?vid=cf66592a-d8fa-4c6c-9927-5d7a9fef5026"},"vehicle_type_id":"4","last_reported":1758132821,"current_range_meters":17200,"station_id":"","pricing_plan_id":"cebpf4jnsgd1na2vs0mg"},{"bike_id":"1da37b3a-d772-478a-a85c-fb719c8bc7a9","system_id":"levelo_inurba_marseille","lat":43.26571,"lon":5.39641,"is_reserved":false,"is_disabled":false,"rental_uris":{"android":"levelo://app?vid=1da37b3a-d772-478a-a85c-fb719c8bc7a9","ios":"levelo://app?vid=1da37b3a-d772-478a-a85c-fb719c8bc7a9"},"vehicle_type_id":"4","last_reported":1758132821,"current_range_meters":17200,"station_id":"","pricing_plan_id":"cebpf4jnsgd1na2vs0mg"},{"bike_id":"e37bbf05-7111-446c-9a71-36af190b151e","system_id":"levelo_inurba_marseille","lat":43.22923,"lon":5.35393,"is_reserved":false,"is_disabled":false,"rental_uris":{"android":"levelo://app?vid=e37bbf05-7111-446c-9a71-36af190b151e","ios":"levelo://app?vid=e37bbf05-7111-446c-9a71-36af190b151e"},"vehicle_type_id":"4","last_reported":1758132821,"current_range_meters":17600,"station_id":"cpo3532slgdg3j2ikp40","pricing_plan_id":"cebpf4jnsgd1na2vs0mg"},{"bike_id":"54a9e03f-d493-4846-8f67-8de130f673c9","system_id":"levelo_inurba_marseille","lat":43.29883,"lon":5.389068,"is_reserved":false,"is_disabled":false,"rental_uris":{"android":"levelo://app?vid=54a9e03f-d493-4846-8f67-8de130f673c9","ios":"levelo://app?vid=54a9e03f-d493-4846-8f67-8de130f673c9"},"vehicle_type_id":"4","last_reported":1758132821,"current_range_meters":17600,"station_id":"ce4bh392rcd13ifvqdl0","pricing_plan_id":"cebpf4jnsgd1na2vs0mg"},{"bike_id":"d7760932-8f24-4624-ba1b-9ac6780bccdf","system_id":"levelo_inurba_marseille","lat":43.29536,"lon":5.37508,"is_reserved":false,"is_disabled":false,"rental_uris":{"android":"levelo://app?vid=d7760932-8f24-4624-ba1b-9ac6780bccdf","ios":"levelo://app?vid=d7760932-8f24-4624-ba1b-9ac6780bccdf"},"vehicle_type_id":"4","last_reported":1758132821,"current_range_meters":17600,"station_id":"ce4bgkp2rcd13ifvqbmg","pricing_plan_id":"cebpf4jnsgd1na2vs0mg"},{"bike_id":"1f813e93-735c-40a4-9f57-b9151f8c001c","system_id":"levelo_inurba_marseille","lat":43.29684,"lon":5.37294,"is_reserved":false,"is_disabled":false,"rental_uris":{"android":"levelo://app?vid=1f813e93-735c-40a4-9f57-b9151f8c001c","ios":"levelo://app?vid=1f813e93-735c-40a4-9f57-b9151f8c001c"},"vehicle_type_id":"4","last_reported":1758132821,"current_range_meters":17600,"station_id":"","pricing_plan_id":"cebpf4jnsgd1na2vs0mg"},{"bike_id":"2f236995-6dba-4a5c-9a11-6d5e710c68d0","system_id":"levelo_inurba_marseille","lat":43.28409,"lon":5.37512,"is_reserved":false,"is_disabled":false,"rental_uris":{"android":"levelo://app?vid=2f236995-6dba-4a5c-9a11-6d5e710c68d0","ios":"levelo://app?vid=2f236995-6dba-4a5c-9a11-6d5e710c68d0"},"vehicle_type_id":"4","last_reported":1758132821,"current_range_meters":17600,"station_id":"ce4bh412rcd13ifvqds0","pricing_plan_id":"cebpf4jnsgd1na2vs0mg"},{"bike_id":"a66b8944-6cea-4817-8024-8e532f57f1cc","system_id":"levelo_inurba_marseille","lat":43.27984,"lon":5.41657,"is_reserved":false,"is_disabled":false,"rental_uris":{"android":"levelo://app?vid=a66b8944-6cea-4817-8024-8e532f57f1cc","ios":"levelo://app?vid=a66b8944-6cea-4817-8024-8e532f57f1cc"},"vehicle_type_id":"4","last_reported":1758132821,"current_range_meters":18000,"station_id":"ce4bho12rcd13ifvqh1g","pricing_plan_id":"cebpf4jnsgd1na2vs0mg"},{"bike_id":"80a9a218-f77f-42ce-8136-b0dceb9fc366","system_id":"levelo_inurba_marseille","lat":43.267867,"lon":5.394102,"is_reserved":false,"is_disabled":true,"rental_uris":{"android":"levelo://app?vid=80a9a218-f77f-42ce-8136-b0dceb9fc366","ios":"levelo://app?vid=80a9a218-f77f-42ce-8136-b0dceb9fc366"},"vehicle_type_id":"4","last_reported":1758132821,"current_range_meters":18000,"station_id":"ce4bhh12rcd13ifvqfg0","pricing_plan_id":"cebpf4jnsgd1na2vs0mg"},{"bike_id":"a19fd154-db82-495f-9c04-8b46e2136bad","system_id":"levelo_inurba_marseille","lat":43.29213,"lon":5.36037,"is_reserved":false,"is_disabled":false,"rental_uris":{"android":"levelo://app?vid=a19fd154-db82-495f-9c04-8b46e2136bad","ios":"levelo://app?vid=a19fd154-db82-495f-9c04-8b46e2136bad"},"vehicle_type_id":"4","last_reported":1758132821,"current_range_meters":18000,"station_id":"ce4bhbh2rcd13ifvqeqg","pricing_plan_id":"cebpf4jnsgd1na2vs0mg"},{"bike_id":"d9f0ae84-d732-44f5-b420-064e325a0d60","system_id":"levelo_inurba_marseille","lat":43.320183,"lon":5.381343,"is_reserved":false,"is_disabled":false,"rental_uris":{"android":"levelo://app?vid=d9f0ae84-d732-44f5-b420-064e325a0d60","ios":"levelo://app?vid=d9f0ae84-d732-44f5-b420-064e325a0d60"},"vehicle_type_id":"4","last_reported":1758132821,"current_range_meters":18000,"station_id":"","pricing_plan_id":"cebpf4jnsgd1na2vs0mg"},{"bike_id":"8b911268-c055-48aa-a297-584fd3a9cf6e","system_id":"levelo_inurba_marseille","lat":43.28426,"lon":5.34998,"is_reserved":false,"is_disabled":true,"rental_uris":{"android":"levelo://app?vid=8b911268-c055-48aa-a297-584fd3a9cf6e","ios":"levelo://app?vid=8b911268-c055-48aa-a297-584fd3a9cf6e"},"vehicle_type_id":"4","last_reported":1758132821,"current_range_meters":18000,"station_id":"ce4bhbh2rcd13ifvqepg","pricing_plan_id":"cebpf4jnsgd1na2vs0mg"},{"bike_id":"a1143759-cff7-4b60-845a-0624c236e0e2","system_id":"levelo_inurba_marseille","lat":43.25334,"lon":5.42178,"is_reserved":false,"is_disabled":false,"rental_uris":{"android":"levelo://app?vid=a1143759-cff7-4b60-845a-0624c236e0e2","ios":"levelo://app?vid=a1143759-cff7-4b60-845a-0624c236e0e2"},"vehicle_type_id":"4","last_reported":1758132821,"current_range_meters":18000,"station_id":"st_d2m65c5bi1j21697t3ng","pricing_plan_id":"cebpf4jnsgd1na2vs0mg"},{"bike_id":"cc8cd99a-660c-4335-9e3a-5690fb63d100","system_id":"levelo_inurba_marseille","lat":43.27373,"lon":5.3626,"is_reserved":false,"is_disabled":false,"rental_uris":{"android":"levelo://app?vid=cc8cd99a-660c-4335-9e3a-5690fb63d100","ios":"levelo://app?vid=cc8cd99a-660c-4335-9e3a-5690fb63d100"},"vehicle_type_id":"4","last_reported":1758132821,"current_range_meters":18000,"station_id":"ce4bhbh2rcd13ifvqeo0","pricing_plan_id":"cebpf4jnsgd1na2vs0mg"},{"bike_id":"fa0847a4-8d8b-47a2-9c0d-c16fe7a48c9b","system_id":"levelo_inurba_marseille","lat":43.330285,"lon":5.390556,"is_reserved":false,"is_disabled":false,"rental_uris":{"android":"levelo://app?vid=fa0847a4-8d8b-47a2-9c0d-c16fe7a48c9b","ios":"levelo://app?vid=fa0847a4-8d8b-47a2-9c0d-c16fe7a48c9b"},"vehicle_type_id":"4","last_reported":1758132821,"current_range_meters":18000,"station_id":"","pricing_plan_id":"cebpf4jnsgd1na2vs0mg"},{"bike_id":"381dc4d2-967d-4952-9fdf-7073dded82a7","system_id":"levelo_inurba_marseille","lat":43.22926,"lon":5.35385,"is_reserved":false,"is_disabled":false,"rental_uris":{"android":"levelo://app?vid=381dc4d2-967d-4952-9fdf-7073dded82a7","ios":"levelo://app?vid=381dc4d2-967d-4952-9fdf-7073dded82a7"},"vehicle_type_id":"4","last_reported":1758132821,"current_range_meters":18000,"station_id":"cpo3532slgdg3j2ikp40","pricing_plan_id":"cebpf4jnsgd1na2vs0mg"},{"bike_id":"42323a1a-489c-43cb-90ae-c675b27444d5","system_id":"levelo_inurba_marseille","lat":43.21652,"lon":5.34381,"is_reserved":false,"is_disabled":false,"rental_uris":{"android":"levelo://app?vid=42323a1a-489c-43cb-90ae-c675b27444d5","ios":"levelo://app?vid=42323a1a-489c-43cb-90ae-c675b27444d5"},"vehicle_type_id":"4","last_reported":1758132821,"current_range_meters":18000,"station_id":"","pricing_plan_id":"cebpf4jnsgd1na2vs0mg"},{"bike_id":"40495e59-b743-486e-987c-cb0c3ab2f191","system_id":"levelo_inurba_marseille","lat":43.332,"lon":5.41075,"is_reserved":false,"is_disabled":false,"rental_uris":{"android":"levelo://app?vid=40495e59-b743-486e-987c-cb0c3ab2f191","ios":"levelo://app?vid=40495e59-b743-486e-987c-cb0c3ab2f191"},"vehicle_type_id":"4","last_reported":1758132821,"current_range_meters":18000,"station_id":"","pricing_plan_id":"cebpf4jnsgd1na2vs0mg"},{"bike_id":"b57fa0ee-0bf9-491f-a9cd-fd94054e206e","system_id":"levelo_inurba_marseille","lat":43.24945,"lon":5.40488,"is_reserved":false,"is_disabled":false,"rental_uris":{"android":"levelo://app?vid=b57fa0ee-0bf9-491f-a9cd-fd94054e206e","ios":"levelo://app?vid=b57fa0ee-0bf9-491f-a9cd-fd94054e206e"},"vehicle_type_id":"4","last_reported":1758132821,"current_range_meters":18000,"station_id":"st_d2ngiaodas8pm72gd1h0","pricing_plan_id":"cebpf4jnsgd1na2vs0mg"},{"bike_id":"be9ee84b-9ec1-497c-800c-5907ad1418ae","system_id":"levelo_inurba_marseille","lat":43.22559,"lon":5.41633,"is_reserved":false,"is_disabled":false,"rental_uris":{"android":"levelo://app?vid=be9ee84b-9ec1-497c-800c-5907ad1418ae","ios":"levelo://app?vid=be9ee84b-9ec1-497c-800c-5907ad1418ae"},"vehicle_type_id":"4","last_reported":1758132821,"current_range_meters":18000,"station_id":"st_d2o4gvlbi1j2169b742g","pricing_plan_id":"cebpf4jnsgd1na2vs0mg"},{"bike_id":"e1f51025-1404-4cca-96b7-273119670d5f","system_id":"levelo_inurba_marseille","lat":43.25185,"lon":5.42847,"is_reserved":false,"is_disabled":false,"rental_uris":{"android":"levelo://app?vid=e1f51025-1404-4cca-96b7-273119670d5f","ios":"levelo://app?vid=e1f51025-1404-4cca-96b7-273119670d5f"},"vehicle_type_id":"4","last_reported":1758132821,"current_range_meters":18000,"station_id":"","pricing_plan_id":"cebpf4jnsgd1na2vs0mg"},{"bike_id":"adf19941-6925-49e3-b023-4f911ffc887f","system_id":"levelo_inurba_marseille","lat":43.32364,"lon":5.36754,"is_reserved":false,"is_disabled":true,"rental_uris":{"android":"levelo://app?vid=adf19941-6925-49e3-b023-4f911ffc887f","ios":"levelo://app?vid=adf19941-6925-49e3-b023-4f911ffc887f"},"vehicle_type_id":"4","last_reported":1758132821,"current_range_meters":18000,"station_id":"ce4bhsh2rcd13ifvqi2g","pricing_plan_id":"cebpf4jnsgd1na2vs0mg"},{"bike_id":"ce8177c2-0ae5-4e2d-b4a8-ec3b4338eab2","system_id":"levelo_inurba_marseille","lat":43.295242,"lon":5.37512,"is_reserved":false,"is_disabled":false,"rental_uris":{"android":"levelo://app?vid=ce8177c2-0ae5-4e2d-b4a8-ec3b4338eab2","ios":"levelo://app?vid=ce8177c2-0ae5-4e2d-b4a8-ec3b4338eab2"},"vehicle_type_id":"4","last_reported":1758132821,"current_range_meters":18000,"station_id":"ce4bgkp2rcd13ifvqbmg","pricing_plan_id":"cebpf4jnsgd1na2vs0mg"},{"bike_id":"ef5c3a14-bf5a-4104-b630-d95a65501586","system_id":"levelo_inurba_marseille","lat":43.29917,"lon":5.37463,"is_reserved":false,"is_disabled":false,"rental_uris":{"android":"levelo://app?vid=ef5c3a14-bf5a-4104-b630-d95a65501586","ios":"levelo://app?vid=ef5c3a14-bf5a-4104-b630-d95a65501586"},"vehicle_type_id":"4","last_reported":1758132821,"current_range_meters":18000,"station_id":"ce4bgjh2rcd13ifvqbg0","pricing_plan_id":"cebpf4jnsgd1na2vs0mg"},{"bike_id":"0a68362e-f5d3-40c2-8eb6-58b476c1e495","system_id":"levelo_inurba_marseille","lat":43.2775,"lon":5.41021,"is_reserved":false,"is_disabled":false,"rental_uris":{"android":"levelo://app?vid=0a68362e-f5d3-40c2-8eb6-58b476c1e495","ios":"levelo://app?vid=0a68362e-f5d3-40c2-8eb6-58b476c1e495"},"vehicle_type_id":"4","last_reported":1758132821,"current_range_meters":18800,"station_id":"","pricing_plan_id":"cebpf4jnsgd1na2vs0mg"},{"bike_id":"17e32bd2-1c59-42b3-819b-651708de8579","system_id":"levelo_inurba_marseille","lat":43.283496,"lon":5.381023,"is_reserved":false,"is_disabled":true,"rental_uris":{"android":"levelo://app?vid=17e32bd2-1c59-42b3-819b-651708de8579","ios":"levelo://app?vid=17e32bd2-1c59-42b3-819b-651708de8579"},"vehicle_type_id":"4","last_reported":1758132821,"current_range_meters":18800,"station_id":"","pricing_plan_id":"cebpf4jnsgd1na2vs0mg"},{"bike_id":"d93f6aec-282b-42a6-9be0-fe23bad38a2b","system_id":"levelo_inurba_marseille","lat":43.246346,"lon":5.43144,"is_reserved":false,"is_disabled":true,"rental_uris":{"android":"levelo://app?vid=d93f6aec-282b-42a6-9be0-fe23bad38a2b","ios":"levelo://app?vid=d93f6aec-282b-42a6-9be0-fe23bad38a2b"},"vehicle_type_id":"4","last_reported":1758132821,"current_range_meters":18800,"station_id":"st_d2m6c4gdas8pm72e190g","pricing_plan_id":"cebpf4jnsgd1na2vs0mg"},{"bike_id":"a4faa1fd-62ee-404a-aff8-b79ea6b6b5d2","system_id":"levelo_inurba_marseille","lat":43.32986,"lon":5.39245,"is_reserved":false,"is_disabled":false,"rental_uris":{"android":"levelo://app?vid=a4faa1fd-62ee-404a-aff8-b79ea6b6b5d2","ios":"levelo://app?vid=a4faa1fd-62ee-404a-aff8-b79ea6b6b5d2"},"vehicle_type_id":"4","last_reported":1758132821,"current_range_meters":18800,"station_id":"","pricing_plan_id":"cebpf4jnsgd1na2vs0mg"},{"bike_id":"6499745b-7b8b-4d81-afa4-ba9c05652a7b","system_id":"levelo_inurba_marseille","lat":43.28551,"lon":5.37788,"is_reserved":false,"is_disabled":false,"rental_uris":{"android":"levelo://app?vid=6499745b-7b8b-4d81-afa4-ba9c05652a7b","ios":"levelo://app?vid=6499745b-7b8b-4d81-afa4-ba9c05652a7b"},"vehicle_type_id":"4","last_reported":1758132821,"current_range_meters":18800,"station_id":"","pricing_plan_id":"cebpf4jnsgd1na2vs0mg"},{"bike_id":"0d186d62-ef82-4cd3-8786-e540bb7c19f6","system_id":"levelo_inurba_marseille","lat":43.23155,"lon":5.43705,"is_reserved":false,"is_disabled":false,"rental_uris":{"android":"levelo://app?vid=0d186d62-ef82-4cd3-8786-e540bb7c19f6","ios":"levelo://app?vid=0d186d62-ef82-4cd3-8786-e540bb7c19f6"},"vehicle_type_id":"4","last_reported":1758132821,"current_range_meters":18800,"station_id":"ce4bhmp2rcd13ifvqgog","pricing_plan_id":"cebpf4jnsgd1na2vs0mg"},{"bike_id":"acfec73f-5435-48eb-a869-eeb3dc5252c8","system_id":"levelo_inurba_marseille","lat":43.31297,"lon":5.37867,"is_reserved":false,"is_disabled":false,"rental_uris":{"android":"levelo://app?vid=acfec73f-5435-48eb-a869-eeb3dc5252c8","ios":"levelo://app?vid=acfec73f-5435-48eb-a869-eeb3dc5252c8"},"vehicle_type_id":"4","last_reported":1758132821,"current_range_meters":18800,"station_id":"","pricing_plan_id":"cebpf4jnsgd1na2vs0mg"},{"bike_id":"1aab34c7-5cba-455b-9967-92200a0b67a4","system_id":"levelo_inurba_marseille","lat":43.27077,"lon":5.42282,"is_reserved":false,"is_disabled":false,"rental_uris":{"android":"levelo://app?vid=1aab34c7-5cba-455b-9967-92200a0b67a4","ios":"levelo://app?vid=1aab34c7-5cba-455b-9967-92200a0b67a4"},"vehicle_type_id":"4","last_reported":1758132821,"current_range_meters":18000,"station_id":"ce4bhk92rcd13ifvqgb0","pricing_plan_id":"cebpf4jnsgd1na2vs0mg"},{"bike_id":"cc7d7d02-36e4-4f17-b0aa-dd19f943dfdf","system_id":"levelo_inurba_marseille","lat":43.29261,"lon":5.38446,"is_reserved":false,"is_disabled":false,"rental_uris":{"android":"levelo://app?vid=cc7d7d02-36e4-4f17-b0aa-dd19f943dfdf","ios":"levelo://app?vid=cc7d7d02-36e4-4f17-b0aa-dd19f943dfdf"},"vehicle_type_id":"4","last_reported":1758132821,"current_range_meters":19200,"station_id":"ce4bh692rcd13ifvqea0","pricing_plan_id":"cebpf4jnsgd1na2vs0mg"},{"bike_id":"19347956-a670-4ab6-bb99-762b7eb49654","system_id":"levelo_inurba_marseille","lat":43.29526,"lon":5.3855,"is_reserved":false,"is_disabled":false,"rental_uris":{"android":"levelo://app?vid=19347956-a670-4ab6-bb99-762b7eb49654","ios":"levelo://app?vid=19347956-a670-4ab6-bb99-762b7eb49654"},"vehicle_type_id":"4","last_reported":1758132821,"current_range_meters":19200,"station_id":"ce4bgih2rcd13ifvqba0","pricing_plan_id":"cebpf4jnsgd1na2vs0mg"},{"bike_id":"2629186d-091d-4262-b45e-1bc42bdd62e9","system_id":"levelo_inurba_marseille","lat":43.29099,"lon":5.38169,"is_reserved":false,"is_disabled":true,"rental_uris":{"android":"levelo://app?vid=2629186d-091d-4262-b45e-1bc42bdd62e9","ios":"levelo://app?vid=2629186d-091d-4262-b45e-1bc42bdd62e9"},"vehicle_type_id":"4","last_reported":1758132821,"current_range_meters":19200,"station_id":"ce4bh512rcd13ifvqe2g","pricing_plan_id":"cebpf4jnsgd1na2vs0mg"},{"bike_id":"8c28d726-40ee-44cb-871f-c030e17382ee","system_id":"levelo_inurba_marseille","lat":43.292868,"lon":5.371717,"is_reserved":false,"is_disabled":false,"rental_uris":{"android":"levelo://app?vid=8c28d726-40ee-44cb-871f-c030e17382ee","ios":"levelo://app?vid=8c28d726-40ee-44cb-871f-c030e17382ee"},"vehicle_type_id":"4","last_reported":1758132821,"current_range_meters":19200,"station_id":"","pricing_plan_id":"cebpf4jnsgd1na2vs0mg"},{"bike_id":"10e81f8e-4bfd-4288-8398-3f73e52c24df","system_id":"levelo_inurba_marseille","lat":43.29525,"lon":5.39037,"is_reserved":false,"is_disabled":false,"rental_uris":{"android":"levelo://app?vid=10e81f8e-4bfd-4288-8398-3f73e52c24df","ios":"levelo://app?vid=10e81f8e-4bfd-4288-8398-3f73e52c24df"},"vehicle_type_id":"4","last_reported":1758132821,"current_range_meters":18800,"station_id":"ce4bh3p2rcd13ifvqdp0","pricing_plan_id":"cebpf4jnsgd1na2vs0mg"},{"bike_id":"bd185fbb-729f-4221-8aa9-562ca885c1f5","system_id":"levelo_inurba_marseille","lat":43.22563,"lon":5.41624,"is_reserved":false,"is_disabled":false,"rental_uris":{"android":"levelo://app?vid=bd185fbb-729f-4221-8aa9-562ca885c1f5","ios":"levelo://app?vid=bd185fbb-729f-4221-8aa9-562ca885c1f5"},"vehicle_type_id":"4","last_reported":1758132821,"current_range_meters":19200,"station_id":"st_d2o4gvlbi1j2169b742g","pricing_plan_id":"cebpf4jnsgd1na2vs0mg"},{"bike_id":"45f6ceba-3123-4bb2-a6a1-083f1e953c55","system_id":"levelo_inurba_marseille","lat":43.30799,"lon":5.43534,"is_reserved":false,"is_disabled":false,"rental_uris":{"android":"levelo://app?vid=45f6ceba-3123-4bb2-a6a1-083f1e953c55","ios":"levelo://app?vid=45f6ceba-3123-4bb2-a6a1-083f1e953c55"},"vehicle_type_id":"4","last_reported":1758132821,"current_range_meters":19600,"station_id":"ce4bhph2rcd13ifvqheg","pricing_plan_id":"cebpf4jnsgd1na2vs0mg"},{"bike_id":"3ae424df-31ee-4600-bf43-9b2752356fdd","system_id":"levelo_inurba_marseille","lat":43.29076,"lon":5.37161,"is_reserved":false,"is_disabled":false,"rental_uris":{"android":"levelo://app?vid=3ae424df-31ee-4600-bf43-9b2752356fdd","ios":"levelo://app?vid=3ae424df-31ee-4600-bf43-9b2752356fdd"},"vehicle_type_id":"4","last_reported":1758132821,"current_range_meters":19200,"station_id":"ce4bh5p2rcd13ifvqe4g","pricing_plan_id":"cebpf4jnsgd1na2vs0mg"},{"bike_id":"e758d7ef-59f8-4bed-9771-0f2776f3826b","system_id":"levelo_inurba_marseille","lat":43.33731,"lon":5.37486,"is_reserved":false,"is_disabled":false,"rental_uris":{"android":"levelo://app?vid=e758d7ef-59f8-4bed-9771-0f2776f3826b","ios":"levelo://app?vid=e758d7ef-59f8-4bed-9771-0f2776f3826b"},"vehicle_type_id":"4","last_reported":1758132821,"current_range_meters":19600,"station_id":"","pricing_plan_id":"cebpf4jnsgd1na2vs0mg"},{"bike_id":"9e28458e-4e0c-4c6e-bda1-70b63e4505e4","system_id":"levelo_inurba_marseille","lat":43.27203,"lon":5.391827,"is_reserved":false,"is_disabled":false,"rental_uris":{"android":"levelo://app?vid=9e28458e-4e0c-4c6e-bda1-70b63e4505e4","ios":"levelo://app?vid=9e28458e-4e0c-4c6e-bda1-70b63e4505e4"},"vehicle_type_id":"4","last_reported":1758132821,"current_range_meters":19600,"station_id":"","pricing_plan_id":"cebpf4jnsgd1na2vs0mg"},{"bike_id":"8f25cc58-874b-4f23-931b-56282f60e4cf","system_id":"levelo_inurba_marseille","lat":43.330238,"lon":5.390447,"is_reserved":false,"is_disabled":false,"rental_uris":{"android":"levelo://app?vid=8f25cc58-874b-4f23-931b-56282f60e4cf","ios":"levelo://app?vid=8f25cc58-874b-4f23-931b-56282f60e4cf"},"vehicle_type_id":"4","last_reported":1758132821,"current_range_meters":19600,"station_id":"ce4bhr92rcd13ifvqhrg","pricing_plan_id":"cebpf4jnsgd1na2vs0mg"},{"bike_id":"5df1311a-de9d-443e-b3e5-5cb85aa499d1","system_id":"levelo_inurba_marseille","lat":43.28154,"lon":5.4264,"is_reserved":false,"is_disabled":false,"rental_uris":{"android":"levelo://app?vid=5df1311a-de9d-443e-b3e5-5cb85aa499d1","ios":"levelo://app?vid=5df1311a-de9d-443e-b3e5-5cb85aa499d1"},"vehicle_type_id":"4","last_reported":1758132821,"current_range_meters":20000,"station_id":"ce4bhnh2rcd13ifvqgug","pricing_plan_id":"cebpf4jnsgd1na2vs0mg"},{"bike_id":"e942f984-8fe7-48d1-8f04-3806656b9996","system_id":"levelo_inurba_marseille","lat":43.33617,"lon":5.37939,"is_reserved":false,"is_disabled":false,"rental_uris":{"android":"levelo://app?vid=e942f984-8fe7-48d1-8f04-3806656b9996","ios":"levelo://app?vid=e942f984-8fe7-48d1-8f04-3806656b9996"},"vehicle_type_id":"4","last_reported":1758132821,"current_range_meters":20000,"station_id":"","pricing_plan_id":"cebpf4jnsgd1na2vs0mg"},{"bike_id":"d5cc17b5-35e1-4412-885f-d1f1b7001451","system_id":"levelo_inurba_marseille","lat":43.30812,"lon":5.38139,"is_reserved":false,"is_disabled":false,"rental_uris":{"android":"levelo://app?vid=d5cc17b5-35e1-4412-885f-d1f1b7001451","ios":"levelo://app?vid=d5cc17b5-35e1-4412-885f-d1f1b7001451"},"vehicle_type_id":"4","last_reported":1758132821,"current_range_meters":20000,"station_id":"ce4bgt12rcd13ifvqce0","pricing_plan_id":"cebpf4jnsgd1na2vs0mg"},{"bike_id":"9e989ad0-127c-4aaa-b2b6-e5855ee93cd6","system_id":"levelo_inurba_marseille","lat":43.29024,"lon":5.37554,"is_reserved":false,"is_disabled":false,"rental_uris":{"android":"levelo://app?vid=9e989ad0-127c-4aaa-b2b6-e5855ee93cd6","ios":"levelo://app?vid=9e989ad0-127c-4aaa-b2b6-e5855ee93cd6"},"vehicle_type_id":"4","last_reported":1758132821,"current_range_meters":20000,"station_id":"ce4bh692rcd13ifvqe90","pricing_plan_id":"cebpf4jnsgd1na2vs0mg"},{"bike_id":"f9418cc9-c64d-43d9-9060-3aeedd69cdee","system_id":"levelo_inurba_marseille","lat":43.33051,"lon":5.37869,"is_reserved":false,"is_disabled":false,"rental_uris":{"android":"levelo://app?vid=f9418cc9-c64d-43d9-9060-3aeedd69cdee","ios":"levelo://app?vid=f9418cc9-c64d-43d9-9060-3aeedd69cdee"},"vehicle_type_id":"4","last_reported":1758132821,"current_range_meters":20000,"station_id":"","pricing_plan_id":"cebpf4jnsgd1na2vs0mg"},{"bike_id":"eef07bdc-2592-47ec-b693-e0c4be9c19ff","system_id":"levelo_inurba_marseille","lat":43.258198,"lon":5.39441,"is_reserved":false,"is_disabled":false,"rental_uris":{"android":"levelo://app?vid=eef07bdc-2592-47ec-b693-e0c4be9c19ff","ios":"levelo://app?vid=eef07bdc-2592-47ec-b693-e0c4be9c19ff"},"vehicle_type_id":"4","last_reported":1758132821,"current_range_meters":20400,"station_id":"","pricing_plan_id":"cebpf4jnsgd1na2vs0mg"},{"bike_id":"6eb09890-4815-495a-822e-dd79e9673a74","system_id":"levelo_inurba_marseille","lat":43.292722,"lon":5.368542,"is_reserved":false,"is_disabled":false,"rental_uris":{"android":"levelo://app?vid=6eb09890-4815-495a-822e-dd79e9673a74","ios":"levelo://app?vid=6eb09890-4815-495a-822e-dd79e9673a74"},"vehicle_type_id":"4","last_reported":1758132821,"current_range_meters":20400,"station_id":"ce4bhbp2rcd13ifvqesg","pricing_plan_id":"cebpf4jnsgd1na2vs0mg"},{"bike_id":"128ad006-a047-448b-8e00-1d37ffd14fc4","system_id":"levelo_inurba_marseille","lat":43.29305,"lon":5.37172,"is_reserved":false,"is_disabled":false,"rental_uris":{"android":"levelo://app?vid=128ad006-a047-448b-8e00-1d37ffd14fc4","ios":"levelo://app?vid=128ad006-a047-448b-8e00-1d37ffd14fc4"},"vehicle_type_id":"4","last_reported":1758132821,"current_range_meters":20400,"station_id":"","pricing_plan_id":"cebpf4jnsgd1na2vs0mg"},{"bike_id":"b69333fb-c85e-41fc-b0d7-837153896f4b","system_id":"levelo_inurba_marseille","lat":43.239612,"lon":5.366193,"is_reserved":false,"is_disabled":false,"rental_uris":{"android":"levelo://app?vid=b69333fb-c85e-41fc-b0d7-837153896f4b","ios":"levelo://app?vid=b69333fb-c85e-41fc-b0d7-837153896f4b"},"vehicle_type_id":"4","last_reported":1758132821,"current_range_meters":20400,"station_id":"ce4bhi12rcd13ifvqfp0","pricing_plan_id":"cebpf4jnsgd1na2vs0mg"},{"bike_id":"491a320f-7a21-44d0-851c-18c60270a70b","system_id":"levelo_inurba_marseille","lat":43.28708,"lon":5.37942,"is_reserved":false,"is_disabled":false,"rental_uris":{"android":"levelo://app?vid=491a320f-7a21-44d0-851c-18c60270a70b","ios":"levelo://app?vid=491a320f-7a21-44d0-851c-18c60270a70b"},"vehicle_type_id":"4","last_reported":1758132821,"current_range_meters":20400,"station_id":"ce4bh9p2rcd13ifvqec0","pricing_plan_id":"cebpf4jnsgd1na2vs0mg"},{"bike_id":"2c734c36-442f-468e-ab47-e34ad5183e32","system_id":"levelo_inurba_marseille","lat":43.27256,"lon":5.38008,"is_reserved":false,"is_disabled":false,"rental_uris":{"android":"levelo://app?vid=2c734c36-442f-468e-ab47-e34ad5183e32","ios":"levelo://app?vid=2c734c36-442f-468e-ab47-e34ad5183e32"},"vehicle_type_id":"4","last_reported":1758132821,"current_range_meters":20800,"station_id":"","pricing_plan_id":"cebpf4jnsgd1na2vs0mg"},{"bike_id":"855b4161-8c31-4976-ae15-35853c4187b3","system_id":"levelo_inurba_marseille","lat":43.29032,"lon":5.38657,"is_reserved":false,"is_disabled":false,"rental_uris":{"android":"levelo://app?vid=855b4161-8c31-4976-ae15-35853c4187b3","ios":"levelo://app?vid=855b4161-8c31-4976-ae15-35853c4187b3"},"vehicle_type_id":"4","last_reported":1758132821,"current_range_meters":20800,"station_id":"ce4bh4p2rcd13ifvqe0g","pricing_plan_id":"cebpf4jnsgd1na2vs0mg"},{"bike_id":"bf6e6d27-c09e-4725-9fbc-20073fd5a515","system_id":"levelo_inurba_marseille","lat":43.289376,"lon":5.396214,"is_reserved":false,"is_disabled":false,"rental_uris":{"android":"levelo://app?vid=bf6e6d27-c09e-4725-9fbc-20073fd5a515","ios":"levelo://app?vid=bf6e6d27-c09e-4725-9fbc-20073fd5a515"},"vehicle_type_id":"4","last_reported":1758132821,"current_range_meters":20800,"station_id":"","pricing_plan_id":"cebpf4jnsgd1na2vs0mg"},{"bike_id":"0960e3dd-c358-4474-bd10-8223758e1f6b","system_id":"levelo_inurba_marseille","lat":43.296996,"lon":5.376855,"is_reserved":false,"is_disabled":false,"rental_uris":{"android":"levelo://app?vid=0960e3dd-c358-4474-bd10-8223758e1f6b","ios":"levelo://app?vid=0960e3dd-c358-4474-bd10-8223758e1f6b"},"vehicle_type_id":"4","last_reported":1758132821,"current_range_meters":20800,"station_id":"","pricing_plan_id":"cebpf4jnsgd1na2vs0mg"},