{"last_updated":1765984381,"ttl":60,"version":"2.2","data":{"bikes":[{"bike_id":"f2d98c1e-e7f4-47cd-97f9-e547a0fbfe8c","system_id":"levelo_inurba_marseille","lat":43.337444,"lon":5.374475,"is_reserved":false,"is_disabled":false,"rental_uris":{"android":"levelo://app?vid=f2d98c1e-e7f4-47cd-97f9-e547a0fbfe8c","ios":"levelo://app?vid=f2d98c1e-e7f4-47cd-97f9-e547a0fbfe8c"},"vehicle_type_id":"4","last_reported":1765984381,"current_range_meters":0,"station_id":"","pricing_plan_id":"cebpf4jnsgd1na2vs0mg"},{"bike_id":"79246e22-e0f8-447e-9683-d28810059979","system_id":"levelo_inurba_marseille","lat":43.337444,"lon":5.374475,"is_reserved":false,"is_disabled":false,"rental_uris":{"android":"levelo://app?vid=79246e22-e0f8-447e-9683-d28810059979","ios":"levelo://app?vid=79246e22-e0f8-447e-9683-d28810059979"},"vehicle_type_id":"4","last_reported":1765984381,"current_range_meters":0,"station_id":"","pricing_plan_id":"cebpf4jnsgd1na2vs0mg"},{"bike_id":"6d901562-db38-445e-ac8c-ddafe7632b18","system_id":"levelo_inurba_marseille","lat":43.337444,"lon":5.374475,"is_reserved":false,"is_disabled":false,"rental_uris":{"android":"levelo://app?vid=6d901562-db38-445e-ac8c-ddafe7632b18","ios":"levelo://app?vid=6d901562-db38-445e-ac8c-ddafe7632b18"},"vehicle_type_id":"4","last_reported":1765984381,"current_range_meters":0,"station_id":"","pricing_plan_id":"cebpf4jnsgd1na2vs0mg"},{"bike_id":"1084df32-4622-4d83-89ce-d5dda7807608","system_id":"levelo_inurba_marseille","lat":43.337444,"lon":5.374475,"is_reserved":false,"is_disabled":false,"rental_uris":{"android":"levelo://app?vid=1084df32-4622-4d83-89ce-d5dda7807608","ios":"levelo://app?vid=1084df32-4622-4d83-89ce-d5dda7807608"},"vehicle_type_id":"4","last_reported":1765984381,"current_range_meters":0,"station_id":"","pricing_plan_id":"cebpf4jnsgd1na2vs0mg"},{"bike_id":"a14771ed-1e54-4c17-9637-eecc8f53fd78","system_id":"levelo_inurba_marseille","lat":43.337444,"lon":5.374475,"is_reserved":false,"is_disabled":false,"rental_uris":{"android":"levelo://app?vid=a14771ed-1e54-4c17-9637-eecc8f53fd78","ios":"levelo://app?vid=a14771ed-1e54-4c17-9637-eecc8f53fd78"},"vehicle_type_id":"4","last_reported":1765984381,"current_range_meters":0,"station_id":"","pricing_plan_id":"cebpf4jnsgd1na2vs0mg"},{"bike_id":"2c571466-b6f3-48e2-9381-e2a8258cc9c5","system_id":"levelo_inurba_marseille","lat":43.337444,"lon":5.374475,"is_reserved":false,"is_disabled":false,"rental_uris":{"android":"levelo://app?vid=2c571466-b6f3-48e2-9381-e2a8258cc9c5","ios":"levelo://app?vid=2c571466-b6f3-48e2-9381-e2a8258cc9c5"},"vehicle_type_id":"4","last_reported":1765984381,"current_range_meters":0,"station_id":"","pricing_plan_id":"cebpf4jnsgd1na2vs0mg"},{"bike_id":"b97f09df-27b0-4e3e-8af9-6ce53b67b655","system_id":"levelo_inurba_marseille","lat":43.337444,"lon":5.374475,"is_reserved":false,"is_disabled":false,"rental_uris":{"android":"levelo://app?vid=b97f09df-27b0-4e3e-8af9-6ce53b67b655","ios":"levelo://app?vid=b97f09df-27b0-4e3e-8af9-6ce53b67b655"},"vehicle_type_id":"4","last_reported":1765984381,"current_range_meters":0,"station_id":"","pricing_plan_id":"cebpf4jnsgd1na2vs0mg"},{"bike_id":"ecd40b02-c8df-40ea-83b2-4de975a1fcf9","system_id":"levelo_inurba_marseille","lat":43.337444,"lon":5.374475,"is_reserved":false,"is_disabled":false,"rental_uris":{"android":"levelo://app?vid=ecd40b02-c8df-40ea-83b2-4de975a1fcf9","ios":"levelo://app?vid=ecd40b02-c8df-40ea-83b2-4de975a1fcf9"},"vehicle_type_id":"4","last_reported":1765984381,"current_range_meters":0,"station_id":"","pricing_plan_id":"cebpf4jnsgd1na2vs0mg"},{"bike_id":"3ff21444-9aaa-45d4-89ca-50a292beebb6","system_id":"levelo_inurba_marseille","lat":43.337444,"lon":5.374475,"is_reserved":false,"is_disabled":false,"rental_uris":{"android":"levelo://app?vid=3ff21444-9aaa-45d4-89ca-50a292beebb6","ios":"levelo://app?vid=3ff21444-9aaa-45d4-89ca-50a292beebb6"},"vehicle_type_id":"4","last_reported":1765984381,"current_range_meters":0,"station_id":"","pricing_plan_id":"cebpf4jnsgd1na2vs0mg"},{"bike_id":"49b39c2d-9c7c-4a0b-8893-296b59d0dca0","system_id":"levelo_inurba_marseille","lat":43.337444,"lon":5.374475,"is_reserved":false,"is_disabled":false,"rental_uris":{"android":"levelo://app?vid=49b39c2d-9c7c-4a0b-8893-296b59d0dca0","ios":"levelo://app?vid=49b39c2d-9c7c-4a0b-8893-296b59d0dca0"},"vehicle_type_id":"4","last_reported":1765984381,"current_range_meters":0,"station_id":"","pricing_plan_id":"cebpf4jnsgd1na2vs0mg"},{"bike_id":"03fa6e54-c418-4aa3-8186-b385f8aaf0f6","system_id":"levelo_inurba_marseille","lat":43.337444,"lon":5.374475,"is_reserved":false,"is_disabled":false,"rental_uris":{"android":"levelo://app?vid=03fa6e54-c418-4aa3-8186-b385f8aaf0f6","ios":"levelo://app?vid=03fa6e54-c418-4aa3-8186-b385f8aaf0f6"},"vehicle_type_id":"4","last_reported":1765984381,"current_range_meters":0,"station_id":"","pricing_plan_id":"cebpf4jnsgd1na2vs0mg"},{"bike_id":"d6b85c59-8715-43f6-a464-c15ac96deea2","system_id":"levelo_inurba_marseille","lat":43.337444,"lon":5.374475,"is_reserved":false,"is_disabled":false,"rental_uris":{"android":"levelo://app?vid=d6b85c59-8715-43f6-a464-c15ac96deea2","ios":"levelo://app?vid=d6b85c59-8715-43f6-a464-c15ac96deea2"},"vehicle_type_id":"4","last_reported":1765984381,"current_range_meters":0,"station_id":"","pricing_plan_id":"cebpf4jnsgd1na2vs0mg"},{"bike_id":"0520fee5-d3ce-4160-ae71-75b37c11ff97","system_id":"levelo_inurba_marseille","lat":43.337444,"lon":5.374475,"is_reserved":false,"is_disabled":false,"rental_uris":{"android":"levelo://app?vid=0520fee5-d3ce-4160-ae71-75b37c11ff97","ios":"levelo://app?vid=0520fee5-d3ce-4160-ae71-75b37c11ff97"},"vehicle_type_id":"4","last_reported":1765984381,"current_range_meters":0,"station_id":"","pricing_plan_id":"cebpf4jnsgd1na2vs0mg"},{"bike_id":"b310cf75-1f14-4717-80ac-6353171a57f1","system_id":"levelo_inurba_marseille","lat":43.337444,"lon":5.374475,"is_reserved":false,"is_disabled":false,"rental_uris":{"android":"levelo://app?vid=b310cf75-1f14-4717-80ac-6353171a57f1","ios":"levelo://app?vid=b310cf75-1f14-4717-80ac-6353171a57f1"},"vehicle_type_id":"4","last_reported":1765984381,"current_range_meters":0,"station_id":"","pricing_plan_id":"cebpf4jnsgd1na2vs0mg"},{"bike_id":"0284348f-f731-476e-9f47-f20f67d5bdc1","system_id":"levelo_inurba_marseille","lat":43.337444,"lon":5.374475,"is_reserved":false,"is_disabled":false,"rental_uris":{"android":"levelo://app?vid=0284348f-f731-476e-9f47-f20f67d5bdc1","ios":"levelo://app?vid=0284348f-f731-476e-9f47-f20f67d5bdc1"},"vehicle_type_id":"4","last_reported":1765984381,"current_range_meters":0,"station_id":"","pricing_plan_id":"cebpf4jnsgd1na2vs0mg"},{"bike_id":"4b6cb2e8-03e3-4ff3-94f3-c309ebbd4b85","system_id":"levelo_inurba_marseille","lat":43.337444,"lon":5.374475,"is_reserved":false,"is_disabled":false,"rental_uris":{"android":"levelo://app?vid=4b6cb2e8-03e3-4ff3-94f3-c309ebbd4b85","ios":"levelo://app?vid=4b6cb2e8-03e3-4ff3-94f3-c309ebbd4b85"},"vehicle_type_id":"4","last_reported":1765984381,"current_range_meters":0,"station_id":"","pricing_plan_id":"cebpf4jnsgd1na2vs0mg"},{"bike_id":"d120968c-1436-46f1-ac9a-bb3a70936847","system_id":"levelo_inurba_marseille","lat":43.337444,"lon":5.374475,"is_reserved":false,"is_disabled":false,"rental_uris":{"android":"levelo://app?vid=d120968c-1436-46f1-ac9a-bb3a70936847","ios":"levelo://app?vid=d120968c-1436-46f1-ac9a-bb3a70936847"},"vehicle_type_id":"4","last_reported":1765984381,"current_range_meters":0,"station_id":"","pricing_plan_id":"cebpf4jnsgd1na2vs0mg"},{"bike_id":"3c4c37ec-dd35-46fb-858b-671aa4f02aad","system_id":"levelo_inurba_marseille","lat":43.337444,"lon":5.374475,"is_reserved":false,"is_disabled":false,"rental_uris":{"android":"levelo://app?vid=3c4c37ec-dd35-46fb-858b-671aa4f02aad","ios":"levelo://app?vid=3c4c37ec-dd35-46fb-858b-671aa4f02aad"},"vehicle_type_id":"4","last_reported":1765984381,"current_range_meters":0,"station_id":"","pricing_plan_id":"cebpf4jnsgd1na2vs0mg"},{"bike_id":"968a2298-b8d9-4021-ad18-9931f56e8661","system_id":"levelo_inurba_marseille","lat":43.337444,"lon":5.374475,"is_reserved":false,"is_disabled":false,"rental_uris":{"android":"levelo://app?vid=968a2298-b8d9-4021-ad18-9931f56e8661","ios":"levelo://app?vid=968a2298-b8d9-4021-ad18-9931f56e8661"},"vehicle_type_id":"4","last_reported":1765984381,"current_range_meters":0,"station_id":"","pricing_plan_id":"cebpf4jnsgd1na2vs0mg"},{"bike_id":"ab543073-81e2-4ebf-b9b7-ae19d02c53cc","system_id":"levelo_inurba_marseille","lat":43.337444,"lon":5.374475,"is_reserved":false,"is_disabled":false,"rental_uris":{"android":"levelo://app?vid=ab543073-81e2-4ebf-b9b7-ae19d02c53cc","ios":"levelo://app?vid=ab543073-81e2-4ebf-b9b7-ae19d02c53cc"},"vehicle_type_id":"4","last_reported":1765984381,"current_range_meters":0,"station_id":"","pricing_plan_id":"cebpf4jnsgd1na2vs0mg"},{"bike_id":"cbc56821-822b-4fe3-a41e-1c6b5c417bbf","system_id":"levelo_inurba_marseille","lat":43.337444,"lon":5.374475,"is_reserved":false,"is_disabled":false,"rental_uris":{"android":"levelo://app?vid=cbc56821-822b-4fe3-a41e-1c6b5c417bbf","ios":"levelo://app?vid=cbc56821-822b-4fe3-a41e-1c6b5c417bbf"},"vehicle_type_id":"4","last_reported":1765984381,"current_range_meters":0,"station_id":"","pricing_plan_id":"cebpf4jnsgd1na2vs0mg"},{"bike_id":"320e2e07-0349-426d-ac46-dce6d038433c","system_id":"levelo_inurba_marseille","lat":43.337444,"lon":5.374475,"is_reserved":false,"is_disabled":false,"rental_uris":{"android":"levelo://app?vid=320e2e07-0349-426d-ac46-dce6d038433c","ios":"levelo://app?vid=320e2e07-0349-426d-ac46-dce6d038433c"},"vehicle_type_id":"4","last_reported":1765984381,"current_range_meters":0,"station_id":"","pricing_plan_id":"cebpf4jnsgd1na2vs0mg"},{"bike_id":"a2c093fd-cf14-43e3-a4b4-d1a996c8eafc","system_id":"levelo_inurba_marseille","lat":43.337444,"lon":5.374475,"is_reserved":false,"is_disabled":false,"rental_uris":{"android":"levelo://app?vid=a2c093fd-cf14-43e3-a4b4-d1a996c8eafc","ios":"levelo://app?vid=a2c093fd-cf14-43e3-a4b4-d1a996c8eafc"},"vehicle_type_id":"4","last_reported":1765984381,"current_range_meters":0,"station_id":"","pricing_plan_id":"cebpf4jnsgd1na2vs0mg"},{"bike_id":"36474865-2a28-4708-a71a-dea49e992b18","system_id":"levelo_inurba_marseille","lat":43.337444,"lon":5.374475,"is_reserved":false,"is_disabled":false,"rental_uris":{"android":"levelo://app?vid=36474865-2a28-4708-a71a-dea49e992b18","ios":"levelo://app?vid=36474865-2a28-4708-a71a-dea49e992b18"},"vehicle_type_id":"4","last_reported":1765984381,"current_range_meters":0,"station_id":"","pricing_plan_id":"cebpf4jnsgd1na2vs0mg"},{"bike_id":"105e5644-fb19-4296-8477-bbfd957fa7ca","system_id":"levelo_inurba_marseille","lat":43.337444,"lon":5.374475,"is_reserved":false,"is_disabled":false,"rental_uris":{"android":"levelo://app?vid=105e5644-fb19-4296-8477-bbfd957fa7ca","ios":"levelo://app?vid=105e5644-fb19-4296-8477-bbfd957fa7ca"},"vehicle_type_id":"4","last_reported":1765984381,"current_range_meters":0,"station_id":"","pricing_plan_id":"cebpf4jnsgd1na2vs0mg"},{"bike_id":"e2562091-e9d5-4cbe-a135-a86ed858bdff","system_id":"levelo_inurba_marseille","lat":43.337444,"lon":5.374475,"is_reserved":false,"is_disabled":false,"rental_uris":{"android":"levelo://app?vid=e2562091-e9d5-4cbe-a135-a86ed858bdff","ios":"levelo://app?vid=e2562091-e9d5-4cbe-a135-a86ed858bdff"},"vehicle_type_id":"4","last_reported":1765984381,"current_range_meters":0,"station_id":"","pricing_plan_id":"cebpf4jnsgd1na2vs0mg"},{"bike_id":"0cd1418a-0c8f-4520-a069-6111383ef718","system_id":"levelo_inurba_marseille","lat":43.337444,"lon":5.374475,"is_reserved":false,"is_disabled":false,"rental_uris":{"android":"levelo://app?vid=0cd1418a-0c8f-4520-a069-6111383ef718","ios":"levelo://app?vid=0cd1418a-0c8f-4520-a069-6111383ef718"},"vehicle_type_id":"4","last_reported":1765984381,"current_range_meters":0,"station_id":"","pricing_plan_id":"cebpf4jnsgd1na2vs0mg"},{"bike_id":"faa7fac3-5386-4819-9d71-fd08c2ea22ac","system_id":"levelo_inurba_marseille","lat":43.337444,"lon":5.374475,"is_reserved":false,"is_disabled":false,"rental_uris":{"android":"levelo://app?vid=faa7fac3-5386-4819-9d71-fd08c2ea22ac","ios":"levelo://app?vid=faa7fac3-5386-4819-9d71-fd08c2ea22ac"},"vehicle_type_id":"4","last_reported":1765984381,"current_range_meters":0,"station_id":"","pricing_plan_id":"cebpf4jnsgd1na2vs0mg"},{"bike_id":"655f0349-020e-490f-b41f-9a4effcec106","system_id":"levelo_inurba_marseille","lat":43.337444,"lon":5.374475,"is_reserved":false,"is_disabled":false,"rental_uris":{"android":"levelo://app?vid=655f0349-020e-490f-b41f-9a4effcec106","ios":"levelo://app?vid=655f0349-020e-490f-b41f-9a4effcec106"},"vehicle_type_id":"4","last_reported":1765984381,"current_range_meters":0,"station_id":"","pricing_plan_id":"cebpf4jnsgd1na2vs0mg"},{"bike_id":"3fa14bc5-f3d3-41f8-b29f-6e64025be7c9","system_id":"levelo_inurba_marseille","lat":43.337444,"lon":5.374475,"is_reserved":false,"is_disabled":false,"rental_uris":{"android":"levelo://app?vid=3fa14bc5-f3d3-41f8-b29f-6e64025be7c9","ios":"levelo://app?vid=3fa14bc5-f3d3-41f8-b29f-6e64025be7c9"},"vehicle_type_id":"4","last_reported":1765984381,"current_range_meters":0,"station_id":"","pricing_plan_id":"cebpf4jnsgd1na2vs0mg"},{"bike_id":"285d693a-bb17-4116-bb28-1983b8e2fafd","system_id":"levelo_inurba_marseille","lat":43.337444,"lon":5.374475,"is_reserved":false,"is_disabled":false,"rental_uris":{"android":"levelo://app?vid=285d693a-bb17-4116-bb28-1983b8e2fafd","ios":"levelo://app?vid=285d693a-bb17-4116-bb28-1983b8e2fafd"},"vehicle_type_id":"4","last_reported":1765984381,"current_range_meters":0,"station_id":"","pricing_plan_id":"cebpf4jnsgd1na2vs0mg"},{"bike_id":"b369e008-92d4-4488-8dbc-4336fe4bca6b","system_id":"levelo_inurba_marseille","lat":43.337444,"lon":5.374475,"is_reserved":false,"is_disabled":false,"rental_uris":{"android":"levelo://app?vid=b369e008-92d4-4488-8dbc-4336fe4bca6b","ios":"levelo://app?vid=b369e008-92d4-4488-8dbc-4336fe4bca6b"},"vehicle_type_id":"4","last_reported":1765984381,"current_range_meters":0,"station_id":"","pricing_plan_id":"cebpf4jnsgd1na2vs0mg"},{"bike_id":"39b3fa20-f1da-4365-8dbb-fb5ad6731681","system_id":"levelo_inurba_marseille","lat":43.337444,"lon":5.374475,"is_reserved":false,"is_disabled":false,"rental_uris":{"android":"levelo://app?vid=39b3fa20-f1da-4365-8dbb-fb5ad6731681","ios":"levelo://app?vid=39b3fa20-f1da-4365-8dbb-fb5ad6731681"},"vehicle_type_id":"4","last_reported":1765984381,"current_range_meters":0,"station_id":"","pricing_plan_id":"cebpf4jnsgd1na2vs0mg"},{"bike_id":"ca481ed1-7f3d-4913-9b55-b153e859dc9f","system_id":"levelo_inurba_marseille","lat":43.337444,"lon":5.374475,"is_reserved":false,"is_disabled":false,"rental_uris":{"android":"levelo://app?vid=ca481ed1-7f3d-4913-9b55-b153e859dc9f","ios":"levelo://app?vid=ca481ed1-7f3d-4913-9b55-b153e859dc9f"},"vehicle_type_id":"4","last_reported":1765984381,"current_range_meters":0,"station_id":"","pricing_plan_id":"cebpf4jnsgd1na2vs0mg"},{"bike_id":"0417f35d-870e-422d-aa2a-a53f537e99a8","system_id":"levelo_inurba_marseille","lat":43.337444,"lon":5.374475,"is_reserved":false,"is_disabled":false,"rental_uris":{"android":"levelo://app?vid=0417f35d-870e-422d-aa2a-a53f537e99a8","ios":"levelo://app?vid=0417f35d-870e-422d-aa2a-a53f537e99a8"},"vehicle_type_id":"4","last_reported":1765984381,"current_range_meters":0,"station_id":"","pricing_plan_id":"cebpf4jnsgd1na2vs0mg"},{"bike_id":"d2b09138-b729-4c5a-95d0-bbd74d1a17b3","system_id":"levelo_inurba_marseille","lat":43.28269,"lon":5.35056,"is_reserved":false,"is_disabled":false,"rental_uris":{"android":"levelo://app?vid=d2b09138-b729-4c5a-95d0-bbd74d1a17b3","ios":"levelo://app?vid=d2b09138-b729-4c5a-95d0-bbd74d1a17b3"},"vehicle_type_id":"4","last_reported":1765984381,"current_range_meters":2800,"station_id":"ce4bhbp2rcd13ifvqerg","pricing_plan_id":"cebpf4jnsgd1na2vs0mg"},{"bike_id":"82c94ea4-481b-4039-918c-a60c62296e91","system_id":"levelo_inurba_marseille","lat":43.29495,"lon":5.43311,"is_reserved":false,"is_disabled":false,"rental_uris":{"android":"levelo://app?vid=82c94ea4-481b-4039-918c-a60c62296e91","ios":"levelo://app?vid=82c94ea4-481b-4039-918c-a60c62296e91"},"vehicle_type_id":"4","last_reported":1765984381,"current_range_meters":2800,"station_id":"st_d3j5ugp08ojc73fj9d10","pricing_plan_id":"cebpf4jnsgd1na2vs0mg"},{"bike_id":"a5d95474-b29e-4f0b-bfca-f97226b881a8","system_id":"levelo_inurba_marseille","lat":43.285653,"lon":5.394948,"is_reserved":false,"is_disabled":false,"rental_uris":{"android":"levelo://app?vid=a5d95474-b29e-4f0b-bfca-f97226b881a8","ios":"levelo://app?vid=a5d95474-b29e-4f0b-bfca-f97226b881a8"},"vehicle_type_id":"4","last_reported":1765984381,"current_range_meters":2800,"station_id":"ce4bh292rcd13ifvqdg0","pricing_plan_id":"cebpf4jnsgd1na2vs0mg"},{"bike_id":"e3d25707-d654-4a45-aecb-c445f77602a7","system_id":"levelo_inurba_marseille","lat":43.30148,"lon":5.37421,"is_reserved":false,"is_disabled":false,"rental_uris":{"android":"levelo://app?vid=e3d25707-d654-4a45-aecb-c445f77602a7","ios":"levelo://app?vid=e3d25707-d654-4a45-aecb-c445f77602a7"},"vehicle_type_id":"4","last_reported":1765984381,"current_range_meters":2800,"station_id":"ce4bgs92rcd13ifvqcc0","pricing_plan_id":"cebpf4jnsgd1na2vs0mg"},{"bike_id":"d5c6fa74-6555-4e9a-b747-1273f1992163","system_id":"levelo_inurba_marseille","lat":43.301125,"lon":5.365317,"is_reserved":false,"is_disabled":false,"rental_uris":{"android":"levelo://app?vid=d5c6fa74-6555-4e9a-b747-1273f1992163","ios":"levelo://app?vid=d5c6fa74-6555-4e9a-b747-1273f1992163"},"vehicle_type_id":"4","last_reported":1765984381,"current_range_meters":2800,"station_id":"","pricing_plan_id":"cebpf4jnsgd1na2vs0mg"},{"bike_id":"18d400e1-3ea1-4505-bd47-d8fe4497b688","system_id":"levelo_inurba_marseille","lat":43.305395,"lon":5.365447,"is_reserved":false,"is_disabled":false,"rental_uris":{"android":"levelo://app?vid=18d400e1-3ea1-4505-bd47-d8fe4497b688","ios":"levelo://app?vid=18d400e1-3ea1-4505-bd47-d8fe4497b688"},"vehicle_type_id":"4","last_reported":1765984381,"current_range_meters":2800,"station_id":"ce4bgs12rcd13ifvqcag","pricing_plan_id":"cebpf4jnsgd1na2vs0mg"},{"bike_id":"1c534f4e-a14d-4f29-b506-954b283b3845","system_id":"levelo_inurba_marseille","lat":43.31208,"lon":5.37205,"is_reserved":false,"is_disabled":false,"rental_uris":{"android":"levelo://app?vid=1c534f4e-a14d-4f29-b506-954b283b3845","ios":"levelo://app?vid=1c534f4e-a14d-4f29-b506-954b283b3845"},"vehicle_type_id":"4","last_reported":1765984381,"current_range_meters":3200,"station_id":"","pricing_plan_id":"cebpf4jnsgd1na2vs0mg"},{"bike_id":"ab3bcde8-b7d6-4d7d-aa16-b3dfb86c3758","system_id":"levelo_inurba_marseille","lat":43.24543,"lon":5.40013,"is_reserved":false,"is_disabled":false,"rental_uris":{"android":"levelo://app?vid=ab3bcde8-b7d6-4d7d-aa16-b3dfb86c3758","ios":"levelo://app?vid=ab3bcde8-b7d6-4d7d-aa16-b3dfb86c3758"},"vehicle_type_id":"4","last_reported":1765984381,"current_range_meters":3200,"station_id":"","pricing_plan_id":"cebpf4jnsgd1na2vs0mg"},{"bike_id":"898c346d-529c-4e0f-8239-ceba441cdccd","system_id":"levelo_inurba_marseille","lat":43.316035,"lon":5.379218,"is_reserved":false,"is_disabled":true,"rental_uris":{"android":"levelo://app?vid=898c346d-529c-4e0f-8239-ceba441cdccd","ios":"levelo://app?vid=898c346d-529c-4e0f-8239-ceba441cdccd"},"vehicle_type_id":"4","last_reported":1765984381,"current_range_meters":3200,"station_id":"","pricing_plan_id":"cebpf4jnsgd1na2vs0mg"},{"bike_id":"df9328b6-020d-4898-84c3-c196136886e2","system_id":"levelo_inurba_marseille","lat":43.26199,"lon":5.37451,"is_reserved":false,"is_disabled":false,"rental_uris":{"android":"levelo://app?vid=df9328b6-020d-4898-84c3-c196136886e2","ios":"levelo://app?vid=df9328b6-020d-4898-84c3-c196136886e2"},"vehicle_type_id":"4","last_reported":1765984381,"current_range_meters":3200,"station_id":"ce4bhgp2rcd13ifvqfc0","pricing_plan_id":"cebpf4jnsgd1na2vs0mg"},{"bike_id":"fa87e7a7-800f-44cd-bc34-14244a49670b","system_id":"levelo_inurba_marseille","lat":43.30428,"lon":5.39744,"is_reserved":false,"is_disabled":false,"rental_uris":{"android":"levelo://app?vid=fa87e7a7-800f-44cd-bc34-14244a49670b","ios":"levelo://app?vid=fa87e7a7-800f-44cd-bc34-14244a49670b"},"vehicle_type_id":"4","last_reported":1765984381,"current_range_meters":3200,"station_id":"ce4bh092rcd13ifvqd20","pricing_plan_id":"cebpf4jnsgd1na2vs0mg"},{"bike_id":"a38fd01f-095f-4dc7-811b-ee8f2dd59c59","system_id":"levelo_inurba_marseille","lat":43.28679,"lon":5.38713,"is_reserved":false,"is_disabled":false,"rental_uris":{"android":"levelo://app?vid=a38fd01f-095f-4dc7-811b-ee8f2dd59c59","ios":"levelo://app?vid=a38fd01f-095f-4dc7-811b-ee8f2dd59c59"},"vehicle_type_id":"4","last_reported":1765984381,"current_range_meters":3200,"station_id":"ce4bh492rcd13ifvqdug","pricing_plan_id":"cebpf4jnsgd1na2vs0mg"},{"bike_id":"3f6a8471-d4f1-4453-8bf1-1d5c0c648a02","system_id":"levelo_inurba_marseille","lat":43.28277,"lon":5.35076,"is_reserved":false,"is_disabled":false,"rental_uris":{"android":"levelo://app?vid=3f6a8471-d4f1-4453-8bf1-1d5c0c648a02","ios":"levelo://app?vid=3f6a8471-d4f1-4453-8bf1-1d5c0c648a02"},"vehicle_type_id":"4","last_reported":1765984381,"current_range_meters":3600,"station_id":"ce4bhbp2rcd13ifvqerg","pricing_plan_id":"cebpf4jnsgd1na2vs0mg"},{"bike_id":"a4e51ef6-2dcf-4804-8329-b0e70b0968dd","system_id":"levelo_inurba_marseille","lat":43.2805,"lon":5.36925,"is_reserved":false,"is_disabled":false,"rental_uris":{"android":"levelo://app?vid=a4e51ef6-2dcf-4804-8329-b0e70b0968dd","ios":"levelo://app?vid=a4e51ef6-2dcf-4804-8329-b0e70b0968dd"},"vehicle_type_id":"4","last_reported":1765984381,"current_range_meters":3600,"station_id":"ce4bha12rcd13ifvqef0","pricing_plan_id":"cebpf4jnsgd1na2vs0mg"},{"bike_id":"8ee68b62-46f1-4457-a14d-0612d5804f18","system_id":"levelo_inurba_marseille","lat":43.287169,"lon":5.375484,"is_reserved":false,"is_disabled":false,"rental_uris":{"android":"levelo://app?vid=8ee68b62-46f1-4457-a14d-0612d5804f18","ios":"levelo://app?vid=8ee68b62-46f1-4457-a14d-0612d5804f18"},"vehicle_type_id":"4","last_reported":1765984381,"current_range_meters":4000,"station_id":"ce4bh3p2rcd13ifvqdq0","pricing_plan_id":"cebpf4jnsgd1na2vs0mg"},{"bike_id":"f9e1e596-2e39-40ca-bed2-cc49bbbb3808","system_id":"levelo_inurba_marseille","lat":43.25583,"lon":5.38249,"is_reserved":false,"is_disabled":false,"rental_uris":{"android":"levelo://app?vid=f9e1e596-2e39-40ca-bed2-cc49bbbb3808","ios":"levelo://app?vid=f9e1e596-2e39-40ca-bed2-cc49bbbb3808"},"vehicle_type_id":"4","last_reported":1765984381,"current_range_meters":4000,"station_id":"ce4bhih2rcd13ifvqfs0","pricing_plan_id":"cebpf4jnsgd1na2vs0mg"},{"bike_id":"7c8c0e85-d94d-44cc-8d60-6e89ad193680","system_id":"levelo_inurba_marseille","lat":43.2175,"lon":5.34619,"is_reserved":false,"is_disabled":false,"rental_uris":{"android":"levelo://app?vid=7c8c0e85-d94d-44cc-8d60-6e89ad193680","ios":"levelo://app?vid=7c8c0e85-d94d-44cc-8d60-6e89ad193680"},"vehicle_type_id":"4","last_reported":1765984381,"current_range_meters":4000,"station_id":"st_cvj6r9ubvosntc0bgbag","pricing_plan_id":"cebpf4jnsgd1na2vs0mg"},{"bike_id":"d5b8d735-477b-4ce7-8872-e29f750a8e01","system_id":"levelo_inurba_marseille","lat":43.29516,"lon":5.39033,"is_reserved":false,"is_disabled":false,"rental_uris":{"android":"levelo://app?vid=d5b8d735-477b-4ce7-8872-e29f750a8e01","ios":"levelo://app?vid=d5b8d735-477b-4ce7-8872-e29f750a8e01"},"vehicle_type_id":"4","last_reported":1765984381,"current_range_meters":4000,"station_id":"ce4bh3p2rcd13ifvqdp0","pricing_plan_id":"cebpf4jnsgd1na2vs0mg"},{"bike_id":"a5370bd9-5cf5-4f88-a30c-4317f25baff0","system_id":"levelo_inurba_marseille","lat":43.31755,"lon":5.39015,"is_reserved":false,"is_disabled":false,"rental_uris":{"android":"levelo://app?vid=a5370bd9-5cf5-4f88-a30c-4317f25baff0","ios":"levelo://app?vid=a5370bd9-5cf5-4f88-a30c-4317f25baff0"},"vehicle_type_id":"4","last_reported":1765984381,"current_range_meters":4400,"station_id":"ce4bhqp2rcd13ifvqhng","pricing_plan_id":"cebpf4jnsgd1na2vs0mg"},{"bike_id":"5df96105-8260-4d69-a14e-75b38e0f7efc","system_id":"levelo_inurba_marseille","lat":43.29221,"lon":5.36129,"is_reserved":false,"is_disabled":false,"rental_uris":{"android":"levelo://app?vid=5df96105-8260-4d69-a14e-75b38e0f7efc","ios":"levelo://app?vid=5df96105-8260-4d69-a14e-75b38e0f7efc"},"vehicle_type_id":"4","last_reported":1765984381,"current_range_meters":4400,"station_id":"ce4bhbh2rcd13ifvqeqg","pricing_plan_id":"cebpf4jnsgd1na2vs0mg"},{"bike_id":"f7db9b4e-2d03-40e6-bc86-753bda76d393","system_id":"levelo_inurba_marseille","lat":43.3095,"lon":5.3903,"is_reserved":false,"is_disabled":false,"rental_uris":{"android":"levelo://app?vid=f7db9b4e-2d03-40e6-bc86-753bda76d393","ios":"levelo://app?vid=f7db9b4e-2d03-40e6-bc86-753bda76d393"},"vehicle_type_id":"4","last_reported":1765984381,"current_range_meters":4400,"station_id":"ce4bgup2rcd13ifvqco0","pricing_plan_id":"cebpf4jnsgd1na2vs0mg"},{"bike_id":"557e344b-e1af-41fd-a710-4ae525101413","system_id":"levelo_inurba_marseille","lat":43.29859,"lon":5.36283,"is_reserved":false,"is_disabled":true,"rental_uris":{"android":"levelo://app?vid=557e344b-e1af-41fd-a710-4ae525101413","ios":"levelo://app?vid=557e344b-e1af-41fd-a710-4ae525101413"},"vehicle_type_id":"4","last_reported":1765984381,"current_range_meters":4800,"station_id":"ce4bgpp2rcd13ifvqc3g","pricing_plan_id":"cebpf4jnsgd1na2vs0mg"},{"bike_id":"d97b508c-e4cc-4208-9643-6a537aac368c","system_id":"levelo_inurba_marseille","lat":43.30956,"lon":5.39022,"is_reserved":false,"is_disabled":false,"rental_uris":{"android":"levelo://app?vid=d97b508c-e4cc-4208-9643-6a537aac368c","ios":"levelo://app?vid=d97b508c-e4cc-4208-9643-6a537aac368c"},"vehicle_type_id":"4","last_reported":1765984381,"current_range_meters":4800,"station_id":"ce4bgup2rcd13ifvqco0","pricing_plan_id":"cebpf4jnsgd1na2vs0mg"},{"bike_id":"9fe9a33e-bf47-47e7-82a7-5dbdeee94111","system_id":"levelo_inurba_marseille","lat":43.30552,"lon":5.38451,"is_reserved":false,"is_disabled":true,"rental_uris":{"android":"levelo://app?vid=9fe9a33e-bf47-47e7-82a7-5dbdeee94111","ios":"levelo://app?vid=9fe9a33e-bf47-47e7-82a7-5dbdeee94111"},"vehicle_type_id":"4","last_reported":1765984381,"current_range_meters":4800,"station_id":"ce4bgg92rcd13ifvqb30","pricing_plan_id":"cebpf4jnsgd1na2vs0mg"},{"bike_id":"5fd4de29-93ae-448f-86f4-35ac4b536b52","system_id":"levelo_inurba_marseille","lat":43.25582,"lon":5.38228,"is_reserved":false,"is_disabled":false,"rental_uris":{"android":"levelo://app?vid=5fd4de29-93ae-448f-86f4-35ac4b536b52","ios":"levelo://app?vid=5fd4de29-93ae-448f-86f4-35ac4b536b52"},"vehicle_type_id":"4","last_reported":1765984381,"current_range_meters":4800,"station_id":"ce4bhih2rcd13ifvqfs0","pricing_plan_id":"cebpf4jnsgd1na2vs0mg"},{"bike_id":"19f61f34-14f9-4ac1-9da5-6a325fd27e1e","system_id":"levelo_inurba_marseille","lat":43.33761,"lon":5.3743,"is_reserved":false,"is_disabled":false,"rental_uris":{"android":"levelo://app?vid=19f61f34-14f9-4ac1-9da5-6a325fd27e1e","ios":"levelo://app?vid=19f61f34-14f9-4ac1-9da5-6a325fd27e1e"},"vehicle_type_id":"4","last_reported":1765984381,"current_range_meters":4800,"station_id":"","pricing_plan_id":"cebpf4jnsgd1na2vs0mg"},{"bike_id":"bff2f09e-c110-4939-bfda-018788dc723a","system_id":"levelo_inurba_marseille","lat":43.28491,"lon":5.38574,"is_reserved":false,"is_disabled":false,"rental_uris":{"android":"levelo://app?vid=bff2f09e-c110-4939-bfda-018788dc723a","ios":"levelo://app?vid=bff2f09e-c110-4939-bfda-018788dc723a"},"vehicle_type_id":"4","last_reported":1765984381,"current_range_meters":5600,"station_id":"ce4bh8p2rcd13ifvqeb0","pricing_plan_id":"cebpf4jnsgd1na2vs0mg"},{"bike_id":"4d685cfa-4c3a-40c0-9f94-227239e4bf39","system_id":"levelo_inurba_marseille","lat":43.248116,"lon":5.374472,"is_reserved":false,"is_disabled":false,"rental_uris":{"android":"levelo://app?vid=4d685cfa-4c3a-40c0-9f94-227239e4bf39","ios":"levelo://app?vid=4d685cfa-4c3a-40c0-9f94-227239e4bf39"},"vehicle_type_id":"4","last_reported":1765984381,"current_range_meters":5600,"station_id":"ce4bhgh2rcd13ifvqfb0","pricing_plan_id":"cebpf4jnsgd1na2vs0mg"},{"bike_id":"ef8eb51a-c77d-4d0a-9e40-cdfc31329d05","system_id":"levelo_inurba_marseille","lat":43.310555,"lon":5.371749,"is_reserved":false,"is_disabled":false,"rental_uris":{"android":"levelo://app?vid=ef8eb51a-c77d-4d0a-9e40-cdfc31329d05","ios":"levelo://app?vid=ef8eb51a-c77d-4d0a-9e40-cdfc31329d05"},"vehicle_type_id":"4","last_reported":1765984381,"current_range_meters":5600,"station_id":"st_d4kl2rp97mjs73e7tdfg","pricing_plan_id":"cebpf4jnsgd1na2vs0mg"},{"bike_id":"31604729-dce0-4afc-8bb0-4695990fe115","system_id":"levelo_inurba_marseille","lat":43.297393,"lon":5.376959,"is_reserved":false,"is_disabled":true,"rental_uris":{"android":"levelo://app?vid=31604729-dce0-4afc-8bb0-4695990fe115","ios":"levelo://app?vid=31604729-dce0-4afc-8bb0-4695990fe115"},"vehicle_type_id":"4","last_reported":1765984381,"current_range_meters":5600,"station_id":"ce4bgkh2rcd13ifvqbl0","pricing_plan_id":"cebpf4jnsgd1na2vs0mg"},{"bike_id":"f2b4b993-87a5-4265-a075-60ef6ccbe3e0","system_id":"levelo_inurba_marseille","lat":43.23052,"lon":5.3549,"is_reserved":false,"is_disabled":false,"rental_uris":{"android":"levelo://app?vid=f2b4b993-87a5-4265-a075-60ef6ccbe3e0","ios":"levelo://app?vid=f2b4b993-87a5-4265-a075-60ef6ccbe3e0"},"vehicle_type_id":"4","last_reported":1765984381,"current_range_meters":6000,"station_id":"cpo3342slgdg3j2ifvpg","pricing_plan_id":"cebpf4jnsgd1na2vs0mg"},{"bike_id":"a36957d9-491d-4aaf-bf03-6e74369e525a","system_id":"levelo_inurba_marseille","lat":43.28403,"lon":5.37515,"is_reserved":false,"is_disabled":false,"rental_uris":{"android":"levelo://app?vid=a36957d9-491d-4aaf-bf03-6e74369e525a","ios":"levelo://app?vid=a36957d9-491d-4aaf-bf03-6e74369e525a"},"vehicle_type_id":"4","last_reported":1765984381,"current_range_meters":6000,"station_id":"ce4bh412rcd13ifvqds0","pricing_plan_id":"cebpf4jnsgd1na2vs0mg"},{"bike_id":"1a43dc5c-27dc-4727-aa54-8459760ef776","system_id":"levelo_inurba_marseille","lat":43.25583,"lon":5.38237,"is_reserved":false,"is_disabled":false,"rental_uris":{"android":"levelo://app?vid=1a43dc5c-27dc-4727-aa54-8459760ef776","ios":"levelo://app?vid=1a43dc5c-27dc-4727-aa54-8459760ef776"},"vehicle_type_id":"4","last_reported":1765984381,"current_range_meters":6000,"station_id":"ce4bhih2rcd13ifvqfs0","pricing_plan_id":"cebpf4jnsgd1na2vs0mg"},{"bike_id":"9e91f3a6-f165-46c3-bbd6-520869bc9b03","system_id":"levelo_inurba_marseille","lat":43.24162,"lon":5.36405,"is_reserved":false,"is_disabled":false,"rental_uris":{"android":"levelo://app?vid=9e91f3a6-f165-46c3-bbd6-520869bc9b03","ios":"levelo://app?vid=9e91f3a6-f165-46c3-bbd6-520869bc9b03"},"vehicle_type_id":"4","last_reported":1765984381,"current_range_meters":6000,"station_id":"cpo36qri1sfpv3e86is0","pricing_plan_id":"cebpf4jnsgd1na2vs0mg"},{"bike_id":"b9f743ef-5bf9-4173-b706-af445ed8d379","system_id":"levelo_inurba_marseille","lat":43.30294,"lon":5.37711,"is_reserved":false,"is_disabled":false,"rental_uris":{"android":"levelo://app?vid=b9f743ef-5bf9-4173-b706-af445ed8d379","ios":"levelo://app?vid=b9f743ef-5bf9-4173-b706-af445ed8d379"},"vehicle_type_id":"4","last_reported":1765984381,"current_range_meters":6000,"station_id":"ce4bguh2rcd13ifvqcj0","pricing_plan_id":"cebpf4jnsgd1na2vs0mg"},{"bike_id":"df518e06-79b7-4c1b-afc7-7acc560c3d93","system_id":"levelo_inurba_marseille","lat":43.26568,"lon":5.39009,"is_reserved":false,"is_disabled":false,"rental_uris":{"android":"levelo://app?vid=df518e06-79b7-4c1b-afc7-7acc560c3d93","ios":"levelo://app?vid=df518e06-79b7-4c1b-afc7-7acc560c3d93"},"vehicle_type_id":"4","last_reported":1765984381,"current_range_meters":6000,"station_id":"ce4bhe12rcd13ifvqf30","pricing_plan_id":"cebpf4jnsgd1na2vs0mg"},{"bike_id":"f2bb075c-a4ca-4a7d-9548-444cf0978b1e","system_id":"levelo_inurba_marseille","lat":43.30444,"lon":5.37095,"is_reserved":false,"is_disabled":false,"rental_uris":{"android":"levelo://app?vid=f2bb075c-a4ca-4a7d-9548-444cf0978b1e","ios":"levelo://app?vid=f2bb075c-a4ca-4a7d-9548-444cf0978b1e"},"vehicle_type_id":"4","last_reported":1765984381,"current_range_meters":6400,"station_id":"","pricing_plan_id":"cebpf4jnsgd1na2vs0mg"},{"bike_id":"500ccc04-45c0-4dae-a582-ca036f6f2898","system_id":"levelo_inurba_marseille","lat":43.337444,"lon":5.374475,"is_reserved":false,"is_disabled":false,"rental_uris":{"android":"levelo://app?vid=500ccc04-45c0-4dae-a582-ca036f6f2898","ios":"levelo://app?vid=500ccc04-45c0-4dae-a582-ca036f6f2898"},"vehicle_type_id":"4","last_reported":1765984381,"current_range_meters":6400,"station_id":"","pricing_plan_id":"cebpf4jnsgd1na2vs0mg"},{"bike_id":"1c7287a2-f8a6-4c24-a098-4972ee445a61","system_id":"levelo_inurba_marseille","lat":43.27188,"lon":5.41003,"is_reserved":false,"is_disabled":false,"rental_uris":{"android":"levelo://app?vid=1c7287a2-f8a6-4c24-a098-4972ee445a61","ios":"levelo://app?vid=1c7287a2-f8a6-4c24-a098-4972ee445a61"},"vehicle_type_id":"4","last_reported":1765984381,"current_range_meters":6400,"station_id":"ce4bhl12rcd13ifvqgf0","pricing_plan_id":"cebpf4jnsgd1na2vs0mg"},{"bike_id":"96085d58-f3c7-474e-967f-462d38ad5ddf","system_id":"levelo_inurba_marseille","lat":43.249481,"lon":5.405074,"is_reserved":false,"is_disabled":false,"rental_uris":{"android":"levelo://app?vid=96085d58-f3c7-474e-967f-462d38ad5ddf","ios":"levelo://app?vid=96085d58-f3c7-474e-967f-462d38ad5ddf"},"vehicle_type_id":"4","last_reported":1765984381,"current_range_meters":6400,"station_id":"st_d2ngiaodas8pm72gd1h0","pricing_plan_id":"cebpf4jnsgd1na2vs0mg"},{"bike_id":"1761e523-ebd4-4d02-866f-34a51318ada4","system_id":"levelo_inurba_marseille","lat":43.27046,"lon":5.38302,"is_reserved":false,"is_disabled":false,"rental_uris":{"android":"levelo://app?vid=1761e523-ebd4-4d02-866f-34a51318ada4","ios":"levelo://app?vid=1761e523-ebd4-4d02-866f-34a51318ada4"},"vehicle_type_id":"4","last_reported":1765984381,"current_range_meters":6400,"station_id":"st_d3n2fo6cfp8s73cte1j0","pricing_plan_id":"cebpf4jnsgd1na2vs0mg"},{"bike_id":"61e85e14-dfac-45ba-9e3e-383973c9030a","system_id":"levelo_inurba_marseille","lat":43.30215,"lon":5.39457,"is_reserved":false,"is_disabled":false,"rental_uris":{"android":"levelo://app?vid=61e85e14-dfac-45ba-9e3e-383973c9030a","ios":"levelo://app?vid=61e85e14-dfac-45ba-9e3e-383973c9030a"},"vehicle_type_id":"4","last_reported":1765984381,"current_range_meters":6400,"station_id":"ce4bh0p2rcd13ifvqd70","pricing_plan_id":"cebpf4jnsgd1na2vs0mg"},{"bike_id":"142f3031-6f9f-4384-b8b5-681da8741a4b","system_id":"levelo_inurba_marseille","lat":43.28619,"lon":5.35103,"is_reserved":false,"is_disabled":false,"rental_uris":{"android":"levelo://app?vid=142f3031-6f9f-4384-b8b5-681da8741a4b","ios":"levelo://app?vid=142f3031-6f9f-4384-b8b5-681da8741a4b"},"vehicle_type_id":"4","last_reported":1765984381,"current_range_meters":6400,"station_id":"ce4bhch2rcd13ifvqeug","pricing_plan_id":"cebpf4jnsgd1na2vs0mg"},{"bike_id":"f06b5468-2377-4a00-8920-177587794c31","system_id":"levelo_inurba_marseille","lat":43.24188,"lon":5.39737,"is_reserved":false,"is_disabled":false,"rental_uris":{"android":"levelo://app?vid=f06b5468-2377-4a00-8920-177587794c31","ios":"levelo://app?vid=f06b5468-2377-4a00-8920-177587794c31"},"vehicle_type_id":"4","last_reported":1765984381,"current_range_meters":6400,"station_id":"ce4bhn12rcd13ifvqgpg","pricing_plan_id":"cebpf4jnsgd1na2vs0mg"},{"bike_id":"59234a13-1991-4a3f-8db1-d7ac9b7b43de","system_id":"levelo_inurba_marseille","lat":43.28698,"lon":5.37378,"is_reserved":false,"is_disabled":false,"rental_uris":{"android":"levelo://app?vid=59234a13-1991-4a3f-8db1-d7ac9b7b43de","ios":"levelo://app?vid=59234a13-1991-4a3f-8db1-d7ac9b7b43de"},"vehicle_type_id":"4","last_reported":1765984381,"current_range_meters":6400,"station_id":"ce4bh3p2rcd13ifvqdq0","pricing_plan_id":"cebpf4jnsgd1na2vs0mg"},{"bike_id":"360764eb-0b2c-4dbe-a11c-b29b348c9b8a","system_id":"levelo_inurba_marseille","lat":43.29713,"lon":5.37684,"is_reserved":false,"is_disabled":false,"rental_uris":{"android":"levelo://app?vid=360764eb-0b2c-4dbe-a11c-b29b348c9b8a","ios":"levelo://app?vid=360764eb-0b2c-4dbe-a11c-b29b348c9b8a"},"vehicle_type_id":"4","last_reported":1765984381,"current_range_meters":6800,"station_id":"ce4bgkh2rcd13ifvqbl0","pricing_plan_id":"cebpf4jnsgd1na2vs0mg"},{"bike_id":"8ea59344-8e19-4332-bfff-fd00b23aa2b1","system_id":"levelo_inurba_marseille","lat":43.29635,"lon":5.38078,"is_reserved":false,"is_disabled":true,"rental_uris":{"android":"levelo://app?vid=8ea59344-8e19-4332-bfff-fd00b23aa2b1","ios":"levelo://app?vid=8ea59344-8e19-4332-bfff-fd00b23aa2b1"},"vehicle_type_id":"4","last_reported":1765984381,"current_range_meters":6800,"station_id":"ce4bgl12rcd13ifvqbo0","pricing_plan_id":"cebpf4jnsgd1na2vs0mg"},{"bike_id":"702c7adc-f70f-4fed-9a8b-7db48c557c16","system_id":"levelo_inurba_marseille","lat":43.29004,"lon":5.35627,"is_reserved":false,"is_disabled":false,"rental_uris":{"android":"levelo://app?vid=702c7adc-f70f-4fed-9a8b-7db48c557c16","ios":"levelo://app?vid=702c7adc-f70f-4fed-9a8b-7db48c557c16"},"vehicle_type_id":"4","last_reported":1765984381,"current_range_meters":6800,"station_id":"ce4bhb92rcd13ifvqen0","pricing_plan_id":"cebpf4jnsgd1na2vs0mg"},{"bike_id":"36495d45-0c2d-4209-ba54-88bdcedebb9e","system_id":"levelo_inurba_marseille","lat":43.298592,"lon":5.389041,"is_reserved":false,"is_disabled":false,"rental_uris":{"android":"levelo://app?vid=36495d45-0c2d-4209-ba54-88bdcedebb9e","ios":"levelo://app?vid=36495d45-0c2d-4209-ba54-88bdcedebb9e"},"vehicle_type_id":"4","last_reported":1765984381,"current_range_meters":6800,"station_id":"ce4bh392rcd13ifvqdl0","pricing_plan_id":"cebpf4jnsgd1na2vs0mg"},{"bike_id":"7d5b868f-43d5-44d5-b06c-00f570660f22","system_id":"levelo_inurba_marseille","lat":43.24637,"lon":5.43139,"is_reserved":false,"is_disabled":true,"rental_uris":{"android":"levelo://app?vid=7d5b868f-43d5-44d5-b06c-00f570660f22","ios":"levelo://app?vid=7d5b868f-43d5-44d5-b06c-00f570660f22"},"vehicle_type_id":"4","last_reported":1765984381,"current_range_meters":6800,"station_id":"st_d2m6c4gdas8pm72e190g","pricing_plan_id":"cebpf4jnsgd1na2vs0mg"},{"bike_id":"73e891f1-a7f4-4477-a12d-73168573d885","system_id":"levelo_inurba_marseille","lat":43.31164,"lon":5.38731,"is_reserved":false,"is_disabled":false,"rental_uris":{"android":"levelo://app?vid=73e891f1-a7f4-4477-a12d-73168573d885","ios":"levelo://app?vid=73e891f1-a7f4-4477-a12d-73168573d885"},"vehicle_type_id":"4","last_reported":1765984381,"current_range_meters":6800,"station_id":"ce4bgv12rcd13ifvqcp0","pricing_plan_id":"cebpf4jnsgd1na2vs0mg"},{"bike_id":"0c1d01aa-39e8-4376-a172-b5877a2d9858","system_id":"levelo_inurba_marseille","lat":43.27333,"lon":5.39083,"is_reserved":false,"is_disabled":true,"rental_uris":{"android":"levelo://app?vid=0c1d01aa-39e8-4376-a172-b5877a2d9858","ios":"levelo://app?vid=0c1d01aa-39e8-4376-a172-b5877a2d9858"},"vehicle_type_id":"4","last_reported":1765984381,"current_range_meters":6800,"station_id":"ce4bhgp2rcd13ifvqfe0","pricing_plan_id":"cebpf4jnsgd1na2vs0mg"},{"bike_id":"dc1c66a1-ec6a-4a97-84f0-949967d8e557","system_id":"levelo_inurba_marseille","lat":43.31022,"lon":5.39346,"is_reserved":false,"is_disabled":false,"rental_uris":{"android":"levelo://app?vid=dc1c66a1-ec6a-4a97-84f0-949967d8e557","ios":"levelo://app?vid=dc1c66a1-ec6a-4a97-84f0-949967d8e557"},"vehicle_type_id":"4","last_reported":1765984381,"current_range_meters":6800,"station_id":"","pricing_plan_id":"cebpf4jnsgd1na2vs0mg"},{"bike_id":"d106bbcb-8a97-46ee-ab7e-8d1c2c12cd7b","system_id":"levelo_inurba_marseille","lat":43.29921,"lon":5.37467,"is_reserved":false,"is_disabled":false,"rental_uris":{"android":"levelo://app?vid=d106bbcb-8a97-46ee-ab7e-8d1c2c12cd7b","ios":"levelo://app?vid=d106bbcb-8a97-46ee-ab7e-8d1c2c12cd7b"},"vehicle_type_id":"4","last_reported":1765984381,"current_range_meters":6800,"station_id":"ce4bgjh2rcd13ifvqbg0","pricing_plan_id":"cebpf4jnsgd1na2vs0mg"},{"bike_id":"dc5dac07-113f-4f34-a45c-a00d72105268","system_id":"levelo_inurba_marseille","lat":43.256888,"lon":5.391363,"is_reserved":false,"is_disabled":false,"rental_uris":{"android":"levelo://app?vid=dc5dac07-113f-4f34-a45c-a00d72105268","ios":"levelo://app?vid=dc5dac07-113f-4f34-a45c-a00d72105268"},"vehicle_type_id":"4","last_reported":1765984381,"current_range_meters":6800,"station_id":"","pricing_plan_id":"cebpf4jnsgd1na2vs0mg"},{"bike_id":"cc4007e7-ea10-4b0d-b129-92819a9e84ef","system_id":"levelo_inurba_marseille","lat":43.32454,"lon":5.43692,"is_reserved":false,"is_disabled":false,"rental_uris":{"android":"levelo://app?vid=cc4007e7-ea10-4b0d-b129-92819a9e84ef","ios":"levelo://app?vid=cc4007e7-ea10-4b0d-b129-92819a9e84ef"},"vehicle_type_id":"4","last_reported":1765984381,"current_range_meters":6800,"station_id":"","pricing_plan_id":"cebpf4jnsgd1na2vs0mg"},{"bike_id":"64c098ba-7932-4b78-b181-19e87b10ea8c","system_id":"levelo_inurba_marseille","lat":43.31699,"lon":5.40472,"is_reserved":false,"is_disabled":false,"rental_uris":{"android":"levelo://app?vid=64c098ba-7932-4b78-b181-19e87b10ea8c","ios":"levelo://app?vid=64c098ba-7932-4b78-b181-19e87b10ea8c"},"vehicle_type_id":"4","last_reported":1765984381,"current_range_meters":7200,"station_id":"ce4bh012rcd13ifvqd00","pricing_plan_id":"cebpf4jnsgd1na2vs0mg"},{"bike_id":"710029eb-b939-45e0-8d20-0bac081556e2","system_id":"levelo_inurba_marseille","lat":43.23194,"lon":5.35549,"is_reserved":false,"is_disabled":true,"rental_uris":{"android":"levelo://app?vid=710029eb-b939-45e0-8d20-0bac081556e2","ios":"levelo://app?vid=710029eb-b939-45e0-8d20-0bac081556e2"},"vehicle_type_id":"4","last_reported":1765984381,"current_range_meters":7200,"station_id":"ce4bhu92rcd13ifvqi70","pricing_plan_id":"cebpf4jnsgd1na2vs0mg"},{"bike_id":"9a2c5f96-1daa-49b6-9ed6-f575f7e637d1","system_id":"levelo_inurba_marseille","lat":43.31243,"lon":5.36855,"is_reserved":false,"is_disabled":false,"rental_uris":{"android":"levelo://app?vid=9a2c5f96-1daa-49b6-9ed6-f575f7e637d1","ios":"levelo://app?vid=9a2c5f96-1daa-49b6-9ed6-f575f7e637d1"},"vehicle_type_id":"4","last_reported":1765984381,"current_range_meters":7200,"station_id":"ce4bgl92rcd13ifvqbq0","pricing_plan_id":"cebpf4jnsgd1na2vs0mg"},{"bike_id":"89000948-df34-4c6b-9f39-a9f51952b70e","system_id":"levelo_inurba_marseille","lat":43.31679,"lon":5.40472,"is_reserved":false,"is_disabled":false,"rental_uris":{"android":"levelo://app?vid=89000948-df34-4c6b-9f39-a9f51952b70e","ios":"levelo://app?vid=89000948-df34-4c6b-9f39-a9f51952b70e"},"vehicle_type_id":"4","last_reported":1765984381,"current_range_meters":7200,"station_id":"ce4bh012rcd13ifvqd00","pricing_plan_id":"cebpf4jnsgd1na2vs0mg"},{"bike_id":"52a54e30-98ea-4cde-b62d-e76ff0fd87ba","system_id":"levelo_inurba_marseille","lat":43.274848,"lon":5.424443,"is_reserved":false,"is_disabled":true,"rental_uris":{"android":"levelo://app?vid=52a54e30-98ea-4cde-b62d-e76ff0fd87ba","ios":"levelo://app?vid=52a54e30-98ea-4cde-b62d-e76ff0fd87ba"},"vehicle_type_id":"4","last_reported":1765984381,"current_range_meters":7200,"station_id":"ce4bhn92rcd13ifvqgrg","pricing_plan_id":"cebpf4jnsgd1na2vs0mg"},{"bike_id":"b837e29c-a49d-4037-8ffb-c58ec3701d59","system_id":"levelo_inurba_marseille","lat":43.31161,"lon":5.45412,"is_reserved":false,"is_disabled":false,"rental_uris":{"android":"levelo://app?vid=b837e29c-a49d-4037-8ffb-c58ec3701d59","ios":"levelo://app?vid=b837e29c-a49d-4037-8ffb-c58ec3701d59"},"vehicle_type_id":"4","last_reported":1765984381,"current_range_meters":7200,"station_id":"","pricing_plan_id":"cebpf4jnsgd1na2vs0mg"},{"bike_id":"b792217e-0bf5-4dd0-9471-a2b678717e80","system_id":"levelo_inurba_marseille","lat":43.25086,"lon":5.4047,"is_reserved":false,"is_disabled":false,"rental_uris":{"android":"levelo://app?vid=b792217e-0bf5-4dd0-9471-a2b678717e80","ios":"levelo://app?vid=b792217e-0bf5-4dd0-9471-a2b678717e80"},"vehicle_type_id":"4","last_reported":1765984381,"current_range_meters":7200,"station_id":"","pricing_plan_id":"cebpf4jnsgd1na2vs0mg"},{"bike_id":"49de0afc-34f2-42fb-a384-63b112c4f5f1","system_id":"levelo_inurba_marseille","lat":43.25868,"lon":5.39898,"is_reserved":false,"is_disabled":false,"rental_uris":{"android":"levelo://app?vid=49de0afc-34f2-42fb-a384-63b112c4f5f1","ios":"levelo://app?vid=49de0afc-34f2-42fb-a384-63b112c4f5f1"},"vehicle_type_id":"4","last_reported":1765984381,"current_range_meters":7200,"station_id":"ce4bhl92rcd13ifvqghg","pricing_plan_id":"cebpf4jnsgd1na2vs0mg"},{"bike_id":"ea54944d-bb89-49f4-833f-77523f2426e4","system_id":"levelo_inurba_marseille","lat":43.278097,"lon":5.40721,"is_reserved":false,"is_disabled":true,"rental_uris":{"android":"levelo://app?vid=ea54944d-bb89-49f4-833f-77523f2426e4","ios":"levelo://app?vid=ea54944d-bb89-49f4-833f-77523f2426e4"},"vehicle_type_id":"4","last_reported":1765984381,"current_range_meters":7200,"station_id":"ce4bhnh2rcd13ifvqgtg","pricing_plan_id":"cebpf4jnsgd1na2vs0mg"},{"bike_id":"a6e7331e-6e57-4f07-9cfb-5037bd6119b7","system_id":"levelo_inurba_marseille","lat":43.26202,"lon":5.37453,"is_reserved":false,"is_disabled":false,"rental_uris":{"android":"levelo://app?vid=a6e7331e-6e57-4f07-9cfb-5037bd6119b7","ios":"levelo://app?vid=a6e7331e-6e57-4f07-9cfb-5037bd6119b7"},"vehicle_type_id":"4","last_reported":1765984381,"current_range_meters":7200,"station_id":"ce4bhgp2rcd13ifvqfc0","pricing_plan_id":"cebpf4jnsgd1na2vs0mg"},{"bike_id":"63c5ae71-d57b-48dd-a736-a5dbe74bf445","system_id":"levelo_inurba_marseille","lat":43.316791,"lon":5.375612,"is_reserved":false,"is_disabled":true,"rental_uris":{"android":"levelo://app?vid=63c5ae71-d57b-48dd-a736-a5dbe74bf445","ios":"levelo://app?vid=63c5ae71-d57b-48dd-a736-a5dbe74bf445"},"vehicle_type_id":"4","last_reported":1765984381,"current_range_meters":8000,"station_id":"","pricing_plan_id":"cebpf4jnsgd1na2vs0mg"},{"bike_id":"075753f2-03fc-482d-992a-1a659c9f27f8","system_id":"levelo_inurba_marseille","lat":43.28225,"lon":5.34899,"is_reserved":false,"is_disabled":false,"rental_uris":{"android":"levelo://app?vid=075753f2-03fc-482d-992a-1a659c9f27f8","ios":"levelo://app?vid=075753f2-03fc-482d-992a-1a659c9f27f8"},"vehicle_type_id":"4","last_reported":1765984381,"current_range_meters":8000,"station_id":"","pricing_plan_id":"cebpf4jnsgd1na2vs0mg"},{"bike_id":"65003998-4452-4133-aac4-d2f35f4e8e0d","system_id":"levelo_inurba_marseille","lat":43.299719,"lon":5.384817,"is_reserved":false,"is_disabled":false,"rental_uris":{"android":"levelo://app?vid=65003998-4452-4133-aac4-d2f35f4e8e0d","ios":"levelo://app?vid=65003998-4452-4133-aac4-d2f35f4e8e0d"},"vehicle_type_id":"4","last_reported":1765984381,"current_range_meters":8000,"station_id":"ce4bgj92rcd13ifvqbd0","pricing_plan_id":"cebpf4jnsgd1na2vs0mg"},{"bike_id":"dd20c910-4b17-4ad6-b354-5f440199e9c6","system_id":"levelo_inurba_marseille","lat":43.26186,"lon":5.37449,"is_reserved":false,"is_disabled":true,"rental_uris":{"android":"levelo://app?vid=dd20c910-4b17-4ad6-b354-5f440199e9c6","ios":"levelo://app?vid=dd20c910-4b17-4ad6-b354-5f440199e9c6"},"vehicle_type_id":"4","last_reported":1765984381,"current_range_meters":8000,"station_id":"ce4bhgp2rcd13ifvqfc0","pricing_plan_id":"cebpf4jnsgd1na2vs0mg"},{"bike_id":"339d251b-5332-4901-aae2-eda8f9aa1d79","system_id":"levelo_inurba_marseille","lat":43.27074,"lon":5.42281,"is_reserved":false,"is_disabled":true,"rental_uris":{"android":"levelo://app?vid=339d251b-5332-4901-aae2-eda8f9aa1d79","ios":"levelo://app?vid=339d251b-5332-4901-aae2-eda8f9aa1d79"},"vehicle_type_id":"4","last_reported":1765984381,"current_range_meters":8000,"station_id":"ce4bhk92rcd13ifvqgb0","pricing_plan_id":"cebpf4jnsgd1na2vs0mg"},{"bike_id":"e6db636e-5539-4fb5-9c46-d08c10a1d252","system_id":"levelo_inurba_marseille","lat":43.29817,"lon":5.44062,"is_reserved":false,"is_disabled":false,"rental_uris":{"android":"levelo://app?vid=e6db636e-5539-4fb5-9c46-d08c10a1d252","ios":"levelo://app?vid=e6db636e-5539-4fb5-9c46-d08c10a1d252"},"vehicle_type_id":"4","last_reported":1765984381,"current_range_meters":8000,"station_id":"st_d3jp68qikq2c7381ktn0","pricing_plan_id":"cebpf4jnsgd1na2vs0mg"},{"bike_id":"e2f377da-a1e6-4abb-8a44-0c6bf6541d0c","system_id":"levelo_inurba_marseille","lat":43.27323,"lon":5.39074,"is_reserved":false,"is_disabled":false,"rental_uris":{"android":"levelo://app?vid=e2f377da-a1e6-4abb-8a44-0c6bf6541d0c","ios":"levelo://app?vid=e2f377da-a1e6-4abb-8a44-0c6bf6541d0c"},"vehicle_type_id":"4","last_reported":1765984381,"current_range_meters":8000,"station_id":"ce4bhgp2rcd13ifvqfe0","pricing_plan_id":"cebpf4jnsgd1na2vs0mg"},{"bike_id":"13ffe04e-728f-49b7-bfa6-193b0047f985","system_id":"levelo_inurba_marseille","lat":43.2656,"lon":5.37284,"is_reserved":false,"is_disabled":false,"rental_uris":{"android":"levelo://app?vid=13ffe04e-728f-49b7-bfa6-193b0047f985","ios":"levelo://app?vid=13ffe04e-728f-49b7-bfa6-193b0047f985"},"vehicle_type_id":"4","last_reported":1765984381,"current_range_meters":8000,"station_id":"ce4bhg12rcd13ifvqf70","pricing_plan_id":"cebpf4jnsgd1na2vs0mg"},{"bike_id":"d695a1ef-8779-4c77-806c-6ab369be065b","system_id":"levelo_inurba_marseille","lat":43.29479,"lon":5.38281,"is_reserved":false,"is_disabled":false,"rental_uris":{"android":"levelo://app?vid=d695a1ef-8779-4c77-806c-6ab369be065b","ios":"levelo://app?vid=d695a1ef-8779-4c77-806c-6ab369be065b"},"vehicle_type_id":"4","last_reported":1765984381,"current_range_meters":8000,"station_id":"","pricing_plan_id":"cebpf4jnsgd1na2vs0mg"},{"bike_id":"417aa6b3-6e4f-4945-a047-82eacbf729d2","system_id":"levelo_inurba_marseille","lat":43.28532,"lon":5.44105,"is_reserved":false,"is_disabled":false,"rental_uris":{"android":"levelo://app?vid=417aa6b3-6e4f-4945-a047-82eacbf729d2","ios":"levelo://app?vid=417aa6b3-6e4f-4945-a047-82eacbf729d2"},"vehicle_type_id":"4","last_reported":1765984381,"current_range_meters":8400,"station_id":"st_d3j3df2ikq2c7380ej80","pricing_plan_id":"cebpf4jnsgd1na2vs0mg"},{"bike_id":"95de1df1-aba7-4c9a-a2bb-8f0eeebf90b2","system_id":"levelo_inurba_marseille","lat":43.29009,"lon":5.35613,"is_reserved":false,"is_disabled":false,"rental_uris":{"android":"levelo://app?vid=95de1df1-aba7-4c9a-a2bb-8f0eeebf90b2","ios":"levelo://app?vid=95de1df1-aba7-4c9a-a2bb-8f0eeebf90b2"},"vehicle_type_id":"4","last_reported":1765984381,"current_range_meters":8400,"station_id":"ce4bhb92rcd13ifvqen0","pricing_plan_id":"cebpf4jnsgd1na2vs0mg"},{"bike_id":"21d65c78-8178-4bd6-b046-f8e91301b920","system_id":"levelo_inurba_marseille","lat":43.27422,"lon":5.39417,"is_reserved":false,"is_disabled":false,"rental_uris":{"android":"levelo://app?vid=21d65c78-8178-4bd6-b046-f8e91301b920","ios":"levelo://app?vid=21d65c78-8178-4bd6-b046-f8e91301b920"},"vehicle_type_id":"4","last_reported":1765984381,"current_range_meters":8400,"station_id":"ce4bhdp2rcd13ifvqf20","pricing_plan_id":"cebpf4jnsgd1na2vs0mg"},{"bike_id":"9aa4fc2f-385b-4f2c-b175-0e66a4b34652","system_id":"levelo_inurba_marseille","lat":43.2509,"lon":5.3952,"is_reserved":false,"is_disabled":false,"rental_uris":{"android":"levelo://app?vid=9aa4fc2f-385b-4f2c-b175-0e66a4b34652","ios":"levelo://app?vid=9aa4fc2f-385b-4f2c-b175-0e66a4b34652"},"vehicle_type_id":"4","last_reported":1765984381,"current_range_meters":8400,"station_id":"ce4bhm12rcd13ifvqgkg","pricing_plan_id":"cebpf4jnsgd1na2vs0mg"},{"bike_id":"e9322784-b03e-43e0-844a-a8149c5a1ea2","system_id":"levelo_inurba_marseille","lat":43.27055,"lon":5.38314,"is_reserved":false,"is_disabled":false,"rental_uris":{"android":"levelo://app?vid=e9322784-b03e-43e0-844a-a8149c5a1ea2","ios":"levelo://app?vid=e9322784-b03e-43e0-844a-a8149c5a1ea2"},"vehicle_type_id":"4","last_reported":1765984381,"current_range_meters":8400,"station_id":"st_d3n2fo6cfp8s73cte1j0","pricing_plan_id":"cebpf4jnsgd1na2vs0mg"},{"bike_id":"c03190a0-f6ac-47e9-bcd7-08c53765edbd","system_id":"levelo_inurba_marseille","lat":43.25864,"lon":5.3991,"is_reserved":false,"is_disabled":false,"rental_uris":{"android":"levelo://app?vid=c03190a0-f6ac-47e9-bcd7-08c53765edbd","ios":"levelo://app?vid=c03190a0-f6ac-47e9-bcd7-08c53765edbd"},"vehicle_type_id":"4","last_reported":1765984381,"current_range_meters":8400,"station_id":"ce4bhl92rcd13ifvqghg","pricing_plan_id":"cebpf4jnsgd1na2vs0mg"},{"bike_id":"5df24c51-16d5-45e3-91fa-aab635d4c6c5","system_id":"levelo_inurba_marseille","lat":43.21185,"lon":5.35083,"is_reserved":false,"is_disabled":false,"rental_uris":{"android":"levelo://app?vid=5df24c51-16d5-45e3-91fa-aab635d4c6c5","ios":"levelo://app?vid=5df24c51-16d5-45e3-91fa-aab635d4c6c5"},"vehicle_type_id":"4","last_reported":1765984381,"current_range_meters":8400,"station_id":"st_cvj6sg6p6f1abm77japg","pricing_plan_id":"cebpf4jnsgd1na2vs0mg"},{"bike_id":"32e6fefb-baa2-4672-b5a4-0d5aaf079a7a","system_id":"levelo_inurba_marseille","lat":43.30558,"lon":5.36537,"is_reserved":false,"is_disabled":false,"rental_uris":{"android":"levelo://app?vid=32e6fefb-baa2-4672-b5a4-0d5aaf079a7a","ios":"levelo://app?vid=32e6fefb-baa2-4672-b5a4-0d5aaf079a7a"},"vehicle_type_id":"4","last_reported":1765984381,"current_range_meters":8800,"station_id":"ce4bgs12rcd13ifvqcag","pricing_plan_id":"cebpf4jnsgd1na2vs0mg"},{"bike_id":"e345695c-3a28-4bac-877c-db73812de651","system_id":"levelo_inurba_marseille","lat":43.28526,"lon":5.44113,"is_reserved":false,"is_disabled":false,"rental_uris":{"android":"levelo://app?vid=e345695c-3a28-4bac-877c-db73812de651","ios":"levelo://app?vid=e345695c-3a28-4bac-877c-db73812de651"},"vehicle_type_id":"4","last_reported":1765984381,"current_range_meters":8800,"station_id":"st_d3j3df2ikq2c7380ej80","pricing_plan_id":"cebpf4jnsgd1na2vs0mg"},{"bike_id":"1a2a9f4c-03a7-4761-9c78-40ed9e387810","system_id":"levelo_inurba_marseille","lat":43.319323,"lon":5.372928,"is_reserved":false,"is_disabled":false,"rental_uris":{"android":"levelo://app?vid=1a2a9f4c-03a7-4761-9c78-40ed9e387810","ios":"levelo://app?vid=1a2a9f4c-03a7-4761-9c78-40ed9e387810"},"vehicle_type_id":"4","last_reported":1765984381,"current_range_meters":8800,"station_id":"","pricing_plan_id":"cebpf4jnsgd1na2vs0mg"},{"bike_id":"f57324ac-5e91-402d-b865-4d99885823a4","system_id":"levelo_inurba_marseille","lat":43.26201,"lon":5.41417,"is_reserved":false,"is_disabled":false,"rental_uris":{"android":"levelo://app?vid=f57324ac-5e91-402d-b865-4d99885823a4","ios":"levelo://app?vid=f57324ac-5e91-402d-b865-4d99885823a4"},"vehicle_type_id":"4","last_reported":1765984381,"current_range_meters":8800,"station_id":"","pricing_plan_id":"cebpf4jnsgd1na2vs0mg"},{"bike_id":"513c9055-6aae-43e9-bbf1-150c63939bf0","system_id":"levelo_inurba_marseille","lat":43.21192,"lon":5.35074,"is_reserved":false,"is_disabled":false,"rental_uris":{"android":"levelo://app?vid=513c9055-6aae-43e9-bbf1-150c63939bf0","ios":"levelo://app?vid=513c9055-6aae-43e9-bbf1-150c63939bf0"},"vehicle_type_id":"4","last_reported":1765984381,"current_range_meters":8800,"station_id":"st_cvj6sg6p6f1abm77japg","pricing_plan_id":"cebpf4jnsgd1na2vs0mg"},{"bike_id":"37a77f8c-d08d-477f-baa6-5e0d275d099d","system_id":"levelo_inurba_marseille","lat":43.253354,"lon":5.421618,"is_reserved":false,"is_disabled":true,"rental_uris":{"android":"levelo://app?vid=37a77f8c-d08d-477f-baa6-5e0d275d099d","ios":"levelo://app?vid=37a77f8c-d08d-477f-baa6-5e0d275d099d"},"vehicle_type_id":"4","last_reported":1765984381,"current_range_meters":8800,"station_id":"st_d2m65c5bi1j21697t3ng","pricing_plan_id":"cebpf4jnsgd1na2vs0mg"},{"bike_id":"ec8664a9-2890-45c0-8426-35e62a7f10d6","system_id":"levelo_inurba_marseille","lat":43.29018,"lon":5.35625,"is_reserved":false,"is_disabled":false,"rental_uris":{"android":"levelo://app?vid=ec8664a9-2890-45c0-8426-35e62a7f10d6","ios":"levelo://app?vid=ec8664a9-2890-45c0-8426-35e62a7f10d6"},"vehicle_type_id":"4","last_reported":1765984381,"current_range_meters":8800,"station_id":"ce4bhb92rcd13ifvqen0","pricing_plan_id":"cebpf4jnsgd1na2vs0mg"},{"bike_id":"a087f005-b29a-4b4d-a77b-29477191a553","system_id":"levelo_inurba_marseille","lat":43.27208,"lon":5.39187,"is_reserved":false,"is_disabled":false,"rental_uris":{"android":"levelo://app?vid=a087f005-b29a-4b4d-a77b-29477191a553","ios":"levelo://app?vid=a087f005-b29a-4b4d-a77b-29477191a553"},"vehicle_type_id":"4","last_reported":1765984381,"current_range_meters":8800,"station_id":"ce4bhhp2rcd13ifvqfm0","pricing_plan_id":"cebpf4jnsgd1na2vs0mg"},{"bike_id":"73b3a370-1d52-4258-9b5e-70fcd3bbed19","system_id":"levelo_inurba_marseille","lat":43.31176,"lon":5.36879,"is_reserved":false,"is_disabled":false,"rental_uris":{"android":"levelo://app?vid=73b3a370-1d52-4258-9b5e-70fcd3bbed19","ios":"levelo://app?vid=73b3a370-1d52-4258-9b5e-70fcd3bbed19"},"vehicle_type_id":"4","last_reported":1765984381,"current_range_meters":8800,"station_id":"","pricing_plan_id":"cebpf4jnsgd1na2vs0mg"},{"bike_id":"4b0c51a8-222d-44a6-9285-e7f1ca317c94","system_id":"levelo_inurba_marseille","lat":43.299793,"lon":5.38496,"is_reserved":false,"is_disabled":false,"rental_uris":{"android":"levelo://app?vid=4b0c51a8-222d-44a6-9285-e7f1ca317c94","ios":"levelo://app?vid=4b0c51a8-222d-44a6-9285-e7f1ca317c94"},"vehicle_type_id":"4","last_reported":1765984381,"current_range_meters":8800,"station_id":"ce4bgj92rcd13ifvqbd0","pricing_plan_id":"cebpf4jnsgd1na2vs0mg"},{"bike_id":"b9bdd220-08ce-40e0-92a9-15d8097111da","system_id":"levelo_inurba_marseille","lat":43.292542,"lon":5.383546,"is_reserved":false,"is_disabled":false,"rental_uris":{"android":"levelo://app?vid=b9bdd220-08ce-40e0-92a9-15d8097111da","ios":"levelo://app?vid=b9bdd220-08ce-40e0-92a9-15d8097111da"},"vehicle_type_id":"4","last_reported":1765984381,"current_range_meters":8800,"station_id":"ce4bh692rcd13ifvqea0","pricing_plan_id":"cebpf4jnsgd1na2vs0mg"},{"bike_id":"aad1510a-f307-48a4-9b4d-0471050b555b","system_id":"levelo_inurba_marseille","lat":43.29719,"lon":5.37709,"is_reserved":false,"is_disabled":false,"rental_uris":{"android":"levelo://app?vid=aad1510a-f307-48a4-9b4d-0471050b555b","ios":"levelo://app?vid=aad1510a-f307-48a4-9b4d-0471050b555b"},"vehicle_type_id":"4","last_reported":1765984381,"current_range_meters":8800,"station_id":"ce4bgkh2rcd13ifvqbl0","pricing_plan_id":"cebpf4jnsgd1na2vs0mg"},{"bike_id":"d1e0544a-562a-4e17-8279-23f5b1801b88","system_id":"levelo_inurba_marseille","lat":43.25581,"lon":5.38231,"is_reserved":false,"is_disabled":false,"rental_uris":{"android":"levelo://app?vid=d1e0544a-562a-4e17-8279-23f5b1801b88","ios":"levelo://app?vid=d1e0544a-562a-4e17-8279-23f5b1801b88"},"vehicle_type_id":"4","last_reported":1765984381,"current_range_meters":8800,"station_id":"ce4bhih2rcd13ifvqfs0","pricing_plan_id":"cebpf4jnsgd1na2vs0mg"},{"bike_id":"358ddd28-b513-48cf-ad41-ce059999b154","system_id":"levelo_inurba_marseille","lat":43.271731,"lon":5.409945,"is_reserved":false,"is_disabled":false,"rental_uris":{"android":"levelo://app?vid=358ddd28-b513-48cf-ad41-ce059999b154","ios":"levelo://app?vid=358ddd28-b513-48cf-ad41-ce059999b154"},"vehicle_type_id":"4","last_reported":1765984381,"current_range_meters":8800,"station_id":"ce4bhl12rcd13ifvqgf0","pricing_plan_id":"cebpf4jnsgd1na2vs0mg"},{"bike_id":"846ba82f-b80b-4118-ba94-f1f7e836af7f","system_id":"levelo_inurba_marseille","lat":43.337538,"lon":5.374581,"is_reserved":false,"is_disabled":false,"rental_uris":{"android":"levelo://app?vid=846ba82f-b80b-4118-ba94-f1f7e836af7f","ios":"levelo://app?vid=846ba82f-b80b-4118-ba94-f1f7e836af7f"},"vehicle_type_id":"4","last_reported":1765984381,"current_range_meters":9200,"station_id":"","pricing_plan_id":"cebpf4jnsgd1na2vs0mg"},{"bike_id":"b944e6d8-93a7-4a9a-9628-71347ee03597","system_id":"levelo_inurba_marseille","lat":43.31285,"lon":5.36831,"is_reserved":false,"is_disabled":false,"rental_uris":{"android":"levelo://app?vid=b944e6d8-93a7-4a9a-9628-71347ee03597","ios":"levelo://app?vid=b944e6d8-93a7-4a9a-9628-71347ee03597"},"vehicle_type_id":"4","last_reported":1765984381,"current_range_meters":9200,"station_id":"","pricing_plan_id":"cebpf4jnsgd1na2vs0mg"},{"bike_id":"0c2ee543-a7ac-4723-9129-610c0bcc5788","system_id":"levelo_inurba_marseille","lat":43.30141,"lon":5.43119,"is_reserved":false,"is_disabled":false,"rental_uris":{"android":"levelo://app?vid=0c2ee543-a7ac-4723-9129-610c0bcc5788","ios":"levelo://app?vid=0c2ee543-a7ac-4723-9129-610c0bcc5788"},"vehicle_type_id":"4","last_reported":1765984381,"current_range_meters":9200,"station_id":"st_d3js3co5814s73ftftug","pricing_plan_id":"cebpf4jnsgd1na2vs0mg"},{"bike_id":"e5bdcf5e-8556-4780-8189-55fa618ec247","system_id":"levelo_inurba_marseille","lat":43.26498,"lon":5.395455,"is_reserved":false,"is_disabled":false,"rental_uris":{"android":"levelo://app?vid=e5bdcf5e-8556-4780-8189-55fa618ec247","ios":"levelo://app?vid=e5bdcf5e-8556-4780-8189-55fa618ec247"},"vehicle_type_id":"4","last_reported":1765984381,"current_range_meters":9600,"station_id":"ce4bhi12rcd13ifvqfq0","pricing_plan_id":"cebpf4jnsgd1na2vs0mg"},{"bike_id":"2a076039-cd56-431a-bb94-1dd78b27367e","system_id":"levelo_inurba_marseille","lat":43.29761,"lon":5.4278,"is_reserved":false,"is_disabled":false,"rental_uris":{"android":"levelo://app?vid=2a076039-cd56-431a-bb94-1dd78b27367e","ios":"levelo://app?vid=2a076039-cd56-431a-bb94-1dd78b27367e"},"vehicle_type_id":"4","last_reported":1765984381,"current_range_meters":9600,"station_id":"st_d3md5207bmas73dh9klg","pricing_plan_id":"cebpf4jnsgd1na2vs0mg"},{"bike_id":"357b7f1c-bd56-4702-baef-a365bfef3938","system_id":"levelo_inurba_marseille","lat":43.26927,"lon":5.402437,"is_reserved":false,"is_disabled":false,"rental_uris":{"android":"levelo://app?vid=357b7f1c-bd56-4702-baef-a365bfef3938","ios":"levelo://app?vid=357b7f1c-bd56-4702-baef-a365bfef3938"},"vehicle_type_id":"4","last_reported":1765984381,"current_range_meters":9600,"station_id":"cjm6bp8fraef2m0cb0m0","pricing_plan_id":"cebpf4jnsgd1na2vs0mg"},{"bike_id":"cc178787-4e27-477e-85ac-bb874f1df1de","system_id":"levelo_inurba_marseille","lat":43.27319,"lon":5.41047,"is_reserved":false,"is_disabled":false,"rental_uris":{"android":"levelo://app?vid=cc178787-4e27-477e-85ac-bb874f1df1de","ios":"levelo://app?vid=cc178787-4e27-477e-85ac-bb874f1df1de"},"vehicle_type_id":"4","last_reported":1765984381,"current_range_meters":9600,"station_id":"","pricing_plan_id":"cebpf4jnsgd1na2vs0mg"},{"bike_id":"18c6943d-2465-466e-8619-4c6a98d6f665","system_id":"levelo_inurba_marseille","lat":43.28619,"lon":5.35113,"is_reserved":false,"is_disabled":false,"rental_uris":{"android":"levelo://app?vid=18c6943d-2465-466e-8619-4c6a98d6f665","ios":"levelo://app?vid=18c6943d-2465-466e-8619-4c6a98d6f665"},"vehicle_type_id":"4","last_reported":1765984381,"current_range_meters":9600,"station_id":"ce4bhch2rcd13ifvqeug","pricing_plan_id":"cebpf4jnsgd1na2vs0mg"},{"bike_id":"898645b9-705c-44c7-90c9-69cf100f4e32","system_id":"levelo_inurba_marseille","lat":43.2315,"lon":5.43725,"is_reserved":false,"is_disabled":false,"rental_uris":{"android":"levelo://app?vid=898645b9-705c-44c7-90c9-69cf100f4e32","ios":"levelo://app?vid=898645b9-705c-44c7-90c9-69cf100f4e32"},"vehicle_type_id":"4","last_reported":1765984381,"current_range_meters":9600,"station_id":"ce4bhmp2rcd13ifvqgog","pricing_plan_id":"cebpf4jnsgd1na2vs0mg"},{"bike_id":"15547717-0c9e-4bb7-afd7-dd034dc73bd2","system_id":"levelo_inurba_marseille","lat":43.27495,"lon":5.42449,"is_reserved":false,"is_disabled":false,"rental_uris":{"android":"levelo://app?vid=15547717-0c9e-4bb7-afd7-dd034dc73bd2","ios":"levelo://app?vid=15547717-0c9e-4bb7-afd7-dd034dc73bd2"},"vehicle_type_id":"4","last_reported":1765984381,"current_range_meters":9600,"station_id":"ce4bhn92rcd13ifvqgrg","pricing_plan_id":"cebpf4jnsgd1na2vs0mg"},{"bike_id":"bc27ec74-cea2-4b77-85f6-e3fa05fd3282","system_id":"levelo_inurba_marseille","lat":43.311987,"lon":5.368645,"is_reserved":false,"is_disabled":false,"rental_uris":{"android":"levelo://app?vid=bc27ec74-cea2-4b77-85f6-e3fa05fd3282","ios":"levelo://app?vid=bc27ec74-cea2-4b77-85f6-e3fa05fd3282"},"vehicle_type_id":"4","last_reported":1765984381,"current_range_meters":9600,"station_id":"ce4bgl92rcd13ifvqbq0","pricing_plan_id":"cebpf4jnsgd1na2vs0mg"},{"bike_id":"67014468-1e3d-41f3-8b28-7b52a10fc957","system_id":"levelo_inurba_marseille","lat":43.27815,"lon":5.40716,"is_reserved":false,"is_disabled":false,"rental_uris":{"android":"levelo://app?vid=67014468-1e3d-41f3-8b28-7b52a10fc957","ios":"levelo://app?vid=67014468-1e3d-41f3-8b28-7b52a10fc957"},"vehicle_type_id":"4","last_reported":1765984381,"current_range_meters":9600,"station_id":"ce4bhnh2rcd13ifvqgtg","pricing_plan_id":"cebpf4jnsgd1na2vs0mg"},{"bike_id":"023077cd-b5f1-4ecc-91c5-2e2f9dd8e0b3","system_id":"levelo_inurba_marseille","lat":43.29376,"lon":5.37858,"is_reserved":false,"is_disabled":true,"rental_uris":{"android":"levelo://app?vid=023077cd-b5f1-4ecc-91c5-2e2f9dd8e0b3","ios":"levelo://app?vid=023077cd-b5f1-4ecc-91c5-2e2f9dd8e0b3"},"vehicle_type_id":"4","last_reported":1765984381,"current_range_meters":10000,"station_id":"ce4bgjh2rcd13ifvqbf0","pricing_plan_id":"cebpf4jnsgd1na2vs0mg"},{"bike_id":"4dfb7d9e-07fd-435a-a1b0-ac7f7701f2fd","system_id":"levelo_inurba_marseille","lat":43.31751,"lon":5.37654,"is_reserved":false,"is_disabled":false,"rental_uris":{"android":"levelo://app?vid=4dfb7d9e-07fd-435a-a1b0-ac7f7701f2fd","ios":"levelo://app?vid=4dfb7d9e-07fd-435a-a1b0-ac7f7701f2fd"},"vehicle_type_id":"4","last_reported":1765984381,"current_range_meters":10000,"station_id":"","pricing_plan_id":"cebpf4jnsgd1na2vs0mg"},{"bike_id":"d9d313f9-5c43-4fe8-8172-3f8fc70f07aa","system_id":"levelo_inurba_marseille","lat":43.265576,"lon":5.372854,"is_reserved":false,"is_disabled":false,"rental_uris":{"android":"levelo://app?vid=d9d313f9-5c43-4fe8-8172-3f8fc70f07aa","ios":"levelo://app?vid=d9d313f9-5c43-4fe8-8172-3f8fc70f07aa"},"vehicle_type_id":"4","last_reported":1765984381,"current_range_meters":10000,"station_id":"ce4bhih2rcd13ifvqfr0","pricing_plan_id":"cebpf4jnsgd1na2vs0mg"},{"bike_id":"b9a18122-331e-410c-ad05-a4b8874335c4","system_id":"levelo_inurba_marseille","lat":43.27967,"lon":5.38729,"is_reserved":false,"is_disabled":false,"rental_uris":{"android":"levelo://app?vid=b9a18122-331e-410c-ad05-a4b8874335c4","ios":"levelo://app?vid=b9a18122-331e-410c-ad05-a4b8874335c4"},"vehicle_type_id":"4","last_reported":1765984381,"current_range_meters":10000,"station_id":"ce4bhg12rcd13ifvqf80","pricing_plan_id":"cebpf4jnsgd1na2vs0mg"},{"bike_id":"77620665-d1d4-4631-bdd5-2618300eab89","system_id":"levelo_inurba_marseille","lat":43.26479,"lon":5.39569,"is_reserved":false,"is_disabled":true,"rental_uris":{"android":"levelo://app?vid=77620665-d1d4-4631-bdd5-2618300eab89","ios":"levelo://app?vid=77620665-d1d4-4631-bdd5-2618300eab89"},"vehicle_type_id":"4","last_reported":1765984381,"current_range_meters":10000,"station_id":"ce4bhi12rcd13ifvqfq0","pricing_plan_id":"cebpf4jnsgd1na2vs0mg"},{"bike_id":"8599bb6d-1be2-4623-8be4-948b26d4a48d","system_id":"levelo_inurba_marseille","lat":43.25573,"lon":5.38236,"is_reserved":false,"is_disabled":false,"rental_uris":{"android":"levelo://app?vid=8599bb6d-1be2-4623-8be4-948b26d4a48d","ios":"levelo://app?vid=8599bb6d-1be2-4623-8be4-948b26d4a48d"},"vehicle_type_id":"4","last_reported":1765984381,"current_range_meters":10000,"station_id":"ce4bhih2rcd13ifvqfs0","pricing_plan_id":"cebpf4jnsgd1na2vs0mg"},{"bike_id":"d0b033b0-7b52-4e3f-84d5-6f5e9ee2ff83","system_id":"levelo_inurba_marseille","lat":43.29439,"lon":5.39775,"is_reserved":false,"is_disabled":true,"rental_uris":{"android":"levelo://app?vid=d0b033b0-7b52-4e3f-84d5-6f5e9ee2ff83","ios":"levelo://app?vid=d0b033b0-7b52-4e3f-84d5-6f5e9ee2ff83"},"vehicle_type_id":"4","last_reported":1765984381,"current_range_meters":10000,"station_id":"ce4bh3h2rcd13ifvqdo0","pricing_plan_id":"cebpf4jnsgd1na2vs0mg"},{"bike_id":"8df49d50-45d6-4267-b115-d354b63f6ddb","system_id":"levelo_inurba_marseille","lat":43.30535,"lon":5.36526,"is_reserved":false,"is_disabled":false,"rental_uris":{"android":"levelo://app?vid=8df49d50-45d6-4267-b115-d354b63f6ddb","ios":"levelo://app?vid=8df49d50-45d6-4267-b115-d354b63f6ddb"},"vehicle_type_id":"4","last_reported":1765984381,"current_range_meters":10000,"station_id":"ce4bgs12rcd13ifvqcag","pricing_plan_id":"cebpf4jnsgd1na2vs0mg"},{"bike_id":"6a4090a3-92ce-4d04-9301-8c95549dc584","system_id":"levelo_inurba_marseille","lat":43.21196,"lon":5.35085,"is_reserved":false,"is_disabled":false,"rental_uris":{"android":"levelo://app?vid=6a4090a3-92ce-4d04-9301-8c95549dc584","ios":"levelo://app?vid=6a4090a3-92ce-4d04-9301-8c95549dc584"},"vehicle_type_id":"4","last_reported":1765984381,"current_range_meters":10000,"station_id":"st_cvj6sg6p6f1abm77japg","pricing_plan_id":"cebpf4jnsgd1na2vs0mg"},{"bike_id":"915f83a4-d170-4d41-a054-dbb15f8e9d5f","system_id":"levelo_inurba_marseille","lat":43.275787,"lon":5.360722,"is_reserved":false,"is_disabled":false,"rental_uris":{"android":"levelo://app?vid=915f83a4-d170-4d41-a054-dbb15f8e9d5f","ios":"levelo://app?vid=915f83a4-d170-4d41-a054-dbb15f8e9d5f"},"vehicle_type_id":"4","last_reported":1765984381,"current_range_meters":10000,"station_id":"ce4bgj92rcd13ifvqbe0","pricing_plan_id":"cebpf4jnsgd1na2vs0mg"},{"bike_id":"043db755-478e-4d1a-ac45-1f603939c7c5","system_id":"levelo_inurba_marseille","lat":43.29537,"lon":5.375,"is_reserved":false,"is_disabled":false,"rental_uris":{"android":"levelo://app?vid=043db755-478e-4d1a-ac45-1f603939c7c5","ios":"levelo://app?vid=043db755-478e-4d1a-ac45-1f603939c7c5"},"vehicle_type_id":"4","last_reported":1765984381,"current_range_meters":10000,"station_id":"ce4bgkp2rcd13ifvqbmg","pricing_plan_id":"cebpf4jnsgd1na2vs0mg"},{"bike_id":"7f6c37c7-c7ee-4eec-a88d-4ffa6f4d13cc","system_id":"levelo_inurba_marseille","lat":43.30608,"lon":5.38187,"is_reserved":false,"is_disabled":false,"rental_uris":{"android":"levelo://app?vid=7f6c37c7-c7ee-4eec-a88d-4ffa6f4d13cc","ios":"levelo://app?vid=7f6c37c7-c7ee-4eec-a88d-4ffa6f4d13cc"},"vehicle_type_id":"4","last_reported":1765984381,"current_range_meters":10000,"station_id":"","pricing_plan_id":"cebpf4jnsgd1na2vs0mg"},{"bike_id":"92c10893-513a-4bfa-b315-e7fbbf2ced32","system_id":"levelo_inurba_marseille","lat":43.31709,"lon":5.43708,"is_reserved":false,"is_disabled":false,"rental_uris":{"android":"levelo://app?vid=92c10893-513a-4bfa-b315-e7fbbf2ced32","ios":"levelo://app?vid=92c10893-513a-4bfa-b315-e7fbbf2ced32"},"vehicle_type_id":"4","last_reported":1765984381,"current_range_meters":10000,"station_id":"ce4bhp92rcd13ifvqhcg","pricing_plan_id":"cebpf4jnsgd1na2vs0mg"},{"bike_id":"5a47049c-d753-41bd-9dae-304924aa83ff","system_id":"levelo_inurba_marseille","lat":43.27959,"lon":5.38691,"is_reserved":false,"is_disabled":false,"rental_uris":{"android":"levelo://app?vid=5a47049c-d753-41bd-9dae-304924aa83ff","ios":"levelo://app?vid=5a47049c-d753-41bd-9dae-304924aa83ff"},"vehicle_type_id":"4","last_reported":1765984381,"current_range_meters":10800,"station_id":"ce4bhg12rcd13ifvqf80","pricing_plan_id":"cebpf4jnsgd1na2vs0mg"},{"bike_id":"df71387e-1bd7-4414-9b57-09f3fe5ee003","system_id":"levelo_inurba_marseille","lat":43.28424,"lon":5.34982,"is_reserved":false,"is_disabled":false,"rental_uris":{"android":"levelo://app?vid=df71387e-1bd7-4414-9b57-09f3fe5ee003","ios":"levelo://app?vid=df71387e-1bd7-4414-9b57-09f3fe5ee003"},"vehicle_type_id":"4","last_reported":1765984381,"current_range_meters":10800,"station_id":"ce4bhbh2rcd13ifvqepg","pricing_plan_id":"cebpf4jnsgd1na2vs0mg"},{"bike_id":"b6f10416-4f20-4956-9249-3ccd290ad34a","system_id":"levelo_inurba_marseille","lat":43.3126,"lon":5.3683,"is_reserved":false,"is_disabled":false,"rental_uris":{"android":"levelo://app?vid=b6f10416-4f20-4956-9249-3ccd290ad34a","ios":"levelo://app?vid=b6f10416-4f20-4956-9249-3ccd290ad34a"},"vehicle_type_id":"4","last_reported":1765984381,"current_range_meters":10800,"station_id":"ce4bgl92rcd13ifvqbq0","pricing_plan_id":"cebpf4jnsgd1na2vs0mg"},{"bike_id":"a203987b-5a3b-47be-bc21-cd08d8221147","system_id":"levelo_inurba_marseille","lat":43.28404,"lon":5.34975,"is_reserved":false,"is_disabled":false,"rental_uris":{"android":"levelo://app?vid=a203987b-5a3b-47be-bc21-cd08d8221147","ios":"levelo://app?vid=a203987b-5a3b-47be-bc21-cd08d8221147"},"vehicle_type_id":"4","last_reported":1765984381,"current_range_meters":10800,"station_id":"ce4bhbh2rcd13ifvqepg","pricing_plan_id":"cebpf4jnsgd1na2vs0mg"},{"bike_id":"d90c110d-3ee4-4803-bf3b-d150da911b4e","system_id":"levelo_inurba_marseille","lat":43.28476,"lon":5.38455,"is_reserved":false,"is_disabled":true,"rental_uris":{"android":"levelo://app?vid=d90c110d-3ee4-4803-bf3b-d150da911b4e","ios":"levelo://app?vid=d90c110d-3ee4-4803-bf3b-d150da911b4e"},"vehicle_type_id":"4","last_reported":1765984381,"current_range_meters":10800,"station_id":"ce4bh512rcd13ifvqe3g","pricing_plan_id":"cebpf4jnsgd1na2vs0mg"},{"bike_id":"b4fc111e-4a32-4c1c-90c7-482774e7c09a","system_id":"levelo_inurba_marseille","lat":43.30617,"lon":5.37218,"is_reserved":false,"is_disabled":false,"rental_uris":{"android":"levelo://app?vid=b4fc111e-4a32-4c1c-90c7-482774e7c09a","ios":"levelo://app?vid=b4fc111e-4a32-4c1c-90c7-482774e7c09a"},"vehicle_type_id":"4","last_reported":1765984381,"current_range_meters":10800,"station_id":"ce4bgqh2rcd13ifvqc4g","pricing_plan_id":"cebpf4jnsgd1na2vs0mg"},{"bike_id":"14fd9319-6a79-479d-a480-746ebaf86256","system_id":"levelo_inurba_marseille","lat":43.30573,"lon":5.3668,"is_reserved":false,"is_disabled":false,"rental_uris":{"android":"levelo://app?vid=14fd9319-6a79-479d-a480-746ebaf86256","ios":"levelo://app?vid=14fd9319-6a79-479d-a480-746ebaf86256"},"vehicle_type_id":"4","last_reported":1765984381,"current_range_meters":10800,"station_id":"","pricing_plan_id":"cebpf4jnsgd1na2vs0mg"},{"bike_id":"2fa80b8d-b4ee-42ee-b13b-2a2565a36bbb","system_id":"levelo_inurba_marseille","lat":43.29218,"lon":5.3606,"is_reserved":false,"is_disabled":false,"rental_uris":{"android":"levelo://app?vid=2fa80b8d-b4ee-42ee-b13b-2a2565a36bbb","ios":"levelo://app?vid=2fa80b8d-b4ee-42ee-b13b-2a2565a36bbb"},"vehicle_type_id":"4","last_reported":1765984381,"current_range_meters":10800,"station_id":"ce4bhbh2rcd13ifvqeqg","pricing_plan_id":"cebpf4jnsgd1na2vs0mg"},{"bike_id":"5507fb9a-6af7-41df-b7f8-5eeb86878aa4","system_id":"levelo_inurba_marseille","lat":43.29278,"lon":5.36845,"is_reserved":false,"is_disabled":false,"rental_uris":{"android":"levelo://app?vid=5507fb9a-6af7-41df-b7f8-5eeb86878aa4","ios":"levelo://app?vid=5507fb9a-6af7-41df-b7f8-5eeb86878aa4"},"vehicle_type_id":"4","last_reported":1765984381,"current_range_meters":10800,"station_id":"ce4bhbp2rcd13ifvqesg","pricing_plan_id":"cebpf4jnsgd1na2vs0mg"},{"bike_id":"f9860717-2efb-453d-abbe-229474dee48a","system_id":"levelo_inurba_marseille","lat":43.26785,"lon":5.39372,"is_reserved":false,"is_disabled":false,"rental_uris":{"android":"levelo://app?vid=f9860717-2efb-453d-abbe-229474dee48a","ios":"levelo://app?vid=f9860717-2efb-453d-abbe-229474dee48a"},"vehicle_type_id":"4","last_reported":1765984381,"current_range_meters":10800,"station_id":"ce4bhh12rcd13ifvqfg0","pricing_plan_id":"cebpf4jnsgd1na2vs0mg"},{"bike_id":"eaf516a4-fca5-408c-97ee-ce65372a4280","system_id":"levelo_inurba_marseille","lat":43.29036,"lon":5.35918,"is_reserved":false,"is_disabled":false,"rental_uris":{"android":"levelo://app?vid=eaf516a4-fca5-408c-97ee-ce65372a4280","ios":"levelo://app?vid=eaf516a4-fca5-408c-97ee-ce65372a4280"},"vehicle_type_id":"4","last_reported":1765984381,"current_range_meters":10800,"station_id":"ce4bha92rcd13ifvqeg0","pricing_plan_id":"cebpf4jnsgd1na2vs0mg"},{"bike_id":"f2d21dda-5c20-46eb-a193-b66c9953cefa","system_id":"levelo_inurba_marseille","lat":43.24054,"lon":5.3783,"is_reserved":false,"is_disabled":false,"rental_uris":{"android":"levelo://app?vid=f2d21dda-5c20-46eb-a193-b66c9953cefa","ios":"levelo://app?vid=f2d21dda-5c20-46eb-a193-b66c9953cefa"},"vehicle_type_id":"4","last_reported":1765984381,"current_range_meters":10800,"station_id":"","pricing_plan_id":"cebpf4jnsgd1na2vs0mg"},{"bike_id":"dd396699-2c8c-4bfa-aaed-fda2ef56159d","system_id":"levelo_inurba_marseille","lat":43.30809,"lon":5.38158,"is_reserved":false,"is_disabled":false,"rental_uris":{"android":"levelo://app?vid=dd396699-2c8c-4bfa-aaed-fda2ef56159d","ios":"levelo://app?vid=dd396699-2c8c-4bfa-aaed-fda2ef56159d"},"vehicle_type_id":"4","last_reported":1765984381,"current_range_meters":10800,"station_id":"ce4bgt12rcd13ifvqce0","pricing_plan_id":"cebpf4jnsgd1na2vs0mg"},{"bike_id":"72998c6f-08e5-4c75-ae01-058de90f6775","system_id":"levelo_inurba_marseille","lat":43.25584,"lon":5.38232,"is_reserved":false,"is_disabled":false,"rental_uris":{"android":"levelo://app?vid=72998c6f-08e5-4c75-ae01-058de90f6775","ios":"levelo://app?vid=72998c6f-08e5-4c75-ae01-058de90f6775"},"vehicle_type_id":"4","last_reported":1765984381,"current_range_meters":10800,"station_id":"ce4bhih2rcd13ifvqfs0","pricing_plan_id":"cebpf4jnsgd1na2vs0mg"},{"bike_id":"8fa53ddb-80a9-4b81-a17d-6b07554edef4","system_id":"levelo_inurba_marseille","lat":43.284737,"lon":5.483903,"is_reserved":false,"is_disabled":false,"rental_uris":{"android":"levelo://app?vid=8fa53ddb-80a9-4b81-a17d-6b07554edef4","ios":"levelo://app?vid=8fa53ddb-80a9-4b81-a17d-6b07554edef4"},"vehicle_type_id":"4","last_reported":1765984381,"current_range_meters":11200,"station_id":"st_d3svhcjqgbts73a3dn0g","pricing_plan_id":"cebpf4jnsgd1na2vs0mg"},{"bike_id":"7700bec5-2457-4178-ab25-3c72d1a56fa4","system_id":"levelo_inurba_marseille","lat":43.266845,"lon":5.38275,"is_reserved":false,"is_disabled":false,"rental_uris":{"android":"levelo://app?vid=7700bec5-2457-4178-ab25-3c72d1a56fa4","ios":"levelo://app?vid=7700bec5-2457-4178-ab25-3c72d1a56fa4"},"vehicle_type_id":"4","last_reported":1765984381,"current_range_meters":11200,"station_id":"ce4bhg92rcd13ifvqf90","pricing_plan_id":"cebpf4jnsgd1na2vs0mg"},{"bike_id":"b9e289e9-e1d8-4db9-8eeb-d4ae6610e1bb","system_id":"levelo_inurba_marseille","lat":43.2886,"lon":5.42506,"is_reserved":false,"is_disabled":false,"rental_uris":{"android":"levelo://app?vid=b9e289e9-e1d8-4db9-8eeb-d4ae6610e1bb","ios":"levelo://app?vid=b9e289e9-e1d8-4db9-8eeb-d4ae6610e1bb"},"vehicle_type_id":"4","last_reported":1765984381,"current_range_meters":11200,"station_id":"st_d3b462108ojc7389ooeg","pricing_plan_id":"cebpf4jnsgd1na2vs0mg"},{"bike_id":"8930225b-5b1b-4d31-9897-81d116dd2479","system_id":"levelo_inurba_marseille","lat":43.26187,"lon":5.37455,"is_reserved":false,"is_disabled":false,"rental_uris":{"android":"levelo://app?vid=8930225b-5b1b-4d31-9897-81d116dd2479","ios":"levelo://app?vid=8930225b-5b1b-4d31-9897-81d116dd2479"},"vehicle_type_id":"4","last_reported":1765984381,"current_range_meters":11200,"station_id":"ce4bhgp2rcd13ifvqfc0","pricing_plan_id":"cebpf4jnsgd1na2vs0mg"},{"bike_id":"1e8de8ca-59e4-43f1-8150-d6933e042812","system_id":"levelo_inurba_marseille","lat":43.286643,"lon":5.38661,"is_reserved":false,"is_disabled":false,"rental_uris":{"android":"levelo://app?vid=1e8de8ca-59e4-43f1-8150-d6933e042812","ios":"levelo://app?vid=1e8de8ca-59e4-43f1-8150-d6933e042812"},"vehicle_type_id":"4","last_reported":1765984381,"current_range_meters":11200,"station_id":"ce4bh492rcd13ifvqdug","pricing_plan_id":"cebpf4jnsgd1na2vs0mg"},{"bike_id":"88031236-6a40-4d32-a503-adc00e8f1b31","system_id":"levelo_inurba_marseille","lat":43.337538,"lon":5.374581,"is_reserved":false,"is_disabled":false,"rental_uris":{"android":"levelo://app?vid=88031236-6a40-4d32-a503-adc00e8f1b31","ios":"levelo://app?vid=88031236-6a40-4d32-a503-adc00e8f1b31"},"vehicle_type_id":"4","last_reported":1765984381,"current_range_meters":11200,"station_id":"","pricing_plan_id":"cebpf4jnsgd1na2vs0mg"},{"bike_id":"43b55767-00eb-4478-90c8-dc289c7eff43","system_id":"levelo_inurba_marseille","lat":43.26229,"lon":5.40464,"is_reserved":false,"is_disabled":false,"rental_uris":{"android":"levelo://app?vid=43b55767-00eb-4478-90c8-dc289c7eff43","ios":"levelo://app?vid=43b55767-00eb-4478-90c8-dc289c7eff43"},"vehicle_type_id":"4","last_reported":1765984381,"current_range_meters":11200,"station_id":"ce4bhmh2rcd13ifvqgmg","pricing_plan_id":"cebpf4jnsgd1na2vs0mg"},{"bike_id":"bdf9e7b7-9624-48c3-ac2c-43d9b51125d8","system_id":"levelo_inurba_marseille","lat":43.32098,"lon":5.4095,"is_reserved":false,"is_disabled":true,"rental_uris":{"android":"levelo://app?vid=bdf9e7b7-9624-48c3-ac2c-43d9b51125d8","ios":"levelo://app?vid=bdf9e7b7-9624-48c3-ac2c-43d9b51125d8"},"vehicle_type_id":"4","last_reported":1765984381,"current_range_meters":11200,"station_id":"","pricing_plan_id":"cebpf4jnsgd1na2vs0mg"},{"bike_id":"71c82414-0ca2-439a-b942-c5b8de9a4504","system_id":"levelo_inurba_marseille","lat":43.30536,"lon":5.38422,"is_reserved":false,"is_disabled":true,"rental_uris":{"android":"levelo://app?vid=71c82414-0ca2-439a-b942-c5b8de9a4504","ios":"levelo://app?vid=71c82414-0ca2-439a-b942-c5b8de9a4504"},"vehicle_type_id":"4","last_reported":1765984381,"current_range_meters":11200,"station_id":"ce4bgg92rcd13ifvqb30","pricing_plan_id":"cebpf4jnsgd1na2vs0mg"},{"bike_id":"a042843e-ad7c-4db1-ae69-74be1ef01ab2","system_id":"levelo_inurba_marseille","lat":43.23786,"lon":5.36635,"is_reserved":false,"is_disabled":false,"rental_uris":{"android":"levelo://app?vid=a042843e-ad7c-4db1-ae69-74be1ef01ab2","ios":"levelo://app?vid=a042843e-ad7c-4db1-ae69-74be1ef01ab2"},"vehicle_type_id":"4","last_reported":1765984381,"current_range_meters":11200,"station_id":"st_d3nk18o9ro0c73en2l3g","pricing_plan_id":"cebpf4jnsgd1na2vs0mg"},{"bike_id":"cf7cd510-0c58-4767-ad61-af9713d13eb9","system_id":"levelo_inurba_marseille","lat":43.29312,"lon":5.37162,"is_reserved":false,"is_disabled":false,"rental_uris":{"android":"levelo://app?vid=cf7cd510-0c58-4767-ad61-af9713d13eb9","ios":"levelo://app?vid=cf7cd510-0c58-4767-ad61-af9713d13eb9"},"vehicle_type_id":"4","last_reported":1765984381,"current_range_meters":11600,"station_id":"ce4bgh92rcd13ifvqb40","pricing_plan_id":"cebpf4jnsgd1na2vs0mg"},{"bike_id":"8eb729f8-915c-42f5-8c2f-06d59fbb986d","system_id":"levelo_inurba_marseille","lat":43.28857,"lon":5.35858,"is_reserved":false,"is_disabled":false,"rental_uris":{"android":"levelo://app?vid=8eb729f8-915c-42f5-8c2f-06d59fbb986d","ios":"levelo://app?vid=8eb729f8-915c-42f5-8c2f-06d59fbb986d"},"vehicle_type_id":"4","last_reported":1765984381,"current_range_meters":11600,"station_id":"ce4bhb12rcd13ifvqem0","pricing_plan_id":"cebpf4jnsgd1na2vs0mg"},{"bike_id":"ac062abb-f7b2-49b0-92db-62ff659b1bce","system_id":"levelo_inurba_marseille","lat":43.2603,"lon":5.3755,"is_reserved":false,"is_disabled":false,"rental_uris":{"android":"levelo://app?vid=ac062abb-f7b2-49b0-92db-62ff659b1bce","ios":"levelo://app?vid=ac062abb-f7b2-49b0-92db-62ff659b1bce"},"vehicle_type_id":"4","last_reported":1765984381,"current_range_meters":11600,"station_id":"ce4bhgh2rcd13ifvqfa0","pricing_plan_id":"cebpf4jnsgd1na2vs0mg"},{"bike_id":"f50febc6-0594-413a-a77a-577b8530ef5d","system_id":"levelo_inurba_marseille","lat":43.28422,"lon":5.34977,"is_reserved":false,"is_disabled":false,"rental_uris":{"android":"levelo://app?vid=f50febc6-0594-413a-a77a-577b8530ef5d","ios":"levelo://app?vid=f50febc6-0594-413a-a77a-577b8530ef5d"},"vehicle_type_id":"4","last_reported":1765984381,"current_range_meters":11600,"station_id":"ce4bhbh2rcd13ifvqepg","pricing_plan_id":"cebpf4jnsgd1na2vs0mg"},{"bike_id":"ec35f330-7808-4375-8c8a-502be439d674","system_id":"levelo_inurba_marseille","lat":43.2928,"lon":5.36852,"is_reserved":false,"is_disabled":false,"rental_uris":{"android":"levelo://app?vid=ec35f330-7808-4375-8c8a-502be439d674","ios":"levelo://app?vid=ec35f330-7808-4375-8c8a-502be439d674"},"vehicle_type_id":"4","last_reported":1765984381,"current_range_meters":11600,"station_id":"ce4bhbp2rcd13ifvqesg","pricing_plan_id":"cebpf4jnsgd1na2vs0mg"},{"bike_id":"08ee8c0a-f34a-42a3-98aa-c726858470ae","system_id":"levelo_inurba_marseille","lat":43.27985,"lon":5.38744,"is_reserved":false,"is_disabled":false,"rental_uris":{"android":"levelo://app?vid=08ee8c0a-f34a-42a3-98aa-c726858470ae","ios":"levelo://app?vid=08ee8c0a-f34a-42a3-98aa-c726858470ae"},"vehicle_type_id":"4","last_reported":1765984381,"current_range_meters":11600,"station_id":"ce4bhg12rcd13ifvqf80","pricing_plan_id":"cebpf4jnsgd1na2vs0mg"},{"bike_id":"328c4cac-226e-4fc4-99fa-f973cc2d429b","system_id":"levelo_inurba_marseille","lat":43.30543,"lon":5.36702,"is_reserved":false,"is_disabled":false,"rental_uris":{"android":"levelo://app?vid=328c4cac-226e-4fc4-99fa-f973cc2d429b","ios":"levelo://app?vid=328c4cac-226e-4fc4-99fa-f973cc2d429b"},"vehicle_type_id":"4","last_reported":1765984381,"current_range_meters":11600,"station_id":"ce4bgrp2rcd13ifvqc9g","pricing_plan_id":"cebpf4jnsgd1na2vs0mg"},{"bike_id":"3d69b350-3639-4c93-9cbc-a16c95e399e9","system_id":"levelo_inurba_marseille","lat":43.2983,"lon":5.44067,"is_reserved":false,"is_disabled":false,"rental_uris":{"android":"levelo://app?vid=3d69b350-3639-4c93-9cbc-a16c95e399e9","ios":"levelo://app?vid=3d69b350-3639-4c93-9cbc-a16c95e399e9"},"vehicle_type_id":"4","last_reported":1765984381,"current_range_meters":12000,"station_id":"st_d3jp68qikq2c7381ktn0","pricing_plan_id":"cebpf4jnsgd1na2vs0mg"},{"bike_id":"e2d12081-dbb9-49e5-8d97-dd1d4351380c","system_id":"levelo_inurba_marseille","lat":43.31367,"lon":5.38493,"is_reserved":false,"is_disabled":false,"rental_uris":{"android":"levelo://app?vid=e2d12081-dbb9-49e5-8d97-dd1d4351380c","ios":"levelo://app?vid=e2d12081-dbb9-49e5-8d97-dd1d4351380c"},"vehicle_type_id":"4","last_reported":1765984381,"current_range_meters":12000,"station_id":"ce4bgt92rcd13ifvqcf0","pricing_plan_id":"cebpf4jnsgd1na2vs0mg"},{"bike_id":"a1fb306f-9a9a-4ffb-8fbf-e0155cc1e7e0","system_id":"levelo_inurba_marseille","lat":43.30468,"lon":5.3791,"is_reserved":false,"is_disabled":false,"rental_uris":{"android":"levelo://app?vid=a1fb306f-9a9a-4ffb-8fbf-e0155cc1e7e0","ios":"levelo://app?vid=a1fb306f-9a9a-4ffb-8fbf-e0155cc1e7e0"},"vehicle_type_id":"4","last_reported":1765984381,"current_range_meters":12000,"station_id":"ce4bgup2rcd13ifvqcn0","pricing_plan_id":"cebpf4jnsgd1na2vs0mg"},{"bike_id":"77dac172-730c-4e68-9085-d6d45ec1ae8e","system_id":"levelo_inurba_marseille","lat":43.28149,"lon":5.42647,"is_reserved":false,"is_disabled":false,"rental_uris":{"android":"levelo://app?vid=77dac172-730c-4e68-9085-d6d45ec1ae8e","ios":"levelo://app?vid=77dac172-730c-4e68-9085-d6d45ec1ae8e"},"vehicle_type_id":"4","last_reported":1765984381,"current_range_meters":12000,"station_id":"ce4bhnh2rcd13ifvqgug","pricing_plan_id":"cebpf4jnsgd1na2vs0mg"},{"bike_id":"c510d4ef-90da-42f7-9243-d28ab4b056c5","system_id":"levelo_inurba_marseille","lat":43.29518,"lon":5.39396,"is_reserved":false,"is_disabled":false,"rental_uris":{"android":"levelo://app?vid=c510d4ef-90da-42f7-9243-d28ab4b056c5","ios":"levelo://app?vid=c510d4ef-90da-42f7-9243-d28ab4b056c5"},"vehicle_type_id":"4","last_reported":1765984381,"current_range_meters":12000,"station_id":"ce4bh292rcd13ifvqdf0","pricing_plan_id":"cebpf4jnsgd1na2vs0mg"},{"bike_id":"f1a38084-b6a4-4886-b9a5-6d0dd470c5a2","system_id":"levelo_inurba_marseille","lat":43.30602,"lon":5.37232,"is_reserved":false,"is_disabled":false,"rental_uris":{"android":"levelo://app?vid=f1a38084-b6a4-4886-b9a5-6d0dd470c5a2","ios":"levelo://app?vid=f1a38084-b6a4-4886-b9a5-6d0dd470c5a2"},"vehicle_type_id":"4","last_reported":1765984381,"current_range_meters":12000,"station_id":"ce4bgqh2rcd13ifvqc4g","pricing_plan_id":"cebpf4jnsgd1na2vs0mg"},{"bike_id":"16be481f-07e4-48d8-a118-08120fcbce85","system_id":"levelo_inurba_marseille","lat":43.29537,"lon":5.37499,"is_reserved":false,"is_disabled":false,"rental_uris":{"android":"levelo://app?vid=16be481f-07e4-48d8-a118-08120fcbce85","ios":"levelo://app?vid=16be481f-07e4-48d8-a118-08120fcbce85"},"vehicle_type_id":"4","last_reported":1765984381,"current_range_meters":12000,"station_id":"ce4bgkp2rcd13ifvqbmg","pricing_plan_id":"cebpf4jnsgd1na2vs0mg"},{"bike_id":"059a55bf-0611-424b-aa81-a4c0cf538b1e","system_id":"levelo_inurba_marseille","lat":43.23799,"lon":5.36631,"is_reserved":false,"is_disabled":false,"rental_uris":{"android":"levelo://app?vid=059a55bf-0611-424b-aa81-a4c0cf538b1e","ios":"levelo://app?vid=059a55bf-0611-424b-aa81-a4c0cf538b1e"},"vehicle_type_id":"4","last_reported":1765984381,"current_range_meters":12000,"station_id":"st_d3nk18o9ro0c73en2l3g","pricing_plan_id":"cebpf4jnsgd1na2vs0mg"},{"bike_id":"c7e5daf3-a6b0-4ffc-8e95-134c47362fa1","system_id":"levelo_inurba_marseille","lat":43.30123,"lon":5.36866,"is_reserved":false,"is_disabled":false,"rental_uris":{"android":"levelo://app?vid=c7e5daf3-a6b0-4ffc-8e95-134c47362fa1","ios":"levelo://app?vid=c7e5daf3-a6b0-4ffc-8e95-134c47362fa1"},"vehicle_type_id":"4","last_reported":1765984381,"current_range_meters":12000,"station_id":"","pricing_plan_id":"cebpf4jnsgd1na2vs0mg"},{"bike_id":"31bfca67-a56f-4eb8-8695-4557fde2b09c","system_id":"levelo_inurba_marseille","lat":43.28874,"lon":5.42533,"is_reserved":false,"is_disabled":false,"rental_uris":{"android":"levelo://app?vid=31bfca67-a56f-4eb8-8695-4557fde2b09c","ios":"levelo://app?vid=31bfca67-a56f-4eb8-8695-4557fde2b09c"},"vehicle_type_id":"4","last_reported":1765984381,"current_range_meters":12000,"station_id":"st_d3b462108ojc7389ooeg","pricing_plan_id":"cebpf4jnsgd1na2vs0mg"},{"bike_id":"57ba4b21-7901-461d-9613-a8a5531f6008","system_id":"levelo_inurba_marseille","lat":43.31454,"lon":5.45379,"is_reserved":false,"is_disabled":false,"rental_uris":{"android":"levelo://app?vid=57ba4b21-7901-461d-9613-a8a5531f6008","ios":"levelo://app?vid=57ba4b21-7901-461d-9613-a8a5531f6008"},"vehicle_type_id":"4","last_reported":1765984381,"current_range_meters":12000,"station_id":"","pricing_plan_id":"cebpf4jnsgd1na2vs0mg"},{"bike_id":"0220bf61-5f99-4521-b86e-27e1923ade3b","system_id":"levelo_inurba_marseille","lat":43.319204,"lon":5.400753,"is_reserved":false,"is_disabled":false,"rental_uris":{"android":"levelo://app?vid=0220bf61-5f99-4521-b86e-27e1923ade3b","ios":"levelo://app?vid=0220bf61-5f99-4521-b86e-27e1923ade3b"},"vehicle_type_id":"4","last_reported":1765984381,"current_range_meters":12400,"station_id":"","pricing_plan_id":"cebpf4jnsgd1na2vs0mg"},{"bike_id":"82cce858-0c3e-43b4-99cd-6eb5b6d5dc02","system_id":"levelo_inurba_marseille","lat":43.32107,"lon":5.36783,"is_reserved":false,"is_disabled":false,"rental_uris":{"android":"levelo://app?vid=82cce858-0c3e-43b4-99cd-6eb5b6d5dc02","ios":"levelo://app?vid=82cce858-0c3e-43b4-99cd-6eb5b6d5dc02"},"vehicle_type_id":"4","last_reported":1765984381,"current_range_meters":12400,"station_id":"ce4bhrh2rcd13ifvqhug","pricing_plan_id":"cebpf4jnsgd1na2vs0mg"},{"bike_id":"08f95d57-4d0a-4c10-996d-2386fe74a74e","system_id":"levelo_inurba_marseille","lat":43.28655,"lon":5.38719,"is_reserved":false,"is_disabled":false,"rental_uris":{"android":"levelo://app?vid=08f95d57-4d0a-4c10-996d-2386fe74a74e","ios":"levelo://app?vid=08f95d57-4d0a-4c10-996d-2386fe74a74e"},"vehicle_type_id":"4","last_reported":1765984381,"current_range_meters":12400,"station_id":"ce4bh492rcd13ifvqdug","pricing_plan_id":"cebpf4jnsgd1na2vs0mg"},{"bike_id":"9d8945e1-f704-4d66-a633-35f36e0010fa","system_id":"levelo_inurba_marseille","lat":43.3081,"lon":5.38139,"is_reserved":false,"is_disabled":false,"rental_uris":{"android":"levelo://app?vid=9d8945e1-f704-4d66-a633-35f36e0010fa","ios":"levelo://app?vid=9d8945e1-f704-4d66-a633-35f36e0010fa"},"vehicle_type_id":"4","last_reported":1765984381,"current_range_meters":12400,"station_id":"ce4bgt12rcd13ifvqce0","pricing_plan_id":"cebpf4jnsgd1na2vs0mg"},{"bike_id":"c2653f30-0391-4899-8162-443c734b7ea6","system_id":"levelo_inurba_marseille","lat":43.29966,"lon":5.38496,"is_reserved":false,"is_disabled":false,"rental_uris":{"android":"levelo://app?vid=c2653f30-0391-4899-8162-443c734b7ea6","ios":"levelo://app?vid=c2653f30-0391-4899-8162-443c734b7ea6"},"vehicle_type_id":"4","last_reported":1765984381,"current_range_meters":12800,"station_id":"ce4bgj92rcd13ifvqbd0","pricing_plan_id":"cebpf4jnsgd1na2vs0mg"},{"bike_id":"0a066441-6d7a-4b76-8aa3-9bbfbe8e7d1d","system_id":"levelo_inurba_marseille","lat":43.2982,"lon":5.44071,"is_reserved":false,"is_disabled":false,"rental_uris":{"android":"levelo://app?vid=0a066441-6d7a-4b76-8aa3-9bbfbe8e7d1d","ios":"levelo://app?vid=0a066441-6d7a-4b76-8aa3-9bbfbe8e7d1d"},"vehicle_type_id":"4","last_reported":1765984381,"current_range_meters":12800,"station_id":"st_d3jp68qikq2c7381ktn0","pricing_plan_id":"cebpf4jnsgd1na2vs0mg"},{"bike_id":"a9adc8bf-52f1-4c31-a2de-42743dd086bf","system_id":"levelo_inurba_marseille","lat":43.33723,"lon":5.3748,"is_reserved":false,"is_disabled":false,"rental_uris":{"android":"levelo://app?vid=a9adc8bf-52f1-4c31-a2de-42743dd086bf","ios":"levelo://app?vid=a9adc8bf-52f1-4c31-a2de-42743dd086bf"},"vehicle_type_id":"4","last_reported":1765984381,"current_range_meters":12800,"station_id":"","pricing_plan_id":"cebpf4jnsgd1na2vs0mg"},{"bike_id":"b143af7f-1e85-426d-b6df-3cc21b4c8484","system_id":"levelo_inurba_marseille","lat":43.337444,"lon":5.374475,"is_reserved":false,"is_disabled":false,"rental_uris":{"android":"levelo://app?vid=b143af7f-1e85-426d-b6df-3cc21b4c8484","ios":"levelo://app?vid=b143af7f-1e85-426d-b6df-3cc21b4c8484"},"vehicle_type_id":"4","last_reported":1765984381,"current_range_meters":12800,"station_id":"","pricing_plan_id":"cebpf4jnsgd1na2vs0mg"},{"bike_id":"2f347f7d-9869-45e0-bfb1-9c3199a7aee4","system_id":"levelo_inurba_marseille","lat":43.22568,"lon":5.41634,"is_reserved":false,"is_disabled":false,"rental_uris":{"android":"levelo://app?vid=2f347f7d-9869-45e0-bfb1-9c3199a7aee4","ios":"levelo://app?vid=2f347f7d-9869-45e0-bfb1-9c3199a7aee4"},"vehicle_type_id":"4","last_reported":1765984381,"current_range_meters":12800,"station_id":"st_d2o4gvlbi1j2169b742g","pricing_plan_id":"cebpf4jnsgd1na2vs0mg"},{"bike_id":"414c89e2-70ba-49a5-97d0-47b8f4ef6054","system_id":"levelo_inurba_marseille","lat":43.290989,"lon":5.381353,"is_reserved":false,"is_disabled":false,"rental_uris":{"android":"levelo://app?vid=414c89e2-70ba-49a5-97d0-47b8f4ef6054","ios":"levelo://app?vid=414c89e2-70ba-49a5-97d0-47b8f4ef6054"},"vehicle_type_id":"4","last_reported":1765984381,"current_range_meters":12800,"station_id":"ce4bh512rcd13ifvqe2g","pricing_plan_id":"cebpf4jnsgd1na2vs0mg"},{"bike_id":"9a09a641-347a-48c2-b2cd-40dda7d87f5a","system_id":"levelo_inurba_marseille","lat":43.31193,"lon":5.38694,"is_reserved":false,"is_disabled":false,"rental_uris":{"android":"levelo://app?vid=9a09a641-347a-48c2-b2cd-40dda7d87f5a","ios":"levelo://app?vid=9a09a641-347a-48c2-b2cd-40dda7d87f5a"},"vehicle_type_id":"4","last_reported":1765984381,"current_range_meters":12800,"station_id":"ce4bgv12rcd13ifvqcp0","pricing_plan_id":"cebpf4jnsgd1na2vs0mg"},{"bike_id":"7d1eaa5b-79ce-4fe5-80c9-23debd30b448","system_id":"levelo_inurba_marseille","lat":43.321123,"lon":5.367686,"is_reserved":false,"is_disabled":false,"rental_uris":{"android":"levelo://app?vid=7d1eaa5b-79ce-4fe5-80c9-23debd30b448","ios":"levelo://app?vid=7d1eaa5b-79ce-4fe5-80c9-23debd30b448"},"vehicle_type_id":"4","last_reported":1765984381,"current_range_meters":12800,"station_id":"ce4bhrh2rcd13ifvqhug","pricing_plan_id":"cebpf4jnsgd1na2vs0mg"},{"bike_id":"38a6fa5c-cdb4-49f7-bbe4-a0ec1354ed5d","system_id":"levelo_inurba_marseille","lat":43.25724,"lon":5.41111,"is_reserved":false,"is_disabled":false,"rental_uris":{"android":"levelo://app?vid=38a6fa5c-cdb4-49f7-bbe4-a0ec1354ed5d","ios":"levelo://app?vid=38a6fa5c-cdb4-49f7-bbe4-a0ec1354ed5d"},"vehicle_type_id":"4","last_reported":1765984381,"current_range_meters":12800,"station_id":"ce4bhkp2rcd13ifvqgd0","pricing_plan_id":"cebpf4jnsgd1na2vs0mg"},{"bike_id":"42b089ed-4854-47a3-9a41-a17d47401ae4","system_id":"levelo_inurba_marseille","lat":43.320977,"lon":5.368291,"is_reserved":false,"is_disabled":false,"rental_uris":{"android":"levelo://app?vid=42b089ed-4854-47a3-9a41-a17d47401ae4","ios":"levelo://app?vid=42b089ed-4854-47a3-9a41-a17d47401ae4"},"vehicle_type_id":"4","last_reported":1765984381,"current_range_meters":13600,"station_id":"","pricing_plan_id":"cebpf4jnsgd1na2vs0mg"},{"bike_id":"5e966718-5958-4ef3-96ec-5139a97580cf","system_id":"levelo_inurba_marseille","lat":43.26569,"lon":5.40323,"is_reserved":false,"is_disabled":false,"rental_uris":{"android":"levelo://app?vid=5e966718-5958-4ef3-96ec-5139a97580cf","ios":"levelo://app?vid=5e966718-5958-4ef3-96ec-5139a97580cf"},"vehicle_type_id":"4","last_reported":1765984381,"current_range_meters":13600,"station_id":"ce4bhmp2rcd13ifvqgng","pricing_plan_id":"cebpf4jnsgd1na2vs0mg"},{"bike_id":"783d6ade-301c-44e8-b285-3317a4d497a1","system_id":"levelo_inurba_marseille","lat":43.26951,"lon":5.38631,"is_reserved":false,"is_disabled":false,"rental_uris":{"android":"levelo://app?vid=783d6ade-301c-44e8-b285-3317a4d497a1","ios":"levelo://app?vid=783d6ade-301c-44e8-b285-3317a4d497a1"},"vehicle_type_id":"4","last_reported":1765984381,"current_range_meters":13600,"station_id":"ce4bhh92rcd13ifvqfh0","pricing_plan_id":"cebpf4jnsgd1na2vs0mg"},{"bike_id":"91ec7bcf-3b8f-4dc3-b5e4-fa3385839d6d","system_id":"levelo_inurba_marseille","lat":43.30542,"lon":5.3671,"is_reserved":false,"is_disabled":false,"rental_uris":{"android":"levelo://app?vid=91ec7bcf-3b8f-4dc3-b5e4-fa3385839d6d","ios":"levelo://app?vid=91ec7bcf-3b8f-4dc3-b5e4-fa3385839d6d"},"vehicle_type_id":"4","last_reported":1765984381,"current_range_meters":13600,"station_id":"ce4bgrp2rcd13ifvqc9g","pricing_plan_id":"cebpf4jnsgd1na2vs0mg"},{"bike_id":"8fae8413-56bb-4910-8bb9-64fffb3fb353","system_id":"levelo_inurba_marseille","lat":43.27819,"lon":5.40727,"is_reserved":false,"is_disabled":true,"rental_uris":{"android":"levelo://app?vid=8fae8413-56bb-4910-8bb9-64fffb3fb353","ios":"levelo://app?vid=8fae8413-56bb-4910-8bb9-64fffb3fb353"},"vehicle_type_id":"4","last_reported":1765984381,"current_range_meters":13600,"station_id":"ce4bhnh2rcd13ifvqgtg","pricing_plan_id":"cebpf4jnsgd1na2vs0mg"},{"bike_id":"628dacd2-0db8-4326-b8fc-cb0030652fd5","system_id":"levelo_inurba_marseille","lat":43.32096,"lon":5.3678,"is_reserved":false,"is_disabled":false,"rental_uris":{"android":"levelo://app?vid=628dacd2-0db8-4326-b8fc-cb0030652fd5","ios":"levelo://app?vid=628dacd2-0db8-4326-b8fc-cb0030652fd5"},"vehicle_type_id":"4","last_reported":1765984381,"current_range_meters":13600,"station_id":"ce4bhrh2rcd13ifvqhug","pricing_plan_id":"cebpf4jnsgd1na2vs0mg"},{"bike_id":"b5a896e7-df15-49bf-ac05-402735cfb534","system_id":"levelo_inurba_marseille","lat":43.293765,"lon":5.378486,"is_reserved":false,"is_disabled":false,"rental_uris":{"android":"levelo://app?vid=b5a896e7-df15-49bf-ac05-402735cfb534","ios":"levelo://app?vid=b5a896e7-df15-49bf-ac05-402735cfb534"},"vehicle_type_id":"4","last_reported":1765984381,"current_range_meters":13600,"station_id":"ce4bgjh2rcd13ifvqbf0","pricing_plan_id":"cebpf4jnsgd1na2vs0mg"},{"bike_id":"5d630d2e-23cf-48e8-8dd0-ccc596129c12","system_id":"levelo_inurba_marseille","lat":43.3126,"lon":5.36847,"is_reserved":false,"is_disabled":false,"rental_uris":{"android":"levelo://app?vid=5d630d2e-23cf-48e8-8dd0-ccc596129c12","ios":"levelo://app?vid=5d630d2e-23cf-48e8-8dd0-ccc596129c12"},"vehicle_type_id":"4","last_reported":1765984381,"current_range_meters":13600,"station_id":"ce4bgl92rcd13ifvqbq0","pricing_plan_id":"cebpf4jnsgd1na2vs0mg"},{"bike_id":"0f033089-1424-4fb4-b3dd-976abb0af258","system_id":"levelo_inurba_marseille","lat":43.240603,"lon":5.377427,"is_reserved":false,"is_disabled":false,"rental_uris":{"android":"levelo://app?vid=0f033089-1424-4fb4-b3dd-976abb0af258","ios":"levelo://app?vid=0f033089-1424-4fb4-b3dd-976abb0af258"},"vehicle_type_id":"4","last_reported":1765984381,"current_range_meters":13600,"station_id":"ce4bhnp2rcd13ifvqgvg","pricing_plan_id":"cebpf4jnsgd1na2vs0mg"},{"bike_id":"ccd5484f-f7d8-4049-8518-443f8cc3f24e","system_id":"levelo_inurba_marseille","lat":43.284818,"lon":5.483954,"is_reserved":false,"is_disabled":false,"rental_uris":{"android":"levelo://app?vid=ccd5484f-f7d8-4049-8518-443f8cc3f24e","ios":"levelo://app?vid=ccd5484f-f7d8-4049-8518-443f8cc3f24e"},"vehicle_type_id":"4","last_reported":1765984381,"current_range_meters":14000,"station_id":"st_d3svhcjqgbts73a3dn0g","pricing_plan_id":"cebpf4jnsgd1na2vs0mg"},{"bike_id":"3b9d8cc4-e7ac-4ade-9ae4-c4ceec561bb7","system_id":"levelo_inurba_marseille","lat":43.2957,"lon":5.38161,"is_reserved":false,"is_disabled":false,"rental_uris":{"android":"levelo://app?vid=3b9d8cc4-e7ac-4ade-9ae4-c4ceec561bb7","ios":"levelo://app?vid=3b9d8cc4-e7ac-4ade-9ae4-c4ceec561bb7"},