{"last_updated":1736960868,"ttl":60,"version":"2.2","data":{"bikes":[{"bike_id":"31ff3faf-7df1-4f6e-abbf-0d7599c3919f","system_id":"levelo_inurba_marseille","lat":43.29846,"lon":5.36277,"is_reserved":false,"is_disabled":false,"rental_uris":{"android":"levelo://app?vid=31ff3faf-7df1-4f6e-abbf-0d7599c3919f","ios":"levelo://app?vid=31ff3faf-7df1-4f6e-abbf-0d7599c3919f"},"vehicle_type_id":"4","last_reported":1736960869,"current_range_meters":3600,"station_id":"ce4bgpp2rcd13ifvqc3g","pricing_plan_id":"cebpf4jnsgd1na2vs0mg"},{"bike_id":"8950994e-141b-4c16-ae82-ef1e6827f7d4","system_id":"levelo_inurba_marseille","lat":43.27815,"lon":5.40703,"is_reserved":false,"is_disabled":false,"rental_uris":{"android":"levelo://app?vid=8950994e-141b-4c16-ae82-ef1e6827f7d4","ios":"levelo://app?vid=8950994e-141b-4c16-ae82-ef1e6827f7d4"},"vehicle_type_id":"4","last_reported":1736960869,"current_range_meters":4800,"station_id":"ce4bhnh2rcd13ifvqgtg","pricing_plan_id":"cebpf4jnsgd1na2vs0mg"},{"bike_id":"522792c1-0958-4f1c-b5fe-d79a91472c41","system_id":"levelo_inurba_marseille","lat":43.26681,"lon":5.38269,"is_reserved":false,"is_disabled":false,"rental_uris":{"android":"levelo://app?vid=522792c1-0958-4f1c-b5fe-d79a91472c41","ios":"levelo://app?vid=522792c1-0958-4f1c-b5fe-d79a91472c41"},"vehicle_type_id":"4","last_reported":1736960869,"current_range_meters":10000,"station_id":"ce4bhg92rcd13ifvqf90","pricing_plan_id":"cebpf4jnsgd1na2vs0mg"},{"bike_id":"7cb0c153-8a4d-41f6-8674-849829d23d15","system_id":"levelo_inurba_marseille","lat":43.31117,"lon":5.37776,"is_reserved":false,"is_disabled":false,"rental_uris":{"android":"levelo://app?vid=7cb0c153-8a4d-41f6-8674-849829d23d15","ios":"levelo://app?vid=7cb0c153-8a4d-41f6-8674-849829d23d15"},"vehicle_type_id":"4","last_reported":1736960869,"current_range_meters":35200,"station_id":"ce4bgt92rcd13ifvqcg0","pricing_plan_id":"cebpf4jnsgd1na2vs0mg"},{"bike_id":"129fd071-ff26-4256-b54a-26f406ffd81e","system_id":"levelo_inurba_marseille","lat":43.28567,"lon":5.39508,"is_reserved":false,"is_disabled":false,"rental_uris":{"android":"levelo://app?vid=129fd071-ff26-4256-b54a-26f406ffd81e","ios":"levelo://app?vid=129fd071-ff26-4256-b54a-26f406ffd81e"},"vehicle_type_id":"4","last_reported":1736960869,"current_range_meters":20400,"station_id":"ce4bh292rcd13ifvqdg0","pricing_plan_id":"cebpf4jnsgd1na2vs0mg"},{"bike_id":"b80161e1-2168-4ade-a2d2-f1956561ac66","system_id":"levelo_inurba_marseille","lat":43.25872,"lon":5.39885,"is_reserved":false,"is_disabled":false,"rental_uris":{"android":"levelo://app?vid=b80161e1-2168-4ade-a2d2-f1956561ac66","ios":"levelo://app?vid=b80161e1-2168-4ade-a2d2-f1956561ac66"},"vehicle_type_id":"4","last_reported":1736960869,"current_range_meters":36000,"station_id":"ce4bhl92rcd13ifvqghg","pricing_plan_id":"cebpf4jnsgd1na2vs0mg"},{"bike_id":"39376229-5cc7-4f71-b109-1f7313b55f3d","system_id":"levelo_inurba_marseille","lat":43.29814,"lon":5.38089,"is_reserved":false,"is_disabled":false,"rental_uris":{"android":"levelo://app?vid=39376229-5cc7-4f71-b109-1f7313b55f3d","ios":"levelo://app?vid=39376229-5cc7-4f71-b109-1f7313b55f3d"},"vehicle_type_id":"4","last_reported":1736960869,"current_range_meters":36800,"station_id":"ce4bgip2rcd13ifvqbb0","pricing_plan_id":"cebpf4jnsgd1na2vs0mg"},{"bike_id":"7fcd2051-aca5-414a-82ff-0cdb2e8bed0c","system_id":"levelo_inurba_marseille","lat":43.27576,"lon":5.38412,"is_reserved":false,"is_disabled":false,"rental_uris":{"android":"levelo://app?vid=7fcd2051-aca5-414a-82ff-0cdb2e8bed0c","ios":"levelo://app?vid=7fcd2051-aca5-414a-82ff-0cdb2e8bed0c"},"vehicle_type_id":"4","last_reported":1736960869,"current_range_meters":29600,"station_id":"ce4bhh92rcd13ifvqfi0","pricing_plan_id":"cebpf4jnsgd1na2vs0mg"},{"bike_id":"4fa358ca-b741-467a-a03f-b8033021b471","system_id":"levelo_inurba_marseille","lat":43.337571,"lon":5.374567,"is_reserved":false,"is_disabled":false,"rental_uris":{"android":"levelo://app?vid=4fa358ca-b741-467a-a03f-b8033021b471","ios":"levelo://app?vid=4fa358ca-b741-467a-a03f-b8033021b471"},"vehicle_type_id":"4","last_reported":1736960869,"current_range_meters":36400,"station_id":"","pricing_plan_id":"cebpf4jnsgd1na2vs0mg"},{"bike_id":"5db5f749-55d7-4666-b989-2cc4222957b1","system_id":"levelo_inurba_marseille","lat":43.28428,"lon":5.39187,"is_reserved":false,"is_disabled":true,"rental_uris":{"android":"levelo://app?vid=5db5f749-55d7-4666-b989-2cc4222957b1","ios":"levelo://app?vid=5db5f749-55d7-4666-b989-2cc4222957b1"},"vehicle_type_id":"4","last_reported":1736960869,"current_range_meters":24000,"station_id":"ce4bhoh2rcd13ifvqh5g","pricing_plan_id":"cebpf4jnsgd1na2vs0mg"},{"bike_id":"2b2cb29b-656b-412b-b107-6e49fdf15518","system_id":"levelo_inurba_marseille","lat":43.27499,"lon":5.42447,"is_reserved":false,"is_disabled":true,"rental_uris":{"android":"levelo://app?vid=2b2cb29b-656b-412b-b107-6e49fdf15518","ios":"levelo://app?vid=2b2cb29b-656b-412b-b107-6e49fdf15518"},"vehicle_type_id":"4","last_reported":1736960869,"current_range_meters":0,"station_id":"ce4bhn92rcd13ifvqgrg","pricing_plan_id":"cebpf4jnsgd1na2vs0mg"},{"bike_id":"45e47a0c-7fe1-42c5-89b1-0f84d6cbf0bd","system_id":"levelo_inurba_marseille","lat":43.28406,"lon":5.3751,"is_reserved":false,"is_disabled":false,"rental_uris":{"android":"levelo://app?vid=45e47a0c-7fe1-42c5-89b1-0f84d6cbf0bd","ios":"levelo://app?vid=45e47a0c-7fe1-42c5-89b1-0f84d6cbf0bd"},"vehicle_type_id":"4","last_reported":1736960869,"current_range_meters":14800,"station_id":"ce4bh412rcd13ifvqds0","pricing_plan_id":"cebpf4jnsgd1na2vs0mg"},{"bike_id":"e815a81b-bac9-44d8-927b-cad09d4c7319","system_id":"levelo_inurba_marseille","lat":43.27809,"lon":5.40713,"is_reserved":false,"is_disabled":false,"rental_uris":{"android":"levelo://app?vid=e815a81b-bac9-44d8-927b-cad09d4c7319","ios":"levelo://app?vid=e815a81b-bac9-44d8-927b-cad09d4c7319"},"vehicle_type_id":"4","last_reported":1736960869,"current_range_meters":5600,"station_id":"ce4bhnh2rcd13ifvqgtg","pricing_plan_id":"cebpf4jnsgd1na2vs0mg"},{"bike_id":"ccbd796f-0853-4438-83a6-7ee13405bafc","system_id":"levelo_inurba_marseille","lat":43.2781,"lon":5.39215,"is_reserved":false,"is_disabled":true,"rental_uris":{"android":"levelo://app?vid=ccbd796f-0853-4438-83a6-7ee13405bafc","ios":"levelo://app?vid=ccbd796f-0853-4438-83a6-7ee13405bafc"},"vehicle_type_id":"4","last_reported":1736960869,"current_range_meters":400,"station_id":"ce4bhjp2rcd13ifvqga0","pricing_plan_id":"cebpf4jnsgd1na2vs0mg"},{"bike_id":"72de2d8c-555a-45a6-ade2-737f486f252d","system_id":"levelo_inurba_marseille","lat":43.29964,"lon":5.38501,"is_reserved":false,"is_disabled":false,"rental_uris":{"android":"levelo://app?vid=72de2d8c-555a-45a6-ade2-737f486f252d","ios":"levelo://app?vid=72de2d8c-555a-45a6-ade2-737f486f252d"},"vehicle_type_id":"4","last_reported":1736960869,"current_range_meters":9200,"station_id":"ce4bgj92rcd13ifvqbd0","pricing_plan_id":"cebpf4jnsgd1na2vs0mg"},{"bike_id":"dd6a36e0-fd3f-40fb-ba8b-df2c8511774f","system_id":"levelo_inurba_marseille","lat":43.29693,"lon":5.37724,"is_reserved":false,"is_disabled":false,"rental_uris":{"android":"levelo://app?vid=dd6a36e0-fd3f-40fb-ba8b-df2c8511774f","ios":"levelo://app?vid=dd6a36e0-fd3f-40fb-ba8b-df2c8511774f"},"vehicle_type_id":"4","last_reported":1736960869,"current_range_meters":37600,"station_id":"ce4bgkh2rcd13ifvqbl0","pricing_plan_id":"cebpf4jnsgd1na2vs0mg"},{"bike_id":"95334991-39ae-4ef8-831d-eb52f058bf1f","system_id":"levelo_inurba_marseille","lat":43.27996,"lon":5.40006,"is_reserved":false,"is_disabled":false,"rental_uris":{"android":"levelo://app?vid=95334991-39ae-4ef8-831d-eb52f058bf1f","ios":"levelo://app?vid=95334991-39ae-4ef8-831d-eb52f058bf1f"},"vehicle_type_id":"4","last_reported":1736960869,"current_range_meters":15200,"station_id":"ce4bho92rcd13ifvqh4g","pricing_plan_id":"cebpf4jnsgd1na2vs0mg"},{"bike_id":"b758f913-8ddf-42b4-a9dc-47e155bc1074","system_id":"levelo_inurba_marseille","lat":43.291992,"lon":5.357978,"is_reserved":false,"is_disabled":false,"rental_uris":{"android":"levelo://app?vid=b758f913-8ddf-42b4-a9dc-47e155bc1074","ios":"levelo://app?vid=b758f913-8ddf-42b4-a9dc-47e155bc1074"},"vehicle_type_id":"4","last_reported":1736960869,"current_range_meters":38800,"station_id":"ce4bhb12rcd13ifvqel0","pricing_plan_id":"cebpf4jnsgd1na2vs0mg"},{"bike_id":"0e842b39-329d-48e2-b781-7e3babc96cf4","system_id":"levelo_inurba_marseille","lat":43.22934,"lon":5.35378,"is_reserved":false,"is_disabled":false,"rental_uris":{"android":"levelo://app?vid=0e842b39-329d-48e2-b781-7e3babc96cf4","ios":"levelo://app?vid=0e842b39-329d-48e2-b781-7e3babc96cf4"},"vehicle_type_id":"4","last_reported":1736960869,"current_range_meters":20000,"station_id":"cpo3532slgdg3j2ikp40","pricing_plan_id":"cebpf4jnsgd1na2vs0mg"},{"bike_id":"66d86647-f3d9-43c2-8067-2511dcc8853d","system_id":"levelo_inurba_marseille","lat":43.26942,"lon":5.40252,"is_reserved":false,"is_disabled":true,"rental_uris":{"android":"levelo://app?vid=66d86647-f3d9-43c2-8067-2511dcc8853d","ios":"levelo://app?vid=66d86647-f3d9-43c2-8067-2511dcc8853d"},"vehicle_type_id":"4","last_reported":1736960869,"current_range_meters":4000,"station_id":"cjm6bp8fraef2m0cb0m0","pricing_plan_id":"cebpf4jnsgd1na2vs0mg"},{"bike_id":"8453db75-3167-4ff1-8aa6-48e00cb37721","system_id":"levelo_inurba_marseille","lat":43.2557,"lon":5.38231,"is_reserved":false,"is_disabled":false,"rental_uris":{"android":"levelo://app?vid=8453db75-3167-4ff1-8aa6-48e00cb37721","ios":"levelo://app?vid=8453db75-3167-4ff1-8aa6-48e00cb37721"},"vehicle_type_id":"4","last_reported":1736960869,"current_range_meters":15200,"station_id":"ce4bhih2rcd13ifvqfs0","pricing_plan_id":"cebpf4jnsgd1na2vs0mg"},{"bike_id":"85fb2bf8-5b4b-4be2-81d5-99a2452f7f4a","system_id":"levelo_inurba_marseille","lat":43.2587,"lon":5.39898,"is_reserved":false,"is_disabled":true,"rental_uris":{"android":"levelo://app?vid=85fb2bf8-5b4b-4be2-81d5-99a2452f7f4a","ios":"levelo://app?vid=85fb2bf8-5b4b-4be2-81d5-99a2452f7f4a"},"vehicle_type_id":"4","last_reported":1736960869,"current_range_meters":800,"station_id":"ce4bhl92rcd13ifvqghg","pricing_plan_id":"cebpf4jnsgd1na2vs0mg"},{"bike_id":"dfc5405f-2a01-487b-a79a-112c5cce110c","system_id":"levelo_inurba_marseille","lat":43.26217,"lon":5.37448,"is_reserved":false,"is_disabled":false,"rental_uris":{"android":"levelo://app?vid=dfc5405f-2a01-487b-a79a-112c5cce110c","ios":"levelo://app?vid=dfc5405f-2a01-487b-a79a-112c5cce110c"},"vehicle_type_id":"4","last_reported":1736960869,"current_range_meters":18800,"station_id":"ce4bhgp2rcd13ifvqfc0","pricing_plan_id":"cebpf4jnsgd1na2vs0mg"},{"bike_id":"526ca960-9de9-4b6c-ba8d-b7a7df930569","system_id":"levelo_inurba_marseille","lat":43.2894,"lon":5.39629,"is_reserved":false,"is_disabled":false,"rental_uris":{"android":"levelo://app?vid=526ca960-9de9-4b6c-ba8d-b7a7df930569","ios":"levelo://app?vid=526ca960-9de9-4b6c-ba8d-b7a7df930569"},"vehicle_type_id":"4","last_reported":1736960869,"current_range_meters":9200,"station_id":"ce4bh3h2rcd13ifvqdn0","pricing_plan_id":"cebpf4jnsgd1na2vs0mg"},{"bike_id":"bf640603-83b1-45ec-97b9-6f63203dda4b","system_id":"levelo_inurba_marseille","lat":43.28147,"lon":5.42641,"is_reserved":false,"is_disabled":false,"rental_uris":{"android":"levelo://app?vid=bf640603-83b1-45ec-97b9-6f63203dda4b","ios":"levelo://app?vid=bf640603-83b1-45ec-97b9-6f63203dda4b"},"vehicle_type_id":"4","last_reported":1736960869,"current_range_meters":18000,"station_id":"ce4bhnh2rcd13ifvqgug","pricing_plan_id":"cebpf4jnsgd1na2vs0mg"},{"bike_id":"25735a63-810a-4978-bda7-a98dd4608a53","system_id":"levelo_inurba_marseille","lat":43.26575,"lon":5.37269,"is_reserved":false,"is_disabled":false,"rental_uris":{"android":"levelo://app?vid=25735a63-810a-4978-bda7-a98dd4608a53","ios":"levelo://app?vid=25735a63-810a-4978-bda7-a98dd4608a53"},"vehicle_type_id":"4","last_reported":1736960869,"current_range_meters":16800,"station_id":"ce4bhg12rcd13ifvqf70","pricing_plan_id":"cebpf4jnsgd1na2vs0mg"},{"bike_id":"bf2a2b25-52aa-4637-a727-8651bc43b9f5","system_id":"levelo_inurba_marseille","lat":43.29715,"lon":5.36621,"is_reserved":false,"is_disabled":true,"rental_uris":{"android":"levelo://app?vid=bf2a2b25-52aa-4637-a727-8651bc43b9f5","ios":"levelo://app?vid=bf2a2b25-52aa-4637-a727-8651bc43b9f5"},"vehicle_type_id":"4","last_reported":1736960869,"current_range_meters":1600,"station_id":"ce4bgn12rcd13ifvqbt0","pricing_plan_id":"cebpf4jnsgd1na2vs0mg"},{"bike_id":"e161982c-1338-4f95-bd12-8dfb8b5b2049","system_id":"levelo_inurba_marseille","lat":43.24174,"lon":5.39736,"is_reserved":false,"is_disabled":false,"rental_uris":{"android":"levelo://app?vid=e161982c-1338-4f95-bd12-8dfb8b5b2049","ios":"levelo://app?vid=e161982c-1338-4f95-bd12-8dfb8b5b2049"},"vehicle_type_id":"4","last_reported":1736960869,"current_range_meters":11200,"station_id":"ce4bhn12rcd13ifvqgpg","pricing_plan_id":"cebpf4jnsgd1na2vs0mg"},{"bike_id":"c365078d-1b79-4172-924c-c1cc2d9df26f","system_id":"levelo_inurba_marseille","lat":43.28461,"lon":5.35899,"is_reserved":false,"is_disabled":false,"rental_uris":{"android":"levelo://app?vid=c365078d-1b79-4172-924c-c1cc2d9df26f","ios":"levelo://app?vid=c365078d-1b79-4172-924c-c1cc2d9df26f"},"vehicle_type_id":"4","last_reported":1736960869,"current_range_meters":28000,"station_id":"ce4bhah2rcd13ifvqei0","pricing_plan_id":"cebpf4jnsgd1na2vs0mg"},{"bike_id":"b8beab6a-4eb2-42d6-a8c9-c154f10ccf9d","system_id":"levelo_inurba_marseille","lat":43.26786,"lon":5.39431,"is_reserved":false,"is_disabled":false,"rental_uris":{"android":"levelo://app?vid=b8beab6a-4eb2-42d6-a8c9-c154f10ccf9d","ios":"levelo://app?vid=b8beab6a-4eb2-42d6-a8c9-c154f10ccf9d"},"vehicle_type_id":"4","last_reported":1736960869,"current_range_meters":36400,"station_id":"ce4bhh12rcd13ifvqfg0","pricing_plan_id":"cebpf4jnsgd1na2vs0mg"},{"bike_id":"c8e997c0-8580-4d0f-8d9f-0766596381e1","system_id":"levelo_inurba_marseille","lat":43.33918,"lon":5.37562,"is_reserved":false,"is_disabled":true,"rental_uris":{"android":"levelo://app?vid=c8e997c0-8580-4d0f-8d9f-0766596381e1","ios":"levelo://app?vid=c8e997c0-8580-4d0f-8d9f-0766596381e1"},"vehicle_type_id":"4","last_reported":1736960869,"current_range_meters":0,"station_id":"","pricing_plan_id":"cebpf4jnsgd1na2vs0mg"},{"bike_id":"3450b5f6-12d2-484e-85be-dc5821a49820","system_id":"levelo_inurba_marseille","lat":43.29517,"lon":5.39374,"is_reserved":false,"is_disabled":false,"rental_uris":{"android":"levelo://app?vid=3450b5f6-12d2-484e-85be-dc5821a49820","ios":"levelo://app?vid=3450b5f6-12d2-484e-85be-dc5821a49820"},"vehicle_type_id":"4","last_reported":1736960869,"current_range_meters":29600,"station_id":"ce4bh292rcd13ifvqdf0","pricing_plan_id":"cebpf4jnsgd1na2vs0mg"},{"bike_id":"c0921cf0-5ed1-4075-b525-0763614a3f04","system_id":"levelo_inurba_marseille","lat":43.32076,"lon":5.41546,"is_reserved":false,"is_disabled":false,"rental_uris":{"android":"levelo://app?vid=c0921cf0-5ed1-4075-b525-0763614a3f04","ios":"levelo://app?vid=c0921cf0-5ed1-4075-b525-0763614a3f04"},"vehicle_type_id":"4","last_reported":1736960869,"current_range_meters":36000,"station_id":"ce4bhq92rcd13ifvqhkg","pricing_plan_id":"cebpf4jnsgd1na2vs0mg"},{"bike_id":"7a01fbe9-064e-4bb0-9200-81a1eeced978","system_id":"levelo_inurba_marseille","lat":43.24173,"lon":5.36406,"is_reserved":false,"is_disabled":false,"rental_uris":{"android":"levelo://app?vid=7a01fbe9-064e-4bb0-9200-81a1eeced978","ios":"levelo://app?vid=7a01fbe9-064e-4bb0-9200-81a1eeced978"},"vehicle_type_id":"4","last_reported":1736960869,"current_range_meters":12400,"station_id":"cpo36qri1sfpv3e86is0","pricing_plan_id":"cebpf4jnsgd1na2vs0mg"},{"bike_id":"f8856222-a314-4237-98da-722db19e5d08","system_id":"levelo_inurba_marseille","lat":43.29378,"lon":5.37856,"is_reserved":false,"is_disabled":false,"rental_uris":{"android":"levelo://app?vid=f8856222-a314-4237-98da-722db19e5d08","ios":"levelo://app?vid=f8856222-a314-4237-98da-722db19e5d08"},"vehicle_type_id":"4","last_reported":1736960869,"current_range_meters":6400,"station_id":"ce4bgjh2rcd13ifvqbf0","pricing_plan_id":"cebpf4jnsgd1na2vs0mg"},{"bike_id":"7b693463-6b82-4e9a-aa2d-726f031e21f9","system_id":"levelo_inurba_marseille","lat":43.30803,"lon":5.43517,"is_reserved":false,"is_disabled":false,"rental_uris":{"android":"levelo://app?vid=7b693463-6b82-4e9a-aa2d-726f031e21f9","ios":"levelo://app?vid=7b693463-6b82-4e9a-aa2d-726f031e21f9"},"vehicle_type_id":"4","last_reported":1736960869,"current_range_meters":33200,"station_id":"ce4bhph2rcd13ifvqheg","pricing_plan_id":"cebpf4jnsgd1na2vs0mg"},{"bike_id":"f776604f-fdf2-4006-a9fa-b238d366ca36","system_id":"levelo_inurba_marseille","lat":43.31713,"lon":5.37762,"is_reserved":false,"is_disabled":false,"rental_uris":{"android":"levelo://app?vid=f776604f-fdf2-4006-a9fa-b238d366ca36","ios":"levelo://app?vid=f776604f-fdf2-4006-a9fa-b238d366ca36"},"vehicle_type_id":"4","last_reported":1736960869,"current_range_meters":22000,"station_id":"ce4bgth2rcd13ifvqch0","pricing_plan_id":"cebpf4jnsgd1na2vs0mg"},{"bike_id":"ee28e867-21e8-4831-b259-c94c83f948c2","system_id":"levelo_inurba_marseille","lat":43.29586,"lon":5.36742,"is_reserved":false,"is_disabled":false,"rental_uris":{"android":"levelo://app?vid=ee28e867-21e8-4831-b259-c94c83f948c2","ios":"levelo://app?vid=ee28e867-21e8-4831-b259-c94c83f948c2"},"vehicle_type_id":"4","last_reported":1736960869,"current_range_meters":31200,"station_id":"ce4bgph2rcd13ifvqc2g","pricing_plan_id":"cebpf4jnsgd1na2vs0mg"},{"bike_id":"5416b3d0-0626-4e79-9d40-c2d4d2711930","system_id":"levelo_inurba_marseille","lat":43.30324,"lon":5.40437,"is_reserved":false,"is_disabled":false,"rental_uris":{"android":"levelo://app?vid=5416b3d0-0626-4e79-9d40-c2d4d2711930","ios":"levelo://app?vid=5416b3d0-0626-4e79-9d40-c2d4d2711930"},"vehicle_type_id":"4","last_reported":1736960869,"current_range_meters":38800,"station_id":"ce4bh012rcd13ifvqd10","pricing_plan_id":"cebpf4jnsgd1na2vs0mg"},{"bike_id":"c1ba77b9-686f-4eb8-a568-fe17d46af54a","system_id":"levelo_inurba_marseille","lat":43.270731,"lon":5.422797,"is_reserved":false,"is_disabled":false,"rental_uris":{"android":"levelo://app?vid=c1ba77b9-686f-4eb8-a568-fe17d46af54a","ios":"levelo://app?vid=c1ba77b9-686f-4eb8-a568-fe17d46af54a"},"vehicle_type_id":"4","last_reported":1736960869,"current_range_meters":32000,"station_id":"ce4bhk92rcd13ifvqgb0","pricing_plan_id":"cebpf4jnsgd1na2vs0mg"},{"bike_id":"ee2c4005-eef3-4de7-9c4c-69522bdfd769","system_id":"levelo_inurba_marseille","lat":43.29422,"lon":5.38625,"is_reserved":false,"is_disabled":false,"rental_uris":{"android":"levelo://app?vid=ee2c4005-eef3-4de7-9c4c-69522bdfd769","ios":"levelo://app?vid=ee2c4005-eef3-4de7-9c4c-69522bdfd769"},"vehicle_type_id":"4","last_reported":1736960869,"current_range_meters":38800,"station_id":"ce4bh2h2rcd13ifvqdh0","pricing_plan_id":"cebpf4jnsgd1na2vs0mg"},{"bike_id":"58e324b4-e8f1-4a5a-9879-232a5376eacd","system_id":"levelo_inurba_marseille","lat":43.2904,"lon":5.35925,"is_reserved":false,"is_disabled":false,"rental_uris":{"android":"levelo://app?vid=58e324b4-e8f1-4a5a-9879-232a5376eacd","ios":"levelo://app?vid=58e324b4-e8f1-4a5a-9879-232a5376eacd"},"vehicle_type_id":"4","last_reported":1736960869,"current_range_meters":36000,"station_id":"ce4bha92rcd13ifvqeg0","pricing_plan_id":"cebpf4jnsgd1na2vs0mg"},{"bike_id":"3b0df8f4-c955-4df9-b9e1-023598765e48","system_id":"levelo_inurba_marseille","lat":43.29699,"lon":5.366,"is_reserved":false,"is_disabled":false,"rental_uris":{"android":"levelo://app?vid=3b0df8f4-c955-4df9-b9e1-023598765e48","ios":"levelo://app?vid=3b0df8f4-c955-4df9-b9e1-023598765e48"},"vehicle_type_id":"4","last_reported":1736960869,"current_range_meters":28400,"station_id":"ce4bgn12rcd13ifvqbt0","pricing_plan_id":"cebpf4jnsgd1na2vs0mg"},{"bike_id":"155dbf4b-d6fe-46aa-9097-9994452a5158","system_id":"levelo_inurba_marseille","lat":43.23067,"lon":5.35494,"is_reserved":false,"is_disabled":false,"rental_uris":{"android":"levelo://app?vid=155dbf4b-d6fe-46aa-9097-9994452a5158","ios":"levelo://app?vid=155dbf4b-d6fe-46aa-9097-9994452a5158"},"vehicle_type_id":"4","last_reported":1736960869,"current_range_meters":12000,"station_id":"cpo3342slgdg3j2ifvpg","pricing_plan_id":"cebpf4jnsgd1na2vs0mg"},{"bike_id":"b04bca53-7737-4ef3-b26d-f6b2d60c721f","system_id":"levelo_inurba_marseille","lat":43.31614,"lon":5.37184,"is_reserved":false,"is_disabled":false,"rental_uris":{"android":"levelo://app?vid=b04bca53-7737-4ef3-b26d-f6b2d60c721f","ios":"levelo://app?vid=b04bca53-7737-4ef3-b26d-f6b2d60c721f"},"vehicle_type_id":"4","last_reported":1736960869,"current_range_meters":27600,"station_id":"ce4bgt12rcd13ifvqcd0","pricing_plan_id":"cebpf4jnsgd1na2vs0mg"},{"bike_id":"fea1b24d-bbfb-474a-b028-8645483cd7e6","system_id":"levelo_inurba_marseille","lat":43.33773,"lon":5.37468,"is_reserved":false,"is_disabled":false,"rental_uris":{"android":"levelo://app?vid=fea1b24d-bbfb-474a-b028-8645483cd7e6","ios":"levelo://app?vid=fea1b24d-bbfb-474a-b028-8645483cd7e6"},"vehicle_type_id":"4","last_reported":1736960869,"current_range_meters":36800,"station_id":"","pricing_plan_id":"cebpf4jnsgd1na2vs0mg"},{"bike_id":"1284b2be-dd0b-4e29-8202-52a2061fc96a","system_id":"levelo_inurba_marseille","lat":43.29612,"lon":5.37738,"is_reserved":false,"is_disabled":false,"rental_uris":{"android":"levelo://app?vid=1284b2be-dd0b-4e29-8202-52a2061fc96a","ios":"levelo://app?vid=1284b2be-dd0b-4e29-8202-52a2061fc96a"},"vehicle_type_id":"4","last_reported":1736960869,"current_range_meters":8800,"station_id":"ce4bgi92rcd13ifvqb90","pricing_plan_id":"cebpf4jnsgd1na2vs0mg"},{"bike_id":"59b607af-d6c4-4d39-899f-ccaa803cf567","system_id":"levelo_inurba_marseille","lat":43.30882,"lon":5.39655,"is_reserved":false,"is_disabled":false,"rental_uris":{"android":"levelo://app?vid=59b607af-d6c4-4d39-899f-ccaa803cf567","ios":"levelo://app?vid=59b607af-d6c4-4d39-899f-ccaa803cf567"},"vehicle_type_id":"4","last_reported":1736960869,"current_range_meters":17200,"station_id":"ce4bh012rcd13ifvqcv0","pricing_plan_id":"cebpf4jnsgd1na2vs0mg"},{"bike_id":"55077a3d-ab60-42c3-b097-5558157a8b75","system_id":"levelo_inurba_marseille","lat":43.265686,"lon":5.390074,"is_reserved":false,"is_disabled":false,"rental_uris":{"android":"levelo://app?vid=55077a3d-ab60-42c3-b097-5558157a8b75","ios":"levelo://app?vid=55077a3d-ab60-42c3-b097-5558157a8b75"},"vehicle_type_id":"4","last_reported":1736960869,"current_range_meters":34000,"station_id":"ce4bhe12rcd13ifvqf30","pricing_plan_id":"cebpf4jnsgd1na2vs0mg"},{"bike_id":"0de1c0c3-224c-470c-9c40-92abbb1e542e","system_id":"levelo_inurba_marseille","lat":43.27441,"lon":5.39402,"is_reserved":false,"is_disabled":true,"rental_uris":{"android":"levelo://app?vid=0de1c0c3-224c-470c-9c40-92abbb1e542e","ios":"levelo://app?vid=0de1c0c3-224c-470c-9c40-92abbb1e542e"},"vehicle_type_id":"4","last_reported":1736960869,"current_range_meters":27600,"station_id":"ce4bhdp2rcd13ifvqf20","pricing_plan_id":"cebpf4jnsgd1na2vs0mg"},{"bike_id":"aefe4a30-c5ba-4d63-b12e-3c5e0905d339","system_id":"levelo_inurba_marseille","lat":43.26499,"lon":5.39555,"is_reserved":false,"is_disabled":false,"rental_uris":{"android":"levelo://app?vid=aefe4a30-c5ba-4d63-b12e-3c5e0905d339","ios":"levelo://app?vid=aefe4a30-c5ba-4d63-b12e-3c5e0905d339"},"vehicle_type_id":"4","last_reported":1736960869,"current_range_meters":34800,"station_id":"ce4bhi12rcd13ifvqfq0","pricing_plan_id":"cebpf4jnsgd1na2vs0mg"},{"bike_id":"1f149e26-9d4e-4970-96ec-1b76430b914b","system_id":"levelo_inurba_marseille","lat":43.24395,"lon":5.37049,"is_reserved":false,"is_disabled":false,"rental_uris":{"android":"levelo://app?vid=1f149e26-9d4e-4970-96ec-1b76430b914b","ios":"levelo://app?vid=1f149e26-9d4e-4970-96ec-1b76430b914b"},"vehicle_type_id":"4","last_reported":1736960869,"current_range_meters":38000,"station_id":"ce4bhhh2rcd13ifvqfk0","pricing_plan_id":"cebpf4jnsgd1na2vs0mg"},{"bike_id":"da3afe3c-5cdd-453f-9551-77e8476e7381","system_id":"levelo_inurba_marseille","lat":43.29531,"lon":5.38539,"is_reserved":false,"is_disabled":true,"rental_uris":{"android":"levelo://app?vid=da3afe3c-5cdd-453f-9551-77e8476e7381","ios":"levelo://app?vid=da3afe3c-5cdd-453f-9551-77e8476e7381"},"vehicle_type_id":"4","last_reported":1736960869,"current_range_meters":38800,"station_id":"ce4bgih2rcd13ifvqba0","pricing_plan_id":"cebpf4jnsgd1na2vs0mg"},{"bike_id":"e052f47d-c314-4142-a490-846c18d74eff","system_id":"levelo_inurba_marseille","lat":43.28712,"lon":5.37938,"is_reserved":false,"is_disabled":true,"rental_uris":{"android":"levelo://app?vid=e052f47d-c314-4142-a490-846c18d74eff","ios":"levelo://app?vid=e052f47d-c314-4142-a490-846c18d74eff"},"vehicle_type_id":"4","last_reported":1736960869,"current_range_meters":30000,"station_id":"ce4bh9p2rcd13ifvqec0","pricing_plan_id":"cebpf4jnsgd1na2vs0mg"},{"bike_id":"2e9fce8b-2847-4ba5-ae96-01e2bd8fb8d4","system_id":"levelo_inurba_marseille","lat":43.29033,"lon":5.39963,"is_reserved":false,"is_disabled":false,"rental_uris":{"android":"levelo://app?vid=2e9fce8b-2847-4ba5-ae96-01e2bd8fb8d4","ios":"levelo://app?vid=2e9fce8b-2847-4ba5-ae96-01e2bd8fb8d4"},"vehicle_type_id":"4","last_reported":1736960869,"current_range_meters":33200,"station_id":"ce4bh392rcd13ifvqdm0","pricing_plan_id":"cebpf4jnsgd1na2vs0mg"},{"bike_id":"c73a32aa-28dd-4d71-b962-aee6197463a6","system_id":"levelo_inurba_marseille","lat":43.32049,"lon":5.41552,"is_reserved":false,"is_disabled":false,"rental_uris":{"android":"levelo://app?vid=c73a32aa-28dd-4d71-b962-aee6197463a6","ios":"levelo://app?vid=c73a32aa-28dd-4d71-b962-aee6197463a6"},"vehicle_type_id":"4","last_reported":1736960869,"current_range_meters":22400,"station_id":"ce4bhq92rcd13ifvqhkg","pricing_plan_id":"cebpf4jnsgd1na2vs0mg"},{"bike_id":"84299edb-4937-46bc-b7d0-f1ba8633c0fe","system_id":"levelo_inurba_marseille","lat":43.29209,"lon":5.3933,"is_reserved":false,"is_disabled":false,"rental_uris":{"android":"levelo://app?vid=84299edb-4937-46bc-b7d0-f1ba8633c0fe","ios":"levelo://app?vid=84299edb-4937-46bc-b7d0-f1ba8633c0fe"},"vehicle_type_id":"4","last_reported":1736960869,"current_range_meters":19600,"station_id":"ce4bh192rcd13ifvqdd0","pricing_plan_id":"cebpf4jnsgd1na2vs0mg"},{"bike_id":"2c839bfc-228b-4afd-9c45-0e54b8f36672","system_id":"levelo_inurba_marseille","lat":43.24664,"lon":5.38906,"is_reserved":false,"is_disabled":false,"rental_uris":{"android":"levelo://app?vid=2c839bfc-228b-4afd-9c45-0e54b8f36672","ios":"levelo://app?vid=2c839bfc-228b-4afd-9c45-0e54b8f36672"},"vehicle_type_id":"4","last_reported":1736960869,"current_range_meters":38800,"station_id":"ce4bhg12rcd13ifvqf60","pricing_plan_id":"cebpf4jnsgd1na2vs0mg"},{"bike_id":"1bb33185-b77a-4c58-baaa-33184c9627d6","system_id":"levelo_inurba_marseille","lat":43.26558,"lon":5.37278,"is_reserved":false,"is_disabled":false,"rental_uris":{"android":"levelo://app?vid=1bb33185-b77a-4c58-baaa-33184c9627d6","ios":"levelo://app?vid=1bb33185-b77a-4c58-baaa-33184c9627d6"},"vehicle_type_id":"4","last_reported":1736960869,"current_range_meters":35200,"station_id":"ce4bhg12rcd13ifvqf70","pricing_plan_id":"cebpf4jnsgd1na2vs0mg"},{"bike_id":"663d7f2c-2062-4d24-ae4c-cbceda4e4161","system_id":"levelo_inurba_marseille","lat":43.27191,"lon":5.4099,"is_reserved":false,"is_disabled":false,"rental_uris":{"android":"levelo://app?vid=663d7f2c-2062-4d24-ae4c-cbceda4e4161","ios":"levelo://app?vid=663d7f2c-2062-4d24-ae4c-cbceda4e4161"},"vehicle_type_id":"4","last_reported":1736960869,"current_range_meters":32000,"station_id":"ce4bhl12rcd13ifvqgf0","pricing_plan_id":"cebpf4jnsgd1na2vs0mg"},{"bike_id":"df1868ad-e579-4cd7-9a5c-55523f010e3f","system_id":"levelo_inurba_marseille","lat":43.32374,"lon":5.38876,"is_reserved":false,"is_disabled":false,"rental_uris":{"android":"levelo://app?vid=df1868ad-e579-4cd7-9a5c-55523f010e3f","ios":"levelo://app?vid=df1868ad-e579-4cd7-9a5c-55523f010e3f"},"vehicle_type_id":"4","last_reported":1736960869,"current_range_meters":11600,"station_id":"ce4bhqp2rcd13ifvqhog","pricing_plan_id":"cebpf4jnsgd1na2vs0mg"},{"bike_id":"a15980ac-c225-4e68-8982-6cc8c4cbfd79","system_id":"levelo_inurba_marseille","lat":43.23201,"lon":5.35553,"is_reserved":false,"is_disabled":false,"rental_uris":{"android":"levelo://app?vid=a15980ac-c225-4e68-8982-6cc8c4cbfd79","ios":"levelo://app?vid=a15980ac-c225-4e68-8982-6cc8c4cbfd79"},"vehicle_type_id":"4","last_reported":1736960869,"current_range_meters":38800,"station_id":"ce4bhu92rcd13ifvqi70","pricing_plan_id":"cebpf4jnsgd1na2vs0mg"},{"bike_id":"2e263dcd-3abd-4452-b271-b6a2741e207e","system_id":"levelo_inurba_marseille","lat":43.282745,"lon":5.350582,"is_reserved":false,"is_disabled":false,"rental_uris":{"android":"levelo://app?vid=2e263dcd-3abd-4452-b271-b6a2741e207e","ios":"levelo://app?vid=2e263dcd-3abd-4452-b271-b6a2741e207e"},"vehicle_type_id":"4","last_reported":1736960869,"current_range_meters":30400,"station_id":"ce4bhbp2rcd13ifvqerg","pricing_plan_id":"cebpf4jnsgd1na2vs0mg"},{"bike_id":"60a36d64-a09a-4008-a0b3-c5b1814794f2","system_id":"levelo_inurba_marseille","lat":43.2942,"lon":5.38624,"is_reserved":false,"is_disabled":false,"rental_uris":{"android":"levelo://app?vid=60a36d64-a09a-4008-a0b3-c5b1814794f2","ios":"levelo://app?vid=60a36d64-a09a-4008-a0b3-c5b1814794f2"},"vehicle_type_id":"4","last_reported":1736960869,"current_range_meters":38800,"station_id":"ce4bh2h2rcd13ifvqdh0","pricing_plan_id":"cebpf4jnsgd1na2vs0mg"},{"bike_id":"76488d58-41b8-432f-add2-18ae739fc673","system_id":"levelo_inurba_marseille","lat":43.25496,"lon":5.37652,"is_reserved":false,"is_disabled":false,"rental_uris":{"android":"levelo://app?vid=76488d58-41b8-432f-add2-18ae739fc673","ios":"levelo://app?vid=76488d58-41b8-432f-add2-18ae739fc673"},"vehicle_type_id":"4","last_reported":1736960869,"current_range_meters":22400,"station_id":"ce4bhh12rcd13ifvqff0","pricing_plan_id":"cebpf4jnsgd1na2vs0mg"},{"bike_id":"54e3f0af-bac3-40f2-ba93-e4d7bdfed6c6","system_id":"levelo_inurba_marseille","lat":43.28084,"lon":5.39665,"is_reserved":false,"is_disabled":false,"rental_uris":{"android":"levelo://app?vid=54e3f0af-bac3-40f2-ba93-e4d7bdfed6c6","ios":"levelo://app?vid=54e3f0af-bac3-40f2-ba93-e4d7bdfed6c6"},"vehicle_type_id":"4","last_reported":1736960869,"current_range_meters":10800,"station_id":"ce4bho12rcd13ifvqh2g","pricing_plan_id":"cebpf4jnsgd1na2vs0mg"},{"bike_id":"34f7ce9a-b921-4474-a805-9d4a16b428d7","system_id":"levelo_inurba_marseille","lat":43.29002,"lon":5.35615,"is_reserved":false,"is_disabled":false,"rental_uris":{"android":"levelo://app?vid=34f7ce9a-b921-4474-a805-9d4a16b428d7","ios":"levelo://app?vid=34f7ce9a-b921-4474-a805-9d4a16b428d7"},"vehicle_type_id":"4","last_reported":1736960869,"current_range_meters":38400,"station_id":"ce4bhb92rcd13ifvqen0","pricing_plan_id":"cebpf4jnsgd1na2vs0mg"},{"bike_id":"51bb6953-dea8-4e82-96bf-52696267905f","system_id":"levelo_inurba_marseille","lat":43.23061,"lon":5.354948,"is_reserved":false,"is_disabled":false,"rental_uris":{"android":"levelo://app?vid=51bb6953-dea8-4e82-96bf-52696267905f","ios":"levelo://app?vid=51bb6953-dea8-4e82-96bf-52696267905f"},"vehicle_type_id":"4","last_reported":1736960869,"current_range_meters":38800,"station_id":"cpo3342slgdg3j2ifvpg","pricing_plan_id":"cebpf4jnsgd1na2vs0mg"},{"bike_id":"eabed2a3-2c37-4c65-b050-852f51f67d25","system_id":"levelo_inurba_marseille","lat":43.34142,"lon":5.40895,"is_reserved":false,"is_disabled":true,"rental_uris":{"android":"levelo://app?vid=eabed2a3-2c37-4c65-b050-852f51f67d25","ios":"levelo://app?vid=eabed2a3-2c37-4c65-b050-852f51f67d25"},"vehicle_type_id":"4","last_reported":1736960869,"current_range_meters":0,"station_id":"ce4bhqh2rcd13ifvqhlg","pricing_plan_id":"cebpf4jnsgd1na2vs0mg"},{"bike_id":"eba900f5-c2f5-447a-991c-484e15875092","system_id":"levelo_inurba_marseille","lat":43.26559,"lon":5.38994,"is_reserved":false,"is_disabled":false,"rental_uris":{"android":"levelo://app?vid=eba900f5-c2f5-447a-991c-484e15875092","ios":"levelo://app?vid=eba900f5-c2f5-447a-991c-484e15875092"},"vehicle_type_id":"4","last_reported":1736960869,"current_range_meters":8400,"station_id":"ce4bhe12rcd13ifvqf30","pricing_plan_id":"cebpf4jnsgd1na2vs0mg"},{"bike_id":"5dfef8fe-9cb9-453d-9397-48a962a15464","system_id":"levelo_inurba_marseille","lat":43.29364,"lon":5.37851,"is_reserved":false,"is_disabled":false,"rental_uris":{"android":"levelo://app?vid=5dfef8fe-9cb9-453d-9397-48a962a15464","ios":"levelo://app?vid=5dfef8fe-9cb9-453d-9397-48a962a15464"},"vehicle_type_id":"4","last_reported":1736960869,"current_range_meters":19200,"station_id":"ce4bgjh2rcd13ifvqbf0","pricing_plan_id":"cebpf4jnsgd1na2vs0mg"},{"bike_id":"1a88b36a-bdcc-4ab6-a257-59715f73d204","system_id":"levelo_inurba_marseille","lat":43.26684,"lon":5.3827,"is_reserved":false,"is_disabled":false,"rental_uris":{"android":"levelo://app?vid=1a88b36a-bdcc-4ab6-a257-59715f73d204","ios":"levelo://app?vid=1a88b36a-bdcc-4ab6-a257-59715f73d204"},"vehicle_type_id":"4","last_reported":1736960869,"current_range_meters":24800,"station_id":"ce4bhg92rcd13ifvqf90","pricing_plan_id":"cebpf4jnsgd1na2vs0mg"},{"bike_id":"f6b5a21b-caca-4bab-9767-62a516c88435","system_id":"levelo_inurba_marseille","lat":43.24649,"lon":5.38904,"is_reserved":false,"is_disabled":false,"rental_uris":{"android":"levelo://app?vid=f6b5a21b-caca-4bab-9767-62a516c88435","ios":"levelo://app?vid=f6b5a21b-caca-4bab-9767-62a516c88435"},"vehicle_type_id":"4","last_reported":1736960869,"current_range_meters":38800,"station_id":"ce4bhg12rcd13ifvqf60","pricing_plan_id":"cebpf4jnsgd1na2vs0mg"},{"bike_id":"1ab3f322-8e8f-40bf-b46a-ad736fdeffee","system_id":"levelo_inurba_marseille","lat":43.23158,"lon":5.43716,"is_reserved":false,"is_disabled":false,"rental_uris":{"android":"levelo://app?vid=1ab3f322-8e8f-40bf-b46a-ad736fdeffee","ios":"levelo://app?vid=1ab3f322-8e8f-40bf-b46a-ad736fdeffee"},"vehicle_type_id":"4","last_reported":1736960869,"current_range_meters":37600,"station_id":"ce4bhmp2rcd13ifvqgog","pricing_plan_id":"cebpf4jnsgd1na2vs0mg"},{"bike_id":"4a8c20d9-670a-4029-9219-52996fd0718d","system_id":"levelo_inurba_marseille","lat":43.28075,"lon":5.39652,"is_reserved":false,"is_disabled":true,"rental_uris":{"android":"levelo://app?vid=4a8c20d9-670a-4029-9219-52996fd0718d","ios":"levelo://app?vid=4a8c20d9-670a-4029-9219-52996fd0718d"},"vehicle_type_id":"4","last_reported":1736960869,"current_range_meters":400,"station_id":"ce4bho12rcd13ifvqh2g","pricing_plan_id":"cebpf4jnsgd1na2vs0mg"},{"bike_id":"502bdc84-1069-4733-90d3-ee67a2559664","system_id":"levelo_inurba_marseille","lat":43.28432,"lon":5.39181,"is_reserved":false,"is_disabled":false,"rental_uris":{"android":"levelo://app?vid=502bdc84-1069-4733-90d3-ee67a2559664","ios":"levelo://app?vid=502bdc84-1069-4733-90d3-ee67a2559664"},"vehicle_type_id":"4","last_reported":1736960869,"current_range_meters":15200,"station_id":"ce4bhoh2rcd13ifvqh5g","pricing_plan_id":"cebpf4jnsgd1na2vs0mg"},{"bike_id":"e1ac6a2e-3577-47ba-aadb-bfef6a547e7a","system_id":"levelo_inurba_marseille","lat":43.24386,"lon":5.3706,"is_reserved":false,"is_disabled":false,"rental_uris":{"android":"levelo://app?vid=e1ac6a2e-3577-47ba-aadb-bfef6a547e7a","ios":"levelo://app?vid=e1ac6a2e-3577-47ba-aadb-bfef6a547e7a"},"vehicle_type_id":"4","last_reported":1736960869,"current_range_meters":25200,"station_id":"ce4bhhh2rcd13ifvqfk0","pricing_plan_id":"cebpf4jnsgd1na2vs0mg"},{"bike_id":"cb57f13e-0f96-498a-b9ca-57c0b42e7a64","system_id":"levelo_inurba_marseille","lat":43.23968,"lon":5.36622,"is_reserved":false,"is_disabled":false,"rental_uris":{"android":"levelo://app?vid=cb57f13e-0f96-498a-b9ca-57c0b42e7a64","ios":"levelo://app?vid=cb57f13e-0f96-498a-b9ca-57c0b42e7a64"},"vehicle_type_id":"4","last_reported":1736960869,"current_range_meters":24000,"station_id":"ce4bhi12rcd13ifvqfp0","pricing_plan_id":"cebpf4jnsgd1na2vs0mg"},{"bike_id":"a56bdef2-14b8-4e02-b3bc-538917283971","system_id":"levelo_inurba_marseille","lat":43.2509,"lon":5.39525,"is_reserved":false,"is_disabled":false,"rental_uris":{"android":"levelo://app?vid=a56bdef2-14b8-4e02-b3bc-538917283971","ios":"levelo://app?vid=a56bdef2-14b8-4e02-b3bc-538917283971"},"vehicle_type_id":"4","last_reported":1736960869,"current_range_meters":27200,"station_id":"ce4bhm12rcd13ifvqgkg","pricing_plan_id":"cebpf4jnsgd1na2vs0mg"},{"bike_id":"1e040693-baaf-4374-8c35-8fd64d6321d0","system_id":"levelo_inurba_marseille","lat":43.2849,"lon":5.3895,"is_reserved":false,"is_disabled":false,"rental_uris":{"android":"levelo://app?vid=1e040693-baaf-4374-8c35-8fd64d6321d0","ios":"levelo://app?vid=1e040693-baaf-4374-8c35-8fd64d6321d0"},"vehicle_type_id":"4","last_reported":1736960869,"current_range_meters":31200,"station_id":"","pricing_plan_id":"cebpf4jnsgd1na2vs0mg"},{"bike_id":"4ac2836e-3636-4e64-ae51-4b5c921531b5","system_id":"levelo_inurba_marseille","lat":43.27995,"lon":5.41656,"is_reserved":false,"is_disabled":false,"rental_uris":{"android":"levelo://app?vid=4ac2836e-3636-4e64-ae51-4b5c921531b5","ios":"levelo://app?vid=4ac2836e-3636-4e64-ae51-4b5c921531b5"},"vehicle_type_id":"4","last_reported":1736960869,"current_range_meters":4400,"station_id":"ce4bho12rcd13ifvqh1g","pricing_plan_id":"cebpf4jnsgd1na2vs0mg"},{"bike_id":"bcda53a5-d507-4aba-83d1-8583ebca83d8","system_id":"levelo_inurba_marseille","lat":43.29615,"lon":5.37711,"is_reserved":false,"is_disabled":false,"rental_uris":{"android":"levelo://app?vid=bcda53a5-d507-4aba-83d1-8583ebca83d8","ios":"levelo://app?vid=bcda53a5-d507-4aba-83d1-8583ebca83d8"},"vehicle_type_id":"4","last_reported":1736960869,"current_range_meters":34800,"station_id":"ce4bgi92rcd13ifvqb90","pricing_plan_id":"cebpf4jnsgd1na2vs0mg"},{"bike_id":"e5b9252e-eebf-4c90-b028-b53cc4934330","system_id":"levelo_inurba_marseille","lat":43.30356,"lon":5.41881,"is_reserved":false,"is_disabled":true,"rental_uris":{"android":"levelo://app?vid=e5b9252e-eebf-4c90-b028-b53cc4934330","ios":"levelo://app?vid=e5b9252e-eebf-4c90-b028-b53cc4934330"},"vehicle_type_id":"4","last_reported":1736960869,"current_range_meters":16800,"station_id":"ce4bhop2rcd13ifvqh7g","pricing_plan_id":"cebpf4jnsgd1na2vs0mg"},{"bike_id":"eb132d3b-6ca0-40ee-a9c9-e79f53094fd2","system_id":"levelo_inurba_marseille","lat":43.2963,"lon":5.40597,"is_reserved":false,"is_disabled":false,"rental_uris":{"android":"levelo://app?vid=eb132d3b-6ca0-40ee-a9c9-e79f53094fd2","ios":"levelo://app?vid=eb132d3b-6ca0-40ee-a9c9-e79f53094fd2"},"vehicle_type_id":"4","last_reported":1736960869,"current_range_meters":38400,"station_id":"ce4bh0h2rcd13ifvqd60","pricing_plan_id":"cebpf4jnsgd1na2vs0mg"},{"bike_id":"8b7786bb-da08-4ea5-a121-3c0db3230993","system_id":"levelo_inurba_marseille","lat":43.26565,"lon":5.39004,"is_reserved":false,"is_disabled":false,"rental_uris":{"android":"levelo://app?vid=8b7786bb-da08-4ea5-a121-3c0db3230993","ios":"levelo://app?vid=8b7786bb-da08-4ea5-a121-3c0db3230993"},"vehicle_type_id":"4","last_reported":1736960869,"current_range_meters":19200,"station_id":"ce4bhe12rcd13ifvqf30","pricing_plan_id":"cebpf4jnsgd1na2vs0mg"},{"bike_id":"93af35ad-738e-40e4-afcb-6d3589d7e732","system_id":"levelo_inurba_marseille","lat":43.23154,"lon":5.43695,"is_reserved":false,"is_disabled":false,"rental_uris":{"android":"levelo://app?vid=93af35ad-738e-40e4-afcb-6d3589d7e732","ios":"levelo://app?vid=93af35ad-738e-40e4-afcb-6d3589d7e732"},"vehicle_type_id":"4","last_reported":1736960869,"current_range_meters":26000,"station_id":"ce4bhmp2rcd13ifvqgog","pricing_plan_id":"cebpf4jnsgd1na2vs0mg"},{"bike_id":"653d7eb5-e932-4d0f-8eba-b2bccd81fbe5","system_id":"levelo_inurba_marseille","lat":43.31359,"lon":5.36728,"is_reserved":false,"is_disabled":true,"rental_uris":{"android":"levelo://app?vid=653d7eb5-e932-4d0f-8eba-b2bccd81fbe5","ios":"levelo://app?vid=653d7eb5-e932-4d0f-8eba-b2bccd81fbe5"},"vehicle_type_id":"4","last_reported":1736960869,"current_range_meters":0,"station_id":"ce4bgr92rcd13ifvqc6g","pricing_plan_id":"cebpf4jnsgd1na2vs0mg"},{"bike_id":"f25c3802-5323-441f-9c77-314f32888ea5","system_id":"levelo_inurba_marseille","lat":43.28838,"lon":5.39316,"is_reserved":false,"is_disabled":false,"rental_uris":{"android":"levelo://app?vid=f25c3802-5323-441f-9c77-314f32888ea5","ios":"levelo://app?vid=f25c3802-5323-441f-9c77-314f32888ea5"},"vehicle_type_id":"4","last_reported":1736960869,"current_range_meters":11600,"station_id":"ce4bh2p2rcd13ifvqdi0","pricing_plan_id":"cebpf4jnsgd1na2vs0mg"},{"bike_id":"edc3ef82-4f7e-4056-942f-8e28e925ea2f","system_id":"levelo_inurba_marseille","lat":43.24075,"lon":5.37771,"is_reserved":false,"is_disabled":false,"rental_uris":{"android":"levelo://app?vid=edc3ef82-4f7e-4056-942f-8e28e925ea2f","ios":"levelo://app?vid=edc3ef82-4f7e-4056-942f-8e28e925ea2f"},"vehicle_type_id":"4","last_reported":1736960869,"current_range_meters":38000,"station_id":"ce4bhnp2rcd13ifvqgvg","pricing_plan_id":"cebpf4jnsgd1na2vs0mg"},{"bike_id":"7b4053b3-f83d-41ad-9b98-d1f3dd50b4d1","system_id":"levelo_inurba_marseille","lat":43.31332,"lon":5.39694,"is_reserved":false,"is_disabled":true,"rental_uris":{"android":"levelo://app?vid=7b4053b3-f83d-41ad-9b98-d1f3dd50b4d1","ios":"levelo://app?vid=7b4053b3-f83d-41ad-9b98-d1f3dd50b4d1"},"vehicle_type_id":"4","last_reported":1736960869,"current_range_meters":2000,"station_id":"ce4bgvp2rcd13ifvqcu0","pricing_plan_id":"cebpf4jnsgd1na2vs0mg"},{"bike_id":"97f319b0-bafc-4c91-a016-ff0c0b20c8cc","system_id":"levelo_inurba_marseille","lat":43.3055,"lon":5.38431,"is_reserved":false,"is_disabled":false,"rental_uris":{"android":"levelo://app?vid=97f319b0-bafc-4c91-a016-ff0c0b20c8cc","ios":"levelo://app?vid=97f319b0-bafc-4c91-a016-ff0c0b20c8cc"},"vehicle_type_id":"4","last_reported":1736960869,"current_range_meters":36400,"station_id":"ce4bgg92rcd13ifvqb30","pricing_plan_id":"cebpf4jnsgd1na2vs0mg"},{"bike_id":"0adbfa65-465c-487a-8c44-6247250163c9","system_id":"levelo_inurba_marseille","lat":43.31271,"lon":5.36859,"is_reserved":false,"is_disabled":true,"rental_uris":{"android":"levelo://app?vid=0adbfa65-465c-487a-8c44-6247250163c9","ios":"levelo://app?vid=0adbfa65-465c-487a-8c44-6247250163c9"},"vehicle_type_id":"4","last_reported":1736960869,"current_range_meters":4400,"station_id":"ce4bgl92rcd13ifvqbq0","pricing_plan_id":"cebpf4jnsgd1na2vs0mg"},{"bike_id":"c57f7411-350c-444f-bc55-fcab7a54283f","system_id":"levelo_inurba_marseille","lat":43.27947,"lon":5.41056,"is_reserved":false,"is_disabled":false,"rental_uris":{"android":"levelo://app?vid=c57f7411-350c-444f-bc55-fcab7a54283f","ios":"levelo://app?vid=c57f7411-350c-444f-bc55-fcab7a54283f"},"vehicle_type_id":"4","last_reported":1736960869,"current_range_meters":33200,"station_id":"ce4bhnp2rcd13ifvqh0g","pricing_plan_id":"cebpf4jnsgd1na2vs0mg"},{"bike_id":"d8e3941b-0cae-4b8e-ae3c-c34a4b3b2c65","system_id":"levelo_inurba_marseille","lat":43.31995,"lon":5.38152,"is_reserved":false,"is_disabled":false,"rental_uris":{"android":"levelo://app?vid=d8e3941b-0cae-4b8e-ae3c-c34a4b3b2c65","ios":"levelo://app?vid=d8e3941b-0cae-4b8e-ae3c-c34a4b3b2c65"},"vehicle_type_id":"4","last_reported":1736960869,"current_range_meters":38800,"station_id":"ce4bhr12rcd13ifvqhpg","pricing_plan_id":"cebpf4jnsgd1na2vs0mg"},{"bike_id":"9db02719-0257-42d2-a2f1-eb9f3f010788","system_id":"levelo_inurba_marseille","lat":43.285737,"lon":5.384118,"is_reserved":false,"is_disabled":true,"rental_uris":{"android":"levelo://app?vid=9db02719-0257-42d2-a2f1-eb9f3f010788","ios":"levelo://app?vid=9db02719-0257-42d2-a2f1-eb9f3f010788"},"vehicle_type_id":"4","last_reported":1736960869,"current_range_meters":0,"station_id":"","pricing_plan_id":"cebpf4jnsgd1na2vs0mg"},{"bike_id":"ef7adbc7-f956-407a-a3eb-ebdd3e60d992","system_id":"levelo_inurba_marseille","lat":43.30564,"lon":5.36528,"is_reserved":false,"is_disabled":true,"rental_uris":{"android":"levelo://app?vid=ef7adbc7-f956-407a-a3eb-ebdd3e60d992","ios":"levelo://app?vid=ef7adbc7-f956-407a-a3eb-ebdd3e60d992"},"vehicle_type_id":"4","last_reported":1736960869,"current_range_meters":7200,"station_id":"ce4bgs12rcd13ifvqcag","pricing_plan_id":"cebpf4jnsgd1na2vs0mg"},{"bike_id":"2db40d09-b2bb-4d3e-97d1-6ad795f74a51","system_id":"levelo_inurba_marseille","lat":43.29271,"lon":5.36855,"is_reserved":false,"is_disabled":false,"rental_uris":{"android":"levelo://app?vid=2db40d09-b2bb-4d3e-97d1-6ad795f74a51","ios":"levelo://app?vid=2db40d09-b2bb-4d3e-97d1-6ad795f74a51"},"vehicle_type_id":"4","last_reported":1736960869,"current_range_meters":38000,"station_id":"ce4bhbp2rcd13ifvqesg","pricing_plan_id":"cebpf4jnsgd1na2vs0mg"},{"bike_id":"4df542d4-5bbd-4c6e-9c5e-d149bbcd1660","system_id":"levelo_inurba_marseille","lat":43.262068,"lon":5.379272,"is_reserved":false,"is_disabled":false,"rental_uris":{"android":"levelo://app?vid=4df542d4-5bbd-4c6e-9c5e-d149bbcd1660","ios":"levelo://app?vid=4df542d4-5bbd-4c6e-9c5e-d149bbcd1660"},"vehicle_type_id":"4","last_reported":1736960869,"current_range_meters":38000,"station_id":"ce4bhjp2rcd13ifvqg90","pricing_plan_id":"cebpf4jnsgd1na2vs0mg"},{"bike_id":"905166e7-a544-4f22-8fed-bcbd146be2a7","system_id":"levelo_inurba_marseille","lat":43.30434,"lon":5.38884,"is_reserved":false,"is_disabled":false,"rental_uris":{"android":"levelo://app?vid=905166e7-a544-4f22-8fed-bcbd146be2a7","ios":"levelo://app?vid=905166e7-a544-4f22-8fed-bcbd146be2a7"},"vehicle_type_id":"4","last_reported":1736960869,"current_range_meters":22000,"station_id":"ce4bgk12rcd13ifvqbi0","pricing_plan_id":"cebpf4jnsgd1na2vs0mg"},{"bike_id":"c18be404-7c08-4967-9c5e-337da7845fde","system_id":"levelo_inurba_marseille","lat":43.25578,"lon":5.38238,"is_reserved":false,"is_disabled":true,"rental_uris":{"android":"levelo://app?vid=c18be404-7c08-4967-9c5e-337da7845fde","ios":"levelo://app?vid=c18be404-7c08-4967-9c5e-337da7845fde"},"vehicle_type_id":"4","last_reported":1736960869,"current_range_meters":800,"station_id":"ce4bhih2rcd13ifvqfs0","pricing_plan_id":"cebpf4jnsgd1na2vs0mg"},{"bike_id":"1c1c8576-19a1-41a8-9c5b-521359728557","system_id":"levelo_inurba_marseille","lat":43.31326,"lon":5.39689,"is_reserved":false,"is_disabled":false,"rental_uris":{"android":"levelo://app?vid=1c1c8576-19a1-41a8-9c5b-521359728557","ios":"levelo://app?vid=1c1c8576-19a1-41a8-9c5b-521359728557"},"vehicle_type_id":"4","last_reported":1736960869,"current_range_meters":22800,"station_id":"ce4bgvp2rcd13ifvqcu0","pricing_plan_id":"cebpf4jnsgd1na2vs0mg"},{"bike_id":"94f3860c-241e-4194-befd-55faac6b0ac1","system_id":"levelo_inurba_marseille","lat":43.30876,"lon":5.372,"is_reserved":false,"is_disabled":false,"rental_uris":{"android":"levelo://app?vid=94f3860c-241e-4194-befd-55faac6b0ac1","ios":"levelo://app?vid=94f3860c-241e-4194-befd-55faac6b0ac1"},"vehicle_type_id":"4","last_reported":1736960869,"current_range_meters":18800,"station_id":"ce4bguh2rcd13ifvqckg","pricing_plan_id":"cebpf4jnsgd1na2vs0mg"},{"bike_id":"77844f9b-266c-4eb1-9d18-a14f9d4eddc5","system_id":"levelo_inurba_marseille","lat":43.28155,"lon":5.42649,"is_reserved":false,"is_disabled":false,"rental_uris":{"android":"levelo://app?vid=77844f9b-266c-4eb1-9d18-a14f9d4eddc5","ios":"levelo://app?vid=77844f9b-266c-4eb1-9d18-a14f9d4eddc5"},"vehicle_type_id":"4","last_reported":1736960869,"current_range_meters":28000,"station_id":"ce4bhnh2rcd13ifvqgug","pricing_plan_id":"cebpf4jnsgd1na2vs0mg"},{"bike_id":"277f8110-b1fa-46fd-abff-efee519b681d","system_id":"levelo_inurba_marseille","lat":43.29606,"lon":5.37731,"is_reserved":false,"is_disabled":true,"rental_uris":{"android":"levelo://app?vid=277f8110-b1fa-46fd-abff-efee519b681d","ios":"levelo://app?vid=277f8110-b1fa-46fd-abff-efee519b681d"},"vehicle_type_id":"4","last_reported":1736960869,"current_range_meters":2000,"station_id":"ce4bgi92rcd13ifvqb90","pricing_plan_id":"cebpf4jnsgd1na2vs0mg"},{"bike_id":"e4022578-b812-4671-9187-b0dc25dda560","system_id":"levelo_inurba_marseille","lat":43.28611,"lon":5.35097,"is_reserved":false,"is_disabled":false,"rental_uris":{"android":"levelo://app?vid=e4022578-b812-4671-9187-b0dc25dda560","ios":"levelo://app?vid=e4022578-b812-4671-9187-b0dc25dda560"},"vehicle_type_id":"4","last_reported":1736960869,"current_range_meters":3200,"station_id":"ce4bhch2rcd13ifvqeug","pricing_plan_id":"cebpf4jnsgd1na2vs0mg"},{"bike_id":"5bfb6334-eb95-43c1-b195-eef9baf9e808","system_id":"levelo_inurba_marseille","lat":43.31501,"lon":5.3729,"is_reserved":false,"is_disabled":false,"rental_uris":{"android":"levelo://app?vid=5bfb6334-eb95-43c1-b195-eef9baf9e808","ios":"levelo://app?vid=5bfb6334-eb95-43c1-b195-eef9baf9e808"},"vehicle_type_id":"4","last_reported":1736960869,"current_range_meters":38800,"station_id":"ce4bgt12rcd13ifvqcd0","pricing_plan_id":"cebpf4jnsgd1na2vs0mg"},{"bike_id":"50b367b1-67c5-4d1e-8a38-9a06b8e18eb3","system_id":"levelo_inurba_marseille","lat":43.29303,"lon":5.37259,"is_reserved":false,"is_disabled":false,"rental_uris":{"android":"levelo://app?vid=50b367b1-67c5-4d1e-8a38-9a06b8e18eb3","ios":"levelo://app?vid=50b367b1-67c5-4d1e-8a38-9a06b8e18eb3"},"vehicle_type_id":"4","last_reported":1736960869,"current_range_meters":20400,"station_id":"","pricing_plan_id":"cebpf4jnsgd1na2vs0mg"},{"bike_id":"0ad6f0f5-2cfe-40ff-8076-e9ff8eee4651","system_id":"levelo_inurba_marseille","lat":43.29231,"lon":5.36075,"is_reserved":false,"is_disabled":false,"rental_uris":{"android":"levelo://app?vid=0ad6f0f5-2cfe-40ff-8076-e9ff8eee4651","ios":"levelo://app?vid=0ad6f0f5-2cfe-40ff-8076-e9ff8eee4651"},"vehicle_type_id":"4","last_reported":1736960869,"current_range_meters":11600,"station_id":"ce4bhbh2rcd13ifvqeqg","pricing_plan_id":"cebpf4jnsgd1na2vs0mg"},{"bike_id":"7a26b63c-652f-4d2d-8353-1a9dfb4e945a","system_id":"levelo_inurba_marseille","lat":43.3374,"lon":5.39183,"is_reserved":false,"is_disabled":false,"rental_uris":{"android":"levelo://app?vid=7a26b63c-652f-4d2d-8353-1a9dfb4e945a","ios":"levelo://app?vid=7a26b63c-652f-4d2d-8353-1a9dfb4e945a"},"vehicle_type_id":"4","last_reported":1736960869,"current_range_meters":38800,"station_id":"ce4bhr92rcd13ifvqhsg","pricing_plan_id":"cebpf4jnsgd1na2vs0mg"},{"bike_id":"e96d83a8-cde8-404a-9e40-5bc9e9229ea9","system_id":"levelo_inurba_marseille","lat":43.33788,"lon":5.37432,"is_reserved":false,"is_disabled":false,"rental_uris":{"android":"levelo://app?vid=e96d83a8-cde8-404a-9e40-5bc9e9229ea9","ios":"levelo://app?vid=e96d83a8-cde8-404a-9e40-5bc9e9229ea9"},"vehicle_type_id":"4","last_reported":1736960869,"current_range_meters":37600,"station_id":"","pricing_plan_id":"cebpf4jnsgd1na2vs0mg"},{"bike_id":"f4764a42-86eb-4d76-b558-df598e488f6c","system_id":"levelo_inurba_marseille","lat":43.23935,"lon":5.37597,"is_reserved":false,"is_disabled":false,"rental_uris":{"android":"levelo://app?vid=f4764a42-86eb-4d76-b558-df598e488f6c","ios":"levelo://app?vid=f4764a42-86eb-4d76-b558-df598e488f6c"},"vehicle_type_id":"4","last_reported":1736960869,"current_range_meters":3600,"station_id":"","pricing_plan_id":"cebpf4jnsgd1na2vs0mg"},{"bike_id":"a5096070-9df0-4677-b359-51954ed80977","system_id":"levelo_inurba_marseille","lat":43.2944,"lon":5.39755,"is_reserved":false,"is_disabled":false,"rental_uris":{"android":"levelo://app?vid=a5096070-9df0-4677-b359-51954ed80977","ios":"levelo://app?vid=a5096070-9df0-4677-b359-51954ed80977"},"vehicle_type_id":"4","last_reported":1736960869,"current_range_meters":14800,"station_id":"ce4bh3h2rcd13ifvqdo0","pricing_plan_id":"cebpf4jnsgd1na2vs0mg"},{"bike_id":"56b8e9bc-f750-4815-bc98-9098414d16db","system_id":"levelo_inurba_marseille","lat":43.23193,"lon":5.35558,"is_reserved":false,"is_disabled":true,"rental_uris":{"android":"levelo://app?vid=56b8e9bc-f750-4815-bc98-9098414d16db","ios":"levelo://app?vid=56b8e9bc-f750-4815-bc98-9098414d16db"},"vehicle_type_id":"4","last_reported":1736960869,"current_range_meters":800,"station_id":"ce4bhu92rcd13ifvqi70","pricing_plan_id":"cebpf4jnsgd1na2vs0mg"},{"bike_id":"e639a3ad-b890-44ac-ab1a-cb62f81a0af6","system_id":"levelo_inurba_marseille","lat":43.28418,"lon":5.34997,"is_reserved":false,"is_disabled":false,"rental_uris":{"android":"levelo://app?vid=e639a3ad-b890-44ac-ab1a-cb62f81a0af6","ios":"levelo://app?vid=e639a3ad-b890-44ac-ab1a-cb62f81a0af6"},"vehicle_type_id":"4","last_reported":1736960869,"current_range_meters":28800,"station_id":"ce4bhbh2rcd13ifvqepg","pricing_plan_id":"cebpf4jnsgd1na2vs0mg"},{"bike_id":"886c2bbb-1b99-4795-80cb-99bf8240c559","system_id":"levelo_inurba_marseille","lat":43.24646,"lon":5.38884,"is_reserved":false,"is_disabled":false,"rental_uris":{"android":"levelo://app?vid=886c2bbb-1b99-4795-80cb-99bf8240c559","ios":"levelo://app?vid=886c2bbb-1b99-4795-80cb-99bf8240c559"},"vehicle_type_id":"4","last_reported":1736960869,"current_range_meters":26000,"station_id":"ce4bhg12rcd13ifvqf60","pricing_plan_id":"cebpf4jnsgd1na2vs0mg"},{"bike_id":"3b401bb6-c6a6-4b87-8858-55d629130591","system_id":"levelo_inurba_marseille","lat":43.26033,"lon":5.37542,"is_reserved":false,"is_disabled":true,"rental_uris":{"android":"levelo://app?vid=3b401bb6-c6a6-4b87-8858-55d629130591","ios":"levelo://app?vid=3b401bb6-c6a6-4b87-8858-55d629130591"},"vehicle_type_id":"4","last_reported":1736960869,"current_range_meters":0,"station_id":"ce4bhgh2rcd13ifvqfa0","pricing_plan_id":"cebpf4jnsgd1na2vs0mg"},{"bike_id":"2da49ea2-540f-49f5-b583-ff263dc81b7a","system_id":"levelo_inurba_marseille","lat":43.27374,"lon":5.36266,"is_reserved":false,"is_disabled":false,"rental_uris":{"android":"levelo://app?vid=2da49ea2-540f-49f5-b583-ff263dc81b7a","ios":"levelo://app?vid=2da49ea2-540f-49f5-b583-ff263dc81b7a"},"vehicle_type_id":"4","last_reported":1736960869,"current_range_meters":6400,"station_id":"ce4bhbh2rcd13ifvqeo0","pricing_plan_id":"cebpf4jnsgd1na2vs0mg"},{"bike_id":"f6bb3330-51df-4aaa-8269-ab7638db39bd","system_id":"levelo_inurba_marseille","lat":43.2439,"lon":5.37052,"is_reserved":false,"is_disabled":false,"rental_uris":{"android":"levelo://app?vid=f6bb3330-51df-4aaa-8269-ab7638db39bd","ios":"levelo://app?vid=f6bb3330-51df-4aaa-8269-ab7638db39bd"},"vehicle_type_id":"4","last_reported":1736960869,"current_range_meters":30800,"station_id":"ce4bhhh2rcd13ifvqfk0","pricing_plan_id":"cebpf4jnsgd1na2vs0mg"},{"bike_id":"a345b22c-1282-437e-85e1-bdc3a946a6e3","system_id":"levelo_inurba_marseille","lat":43.26681,"lon":5.38267,"is_reserved":false,"is_disabled":false,"rental_uris":{"android":"levelo://app?vid=a345b22c-1282-437e-85e1-bdc3a946a6e3","ios":"levelo://app?vid=a345b22c-1282-437e-85e1-bdc3a946a6e3"},"vehicle_type_id":"4","last_reported":1736960869,"current_range_meters":14000,"station_id":"ce4bhg92rcd13ifvqf90","pricing_plan_id":"cebpf4jnsgd1na2vs0mg"},{"bike_id":"dccac9f7-22cb-4419-8286-e3f3fc1791cb","system_id":"levelo_inurba_marseille","lat":43.31325,"lon":5.39689,"is_reserved":false,"is_disabled":true,"rental_uris":{"android":"levelo://app?vid=dccac9f7-22cb-4419-8286-e3f3fc1791cb","ios":"levelo://app?vid=dccac9f7-22cb-4419-8286-e3f3fc1791cb"},"vehicle_type_id":"4","last_reported":1736960869,"current_range_meters":0,"station_id":"ce4bgvp2rcd13ifvqcu0","pricing_plan_id":"cebpf4jnsgd1na2vs0mg"},{"bike_id":"293537b8-faa4-4512-9781-add1f5857757","system_id":"levelo_inurba_marseille","lat":43.27362,"lon":5.36244,"is_reserved":false,"is_disabled":false,"rental_uris":{"android":"levelo://app?vid=293537b8-faa4-4512-9781-add1f5857757","ios":"levelo://app?vid=293537b8-faa4-4512-9781-add1f5857757"},"vehicle_type_id":"4","last_reported":1736960869,"current_range_meters":38800,"station_id":"ce4bhbh2rcd13ifvqeo0","pricing_plan_id":"cebpf4jnsgd1na2vs0mg"},{"bike_id":"c5748c79-66ea-4909-9026-e66a2b573a47","system_id":"levelo_inurba_marseille","lat":43.3031,"lon":5.3691,"is_reserved":false,"is_disabled":true,"rental_uris":{"android":"levelo://app?vid=c5748c79-66ea-4909-9026-e66a2b573a47","ios":"levelo://app?vid=c5748c79-66ea-4909-9026-e66a2b573a47"},"vehicle_type_id":"4","last_reported":1736960869,"current_range_meters":28000,"station_id":"ce4bgqh2rcd13ifvqc5g","pricing_plan_id":"cebpf4jnsgd1na2vs0mg"},{"bike_id":"26b7c5f9-8d7f-47d2-a819-9fb87e3b2afb","system_id":"levelo_inurba_marseille","lat":43.29305,"lon":5.37167,"is_reserved":false,"is_disabled":false,"rental_uris":{"android":"levelo://app?vid=26b7c5f9-8d7f-47d2-a819-9fb87e3b2afb","ios":"levelo://app?vid=26b7c5f9-8d7f-47d2-a819-9fb87e3b2afb"},"vehicle_type_id":"4","last_reported":1736960869,"current_range_meters":38800,"station_id":"ce4bgh92rcd13ifvqb40","pricing_plan_id":"cebpf4jnsgd1na2vs0mg"},{"bike_id":"0c12b47b-ac3d-4b78-a898-427ed2cc5877","system_id":"levelo_inurba_marseille","lat":43.26941,"lon":5.38636,"is_reserved":false,"is_disabled":false,"rental_uris":{"android":"levelo://app?vid=0c12b47b-ac3d-4b78-a898-427ed2cc5877","ios":"levelo://app?vid=0c12b47b-ac3d-4b78-a898-427ed2cc5877"},"vehicle_type_id":"4","last_reported":1736960869,"current_range_meters":39200,"station_id":"ce4bhh92rcd13ifvqfh0","pricing_plan_id":"cebpf4jnsgd1na2vs0mg"},{"bike_id":"60c48e84-151f-4edd-83cd-789ff87c7f63","system_id":"levelo_inurba_marseille","lat":43.28683,"lon":5.37397,"is_reserved":false,"is_disabled":true,"rental_uris":{"android":"levelo://app?vid=60c48e84-151f-4edd-83cd-789ff87c7f63","ios":"levelo://app?vid=60c48e84-151f-4edd-83cd-789ff87c7f63"},"vehicle_type_id":"4","last_reported":1736960869,"current_range_meters":28400,"station_id":"ce4bh3p2rcd13ifvqdq0","pricing_plan_id":"cebpf4jnsgd1na2vs0mg"},{"bike_id":"1ea05333-113b-43e7-929a-470579ef95c0","system_id":"levelo_inurba_marseille","lat":43.29525,"lon":5.39406,"is_reserved":false,"is_disabled":true,"rental_uris":{"android":"levelo://app?vid=1ea05333-113b-43e7-929a-470579ef95c0","ios":"levelo://app?vid=1ea05333-113b-43e7-929a-470579ef95c0"},"vehicle_type_id":"4","last_reported":1736960869,"current_range_meters":18800,"station_id":"ce4bh292rcd13ifvqdf0","pricing_plan_id":"cebpf4jnsgd1na2vs0mg"},{"bike_id":"cb615e0d-7590-4a74-9303-60921b2058c9","system_id":"levelo_inurba_marseille","lat":43.31356,"lon":5.38493,"is_reserved":false,"is_disabled":false,"rental_uris":{"android":"levelo://app?vid=cb615e0d-7590-4a74-9303-60921b2058c9","ios":"levelo://app?vid=cb615e0d-7590-4a74-9303-60921b2058c9"},"vehicle_type_id":"4","last_reported":1736960869,"current_range_meters":28000,"station_id":"ce4bgt92rcd13ifvqcf0","pricing_plan_id":"cebpf4jnsgd1na2vs0mg"},{"bike_id":"557bdeaa-471c-464a-90e1-5911c6fabaf0","system_id":"levelo_inurba_marseille","lat":43.32343,"lon":5.38905,"is_reserved":false,"is_disabled":false,"rental_uris":{"android":"levelo://app?vid=557bdeaa-471c-464a-90e1-5911c6fabaf0","ios":"levelo://app?vid=557bdeaa-471c-464a-90e1-5911c6fabaf0"},"vehicle_type_id":"4","last_reported":1736960869,"current_range_meters":36800,"station_id":"ce4bhqp2rcd13ifvqhog","pricing_plan_id":"cebpf4jnsgd1na2vs0mg"},{"bike_id":"8877e7a6-4aa2-4c5a-ac5a-26bcf6368000","system_id":"levelo_inurba_marseille","lat":43.28039,"lon":5.36956,"is_reserved":false,"is_disabled":false,"rental_uris":{"android":"levelo://app?vid=8877e7a6-4aa2-4c5a-ac5a-26bcf6368000","ios":"levelo://app?vid=8877e7a6-4aa2-4c5a-ac5a-26bcf6368000"},"vehicle_type_id":"4","last_reported":1736960869,"current_range_meters":29600,"station_id":"ce4bha12rcd13ifvqef0","pricing_plan_id":"cebpf4jnsgd1na2vs0mg"},{"bike_id":"a0ffede7-3341-4855-b911-b1e6e871db85","system_id":"levelo_inurba_marseille","lat":43.32045,"lon":5.41569,"is_reserved":false,"is_disabled":false,"rental_uris":{"android":"levelo://app?vid=a0ffede7-3341-4855-b911-b1e6e871db85","ios":"levelo://app?vid=a0ffede7-3341-4855-b911-b1e6e871db85"},"vehicle_type_id":"4","last_reported":1736960869,"current_range_meters":13600,"station_id":"ce4bhq92rcd13ifvqhkg","pricing_plan_id":"cebpf4jnsgd1na2vs0mg"},{"bike_id":"de05f028-7450-4792-8d5b-e268410faa9d","system_id":"levelo_inurba_marseille","lat":43.32098,"lon":5.36756,"is_reserved":false,"is_disabled":false,"rental_uris":{"android":"levelo://app?vid=de05f028-7450-4792-8d5b-e268410faa9d","ios":"levelo://app?vid=de05f028-7450-4792-8d5b-e268410faa9d"},"vehicle_type_id":"4","last_reported":1736960869,"current_range_meters":24800,"station_id":"ce4bhrh2rcd13ifvqhug","pricing_plan_id":"cebpf4jnsgd1na2vs0mg"},{"bike_id":"02a25c17-f432-4566-8fe5-86bf7a413bd8","system_id":"levelo_inurba_marseille","lat":43.2782,"lon":5.4071,"is_reserved":false,"is_disabled":false,"rental_uris":{"android":"levelo://app?vid=02a25c17-f432-4566-8fe5-86bf7a413bd8","ios":"levelo://app?vid=02a25c17-f432-4566-8fe5-86bf7a413bd8"},"vehicle_type_id":"4","last_reported":1736960869,"current_range_meters":8000,"station_id":"ce4bhnh2rcd13ifvqgtg","pricing_plan_id":"cebpf4jnsgd1na2vs0mg"},{"bike_id":"23f5ea08-82a0-4cba-b3a5-e1cda91a8208","system_id":"levelo_inurba_marseille","lat":43.31735,"lon":5.42384,"is_reserved":false,"is_disabled":false,"rental_uris":{"android":"levelo://app?vid=23f5ea08-82a0-4cba-b3a5-e1cda91a8208","ios":"levelo://app?vid=23f5ea08-82a0-4cba-b3a5-e1cda91a8208"},"vehicle_type_id":"4","last_reported":1736960869,"current_range_meters":33600,"station_id":"ce4bhp92rcd13ifvqhbg","pricing_plan_id":"cebpf4jnsgd1na2vs0mg"},{"bike_id":"b4e5917f-ad4f-488f-98af-ef26da7570cb","system_id":"levelo_inurba_marseille","lat":43.29173,"lon":5.37155,"is_reserved":false,"is_disabled":false,"rental_uris":{"android":"levelo://app?vid=b4e5917f-ad4f-488f-98af-ef26da7570cb","ios":"levelo://app?vid=b4e5917f-ad4f-488f-98af-ef26da7570cb"},"vehicle_type_id":"4","last_reported":1736960869,"current_range_meters":32800,"station_id":"ce4bha92rcd13ifvqeh0","pricing_plan_id":"cebpf4jnsgd1na2vs0mg"},{"bike_id":"165cf7b4-a5ef-4aeb-9fb1-9906ffc624cd","system_id":"levelo_inurba_marseille","lat":43.29324,"lon":5.41151,"is_reserved":false,"is_disabled":false,"rental_uris":{"android":"levelo://app?vid=165cf7b4-a5ef-4aeb-9fb1-9906ffc624cd","ios":"levelo://app?vid=165cf7b4-a5ef-4aeb-9fb1-9906ffc624cd"},"vehicle_type_id":"4","last_reported":1736960869,"current_range_meters":8000,"station_id":"","pricing_plan_id":"cebpf4jnsgd1na2vs0mg"},{"bike_id":"9dee1399-9455-44ba-900a-0b42ece74168","system_id":"levelo_inurba_marseille","lat":43.29915,"lon":5.37458,"is_reserved":false,"is_disabled":false,"rental_uris":{"android":"levelo://app?vid=9dee1399-9455-44ba-900a-0b42ece74168","ios":"levelo://app?vid=9dee1399-9455-44ba-900a-0b42ece74168"},"vehicle_type_id":"4","last_reported":1736960869,"current_range_meters":38400,"station_id":"ce4bgjh2rcd13ifvqbg0","pricing_plan_id":"cebpf4jnsgd1na2vs0mg"},{"bike_id":"4254a6d8-4a0a-47bc-9fbf-06b26e16a017","system_id":"levelo_inurba_marseille","lat":43.29785,"lon":5.37097,"is_reserved":false,"is_disabled":false,"rental_uris":{"android":"levelo://app?vid=4254a6d8-4a0a-47bc-9fbf-06b26e16a017","ios":"levelo://app?vid=4254a6d8-4a0a-47bc-9fbf-06b26e16a017"},"vehicle_type_id":"4","last_reported":1736960869,"current_range_meters":10800,"station_id":"ce4bgop2rcd13ifvqc1g","pricing_plan_id":"cebpf4jnsgd1na2vs0mg"},{"bike_id":"2d7f3353-743b-41e1-85f2-e32181d4ae48","system_id":"levelo_inurba_marseille","lat":43.32003,"lon":5.38149,"is_reserved":false,"is_disabled":false,"rental_uris":{"android":"levelo://app?vid=2d7f3353-743b-41e1-85f2-e32181d4ae48","ios":"levelo://app?vid=2d7f3353-743b-41e1-85f2-e32181d4ae48"},"vehicle_type_id":"4","last_reported":1736960869,"current_range_meters":36800,"station_id":"ce4bhr12rcd13ifvqhpg","pricing_plan_id":"cebpf4jnsgd1na2vs0mg"},{"bike_id":"785274bf-def7-4bad-b574-983db16f6556","system_id":"levelo_inurba_marseille","lat":43.30133,"lon":5.38787,"is_reserved":false,"is_disabled":false,"rental_uris":{"android":"levelo://app?vid=785274bf-def7-4bad-b574-983db16f6556","ios":"levelo://app?vid=785274bf-def7-4bad-b574-983db16f6556"},"vehicle_type_id":"4","last_reported":1736960869,"current_range_meters":11600,"station_id":"ce4bghh2rcd13ifvqb60","pricing_plan_id":"cebpf4jnsgd1na2vs0mg"},{"bike_id":"86c93783-b2c5-4a3d-a573-48b8dddef02a","system_id":"levelo_inurba_marseille","lat":43.27052,"lon":5.40263,"is_reserved":false,"is_disabled":false,"rental_uris":{"android":"levelo://app?vid=86c93783-b2c5-4a3d-a573-48b8dddef02a","ios":"levelo://app?vid=86c93783-b2c5-4a3d-a573-48b8dddef02a"},"vehicle_type_id":"4","last_reported":1736960869,"current_range_meters":36800,"station_id":"ce4bhk92rcd13ifvqgc0","pricing_plan_id":"cebpf4jnsgd1na2vs0mg"},{"bike_id":"b12d891e-fe8b-41db-9d9e-3ccad88d2849","system_id":"levelo_inurba_marseille","lat":43.28155,"lon":5.42651,"is_reserved":false,"is_disabled":false,"rental_uris":{"android":"levelo://app?vid=b12d891e-fe8b-41db-9d9e-3ccad88d2849","ios":"levelo://app?vid=b12d891e-fe8b-41db-9d9e-3ccad88d2849"},"vehicle_type_id":"4","last_reported":1736960869,"current_range_meters":10800,"station_id":"ce4bhnh2rcd13ifvqgug","pricing_plan_id":"cebpf4jnsgd1na2vs0mg"},{"bike_id":"d9c4e556-5ea8-4c1d-81cb-39c2fccd719c","system_id":"levelo_inurba_marseille","lat":43.30455,"lon":5.38887,"is_reserved":false,"is_disabled":false,"rental_uris":{"android":"levelo://app?vid=d9c4e556-5ea8-4c1d-81cb-39c2fccd719c","ios":"levelo://app?vid=d9c4e556-5ea8-4c1d-81cb-39c2fccd719c"},"vehicle_type_id":"4","last_reported":1736960869,"current_range_meters":19200,"station_id":"ce4bgk12rcd13ifvqbi0","pricing_plan_id":"cebpf4jnsgd1na2vs0mg"},{"bike_id":"77b24fcd-bc02-4d90-8243-31b2e889036a","system_id":"levelo_inurba_marseille","lat":43.28425,"lon":5.3499,"is_reserved":false,"is_disabled":false,"rental_uris":{"android":"levelo://app?vid=77b24fcd-bc02-4d90-8243-31b2e889036a","ios":"levelo://app?vid=77b24fcd-bc02-4d90-8243-31b2e889036a"},"vehicle_type_id":"4","last_reported":1736960869,"current_range_meters":28000,"station_id":"ce4bhbh2rcd13ifvqepg","pricing_plan_id":"cebpf4jnsgd1na2vs0mg"},{"bike_id":"b583689d-4b3b-4fec-a4c3-0358dd755494","system_id":"levelo_inurba_marseille","lat":43.26685,"lon":5.38277,"is_reserved":false,"is_disabled":false,"rental_uris":{"android":"levelo://app?vid=b583689d-4b3b-4fec-a4c3-0358dd755494","ios":"levelo://app?vid=b583689d-4b3b-4fec-a4c3-0358dd755494"},"vehicle_type_id":"4","last_reported":1736960869,"current_range_meters":27200,"station_id":"ce4bhg92rcd13ifvqf90","pricing_plan_id":"cebpf4jnsgd1na2vs0mg"},{"bike_id":"425744bc-5d21-4c79-be81-78e9ea8134b8","system_id":"levelo_inurba_marseille","lat":43.28488,"lon":5.38569,"is_reserved":false,"is_disabled":false,"rental_uris":{"android":"levelo://app?vid=425744bc-5d21-4c79-be81-78e9ea8134b8","ios":"levelo://app?vid=425744bc-5d21-4c79-be81-78e9ea8134b8"},"vehicle_type_id":"4","last_reported":1736960869,"current_range_meters":24400,"station_id":"ce4bh8p2rcd13ifvqeb0","pricing_plan_id":"cebpf4jnsgd1na2vs0mg"},{"bike_id":"e4259690-3fb4-4dd4-b235-d449ed58344f","system_id":"levelo_inurba_marseille","lat":43.26559,"lon":5.37288,"is_reserved":false,"is_disabled":false,"rental_uris":{"android":"levelo://app?vid=e4259690-3fb4-4dd4-b235-d449ed58344f","ios":"levelo://app?vid=e4259690-3fb4-4dd4-b235-d449ed58344f"},"vehicle_type_id":"4","last_reported":1736960869,"current_range_meters":26000,"station_id":"ce4bhg12rcd13ifvqf70","pricing_plan_id":"cebpf4jnsgd1na2vs0mg"},{"bike_id":"8534aaf4-535f-4db5-8998-0f97ef68ef36","system_id":"levelo_inurba_marseille","lat":43.24405,"lon":5.37044,"is_reserved":false,"is_disabled":false,"rental_uris":{"android":"levelo://app?vid=8534aaf4-535f-4db5-8998-0f97ef68ef36","ios":"levelo://app?vid=8534aaf4-535f-4db5-8998-0f97ef68ef36"},"vehicle_type_id":"4","last_reported":1736960869,"current_range_meters":14400,"station_id":"ce4bhhh2rcd13ifvqfk0","pricing_plan_id":"cebpf4jnsgd1na2vs0mg"},{"bike_id":"f0e7d635-1686-43ed-806b-672482d07bd4","system_id":"levelo_inurba_marseille","lat":43.27571,"lon":5.38434,"is_reserved":false,"is_disabled":false,"rental_uris":{"android":"levelo://app?vid=f0e7d635-1686-43ed-806b-672482d07bd4","ios":"levelo://app?vid=f0e7d635-1686-43ed-806b-672482d07bd4"},"vehicle_type_id":"4","last_reported":1736960869,"current_range_meters":27600,"station_id":"ce4bhh92rcd13ifvqfi0","pricing_plan_id":"cebpf4jnsgd1na2vs0mg"},{"bike_id":"e54fd190-7a0b-41d8-8511-192c5189aa25","system_id":"levelo_inurba_marseille","lat":43.30302,"lon":5.39207,"is_reserved":false,"is_disabled":false,"rental_uris":{"android":"levelo://app?vid=e54fd190-7a0b-41d8-8511-192c5189aa25","ios":"levelo://app?vid=e54fd190-7a0b-41d8-8511-192c5189aa25"},"vehicle_type_id":"4","last_reported":1736960869,"current_range_meters":38800,"station_id":"ce4bgkh2rcd13ifvqbk0","pricing_plan_id":"cebpf4jnsgd1na2vs0mg"},{"bike_id":"b1b6e61c-2a55-4937-8824-0c30dd7d6af1","system_id":"levelo_inurba_marseille","lat":43.2873,"lon":5.37943,"is_reserved":false,"is_disabled":false,"rental_uris":{"android":"levelo://app?vid=b1b6e61c-2a55-4937-8824-0c30dd7d6af1","ios":"levelo://app?vid=b1b6e61c-2a55-4937-8824-0c30dd7d6af1"},"vehicle_type_id":"4","last_reported":1736960869,"current_range_meters":35600,"station_id":"ce4bh9p2rcd13ifvqec0","pricing_plan_id":"cebpf4jnsgd1na2vs0mg"},{"bike_id":"0bcf9147-e98d-4a94-9a98-ff478ed4b2ed","system_id":"levelo_inurba_marseille","lat":43.28943,"lon":5.36634,"is_reserved":false,"is_disabled":false,"rental_uris":{"android":"levelo://app?vid=0bcf9147-e98d-4a94-9a98-ff478ed4b2ed","ios":"levelo://app?vid=0bcf9147-e98d-4a94-9a98-ff478ed4b2ed"},"vehicle_type_id":"4","last_reported":1736960869,"current_range_meters":34800,"station_id":"ce4bhap2rcd13ifvqek0","pricing_plan_id":"cebpf4jnsgd1na2vs0mg"},{"bike_id":"6c02ae22-4e33-4b73-a0d5-7fa499611cc2","system_id":"levelo_inurba_marseille","lat":43.23159,"lon":5.43709,"is_reserved":false,"is_disabled":false,"rental_uris":{"android":"levelo://app?vid=6c02ae22-4e33-4b73-a0d5-7fa499611cc2","ios":"levelo://app?vid=6c02ae22-4e33-4b73-a0d5-7fa499611cc2"},"vehicle_type_id":"4","last_reported":1736960869,"current_range_meters":37600,"station_id":"ce4bhmp2rcd13ifvqgog","pricing_plan_id":"cebpf4jnsgd1na2vs0mg"},{"bike_id":"f3000f12-d78d-46d5-99ca-8a4e13f94f9e","system_id":"levelo_inurba_marseille","lat":43.25516,"lon":5.37645,"is_reserved":false,"is_disabled":false,"rental_uris":{"android":"levelo://app?vid=f3000f12-d78d-46d5-99ca-8a4e13f94f9e","ios":"levelo://app?vid=f3000f12-d78d-46d5-99ca-8a4e13f94f9e"},"vehicle_type_id":"4","last_reported":1736960869,"current_range_meters":38800,"station_id":"ce4bhh12rcd13ifvqff0","pricing_plan_id":"cebpf4jnsgd1na2vs0mg"},{"bike_id":"1ac66b2f-3713-43a8-bee1-1a7f413f5233","system_id":"levelo_inurba_marseille","lat":43.24183,"lon":5.39727,"is_reserved":false,"is_disabled":false,"rental_uris":{"android":"levelo://app?vid=1ac66b2f-3713-43a8-bee1-1a7f413f5233","ios":"levelo://app?vid=1ac66b2f-3713-43a8-bee1-1a7f413f5233"},"vehicle_type_id":"4","last_reported":1736960869,"current_range_meters":31200,"station_id":"ce4bhn12rcd13ifvqgpg","pricing_plan_id":"cebpf4jnsgd1na2vs0mg"},{"bike_id":"daed1ccd-abf9-45c7-831e-19fefaff00a6","system_id":"levelo_inurba_marseille","lat":43.28153,"lon":5.42648,"is_reserved":false,"is_disabled":false,"rental_uris":{"android":"levelo://app?vid=daed1ccd-abf9-45c7-831e-19fefaff00a6","ios":"levelo://app?vid=daed1ccd-abf9-45c7-831e-19fefaff00a6"},"vehicle_type_id":"4","last_reported":1736960869,"current_range_meters":14400,"station_id":"ce4bhnh2rcd13ifvqgug","pricing_plan_id":"cebpf4jnsgd1na2vs0mg"},{"bike_id":"91354240-ba7b-41a8-a551-4a5cf04a3981","system_id":"levelo_inurba_marseille","lat":43.29263,"lon":5.40901,"is_reserved":false,"is_disabled":false,"rental_uris":{"android":"levelo://app?vid=91354240-ba7b-41a8-a551-4a5cf04a3981","ios":"levelo://app?vid=91354240-ba7b-41a8-a551-4a5cf04a3981"},"vehicle_type_id":"4","last_reported":1736960869,"current_range_meters":24400,"station_id":"ce4bh192rcd13ifvqdc0","pricing_plan_id":"cebpf4jnsgd1na2vs0mg"},{"bike_id":"011232d6-f99a-41f5-852c-89351a224939","system_id":"levelo_inurba_marseille","lat":43.30208,"lon":5.39461,"is_reserved":false,"is_disabled":false,"rental_uris":{"android":"levelo://app?vid=011232d6-f99a-41f5-852c-89351a224939","ios":"levelo://app?vid=011232d6-f99a-41f5-852c-89351a224939"},"vehicle_type_id":"4","last_reported":1736960869,"current_range_meters":38800,"station_id":"ce4bh0p2rcd13ifvqd70","pricing_plan_id":"cebpf4jnsgd1na2vs0mg"},{"bike_id":"7e961f88-b793-4311-ba57-59ad726f1336","system_id":"levelo_inurba_marseille","lat":43.31167,"lon":5.38728,"is_reserved":false,"is_disabled":false,"rental_uris":{"android":"levelo://app?vid=7e961f88-b793-4311-ba57-59ad726f1336","ios":"levelo://app?vid=7e961f88-b793-4311-ba57-59ad726f1336"},"vehicle_type_id":"4","last_reported":1736960869,"current_range_meters":38000,"station_id":"ce4bgv12rcd13ifvqcp0","pricing_plan_id":"cebpf4jnsgd1na2vs0mg"},{"bike_id":"bc00a513-f6b6-4ede-83a4-619c18c662d1","system_id":"levelo_inurba_marseille","lat":43.29003,"lon":5.35612,"is_reserved":false,"is_disabled":false,"rental_uris":{"android":"levelo://app?vid=bc00a513-f6b6-4ede-83a4-619c18c662d1","ios":"levelo://app?vid=bc00a513-f6b6-4ede-83a4-619c18c662d1"},"vehicle_type_id":"4","last_reported":1736960869,"current_range_meters":10800,"station_id":"ce4bhb92rcd13ifvqen0","pricing_plan_id":"cebpf4jnsgd1na2vs0mg"},{"bike_id":"b67528ff-e11b-45e6-a93f-d585919178b3","system_id":"levelo_inurba_marseille","lat":43.24807,"lon":5.37456,"is_reserved":false,"is_disabled":false,"rental_uris":{"android":"levelo://app?vid=b67528ff-e11b-45e6-a93f-d585919178b3","ios":"levelo://app?vid=b67528ff-e11b-45e6-a93f-d585919178b3"},"vehicle_type_id":"4","last_reported":1736960869,"current_range_meters":30400,"station_id":"ce4bhgh2rcd13ifvqfb0","pricing_plan_id":"cebpf4jnsgd1na2vs0mg"},{"bike_id":"66904438-f1b0-43bd-9897-4fd12374d0f1","system_id":"levelo_inurba_marseille","lat":43.297092,"lon":5.365943,"is_reserved":false,"is_disabled":false,"rental_uris":{"android":"levelo://app?vid=66904438-f1b0-43bd-9897-4fd12374d0f1","ios":"levelo://app?vid=66904438-f1b0-43bd-9897-4fd12374d0f1"},"vehicle_type_id":"4","last_reported":1736960869,"current_range_meters":31200,"station_id":"ce4bgn12rcd13ifvqbt0","pricing_plan_id":"cebpf4jnsgd1na2vs0mg"},{"bike_id":"501b07c6-f0ae-4cca-94b9-08502f7c0b7b","system_id":"levelo_inurba_marseille","lat":43.29088,"lon":5.38134,"is_reserved":false,"is_disabled":false,"rental_uris":{"android":"levelo://app?vid=501b07c6-f0ae-4cca-94b9-08502f7c0b7b","ios":"levelo://app?vid=501b07c6-f0ae-4cca-94b9-08502f7c0b7b"},"vehicle_type_id":"4","last_reported":1736960869,"current_range_meters":21600,"station_id":"ce4bh512rcd13ifvqe2g","pricing_plan_id":"cebpf4jnsgd1na2vs0mg"},{"bike_id":"04afb711-cd0c-4dfb-885e-f6c20840be9a","system_id":"levelo_inurba_marseille","lat":43.25106,"lon":5.40323,"is_reserved":false,"is_disabled":false,"rental_uris":{"android":"levelo://app?vid=04afb711-cd0c-4dfb-885e-f6c20840be9a","ios":"levelo://app?vid=04afb711-cd0c-4dfb-885e-f6c20840be9a"},"vehicle_type_id":"4","last_reported":1736960869,"current_range_meters":30000,"station_id":"ce4bhlh2rcd13ifvqgig","pricing_plan_id":"cebpf4jnsgd1na2vs0mg"},{"bike_id":"02b5798f-a023-49ae-967b-6b12201220ac","system_id":"levelo_inurba_marseille","lat":43.26933,"lon":5.38906,"is_reserved":false,"is_disabled":false,"rental_uris":{"android":"levelo://app?vid=02b5798f-a023-49ae-967b-6b12201220ac","ios":"levelo://app?vid=02b5798f-a023-49ae-967b-6b12201220ac"},"vehicle_type_id":"4","last_reported":1736960869,"current_range_meters":35200,"station_id":"ce4bhhh2rcd13ifvqfl0","pricing_plan_id":"cebpf4jnsgd1na2vs0mg"},{"bike_id":"7defdd64-7f3e-47da-afe2-153789aee85c","system_id":"levelo_inurba_marseille","lat":43.29293,"lon":5.37469,"is_reserved":false,"is_disabled":false,"rental_uris":{"android":"levelo://app?vid=7defdd64-7f3e-47da-afe2-153789aee85c","ios":"levelo://app?vid=7defdd64-7f3e-47da-afe2-153789aee85c"},"vehicle_type_id":"4","last_reported":1736960869,"current_range_meters":33600,"station_id":"ce4bgi12rcd13ifvqb70","pricing_plan_id":"cebpf4jnsgd1na2vs0mg"},{"bike_id":"489255cf-6ef8-4acc-9a59-3fc2634d71c8","system_id":"levelo_inurba_marseille","lat":43.26544,"lon":5.37269,"is_reserved":false,"is_disabled":false,"rental_uris":{"android":"levelo://app?vid=489255cf-6ef8-4acc-9a59-3fc2634d71c8","ios":"levelo://app?vid=489255cf-6ef8-4acc-9a59-3fc2634d71c8"},"vehicle_type_id":"4","last_reported":1736960869,"current_range_meters":33200,"station_id":"ce4bhg12rcd13ifvqf70","pricing_plan_id":"cebpf4jnsgd1na2vs0mg"},{"bike_id":"da3f7a96-04f0-45a8-ab21-e4d3ec53c466","system_id":"levelo_inurba_marseille","lat":43.24552,"lon":5.39508,"is_reserved":false,"is_disabled":false,"rental_uris":{"android":"levelo://app?vid=da3f7a96-04f0-45a8-ab21-e4d3ec53c466","ios":"levelo://app?vid=da3f7a96-04f0-45a8-ab21-e4d3ec53c466"},"vehicle_type_id":"4","last_reported":1736960869,"current_range_meters":32000,"station_id":"ce4bhlp2rcd13ifvqgjg","pricing_plan_id":"cebpf4jnsgd1na2vs0mg"},{"bike_id":"1fd1869e-7ba8-4230-9fbe-9ab4f4de241d","system_id":"levelo_inurba_marseille","lat":43.27978,"lon":5.38745,"is_reserved":false,"is_disabled":false,"rental_uris":{"android":"levelo://app?vid=1fd1869e-7ba8-4230-9fbe-9ab4f4de241d","ios":"levelo://app?vid=1fd1869e-7ba8-4230-9fbe-9ab4f4de241d"},"vehicle_type_id":"4","last_reported":1736960869,"current_range_meters":8800,"station_id":"ce4bhg12rcd13ifvqf80","pricing_plan_id":"cebpf4jnsgd1na2vs0mg"},{"bike_id":"06f91d6d-4f2c-4ded-9b72-36520fa8c30a","system_id":"levelo_inurba_marseille","lat":43.28745,"lon":5.36074,"is_reserved":false,"is_disabled":false,"rental_uris":{"android":"levelo://app?vid=06f91d6d-4f2c-4ded-9b72-36520fa8c30a","ios":"levelo://app?vid=06f91d6d-4f2c-4ded-9b72-36520fa8c30a"},"vehicle_type_id":"4","last_reported":1736960869,"current_range_meters":38800,"station_id":"cki0cbj6b192h4jlfktg","pricing_plan_id":"cebpf4jnsgd1na2vs0mg"},{"bike_id":"a019fb2c-026e-432f-a789-2e11293226c1","system_id":"levelo_inurba_marseille","lat":43.30799,"lon":5.37025,"is_reserved":false,"is_disabled":false,"rental_uris":{"android":"levelo://app?vid=a019fb2c-026e-432f-a789-2e11293226c1","ios":"levelo://app?vid=a019fb2c-026e-432f-a789-2e11293226c1"},"vehicle_type_id":"4","last_reported":1736960869,"current_range_meters":14000,"station_id":"","pricing_plan_id":"cebpf4jnsgd1na2vs0mg"},{"bike_id":"1e8982e0-ee72-49c3-8eb1-af4fcc5f3a4b","system_id":"levelo_inurba_marseille","lat":43.28834,"lon":5.39315,"is_reserved":false,"is_disabled":false,"rental_uris":{"android":"levelo://app?vid=1e8982e0-ee72-49c3-8eb1-af4fcc5f3a4b","ios":"levelo://app?vid=1e8982e0-ee72-49c3-8eb1-af4fcc5f3a4b"},"vehicle_type_id":"4","last_reported":1736960869,"current_range_meters":38000,"station_id":"ce4bh2p2rcd13ifvqdi0","pricing_plan_id":"cebpf4jnsgd1na2vs0mg"},{"bike_id":"c3add43b-bf52-4193-b880-0d78478473f5","system_id":"levelo_inurba_marseille","lat":43.23196,"lon":5.35557,"is_reserved":false,"is_disabled":false,"rental_uris":{"android":"levelo://app?vid=c3add43b-bf52-4193-b880-0d78478473f5","ios":"levelo://app?vid=c3add43b-bf52-4193-b880-0d78478473f5"},"vehicle_type_id":"4","last_reported":1736960869,"current_range_meters":36400,"station_id":"ce4bhu92rcd13ifvqi70","pricing_plan_id":"cebpf4jnsgd1na2vs0mg"},{"bike_id":"59e39e6e-07d2-4c0d-a96b-2eece172dc89","system_id":"levelo_inurba_marseille","lat":43.26213,"lon":5.37437,"is_reserved":false,"is_disabled":true,"rental_uris":{"android":"levelo://app?vid=59e39e6e-07d2-4c0d-a96b-2eece172dc89","ios":"levelo://app?vid=59e39e6e-07d2-4c0d-a96b-2eece172dc89"},"vehicle_type_id":"4","last_reported":1736960869,"current_range_meters":38000,"station_id":"ce4bhgp2rcd13ifvqfc0","pricing_plan_id":"cebpf4jnsgd1na2vs0mg"},{"bike_id":"af472fbc-9554-462d-a3a5-04ce8b6739ef","system_id":"levelo_inurba_marseille","lat":43.30351,"lon":5.41887,"is_reserved":false,"is_disabled":false,"rental_uris":{"android":"levelo://app?vid=af472fbc-9554-462d-a3a5-04ce8b6739ef","ios":"levelo://app?vid=af472fbc-9554-462d-a3a5-04ce8b6739ef"},"vehicle_type_id":"4","last_reported":1736960869,"current_range_meters":19200,"station_id":"ce4bhop2rcd13ifvqh7g","pricing_plan_id":"cebpf4jnsgd1na2vs0mg"},{"bike_id":"5565ba63-8c08-4156-ad24-a446e77f076d","system_id":"levelo_inurba_marseille","lat":43.25501,"lon":5.37648,"is_reserved":false,"is_disabled":false,"rental_uris":{"android":"levelo://app?vid=5565ba63-8c08-4156-ad24-a446e77f076d","ios":"levelo://app?vid=5565ba63-8c08-4156-ad24-a446e77f076d"},"vehicle_type_id":"4","last_reported":1736960869,"current_range_meters":37600,"station_id":"ce4bhh12rcd13ifvqff0","pricing_plan_id":"cebpf4jnsgd1na2vs0mg"},{"bike_id":"bdd7c4c9-f9bc-4cf0-9638-ea56b0417d02","system_id":"levelo_inurba_marseille","lat":43.29796,"lon":5.39341,"is_reserved":false,"is_disabled":false,"rental_uris":{"android":"levelo://app?vid=bdd7c4c9-f9bc-4cf0-9638-ea56b0417d02","ios":"levelo://app?vid=bdd7c4c9-f9bc-4cf0-9638-ea56b0417d02"},"vehicle_type_id":"4","last_reported":1736960869,"current_range_meters":38400,"station_id":"chh1huq6cuj3fo74tm60","pricing_plan_id":"cebpf4jnsgd1na2vs0mg"},{"bike_id":"a5251a73-a2d5-4234-9557-7a60eddab26d","system_id":"levelo_inurba_marseille","lat":43.27944,"lon":5.41041,"is_reserved":false,"is_disabled":false,"rental_uris":{"android":"levelo://app?vid=a5251a73-a2d5-4234-9557-7a60eddab26d","ios":"levelo://app?vid=a5251a73-a2d5-4234-9557-7a60eddab26d"},"vehicle_type_id":"4","last_reported":1736960869,"current_range_meters":31200,"station_id":"ce4bhnp2rcd13ifvqh0g","pricing_plan_id":"cebpf4jnsgd1na2vs0mg"},{"bike_id":"ccb0f3c2-b63c-460f-a31f-a1ed7233bff6","system_id":"levelo_inurba_marseille","lat":43.30252,"lon":5.40105,"is_reserved":false,"is_disabled":false,"rental_uris":{"android":"levelo://app?vid=ccb0f3c2-b63c-460f-a31f-a1ed7233bff6","ios":"levelo://app?vid=ccb0f3c2-b63c-460f-a31f-a1ed7233bff6"},"vehicle_type_id":"4","last_reported":1736960869,"current_range_meters":38400,"station_id":"ce4bgvh2rcd13ifvqcs0","pricing_plan_id":"cebpf4jnsgd1na2vs0mg"},{"bike_id":"bec68ece-0874-4e53-96ff-65a7e41cf259","system_id":"levelo_inurba_marseille","lat":43.29566,"lon":5.39989,"is_reserved":false,"is_disabled":false,"rental_uris":{"android":"levelo://app?vid=bec68ece-0874-4e53-96ff-65a7e41cf259","ios":"levelo://app?vid=bec68ece-0874-4e53-96ff-65a7e41cf259"},"vehicle_type_id":"4","last_reported":1736960869,"current_range_meters":31200,"station_id":"ce4bh312rcd13ifvqdj0","pricing_plan_id":"cebpf4jnsgd1na2vs0mg"},{"bike_id":"93bc7e9d-3047-482e-a396-1037e95fe874","system_id":"levelo_inurba_marseille","lat":43.32284,"lon":5.38263,"is_reserved":false,"is_disabled":false,"rental_uris":{"android":"levelo://app?vid=93bc7e9d-3047-482e-a396-1037e95fe874","ios":"levelo://app?vid=93bc7e9d-3047-482e-a396-1037e95fe874"},"vehicle_type_id":"4","last_reported":1736960869,"current_range_meters":22400,"station_id":"ce4bhr12rcd13ifvqhqg","pricing_plan_id":"cebpf4jnsgd1na2vs0mg"},{"bike_id":"f7a93299-4b31-44c2-976e-82f7878bc418","system_id":"levelo_inurba_marseille","lat":43.255,"lon":5.37648,"is_reserved":false,"is_disabled":false,"rental_uris":{"android":"levelo://app?vid=f7a93299-4b31-44c2-976e-82f7878bc418","ios":"levelo://app?vid=f7a93299-4b31-44c2-976e-82f7878bc418"},"vehicle_type_id":"4","last_reported":1736960869,"current_range_meters":38800,"station_id":"ce4bhh12rcd13ifvqff0","pricing_plan_id":"cebpf4jnsgd1na2vs0mg"},{"bike_id":"31f00ed0-b0ca-427a-9039-ac29c940ea2c","system_id":"levelo_inurba_marseille","lat":43.23194,"lon":5.35555,"is_reserved":false,"is_disabled":false,"rental_uris":{"android":"levelo://app?vid=31f00ed0-b0ca-427a-9039-ac29c940ea2c","ios":"levelo://app?vid=31f00ed0-b0ca-427a-9039-ac29c940ea2c"},"vehicle_type_id":"4","last_reported":1736960869,"current_range_meters":22400,"station_id":"ce4bhu92rcd13ifvqi70","pricing_plan_id":"cebpf4jnsgd1na2vs0mg"},{"bike_id":"6748b0ff-9d4d-43b8-8ffc-fcb9720dc898","system_id":"levelo_inurba_marseille","lat":43.29617,"lon":5.37716,"is_reserved":false,"is_disabled":true,"rental_uris":{"android":"levelo://app?vid=6748b0ff-9d4d-43b8-8ffc-fcb9720dc898","ios":"levelo://app?vid=6748b0ff-9d4d-43b8-8ffc-fcb9720dc898"},"vehicle_type_id":"4","last_reported":1736960869,"current_range_meters":0,"station_id":"ce4bgi92rcd13ifvqb90","pricing_plan_id":"cebpf4jnsgd1na2vs0mg"},{"bike_id":"e10b658f-29d4-487b-a1fc-e254db66a5ef","system_id":"levelo_inurba_marseille","lat":43.26955,"lon":5.38631,"is_reserved":false,"is_disabled":false,"rental_uris":{"android":"levelo://app?vid=e10b658f-29d4-487b-a1fc-e254db66a5ef","ios":"levelo://app?vid=e10b658f-29d4-487b-a1fc-e254db66a5ef"},"vehicle_type_id":"4","last_reported":1736960869,"current_range_meters":24800,"station_id":"ce4bhh92rcd13ifvqfh0","pricing_plan_id":"cebpf4jnsgd1na2vs0mg"},{"bike_id":"8ccdb8e3-5350-4cab-8a81-1bd6181a6c06","system_id":"levelo_inurba_marseille","lat":43.23202,"lon":5.35549,"is_reserved":false,"is_disabled":false,"rental_uris":{"android":"levelo://app?vid=8ccdb8e3-5350-4cab-8a81-1bd6181a6c06","ios":"levelo://app?vid=8ccdb8e3-5350-4cab-8a81-1bd6181a6c06"},"vehicle_type_id":"4","last_reported":1736960869,"current_range_meters":32800,"station_id":"ce4bhu92rcd13ifvqi70","pricing_plan_id":"cebpf4jnsgd1na2vs0mg"},{"bike_id":"6a90b950-9155-48a7-98c7-17b0e066be78","system_id":"levelo_inurba_marseille","lat":43.29593,"lon":5.38101,"is_reserved":false,"is_disabled":false,"rental_uris":{"android":"levelo://app?vid=6a90b950-9155-48a7-98c7-17b0e066be78","ios":"levelo://app?vid=6a90b950-9155-48a7-98c7-17b0e066be78"},"vehicle_type_id":"4","last_reported":1736960869,"current_range_meters":32000,"station_id":"ce4bgl12rcd13ifvqbo0","pricing_plan_id":"cebpf4jnsgd1na2vs0mg"},{"bike_id":"b64b14d9-a03a-4200-91e3-c0820d60682c","system_id":"levelo_inurba_marseille","lat":43.24181,"lon":5.39725,"is_reserved":false,"is_disabled":false,"rental_uris":{"android":"levelo://app?vid=b64b14d9-a03a-4200-91e3-c0820d60682c","ios":"levelo://app?vid=b64b14d9-a03a-4200-91e3-c0820d60682c"},"vehicle_type_id":"4","last_reported":1736960869,"current_range_meters":24800,"station_id":"ce4bhn12rcd13ifvqgpg","pricing_plan_id":"cebpf4jnsgd1na2vs0mg"},{"bike_id":"9379167b-d7c4-4dc5-abf6-5112696d164e","system_id":"levelo_inurba_marseille","lat":43.29973,"lon":5.38486,"is_reserved":false,"is_disabled":false,"rental_uris":{"android":"levelo://app?vid=9379167b-d7c4-4dc5-abf6-5112696d164e","ios":"levelo://app?vid=9379167b-d7c4-4dc5-abf6-5112696d164e"},"vehicle_type_id":"4","last_reported":1736960869,"current_range_meters":19600,"station_id":"ce4bgj92rcd13ifvqbd0","pricing_plan_id":"cebpf4jnsgd1na2vs0mg"},{"bike_id":"19db0f39-112f-4831-80b6-ec1b1881ea6c","system_id":"levelo_inurba_marseille","lat":43.25102,"lon":5.40333,"is_reserved":false,"is_disabled":false,"rental_uris":{"android":"levelo://app?vid=19db0f39-112f-4831-80b6-ec1b1881ea6c","ios":"levelo://app?vid=19db0f39-112f-4831-80b6-ec1b1881ea6c"},"vehicle_type_id":"4","last_reported":1736960869,"current_range_meters":37600,"station_id":"ce4bhlh2rcd13ifvqgig","pricing_plan_id":"cebpf4jnsgd1na2vs0mg"},{"bike_id":"f6f6a71b-b625-4020-bff4-8a83c993b7b7","system_id":"levelo_inurba_marseille","lat":43.314951,"lon":5.373089,"is_reserved":false,"is_disabled":false,"rental_uris":{"android":"levelo://app?vid=f6f6a71b-b625-4020-bff4-8a83c993b7b7","ios":"levelo://app?vid=f6f6a71b-b625-4020-bff4-8a83c993b7b7"},"vehicle_type_id":"4","last_reported":1736960869,"current_range_meters":38800,"station_id":"ce4bgt12rcd13ifvqcd0","pricing_plan_id":"cebpf4jnsgd1na2vs0mg"},{"bike_id":"338c8f0b-45e7-4724-ac29-88d67974a715","system_id":"levelo_inurba_marseille","lat":43.29847,"lon":5.36269,"is_reserved":false,"is_disabled":false,"rental_uris":{"android":"levelo://app?vid=338c8f0b-45e7-4724-ac29-88d67974a715","ios":"levelo://app?vid=338c8f0b-45e7-4724-ac29-88d67974a715"},"vehicle_type_id":"4","last_reported":1736960869,"current_range_meters":38800,"station_id":"ce4bgpp2rcd13ifvqc3g","pricing_plan_id":"cebpf4jnsgd1na2vs0mg"},{"bike_id":"6027163c-6e0b-44a2-bfed-3a477a83b455","system_id":"levelo_inurba_marseille","lat":43.31704,"lon":5.37785,"is_reserved":false,"is_disabled":true,"rental_uris":{"android":"levelo://app?vid=6027163c-6e0b-44a2-bfed-3a477a83b455","ios":"levelo://app?vid=6027163c-6e0b-44a2-bfed-3a477a83b455"},"vehicle_type_id":"4","last_reported":1736960869,"current_range_meters":39200,"station_id":"ce4bgth2rcd13ifvqch0","pricing_plan_id":"cebpf4jnsgd1na2vs0mg"},{"bike_id":"ca31e97f-1602-4737-9867-16dcd150e9e4","system_id":"levelo_inurba_marseille","lat":43.32348,"lon":5.40608,"is_reserved":false,"is_disabled":false,"rental_uris":{"android":"levelo://app?vid=ca31e97f-1602-4737-9867-16dcd150e9e4","ios":"levelo://app?vid=ca31e97f-1602-4737-9867-16dcd150e9e4"},"vehicle_type_id":"4","last_reported":1736960869,"current_range_meters":24000,"station_id":"ce4bhq92rcd13ifvqhjg","pricing_plan_id":"cebpf4jnsgd1na2vs0mg"},{"bike_id":"6d7035bc-03fb-481d-bb1e-5df61a4e2711","system_id":"levelo_inurba_marseille","lat":43.255,"lon":5.3765,"is_reserved":false,"is_disabled":false,"rental_uris":{"android":"levelo://app?vid=6d7035bc-03fb-481d-bb1e-5df61a4e2711","ios":"levelo://app?vid=6d7035bc-03fb-481d-bb1e-5df61a4e2711"},"vehicle_type_id":"4","last_reported":1736960869,"current_range_meters":38800,"station_id":"ce4bhh12rcd13ifvqff0","pricing_plan_id":"cebpf4jnsgd1na2vs0mg"},{"bike_id":"54a18c9f-f2e5-4dfb-8f06-31488c94e2f2","system_id":"levelo_inurba_marseille","lat":43.28942,"lon":5.36408,"is_reserved":false,"is_disabled":false,"rental_uris":{"android":"levelo://app?vid=54a18c9f-f2e5-4dfb-8f06-31488c94e2f2","ios":"levelo://app?vid=54a18c9f-f2e5-4dfb-8f06-31488c94e2f2"},"vehicle_type_id":"4","last_reported":1736960869,"current_range_meters":21600,"station_id":"ce4bhc92rcd13ifvqetg","pricing_plan_id":"cebpf4jnsgd1na2vs0mg"},{"bike_id":"d2224579-4aaf-4ea3-9778-3b9495ba97d0","system_id":"levelo_inurba_marseille","lat":43.26201,"lon":5.37933,"is_reserved":false,"is_disabled":false,"rental_uris":{"android":"levelo://app?vid=d2224579-4aaf-4ea3-9778-3b9495ba97d0","ios":"levelo://app?vid=d2224579-4aaf-4ea3-9778-3b9495ba97d0"},"vehicle_type_id":"4","last_reported":1736960869,"current_range_meters":39200,"station_id":"ce4bhjp2rcd13ifvqg90","pricing_plan_id":"cebpf4jnsgd1na2vs0mg"},{"bike_id":"88c79ae2-04c1-48da-ae2b-41810cc7f240","system_id":"levelo_inurba_marseille","lat":43.28038,"lon":5.36938,"is_reserved":false,"is_disabled":false,"rental_uris":{"android":"levelo://app?vid=88c79ae2-04c1-48da-ae2b-41810cc7f240","ios":"levelo://app?vid=88c79ae2-04c1-48da-ae2b-41810cc7f240"},"vehicle_type_id":"4","last_reported":1736960869,"current_range_meters":38800,"station_id":"ce4bha12rcd13ifvqef0","pricing_plan_id":"cebpf4jnsgd1na2vs0mg"},{"bike_id":"9ef17802-aec1-4578-b006-50808987e5bc","system_id":"levelo_inurba_marseille","lat":43.31514,"lon":5.37306,"is_reserved":false,"is_disabled":false,"rental_uris":{"android":"levelo://app?vid=9ef17802-aec1-4578-b006-50808987e5bc","ios":"levelo://app?vid=9ef17802-aec1-4578-b006-50808987e5bc"},"vehicle_type_id":"4","last_reported":1736960869,"current_range_meters":38000,"station_id":"ce4bgt12rcd13ifvqcd0","pricing_plan_id":"cebpf4jnsgd1na2vs0mg"},{"bike_id":"593c758c-a453-40c2-b30d-d94067acbe2b","system_id":"levelo_inurba_marseille","lat":43.29791,"lon":5.37101,"is_reserved":false,"is_disabled":false,"rental_uris":{"android":"levelo://app?vid=593c758c-a453-40c2-b30d-d94067acbe2b","ios":"levelo://app?vid=593c758c-a453-40c2-b30d-d94067acbe2b"},"vehicle_type_id":"4","last_reported":1736960869,"current_range_meters":38800,"station_id":"ce4bgop2rcd13ifvqc1g","pricing_plan_id":"cebpf4jnsgd1na2vs0mg"},{"bike_id":"33ca93a8-d9f2-4454-a351-9076dd3a188f","system_id":"levelo_inurba_marseille","lat":43.27833,"lon":5.40725,"is_reserved":false,"is_disabled":false,"rental_uris":{"android":"levelo://app?vid=33ca93a8-d9f2-4454-a351-9076dd3a188f","ios":"levelo://app?vid=33ca93a8-d9f2-4454-a351-9076dd3a188f"},"vehicle_type_id":"4","last_reported":1736960869,"current_range_meters":34000,"station_id":"ce4bhnh2rcd13ifvqgtg","pricing_plan_id":"cebpf4jnsgd1na2vs0mg"},{"bike_id":"c0e074d4-566f-41c8-a53c-e42478c02910","system_id":"levelo_inurba_marseille","lat":43.29204,"lon":5.39318,"is_reserved":false,"is_disabled":false,"rental_uris":{"android":"levelo://app?vid=c0e074d4-566f-41c8-a53c-e42478c02910","ios":"levelo://app?vid=c0e074d4-566f-41c8-a53c-e42478c02910"},"vehicle_type_id":"4","last_reported":1736960869,"current_range_meters":25200,"station_id":"ce4bh192rcd13ifvqdd0","pricing_plan_id":"cebpf4jnsgd1na2vs0mg"},{"bike_id":"cccb6aa6-2571-43d7-a949-5c3f9430e46c","system_id":"levelo_inurba_marseille","lat":43.29577,"lon":5.36736,"is_reserved":false,"is_disabled":false,"rental_uris":{"android":"levelo://app?vid=cccb6aa6-2571-43d7-a949-5c3f9430e46c","ios":"levelo://app?vid=cccb6aa6-2571-43d7-a949-5c3f9430e46c"},"vehicle_type_id":"4","last_reported":1736960869,"current_range_meters":18000,"station_id":"ce4bgph2rcd13ifvqc2g","pricing_plan_id":"cebpf4jnsgd1na2vs0mg"},{"bike_id":"ed89a333-d26a-4fa5-9c07-51498d3d00b7","system_id":"levelo_inurba_marseille","lat":43.26822,"lon":5.41112,"is_reserved":false,"is_disabled":false,"rental_uris":{"android":"levelo://app?vid=ed89a333-d26a-4fa5-9c07-51498d3d00b7","ios":"levelo://app?vid=ed89a333-d26a-4fa5-9c07-51498d3d00b7"},"vehicle_type_id":"4","last_reported":1736960869,"current_range_meters":12800,"station_id":"","pricing_plan_id":"cebpf4jnsgd1na2vs0mg"},{"bike_id":"13963277-02a9-45c2-836b-51b2e801b8e3","system_id":"levelo_inurba_marseille","lat":43.2603,"lon":5.37549,"is_reserved":false,"is_disabled":false,"rental_uris":{"android":"levelo://app?vid=13963277-02a9-45c2-836b-51b2e801b8e3","ios":"levelo://app?vid=13963277-02a9-45c2-836b-51b2e801b8e3"},"vehicle_type_id":"4","last_reported":1736960869,"current_range_meters":27600,"station_id":"ce4bhgh2rcd13ifvqfa0","pricing_plan_id":"cebpf4jnsgd1na2vs0mg"},{"bike_id":"0a4ad65f-e0c2-4cbd-a1cc-155a2b2c7350","system_id":"levelo_inurba_marseille","lat":43.27828,"lon":5.40704,"is_reserved":false,"is_disabled":false,"rental_uris":{"android":"levelo://app?vid=0a4ad65f-e0c2-4cbd-a1cc-155a2b2c7350","ios":"levelo://app?vid=0a4ad65f-e0c2-4cbd-a1cc-155a2b2c7350"},"vehicle_type_id":"4","last_reported":1736960869,"current_range_meters":16000,"station_id":"ce4bhnh2rcd13ifvqgtg","pricing_plan_id":"cebpf4jnsgd1na2vs0mg"},{"bike_id":"db00ab6b-60c3-4a71-84f0-aeee0f252d33","system_id":"levelo_inurba_marseille","lat":43.2816,"lon":5.42642,"is_reserved":false,"is_disabled":false,"rental_uris":{"android":"levelo://app?vid=db00ab6b-60c3-4a71-84f0-aeee0f252d33","ios":"levelo://app?vid=db00ab6b-60c3-4a71-84f0-aeee0f252d33"},"vehicle_type_id":"4","last_reported":1736960869,"current_range_meters":28400,"station_id":"ce4bhnh2rcd13ifvqgug","pricing_plan_id":"cebpf4jnsgd1na2vs0mg"},{"bike_id":"04af7c92-1425-4fd3-bda8-efeb9afe36fe","system_id":"levelo_inurba_marseille","lat":43.28685,"lon":5.38657,"is_reserved":false,"is_disabled":false,"rental_uris":{"android":"levelo://app?vid=04af7c92-1425-4fd3-bda8-efeb9afe36fe","ios":"levelo://app?vid=04af7c92-1425-4fd3-bda8-efeb9afe36fe"},"vehicle_type_id":"4","last_reported":1736960869,"current_range_meters":10800,"station_id":"ce4bh492rcd13ifvqdug","pricing_plan_id":"cebpf4jnsgd1na2vs0mg"},{"bike_id":"9f6782ec-4797-4a3d-a4fa-e5adba27f215","system_id":"levelo_inurba_marseille","lat":43.28468,"lon":5.38422,"is_reserved":false,"is_disabled":false,"rental_uris":{"android":"levelo://app?vid=9f6782ec-4797-4a3d-a4fa-e5adba27f215","ios":"levelo://app?vid=9f6782ec-4797-4a3d-a4fa-e5adba27f215"},"vehicle_type_id":"4","last_reported":1736960869,"current_range_meters":32000,"station_id":"ce4bh512rcd13ifvqe3g","pricing_plan_id":"cebpf4jnsgd1na2vs0mg"},{"bike_id":"66ba0859-b799-4707-a299-b93ddd2e0716","system_id":"levelo_inurba_marseille","lat":43.28931,"lon":5.36415,"is_reserved":false,"is_disabled":false,"rental_uris":{"android":"levelo://app?vid=66ba0859-b799-4707-a299-b93ddd2e0716","ios":"levelo://app?vid=66ba0859-b799-4707-a299-b93ddd2e0716"},"vehicle_type_id":"4","last_reported":1736960869,"current_range_meters":38800,"station_id":"ce4bhc92rcd13ifvqetg","pricing_plan_id":"cebpf4jnsgd1na2vs0mg"},{"bike_id":"bbd6a9bd-cc76-4cd0-881e-43f60f863e99","system_id":"levelo_inurba_marseille","lat":43.28103,"lon":5.37839,"is_reserved":false,"is_disabled":false,"rental_uris":{"android":"levelo://app?vid=bbd6a9bd-cc76-4cd0-881e-43f60f863e99","ios":"levelo://app?vid=bbd6a9bd-cc76-4cd0-881e-43f60f863e99"},"vehicle_type_id":"4","last_reported":1736960869,"current_range_meters":36000,"station_id":"ce4bha12rcd13ifvqee0","pricing_plan_id":"cebpf4jnsgd1na2vs0mg"},{"bike_id":"3fb1b6dd-ecb4-4537-9229-30691ec1fdf4","system_id":"levelo_inurba_marseille","lat":43.31535,"lon":5.38028,"is_reserved":false,"is_disabled":false,"rental_uris":{"android":"levelo://app?vid=3fb1b6dd-ecb4-4537-9229-30691ec1fdf4","ios":"levelo://app?vid=3fb1b6dd-ecb4-4537-9229-30691ec1fdf4"},"vehicle_type_id":"4","last_reported":1736960869,"current_range_meters":24000,"station_id":"ce4bhsp2rcd13ifvqi50","pricing_plan_id":"cebpf4jnsgd1na2vs0mg"},{"bike_id":"c3f409c2-e40f-45e3-b273-4cee1de6708b","system_id":"levelo_inurba_marseille","lat":43.26472,"lon":5.39577,"is_reserved":false,"is_disabled":false,"rental_uris":{"android":"levelo://app?vid=c3f409c2-e40f-45e3-b273-4cee1de6708b","ios":"levelo://app?vid=c3f409c2-e40f-45e3-b273-4cee1de6708b"},"vehicle_type_id":"4","last_reported":1736960869,"current_range_meters":37600,"station_id":"ce4bhi12rcd13ifvqfq0","pricing_plan_id":"cebpf4jnsgd1na2vs0mg"},{"bike_id":"05247698-34b2-4ac4-be9c-7b602cffb43f","system_id":"levelo_inurba_marseille","lat":43.25825,"lon":5.39417,"is_reserved":false,"is_disabled":false,"rental_uris":{"android":"levelo://app?vid=05247698-34b2-4ac4-be9c-7b602cffb43f","ios":"levelo://app?vid=05247698-34b2-4ac4-be9c-7b602cffb43f"},"vehicle_type_id":"4","last_reported":1736960869,"current_range_meters":38000,"station_id":"ce4bhip2rcd13ifvqft0","pricing_plan_id":"cebpf4jnsgd1na2vs0mg"},{"bike_id":"ec98e2e4-d078-42a0-ad02-f9509dc6001d","system_id":"levelo_inurba_marseille","lat":43.293,"lon":5.3717,"is_reserved":false,"is_disabled":false,"rental_uris":{"android":"levelo://app?vid=ec98e2e4-d078-42a0-ad02-f9509dc6001d","ios":"levelo://app?vid=ec98e2e4-d078-42a0-ad02-f9509dc6001d"},"vehicle_type_id":"4","last_reported":1736960869,"current_range_meters":38800,"station_id":"ce4bgh92rcd13ifvqb40","pricing_plan_id":"cebpf4jnsgd1na2vs0mg"},{"bike_id":"9f825f34-199b-4dd4-871f-7d6716e0830d","system_id":"levelo_inurba_marseille","lat":43.31369,"lon":5.38504,"is_reserved":false,"is_disabled":false,"rental_uris":{"android":"levelo://app?vid=9f825f34-199b-4dd4-871f-7d6716e0830d","ios":"levelo://app?vid=9f825f34-199b-4dd4-871f-7d6716e0830d"},"vehicle_type_id":"4","last_reported":1736960869,"current_range_meters":6400,"station_id":"ce4bgt92rcd13ifvqcf0","pricing_plan_id":"cebpf4jnsgd1na2vs0mg"},{"bike_id":"24f87179-ee14-4d2c-96ae-3be6fbfe1611","system_id":"levelo_inurba_marseille","lat":43.25077,"lon":5.39523,"is_reserved":false,"is_disabled":false,"rental_uris":{"android":"levelo://app?vid=24f87179-ee14-4d2c-96ae-3be6fbfe1611","ios":"levelo://app?vid=24f87179-ee14-4d2c-96ae-3be6fbfe1611"},"vehicle_type_id":"4","last_reported":1736960869,"current_range_meters":12800,"station_id":"ce4bhm12rcd13ifvqgkg","pricing_plan_id":"cebpf4jnsgd1na2vs0mg"},{"bike_id":"a1b86437-5100-493c-a7f4-6deb0448f88a","system_id":"levelo_inurba_marseille","lat":43.28837,"lon":5.39331,"is_reserved":false,"is_disabled":false,"rental_uris":{"android":"levelo://app?vid=a1b86437-5100-493c-a7f4-6deb0448f88a","ios":"levelo://app?vid=a1b86437-5100-493c-a7f4-6deb0448f88a"},"vehicle_type_id":"4","last_reported":1736960869,"current_range_meters":14400,"station_id":"ce4bh2p2rcd13ifvqdi0","pricing_plan_id":"cebpf4jnsgd1na2vs0mg"},{"bike_id":"60e9d239-a9dd-4f15-a43d-05619a6f19ff","system_id":"levelo_inurba_marseille","lat":43.28153,"lon":5.42644,"is_reserved":false,"is_disabled":false,"rental_uris":{"android":"levelo://app?vid=60e9d239-a9dd-4f15-a43d-05619a6f19ff","ios":"levelo://app?vid=60e9d239-a9dd-4f15-a43d-05619a6f19ff"},"vehicle_type_id":"4","last_reported":1736960869,"current_range_meters":36400,"station_id":"ce4bhnh2rcd13ifvqgug","pricing_plan_id":"cebpf4jnsgd1na2vs0mg"},{"bike_id":"608b219b-2378-447a-ac81-5b2dca5feba9","system_id":"levelo_inurba_marseille","lat":43.2904,"lon":5.35914,"is_reserved":false,"is_disabled":false,"rental_uris":{"android":"levelo://app?vid=608b219b-2378-447a-ac81-5b2dca5feba9","ios":"levelo://app?vid=608b219b-2378-447a-ac81-5b2dca5feba9"},"vehicle_type_id":"4","last_reported":1736960869,"current_range_meters":36800,"station_id":"ce4bha92rcd13ifvqeg0","pricing_plan_id":"cebpf4jnsgd1na2vs0mg"},