{"last_updated":1701792566,"ttl":30,"version":"2.2","data":{"bikes":[{"bike_id":"6c22590d-6750-4410-b7e4-1413015c08a1","system_id":"levelo_inurba_marseille","lat":43.313258,"lon":5.367425,"is_reserved":false,"is_disabled":false,"rental_uris":{"android":"levelo://app?vid=6c22590d-6750-4410-b7e4-1413015c08a1","ios":"levelo://app?vid=6c22590d-6750-4410-b7e4-1413015c08a1"},"vehicle_type_id":"4","last_reported":1701792566,"current_range_meters":18400,"station_id":"ce4bgr92rcd13ifvqc6g","pricing_plan_id":"free"},{"bike_id":"5fd61d4d-97d9-46ea-ad6e-9ae0ba00cbdf","system_id":"levelo_inurba_marseille","lat":43.313513,"lon":5.367119,"is_reserved":false,"is_disabled":false,"rental_uris":{"android":"levelo://app?vid=5fd61d4d-97d9-46ea-ad6e-9ae0ba00cbdf","ios":"levelo://app?vid=5fd61d4d-97d9-46ea-ad6e-9ae0ba00cbdf"},"vehicle_type_id":"4","last_reported":1701792566,"current_range_meters":24400,"station_id":"ce4bgr92rcd13ifvqc6g","pricing_plan_id":"free"},{"bike_id":"335bd2e4-d778-465e-8392-7659726a15ef","system_id":"levelo_inurba_marseille","lat":43.313556,"lon":5.367091,"is_reserved":false,"is_disabled":false,"rental_uris":{"android":"levelo://app?vid=335bd2e4-d778-465e-8392-7659726a15ef","ios":"levelo://app?vid=335bd2e4-d778-465e-8392-7659726a15ef"},"vehicle_type_id":"4","last_reported":1701792566,"current_range_meters":22000,"station_id":"ce4bgr92rcd13ifvqc6g","pricing_plan_id":"free"},{"bike_id":"c90c4f56-179f-47c0-b367-8237d5be2f6f","system_id":"levelo_inurba_marseille","lat":43.313563,"lon":5.367085,"is_reserved":false,"is_disabled":false,"rental_uris":{"android":"levelo://app?vid=c90c4f56-179f-47c0-b367-8237d5be2f6f","ios":"levelo://app?vid=c90c4f56-179f-47c0-b367-8237d5be2f6f"},"vehicle_type_id":"4","last_reported":1701792566,"current_range_meters":21600,"station_id":"","pricing_plan_id":"free"},{"bike_id":"d0ba7508-adfb-4f45-857b-74f778e1a8d3","system_id":"levelo_inurba_marseille","lat":43.31498,"lon":5.37303,"is_reserved":false,"is_disabled":false,"rental_uris":{"android":"levelo://app?vid=d0ba7508-adfb-4f45-857b-74f778e1a8d3","ios":"levelo://app?vid=d0ba7508-adfb-4f45-857b-74f778e1a8d3"},"vehicle_type_id":"4","last_reported":1701792566,"current_range_meters":0,"station_id":"ce4bgt12rcd13ifvqcd0","pricing_plan_id":"free"},{"bike_id":"33903225-5284-440e-9eac-0c83207f43ca","system_id":"levelo_inurba_marseille","lat":43.31516,"lon":5.37295,"is_reserved":false,"is_disabled":false,"rental_uris":{"android":"levelo://app?vid=33903225-5284-440e-9eac-0c83207f43ca","ios":"levelo://app?vid=33903225-5284-440e-9eac-0c83207f43ca"},"vehicle_type_id":"4","last_reported":1701792566,"current_range_meters":0,"station_id":"ce4bgt12rcd13ifvqcd0","pricing_plan_id":"free"},{"bike_id":"64e290a0-b37e-4e03-b9dd-c4ba51b11558","system_id":"levelo_inurba_marseille","lat":43.309039,"lon":5.371797,"is_reserved":false,"is_disabled":false,"rental_uris":{"android":"levelo://app?vid=64e290a0-b37e-4e03-b9dd-c4ba51b11558","ios":"levelo://app?vid=64e290a0-b37e-4e03-b9dd-c4ba51b11558"},"vehicle_type_id":"4","last_reported":1701792566,"current_range_meters":0,"station_id":"ce4bguh2rcd13ifvqckg","pricing_plan_id":"free"},{"bike_id":"299c1eda-a86c-4f2c-a320-58b4e01cd6b9","system_id":"levelo_inurba_marseille","lat":43.305533,"lon":5.365553,"is_reserved":false,"is_disabled":false,"rental_uris":{"android":"levelo://app?vid=299c1eda-a86c-4f2c-a320-58b4e01cd6b9","ios":"levelo://app?vid=299c1eda-a86c-4f2c-a320-58b4e01cd6b9"},"vehicle_type_id":"4","last_reported":1701792566,"current_range_meters":0,"station_id":"ce4bgs12rcd13ifvqcag","pricing_plan_id":"free"},{"bike_id":"b065b12a-ef87-47d8-8ac6-a38844050d40","system_id":"levelo_inurba_marseille","lat":43.319338,"lon":5.372928,"is_reserved":false,"is_disabled":false,"rental_uris":{"android":"levelo://app?vid=b065b12a-ef87-47d8-8ac6-a38844050d40","ios":"levelo://app?vid=b065b12a-ef87-47d8-8ac6-a38844050d40"},"vehicle_type_id":"4","last_reported":1701792566,"current_range_meters":0,"station_id":"","pricing_plan_id":"free"},{"bike_id":"6a9266e1-51d4-4e02-9614-61fa97198216","system_id":"levelo_inurba_marseille","lat":43.31117,"lon":5.3777,"is_reserved":false,"is_disabled":false,"rental_uris":{"android":"levelo://app?vid=6a9266e1-51d4-4e02-9614-61fa97198216","ios":"levelo://app?vid=6a9266e1-51d4-4e02-9614-61fa97198216"},"vehicle_type_id":"4","last_reported":1701792566,"current_range_meters":0,"station_id":"ce4bgt92rcd13ifvqcg0","pricing_plan_id":"free"},{"bike_id":"be80987f-d7cd-4734-a7b8-852edba736be","system_id":"levelo_inurba_marseille","lat":43.31117,"lon":5.37773,"is_reserved":false,"is_disabled":false,"rental_uris":{"android":"levelo://app?vid=be80987f-d7cd-4734-a7b8-852edba736be","ios":"levelo://app?vid=be80987f-d7cd-4734-a7b8-852edba736be"},"vehicle_type_id":"4","last_reported":1701792566,"current_range_meters":24400,"station_id":"ce4bgt92rcd13ifvqcg0","pricing_plan_id":"free"},{"bike_id":"fb6fd937-527b-4585-9058-0dfdc6436ac8","system_id":"levelo_inurba_marseille","lat":43.31351,"lon":5.37909,"is_reserved":false,"is_disabled":false,"rental_uris":{"android":"levelo://app?vid=fb6fd937-527b-4585-9058-0dfdc6436ac8","ios":"levelo://app?vid=fb6fd937-527b-4585-9058-0dfdc6436ac8"},"vehicle_type_id":"4","last_reported":1701792566,"current_range_meters":9600,"station_id":"","pricing_plan_id":"free"},{"bike_id":"6d5dba1d-7de5-4484-a9de-78e239d7900d","system_id":"levelo_inurba_marseille","lat":43.30304,"lon":5.368987,"is_reserved":false,"is_disabled":false,"rental_uris":{"android":"levelo://app?vid=6d5dba1d-7de5-4484-a9de-78e239d7900d","ios":"levelo://app?vid=6d5dba1d-7de5-4484-a9de-78e239d7900d"},"vehicle_type_id":"4","last_reported":1701792566,"current_range_meters":4000,"station_id":"ce4bgqh2rcd13ifvqc5g","pricing_plan_id":"free"},{"bike_id":"f6ca7f28-4e75-46c6-bc91-c803ed642f7e","system_id":"levelo_inurba_marseille","lat":43.301939,"lon":5.366286,"is_reserved":false,"is_disabled":false,"rental_uris":{"android":"levelo://app?vid=f6ca7f28-4e75-46c6-bc91-c803ed642f7e","ios":"levelo://app?vid=f6ca7f28-4e75-46c6-bc91-c803ed642f7e"},"vehicle_type_id":"4","last_reported":1701792566,"current_range_meters":8800,"station_id":"ce4bgrh2rcd13ifvqc8g","pricing_plan_id":"free"},{"bike_id":"751fec68-7e27-46f1-92e9-fbd152e2cef8","system_id":"levelo_inurba_marseille","lat":43.308012,"lon":5.381511,"is_reserved":false,"is_disabled":false,"rental_uris":{"android":"levelo://app?vid=751fec68-7e27-46f1-92e9-fbd152e2cef8","ios":"levelo://app?vid=751fec68-7e27-46f1-92e9-fbd152e2cef8"},"vehicle_type_id":"4","last_reported":1701792566,"current_range_meters":26800,"station_id":"ce4bgt12rcd13ifvqce0","pricing_plan_id":"free"},{"bike_id":"ee1f98fd-6f5a-4a8b-b64c-6526825729de","system_id":"levelo_inurba_marseille","lat":43.30797,"lon":5.38162,"is_reserved":false,"is_disabled":false,"rental_uris":{"android":"levelo://app?vid=ee1f98fd-6f5a-4a8b-b64c-6526825729de","ios":"levelo://app?vid=ee1f98fd-6f5a-4a8b-b64c-6526825729de"},"vehicle_type_id":"4","last_reported":1701792566,"current_range_meters":21200,"station_id":"ce4bgt12rcd13ifvqce0","pricing_plan_id":"free"},{"bike_id":"25ca89cb-0563-4b09-9b9a-2a4e1bc97c62","system_id":"levelo_inurba_marseille","lat":43.32472,"lon":5.36581,"is_reserved":false,"is_disabled":false,"rental_uris":{"android":"levelo://app?vid=25ca89cb-0563-4b09-9b9a-2a4e1bc97c62","ios":"levelo://app?vid=25ca89cb-0563-4b09-9b9a-2a4e1bc97c62"},"vehicle_type_id":"4","last_reported":1701792566,"current_range_meters":0,"station_id":"ce4bhs12rcd13ifvqhvg","pricing_plan_id":"free"},{"bike_id":"e222377b-5f50-452f-b870-cfaf3055e8ec","system_id":"levelo_inurba_marseille","lat":43.32473,"lon":5.36575,"is_reserved":false,"is_disabled":false,"rental_uris":{"android":"levelo://app?vid=e222377b-5f50-452f-b870-cfaf3055e8ec","ios":"levelo://app?vid=e222377b-5f50-452f-b870-cfaf3055e8ec"},"vehicle_type_id":"4","last_reported":1701792566,"current_range_meters":23200,"station_id":"ce4bhs12rcd13ifvqhvg","pricing_plan_id":"free"},{"bike_id":"6f700090-8599-48ab-a2cd-62aeeb8885e1","system_id":"levelo_inurba_marseille","lat":43.324771,"lon":5.36557,"is_reserved":false,"is_disabled":false,"rental_uris":{"android":"levelo://app?vid=6f700090-8599-48ab-a2cd-62aeeb8885e1","ios":"levelo://app?vid=6f700090-8599-48ab-a2cd-62aeeb8885e1"},"vehicle_type_id":"4","last_reported":1701792566,"current_range_meters":6400,"station_id":"ce4bhs12rcd13ifvqhvg","pricing_plan_id":"free"},{"bike_id":"ab542b0a-b258-4b62-baed-c4ff4b3a7961","system_id":"levelo_inurba_marseille","lat":43.324771,"lon":5.36557,"is_reserved":false,"is_disabled":false,"rental_uris":{"android":"levelo://app?vid=ab542b0a-b258-4b62-baed-c4ff4b3a7961","ios":"levelo://app?vid=ab542b0a-b258-4b62-baed-c4ff4b3a7961"},"vehicle_type_id":"4","last_reported":1701792566,"current_range_meters":12400,"station_id":"ce4bhs12rcd13ifvqhvg","pricing_plan_id":"free"},{"bike_id":"ba780a04-43a9-4b54-8ddb-b462f1efc1b4","system_id":"levelo_inurba_marseille","lat":43.3248,"lon":5.36567,"is_reserved":false,"is_disabled":false,"rental_uris":{"android":"levelo://app?vid=ba780a04-43a9-4b54-8ddb-b462f1efc1b4","ios":"levelo://app?vid=ba780a04-43a9-4b54-8ddb-b462f1efc1b4"},"vehicle_type_id":"4","last_reported":1701792566,"current_range_meters":21200,"station_id":"ce4bhs12rcd13ifvqhvg","pricing_plan_id":"free"},{"bike_id":"349dfaee-3ed5-42be-8292-0ab2ba4552e5","system_id":"levelo_inurba_marseille","lat":43.324804,"lon":5.365651,"is_reserved":false,"is_disabled":false,"rental_uris":{"android":"levelo://app?vid=349dfaee-3ed5-42be-8292-0ab2ba4552e5","ios":"levelo://app?vid=349dfaee-3ed5-42be-8292-0ab2ba4552e5"},"vehicle_type_id":"4","last_reported":1701792566,"current_range_meters":27200,"station_id":"ce4bhs12rcd13ifvqhvg","pricing_plan_id":"free"},{"bike_id":"41280701-a143-4e50-93ef-fa297df3585f","system_id":"levelo_inurba_marseille","lat":43.324771,"lon":5.36557,"is_reserved":false,"is_disabled":false,"rental_uris":{"android":"levelo://app?vid=41280701-a143-4e50-93ef-fa297df3585f","ios":"levelo://app?vid=41280701-a143-4e50-93ef-fa297df3585f"},"vehicle_type_id":"4","last_reported":1701792566,"current_range_meters":25200,"station_id":"ce4bhs12rcd13ifvqhvg","pricing_plan_id":"free"},{"bike_id":"b3aa95d3-2946-4d4d-8c7e-5852ed8ef34d","system_id":"levelo_inurba_marseille","lat":43.313571,"lon":5.384829,"is_reserved":false,"is_disabled":false,"rental_uris":{"android":"levelo://app?vid=b3aa95d3-2946-4d4d-8c7e-5852ed8ef34d","ios":"levelo://app?vid=b3aa95d3-2946-4d4d-8c7e-5852ed8ef34d"},"vehicle_type_id":"4","last_reported":1701792566,"current_range_meters":5200,"station_id":"ce4bgt92rcd13ifvqcf0","pricing_plan_id":"free"},{"bike_id":"fe9aba23-218a-412c-946e-a1dfc543a85b","system_id":"levelo_inurba_marseille","lat":43.313571,"lon":5.384829,"is_reserved":false,"is_disabled":false,"rental_uris":{"android":"levelo://app?vid=fe9aba23-218a-412c-946e-a1dfc543a85b","ios":"levelo://app?vid=fe9aba23-218a-412c-946e-a1dfc543a85b"},"vehicle_type_id":"4","last_reported":1701792566,"current_range_meters":6000,"station_id":"ce4bgt92rcd13ifvqcf0","pricing_plan_id":"free"},{"bike_id":"e1e7f669-4983-44ce-85f1-65a269f1e61a","system_id":"levelo_inurba_marseille","lat":43.31313,"lon":5.386216,"is_reserved":false,"is_disabled":false,"rental_uris":{"android":"levelo://app?vid=e1e7f669-4983-44ce-85f1-65a269f1e61a","ios":"levelo://app?vid=e1e7f669-4983-44ce-85f1-65a269f1e61a"},"vehicle_type_id":"4","last_reported":1701792566,"current_range_meters":10800,"station_id":"","pricing_plan_id":"free"},{"bike_id":"60676762-61d3-4fc5-a49a-88fb3bc36e79","system_id":"levelo_inurba_marseille","lat":43.31185,"lon":5.38715,"is_reserved":false,"is_disabled":false,"rental_uris":{"android":"levelo://app?vid=60676762-61d3-4fc5-a49a-88fb3bc36e79","ios":"levelo://app?vid=60676762-61d3-4fc5-a49a-88fb3bc36e79"},"vehicle_type_id":"4","last_reported":1701792566,"current_range_meters":0,"station_id":"ce4bgv12rcd13ifvqcp0","pricing_plan_id":"free"},{"bike_id":"9c64a42c-e617-4bb4-8071-1e3272046968","system_id":"levelo_inurba_marseille","lat":43.299243,"lon":5.374807,"is_reserved":false,"is_disabled":false,"rental_uris":{"android":"levelo://app?vid=9c64a42c-e617-4bb4-8071-1e3272046968","ios":"levelo://app?vid=9c64a42c-e617-4bb4-8071-1e3272046968"},"vehicle_type_id":"4","last_reported":1701792566,"current_range_meters":23600,"station_id":"ce4bgjh2rcd13ifvqbg0","pricing_plan_id":"free"},{"bike_id":"2006c1d6-e277-4b34-a33f-bb39d03c29ff","system_id":"levelo_inurba_marseille","lat":43.322872,"lon":5.382756,"is_reserved":false,"is_disabled":false,"rental_uris":{"android":"levelo://app?vid=2006c1d6-e277-4b34-a33f-bb39d03c29ff","ios":"levelo://app?vid=2006c1d6-e277-4b34-a33f-bb39d03c29ff"},"vehicle_type_id":"4","last_reported":1701792566,"current_range_meters":26400,"station_id":"ce4bhr12rcd13ifvqhqg","pricing_plan_id":"free"},{"bike_id":"b4879a0b-f87c-476b-ba9f-57011b8686d8","system_id":"levelo_inurba_marseille","lat":43.298218,"lon":5.374416,"is_reserved":false,"is_disabled":false,"rental_uris":{"android":"levelo://app?vid=b4879a0b-f87c-476b-ba9f-57011b8686d8","ios":"levelo://app?vid=b4879a0b-f87c-476b-ba9f-57011b8686d8"},"vehicle_type_id":"4","last_reported":1701792566,"current_range_meters":17200,"station_id":"","pricing_plan_id":"free"},{"bike_id":"6a41ee57-af9c-45d7-8644-9fc12521e24e","system_id":"levelo_inurba_marseille","lat":43.296131,"lon":5.370791,"is_reserved":false,"is_disabled":false,"rental_uris":{"android":"levelo://app?vid=6a41ee57-af9c-45d7-8644-9fc12521e24e","ios":"levelo://app?vid=6a41ee57-af9c-45d7-8644-9fc12521e24e"},"vehicle_type_id":"4","last_reported":1701792566,"current_range_meters":19200,"station_id":"ce4bgnh2rcd13ifvqc0g","pricing_plan_id":"free"},{"bike_id":"eaa0e7e7-2390-47fa-909b-7b240952cbef","system_id":"levelo_inurba_marseille","lat":43.316538,"lon":5.38954,"is_reserved":false,"is_disabled":false,"rental_uris":{"android":"levelo://app?vid=eaa0e7e7-2390-47fa-909b-7b240952cbef","ios":"levelo://app?vid=eaa0e7e7-2390-47fa-909b-7b240952cbef"},"vehicle_type_id":"4","last_reported":1701792566,"current_range_meters":12800,"station_id":"","pricing_plan_id":"free"},{"bike_id":"cd519ce3-d5c0-4d01-900d-c88b9f6801ab","system_id":"levelo_inurba_marseille","lat":43.29573,"lon":5.367355,"is_reserved":false,"is_disabled":false,"rental_uris":{"android":"levelo://app?vid=cd519ce3-d5c0-4d01-900d-c88b9f6801ab","ios":"levelo://app?vid=cd519ce3-d5c0-4d01-900d-c88b9f6801ab"},"vehicle_type_id":"4","last_reported":1701792566,"current_range_meters":8400,"station_id":"ce4bgph2rcd13ifvqc2g","pricing_plan_id":"free"},{"bike_id":"aaa3d775-055c-4d9f-bd7a-d6d8a4b1a98a","system_id":"levelo_inurba_marseille","lat":43.296935,"lon":5.376544,"is_reserved":false,"is_disabled":false,"rental_uris":{"android":"levelo://app?vid=aaa3d775-055c-4d9f-bd7a-d6d8a4b1a98a","ios":"levelo://app?vid=aaa3d775-055c-4d9f-bd7a-d6d8a4b1a98a"},"vehicle_type_id":"4","last_reported":1701792566,"current_range_meters":26400,"station_id":"ce4bgkh2rcd13ifvqbl0","pricing_plan_id":"free"},{"bike_id":"fd6ea4fc-f32c-4d32-bb36-6e791228db79","system_id":"levelo_inurba_marseille","lat":43.299028,"lon":5.381509,"is_reserved":false,"is_disabled":false,"rental_uris":{"android":"levelo://app?vid=fd6ea4fc-f32c-4d32-bb36-6e791228db79","ios":"levelo://app?vid=fd6ea4fc-f32c-4d32-bb36-6e791228db79"},"vehicle_type_id":"4","last_reported":1701792566,"current_range_meters":23600,"station_id":"ce4bgj12rcd13ifvqbc0","pricing_plan_id":"free"},{"bike_id":"7cf04859-1108-4a6a-a7e2-c821119149ab","system_id":"levelo_inurba_marseille","lat":43.296921,"lon":5.376579,"is_reserved":false,"is_disabled":false,"rental_uris":{"android":"levelo://app?vid=7cf04859-1108-4a6a-a7e2-c821119149ab","ios":"levelo://app?vid=7cf04859-1108-4a6a-a7e2-c821119149ab"},"vehicle_type_id":"4","last_reported":1701792566,"current_range_meters":18000,"station_id":"ce4bgkh2rcd13ifvqbl0","pricing_plan_id":"free"},{"bike_id":"a25ac7a7-3602-44e4-a5b6-f60dddfc501b","system_id":"levelo_inurba_marseille","lat":43.3095,"lon":5.3903,"is_reserved":false,"is_disabled":false,"rental_uris":{"android":"levelo://app?vid=a25ac7a7-3602-44e4-a5b6-f60dddfc501b","ios":"levelo://app?vid=a25ac7a7-3602-44e4-a5b6-f60dddfc501b"},"vehicle_type_id":"4","last_reported":1701792566,"current_range_meters":0,"station_id":"ce4bgup2rcd13ifvqco0","pricing_plan_id":"free"},{"bike_id":"dff1f67d-ae34-40ec-a9b6-e0ebc59f8360","system_id":"levelo_inurba_marseille","lat":43.296935,"lon":5.376544,"is_reserved":false,"is_disabled":false,"rental_uris":{"android":"levelo://app?vid=dff1f67d-ae34-40ec-a9b6-e0ebc59f8360","ios":"levelo://app?vid=dff1f67d-ae34-40ec-a9b6-e0ebc59f8360"},"vehicle_type_id":"4","last_reported":1701792566,"current_range_meters":18000,"station_id":"ce4bgkh2rcd13ifvqbl0","pricing_plan_id":"free"},{"bike_id":"5ce0fdc4-6fbc-46f0-be9f-e42d52006507","system_id":"levelo_inurba_marseille","lat":43.299028,"lon":5.381509,"is_reserved":false,"is_disabled":false,"rental_uris":{"android":"levelo://app?vid=5ce0fdc4-6fbc-46f0-be9f-e42d52006507","ios":"levelo://app?vid=5ce0fdc4-6fbc-46f0-be9f-e42d52006507"},"vehicle_type_id":"4","last_reported":1701792566,"current_range_meters":28800,"station_id":"ce4bgj12rcd13ifvqbc0","pricing_plan_id":"free"},{"bike_id":"142e7d99-d905-4155-8ace-ef64c4694d2c","system_id":"levelo_inurba_marseille","lat":43.317557,"lon":5.390173,"is_reserved":false,"is_disabled":false,"rental_uris":{"android":"levelo://app?vid=142e7d99-d905-4155-8ace-ef64c4694d2c","ios":"levelo://app?vid=142e7d99-d905-4155-8ace-ef64c4694d2c"},"vehicle_type_id":"4","last_reported":1701792566,"current_range_meters":23200,"station_id":"ce4bhqp2rcd13ifvqhng","pricing_plan_id":"free"},{"bike_id":"520c8717-569f-4e4a-9011-ac832b6d9613","system_id":"levelo_inurba_marseille","lat":43.317557,"lon":5.390173,"is_reserved":false,"is_disabled":false,"rental_uris":{"android":"levelo://app?vid=520c8717-569f-4e4a-9011-ac832b6d9613","ios":"levelo://app?vid=520c8717-569f-4e4a-9011-ac832b6d9613"},"vehicle_type_id":"4","last_reported":1701792566,"current_range_meters":29200,"station_id":"ce4bhqp2rcd13ifvqhng","pricing_plan_id":"free"},{"bike_id":"390ce454-35de-4c2a-bf9c-0ba60f1ce790","system_id":"levelo_inurba_marseille","lat":43.317557,"lon":5.390173,"is_reserved":false,"is_disabled":false,"rental_uris":{"android":"levelo://app?vid=390ce454-35de-4c2a-bf9c-0ba60f1ce790","ios":"levelo://app?vid=390ce454-35de-4c2a-bf9c-0ba60f1ce790"},"vehicle_type_id":"4","last_reported":1701792566,"current_range_meters":30400,"station_id":"ce4bhqp2rcd13ifvqhng","pricing_plan_id":"free"},{"bike_id":"a158b88e-1834-4968-aafa-affd72df3705","system_id":"levelo_inurba_marseille","lat":43.304274,"lon":5.388873,"is_reserved":false,"is_disabled":false,"rental_uris":{"android":"levelo://app?vid=a158b88e-1834-4968-aafa-affd72df3705","ios":"levelo://app?vid=a158b88e-1834-4968-aafa-affd72df3705"},"vehicle_type_id":"4","last_reported":1701792566,"current_range_meters":20400,"station_id":"ce4bgk12rcd13ifvqbi0","pricing_plan_id":"free"},{"bike_id":"dab0e6c0-7ba7-487f-b707-5c0b89d64e4d","system_id":"levelo_inurba_marseille","lat":43.304278,"lon":5.388868,"is_reserved":false,"is_disabled":false,"rental_uris":{"android":"levelo://app?vid=dab0e6c0-7ba7-487f-b707-5c0b89d64e4d","ios":"levelo://app?vid=dab0e6c0-7ba7-487f-b707-5c0b89d64e4d"},"vehicle_type_id":"4","last_reported":1701792566,"current_range_meters":11200,"station_id":"ce4bgk12rcd13ifvqbi0","pricing_plan_id":"free"},{"bike_id":"1d397156-b746-4e84-ac30-69ef136f26f9","system_id":"levelo_inurba_marseille","lat":43.29538,"lon":5.37506,"is_reserved":false,"is_disabled":false,"rental_uris":{"android":"levelo://app?vid=1d397156-b746-4e84-ac30-69ef136f26f9","ios":"levelo://app?vid=1d397156-b746-4e84-ac30-69ef136f26f9"},"vehicle_type_id":"4","last_reported":1701792566,"current_range_meters":0,"station_id":"ce4bgkp2rcd13ifvqbmg","pricing_plan_id":"free"},{"bike_id":"5eb7ef3e-c4b9-438b-bc30-d932cca903a5","system_id":"levelo_inurba_marseille","lat":43.299707,"lon":5.384859,"is_reserved":false,"is_disabled":false,"rental_uris":{"android":"levelo://app?vid=5eb7ef3e-c4b9-438b-bc30-d932cca903a5","ios":"levelo://app?vid=5eb7ef3e-c4b9-438b-bc30-d932cca903a5"},"vehicle_type_id":"4","last_reported":1701792566,"current_range_meters":18400,"station_id":"ce4bgj92rcd13ifvqbd0","pricing_plan_id":"free"},{"bike_id":"aab26396-8c12-4df4-8df5-786fd94c9394","system_id":"levelo_inurba_marseille","lat":43.299717,"lon":5.384845,"is_reserved":false,"is_disabled":false,"rental_uris":{"android":"levelo://app?vid=aab26396-8c12-4df4-8df5-786fd94c9394","ios":"levelo://app?vid=aab26396-8c12-4df4-8df5-786fd94c9394"},"vehicle_type_id":"4","last_reported":1701792566,"current_range_meters":2400,"station_id":"ce4bgj92rcd13ifvqbd0","pricing_plan_id":"free"},{"bike_id":"e1666863-ea23-48e9-b4ba-37c50ff8a1fc","system_id":"levelo_inurba_marseille","lat":43.323623,"lon":5.388837,"is_reserved":false,"is_disabled":false,"rental_uris":{"android":"levelo://app?vid=e1666863-ea23-48e9-b4ba-37c50ff8a1fc","ios":"levelo://app?vid=e1666863-ea23-48e9-b4ba-37c50ff8a1fc"},"vehicle_type_id":"4","last_reported":1701792566,"current_range_meters":18400,"station_id":"ce4bhqp2rcd13ifvqhog","pricing_plan_id":"free"},{"bike_id":"d8b7cc9a-80d9-43c4-80c9-b3830f5e1578","system_id":"levelo_inurba_marseille","lat":43.32367,"lon":5.388836,"is_reserved":false,"is_disabled":false,"rental_uris":{"android":"levelo://app?vid=d8b7cc9a-80d9-43c4-80c9-b3830f5e1578","ios":"levelo://app?vid=d8b7cc9a-80d9-43c4-80c9-b3830f5e1578"},"vehicle_type_id":"4","last_reported":1701792566,"current_range_meters":19200,"station_id":"ce4bhqp2rcd13ifvqhog","pricing_plan_id":"free"},{"bike_id":"c3643ac2-cdd1-4bd1-99e6-62e33012d634","system_id":"levelo_inurba_marseille","lat":43.32365,"lon":5.38888,"is_reserved":false,"is_disabled":false,"rental_uris":{"android":"levelo://app?vid=c3643ac2-cdd1-4bd1-99e6-62e33012d634","ios":"levelo://app?vid=c3643ac2-cdd1-4bd1-99e6-62e33012d634"},"vehicle_type_id":"4","last_reported":1701792566,"current_range_meters":12000,"station_id":"ce4bhqp2rcd13ifvqhog","pricing_plan_id":"free"},{"bike_id":"21a18137-f413-4d16-87eb-235cceef4146","system_id":"levelo_inurba_marseille","lat":43.2936,"lon":5.37835,"is_reserved":false,"is_disabled":false,"rental_uris":{"android":"levelo://app?vid=21a18137-f413-4d16-87eb-235cceef4146","ios":"levelo://app?vid=21a18137-f413-4d16-87eb-235cceef4146"},"vehicle_type_id":"4","last_reported":1701792566,"current_range_meters":27200,"station_id":"ce4bgjh2rcd13ifvqbf0","pricing_plan_id":"free"},{"bike_id":"6f1b04db-7b0a-4d58-8148-d4acd4cc0add","system_id":"levelo_inurba_marseille","lat":43.292663,"lon":5.376394,"is_reserved":false,"is_disabled":false,"rental_uris":{"android":"levelo://app?vid=6f1b04db-7b0a-4d58-8148-d4acd4cc0add","ios":"levelo://app?vid=6f1b04db-7b0a-4d58-8148-d4acd4cc0add"},"vehicle_type_id":"4","last_reported":1701792566,"current_range_meters":16000,"station_id":"ce4bgi12rcd13ifvqb80","pricing_plan_id":"free"},{"bike_id":"ecab9d6a-470d-4ecb-8bcd-3b9da9e16303","system_id":"levelo_inurba_marseille","lat":43.31324,"lon":5.39689,"is_reserved":false,"is_disabled":false,"rental_uris":{"android":"levelo://app?vid=ecab9d6a-470d-4ecb-8bcd-3b9da9e16303","ios":"levelo://app?vid=ecab9d6a-470d-4ecb-8bcd-3b9da9e16303"},"vehicle_type_id":"4","last_reported":1701792566,"current_range_meters":18400,"station_id":"ce4bgvp2rcd13ifvqcu0","pricing_plan_id":"free"},{"bike_id":"a45ece72-d96f-460b-a204-cfb2f09dc7c3","system_id":"levelo_inurba_marseille","lat":43.31334,"lon":5.39702,"is_reserved":false,"is_disabled":false,"rental_uris":{"android":"levelo://app?vid=a45ece72-d96f-460b-a204-cfb2f09dc7c3","ios":"levelo://app?vid=a45ece72-d96f-460b-a204-cfb2f09dc7c3"},"vehicle_type_id":"4","last_reported":1701792566,"current_range_meters":3600,"station_id":"ce4bgvp2rcd13ifvqcu0","pricing_plan_id":"free"},{"bike_id":"848bbca4-63a7-46ab-b7d8-5e27aeb4b489","system_id":"levelo_inurba_marseille","lat":43.29529,"lon":5.385581,"is_reserved":false,"is_disabled":false,"rental_uris":{"android":"levelo://app?vid=848bbca4-63a7-46ab-b7d8-5e27aeb4b489","ios":"levelo://app?vid=848bbca4-63a7-46ab-b7d8-5e27aeb4b489"},"vehicle_type_id":"4","last_reported":1701792566,"current_range_meters":7200,"station_id":"ce4bgih2rcd13ifvqba0","pricing_plan_id":"free"},{"bike_id":"a553c38a-6bcd-4eb6-ac6d-8552c90c179f","system_id":"levelo_inurba_marseille","lat":43.294153,"lon":5.386305,"is_reserved":false,"is_disabled":false,"rental_uris":{"android":"levelo://app?vid=a553c38a-6bcd-4eb6-ac6d-8552c90c179f","ios":"levelo://app?vid=a553c38a-6bcd-4eb6-ac6d-8552c90c179f"},"vehicle_type_id":"4","last_reported":1701792566,"current_range_meters":16000,"station_id":"ce4bh2h2rcd13ifvqdh0","pricing_plan_id":"free"},{"bike_id":"3ed78a9e-1d22-46b9-977a-44f38d66a860","system_id":"levelo_inurba_marseille","lat":43.330442,"lon":5.389148,"is_reserved":false,"is_disabled":false,"rental_uris":{"android":"levelo://app?vid=3ed78a9e-1d22-46b9-977a-44f38d66a860","ios":"levelo://app?vid=3ed78a9e-1d22-46b9-977a-44f38d66a860"},"vehicle_type_id":"4","last_reported":1701792566,"current_range_meters":21600,"station_id":"ce4bhr92rcd13ifvqhrg","pricing_plan_id":"free"},{"bike_id":"f68e2c8b-de08-4ad7-b342-74483183b5be","system_id":"levelo_inurba_marseille","lat":43.33049,"lon":5.38909,"is_reserved":false,"is_disabled":false,"rental_uris":{"android":"levelo://app?vid=f68e2c8b-de08-4ad7-b342-74483183b5be","ios":"levelo://app?vid=f68e2c8b-de08-4ad7-b342-74483183b5be"},"vehicle_type_id":"4","last_reported":1701792566,"current_range_meters":30400,"station_id":"ce4bhr92rcd13ifvqhrg","pricing_plan_id":"free"},{"bike_id":"149a3631-bbff-4914-9cb2-c469bc387eb1","system_id":"levelo_inurba_marseille","lat":43.290995,"lon":5.381361,"is_reserved":false,"is_disabled":false,"rental_uris":{"android":"levelo://app?vid=149a3631-bbff-4914-9cb2-c469bc387eb1","ios":"levelo://app?vid=149a3631-bbff-4914-9cb2-c469bc387eb1"},"vehicle_type_id":"4","last_reported":1701792566,"current_range_meters":6000,"station_id":"ce4bh512rcd13ifvqe2g","pricing_plan_id":"free"},{"bike_id":"f2278855-1ad0-4f35-8726-8c17edaf6d31","system_id":"levelo_inurba_marseille","lat":43.29524,"lon":5.39038,"is_reserved":false,"is_disabled":false,"rental_uris":{"android":"levelo://app?vid=f2278855-1ad0-4f35-8726-8c17edaf6d31","ios":"levelo://app?vid=f2278855-1ad0-4f35-8726-8c17edaf6d31"},"vehicle_type_id":"4","last_reported":1701792566,"current_range_meters":5600,"station_id":"","pricing_plan_id":"free"},{"bike_id":"3e2cf654-b8e3-48c7-82d2-299c998330b5","system_id":"levelo_inurba_marseille","lat":43.2901,"lon":5.381269,"is_reserved":false,"is_disabled":false,"rental_uris":{"android":"levelo://app?vid=3e2cf654-b8e3-48c7-82d2-299c998330b5","ios":"levelo://app?vid=3e2cf654-b8e3-48c7-82d2-299c998330b5"},"vehicle_type_id":"4","last_reported":1701792566,"current_range_meters":24400,"station_id":"ce4bh4p2rcd13ifvqe1g","pricing_plan_id":"free"},{"bike_id":"254f7d78-f0a8-47ba-8830-bc64356cff63","system_id":"levelo_inurba_marseille","lat":43.28856,"lon":5.358371,"is_reserved":false,"is_disabled":false,"rental_uris":{"android":"levelo://app?vid=254f7d78-f0a8-47ba-8830-bc64356cff63","ios":"levelo://app?vid=254f7d78-f0a8-47ba-8830-bc64356cff63"},"vehicle_type_id":"4","last_reported":1701792566,"current_range_meters":31200,"station_id":"ce4bhb12rcd13ifvqem0","pricing_plan_id":"free"},{"bike_id":"61e94894-252e-4e6e-9735-b09eceabfad5","system_id":"levelo_inurba_marseille","lat":43.337478,"lon":5.374756,"is_reserved":false,"is_disabled":false,"rental_uris":{"android":"levelo://app?vid=61e94894-252e-4e6e-9735-b09eceabfad5","ios":"levelo://app?vid=61e94894-252e-4e6e-9735-b09eceabfad5"},"vehicle_type_id":"4","last_reported":1701792566,"current_range_meters":29200,"station_id":"","pricing_plan_id":"free"},{"bike_id":"b1da507f-59bc-4bfa-9de7-dd18b0d37739","system_id":"levelo_inurba_marseille","lat":43.337532,"lon":5.374606,"is_reserved":false,"is_disabled":false,"rental_uris":{"android":"levelo://app?vid=b1da507f-59bc-4bfa-9de7-dd18b0d37739","ios":"levelo://app?vid=b1da507f-59bc-4bfa-9de7-dd18b0d37739"},"vehicle_type_id":"4","last_reported":1701792566,"current_range_meters":30800,"station_id":"","pricing_plan_id":"free"},{"bike_id":"2c0bfd2f-173a-4baf-b2df-0133adbb7ed0","system_id":"levelo_inurba_marseille","lat":43.337577,"lon":5.374555,"is_reserved":false,"is_disabled":false,"rental_uris":{"android":"levelo://app?vid=2c0bfd2f-173a-4baf-b2df-0133adbb7ed0","ios":"levelo://app?vid=2c0bfd2f-173a-4baf-b2df-0133adbb7ed0"},"vehicle_type_id":"4","last_reported":1701792566,"current_range_meters":28800,"station_id":"","pricing_plan_id":"free"},{"bike_id":"1a81b7ea-a8c7-4772-9510-53ab2b1cbdac","system_id":"levelo_inurba_marseille","lat":43.33764,"lon":5.37457,"is_reserved":false,"is_disabled":false,"rental_uris":{"android":"levelo://app?vid=1a81b7ea-a8c7-4772-9510-53ab2b1cbdac","ios":"levelo://app?vid=1a81b7ea-a8c7-4772-9510-53ab2b1cbdac"},"vehicle_type_id":"4","last_reported":1701792566,"current_range_meters":29200,"station_id":"","pricing_plan_id":"free"},{"bike_id":"2fbea006-0d22-445c-bfc1-d379dcddc1c1","system_id":"levelo_inurba_marseille","lat":43.33762,"lon":5.37481,"is_reserved":false,"is_disabled":false,"rental_uris":{"android":"levelo://app?vid=2fbea006-0d22-445c-bfc1-d379dcddc1c1","ios":"levelo://app?vid=2fbea006-0d22-445c-bfc1-d379dcddc1c1"},"vehicle_type_id":"4","last_reported":1701792566,"current_range_meters":28400,"station_id":"","pricing_plan_id":"free"},{"bike_id":"aecec5f1-f6c0-43a8-b8c2-75e67ea92633","system_id":"levelo_inurba_marseille","lat":43.33773,"lon":5.37447,"is_reserved":false,"is_disabled":false,"rental_uris":{"android":"levelo://app?vid=aecec5f1-f6c0-43a8-b8c2-75e67ea92633","ios":"levelo://app?vid=aecec5f1-f6c0-43a8-b8c2-75e67ea92633"},"vehicle_type_id":"4","last_reported":1701792566,"current_range_meters":29200,"station_id":"","pricing_plan_id":"free"},{"bike_id":"d2548d98-5f95-4041-88ae-e6e2d2f6c510","system_id":"levelo_inurba_marseille","lat":43.28727,"lon":5.36078,"is_reserved":false,"is_disabled":false,"rental_uris":{"android":"levelo://app?vid=d2548d98-5f95-4041-88ae-e6e2d2f6c510","ios":"levelo://app?vid=d2548d98-5f95-4041-88ae-e6e2d2f6c510"},"vehicle_type_id":"4","last_reported":1701792566,"current_range_meters":26000,"station_id":"cki0cbj6b192h4jlfktg","pricing_plan_id":"free"},{"bike_id":"e36052e2-ecb3-4713-a11f-30f2f2a5d7e3","system_id":"levelo_inurba_marseille","lat":43.28727,"lon":5.36078,"is_reserved":false,"is_disabled":false,"rental_uris":{"android":"levelo://app?vid=e36052e2-ecb3-4713-a11f-30f2f2a5d7e3","ios":"levelo://app?vid=e36052e2-ecb3-4713-a11f-30f2f2a5d7e3"},"vehicle_type_id":"4","last_reported":1701792566,"current_range_meters":27600,"station_id":"cki0cbj6b192h4jlfktg","pricing_plan_id":"free"},{"bike_id":"327f071a-3258-4852-becf-fb22d34b8170","system_id":"levelo_inurba_marseille","lat":43.28727,"lon":5.36078,"is_reserved":false,"is_disabled":false,"rental_uris":{"android":"levelo://app?vid=327f071a-3258-4852-becf-fb22d34b8170","ios":"levelo://app?vid=327f071a-3258-4852-becf-fb22d34b8170"},"vehicle_type_id":"4","last_reported":1701792566,"current_range_meters":18400,"station_id":"cki0cbj6b192h4jlfktg","pricing_plan_id":"free"},{"bike_id":"92470890-ea08-4d52-a174-fbecef5d4a21","system_id":"levelo_inurba_marseille","lat":43.298681,"lon":5.397225,"is_reserved":false,"is_disabled":false,"rental_uris":{"android":"levelo://app?vid=92470890-ea08-4d52-a174-fbecef5d4a21","ios":"levelo://app?vid=92470890-ea08-4d52-a174-fbecef5d4a21"},"vehicle_type_id":"4","last_reported":1701792566,"current_range_meters":14400,"station_id":"ce4bh0h2rcd13ifvqd50","pricing_plan_id":"free"},{"bike_id":"fc69761b-3146-4927-b68c-a6e9f0216f52","system_id":"levelo_inurba_marseille","lat":43.295196,"lon":5.39397,"is_reserved":false,"is_disabled":false,"rental_uris":{"android":"levelo://app?vid=fc69761b-3146-4927-b68c-a6e9f0216f52","ios":"levelo://app?vid=fc69761b-3146-4927-b68c-a6e9f0216f52"},"vehicle_type_id":"4","last_reported":1701792566,"current_range_meters":29200,"station_id":"ce4bh292rcd13ifvqdf0","pricing_plan_id":"free"},{"bike_id":"19192556-fb17-4be2-9398-6652ca852bf1","system_id":"levelo_inurba_marseille","lat":43.286593,"lon":5.363346,"is_reserved":false,"is_disabled":false,"rental_uris":{"android":"levelo://app?vid=19192556-fb17-4be2-9398-6652ca852bf1","ios":"levelo://app?vid=19192556-fb17-4be2-9398-6652ca852bf1"},"vehicle_type_id":"4","last_reported":1701792566,"current_range_meters":19200,"station_id":"ce4bhah2rcd13ifvqej0","pricing_plan_id":"free"},{"bike_id":"c8f8fa45-4011-43af-96b5-613d038b4a56","system_id":"levelo_inurba_marseille","lat":43.286593,"lon":5.363346,"is_reserved":false,"is_disabled":false,"rental_uris":{"android":"levelo://app?vid=c8f8fa45-4011-43af-96b5-613d038b4a56","ios":"levelo://app?vid=c8f8fa45-4011-43af-96b5-613d038b4a56"},"vehicle_type_id":"4","last_reported":1701792566,"current_range_meters":20800,"station_id":"ce4bhah2rcd13ifvqej0","pricing_plan_id":"free"},{"bike_id":"20525bb0-4dd9-4eaa-b591-beb9c69c5274","system_id":"levelo_inurba_marseille","lat":43.289307,"lon":5.38406,"is_reserved":false,"is_disabled":false,"rental_uris":{"android":"levelo://app?vid=20525bb0-4dd9-4eaa-b591-beb9c69c5274","ios":"levelo://app?vid=20525bb0-4dd9-4eaa-b591-beb9c69c5274"},"vehicle_type_id":"4","last_reported":1701792566,"current_range_meters":27600,"station_id":"ce4bh612rcd13ifvqe6g","pricing_plan_id":"free"},{"bike_id":"b5e119f3-b848-4600-a4a9-1b0383dfc4ac","system_id":"levelo_inurba_marseille","lat":43.302759,"lon":5.400793,"is_reserved":false,"is_disabled":false,"rental_uris":{"android":"levelo://app?vid=b5e119f3-b848-4600-a4a9-1b0383dfc4ac","ios":"levelo://app?vid=b5e119f3-b848-4600-a4a9-1b0383dfc4ac"},"vehicle_type_id":"4","last_reported":1701792566,"current_range_meters":29200,"station_id":"ce4bgvh2rcd13ifvqcs0","pricing_plan_id":"free"},{"bike_id":"47033245-d89a-4acd-a0b9-e092685a055d","system_id":"levelo_inurba_marseille","lat":43.302759,"lon":5.400793,"is_reserved":false,"is_disabled":false,"rental_uris":{"android":"levelo://app?vid=47033245-d89a-4acd-a0b9-e092685a055d","ios":"levelo://app?vid=47033245-d89a-4acd-a0b9-e092685a055d"},"vehicle_type_id":"4","last_reported":1701792566,"current_range_meters":16800,"station_id":"ce4bgvh2rcd13ifvqcs0","pricing_plan_id":"free"},{"bike_id":"a9806f5d-8874-414e-a5ba-6d21b3108d2c","system_id":"levelo_inurba_marseille","lat":43.286039,"lon":5.370679,"is_reserved":false,"is_disabled":false,"rental_uris":{"android":"levelo://app?vid=a9806f5d-8874-414e-a5ba-6d21b3108d2c","ios":"levelo://app?vid=a9806f5d-8874-414e-a5ba-6d21b3108d2c"},"vehicle_type_id":"4","last_reported":1701792566,"current_range_meters":31200,"station_id":"ce4bht12rcd13ifvqi60","pricing_plan_id":"free"},{"bike_id":"49219086-79cc-40d5-b8aa-446c99c1fe59","system_id":"levelo_inurba_marseille","lat":43.286039,"lon":5.370681,"is_reserved":false,"is_disabled":false,"rental_uris":{"android":"levelo://app?vid=49219086-79cc-40d5-b8aa-446c99c1fe59","ios":"levelo://app?vid=49219086-79cc-40d5-b8aa-446c99c1fe59"},"vehicle_type_id":"4","last_reported":1701792566,"current_range_meters":30000,"station_id":"ce4bht12rcd13ifvqi60","pricing_plan_id":"free"},{"bike_id":"64e52440-3dc2-4dd9-9912-b4cf179ebca6","system_id":"levelo_inurba_marseille","lat":43.287185,"lon":5.379373,"is_reserved":false,"is_disabled":false,"rental_uris":{"android":"levelo://app?vid=64e52440-3dc2-4dd9-9912-b4cf179ebca6","ios":"levelo://app?vid=64e52440-3dc2-4dd9-9912-b4cf179ebca6"},"vehicle_type_id":"4","last_reported":1701792566,"current_range_meters":15200,"station_id":"ce4bh9p2rcd13ifvqec0","pricing_plan_id":"free"},{"bike_id":"34e213c7-42ea-4b54-a859-a7e1c2077be6","system_id":"levelo_inurba_marseille","lat":43.28456,"lon":5.35898,"is_reserved":false,"is_disabled":false,"rental_uris":{"android":"levelo://app?vid=34e213c7-42ea-4b54-a859-a7e1c2077be6","ios":"levelo://app?vid=34e213c7-42ea-4b54-a859-a7e1c2077be6"},"vehicle_type_id":"4","last_reported":1701792566,"current_range_meters":31200,"station_id":"ce4bhah2rcd13ifvqei0","pricing_plan_id":"free"},{"bike_id":"dbae2543-3041-414b-9c07-f0b568bda31e","system_id":"levelo_inurba_marseille","lat":43.294314,"lon":5.397498,"is_reserved":false,"is_disabled":false,"rental_uris":{"android":"levelo://app?vid=dbae2543-3041-414b-9c07-f0b568bda31e","ios":"levelo://app?vid=dbae2543-3041-414b-9c07-f0b568bda31e"},"vehicle_type_id":"4","last_reported":1701792566,"current_range_meters":3600,"station_id":"ce4bh3h2rcd13ifvqdo0","pricing_plan_id":"free"},{"bike_id":"196b2a5f-14a8-4a44-91b1-eed21e34e508","system_id":"levelo_inurba_marseille","lat":43.2874,"lon":5.38898,"is_reserved":false,"is_disabled":false,"rental_uris":{"android":"levelo://app?vid=196b2a5f-14a8-4a44-91b1-eed21e34e508","ios":"levelo://app?vid=196b2a5f-14a8-4a44-91b1-eed21e34e508"},"vehicle_type_id":"4","last_reported":1701792566,"current_range_meters":0,"station_id":"","pricing_plan_id":"free"},{"bike_id":"950a5dc8-4fb3-4735-baf6-df73ef0b98de","system_id":"levelo_inurba_marseille","lat":43.3189,"lon":5.40746,"is_reserved":false,"is_disabled":false,"rental_uris":{"android":"levelo://app?vid=950a5dc8-4fb3-4735-baf6-df73ef0b98de","ios":"levelo://app?vid=950a5dc8-4fb3-4735-baf6-df73ef0b98de"},"vehicle_type_id":"4","last_reported":1701792566,"current_range_meters":0,"station_id":"ce4bhq12rcd13ifvqhig","pricing_plan_id":"free"},{"bike_id":"60840cc9-d447-4012-91c7-6c7820229ddd","system_id":"levelo_inurba_marseille","lat":43.33717,"lon":5.391857,"is_reserved":false,"is_disabled":false,"rental_uris":{"android":"levelo://app?vid=60840cc9-d447-4012-91c7-6c7820229ddd","ios":"levelo://app?vid=60840cc9-d447-4012-91c7-6c7820229ddd"},"vehicle_type_id":"4","last_reported":1701792566,"current_range_meters":28400,"station_id":"ce4bhr92rcd13ifvqhsg","pricing_plan_id":"free"},{"bike_id":"26a1eaaa-c052-4229-965d-422f6e872f39","system_id":"levelo_inurba_marseille","lat":43.337168,"lon":5.391825,"is_reserved":false,"is_disabled":false,"rental_uris":{"android":"levelo://app?vid=26a1eaaa-c052-4229-965d-422f6e872f39","ios":"levelo://app?vid=26a1eaaa-c052-4229-965d-422f6e872f39"},"vehicle_type_id":"4","last_reported":1701792566,"current_range_meters":29200,"station_id":"ce4bhr92rcd13ifvqhsg","pricing_plan_id":"free"},{"bike_id":"b6ed1d4f-caf0-4e0e-93dd-668d2c2b1a43","system_id":"levelo_inurba_marseille","lat":43.28482,"lon":5.38421,"is_reserved":false,"is_disabled":false,"rental_uris":{"android":"levelo://app?vid=b6ed1d4f-caf0-4e0e-93dd-668d2c2b1a43","ios":"levelo://app?vid=b6ed1d4f-caf0-4e0e-93dd-668d2c2b1a43"},"vehicle_type_id":"4","last_reported":1701792566,"current_range_meters":0,"station_id":"ce4bh512rcd13ifvqe3g","pricing_plan_id":"free"},{"bike_id":"4c5bd1ce-ad2a-459a-9f59-63e436918125","system_id":"levelo_inurba_marseille","lat":43.29804,"lon":5.40396,"is_reserved":false,"is_disabled":false,"rental_uris":{"android":"levelo://app?vid=4c5bd1ce-ad2a-459a-9f59-63e436918125","ios":"levelo://app?vid=4c5bd1ce-ad2a-459a-9f59-63e436918125"},"vehicle_type_id":"4","last_reported":1701792566,"current_range_meters":30000,"station_id":"ce4bh112rcd13ifvqd90","pricing_plan_id":"free"},{"bike_id":"563ba5dd-bab9-4b59-b720-ded1cbb4fff2","system_id":"levelo_inurba_marseille","lat":43.284793,"lon":5.384113,"is_reserved":false,"is_disabled":false,"rental_uris":{"android":"levelo://app?vid=563ba5dd-bab9-4b59-b720-ded1cbb4fff2","ios":"levelo://app?vid=563ba5dd-bab9-4b59-b720-ded1cbb4fff2"},"vehicle_type_id":"4","last_reported":1701792566,"current_range_meters":0,"station_id":"ce4bh512rcd13ifvqe3g","pricing_plan_id":"free"},{"bike_id":"68ff6edf-5b9f-4a63-b2fc-f39883ef8929","system_id":"levelo_inurba_marseille","lat":43.297946,"lon":5.404063,"is_reserved":false,"is_disabled":false,"rental_uris":{"android":"levelo://app?vid=68ff6edf-5b9f-4a63-b2fc-f39883ef8929","ios":"levelo://app?vid=68ff6edf-5b9f-4a63-b2fc-f39883ef8929"},"vehicle_type_id":"4","last_reported":1701792566,"current_range_meters":28800,"station_id":"ce4bh112rcd13ifvqd90","pricing_plan_id":"free"},{"bike_id":"eb9547f3-2918-4cec-9e86-e1ccff0993fd","system_id":"levelo_inurba_marseille","lat":43.29795,"lon":5.404086,"is_reserved":false,"is_disabled":false,"rental_uris":{"android":"levelo://app?vid=eb9547f3-2918-4cec-9e86-e1ccff0993fd","ios":"levelo://app?vid=eb9547f3-2918-4cec-9e86-e1ccff0993fd"},"vehicle_type_id":"4","last_reported":1701792566,"current_range_meters":28000,"station_id":"ce4bh112rcd13ifvqd90","pricing_plan_id":"free"},{"bike_id":"ba2cc9c5-64f8-47e0-88c5-115234c2b018","system_id":"levelo_inurba_marseille","lat":43.284219,"lon":5.3497,"is_reserved":false,"is_disabled":false,"rental_uris":{"android":"levelo://app?vid=ba2cc9c5-64f8-47e0-88c5-115234c2b018","ios":"levelo://app?vid=ba2cc9c5-64f8-47e0-88c5-115234c2b018"},"vehicle_type_id":"4","last_reported":1701792566,"current_range_meters":8400,"station_id":"ce4bhbh2rcd13ifvqepg","pricing_plan_id":"free"},{"bike_id":"4b9b8189-df1c-4345-b019-c50be20ce725","system_id":"levelo_inurba_marseille","lat":43.284217,"lon":5.349697,"is_reserved":false,"is_disabled":false,"rental_uris":{"android":"levelo://app?vid=4b9b8189-df1c-4345-b019-c50be20ce725","ios":"levelo://app?vid=4b9b8189-df1c-4345-b019-c50be20ce725"},"vehicle_type_id":"4","last_reported":1701792566,"current_range_meters":18800,"station_id":"ce4bhbh2rcd13ifvqepg","pricing_plan_id":"free"},{"bike_id":"b2cd2a68-fb3a-48c1-be50-0d9c3a621c43","system_id":"levelo_inurba_marseille","lat":43.282744,"lon":5.350533,"is_reserved":false,"is_disabled":false,"rental_uris":{"android":"levelo://app?vid=b2cd2a68-fb3a-48c1-be50-0d9c3a621c43","ios":"levelo://app?vid=b2cd2a68-fb3a-48c1-be50-0d9c3a621c43"},"vehicle_type_id":"4","last_reported":1701792566,"current_range_meters":0,"station_id":"ce4bhbp2rcd13ifvqerg","pricing_plan_id":"free"},{"bike_id":"cf3fd51f-cce2-44fd-969a-dd41fd7ffb03","system_id":"levelo_inurba_marseille","lat":43.280382,"lon":5.369291,"is_reserved":false,"is_disabled":false,"rental_uris":{"android":"levelo://app?vid=cf3fd51f-cce2-44fd-969a-dd41fd7ffb03","ios":"levelo://app?vid=cf3fd51f-cce2-44fd-969a-dd41fd7ffb03"},"vehicle_type_id":"4","last_reported":1701792566,"current_range_meters":27600,"station_id":"ce4bha12rcd13ifvqef0","pricing_plan_id":"free"},{"bike_id":"ab931ca0-474a-4ece-8e09-eda8b2125d04","system_id":"levelo_inurba_marseille","lat":43.29041,"lon":5.399634,"is_reserved":false,"is_disabled":false,"rental_uris":{"android":"levelo://app?vid=ab931ca0-474a-4ece-8e09-eda8b2125d04","ios":"levelo://app?vid=ab931ca0-474a-4ece-8e09-eda8b2125d04"},"vehicle_type_id":"4","last_reported":1701792566,"current_range_meters":9200,"station_id":"ce4bh392rcd13ifvqdm0","pricing_plan_id":"free"},{"bike_id":"43ecf3eb-77dc-44f3-9310-d993e474a337","system_id":"levelo_inurba_marseille","lat":43.281044,"lon":5.378308,"is_reserved":false,"is_disabled":false,"rental_uris":{"android":"levelo://app?vid=43ecf3eb-77dc-44f3-9310-d993e474a337","ios":"levelo://app?vid=43ecf3eb-77dc-44f3-9310-d993e474a337"},"vehicle_type_id":"4","last_reported":1701792566,"current_range_meters":18000,"station_id":"ce4bha12rcd13ifvqee0","pricing_plan_id":"free"},{"bike_id":"51d01287-344d-4e9e-88bf-08156329ee7d","system_id":"levelo_inurba_marseille","lat":43.284462,"lon":5.392121,"is_reserved":false,"is_disabled":false,"rental_uris":{"android":"levelo://app?vid=51d01287-344d-4e9e-88bf-08156329ee7d","ios":"levelo://app?vid=51d01287-344d-4e9e-88bf-08156329ee7d"},"vehicle_type_id":"4","last_reported":1701792566,"current_range_meters":21600,"station_id":"ce4bhoh2rcd13ifvqh5g","pricing_plan_id":"free"},{"bike_id":"2039eed6-1d0c-44fe-9940-0fd558c850cb","system_id":"levelo_inurba_marseille","lat":43.32657,"lon":5.40994,"is_reserved":false,"is_disabled":false,"rental_uris":{"android":"levelo://app?vid=2039eed6-1d0c-44fe-9940-0fd558c850cb","ios":"levelo://app?vid=2039eed6-1d0c-44fe-9940-0fd558c850cb"},"vehicle_type_id":"4","last_reported":1701792566,"current_range_meters":22400,"station_id":"ce4bhpp2rcd13ifvqhgg","pricing_plan_id":"free"},{"bike_id":"efb5fe83-e3e3-4add-8540-6e61e1a847bb","system_id":"levelo_inurba_marseille","lat":43.32662,"lon":5.40993,"is_reserved":false,"is_disabled":false,"rental_uris":{"android":"levelo://app?vid=efb5fe83-e3e3-4add-8540-6e61e1a847bb","ios":"levelo://app?vid=efb5fe83-e3e3-4add-8540-6e61e1a847bb"},"vehicle_type_id":"4","last_reported":1701792566,"current_range_meters":24000,"station_id":"ce4bhpp2rcd13ifvqhgg","pricing_plan_id":"free"},{"bike_id":"fc0f01ba-69ed-479b-9e65-f39483a15901","system_id":"levelo_inurba_marseille","lat":43.32658,"lon":5.40997,"is_reserved":false,"is_disabled":false,"rental_uris":{"android":"levelo://app?vid=fc0f01ba-69ed-479b-9e65-f39483a15901","ios":"levelo://app?vid=fc0f01ba-69ed-479b-9e65-f39483a15901"},"vehicle_type_id":"4","last_reported":1701792566,"current_range_meters":27600,"station_id":"ce4bhpp2rcd13ifvqhgg","pricing_plan_id":"free"},{"bike_id":"876d825d-f1ec-4536-a5f9-fcc306417330","system_id":"levelo_inurba_marseille","lat":43.3266,"lon":5.40997,"is_reserved":false,"is_disabled":false,"rental_uris":{"android":"levelo://app?vid=876d825d-f1ec-4536-a5f9-fcc306417330","ios":"levelo://app?vid=876d825d-f1ec-4536-a5f9-fcc306417330"},"vehicle_type_id":"4","last_reported":1701792566,"current_range_meters":21600,"station_id":"ce4bhpp2rcd13ifvqhgg","pricing_plan_id":"free"},{"bike_id":"6a2211dc-eda8-4685-a7c0-bc17e05dd889","system_id":"levelo_inurba_marseille","lat":43.304188,"lon":5.412904,"is_reserved":false,"is_disabled":false,"rental_uris":{"android":"levelo://app?vid=6a2211dc-eda8-4685-a7c0-bc17e05dd889","ios":"levelo://app?vid=6a2211dc-eda8-4685-a7c0-bc17e05dd889"},"vehicle_type_id":"4","last_reported":1701792566,"current_range_meters":20800,"station_id":"ce4bhop2rcd13ifvqh8g","pricing_plan_id":"free"},{"bike_id":"a0e66141-d66b-4faa-aa64-128b490af9a1","system_id":"levelo_inurba_marseille","lat":43.304188,"lon":5.412904,"is_reserved":false,"is_disabled":false,"rental_uris":{"android":"levelo://app?vid=a0e66141-d66b-4faa-aa64-128b490af9a1","ios":"levelo://app?vid=a0e66141-d66b-4faa-aa64-128b490af9a1"},"vehicle_type_id":"4","last_reported":1701792566,"current_range_meters":21600,"station_id":"ce4bhop2rcd13ifvqh8g","pricing_plan_id":"free"},{"bike_id":"da94d6f7-51af-479b-ad60-34a42e05ca68","system_id":"levelo_inurba_marseille","lat":43.279087,"lon":5.380114,"is_reserved":false,"is_disabled":false,"rental_uris":{"android":"levelo://app?vid=da94d6f7-51af-479b-ad60-34a42e05ca68","ios":"levelo://app?vid=da94d6f7-51af-479b-ad60-34a42e05ca68"},"vehicle_type_id":"4","last_reported":1701792566,"current_range_meters":17600,"station_id":"ce4bhf92rcd13ifvqf50","pricing_plan_id":"free"},{"bike_id":"8e60e3ab-48b7-4781-b0f2-66ef77e27bd5","system_id":"levelo_inurba_marseille","lat":43.287154,"lon":5.399979,"is_reserved":false,"is_disabled":false,"rental_uris":{"android":"levelo://app?vid=8e60e3ab-48b7-4781-b0f2-66ef77e27bd5","ios":"levelo://app?vid=8e60e3ab-48b7-4781-b0f2-66ef77e27bd5"},"vehicle_type_id":"4","last_reported":1701792566,"current_range_meters":15600,"station_id":"ce4bho92rcd13ifvqh3g","pricing_plan_id":"free"},{"bike_id":"f06a3698-9f5e-4ae6-b904-44d10a93c217","system_id":"levelo_inurba_marseille","lat":43.292569,"lon":5.409107,"is_reserved":false,"is_disabled":false,"rental_uris":{"android":"levelo://app?vid=f06a3698-9f5e-4ae6-b904-44d10a93c217","ios":"levelo://app?vid=f06a3698-9f5e-4ae6-b904-44d10a93c217"},"vehicle_type_id":"4","last_reported":1701792566,"current_range_meters":0,"station_id":"ce4bh192rcd13ifvqdc0","pricing_plan_id":"free"},{"bike_id":"a9cd9e83-64b9-48d3-98a3-1973bd0da06a","system_id":"levelo_inurba_marseille","lat":43.292569,"lon":5.409107,"is_reserved":false,"is_disabled":false,"rental_uris":{"android":"levelo://app?vid=a9cd9e83-64b9-48d3-98a3-1973bd0da06a","ios":"levelo://app?vid=a9cd9e83-64b9-48d3-98a3-1973bd0da06a"},"vehicle_type_id":"4","last_reported":1701792566,"current_range_meters":26800,"station_id":"ce4bh192rcd13ifvqdc0","pricing_plan_id":"free"},{"bike_id":"a401cde3-3173-4179-91a6-aa5fd687b456","system_id":"levelo_inurba_marseille","lat":43.292571,"lon":5.409107,"is_reserved":false,"is_disabled":false,"rental_uris":{"android":"levelo://app?vid=a401cde3-3173-4179-91a6-aa5fd687b456","ios":"levelo://app?vid=a401cde3-3173-4179-91a6-aa5fd687b456"},"vehicle_type_id":"4","last_reported":1701792566,"current_range_meters":13200,"station_id":"ce4bh192rcd13ifvqdc0","pricing_plan_id":"free"},{"bike_id":"f983f9f4-ab6c-4524-bba5-491a41c0a0b1","system_id":"levelo_inurba_marseille","lat":43.276179,"lon":5.361009,"is_reserved":false,"is_disabled":false,"rental_uris":{"android":"levelo://app?vid=f983f9f4-ab6c-4524-bba5-491a41c0a0b1","ios":"levelo://app?vid=f983f9f4-ab6c-4524-bba5-491a41c0a0b1"},"vehicle_type_id":"4","last_reported":1701792566,"current_range_meters":27200,"station_id":"ce4bgj92rcd13ifvqbe0","pricing_plan_id":"free"},{"bike_id":"61825c4f-f7da-497f-883a-baf0ef499de7","system_id":"levelo_inurba_marseille","lat":43.280784,"lon":5.396622,"is_reserved":false,"is_disabled":false,"rental_uris":{"android":"levelo://app?vid=61825c4f-f7da-497f-883a-baf0ef499de7","ios":"levelo://app?vid=61825c4f-f7da-497f-883a-baf0ef499de7"},"vehicle_type_id":"4","last_reported":1701792566,"current_range_meters":23600,"station_id":"ce4bho12rcd13ifvqh2g","pricing_plan_id":"free"},{"bike_id":"17db11e9-ff6b-4265-a772-9fca0f8a787a","system_id":"levelo_inurba_marseille","lat":43.28486,"lon":5.40411,"is_reserved":false,"is_disabled":false,"rental_uris":{"android":"levelo://app?vid=17db11e9-ff6b-4265-a772-9fca0f8a787a","ios":"levelo://app?vid=17db11e9-ff6b-4265-a772-9fca0f8a787a"},"vehicle_type_id":"4","last_reported":1701792566,"current_range_meters":1200,"station_id":"","pricing_plan_id":"free"},{"bike_id":"7fd8b7a8-86f1-4259-b667-80b77d6f9781","system_id":"levelo_inurba_marseille","lat":43.273609,"lon":5.362708,"is_reserved":false,"is_disabled":false,"rental_uris":{"android":"levelo://app?vid=7fd8b7a8-86f1-4259-b667-80b77d6f9781","ios":"levelo://app?vid=7fd8b7a8-86f1-4259-b667-80b77d6f9781"},"vehicle_type_id":"4","last_reported":1701792566,"current_range_meters":20400,"station_id":"ce4bhbh2rcd13ifvqeo0","pricing_plan_id":"free"},{"bike_id":"79c6395d-c7d2-4d25-b00f-4dea3ae1598f","system_id":"levelo_inurba_marseille","lat":43.275625,"lon":5.384392,"is_reserved":false,"is_disabled":false,"rental_uris":{"android":"levelo://app?vid=79c6395d-c7d2-4d25-b00f-4dea3ae1598f","ios":"levelo://app?vid=79c6395d-c7d2-4d25-b00f-4dea3ae1598f"},"vehicle_type_id":"4","last_reported":1701792566,"current_range_meters":8000,"station_id":"ce4bhh92rcd13ifvqfi0","pricing_plan_id":"free"},{"bike_id":"f019f092-89f7-4950-9b3b-380b37bb40a3","system_id":"levelo_inurba_marseille","lat":43.275477,"lon":5.38457,"is_reserved":false,"is_disabled":false,"rental_uris":{"android":"levelo://app?vid=f019f092-89f7-4950-9b3b-380b37bb40a3","ios":"levelo://app?vid=f019f092-89f7-4950-9b3b-380b37bb40a3"},"vehicle_type_id":"4","last_reported":1701792566,"current_range_meters":31200,"station_id":"ce4bhh92rcd13ifvqfi0","pricing_plan_id":"free"},{"bike_id":"47a5c018-4ecd-4294-8091-b9c459897afd","system_id":"levelo_inurba_marseille","lat":43.279087,"lon":5.380114,"is_reserved":false,"is_disabled":false,"rental_uris":{"android":"levelo://app?vid=47a5c018-4ecd-4294-8091-b9c459897afd","ios":"levelo://app?vid=47a5c018-4ecd-4294-8091-b9c459897afd"},"vehicle_type_id":"4","last_reported":1701792566,"current_range_meters":10000,"station_id":"ce4bhf92rcd13ifvqf50","pricing_plan_id":"free"},{"bike_id":"972ad8df-576c-4a6c-98b8-67136b54b8e0","system_id":"levelo_inurba_marseille","lat":43.279952,"lon":5.400085,"is_reserved":false,"is_disabled":false,"rental_uris":{"android":"levelo://app?vid=972ad8df-576c-4a6c-98b8-67136b54b8e0","ios":"levelo://app?vid=972ad8df-576c-4a6c-98b8-67136b54b8e0"},"vehicle_type_id":"4","last_reported":1701792566,"current_range_meters":0,"station_id":"ce4bho92rcd13ifvqh4g","pricing_plan_id":"free"},{"bike_id":"a9e9906d-1d07-4052-b1db-a806b8e7c813","system_id":"levelo_inurba_marseille","lat":43.279975,"lon":5.40009,"is_reserved":false,"is_disabled":false,"rental_uris":{"android":"levelo://app?vid=a9e9906d-1d07-4052-b1db-a806b8e7c813","ios":"levelo://app?vid=a9e9906d-1d07-4052-b1db-a806b8e7c813"},"vehicle_type_id":"4","last_reported":1701792566,"current_range_meters":20000,"station_id":"ce4bho92rcd13ifvqh4g","pricing_plan_id":"free"},{"bike_id":"4f3c361f-dc39-4eb2-8cb4-572b7625ae11","system_id":"levelo_inurba_marseille","lat":43.279952,"lon":5.400085,"is_reserved":false,"is_disabled":false,"rental_uris":{"android":"levelo://app?vid=4f3c361f-dc39-4eb2-8cb4-572b7625ae11","ios":"levelo://app?vid=4f3c361f-dc39-4eb2-8cb4-572b7625ae11"},"vehicle_type_id":"4","last_reported":1701792566,"current_range_meters":12400,"station_id":"ce4bho92rcd13ifvqh4g","pricing_plan_id":"free"},{"bike_id":"6f069aab-0dfd-4bb1-a7c7-dafdd20df186","system_id":"levelo_inurba_marseille","lat":43.279952,"lon":5.400085,"is_reserved":false,"is_disabled":false,"rental_uris":{"android":"levelo://app?vid=6f069aab-0dfd-4bb1-a7c7-dafdd20df186","ios":"levelo://app?vid=6f069aab-0dfd-4bb1-a7c7-dafdd20df186"},"vehicle_type_id":"4","last_reported":1701792566,"current_range_meters":30000,"station_id":"ce4bho92rcd13ifvqh4g","pricing_plan_id":"free"},{"bike_id":"910fd3aa-d2e0-4553-894a-6161d41c7fcd","system_id":"levelo_inurba_marseille","lat":43.275737,"lon":5.395387,"is_reserved":false,"is_disabled":false,"rental_uris":{"android":"levelo://app?vid=910fd3aa-d2e0-4553-894a-6161d41c7fcd","ios":"levelo://app?vid=910fd3aa-d2e0-4553-894a-6161d41c7fcd"},"vehicle_type_id":"4","last_reported":1701792566,"current_range_meters":5600,"station_id":"","pricing_plan_id":"free"},{"bike_id":"44b7e749-26e2-4b57-bc9c-9a6ffa54d913","system_id":"levelo_inurba_marseille","lat":43.295511,"lon":5.422926,"is_reserved":false,"is_disabled":false,"rental_uris":{"android":"levelo://app?vid=44b7e749-26e2-4b57-bc9c-9a6ffa54d913","ios":"levelo://app?vid=44b7e749-26e2-4b57-bc9c-9a6ffa54d913"},"vehicle_type_id":"4","last_reported":1701792566,"current_range_meters":24800,"station_id":"ce4bhph2rcd13ifvqhdg","pricing_plan_id":"free"},{"bike_id":"4aaafaa4-5992-4d41-aca4-45ea537c3e9e","system_id":"levelo_inurba_marseille","lat":43.27214,"lon":5.3925,"is_reserved":false,"is_disabled":false,"rental_uris":{"android":"levelo://app?vid=4aaafaa4-5992-4d41-aca4-45ea537c3e9e","ios":"levelo://app?vid=4aaafaa4-5992-4d41-aca4-45ea537c3e9e"},"vehicle_type_id":"4","last_reported":1701792566,"current_range_meters":16400,"station_id":"","pricing_plan_id":"free"},{"bike_id":"0adec9a2-e68b-4c27-96f9-9a9db54dc353","system_id":"levelo_inurba_marseille","lat":43.279563,"lon":5.410632,"is_reserved":false,"is_disabled":false,"rental_uris":{"android":"levelo://app?vid=0adec9a2-e68b-4c27-96f9-9a9db54dc353","ios":"levelo://app?vid=0adec9a2-e68b-4c27-96f9-9a9db54dc353"},"vehicle_type_id":"4","last_reported":1701792566,"current_range_meters":18000,"station_id":"ce4bhnp2rcd13ifvqh0g","pricing_plan_id":"free"},{"bike_id":"b9584388-69fa-445d-9961-743ad728ad88","system_id":"levelo_inurba_marseille","lat":43.265714,"lon":5.372891,"is_reserved":false,"is_disabled":false,"rental_uris":{"android":"levelo://app?vid=b9584388-69fa-445d-9961-743ad728ad88","ios":"levelo://app?vid=b9584388-69fa-445d-9961-743ad728ad88"},"vehicle_type_id":"4","last_reported":1701792566,"current_range_meters":21600,"station_id":"ce4bhg12rcd13ifvqf70","pricing_plan_id":"free"},{"bike_id":"8e50a2a3-63a6-454e-bfc7-0d30cf65c822","system_id":"levelo_inurba_marseille","lat":43.308051,"lon":5.43527,"is_reserved":false,"is_disabled":false,"rental_uris":{"android":"levelo://app?vid=8e50a2a3-63a6-454e-bfc7-0d30cf65c822","ios":"levelo://app?vid=8e50a2a3-63a6-454e-bfc7-0d30cf65c822"},"vehicle_type_id":"4","last_reported":1701792566,"current_range_meters":20000,"station_id":"ce4bhph2rcd13ifvqheg","pricing_plan_id":"free"},{"bike_id":"73955f39-45fa-4cda-b0bd-269daf062468","system_id":"levelo_inurba_marseille","lat":43.26572,"lon":5.39007,"is_reserved":false,"is_disabled":false,"rental_uris":{"android":"levelo://app?vid=73955f39-45fa-4cda-b0bd-269daf062468","ios":"levelo://app?vid=73955f39-45fa-4cda-b0bd-269daf062468"},"vehicle_type_id":"4","last_reported":1701792566,"current_range_meters":17200,"station_id":"ce4bhe12rcd13ifvqf30","pricing_plan_id":"free"},{"bike_id":"037482d9-5565-4803-b381-e11c7c214e7d","system_id":"levelo_inurba_marseille","lat":43.271368,"lon":5.40928,"is_reserved":false,"is_disabled":false,"rental_uris":{"android":"levelo://app?vid=037482d9-5565-4803-b381-e11c7c214e7d","ios":"levelo://app?vid=037482d9-5565-4803-b381-e11c7c214e7d"},"vehicle_type_id":"4","last_reported":1701792566,"current_range_meters":24400,"station_id":"ce4bhl12rcd13ifvqgf0","pricing_plan_id":"free"},{"bike_id":"c54cd023-a6f2-4d68-aabc-4be9f862ccbb","system_id":"levelo_inurba_marseille","lat":43.298768,"lon":5.43643,"is_reserved":false,"is_disabled":false,"rental_uris":{"android":"levelo://app?vid=c54cd023-a6f2-4d68-aabc-4be9f862ccbb","ios":"levelo://app?vid=c54cd023-a6f2-4d68-aabc-4be9f862ccbb"},"vehicle_type_id":"4","last_reported":1701792566,"current_range_meters":30000,"station_id":"ce4bhpp2rcd13ifvqhfg","pricing_plan_id":"free"},{"bike_id":"8be91fa6-a910-488a-b88d-a81ed6cf72cd","system_id":"levelo_inurba_marseille","lat":43.281548,"lon":5.42643,"is_reserved":false,"is_disabled":false,"rental_uris":{"android":"levelo://app?vid=8be91fa6-a910-488a-b88d-a81ed6cf72cd","ios":"levelo://app?vid=8be91fa6-a910-488a-b88d-a81ed6cf72cd"},"vehicle_type_id":"4","last_reported":1701792566,"current_range_meters":26400,"station_id":"ce4bhnh2rcd13ifvqgug","pricing_plan_id":"free"},{"bike_id":"49562a35-624b-4e91-b717-753cf453337d","system_id":"levelo_inurba_marseille","lat":43.281548,"lon":5.42643,"is_reserved":false,"is_disabled":false,"rental_uris":{"android":"levelo://app?vid=49562a35-624b-4e91-b717-753cf453337d","ios":"levelo://app?vid=49562a35-624b-4e91-b717-753cf453337d"},"vehicle_type_id":"4","last_reported":1701792566,"current_range_meters":27200,"station_id":"ce4bhnh2rcd13ifvqgug","pricing_plan_id":"free"},{"bike_id":"a0dbc987-9ebd-4542-bb1b-e28b9464f1c4","system_id":"levelo_inurba_marseille","lat":43.2607,"lon":5.393983,"is_reserved":false,"is_disabled":false,"rental_uris":{"android":"levelo://app?vid=a0dbc987-9ebd-4542-bb1b-e28b9464f1c4","ios":"levelo://app?vid=a0dbc987-9ebd-4542-bb1b-e28b9464f1c4"},"vehicle_type_id":"4","last_reported":1701792566,"current_range_meters":16400,"station_id":"ce4bhh92rcd13ifvqfj0","pricing_plan_id":"free"},{"bike_id":"0c8af203-d673-474c-840b-33000aa98c3d","system_id":"levelo_inurba_marseille","lat":43.255804,"lon":5.382499,"is_reserved":false,"is_disabled":false,"rental_uris":{"android":"levelo://app?vid=0c8af203-d673-474c-840b-33000aa98c3d","ios":"levelo://app?vid=0c8af203-d673-474c-840b-33000aa98c3d"},"vehicle_type_id":"4","last_reported":1701792566,"current_range_meters":21200,"station_id":"ce4bhih2rcd13ifvqfs0","pricing_plan_id":"free"},{"bike_id":"099752ac-6579-4ad7-81bc-b45411988d99","system_id":"levelo_inurba_marseille","lat":43.254947,"lon":5.376454,"is_reserved":false,"is_disabled":false,"rental_uris":{"android":"levelo://app?vid=099752ac-6579-4ad7-81bc-b45411988d99","ios":"levelo://app?vid=099752ac-6579-4ad7-81bc-b45411988d99"},"vehicle_type_id":"4","last_reported":1701792566,"current_range_meters":24400,"station_id":"ce4bhh12rcd13ifvqff0","pricing_plan_id":"free"},{"bike_id":"729e83f1-ffb7-457c-b52c-ed00d9d4ec46","system_id":"levelo_inurba_marseille","lat":43.254947,"lon":5.376454,"is_reserved":false,"is_disabled":false,"rental_uris":{"android":"levelo://app?vid=729e83f1-ffb7-457c-b52c-ed00d9d4ec46","ios":"levelo://app?vid=729e83f1-ffb7-457c-b52c-ed00d9d4ec46"},"vehicle_type_id":"4","last_reported":1701792566,"current_range_meters":28000,"station_id":"ce4bhh12rcd13ifvqff0","pricing_plan_id":"free"},{"bike_id":"8cfd0d8e-d3d5-4d12-8e7e-42e48e8cfce4","system_id":"levelo_inurba_marseille","lat":43.254947,"lon":5.376454,"is_reserved":false,"is_disabled":false,"rental_uris":{"android":"levelo://app?vid=8cfd0d8e-d3d5-4d12-8e7e-42e48e8cfce4","ios":"levelo://app?vid=8cfd0d8e-d3d5-4d12-8e7e-42e48e8cfce4"},"vehicle_type_id":"4","last_reported":1701792566,"current_range_meters":29200,"station_id":"ce4bhh12rcd13ifvqff0","pricing_plan_id":"free"},{"bike_id":"e5ba77c1-1ac5-4d3c-9a71-9701a6fd2525","system_id":"levelo_inurba_marseille","lat":43.270721,"lon":5.422764,"is_reserved":false,"is_disabled":false,"rental_uris":{"android":"levelo://app?vid=e5ba77c1-1ac5-4d3c-9a71-9701a6fd2525","ios":"levelo://app?vid=e5ba77c1-1ac5-4d3c-9a71-9701a6fd2525"},"vehicle_type_id":"4","last_reported":1701792566,"current_range_meters":26800,"station_id":"ce4bhk92rcd13ifvqgb0","pricing_plan_id":"free"},{"bike_id":"fd0a1228-d2fc-47de-9f3b-3dde6b3f5395","system_id":"levelo_inurba_marseille","lat":43.258658,"lon":5.398935,"is_reserved":false,"is_disabled":false,"rental_uris":{"android":"levelo://app?vid=fd0a1228-d2fc-47de-9f3b-3dde6b3f5395","ios":"levelo://app?vid=fd0a1228-d2fc-47de-9f3b-3dde6b3f5395"},"vehicle_type_id":"4","last_reported":1701792566,"current_range_meters":14800,"station_id":"ce4bhl92rcd13ifvqghg","pricing_plan_id":"free"},{"bike_id":"5fc84efb-273e-465d-9d4d-a06ba90c805c","system_id":"levelo_inurba_marseille","lat":43.258658,"lon":5.398935,"is_reserved":false,"is_disabled":false,"rental_uris":{"android":"levelo://app?vid=5fc84efb-273e-465d-9d4d-a06ba90c805c","ios":"levelo://app?vid=5fc84efb-273e-465d-9d4d-a06ba90c805c"},"vehicle_type_id":"4","last_reported":1701792566,"current_range_meters":26400,"station_id":"ce4bhl92rcd13ifvqghg","pricing_plan_id":"free"},{"bike_id":"38b180c8-0fb1-4657-a580-0d70cdf442be","system_id":"levelo_inurba_marseille","lat":43.258658,"lon":5.398935,"is_reserved":false,"is_disabled":false,"rental_uris":{"android":"levelo://app?vid=38b180c8-0fb1-4657-a580-0d70cdf442be","ios":"levelo://app?vid=38b180c8-0fb1-4657-a580-0d70cdf442be"},"vehicle_type_id":"4","last_reported":1701792566,"current_range_meters":28000,"station_id":"ce4bhl92rcd13ifvqghg","pricing_plan_id":"free"},{"bike_id":"e338bcc5-f2db-436b-ae79-39dd6d9c2dc2","system_id":"levelo_inurba_marseille","lat":43.25725,"lon":5.41106,"is_reserved":false,"is_disabled":false,"rental_uris":{"android":"levelo://app?vid=e338bcc5-f2db-436b-ae79-39dd6d9c2dc2","ios":"levelo://app?vid=e338bcc5-f2db-436b-ae79-39dd6d9c2dc2"},"vehicle_type_id":"4","last_reported":1701792566,"current_range_meters":19200,"station_id":"ce4bhkp2rcd13ifvqgd0","pricing_plan_id":"free"},{"bike_id":"0c5dd37f-06ef-4b2a-8f04-7e748e11872f","system_id":"levelo_inurba_marseille","lat":43.25726,"lon":5.41112,"is_reserved":false,"is_disabled":false,"rental_uris":{"android":"levelo://app?vid=0c5dd37f-06ef-4b2a-8f04-7e748e11872f","ios":"levelo://app?vid=0c5dd37f-06ef-4b2a-8f04-7e748e11872f"},"vehicle_type_id":"4","last_reported":1701792566,"current_range_meters":18000,"station_id":"ce4bhkp2rcd13ifvqgd0","pricing_plan_id":"free"},{"bike_id":"6d89ba26-a018-4503-8bc7-0e2707c2382b","system_id":"levelo_inurba_marseille","lat":43.25727,"lon":5.41115,"is_reserved":false,"is_disabled":false,"rental_uris":{"android":"levelo://app?vid=6d89ba26-a018-4503-8bc7-0e2707c2382b","ios":"levelo://app?vid=6d89ba26-a018-4503-8bc7-0e2707c2382b"},"vehicle_type_id":"4","last_reported":1701792566,"current_range_meters":4400,"station_id":"ce4bhkp2rcd13ifvqgd0","pricing_plan_id":"free"},{"bike_id":"908b18e5-f3a0-4189-9b52-ad5820ca1297","system_id":"levelo_inurba_marseille","lat":43.25723,"lon":5.4112,"is_reserved":false,"is_disabled":false,"rental_uris":{"android":"levelo://app?vid=908b18e5-f3a0-4189-9b52-ad5820ca1297","ios":"levelo://app?vid=908b18e5-f3a0-4189-9b52-ad5820ca1297"},"vehicle_type_id":"4","last_reported":1701792566,"current_range_meters":12400,"station_id":"ce4bhkp2rcd13ifvqgd0","pricing_plan_id":"free"},{"bike_id":"bec892d0-7a69-45cb-8e3b-3cafe47dc26c","system_id":"levelo_inurba_marseille","lat":43.25721,"lon":5.41121,"is_reserved":false,"is_disabled":false,"rental_uris":{"android":"levelo://app?vid=bec892d0-7a69-45cb-8e3b-3cafe47dc26c","ios":"levelo://app?vid=bec892d0-7a69-45cb-8e3b-3cafe47dc26c"},"vehicle_type_id":"4","last_reported":1701792566,"current_range_meters":20000,"station_id":"ce4bhkp2rcd13ifvqgd0","pricing_plan_id":"free"},{"bike_id":"933b126d-ff9c-4c5f-abfa-4b7de0737960","system_id":"levelo_inurba_marseille","lat":43.25718,"lon":5.41115,"is_reserved":false,"is_disabled":false,"rental_uris":{"android":"levelo://app?vid=933b126d-ff9c-4c5f-abfa-4b7de0737960","ios":"levelo://app?vid=933b126d-ff9c-4c5f-abfa-4b7de0737960"},"vehicle_type_id":"4","last_reported":1701792566,"current_range_meters":13200,"station_id":"ce4bhkp2rcd13ifvqgd0","pricing_plan_id":"free"},{"bike_id":"dcc568d9-e9ca-445e-b871-1e2e197fb351","system_id":"levelo_inurba_marseille","lat":43.250009,"lon":5.389195,"is_reserved":false,"is_disabled":false,"rental_uris":{"android":"levelo://app?vid=dcc568d9-e9ca-445e-b871-1e2e197fb351","ios":"levelo://app?vid=dcc568d9-e9ca-445e-b871-1e2e197fb351"},"vehicle_type_id":"4","last_reported":1701792566,"current_range_meters":24800,"station_id":"ce4bhgp2rcd13ifvqfd0","pricing_plan_id":"free"},{"bike_id":"38c20776-523f-4c9c-b3f0-7efa22a0adac","system_id":"levelo_inurba_marseille","lat":43.250009,"lon":5.389195,"is_reserved":false,"is_disabled":false,"rental_uris":{"android":"levelo://app?vid=38c20776-523f-4c9c-b3f0-7efa22a0adac","ios":"levelo://app?vid=38c20776-523f-4c9c-b3f0-7efa22a0adac"},"vehicle_type_id":"4","last_reported":1701792566,"current_range_meters":26000,"station_id":"ce4bhgp2rcd13ifvqfd0","pricing_plan_id":"free"},{"bike_id":"d127ae70-db99-4c7a-bfe1-e98008e28703","system_id":"levelo_inurba_marseille","lat":43.250966,"lon":5.395186,"is_reserved":false,"is_disabled":false,"rental_uris":{"android":"levelo://app?vid=d127ae70-db99-4c7a-bfe1-e98008e28703","ios":"levelo://app?vid=d127ae70-db99-4c7a-bfe1-e98008e28703"},"vehicle_type_id":"4","last_reported":1701792566,"current_range_meters":30800,"station_id":"ce4bhm12rcd13ifvqgkg","pricing_plan_id":"free"},{"bike_id":"07e4f5ed-9e28-45ff-ba4d-699e5fe75cab","system_id":"levelo_inurba_marseille","lat":43.250966,"lon":5.395186,"is_reserved":false,"is_disabled":false,"rental_uris":{"android":"levelo://app?vid=07e4f5ed-9e28-45ff-ba4d-699e5fe75cab","ios":"levelo://app?vid=07e4f5ed-9e28-45ff-ba4d-699e5fe75cab"},"vehicle_type_id":"4","last_reported":1701792566,"current_range_meters":31200,"station_id":"ce4bhm12rcd13ifvqgkg","pricing_plan_id":"free"},{"bike_id":"b487e8cd-908d-4af1-b1f4-faad940ea7eb","system_id":"levelo_inurba_marseille","lat":43.24693,"lon":5.382096,"is_reserved":false,"is_disabled":false,"rental_uris":{"android":"levelo://app?vid=b487e8cd-908d-4af1-b1f4-faad940ea7eb","ios":"levelo://app?vid=b487e8cd-908d-4af1-b1f4-faad940ea7eb"},"vehicle_type_id":"4","last_reported":1701792566,"current_range_meters":30000,"station_id":"ce4bhih2rcd13ifvqfr0","pricing_plan_id":"free"},{"bike_id":"6e615485-5a98-4541-b87c-0ad536d392b3","system_id":"levelo_inurba_marseille","lat":43.25122,"lon":5.403433,"is_reserved":false,"is_disabled":false,"rental_uris":{"android":"levelo://app?vid=6e615485-5a98-4541-b87c-0ad536d392b3","ios":"levelo://app?vid=6e615485-5a98-4541-b87c-0ad536d392b3"},"vehicle_type_id":"4","last_reported":1701792566,"current_range_meters":22400,"station_id":"ce4bhlh2rcd13ifvqgig","pricing_plan_id":"free"},{"bike_id":"53a476c6-ffc1-42da-b64b-5cc7ed7931ff","system_id":"levelo_inurba_marseille","lat":43.25102,"lon":5.403214,"is_reserved":false,"is_disabled":false,"rental_uris":{"android":"levelo://app?vid=53a476c6-ffc1-42da-b64b-5cc7ed7931ff","ios":"levelo://app?vid=53a476c6-ffc1-42da-b64b-5cc7ed7931ff"},"vehicle_type_id":"4","last_reported":1701792566,"current_range_meters":8000,"station_id":"ce4bhlh2rcd13ifvqgig","pricing_plan_id":"free"},{"bike_id":"add575bb-918c-4698-9387-0099b4024c11","system_id":"levelo_inurba_marseille","lat":43.25102,"lon":5.403214,"is_reserved":false,"is_disabled":false,"rental_uris":{"android":"levelo://app?vid=add575bb-918c-4698-9387-0099b4024c11","ios":"levelo://app?vid=add575bb-918c-4698-9387-0099b4024c11"},"vehicle_type_id":"4","last_reported":1701792566,"current_range_meters":11600,"station_id":"ce4bhlh2rcd13ifvqgig","pricing_plan_id":"free"},{"bike_id":"d2b0185c-c150-417b-bc1b-d1c5e6723ba9","system_id":"levelo_inurba_marseille","lat":43.25102,"lon":5.403214,"is_reserved":false,"is_disabled":false,"rental_uris":{"android":"levelo://app?vid=d2b0185c-c150-417b-bc1b-d1c5e6723ba9","ios":"levelo://app?vid=d2b0185c-c150-417b-bc1b-d1c5e6723ba9"},"vehicle_type_id":"4","last_reported":1701792566,"current_range_meters":31200,"station_id":"ce4bhlh2rcd13ifvqgig","pricing_plan_id":"free"},{"bike_id":"0d980323-0cc3-429d-9903-ea21690072c6","system_id":"levelo_inurba_marseille","lat":43.239588,"lon":5.366238,"is_reserved":false,"is_disabled":false,"rental_uris":{"android":"levelo://app?vid=0d980323-0cc3-429d-9903-ea21690072c6","ios":"levelo://app?vid=0d980323-0cc3-429d-9903-ea21690072c6"},"vehicle_type_id":"4","last_reported":1701792566,"current_range_meters":17200,"station_id":"ce4bhi12rcd13ifvqfp0","pricing_plan_id":"free"},{"bike_id":"179d4a9c-7261-4978-864e-60dd6324abae","system_id":"levelo_inurba_marseille","lat":43.239588,"lon":5.366238,"is_reserved":false,"is_disabled":false,"rental_uris":{"android":"levelo://app?vid=179d4a9c-7261-4978-864e-60dd6324abae","ios":"levelo://app?vid=179d4a9c-7261-4978-864e-60dd6324abae"},"vehicle_type_id":"4","last_reported":1701792566,"current_range_meters":30000,"station_id":"ce4bhi12rcd13ifvqfp0","pricing_plan_id":"free"},{"bike_id":"04b00323-44dc-4556-add8-5a131157a4f0","system_id":"levelo_inurba_marseille","lat":43.244033,"lon":5.40194,"is_reserved":false,"is_disabled":false,"rental_uris":{"android":"levelo://app?vid=04b00323-44dc-4556-add8-5a131157a4f0","ios":"levelo://app?vid=04b00323-44dc-4556-add8-5a131157a4f0"},"vehicle_type_id":"4","last_reported":1701792566,"current_range_meters":2400,"station_id":"","pricing_plan_id":"free"},{"bike_id":"66280168-1d2d-4a94-82ad-86217301a5c0","system_id":"levelo_inurba_marseille","lat":43.241782,"lon":5.397261,"is_reserved":false,"is_disabled":false,"rental_uris":{"android":"levelo://app?vid=66280168-1d2d-4a94-82ad-86217301a5c0","ios":"levelo://app?vid=66280168-1d2d-4a94-82ad-86217301a5c0"},"vehicle_type_id":"4","last_reported":1701792566,"current_range_meters":14400,"station_id":"ce4bhn12rcd13ifvqgpg","pricing_plan_id":"free"},{"bike_id":"e202f342-281d-49ad-85e7-4dea5c83c766","system_id":"levelo_inurba_marseille","lat":43.241782,"lon":5.397261,"is_reserved":false,"is_disabled":false,"rental_uris":{"android":"levelo://app?vid=e202f342-281d-49ad-85e7-4dea5c83c766","ios":"levelo://app?vid=e202f342-281d-49ad-85e7-4dea5c83c766"},"vehicle_type_id":"4","last_reported":1701792566,"current_range_meters":8400,"station_id":"ce4bhn12rcd13ifvqgpg","pricing_plan_id":"free"},{"bike_id":"cf3102c4-88e0-4a41-86b7-69a76932d3e6","system_id":"levelo_inurba_marseille","lat":43.231923,"lon":5.355545,"is_reserved":false,"is_disabled":false,"rental_uris":{"android":"levelo://app?vid=cf3102c4-88e0-4a41-86b7-69a76932d3e6","ios":"levelo://app?vid=cf3102c4-88e0-4a41-86b7-69a76932d3e6"},"vehicle_type_id":"4","last_reported":1701792566,"current_range_meters":31200,"station_id":"ce4bhu92rcd13ifvqi70","pricing_plan_id":"free"},{"bike_id":"e2fb0602-0025-4bc2-a80e-ca4c6079bddc","system_id":"levelo_inurba_marseille","lat":43.231923,"lon":5.355545,"is_reserved":false,"is_disabled":false,"rental_uris":{"android":"levelo://app?vid=e2fb0602-0025-4bc2-a80e-ca4c6079bddc","ios":"levelo://app?vid=e2fb0602-0025-4bc2-a80e-ca4c6079bddc"},"vehicle_type_id":"4","last_reported":1701792566,"current_range_meters":9200,"station_id":"ce4bhu92rcd13ifvqi70","pricing_plan_id":"free"},{"bike_id":"0b1e3bd7-033b-46ef-8d43-f0325c18a334","system_id":"levelo_inurba_marseille","lat":43.231794,"lon":5.400052,"is_reserved":false,"is_disabled":false,"rental_uris":{"android":"levelo://app?vid=0b1e3bd7-033b-46ef-8d43-f0325c18a334","ios":"levelo://app?vid=0b1e3bd7-033b-46ef-8d43-f0325c18a334"},"vehicle_type_id":"4","last_reported":1701792566,"current_range_meters":14400,"station_id":"ce4bhn12rcd13ifvqgqg","pricing_plan_id":"free"},{"bike_id":"e9e62f9b-b2fe-4312-af15-bcf56f0a2f27","system_id":"levelo_inurba_marseille","lat":43.231794,"lon":5.400052,"is_reserved":false,"is_disabled":false,"rental_uris":{"android":"levelo://app?vid=e9e62f9b-b2fe-4312-af15-bcf56f0a2f27","ios":"levelo://app?vid=e9e62f9b-b2fe-4312-af15-bcf56f0a2f27"},"vehicle_type_id":"4","last_reported":1701792566,"current_range_meters":12000,"station_id":"ce4bhn12rcd13ifvqgqg","pricing_plan_id":"free"},{"bike_id":"b988d3fe-c649-4089-ae26-b7efbdfc136a","system_id":"levelo_inurba_marseille","lat":43.231794,"lon":5.400052,"is_reserved":false,"is_disabled":false,"rental_uris":{"android":"levelo://app?vid=b988d3fe-c649-4089-ae26-b7efbdfc136a","ios":"levelo://app?vid=b988d3fe-c649-4089-ae26-b7efbdfc136a"},"vehicle_type_id":"4","last_reported":1701792566,"current_range_meters":23200,"station_id":"ce4bhn12rcd13ifvqgqg","pricing_plan_id":"free"},{"bike_id":"499f6839-de97-4b12-a005-76ce9f041c0f","system_id":"levelo_inurba_marseille","lat":43.231562,"lon":5.436933,"is_reserved":false,"is_disabled":false,"rental_uris":{"android":"levelo://app?vid=499f6839-de97-4b12-a005-76ce9f041c0f","ios":"levelo://app?vid=499f6839-de97-4b12-a005-76ce9f041c0f"},"vehicle_type_id":"4","last_reported":1701792566,"current_range_meters":20800,"station_id":"ce4bhmp2rcd13ifvqgog","pricing_plan_id":"free"},{"bike_id":"bd1c9afa-c136-40b6-9ad4-c891fe6a0ae4","system_id":"levelo_inurba_marseille","lat":43.231562,"lon":5.436933,"is_reserved":false,"is_disabled":false,"rental_uris":{"android":"levelo://app?vid=bd1c9afa-c136-40b6-9ad4-c891fe6a0ae4","ios":"levelo://app?vid=bd1c9afa-c136-40b6-9ad4-c891fe6a0ae4"},"vehicle_type_id":"4","last_reported":1701792566,"current_range_meters":28000,"station_id":"ce4bhmp2rcd13ifvqgog","pricing_plan_id":"free"},{"bike_id":"5acf437a-9bd4-4ab6-9a7c-1521245d7344","system_id":"levelo_inurba_marseille","lat":43.231562,"lon":5.436933,"is_reserved":false,"is_disabled":false,"rental_uris":{"android":"levelo://app?vid=5acf437a-9bd4-4ab6-9a7c-1521245d7344","ios":"levelo://app?vid=5acf437a-9bd4-4ab6-9a7c-1521245d7344"},"vehicle_type_id":"4","last_reported":1701792566,"current_range_meters":31200,"station_id":"ce4bhmp2rcd13ifvqgog","pricing_plan_id":"free"}]}}