{"last_updated":1774338392,"ttl":60,"version":"2.2","data":{"bikes":[{"bike_id":"63d28ee7-f0d6-4baa-ad27-e80429fd4355","system_id":"levelo_inurba_marseille","lat":43.30964,"lon":5.39037,"is_reserved":false,"is_disabled":false,"rental_uris":{"android":"levelo://app?vid=63d28ee7-f0d6-4baa-ad27-e80429fd4355","ios":"levelo://app?vid=63d28ee7-f0d6-4baa-ad27-e80429fd4355"},"vehicle_type_id":"4","last_reported":1774338393,"current_range_meters":2800,"station_id":"ce4bgup2rcd13ifvqco0","pricing_plan_id":"cebpf4jnsgd1na2vs0mg"},{"bike_id":"2c778cc4-029b-4096-919b-a2ad8483e38f","system_id":"levelo_inurba_marseille","lat":43.30154,"lon":5.36622,"is_reserved":false,"is_disabled":false,"rental_uris":{"android":"levelo://app?vid=2c778cc4-029b-4096-919b-a2ad8483e38f","ios":"levelo://app?vid=2c778cc4-029b-4096-919b-a2ad8483e38f"},"vehicle_type_id":"4","last_reported":1774338393,"current_range_meters":2800,"station_id":"ce4bgrh2rcd13ifvqc8g","pricing_plan_id":"cebpf4jnsgd1na2vs0mg"},{"bike_id":"83e1bbb5-aaa5-44db-81e9-50dedebdb915","system_id":"levelo_inurba_marseille","lat":43.29705,"lon":5.37677,"is_reserved":false,"is_disabled":false,"rental_uris":{"android":"levelo://app?vid=83e1bbb5-aaa5-44db-81e9-50dedebdb915","ios":"levelo://app?vid=83e1bbb5-aaa5-44db-81e9-50dedebdb915"},"vehicle_type_id":"4","last_reported":1774338393,"current_range_meters":2800,"station_id":"ce4bgkh2rcd13ifvqbl0","pricing_plan_id":"cebpf4jnsgd1na2vs0mg"},{"bike_id":"91649239-0958-4ce1-ae94-d94fd33142ae","system_id":"levelo_inurba_marseille","lat":43.30154,"lon":5.37407,"is_reserved":false,"is_disabled":false,"rental_uris":{"android":"levelo://app?vid=91649239-0958-4ce1-ae94-d94fd33142ae","ios":"levelo://app?vid=91649239-0958-4ce1-ae94-d94fd33142ae"},"vehicle_type_id":"4","last_reported":1774338393,"current_range_meters":2800,"station_id":"ce4bgs92rcd13ifvqcc0","pricing_plan_id":"cebpf4jnsgd1na2vs0mg"},{"bike_id":"52974afa-c03d-41b0-9d69-63b04757d041","system_id":"levelo_inurba_marseille","lat":43.285646,"lon":5.398685,"is_reserved":false,"is_disabled":false,"rental_uris":{"android":"levelo://app?vid=52974afa-c03d-41b0-9d69-63b04757d041","ios":"levelo://app?vid=52974afa-c03d-41b0-9d69-63b04757d041"},"vehicle_type_id":"4","last_reported":1774338393,"current_range_meters":2800,"station_id":"ce4bho92rcd13ifvqh3g","pricing_plan_id":"cebpf4jnsgd1na2vs0mg"},{"bike_id":"04eae795-08b3-49e7-b3c4-8670aa36bf59","system_id":"levelo_inurba_marseille","lat":43.31215,"lon":5.36854,"is_reserved":false,"is_disabled":false,"rental_uris":{"android":"levelo://app?vid=04eae795-08b3-49e7-b3c4-8670aa36bf59","ios":"levelo://app?vid=04eae795-08b3-49e7-b3c4-8670aa36bf59"},"vehicle_type_id":"4","last_reported":1774338393,"current_range_meters":2800,"station_id":"ce4bgl92rcd13ifvqbq0","pricing_plan_id":"cebpf4jnsgd1na2vs0mg"},{"bike_id":"ef8f663b-0075-416a-88fe-1fde798c71ff","system_id":"levelo_inurba_marseille","lat":43.2339,"lon":5.4125,"is_reserved":false,"is_disabled":false,"rental_uris":{"android":"levelo://app?vid=ef8f663b-0075-416a-88fe-1fde798c71ff","ios":"levelo://app?vid=ef8f663b-0075-416a-88fe-1fde798c71ff"},"vehicle_type_id":"4","last_reported":1774338393,"current_range_meters":2800,"station_id":"","pricing_plan_id":"cebpf4jnsgd1na2vs0mg"},{"bike_id":"bd53ef61-2066-41e3-b88d-e7ae9802ad78","system_id":"levelo_inurba_marseille","lat":43.30134,"lon":5.39862,"is_reserved":false,"is_disabled":false,"rental_uris":{"android":"levelo://app?vid=bd53ef61-2066-41e3-b88d-e7ae9802ad78","ios":"levelo://app?vid=bd53ef61-2066-41e3-b88d-e7ae9802ad78"},"vehicle_type_id":"4","last_reported":1774338393,"current_range_meters":2800,"station_id":"ce4bh0h2rcd13ifvqd40","pricing_plan_id":"cebpf4jnsgd1na2vs0mg"},{"bike_id":"85d6ab11-5518-4ccd-91e4-dbdc93e9ebe9","system_id":"levelo_inurba_marseille","lat":43.28543,"lon":5.44099,"is_reserved":false,"is_disabled":false,"rental_uris":{"android":"levelo://app?vid=85d6ab11-5518-4ccd-91e4-dbdc93e9ebe9","ios":"levelo://app?vid=85d6ab11-5518-4ccd-91e4-dbdc93e9ebe9"},"vehicle_type_id":"4","last_reported":1774338393,"current_range_meters":2800,"station_id":"st_d3j3df2ikq2c7380ej80","pricing_plan_id":"cebpf4jnsgd1na2vs0mg"},{"bike_id":"b7ba0e58-bef0-47a7-bd3b-64bf72ecf131","system_id":"levelo_inurba_marseille","lat":43.32959,"lon":5.36682,"is_reserved":false,"is_disabled":false,"rental_uris":{"android":"levelo://app?vid=b7ba0e58-bef0-47a7-bd3b-64bf72ecf131","ios":"levelo://app?vid=b7ba0e58-bef0-47a7-bd3b-64bf72ecf131"},"vehicle_type_id":"4","last_reported":1774338393,"current_range_meters":2800,"station_id":"","pricing_plan_id":"cebpf4jnsgd1na2vs0mg"},{"bike_id":"9be35987-805d-4aab-a951-55292d8c9d92","system_id":"levelo_inurba_marseille","lat":43.31715,"lon":5.4369,"is_reserved":false,"is_disabled":true,"rental_uris":{"android":"levelo://app?vid=9be35987-805d-4aab-a951-55292d8c9d92","ios":"levelo://app?vid=9be35987-805d-4aab-a951-55292d8c9d92"},"vehicle_type_id":"4","last_reported":1774338393,"current_range_meters":3200,"station_id":"ce4bhp92rcd13ifvqhcg","pricing_plan_id":"cebpf4jnsgd1na2vs0mg"},{"bike_id":"9841420b-9d3f-4a1b-88ef-a3431bb43bf8","system_id":"levelo_inurba_marseille","lat":43.28421,"lon":5.34992,"is_reserved":false,"is_disabled":false,"rental_uris":{"android":"levelo://app?vid=9841420b-9d3f-4a1b-88ef-a3431bb43bf8","ios":"levelo://app?vid=9841420b-9d3f-4a1b-88ef-a3431bb43bf8"},"vehicle_type_id":"4","last_reported":1774338393,"current_range_meters":3200,"station_id":"ce4bhbh2rcd13ifvqepg","pricing_plan_id":"cebpf4jnsgd1na2vs0mg"},{"bike_id":"56a4c2ff-d1f4-4db1-aea4-b39074088a4a","system_id":"levelo_inurba_marseille","lat":43.290396,"lon":5.399632,"is_reserved":false,"is_disabled":false,"rental_uris":{"android":"levelo://app?vid=56a4c2ff-d1f4-4db1-aea4-b39074088a4a","ios":"levelo://app?vid=56a4c2ff-d1f4-4db1-aea4-b39074088a4a"},"vehicle_type_id":"4","last_reported":1774338393,"current_range_meters":3200,"station_id":"ce4bh392rcd13ifvqdm0","pricing_plan_id":"cebpf4jnsgd1na2vs0mg"},{"bike_id":"85d0a95e-bc0b-4d36-bde7-fd46008d21e4","system_id":"levelo_inurba_marseille","lat":43.24673,"lon":5.38145,"is_reserved":false,"is_disabled":false,"rental_uris":{"android":"levelo://app?vid=85d0a95e-bc0b-4d36-bde7-fd46008d21e4","ios":"levelo://app?vid=85d0a95e-bc0b-4d36-bde7-fd46008d21e4"},"vehicle_type_id":"4","last_reported":1774338393,"current_range_meters":3200,"station_id":"ce4bhih2rcd13ifvqfr0","pricing_plan_id":"cebpf4jnsgd1na2vs0mg"},{"bike_id":"5054f953-7f3f-4482-a70c-c65023a7a815","system_id":"levelo_inurba_marseille","lat":43.27965,"lon":5.38706,"is_reserved":false,"is_disabled":false,"rental_uris":{"android":"levelo://app?vid=5054f953-7f3f-4482-a70c-c65023a7a815","ios":"levelo://app?vid=5054f953-7f3f-4482-a70c-c65023a7a815"},"vehicle_type_id":"4","last_reported":1774338393,"current_range_meters":3200,"station_id":"ce4bhg12rcd13ifvqf80","pricing_plan_id":"cebpf4jnsgd1na2vs0mg"},{"bike_id":"2733f5d6-4126-4a8b-9735-e5f56c1a5a0c","system_id":"levelo_inurba_marseille","lat":43.23881,"lon":5.37476,"is_reserved":false,"is_disabled":false,"rental_uris":{"android":"levelo://app?vid=2733f5d6-4126-4a8b-9735-e5f56c1a5a0c","ios":"levelo://app?vid=2733f5d6-4126-4a8b-9735-e5f56c1a5a0c"},"vehicle_type_id":"4","last_reported":1774338393,"current_range_meters":3200,"station_id":"st_d6sm7csbq4hs73f8fpjg","pricing_plan_id":"cebpf4jnsgd1na2vs0mg"},{"bike_id":"0b8272f2-cb19-4693-b668-5b8718886d8d","system_id":"levelo_inurba_marseille","lat":43.29031,"lon":5.39991,"is_reserved":false,"is_disabled":false,"rental_uris":{"android":"levelo://app?vid=0b8272f2-cb19-4693-b668-5b8718886d8d","ios":"levelo://app?vid=0b8272f2-cb19-4693-b668-5b8718886d8d"},"vehicle_type_id":"4","last_reported":1774338393,"current_range_meters":3600,"station_id":"ce4bh392rcd13ifvqdm0","pricing_plan_id":"cebpf4jnsgd1na2vs0mg"},{"bike_id":"b11cd7e1-c2ad-4e3b-9c16-6bd7caa9bc6b","system_id":"levelo_inurba_marseille","lat":43.28714,"lon":5.3608,"is_reserved":false,"is_disabled":false,"rental_uris":{"android":"levelo://app?vid=b11cd7e1-c2ad-4e3b-9c16-6bd7caa9bc6b","ios":"levelo://app?vid=b11cd7e1-c2ad-4e3b-9c16-6bd7caa9bc6b"},"vehicle_type_id":"4","last_reported":1774338393,"current_range_meters":3600,"station_id":"cki0cbj6b192h4jlfktg","pricing_plan_id":"cebpf4jnsgd1na2vs0mg"},{"bike_id":"7d0e7181-3a70-4370-9354-bef3948a92c8","system_id":"levelo_inurba_marseille","lat":43.29959,"lon":5.41327,"is_reserved":false,"is_disabled":false,"rental_uris":{"android":"levelo://app?vid=7d0e7181-3a70-4370-9354-bef3948a92c8","ios":"levelo://app?vid=7d0e7181-3a70-4370-9354-bef3948a92c8"},"vehicle_type_id":"4","last_reported":1774338393,"current_range_meters":3600,"station_id":"ce4bhp12rcd13ifvqh9g","pricing_plan_id":"cebpf4jnsgd1na2vs0mg"},{"bike_id":"b8879df9-c18b-456f-946a-fdbada807c01","system_id":"levelo_inurba_marseille","lat":43.29698,"lon":5.37678,"is_reserved":false,"is_disabled":false,"rental_uris":{"android":"levelo://app?vid=b8879df9-c18b-456f-946a-fdbada807c01","ios":"levelo://app?vid=b8879df9-c18b-456f-946a-fdbada807c01"},"vehicle_type_id":"4","last_reported":1774338393,"current_range_meters":3600,"station_id":"ce4bgkh2rcd13ifvqbl0","pricing_plan_id":"cebpf4jnsgd1na2vs0mg"},{"bike_id":"7dcaeaa2-921b-448b-99f6-95ad8a58532a","system_id":"levelo_inurba_marseille","lat":43.29049,"lon":5.37575,"is_reserved":false,"is_disabled":false,"rental_uris":{"android":"levelo://app?vid=7dcaeaa2-921b-448b-99f6-95ad8a58532a","ios":"levelo://app?vid=7dcaeaa2-921b-448b-99f6-95ad8a58532a"},"vehicle_type_id":"4","last_reported":1774338393,"current_range_meters":3600,"station_id":"ce4bh692rcd13ifvqe90","pricing_plan_id":"cebpf4jnsgd1na2vs0mg"},{"bike_id":"6c544108-dcdf-4d4d-a2b0-9600fafbc564","system_id":"levelo_inurba_marseille","lat":43.29696,"lon":5.37706,"is_reserved":false,"is_disabled":false,"rental_uris":{"android":"levelo://app?vid=6c544108-dcdf-4d4d-a2b0-9600fafbc564","ios":"levelo://app?vid=6c544108-dcdf-4d4d-a2b0-9600fafbc564"},"vehicle_type_id":"4","last_reported":1774338393,"current_range_meters":3600,"station_id":"ce4bgkh2rcd13ifvqbl0","pricing_plan_id":"cebpf4jnsgd1na2vs0mg"},{"bike_id":"0f88d6b7-883f-4b13-98ff-b1b3b7d422a5","system_id":"levelo_inurba_marseille","lat":43.25894,"lon":5.40814,"is_reserved":false,"is_disabled":true,"rental_uris":{"android":"levelo://app?vid=0f88d6b7-883f-4b13-98ff-b1b3b7d422a5","ios":"levelo://app?vid=0f88d6b7-883f-4b13-98ff-b1b3b7d422a5"},"vehicle_type_id":"4","last_reported":1774338393,"current_range_meters":3600,"station_id":"ce4bhm92rcd13ifvqglg","pricing_plan_id":"cebpf4jnsgd1na2vs0mg"},{"bike_id":"82d19d95-2492-495d-b746-799a9f30f6d5","system_id":"levelo_inurba_marseille","lat":43.2828,"lon":5.40841,"is_reserved":false,"is_disabled":false,"rental_uris":{"android":"levelo://app?vid=82d19d95-2492-495d-b746-799a9f30f6d5","ios":"levelo://app?vid=82d19d95-2492-495d-b746-799a9f30f6d5"},"vehicle_type_id":"4","last_reported":1774338393,"current_range_meters":3600,"station_id":"","pricing_plan_id":"cebpf4jnsgd1na2vs0mg"},{"bike_id":"c3f3c8ac-b6d1-4026-a061-65e7cfa764fe","system_id":"levelo_inurba_marseille","lat":43.28488,"lon":5.48381,"is_reserved":false,"is_disabled":false,"rental_uris":{"android":"levelo://app?vid=c3f3c8ac-b6d1-4026-a061-65e7cfa764fe","ios":"levelo://app?vid=c3f3c8ac-b6d1-4026-a061-65e7cfa764fe"},"vehicle_type_id":"4","last_reported":1774338393,"current_range_meters":3600,"station_id":"","pricing_plan_id":"cebpf4jnsgd1na2vs0mg"},{"bike_id":"c407ccdd-5670-47ef-93cf-4509ec85f728","system_id":"levelo_inurba_marseille","lat":43.31337,"lon":5.36722,"is_reserved":false,"is_disabled":false,"rental_uris":{"android":"levelo://app?vid=c407ccdd-5670-47ef-93cf-4509ec85f728","ios":"levelo://app?vid=c407ccdd-5670-47ef-93cf-4509ec85f728"},"vehicle_type_id":"4","last_reported":1774338393,"current_range_meters":3600,"station_id":"ce4bgr92rcd13ifvqc6g","pricing_plan_id":"cebpf4jnsgd1na2vs0mg"},{"bike_id":"27074ffc-9ab1-44db-a079-e0a49bb6b5f7","system_id":"levelo_inurba_marseille","lat":43.29188,"lon":5.35816,"is_reserved":false,"is_disabled":false,"rental_uris":{"android":"levelo://app?vid=27074ffc-9ab1-44db-a079-e0a49bb6b5f7","ios":"levelo://app?vid=27074ffc-9ab1-44db-a079-e0a49bb6b5f7"},"vehicle_type_id":"4","last_reported":1774338393,"current_range_meters":4000,"station_id":"ce4bhb12rcd13ifvqel0","pricing_plan_id":"cebpf4jnsgd1na2vs0mg"},{"bike_id":"19816687-f443-4a5d-b7aa-e3cfd2cb0259","system_id":"levelo_inurba_marseille","lat":43.31452,"lon":5.44548,"is_reserved":false,"is_disabled":false,"rental_uris":{"android":"levelo://app?vid=19816687-f443-4a5d-b7aa-e3cfd2cb0259","ios":"levelo://app?vid=19816687-f443-4a5d-b7aa-e3cfd2cb0259"},"vehicle_type_id":"4","last_reported":1774338393,"current_range_meters":4000,"station_id":"","pricing_plan_id":"cebpf4jnsgd1na2vs0mg"},{"bike_id":"4bc91efc-5348-4dd5-84c0-807354869870","system_id":"levelo_inurba_marseille","lat":43.27813,"lon":5.4071,"is_reserved":false,"is_disabled":false,"rental_uris":{"android":"levelo://app?vid=4bc91efc-5348-4dd5-84c0-807354869870","ios":"levelo://app?vid=4bc91efc-5348-4dd5-84c0-807354869870"},"vehicle_type_id":"4","last_reported":1774338393,"current_range_meters":4000,"station_id":"ce4bhnh2rcd13ifvqgtg","pricing_plan_id":"cebpf4jnsgd1na2vs0mg"},{"bike_id":"2a5f80a6-a530-40e8-8b57-fb3c7d7e0c72","system_id":"levelo_inurba_marseille","lat":43.25942,"lon":5.40901,"is_reserved":false,"is_disabled":false,"rental_uris":{"android":"levelo://app?vid=2a5f80a6-a530-40e8-8b57-fb3c7d7e0c72","ios":"levelo://app?vid=2a5f80a6-a530-40e8-8b57-fb3c7d7e0c72"},"vehicle_type_id":"4","last_reported":1774338393,"current_range_meters":4000,"station_id":"ce4bhm92rcd13ifvqglg","pricing_plan_id":"cebpf4jnsgd1na2vs0mg"},{"bike_id":"6d8d09fd-043e-40dd-92de-c6d036fa5ea9","system_id":"levelo_inurba_marseille","lat":43.28916,"lon":5.38397,"is_reserved":false,"is_disabled":true,"rental_uris":{"android":"levelo://app?vid=6d8d09fd-043e-40dd-92de-c6d036fa5ea9","ios":"levelo://app?vid=6d8d09fd-043e-40dd-92de-c6d036fa5ea9"},"vehicle_type_id":"4","last_reported":1774338393,"current_range_meters":4000,"station_id":"ce4bh612rcd13ifvqe6g","pricing_plan_id":"cebpf4jnsgd1na2vs0mg"},{"bike_id":"63fb6336-17f6-4435-9585-e8e9f8fc71fb","system_id":"levelo_inurba_marseille","lat":43.23153,"lon":5.43713,"is_reserved":false,"is_disabled":false,"rental_uris":{"android":"levelo://app?vid=63fb6336-17f6-4435-9585-e8e9f8fc71fb","ios":"levelo://app?vid=63fb6336-17f6-4435-9585-e8e9f8fc71fb"},"vehicle_type_id":"4","last_reported":1774338393,"current_range_meters":4000,"station_id":"ce4bhmp2rcd13ifvqgog","pricing_plan_id":"cebpf4jnsgd1na2vs0mg"},{"bike_id":"ffb98fb8-da98-43fb-9eac-ddb2ee1141c2","system_id":"levelo_inurba_marseille","lat":43.24642,"lon":5.41649,"is_reserved":false,"is_disabled":false,"rental_uris":{"android":"levelo://app?vid=ffb98fb8-da98-43fb-9eac-ddb2ee1141c2","ios":"levelo://app?vid=ffb98fb8-da98-43fb-9eac-ddb2ee1141c2"},"vehicle_type_id":"4","last_reported":1774338393,"current_range_meters":4000,"station_id":"","pricing_plan_id":"cebpf4jnsgd1na2vs0mg"},{"bike_id":"f554888c-9515-430c-b3e9-327a4cc15db0","system_id":"levelo_inurba_marseille","lat":43.2964,"lon":5.42423,"is_reserved":false,"is_disabled":false,"rental_uris":{"android":"levelo://app?vid=f554888c-9515-430c-b3e9-327a4cc15db0","ios":"levelo://app?vid=f554888c-9515-430c-b3e9-327a4cc15db0"},"vehicle_type_id":"4","last_reported":1774338393,"current_range_meters":4000,"station_id":"","pricing_plan_id":"cebpf4jnsgd1na2vs0mg"},{"bike_id":"0add2a96-b6be-483b-ad2e-88265dc5481b","system_id":"levelo_inurba_marseille","lat":43.23903,"lon":5.3752,"is_reserved":false,"is_disabled":false,"rental_uris":{"android":"levelo://app?vid=0add2a96-b6be-483b-ad2e-88265dc5481b","ios":"levelo://app?vid=0add2a96-b6be-483b-ad2e-88265dc5481b"},"vehicle_type_id":"4","last_reported":1774338393,"current_range_meters":4000,"station_id":"st_d6sm7csbq4hs73f8fpjg","pricing_plan_id":"cebpf4jnsgd1na2vs0mg"},{"bike_id":"6f3fdbf9-917f-421d-aa86-02187d7ba65c","system_id":"levelo_inurba_marseille","lat":43.285,"lon":5.48395,"is_reserved":false,"is_disabled":false,"rental_uris":{"android":"levelo://app?vid=6f3fdbf9-917f-421d-aa86-02187d7ba65c","ios":"levelo://app?vid=6f3fdbf9-917f-421d-aa86-02187d7ba65c"},"vehicle_type_id":"4","last_reported":1774338393,"current_range_meters":4000,"station_id":"st_d3svhcjqgbts73a3dn0g","pricing_plan_id":"cebpf4jnsgd1na2vs0mg"},{"bike_id":"e33e44b3-6742-4d53-bcb6-714865b6cd9c","system_id":"levelo_inurba_marseille","lat":43.30136,"lon":5.38785,"is_reserved":false,"is_disabled":true,"rental_uris":{"android":"levelo://app?vid=e33e44b3-6742-4d53-bcb6-714865b6cd9c","ios":"levelo://app?vid=e33e44b3-6742-4d53-bcb6-714865b6cd9c"},"vehicle_type_id":"4","last_reported":1774338393,"current_range_meters":4000,"station_id":"ce4bghh2rcd13ifvqb60","pricing_plan_id":"cebpf4jnsgd1na2vs0mg"},{"bike_id":"97dc2b5d-c116-4f73-8fdc-f09f7cd3f9a8","system_id":"levelo_inurba_marseille","lat":43.28521,"lon":5.441,"is_reserved":false,"is_disabled":false,"rental_uris":{"android":"levelo://app?vid=97dc2b5d-c116-4f73-8fdc-f09f7cd3f9a8","ios":"levelo://app?vid=97dc2b5d-c116-4f73-8fdc-f09f7cd3f9a8"},"vehicle_type_id":"4","last_reported":1774338393,"current_range_meters":4000,"station_id":"st_d3j3df2ikq2c7380ej80","pricing_plan_id":"cebpf4jnsgd1na2vs0mg"},{"bike_id":"134ec09b-de3e-41f0-93c9-aa86737c6894","system_id":"levelo_inurba_marseille","lat":43.32491,"lon":5.38299,"is_reserved":false,"is_disabled":false,"rental_uris":{"android":"levelo://app?vid=134ec09b-de3e-41f0-93c9-aa86737c6894","ios":"levelo://app?vid=134ec09b-de3e-41f0-93c9-aa86737c6894"},"vehicle_type_id":"4","last_reported":1774338393,"current_range_meters":4400,"station_id":"st_d4asgbiv49dc73anf9m0","pricing_plan_id":"cebpf4jnsgd1na2vs0mg"},{"bike_id":"f88785b3-6943-4637-92b7-314729fe3c58","system_id":"levelo_inurba_marseille","lat":43.30843,"lon":5.38325,"is_reserved":false,"is_disabled":false,"rental_uris":{"android":"levelo://app?vid=f88785b3-6943-4637-92b7-314729fe3c58","ios":"levelo://app?vid=f88785b3-6943-4637-92b7-314729fe3c58"},"vehicle_type_id":"4","last_reported":1774338393,"current_range_meters":4400,"station_id":"","pricing_plan_id":"cebpf4jnsgd1na2vs0mg"},{"bike_id":"f066b014-7372-411e-8352-fa71f6c4e549","system_id":"levelo_inurba_marseille","lat":43.26501,"lon":5.39539,"is_reserved":false,"is_disabled":false,"rental_uris":{"android":"levelo://app?vid=f066b014-7372-411e-8352-fa71f6c4e549","ios":"levelo://app?vid=f066b014-7372-411e-8352-fa71f6c4e549"},"vehicle_type_id":"4","last_reported":1774338393,"current_range_meters":4400,"station_id":"ce4bhi12rcd13ifvqfq0","pricing_plan_id":"cebpf4jnsgd1na2vs0mg"},{"bike_id":"de73c310-f5b2-40f5-b1ca-fa0887319316","system_id":"levelo_inurba_marseille","lat":43.330242,"lon":5.390403,"is_reserved":false,"is_disabled":false,"rental_uris":{"android":"levelo://app?vid=de73c310-f5b2-40f5-b1ca-fa0887319316","ios":"levelo://app?vid=de73c310-f5b2-40f5-b1ca-fa0887319316"},"vehicle_type_id":"4","last_reported":1774338393,"current_range_meters":4400,"station_id":"ce4bhr92rcd13ifvqhrg","pricing_plan_id":"cebpf4jnsgd1na2vs0mg"},{"bike_id":"4d88734a-162e-4307-92a3-61e5ee7aa63f","system_id":"levelo_inurba_marseille","lat":43.29205,"lon":5.42586,"is_reserved":false,"is_disabled":true,"rental_uris":{"android":"levelo://app?vid=4d88734a-162e-4307-92a3-61e5ee7aa63f","ios":"levelo://app?vid=4d88734a-162e-4307-92a3-61e5ee7aa63f"},"vehicle_type_id":"4","last_reported":1774338393,"current_range_meters":4400,"station_id":"","pricing_plan_id":"cebpf4jnsgd1na2vs0mg"},{"bike_id":"b207dab1-3250-4004-981c-5514248a7bc0","system_id":"levelo_inurba_marseille","lat":43.24212,"lon":5.41153,"is_reserved":false,"is_disabled":false,"rental_uris":{"android":"levelo://app?vid=b207dab1-3250-4004-981c-5514248a7bc0","ios":"levelo://app?vid=b207dab1-3250-4004-981c-5514248a7bc0"},"vehicle_type_id":"4","last_reported":1774338393,"current_range_meters":4400,"station_id":"","pricing_plan_id":"cebpf4jnsgd1na2vs0mg"},{"bike_id":"c1af2eca-cb1d-451f-a2e9-025bc5e4557d","system_id":"levelo_inurba_marseille","lat":43.302,"lon":5.366,"is_reserved":false,"is_disabled":false,"rental_uris":{"android":"levelo://app?vid=c1af2eca-cb1d-451f-a2e9-025bc5e4557d","ios":"levelo://app?vid=c1af2eca-cb1d-451f-a2e9-025bc5e4557d"},"vehicle_type_id":"4","last_reported":1774338393,"current_range_meters":4400,"station_id":"ce4bgrh2rcd13ifvqc8g","pricing_plan_id":"cebpf4jnsgd1na2vs0mg"},{"bike_id":"2bc83d49-b703-4c80-b4b4-45ce4c327cff","system_id":"levelo_inurba_marseille","lat":43.24166,"lon":5.36393,"is_reserved":false,"is_disabled":false,"rental_uris":{"android":"levelo://app?vid=2bc83d49-b703-4c80-b4b4-45ce4c327cff","ios":"levelo://app?vid=2bc83d49-b703-4c80-b4b4-45ce4c327cff"},"vehicle_type_id":"4","last_reported":1774338393,"current_range_meters":4800,"station_id":"cpo36qri1sfpv3e86is0","pricing_plan_id":"cebpf4jnsgd1na2vs0mg"},{"bike_id":"bdefbc7a-3e4a-49ca-82ec-240953445326","system_id":"levelo_inurba_marseille","lat":43.30473,"lon":5.379,"is_reserved":false,"is_disabled":false,"rental_uris":{"android":"levelo://app?vid=bdefbc7a-3e4a-49ca-82ec-240953445326","ios":"levelo://app?vid=bdefbc7a-3e4a-49ca-82ec-240953445326"},"vehicle_type_id":"4","last_reported":1774338393,"current_range_meters":4800,"station_id":"","pricing_plan_id":"cebpf4jnsgd1na2vs0mg"},{"bike_id":"2eafc84d-04e2-443e-b2f9-26d183f8f086","system_id":"levelo_inurba_marseille","lat":43.278338,"lon":5.392058,"is_reserved":false,"is_disabled":false,"rental_uris":{"android":"levelo://app?vid=2eafc84d-04e2-443e-b2f9-26d183f8f086","ios":"levelo://app?vid=2eafc84d-04e2-443e-b2f9-26d183f8f086"},"vehicle_type_id":"4","last_reported":1774338393,"current_range_meters":4800,"station_id":"ce4bhjp2rcd13ifvqga0","pricing_plan_id":"cebpf4jnsgd1na2vs0mg"},{"bike_id":"87cab354-e36c-4dc9-949d-1832434988fa","system_id":"levelo_inurba_marseille","lat":43.31293,"lon":5.38427,"is_reserved":false,"is_disabled":false,"rental_uris":{"android":"levelo://app?vid=87cab354-e36c-4dc9-949d-1832434988fa","ios":"levelo://app?vid=87cab354-e36c-4dc9-949d-1832434988fa"},"vehicle_type_id":"4","last_reported":1774338393,"current_range_meters":4800,"station_id":"","pricing_plan_id":"cebpf4jnsgd1na2vs0mg"},{"bike_id":"6a361988-483c-4fea-b668-fae45fefb959","system_id":"levelo_inurba_marseille","lat":43.32099,"lon":5.36801,"is_reserved":false,"is_disabled":false,"rental_uris":{"android":"levelo://app?vid=6a361988-483c-4fea-b668-fae45fefb959","ios":"levelo://app?vid=6a361988-483c-4fea-b668-fae45fefb959"},"vehicle_type_id":"4","last_reported":1774338393,"current_range_meters":5600,"station_id":"ce4bhrh2rcd13ifvqhug","pricing_plan_id":"cebpf4jnsgd1na2vs0mg"},{"bike_id":"cfa07362-56e8-41cd-8e9d-ddb2a38a7039","system_id":"levelo_inurba_marseille","lat":43.32655,"lon":5.40999,"is_reserved":false,"is_disabled":false,"rental_uris":{"android":"levelo://app?vid=cfa07362-56e8-41cd-8e9d-ddb2a38a7039","ios":"levelo://app?vid=cfa07362-56e8-41cd-8e9d-ddb2a38a7039"},"vehicle_type_id":"4","last_reported":1774338393,"current_range_meters":5600,"station_id":"ce4bhpp2rcd13ifvqhgg","pricing_plan_id":"cebpf4jnsgd1na2vs0mg"},{"bike_id":"a927fe45-aabd-421f-b607-c6c156dce4f2","system_id":"levelo_inurba_marseille","lat":43.27989,"lon":5.41658,"is_reserved":false,"is_disabled":false,"rental_uris":{"android":"levelo://app?vid=a927fe45-aabd-421f-b607-c6c156dce4f2","ios":"levelo://app?vid=a927fe45-aabd-421f-b607-c6c156dce4f2"},"vehicle_type_id":"4","last_reported":1774338393,"current_range_meters":5600,"station_id":"ce4bho12rcd13ifvqh1g","pricing_plan_id":"cebpf4jnsgd1na2vs0mg"},{"bike_id":"b27bd564-b966-4fad-baab-5d269eba48d9","system_id":"levelo_inurba_marseille","lat":43.30317,"lon":5.36919,"is_reserved":false,"is_disabled":false,"rental_uris":{"android":"levelo://app?vid=b27bd564-b966-4fad-baab-5d269eba48d9","ios":"levelo://app?vid=b27bd564-b966-4fad-baab-5d269eba48d9"},"vehicle_type_id":"4","last_reported":1774338393,"current_range_meters":5600,"station_id":"ce4bgqh2rcd13ifvqc5g","pricing_plan_id":"cebpf4jnsgd1na2vs0mg"},{"bike_id":"41172bf4-9073-4c63-9a20-35e7325b6630","system_id":"levelo_inurba_marseille","lat":43.27089,"lon":5.42268,"is_reserved":false,"is_disabled":false,"rental_uris":{"android":"levelo://app?vid=41172bf4-9073-4c63-9a20-35e7325b6630","ios":"levelo://app?vid=41172bf4-9073-4c63-9a20-35e7325b6630"},"vehicle_type_id":"4","last_reported":1774338393,"current_range_meters":5600,"station_id":"ce4bhk92rcd13ifvqgb0","pricing_plan_id":"cebpf4jnsgd1na2vs0mg"},{"bike_id":"7ccfa77f-5187-4b13-a240-5cc7dcbdd5f8","system_id":"levelo_inurba_marseille","lat":43.31354,"lon":5.3671,"is_reserved":false,"is_disabled":false,"rental_uris":{"android":"levelo://app?vid=7ccfa77f-5187-4b13-a240-5cc7dcbdd5f8","ios":"levelo://app?vid=7ccfa77f-5187-4b13-a240-5cc7dcbdd5f8"},"vehicle_type_id":"4","last_reported":1774338393,"current_range_meters":5600,"station_id":"ce4bgr92rcd13ifvqc6g","pricing_plan_id":"cebpf4jnsgd1na2vs0mg"},{"bike_id":"bbb20be4-a4e3-4756-bf9e-de6efa0abbb9","system_id":"levelo_inurba_marseille","lat":43.29223,"lon":5.42598,"is_reserved":false,"is_disabled":false,"rental_uris":{"android":"levelo://app?vid=bbb20be4-a4e3-4756-bf9e-de6efa0abbb9","ios":"levelo://app?vid=bbb20be4-a4e3-4756-bf9e-de6efa0abbb9"},"vehicle_type_id":"4","last_reported":1774338393,"current_range_meters":5600,"station_id":"","pricing_plan_id":"cebpf4jnsgd1na2vs0mg"},{"bike_id":"c0ede030-ab9a-4615-a9c7-01479ac5ac50","system_id":"levelo_inurba_marseille","lat":43.26693,"lon":5.38301,"is_reserved":false,"is_disabled":false,"rental_uris":{"android":"levelo://app?vid=c0ede030-ab9a-4615-a9c7-01479ac5ac50","ios":"levelo://app?vid=c0ede030-ab9a-4615-a9c7-01479ac5ac50"},"vehicle_type_id":"4","last_reported":1774338393,"current_range_meters":5600,"station_id":"ce4bhg92rcd13ifvqf90","pricing_plan_id":"cebpf4jnsgd1na2vs0mg"},{"bike_id":"721cfa1d-7039-41dc-a600-4a7b81e0fa79","system_id":"levelo_inurba_marseille","lat":43.29608,"lon":5.37726,"is_reserved":false,"is_disabled":false,"rental_uris":{"android":"levelo://app?vid=721cfa1d-7039-41dc-a600-4a7b81e0fa79","ios":"levelo://app?vid=721cfa1d-7039-41dc-a600-4a7b81e0fa79"},"vehicle_type_id":"4","last_reported":1774338393,"current_range_meters":5600,"station_id":"ce4bgi92rcd13ifvqb90","pricing_plan_id":"cebpf4jnsgd1na2vs0mg"},{"bike_id":"add12537-c22e-4fa6-8a00-691f2005125e","system_id":"levelo_inurba_marseille","lat":43.2961,"lon":5.37729,"is_reserved":false,"is_disabled":false,"rental_uris":{"android":"levelo://app?vid=add12537-c22e-4fa6-8a00-691f2005125e","ios":"levelo://app?vid=add12537-c22e-4fa6-8a00-691f2005125e"},"vehicle_type_id":"4","last_reported":1774338393,"current_range_meters":5600,"station_id":"ce4bgi92rcd13ifvqb90","pricing_plan_id":"cebpf4jnsgd1na2vs0mg"},{"bike_id":"bf5af6f8-69a5-4b76-be3f-994c76781739","system_id":"levelo_inurba_marseille","lat":43.26579,"lon":5.39026,"is_reserved":false,"is_disabled":true,"rental_uris":{"android":"levelo://app?vid=bf5af6f8-69a5-4b76-be3f-994c76781739","ios":"levelo://app?vid=bf5af6f8-69a5-4b76-be3f-994c76781739"},"vehicle_type_id":"4","last_reported":1774338393,"current_range_meters":6000,"station_id":"ce4bhe12rcd13ifvqf30","pricing_plan_id":"cebpf4jnsgd1na2vs0mg"},{"bike_id":"668c57bc-f865-4535-8ed5-05e9823607f4","system_id":"levelo_inurba_marseille","lat":43.30593,"lon":5.39361,"is_reserved":false,"is_disabled":false,"rental_uris":{"android":"levelo://app?vid=668c57bc-f865-4535-8ed5-05e9823607f4","ios":"levelo://app?vid=668c57bc-f865-4535-8ed5-05e9823607f4"},"vehicle_type_id":"4","last_reported":1774338393,"current_range_meters":6000,"station_id":"ce4bh0p2rcd13ifvqd80","pricing_plan_id":"cebpf4jnsgd1na2vs0mg"},{"bike_id":"9ee9e783-2c85-4849-91db-12992211c84e","system_id":"levelo_inurba_marseille","lat":43.23151,"lon":5.43712,"is_reserved":false,"is_disabled":false,"rental_uris":{"android":"levelo://app?vid=9ee9e783-2c85-4849-91db-12992211c84e","ios":"levelo://app?vid=9ee9e783-2c85-4849-91db-12992211c84e"},"vehicle_type_id":"4","last_reported":1774338393,"current_range_meters":6400,"station_id":"ce4bhmp2rcd13ifvqgog","pricing_plan_id":"cebpf4jnsgd1na2vs0mg"},{"bike_id":"e41c893a-4032-48f3-bf3a-8efcbfe1465c","system_id":"levelo_inurba_marseille","lat":43.25845,"lon":5.39476,"is_reserved":false,"is_disabled":true,"rental_uris":{"android":"levelo://app?vid=e41c893a-4032-48f3-bf3a-8efcbfe1465c","ios":"levelo://app?vid=e41c893a-4032-48f3-bf3a-8efcbfe1465c"},"vehicle_type_id":"4","last_reported":1774338393,"current_range_meters":6400,"station_id":"ce4bhip2rcd13ifvqft0","pricing_plan_id":"cebpf4jnsgd1na2vs0mg"},{"bike_id":"32c10904-c86e-49fe-9b38-4b1f1e693e0b","system_id":"levelo_inurba_marseille","lat":43.27492,"lon":5.42454,"is_reserved":false,"is_disabled":false,"rental_uris":{"android":"levelo://app?vid=32c10904-c86e-49fe-9b38-4b1f1e693e0b","ios":"levelo://app?vid=32c10904-c86e-49fe-9b38-4b1f1e693e0b"},"vehicle_type_id":"4","last_reported":1774338393,"current_range_meters":6400,"station_id":"","pricing_plan_id":"cebpf4jnsgd1na2vs0mg"},{"bike_id":"67fa727b-a75e-43f5-8f7f-0420dd73f369","system_id":"levelo_inurba_marseille","lat":43.31497,"lon":5.3728,"is_reserved":false,"is_disabled":false,"rental_uris":{"android":"levelo://app?vid=67fa727b-a75e-43f5-8f7f-0420dd73f369","ios":"levelo://app?vid=67fa727b-a75e-43f5-8f7f-0420dd73f369"},"vehicle_type_id":"4","last_reported":1774338393,"current_range_meters":6400,"station_id":"ce4bgt12rcd13ifvqcd0","pricing_plan_id":"cebpf4jnsgd1na2vs0mg"},{"bike_id":"c3fb6ac0-526f-4836-98cf-d46bdb9ad792","system_id":"levelo_inurba_marseille","lat":43.31054,"lon":5.37183,"is_reserved":false,"is_disabled":false,"rental_uris":{"android":"levelo://app?vid=c3fb6ac0-526f-4836-98cf-d46bdb9ad792","ios":"levelo://app?vid=c3fb6ac0-526f-4836-98cf-d46bdb9ad792"},"vehicle_type_id":"4","last_reported":1774338393,"current_range_meters":6400,"station_id":"st_d4kl2rp97mjs73e7tdfg","pricing_plan_id":"cebpf4jnsgd1na2vs0mg"},{"bike_id":"88ea6883-c6c4-40a1-8e0b-5a327dfa70dd","system_id":"levelo_inurba_marseille","lat":43.24059,"lon":5.37745,"is_reserved":false,"is_disabled":false,"rental_uris":{"android":"levelo://app?vid=88ea6883-c6c4-40a1-8e0b-5a327dfa70dd","ios":"levelo://app?vid=88ea6883-c6c4-40a1-8e0b-5a327dfa70dd"},"vehicle_type_id":"4","last_reported":1774338393,"current_range_meters":6400,"station_id":"ce4bhnp2rcd13ifvqgvg","pricing_plan_id":"cebpf4jnsgd1na2vs0mg"},{"bike_id":"62c91179-5440-4532-812c-52926c059e06","system_id":"levelo_inurba_marseille","lat":43.25579,"lon":5.37753,"is_reserved":false,"is_disabled":false,"rental_uris":{"android":"levelo://app?vid=62c91179-5440-4532-812c-52926c059e06","ios":"levelo://app?vid=62c91179-5440-4532-812c-52926c059e06"},"vehicle_type_id":"4","last_reported":1774338393,"current_range_meters":6400,"station_id":"","pricing_plan_id":"cebpf4jnsgd1na2vs0mg"},{"bike_id":"d2260517-36eb-498b-95a6-a249410b03cf","system_id":"levelo_inurba_marseille","lat":43.26581,"lon":5.39816,"is_reserved":false,"is_disabled":false,"rental_uris":{"android":"levelo://app?vid=d2260517-36eb-498b-95a6-a249410b03cf","ios":"levelo://app?vid=d2260517-36eb-498b-95a6-a249410b03cf"},"vehicle_type_id":"4","last_reported":1774338393,"current_range_meters":6400,"station_id":"","pricing_plan_id":"cebpf4jnsgd1na2vs0mg"},{"bike_id":"a79f30c6-bfcd-4d19-9257-2c133e759681","system_id":"levelo_inurba_marseille","lat":43.2961,"lon":5.38102,"is_reserved":false,"is_disabled":false,"rental_uris":{"android":"levelo://app?vid=a79f30c6-bfcd-4d19-9257-2c133e759681","ios":"levelo://app?vid=a79f30c6-bfcd-4d19-9257-2c133e759681"},"vehicle_type_id":"4","last_reported":1774338393,"current_range_meters":6400,"station_id":"ce4bgl12rcd13ifvqbo0","pricing_plan_id":"cebpf4jnsgd1na2vs0mg"},{"bike_id":"df0e872e-7823-4be5-8eef-e6b05d80e3e1","system_id":"levelo_inurba_marseille","lat":43.27828,"lon":5.39207,"is_reserved":false,"is_disabled":false,"rental_uris":{"android":"levelo://app?vid=df0e872e-7823-4be5-8eef-e6b05d80e3e1","ios":"levelo://app?vid=df0e872e-7823-4be5-8eef-e6b05d80e3e1"},"vehicle_type_id":"4","last_reported":1774338393,"current_range_meters":6400,"station_id":"ce4bhjp2rcd13ifvqga0","pricing_plan_id":"cebpf4jnsgd1na2vs0mg"},{"bike_id":"bbcec521-b2cb-4752-a30b-3cc813f9ce07","system_id":"levelo_inurba_marseille","lat":43.28727,"lon":5.44821,"is_reserved":false,"is_disabled":false,"rental_uris":{"android":"levelo://app?vid=bbcec521-b2cb-4752-a30b-3cc813f9ce07","ios":"levelo://app?vid=bbcec521-b2cb-4752-a30b-3cc813f9ce07"},"vehicle_type_id":"4","last_reported":1774338393,"current_range_meters":6400,"station_id":"","pricing_plan_id":"cebpf4jnsgd1na2vs0mg"},{"bike_id":"40906df4-17dd-4d9f-ac1f-0880c5eb117e","system_id":"levelo_inurba_marseille","lat":43.32342,"lon":5.36703,"is_reserved":false,"is_disabled":false,"rental_uris":{"android":"levelo://app?vid=40906df4-17dd-4d9f-ac1f-0880c5eb117e","ios":"levelo://app?vid=40906df4-17dd-4d9f-ac1f-0880c5eb117e"},"vehicle_type_id":"4","last_reported":1774338393,"current_range_meters":6800,"station_id":"","pricing_plan_id":"cebpf4jnsgd1na2vs0mg"},{"bike_id":"a2fabdf4-bd61-4352-82b4-201f5349c59d","system_id":"levelo_inurba_marseille","lat":43.26559,"lon":5.39015,"is_reserved":false,"is_disabled":true,"rental_uris":{"android":"levelo://app?vid=a2fabdf4-bd61-4352-82b4-201f5349c59d","ios":"levelo://app?vid=a2fabdf4-bd61-4352-82b4-201f5349c59d"},"vehicle_type_id":"4","last_reported":1774338393,"current_range_meters":6800,"station_id":"ce4bhe12rcd13ifvqf30","pricing_plan_id":"cebpf4jnsgd1na2vs0mg"},{"bike_id":"2593cae9-07d2-4801-88ca-9c556e6b12e5","system_id":"levelo_inurba_marseille","lat":43.30916,"lon":5.36833,"is_reserved":false,"is_disabled":false,"rental_uris":{"android":"levelo://app?vid=2593cae9-07d2-4801-88ca-9c556e6b12e5","ios":"levelo://app?vid=2593cae9-07d2-4801-88ca-9c556e6b12e5"},"vehicle_type_id":"4","last_reported":1774338393,"current_range_meters":6800,"station_id":"ce4bgn92rcd13ifvqbvg","pricing_plan_id":"cebpf4jnsgd1na2vs0mg"},{"bike_id":"e26cad14-80c1-408f-93b7-42ec5fb3d42d","system_id":"levelo_inurba_marseille","lat":43.31051,"lon":5.3713,"is_reserved":false,"is_disabled":false,"rental_uris":{"android":"levelo://app?vid=e26cad14-80c1-408f-93b7-42ec5fb3d42d","ios":"levelo://app?vid=e26cad14-80c1-408f-93b7-42ec5fb3d42d"},"vehicle_type_id":"4","last_reported":1774338393,"current_range_meters":6800,"station_id":"st_d4kl2rp97mjs73e7tdfg","pricing_plan_id":"cebpf4jnsgd1na2vs0mg"},{"bike_id":"80322e6f-586a-421f-ad90-23d802ed8962","system_id":"levelo_inurba_marseille","lat":43.24062,"lon":5.37753,"is_reserved":false,"is_disabled":false,"rental_uris":{"android":"levelo://app?vid=80322e6f-586a-421f-ad90-23d802ed8962","ios":"levelo://app?vid=80322e6f-586a-421f-ad90-23d802ed8962"},"vehicle_type_id":"4","last_reported":1774338393,"current_range_meters":6800,"station_id":"ce4bhnp2rcd13ifvqgvg","pricing_plan_id":"cebpf4jnsgd1na2vs0mg"},{"bike_id":"a9fcd02c-7b6b-4ad8-a39d-d88606ee3ac0","system_id":"levelo_inurba_marseille","lat":43.25003,"lon":5.38894,"is_reserved":false,"is_disabled":true,"rental_uris":{"android":"levelo://app?vid=a9fcd02c-7b6b-4ad8-a39d-d88606ee3ac0","ios":"levelo://app?vid=a9fcd02c-7b6b-4ad8-a39d-d88606ee3ac0"},"vehicle_type_id":"4","last_reported":1774338393,"current_range_meters":6800,"station_id":"ce4bhgp2rcd13ifvqfd0","pricing_plan_id":"cebpf4jnsgd1na2vs0mg"},{"bike_id":"1d0f3067-7ca2-4fbd-8b40-b921c6748a4a","system_id":"levelo_inurba_marseille","lat":43.28464,"lon":5.48377,"is_reserved":false,"is_disabled":false,"rental_uris":{"android":"levelo://app?vid=1d0f3067-7ca2-4fbd-8b40-b921c6748a4a","ios":"levelo://app?vid=1d0f3067-7ca2-4fbd-8b40-b921c6748a4a"},"vehicle_type_id":"4","last_reported":1774338393,"current_range_meters":6800,"station_id":"","pricing_plan_id":"cebpf4jnsgd1na2vs0mg"},{"bike_id":"ee698121-d38a-42d7-b2ad-b69bddb1a86c","system_id":"levelo_inurba_marseille","lat":43.28443,"lon":5.35003,"is_reserved":false,"is_disabled":false,"rental_uris":{"android":"levelo://app?vid=ee698121-d38a-42d7-b2ad-b69bddb1a86c","ios":"levelo://app?vid=ee698121-d38a-42d7-b2ad-b69bddb1a86c"},"vehicle_type_id":"4","last_reported":1774338393,"current_range_meters":6800,"station_id":"ce4bhbh2rcd13ifvqepg","pricing_plan_id":"cebpf4jnsgd1na2vs0mg"},{"bike_id":"177c45f7-f11e-43b9-b2f9-1f790a42002f","system_id":"levelo_inurba_marseille","lat":43.31342,"lon":5.36712,"is_reserved":false,"is_disabled":false,"rental_uris":{"android":"levelo://app?vid=177c45f7-f11e-43b9-b2f9-1f790a42002f","ios":"levelo://app?vid=177c45f7-f11e-43b9-b2f9-1f790a42002f"},"vehicle_type_id":"4","last_reported":1774338393,"current_range_meters":6800,"station_id":"ce4bgr92rcd13ifvqc6g","pricing_plan_id":"cebpf4jnsgd1na2vs0mg"},{"bike_id":"25aba11d-2f16-4181-8f88-a07f4618aeab","system_id":"levelo_inurba_marseille","lat":43.29789,"lon":5.39343,"is_reserved":false,"is_disabled":false,"rental_uris":{"android":"levelo://app?vid=25aba11d-2f16-4181-8f88-a07f4618aeab","ios":"levelo://app?vid=25aba11d-2f16-4181-8f88-a07f4618aeab"},"vehicle_type_id":"4","last_reported":1774338393,"current_range_meters":6800,"station_id":"chh1huq6cuj3fo74tm60","pricing_plan_id":"cebpf4jnsgd1na2vs0mg"},{"bike_id":"599f0d21-9b9b-4762-92ac-f5d6b945f516","system_id":"levelo_inurba_marseille","lat":43.30522,"lon":5.38428,"is_reserved":false,"is_disabled":false,"rental_uris":{"android":"levelo://app?vid=599f0d21-9b9b-4762-92ac-f5d6b945f516","ios":"levelo://app?vid=599f0d21-9b9b-4762-92ac-f5d6b945f516"},"vehicle_type_id":"4","last_reported":1774338393,"current_range_meters":6800,"station_id":"ce4bgg92rcd13ifvqb30","pricing_plan_id":"cebpf4jnsgd1na2vs0mg"},{"bike_id":"72999db3-62c4-4d6b-9c7f-3129997c7dc6","system_id":"levelo_inurba_marseille","lat":43.28127,"lon":5.40951,"is_reserved":false,"is_disabled":false,"rental_uris":{"android":"levelo://app?vid=72999db3-62c4-4d6b-9c7f-3129997c7dc6","ios":"levelo://app?vid=72999db3-62c4-4d6b-9c7f-3129997c7dc6"},"vehicle_type_id":"4","last_reported":1774338393,"current_range_meters":6800,"station_id":"","pricing_plan_id":"cebpf4jnsgd1na2vs0mg"},{"bike_id":"ddd19851-2813-4f37-ad2a-16ff941ac458","system_id":"levelo_inurba_marseille","lat":43.26932,"lon":5.40264,"is_reserved":false,"is_disabled":false,"rental_uris":{"android":"levelo://app?vid=ddd19851-2813-4f37-ad2a-16ff941ac458","ios":"levelo://app?vid=ddd19851-2813-4f37-ad2a-16ff941ac458"},"vehicle_type_id":"4","last_reported":1774338393,"current_range_meters":6800,"station_id":"cjm6bp8fraef2m0cb0m0","pricing_plan_id":"cebpf4jnsgd1na2vs0mg"},{"bike_id":"865b96b6-e98e-46e0-b54c-50dfe88286fd","system_id":"levelo_inurba_marseille","lat":43.25329,"lon":5.42179,"is_reserved":false,"is_disabled":false,"rental_uris":{"android":"levelo://app?vid=865b96b6-e98e-46e0-b54c-50dfe88286fd","ios":"levelo://app?vid=865b96b6-e98e-46e0-b54c-50dfe88286fd"},"vehicle_type_id":"4","last_reported":1774338393,"current_range_meters":6800,"station_id":"st_d2m65c5bi1j21697t3ng","pricing_plan_id":"cebpf4jnsgd1na2vs0mg"},{"bike_id":"d89b1915-483d-4d09-b44a-47b8df915eef","system_id":"levelo_inurba_marseille","lat":43.23097,"lon":5.35497,"is_reserved":false,"is_disabled":false,"rental_uris":{"android":"levelo://app?vid=d89b1915-483d-4d09-b44a-47b8df915eef","ios":"levelo://app?vid=d89b1915-483d-4d09-b44a-47b8df915eef"},"vehicle_type_id":"4","last_reported":1774338393,"current_range_meters":6800,"station_id":"","pricing_plan_id":"cebpf4jnsgd1na2vs0mg"},{"bike_id":"82aadc8f-eda7-4252-b082-5aefae0edd2f","system_id":"levelo_inurba_marseille","lat":43.26682,"lon":5.38268,"is_reserved":false,"is_disabled":false,"rental_uris":{"android":"levelo://app?vid=82aadc8f-eda7-4252-b082-5aefae0edd2f","ios":"levelo://app?vid=82aadc8f-eda7-4252-b082-5aefae0edd2f"},"vehicle_type_id":"4","last_reported":1774338393,"current_range_meters":6800,"station_id":"ce4bhg92rcd13ifvqf90","pricing_plan_id":"cebpf4jnsgd1na2vs0mg"},{"bike_id":"f910acab-e234-4475-91c9-ec3fea6d1bf3","system_id":"levelo_inurba_marseille","lat":43.29905,"lon":5.43677,"is_reserved":false,"is_disabled":false,"rental_uris":{"android":"levelo://app?vid=f910acab-e234-4475-91c9-ec3fea6d1bf3","ios":"levelo://app?vid=f910acab-e234-4475-91c9-ec3fea6d1bf3"},"vehicle_type_id":"4","last_reported":1774338393,"current_range_meters":7200,"station_id":"ce4bhpp2rcd13ifvqhfg","pricing_plan_id":"cebpf4jnsgd1na2vs0mg"},{"bike_id":"2f5b6265-483e-47d4-831c-32860cec290b","system_id":"levelo_inurba_marseille","lat":43.29572,"lon":5.42278,"is_reserved":false,"is_disabled":false,"rental_uris":{"android":"levelo://app?vid=2f5b6265-483e-47d4-831c-32860cec290b","ios":"levelo://app?vid=2f5b6265-483e-47d4-831c-32860cec290b"},"vehicle_type_id":"4","last_reported":1774338393,"current_range_meters":7200,"station_id":"ce4bhph2rcd13ifvqhdg","pricing_plan_id":"cebpf4jnsgd1na2vs0mg"},{"bike_id":"cd0735fe-704a-44cd-ac85-6b563bbd6b48","system_id":"levelo_inurba_marseille","lat":43.28917,"lon":5.36633,"is_reserved":false,"is_disabled":false,"rental_uris":{"android":"levelo://app?vid=cd0735fe-704a-44cd-ac85-6b563bbd6b48","ios":"levelo://app?vid=cd0735fe-704a-44cd-ac85-6b563bbd6b48"},"vehicle_type_id":"4","last_reported":1774338393,"current_range_meters":7200,"station_id":"ce4bhap2rcd13ifvqek0","pricing_plan_id":"cebpf4jnsgd1na2vs0mg"},{"bike_id":"e777dc2e-9308-43c6-a6be-09685ee35cc2","system_id":"levelo_inurba_marseille","lat":43.28536,"lon":5.44104,"is_reserved":false,"is_disabled":false,"rental_uris":{"android":"levelo://app?vid=e777dc2e-9308-43c6-a6be-09685ee35cc2","ios":"levelo://app?vid=e777dc2e-9308-43c6-a6be-09685ee35cc2"},"vehicle_type_id":"4","last_reported":1774338393,"current_range_meters":7200,"station_id":"st_d3j3df2ikq2c7380ej80","pricing_plan_id":"cebpf4jnsgd1na2vs0mg"},{"bike_id":"aa929685-e4dd-4a31-a1c6-979463fa81a3","system_id":"levelo_inurba_marseille","lat":43.28521,"lon":5.48386,"is_reserved":false,"is_disabled":false,"rental_uris":{"android":"levelo://app?vid=aa929685-e4dd-4a31-a1c6-979463fa81a3","ios":"levelo://app?vid=aa929685-e4dd-4a31-a1c6-979463fa81a3"},"vehicle_type_id":"4","last_reported":1774338393,"current_range_meters":7200,"station_id":"st_d3svhcjqgbts73a3dn0g","pricing_plan_id":"cebpf4jnsgd1na2vs0mg"},{"bike_id":"de080062-3a9b-4bf2-bc8f-71e6332f2301","system_id":"levelo_inurba_marseille","lat":43.21752,"lon":5.34605,"is_reserved":false,"is_disabled":false,"rental_uris":{"android":"levelo://app?vid=de080062-3a9b-4bf2-bc8f-71e6332f2301","ios":"levelo://app?vid=de080062-3a9b-4bf2-bc8f-71e6332f2301"},"vehicle_type_id":"4","last_reported":1774338393,"current_range_meters":7200,"station_id":"st_cvj6r9ubvosntc0bgbag","pricing_plan_id":"cebpf4jnsgd1na2vs0mg"},{"bike_id":"073c79ac-ecc6-41bf-afbb-1751ccb98970","system_id":"levelo_inurba_marseille","lat":43.29271,"lon":5.38438,"is_reserved":false,"is_disabled":false,"rental_uris":{"android":"levelo://app?vid=073c79ac-ecc6-41bf-afbb-1751ccb98970","ios":"levelo://app?vid=073c79ac-ecc6-41bf-afbb-1751ccb98970"},"vehicle_type_id":"4","last_reported":1774338393,"current_range_meters":7200,"station_id":"ce4bh692rcd13ifvqea0","pricing_plan_id":"cebpf4jnsgd1na2vs0mg"},{"bike_id":"4ce98637-072f-4197-bd69-11f207a88eab","system_id":"levelo_inurba_marseille","lat":43.28496,"lon":5.47279,"is_reserved":false,"is_disabled":false,"rental_uris":{"android":"levelo://app?vid=4ce98637-072f-4197-bd69-11f207a88eab","ios":"levelo://app?vid=4ce98637-072f-4197-bd69-11f207a88eab"},"vehicle_type_id":"4","last_reported":1774338393,"current_range_meters":7200,"station_id":"","pricing_plan_id":"cebpf4jnsgd1na2vs0mg"},{"bike_id":"3f30f2ff-40f2-4f9d-996a-0de8bac95dfa","system_id":"levelo_inurba_marseille","lat":43.26556,"lon":5.37285,"is_reserved":false,"is_disabled":false,"rental_uris":{"android":"levelo://app?vid=3f30f2ff-40f2-4f9d-996a-0de8bac95dfa","ios":"levelo://app?vid=3f30f2ff-40f2-4f9d-996a-0de8bac95dfa"},"vehicle_type_id":"4","last_reported":1774338393,"current_range_meters":7200,"station_id":"ce4bhg12rcd13ifvqf70","pricing_plan_id":"cebpf4jnsgd1na2vs0mg"},{"bike_id":"0b786319-6d9f-4d1c-890a-5150198e272a","system_id":"levelo_inurba_marseille","lat":43.28479,"lon":5.4839,"is_reserved":false,"is_disabled":false,"rental_uris":{"android":"levelo://app?vid=0b786319-6d9f-4d1c-890a-5150198e272a","ios":"levelo://app?vid=0b786319-6d9f-4d1c-890a-5150198e272a"},"vehicle_type_id":"4","last_reported":1774338393,"current_range_meters":7200,"station_id":"st_d3svhcjqgbts73a3dn0g","pricing_plan_id":"cebpf4jnsgd1na2vs0mg"},{"bike_id":"593f64d6-69ba-4b55-abc8-92d3e0660c14","system_id":"levelo_inurba_marseille","lat":43.317135,"lon":5.377346,"is_reserved":false,"is_disabled":false,"rental_uris":{"android":"levelo://app?vid=593f64d6-69ba-4b55-abc8-92d3e0660c14","ios":"levelo://app?vid=593f64d6-69ba-4b55-abc8-92d3e0660c14"},"vehicle_type_id":"4","last_reported":1774338393,"current_range_meters":7200,"station_id":"ce4bgth2rcd13ifvqch0","pricing_plan_id":"cebpf4jnsgd1na2vs0mg"},{"bike_id":"72c8e3c0-52d4-49e1-9aa9-201dd7c27a60","system_id":"levelo_inurba_marseille","lat":43.31075,"lon":5.378,"is_reserved":false,"is_disabled":true,"rental_uris":{"android":"levelo://app?vid=72c8e3c0-52d4-49e1-9aa9-201dd7c27a60","ios":"levelo://app?vid=72c8e3c0-52d4-49e1-9aa9-201dd7c27a60"},"vehicle_type_id":"4","last_reported":1774338393,"current_range_meters":7200,"station_id":"ce4bgt92rcd13ifvqcg0","pricing_plan_id":"cebpf4jnsgd1na2vs0mg"},{"bike_id":"69a34fac-fc80-43dc-bb66-91eee3bdfb90","system_id":"levelo_inurba_marseille","lat":43.28734,"lon":5.35377,"is_reserved":false,"is_disabled":false,"rental_uris":{"android":"levelo://app?vid=69a34fac-fc80-43dc-bb66-91eee3bdfb90","ios":"levelo://app?vid=69a34fac-fc80-43dc-bb66-91eee3bdfb90"},"vehicle_type_id":"4","last_reported":1774338393,"current_range_meters":7200,"station_id":"","pricing_plan_id":"cebpf4jnsgd1na2vs0mg"},{"bike_id":"1d4e3a03-a311-40a6-bbc3-9c5b094efb9a","system_id":"levelo_inurba_marseille","lat":43.25938,"lon":5.40923,"is_reserved":false,"is_disabled":false,"rental_uris":{"android":"levelo://app?vid=1d4e3a03-a311-40a6-bbc3-9c5b094efb9a","ios":"levelo://app?vid=1d4e3a03-a311-40a6-bbc3-9c5b094efb9a"},"vehicle_type_id":"4","last_reported":1774338393,"current_range_meters":7200,"station_id":"ce4bhm92rcd13ifvqglg","pricing_plan_id":"cebpf4jnsgd1na2vs0mg"},{"bike_id":"6c38d50c-f0b4-452f-b130-3c693b71b20b","system_id":"levelo_inurba_marseille","lat":43.30267,"lon":5.37725,"is_reserved":false,"is_disabled":false,"rental_uris":{"android":"levelo://app?vid=6c38d50c-f0b4-452f-b130-3c693b71b20b","ios":"levelo://app?vid=6c38d50c-f0b4-452f-b130-3c693b71b20b"},"vehicle_type_id":"4","last_reported":1774338393,"current_range_meters":7200,"station_id":"ce4bguh2rcd13ifvqcj0","pricing_plan_id":"cebpf4jnsgd1na2vs0mg"},{"bike_id":"57d7bf7f-f9e1-478f-bc01-3ea7648232d4","system_id":"levelo_inurba_marseille","lat":43.24547,"lon":5.39533,"is_reserved":false,"is_disabled":false,"rental_uris":{"android":"levelo://app?vid=57d7bf7f-f9e1-478f-bc01-3ea7648232d4","ios":"levelo://app?vid=57d7bf7f-f9e1-478f-bc01-3ea7648232d4"},"vehicle_type_id":"4","last_reported":1774338393,"current_range_meters":7200,"station_id":"ce4bhlp2rcd13ifvqgjg","pricing_plan_id":"cebpf4jnsgd1na2vs0mg"},{"bike_id":"6e12c744-c386-4fad-befe-29eb201902c0","system_id":"levelo_inurba_marseille","lat":43.27068,"lon":5.42299,"is_reserved":false,"is_disabled":false,"rental_uris":{"android":"levelo://app?vid=6e12c744-c386-4fad-befe-29eb201902c0","ios":"levelo://app?vid=6e12c744-c386-4fad-befe-29eb201902c0"},"vehicle_type_id":"4","last_reported":1774338393,"current_range_meters":7200,"station_id":"ce4bhk92rcd13ifvqgb0","pricing_plan_id":"cebpf4jnsgd1na2vs0mg"},{"bike_id":"f4a22ed4-27e4-4a1b-8711-0d5edbbeb7a6","system_id":"levelo_inurba_marseille","lat":43.27812,"lon":5.39222,"is_reserved":false,"is_disabled":false,"rental_uris":{"android":"levelo://app?vid=f4a22ed4-27e4-4a1b-8711-0d5edbbeb7a6","ios":"levelo://app?vid=f4a22ed4-27e4-4a1b-8711-0d5edbbeb7a6"},"vehicle_type_id":"4","last_reported":1774338393,"current_range_meters":7200,"station_id":"ce4bhjp2rcd13ifvqga0","pricing_plan_id":"cebpf4jnsgd1na2vs0mg"},{"bike_id":"1268f0ba-6ede-4b32-b537-c1c45075a75b","system_id":"levelo_inurba_marseille","lat":43.27957,"lon":5.38753,"is_reserved":false,"is_disabled":false,"rental_uris":{"android":"levelo://app?vid=1268f0ba-6ede-4b32-b537-c1c45075a75b","ios":"levelo://app?vid=1268f0ba-6ede-4b32-b537-c1c45075a75b"},"vehicle_type_id":"4","last_reported":1774338393,"current_range_meters":7200,"station_id":"ce4bhg12rcd13ifvqf80","pricing_plan_id":"cebpf4jnsgd1na2vs0mg"},{"bike_id":"77deb619-deef-42c1-ade2-8dca83a843fb","system_id":"levelo_inurba_marseille","lat":43.29493,"lon":5.43313,"is_reserved":false,"is_disabled":false,"rental_uris":{"android":"levelo://app?vid=77deb619-deef-42c1-ade2-8dca83a843fb","ios":"levelo://app?vid=77deb619-deef-42c1-ade2-8dca83a843fb"},"vehicle_type_id":"4","last_reported":1774338393,"current_range_meters":8000,"station_id":"st_d3j5ugp08ojc73fj9d10","pricing_plan_id":"cebpf4jnsgd1na2vs0mg"},{"bike_id":"723e7a23-5678-4097-b3d4-28ccc2fdcf61","system_id":"levelo_inurba_marseille","lat":43.28613,"lon":5.35104,"is_reserved":false,"is_disabled":true,"rental_uris":{"android":"levelo://app?vid=723e7a23-5678-4097-b3d4-28ccc2fdcf61","ios":"levelo://app?vid=723e7a23-5678-4097-b3d4-28ccc2fdcf61"},"vehicle_type_id":"4","last_reported":1774338393,"current_range_meters":8000,"station_id":"ce4bhch2rcd13ifvqeug","pricing_plan_id":"cebpf4jnsgd1na2vs0mg"},{"bike_id":"5cca4b32-612b-471f-a02d-66912cbe70ff","system_id":"levelo_inurba_marseille","lat":43.2119,"lon":5.35076,"is_reserved":false,"is_disabled":true,"rental_uris":{"android":"levelo://app?vid=5cca4b32-612b-471f-a02d-66912cbe70ff","ios":"levelo://app?vid=5cca4b32-612b-471f-a02d-66912cbe70ff"},"vehicle_type_id":"4","last_reported":1774338393,"current_range_meters":8000,"station_id":"st_cvj6sg6p6f1abm77japg","pricing_plan_id":"cebpf4jnsgd1na2vs0mg"},{"bike_id":"c3eaa22e-0f93-427e-8061-64cb3be418b7","system_id":"levelo_inurba_marseille","lat":43.29061,"lon":5.39986,"is_reserved":false,"is_disabled":false,"rental_uris":{"android":"levelo://app?vid=c3eaa22e-0f93-427e-8061-64cb3be418b7","ios":"levelo://app?vid=c3eaa22e-0f93-427e-8061-64cb3be418b7"},"vehicle_type_id":"4","last_reported":1774338393,"current_range_meters":8000,"station_id":"ce4bh392rcd13ifvqdm0","pricing_plan_id":"cebpf4jnsgd1na2vs0mg"},{"bike_id":"f35a9644-f102-427c-8b00-579a35988db3","system_id":"levelo_inurba_marseille","lat":43.21192,"lon":5.35077,"is_reserved":false,"is_disabled":false,"rental_uris":{"android":"levelo://app?vid=f35a9644-f102-427c-8b00-579a35988db3","ios":"levelo://app?vid=f35a9644-f102-427c-8b00-579a35988db3"},"vehicle_type_id":"4","last_reported":1774338393,"current_range_meters":8000,"station_id":"st_cvj6sg6p6f1abm77japg","pricing_plan_id":"cebpf4jnsgd1na2vs0mg"},{"bike_id":"b4f72913-3e7d-4b53-9172-f4df71a9ecb6","system_id":"levelo_inurba_marseille","lat":43.31375,"lon":5.36674,"is_reserved":false,"is_disabled":false,"rental_uris":{"android":"levelo://app?vid=b4f72913-3e7d-4b53-9172-f4df71a9ecb6","ios":"levelo://app?vid=b4f72913-3e7d-4b53-9172-f4df71a9ecb6"},"vehicle_type_id":"4","last_reported":1774338393,"current_range_meters":8000,"station_id":"ce4bgr92rcd13ifvqc6g","pricing_plan_id":"cebpf4jnsgd1na2vs0mg"},{"bike_id":"bbf06f99-10eb-4743-9c34-2b5936013bcc","system_id":"levelo_inurba_marseille","lat":43.23785,"lon":5.36643,"is_reserved":false,"is_disabled":false,"rental_uris":{"android":"levelo://app?vid=bbf06f99-10eb-4743-9c34-2b5936013bcc","ios":"levelo://app?vid=bbf06f99-10eb-4743-9c34-2b5936013bcc"},"vehicle_type_id":"4","last_reported":1774338393,"current_range_meters":8000,"station_id":"st_d3nk18o9ro0c73en2l3g","pricing_plan_id":"cebpf4jnsgd1na2vs0mg"},{"bike_id":"17c1f954-7ef7-4a5f-844e-17131e305a89","system_id":"levelo_inurba_marseille","lat":43.2389,"lon":5.37465,"is_reserved":false,"is_disabled":false,"rental_uris":{"android":"levelo://app?vid=17c1f954-7ef7-4a5f-844e-17131e305a89","ios":"levelo://app?vid=17c1f954-7ef7-4a5f-844e-17131e305a89"},"vehicle_type_id":"4","last_reported":1774338393,"current_range_meters":8000,"station_id":"st_d6sm7csbq4hs73f8fpjg","pricing_plan_id":"cebpf4jnsgd1na2vs0mg"},{"bike_id":"29a311a2-8c83-4778-b76c-56070b790302","system_id":"levelo_inurba_marseille","lat":43.27071,"lon":5.42272,"is_reserved":false,"is_disabled":false,"rental_uris":{"android":"levelo://app?vid=29a311a2-8c83-4778-b76c-56070b790302","ios":"levelo://app?vid=29a311a2-8c83-4778-b76c-56070b790302"},"vehicle_type_id":"4","last_reported":1774338393,"current_range_meters":8000,"station_id":"ce4bhk92rcd13ifvqgb0","pricing_plan_id":"cebpf4jnsgd1na2vs0mg"},{"bike_id":"7e03e45c-d69c-4371-8267-aa26cde43729","system_id":"levelo_inurba_marseille","lat":43.25562,"lon":5.38248,"is_reserved":false,"is_disabled":true,"rental_uris":{"android":"levelo://app?vid=7e03e45c-d69c-4371-8267-aa26cde43729","ios":"levelo://app?vid=7e03e45c-d69c-4371-8267-aa26cde43729"},"vehicle_type_id":"4","last_reported":1774338393,"current_range_meters":8000,"station_id":"ce4bhih2rcd13ifvqfs0","pricing_plan_id":"cebpf4jnsgd1na2vs0mg"},{"bike_id":"04e42d2b-817b-4033-8935-148ae7f53cb4","system_id":"levelo_inurba_marseille","lat":43.282256,"lon":5.390807,"is_reserved":false,"is_disabled":true,"rental_uris":{"android":"levelo://app?vid=04e42d2b-817b-4033-8935-148ae7f53cb4","ios":"levelo://app?vid=04e42d2b-817b-4033-8935-148ae7f53cb4"},"vehicle_type_id":"4","last_reported":1774338393,"current_range_meters":8000,"station_id":"ce4bhn92rcd13ifvqgsg","pricing_plan_id":"cebpf4jnsgd1na2vs0mg"},{"bike_id":"92ee54a6-63c9-4c33-8048-d4e5a1dc1020","system_id":"levelo_inurba_marseille","lat":43.3377,"lon":5.41057,"is_reserved":false,"is_disabled":false,"rental_uris":{"android":"levelo://app?vid=92ee54a6-63c9-4c33-8048-d4e5a1dc1020","ios":"levelo://app?vid=92ee54a6-63c9-4c33-8048-d4e5a1dc1020"},"vehicle_type_id":"4","last_reported":1774338393,"current_range_meters":8000,"station_id":"","pricing_plan_id":"cebpf4jnsgd1na2vs0mg"},{"bike_id":"dc6b5f99-fae1-4f22-a1a9-6f28e41db96e","system_id":"levelo_inurba_marseille","lat":43.31487,"lon":5.37312,"is_reserved":false,"is_disabled":false,"rental_uris":{"android":"levelo://app?vid=dc6b5f99-fae1-4f22-a1a9-6f28e41db96e","ios":"levelo://app?vid=dc6b5f99-fae1-4f22-a1a9-6f28e41db96e"},"vehicle_type_id":"4","last_reported":1774338393,"current_range_meters":8000,"station_id":"ce4bgt12rcd13ifvqcd0","pricing_plan_id":"cebpf4jnsgd1na2vs0mg"},{"bike_id":"10fd2269-34bf-4b8a-a12a-74a968419364","system_id":"levelo_inurba_marseille","lat":43.2733,"lon":5.39071,"is_reserved":false,"is_disabled":false,"rental_uris":{"android":"levelo://app?vid=10fd2269-34bf-4b8a-a12a-74a968419364","ios":"levelo://app?vid=10fd2269-34bf-4b8a-a12a-74a968419364"},"vehicle_type_id":"4","last_reported":1774338393,"current_range_meters":8000,"station_id":"ce4bhgp2rcd13ifvqfe0","pricing_plan_id":"cebpf4jnsgd1na2vs0mg"},{"bike_id":"cec74826-6545-4854-8325-d124b9ac1c91","system_id":"levelo_inurba_marseille","lat":43.25728,"lon":5.41112,"is_reserved":false,"is_disabled":false,"rental_uris":{"android":"levelo://app?vid=cec74826-6545-4854-8325-d124b9ac1c91","ios":"levelo://app?vid=cec74826-6545-4854-8325-d124b9ac1c91"},"vehicle_type_id":"4","last_reported":1774338393,"current_range_meters":8000,"station_id":"ce4bhkp2rcd13ifvqgd0","pricing_plan_id":"cebpf4jnsgd1na2vs0mg"},{"bike_id":"74c61e32-df71-49eb-9dd8-0b1733f0184d","system_id":"levelo_inurba_marseille","lat":43.29974,"lon":5.38502,"is_reserved":false,"is_disabled":true,"rental_uris":{"android":"levelo://app?vid=74c61e32-df71-49eb-9dd8-0b1733f0184d","ios":"levelo://app?vid=74c61e32-df71-49eb-9dd8-0b1733f0184d"},"vehicle_type_id":"4","last_reported":1774338393,"current_range_meters":8000,"station_id":"ce4bgj92rcd13ifvqbd0","pricing_plan_id":"cebpf4jnsgd1na2vs0mg"},{"bike_id":"0e2f4137-e82a-401c-945f-6a1c7c098239","system_id":"levelo_inurba_marseille","lat":43.29618,"lon":5.37142,"is_reserved":false,"is_disabled":false,"rental_uris":{"android":"levelo://app?vid=0e2f4137-e82a-401c-945f-6a1c7c098239","ios":"levelo://app?vid=0e2f4137-e82a-401c-945f-6a1c7c098239"},"vehicle_type_id":"4","last_reported":1774338393,"current_range_meters":8400,"station_id":"ce4bgnh2rcd13ifvqc0g","pricing_plan_id":"cebpf4jnsgd1na2vs0mg"},{"bike_id":"b75036ac-d81d-4bfd-a9c8-a051a6ff39fe","system_id":"levelo_inurba_marseille","lat":43.28529,"lon":5.44126,"is_reserved":false,"is_disabled":false,"rental_uris":{"android":"levelo://app?vid=b75036ac-d81d-4bfd-a9c8-a051a6ff39fe","ios":"levelo://app?vid=b75036ac-d81d-4bfd-a9c8-a051a6ff39fe"},"vehicle_type_id":"4","last_reported":1774338393,"current_range_meters":8400,"station_id":"st_d3j3df2ikq2c7380ej80","pricing_plan_id":"cebpf4jnsgd1na2vs0mg"},{"bike_id":"edda675a-b62b-421d-aa8f-95ea6d9ae219","system_id":"levelo_inurba_marseille","lat":43.31492,"lon":5.37304,"is_reserved":false,"is_disabled":false,"rental_uris":{"android":"levelo://app?vid=edda675a-b62b-421d-aa8f-95ea6d9ae219","ios":"levelo://app?vid=edda675a-b62b-421d-aa8f-95ea6d9ae219"},"vehicle_type_id":"4","last_reported":1774338393,"current_range_meters":8400,"station_id":"ce4bgt12rcd13ifvqcd0","pricing_plan_id":"cebpf4jnsgd1na2vs0mg"},{"bike_id":"8e331d09-f777-47e4-a327-164db2e188a9","system_id":"levelo_inurba_marseille","lat":43.2657,"lon":5.40315,"is_reserved":false,"is_disabled":true,"rental_uris":{"android":"levelo://app?vid=8e331d09-f777-47e4-a327-164db2e188a9","ios":"levelo://app?vid=8e331d09-f777-47e4-a327-164db2e188a9"},"vehicle_type_id":"4","last_reported":1774338393,"current_range_meters":8400,"station_id":"ce4bhmp2rcd13ifvqgng","pricing_plan_id":"cebpf4jnsgd1na2vs0mg"},{"bike_id":"29f49a32-ba08-40ef-839e-89650b416d04","system_id":"levelo_inurba_marseille","lat":43.31045,"lon":5.37938,"is_reserved":false,"is_disabled":false,"rental_uris":{"android":"levelo://app?vid=29f49a32-ba08-40ef-839e-89650b416d04","ios":"levelo://app?vid=29f49a32-ba08-40ef-839e-89650b416d04"},"vehicle_type_id":"4","last_reported":1774338393,"current_range_meters":8400,"station_id":"","pricing_plan_id":"cebpf4jnsgd1na2vs0mg"},{"bike_id":"5bd9aec4-f639-4190-9ebd-ffd6e8dfa9b4","system_id":"levelo_inurba_marseille","lat":43.31049,"lon":5.37177,"is_reserved":false,"is_disabled":false,"rental_uris":{"android":"levelo://app?vid=5bd9aec4-f639-4190-9ebd-ffd6e8dfa9b4","ios":"levelo://app?vid=5bd9aec4-f639-4190-9ebd-ffd6e8dfa9b4"},"vehicle_type_id":"4","last_reported":1774338393,"current_range_meters":8400,"station_id":"st_d4kl2rp97mjs73e7tdfg","pricing_plan_id":"cebpf4jnsgd1na2vs0mg"},{"bike_id":"8c72543a-1a9c-4602-95bd-afcd8d057816","system_id":"levelo_inurba_marseille","lat":43.25923,"lon":5.40904,"is_reserved":false,"is_disabled":false,"rental_uris":{"android":"levelo://app?vid=8c72543a-1a9c-4602-95bd-afcd8d057816","ios":"levelo://app?vid=8c72543a-1a9c-4602-95bd-afcd8d057816"},"vehicle_type_id":"4","last_reported":1774338393,"current_range_meters":8400,"station_id":"ce4bhm92rcd13ifvqglg","pricing_plan_id":"cebpf4jnsgd1na2vs0mg"},{"bike_id":"462d44ce-bead-4a48-a99d-d566d3c0e73f","system_id":"levelo_inurba_marseille","lat":43.32484,"lon":5.38291,"is_reserved":false,"is_disabled":false,"rental_uris":{"android":"levelo://app?vid=462d44ce-bead-4a48-a99d-d566d3c0e73f","ios":"levelo://app?vid=462d44ce-bead-4a48-a99d-d566d3c0e73f"},"vehicle_type_id":"4","last_reported":1774338393,"current_range_meters":8400,"station_id":"st_d4asgbiv49dc73anf9m0","pricing_plan_id":"cebpf4jnsgd1na2vs0mg"},{"bike_id":"b06ca3aa-4115-4d3b-82de-a3ec0b6205c3","system_id":"levelo_inurba_marseille","lat":43.30591,"lon":5.37218,"is_reserved":false,"is_disabled":true,"rental_uris":{"android":"levelo://app?vid=b06ca3aa-4115-4d3b-82de-a3ec0b6205c3","ios":"levelo://app?vid=b06ca3aa-4115-4d3b-82de-a3ec0b6205c3"},"vehicle_type_id":"4","last_reported":1774338393,"current_range_meters":8400,"station_id":"ce4bgqh2rcd13ifvqc4g","pricing_plan_id":"cebpf4jnsgd1na2vs0mg"},{"bike_id":"2e4408b1-4f10-4104-87c2-00f9c6cc7b1b","system_id":"levelo_inurba_marseille","lat":43.30115,"lon":5.43097,"is_reserved":false,"is_disabled":false,"rental_uris":{"android":"levelo://app?vid=2e4408b1-4f10-4104-87c2-00f9c6cc7b1b","ios":"levelo://app?vid=2e4408b1-4f10-4104-87c2-00f9c6cc7b1b"},"vehicle_type_id":"4","last_reported":1774338393,"current_range_meters":8400,"station_id":"st_d3js3co5814s73ftftug","pricing_plan_id":"cebpf4jnsgd1na2vs0mg"},{"bike_id":"19f1add8-fb4d-4df2-9f34-3abb6a2112fe","system_id":"levelo_inurba_marseille","lat":43.21197,"lon":5.35074,"is_reserved":false,"is_disabled":false,"rental_uris":{"android":"levelo://app?vid=19f1add8-fb4d-4df2-9f34-3abb6a2112fe","ios":"levelo://app?vid=19f1add8-fb4d-4df2-9f34-3abb6a2112fe"},"vehicle_type_id":"4","last_reported":1774338393,"current_range_meters":8400,"station_id":"st_cvj6sg6p6f1abm77japg","pricing_plan_id":"cebpf4jnsgd1na2vs0mg"},{"bike_id":"6711ca2b-9a4e-46b1-892e-1007cc2a656e","system_id":"levelo_inurba_marseille","lat":43.28544,"lon":5.44139,"is_reserved":false,"is_disabled":false,"rental_uris":{"android":"levelo://app?vid=6711ca2b-9a4e-46b1-892e-1007cc2a656e","ios":"levelo://app?vid=6711ca2b-9a4e-46b1-892e-1007cc2a656e"},"vehicle_type_id":"4","last_reported":1774338393,"current_range_meters":8400,"station_id":"st_d3j3df2ikq2c7380ej80","pricing_plan_id":"cebpf4jnsgd1na2vs0mg"},{"bike_id":"f3dccb27-25f8-415f-8a8c-207408b72398","system_id":"levelo_inurba_marseille","lat":43.32074,"lon":5.36777,"is_reserved":false,"is_disabled":false,"rental_uris":{"android":"levelo://app?vid=f3dccb27-25f8-415f-8a8c-207408b72398","ios":"levelo://app?vid=f3dccb27-25f8-415f-8a8c-207408b72398"},"vehicle_type_id":"4","last_reported":1774338393,"current_range_meters":8400,"station_id":"ce4bhrh2rcd13ifvqhug","pricing_plan_id":"cebpf4jnsgd1na2vs0mg"},{"bike_id":"a35cd57a-a85a-4199-af90-0e8344d73999","system_id":"levelo_inurba_marseille","lat":43.24661,"lon":5.38896,"is_reserved":false,"is_disabled":false,"rental_uris":{"android":"levelo://app?vid=a35cd57a-a85a-4199-af90-0e8344d73999","ios":"levelo://app?vid=a35cd57a-a85a-4199-af90-0e8344d73999"},"vehicle_type_id":"4","last_reported":1774338393,"current_range_meters":8400,"station_id":"ce4bhg12rcd13ifvqf60","pricing_plan_id":"cebpf4jnsgd1na2vs0mg"},{"bike_id":"759581f5-36a0-459f-99d4-9362499e97d4","system_id":"levelo_inurba_marseille","lat":43.24067,"lon":5.37732,"is_reserved":false,"is_disabled":false,"rental_uris":{"android":"levelo://app?vid=759581f5-36a0-459f-99d4-9362499e97d4","ios":"levelo://app?vid=759581f5-36a0-459f-99d4-9362499e97d4"},"vehicle_type_id":"4","last_reported":1774338393,"current_range_meters":8400,"station_id":"ce4bhnp2rcd13ifvqgvg","pricing_plan_id":"cebpf4jnsgd1na2vs0mg"},{"bike_id":"5208ee98-7e4f-445b-9dbc-5d8fbec80d74","system_id":"levelo_inurba_marseille","lat":43.23371,"lon":5.41269,"is_reserved":false,"is_disabled":false,"rental_uris":{"android":"levelo://app?vid=5208ee98-7e4f-445b-9dbc-5d8fbec80d74","ios":"levelo://app?vid=5208ee98-7e4f-445b-9dbc-5d8fbec80d74"},"vehicle_type_id":"4","last_reported":1774338393,"current_range_meters":8400,"station_id":"","pricing_plan_id":"cebpf4jnsgd1na2vs0mg"},{"bike_id":"5ecae002-d94a-48c0-9c56-03698e32a88c","system_id":"levelo_inurba_marseille","lat":43.23901,"lon":5.37473,"is_reserved":false,"is_disabled":false,"rental_uris":{"android":"levelo://app?vid=5ecae002-d94a-48c0-9c56-03698e32a88c","ios":"levelo://app?vid=5ecae002-d94a-48c0-9c56-03698e32a88c"},"vehicle_type_id":"4","last_reported":1774338393,"current_range_meters":8400,"station_id":"st_d6sm7csbq4hs73f8fpjg","pricing_plan_id":"cebpf4jnsgd1na2vs0mg"},{"bike_id":"b02ad429-f927-49f8-b3da-0cab70258bda","system_id":"levelo_inurba_marseille","lat":43.31345,"lon":5.36722,"is_reserved":false,"is_disabled":false,"rental_uris":{"android":"levelo://app?vid=b02ad429-f927-49f8-b3da-0cab70258bda","ios":"levelo://app?vid=b02ad429-f927-49f8-b3da-0cab70258bda"},"vehicle_type_id":"4","last_reported":1774338393,"current_range_meters":8400,"station_id":"ce4bgr92rcd13ifvqc6g","pricing_plan_id":"cebpf4jnsgd1na2vs0mg"},{"bike_id":"6cd78edb-c6ad-4473-818e-dcdb90a87783","system_id":"levelo_inurba_marseille","lat":43.30868,"lon":5.36834,"is_reserved":false,"is_disabled":false,"rental_uris":{"android":"levelo://app?vid=6cd78edb-c6ad-4473-818e-dcdb90a87783","ios":"levelo://app?vid=6cd78edb-c6ad-4473-818e-dcdb90a87783"},"vehicle_type_id":"4","last_reported":1774338393,"current_range_meters":8400,"station_id":"ce4bgn92rcd13ifvqbvg","pricing_plan_id":"cebpf4jnsgd1na2vs0mg"},{"bike_id":"aac16f30-8732-48f4-bb17-1bd0acbb479e","system_id":"levelo_inurba_marseille","lat":43.26559,"lon":5.37281,"is_reserved":false,"is_disabled":false,"rental_uris":{"android":"levelo://app?vid=aac16f30-8732-48f4-bb17-1bd0acbb479e","ios":"levelo://app?vid=aac16f30-8732-48f4-bb17-1bd0acbb479e"},"vehicle_type_id":"4","last_reported":1774338393,"current_range_meters":8800,"station_id":"ce4bhg12rcd13ifvqf70","pricing_plan_id":"cebpf4jnsgd1na2vs0mg"},{"bike_id":"02a29044-af44-4ad0-ad60-be49d8de6622","system_id":"levelo_inurba_marseille","lat":43.29753,"lon":5.42777,"is_reserved":false,"is_disabled":false,"rental_uris":{"android":"levelo://app?vid=02a29044-af44-4ad0-ad60-be49d8de6622","ios":"levelo://app?vid=02a29044-af44-4ad0-ad60-be49d8de6622"},"vehicle_type_id":"4","last_reported":1774338393,"current_range_meters":8800,"station_id":"st_d3md5207bmas73dh9klg","pricing_plan_id":"cebpf4jnsgd1na2vs0mg"},{"bike_id":"3ee0098a-0575-4633-8c79-f35bd2707156","system_id":"levelo_inurba_marseille","lat":43.24542,"lon":5.395245,"is_reserved":false,"is_disabled":false,"rental_uris":{"android":"levelo://app?vid=3ee0098a-0575-4633-8c79-f35bd2707156","ios":"levelo://app?vid=3ee0098a-0575-4633-8c79-f35bd2707156"},"vehicle_type_id":"4","last_reported":1774338393,"current_range_meters":8800,"station_id":"ce4bhlp2rcd13ifvqgjg","pricing_plan_id":"cebpf4jnsgd1na2vs0mg"},{"bike_id":"4078e5c4-b784-4a81-827e-b1a58b5db34d","system_id":"levelo_inurba_marseille","lat":43.30567,"lon":5.36561,"is_reserved":false,"is_disabled":false,"rental_uris":{"android":"levelo://app?vid=4078e5c4-b784-4a81-827e-b1a58b5db34d","ios":"levelo://app?vid=4078e5c4-b784-4a81-827e-b1a58b5db34d"},"vehicle_type_id":"4","last_reported":1774338393,"current_range_meters":8800,"station_id":"ce4bgs12rcd13ifvqcag","pricing_plan_id":"cebpf4jnsgd1na2vs0mg"},{"bike_id":"5adf98f2-3e18-4859-8d6c-df8576ae0b06","system_id":"levelo_inurba_marseille","lat":43.25933,"lon":5.40909,"is_reserved":false,"is_disabled":false,"rental_uris":{"android":"levelo://app?vid=5adf98f2-3e18-4859-8d6c-df8576ae0b06","ios":"levelo://app?vid=5adf98f2-3e18-4859-8d6c-df8576ae0b06"},"vehicle_type_id":"4","last_reported":1774338393,"current_range_meters":8800,"station_id":"ce4bhm92rcd13ifvqglg","pricing_plan_id":"cebpf4jnsgd1na2vs0mg"},{"bike_id":"affefcff-6c8a-4e5a-ba6e-9e2ae0cd3a15","system_id":"levelo_inurba_marseille","lat":43.31373,"lon":5.367,"is_reserved":false,"is_disabled":false,"rental_uris":{"android":"levelo://app?vid=affefcff-6c8a-4e5a-ba6e-9e2ae0cd3a15","ios":"levelo://app?vid=affefcff-6c8a-4e5a-ba6e-9e2ae0cd3a15"},"vehicle_type_id":"4","last_reported":1774338393,"current_range_meters":8800,"station_id":"ce4bgr92rcd13ifvqc6g","pricing_plan_id":"cebpf4jnsgd1na2vs0mg"},{"bike_id":"a14d2edd-85c5-4116-8db5-355e3fb2ddbe","system_id":"levelo_inurba_marseille","lat":43.33547,"lon":5.37476,"is_reserved":false,"is_disabled":false,"rental_uris":{"android":"levelo://app?vid=a14d2edd-85c5-4116-8db5-355e3fb2ddbe","ios":"levelo://app?vid=a14d2edd-85c5-4116-8db5-355e3fb2ddbe"},"vehicle_type_id":"4","last_reported":1774338393,"current_range_meters":8800,"station_id":"st_d46tts09ee8s73dlu43g","pricing_plan_id":"cebpf4jnsgd1na2vs0mg"},{"bike_id":"5016f481-c4f2-49ee-b195-5a686f3fce52","system_id":"levelo_inurba_marseille","lat":43.288522,"lon":5.358479,"is_reserved":false,"is_disabled":true,"rental_uris":{"android":"levelo://app?vid=5016f481-c4f2-49ee-b195-5a686f3fce52","ios":"levelo://app?vid=5016f481-c4f2-49ee-b195-5a686f3fce52"},"vehicle_type_id":"4","last_reported":1774338393,"current_range_meters":8800,"station_id":"","pricing_plan_id":"cebpf4jnsgd1na2vs0mg"},{"bike_id":"5c941c2b-f0fa-4f64-af96-831f9028136a","system_id":"levelo_inurba_marseille","lat":43.32239,"lon":5.37157,"is_reserved":false,"is_disabled":false,"rental_uris":{"android":"levelo://app?vid=5c941c2b-f0fa-4f64-af96-831f9028136a","ios":"levelo://app?vid=5c941c2b-f0fa-4f64-af96-831f9028136a"},"vehicle_type_id":"4","last_reported":1774338393,"current_range_meters":8800,"station_id":"","pricing_plan_id":"cebpf4jnsgd1na2vs0mg"},{"bike_id":"da6972b3-b161-480b-8ef0-1ff556fc7299","system_id":"levelo_inurba_marseille","lat":43.23763,"lon":5.3664,"is_reserved":false,"is_disabled":false,"rental_uris":{"android":"levelo://app?vid=da6972b3-b161-480b-8ef0-1ff556fc7299","ios":"levelo://app?vid=da6972b3-b161-480b-8ef0-1ff556fc7299"},"vehicle_type_id":"4","last_reported":1774338393,"current_range_meters":8800,"station_id":"st_d3nk18o9ro0c73en2l3g","pricing_plan_id":"cebpf4jnsgd1na2vs0mg"},{"bike_id":"445a363e-6635-4c6f-9d9b-6ed1d223c4e8","system_id":"levelo_inurba_marseille","lat":43.29549,"lon":5.43872,"is_reserved":false,"is_disabled":false,"rental_uris":{"android":"levelo://app?vid=445a363e-6635-4c6f-9d9b-6ed1d223c4e8","ios":"levelo://app?vid=445a363e-6635-4c6f-9d9b-6ed1d223c4e8"},"vehicle_type_id":"4","last_reported":1774338393,"current_range_meters":8800,"station_id":"","pricing_plan_id":"cebpf4jnsgd1na2vs0mg"},{"bike_id":"253bfbd1-c3f6-4b72-a716-55890f3b4db7","system_id":"levelo_inurba_marseille","lat":43.28514,"lon":5.48394,"is_reserved":false,"is_disabled":false,"rental_uris":{"android":"levelo://app?vid=253bfbd1-c3f6-4b72-a716-55890f3b4db7","ios":"levelo://app?vid=253bfbd1-c3f6-4b72-a716-55890f3b4db7"},"vehicle_type_id":"4","last_reported":1774338393,"current_range_meters":8800,"station_id":"","pricing_plan_id":"cebpf4jnsgd1na2vs0mg"},{"bike_id":"abc29d2a-1ef9-4af0-8102-272006ddaa5d","system_id":"levelo_inurba_marseille","lat":43.30266,"lon":5.37728,"is_reserved":false,"is_disabled":false,"rental_uris":{"android":"levelo://app?vid=abc29d2a-1ef9-4af0-8102-272006ddaa5d","ios":"levelo://app?vid=abc29d2a-1ef9-4af0-8102-272006ddaa5d"},"vehicle_type_id":"4","last_reported":1774338393,"current_range_meters":8800,"station_id":"ce4bguh2rcd13ifvqcj0","pricing_plan_id":"cebpf4jnsgd1na2vs0mg"},{"bike_id":"8aa507e7-e6bd-4861-b754-6c06023061cc","system_id":"levelo_inurba_marseille","lat":43.2969,"lon":5.38251,"is_reserved":false,"is_disabled":false,"rental_uris":{"android":"levelo://app?vid=8aa507e7-e6bd-4861-b754-6c06023061cc","ios":"levelo://app?vid=8aa507e7-e6bd-4861-b754-6c06023061cc"},"vehicle_type_id":"4","last_reported":1774338393,"current_range_meters":8800,"station_id":"","pricing_plan_id":"cebpf4jnsgd1na2vs0mg"},{"bike_id":"e7af9571-85f2-4d04-a90b-8ea65f35209b","system_id":"levelo_inurba_marseille","lat":43.29722,"lon":5.37681,"is_reserved":false,"is_disabled":false,"rental_uris":{"android":"levelo://app?vid=e7af9571-85f2-4d04-a90b-8ea65f35209b","ios":"levelo://app?vid=e7af9571-85f2-4d04-a90b-8ea65f35209b"},"vehicle_type_id":"4","last_reported":1774338393,"current_range_meters":8800,"station_id":"ce4bgkh2rcd13ifvqbl0","pricing_plan_id":"cebpf4jnsgd1na2vs0mg"},{"bike_id":"60e39849-1d32-4745-8764-0eb454d04c5f","system_id":"levelo_inurba_marseille","lat":43.29558,"lon":5.42269,"is_reserved":false,"is_disabled":true,"rental_uris":{"android":"levelo://app?vid=60e39849-1d32-4745-8764-0eb454d04c5f","ios":"levelo://app?vid=60e39849-1d32-4745-8764-0eb454d04c5f"},"vehicle_type_id":"4","last_reported":1774338393,"current_range_meters":8800,"station_id":"ce4bhph2rcd13ifvqhdg","pricing_plan_id":"cebpf4jnsgd1na2vs0mg"},{"bike_id":"762eba06-8520-41c7-b0b4-8147df78de21","system_id":"levelo_inurba_marseille","lat":43.33163,"lon":5.377,"is_reserved":false,"is_disabled":false,"rental_uris":{"android":"levelo://app?vid=762eba06-8520-41c7-b0b4-8147df78de21","ios":"levelo://app?vid=762eba06-8520-41c7-b0b4-8147df78de21"},"vehicle_type_id":"4","last_reported":1774338393,"current_range_meters":8800,"station_id":"st_d46cu089ee8s73dldbu0","pricing_plan_id":"cebpf4jnsgd1na2vs0mg"},{"bike_id":"76939df3-4cd3-4b96-8c01-b3937d373408","system_id":"levelo_inurba_marseille","lat":43.30905,"lon":5.37207,"is_reserved":false,"is_disabled":false,"rental_uris":{"android":"levelo://app?vid=76939df3-4cd3-4b96-8c01-b3937d373408","ios":"levelo://app?vid=76939df3-4cd3-4b96-8c01-b3937d373408"},"vehicle_type_id":"4","last_reported":1774338393,"current_range_meters":8800,"station_id":"ce4bguh2rcd13ifvqckg","pricing_plan_id":"cebpf4jnsgd1na2vs0mg"},{"bike_id":"0607bd64-2adc-460c-9ce9-85e34c4ac573","system_id":"levelo_inurba_marseille","lat":43.26937,"lon":5.40256,"is_reserved":false,"is_disabled":false,"rental_uris":{"android":"levelo://app?vid=0607bd64-2adc-460c-9ce9-85e34c4ac573","ios":"levelo://app?vid=0607bd64-2adc-460c-9ce9-85e34c4ac573"},"vehicle_type_id":"4","last_reported":1774338393,"current_range_meters":8800,"station_id":"cjm6bp8fraef2m0cb0m0","pricing_plan_id":"cebpf4jnsgd1na2vs0mg"},{"bike_id":"8d8566de-f03a-4e5e-aa8c-ad2e3c17ab03","system_id":"levelo_inurba_marseille","lat":43.31557,"lon":5.37317,"is_reserved":false,"is_disabled":false,"rental_uris":{"android":"levelo://app?vid=8d8566de-f03a-4e5e-aa8c-ad2e3c17ab03","ios":"levelo://app?vid=8d8566de-f03a-4e5e-aa8c-ad2e3c17ab03"},"vehicle_type_id":"4","last_reported":1774338393,"current_range_meters":8800,"station_id":"","pricing_plan_id":"cebpf4jnsgd1na2vs0mg"},{"bike_id":"1206b80d-08df-4dbc-999c-48aabe775d89","system_id":"levelo_inurba_marseille","lat":43.30288,"lon":5.44965,"is_reserved":false,"is_disabled":false,"rental_uris":{"android":"levelo://app?vid=1206b80d-08df-4dbc-999c-48aabe775d89","ios":"levelo://app?vid=1206b80d-08df-4dbc-999c-48aabe775d89"},"vehicle_type_id":"4","last_reported":1774338393,"current_range_meters":8800,"station_id":"","pricing_plan_id":"cebpf4jnsgd1na2vs0mg"},{"bike_id":"216a36cb-da75-46cc-8839-bb6497a8217f","system_id":"levelo_inurba_marseille","lat":43.29229,"lon":5.36082,"is_reserved":false,"is_disabled":false,"rental_uris":{"android":"levelo://app?vid=216a36cb-da75-46cc-8839-bb6497a8217f","ios":"levelo://app?vid=216a36cb-da75-46cc-8839-bb6497a8217f"},"vehicle_type_id":"4","last_reported":1774338393,"current_range_meters":9200,"station_id":"ce4bhbh2rcd13ifvqeqg","pricing_plan_id":"cebpf4jnsgd1na2vs0mg"},{"bike_id":"66a43d55-32c7-48fb-b013-3d7574d12857","system_id":"levelo_inurba_marseille","lat":43.25008,"lon":5.3893,"is_reserved":false,"is_disabled":true,"rental_uris":{"android":"levelo://app?vid=66a43d55-32c7-48fb-b013-3d7574d12857","ios":"levelo://app?vid=66a43d55-32c7-48fb-b013-3d7574d12857"},"vehicle_type_id":"4","last_reported":1774338393,"current_range_meters":9200,"station_id":"ce4bhgp2rcd13ifvqfd0","pricing_plan_id":"cebpf4jnsgd1na2vs0mg"},{"bike_id":"22a24422-8367-44e3-afc2-fd1672c2c7f5","system_id":"levelo_inurba_marseille","lat":43.28485,"lon":5.48399,"is_reserved":false,"is_disabled":false,"rental_uris":{"android":"levelo://app?vid=22a24422-8367-44e3-afc2-fd1672c2c7f5","ios":"levelo://app?vid=22a24422-8367-44e3-afc2-fd1672c2c7f5"},"vehicle_type_id":"4","last_reported":1774338393,"current_range_meters":9200,"station_id":"","pricing_plan_id":"cebpf4jnsgd1na2vs0mg"},{"bike_id":"5ef684ee-4d74-4636-8802-c3b451ffed66","system_id":"levelo_inurba_marseille","lat":43.30468,"lon":5.37904,"is_reserved":false,"is_disabled":false,"rental_uris":{"android":"levelo://app?vid=5ef684ee-4d74-4636-8802-c3b451ffed66","ios":"levelo://app?vid=5ef684ee-4d74-4636-8802-c3b451ffed66"},"vehicle_type_id":"4","last_reported":1774338393,"current_range_meters":9200,"station_id":"","pricing_plan_id":"cebpf4jnsgd1na2vs0mg"},{"bike_id":"f5c03b01-d29b-4410-a5f0-a0b3d299600e","system_id":"levelo_inurba_marseille","lat":43.27516,"lon":5.42462,"is_reserved":false,"is_disabled":false,"rental_uris":{"android":"levelo://app?vid=f5c03b01-d29b-4410-a5f0-a0b3d299600e","ios":"levelo://app?vid=f5c03b01-d29b-4410-a5f0-a0b3d299600e"},"vehicle_type_id":"4","last_reported":1774338393,"current_range_meters":9200,"station_id":"","pricing_plan_id":"cebpf4jnsgd1na2vs0mg"},{"bike_id":"066cfe81-714d-4a28-ba8d-e13baf5bbb1b","system_id":"levelo_inurba_marseille","lat":43.27266,"lon":5.41147,"is_reserved":false,"is_disabled":false,"rental_uris":{"android":"levelo://app?vid=066cfe81-714d-4a28-ba8d-e13baf5bbb1b","ios":"levelo://app?vid=066cfe81-714d-4a28-ba8d-e13baf5bbb1b"},"vehicle_type_id":"4","last_reported":1774338393,"current_range_meters":9200,"station_id":"","pricing_plan_id":"cebpf4jnsgd1na2vs0mg"},{"bike_id":"087ae484-a014-4feb-b455-9332febb4b58","system_id":"levelo_inurba_marseille","lat":43.28912,"lon":5.36472,"is_reserved":false,"is_disabled":false,"rental_uris":{"android":"levelo://app?vid=087ae484-a014-4feb-b455-9332febb4b58","ios":"levelo://app?vid=087ae484-a014-4feb-b455-9332febb4b58"},"vehicle_type_id":"4","last_reported":1774338393,"current_range_meters":9200,"station_id":"","pricing_plan_id":"cebpf4jnsgd1na2vs0mg"},{"bike_id":"cb732425-0e4e-4a37-a851-61e2b078c9ae","system_id":"levelo_inurba_marseille","lat":43.30562,"lon":5.36689,"is_reserved":false,"is_disabled":false,"rental_uris":{"android":"levelo://app?vid=cb732425-0e4e-4a37-a851-61e2b078c9ae","ios":"levelo://app?vid=cb732425-0e4e-4a37-a851-61e2b078c9ae"},"vehicle_type_id":"4","last_reported":1774338393,"current_range_meters":9200,"station_id":"ce4bgrp2rcd13ifvqc9g","pricing_plan_id":"cebpf4jnsgd1na2vs0mg"},{"bike_id":"e6349eb3-2730-461c-ae14-f386689052fa","system_id":"levelo_inurba_marseille","lat":43.31624,"lon":5.37805,"is_reserved":false,"is_disabled":false,"rental_uris":{"android":"levelo://app?vid=e6349eb3-2730-461c-ae14-f386689052fa","ios":"levelo://app?vid=e6349eb3-2730-461c-ae14-f386689052fa"},"vehicle_type_id":"4","last_reported":1774338393,"current_range_meters":9200,"station_id":"","pricing_plan_id":"cebpf4jnsgd1na2vs0mg"},{"bike_id":"6bb08e07-1a96-4884-b24c-14505bc0f7eb","system_id":"levelo_inurba_marseille","lat":43.25912,"lon":5.40887,"is_reserved":false,"is_disabled":false,"rental_uris":{"android":"levelo://app?vid=6bb08e07-1a96-4884-b24c-14505bc0f7eb","ios":"levelo://app?vid=6bb08e07-1a96-4884-b24c-14505bc0f7eb"},"vehicle_type_id":"4","last_reported":1774338393,"current_range_meters":9200,"station_id":"ce4bhm92rcd13ifvqglg","pricing_plan_id":"cebpf4jnsgd1na2vs0mg"},{"bike_id":"cbe143e8-3e8d-46c8-8239-3389a4661d28","system_id":"levelo_inurba_marseille","lat":43.30292,"lon":5.3694,"is_reserved":false,"is_disabled":false,"rental_uris":{"android":"levelo://app?vid=cbe143e8-3e8d-46c8-8239-3389a4661d28","ios":"levelo://app?vid=cbe143e8-3e8d-46c8-8239-3389a4661d28"},"vehicle_type_id":"4","last_reported":1774338393,"current_range_meters":9200,"station_id":"ce4bgqh2rcd13ifvqc5g","pricing_plan_id":"cebpf4jnsgd1na2vs0mg"},{"bike_id":"d520c672-a946-4bd2-bc2d-9a95f6b0b226","system_id":"levelo_inurba_marseille","lat":43.23889,"lon":5.3746,"is_reserved":false,"is_disabled":false,"rental_uris":{"android":"levelo://app?vid=d520c672-a946-4bd2-bc2d-9a95f6b0b226","ios":"levelo://app?vid=d520c672-a946-4bd2-bc2d-9a95f6b0b226"},"vehicle_type_id":"4","last_reported":1774338393,"current_range_meters":9200,"station_id":"st_d6sm7csbq4hs73f8fpjg","pricing_plan_id":"cebpf4jnsgd1na2vs0mg"},{"bike_id":"b9d157e4-adb0-4d64-b93d-349f42c39fcf","system_id":"levelo_inurba_marseille","lat":43.31883,"lon":5.3682,"is_reserved":false,"is_disabled":false,"rental_uris":{"android":"levelo://app?vid=b9d157e4-adb0-4d64-b93d-349f42c39fcf","ios":"levelo://app?vid=b9d157e4-adb0-4d64-b93d-349f42c39fcf"},"vehicle_type_id":"4","last_reported":1774338393,"current_range_meters":9200,"station_id":"st_d6o2h0d0559c73evc1b0","pricing_plan_id":"cebpf4jnsgd1na2vs0mg"},{"bike_id":"e0dfd533-af70-4356-b761-e1b91e9e88b2","system_id":"levelo_inurba_marseille","lat":43.29563,"lon":5.3753,"is_reserved":false,"is_disabled":false,"rental_uris":{"android":"levelo://app?vid=e0dfd533-af70-4356-b761-e1b91e9e88b2","ios":"levelo://app?vid=e0dfd533-af70-4356-b761-e1b91e9e88b2"},"vehicle_type_id":"4","last_reported":1774338393,"current_range_meters":9600,"station_id":"ce4bgh92rcd13ifvqb50","pricing_plan_id":"cebpf4jnsgd1na2vs0mg"},{"bike_id":"a9abd8af-8bd4-41e9-9b12-068972ec99fa","system_id":"levelo_inurba_marseille","lat":43.33529,"lon":5.37472,"is_reserved":false,"is_disabled":false,"rental_uris":{"android":"levelo://app?vid=a9abd8af-8bd4-41e9-9b12-068972ec99fa","ios":"levelo://app?vid=a9abd8af-8bd4-41e9-9b12-068972ec99fa"},"vehicle_type_id":"4","last_reported":1774338393,"current_range_meters":9600,"station_id":"st_d46tts09ee8s73dlu43g","pricing_plan_id":"cebpf4jnsgd1na2vs0mg"},{"bike_id":"1956b4b1-2733-4998-b5d8-2f8c7a4333e6","system_id":"levelo_inurba_marseille","lat":43.29681,"lon":5.37282,"is_reserved":false,"is_disabled":false,"rental_uris":{"android":"levelo://app?vid=1956b4b1-2733-4998-b5d8-2f8c7a4333e6","ios":"levelo://app?vid=1956b4b1-2733-4998-b5d8-2f8c7a4333e6"},"vehicle_type_id":"4","last_reported":1774338393,"current_range_meters":9600,"station_id":"ce4bgk12rcd13ifvqbj0","pricing_plan_id":"cebpf4jnsgd1na2vs0mg"},{"bike_id":"992d461f-8839-4086-b27a-9edc1d38b03d","system_id":"levelo_inurba_marseille","lat":43.33552,"lon":5.37479,"is_reserved":false,"is_disabled":false,"rental_uris":{"android":"levelo://app?vid=992d461f-8839-4086-b27a-9edc1d38b03d","ios":"levelo://app?vid=992d461f-8839-4086-b27a-9edc1d38b03d"},"vehicle_type_id":"4","last_reported":1774338393,"current_range_meters":9600,"station_id":"st_d46tts09ee8s73dlu43g","pricing_plan_id":"cebpf4jnsgd1na2vs0mg"},{"bike_id":"b8d7a02a-f8e6-461d-88a3-e73fba899271","system_id":"levelo_inurba_marseille","lat":43.21752,"lon":5.34615,"is_reserved":false,"is_disabled":true,"rental_uris":{"android":"levelo://app?vid=b8d7a02a-f8e6-461d-88a3-e73fba899271","ios":"levelo://app?vid=b8d7a02a-f8e6-461d-88a3-e73fba899271"},"vehicle_type_id":"4","last_reported":1774338393,"current_range_meters":9600,"station_id":"st_cvj6r9ubvosntc0bgbag","pricing_plan_id":"cebpf4jnsgd1na2vs0mg"},{"bike_id":"62c0eda8-c666-40c1-b62d-71242266f316","system_id":"levelo_inurba_marseille","lat":43.28456,"lon":5.39183,"is_reserved":false,"is_disabled":true,"rental_uris":{"android":"levelo://app?vid=62c0eda8-c666-40c1-b62d-71242266f316","ios":"levelo://app?vid=62c0eda8-c666-40c1-b62d-71242266f316"},"vehicle_type_id":"4","last_reported":1774338393,"current_range_meters":9600,"station_id":"ce4bhoh2rcd13ifvqh5g","pricing_plan_id":"cebpf4jnsgd1na2vs0mg"},{"bike_id":"022369b7-d0ac-45d7-b6d7-0c20b9ca63c6","system_id":"levelo_inurba_marseille","lat":43.28932,"lon":5.36638,"is_reserved":false,"is_disabled":false,"rental_uris":{"android":"levelo://app?vid=022369b7-d0ac-45d7-b6d7-0c20b9ca63c6","ios":"levelo://app?vid=022369b7-d0ac-45d7-b6d7-0c20b9ca63c6"},"vehicle_type_id":"4","last_reported":1774338393,"current_range_meters":9600,"station_id":"ce4bhap2rcd13ifvqek0","pricing_plan_id":"cebpf4jnsgd1na2vs0mg"},{"bike_id":"489b1f47-9bf9-4f10-90f5-3b4dff230700","system_id":"levelo_inurba_marseille","lat":43.23785,"lon":5.36634,"is_reserved":false,"is_disabled":false,"rental_uris":{"android":"levelo://app?vid=489b1f47-9bf9-4f10-90f5-3b4dff230700","ios":"levelo://app?vid=489b1f47-9bf9-4f10-90f5-3b4dff230700"},"vehicle_type_id":"4","last_reported":1774338393,"current_range_meters":9600,"station_id":"st_d3nk18o9ro0c73en2l3g","pricing_plan_id":"cebpf4jnsgd1na2vs0mg"},{"bike_id":"af1bd9f2-4090-41c4-a3d4-45d7eb0ce11e","system_id":"levelo_inurba_marseille","lat":43.30284,"lon":5.369,"is_reserved":false,"is_disabled":false,"rental_uris":{"android":"levelo://app?vid=af1bd9f2-4090-41c4-a3d4-45d7eb0ce11e","ios":"levelo://app?vid=af1bd9f2-4090-41c4-a3d4-45d7eb0ce11e"},"vehicle_type_id":"4","last_reported":1774338393,"current_range_meters":9600,"station_id":"ce4bgqh2rcd13ifvqc5g","pricing_plan_id":"cebpf4jnsgd1na2vs0mg"},{"bike_id":"fd7dd6d4-5810-446e-879e-ac907443aee8","system_id":"levelo_inurba_marseille","lat":43.26686,"lon":5.38285,"is_reserved":false,"is_disabled":false,"rental_uris":{"android":"levelo://app?vid=fd7dd6d4-5810-446e-879e-ac907443aee8","ios":"levelo://app?vid=fd7dd6d4-5810-446e-879e-ac907443aee8"},"vehicle_type_id":"4","last_reported":1774338393,"current_range_meters":9600,"station_id":"ce4bhg92rcd13ifvqf90","pricing_plan_id":"cebpf4jnsgd1na2vs0mg"},{"bike_id":"7c59c074-6646-4968-803b-ea035a59d3f4","system_id":"levelo_inurba_marseille","lat":43.23793,"lon":5.36622,"is_reserved":false,"is_disabled":false,"rental_uris":{"android":"levelo://app?vid=7c59c074-6646-4968-803b-ea035a59d3f4","ios":"levelo://app?vid=7c59c074-6646-4968-803b-ea035a59d3f4"},"vehicle_type_id":"4","last_reported":1774338393,"current_range_meters":9600,"station_id":"st_d3nk18o9ro0c73en2l3g","pricing_plan_id":"cebpf4jnsgd1na2vs0mg"},{"bike_id":"df98898b-c83c-4f80-be16-f04ebf6b0c77","system_id":"levelo_inurba_marseille","lat":43.32094,"lon":5.36792,"is_reserved":false,"is_disabled":false,"rental_uris":{"android":"levelo://app?vid=df98898b-c83c-4f80-be16-f04ebf6b0c77","ios":"levelo://app?vid=df98898b-c83c-4f80-be16-f04ebf6b0c77"},"vehicle_type_id":"4","last_reported":1774338393,"current_range_meters":9600,"station_id":"ce4bhrh2rcd13ifvqhug","pricing_plan_id":"cebpf4jnsgd1na2vs0mg"},{"bike_id":"af357aeb-bdd7-41bc-b39f-8306c906c09b","system_id":"levelo_inurba_marseille","lat":43.23055,"lon":5.35492,"is_reserved":false,"is_disabled":false,"rental_uris":{"android":"levelo://app?vid=af357aeb-bdd7-41bc-b39f-8306c906c09b","ios":"levelo://app?vid=af357aeb-bdd7-41bc-b39f-8306c906c09b"},"vehicle_type_id":"4","last_reported":1774338393,"current_range_meters":9600,"station_id":"cpo3342slgdg3j2ifvpg","pricing_plan_id":"cebpf4jnsgd1na2vs0mg"},{"bike_id":"b872fb5f-fc40-4ebb-9848-afbea986f7ed","system_id":"levelo_inurba_marseille","lat":43.2836,"lon":5.36091,"is_reserved":false,"is_disabled":false,"rental_uris":{"android":"levelo://app?vid=b872fb5f-fc40-4ebb-9848-afbea986f7ed","ios":"levelo://app?vid=b872fb5f-fc40-4ebb-9848-afbea986f7ed"},"vehicle_type_id":"4","last_reported":1774338393,"current_range_meters":10000,"station_id":"","pricing_plan_id":"cebpf4jnsgd1na2vs0mg"},{"bike_id":"fd62c189-7ce6-44b0-ae3a-61d9148ec2e6","system_id":"levelo_inurba_marseille","lat":43.272034,"lon":5.391859,"is_reserved":false,"is_disabled":true,"rental_uris":{"android":"levelo://app?vid=fd62c189-7ce6-44b0-ae3a-61d9148ec2e6","ios":"levelo://app?vid=fd62c189-7ce6-44b0-ae3a-61d9148ec2e6"},"vehicle_type_id":"4","last_reported":1774338393,"current_range_meters":10000,"station_id":"","pricing_plan_id":"cebpf4jnsgd1na2vs0mg"},{"bike_id":"6d4d6582-e142-4f9d-84a4-d2c7bfe5f79c","system_id":"levelo_inurba_marseille","lat":43.24066,"lon":5.37765,"is_reserved":false,"is_disabled":false,"rental_uris":{"android":"levelo://app?vid=6d4d6582-e142-4f9d-84a4-d2c7bfe5f79c","ios":"levelo://app?vid=6d4d6582-e142-4f9d-84a4-d2c7bfe5f79c"},"vehicle_type_id":"4","last_reported":1774338393,"current_range_meters":10000,"station_id":"ce4bhnp2rcd13ifvqgvg","pricing_plan_id":"cebpf4jnsgd1na2vs0mg"},{"bike_id":"6b8acac9-ccf3-4647-89ff-89fbb46b6df8","system_id":"levelo_inurba_marseille","lat":43.30292,"lon":5.45035,"is_reserved":false,"is_disabled":false,"rental_uris":{"android":"levelo://app?vid=6b8acac9-ccf3-4647-89ff-89fbb46b6df8","ios":"levelo://app?vid=6b8acac9-ccf3-4647-89ff-89fbb46b6df8"},"vehicle_type_id":"4","last_reported":1774338393,"current_range_meters":10000,"station_id":"","pricing_plan_id":"cebpf4jnsgd1na2vs0mg"},{"bike_id":"66071a2b-b2ee-4a77-b65d-976f06c79310","system_id":"levelo_inurba_marseille","lat":43.26367,"lon":5.41101,"is_reserved":false,"is_disabled":false,"rental_uris":{"android":"levelo://app?vid=66071a2b-b2ee-4a77-b65d-976f06c79310","ios":"levelo://app?vid=66071a2b-b2ee-4a77-b65d-976f06c79310"},"vehicle_type_id":"4","last_reported":1774338393,"current_range_meters":10000,"station_id":"st_d4e5ca6na9uc73bfl5fg","pricing_plan_id":"cebpf4jnsgd1na2vs0mg"},{"bike_id":"a0c13a2a-5252-48fc-9419-77010bbe7e6e","system_id":"levelo_inurba_marseille","lat":43.25929,"lon":5.40919,"is_reserved":false,"is_disabled":false,"rental_uris":{"android":"levelo://app?vid=a0c13a2a-5252-48fc-9419-77010bbe7e6e","ios":"levelo://app?vid=a0c13a2a-5252-48fc-9419-77010bbe7e6e"},"vehicle_type_id":"4","last_reported":1774338393,"current_range_meters":10000,"station_id":"ce4bhm92rcd13ifvqglg","pricing_plan_id":"cebpf4jnsgd1na2vs0mg"},{"bike_id":"4a79e649-3571-4ae2-93d5-e8aa2e65e0e7","system_id":"levelo_inurba_marseille","lat":43.32062,"lon":5.41535,"is_reserved":false,"is_disabled":false,"rental_uris":{"android":"levelo://app?vid=4a79e649-3571-4ae2-93d5-e8aa2e65e0e7","ios":"levelo://app?vid=4a79e649-3571-4ae2-93d5-e8aa2e65e0e7"},"vehicle_type_id":"4","last_reported":1774338393,"current_range_meters":10000,"station_id":"ce4bhq92rcd13ifvqhkg","pricing_plan_id":"cebpf4jnsgd1na2vs0mg"},{"bike_id":"81afbade-9b61-4865-965d-d9c81a599521","system_id":"levelo_inurba_marseille","lat":43.2379,"lon":5.36627,"is_reserved":false,"is_disabled":false,"rental_uris":{"android":"levelo://app?vid=81afbade-9b61-4865-965d-d9c81a599521","ios":"levelo://app?vid=81afbade-9b61-4865-965d-d9c81a599521"},"vehicle_type_id":"4","last_reported":1774338393,"current_range_meters":10000,"station_id":"st_d3nk18o9ro0c73en2l3g","pricing_plan_id":"cebpf4jnsgd1na2vs0mg"},{"bike_id":"7acbb730-6c79-419d-ae15-4ae006fd7da1","system_id":"levelo_inurba_marseille","lat":43.23897,"lon":5.37449,"is_reserved":false,"is_disabled":false,"rental_uris":{"android":"levelo://app?vid=7acbb730-6c79-419d-ae15-4ae006fd7da1","ios":"levelo://app?vid=7acbb730-6c79-419d-ae15-4ae006fd7da1"},"vehicle_type_id":"4","last_reported":1774338393,"current_range_meters":10000,"station_id":"st_d6sm7csbq4hs73f8fpjg","pricing_plan_id":"cebpf4jnsgd1na2vs0mg"},{"bike_id":"ce88997e-1fb3-46ed-8e74-71ab221438f9","system_id":"levelo_inurba_marseille","lat":43.24635,"lon":5.38914,"is_reserved":false,"is_disabled":true,"rental_uris":{"android":"levelo://app?vid=ce88997e-1fb3-46ed-8e74-71ab221438f9","ios":"levelo://app?vid=ce88997e-1fb3-46ed-8e74-71ab221438f9"},"vehicle_type_id":"4","last_reported":1774338393,"current_range_meters":10800,"station_id":"ce4bhg12rcd13ifvqf60","pricing_plan_id":"cebpf4jnsgd1na2vs0mg"},{"bike_id":"63e7416c-20b1-4f3c-816f-a49f74fe6d7b","system_id":"levelo_inurba_marseille","lat":43.24667,"lon":5.3817,"is_reserved":false,"is_disabled":true,"rental_uris":{"android":"levelo://app?vid=63e7416c-20b1-4f3c-816f-a49f74fe6d7b","ios":"levelo://app?vid=63e7416c-20b1-4f3c-816f-a49f74fe6d7b"},"vehicle_type_id":"4","last_reported":1774338393,"current_range_meters":10800,"station_id":"ce4bhih2rcd13ifvqfr0","pricing_plan_id":"cebpf4jnsgd1na2vs0mg"},{"bike_id":"fdd8bf84-b2fe-4508-9572-06ea662fa5ac","system_id":"levelo_inurba_marseille","lat":43.28474,"lon":5.4839,"is_reserved":false,"is_disabled":false,"rental_uris":{"android":"levelo://app?vid=fdd8bf84-b2fe-4508-9572-06ea662fa5ac","ios":"levelo://app?vid=fdd8bf84-b2fe-4508-9572-06ea662fa5ac"},"vehicle_type_id":"4","last_reported":1774338393,"current_range_meters":10800,"station_id":"","pricing_plan_id":"cebpf4jnsgd1na2vs0mg"},{"bike_id":"00632196-0233-4f69-90af-0a36bab1dde0","system_id":"levelo_inurba_marseille","lat":43.225307,"lon":5.348502,"is_reserved":false,"is_disabled":false,"rental_uris":{"android":"levelo://app?vid=00632196-0233-4f69-90af-0a36bab1dde0","ios":"levelo://app?vid=00632196-0233-4f69-90af-0a36bab1dde0"},"vehicle_type_id":"4","last_reported":1774338393,"current_range_meters":10800,"station_id":"","pricing_plan_id":"cebpf4jnsgd1na2vs0mg"},{"bike_id":"cc74707f-745d-4e24-bffa-272679c6871c","system_id":"levelo_inurba_marseille","lat":43.27833,"lon":5.39212,"is_reserved":false,"is_disabled":false,"rental_uris":{"android":"levelo://app?vid=cc74707f-745d-4e24-bffa-272679c6871c","ios":"levelo://app?vid=cc74707f-745d-4e24-bffa-272679c6871c"},"vehicle_type_id":"4","last_reported":1774338393,"current_range_meters":10800,"station_id":"ce4bhjp2rcd13ifvqga0","pricing_plan_id":"cebpf4jnsgd1na2vs0mg"},{"bike_id":"2ca6783f-f449-4964-900b-454fa68052d6","system_id":"levelo_inurba_marseille","lat":43.27615,"lon":5.36108,"is_reserved":false,"is_disabled":false,"rental_uris":{"android":"levelo://app?vid=2ca6783f-f449-4964-900b-454fa68052d6","ios":"levelo://app?vid=2ca6783f-f449-4964-900b-454fa68052d6"},"vehicle_type_id":"4","last_reported":1774338393,"current_range_meters":10800,"station_id":"ce4bgj92rcd13ifvqbe0","pricing_plan_id":"cebpf4jnsgd1na2vs0mg"},{"bike_id":"adaf8e00-ca2c-49b5-9b35-6749da32aa87","system_id":"levelo_inurba_marseille","lat":43.33542,"lon":5.37467,"is_reserved":false,"is_disabled":false,"rental_uris":{"android":"levelo://app?vid=adaf8e00-ca2c-49b5-9b35-6749da32aa87","ios":"levelo://app?vid=adaf8e00-ca2c-49b5-9b35-6749da32aa87"},"vehicle_type_id":"4","last_reported":1774338393,"current_range_meters":10800,"station_id":"st_d46tts09ee8s73dlu43g","pricing_plan_id":"cebpf4jnsgd1na2vs0mg"},{"bike_id":"3d023c37-aac0-4b73-9640-74961c370d4a","system_id":"levelo_inurba_marseille","lat":43.27814,"lon":5.40722,"is_reserved":false,"is_disabled":false,"rental_uris":{"android":"levelo://app?vid=3d023c37-aac0-4b73-9640-74961c370d4a","ios":"levelo://app?vid=3d023c37-aac0-4b73-9640-74961c370d4a"},"vehicle_type_id":"4","last_reported":1774338393,"current_range_meters":10800,"station_id":"ce4bhnh2rcd13ifvqgtg","pricing_plan_id":"cebpf4jnsgd1na2vs0mg"},{"bike_id":"36c30ee7-542d-41db-b84b-a18e4b79c37e","system_id":"levelo_inurba_marseille","lat":43.27914,"lon":5.39628,"is_reserved":false,"is_disabled":true,"rental_uris":{"android":"levelo://app?vid=36c30ee7-542d-41db-b84b-a18e4b79c37e","ios":"levelo://app?vid=36c30ee7-542d-41db-b84b-a18e4b79c37e"},"vehicle_type_id":"4","last_reported":1774338393,"current_range_meters":10800,"station_id":"ce4bhf92rcd13ifvqf40","pricing_plan_id":"cebpf4jnsgd1na2vs0mg"},{"bike_id":"0c48dd8c-0cdf-4988-95dd-31b05278dc56","system_id":"levelo_inurba_marseille","lat":43.23783,"lon":5.3663,"is_reserved":false,"is_disabled":false,"rental_uris":{"android":"levelo://app?vid=0c48dd8c-0cdf-4988-95dd-31b05278dc56","ios":"levelo://app?vid=0c48dd8c-0cdf-4988-95dd-31b05278dc56"},"vehicle_type_id":"4","last_reported":1774338393,"current_range_meters":10800,"station_id":"st_d3nk18o9ro0c73en2l3g","pricing_plan_id":"cebpf4jnsgd1na2vs0mg"},{"bike_id":"26108a37-c467-4811-a0c3-d12e7c8355fb","system_id":"levelo_inurba_marseille","lat":43.25827,"lon":5.39439,"is_reserved":false,"is_disabled":true,"rental_uris":{"android":"levelo://app?vid=26108a37-c467-4811-a0c3-d12e7c8355fb","ios":"levelo://app?vid=26108a37-c467-4811-a0c3-d12e7c8355fb"},"vehicle_type_id":"4","last_reported":1774338393,"current_range_meters":10800,"station_id":"ce4bhip2rcd13ifvqft0","pricing_plan_id":"cebpf4jnsgd1na2vs0mg"},{"bike_id":"d39a3f30-74c6-4f84-a833-3845a871c194","system_id":"levelo_inurba_marseille","lat":43.24072,"lon":5.37758,"is_reserved":false,"is_disabled":false,"rental_uris":{"android":"levelo://app?vid=d39a3f30-74c6-4f84-a833-3845a871c194","ios":"levelo://app?vid=d39a3f30-74c6-4f84-a833-3845a871c194"},"vehicle_type_id":"4","last_reported":1774338393,"current_range_meters":10800,"station_id":"ce4bhnp2rcd13ifvqgvg","pricing_plan_id":"cebpf4jnsgd1na2vs0mg"},{"bike_id":"96d19c7a-cddc-421b-8245-8896f9ca8560","system_id":"levelo_inurba_marseille","lat":43.30512,"lon":5.38395,"is_reserved":false,"is_disabled":false,"rental_uris":{"android":"levelo://app?vid=96d19c7a-cddc-421b-8245-8896f9ca8560","ios":"levelo://app?vid=96d19c7a-cddc-421b-8245-8896f9ca8560"},"vehicle_type_id":"4","last_reported":1774338393,"current_range_meters":11200,"station_id":"ce4bgg92rcd13ifvqb30","pricing_plan_id":"cebpf4jnsgd1na2vs0mg"},{"bike_id":"f7964fa2-d7a6-41b0-97f9-1f4fa6b33c53","system_id":"levelo_inurba_marseille","lat":43.27096,"lon":5.42303,"is_reserved":false,"is_disabled":false,"rental_uris":{"android":"levelo://app?vid=f7964fa2-d7a6-41b0-97f9-1f4fa6b33c53","ios":"levelo://app?vid=f7964fa2-d7a6-41b0-97f9-1f4fa6b33c53"},"vehicle_type_id":"4","last_reported":1774338393,"current_range_meters":11200,"station_id":"ce4bhk92rcd13ifvqgb0","pricing_plan_id":"cebpf4jnsgd1na2vs0mg"},{"bike_id":"b0fa2701-4d38-4259-a30c-7e9605cef39a","system_id":"levelo_inurba_marseille","lat":43.28469,"lon":5.3845,"is_reserved":false,"is_disabled":true,"rental_uris":{"android":"levelo://app?vid=b0fa2701-4d38-4259-a30c-7e9605cef39a","ios":"levelo://app?vid=b0fa2701-4d38-4259-a30c-7e9605cef39a"},"vehicle_type_id":"4","last_reported":1774338393,"current_range_meters":11200,"station_id":"ce4bh512rcd13ifvqe3g","pricing_plan_id":"cebpf4jnsgd1na2vs0mg"},{"bike_id":"de893167-05bf-499c-841c-0d00984423e5","system_id":"levelo_inurba_marseille","lat":43.28988,"lon":5.35576,"is_reserved":false,"is_disabled":false,"rental_uris":{"android":"levelo://app?vid=de893167-05bf-499c-841c-0d00984423e5","ios":"levelo://app?vid=de893167-05bf-499c-841c-0d00984423e5"},"vehicle_type_id":"4","last_reported":1774338393,"current_range_meters":11200,"station_id":"ce4bhb92rcd13ifvqen0","pricing_plan_id":"cebpf4jnsgd1na2vs0mg"},{"bike_id":"89673b48-b93e-49b1-91bc-4a5460ed425e","system_id":"levelo_inurba_marseille","lat":43.29908,"lon":5.43693,"is_reserved":false,"is_disabled":false,"rental_uris":{"android":"levelo://app?vid=89673b48-b93e-49b1-91bc-4a5460ed425e","ios":"levelo://app?vid=89673b48-b93e-49b1-91bc-4a5460ed425e"},"vehicle_type_id":"4","last_reported":1774338393,"current_range_meters":11200,"station_id":"","pricing_plan_id":"cebpf4jnsgd1na2vs0mg"},{"bike_id":"a6c626f3-f4af-479f-8a95-7b1d2f2ba8be","system_id":"levelo_inurba_marseille","lat":43.30907,"lon":5.36847,"is_reserved":false,"is_disabled":false,"rental_uris":{"android":"levelo://app?vid=a6c626f3-f4af-479f-8a95-7b1d2f2ba8be","ios":"levelo://app?vid=a6c626f3-f4af-479f-8a95-7b1d2f2ba8be"},"vehicle_type_id":"4","last_reported":1774338393,"current_range_meters":11200,"station_id":"ce4bgn92rcd13ifvqbvg","pricing_plan_id":"cebpf4jnsgd1na2vs0mg"},{"bike_id":"a7db7561-eb7a-42d1-b75b-9b219264b5e4","system_id":"levelo_inurba_marseille","lat":43.28411,"lon":5.37525,"is_reserved":false,"is_disabled":true,"rental_uris":{"android":"levelo://app?vid=a7db7561-eb7a-42d1-b75b-9b219264b5e4","ios":"levelo://app?vid=a7db7561-eb7a-42d1-b75b-9b219264b5e4"},"vehicle_type_id":"4","last_reported":1774338393,"current_range_meters":11200,"station_id":"ce4bh412rcd13ifvqds0","pricing_plan_id":"cebpf4jnsgd1na2vs0mg"},{"bike_id":"fd8488c8-4adf-44c3-be86-35689595739a","system_id":"levelo_inurba_marseille","lat":43.23888,"lon":5.37452,"is_reserved":false,"is_disabled":false,"rental_uris":{"android":"levelo://app?vid=fd8488c8-4adf-44c3-be86-35689595739a","ios":"levelo://app?vid=fd8488c8-4adf-44c3-be86-35689595739a"},"vehicle_type_id":"4","last_reported":1774338393,"current_range_meters":11200,"station_id":"st_d6sm7csbq4hs73f8fpjg","pricing_plan_id":"cebpf4jnsgd1na2vs0mg"},{"bike_id":"6676a0e1-527f-463e-9b94-579cffb1159c","system_id":"levelo_inurba_marseille","lat":43.30441,"lon":5.37895,"is_reserved":false,"is_disabled":false,"rental_uris":{"android":"levelo://app?vid=6676a0e1-527f-463e-9b94-579cffb1159c","ios":"levelo://app?vid=6676a0e1-527f-463e-9b94-579cffb1159c"},"vehicle_type_id":"4","last_reported":1774338393,"current_range_meters":11200,"station_id":"","pricing_plan_id":"cebpf4jnsgd1na2vs0mg"},{"bike_id":"34b067aa-1795-412a-a29a-678d09c66f87","system_id":"levelo_inurba_marseille","lat":43.26952,"lon":5.38658,"is_reserved":false,"is_disabled":false,"rental_uris":{"android":"levelo://app?vid=34b067aa-1795-412a-a29a-678d09c66f87","ios":"levelo://app?vid=34b067aa-1795-412a-a29a-678d09c66f87"},"vehicle_type_id":"4","last_reported":1774338393,"current_range_meters":11200,"station_id":"ce4bhh92rcd13ifvqfh0","pricing_plan_id":"cebpf4jnsgd1na2vs0mg"},{"bike_id":"5afecac5-6c03-48fe-af15-9c1fd1e11684","system_id":"levelo_inurba_marseille","lat":43.30546,"lon":5.36692,"is_reserved":false,"is_disabled":false,"rental_uris":{"android":"levelo://app?vid=5afecac5-6c03-48fe-af15-9c1fd1e11684","ios":"levelo://app?vid=5afecac5-6c03-48fe-af15-9c1fd1e11684"},