{"last_updated":1752672644,"ttl":60,"version":"2.2","data":{"bikes":[{"bike_id":"53b742a7-31ae-4272-9bba-7740339e2a2f","system_id":"levelo_inurba_marseille","lat":43.33747,"lon":5.37463,"is_reserved":false,"is_disabled":false,"rental_uris":{"android":"levelo://app?vid=53b742a7-31ae-4272-9bba-7740339e2a2f","ios":"levelo://app?vid=53b742a7-31ae-4272-9bba-7740339e2a2f"},"vehicle_type_id":"1","last_reported":1752672644,"current_range_meters":28800,"station_id":"","pricing_plan_id":"cebpf4jnsgd1na2vs0mg"},{"bike_id":"4e0e5301-281f-449b-bb00-833d3799de26","system_id":"levelo_inurba_marseille","lat":43.22925,"lon":5.35388,"is_reserved":false,"is_disabled":false,"rental_uris":{"android":"levelo://app?vid=4e0e5301-281f-449b-bb00-833d3799de26","ios":"levelo://app?vid=4e0e5301-281f-449b-bb00-833d3799de26"},"vehicle_type_id":"4","last_reported":1752672644,"current_range_meters":2800,"station_id":"cpo3532slgdg3j2ikp40","pricing_plan_id":"cebpf4jnsgd1na2vs0mg"},{"bike_id":"c5a36724-d437-41b9-be67-b25afef6e1ee","system_id":"levelo_inurba_marseille","lat":43.30604,"lon":5.37235,"is_reserved":false,"is_disabled":false,"rental_uris":{"android":"levelo://app?vid=c5a36724-d437-41b9-be67-b25afef6e1ee","ios":"levelo://app?vid=c5a36724-d437-41b9-be67-b25afef6e1ee"},"vehicle_type_id":"4","last_reported":1752672644,"current_range_meters":0,"station_id":"ce4bgqh2rcd13ifvqc4g","pricing_plan_id":"cebpf4jnsgd1na2vs0mg"},{"bike_id":"9489e535-8e73-4856-abc8-19a7a7f28b39","system_id":"levelo_inurba_marseille","lat":43.306,"lon":5.372326,"is_reserved":false,"is_disabled":false,"rental_uris":{"android":"levelo://app?vid=9489e535-8e73-4856-abc8-19a7a7f28b39","ios":"levelo://app?vid=9489e535-8e73-4856-abc8-19a7a7f28b39"},"vehicle_type_id":"4","last_reported":1752672644,"current_range_meters":3200,"station_id":"ce4bgqh2rcd13ifvqc4g","pricing_plan_id":"cebpf4jnsgd1na2vs0mg"},{"bike_id":"d1535125-fd34-47fa-8bfb-ed8c83d7fbcb","system_id":"levelo_inurba_marseille","lat":43.27208,"lon":5.39182,"is_reserved":false,"is_disabled":false,"rental_uris":{"android":"levelo://app?vid=d1535125-fd34-47fa-8bfb-ed8c83d7fbcb","ios":"levelo://app?vid=d1535125-fd34-47fa-8bfb-ed8c83d7fbcb"},"vehicle_type_id":"4","last_reported":1752672644,"current_range_meters":3200,"station_id":"ce4bhhp2rcd13ifvqfm0","pricing_plan_id":"cebpf4jnsgd1na2vs0mg"},{"bike_id":"2ecc4f9e-2b47-47d9-8313-518cca8a5cd3","system_id":"levelo_inurba_marseille","lat":43.267449,"lon":5.397966,"is_reserved":false,"is_disabled":true,"rental_uris":{"android":"levelo://app?vid=2ecc4f9e-2b47-47d9-8313-518cca8a5cd3","ios":"levelo://app?vid=2ecc4f9e-2b47-47d9-8313-518cca8a5cd3"},"vehicle_type_id":"4","last_reported":1752672644,"current_range_meters":3200,"station_id":"","pricing_plan_id":"cebpf4jnsgd1na2vs0mg"},{"bike_id":"99f40ade-a9a1-4ecd-8e3a-d42591531b8e","system_id":"levelo_inurba_marseille","lat":43.27372,"lon":5.36263,"is_reserved":false,"is_disabled":false,"rental_uris":{"android":"levelo://app?vid=99f40ade-a9a1-4ecd-8e3a-d42591531b8e","ios":"levelo://app?vid=99f40ade-a9a1-4ecd-8e3a-d42591531b8e"},"vehicle_type_id":"4","last_reported":1752672644,"current_range_meters":3200,"station_id":"ce4bhbh2rcd13ifvqeo0","pricing_plan_id":"cebpf4jnsgd1na2vs0mg"},{"bike_id":"be803fe7-379c-4d04-b2cb-1e7f711d8f81","system_id":"levelo_inurba_marseille","lat":43.27176,"lon":5.40991,"is_reserved":false,"is_disabled":false,"rental_uris":{"android":"levelo://app?vid=be803fe7-379c-4d04-b2cb-1e7f711d8f81","ios":"levelo://app?vid=be803fe7-379c-4d04-b2cb-1e7f711d8f81"},"vehicle_type_id":"4","last_reported":1752672644,"current_range_meters":4400,"station_id":"ce4bhl12rcd13ifvqgf0","pricing_plan_id":"cebpf4jnsgd1na2vs0mg"},{"bike_id":"0517f226-9c35-473e-b2c6-52179b326362","system_id":"levelo_inurba_marseille","lat":43.282639,"lon":5.350543,"is_reserved":false,"is_disabled":false,"rental_uris":{"android":"levelo://app?vid=0517f226-9c35-473e-b2c6-52179b326362","ios":"levelo://app?vid=0517f226-9c35-473e-b2c6-52179b326362"},"vehicle_type_id":"4","last_reported":1752672644,"current_range_meters":3600,"station_id":"","pricing_plan_id":"cebpf4jnsgd1na2vs0mg"},{"bike_id":"6368de16-d144-4f73-833e-ca19d2aeee12","system_id":"levelo_inurba_marseille","lat":43.22531,"lon":5.34767,"is_reserved":false,"is_disabled":false,"rental_uris":{"android":"levelo://app?vid=6368de16-d144-4f73-833e-ca19d2aeee12","ios":"levelo://app?vid=6368de16-d144-4f73-833e-ca19d2aeee12"},"vehicle_type_id":"4","last_reported":1752672644,"current_range_meters":4000,"station_id":"st_cvj5dfep6f1abm77gieg","pricing_plan_id":"cebpf4jnsgd1na2vs0mg"},{"bike_id":"3e3276aa-7ad7-4ee7-aa87-3d706790f9b3","system_id":"levelo_inurba_marseille","lat":43.29171,"lon":5.37151,"is_reserved":false,"is_disabled":false,"rental_uris":{"android":"levelo://app?vid=3e3276aa-7ad7-4ee7-aa87-3d706790f9b3","ios":"levelo://app?vid=3e3276aa-7ad7-4ee7-aa87-3d706790f9b3"},"vehicle_type_id":"4","last_reported":1752672644,"current_range_meters":4400,"station_id":"ce4bha92rcd13ifvqeh0","pricing_plan_id":"cebpf4jnsgd1na2vs0mg"},{"bike_id":"17c934c0-f0d3-4eb2-aeff-ba8dd88e16b8","system_id":"levelo_inurba_marseille","lat":43.292534,"lon":5.376396,"is_reserved":false,"is_disabled":false,"rental_uris":{"android":"levelo://app?vid=17c934c0-f0d3-4eb2-aeff-ba8dd88e16b8","ios":"levelo://app?vid=17c934c0-f0d3-4eb2-aeff-ba8dd88e16b8"},"vehicle_type_id":"4","last_reported":1752672644,"current_range_meters":4400,"station_id":"","pricing_plan_id":"cebpf4jnsgd1na2vs0mg"},{"bike_id":"e3eb2079-5d6d-45ac-98e8-7636ca3fc854","system_id":"levelo_inurba_marseille","lat":43.23966,"lon":5.36633,"is_reserved":false,"is_disabled":false,"rental_uris":{"android":"levelo://app?vid=e3eb2079-5d6d-45ac-98e8-7636ca3fc854","ios":"levelo://app?vid=e3eb2079-5d6d-45ac-98e8-7636ca3fc854"},"vehicle_type_id":"4","last_reported":1752672644,"current_range_meters":4400,"station_id":"ce4bhi12rcd13ifvqfp0","pricing_plan_id":"cebpf4jnsgd1na2vs0mg"},{"bike_id":"a1bf1b60-3e6f-404a-b752-6653d7e1a9bb","system_id":"levelo_inurba_marseille","lat":43.29708,"lon":5.36618,"is_reserved":false,"is_disabled":false,"rental_uris":{"android":"levelo://app?vid=a1bf1b60-3e6f-404a-b752-6653d7e1a9bb","ios":"levelo://app?vid=a1bf1b60-3e6f-404a-b752-6653d7e1a9bb"},"vehicle_type_id":"4","last_reported":1752672644,"current_range_meters":4000,"station_id":"ce4bgn12rcd13ifvqbt0","pricing_plan_id":"cebpf4jnsgd1na2vs0mg"},{"bike_id":"97f5e2bd-bab3-469a-a51e-639aff8c3200","system_id":"levelo_inurba_marseille","lat":43.22919,"lon":5.35367,"is_reserved":false,"is_disabled":false,"rental_uris":{"android":"levelo://app?vid=97f5e2bd-bab3-469a-a51e-639aff8c3200","ios":"levelo://app?vid=97f5e2bd-bab3-469a-a51e-639aff8c3200"},"vehicle_type_id":"4","last_reported":1752672644,"current_range_meters":4800,"station_id":"cpo3532slgdg3j2ikp40","pricing_plan_id":"cebpf4jnsgd1na2vs0mg"},{"bike_id":"171b4ee5-50df-4a8e-89b1-8b83c27baaf4","system_id":"levelo_inurba_marseille","lat":43.24166,"lon":5.36397,"is_reserved":false,"is_disabled":false,"rental_uris":{"android":"levelo://app?vid=171b4ee5-50df-4a8e-89b1-8b83c27baaf4","ios":"levelo://app?vid=171b4ee5-50df-4a8e-89b1-8b83c27baaf4"},"vehicle_type_id":"4","last_reported":1752672644,"current_range_meters":4800,"station_id":"cpo36qri1sfpv3e86is0","pricing_plan_id":"cebpf4jnsgd1na2vs0mg"},{"bike_id":"e1a76524-e56f-459a-8ae7-1b4f7571e617","system_id":"levelo_inurba_marseille","lat":43.21747,"lon":5.346059,"is_reserved":false,"is_disabled":false,"rental_uris":{"android":"levelo://app?vid=e1a76524-e56f-459a-8ae7-1b4f7571e617","ios":"levelo://app?vid=e1a76524-e56f-459a-8ae7-1b4f7571e617"},"vehicle_type_id":"4","last_reported":1752672644,"current_range_meters":4800,"station_id":"st_cvj6r9ubvosntc0bgbag","pricing_plan_id":"cebpf4jnsgd1na2vs0mg"},{"bike_id":"21575906-4d5a-4be4-988c-88d71f5dcb00","system_id":"levelo_inurba_marseille","lat":43.292633,"lon":5.384283,"is_reserved":false,"is_disabled":false,"rental_uris":{"android":"levelo://app?vid=21575906-4d5a-4be4-988c-88d71f5dcb00","ios":"levelo://app?vid=21575906-4d5a-4be4-988c-88d71f5dcb00"},"vehicle_type_id":"4","last_reported":1752672644,"current_range_meters":5600,"station_id":"ce4bh692rcd13ifvqea0","pricing_plan_id":"cebpf4jnsgd1na2vs0mg"},{"bike_id":"a225acfc-bf8b-4172-8f84-71e52cb0f8e1","system_id":"levelo_inurba_marseille","lat":43.27836,"lon":5.3921,"is_reserved":false,"is_disabled":false,"rental_uris":{"android":"levelo://app?vid=a225acfc-bf8b-4172-8f84-71e52cb0f8e1","ios":"levelo://app?vid=a225acfc-bf8b-4172-8f84-71e52cb0f8e1"},"vehicle_type_id":"4","last_reported":1752672644,"current_range_meters":5600,"station_id":"ce4bhjp2rcd13ifvqga0","pricing_plan_id":"cebpf4jnsgd1na2vs0mg"},{"bike_id":"dc69c86a-64bb-4d69-b885-0301c86c3d0f","system_id":"levelo_inurba_marseille","lat":43.29939,"lon":5.36561,"is_reserved":false,"is_disabled":false,"rental_uris":{"android":"levelo://app?vid=dc69c86a-64bb-4d69-b885-0301c86c3d0f","ios":"levelo://app?vid=dc69c86a-64bb-4d69-b885-0301c86c3d0f"},"vehicle_type_id":"4","last_reported":1752672644,"current_range_meters":5600,"station_id":"ce4bgm92rcd13ifvqbr0","pricing_plan_id":"cebpf4jnsgd1na2vs0mg"},{"bike_id":"40b17240-44dd-4291-acf1-60cc182c1ff2","system_id":"levelo_inurba_marseille","lat":43.24663,"lon":5.38157,"is_reserved":false,"is_disabled":false,"rental_uris":{"android":"levelo://app?vid=40b17240-44dd-4291-acf1-60cc182c1ff2","ios":"levelo://app?vid=40b17240-44dd-4291-acf1-60cc182c1ff2"},"vehicle_type_id":"4","last_reported":1752672644,"current_range_meters":6000,"station_id":"ce4bhih2rcd13ifvqfr0","pricing_plan_id":"cebpf4jnsgd1na2vs0mg"},{"bike_id":"3164a512-18df-4bd0-956d-6e4ccd6b8e4a","system_id":"levelo_inurba_marseille","lat":43.28683,"lon":5.38655,"is_reserved":false,"is_disabled":false,"rental_uris":{"android":"levelo://app?vid=3164a512-18df-4bd0-956d-6e4ccd6b8e4a","ios":"levelo://app?vid=3164a512-18df-4bd0-956d-6e4ccd6b8e4a"},"vehicle_type_id":"4","last_reported":1752672644,"current_range_meters":6000,"station_id":"ce4bh492rcd13ifvqdug","pricing_plan_id":"cebpf4jnsgd1na2vs0mg"},{"bike_id":"1443c14f-2bbb-40ee-90b8-f2d3b5eca96f","system_id":"levelo_inurba_marseille","lat":43.26213,"lon":5.37447,"is_reserved":false,"is_disabled":false,"rental_uris":{"android":"levelo://app?vid=1443c14f-2bbb-40ee-90b8-f2d3b5eca96f","ios":"levelo://app?vid=1443c14f-2bbb-40ee-90b8-f2d3b5eca96f"},"vehicle_type_id":"4","last_reported":1752672644,"current_range_meters":6000,"station_id":"ce4bhgp2rcd13ifvqfc0","pricing_plan_id":"cebpf4jnsgd1na2vs0mg"},{"bike_id":"067396f8-7eb2-4a51-98ed-b89748b8eaa0","system_id":"levelo_inurba_marseille","lat":43.29569,"lon":5.3996,"is_reserved":false,"is_disabled":false,"rental_uris":{"android":"levelo://app?vid=067396f8-7eb2-4a51-98ed-b89748b8eaa0","ios":"levelo://app?vid=067396f8-7eb2-4a51-98ed-b89748b8eaa0"},"vehicle_type_id":"4","last_reported":1752672644,"current_range_meters":6000,"station_id":"ce4bh312rcd13ifvqdj0","pricing_plan_id":"cebpf4jnsgd1na2vs0mg"},{"bike_id":"c16bbbd2-c07f-4c9f-8ba2-8eb60203418b","system_id":"levelo_inurba_marseille","lat":43.26561,"lon":5.3728,"is_reserved":false,"is_disabled":false,"rental_uris":{"android":"levelo://app?vid=c16bbbd2-c07f-4c9f-8ba2-8eb60203418b","ios":"levelo://app?vid=c16bbbd2-c07f-4c9f-8ba2-8eb60203418b"},"vehicle_type_id":"4","last_reported":1752672644,"current_range_meters":6400,"station_id":"ce4bhg12rcd13ifvqf70","pricing_plan_id":"cebpf4jnsgd1na2vs0mg"},{"bike_id":"c44c5060-f4e3-42db-9076-f0348a62e241","system_id":"levelo_inurba_marseille","lat":43.29805,"lon":5.38108,"is_reserved":false,"is_disabled":false,"rental_uris":{"android":"levelo://app?vid=c44c5060-f4e3-42db-9076-f0348a62e241","ios":"levelo://app?vid=c44c5060-f4e3-42db-9076-f0348a62e241"},"vehicle_type_id":"4","last_reported":1752672644,"current_range_meters":6400,"station_id":"ce4bgip2rcd13ifvqbb0","pricing_plan_id":"cebpf4jnsgd1na2vs0mg"},{"bike_id":"b37bbe18-8c28-46a5-960b-f87c2ba3f2fb","system_id":"levelo_inurba_marseille","lat":43.232216,"lon":5.436755,"is_reserved":false,"is_disabled":false,"rental_uris":{"android":"levelo://app?vid=b37bbe18-8c28-46a5-960b-f87c2ba3f2fb","ios":"levelo://app?vid=b37bbe18-8c28-46a5-960b-f87c2ba3f2fb"},"vehicle_type_id":"4","last_reported":1752672644,"current_range_meters":6400,"station_id":"","pricing_plan_id":"cebpf4jnsgd1na2vs0mg"},{"bike_id":"5c45cf5e-22b0-4bf5-83b5-366fccb7856f","system_id":"levelo_inurba_marseille","lat":43.295784,"lon":5.367441,"is_reserved":false,"is_disabled":false,"rental_uris":{"android":"levelo://app?vid=5c45cf5e-22b0-4bf5-83b5-366fccb7856f","ios":"levelo://app?vid=5c45cf5e-22b0-4bf5-83b5-366fccb7856f"},"vehicle_type_id":"4","last_reported":1752672644,"current_range_meters":6800,"station_id":"ce4bgph2rcd13ifvqc2g","pricing_plan_id":"cebpf4jnsgd1na2vs0mg"},{"bike_id":"0c87efc2-d716-4eb2-a6a1-3cfa014c925f","system_id":"levelo_inurba_marseille","lat":43.309299,"lon":5.401283,"is_reserved":false,"is_disabled":true,"rental_uris":{"android":"levelo://app?vid=0c87efc2-d716-4eb2-a6a1-3cfa014c925f","ios":"levelo://app?vid=0c87efc2-d716-4eb2-a6a1-3cfa014c925f"},"vehicle_type_id":"4","last_reported":1752672644,"current_range_meters":6800,"station_id":"ce4bgvp2rcd13ifvqct0","pricing_plan_id":"cebpf4jnsgd1na2vs0mg"},{"bike_id":"5d8c54b6-f935-4965-a2f7-8c1767a0c171","system_id":"levelo_inurba_marseille","lat":43.29412,"lon":5.3861,"is_reserved":false,"is_disabled":true,"rental_uris":{"android":"levelo://app?vid=5d8c54b6-f935-4965-a2f7-8c1767a0c171","ios":"levelo://app?vid=5d8c54b6-f935-4965-a2f7-8c1767a0c171"},"vehicle_type_id":"4","last_reported":1752672644,"current_range_meters":6800,"station_id":"ce4bh2h2rcd13ifvqdh0","pricing_plan_id":"cebpf4jnsgd1na2vs0mg"},{"bike_id":"e2f2f893-16c7-42e5-8c51-893940a1136e","system_id":"levelo_inurba_marseille","lat":43.30117,"lon":5.36868,"is_reserved":false,"is_disabled":false,"rental_uris":{"android":"levelo://app?vid=e2f2f893-16c7-42e5-8c51-893940a1136e","ios":"levelo://app?vid=e2f2f893-16c7-42e5-8c51-893940a1136e"},"vehicle_type_id":"4","last_reported":1752672644,"current_range_meters":7200,"station_id":"","pricing_plan_id":"cebpf4jnsgd1na2vs0mg"},{"bike_id":"d2ef0c19-e551-448f-a43e-7bb1460a8fb6","system_id":"levelo_inurba_marseille","lat":43.298054,"lon":5.381381,"is_reserved":false,"is_disabled":false,"rental_uris":{"android":"levelo://app?vid=d2ef0c19-e551-448f-a43e-7bb1460a8fb6","ios":"levelo://app?vid=d2ef0c19-e551-448f-a43e-7bb1460a8fb6"},"vehicle_type_id":"4","last_reported":1752672644,"current_range_meters":7200,"station_id":"ce4bgip2rcd13ifvqbb0","pricing_plan_id":"cebpf4jnsgd1na2vs0mg"},{"bike_id":"892165f6-25a5-4f0a-a9a6-cf4efe50c3be","system_id":"levelo_inurba_marseille","lat":43.24853,"lon":5.42527,"is_reserved":false,"is_disabled":false,"rental_uris":{"android":"levelo://app?vid=892165f6-25a5-4f0a-a9a6-cf4efe50c3be","ios":"levelo://app?vid=892165f6-25a5-4f0a-a9a6-cf4efe50c3be"},"vehicle_type_id":"4","last_reported":1752672644,"current_range_meters":7200,"station_id":"","pricing_plan_id":"cebpf4jnsgd1na2vs0mg"},{"bike_id":"5ff06d2e-1fcb-4f7f-b26f-494ef01051e2","system_id":"levelo_inurba_marseille","lat":43.26587,"lon":5.39483,"is_reserved":false,"is_disabled":true,"rental_uris":{"android":"levelo://app?vid=5ff06d2e-1fcb-4f7f-b26f-494ef01051e2","ios":"levelo://app?vid=5ff06d2e-1fcb-4f7f-b26f-494ef01051e2"},"vehicle_type_id":"4","last_reported":1752672644,"current_range_meters":7200,"station_id":"","pricing_plan_id":"cebpf4jnsgd1na2vs0mg"},{"bike_id":"543e1f4d-6d09-456f-b184-3b44ea6f95c0","system_id":"levelo_inurba_marseille","lat":43.29004,"lon":5.3561,"is_reserved":false,"is_disabled":false,"rental_uris":{"android":"levelo://app?vid=543e1f4d-6d09-456f-b184-3b44ea6f95c0","ios":"levelo://app?vid=543e1f4d-6d09-456f-b184-3b44ea6f95c0"},"vehicle_type_id":"4","last_reported":1752672644,"current_range_meters":7200,"station_id":"ce4bhb92rcd13ifvqen0","pricing_plan_id":"cebpf4jnsgd1na2vs0mg"},{"bike_id":"58f12626-7763-4c49-b2e3-71b1a185f4e1","system_id":"levelo_inurba_marseille","lat":43.281058,"lon":5.351916,"is_reserved":false,"is_disabled":false,"rental_uris":{"android":"levelo://app?vid=58f12626-7763-4c49-b2e3-71b1a185f4e1","ios":"levelo://app?vid=58f12626-7763-4c49-b2e3-71b1a185f4e1"},"vehicle_type_id":"4","last_reported":1752672644,"current_range_meters":7200,"station_id":"ce4bhbh2rcd13ifvqeo0","pricing_plan_id":"cebpf4jnsgd1na2vs0mg"},{"bike_id":"dd5a6b61-3015-4289-bd28-bd6182572a68","system_id":"levelo_inurba_marseille","lat":43.24067,"lon":5.37768,"is_reserved":false,"is_disabled":false,"rental_uris":{"android":"levelo://app?vid=dd5a6b61-3015-4289-bd28-bd6182572a68","ios":"levelo://app?vid=dd5a6b61-3015-4289-bd28-bd6182572a68"},"vehicle_type_id":"4","last_reported":1752672644,"current_range_meters":8000,"station_id":"ce4bhnp2rcd13ifvqgvg","pricing_plan_id":"cebpf4jnsgd1na2vs0mg"},{"bike_id":"0e5ae513-26b4-48cf-aa0d-4398da7b0f16","system_id":"levelo_inurba_marseille","lat":43.2657,"lon":5.39023,"is_reserved":false,"is_disabled":false,"rental_uris":{"android":"levelo://app?vid=0e5ae513-26b4-48cf-aa0d-4398da7b0f16","ios":"levelo://app?vid=0e5ae513-26b4-48cf-aa0d-4398da7b0f16"},"vehicle_type_id":"4","last_reported":1752672644,"current_range_meters":8000,"station_id":"ce4bhe12rcd13ifvqf30","pricing_plan_id":"cebpf4jnsgd1na2vs0mg"},{"bike_id":"e53b3c0b-8c33-4d47-ba77-d3ac85394bb3","system_id":"levelo_inurba_marseille","lat":43.2316,"lon":5.43704,"is_reserved":false,"is_disabled":false,"rental_uris":{"android":"levelo://app?vid=e53b3c0b-8c33-4d47-ba77-d3ac85394bb3","ios":"levelo://app?vid=e53b3c0b-8c33-4d47-ba77-d3ac85394bb3"},"vehicle_type_id":"4","last_reported":1752672644,"current_range_meters":8000,"station_id":"ce4bhmp2rcd13ifvqgog","pricing_plan_id":"cebpf4jnsgd1na2vs0mg"},{"bike_id":"8c54a6c5-29aa-46d0-b406-9876512f49bb","system_id":"levelo_inurba_marseille","lat":43.298,"lon":5.38102,"is_reserved":false,"is_disabled":false,"rental_uris":{"android":"levelo://app?vid=8c54a6c5-29aa-46d0-b406-9876512f49bb","ios":"levelo://app?vid=8c54a6c5-29aa-46d0-b406-9876512f49bb"},"vehicle_type_id":"4","last_reported":1752672644,"current_range_meters":8400,"station_id":"ce4bgip2rcd13ifvqbb0","pricing_plan_id":"cebpf4jnsgd1na2vs0mg"},{"bike_id":"e5ec4b25-dbcc-42eb-bf86-2cca309a0b15","system_id":"levelo_inurba_marseille","lat":43.264945,"lon":5.395365,"is_reserved":false,"is_disabled":true,"rental_uris":{"android":"levelo://app?vid=e5ec4b25-dbcc-42eb-bf86-2cca309a0b15","ios":"levelo://app?vid=e5ec4b25-dbcc-42eb-bf86-2cca309a0b15"},"vehicle_type_id":"4","last_reported":1752672644,"current_range_meters":8400,"station_id":"","pricing_plan_id":"cebpf4jnsgd1na2vs0mg"},{"bike_id":"a8fa3032-6b80-4821-a5a5-27332eeffd22","system_id":"levelo_inurba_marseille","lat":43.28424,"lon":5.35001,"is_reserved":false,"is_disabled":false,"rental_uris":{"android":"levelo://app?vid=a8fa3032-6b80-4821-a5a5-27332eeffd22","ios":"levelo://app?vid=a8fa3032-6b80-4821-a5a5-27332eeffd22"},"vehicle_type_id":"4","last_reported":1752672644,"current_range_meters":8400,"station_id":"ce4bhbh2rcd13ifvqepg","pricing_plan_id":"cebpf4jnsgd1na2vs0mg"},{"bike_id":"fd98485d-d049-4777-ad0b-170381c262c9","system_id":"levelo_inurba_marseille","lat":43.29035,"lon":5.37566,"is_reserved":false,"is_disabled":false,"rental_uris":{"android":"levelo://app?vid=fd98485d-d049-4777-ad0b-170381c262c9","ios":"levelo://app?vid=fd98485d-d049-4777-ad0b-170381c262c9"},"vehicle_type_id":"4","last_reported":1752672644,"current_range_meters":8800,"station_id":"ce4bh692rcd13ifvqe90","pricing_plan_id":"cebpf4jnsgd1na2vs0mg"},{"bike_id":"2d0f7a6f-514b-41bf-a95a-5cc745a398b2","system_id":"levelo_inurba_marseille","lat":43.28936,"lon":5.36641,"is_reserved":false,"is_disabled":false,"rental_uris":{"android":"levelo://app?vid=2d0f7a6f-514b-41bf-a95a-5cc745a398b2","ios":"levelo://app?vid=2d0f7a6f-514b-41bf-a95a-5cc745a398b2"},"vehicle_type_id":"4","last_reported":1752672644,"current_range_meters":12000,"station_id":"ce4bhap2rcd13ifvqek0","pricing_plan_id":"cebpf4jnsgd1na2vs0mg"},{"bike_id":"6c465d3e-01cd-4e57-83a0-fc002c1d5cfc","system_id":"levelo_inurba_marseille","lat":43.28264,"lon":5.35068,"is_reserved":false,"is_disabled":false,"rental_uris":{"android":"levelo://app?vid=6c465d3e-01cd-4e57-83a0-fc002c1d5cfc","ios":"levelo://app?vid=6c465d3e-01cd-4e57-83a0-fc002c1d5cfc"},"vehicle_type_id":"4","last_reported":1752672644,"current_range_meters":8800,"station_id":"ce4bhbp2rcd13ifvqerg","pricing_plan_id":"cebpf4jnsgd1na2vs0mg"},{"bike_id":"a8ce6efe-50ae-4699-a953-570b09452efb","system_id":"levelo_inurba_marseille","lat":43.25009,"lon":5.38919,"is_reserved":false,"is_disabled":true,"rental_uris":{"android":"levelo://app?vid=a8ce6efe-50ae-4699-a953-570b09452efb","ios":"levelo://app?vid=a8ce6efe-50ae-4699-a953-570b09452efb"},"vehicle_type_id":"4","last_reported":1752672644,"current_range_meters":8800,"station_id":"ce4bhgp2rcd13ifvqfd0","pricing_plan_id":"cebpf4jnsgd1na2vs0mg"},{"bike_id":"4409158c-0e42-4505-b036-6f038dda32f6","system_id":"levelo_inurba_marseille","lat":43.3055,"lon":5.36566,"is_reserved":false,"is_disabled":false,"rental_uris":{"android":"levelo://app?vid=4409158c-0e42-4505-b036-6f038dda32f6","ios":"levelo://app?vid=4409158c-0e42-4505-b036-6f038dda32f6"},"vehicle_type_id":"4","last_reported":1752672644,"current_range_meters":9200,"station_id":"ce4bgs12rcd13ifvqcag","pricing_plan_id":"cebpf4jnsgd1na2vs0mg"},{"bike_id":"51a29c5d-86bd-4298-940c-e29387643431","system_id":"levelo_inurba_marseille","lat":43.282638,"lon":5.350585,"is_reserved":false,"is_disabled":false,"rental_uris":{"android":"levelo://app?vid=51a29c5d-86bd-4298-940c-e29387643431","ios":"levelo://app?vid=51a29c5d-86bd-4298-940c-e29387643431"},"vehicle_type_id":"4","last_reported":1752672644,"current_range_meters":9200,"station_id":"ce4bhbp2rcd13ifvqerg","pricing_plan_id":"cebpf4jnsgd1na2vs0mg"},{"bike_id":"38193aff-d8cf-464e-98b9-b38895efd882","system_id":"levelo_inurba_marseille","lat":43.21743,"lon":5.34619,"is_reserved":false,"is_disabled":false,"rental_uris":{"android":"levelo://app?vid=38193aff-d8cf-464e-98b9-b38895efd882","ios":"levelo://app?vid=38193aff-d8cf-464e-98b9-b38895efd882"},"vehicle_type_id":"4","last_reported":1752672644,"current_range_meters":9200,"station_id":"","pricing_plan_id":"cebpf4jnsgd1na2vs0mg"},{"bike_id":"51396765-9ad0-4d1d-a813-68fff86b2907","system_id":"levelo_inurba_marseille","lat":43.30388,"lon":5.36768,"is_reserved":false,"is_disabled":false,"rental_uris":{"android":"levelo://app?vid=51396765-9ad0-4d1d-a813-68fff86b2907","ios":"levelo://app?vid=51396765-9ad0-4d1d-a813-68fff86b2907"},"vehicle_type_id":"4","last_reported":1752672644,"current_range_meters":9200,"station_id":"","pricing_plan_id":"cebpf4jnsgd1na2vs0mg"},{"bike_id":"64db291c-90ae-42a6-ba43-c94905bc1f17","system_id":"levelo_inurba_marseille","lat":43.2594,"lon":5.40905,"is_reserved":false,"is_disabled":false,"rental_uris":{"android":"levelo://app?vid=64db291c-90ae-42a6-ba43-c94905bc1f17","ios":"levelo://app?vid=64db291c-90ae-42a6-ba43-c94905bc1f17"},"vehicle_type_id":"4","last_reported":1752672644,"current_range_meters":9200,"station_id":"ce4bhm92rcd13ifvqglg","pricing_plan_id":"cebpf4jnsgd1na2vs0mg"},{"bike_id":"84e8c3d4-5e9c-454e-9ed8-5ecd411c0e92","system_id":"levelo_inurba_marseille","lat":43.269532,"lon":5.386327,"is_reserved":false,"is_disabled":false,"rental_uris":{"android":"levelo://app?vid=84e8c3d4-5e9c-454e-9ed8-5ecd411c0e92","ios":"levelo://app?vid=84e8c3d4-5e9c-454e-9ed8-5ecd411c0e92"},"vehicle_type_id":"4","last_reported":1752672644,"current_range_meters":9200,"station_id":"ce4bhh92rcd13ifvqfh0","pricing_plan_id":"cebpf4jnsgd1na2vs0mg"},{"bike_id":"4f64224e-b017-4205-b54e-a2e485d2f709","system_id":"levelo_inurba_marseille","lat":43.239136,"lon":5.365709,"is_reserved":false,"is_disabled":false,"rental_uris":{"android":"levelo://app?vid=4f64224e-b017-4205-b54e-a2e485d2f709","ios":"levelo://app?vid=4f64224e-b017-4205-b54e-a2e485d2f709"},"vehicle_type_id":"4","last_reported":1752672644,"current_range_meters":9200,"station_id":"ce4bhi12rcd13ifvqfp0","pricing_plan_id":"cebpf4jnsgd1na2vs0mg"},{"bike_id":"080b0f22-14dd-4044-a18f-ee7f74366cea","system_id":"levelo_inurba_marseille","lat":43.32002,"lon":5.38156,"is_reserved":false,"is_disabled":true,"rental_uris":{"android":"levelo://app?vid=080b0f22-14dd-4044-a18f-ee7f74366cea","ios":"levelo://app?vid=080b0f22-14dd-4044-a18f-ee7f74366cea"},"vehicle_type_id":"4","last_reported":1752672644,"current_range_meters":9200,"station_id":"ce4bhr12rcd13ifvqhpg","pricing_plan_id":"cebpf4jnsgd1na2vs0mg"},{"bike_id":"8fa61960-312f-4be3-8276-a25a955d75cd","system_id":"levelo_inurba_marseille","lat":43.30595,"lon":5.39362,"is_reserved":false,"is_disabled":false,"rental_uris":{"android":"levelo://app?vid=8fa61960-312f-4be3-8276-a25a955d75cd","ios":"levelo://app?vid=8fa61960-312f-4be3-8276-a25a955d75cd"},"vehicle_type_id":"4","last_reported":1752672644,"current_range_meters":9600,"station_id":"ce4bh0p2rcd13ifvqd80","pricing_plan_id":"cebpf4jnsgd1na2vs0mg"},{"bike_id":"63352cbb-ab13-4643-be00-5fc26cb4d2c3","system_id":"levelo_inurba_marseille","lat":43.229344,"lon":5.35379,"is_reserved":false,"is_disabled":false,"rental_uris":{"android":"levelo://app?vid=63352cbb-ab13-4643-be00-5fc26cb4d2c3","ios":"levelo://app?vid=63352cbb-ab13-4643-be00-5fc26cb4d2c3"},"vehicle_type_id":"4","last_reported":1752672644,"current_range_meters":9600,"station_id":"cpo3532slgdg3j2ikp40","pricing_plan_id":"cebpf4jnsgd1na2vs0mg"},{"bike_id":"d98ef30e-38a0-41ef-a00a-304afa979a1e","system_id":"levelo_inurba_marseille","lat":43.29893,"lon":5.43666,"is_reserved":false,"is_disabled":true,"rental_uris":{"android":"levelo://app?vid=d98ef30e-38a0-41ef-a00a-304afa979a1e","ios":"levelo://app?vid=d98ef30e-38a0-41ef-a00a-304afa979a1e"},"vehicle_type_id":"4","last_reported":1752672644,"current_range_meters":10000,"station_id":"ce4bhpp2rcd13ifvqhfg","pricing_plan_id":"cebpf4jnsgd1na2vs0mg"},{"bike_id":"7b471b8f-fcaa-4d3c-948e-6e2482d5491d","system_id":"levelo_inurba_marseille","lat":43.24686,"lon":5.38131,"is_reserved":false,"is_disabled":false,"rental_uris":{"android":"levelo://app?vid=7b471b8f-fcaa-4d3c-948e-6e2482d5491d","ios":"levelo://app?vid=7b471b8f-fcaa-4d3c-948e-6e2482d5491d"},"vehicle_type_id":"4","last_reported":1752672644,"current_range_meters":10000,"station_id":"ce4bhih2rcd13ifvqfr0","pricing_plan_id":"cebpf4jnsgd1na2vs0mg"},{"bike_id":"0011b263-5856-466d-abb3-7dcc94ac73d0","system_id":"levelo_inurba_marseille","lat":43.28938,"lon":5.364,"is_reserved":false,"is_disabled":true,"rental_uris":{"android":"levelo://app?vid=0011b263-5856-466d-abb3-7dcc94ac73d0","ios":"levelo://app?vid=0011b263-5856-466d-abb3-7dcc94ac73d0"},"vehicle_type_id":"4","last_reported":1752672644,"current_range_meters":10000,"station_id":"ce4bhc92rcd13ifvqetg","pricing_plan_id":"cebpf4jnsgd1na2vs0mg"},{"bike_id":"0bd4b4cc-7b4c-4e25-8479-6f6779a7b1b9","system_id":"levelo_inurba_marseille","lat":43.30297,"lon":5.39224,"is_reserved":false,"is_disabled":false,"rental_uris":{"android":"levelo://app?vid=0bd4b4cc-7b4c-4e25-8479-6f6779a7b1b9","ios":"levelo://app?vid=0bd4b4cc-7b4c-4e25-8479-6f6779a7b1b9"},"vehicle_type_id":"4","last_reported":1752672644,"current_range_meters":10000,"station_id":"ce4bgkh2rcd13ifvqbk0","pricing_plan_id":"cebpf4jnsgd1na2vs0mg"},{"bike_id":"6d9117d2-2cec-4cad-a160-e7babd24dfc4","system_id":"levelo_inurba_marseille","lat":43.29194,"lon":5.39326,"is_reserved":false,"is_disabled":false,"rental_uris":{"android":"levelo://app?vid=6d9117d2-2cec-4cad-a160-e7babd24dfc4","ios":"levelo://app?vid=6d9117d2-2cec-4cad-a160-e7babd24dfc4"},"vehicle_type_id":"4","last_reported":1752672644,"current_range_meters":10000,"station_id":"ce4bh192rcd13ifvqdd0","pricing_plan_id":"cebpf4jnsgd1na2vs0mg"},{"bike_id":"74b4390d-0242-429b-b32a-0523a3e24ef3","system_id":"levelo_inurba_marseille","lat":43.2545,"lon":5.37608,"is_reserved":false,"is_disabled":false,"rental_uris":{"android":"levelo://app?vid=74b4390d-0242-429b-b32a-0523a3e24ef3","ios":"levelo://app?vid=74b4390d-0242-429b-b32a-0523a3e24ef3"},"vehicle_type_id":"4","last_reported":1752672644,"current_range_meters":10800,"station_id":"","pricing_plan_id":"cebpf4jnsgd1na2vs0mg"},{"bike_id":"8d59b38e-0628-4678-834d-881fb78f576d","system_id":"levelo_inurba_marseille","lat":43.30278,"lon":5.37709,"is_reserved":false,"is_disabled":false,"rental_uris":{"android":"levelo://app?vid=8d59b38e-0628-4678-834d-881fb78f576d","ios":"levelo://app?vid=8d59b38e-0628-4678-834d-881fb78f576d"},"vehicle_type_id":"4","last_reported":1752672644,"current_range_meters":10800,"station_id":"ce4bguh2rcd13ifvqcj0","pricing_plan_id":"cebpf4jnsgd1na2vs0mg"},{"bike_id":"adfe475e-4fad-42ce-985f-b88b312e5e64","system_id":"levelo_inurba_marseille","lat":43.294659,"lon":5.375439,"is_reserved":false,"is_disabled":false,"rental_uris":{"android":"levelo://app?vid=adfe475e-4fad-42ce-985f-b88b312e5e64","ios":"levelo://app?vid=adfe475e-4fad-42ce-985f-b88b312e5e64"},"vehicle_type_id":"4","last_reported":1752672644,"current_range_meters":10800,"station_id":"","pricing_plan_id":"cebpf4jnsgd1na2vs0mg"},{"bike_id":"931ec3ed-9544-4921-9587-3d38f4f1f105","system_id":"levelo_inurba_marseille","lat":43.24166,"lon":5.39739,"is_reserved":false,"is_disabled":false,"rental_uris":{"android":"levelo://app?vid=931ec3ed-9544-4921-9587-3d38f4f1f105","ios":"levelo://app?vid=931ec3ed-9544-4921-9587-3d38f4f1f105"},"vehicle_type_id":"4","last_reported":1752672644,"current_range_meters":10800,"station_id":"ce4bhn12rcd13ifvqgpg","pricing_plan_id":"cebpf4jnsgd1na2vs0mg"},{"bike_id":"2dea1e72-5f49-4f71-8334-0b7b1b4fb68f","system_id":"levelo_inurba_marseille","lat":43.30546,"lon":5.36534,"is_reserved":false,"is_disabled":false,"rental_uris":{"android":"levelo://app?vid=2dea1e72-5f49-4f71-8334-0b7b1b4fb68f","ios":"levelo://app?vid=2dea1e72-5f49-4f71-8334-0b7b1b4fb68f"},"vehicle_type_id":"4","last_reported":1752672644,"current_range_meters":10800,"station_id":"ce4bgs12rcd13ifvqcag","pricing_plan_id":"cebpf4jnsgd1na2vs0mg"},{"bike_id":"8d37f3e2-626a-4c8d-b5ab-6e711398d4cd","system_id":"levelo_inurba_marseille","lat":43.29232,"lon":5.36067,"is_reserved":false,"is_disabled":false,"rental_uris":{"android":"levelo://app?vid=8d37f3e2-626a-4c8d-b5ab-6e711398d4cd","ios":"levelo://app?vid=8d37f3e2-626a-4c8d-b5ab-6e711398d4cd"},"vehicle_type_id":"4","last_reported":1752672644,"current_range_meters":10800,"station_id":"ce4bhbh2rcd13ifvqeqg","pricing_plan_id":"cebpf4jnsgd1na2vs0mg"},{"bike_id":"3ef87edc-15e4-4e6d-87bb-099d4a8dd3c3","system_id":"levelo_inurba_marseille","lat":43.285362,"lon":5.384021,"is_reserved":false,"is_disabled":false,"rental_uris":{"android":"levelo://app?vid=3ef87edc-15e4-4e6d-87bb-099d4a8dd3c3","ios":"levelo://app?vid=3ef87edc-15e4-4e6d-87bb-099d4a8dd3c3"},"vehicle_type_id":"4","last_reported":1752672644,"current_range_meters":11200,"station_id":"","pricing_plan_id":"cebpf4jnsgd1na2vs0mg"},{"bike_id":"b733d901-5f75-4493-9960-b987b87cd8f7","system_id":"levelo_inurba_marseille","lat":43.22544,"lon":5.34833,"is_reserved":false,"is_disabled":false,"rental_uris":{"android":"levelo://app?vid=b733d901-5f75-4493-9960-b987b87cd8f7","ios":"levelo://app?vid=b733d901-5f75-4493-9960-b987b87cd8f7"},"vehicle_type_id":"4","last_reported":1752672644,"current_range_meters":11200,"station_id":"","pricing_plan_id":"cebpf4jnsgd1na2vs0mg"},{"bike_id":"5cde9e68-0b1a-4128-bdca-c73db29e24e3","system_id":"levelo_inurba_marseille","lat":43.26222,"lon":5.4048,"is_reserved":false,"is_disabled":false,"rental_uris":{"android":"levelo://app?vid=5cde9e68-0b1a-4128-bdca-c73db29e24e3","ios":"levelo://app?vid=5cde9e68-0b1a-4128-bdca-c73db29e24e3"},"vehicle_type_id":"4","last_reported":1752672644,"current_range_meters":11200,"station_id":"ce4bhmh2rcd13ifvqgmg","pricing_plan_id":"cebpf4jnsgd1na2vs0mg"},{"bike_id":"5d6eea8a-94fa-44ca-a189-8e8fa46902d9","system_id":"levelo_inurba_marseille","lat":43.23961,"lon":5.36634,"is_reserved":false,"is_disabled":false,"rental_uris":{"android":"levelo://app?vid=5d6eea8a-94fa-44ca-a189-8e8fa46902d9","ios":"levelo://app?vid=5d6eea8a-94fa-44ca-a189-8e8fa46902d9"},"vehicle_type_id":"4","last_reported":1752672644,"current_range_meters":11600,"station_id":"ce4bhi12rcd13ifvqfp0","pricing_plan_id":"cebpf4jnsgd1na2vs0mg"},{"bike_id":"07125c4e-77c0-4c8c-9beb-a62c7b5fa9d1","system_id":"levelo_inurba_marseille","lat":43.27379,"lon":5.36258,"is_reserved":false,"is_disabled":false,"rental_uris":{"android":"levelo://app?vid=07125c4e-77c0-4c8c-9beb-a62c7b5fa9d1","ios":"levelo://app?vid=07125c4e-77c0-4c8c-9beb-a62c7b5fa9d1"},"vehicle_type_id":"4","last_reported":1752672644,"current_range_meters":11600,"station_id":"ce4bhbh2rcd13ifvqeo0","pricing_plan_id":"cebpf4jnsgd1na2vs0mg"},{"bike_id":"18e63307-2e2f-4b10-807e-7a8ed91df0e5","system_id":"levelo_inurba_marseille","lat":43.30538,"lon":5.36519,"is_reserved":false,"is_disabled":false,"rental_uris":{"android":"levelo://app?vid=18e63307-2e2f-4b10-807e-7a8ed91df0e5","ios":"levelo://app?vid=18e63307-2e2f-4b10-807e-7a8ed91df0e5"},"vehicle_type_id":"4","last_reported":1752672644,"current_range_meters":12000,"station_id":"ce4bgs12rcd13ifvqcag","pricing_plan_id":"cebpf4jnsgd1na2vs0mg"},{"bike_id":"68804fcf-8d60-4c82-be7d-d2d29d45d40f","system_id":"levelo_inurba_marseille","lat":43.26031,"lon":5.37549,"is_reserved":false,"is_disabled":false,"rental_uris":{"android":"levelo://app?vid=68804fcf-8d60-4c82-be7d-d2d29d45d40f","ios":"levelo://app?vid=68804fcf-8d60-4c82-be7d-d2d29d45d40f"},"vehicle_type_id":"4","last_reported":1752672644,"current_range_meters":12000,"station_id":"ce4bhgh2rcd13ifvqfa0","pricing_plan_id":"cebpf4jnsgd1na2vs0mg"},{"bike_id":"d5f76f87-9037-411f-ab19-fe7d616534c3","system_id":"levelo_inurba_marseille","lat":43.268073,"lon":5.40271,"is_reserved":false,"is_disabled":false,"rental_uris":{"android":"levelo://app?vid=d5f76f87-9037-411f-ab19-fe7d616534c3","ios":"levelo://app?vid=d5f76f87-9037-411f-ab19-fe7d616534c3"},"vehicle_type_id":"4","last_reported":1752672644,"current_range_meters":12000,"station_id":"ce501612rcd8frsf0b60","pricing_plan_id":"cebpf4jnsgd1na2vs0mg"},{"bike_id":"11953d4b-0909-479a-86c6-84ac4f5effe5","system_id":"levelo_inurba_marseille","lat":43.24407,"lon":5.3705,"is_reserved":false,"is_disabled":false,"rental_uris":{"android":"levelo://app?vid=11953d4b-0909-479a-86c6-84ac4f5effe5","ios":"levelo://app?vid=11953d4b-0909-479a-86c6-84ac4f5effe5"},"vehicle_type_id":"4","last_reported":1752672644,"current_range_meters":12000,"station_id":"ce4bhhh2rcd13ifvqfk0","pricing_plan_id":"cebpf4jnsgd1na2vs0mg"},{"bike_id":"6b559cb3-041c-45ee-93ae-4d2229ff3438","system_id":"levelo_inurba_marseille","lat":43.28037,"lon":5.36941,"is_reserved":false,"is_disabled":false,"rental_uris":{"android":"levelo://app?vid=6b559cb3-041c-45ee-93ae-4d2229ff3438","ios":"levelo://app?vid=6b559cb3-041c-45ee-93ae-4d2229ff3438"},"vehicle_type_id":"4","last_reported":1752672644,"current_range_meters":12400,"station_id":"ce4bha12rcd13ifvqef0","pricing_plan_id":"cebpf4jnsgd1na2vs0mg"},{"bike_id":"54b283c6-c314-444c-b492-3e78ed7f2d30","system_id":"levelo_inurba_marseille","lat":43.329281,"lon":5.390516,"is_reserved":false,"is_disabled":false,"rental_uris":{"android":"levelo://app?vid=54b283c6-c314-444c-b492-3e78ed7f2d30","ios":"levelo://app?vid=54b283c6-c314-444c-b492-3e78ed7f2d30"},"vehicle_type_id":"4","last_reported":1752672644,"current_range_meters":12400,"station_id":"","pricing_plan_id":"cebpf4jnsgd1na2vs0mg"},{"bike_id":"2fedaa59-d76c-486b-a308-342525122403","system_id":"levelo_inurba_marseille","lat":43.30308,"lon":5.36907,"is_reserved":false,"is_disabled":false,"rental_uris":{"android":"levelo://app?vid=2fedaa59-d76c-486b-a308-342525122403","ios":"levelo://app?vid=2fedaa59-d76c-486b-a308-342525122403"},"vehicle_type_id":"4","last_reported":1752672644,"current_range_meters":12400,"station_id":"ce4bgqh2rcd13ifvqc5g","pricing_plan_id":"cebpf4jnsgd1na2vs0mg"},{"bike_id":"c3ae7d25-674b-46b7-9c26-eec7812f322f","system_id":"levelo_inurba_marseille","lat":43.30306,"lon":5.36908,"is_reserved":false,"is_disabled":false,"rental_uris":{"android":"levelo://app?vid=c3ae7d25-674b-46b7-9c26-eec7812f322f","ios":"levelo://app?vid=c3ae7d25-674b-46b7-9c26-eec7812f322f"},"vehicle_type_id":"4","last_reported":1752672644,"current_range_meters":12800,"station_id":"ce4bgqh2rcd13ifvqc5g","pricing_plan_id":"cebpf4jnsgd1na2vs0mg"},{"bike_id":"0f47a07f-39c5-4fea-a0ee-56d71688ebb3","system_id":"levelo_inurba_marseille","lat":43.24237,"lon":5.3697,"is_reserved":false,"is_disabled":false,"rental_uris":{"android":"levelo://app?vid=0f47a07f-39c5-4fea-a0ee-56d71688ebb3","ios":"levelo://app?vid=0f47a07f-39c5-4fea-a0ee-56d71688ebb3"},"vehicle_type_id":"4","last_reported":1752672644,"current_range_meters":12800,"station_id":"","pricing_plan_id":"cebpf4jnsgd1na2vs0mg"},{"bike_id":"f8e88d89-c6a8-409c-b0bc-54943a0331bb","system_id":"levelo_inurba_marseille","lat":43.28408,"lon":5.34995,"is_reserved":false,"is_disabled":false,"rental_uris":{"android":"levelo://app?vid=f8e88d89-c6a8-409c-b0bc-54943a0331bb","ios":"levelo://app?vid=f8e88d89-c6a8-409c-b0bc-54943a0331bb"},"vehicle_type_id":"4","last_reported":1752672644,"current_range_meters":12800,"station_id":"ce4bhbh2rcd13ifvqepg","pricing_plan_id":"cebpf4jnsgd1na2vs0mg"},{"bike_id":"794b998d-7e45-4d53-b270-ae51136a9420","system_id":"levelo_inurba_marseille","lat":43.3159,"lon":5.38177,"is_reserved":false,"is_disabled":false,"rental_uris":{"android":"levelo://app?vid=794b998d-7e45-4d53-b270-ae51136a9420","ios":"levelo://app?vid=794b998d-7e45-4d53-b270-ae51136a9420"},"vehicle_type_id":"4","last_reported":1752672644,"current_range_meters":12800,"station_id":"","pricing_plan_id":"cebpf4jnsgd1na2vs0mg"},{"bike_id":"dea3a09b-7bf0-4921-bc5e-4ff994b11e44","system_id":"levelo_inurba_marseille","lat":43.284637,"lon":5.358807,"is_reserved":false,"is_disabled":false,"rental_uris":{"android":"levelo://app?vid=dea3a09b-7bf0-4921-bc5e-4ff994b11e44","ios":"levelo://app?vid=dea3a09b-7bf0-4921-bc5e-4ff994b11e44"},"vehicle_type_id":"4","last_reported":1752672644,"current_range_meters":12800,"station_id":"ce4bhah2rcd13ifvqei0","pricing_plan_id":"cebpf4jnsgd1na2vs0mg"},{"bike_id":"4cd186e0-473a-47b0-b3f4-181bb971dcd8","system_id":"levelo_inurba_marseille","lat":43.28856,"lon":5.35857,"is_reserved":false,"is_disabled":false,"rental_uris":{"android":"levelo://app?vid=4cd186e0-473a-47b0-b3f4-181bb971dcd8","ios":"levelo://app?vid=4cd186e0-473a-47b0-b3f4-181bb971dcd8"},"vehicle_type_id":"4","last_reported":1752672644,"current_range_meters":13600,"station_id":"ce4bhb12rcd13ifvqem0","pricing_plan_id":"cebpf4jnsgd1na2vs0mg"},{"bike_id":"c723100b-09b5-490f-b8ed-bbe494a3ba4d","system_id":"levelo_inurba_marseille","lat":43.29195,"lon":5.36613,"is_reserved":false,"is_disabled":false,"rental_uris":{"android":"levelo://app?vid=c723100b-09b5-490f-b8ed-bbe494a3ba4d","ios":"levelo://app?vid=c723100b-09b5-490f-b8ed-bbe494a3ba4d"},"vehicle_type_id":"4","last_reported":1752672644,"current_range_meters":13600,"station_id":"ce4bgjh2rcd13ifvqbf0","pricing_plan_id":"cebpf4jnsgd1na2vs0mg"},{"bike_id":"0d14f441-7cc4-44b1-abf4-bbb5d100780b","system_id":"levelo_inurba_marseille","lat":43.32116,"lon":5.3677,"is_reserved":false,"is_disabled":false,"rental_uris":{"android":"levelo://app?vid=0d14f441-7cc4-44b1-abf4-bbb5d100780b","ios":"levelo://app?vid=0d14f441-7cc4-44b1-abf4-bbb5d100780b"},"vehicle_type_id":"4","last_reported":1752672644,"current_range_meters":13600,"station_id":"ce4bhrh2rcd13ifvqhug","pricing_plan_id":"cebpf4jnsgd1na2vs0mg"},{"bike_id":"f53ab926-2de1-4f3c-a7d9-6743ca1bfb1f","system_id":"levelo_inurba_marseille","lat":43.211912,"lon":5.350731,"is_reserved":false,"is_disabled":false,"rental_uris":{"android":"levelo://app?vid=f53ab926-2de1-4f3c-a7d9-6743ca1bfb1f","ios":"levelo://app?vid=f53ab926-2de1-4f3c-a7d9-6743ca1bfb1f"},"vehicle_type_id":"4","last_reported":1752672644,"current_range_meters":13600,"station_id":"st_cvj6sg6p6f1abm77japg","pricing_plan_id":"cebpf4jnsgd1na2vs0mg"},{"bike_id":"67354b50-5b33-42fc-ad21-9cb0531b80f7","system_id":"levelo_inurba_marseille","lat":43.31325,"lon":5.39687,"is_reserved":false,"is_disabled":false,"rental_uris":{"android":"levelo://app?vid=67354b50-5b33-42fc-ad21-9cb0531b80f7","ios":"levelo://app?vid=67354b50-5b33-42fc-ad21-9cb0531b80f7"},"vehicle_type_id":"4","last_reported":1752672644,"current_range_meters":13600,"station_id":"ce4bgvp2rcd13ifvqcu0","pricing_plan_id":"cebpf4jnsgd1na2vs0mg"},{"bike_id":"0b0f32fa-e494-4c91-8e71-b8202a4bed03","system_id":"levelo_inurba_marseille","lat":43.2927,"lon":5.36842,"is_reserved":false,"is_disabled":false,"rental_uris":{"android":"levelo://app?vid=0b0f32fa-e494-4c91-8e71-b8202a4bed03","ios":"levelo://app?vid=0b0f32fa-e494-4c91-8e71-b8202a4bed03"},"vehicle_type_id":"4","last_reported":1752672644,"current_range_meters":13600,"station_id":"ce4bhbp2rcd13ifvqesg","pricing_plan_id":"cebpf4jnsgd1na2vs0mg"},{"bike_id":"748a9d52-2037-49d5-8461-2cb1abbb06a2","system_id":"levelo_inurba_marseille","lat":43.25735,"lon":5.41071,"is_reserved":false,"is_disabled":false,"rental_uris":{"android":"levelo://app?vid=748a9d52-2037-49d5-8461-2cb1abbb06a2","ios":"levelo://app?vid=748a9d52-2037-49d5-8461-2cb1abbb06a2"},"vehicle_type_id":"4","last_reported":1752672644,"current_range_meters":13600,"station_id":"ce4bhkp2rcd13ifvqgd0","pricing_plan_id":"cebpf4jnsgd1na2vs0mg"},{"bike_id":"cd2131cd-6231-4b0c-9951-fced41c24e98","system_id":"levelo_inurba_marseille","lat":43.28404,"lon":5.37525,"is_reserved":false,"is_disabled":false,"rental_uris":{"android":"levelo://app?vid=cd2131cd-6231-4b0c-9951-fced41c24e98","ios":"levelo://app?vid=cd2131cd-6231-4b0c-9951-fced41c24e98"},"vehicle_type_id":"4","last_reported":1752672644,"current_range_meters":14000,"station_id":"ce4bh412rcd13ifvqds0","pricing_plan_id":"cebpf4jnsgd1na2vs0mg"},{"bike_id":"4f044a53-3392-43be-867c-38b07727423b","system_id":"levelo_inurba_marseille","lat":43.29933,"lon":5.36555,"is_reserved":false,"is_disabled":false,"rental_uris":{"android":"levelo://app?vid=4f044a53-3392-43be-867c-38b07727423b","ios":"levelo://app?vid=4f044a53-3392-43be-867c-38b07727423b"},"vehicle_type_id":"4","last_reported":1752672644,"current_range_meters":14000,"station_id":"ce4bgm92rcd13ifvqbr0","pricing_plan_id":"cebpf4jnsgd1na2vs0mg"},{"bike_id":"b6f6ec84-e4b5-4798-98bc-8f68eb8da92a","system_id":"levelo_inurba_marseille","lat":43.2926,"lon":5.3844,"is_reserved":false,"is_disabled":false,"rental_uris":{"android":"levelo://app?vid=b6f6ec84-e4b5-4798-98bc-8f68eb8da92a","ios":"levelo://app?vid=b6f6ec84-e4b5-4798-98bc-8f68eb8da92a"},"vehicle_type_id":"4","last_reported":1752672644,"current_range_meters":14400,"station_id":"ce4bh692rcd13ifvqea0","pricing_plan_id":"cebpf4jnsgd1na2vs0mg"},{"bike_id":"4b4819bc-d02d-416f-917b-f9521294df7e","system_id":"levelo_inurba_marseille","lat":43.305395,"lon":5.365324,"is_reserved":false,"is_disabled":false,"rental_uris":{"android":"levelo://app?vid=4b4819bc-d02d-416f-917b-f9521294df7e","ios":"levelo://app?vid=4b4819bc-d02d-416f-917b-f9521294df7e"},"vehicle_type_id":"4","last_reported":1752672644,"current_range_meters":14400,"station_id":"ce4bgs12rcd13ifvqcag","pricing_plan_id":"cebpf4jnsgd1na2vs0mg"},{"bike_id":"61a9e916-b95f-4f2c-8dca-c5b11be80287","system_id":"levelo_inurba_marseille","lat":43.2922,"lon":5.36049,"is_reserved":false,"is_disabled":true,"rental_uris":{"android":"levelo://app?vid=61a9e916-b95f-4f2c-8dca-c5b11be80287","ios":"levelo://app?vid=61a9e916-b95f-4f2c-8dca-c5b11be80287"},"vehicle_type_id":"4","last_reported":1752672644,"current_range_meters":14400,"station_id":"ce4bhbh2rcd13ifvqeqg","pricing_plan_id":"cebpf4jnsgd1na2vs0mg"},{"bike_id":"00bb5af6-d5d6-42a4-b81b-50bfbf5511dd","system_id":"levelo_inurba_marseille","lat":43.295232,"lon":5.394075,"is_reserved":false,"is_disabled":false,"rental_uris":{"android":"levelo://app?vid=00bb5af6-d5d6-42a4-b81b-50bfbf5511dd","ios":"levelo://app?vid=00bb5af6-d5d6-42a4-b81b-50bfbf5511dd"},"vehicle_type_id":"4","last_reported":1752672644,"current_range_meters":14400,"station_id":"","pricing_plan_id":"cebpf4jnsgd1na2vs0mg"},{"bike_id":"ca779787-698d-4902-9c86-2533e9a955d5","system_id":"levelo_inurba_marseille","lat":43.24161,"lon":5.36399,"is_reserved":false,"is_disabled":false,"rental_uris":{"android":"levelo://app?vid=ca779787-698d-4902-9c86-2533e9a955d5","ios":"levelo://app?vid=ca779787-698d-4902-9c86-2533e9a955d5"},"vehicle_type_id":"4","last_reported":1752672644,"current_range_meters":14800,"station_id":"cpo36qri1sfpv3e86is0","pricing_plan_id":"cebpf4jnsgd1na2vs0mg"},{"bike_id":"fa874178-05c6-4842-85ff-f128bdb6b30f","system_id":"levelo_inurba_marseille","lat":43.30645,"lon":5.40101,"is_reserved":false,"is_disabled":false,"rental_uris":{"android":"levelo://app?vid=fa874178-05c6-4842-85ff-f128bdb6b30f","ios":"levelo://app?vid=fa874178-05c6-4842-85ff-f128bdb6b30f"},"vehicle_type_id":"4","last_reported":1752672644,"current_range_meters":14800,"station_id":"ce4bh112rcd13ifvqda0","pricing_plan_id":"cebpf4jnsgd1na2vs0mg"},{"bike_id":"14eccde2-d112-4ab8-9ecb-9540880d913b","system_id":"levelo_inurba_marseille","lat":43.24648,"lon":5.38893,"is_reserved":false,"is_disabled":false,"rental_uris":{"android":"levelo://app?vid=14eccde2-d112-4ab8-9ecb-9540880d913b","ios":"levelo://app?vid=14eccde2-d112-4ab8-9ecb-9540880d913b"},"vehicle_type_id":"4","last_reported":1752672644,"current_range_meters":14800,"station_id":"ce4bhg12rcd13ifvqf60","pricing_plan_id":"cebpf4jnsgd1na2vs0mg"},{"bike_id":"a37d9495-6556-4138-8ff8-e2ca82375175","system_id":"levelo_inurba_marseille","lat":43.217515,"lon":5.346104,"is_reserved":false,"is_disabled":false,"rental_uris":{"android":"levelo://app?vid=a37d9495-6556-4138-8ff8-e2ca82375175","ios":"levelo://app?vid=a37d9495-6556-4138-8ff8-e2ca82375175"},"vehicle_type_id":"4","last_reported":1752672644,"current_range_meters":14800,"station_id":"st_cvj6r9ubvosntc0bgbag","pricing_plan_id":"cebpf4jnsgd1na2vs0mg"},{"bike_id":"988e2bb8-50c3-4b35-a1e3-9f8c10852acc","system_id":"levelo_inurba_marseille","lat":43.26782,"lon":5.39414,"is_reserved":false,"is_disabled":false,"rental_uris":{"android":"levelo://app?vid=988e2bb8-50c3-4b35-a1e3-9f8c10852acc","ios":"levelo://app?vid=988e2bb8-50c3-4b35-a1e3-9f8c10852acc"},"vehicle_type_id":"4","last_reported":1752672644,"current_range_meters":14800,"station_id":"ce4bhh12rcd13ifvqfg0","pricing_plan_id":"cebpf4jnsgd1na2vs0mg"},{"bike_id":"c4100995-3c01-4ec0-9541-6d3928a99122","system_id":"levelo_inurba_marseille","lat":43.28263,"lon":5.35067,"is_reserved":false,"is_disabled":false,"rental_uris":{"android":"levelo://app?vid=c4100995-3c01-4ec0-9541-6d3928a99122","ios":"levelo://app?vid=c4100995-3c01-4ec0-9541-6d3928a99122"},"vehicle_type_id":"4","last_reported":1752672644,"current_range_meters":14800,"station_id":"ce4bhbp2rcd13ifvqerg","pricing_plan_id":"cebpf4jnsgd1na2vs0mg"},{"bike_id":"b3e110a7-4069-44c3-a350-2b2f48294120","system_id":"levelo_inurba_marseille","lat":43.28444,"lon":5.39209,"is_reserved":false,"is_disabled":false,"rental_uris":{"android":"levelo://app?vid=b3e110a7-4069-44c3-a350-2b2f48294120","ios":"levelo://app?vid=b3e110a7-4069-44c3-a350-2b2f48294120"},"vehicle_type_id":"4","last_reported":1752672644,"current_range_meters":15200,"station_id":"ce4bhoh2rcd13ifvqh5g","pricing_plan_id":"cebpf4jnsgd1na2vs0mg"},{"bike_id":"8179b31c-ce3a-4f1d-9f38-de069ea9ffb5","system_id":"levelo_inurba_marseille","lat":43.32109,"lon":5.3677,"is_reserved":false,"is_disabled":false,"rental_uris":{"android":"levelo://app?vid=8179b31c-ce3a-4f1d-9f38-de069ea9ffb5","ios":"levelo://app?vid=8179b31c-ce3a-4f1d-9f38-de069ea9ffb5"},"vehicle_type_id":"4","last_reported":1752672644,"current_range_meters":15200,"station_id":"ce4bhrh2rcd13ifvqhug","pricing_plan_id":"cebpf4jnsgd1na2vs0mg"},{"bike_id":"250a7447-ec6a-4a9f-b604-a7a52f6fc38c","system_id":"levelo_inurba_marseille","lat":43.31316,"lon":5.39697,"is_reserved":false,"is_disabled":false,"rental_uris":{"android":"levelo://app?vid=250a7447-ec6a-4a9f-b604-a7a52f6fc38c","ios":"levelo://app?vid=250a7447-ec6a-4a9f-b604-a7a52f6fc38c"},"vehicle_type_id":"4","last_reported":1752672644,"current_range_meters":15200,"station_id":"ce4bgvp2rcd13ifvqcu0","pricing_plan_id":"cebpf4jnsgd1na2vs0mg"},{"bike_id":"e5bec6b1-43e6-46f2-9810-affd93766dd8","system_id":"levelo_inurba_marseille","lat":43.217478,"lon":5.346104,"is_reserved":false,"is_disabled":true,"rental_uris":{"android":"levelo://app?vid=e5bec6b1-43e6-46f2-9810-affd93766dd8","ios":"levelo://app?vid=e5bec6b1-43e6-46f2-9810-affd93766dd8"},"vehicle_type_id":"4","last_reported":1752672644,"current_range_meters":15200,"station_id":"st_cvj6r9ubvosntc0bgbag","pricing_plan_id":"cebpf4jnsgd1na2vs0mg"},{"bike_id":"229a51b8-d35a-46ef-90d9-099d3d4f556b","system_id":"levelo_inurba_marseille","lat":43.294202,"lon":5.386217,"is_reserved":false,"is_disabled":true,"rental_uris":{"android":"levelo://app?vid=229a51b8-d35a-46ef-90d9-099d3d4f556b","ios":"levelo://app?vid=229a51b8-d35a-46ef-90d9-099d3d4f556b"},"vehicle_type_id":"4","last_reported":1752672644,"current_range_meters":15200,"station_id":"ce4bh2h2rcd13ifvqdh0","pricing_plan_id":"cebpf4jnsgd1na2vs0mg"},{"bike_id":"2b35441d-be12-43e5-8f1c-c4924e3cdace","system_id":"levelo_inurba_marseille","lat":43.24803,"lon":5.37455,"is_reserved":false,"is_disabled":false,"rental_uris":{"android":"levelo://app?vid=2b35441d-be12-43e5-8f1c-c4924e3cdace","ios":"levelo://app?vid=2b35441d-be12-43e5-8f1c-c4924e3cdace"},"vehicle_type_id":"4","last_reported":1752672644,"current_range_meters":15200,"station_id":"ce4bhgh2rcd13ifvqfb0","pricing_plan_id":"cebpf4jnsgd1na2vs0mg"},{"bike_id":"32d1218f-165c-441f-ad46-a226bdc8e1de","system_id":"levelo_inurba_marseille","lat":43.28616,"lon":5.35104,"is_reserved":false,"is_disabled":false,"rental_uris":{"android":"levelo://app?vid=32d1218f-165c-441f-ad46-a226bdc8e1de","ios":"levelo://app?vid=32d1218f-165c-441f-ad46-a226bdc8e1de"},"vehicle_type_id":"4","last_reported":1752672644,"current_range_meters":15200,"station_id":"ce4bhch2rcd13ifvqeug","pricing_plan_id":"cebpf4jnsgd1na2vs0mg"},{"bike_id":"dcffc596-d13e-450d-b0a1-9418eec5cbad","system_id":"levelo_inurba_marseille","lat":43.27056,"lon":5.40255,"is_reserved":false,"is_disabled":false,"rental_uris":{"android":"levelo://app?vid=dcffc596-d13e-450d-b0a1-9418eec5cbad","ios":"levelo://app?vid=dcffc596-d13e-450d-b0a1-9418eec5cbad"},"vehicle_type_id":"4","last_reported":1752672644,"current_range_meters":15200,"station_id":"ce4bhk92rcd13ifvqgc0","pricing_plan_id":"cebpf4jnsgd1na2vs0mg"},{"bike_id":"84536aa9-7a3a-4baf-ad03-b8e16bcbbd9c","system_id":"levelo_inurba_marseille","lat":43.2593,"lon":5.40883,"is_reserved":false,"is_disabled":false,"rental_uris":{"android":"levelo://app?vid=84536aa9-7a3a-4baf-ad03-b8e16bcbbd9c","ios":"levelo://app?vid=84536aa9-7a3a-4baf-ad03-b8e16bcbbd9c"},"vehicle_type_id":"4","last_reported":1752672644,"current_range_meters":16000,"station_id":"ce4bhm92rcd13ifvqglg","pricing_plan_id":"cebpf4jnsgd1na2vs0mg"},{"bike_id":"434c04a5-a355-43a9-b6c8-a5c869dc37b8","system_id":"levelo_inurba_marseille","lat":43.30088,"lon":5.39076,"is_reserved":false,"is_disabled":false,"rental_uris":{"android":"levelo://app?vid=434c04a5-a355-43a9-b6c8-a5c869dc37b8","ios":"levelo://app?vid=434c04a5-a355-43a9-b6c8-a5c869dc37b8"},"vehicle_type_id":"4","last_reported":1752672644,"current_range_meters":16000,"station_id":"ce4bh192rcd13ifvqdb0","pricing_plan_id":"cebpf4jnsgd1na2vs0mg"},{"bike_id":"bb91fdfd-e2e6-4861-a682-9985a5c5d97b","system_id":"levelo_inurba_marseille","lat":43.23187,"lon":5.40005,"is_reserved":false,"is_disabled":false,"rental_uris":{"android":"levelo://app?vid=bb91fdfd-e2e6-4861-a682-9985a5c5d97b","ios":"levelo://app?vid=bb91fdfd-e2e6-4861-a682-9985a5c5d97b"},"vehicle_type_id":"4","last_reported":1752672644,"current_range_meters":16000,"station_id":"ce4bhn12rcd13ifvqgqg","pricing_plan_id":"cebpf4jnsgd1na2vs0mg"},{"bike_id":"11987c16-b8d4-4ee9-b7bd-1e367e9c9f8d","system_id":"levelo_inurba_marseille","lat":43.27661,"lon":5.38868,"is_reserved":false,"is_disabled":false,"rental_uris":{"android":"levelo://app?vid=11987c16-b8d4-4ee9-b7bd-1e367e9c9f8d","ios":"levelo://app?vid=11987c16-b8d4-4ee9-b7bd-1e367e9c9f8d"},"vehicle_type_id":"4","last_reported":1752672644,"current_range_meters":16000,"station_id":"ce4bhi12rcd13ifvqfo0","pricing_plan_id":"cebpf4jnsgd1na2vs0mg"},{"bike_id":"55015699-8c28-417a-8d3d-3b9feac7b731","system_id":"levelo_inurba_marseille","lat":43.23174,"lon":5.39995,"is_reserved":false,"is_disabled":false,"rental_uris":{"android":"levelo://app?vid=55015699-8c28-417a-8d3d-3b9feac7b731","ios":"levelo://app?vid=55015699-8c28-417a-8d3d-3b9feac7b731"},"vehicle_type_id":"4","last_reported":1752672644,"current_range_meters":16000,"station_id":"ce4bhn12rcd13ifvqgqg","pricing_plan_id":"cebpf4jnsgd1na2vs0mg"},{"bike_id":"7dee92bf-5b07-4927-aa41-9e9493644eeb","system_id":"levelo_inurba_marseille","lat":43.21195,"lon":5.35071,"is_reserved":false,"is_disabled":false,"rental_uris":{"android":"levelo://app?vid=7dee92bf-5b07-4927-aa41-9e9493644eeb","ios":"levelo://app?vid=7dee92bf-5b07-4927-aa41-9e9493644eeb"},"vehicle_type_id":"4","last_reported":1752672644,"current_range_meters":16000,"station_id":"st_cvj6sg6p6f1abm77japg","pricing_plan_id":"cebpf4jnsgd1na2vs0mg"},{"bike_id":"eb86ccdf-eb08-4d83-8bb4-db7d3853281b","system_id":"levelo_inurba_marseille","lat":43.33614,"lon":5.41024,"is_reserved":false,"is_disabled":false,"rental_uris":{"android":"levelo://app?vid=eb86ccdf-eb08-4d83-8bb4-db7d3853281b","ios":"levelo://app?vid=eb86ccdf-eb08-4d83-8bb4-db7d3853281b"},"vehicle_type_id":"4","last_reported":1752672644,"current_range_meters":16400,"station_id":"ce4bhqh2rcd13ifvqhmg","pricing_plan_id":"cebpf4jnsgd1na2vs0mg"},{"bike_id":"f2b5273e-88ec-4ec3-bf34-9d57642ad4a1","system_id":"levelo_inurba_marseille","lat":43.27993,"lon":5.40016,"is_reserved":false,"is_disabled":false,"rental_uris":{"android":"levelo://app?vid=f2b5273e-88ec-4ec3-bf34-9d57642ad4a1","ios":"levelo://app?vid=f2b5273e-88ec-4ec3-bf34-9d57642ad4a1"},"vehicle_type_id":"4","last_reported":1752672644,"current_range_meters":16400,"station_id":"ce4bho92rcd13ifvqh4g","pricing_plan_id":"cebpf4jnsgd1na2vs0mg"},{"bike_id":"b18c91ed-1137-464d-b9f6-22606474f7bb","system_id":"levelo_inurba_marseille","lat":43.31626,"lon":5.36752,"is_reserved":false,"is_disabled":false,"rental_uris":{"android":"levelo://app?vid=b18c91ed-1137-464d-b9f6-22606474f7bb","ios":"levelo://app?vid=b18c91ed-1137-464d-b9f6-22606474f7bb"},"vehicle_type_id":"4","last_reported":1752672644,"current_range_meters":16400,"station_id":"","pricing_plan_id":"cebpf4jnsgd1na2vs0mg"},{"bike_id":"d647170c-f548-45c4-bf20-d1db5fe65144","system_id":"levelo_inurba_marseille","lat":43.26225,"lon":5.37444,"is_reserved":false,"is_disabled":false,"rental_uris":{"android":"levelo://app?vid=d647170c-f548-45c4-bf20-d1db5fe65144","ios":"levelo://app?vid=d647170c-f548-45c4-bf20-d1db5fe65144"},"vehicle_type_id":"4","last_reported":1752672644,"current_range_meters":16400,"station_id":"ce4bhgp2rcd13ifvqfc0","pricing_plan_id":"cebpf4jnsgd1na2vs0mg"},{"bike_id":"0bcbffd9-c6fb-4ea1-a976-b6fd63801b62","system_id":"levelo_inurba_marseille","lat":43.30883,"lon":5.39639,"is_reserved":false,"is_disabled":false,"rental_uris":{"android":"levelo://app?vid=0bcbffd9-c6fb-4ea1-a976-b6fd63801b62","ios":"levelo://app?vid=0bcbffd9-c6fb-4ea1-a976-b6fd63801b62"},"vehicle_type_id":"4","last_reported":1752672644,"current_range_meters":16400,"station_id":"ce4bh012rcd13ifvqcv0","pricing_plan_id":"cebpf4jnsgd1na2vs0mg"},{"bike_id":"aa6ae9db-dee7-4a9a-bf97-14fd9cddacf5","system_id":"levelo_inurba_marseille","lat":43.30557,"lon":5.36671,"is_reserved":false,"is_disabled":false,"rental_uris":{"android":"levelo://app?vid=aa6ae9db-dee7-4a9a-bf97-14fd9cddacf5","ios":"levelo://app?vid=aa6ae9db-dee7-4a9a-bf97-14fd9cddacf5"},"vehicle_type_id":"4","last_reported":1752672644,"current_range_meters":16400,"station_id":"","pricing_plan_id":"cebpf4jnsgd1na2vs0mg"},{"bike_id":"0fe1510c-6e20-4ef0-97f6-2c66be79bd9c","system_id":"levelo_inurba_marseille","lat":43.27937,"lon":5.41055,"is_reserved":false,"is_disabled":false,"rental_uris":{"android":"levelo://app?vid=0fe1510c-6e20-4ef0-97f6-2c66be79bd9c","ios":"levelo://app?vid=0fe1510c-6e20-4ef0-97f6-2c66be79bd9c"},"vehicle_type_id":"4","last_reported":1752672644,"current_range_meters":16400,"station_id":"ce4bhnp2rcd13ifvqh0g","pricing_plan_id":"cebpf4jnsgd1na2vs0mg"},{"bike_id":"45c94baa-0833-4e8a-a743-3806c6c72ada","system_id":"levelo_inurba_marseille","lat":43.323615,"lon":5.388781,"is_reserved":false,"is_disabled":false,"rental_uris":{"android":"levelo://app?vid=45c94baa-0833-4e8a-a743-3806c6c72ada","ios":"levelo://app?vid=45c94baa-0833-4e8a-a743-3806c6c72ada"},"vehicle_type_id":"4","last_reported":1752672644,"current_range_meters":16400,"station_id":"ce4bhqp2rcd13ifvqhog","pricing_plan_id":"cebpf4jnsgd1na2vs0mg"},{"bike_id":"0c71301d-6b1f-472f-adf1-52c09906df08","system_id":"levelo_inurba_marseille","lat":43.26223,"lon":5.37454,"is_reserved":false,"is_disabled":false,"rental_uris":{"android":"levelo://app?vid=0c71301d-6b1f-472f-adf1-52c09906df08","ios":"levelo://app?vid=0c71301d-6b1f-472f-adf1-52c09906df08"},"vehicle_type_id":"4","last_reported":1752672644,"current_range_meters":16400,"station_id":"ce4bhgp2rcd13ifvqfc0","pricing_plan_id":"cebpf4jnsgd1na2vs0mg"},{"bike_id":"d697e4f3-cf7d-45e9-b67b-45ee6d3593f5","system_id":"levelo_inurba_marseille","lat":43.286207,"lon":5.350913,"is_reserved":false,"is_disabled":false,"rental_uris":{"android":"levelo://app?vid=d697e4f3-cf7d-45e9-b67b-45ee6d3593f5","ios":"levelo://app?vid=d697e4f3-cf7d-45e9-b67b-45ee6d3593f5"},"vehicle_type_id":"4","last_reported":1752672644,"current_range_meters":16400,"station_id":"ce4bhch2rcd13ifvqeug","pricing_plan_id":"cebpf4jnsgd1na2vs0mg"},{"bike_id":"1a7efd10-9b2d-4f3d-974d-245d75d272b2","system_id":"levelo_inurba_marseille","lat":43.26063,"lon":5.394,"is_reserved":false,"is_disabled":false,"rental_uris":{"android":"levelo://app?vid=1a7efd10-9b2d-4f3d-974d-245d75d272b2","ios":"levelo://app?vid=1a7efd10-9b2d-4f3d-974d-245d75d272b2"},"vehicle_type_id":"4","last_reported":1752672644,"current_range_meters":16800,"station_id":"ce4bhh92rcd13ifvqfj0","pricing_plan_id":"cebpf4jnsgd1na2vs0mg"},{"bike_id":"47e84c87-4631-48fa-8064-ac43c2313bba","system_id":"levelo_inurba_marseille","lat":43.29306,"lon":5.37173,"is_reserved":false,"is_disabled":true,"rental_uris":{"android":"levelo://app?vid=47e84c87-4631-48fa-8064-ac43c2313bba","ios":"levelo://app?vid=47e84c87-4631-48fa-8064-ac43c2313bba"},"vehicle_type_id":"4","last_reported":1752672644,"current_range_meters":16800,"station_id":"ce4bgh92rcd13ifvqb40","pricing_plan_id":"cebpf4jnsgd1na2vs0mg"},{"bike_id":"742922c9-1b61-4753-a73c-0d5b4b131484","system_id":"levelo_inurba_marseille","lat":43.28266,"lon":5.35077,"is_reserved":false,"is_disabled":false,"rental_uris":{"android":"levelo://app?vid=742922c9-1b61-4753-a73c-0d5b4b131484","ios":"levelo://app?vid=742922c9-1b61-4753-a73c-0d5b4b131484"},"vehicle_type_id":"4","last_reported":1752672644,"current_range_meters":16800,"station_id":"ce4bhbp2rcd13ifvqerg","pricing_plan_id":"cebpf4jnsgd1na2vs0mg"},{"bike_id":"fba5080d-ba8a-498c-a2e1-06b10f551aca","system_id":"levelo_inurba_marseille","lat":43.30563,"lon":5.36562,"is_reserved":false,"is_disabled":false,"rental_uris":{"android":"levelo://app?vid=fba5080d-ba8a-498c-a2e1-06b10f551aca","ios":"levelo://app?vid=fba5080d-ba8a-498c-a2e1-06b10f551aca"},"vehicle_type_id":"4","last_reported":1752672644,"current_range_meters":16800,"station_id":"ce4bgs12rcd13ifvqcag","pricing_plan_id":"cebpf4jnsgd1na2vs0mg"},{"bike_id":"c13bfe23-5ca6-4431-a198-f8b772c4bc77","system_id":"levelo_inurba_marseille","lat":43.30538,"lon":5.36553,"is_reserved":false,"is_disabled":false,"rental_uris":{"android":"levelo://app?vid=c13bfe23-5ca6-4431-a198-f8b772c4bc77","ios":"levelo://app?vid=c13bfe23-5ca6-4431-a198-f8b772c4bc77"},"vehicle_type_id":"4","last_reported":1752672644,"current_range_meters":16800,"station_id":"ce4bgs12rcd13ifvqcag","pricing_plan_id":"cebpf4jnsgd1na2vs0mg"},{"bike_id":"bbe987ec-8fe0-4323-97ab-21f7ae331fbd","system_id":"levelo_inurba_marseille","lat":43.303773,"lon":5.424898,"is_reserved":false,"is_disabled":false,"rental_uris":{"android":"levelo://app?vid=bbe987ec-8fe0-4323-97ab-21f7ae331fbd","ios":"levelo://app?vid=bbe987ec-8fe0-4323-97ab-21f7ae331fbd"},"vehicle_type_id":"4","last_reported":1752672644,"current_range_meters":16800,"station_id":"ce4bhoh2rcd13ifvqh6g","pricing_plan_id":"cebpf4jnsgd1na2vs0mg"},{"bike_id":"285aaa26-07be-4c4a-9be9-3c0873597bc5","system_id":"levelo_inurba_marseille","lat":43.2956,"lon":5.36754,"is_reserved":false,"is_disabled":false,"rental_uris":{"android":"levelo://app?vid=285aaa26-07be-4c4a-9be9-3c0873597bc5","ios":"levelo://app?vid=285aaa26-07be-4c4a-9be9-3c0873597bc5"},"vehicle_type_id":"4","last_reported":1752672644,"current_range_meters":16800,"station_id":"ce4bgph2rcd13ifvqc2g","pricing_plan_id":"cebpf4jnsgd1na2vs0mg"},{"bike_id":"f9388865-dfe7-4c88-b0c8-5d46eec8ab65","system_id":"levelo_inurba_marseille","lat":43.28265,"lon":5.35064,"is_reserved":false,"is_disabled":false,"rental_uris":{"android":"levelo://app?vid=f9388865-dfe7-4c88-b0c8-5d46eec8ab65","ios":"levelo://app?vid=f9388865-dfe7-4c88-b0c8-5d46eec8ab65"},"vehicle_type_id":"4","last_reported":1752672644,"current_range_meters":18800,"station_id":"ce4bhbp2rcd13ifvqerg","pricing_plan_id":"cebpf4jnsgd1na2vs0mg"},{"bike_id":"c2437f44-59b1-4a11-be4c-45990fc66ea7","system_id":"levelo_inurba_marseille","lat":43.24166,"lon":5.36394,"is_reserved":false,"is_disabled":false,"rental_uris":{"android":"levelo://app?vid=c2437f44-59b1-4a11-be4c-45990fc66ea7","ios":"levelo://app?vid=c2437f44-59b1-4a11-be4c-45990fc66ea7"},"vehicle_type_id":"4","last_reported":1752672644,"current_range_meters":16800,"station_id":"cpo36qri1sfpv3e86is0","pricing_plan_id":"cebpf4jnsgd1na2vs0mg"},{"bike_id":"dd43e045-6313-4536-a083-812e1484d634","system_id":"levelo_inurba_marseille","lat":43.21748,"lon":5.34599,"is_reserved":false,"is_disabled":false,"rental_uris":{"android":"levelo://app?vid=dd43e045-6313-4536-a083-812e1484d634","ios":"levelo://app?vid=dd43e045-6313-4536-a083-812e1484d634"},"vehicle_type_id":"4","last_reported":1752672644,"current_range_meters":16800,"station_id":"st_cvj6r9ubvosntc0bgbag","pricing_plan_id":"cebpf4jnsgd1na2vs0mg"},{"bike_id":"0398468c-6c0f-49fd-b525-08c45b6a4cd9","system_id":"levelo_inurba_marseille","lat":43.22475,"lon":5.34809,"is_reserved":false,"is_disabled":false,"rental_uris":{"android":"levelo://app?vid=0398468c-6c0f-49fd-b525-08c45b6a4cd9","ios":"levelo://app?vid=0398468c-6c0f-49fd-b525-08c45b6a4cd9"},"vehicle_type_id":"4","last_reported":1752672644,"current_range_meters":17600,"station_id":"st_cvj5dfep6f1abm77gieg","pricing_plan_id":"cebpf4jnsgd1na2vs0mg"},{"bike_id":"50e152cf-edc9-4bc9-8232-19cb41a00858","system_id":"levelo_inurba_marseille","lat":43.28412,"lon":5.34996,"is_reserved":false,"is_disabled":false,"rental_uris":{"android":"levelo://app?vid=50e152cf-edc9-4bc9-8232-19cb41a00858","ios":"levelo://app?vid=50e152cf-edc9-4bc9-8232-19cb41a00858"},"vehicle_type_id":"4","last_reported":1752672644,"current_range_meters":17200,"station_id":"ce4bhbh2rcd13ifvqepg","pricing_plan_id":"cebpf4jnsgd1na2vs0mg"},{"bike_id":"46b084b0-eb8b-4075-9346-f1061f12ac7a","system_id":"levelo_inurba_marseille","lat":43.292719,"lon":5.368377,"is_reserved":false,"is_disabled":false,"rental_uris":{"android":"levelo://app?vid=46b084b0-eb8b-4075-9346-f1061f12ac7a","ios":"levelo://app?vid=46b084b0-eb8b-4075-9346-f1061f12ac7a"},"vehicle_type_id":"4","last_reported":1752672644,"current_range_meters":17200,"station_id":"","pricing_plan_id":"cebpf4jnsgd1na2vs0mg"},{"bike_id":"f037781a-08bc-4746-8a4c-4bc939a127ba","system_id":"levelo_inurba_marseille","lat":43.26208,"lon":5.37438,"is_reserved":false,"is_disabled":false,"rental_uris":{"android":"levelo://app?vid=f037781a-08bc-4746-8a4c-4bc939a127ba","ios":"levelo://app?vid=f037781a-08bc-4746-8a4c-4bc939a127ba"},"vehicle_type_id":"4","last_reported":1752672644,"current_range_meters":17200,"station_id":"ce4bhgp2rcd13ifvqfc0","pricing_plan_id":"cebpf4jnsgd1na2vs0mg"},{"bike_id":"9fab3324-0e38-452a-b9c0-b8c91be3e410","system_id":"levelo_inurba_marseille","lat":43.25927,"lon":5.40871,"is_reserved":false,"is_disabled":false,"rental_uris":{"android":"levelo://app?vid=9fab3324-0e38-452a-b9c0-b8c91be3e410","ios":"levelo://app?vid=9fab3324-0e38-452a-b9c0-b8c91be3e410"},"vehicle_type_id":"4","last_reported":1752672644,"current_range_meters":17200,"station_id":"ce4bhm92rcd13ifvqglg","pricing_plan_id":"cebpf4jnsgd1na2vs0mg"},{"bike_id":"ede78f57-c381-404d-970b-0ebfde762310","system_id":"levelo_inurba_marseille","lat":43.217541,"lon":5.345954,"is_reserved":false,"is_disabled":false,"rental_uris":{"android":"levelo://app?vid=ede78f57-c381-404d-970b-0ebfde762310","ios":"levelo://app?vid=ede78f57-c381-404d-970b-0ebfde762310"},"vehicle_type_id":"4","last_reported":1752672644,"current_range_meters":17200,"station_id":"st_cvj6r9ubvosntc0bgbag","pricing_plan_id":"cebpf4jnsgd1na2vs0mg"},{"bike_id":"eeeb1525-8f55-4baa-8c13-97fb7ee269cd","system_id":"levelo_inurba_marseille","lat":43.299388,"lon":5.365614,"is_reserved":false,"is_disabled":false,"rental_uris":{"android":"levelo://app?vid=eeeb1525-8f55-4baa-8c13-97fb7ee269cd","ios":"levelo://app?vid=eeeb1525-8f55-4baa-8c13-97fb7ee269cd"},"vehicle_type_id":"4","last_reported":1752672644,"current_range_meters":17200,"station_id":"","pricing_plan_id":"cebpf4jnsgd1na2vs0mg"},{"bike_id":"b399da78-cf63-4de2-b505-0740a1d1e170","system_id":"levelo_inurba_marseille","lat":43.22503,"lon":5.34796,"is_reserved":false,"is_disabled":false,"rental_uris":{"android":"levelo://app?vid=b399da78-cf63-4de2-b505-0740a1d1e170","ios":"levelo://app?vid=b399da78-cf63-4de2-b505-0740a1d1e170"},"vehicle_type_id":"4","last_reported":1752672644,"current_range_meters":17200,"station_id":"st_cvj5dfep6f1abm77gieg","pricing_plan_id":"cebpf4jnsgd1na2vs0mg"},{"bike_id":"39c6203f-25ee-487c-9399-b36ef495fc6b","system_id":"levelo_inurba_marseille","lat":43.24084,"lon":5.37754,"is_reserved":false,"is_disabled":false,"rental_uris":{"android":"levelo://app?vid=39c6203f-25ee-487c-9399-b36ef495fc6b","ios":"levelo://app?vid=39c6203f-25ee-487c-9399-b36ef495fc6b"},"vehicle_type_id":"4","last_reported":1752672644,"current_range_meters":17200,"station_id":"ce4bhnp2rcd13ifvqgvg","pricing_plan_id":"cebpf4jnsgd1na2vs0mg"},{"bike_id":"243ff24d-c224-4f6c-8766-a9a443123038","system_id":"levelo_inurba_marseille","lat":43.23956,"lon":5.36632,"is_reserved":false,"is_disabled":false,"rental_uris":{"android":"levelo://app?vid=243ff24d-c224-4f6c-8766-a9a443123038","ios":"levelo://app?vid=243ff24d-c224-4f6c-8766-a9a443123038"},"vehicle_type_id":"4","last_reported":1752672644,"current_range_meters":17200,"station_id":"ce4bhi12rcd13ifvqfp0","pricing_plan_id":"cebpf4jnsgd1na2vs0mg"},{"bike_id":"0225df2e-bee4-445b-87d9-507b02fc0fcb","system_id":"levelo_inurba_marseille","lat":43.323657,"lon":5.367654,"is_reserved":false,"is_disabled":false,"rental_uris":{"android":"levelo://app?vid=0225df2e-bee4-445b-87d9-507b02fc0fcb","ios":"levelo://app?vid=0225df2e-bee4-445b-87d9-507b02fc0fcb"},"vehicle_type_id":"4","last_reported":1752672644,"current_range_meters":17600,"station_id":"ce4bhsh2rcd13ifvqi2g","pricing_plan_id":"cebpf4jnsgd1na2vs0mg"},{"bike_id":"64880588-ab1f-4e92-9bad-58a24ee21153","system_id":"levelo_inurba_marseille","lat":43.26062,"lon":5.39395,"is_reserved":false,"is_disabled":false,"rental_uris":{"android":"levelo://app?vid=64880588-ab1f-4e92-9bad-58a24ee21153","ios":"levelo://app?vid=64880588-ab1f-4e92-9bad-58a24ee21153"},"vehicle_type_id":"4","last_reported":1752672644,"current_range_meters":17600,"station_id":"ce4bhh92rcd13ifvqfj0","pricing_plan_id":"cebpf4jnsgd1na2vs0mg"},{"bike_id":"3444bdc6-514a-4ba6-9650-f9073305e33d","system_id":"levelo_inurba_marseille","lat":43.29682,"lon":5.3698,"is_reserved":false,"is_disabled":false,"rental_uris":{"android":"levelo://app?vid=3444bdc6-514a-4ba6-9650-f9073305e33d","ios":"levelo://app?vid=3444bdc6-514a-4ba6-9650-f9073305e33d"},"vehicle_type_id":"4","last_reported":1752672644,"current_range_meters":17600,"station_id":"","pricing_plan_id":"cebpf4jnsgd1na2vs0mg"},{"bike_id":"9c03d140-d592-45b5-8197-a2d68db89f56","system_id":"levelo_inurba_marseille","lat":43.262119,"lon":5.374726,"is_reserved":false,"is_disabled":false,"rental_uris":{"android":"levelo://app?vid=9c03d140-d592-45b5-8197-a2d68db89f56","ios":"levelo://app?vid=9c03d140-d592-45b5-8197-a2d68db89f56"},"vehicle_type_id":"4","last_reported":1752672644,"current_range_meters":17600,"station_id":"ce4bhgp2rcd13ifvqfc0","pricing_plan_id":"cebpf4jnsgd1na2vs0mg"},{"bike_id":"34e62ee5-3131-428c-842a-9ad03de94ba5","system_id":"levelo_inurba_marseille","lat":43.22503,"lon":5.34785,"is_reserved":false,"is_disabled":false,"rental_uris":{"android":"levelo://app?vid=34e62ee5-3131-428c-842a-9ad03de94ba5","ios":"levelo://app?vid=34e62ee5-3131-428c-842a-9ad03de94ba5"},"vehicle_type_id":"4","last_reported":1752672644,"current_range_meters":17600,"station_id":"st_cvj5dfep6f1abm77gieg","pricing_plan_id":"cebpf4jnsgd1na2vs0mg"},{"bike_id":"8acdf02c-787e-4a1e-956a-5c94a3dff06a","system_id":"levelo_inurba_marseille","lat":43.28545,"lon":5.40565,"is_reserved":false,"is_disabled":false,"rental_uris":{"android":"levelo://app?vid=8acdf02c-787e-4a1e-956a-5c94a3dff06a","ios":"levelo://app?vid=8acdf02c-787e-4a1e-956a-5c94a3dff06a"},"vehicle_type_id":"4","last_reported":1752672644,"current_range_meters":17600,"station_id":"","pricing_plan_id":"cebpf4jnsgd1na2vs0mg"},{"bike_id":"81f522cb-97be-4947-9705-84fda6832d4c","system_id":"levelo_inurba_marseille","lat":43.337444,"lon":5.374475,"is_reserved":false,"is_disabled":false,"rental_uris":{"android":"levelo://app?vid=81f522cb-97be-4947-9705-84fda6832d4c","ios":"levelo://app?vid=81f522cb-97be-4947-9705-84fda6832d4c"},"vehicle_type_id":"4","last_reported":1752672644,"current_range_meters":17600,"station_id":"ce4bhh92rcd13ifvqfj0","pricing_plan_id":"cebpf4jnsgd1na2vs0mg"},{"bike_id":"84c12fd3-ea87-412d-9926-1e7c4046fef1","system_id":"levelo_inurba_marseille","lat":43.23962,"lon":5.3664,"is_reserved":false,"is_disabled":false,"rental_uris":{"android":"levelo://app?vid=84c12fd3-ea87-412d-9926-1e7c4046fef1","ios":"levelo://app?vid=84c12fd3-ea87-412d-9926-1e7c4046fef1"},"vehicle_type_id":"4","last_reported":1752672644,"current_range_meters":17600,"station_id":"ce4bhi12rcd13ifvqfp0","pricing_plan_id":"cebpf4jnsgd1na2vs0mg"},{"bike_id":"931f5d36-a2a6-4652-b3d1-8bfdab672c9e","system_id":"levelo_inurba_marseille","lat":43.23962,"lon":5.36628,"is_reserved":false,"is_disabled":false,"rental_uris":{"android":"levelo://app?vid=931f5d36-a2a6-4652-b3d1-8bfdab672c9e","ios":"levelo://app?vid=931f5d36-a2a6-4652-b3d1-8bfdab672c9e"},"vehicle_type_id":"4","last_reported":1752672644,"current_range_meters":17600,"station_id":"ce4bhi12rcd13ifvqfp0","pricing_plan_id":"cebpf4jnsgd1na2vs0mg"},{"bike_id":"054d23a8-dd11-4697-8151-c6e523174b29","system_id":"levelo_inurba_marseille","lat":43.26499,"lon":5.39555,"is_reserved":false,"is_disabled":false,"rental_uris":{"android":"levelo://app?vid=054d23a8-dd11-4697-8151-c6e523174b29","ios":"levelo://app?vid=054d23a8-dd11-4697-8151-c6e523174b29"},"vehicle_type_id":"4","last_reported":1752672644,"current_range_meters":17600,"station_id":"ce4bhi12rcd13ifvqfq0","pricing_plan_id":"cebpf4jnsgd1na2vs0mg"},{"bike_id":"def589f8-1927-40c7-bbb8-81631032d093","system_id":"levelo_inurba_marseille","lat":43.22496,"lon":5.34796,"is_reserved":false,"is_disabled":false,"rental_uris":{"android":"levelo://app?vid=def589f8-1927-40c7-bbb8-81631032d093","ios":"levelo://app?vid=def589f8-1927-40c7-bbb8-81631032d093"},"vehicle_type_id":"4","last_reported":1752672644,"current_range_meters":17600,"station_id":"st_cvj5dfep6f1abm77gieg","pricing_plan_id":"cebpf4jnsgd1na2vs0mg"},{"bike_id":"07f5ae19-0925-43ef-aab4-48ec58bc62b9","system_id":"levelo_inurba_marseille","lat":43.314537,"lon":5.374438,"is_reserved":false,"is_disabled":false,"rental_uris":{"android":"levelo://app?vid=07f5ae19-0925-43ef-aab4-48ec58bc62b9","ios":"levelo://app?vid=07f5ae19-0925-43ef-aab4-48ec58bc62b9"},"vehicle_type_id":"4","last_reported":1752672644,"current_range_meters":17600,"station_id":"","pricing_plan_id":"cebpf4jnsgd1na2vs0mg"},{"bike_id":"b19ba177-7aca-4002-b440-4e2b9a122791","system_id":"levelo_inurba_marseille","lat":43.299397,"lon":5.365602,"is_reserved":false,"is_disabled":false,"rental_uris":{"android":"levelo://app?vid=b19ba177-7aca-4002-b440-4e2b9a122791","ios":"levelo://app?vid=b19ba177-7aca-4002-b440-4e2b9a122791"},"vehicle_type_id":"4","last_reported":1752672644,"current_range_meters":17600,"station_id":"ce4bgm92rcd13ifvqbr0","pricing_plan_id":"cebpf4jnsgd1na2vs0mg"},{"bike_id":"f5613936-10ea-46e9-89a1-55ca6d839f90","system_id":"levelo_inurba_marseille","lat":43.2124,"lon":5.34888,"is_reserved":false,"is_disabled":false,"rental_uris":{"android":"levelo://app?vid=f5613936-10ea-46e9-89a1-55ca6d839f90","ios":"levelo://app?vid=f5613936-10ea-46e9-89a1-55ca6d839f90"},"vehicle_type_id":"4","last_reported":1752672644,"current_range_meters":18000,"station_id":"","pricing_plan_id":"cebpf4jnsgd1na2vs0mg"},{"bike_id":"96011392-f348-4771-9fad-d43e460a9c38","system_id":"levelo_inurba_marseille","lat":43.24169,"lon":5.36393,"is_reserved":false,"is_disabled":false,"rental_uris":{"android":"levelo://app?vid=96011392-f348-4771-9fad-d43e460a9c38","ios":"levelo://app?vid=96011392-f348-4771-9fad-d43e460a9c38"},"vehicle_type_id":"4","last_reported":1752672644,"current_range_meters":18000,"station_id":"cpo36qri1sfpv3e86is0","pricing_plan_id":"cebpf4jnsgd1na2vs0mg"},{"bike_id":"51463e2c-09cf-4fa5-a440-4b95eeeb90ab","system_id":"levelo_inurba_marseille","lat":43.23747,"lon":5.36637,"is_reserved":false,"is_disabled":false,"rental_uris":{"android":"levelo://app?vid=51463e2c-09cf-4fa5-a440-4b95eeeb90ab","ios":"levelo://app?vid=51463e2c-09cf-4fa5-a440-4b95eeeb90ab"},"vehicle_type_id":"4","last_reported":1752672644,"current_range_meters":18000,"station_id":"","pricing_plan_id":"cebpf4jnsgd1na2vs0mg"},{"bike_id":"23ca4323-126c-4612-b3fc-2cbe37cc80c0","system_id":"levelo_inurba_marseille","lat":43.30903,"lon":5.36846,"is_reserved":false,"is_disabled":false,"rental_uris":{"android":"levelo://app?vid=23ca4323-126c-4612-b3fc-2cbe37cc80c0","ios":"levelo://app?vid=23ca4323-126c-4612-b3fc-2cbe37cc80c0"},"vehicle_type_id":"4","last_reported":1752672644,"current_range_meters":18000,"station_id":"ce4bgn92rcd13ifvqbvg","pricing_plan_id":"cebpf4jnsgd1na2vs0mg"},{"bike_id":"50c4d741-13c1-4ed1-baf4-13137c650cb7","system_id":"levelo_inurba_marseille","lat":43.28118,"lon":5.37839,"is_reserved":false,"is_disabled":false,"rental_uris":{"android":"levelo://app?vid=50c4d741-13c1-4ed1-baf4-13137c650cb7","ios":"levelo://app?vid=50c4d741-13c1-4ed1-baf4-13137c650cb7"},"vehicle_type_id":"4","last_reported":1752672644,"current_range_meters":18000,"station_id":"ce4bha12rcd13ifvqee0","pricing_plan_id":"cebpf4jnsgd1na2vs0mg"},{"bike_id":"8a279f60-3e24-428c-8165-c9a76bdb616c","system_id":"levelo_inurba_marseille","lat":43.27648,"lon":5.38896,"is_reserved":false,"is_disabled":false,"rental_uris":{"android":"levelo://app?vid=8a279f60-3e24-428c-8165-c9a76bdb616c","ios":"levelo://app?vid=8a279f60-3e24-428c-8165-c9a76bdb616c"},"vehicle_type_id":"4","last_reported":1752672644,"current_range_meters":18800,"station_id":"ce4bhi12rcd13ifvqfo0","pricing_plan_id":"cebpf4jnsgd1na2vs0mg"},{"bike_id":"f6e67167-3686-4cae-82da-4610049996dc","system_id":"levelo_inurba_marseille","lat":43.26914,"lon":5.38537,"is_reserved":false,"is_disabled":false,"rental_uris":{"android":"levelo://app?vid=f6e67167-3686-4cae-82da-4610049996dc","ios":"levelo://app?vid=f6e67167-3686-4cae-82da-4610049996dc"},"vehicle_type_id":"4","last_reported":1752672644,"current_range_meters":18800,"station_id":"","pricing_plan_id":"cebpf4jnsgd1na2vs0mg"},{"bike_id":"c4d7c0d3-3fa0-42f9-a775-3626a94c8e22","system_id":"levelo_inurba_marseille","lat":43.27368,"lon":5.36253,"is_reserved":false,"is_disabled":false,"rental_uris":{"android":"levelo://app?vid=c4d7c0d3-3fa0-42f9-a775-3626a94c8e22","ios":"levelo://app?vid=c4d7c0d3-3fa0-42f9-a775-3626a94c8e22"},"vehicle_type_id":"4","last_reported":1752672644,"current_range_meters":18800,"station_id":"ce4bhbh2rcd13ifvqeo0","pricing_plan_id":"cebpf4jnsgd1na2vs0mg"},{"bike_id":"62d0cab1-d6df-4e76-b0da-6ca6fc08caf4","system_id":"levelo_inurba_marseille","lat":43.304951,"lon":5.367598,"is_reserved":false,"is_disabled":false,"rental_uris":{"android":"levelo://app?vid=62d0cab1-d6df-4e76-b0da-6ca6fc08caf4","ios":"levelo://app?vid=62d0cab1-d6df-4e76-b0da-6ca6fc08caf4"},"vehicle_type_id":"4","last_reported":1752672644,"current_range_meters":18800,"station_id":"ce4bgrp2rcd13ifvqc9g","pricing_plan_id":"cebpf4jnsgd1na2vs0mg"},{"bike_id":"90493794-6f43-46af-b617-9b54832654db","system_id":"levelo_inurba_marseille","lat":43.31344,"lon":5.36707,"is_reserved":false,"is_disabled":false,"rental_uris":{"android":"levelo://app?vid=90493794-6f43-46af-b617-9b54832654db","ios":"levelo://app?vid=90493794-6f43-46af-b617-9b54832654db"},"vehicle_type_id":"4","last_reported":1752672644,"current_range_meters":18800,"station_id":"ce4bgr92rcd13ifvqc6g","pricing_plan_id":"cebpf4jnsgd1na2vs0mg"},{"bike_id":"207a5d58-f725-4b00-b0d1-ee91046a2bcb","system_id":"levelo_inurba_marseille","lat":43.29024,"lon":5.38654,"is_reserved":false,"is_disabled":false,"rental_uris":{"android":"levelo://app?vid=207a5d58-f725-4b00-b0d1-ee91046a2bcb","ios":"levelo://app?vid=207a5d58-f725-4b00-b0d1-ee91046a2bcb"},"vehicle_type_id":"4","last_reported":1752672644,"current_range_meters":18800,"station_id":"ce4bh4p2rcd13ifvqe0g","pricing_plan_id":"cebpf4jnsgd1na2vs0mg"},{"bike_id":"1da7929e-d1d9-4147-a7cc-6a8b3faa7341","system_id":"levelo_inurba_marseille","lat":43.30363,"lon":5.42491,"is_reserved":false,"is_disabled":false,"rental_uris":{"android":"levelo://app?vid=1da7929e-d1d9-4147-a7cc-6a8b3faa7341","ios":"levelo://app?vid=1da7929e-d1d9-4147-a7cc-6a8b3faa7341"},"vehicle_type_id":"4","last_reported":1752672644,"current_range_meters":18800,"station_id":"ce4bhoh2rcd13ifvqh6g","pricing_plan_id":"cebpf4jnsgd1na2vs0mg"},{"bike_id":"3b4a2838-c5dc-4963-9eb2-0ed264a6f8ac","system_id":"levelo_inurba_marseille","lat":43.32063,"lon":5.41499,"is_reserved":false,"is_disabled":false,"rental_uris":{"android":"levelo://app?vid=3b4a2838-c5dc-4963-9eb2-0ed264a6f8ac","ios":"levelo://app?vid=3b4a2838-c5dc-4963-9eb2-0ed264a6f8ac"},"vehicle_type_id":"4","last_reported":1752672644,"current_range_meters":18800,"station_id":"","pricing_plan_id":"cebpf4jnsgd1na2vs0mg"},{"bike_id":"01162d63-eee9-44aa-b940-853d9bbeb099","system_id":"levelo_inurba_marseille","lat":43.3209,"lon":5.367595,"is_reserved":false,"is_disabled":false,"rental_uris":{"android":"levelo://app?vid=01162d63-eee9-44aa-b940-853d9bbeb099","ios":"levelo://app?vid=01162d63-eee9-44aa-b940-853d9bbeb099"},"vehicle_type_id":"4","last_reported":1752672644,"current_range_meters":18800,"station_id":"ce4bhrh2rcd13ifvqhug","pricing_plan_id":"cebpf4jnsgd1na2vs0mg"},{"bike_id":"8716a6dc-edc9-4ce8-b2db-da4e68c247be","system_id":"levelo_inurba_marseille","lat":43.29544,"lon":5.38528,"is_reserved":false,"is_disabled":true,"rental_uris":{"android":"levelo://app?vid=8716a6dc-edc9-4ce8-b2db-da4e68c247be","ios":"levelo://app?vid=8716a6dc-edc9-4ce8-b2db-da4e68c247be"},"vehicle_type_id":"4","last_reported":1752672644,"current_range_meters":19200,"station_id":"ce4bgih2rcd13ifvqba0","pricing_plan_id":"cebpf4jnsgd1na2vs0mg"},{"bike_id":"1a1de22c-864f-4087-990e-227151d55abc","system_id":"levelo_inurba_marseille","lat":43.21171,"lon":5.35115,"is_reserved":false,"is_disabled":false,"rental_uris":{"android":"levelo://app?vid=1a1de22c-864f-4087-990e-227151d55abc","ios":"levelo://app?vid=1a1de22c-864f-4087-990e-227151d55abc"},"vehicle_type_id":"4","last_reported":1752672644,"current_range_meters":19200,"station_id":"st_cvj6sg6p6f1abm77japg","pricing_plan_id":"cebpf4jnsgd1na2vs0mg"},{"bike_id":"7889b704-b301-4414-b00b-fe99422cbed4","system_id":"levelo_inurba_marseille","lat":43.32336,"lon":5.40612,"is_reserved":false,"is_disabled":false,"rental_uris":{"android":"levelo://app?vid=7889b704-b301-4414-b00b-fe99422cbed4","ios":"levelo://app?vid=7889b704-b301-4414-b00b-fe99422cbed4"},"vehicle_type_id":"4","last_reported":1752672644,"current_range_meters":19200,"station_id":"ce4bhq92rcd13ifvqhjg","pricing_plan_id":"cebpf4jnsgd1na2vs0mg"},{"bike_id":"79806c3a-6c29-4913-9ec9-93da135cc77d","system_id":"levelo_inurba_marseille","lat":43.33779,"lon":5.37422,"is_reserved":false,"is_disabled":false,"rental_uris":{"android":"levelo://app?vid=79806c3a-6c29-4913-9ec9-93da135cc77d","ios":"levelo://app?vid=79806c3a-6c29-4913-9ec9-93da135cc77d"},"vehicle_type_id":"4","last_reported":1752672644,"current_range_meters":19200,"station_id":"","pricing_plan_id":"cebpf4jnsgd1na2vs0mg"},{"bike_id":"9bafdc35-d4f9-4adf-b430-76595cda9ed5","system_id":"levelo_inurba_marseille","lat":43.24811,"lon":5.37454,"is_reserved":false,"is_disabled":false,"rental_uris":{"android":"levelo://app?vid=9bafdc35-d4f9-4adf-b430-76595cda9ed5","ios":"levelo://app?vid=9bafdc35-d4f9-4adf-b430-76595cda9ed5"},"vehicle_type_id":"4","last_reported":1752672644,"current_range_meters":19200,"station_id":"ce4bhgh2rcd13ifvqfb0","pricing_plan_id":"cebpf4jnsgd1na2vs0mg"},{"bike_id":"bfae11ca-1272-4374-ac31-92cfca7c544a","system_id":"levelo_inurba_marseille","lat":43.23191,"lon":5.39985,"is_reserved":false,"is_disabled":false,"rental_uris":{"android":"levelo://app?vid=bfae11ca-1272-4374-ac31-92cfca7c544a","ios":"levelo://app?vid=bfae11ca-1272-4374-ac31-92cfca7c544a"},"vehicle_type_id":"4","last_reported":1752672644,"current_range_meters":19200,"station_id":"ce4bhn12rcd13ifvqgqg","pricing_plan_id":"cebpf4jnsgd1na2vs0mg"},{"bike_id":"e0b5d196-2f71-49fb-8402-6f9e1c0ab9fb","system_id":"levelo_inurba_marseille","lat":43.27379,"lon":5.36243,"is_reserved":false,"is_disabled":false,"rental_uris":{"android":"levelo://app?vid=e0b5d196-2f71-49fb-8402-6f9e1c0ab9fb","ios":"levelo://app?vid=e0b5d196-2f71-49fb-8402-6f9e1c0ab9fb"},"vehicle_type_id":"4","last_reported":1752672644,"current_range_meters":19200,"station_id":"ce4bhbh2rcd13ifvqeo0","pricing_plan_id":"cebpf4jnsgd1na2vs0mg"},{"bike_id":"fd2d3058-1bfd-4d01-8f1a-659277b7a258","system_id":"levelo_inurba_marseille","lat":43.29933,"lon":5.36544,"is_reserved":false,"is_disabled":false,"rental_uris":{"android":"levelo://app?vid=fd2d3058-1bfd-4d01-8f1a-659277b7a258","ios":"levelo://app?vid=fd2d3058-1bfd-4d01-8f1a-659277b7a258"},"vehicle_type_id":"4","last_reported":1752672644,"current_range_meters":19600,"station_id":"ce4bgm92rcd13ifvqbr0","pricing_plan_id":"cebpf4jnsgd1na2vs0mg"},{"bike_id":"601d63f5-45ba-444b-ae10-7d4ee6339f76","system_id":"levelo_inurba_marseille","lat":43.29894,"lon":5.43671,"is_reserved":false,"is_disabled":false,"rental_uris":{"android":"levelo://app?vid=601d63f5-45ba-444b-ae10-7d4ee6339f76","ios":"levelo://app?vid=601d63f5-45ba-444b-ae10-7d4ee6339f76"},"vehicle_type_id":"4","last_reported":1752672644,"current_range_meters":19600,"station_id":"ce4bhpp2rcd13ifvqhfg","pricing_plan_id":"cebpf4jnsgd1na2vs0mg"},{"bike_id":"855ff8f9-641c-41af-8e00-5d71e1a04e0f","system_id":"levelo_inurba_marseille","lat":43.22505,"lon":5.3477,"is_reserved":false,"is_disabled":false,"rental_uris":{"android":"levelo://app?vid=855ff8f9-641c-41af-8e00-5d71e1a04e0f","ios":"levelo://app?vid=855ff8f9-641c-41af-8e00-5d71e1a04e0f"},"vehicle_type_id":"4","last_reported":1752672644,"current_range_meters":19600,"station_id":"st_cvj5dfep6f1abm77gieg","pricing_plan_id":"cebpf4jnsgd1na2vs0mg"},{"bike_id":"d8726e33-291b-48a1-8e62-46d3deb9f118","system_id":"levelo_inurba_marseille","lat":43.293637,"lon":5.37843,"is_reserved":false,"is_disabled":false,"rental_uris":{"android":"levelo://app?vid=d8726e33-291b-48a1-8e62-46d3deb9f118","ios":"levelo://app?vid=d8726e33-291b-48a1-8e62-46d3deb9f118"},"vehicle_type_id":"4","last_reported":1752672644,"current_range_meters":19600,"station_id":"","pricing_plan_id":"cebpf4jnsgd1na2vs0mg"},{"bike_id":"63362215-e6b0-499c-9a27-42bef6c7836f","system_id":"levelo_inurba_marseille","lat":43.21757,"lon":5.34591,"is_reserved":false,"is_disabled":false,"rental_uris":{"android":"levelo://app?vid=63362215-e6b0-499c-9a27-42bef6c7836f","ios":"levelo://app?vid=63362215-e6b0-499c-9a27-42bef6c7836f"},"vehicle_type_id":"4","last_reported":1752672644,"current_range_meters":19600,"station_id":"st_cvj6r9ubvosntc0bgbag","pricing_plan_id":"cebpf4jnsgd1na2vs0mg"},{"bike_id":"0def44e1-c1e0-408b-bc83-72838c29c860","system_id":"levelo_inurba_marseille","lat":43.28258,"lon":5.35067,"is_reserved":false,"is_disabled":false,"rental_uris":{"android":"levelo://app?vid=0def44e1-c1e0-408b-bc83-72838c29c860","ios":"levelo://app?vid=0def44e1-c1e0-408b-bc83-72838c29c860"},"vehicle_type_id":"4","last_reported":1752672644,"current_range_meters":19600,"station_id":"ce4bhbp2rcd13ifvqerg","pricing_plan_id":"cebpf4jnsgd1na2vs0mg"},{"bike_id":"2ac93549-5c94-4228-8eea-782a21384d10","system_id":"levelo_inurba_marseille","lat":43.29634,"lon":5.37793,"is_reserved":false,"is_disabled":false,"rental_uris":{"android":"levelo://app?vid=2ac93549-5c94-4228-8eea-782a21384d10","ios":"levelo://app?vid=2ac93549-5c94-4228-8eea-782a21384d10"},"vehicle_type_id":"4","last_reported":1752672644,"current_range_meters":19600,"station_id":"","pricing_plan_id":"cebpf4jnsgd1na2vs0mg"},{"bike_id":"531dca68-8617-41b0-a6cd-abffc94e1d45","system_id":"levelo_inurba_marseille","lat":43.31201,"lon":5.37327,"is_reserved":false,"is_disabled":false,"rental_uris":{"android":"levelo://app?vid=531dca68-8617-41b0-a6cd-abffc94e1d45","ios":"levelo://app?vid=531dca68-8617-41b0-a6cd-abffc94e1d45"},"vehicle_type_id":"4","last_reported":1752672644,"current_range_meters":19600,"station_id":"","pricing_plan_id":"cebpf4jnsgd1na2vs0mg"},{"bike_id":"984d6756-da77-4d35-a8b6-a3fd96a65e1a","system_id":"levelo_inurba_marseille","lat":43.23061,"lon":5.35492,"is_reserved":false,"is_disabled":false,"rental_uris":{"android":"levelo://app?vid=984d6756-da77-4d35-a8b6-a3fd96a65e1a","ios":"levelo://app?vid=984d6756-da77-4d35-a8b6-a3fd96a65e1a"},"vehicle_type_id":"4","last_reported":1752672644,"current_range_meters":19600,"station_id":"cpo3342slgdg3j2ifvpg","pricing_plan_id":"cebpf4jnsgd1na2vs0mg"},{"bike_id":"8575a3eb-10a6-41c1-9e0f-bbb9eb393394","system_id":"levelo_inurba_marseille","lat":43.23192,"lon":5.35556,"is_reserved":false,"is_disabled":false,"rental_uris":{"android":"levelo://app?vid=8575a3eb-10a6-41c1-9e0f-bbb9eb393394","ios":"levelo://app?vid=8575a3eb-10a6-41c1-9e0f-bbb9eb393394"},"vehicle_type_id":"4","last_reported":1752672644,"current_range_meters":19600,"station_id":"ce4bhu92rcd13ifvqi70","pricing_plan_id":"cebpf4jnsgd1na2vs0mg"},{"bike_id":"9ca51e7b-bf9c-4f67-81ef-163149c2d49e","system_id":"levelo_inurba_marseille","lat":43.27323,"lon":5.39077,"is_reserved":false,"is_disabled":false,"rental_uris":{"android":"levelo://app?vid=9ca51e7b-bf9c-4f67-81ef-163149c2d49e","ios":"levelo://app?vid=9ca51e7b-bf9c-4f67-81ef-163149c2d49e"},"vehicle_type_id":"4","last_reported":1752672644,"current_range_meters":20400,"station_id":"ce4bhgp2rcd13ifvqfe0","pricing_plan_id":"cebpf4jnsgd1na2vs0mg"},{"bike_id":"eff08849-67d6-42c3-b44e-d8a470b40621","system_id":"levelo_inurba_marseille","lat":43.28613,"lon":5.35105,"is_reserved":false,"is_disabled":false,"rental_uris":{"android":"levelo://app?vid=eff08849-67d6-42c3-b44e-d8a470b40621","ios":"levelo://app?vid=eff08849-67d6-42c3-b44e-d8a470b40621"},"vehicle_type_id":"4","last_reported":1752672644,"current_range_meters":20000,"station_id":"ce4bhch2rcd13ifvqeug","pricing_plan_id":"cebpf4jnsgd1na2vs0mg"},{"bike_id":"33cfb75e-0a10-4832-bd8a-58f02f8f14f8","system_id":"levelo_inurba_marseille","lat":43.26218,"lon":5.3793,"is_reserved":false,"is_disabled":false,"rental_uris":{"android":"levelo://app?vid=33cfb75e-0a10-4832-bd8a-58f02f8f14f8","ios":"levelo://app?vid=33cfb75e-0a10-4832-bd8a-58f02f8f14f8"},"vehicle_type_id":"4","last_reported":1752672644,"current_range_meters":20000,"station_id":"ce4bhjp2rcd13ifvqg90","pricing_plan_id":"cebpf4jnsgd1na2vs0mg"},{"bike_id":"80f24f7c-2f60-44c1-984d-9e9e9000c36b","system_id":"levelo_inurba_marseille","lat":43.23958,"lon":5.36621,"is_reserved":false,"is_disabled":false,"rental_uris":{"android":"levelo://app?vid=80f24f7c-2f60-44c1-984d-9e9e9000c36b","ios":"levelo://app?vid=80f24f7c-2f60-44c1-984d-9e9e9000c36b"},"vehicle_type_id":"4","last_reported":1752672644,"current_range_meters":20000,"station_id":"ce4bhi12rcd13ifvqfp0","pricing_plan_id":"cebpf4jnsgd1na2vs0mg"},{"bike_id":"93bbeab2-f70e-405b-b5b8-afd6f1e39470","system_id":"levelo_inurba_marseille","lat":43.26237,"lon":5.40434,"is_reserved":false,"is_disabled":false,"rental_uris":{"android":"levelo://app?vid=93bbeab2-f70e-405b-b5b8-afd6f1e39470","ios":"levelo://app?vid=93bbeab2-f70e-405b-b5b8-afd6f1e39470"},"vehicle_type_id":"4","last_reported":1752672644,"current_range_meters":20000,"station_id":"ce4bhmh2rcd13ifvqgmg","pricing_plan_id":"cebpf4jnsgd1na2vs0mg"},{"bike_id":"da891840-0cec-4ccc-961c-48903736c6fa","system_id":"levelo_inurba_marseille","lat":43.31139,"lon":5.37692,"is_reserved":false,"is_disabled":false,"rental_uris":{"android":"levelo://app?vid=da891840-0cec-4ccc-961c-48903736c6fa","ios":"levelo://app?vid=da891840-0cec-4ccc-961c-48903736c6fa"},"vehicle_type_id":"4","last_reported":1752672644,"current_range_meters":20000,"station_id":"","pricing_plan_id":"cebpf4jnsgd1na2vs0mg"},{"bike_id":"da24c495-bf0f-494f-9521-4e687db6d329","system_id":"levelo_inurba_marseille","lat":43.22489,"lon":5.34801,"is_reserved":false,"is_disabled":false,"rental_uris":{"android":"levelo://app?vid=da24c495-bf0f-494f-9521-4e687db6d329","ios":"levelo://app?vid=da24c495-bf0f-494f-9521-4e687db6d329"},"vehicle_type_id":"4","last_reported":1752672644,"current_range_meters":20000,"station_id":"st_cvj5dfep6f1abm77gieg","pricing_plan_id":"cebpf4jnsgd1na2vs0mg"},{"bike_id":"e02bf6aa-747e-493c-b6d2-76965ea485ef","system_id":"levelo_inurba_marseille","lat":43.295723,"lon":5.375196,"is_reserved":false,"is_disabled":false,"rental_uris":{"android":"levelo://app?vid=e02bf6aa-747e-493c-b6d2-76965ea485ef","ios":"levelo://app?vid=e02bf6aa-747e-493c-b6d2-76965ea485ef"},"vehicle_type_id":"4","last_reported":1752672644,"current_range_meters":20000,"station_id":"","pricing_plan_id":"cebpf4jnsgd1na2vs0mg"},{"bike_id":"1af876d9-6e0a-45cc-bed9-deae0b87ca9c","system_id":"levelo_inurba_marseille","lat":43.21192,"lon":5.350715,"is_reserved":false,"is_disabled":false,"rental_uris":{"android":"levelo://app?vid=1af876d9-6e0a-45cc-bed9-deae0b87ca9c","ios":"levelo://app?vid=1af876d9-6e0a-45cc-bed9-deae0b87ca9c"},"vehicle_type_id":"4","last_reported":1752672644,"current_range_meters":20000,"station_id":"st_cvj6sg6p6f1abm77japg","pricing_plan_id":"cebpf4jnsgd1na2vs0mg"},{"bike_id":"e5f51449-327c-4a36-b1e4-9180e51f9b99","system_id":"levelo_inurba_marseille","lat":43.21747,"lon":5.34609,"is_reserved":false,"is_disabled":false,"rental_uris":{"android":"levelo://app?vid=e5f51449-327c-4a36-b1e4-9180e51f9b99","ios":"levelo://app?vid=e5f51449-327c-4a36-b1e4-9180e51f9b99"},"vehicle_type_id":"4","last_reported":1752672644,"current_range_meters":20000,"station_id":"st_cvj6r9ubvosntc0bgbag","pricing_plan_id":"cebpf4jnsgd1na2vs0mg"},{"bike_id":"d2dcfad2-166d-4cb9-850b-7519b62de6e5","system_id":"levelo_inurba_marseille","lat":43.21208,"lon":5.35066,"is_reserved":false,"is_disabled":false,"rental_uris":{"android":"levelo://app?vid=d2dcfad2-166d-4cb9-850b-7519b62de6e5","ios":"levelo://app?vid=d2dcfad2-166d-4cb9-850b-7519b62de6e5"},"vehicle_type_id":"4","last_reported":1752672644,"current_range_meters":20000,"station_id":"st_cvj6sg6p6f1abm77japg","pricing_plan_id":"cebpf4jnsgd1na2vs0mg"},{"bike_id":"d99e04f4-3241-405d-89cd-f3343974609d","system_id":"levelo_inurba_marseille","lat":43.2984,"lon":5.36266,"is_reserved":false,"is_disabled":false,"rental_uris":{"android":"levelo://app?vid=d99e04f4-3241-405d-89cd-f3343974609d","ios":"levelo://app?vid=d99e04f4-3241-405d-89cd-f3343974609d"},"vehicle_type_id":"4","last_reported":1752672644,"current_range_meters":20400,"station_id":"ce4bgpp2rcd13ifvqc3g","pricing_plan_id":"cebpf4jnsgd1na2vs0mg"},{"bike_id":"dd2dc8a3-a276-4710-a199-3e90d5e5f60b","system_id":"levelo_inurba_marseille","lat":43.24733,"lon":5.41169,"is_reserved":false,"is_disabled":false,"rental_uris":{"android":"levelo://app?vid=dd2dc8a3-a276-4710-a199-3e90d5e5f60b","ios":"levelo://app?vid=dd2dc8a3-a276-4710-a199-3e90d5e5f60b"},"vehicle_type_id":"4","last_reported":1752672644,"current_range_meters":20400,"station_id":"","pricing_plan_id":"cebpf4jnsgd1na2vs0mg"},{"bike_id":"bc5f68e7-e98c-4d80-a076-3d60d2077e79","system_id":"levelo_inurba_marseille","lat":43.30544,"lon":5.3656,"is_reserved":false,"is_disabled":false,"rental_uris":{"android":"levelo://app?vid=bc5f68e7-e98c-4d80-a076-3d60d2077e79","ios":"levelo://app?vid=bc5f68e7-e98c-4d80-a076-3d60d2077e79"},"vehicle_type_id":"4","last_reported":1752672644,"current_range_meters":20400,"station_id":"ce4bgs12rcd13ifvqcag","pricing_plan_id":"cebpf4jnsgd1na2vs0mg"},{"bike_id":"6c73574a-42b0-4afc-bdf5-a6b365c8798a","system_id":"levelo_inurba_marseille","lat":43.29867,"lon":5.39729,"is_reserved":false,"is_disabled":false,"rental_uris":{"android":"levelo://app?vid=6c73574a-42b0-4afc-bdf5-a6b365c8798a","ios":"levelo://app?vid=6c73574a-42b0-4afc-bdf5-a6b365c8798a"},"vehicle_type_id":"4","last_reported":1752672644,"current_range_meters":20400,"station_id":"ce4bh0h2rcd13ifvqd50","pricing_plan_id":"cebpf4jnsgd1na2vs0mg"},{"bike_id":"370b5495-4112-49cd-80ba-c31203562c50","system_id":"levelo_inurba_marseille","lat":43.30312,"lon":5.379,"is_reserved":false,"is_disabled":false,"rental_uris":{"android":"levelo://app?vid=370b5495-4112-49cd-80ba-c31203562c50","ios":"levelo://app?vid=370b5495-4112-49cd-80ba-c31203562c50"},"vehicle_type_id":"4","last_reported":1752672644,"current_range_meters":20400,"station_id":"","pricing_plan_id":"cebpf4jnsgd1na2vs0mg"},{"bike_id":"a092d05c-8017-44f5-ba8a-35792463d6a3","system_id":"levelo_inurba_marseille","lat":43.22498,"lon":5.34777,"is_reserved":false,"is_disabled":false,"rental_uris":{"android":"levelo://app?vid=a092d05c-8017-44f5-ba8a-35792463d6a3","ios":"levelo://app?vid=a092d05c-8017-44f5-ba8a-35792463d6a3"},"vehicle_type_id":"4","last_reported":1752672644,"current_range_meters":20400,"station_id":"st_cvj5dfep6f1abm77gieg","pricing_plan_id":"cebpf4jnsgd1na2vs0mg"},{"bike_id":"38264f39-519e-431d-a8e7-327e430cfc9f","system_id":"levelo_inurba_marseille","lat":43.25537,"lon":5.37266,"is_reserved":false,"is_disabled":false,"rental_uris":{"android":"levelo://app?vid=38264f39-519e-431d-a8e7-327e430cfc9f","ios":"levelo://app?vid=38264f39-519e-431d-a8e7-327e430cfc9f"},"vehicle_type_id":"4","last_reported":1752672644,"current_range_meters":20400,"station_id":"","pricing_plan_id":"cebpf4jnsgd1na2vs0mg"},{"bike_id":"7a0f61d9-3aa7-4641-a7ec-7c999f89acb6","system_id":"levelo_inurba_marseille","lat":43.28717,"lon":5.37951,"is_reserved":false,"is_disabled":false,"rental_uris":{"android":"levelo://app?vid=7a0f61d9-3aa7-4641-a7ec-7c999f89acb6","ios":"levelo://app?vid=7a0f61d9-3aa7-4641-a7ec-7c999f89acb6"},"vehicle_type_id":"4","last_reported":1752672644,"current_range_meters":21600,"station_id":"ce4bh9p2rcd13ifvqec0","pricing_plan_id":"cebpf4jnsgd1na2vs0mg"},{"bike_id":"4dc7d829-d693-4923-8975-f376b6b156e7","system_id":"levelo_inurba_marseille","lat":43.26785,"lon":5.39414,"is_reserved":false,"is_disabled":false,"rental_uris":{"android":"levelo://app?vid=4dc7d829-d693-4923-8975-f376b6b156e7","ios":"levelo://app?vid=4dc7d829-d693-4923-8975-f376b6b156e7"},"vehicle_type_id":"4","last_reported":1752672644,"current_range_meters":20400,"station_id":"ce4bhh12rcd13ifvqfg0","pricing_plan_id":"cebpf4jnsgd1na2vs0mg"},{"bike_id":"81f88721-00d0-431c-83bf-446e11578408","system_id":"levelo_inurba_marseille","lat":43.22498,"lon":5.34777,"is_reserved":false,"is_disabled":false,"rental_uris":{"android":"levelo://app?vid=81f88721-00d0-431c-83bf-446e11578408","ios":"levelo://app?vid=81f88721-00d0-431c-83bf-446e11578408"},"vehicle_type_id":"4","last_reported":1752672644,"current_range_meters":20400,"station_id":"st_cvj5dfep6f1abm77gieg","pricing_plan_id":"cebpf4jnsgd1na2vs0mg"},{"bike_id":"6080ed21-5b67-46a9-a9fa-fe5671071008","system_id":"levelo_inurba_marseille","lat":43.28446,"lon":5.38279,"is_reserved":false,"is_disabled":false,"rental_uris":{"android":"levelo://app?vid=6080ed21-5b67-46a9-a9fa-fe5671071008","ios":"levelo://app?vid=6080ed21-5b67-46a9-a9fa-fe5671071008"},"vehicle_type_id":"4","last_reported":1752672644,"current_range_meters":20400,"station_id":"","pricing_plan_id":"cebpf4jnsgd1na2vs0mg"},{"bike_id":"a75d2eae-2284-4a25-8af0-ebc4b5fb32ca","system_id":"levelo_inurba_marseille","lat":43.21749,"lon":5.3459,"is_reserved":false,"is_disabled":false,"rental_uris":{"android":"levelo://app?vid=a75d2eae-2284-4a25-8af0-ebc4b5fb32ca","ios":"levelo://app?vid=a75d2eae-2284-4a25-8af0-ebc4b5fb32ca"},"vehicle_type_id":"4","last_reported":1752672644,"current_range_meters":20800,"station_id":"st_cvj6r9ubvosntc0bgbag","pricing_plan_id":"cebpf4jnsgd1na2vs0mg"},{"bike_id":"3ffc2488-e7d5-419d-8250-3f2dcb2bc426","system_id":"levelo_inurba_marseille","lat":43.23966,"lon":5.36632,"is_reserved":false,"is_disabled":false,"rental_uris":{"android":"levelo://app?vid=3ffc2488-e7d5-419d-8250-3f2dcb2bc426","ios":"levelo://app?vid=3ffc2488-e7d5-419d-8250-3f2dcb2bc426"},"vehicle_type_id":"4","last_reported":1752672644,"current_range_meters":20800,"station_id":"ce4bhi12rcd13ifvqfp0","pricing_plan_id":"cebpf4jnsgd1na2vs0mg"},{"bike_id":"adc41a31-855a-4edd-8ff6-15a94254e774","system_id":"levelo_inurba_marseille","lat":43.3172,"lon":5.42397,"is_reserved":false,"is_disabled":false,"rental_uris":{"android":"levelo://app?vid=adc41a31-855a-4edd-8ff6-15a94254e774","ios":"levelo://app?vid=adc41a31-855a-4edd-8ff6-15a94254e774"},"vehicle_type_id":"4","last_reported":1752672644,"current_range_meters":20800,"station_id":"ce4bhp92rcd13ifvqhbg","pricing_plan_id":"cebpf4jnsgd1na2vs0mg"},{"bike_id":"f1e56bc4-1c26-4209-91bd-7108312105fc","system_id":"levelo_inurba_marseille","lat":43.27053,"lon":5.4026,"is_reserved":false,"is_disabled":false,"rental_uris":{"android":"levelo://app?vid=f1e56bc4-1c26-4209-91bd-7108312105fc","ios":"levelo://app?vid=f1e56bc4-1c26-4209-91bd-7108312105fc"},"vehicle_type_id":"4","last_reported":1752672644,"current_range_meters":20800,"station_id":"ce4bhk92rcd13ifvqgc0","pricing_plan_id":"cebpf4jnsgd1na2vs0mg"},{"bike_id":"248c8c71-a626-4dab-bfe9-35ccef006482","system_id":"levelo_inurba_marseille","lat":43.29353,"lon":5.37821,"is_reserved":false,"is_disabled":false,"rental_uris":{"android":"levelo://app?vid=248c8c71-a626-4dab-bfe9-35ccef006482","ios":"levelo://app?vid=248c8c71-a626-4dab-bfe9-35ccef006482"},"vehicle_type_id":"4","last_reported":1752672644,"current_range_meters":20800,"station_id":"ce4bgjh2rcd13ifvqbf0","pricing_plan_id":"cebpf4jnsgd1na2vs0mg"},{"bike_id":"e11e00b8-5d36-42f6-8b97-cbf1cab2682a","system_id":"levelo_inurba_marseille","lat":43.26208,"lon":5.37938,"is_reserved":false,"is_disabled":false,"rental_uris":{"android":"levelo://app?vid=e11e00b8-5d36-42f6-8b97-cbf1cab2682a","ios":"levelo://app?vid=e11e00b8-5d36-42f6-8b97-cbf1cab2682a"},"vehicle_type_id":"4","last_reported":1752672644,"current_range_meters":20800,"station_id":"ce4bhjp2rcd13ifvqg90","pricing_plan_id":"cebpf4jnsgd1na2vs0mg"},{"bike_id":"7e5466eb-e538-4487-a9fc-27a4444ad3c1","system_id":"levelo_inurba_marseille","lat":43.21759,"lon":5.346,"is_reserved":false,"is_disabled":false,"rental_uris":{"android":"levelo://app?vid=7e5466eb-e538-4487-a9fc-27a4444ad3c1","ios":"levelo://app?vid=7e5466eb-e538-4487-a9fc-27a4444ad3c1"},"vehicle_type_id":"4","last_reported":1752672644,"current_range_meters":20800,"station_id":"st_cvj6r9ubvosntc0bgbag","pricing_plan_id":"cebpf4jnsgd1na2vs0mg"},