{"last_updated":1683396470,"ttl":30,"version":"2.2","data":{"bikes":[{"bike_id":"2877f425-069f-4ee8-9611-c3eb618ba81c","system_id":"levelo_inurba_marseille","lat":43.312239,"lon":5.368562,"is_reserved":false,"is_disabled":false,"rental_uris":{"android":"levelo://app?vid=2877f425-069f-4ee8-9611-c3eb618ba81c","ios":"levelo://app?vid=2877f425-069f-4ee8-9611-c3eb618ba81c"},"vehicle_type_id":"4","last_reported":1683396471,"current_range_meters":6800,"station_id":"ce4bgl92rcd13ifvqbq0","pricing_plan_id":"free"},{"bike_id":"b9c53fb6-9c09-49f7-9812-79c76923b2ff","system_id":"levelo_inurba_marseille","lat":43.312239,"lon":5.368562,"is_reserved":false,"is_disabled":false,"rental_uris":{"android":"levelo://app?vid=b9c53fb6-9c09-49f7-9812-79c76923b2ff","ios":"levelo://app?vid=b9c53fb6-9c09-49f7-9812-79c76923b2ff"},"vehicle_type_id":"4","last_reported":1683396471,"current_range_meters":7200,"station_id":"ce4bgl92rcd13ifvqbq0","pricing_plan_id":"free"},{"bike_id":"11e78f40-88e8-4eda-9469-36e5f021eea7","system_id":"levelo_inurba_marseille","lat":43.311131,"lon":5.377651,"is_reserved":false,"is_disabled":false,"rental_uris":{"android":"levelo://app?vid=11e78f40-88e8-4eda-9469-36e5f021eea7","ios":"levelo://app?vid=11e78f40-88e8-4eda-9469-36e5f021eea7"},"vehicle_type_id":"4","last_reported":1683396471,"current_range_meters":8000,"station_id":"ce4bgt92rcd13ifvqcg0","pricing_plan_id":"free"},{"bike_id":"0c89d8c0-7f68-440e-b4f8-64cd889420e5","system_id":"levelo_inurba_marseille","lat":43.308614,"lon":5.372098,"is_reserved":false,"is_disabled":false,"rental_uris":{"android":"levelo://app?vid=0c89d8c0-7f68-440e-b4f8-64cd889420e5","ios":"levelo://app?vid=0c89d8c0-7f68-440e-b4f8-64cd889420e5"},"vehicle_type_id":"4","last_reported":1683396471,"current_range_meters":20400,"station_id":"ce4bguh2rcd13ifvqckg","pricing_plan_id":"free"},{"bike_id":"e2fcb704-ada2-4412-9b0c-e997cf5b6de8","system_id":"levelo_inurba_marseille","lat":43.308957,"lon":5.371883,"is_reserved":false,"is_disabled":false,"rental_uris":{"android":"levelo://app?vid=e2fcb704-ada2-4412-9b0c-e997cf5b6de8","ios":"levelo://app?vid=e2fcb704-ada2-4412-9b0c-e997cf5b6de8"},"vehicle_type_id":"4","last_reported":1683396471,"current_range_meters":8400,"station_id":"","pricing_plan_id":"free"},{"bike_id":"87e7f469-73d8-4147-b978-780999276f88","system_id":"levelo_inurba_marseille","lat":43.30877,"lon":5.37187,"is_reserved":false,"is_disabled":false,"rental_uris":{"android":"levelo://app?vid=87e7f469-73d8-4147-b978-780999276f88","ios":"levelo://app?vid=87e7f469-73d8-4147-b978-780999276f88"},"vehicle_type_id":"4","last_reported":1683396471,"current_range_meters":0,"station_id":"","pricing_plan_id":"free"},{"bike_id":"9d2f9dd7-c5fb-4082-8777-fed2c55006a7","system_id":"levelo_inurba_marseille","lat":43.308813,"lon":5.371943,"is_reserved":false,"is_disabled":false,"rental_uris":{"android":"levelo://app?vid=9d2f9dd7-c5fb-4082-8777-fed2c55006a7","ios":"levelo://app?vid=9d2f9dd7-c5fb-4082-8777-fed2c55006a7"},"vehicle_type_id":"4","last_reported":1683396471,"current_range_meters":2400,"station_id":"","pricing_plan_id":"free"},{"bike_id":"caea2489-5a5d-4f00-8e78-8c319f8ed68e","system_id":"levelo_inurba_marseille","lat":43.3057,"lon":5.36553,"is_reserved":false,"is_disabled":false,"rental_uris":{"android":"levelo://app?vid=caea2489-5a5d-4f00-8e78-8c319f8ed68e","ios":"levelo://app?vid=caea2489-5a5d-4f00-8e78-8c319f8ed68e"},"vehicle_type_id":"4","last_reported":1683396471,"current_range_meters":5600,"station_id":"","pricing_plan_id":"free"},{"bike_id":"26b369fa-7349-40ae-af20-200bef85260c","system_id":"levelo_inurba_marseille","lat":43.305706,"lon":5.365654,"is_reserved":false,"is_disabled":false,"rental_uris":{"android":"levelo://app?vid=26b369fa-7349-40ae-af20-200bef85260c","ios":"levelo://app?vid=26b369fa-7349-40ae-af20-200bef85260c"},"vehicle_type_id":"4","last_reported":1683396471,"current_range_meters":0,"station_id":"ce4bgs12rcd13ifvqcag","pricing_plan_id":"free"},{"bike_id":"9f194cb8-1ff8-471d-99a5-1e4b875aecad","system_id":"levelo_inurba_marseille","lat":43.305706,"lon":5.365654,"is_reserved":false,"is_disabled":false,"rental_uris":{"android":"levelo://app?vid=9f194cb8-1ff8-471d-99a5-1e4b875aecad","ios":"levelo://app?vid=9f194cb8-1ff8-471d-99a5-1e4b875aecad"},"vehicle_type_id":"4","last_reported":1683396471,"current_range_meters":12000,"station_id":"ce4bgs12rcd13ifvqcag","pricing_plan_id":"free"},{"bike_id":"c11bb279-73ee-4282-93e8-164e2eb8c06c","system_id":"levelo_inurba_marseille","lat":43.305989,"lon":5.37225,"is_reserved":false,"is_disabled":false,"rental_uris":{"android":"levelo://app?vid=c11bb279-73ee-4282-93e8-164e2eb8c06c","ios":"levelo://app?vid=c11bb279-73ee-4282-93e8-164e2eb8c06c"},"vehicle_type_id":"4","last_reported":1683396471,"current_range_meters":14400,"station_id":"ce4bgqh2rcd13ifvqc4g","pricing_plan_id":"free"},{"bike_id":"518d845b-121f-4bc5-abe2-9bd15e41a437","system_id":"levelo_inurba_marseille","lat":43.311131,"lon":5.377651,"is_reserved":false,"is_disabled":false,"rental_uris":{"android":"levelo://app?vid=518d845b-121f-4bc5-abe2-9bd15e41a437","ios":"levelo://app?vid=518d845b-121f-4bc5-abe2-9bd15e41a437"},"vehicle_type_id":"4","last_reported":1683396471,"current_range_meters":11600,"station_id":"ce4bgt92rcd13ifvqcg0","pricing_plan_id":"free"},{"bike_id":"a4910cfa-af14-47fc-a107-5e3010f923b2","system_id":"levelo_inurba_marseille","lat":43.311131,"lon":5.377651,"is_reserved":false,"is_disabled":false,"rental_uris":{"android":"levelo://app?vid=a4910cfa-af14-47fc-a107-5e3010f923b2","ios":"levelo://app?vid=a4910cfa-af14-47fc-a107-5e3010f923b2"},"vehicle_type_id":"4","last_reported":1683396471,"current_range_meters":12400,"station_id":"ce4bgt92rcd13ifvqcg0","pricing_plan_id":"free"},{"bike_id":"4f04cd03-e0f3-4691-ab6b-3154b5697e11","system_id":"levelo_inurba_marseille","lat":43.3171,"lon":5.37757,"is_reserved":false,"is_disabled":false,"rental_uris":{"android":"levelo://app?vid=4f04cd03-e0f3-4691-ab6b-3154b5697e11","ios":"levelo://app?vid=4f04cd03-e0f3-4691-ab6b-3154b5697e11"},"vehicle_type_id":"4","last_reported":1683396471,"current_range_meters":12400,"station_id":"ce4bgth2rcd13ifvqch0","pricing_plan_id":"free"},{"bike_id":"5a1ebad7-4fa1-40e7-91f8-f01754aa2117","system_id":"levelo_inurba_marseille","lat":43.30313,"lon":5.36455,"is_reserved":false,"is_disabled":false,"rental_uris":{"android":"levelo://app?vid=5a1ebad7-4fa1-40e7-91f8-f01754aa2117","ios":"levelo://app?vid=5a1ebad7-4fa1-40e7-91f8-f01754aa2117"},"vehicle_type_id":"4","last_reported":1683396471,"current_range_meters":6000,"station_id":"","pricing_plan_id":"free"},{"bike_id":"b1a54e20-c4ac-440e-8bd2-061f8540bd97","system_id":"levelo_inurba_marseille","lat":43.301939,"lon":5.366286,"is_reserved":false,"is_disabled":false,"rental_uris":{"android":"levelo://app?vid=b1a54e20-c4ac-440e-8bd2-061f8540bd97","ios":"levelo://app?vid=b1a54e20-c4ac-440e-8bd2-061f8540bd97"},"vehicle_type_id":"4","last_reported":1683396471,"current_range_meters":1200,"station_id":"ce4bgrh2rcd13ifvqc8g","pricing_plan_id":"free"},{"bike_id":"897a9164-668e-4646-b00e-3fe9bcb8bc58","system_id":"levelo_inurba_marseille","lat":43.299209,"lon":5.365547,"is_reserved":false,"is_disabled":false,"rental_uris":{"android":"levelo://app?vid=897a9164-668e-4646-b00e-3fe9bcb8bc58","ios":"levelo://app?vid=897a9164-668e-4646-b00e-3fe9bcb8bc58"},"vehicle_type_id":"4","last_reported":1683396471,"current_range_meters":3600,"station_id":"ce4bgm92rcd13ifvqbr0","pricing_plan_id":"free"},{"bike_id":"74b15cbb-055e-4683-bfee-40f33dd2f1f3","system_id":"levelo_inurba_marseille","lat":43.301939,"lon":5.366286,"is_reserved":false,"is_disabled":false,"rental_uris":{"android":"levelo://app?vid=74b15cbb-055e-4683-bfee-40f33dd2f1f3","ios":"levelo://app?vid=74b15cbb-055e-4683-bfee-40f33dd2f1f3"},"vehicle_type_id":"4","last_reported":1683396471,"current_range_meters":3200,"station_id":"ce4bgrh2rcd13ifvqc8g","pricing_plan_id":"free"},{"bike_id":"67d5380e-61e8-4ef1-b43d-d12a5e3558f3","system_id":"levelo_inurba_marseille","lat":43.299209,"lon":5.365547,"is_reserved":false,"is_disabled":false,"rental_uris":{"android":"levelo://app?vid=67d5380e-61e8-4ef1-b43d-d12a5e3558f3","ios":"levelo://app?vid=67d5380e-61e8-4ef1-b43d-d12a5e3558f3"},"vehicle_type_id":"4","last_reported":1683396471,"current_range_meters":800,"station_id":"ce4bgm92rcd13ifvqbr0","pricing_plan_id":"free"},{"bike_id":"c83e78b3-84d9-464a-86cb-ecf510e0136c","system_id":"levelo_inurba_marseille","lat":43.308012,"lon":5.381511,"is_reserved":false,"is_disabled":false,"rental_uris":{"android":"levelo://app?vid=c83e78b3-84d9-464a-86cb-ecf510e0136c","ios":"levelo://app?vid=c83e78b3-84d9-464a-86cb-ecf510e0136c"},"vehicle_type_id":"4","last_reported":1683396471,"current_range_meters":24400,"station_id":"ce4bgt12rcd13ifvqce0","pricing_plan_id":"free"},{"bike_id":"c6aaaff0-d9fa-4ac6-932a-ea1dd3fc442b","system_id":"levelo_inurba_marseille","lat":43.304606,"lon":5.379026,"is_reserved":false,"is_disabled":false,"rental_uris":{"android":"levelo://app?vid=c6aaaff0-d9fa-4ac6-932a-ea1dd3fc442b","ios":"levelo://app?vid=c6aaaff0-d9fa-4ac6-932a-ea1dd3fc442b"},"vehicle_type_id":"4","last_reported":1683396471,"current_range_meters":1600,"station_id":"ce4bgup2rcd13ifvqcn0","pricing_plan_id":"free"},{"bike_id":"ed6bfa2e-85c8-4605-8f6d-04aaebf2f699","system_id":"levelo_inurba_marseille","lat":43.304606,"lon":5.379026,"is_reserved":false,"is_disabled":false,"rental_uris":{"android":"levelo://app?vid=ed6bfa2e-85c8-4605-8f6d-04aaebf2f699","ios":"levelo://app?vid=ed6bfa2e-85c8-4605-8f6d-04aaebf2f699"},"vehicle_type_id":"4","last_reported":1683396471,"current_range_meters":19200,"station_id":"ce4bgup2rcd13ifvqcn0","pricing_plan_id":"free"},{"bike_id":"637cd051-5a4c-4516-ac80-3d1197d7791b","system_id":"levelo_inurba_marseille","lat":43.30149,"lon":5.3741,"is_reserved":false,"is_disabled":false,"rental_uris":{"android":"levelo://app?vid=637cd051-5a4c-4516-ac80-3d1197d7791b","ios":"levelo://app?vid=637cd051-5a4c-4516-ac80-3d1197d7791b"},"vehicle_type_id":"4","last_reported":1683396471,"current_range_meters":0,"station_id":"ce4bgs92rcd13ifvqcc0","pricing_plan_id":"free"},{"bike_id":"f992cc76-506d-491d-8d55-f90934a0a603","system_id":"levelo_inurba_marseille","lat":43.313571,"lon":5.384829,"is_reserved":false,"is_disabled":false,"rental_uris":{"android":"levelo://app?vid=f992cc76-506d-491d-8d55-f90934a0a603","ios":"levelo://app?vid=f992cc76-506d-491d-8d55-f90934a0a603"},"vehicle_type_id":"4","last_reported":1683396471,"current_range_meters":28000,"station_id":"ce4bgt92rcd13ifvqcf0","pricing_plan_id":"free"},{"bike_id":"f6c64a9d-d5f6-48c4-8a81-960fe0f29fb2","system_id":"levelo_inurba_marseille","lat":43.31362,"lon":5.38512,"is_reserved":false,"is_disabled":false,"rental_uris":{"android":"levelo://app?vid=f6c64a9d-d5f6-48c4-8a81-960fe0f29fb2","ios":"levelo://app?vid=f6c64a9d-d5f6-48c4-8a81-960fe0f29fb2"},"vehicle_type_id":"4","last_reported":1683396471,"current_range_meters":17200,"station_id":"","pricing_plan_id":"free"},{"bike_id":"b11d5a91-2895-4ada-a519-24a15905a28d","system_id":"levelo_inurba_marseille","lat":43.299209,"lon":5.365547,"is_reserved":false,"is_disabled":false,"rental_uris":{"android":"levelo://app?vid=b11d5a91-2895-4ada-a519-24a15905a28d","ios":"levelo://app?vid=b11d5a91-2895-4ada-a519-24a15905a28d"},"vehicle_type_id":"4","last_reported":1683396471,"current_range_meters":24800,"station_id":"ce4bgm92rcd13ifvqbr0","pricing_plan_id":"free"},{"bike_id":"24dc7c19-a8b8-4e14-a235-1122714ff3a9","system_id":"levelo_inurba_marseille","lat":43.305364,"lon":5.384119,"is_reserved":false,"is_disabled":false,"rental_uris":{"android":"levelo://app?vid=24dc7c19-a8b8-4e14-a235-1122714ff3a9","ios":"levelo://app?vid=24dc7c19-a8b8-4e14-a235-1122714ff3a9"},"vehicle_type_id":"4","last_reported":1683396471,"current_range_meters":8000,"station_id":"ce4bgg92rcd13ifvqb30","pricing_plan_id":"free"},{"bike_id":"f996e612-c1bd-48b9-bdad-e0f4592659a5","system_id":"levelo_inurba_marseille","lat":43.298433,"lon":5.362774,"is_reserved":false,"is_disabled":false,"rental_uris":{"android":"levelo://app?vid=f996e612-c1bd-48b9-bdad-e0f4592659a5","ios":"levelo://app?vid=f996e612-c1bd-48b9-bdad-e0f4592659a5"},"vehicle_type_id":"4","last_reported":1683396471,"current_range_meters":0,"station_id":"ce4bgpp2rcd13ifvqc3g","pricing_plan_id":"free"},{"bike_id":"12945319-3546-44c9-848c-c47ef6d63cc0","system_id":"levelo_inurba_marseille","lat":43.29847,"lon":5.36275,"is_reserved":false,"is_disabled":false,"rental_uris":{"android":"levelo://app?vid=12945319-3546-44c9-848c-c47ef6d63cc0","ios":"levelo://app?vid=12945319-3546-44c9-848c-c47ef6d63cc0"},"vehicle_type_id":"4","last_reported":1683396471,"current_range_meters":0,"station_id":"ce4bgpp2rcd13ifvqc3g","pricing_plan_id":"free"},{"bike_id":"b37cab58-5918-4f96-949c-1794db8c2ebc","system_id":"levelo_inurba_marseille","lat":43.305364,"lon":5.384119,"is_reserved":false,"is_disabled":false,"rental_uris":{"android":"levelo://app?vid=b37cab58-5918-4f96-949c-1794db8c2ebc","ios":"levelo://app?vid=b37cab58-5918-4f96-949c-1794db8c2ebc"},"vehicle_type_id":"4","last_reported":1683396471,"current_range_meters":0,"station_id":"ce4bgg92rcd13ifvqb30","pricing_plan_id":"free"},{"bike_id":"ed4b381a-e5c1-409e-9e36-1f3c97faa2ac","system_id":"levelo_inurba_marseille","lat":43.298433,"lon":5.362774,"is_reserved":false,"is_disabled":false,"rental_uris":{"android":"levelo://app?vid=ed4b381a-e5c1-409e-9e36-1f3c97faa2ac","ios":"levelo://app?vid=ed4b381a-e5c1-409e-9e36-1f3c97faa2ac"},"vehicle_type_id":"4","last_reported":1683396471,"current_range_meters":10800,"station_id":"ce4bgpp2rcd13ifvqc3g","pricing_plan_id":"free"},{"bike_id":"aba50e0b-5c25-48f4-bd6d-440f8726f1f3","system_id":"levelo_inurba_marseille","lat":43.3029,"lon":5.38188,"is_reserved":false,"is_disabled":false,"rental_uris":{"android":"levelo://app?vid=aba50e0b-5c25-48f4-bd6d-440f8726f1f3","ios":"levelo://app?vid=aba50e0b-5c25-48f4-bd6d-440f8726f1f3"},"vehicle_type_id":"4","last_reported":1683396471,"current_range_meters":7200,"station_id":"","pricing_plan_id":"free"},{"bike_id":"d2742e05-c61a-4258-bdfc-0d360c9abe5a","system_id":"levelo_inurba_marseille","lat":43.299243,"lon":5.37481,"is_reserved":false,"is_disabled":false,"rental_uris":{"android":"levelo://app?vid=d2742e05-c61a-4258-bdfc-0d360c9abe5a","ios":"levelo://app?vid=d2742e05-c61a-4258-bdfc-0d360c9abe5a"},"vehicle_type_id":"4","last_reported":1683396471,"current_range_meters":1200,"station_id":"ce4bgjh2rcd13ifvqbg0","pricing_plan_id":"free"},{"bike_id":"ab910ed5-fc1c-4bc3-bff0-439aaf79ee86","system_id":"levelo_inurba_marseille","lat":43.297774,"lon":5.370875,"is_reserved":false,"is_disabled":false,"rental_uris":{"android":"levelo://app?vid=ab910ed5-fc1c-4bc3-bff0-439aaf79ee86","ios":"levelo://app?vid=ab910ed5-fc1c-4bc3-bff0-439aaf79ee86"},"vehicle_type_id":"4","last_reported":1683396471,"current_range_meters":15600,"station_id":"ce4bgop2rcd13ifvqc1g","pricing_plan_id":"free"},{"bike_id":"17bf550c-86ac-4f44-8766-fd8503051758","system_id":"levelo_inurba_marseille","lat":43.297774,"lon":5.370875,"is_reserved":false,"is_disabled":false,"rental_uris":{"android":"levelo://app?vid=17bf550c-86ac-4f44-8766-fd8503051758","ios":"levelo://app?vid=17bf550c-86ac-4f44-8766-fd8503051758"},"vehicle_type_id":"4","last_reported":1683396471,"current_range_meters":6800,"station_id":"ce4bgop2rcd13ifvqc1g","pricing_plan_id":"free"},{"bike_id":"cb03d0a7-8198-46ba-b8e4-07d3539f0078","system_id":"levelo_inurba_marseille","lat":43.328371,"lon":5.366912,"is_reserved":false,"is_disabled":false,"rental_uris":{"android":"levelo://app?vid=cb03d0a7-8198-46ba-b8e4-07d3539f0078","ios":"levelo://app?vid=cb03d0a7-8198-46ba-b8e4-07d3539f0078"},"vehicle_type_id":"4","last_reported":1683396471,"current_range_meters":18000,"station_id":"ce4bhs92rcd13ifvqi0g","pricing_plan_id":"free"},{"bike_id":"f7058cbd-13d6-4363-8a29-3f09f8ac5d4d","system_id":"levelo_inurba_marseille","lat":43.328371,"lon":5.366912,"is_reserved":false,"is_disabled":false,"rental_uris":{"android":"levelo://app?vid=f7058cbd-13d6-4363-8a29-3f09f8ac5d4d","ios":"levelo://app?vid=f7058cbd-13d6-4363-8a29-3f09f8ac5d4d"},"vehicle_type_id":"4","last_reported":1683396471,"current_range_meters":2400,"station_id":"ce4bhs92rcd13ifvqi0g","pricing_plan_id":"free"},{"bike_id":"09054360-699d-4577-bd1c-984ceec4cb01","system_id":"levelo_inurba_marseille","lat":43.328371,"lon":5.366912,"is_reserved":false,"is_disabled":false,"rental_uris":{"android":"levelo://app?vid=09054360-699d-4577-bd1c-984ceec4cb01","ios":"levelo://app?vid=09054360-699d-4577-bd1c-984ceec4cb01"},"vehicle_type_id":"4","last_reported":1683396471,"current_range_meters":6400,"station_id":"ce4bhs92rcd13ifvqi0g","pricing_plan_id":"free"},{"bike_id":"58a4b5a9-3b99-4d17-87b0-5d38697b3565","system_id":"levelo_inurba_marseille","lat":43.328371,"lon":5.366912,"is_reserved":false,"is_disabled":false,"rental_uris":{"android":"levelo://app?vid=58a4b5a9-3b99-4d17-87b0-5d38697b3565","ios":"levelo://app?vid=58a4b5a9-3b99-4d17-87b0-5d38697b3565"},"vehicle_type_id":"4","last_reported":1683396471,"current_range_meters":14400,"station_id":"ce4bhs92rcd13ifvqi0g","pricing_plan_id":"free"},{"bike_id":"fa495c37-f7d4-465f-a146-0169143d7693","system_id":"levelo_inurba_marseille","lat":43.328371,"lon":5.366912,"is_reserved":false,"is_disabled":false,"rental_uris":{"android":"levelo://app?vid=fa495c37-f7d4-465f-a146-0169143d7693","ios":"levelo://app?vid=fa495c37-f7d4-465f-a146-0169143d7693"},"vehicle_type_id":"4","last_reported":1683396471,"current_range_meters":13600,"station_id":"ce4bhs92rcd13ifvqi0g","pricing_plan_id":"free"},{"bike_id":"05c44ec8-9bf2-419a-aafa-32210ead3afe","system_id":"levelo_inurba_marseille","lat":43.328371,"lon":5.366912,"is_reserved":false,"is_disabled":false,"rental_uris":{"android":"levelo://app?vid=05c44ec8-9bf2-419a-aafa-32210ead3afe","ios":"levelo://app?vid=05c44ec8-9bf2-419a-aafa-32210ead3afe"},"vehicle_type_id":"4","last_reported":1683396471,"current_range_meters":29600,"station_id":"ce4bhs92rcd13ifvqi0g","pricing_plan_id":"free"},{"bike_id":"aafcc005-5e38-4c52-a10d-6d0f89f0012b","system_id":"levelo_inurba_marseille","lat":43.302008,"lon":5.394694,"is_reserved":false,"is_disabled":false,"rental_uris":{"android":"levelo://app?vid=aafcc005-5e38-4c52-a10d-6d0f89f0012b","ios":"levelo://app?vid=aafcc005-5e38-4c52-a10d-6d0f89f0012b"},"vehicle_type_id":"4","last_reported":1683396471,"current_range_meters":4000,"station_id":"ce4bh0p2rcd13ifvqd70","pricing_plan_id":"free"},{"bike_id":"942ebdda-7481-469d-bfda-fc38bd2c11ec","system_id":"levelo_inurba_marseille","lat":43.29726,"lon":5.37693,"is_reserved":false,"is_disabled":false,"rental_uris":{"android":"levelo://app?vid=942ebdda-7481-469d-bfda-fc38bd2c11ec","ios":"levelo://app?vid=942ebdda-7481-469d-bfda-fc38bd2c11ec"},"vehicle_type_id":"4","last_reported":1683396471,"current_range_meters":6400,"station_id":"","pricing_plan_id":"free"},{"bike_id":"165cf4ec-ee3c-4a5c-929b-636fc1f79c2d","system_id":"levelo_inurba_marseille","lat":43.317557,"lon":5.390173,"is_reserved":false,"is_disabled":false,"rental_uris":{"android":"levelo://app?vid=165cf4ec-ee3c-4a5c-929b-636fc1f79c2d","ios":"levelo://app?vid=165cf4ec-ee3c-4a5c-929b-636fc1f79c2d"},"vehicle_type_id":"4","last_reported":1683396471,"current_range_meters":18400,"station_id":"ce4bhqp2rcd13ifvqhng","pricing_plan_id":"free"},{"bike_id":"60c66c87-4ca4-4156-b8a6-eda8bd157ca4","system_id":"levelo_inurba_marseille","lat":43.317557,"lon":5.390173,"is_reserved":false,"is_disabled":false,"rental_uris":{"android":"levelo://app?vid=60c66c87-4ca4-4156-b8a6-eda8bd157ca4","ios":"levelo://app?vid=60c66c87-4ca4-4156-b8a6-eda8bd157ca4"},"vehicle_type_id":"4","last_reported":1683396471,"current_range_meters":14000,"station_id":"ce4bhqp2rcd13ifvqhng","pricing_plan_id":"free"},{"bike_id":"114bf342-1496-4a5a-bd43-1beb8894787a","system_id":"levelo_inurba_marseille","lat":43.317557,"lon":5.390173,"is_reserved":false,"is_disabled":false,"rental_uris":{"android":"levelo://app?vid=114bf342-1496-4a5a-bd43-1beb8894787a","ios":"levelo://app?vid=114bf342-1496-4a5a-bd43-1beb8894787a"},"vehicle_type_id":"4","last_reported":1683396471,"current_range_meters":23600,"station_id":"ce4bhqp2rcd13ifvqhng","pricing_plan_id":"free"},{"bike_id":"696e8eee-771a-46dc-9220-1e6413b93e7b","system_id":"levelo_inurba_marseille","lat":43.317557,"lon":5.390173,"is_reserved":false,"is_disabled":false,"rental_uris":{"android":"levelo://app?vid=696e8eee-771a-46dc-9220-1e6413b93e7b","ios":"levelo://app?vid=696e8eee-771a-46dc-9220-1e6413b93e7b"},"vehicle_type_id":"4","last_reported":1683396471,"current_range_meters":4400,"station_id":"ce4bhqp2rcd13ifvqhng","pricing_plan_id":"free"},{"bike_id":"5e26388f-afcc-4ebc-9b1c-d20adac7f39a","system_id":"levelo_inurba_marseille","lat":43.317557,"lon":5.390173,"is_reserved":false,"is_disabled":false,"rental_uris":{"android":"levelo://app?vid=5e26388f-afcc-4ebc-9b1c-d20adac7f39a","ios":"levelo://app?vid=5e26388f-afcc-4ebc-9b1c-d20adac7f39a"},"vehicle_type_id":"4","last_reported":1683396471,"current_range_meters":20000,"station_id":"ce4bhqp2rcd13ifvqhng","pricing_plan_id":"free"},{"bike_id":"6aca24a7-ff06-4fd3-a129-6e09c2e15595","system_id":"levelo_inurba_marseille","lat":43.298037,"lon":5.381066,"is_reserved":false,"is_disabled":false,"rental_uris":{"android":"levelo://app?vid=6aca24a7-ff06-4fd3-a129-6e09c2e15595","ios":"levelo://app?vid=6aca24a7-ff06-4fd3-a129-6e09c2e15595"},"vehicle_type_id":"4","last_reported":1683396471,"current_range_meters":3600,"station_id":"ce4bgip2rcd13ifvqbb0","pricing_plan_id":"free"},{"bike_id":"cf8e2134-593b-4e34-9d48-d4d833af2c94","system_id":"levelo_inurba_marseille","lat":43.298037,"lon":5.381066,"is_reserved":false,"is_disabled":false,"rental_uris":{"android":"levelo://app?vid=cf8e2134-593b-4e34-9d48-d4d833af2c94","ios":"levelo://app?vid=cf8e2134-593b-4e34-9d48-d4d833af2c94"},"vehicle_type_id":"4","last_reported":1683396471,"current_range_meters":2000,"station_id":"ce4bgip2rcd13ifvqbb0","pricing_plan_id":"free"},{"bike_id":"5c746c07-c380-4312-b262-a85c6799fffa","system_id":"levelo_inurba_marseille","lat":43.29794,"lon":5.38092,"is_reserved":false,"is_disabled":false,"rental_uris":{"android":"levelo://app?vid=5c746c07-c380-4312-b262-a85c6799fffa","ios":"levelo://app?vid=5c746c07-c380-4312-b262-a85c6799fffa"},"vehicle_type_id":"4","last_reported":1683396471,"current_range_meters":0,"station_id":"ce4bgip2rcd13ifvqbb0","pricing_plan_id":"free"},{"bike_id":"7f6d86f4-8bd3-4eda-8229-f8929cc967b3","system_id":"levelo_inurba_marseille","lat":43.298037,"lon":5.381066,"is_reserved":false,"is_disabled":false,"rental_uris":{"android":"levelo://app?vid=7f6d86f4-8bd3-4eda-8229-f8929cc967b3","ios":"levelo://app?vid=7f6d86f4-8bd3-4eda-8229-f8929cc967b3"},"vehicle_type_id":"4","last_reported":1683396471,"current_range_meters":18400,"station_id":"ce4bgip2rcd13ifvqbb0","pricing_plan_id":"free"},{"bike_id":"31980d1f-111b-42a1-bfc5-b84282bdb0b3","system_id":"levelo_inurba_marseille","lat":43.298037,"lon":5.381066,"is_reserved":false,"is_disabled":false,"rental_uris":{"android":"levelo://app?vid=31980d1f-111b-42a1-bfc5-b84282bdb0b3","ios":"levelo://app?vid=31980d1f-111b-42a1-bfc5-b84282bdb0b3"},"vehicle_type_id":"4","last_reported":1683396471,"current_range_meters":8000,"station_id":"ce4bgip2rcd13ifvqbb0","pricing_plan_id":"free"},{"bike_id":"fd16c6ef-2b5d-444f-afdb-520b7e7e9769","system_id":"levelo_inurba_marseille","lat":43.295748,"lon":5.37522,"is_reserved":false,"is_disabled":false,"rental_uris":{"android":"levelo://app?vid=fd16c6ef-2b5d-444f-afdb-520b7e7e9769","ios":"levelo://app?vid=fd16c6ef-2b5d-444f-afdb-520b7e7e9769"},"vehicle_type_id":"4","last_reported":1683396471,"current_range_meters":0,"station_id":"ce4bgh92rcd13ifvqb50","pricing_plan_id":"free"},{"bike_id":"d5198ab7-c9d8-4311-8b54-a78ff56dc7d9","system_id":"levelo_inurba_marseille","lat":43.304278,"lon":5.388868,"is_reserved":false,"is_disabled":false,"rental_uris":{"android":"levelo://app?vid=d5198ab7-c9d8-4311-8b54-a78ff56dc7d9","ios":"levelo://app?vid=d5198ab7-c9d8-4311-8b54-a78ff56dc7d9"},"vehicle_type_id":"4","last_reported":1683396471,"current_range_meters":19600,"station_id":"ce4bgk12rcd13ifvqbi0","pricing_plan_id":"free"},{"bike_id":"8459b058-3950-4f23-8fa4-d8472c127890","system_id":"levelo_inurba_marseille","lat":43.295748,"lon":5.37522,"is_reserved":false,"is_disabled":false,"rental_uris":{"android":"levelo://app?vid=8459b058-3950-4f23-8fa4-d8472c127890","ios":"levelo://app?vid=8459b058-3950-4f23-8fa4-d8472c127890"},"vehicle_type_id":"4","last_reported":1683396471,"current_range_meters":8000,"station_id":"ce4bgh92rcd13ifvqb50","pricing_plan_id":"free"},{"bike_id":"0cd26584-be8e-442c-81a2-6e33b8adc178","system_id":"levelo_inurba_marseille","lat":43.304278,"lon":5.388868,"is_reserved":false,"is_disabled":false,"rental_uris":{"android":"levelo://app?vid=0cd26584-be8e-442c-81a2-6e33b8adc178","ios":"levelo://app?vid=0cd26584-be8e-442c-81a2-6e33b8adc178"},"vehicle_type_id":"4","last_reported":1683396471,"current_range_meters":0,"station_id":"ce4bgk12rcd13ifvqbi0","pricing_plan_id":"free"},{"bike_id":"e29fabf0-c52f-4c02-93c6-2c93334e0554","system_id":"levelo_inurba_marseille","lat":43.295748,"lon":5.37522,"is_reserved":false,"is_disabled":false,"rental_uris":{"android":"levelo://app?vid=e29fabf0-c52f-4c02-93c6-2c93334e0554","ios":"levelo://app?vid=e29fabf0-c52f-4c02-93c6-2c93334e0554"},"vehicle_type_id":"4","last_reported":1683396471,"current_range_meters":0,"station_id":"ce4bgh92rcd13ifvqb50","pricing_plan_id":"free"},{"bike_id":"6f51322e-704f-4509-bf94-1ac4d2e8dc56","system_id":"levelo_inurba_marseille","lat":43.29609,"lon":5.3772,"is_reserved":false,"is_disabled":false,"rental_uris":{"android":"levelo://app?vid=6f51322e-704f-4509-bf94-1ac4d2e8dc56","ios":"levelo://app?vid=6f51322e-704f-4509-bf94-1ac4d2e8dc56"},"vehicle_type_id":"4","last_reported":1683396471,"current_range_meters":0,"station_id":"ce4bgi92rcd13ifvqb90","pricing_plan_id":"free"},{"bike_id":"ec5983be-0dc3-4139-93e9-f271ce62b1c7","system_id":"levelo_inurba_marseille","lat":43.295279,"lon":5.375048,"is_reserved":false,"is_disabled":false,"rental_uris":{"android":"levelo://app?vid=ec5983be-0dc3-4139-93e9-f271ce62b1c7","ios":"levelo://app?vid=ec5983be-0dc3-4139-93e9-f271ce62b1c7"},"vehicle_type_id":"4","last_reported":1683396471,"current_range_meters":1600,"station_id":"ce4bgkp2rcd13ifvqbmg","pricing_plan_id":"free"},{"bike_id":"ba5abc23-cec9-4b0f-9442-b2da4e5abf8d","system_id":"levelo_inurba_marseille","lat":43.295279,"lon":5.375048,"is_reserved":false,"is_disabled":false,"rental_uris":{"android":"levelo://app?vid=ba5abc23-cec9-4b0f-9442-b2da4e5abf8d","ios":"levelo://app?vid=ba5abc23-cec9-4b0f-9442-b2da4e5abf8d"},"vehicle_type_id":"4","last_reported":1683396471,"current_range_meters":800,"station_id":"ce4bgkp2rcd13ifvqbmg","pricing_plan_id":"free"},{"bike_id":"1ff575b5-1e90-4d8c-85b7-2c36654f5ae2","system_id":"levelo_inurba_marseille","lat":43.299707,"lon":5.384859,"is_reserved":false,"is_disabled":false,"rental_uris":{"android":"levelo://app?vid=1ff575b5-1e90-4d8c-85b7-2c36654f5ae2","ios":"levelo://app?vid=1ff575b5-1e90-4d8c-85b7-2c36654f5ae2"},"vehicle_type_id":"4","last_reported":1683396471,"current_range_meters":18000,"station_id":"ce4bgj92rcd13ifvqbd0","pricing_plan_id":"free"},{"bike_id":"7d902889-18a7-4d18-8b31-e54c0ae747ca","system_id":"levelo_inurba_marseille","lat":43.295279,"lon":5.375048,"is_reserved":false,"is_disabled":false,"rental_uris":{"android":"levelo://app?vid=7d902889-18a7-4d18-8b31-e54c0ae747ca","ios":"levelo://app?vid=7d902889-18a7-4d18-8b31-e54c0ae747ca"},"vehicle_type_id":"4","last_reported":1683396471,"current_range_meters":0,"station_id":"ce4bgkp2rcd13ifvqbmg","pricing_plan_id":"free"},{"bike_id":"43740c5d-d36b-4c62-8c26-f1e4dbe18749","system_id":"levelo_inurba_marseille","lat":43.299717,"lon":5.384845,"is_reserved":false,"is_disabled":false,"rental_uris":{"android":"levelo://app?vid=43740c5d-d36b-4c62-8c26-f1e4dbe18749","ios":"levelo://app?vid=43740c5d-d36b-4c62-8c26-f1e4dbe18749"},"vehicle_type_id":"4","last_reported":1683396471,"current_range_meters":4000,"station_id":"ce4bgj92rcd13ifvqbd0","pricing_plan_id":"free"},{"bike_id":"77061e41-e117-40ce-ad26-801cd5aaf30a","system_id":"levelo_inurba_marseille","lat":43.299717,"lon":5.384845,"is_reserved":false,"is_disabled":false,"rental_uris":{"android":"levelo://app?vid=77061e41-e117-40ce-ad26-801cd5aaf30a","ios":"levelo://app?vid=77061e41-e117-40ce-ad26-801cd5aaf30a"},"vehicle_type_id":"4","last_reported":1683396471,"current_range_meters":16400,"station_id":"ce4bgj92rcd13ifvqbd0","pricing_plan_id":"free"},{"bike_id":"fe3e1905-345f-4b5c-986b-5ce7ca31313f","system_id":"levelo_inurba_marseille","lat":43.295279,"lon":5.375048,"is_reserved":false,"is_disabled":false,"rental_uris":{"android":"levelo://app?vid=fe3e1905-345f-4b5c-986b-5ce7ca31313f","ios":"levelo://app?vid=fe3e1905-345f-4b5c-986b-5ce7ca31313f"},"vehicle_type_id":"4","last_reported":1683396471,"current_range_meters":1600,"station_id":"ce4bgkp2rcd13ifvqbmg","pricing_plan_id":"free"},{"bike_id":"f0dcfd84-4222-444a-b26d-9f99a892695b","system_id":"levelo_inurba_marseille","lat":43.3145,"lon":5.39274,"is_reserved":false,"is_disabled":false,"rental_uris":{"android":"levelo://app?vid=f0dcfd84-4222-444a-b26d-9f99a892695b","ios":"levelo://app?vid=f0dcfd84-4222-444a-b26d-9f99a892695b"},"vehicle_type_id":"4","last_reported":1683396471,"current_range_meters":6400,"station_id":"","pricing_plan_id":"free"},{"bike_id":"c234a54e-497d-4abb-9de6-86dba63c2a0e","system_id":"levelo_inurba_marseille","lat":43.29601,"lon":5.381084,"is_reserved":false,"is_disabled":false,"rental_uris":{"android":"levelo://app?vid=c234a54e-497d-4abb-9de6-86dba63c2a0e","ios":"levelo://app?vid=c234a54e-497d-4abb-9de6-86dba63c2a0e"},"vehicle_type_id":"4","last_reported":1683396471,"current_range_meters":4400,"station_id":"ce4bgl12rcd13ifvqbo0","pricing_plan_id":"free"},{"bike_id":"10f9306a-b16c-4afc-8205-f7955694958d","system_id":"levelo_inurba_marseille","lat":43.29283,"lon":5.36846,"is_reserved":false,"is_disabled":false,"rental_uris":{"android":"levelo://app?vid=10f9306a-b16c-4afc-8205-f7955694958d","ios":"levelo://app?vid=10f9306a-b16c-4afc-8205-f7955694958d"},"vehicle_type_id":"4","last_reported":1683396471,"current_range_meters":0,"station_id":"ce4bhbp2rcd13ifvqesg","pricing_plan_id":"free"},{"bike_id":"49fc7733-6717-41d7-be36-c230daf22182","system_id":"levelo_inurba_marseille","lat":43.2931,"lon":5.37187,"is_reserved":false,"is_disabled":false,"rental_uris":{"android":"levelo://app?vid=49fc7733-6717-41d7-be36-c230daf22182","ios":"levelo://app?vid=49fc7733-6717-41d7-be36-c230daf22182"},"vehicle_type_id":"4","last_reported":1683396471,"current_range_meters":0,"station_id":"","pricing_plan_id":"free"},{"bike_id":"0f92cb4a-9750-44d4-8f49-d5245ae1c742","system_id":"levelo_inurba_marseille","lat":43.2928,"lon":5.36846,"is_reserved":false,"is_disabled":false,"rental_uris":{"android":"levelo://app?vid=0f92cb4a-9750-44d4-8f49-d5245ae1c742","ios":"levelo://app?vid=0f92cb4a-9750-44d4-8f49-d5245ae1c742"},"vehicle_type_id":"4","last_reported":1683396471,"current_range_meters":6000,"station_id":"ce4bhbp2rcd13ifvqesg","pricing_plan_id":"free"},{"bike_id":"053c4e7a-ff30-49a6-b4bd-cf9f68bedb7d","system_id":"levelo_inurba_marseille","lat":43.292755,"lon":5.36867,"is_reserved":false,"is_disabled":false,"rental_uris":{"android":"levelo://app?vid=053c4e7a-ff30-49a6-b4bd-cf9f68bedb7d","ios":"levelo://app?vid=053c4e7a-ff30-49a6-b4bd-cf9f68bedb7d"},"vehicle_type_id":"4","last_reported":1683396471,"current_range_meters":18400,"station_id":"ce4bhbp2rcd13ifvqesg","pricing_plan_id":"free"},{"bike_id":"318e85d2-9974-4073-ba5f-c8d5608ae4c7","system_id":"levelo_inurba_marseille","lat":43.293009,"lon":5.374584,"is_reserved":false,"is_disabled":false,"rental_uris":{"android":"levelo://app?vid=318e85d2-9974-4073-ba5f-c8d5608ae4c7","ios":"levelo://app?vid=318e85d2-9974-4073-ba5f-c8d5608ae4c7"},"vehicle_type_id":"4","last_reported":1683396471,"current_range_meters":22000,"station_id":"ce4bgi12rcd13ifvqb70","pricing_plan_id":"free"},{"bike_id":"84450f79-6490-4240-b5ea-ecefe1c71ef3","system_id":"levelo_inurba_marseille","lat":43.293009,"lon":5.374584,"is_reserved":false,"is_disabled":false,"rental_uris":{"android":"levelo://app?vid=84450f79-6490-4240-b5ea-ecefe1c71ef3","ios":"levelo://app?vid=84450f79-6490-4240-b5ea-ecefe1c71ef3"},"vehicle_type_id":"4","last_reported":1683396471,"current_range_meters":10000,"station_id":"ce4bgi12rcd13ifvqb70","pricing_plan_id":"free"},{"bike_id":"1fe90c2a-262c-4540-b3e7-c82775ed3005","system_id":"levelo_inurba_marseille","lat":43.293009,"lon":5.374584,"is_reserved":false,"is_disabled":false,"rental_uris":{"android":"levelo://app?vid=1fe90c2a-262c-4540-b3e7-c82775ed3005","ios":"levelo://app?vid=1fe90c2a-262c-4540-b3e7-c82775ed3005"},"vehicle_type_id":"4","last_reported":1683396471,"current_range_meters":29200,"station_id":"ce4bgi12rcd13ifvqb70","pricing_plan_id":"free"},{"bike_id":"e8d129ec-2bf8-47a5-b385-f8a8b1cec0f0","system_id":"levelo_inurba_marseille","lat":43.3059,"lon":5.39357,"is_reserved":false,"is_disabled":false,"rental_uris":{"android":"levelo://app?vid=e8d129ec-2bf8-47a5-b385-f8a8b1cec0f0","ios":"levelo://app?vid=e8d129ec-2bf8-47a5-b385-f8a8b1cec0f0"},"vehicle_type_id":"4","last_reported":1683396471,"current_range_meters":16000,"station_id":"ce4bh0p2rcd13ifvqd80","pricing_plan_id":"free"},{"bike_id":"34ea623f-5c40-46f4-932e-e9080b89a4dd","system_id":"levelo_inurba_marseille","lat":43.298764,"lon":5.388973,"is_reserved":false,"is_disabled":false,"rental_uris":{"android":"levelo://app?vid=34ea623f-5c40-46f4-932e-e9080b89a4dd","ios":"levelo://app?vid=34ea623f-5c40-46f4-932e-e9080b89a4dd"},"vehicle_type_id":"4","last_reported":1683396471,"current_range_meters":2400,"station_id":"ce4bh392rcd13ifvqdl0","pricing_plan_id":"free"},{"bike_id":"b473a3f5-b6b1-48f8-8a3a-5aa782b33216","system_id":"levelo_inurba_marseille","lat":43.292663,"lon":5.376389,"is_reserved":false,"is_disabled":false,"rental_uris":{"android":"levelo://app?vid=b473a3f5-b6b1-48f8-8a3a-5aa782b33216","ios":"levelo://app?vid=b473a3f5-b6b1-48f8-8a3a-5aa782b33216"},"vehicle_type_id":"4","last_reported":1683396471,"current_range_meters":4000,"station_id":"ce4bgi12rcd13ifvqb80","pricing_plan_id":"free"},{"bike_id":"93b3389a-99cb-4218-a518-a31f7bc5ddf6","system_id":"levelo_inurba_marseille","lat":43.298764,"lon":5.388973,"is_reserved":false,"is_disabled":false,"rental_uris":{"android":"levelo://app?vid=93b3389a-99cb-4218-a518-a31f7bc5ddf6","ios":"levelo://app?vid=93b3389a-99cb-4218-a518-a31f7bc5ddf6"},"vehicle_type_id":"4","last_reported":1683396471,"current_range_meters":4400,"station_id":"ce4bh392rcd13ifvqdl0","pricing_plan_id":"free"},{"bike_id":"259cd88f-d6c4-4763-b1e2-c7638dc28358","system_id":"levelo_inurba_marseille","lat":43.291675,"lon":5.371583,"is_reserved":false,"is_disabled":false,"rental_uris":{"android":"levelo://app?vid=259cd88f-d6c4-4763-b1e2-c7638dc28358","ios":"levelo://app?vid=259cd88f-d6c4-4763-b1e2-c7638dc28358"},"vehicle_type_id":"4","last_reported":1683396471,"current_range_meters":10800,"station_id":"ce4bha92rcd13ifvqeh0","pricing_plan_id":"free"},{"bike_id":"d34805a5-b2e9-4961-9527-96ada65370e3","system_id":"levelo_inurba_marseille","lat":43.298764,"lon":5.388973,"is_reserved":false,"is_disabled":false,"rental_uris":{"android":"levelo://app?vid=d34805a5-b2e9-4961-9527-96ada65370e3","ios":"levelo://app?vid=d34805a5-b2e9-4961-9527-96ada65370e3"},"vehicle_type_id":"4","last_reported":1683396471,"current_range_meters":6800,"station_id":"ce4bh392rcd13ifvqdl0","pricing_plan_id":"free"},{"bike_id":"fd3fb145-206f-4201-a84a-544f254fceab","system_id":"levelo_inurba_marseille","lat":43.298764,"lon":5.388973,"is_reserved":false,"is_disabled":false,"rental_uris":{"android":"levelo://app?vid=fd3fb145-206f-4201-a84a-544f254fceab","ios":"levelo://app?vid=fd3fb145-206f-4201-a84a-544f254fceab"},"vehicle_type_id":"4","last_reported":1683396471,"current_range_meters":15600,"station_id":"ce4bh392rcd13ifvqdl0","pricing_plan_id":"free"},{"bike_id":"d880ad1e-24df-40a6-b90e-51575a5a0057","system_id":"levelo_inurba_marseille","lat":43.291675,"lon":5.371583,"is_reserved":false,"is_disabled":false,"rental_uris":{"android":"levelo://app?vid=d880ad1e-24df-40a6-b90e-51575a5a0057","ios":"levelo://app?vid=d880ad1e-24df-40a6-b90e-51575a5a0057"},"vehicle_type_id":"4","last_reported":1683396471,"current_range_meters":7600,"station_id":"ce4bha92rcd13ifvqeh0","pricing_plan_id":"free"},{"bike_id":"1c17cabc-b099-4d05-bf95-143681296ab1","system_id":"levelo_inurba_marseille","lat":43.291675,"lon":5.371583,"is_reserved":false,"is_disabled":false,"rental_uris":{"android":"levelo://app?vid=1c17cabc-b099-4d05-bf95-143681296ab1","ios":"levelo://app?vid=1c17cabc-b099-4d05-bf95-143681296ab1"},"vehicle_type_id":"4","last_reported":1683396471,"current_range_meters":4000,"station_id":"ce4bha92rcd13ifvqeh0","pricing_plan_id":"free"},{"bike_id":"4d4aedad-1326-49d1-beab-61b9257eb2ce","system_id":"levelo_inurba_marseille","lat":43.291675,"lon":5.371583,"is_reserved":false,"is_disabled":false,"rental_uris":{"android":"levelo://app?vid=4d4aedad-1326-49d1-beab-61b9257eb2ce","ios":"levelo://app?vid=4d4aedad-1326-49d1-beab-61b9257eb2ce"},"vehicle_type_id":"4","last_reported":1683396471,"current_range_meters":1600,"station_id":"ce4bha92rcd13ifvqeh0","pricing_plan_id":"free"},{"bike_id":"28b8cd3a-7626-458a-b565-55f270c020df","system_id":"levelo_inurba_marseille","lat":43.298764,"lon":5.388973,"is_reserved":false,"is_disabled":false,"rental_uris":{"android":"levelo://app?vid=28b8cd3a-7626-458a-b565-55f270c020df","ios":"levelo://app?vid=28b8cd3a-7626-458a-b565-55f270c020df"},"vehicle_type_id":"4","last_reported":1683396471,"current_range_meters":11200,"station_id":"ce4bh392rcd13ifvqdl0","pricing_plan_id":"free"},{"bike_id":"6d33557b-b9d6-4a42-80ab-24b1992c44fb","system_id":"levelo_inurba_marseille","lat":43.30967,"lon":5.39658,"is_reserved":false,"is_disabled":false,"rental_uris":{"android":"levelo://app?vid=6d33557b-b9d6-4a42-80ab-24b1992c44fb","ios":"levelo://app?vid=6d33557b-b9d6-4a42-80ab-24b1992c44fb"},"vehicle_type_id":"4","last_reported":1683396471,"current_range_meters":14400,"station_id":"","pricing_plan_id":"free"},{"bike_id":"197bc492-79f0-457c-9ebd-182caafb720e","system_id":"levelo_inurba_marseille","lat":43.313291,"lon":5.396838,"is_reserved":false,"is_disabled":false,"rental_uris":{"android":"levelo://app?vid=197bc492-79f0-457c-9ebd-182caafb720e","ios":"levelo://app?vid=197bc492-79f0-457c-9ebd-182caafb720e"},"vehicle_type_id":"4","last_reported":1683396471,"current_range_meters":12800,"station_id":"ce4bgvp2rcd13ifvqcu0","pricing_plan_id":"free"},{"bike_id":"ce76e12b-829f-4918-8af8-033c88c83ec7","system_id":"levelo_inurba_marseille","lat":43.313291,"lon":5.396838,"is_reserved":false,"is_disabled":false,"rental_uris":{"android":"levelo://app?vid=ce76e12b-829f-4918-8af8-033c88c83ec7","ios":"levelo://app?vid=ce76e12b-829f-4918-8af8-033c88c83ec7"},"vehicle_type_id":"4","last_reported":1683396471,"current_range_meters":6400,"station_id":"ce4bgvp2rcd13ifvqcu0","pricing_plan_id":"free"},{"bike_id":"712d22f6-507d-4705-8309-8afe2cb796b3","system_id":"levelo_inurba_marseille","lat":43.313291,"lon":5.396838,"is_reserved":false,"is_disabled":false,"rental_uris":{"android":"levelo://app?vid=712d22f6-507d-4705-8309-8afe2cb796b3","ios":"levelo://app?vid=712d22f6-507d-4705-8309-8afe2cb796b3"},"vehicle_type_id":"4","last_reported":1683396471,"current_range_meters":0,"station_id":"ce4bgvp2rcd13ifvqcu0","pricing_plan_id":"free"},{"bike_id":"ecd09029-80cd-4ca2-ac75-a5b1cdb948a5","system_id":"levelo_inurba_marseille","lat":43.309038,"lon":5.396546,"is_reserved":false,"is_disabled":false,"rental_uris":{"android":"levelo://app?vid=ecd09029-80cd-4ca2-ac75-a5b1cdb948a5","ios":"levelo://app?vid=ecd09029-80cd-4ca2-ac75-a5b1cdb948a5"},"vehicle_type_id":"4","last_reported":1683396471,"current_range_meters":0,"station_id":"ce4bh012rcd13ifvqcv0","pricing_plan_id":"free"},{"bike_id":"a3ebb963-15dc-43fe-8394-7461c046a6fb","system_id":"levelo_inurba_marseille","lat":43.30899,"lon":5.39665,"is_reserved":false,"is_disabled":false,"rental_uris":{"android":"levelo://app?vid=a3ebb963-15dc-43fe-8394-7461c046a6fb","ios":"levelo://app?vid=a3ebb963-15dc-43fe-8394-7461c046a6fb"},"vehicle_type_id":"4","last_reported":1683396471,"current_range_meters":12400,"station_id":"ce4bh012rcd13ifvqcv0","pricing_plan_id":"free"},{"bike_id":"cc712265-94b3-4f15-8a16-8c793d0f624c","system_id":"levelo_inurba_marseille","lat":43.309038,"lon":5.396546,"is_reserved":false,"is_disabled":false,"rental_uris":{"android":"levelo://app?vid=cc712265-94b3-4f15-8a16-8c793d0f624c","ios":"levelo://app?vid=cc712265-94b3-4f15-8a16-8c793d0f624c"},"vehicle_type_id":"4","last_reported":1683396471,"current_range_meters":10800,"station_id":"ce4bh012rcd13ifvqcv0","pricing_plan_id":"free"},{"bike_id":"13e59a94-3ac8-4943-aa2a-85a4b946e517","system_id":"levelo_inurba_marseille","lat":43.309038,"lon":5.396546,"is_reserved":false,"is_disabled":false,"rental_uris":{"android":"levelo://app?vid=13e59a94-3ac8-4943-aa2a-85a4b946e517","ios":"levelo://app?vid=13e59a94-3ac8-4943-aa2a-85a4b946e517"},"vehicle_type_id":"4","last_reported":1683396471,"current_range_meters":0,"station_id":"ce4bh012rcd13ifvqcv0","pricing_plan_id":"free"},{"bike_id":"116977e1-4cc2-464d-bfa7-5567a4713b5e","system_id":"levelo_inurba_marseille","lat":43.29529,"lon":5.385581,"is_reserved":false,"is_disabled":false,"rental_uris":{"android":"levelo://app?vid=116977e1-4cc2-464d-bfa7-5567a4713b5e","ios":"levelo://app?vid=116977e1-4cc2-464d-bfa7-5567a4713b5e"},"vehicle_type_id":"4","last_reported":1683396471,"current_range_meters":8400,"station_id":"ce4bgih2rcd13ifvqba0","pricing_plan_id":"free"},{"bike_id":"cd73a9d0-bf91-45d5-a518-54181f87ebbc","system_id":"levelo_inurba_marseille","lat":43.290624,"lon":5.359245,"is_reserved":false,"is_disabled":false,"rental_uris":{"android":"levelo://app?vid=cd73a9d0-bf91-45d5-a518-54181f87ebbc","ios":"levelo://app?vid=cd73a9d0-bf91-45d5-a518-54181f87ebbc"},"vehicle_type_id":"4","last_reported":1683396471,"current_range_meters":20000,"station_id":"ce4bha92rcd13ifvqeg0","pricing_plan_id":"free"},{"bike_id":"1e7160dc-239b-4254-841e-174efed685a6","system_id":"levelo_inurba_marseille","lat":43.29421,"lon":5.38621,"is_reserved":false,"is_disabled":false,"rental_uris":{"android":"levelo://app?vid=1e7160dc-239b-4254-841e-174efed685a6","ios":"levelo://app?vid=1e7160dc-239b-4254-841e-174efed685a6"},"vehicle_type_id":"4","last_reported":1683396471,"current_range_meters":11200,"station_id":"ce4bh2h2rcd13ifvqdh0","pricing_plan_id":"free"},{"bike_id":"3ca64f29-f0c6-4c2e-a968-da007c0fd495","system_id":"levelo_inurba_marseille","lat":43.290319,"lon":5.375732,"is_reserved":false,"is_disabled":false,"rental_uris":{"android":"levelo://app?vid=3ca64f29-f0c6-4c2e-a968-da007c0fd495","ios":"levelo://app?vid=3ca64f29-f0c6-4c2e-a968-da007c0fd495"},"vehicle_type_id":"4","last_reported":1683396471,"current_range_meters":2400,"station_id":"ce4bh692rcd13ifvqe90","pricing_plan_id":"free"},{"bike_id":"de509a14-3cc3-4c99-89b8-9e423fd2a9b9","system_id":"levelo_inurba_marseille","lat":43.289184,"lon":5.366408,"is_reserved":false,"is_disabled":false,"rental_uris":{"android":"levelo://app?vid=de509a14-3cc3-4c99-89b8-9e423fd2a9b9","ios":"levelo://app?vid=de509a14-3cc3-4c99-89b8-9e423fd2a9b9"},"vehicle_type_id":"4","last_reported":1683396471,"current_range_meters":0,"station_id":"ce4bhap2rcd13ifvqek0","pricing_plan_id":"free"},{"bike_id":"ef44dd42-a578-4ac5-b292-54e8b9a671b4","system_id":"levelo_inurba_marseille","lat":43.294162,"lon":5.386292,"is_reserved":false,"is_disabled":false,"rental_uris":{"android":"levelo://app?vid=ef44dd42-a578-4ac5-b292-54e8b9a671b4","ios":"levelo://app?vid=ef44dd42-a578-4ac5-b292-54e8b9a671b4"},"vehicle_type_id":"4","last_reported":1683396471,"current_range_meters":19600,"station_id":"ce4bh2h2rcd13ifvqdh0","pricing_plan_id":"free"},{"bike_id":"f4252173-e6db-47fa-93e0-ea236e351f34","system_id":"levelo_inurba_marseille","lat":43.289184,"lon":5.366408,"is_reserved":false,"is_disabled":false,"rental_uris":{"android":"levelo://app?vid=f4252173-e6db-47fa-93e0-ea236e351f34","ios":"levelo://app?vid=f4252173-e6db-47fa-93e0-ea236e351f34"},"vehicle_type_id":"4","last_reported":1683396471,"current_range_meters":14400,"station_id":"ce4bhap2rcd13ifvqek0","pricing_plan_id":"free"},{"bike_id":"1941ebd4-64fc-4539-b125-4414d949cc88","system_id":"levelo_inurba_marseille","lat":43.289184,"lon":5.366408,"is_reserved":false,"is_disabled":false,"rental_uris":{"android":"levelo://app?vid=1941ebd4-64fc-4539-b125-4414d949cc88","ios":"levelo://app?vid=1941ebd4-64fc-4539-b125-4414d949cc88"},"vehicle_type_id":"4","last_reported":1683396471,"current_range_meters":7200,"station_id":"ce4bhap2rcd13ifvqek0","pricing_plan_id":"free"},{"bike_id":"b984f9eb-d059-45fc-9d7c-c4e381cf2f8d","system_id":"levelo_inurba_marseille","lat":43.28931,"lon":5.36637,"is_reserved":false,"is_disabled":false,"rental_uris":{"android":"levelo://app?vid=b984f9eb-d059-45fc-9d7c-c4e381cf2f8d","ios":"levelo://app?vid=b984f9eb-d059-45fc-9d7c-c4e381cf2f8d"},"vehicle_type_id":"4","last_reported":1683396471,"current_range_meters":14800,"station_id":"ce4bhap2rcd13ifvqek0","pricing_plan_id":"free"},{"bike_id":"8e5feb63-5b7b-4148-9bf4-8be1bc13a4b0","system_id":"levelo_inurba_marseille","lat":43.289468,"lon":5.363719,"is_reserved":false,"is_disabled":false,"rental_uris":{"android":"levelo://app?vid=8e5feb63-5b7b-4148-9bf4-8be1bc13a4b0","ios":"levelo://app?vid=8e5feb63-5b7b-4148-9bf4-8be1bc13a4b0"},"vehicle_type_id":"4","last_reported":1683396471,"current_range_meters":20000,"station_id":"ce4bhc92rcd13ifvqetg","pricing_plan_id":"free"},{"bike_id":"fda90b21-557e-4c1f-979c-cb914522651a","system_id":"levelo_inurba_marseille","lat":43.304296,"lon":5.397513,"is_reserved":false,"is_disabled":false,"rental_uris":{"android":"levelo://app?vid=fda90b21-557e-4c1f-979c-cb914522651a","ios":"levelo://app?vid=fda90b21-557e-4c1f-979c-cb914522651a"},"vehicle_type_id":"4","last_reported":1683396471,"current_range_meters":8000,"station_id":"ce4bh092rcd13ifvqd20","pricing_plan_id":"free"},{"bike_id":"b8617b70-7e12-49cd-ae63-da2c4d4d73dd","system_id":"levelo_inurba_marseille","lat":43.292642,"lon":5.384254,"is_reserved":false,"is_disabled":false,"rental_uris":{"android":"levelo://app?vid=b8617b70-7e12-49cd-ae63-da2c4d4d73dd","ios":"levelo://app?vid=b8617b70-7e12-49cd-ae63-da2c4d4d73dd"},"vehicle_type_id":"4","last_reported":1683396471,"current_range_meters":15600,"station_id":"ce4bh692rcd13ifvqea0","pricing_plan_id":"free"},{"bike_id":"9ce2ac8f-acae-47b5-9d2b-73bb71c67ed2","system_id":"levelo_inurba_marseille","lat":43.292642,"lon":5.384254,"is_reserved":false,"is_disabled":false,"rental_uris":{"android":"levelo://app?vid=9ce2ac8f-acae-47b5-9d2b-73bb71c67ed2","ios":"levelo://app?vid=9ce2ac8f-acae-47b5-9d2b-73bb71c67ed2"},"vehicle_type_id":"4","last_reported":1683396471,"current_range_meters":17600,"station_id":"ce4bh692rcd13ifvqea0","pricing_plan_id":"free"},{"bike_id":"6b61bc55-cc66-4a16-85f7-7b1358e61929","system_id":"levelo_inurba_marseille","lat":43.29272,"lon":5.38454,"is_reserved":false,"is_disabled":false,"rental_uris":{"android":"levelo://app?vid=6b61bc55-cc66-4a16-85f7-7b1358e61929","ios":"levelo://app?vid=6b61bc55-cc66-4a16-85f7-7b1358e61929"},"vehicle_type_id":"4","last_reported":1683396471,"current_range_meters":800,"station_id":"ce4bh692rcd13ifvqea0","pricing_plan_id":"free"},{"bike_id":"9df29763-3f82-407b-98bc-0b94194080e2","system_id":"levelo_inurba_marseille","lat":43.2926,"lon":5.38431,"is_reserved":false,"is_disabled":false,"rental_uris":{"android":"levelo://app?vid=9df29763-3f82-407b-98bc-0b94194080e2","ios":"levelo://app?vid=9df29763-3f82-407b-98bc-0b94194080e2"},"vehicle_type_id":"4","last_reported":1683396471,"current_range_meters":8800,"station_id":"ce4bh692rcd13ifvqea0","pricing_plan_id":"free"},{"bike_id":"0f218eff-8f9e-455d-b052-3aec78335582","system_id":"levelo_inurba_marseille","lat":43.292642,"lon":5.384254,"is_reserved":false,"is_disabled":false,"rental_uris":{"android":"levelo://app?vid=0f218eff-8f9e-455d-b052-3aec78335582","ios":"levelo://app?vid=0f218eff-8f9e-455d-b052-3aec78335582"},"vehicle_type_id":"4","last_reported":1683396471,"current_range_meters":2000,"station_id":"ce4bh692rcd13ifvqea0","pricing_plan_id":"free"},{"bike_id":"db269131-28db-495c-9106-3a8679a74e04","system_id":"levelo_inurba_marseille","lat":43.29268,"lon":5.3845,"is_reserved":false,"is_disabled":false,"rental_uris":{"android":"levelo://app?vid=db269131-28db-495c-9106-3a8679a74e04","ios":"levelo://app?vid=db269131-28db-495c-9106-3a8679a74e04"},"vehicle_type_id":"4","last_reported":1683396471,"current_range_meters":2000,"station_id":"ce4bh692rcd13ifvqea0","pricing_plan_id":"free"},{"bike_id":"e287cea6-b7b4-49f2-ba5a-9b1ef48bc977","system_id":"levelo_inurba_marseille","lat":43.292642,"lon":5.384254,"is_reserved":false,"is_disabled":false,"rental_uris":{"android":"levelo://app?vid=e287cea6-b7b4-49f2-ba5a-9b1ef48bc977","ios":"levelo://app?vid=e287cea6-b7b4-49f2-ba5a-9b1ef48bc977"},"vehicle_type_id":"4","last_reported":1683396471,"current_range_meters":14400,"station_id":"ce4bh692rcd13ifvqea0","pricing_plan_id":"free"},{"bike_id":"8a1df503-959a-4c2c-8457-c574bc25f424","system_id":"levelo_inurba_marseille","lat":43.292642,"lon":5.384254,"is_reserved":false,"is_disabled":false,"rental_uris":{"android":"levelo://app?vid=8a1df503-959a-4c2c-8457-c574bc25f424","ios":"levelo://app?vid=8a1df503-959a-4c2c-8457-c574bc25f424"},"vehicle_type_id":"4","last_reported":1683396471,"current_range_meters":22400,"station_id":"ce4bh692rcd13ifvqea0","pricing_plan_id":"free"},{"bike_id":"00596f3f-44a9-462d-894d-2d6b6c66d28d","system_id":"levelo_inurba_marseille","lat":43.29263,"lon":5.38454,"is_reserved":false,"is_disabled":false,"rental_uris":{"android":"levelo://app?vid=00596f3f-44a9-462d-894d-2d6b6c66d28d","ios":"levelo://app?vid=00596f3f-44a9-462d-894d-2d6b6c66d28d"},"vehicle_type_id":"4","last_reported":1683396471,"current_range_meters":29200,"station_id":"ce4bh692rcd13ifvqea0","pricing_plan_id":"free"},{"bike_id":"08fa38a0-ba25-409c-9fa9-bd428ae3975d","system_id":"levelo_inurba_marseille","lat":43.292642,"lon":5.384254,"is_reserved":false,"is_disabled":false,"rental_uris":{"android":"levelo://app?vid=08fa38a0-ba25-409c-9fa9-bd428ae3975d","ios":"levelo://app?vid=08fa38a0-ba25-409c-9fa9-bd428ae3975d"},"vehicle_type_id":"4","last_reported":1683396471,"current_range_meters":21200,"station_id":"ce4bh692rcd13ifvqea0","pricing_plan_id":"free"},{"bike_id":"dd5f4565-1094-4f5d-89fc-880498a8b85f","system_id":"levelo_inurba_marseille","lat":43.296263,"lon":5.377094,"is_reserved":false,"is_disabled":false,"rental_uris":{"android":"levelo://app?vid=dd5f4565-1094-4f5d-89fc-880498a8b85f","ios":"levelo://app?vid=dd5f4565-1094-4f5d-89fc-880498a8b85f"},"vehicle_type_id":"4","last_reported":1683396471,"current_range_meters":20000,"station_id":"ce4bgi92rcd13ifvqb90","pricing_plan_id":"free"},{"bike_id":"c7d204ce-6619-491c-8812-dc4b0a6a663b","system_id":"levelo_inurba_marseille","lat":43.33041,"lon":5.38917,"is_reserved":false,"is_disabled":false,"rental_uris":{"android":"levelo://app?vid=c7d204ce-6619-491c-8812-dc4b0a6a663b","ios":"levelo://app?vid=c7d204ce-6619-491c-8812-dc4b0a6a663b"},"vehicle_type_id":"4","last_reported":1683396471,"current_range_meters":28400,"station_id":"ce4bhr92rcd13ifvqhrg","pricing_plan_id":"free"},{"bike_id":"10a8eeb7-4f93-4e8d-81bd-f27d3d4ef515","system_id":"levelo_inurba_marseille","lat":43.33041,"lon":5.38918,"is_reserved":false,"is_disabled":false,"rental_uris":{"android":"levelo://app?vid=10a8eeb7-4f93-4e8d-81bd-f27d3d4ef515","ios":"levelo://app?vid=10a8eeb7-4f93-4e8d-81bd-f27d3d4ef515"},"vehicle_type_id":"4","last_reported":1683396471,"current_range_meters":25200,"station_id":"ce4bhr92rcd13ifvqhrg","pricing_plan_id":"free"},{"bike_id":"59c2b62e-d279-4e15-bbfe-a9bceac40be2","system_id":"levelo_inurba_marseille","lat":43.290104,"lon":5.356111,"is_reserved":false,"is_disabled":false,"rental_uris":{"android":"levelo://app?vid=59c2b62e-d279-4e15-bbfe-a9bceac40be2","ios":"levelo://app?vid=59c2b62e-d279-4e15-bbfe-a9bceac40be2"},"vehicle_type_id":"4","last_reported":1683396471,"current_range_meters":18000,"station_id":"ce4bhb92rcd13ifvqen0","pricing_plan_id":"free"},{"bike_id":"d6233f8b-531d-433b-b8e9-589e3920c098","system_id":"levelo_inurba_marseille","lat":43.33044,"lon":5.38915,"is_reserved":false,"is_disabled":false,"rental_uris":{"android":"levelo://app?vid=d6233f8b-531d-433b-b8e9-589e3920c098","ios":"levelo://app?vid=d6233f8b-531d-433b-b8e9-589e3920c098"},"vehicle_type_id":"4","last_reported":1683396471,"current_range_meters":20800,"station_id":"ce4bhr92rcd13ifvqhrg","pricing_plan_id":"free"},{"bike_id":"da86836b-d020-456b-ad95-a73c452d8db8","system_id":"levelo_inurba_marseille","lat":43.33041,"lon":5.3892,"is_reserved":false,"is_disabled":false,"rental_uris":{"android":"levelo://app?vid=da86836b-d020-456b-ad95-a73c452d8db8","ios":"levelo://app?vid=da86836b-d020-456b-ad95-a73c452d8db8"},"vehicle_type_id":"4","last_reported":1683396471,"current_range_meters":24000,"station_id":"ce4bhr92rcd13ifvqhrg","pricing_plan_id":"free"},{"bike_id":"d364d2ad-2c66-4587-a79b-ee0314a1a93f","system_id":"levelo_inurba_marseille","lat":43.33043,"lon":5.3892,"is_reserved":false,"is_disabled":false,"rental_uris":{"android":"levelo://app?vid=d364d2ad-2c66-4587-a79b-ee0314a1a93f","ios":"levelo://app?vid=d364d2ad-2c66-4587-a79b-ee0314a1a93f"},"vehicle_type_id":"4","last_reported":1683396471,"current_range_meters":16400,"station_id":"ce4bhr92rcd13ifvqhrg","pricing_plan_id":"free"},{"bike_id":"4da2ea4c-0587-4161-8586-452f9bca890c","system_id":"levelo_inurba_marseille","lat":43.33045,"lon":5.38918,"is_reserved":false,"is_disabled":false,"rental_uris":{"android":"levelo://app?vid=4da2ea4c-0587-4161-8586-452f9bca890c","ios":"levelo://app?vid=4da2ea4c-0587-4161-8586-452f9bca890c"},"vehicle_type_id":"4","last_reported":1683396471,"current_range_meters":18800,"station_id":"ce4bhr92rcd13ifvqhrg","pricing_plan_id":"free"},{"bike_id":"c6d8bc85-5d48-4175-a0b2-78b2152265a7","system_id":"levelo_inurba_marseille","lat":43.33044,"lon":5.3892,"is_reserved":false,"is_disabled":false,"rental_uris":{"android":"levelo://app?vid=c6d8bc85-5d48-4175-a0b2-78b2152265a7","ios":"levelo://app?vid=c6d8bc85-5d48-4175-a0b2-78b2152265a7"},"vehicle_type_id":"4","last_reported":1683396471,"current_range_meters":3200,"station_id":"ce4bhr92rcd13ifvqhrg","pricing_plan_id":"free"},{"bike_id":"fe8d863b-eaf3-4fac-9bf6-10fdde4a5bf4","system_id":"levelo_inurba_marseille","lat":43.33044,"lon":5.38921,"is_reserved":false,"is_disabled":false,"rental_uris":{"android":"levelo://app?vid=fe8d863b-eaf3-4fac-9bf6-10fdde4a5bf4","ios":"levelo://app?vid=fe8d863b-eaf3-4fac-9bf6-10fdde4a5bf4"},"vehicle_type_id":"4","last_reported":1683396471,"current_range_meters":0,"station_id":"ce4bhr92rcd13ifvqhrg","pricing_plan_id":"free"},{"bike_id":"8cd5e1e4-e937-439c-bf8a-43fbaac45a10","system_id":"levelo_inurba_marseille","lat":43.33046,"lon":5.38918,"is_reserved":false,"is_disabled":false,"rental_uris":{"android":"levelo://app?vid=8cd5e1e4-e937-439c-bf8a-43fbaac45a10","ios":"levelo://app?vid=8cd5e1e4-e937-439c-bf8a-43fbaac45a10"},"vehicle_type_id":"4","last_reported":1683396471,"current_range_meters":22800,"station_id":"ce4bhr92rcd13ifvqhrg","pricing_plan_id":"free"},{"bike_id":"2a4c9986-79e6-473a-9088-a22214a8de69","system_id":"levelo_inurba_marseille","lat":43.33046,"lon":5.38918,"is_reserved":false,"is_disabled":false,"rental_uris":{"android":"levelo://app?vid=2a4c9986-79e6-473a-9088-a22214a8de69","ios":"levelo://app?vid=2a4c9986-79e6-473a-9088-a22214a8de69"},"vehicle_type_id":"4","last_reported":1683396471,"current_range_meters":15600,"station_id":"ce4bhr92rcd13ifvqhrg","pricing_plan_id":"free"},{"bike_id":"9993b21d-b92b-455d-bc97-303e3372131d","system_id":"levelo_inurba_marseille","lat":43.33051,"lon":5.38911,"is_reserved":false,"is_disabled":false,"rental_uris":{"android":"levelo://app?vid=9993b21d-b92b-455d-bc97-303e3372131d","ios":"levelo://app?vid=9993b21d-b92b-455d-bc97-303e3372131d"},"vehicle_type_id":"4","last_reported":1683396471,"current_range_meters":26800,"station_id":"ce4bhr92rcd13ifvqhrg","pricing_plan_id":"free"},{"bike_id":"276fe03b-4431-4a2c-b1e5-88809bc1c6ad","system_id":"levelo_inurba_marseille","lat":43.33045,"lon":5.38921,"is_reserved":false,"is_disabled":false,"rental_uris":{"android":"levelo://app?vid=276fe03b-4431-4a2c-b1e5-88809bc1c6ad","ios":"levelo://app?vid=276fe03b-4431-4a2c-b1e5-88809bc1c6ad"},"vehicle_type_id":"4","last_reported":1683396471,"current_range_meters":9200,"station_id":"ce4bhr92rcd13ifvqhrg","pricing_plan_id":"free"},{"bike_id":"9aaf6b04-806e-4ac6-9809-bc36bf4afdc3","system_id":"levelo_inurba_marseille","lat":43.290103,"lon":5.356114,"is_reserved":false,"is_disabled":false,"rental_uris":{"android":"levelo://app?vid=9aaf6b04-806e-4ac6-9809-bc36bf4afdc3","ios":"levelo://app?vid=9aaf6b04-806e-4ac6-9809-bc36bf4afdc3"},"vehicle_type_id":"4","last_reported":1683396471,"current_range_meters":2000,"station_id":"ce4bhb92rcd13ifvqen0","pricing_plan_id":"free"},{"bike_id":"496fc879-c6a2-4335-9eab-2fdd6a6f8bf1","system_id":"levelo_inurba_marseille","lat":43.33051,"lon":5.38917,"is_reserved":false,"is_disabled":false,"rental_uris":{"android":"levelo://app?vid=496fc879-c6a2-4335-9eab-2fdd6a6f8bf1","ios":"levelo://app?vid=496fc879-c6a2-4335-9eab-2fdd6a6f8bf1"},"vehicle_type_id":"4","last_reported":1683396471,"current_range_meters":16000,"station_id":"ce4bhr92rcd13ifvqhrg","pricing_plan_id":"free"},{"bike_id":"845f9daa-48ec-4b18-b3c6-832c888d0003","system_id":"levelo_inurba_marseille","lat":43.295169,"lon":5.390426,"is_reserved":false,"is_disabled":false,"rental_uris":{"android":"levelo://app?vid=845f9daa-48ec-4b18-b3c6-832c888d0003","ios":"levelo://app?vid=845f9daa-48ec-4b18-b3c6-832c888d0003"},"vehicle_type_id":"4","last_reported":1683396471,"current_range_meters":5200,"station_id":"ce4bh3p2rcd13ifvqdp0","pricing_plan_id":"free"},{"bike_id":"90f80e0a-97e3-4dac-a214-28330ae97bbd","system_id":"levelo_inurba_marseille","lat":43.295169,"lon":5.390426,"is_reserved":false,"is_disabled":false,"rental_uris":{"android":"levelo://app?vid=90f80e0a-97e3-4dac-a214-28330ae97bbd","ios":"levelo://app?vid=90f80e0a-97e3-4dac-a214-28330ae97bbd"},"vehicle_type_id":"4","last_reported":1683396471,"current_range_meters":26400,"station_id":"ce4bh3p2rcd13ifvqdp0","pricing_plan_id":"free"},{"bike_id":"a0daa19e-dd83-4532-95e3-07adec22bf6f","system_id":"levelo_inurba_marseille","lat":43.2901,"lon":5.381269,"is_reserved":false,"is_disabled":false,"rental_uris":{"android":"levelo://app?vid=a0daa19e-dd83-4532-95e3-07adec22bf6f","ios":"levelo://app?vid=a0daa19e-dd83-4532-95e3-07adec22bf6f"},"vehicle_type_id":"4","last_reported":1683396471,"current_range_meters":800,"station_id":"ce4bh4p2rcd13ifvqe1g","pricing_plan_id":"free"},{"bike_id":"72cd1698-d572-4658-9f44-844478311b81","system_id":"levelo_inurba_marseille","lat":43.28856,"lon":5.358371,"is_reserved":false,"is_disabled":false,"rental_uris":{"android":"levelo://app?vid=72cd1698-d572-4658-9f44-844478311b81","ios":"levelo://app?vid=72cd1698-d572-4658-9f44-844478311b81"},"vehicle_type_id":"4","last_reported":1683396471,"current_range_meters":30800,"station_id":"ce4bhb12rcd13ifvqem0","pricing_plan_id":"free"},{"bike_id":"ab5b40d5-f1f4-41c3-9ac7-67584e63c24b","system_id":"levelo_inurba_marseille","lat":43.290094,"lon":5.381264,"is_reserved":false,"is_disabled":false,"rental_uris":{"android":"levelo://app?vid=ab5b40d5-f1f4-41c3-9ac7-67584e63c24b","ios":"levelo://app?vid=ab5b40d5-f1f4-41c3-9ac7-67584e63c24b"},"vehicle_type_id":"4","last_reported":1683396471,"current_range_meters":0,"station_id":"ce4bh4p2rcd13ifvqe1g","pricing_plan_id":"free"},{"bike_id":"db3d2812-6616-40a6-a4fd-b96cf7ca6d41","system_id":"levelo_inurba_marseille","lat":43.28856,"lon":5.358371,"is_reserved":false,"is_disabled":false,"rental_uris":{"android":"levelo://app?vid=db3d2812-6616-40a6-a4fd-b96cf7ca6d41","ios":"levelo://app?vid=db3d2812-6616-40a6-a4fd-b96cf7ca6d41"},"vehicle_type_id":"4","last_reported":1683396471,"current_range_meters":17200,"station_id":"ce4bhb12rcd13ifvqem0","pricing_plan_id":"free"},{"bike_id":"abdb4e7c-eaaa-4eeb-ad88-6040f22e8d98","system_id":"levelo_inurba_marseille","lat":43.28856,"lon":5.358371,"is_reserved":false,"is_disabled":false,"rental_uris":{"android":"levelo://app?vid=abdb4e7c-eaaa-4eeb-ad88-6040f22e8d98","ios":"levelo://app?vid=abdb4e7c-eaaa-4eeb-ad88-6040f22e8d98"},"vehicle_type_id":"4","last_reported":1683396471,"current_range_meters":12400,"station_id":"ce4bhb12rcd13ifvqem0","pricing_plan_id":"free"},{"bike_id":"74597e76-f17d-43f9-917e-fca2f9c9de6f","system_id":"levelo_inurba_marseille","lat":43.28856,"lon":5.358371,"is_reserved":false,"is_disabled":false,"rental_uris":{"android":"levelo://app?vid=74597e76-f17d-43f9-917e-fca2f9c9de6f","ios":"levelo://app?vid=74597e76-f17d-43f9-917e-fca2f9c9de6f"},"vehicle_type_id":"4","last_reported":1683396471,"current_range_meters":3600,"station_id":"ce4bhb12rcd13ifvqem0","pricing_plan_id":"free"},{"bike_id":"34320fce-24bb-4291-be42-2c361aed67f0","system_id":"levelo_inurba_marseille","lat":43.33738,"lon":5.37449,"is_reserved":false,"is_disabled":false,"rental_uris":{"android":"levelo://app?vid=34320fce-24bb-4291-be42-2c361aed67f0","ios":"levelo://app?vid=34320fce-24bb-4291-be42-2c361aed67f0"},"vehicle_type_id":"4","last_reported":1683396471,"current_range_meters":23200,"station_id":"","pricing_plan_id":"free"},{"bike_id":"d1338cde-b3d1-46b1-8800-7a50c92c327c","system_id":"levelo_inurba_marseille","lat":43.3375,"lon":5.3743,"is_reserved":false,"is_disabled":false,"rental_uris":{"android":"levelo://app?vid=d1338cde-b3d1-46b1-8800-7a50c92c327c","ios":"levelo://app?vid=d1338cde-b3d1-46b1-8800-7a50c92c327c"},"vehicle_type_id":"4","last_reported":1683396471,"current_range_meters":26400,"station_id":"","pricing_plan_id":"free"},{"bike_id":"ab7b8dc5-9722-47e7-8a78-100d1a674f6d","system_id":"levelo_inurba_marseille","lat":43.3375,"lon":5.37459,"is_reserved":false,"is_disabled":false,"rental_uris":{"android":"levelo://app?vid=ab7b8dc5-9722-47e7-8a78-100d1a674f6d","ios":"levelo://app?vid=ab7b8dc5-9722-47e7-8a78-100d1a674f6d"},"vehicle_type_id":"4","last_reported":1683396471,"current_range_meters":6400,"station_id":"","pricing_plan_id":"free"},{"bike_id":"20083ae5-f09f-4d10-9758-3cdd331d6a45","system_id":"levelo_inurba_marseille","lat":43.33753,"lon":5.37474,"is_reserved":false,"is_disabled":false,"rental_uris":{"android":"levelo://app?vid=20083ae5-f09f-4d10-9758-3cdd331d6a45","ios":"levelo://app?vid=20083ae5-f09f-4d10-9758-3cdd331d6a45"},"vehicle_type_id":"4","last_reported":1683396471,"current_range_meters":14800,"station_id":"","pricing_plan_id":"free"},{"bike_id":"cc5900b6-b927-49fc-82db-4d13a3d02316","system_id":"levelo_inurba_marseille","lat":43.33752,"lon":5.37486,"is_reserved":false,"is_disabled":false,"rental_uris":{"android":"levelo://app?vid=cc5900b6-b927-49fc-82db-4d13a3d02316","ios":"levelo://app?vid=cc5900b6-b927-49fc-82db-4d13a3d02316"},"vehicle_type_id":"4","last_reported":1683396471,"current_range_meters":25600,"station_id":"","pricing_plan_id":"free"},{"bike_id":"24cd6102-a142-4649-b5c8-b3b6471c5235","system_id":"levelo_inurba_marseille","lat":43.30642,"lon":5.401031,"is_reserved":false,"is_disabled":false,"rental_uris":{"android":"levelo://app?vid=24cd6102-a142-4649-b5c8-b3b6471c5235","ios":"levelo://app?vid=24cd6102-a142-4649-b5c8-b3b6471c5235"},"vehicle_type_id":"4","last_reported":1683396471,"current_range_meters":6000,"station_id":"ce4bh112rcd13ifvqda0","pricing_plan_id":"free"},{"bike_id":"db84b57a-c242-4d31-93f3-e9f12005c4b3","system_id":"levelo_inurba_marseille","lat":43.33762,"lon":5.37494,"is_reserved":false,"is_disabled":false,"rental_uris":{"android":"levelo://app?vid=db84b57a-c242-4d31-93f3-e9f12005c4b3","ios":"levelo://app?vid=db84b57a-c242-4d31-93f3-e9f12005c4b3"},"vehicle_type_id":"4","last_reported":1683396471,"current_range_meters":26400,"station_id":"","pricing_plan_id":"free"},{"bike_id":"48e2ca84-bc72-4772-9430-4a9f74885d2d","system_id":"levelo_inurba_marseille","lat":43.30642,"lon":5.401031,"is_reserved":false,"is_disabled":false,"rental_uris":{"android":"levelo://app?vid=48e2ca84-bc72-4772-9430-4a9f74885d2d","ios":"levelo://app?vid=48e2ca84-bc72-4772-9430-4a9f74885d2d"},"vehicle_type_id":"4","last_reported":1683396471,"current_range_meters":18400,"station_id":"ce4bh112rcd13ifvqda0","pricing_plan_id":"free"},{"bike_id":"c452a78d-8a25-4dac-a034-b406e8dd2a51","system_id":"levelo_inurba_marseille","lat":43.28774,"lon":5.35924,"is_reserved":false,"is_disabled":false,"rental_uris":{"android":"levelo://app?vid=c452a78d-8a25-4dac-a034-b406e8dd2a51","ios":"levelo://app?vid=c452a78d-8a25-4dac-a034-b406e8dd2a51"},"vehicle_type_id":"4","last_reported":1683396471,"current_range_meters":4000,"station_id":"","pricing_plan_id":"free"},{"bike_id":"fd6e6508-e5e0-4c17-9de1-7b3db43615a8","system_id":"levelo_inurba_marseille","lat":43.286591,"lon":5.363346,"is_reserved":false,"is_disabled":false,"rental_uris":{"android":"levelo://app?vid=fd6e6508-e5e0-4c17-9de1-7b3db43615a8","ios":"levelo://app?vid=fd6e6508-e5e0-4c17-9de1-7b3db43615a8"},"vehicle_type_id":"4","last_reported":1683396471,"current_range_meters":12800,"station_id":"ce4bhah2rcd13ifvqej0","pricing_plan_id":"free"},{"bike_id":"7e4cbc08-b7b3-41c1-9383-29daf2c53f6e","system_id":"levelo_inurba_marseille","lat":43.286591,"lon":5.363346,"is_reserved":false,"is_disabled":false,"rental_uris":{"android":"levelo://app?vid=7e4cbc08-b7b3-41c1-9383-29daf2c53f6e","ios":"levelo://app?vid=7e4cbc08-b7b3-41c1-9383-29daf2c53f6e"},"vehicle_type_id":"4","last_reported":1683396471,"current_range_meters":0,"station_id":"ce4bhah2rcd13ifvqej0","pricing_plan_id":"free"},{"bike_id":"50f7112f-fdcd-4b7d-b262-1951b54b57f7","system_id":"levelo_inurba_marseille","lat":43.286593,"lon":5.363346,"is_reserved":false,"is_disabled":false,"rental_uris":{"android":"levelo://app?vid=50f7112f-fdcd-4b7d-b262-1951b54b57f7","ios":"levelo://app?vid=50f7112f-fdcd-4b7d-b262-1951b54b57f7"},"vehicle_type_id":"4","last_reported":1683396471,"current_range_meters":18000,"station_id":"ce4bhah2rcd13ifvqej0","pricing_plan_id":"free"},{"bike_id":"acef0a63-6e8a-4f30-bd77-b259feeabfdb","system_id":"levelo_inurba_marseille","lat":43.295194,"lon":5.39397,"is_reserved":false,"is_disabled":false,"rental_uris":{"android":"levelo://app?vid=acef0a63-6e8a-4f30-bd77-b259feeabfdb","ios":"levelo://app?vid=acef0a63-6e8a-4f30-bd77-b259feeabfdb"},"vehicle_type_id":"4","last_reported":1683396471,"current_range_meters":4800,"station_id":"ce4bh292rcd13ifvqdf0","pricing_plan_id":"free"},{"bike_id":"3fee6514-5c86-42b2-aab0-a80413a236d6","system_id":"levelo_inurba_marseille","lat":43.295194,"lon":5.39397,"is_reserved":false,"is_disabled":false,"rental_uris":{"android":"levelo://app?vid=3fee6514-5c86-42b2-aab0-a80413a236d6","ios":"levelo://app?vid=3fee6514-5c86-42b2-aab0-a80413a236d6"},"vehicle_type_id":"4","last_reported":1683396471,"current_range_meters":5600,"station_id":"ce4bh292rcd13ifvqdf0","pricing_plan_id":"free"},{"bike_id":"77e932b5-5a3e-4aac-9db5-b4b1915c2ad7","system_id":"levelo_inurba_marseille","lat":43.295196,"lon":5.39397,"is_reserved":false,"is_disabled":false,"rental_uris":{"android":"levelo://app?vid=77e932b5-5a3e-4aac-9db5-b4b1915c2ad7","ios":"levelo://app?vid=77e932b5-5a3e-4aac-9db5-b4b1915c2ad7"},"vehicle_type_id":"4","last_reported":1683396471,"current_range_meters":12800,"station_id":"ce4bh292rcd13ifvqdf0","pricing_plan_id":"free"},{"bike_id":"54512233-af04-42ec-8115-52fb266fb3b2","system_id":"levelo_inurba_marseille","lat":43.295196,"lon":5.39397,"is_reserved":false,"is_disabled":false,"rental_uris":{"android":"levelo://app?vid=54512233-af04-42ec-8115-52fb266fb3b2","ios":"levelo://app?vid=54512233-af04-42ec-8115-52fb266fb3b2"},"vehicle_type_id":"4","last_reported":1683396471,"current_range_meters":6000,"station_id":"ce4bh292rcd13ifvqdf0","pricing_plan_id":"free"},{"bike_id":"4d998482-866a-4698-a96c-6394b8cbf81b","system_id":"levelo_inurba_marseille","lat":43.295196,"lon":5.39397,"is_reserved":false,"is_disabled":false,"rental_uris":{"android":"levelo://app?vid=4d998482-866a-4698-a96c-6394b8cbf81b","ios":"levelo://app?vid=4d998482-866a-4698-a96c-6394b8cbf81b"},"vehicle_type_id":"4","last_reported":1683396471,"current_range_meters":20000,"station_id":"ce4bh292rcd13ifvqdf0","pricing_plan_id":"free"},{"bike_id":"b0a920f0-a137-4905-bddf-2712249ef42f","system_id":"levelo_inurba_marseille","lat":43.29034,"lon":5.38624,"is_reserved":false,"is_disabled":false,"rental_uris":{"android":"levelo://app?vid=b0a920f0-a137-4905-bddf-2712249ef42f","ios":"levelo://app?vid=b0a920f0-a137-4905-bddf-2712249ef42f"},"vehicle_type_id":"4","last_reported":1683396471,"current_range_meters":0,"station_id":"ce4bh4p2rcd13ifvqe0g","pricing_plan_id":"free"},{"bike_id":"30ab623a-d814-49bd-8884-0516013e32a5","system_id":"levelo_inurba_marseille","lat":43.302759,"lon":5.400793,"is_reserved":false,"is_disabled":false,"rental_uris":{"android":"levelo://app?vid=30ab623a-d814-49bd-8884-0516013e32a5","ios":"levelo://app?vid=30ab623a-d814-49bd-8884-0516013e32a5"},"vehicle_type_id":"4","last_reported":1683396471,"current_range_meters":1600,"station_id":"ce4bgvh2rcd13ifvqcs0","pricing_plan_id":"free"},{"bike_id":"aadf92e1-346c-462b-84a9-6853a80e5742","system_id":"levelo_inurba_marseille","lat":43.29034,"lon":5.38632,"is_reserved":false,"is_disabled":false,"rental_uris":{"android":"levelo://app?vid=aadf92e1-346c-462b-84a9-6853a80e5742","ios":"levelo://app?vid=aadf92e1-346c-462b-84a9-6853a80e5742"},"vehicle_type_id":"4","last_reported":1683396471,"current_range_meters":27600,"station_id":"ce4bh4p2rcd13ifvqe0g","pricing_plan_id":"free"},{"bike_id":"a5cd6c75-d024-4a4b-9fca-2386da4e3f7c","system_id":"levelo_inurba_marseille","lat":43.302759,"lon":5.400793,"is_reserved":false,"is_disabled":false,"rental_uris":{"android":"levelo://app?vid=a5cd6c75-d024-4a4b-9fca-2386da4e3f7c","ios":"levelo://app?vid=a5cd6c75-d024-4a4b-9fca-2386da4e3f7c"},"vehicle_type_id":"4","last_reported":1683396471,"current_range_meters":9200,"station_id":"ce4bgvh2rcd13ifvqcs0","pricing_plan_id":"free"},{"bike_id":"a951bdd1-0f8c-42d3-b722-d9a5b51b7253","system_id":"levelo_inurba_marseille","lat":43.29035,"lon":5.3864,"is_reserved":false,"is_disabled":false,"rental_uris":{"android":"levelo://app?vid=a951bdd1-0f8c-42d3-b722-d9a5b51b7253","ios":"levelo://app?vid=a951bdd1-0f8c-42d3-b722-d9a5b51b7253"},"vehicle_type_id":"4","last_reported":1683396471,"current_range_meters":12400,"station_id":"ce4bh4p2rcd13ifvqe0g","pricing_plan_id":"free"},{"bike_id":"d4978cea-464a-4b59-966b-c9a5eb6865fe","system_id":"levelo_inurba_marseille","lat":43.29036,"lon":5.38649,"is_reserved":false,"is_disabled":false,"rental_uris":{"android":"levelo://app?vid=d4978cea-464a-4b59-966b-c9a5eb6865fe","ios":"levelo://app?vid=d4978cea-464a-4b59-966b-c9a5eb6865fe"},"vehicle_type_id":"4","last_reported":1683396471,"current_range_meters":10800,"station_id":"ce4bh4p2rcd13ifvqe0g","pricing_plan_id":"free"},{"bike_id":"8033fc39-82b1-4db6-a1fd-54e95d4d9ff8","system_id":"levelo_inurba_marseille","lat":43.29032,"lon":5.38646,"is_reserved":false,"is_disabled":false,"rental_uris":{"android":"levelo://app?vid=8033fc39-82b1-4db6-a1fd-54e95d4d9ff8","ios":"levelo://app?vid=8033fc39-82b1-4db6-a1fd-54e95d4d9ff8"},"vehicle_type_id":"4","last_reported":1683396471,"current_range_meters":16800,"station_id":"ce4bh4p2rcd13ifvqe0g","pricing_plan_id":"free"},{"bike_id":"9fa04da5-ddb8-4a61-8069-ee46801eff33","system_id":"levelo_inurba_marseille","lat":43.3024,"lon":5.40055,"is_reserved":false,"is_disabled":false,"rental_uris":{"android":"levelo://app?vid=9fa04da5-ddb8-4a61-8069-ee46801eff33","ios":"levelo://app?vid=9fa04da5-ddb8-4a61-8069-ee46801eff33"},"vehicle_type_id":"4","last_reported":1683396471,"current_range_meters":20800,"station_id":"","pricing_plan_id":"free"},{"bike_id":"773a64d3-a20f-4142-80c6-6c25f29d0c8c","system_id":"levelo_inurba_marseille","lat":43.29022,"lon":5.38645,"is_reserved":false,"is_disabled":false,"rental_uris":{"android":"levelo://app?vid=773a64d3-a20f-4142-80c6-6c25f29d0c8c","ios":"levelo://app?vid=773a64d3-a20f-4142-80c6-6c25f29d0c8c"},"vehicle_type_id":"4","last_reported":1683396471,"current_range_meters":5600,"station_id":"ce4bh4p2rcd13ifvqe0g","pricing_plan_id":"free"},{"bike_id":"93350c45-b50a-45bc-bda8-a381773e30c1","system_id":"levelo_inurba_marseille","lat":43.30769,"lon":5.40294,"is_reserved":false,"is_disabled":false,"rental_uris":{"android":"levelo://app?vid=93350c45-b50a-45bc-bda8-a381773e30c1","ios":"levelo://app?vid=93350c45-b50a-45bc-bda8-a381773e30c1"},"vehicle_type_id":"4","last_reported":1683396471,"current_range_meters":16400,"station_id":"","pricing_plan_id":"free"},{"bike_id":"ba5ae2eb-a982-4c86-95c1-a596365ac030","system_id":"levelo_inurba_marseille","lat":43.286039,"lon":5.370681,"is_reserved":false,"is_disabled":false,"rental_uris":{"android":"levelo://app?vid=ba5ae2eb-a982-4c86-95c1-a596365ac030","ios":"levelo://app?vid=ba5ae2eb-a982-4c86-95c1-a596365ac030"},"vehicle_type_id":"4","last_reported":1683396471,"current_range_meters":4800,"station_id":"ce4bht12rcd13ifvqi60","pricing_plan_id":"free"},{"bike_id":"43a1029a-2d64-418e-8363-bc1b463b16a0","system_id":"levelo_inurba_marseille","lat":43.316517,"lon":5.404375,"is_reserved":false,"is_disabled":false,"rental_uris":{"android":"levelo://app?vid=43a1029a-2d64-418e-8363-bc1b463b16a0","ios":"levelo://app?vid=43a1029a-2d64-418e-8363-bc1b463b16a0"},"vehicle_type_id":"4","last_reported":1683396471,"current_range_meters":15200,"station_id":"ce4bh012rcd13ifvqd00","pricing_plan_id":"free"},{"bike_id":"b5a206fc-c863-4e09-8be9-729b88c069dd","system_id":"levelo_inurba_marseille","lat":43.287184,"lon":5.37937,"is_reserved":false,"is_disabled":false,"rental_uris":{"android":"levelo://app?vid=b5a206fc-c863-4e09-8be9-729b88c069dd","ios":"levelo://app?vid=b5a206fc-c863-4e09-8be9-729b88c069dd"},"vehicle_type_id":"4","last_reported":1683396471,"current_range_meters":26800,"station_id":"ce4bh9p2rcd13ifvqec0","pricing_plan_id":"free"},{"bike_id":"4f8d7423-4ff3-44ad-ad83-cd803cdb69ac","system_id":"levelo_inurba_marseille","lat":43.316517,"lon":5.404375,"is_reserved":false,"is_disabled":false,"rental_uris":{"android":"levelo://app?vid=4f8d7423-4ff3-44ad-ad83-cd803cdb69ac","ios":"levelo://app?vid=4f8d7423-4ff3-44ad-ad83-cd803cdb69ac"},"vehicle_type_id":"4","last_reported":1683396471,"current_range_meters":23600,"station_id":"ce4bh012rcd13ifvqd00","pricing_plan_id":"free"},{"bike_id":"806c17c4-b1f0-4580-91cd-75a6a733323a","system_id":"levelo_inurba_marseille","lat":43.316517,"lon":5.404375,"is_reserved":false,"is_disabled":false,"rental_uris":{"android":"levelo://app?vid=806c17c4-b1f0-4580-91cd-75a6a733323a","ios":"levelo://app?vid=806c17c4-b1f0-4580-91cd-75a6a733323a"},"vehicle_type_id":"4","last_reported":1683396471,"current_range_meters":22000,"station_id":"ce4bh012rcd13ifvqd00","pricing_plan_id":"free"},{"bike_id":"ceecab3b-9c49-4d70-88c1-7ef65c00b88d","system_id":"levelo_inurba_marseille","lat":43.316517,"lon":5.404375,"is_reserved":false,"is_disabled":false,"rental_uris":{"android":"levelo://app?vid=ceecab3b-9c49-4d70-88c1-7ef65c00b88d","ios":"levelo://app?vid=ceecab3b-9c49-4d70-88c1-7ef65c00b88d"},"vehicle_type_id":"4","last_reported":1683396471,"current_range_meters":24000,"station_id":"ce4bh012rcd13ifvqd00","pricing_plan_id":"free"},{"bike_id":"23aeeff0-96bb-4a3d-8a6d-d84686e9b8ab","system_id":"levelo_inurba_marseille","lat":43.316517,"lon":5.404375,"is_reserved":false,"is_disabled":false,"rental_uris":{"android":"levelo://app?vid=23aeeff0-96bb-4a3d-8a6d-d84686e9b8ab","ios":"levelo://app?vid=23aeeff0-96bb-4a3d-8a6d-d84686e9b8ab"},"vehicle_type_id":"4","last_reported":1683396471,"current_range_meters":0,"station_id":"ce4bh012rcd13ifvqd00","pricing_plan_id":"free"},{"bike_id":"27865f6e-c046-4416-9233-48156b6bae2c","system_id":"levelo_inurba_marseille","lat":43.33482,"lon":5.38984,"is_reserved":false,"is_disabled":false,"rental_uris":{"android":"levelo://app?vid=27865f6e-c046-4416-9233-48156b6bae2c","ios":"levelo://app?vid=27865f6e-c046-4416-9233-48156b6bae2c"},"vehicle_type_id":"4","last_reported":1683396471,"current_range_meters":28800,"station_id":"","pricing_plan_id":"free"},{"bike_id":"7e1b43bd-5287-4cdb-8364-7445e2d2a9e8","system_id":"levelo_inurba_marseille","lat":43.291994,"lon":5.392907,"is_reserved":false,"is_disabled":false,"rental_uris":{"android":"levelo://app?vid=7e1b43bd-5287-4cdb-8364-7445e2d2a9e8","ios":"levelo://app?vid=7e1b43bd-5287-4cdb-8364-7445e2d2a9e8"},"vehicle_type_id":"4","last_reported":1683396471,"current_range_meters":24000,"station_id":"ce4bh192rcd13ifvqdd0","pricing_plan_id":"free"},{"bike_id":"8a16f206-bf77-45b6-82fa-92ac3503e0ff","system_id":"levelo_inurba_marseille","lat":43.291994,"lon":5.392907,"is_reserved":false,"is_disabled":false,"rental_uris":{"android":"levelo://app?vid=8a16f206-bf77-45b6-82fa-92ac3503e0ff","ios":"levelo://app?vid=8a16f206-bf77-45b6-82fa-92ac3503e0ff"},"vehicle_type_id":"4","last_reported":1683396471,"current_range_meters":12000,"station_id":"ce4bh192rcd13ifvqdd0","pricing_plan_id":"free"},{"bike_id":"32166572-bb71-40df-acaf-0c3830e08acd","system_id":"levelo_inurba_marseille","lat":43.284534,"lon":5.358662,"is_reserved":false,"is_disabled":false,"rental_uris":{"android":"levelo://app?vid=32166572-bb71-40df-acaf-0c3830e08acd","ios":"levelo://app?vid=32166572-bb71-40df-acaf-0c3830e08acd"},"vehicle_type_id":"4","last_reported":1683396471,"current_range_meters":25600,"station_id":"ce4bhah2rcd13ifvqei0","pricing_plan_id":"free"},{"bike_id":"fa38f4a2-9a72-41f5-9fdc-39a5d72bc203","system_id":"levelo_inurba_marseille","lat":43.295713,"lon":5.399639,"is_reserved":false,"is_disabled":false,"rental_uris":{"android":"levelo://app?vid=fa38f4a2-9a72-41f5-9fdc-39a5d72bc203","ios":"levelo://app?vid=fa38f4a2-9a72-41f5-9fdc-39a5d72bc203"},"vehicle_type_id":"4","last_reported":1683396471,"current_range_meters":2000,"station_id":"ce4bh312rcd13ifvqdj0","pricing_plan_id":"free"},{"bike_id":"0b43c8ac-4d1c-4389-a2f0-7356e609787a","system_id":"levelo_inurba_marseille","lat":43.295713,"lon":5.399639,"is_reserved":false,"is_disabled":false,"rental_uris":{"android":"levelo://app?vid=0b43c8ac-4d1c-4389-a2f0-7356e609787a","ios":"levelo://app?vid=0b43c8ac-4d1c-4389-a2f0-7356e609787a"},"vehicle_type_id":"4","last_reported":1683396471,"current_range_meters":16400,"station_id":"ce4bh312rcd13ifvqdj0","pricing_plan_id":"free"},{"bike_id":"7d4e7848-c482-4c9c-9b63-f91d670727ba","system_id":"levelo_inurba_marseille","lat":43.295713,"lon":5.399639,"is_reserved":false,"is_disabled":false,"rental_uris":{"android":"levelo://app?vid=7d4e7848-c482-4c9c-9b63-f91d670727ba","ios":"levelo://app?vid=7d4e7848-c482-4c9c-9b63-f91d670727ba"},"vehicle_type_id":"4","last_reported":1683396471,"current_range_meters":0,"station_id":"ce4bh312rcd13ifvqdj0","pricing_plan_id":"free"},{"bike_id":"a5e44d59-30c5-435c-a145-d2b5610a3f1b","system_id":"levelo_inurba_marseille","lat":43.295713,"lon":5.399639,"is_reserved":false,"is_disabled":false,"rental_uris":{"android":"levelo://app?vid=a5e44d59-30c5-435c-a145-d2b5610a3f1b","ios":"levelo://app?vid=a5e44d59-30c5-435c-a145-d2b5610a3f1b"},"vehicle_type_id":"4","last_reported":1683396471,"current_range_meters":24000,"station_id":"ce4bh312rcd13ifvqdj0","pricing_plan_id":"free"},{"bike_id":"ddda9a1d-b069-4c0a-93f7-5494192a091e","system_id":"levelo_inurba_marseille","lat":43.286595,"lon":5.386795,"is_reserved":false,"is_disabled":false,"rental_uris":{"android":"levelo://app?vid=ddda9a1d-b069-4c0a-93f7-5494192a091e","ios":"levelo://app?vid=ddda9a1d-b069-4c0a-93f7-5494192a091e"},"vehicle_type_id":"4","last_reported":1683396471,"current_range_meters":0,"station_id":"ce4bh492rcd13ifvqdug","pricing_plan_id":"free"},{"bike_id":"9d15d15c-61cc-4e44-9fdd-13284d8c4606","system_id":"levelo_inurba_marseille","lat":43.337168,"lon":5.391825,"is_reserved":false,"is_disabled":false,"rental_uris":{"android":"levelo://app?vid=9d15d15c-61cc-4e44-9fdd-13284d8c4606","ios":"levelo://app?vid=9d15d15c-61cc-4e44-9fdd-13284d8c4606"},"vehicle_type_id":"4","last_reported":1683396471,"current_range_meters":30400,"station_id":"ce4bhr92rcd13ifvqhsg","pricing_plan_id":"free"},{"bike_id":"bff45db0-8068-4648-ad77-86c507a1b75d","system_id":"levelo_inurba_marseille","lat":43.33717,"lon":5.391857,"is_reserved":false,"is_disabled":false,"rental_uris":{"android":"levelo://app?vid=bff45db0-8068-4648-ad77-86c507a1b75d","ios":"levelo://app?vid=bff45db0-8068-4648-ad77-86c507a1b75d"},"vehicle_type_id":"4","last_reported":1683396471,"current_range_meters":9200,"station_id":"ce4bhr92rcd13ifvqhsg","pricing_plan_id":"free"},{"bike_id":"c9c4f49a-801c-4a26-8233-f9fb4c97e2ff","system_id":"levelo_inurba_marseille","lat":43.33717,"lon":5.391857,"is_reserved":false,"is_disabled":false,"rental_uris":{"android":"levelo://app?vid=c9c4f49a-801c-4a26-8233-f9fb4c97e2ff","ios":"levelo://app?vid=c9c4f49a-801c-4a26-8233-f9fb4c97e2ff"},"vehicle_type_id":"4","last_reported":1683396471,"current_range_meters":4800,"station_id":"ce4bhr92rcd13ifvqhsg","pricing_plan_id":"free"},{"bike_id":"227105aa-3981-4f0d-a701-71b756d4bdc3","system_id":"levelo_inurba_marseille","lat":43.284787,"lon":5.384116,"is_reserved":false,"is_disabled":false,"rental_uris":{"android":"levelo://app?vid=227105aa-3981-4f0d-a701-71b756d4bdc3","ios":"levelo://app?vid=227105aa-3981-4f0d-a701-71b756d4bdc3"},"vehicle_type_id":"4","last_reported":1683396471,"current_range_meters":23600,"station_id":"ce4bh512rcd13ifvqe3g","pricing_plan_id":"free"},{"bike_id":"ad3cdfdb-0864-4cce-8a5d-05a05de94244","system_id":"levelo_inurba_marseille","lat":43.30081,"lon":5.40568,"is_reserved":false,"is_disabled":false,"rental_uris":{"android":"levelo://app?vid=ad3cdfdb-0864-4cce-8a5d-05a05de94244","ios":"levelo://app?vid=ad3cdfdb-0864-4cce-8a5d-05a05de94244"},"vehicle_type_id":"4","last_reported":1683396471,"current_range_meters":19600,"station_id":"","pricing_plan_id":"free"},{"bike_id":"4ed7a428-e9e7-4ffb-9f52-a70f968674b8","system_id":"levelo_inurba_marseille","lat":43.284793,"lon":5.384119,"is_reserved":false,"is_disabled":false,"rental_uris":{"android":"levelo://app?vid=4ed7a428-e9e7-4ffb-9f52-a70f968674b8","ios":"levelo://app?vid=4ed7a428-e9e7-4ffb-9f52-a70f968674b8"},"vehicle_type_id":"4","last_reported":1683396471,"current_range_meters":2800,"station_id":"ce4bh512rcd13ifvqe3g","pricing_plan_id":"free"},{"bike_id":"b3641a10-daaf-4f65-a5ae-7055c77496c0","system_id":"levelo_inurba_marseille","lat":43.284793,"lon":5.384119,"is_reserved":false,"is_disabled":false,"rental_uris":{"android":"levelo://app?vid=b3641a10-daaf-4f65-a5ae-7055c77496c0","ios":"levelo://app?vid=b3641a10-daaf-4f65-a5ae-7055c77496c0"},"vehicle_type_id":"4","last_reported":1683396471,"current_range_meters":30400,"station_id":"ce4bh512rcd13ifvqe3g","pricing_plan_id":"free"},{"bike_id":"99828481-7efd-456c-a8df-36166dc4b061","system_id":"levelo_inurba_marseille","lat":43.284793,"lon":5.384113,"is_reserved":false,"is_disabled":false,"rental_uris":{"android":"levelo://app?vid=99828481-7efd-456c-a8df-36166dc4b061","ios":"levelo://app?vid=99828481-7efd-456c-a8df-36166dc4b061"},"vehicle_type_id":"4","last_reported":1683396471,"current_range_meters":6800,"station_id":"ce4bh512rcd13ifvqe3g","pricing_plan_id":"free"},{"bike_id":"9e0a2ddb-8f0c-4a41-b68b-754b08df76dd","system_id":"levelo_inurba_marseille","lat":43.284793,"lon":5.384119,"is_reserved":false,"is_disabled":false,"rental_uris":{"android":"levelo://app?vid=9e0a2ddb-8f0c-4a41-b68b-754b08df76dd","ios":"levelo://app?vid=9e0a2ddb-8f0c-4a41-b68b-754b08df76dd"},"vehicle_type_id":"4","last_reported":1683396471,"current_range_meters":7600,"station_id":"ce4bh512rcd13ifvqe3g","pricing_plan_id":"free"},{"bike_id":"1857b72e-01ed-4dde-b991-3a2bc2976425","system_id":"levelo_inurba_marseille","lat":43.284793,"lon":5.384113,"is_reserved":false,"is_disabled":false,"rental_uris":{"android":"levelo://app?vid=1857b72e-01ed-4dde-b991-3a2bc2976425","ios":"levelo://app?vid=1857b72e-01ed-4dde-b991-3a2bc2976425"},"vehicle_type_id":"4","last_reported":1683396471,"current_range_meters":13200,"station_id":"ce4bh512rcd13ifvqe3g","pricing_plan_id":"free"},{"bike_id":"3e805330-db88-4f49-afb4-9d14463e8246","system_id":"levelo_inurba_marseille","lat":43.284217,"lon":5.349697,"is_reserved":false,"is_disabled":false,"rental_uris":{"android":"levelo://app?vid=3e805330-db88-4f49-afb4-9d14463e8246","ios":"levelo://app?vid=3e805330-db88-4f49-afb4-9d14463e8246"},"vehicle_type_id":"4","last_reported":1683396471,"current_range_meters":0,"station_id":"ce4bhbh2rcd13ifvqepg","pricing_plan_id":"free"},{"bike_id":"3dd10639-3d18-43a5-8f00-6bd3558fbb1c","system_id":"levelo_inurba_marseille","lat":43.284159,"lon":5.349798,"is_reserved":false,"is_disabled":false,"rental_uris":{"android":"levelo://app?vid=3dd10639-3d18-43a5-8f00-6bd3558fbb1c","ios":"levelo://app?vid=3dd10639-3d18-43a5-8f00-6bd3558fbb1c"},"vehicle_type_id":"4","last_reported":1683396471,"current_range_meters":6800,"station_id":"","pricing_plan_id":"free"},{"bike_id":"1360ac60-e319-4487-92b0-917476307290","system_id":"levelo_inurba_marseille","lat":43.292724,"lon":5.401131,"is_reserved":false,"is_disabled":false,"rental_uris":{"android":"levelo://app?vid=1360ac60-e319-4487-92b0-917476307290","ios":"levelo://app?vid=1360ac60-e319-4487-92b0-917476307290"},"vehicle_type_id":"4","last_reported":1683396471,"current_range_meters":0,"station_id":"ce4bh312rcd13ifvqdk0","pricing_plan_id":"free"},{"bike_id":"f5b5d75a-7d80-49a4-97ec-46f2b6cec69e","system_id":"levelo_inurba_marseille","lat":43.292724,"lon":5.401131,"is_reserved":false,"is_disabled":false,"rental_uris":{"android":"levelo://app?vid=f5b5d75a-7d80-49a4-97ec-46f2b6cec69e","ios":"levelo://app?vid=f5b5d75a-7d80-49a4-97ec-46f2b6cec69e"},"vehicle_type_id":"4","last_reported":1683396471,"current_range_meters":6800,"station_id":"ce4bh312rcd13ifvqdk0","pricing_plan_id":"free"},{"bike_id":"82bf90d4-0d96-4d15-a42f-04ea27ff5e7a","system_id":"levelo_inurba_marseille","lat":43.292724,"lon":5.401131,"is_reserved":false,"is_disabled":false,"rental_uris":{"android":"levelo://app?vid=82bf90d4-0d96-4d15-a42f-04ea27ff5e7a","ios":"levelo://app?vid=82bf90d4-0d96-4d15-a42f-04ea27ff5e7a"},"vehicle_type_id":"4","last_reported":1683396471,"current_range_meters":26000,"station_id":"ce4bh312rcd13ifvqdk0","pricing_plan_id":"free"},{"bike_id":"1ce4cef1-ed8a-4d63-99a8-93bba2e15136","system_id":"levelo_inurba_marseille","lat":43.29278,"lon":5.40134,"is_reserved":false,"is_disabled":false,"rental_uris":{"android":"levelo://app?vid=1ce4cef1-ed8a-4d63-99a8-93bba2e15136","ios":"levelo://app?vid=1ce4cef1-ed8a-4d63-99a8-93bba2e15136"},"vehicle_type_id":"4","last_reported":1683396471,"current_range_meters":0,"station_id":"ce4bh312rcd13ifvqdk0","pricing_plan_id":"free"},{"bike_id":"76242f32-c407-44d4-84d7-fa1d50b0f9dc","system_id":"levelo_inurba_marseille","lat":43.32444,"lon":5.40831,"is_reserved":false,"is_disabled":false,"rental_uris":{"android":"levelo://app?vid=76242f32-c407-44d4-84d7-fa1d50b0f9dc","ios":"levelo://app?vid=76242f32-c407-44d4-84d7-fa1d50b0f9dc"},"vehicle_type_id":"4","last_reported":1683396471,"current_range_meters":2000,"station_id":"","pricing_plan_id":"free"},{"bike_id":"33afa7b2-2a5c-447e-a1a3-19548d644379","system_id":"levelo_inurba_marseille","lat":43.28045,"lon":5.36947,"is_reserved":false,"is_disabled":false,"rental_uris":{"android":"levelo://app?vid=33afa7b2-2a5c-447e-a1a3-19548d644379","ios":"levelo://app?vid=33afa7b2-2a5c-447e-a1a3-19548d644379"},"vehicle_type_id":"4","last_reported":1683396471,"current_range_meters":12400,"station_id":"ce4bha12rcd13ifvqef0","pricing_plan_id":"free"},{"bike_id":"ba034449-a85a-472d-af23-4ca8e18a801a","system_id":"levelo_inurba_marseille","lat":43.280382,"lon":5.369291,"is_reserved":false,"is_disabled":false,"rental_uris":{"android":"levelo://app?vid=ba034449-a85a-472d-af23-4ca8e18a801a","ios":"levelo://app?vid=ba034449-a85a-472d-af23-4ca8e18a801a"},"vehicle_type_id":"4","last_reported":1683396471,"current_range_meters":0,"station_id":"ce4bha12rcd13ifvqef0","pricing_plan_id":"free"},{"bike_id":"50370add-e654-40ab-9ee4-c36b8862a1ce","system_id":"levelo_inurba_marseille","lat":43.28039,"lon":5.36936,"is_reserved":false,"is_disabled":false,"rental_uris":{"android":"levelo://app?vid=50370add-e654-40ab-9ee4-c36b8862a1ce","ios":"levelo://app?vid=50370add-e654-40ab-9ee4-c36b8862a1ce"},"vehicle_type_id":"4","last_reported":1683396471,"current_range_meters":0,"station_id":"ce4bha12rcd13ifvqef0","pricing_plan_id":"free"},{"bike_id":"98c39b1c-9e7a-44ec-a8ea-ac75789a6a6c","system_id":"levelo_inurba_marseille","lat":43.280382,"lon":5.369291,"is_reserved":false,"is_disabled":false,"rental_uris":{"android":"levelo://app?vid=98c39b1c-9e7a-44ec-a8ea-ac75789a6a6c","ios":"levelo://app?vid=98c39b1c-9e7a-44ec-a8ea-ac75789a6a6c"},"vehicle_type_id":"4","last_reported":1683396471,"current_range_meters":30000,"station_id":"ce4bha12rcd13ifvqef0","pricing_plan_id":"free"},{"bike_id":"ad148ed3-4756-476a-9d61-b9640a31d26e","system_id":"levelo_inurba_marseille","lat":43.28037,"lon":5.36954,"is_reserved":false,"is_disabled":false,"rental_uris":{"android":"levelo://app?vid=ad148ed3-4756-476a-9d61-b9640a31d26e","ios":"levelo://app?vid=ad148ed3-4756-476a-9d61-b9640a31d26e"},"vehicle_type_id":"4","last_reported":1683396471,"current_range_meters":24000,"station_id":"ce4bha12rcd13ifvqef0","pricing_plan_id":"free"},{"bike_id":"8d8cee22-38bc-40f2-a1d7-6ccfcc2769ef","system_id":"levelo_inurba_marseille","lat":43.280382,"lon":5.369291,"is_reserved":false,"is_disabled":false,"rental_uris":{"android":"levelo://app?vid=8d8cee22-38bc-40f2-a1d7-6ccfcc2769ef","ios":"levelo://app?vid=8d8cee22-38bc-40f2-a1d7-6ccfcc2769ef"},"vehicle_type_id":"4","last_reported":1683396471,"current_range_meters":31600,"station_id":"ce4bha12rcd13ifvqef0","pricing_plan_id":"free"},{"bike_id":"fa541099-72bc-4e12-a8b6-0f17bbc79b3c","system_id":"levelo_inurba_marseille","lat":43.28034,"lon":5.36943,"is_reserved":false,"is_disabled":false,"rental_uris":{"android":"levelo://app?vid=fa541099-72bc-4e12-a8b6-0f17bbc79b3c","ios":"levelo://app?vid=fa541099-72bc-4e12-a8b6-0f17bbc79b3c"},"vehicle_type_id":"4","last_reported":1683396471,"current_range_meters":14000,"station_id":"ce4bha12rcd13ifvqef0","pricing_plan_id":"free"},{"bike_id":"980d1eb5-7021-4311-8bd9-5d8a5661d45b","system_id":"levelo_inurba_marseille","lat":43.28033,"lon":5.36938,"is_reserved":false,"is_disabled":false,"rental_uris":{"android":"levelo://app?vid=980d1eb5-7021-4311-8bd9-5d8a5661d45b","ios":"levelo://app?vid=980d1eb5-7021-4311-8bd9-5d8a5661d45b"},"vehicle_type_id":"4","last_reported":1683396471,"current_range_meters":0,"station_id":"ce4bha12rcd13ifvqef0","pricing_plan_id":"free"},{"bike_id":"4ef604d1-ffd1-4e66-9a76-5c7192359f81","system_id":"levelo_inurba_marseille","lat":43.28033,"lon":5.36948,"is_reserved":false,"is_disabled":false,"rental_uris":{"android":"levelo://app?vid=4ef604d1-ffd1-4e66-9a76-5c7192359f81","ios":"levelo://app?vid=4ef604d1-ffd1-4e66-9a76-5c7192359f81"},"vehicle_type_id":"4","last_reported":1683396471,"current_range_meters":12000,"station_id":"ce4bha12rcd13ifvqef0","pricing_plan_id":"free"},{"bike_id":"bc8b220c-1d8d-4dc7-8a6f-cbfacece3bdf","system_id":"levelo_inurba_marseille","lat":43.28032,"lon":5.36937,"is_reserved":false,"is_disabled":false,"rental_uris":{"android":"levelo://app?vid=bc8b220c-1d8d-4dc7-8a6f-cbfacece3bdf","ios":"levelo://app?vid=bc8b220c-1d8d-4dc7-8a6f-cbfacece3bdf"},"vehicle_type_id":"4","last_reported":1683396471,"current_range_meters":12800,"station_id":"ce4bha12rcd13ifvqef0","pricing_plan_id":"free"},{"bike_id":"e7f335d5-a110-48aa-8109-6a23b4a0974d","system_id":"levelo_inurba_marseille","lat":43.2803,"lon":5.36943,"is_reserved":false,"is_disabled":false,"rental_uris":{"android":"levelo://app?vid=e7f335d5-a110-48aa-8109-6a23b4a0974d","ios":"levelo://app?vid=e7f335d5-a110-48aa-8109-6a23b4a0974d"},"vehicle_type_id":"4","last_reported":1683396471,"current_range_meters":9600,"station_id":"ce4bha12rcd13ifvqef0","pricing_plan_id":"free"},{"bike_id":"4196b876-cbec-4ec7-a07e-6a11cbd96bad","system_id":"levelo_inurba_marseille","lat":43.28039,"lon":5.369297,"is_reserved":false,"is_disabled":false,"rental_uris":{"android":"levelo://app?vid=4196b876-cbec-4ec7-a07e-6a11cbd96bad","ios":"levelo://app?vid=4196b876-cbec-4ec7-a07e-6a11cbd96bad"},"vehicle_type_id":"4","last_reported":1683396471,"current_range_meters":28000,"station_id":"ce4bha12rcd13ifvqef0","pricing_plan_id":"free"},{"bike_id":"3b017715-06de-4038-9126-f44fbf4e15f6","system_id":"levelo_inurba_marseille","lat":43.296263,"lon":5.40601,"is_reserved":false,"is_disabled":false,"rental_uris":{"android":"levelo://app?vid=3b017715-06de-4038-9126-f44fbf4e15f6","ios":"levelo://app?vid=3b017715-06de-4038-9126-f44fbf4e15f6"},"vehicle_type_id":"4","last_reported":1683396471,"current_range_meters":31200,"station_id":"ce4bh0h2rcd13ifvqd60","pricing_plan_id":"free"},{"bike_id":"81d5ee5c-3014-4965-b176-1a977dd4e7b3","system_id":"levelo_inurba_marseille","lat":43.281044,"lon":5.378308,"is_reserved":false,"is_disabled":false,"rental_uris":{"android":"levelo://app?vid=81d5ee5c-3014-4965-b176-1a977dd4e7b3","ios":"levelo://app?vid=81d5ee5c-3014-4965-b176-1a977dd4e7b3"},"vehicle_type_id":"4","last_reported":1683396471,"current_range_meters":9600,"station_id":"ce4bha12rcd13ifvqee0","pricing_plan_id":"free"},{"bike_id":"9528d03e-f8d4-4396-90b8-bf565c94925a","system_id":"levelo_inurba_marseille","lat":43.281044,"lon":5.378308,"is_reserved":false,"is_disabled":false,"rental_uris":{"android":"levelo://app?vid=9528d03e-f8d4-4396-90b8-bf565c94925a","ios":"levelo://app?vid=9528d03e-f8d4-4396-90b8-bf565c94925a"},"vehicle_type_id":"4","last_reported":1683396471,"current_range_meters":1200,"station_id":"ce4bha12rcd13ifvqee0","pricing_plan_id":"free"},{"bike_id":"9283b1bc-f63b-4e46-a9e4-30b4de3c0218","system_id":"levelo_inurba_marseille","lat":43.281044,"lon":5.378308,"is_reserved":false,"is_disabled":false,"rental_uris":{"android":"levelo://app?vid=9283b1bc-f63b-4e46-a9e4-30b4de3c0218","ios":"levelo://app?vid=9283b1bc-f63b-4e46-a9e4-30b4de3c0218"},"vehicle_type_id":"4","last_reported":1683396471,"current_range_meters":15600,"station_id":"ce4bha12rcd13ifvqee0","pricing_plan_id":"free"},{"bike_id":"6a8c7dba-cd56-4353-91b3-f87f7992fbba","system_id":"levelo_inurba_marseille","lat":43.281044,"lon":5.378308,"is_reserved":false,"is_disabled":false,"rental_uris":{"android":"levelo://app?vid=6a8c7dba-cd56-4353-91b3-f87f7992fbba","ios":"levelo://app?vid=6a8c7dba-cd56-4353-91b3-f87f7992fbba"},"vehicle_type_id":"4","last_reported":1683396471,"current_range_meters":1600,"station_id":"ce4bha12rcd13ifvqee0","pricing_plan_id":"free"},{"bike_id":"bcbaf690-96bf-496e-838e-d3406940b533","system_id":"levelo_inurba_marseille","lat":43.28102,"lon":5.37832,"is_reserved":false,"is_disabled":false,"rental_uris":{"android":"levelo://app?vid=bcbaf690-96bf-496e-838e-d3406940b533","ios":"levelo://app?vid=bcbaf690-96bf-496e-838e-d3406940b533"},"vehicle_type_id":"4","last_reported":1683396471,"current_range_meters":22400,"station_id":"ce4bha12rcd13ifvqee0","pricing_plan_id":"free"},{"bike_id":"348dc334-1a98-431d-92fb-57effef66fb4","system_id":"levelo_inurba_marseille","lat":43.28102,"lon":5.37837,"is_reserved":false,"is_disabled":false,"rental_uris":{"android":"levelo://app?vid=348dc334-1a98-431d-92fb-57effef66fb4","ios":"levelo://app?vid=348dc334-1a98-431d-92fb-57effef66fb4"},"vehicle_type_id":"4","last_reported":1683396471,"current_range_meters":16400,"station_id":"ce4bha12rcd13ifvqee0","pricing_plan_id":"free"},{"bike_id":"48132ec9-16ee-43a6-98b3-a79756a60d8e","system_id":"levelo_inurba_marseille","lat":43.281044,"lon":5.378308,"is_reserved":false,"is_disabled":false,"rental_uris":{"android":"levelo://app?vid=48132ec9-16ee-43a6-98b3-a79756a60d8e","ios":"levelo://app?vid=48132ec9-16ee-43a6-98b3-a79756a60d8e"},"vehicle_type_id":"4","last_reported":1683396471,"current_range_meters":400,"station_id":"ce4bha12rcd13ifvqee0","pricing_plan_id":"free"},{"bike_id":"b5c95d40-66a2-42c2-bcbc-dd5c7c12a04c","system_id":"levelo_inurba_marseille","lat":43.296263,"lon":5.40601,"is_reserved":false,"is_disabled":false,"rental_uris":{"android":"levelo://app?vid=b5c95d40-66a2-42c2-bcbc-dd5c7c12a04c","ios":"levelo://app?vid=b5c95d40-66a2-42c2-bcbc-dd5c7c12a04c"},"vehicle_type_id":"4","last_reported":1683396471,"current_range_meters":31600,"station_id":"ce4bh0h2rcd13ifvqd60","pricing_plan_id":"free"},{"bike_id":"674ea47f-69c2-418a-8281-784bd57fb5c5","system_id":"levelo_inurba_marseille","lat":43.296288,"lon":5.405955,"is_reserved":false,"is_disabled":false,"rental_uris":{"android":"levelo://app?vid=674ea47f-69c2-418a-8281-784bd57fb5c5","ios":"levelo://app?vid=674ea47f-69c2-418a-8281-784bd57fb5c5"},"vehicle_type_id":"4","last_reported":1683396471,"current_range_meters":28800,"station_id":"ce4bh0h2rcd13ifvqd60","pricing_plan_id":"free"},{"bike_id":"cb5d0e56-3666-423c-bf15-0a342c8022f8","system_id":"levelo_inurba_marseille","lat":43.281,"lon":5.37842,"is_reserved":false,"is_disabled":false,"rental_uris":{"android":"levelo://app?vid=cb5d0e56-3666-423c-bf15-0a342c8022f8","ios":"levelo://app?vid=cb5d0e56-3666-423c-bf15-0a342c8022f8"},"vehicle_type_id":"4","last_reported":1683396471,"current_range_meters":16400,"station_id":"ce4bha12rcd13ifvqee0","pricing_plan_id":"free"},{"bike_id":"659eb67e-e55e-4ee3-8dc5-1fee2f566a35","system_id":"levelo_inurba_marseille","lat":43.284462,"lon":5.392121,"is_reserved":false,"is_disabled":false,"rental_uris":{"android":"levelo://app?vid=659eb67e-e55e-4ee3-8dc5-1fee2f566a35","ios":"levelo://app?vid=659eb67e-e55e-4ee3-8dc5-1fee2f566a35"},"vehicle_type_id":"4","last_reported":1683396471,"current_range_meters":800,"station_id":"ce4bhoh2rcd13ifvqh5g","pricing_plan_id":"free"},{"bike_id":"a2ae4873-130c-48ee-9b31-3e0ec5fcbb71","system_id":"levelo_inurba_marseille","lat":43.28438,"lon":5.39185,"is_reserved":false,"is_disabled":false,"rental_uris":{"android":"levelo://app?vid=a2ae4873-130c-48ee-9b31-3e0ec5fcbb71","ios":"levelo://app?vid=a2ae4873-130c-48ee-9b31-3e0ec5fcbb71"},"vehicle_type_id":"4","last_reported":1683396471,"current_range_meters":7200,"station_id":"ce4bhoh2rcd13ifvqh5g","pricing_plan_id":"free"},{"bike_id":"6938405f-0596-48a1-b99c-8371a77b0f77","system_id":"levelo_inurba_marseille","lat":43.284462,"lon":5.392121,"is_reserved":false,"is_disabled":false,"rental_uris":{"android":"levelo://app?vid=6938405f-0596-48a1-b99c-8371a77b0f77","ios":"levelo://app?vid=6938405f-0596-48a1-b99c-8371a77b0f77"},"vehicle_type_id":"4","last_reported":1683396471,"current_range_meters":24800,"station_id":"ce4bhoh2rcd13ifvqh5g","pricing_plan_id":"free"},{"bike_id":"e1bf343f-b82e-4d87-85ea-33abd16ae24e","system_id":"levelo_inurba_marseille","lat":43.284462,"lon":5.392121,"is_reserved":false,"is_disabled":false,"rental_uris":{"android":"levelo://app?vid=e1bf343f-b82e-4d87-85ea-33abd16ae24e","ios":"levelo://app?vid=e1bf343f-b82e-4d87-85ea-33abd16ae24e"},"vehicle_type_id":"4","last_reported":1683396471,"current_range_meters":6400,"station_id":"ce4bhoh2rcd13ifvqh5g","pricing_plan_id":"free"},{"bike_id":"01046538-2877-449c-a96a-a857db217b06","system_id":"levelo_inurba_marseille","lat":43.28438,"lon":5.3919,"is_reserved":false,"is_disabled":false,"rental_uris":{"android":"levelo://app?vid=01046538-2877-449c-a96a-a857db217b06","ios":"levelo://app?vid=01046538-2877-449c-a96a-a857db217b06"},"vehicle_type_id":"4","last_reported":1683396471,"current_range_meters":400,"station_id":"ce4bhoh2rcd13ifvqh5g","pricing_plan_id":"free"},