{"last_updated":1731762915,"ttl":60,"version":"2.2","data":{"bikes":[{"bike_id":"0ced7113-db48-4671-8b7b-648b43de37ab","system_id":"levelo_inurba_marseille","lat":43.27374,"lon":5.36256,"is_reserved":false,"is_disabled":false,"rental_uris":{"android":"levelo://app?vid=0ced7113-db48-4671-8b7b-648b43de37ab","ios":"levelo://app?vid=0ced7113-db48-4671-8b7b-648b43de37ab"},"vehicle_type_id":"4","last_reported":1731762916,"current_range_meters":38800,"station_id":"ce4bhbh2rcd13ifvqeo0","pricing_plan_id":"cebpf4jnsgd1na2vs0mg"},{"bike_id":"a668b72b-69d8-4b09-b6de-d87ab752cc3d","system_id":"levelo_inurba_marseille","lat":43.27926,"lon":5.38011,"is_reserved":false,"is_disabled":false,"rental_uris":{"android":"levelo://app?vid=a668b72b-69d8-4b09-b6de-d87ab752cc3d","ios":"levelo://app?vid=a668b72b-69d8-4b09-b6de-d87ab752cc3d"},"vehicle_type_id":"4","last_reported":1731762916,"current_range_meters":31200,"station_id":"ce4bhf92rcd13ifvqf50","pricing_plan_id":"cebpf4jnsgd1na2vs0mg"},{"bike_id":"75e58bc8-ed69-4a86-a30b-9e5abcadd741","system_id":"levelo_inurba_marseille","lat":43.25725,"lon":5.41119,"is_reserved":false,"is_disabled":false,"rental_uris":{"android":"levelo://app?vid=75e58bc8-ed69-4a86-a30b-9e5abcadd741","ios":"levelo://app?vid=75e58bc8-ed69-4a86-a30b-9e5abcadd741"},"vehicle_type_id":"4","last_reported":1731762916,"current_range_meters":37600,"station_id":"ce4bhkp2rcd13ifvqgd0","pricing_plan_id":"cebpf4jnsgd1na2vs0mg"},{"bike_id":"c3429b5d-0a8f-4b7c-81b0-334f0f780e95","system_id":"levelo_inurba_marseille","lat":43.29792,"lon":5.40405,"is_reserved":false,"is_disabled":false,"rental_uris":{"android":"levelo://app?vid=c3429b5d-0a8f-4b7c-81b0-334f0f780e95","ios":"levelo://app?vid=c3429b5d-0a8f-4b7c-81b0-334f0f780e95"},"vehicle_type_id":"4","last_reported":1731762916,"current_range_meters":38800,"station_id":"ce4bh112rcd13ifvqd90","pricing_plan_id":"cebpf4jnsgd1na2vs0mg"},{"bike_id":"bac9ea6d-d678-4ba7-b7d0-bd4735cfa5dd","system_id":"levelo_inurba_marseille","lat":43.31726,"lon":5.42402,"is_reserved":false,"is_disabled":false,"rental_uris":{"android":"levelo://app?vid=bac9ea6d-d678-4ba7-b7d0-bd4735cfa5dd","ios":"levelo://app?vid=bac9ea6d-d678-4ba7-b7d0-bd4735cfa5dd"},"vehicle_type_id":"4","last_reported":1731762916,"current_range_meters":37600,"station_id":"ce4bhp92rcd13ifvqhbg","pricing_plan_id":"cebpf4jnsgd1na2vs0mg"},{"bike_id":"b823e613-c6ad-4d84-a5e8-23c6e75590c3","system_id":"levelo_inurba_marseille","lat":43.26952,"lon":5.3864,"is_reserved":false,"is_disabled":false,"rental_uris":{"android":"levelo://app?vid=b823e613-c6ad-4d84-a5e8-23c6e75590c3","ios":"levelo://app?vid=b823e613-c6ad-4d84-a5e8-23c6e75590c3"},"vehicle_type_id":"4","last_reported":1731762916,"current_range_meters":37600,"station_id":"ce4bhh92rcd13ifvqfh0","pricing_plan_id":"cebpf4jnsgd1na2vs0mg"},{"bike_id":"59193835-e72f-47a7-abb0-1a843e8f86df","system_id":"levelo_inurba_marseille","lat":43.28461,"lon":5.35896,"is_reserved":false,"is_disabled":false,"rental_uris":{"android":"levelo://app?vid=59193835-e72f-47a7-abb0-1a843e8f86df","ios":"levelo://app?vid=59193835-e72f-47a7-abb0-1a843e8f86df"},"vehicle_type_id":"4","last_reported":1731762916,"current_range_meters":36400,"station_id":"ce4bhah2rcd13ifvqei0","pricing_plan_id":"cebpf4jnsgd1na2vs0mg"},{"bike_id":"13ecd984-3bbf-449a-b4e0-2d024829111b","system_id":"levelo_inurba_marseille","lat":43.25935,"lon":5.40911,"is_reserved":false,"is_disabled":false,"rental_uris":{"android":"levelo://app?vid=13ecd984-3bbf-449a-b4e0-2d024829111b","ios":"levelo://app?vid=13ecd984-3bbf-449a-b4e0-2d024829111b"},"vehicle_type_id":"4","last_reported":1731762916,"current_range_meters":30800,"station_id":"ce4bhm92rcd13ifvqglg","pricing_plan_id":"cebpf4jnsgd1na2vs0mg"},{"bike_id":"ab6dc4ee-6007-4de0-8391-e0c3a471920a","system_id":"levelo_inurba_marseille","lat":43.29606,"lon":5.37712,"is_reserved":false,"is_disabled":false,"rental_uris":{"android":"levelo://app?vid=ab6dc4ee-6007-4de0-8391-e0c3a471920a","ios":"levelo://app?vid=ab6dc4ee-6007-4de0-8391-e0c3a471920a"},"vehicle_type_id":"4","last_reported":1731762916,"current_range_meters":26000,"station_id":"ce4bgi92rcd13ifvqb90","pricing_plan_id":"cebpf4jnsgd1na2vs0mg"},{"bike_id":"d9d8a7d9-cde4-4fab-ab69-fcee8fe6a6da","system_id":"levelo_inurba_marseille","lat":43.25013,"lon":5.38929,"is_reserved":false,"is_disabled":false,"rental_uris":{"android":"levelo://app?vid=d9d8a7d9-cde4-4fab-ab69-fcee8fe6a6da","ios":"levelo://app?vid=d9d8a7d9-cde4-4fab-ab69-fcee8fe6a6da"},"vehicle_type_id":"4","last_reported":1731762916,"current_range_meters":13600,"station_id":"ce4bhgp2rcd13ifvqfd0","pricing_plan_id":"cebpf4jnsgd1na2vs0mg"},{"bike_id":"2a4d0619-1af9-46f8-8f27-2f5bb3726a6d","system_id":"levelo_inurba_marseille","lat":43.243832,"lon":5.370542,"is_reserved":false,"is_disabled":false,"rental_uris":{"android":"levelo://app?vid=2a4d0619-1af9-46f8-8f27-2f5bb3726a6d","ios":"levelo://app?vid=2a4d0619-1af9-46f8-8f27-2f5bb3726a6d"},"vehicle_type_id":"4","last_reported":1731762916,"current_range_meters":38800,"station_id":"ce4bhhh2rcd13ifvqfk0","pricing_plan_id":"cebpf4jnsgd1na2vs0mg"},{"bike_id":"df6ac28b-42fe-42de-92af-df1e117841f5","system_id":"levelo_inurba_marseille","lat":43.28706,"lon":5.37394,"is_reserved":false,"is_disabled":false,"rental_uris":{"android":"levelo://app?vid=df6ac28b-42fe-42de-92af-df1e117841f5","ios":"levelo://app?vid=df6ac28b-42fe-42de-92af-df1e117841f5"},"vehicle_type_id":"4","last_reported":1731762916,"current_range_meters":38800,"station_id":"ce4bh3p2rcd13ifvqdq0","pricing_plan_id":"cebpf4jnsgd1na2vs0mg"},{"bike_id":"38a37675-38da-4b91-87df-fb891f488796","system_id":"levelo_inurba_marseille","lat":43.25815,"lon":5.39435,"is_reserved":false,"is_disabled":false,"rental_uris":{"android":"levelo://app?vid=38a37675-38da-4b91-87df-fb891f488796","ios":"levelo://app?vid=38a37675-38da-4b91-87df-fb891f488796"},"vehicle_type_id":"4","last_reported":1731762916,"current_range_meters":36800,"station_id":"ce4bhip2rcd13ifvqft0","pricing_plan_id":"cebpf4jnsgd1na2vs0mg"},{"bike_id":"2675e0fb-3a5b-4c54-876e-c296aec1a2f0","system_id":"levelo_inurba_marseille","lat":43.290733,"lon":5.371565,"is_reserved":false,"is_disabled":false,"rental_uris":{"android":"levelo://app?vid=2675e0fb-3a5b-4c54-876e-c296aec1a2f0","ios":"levelo://app?vid=2675e0fb-3a5b-4c54-876e-c296aec1a2f0"},"vehicle_type_id":"4","last_reported":1731762916,"current_range_meters":12400,"station_id":"ce4bh5p2rcd13ifvqe4g","pricing_plan_id":"cebpf4jnsgd1na2vs0mg"},{"bike_id":"cc30f841-8a8e-4238-80fa-1ceb35a01f10","system_id":"levelo_inurba_marseille","lat":43.30144,"lon":5.37417,"is_reserved":false,"is_disabled":false,"rental_uris":{"android":"levelo://app?vid=cc30f841-8a8e-4238-80fa-1ceb35a01f10","ios":"levelo://app?vid=cc30f841-8a8e-4238-80fa-1ceb35a01f10"},"vehicle_type_id":"4","last_reported":1731762916,"current_range_meters":27200,"station_id":"ce4bgs92rcd13ifvqcc0","pricing_plan_id":"cebpf4jnsgd1na2vs0mg"},{"bike_id":"eeb99db9-7dea-4d08-909e-5b7e8ca4a50c","system_id":"levelo_inurba_marseille","lat":43.22328,"lon":5.34623,"is_reserved":false,"is_disabled":false,"rental_uris":{"android":"levelo://app?vid=eeb99db9-7dea-4d08-909e-5b7e8ca4a50c","ios":"levelo://app?vid=eeb99db9-7dea-4d08-909e-5b7e8ca4a50c"},"vehicle_type_id":"4","last_reported":1731762916,"current_range_meters":38800,"station_id":"cpo3532slgdg3j2ikp40","pricing_plan_id":"cebpf4jnsgd1na2vs0mg"},{"bike_id":"bd060c2e-e47a-4ebc-a4f5-1037cc8a17d4","system_id":"levelo_inurba_marseille","lat":43.30788,"lon":5.37649,"is_reserved":false,"is_disabled":false,"rental_uris":{"android":"levelo://app?vid=bd060c2e-e47a-4ebc-a4f5-1037cc8a17d4","ios":"levelo://app?vid=bd060c2e-e47a-4ebc-a4f5-1037cc8a17d4"},"vehicle_type_id":"4","last_reported":1731762916,"current_range_meters":39200,"station_id":"ce4bgv92rcd13ifvqcq0","pricing_plan_id":"cebpf4jnsgd1na2vs0mg"},{"bike_id":"60dfa2fd-02a9-404e-ab04-d5d71ff40670","system_id":"levelo_inurba_marseille","lat":43.29975,"lon":5.38478,"is_reserved":false,"is_disabled":false,"rental_uris":{"android":"levelo://app?vid=60dfa2fd-02a9-404e-ab04-d5d71ff40670","ios":"levelo://app?vid=60dfa2fd-02a9-404e-ab04-d5d71ff40670"},"vehicle_type_id":"4","last_reported":1731762916,"current_range_meters":38800,"station_id":"","pricing_plan_id":"cebpf4jnsgd1na2vs0mg"},{"bike_id":"906347f7-b857-4677-b3f3-7720e8dfadfc","system_id":"levelo_inurba_marseille","lat":43.2692,"lon":5.40284,"is_reserved":false,"is_disabled":false,"rental_uris":{"android":"levelo://app?vid=906347f7-b857-4677-b3f3-7720e8dfadfc","ios":"levelo://app?vid=906347f7-b857-4677-b3f3-7720e8dfadfc"},"vehicle_type_id":"4","last_reported":1731762916,"current_range_meters":38800,"station_id":"cjm6bp8fraef2m0cb0m0","pricing_plan_id":"cebpf4jnsgd1na2vs0mg"},{"bike_id":"2b9c8386-fb3a-4d26-aa06-c1bfe47c12b9","system_id":"levelo_inurba_marseille","lat":43.2707,"lon":5.4228,"is_reserved":false,"is_disabled":false,"rental_uris":{"android":"levelo://app?vid=2b9c8386-fb3a-4d26-aa06-c1bfe47c12b9","ios":"levelo://app?vid=2b9c8386-fb3a-4d26-aa06-c1bfe47c12b9"},"vehicle_type_id":"4","last_reported":1731762916,"current_range_meters":38800,"station_id":"ce4bhk92rcd13ifvqgb0","pricing_plan_id":"cebpf4jnsgd1na2vs0mg"},{"bike_id":"6b0ea79e-cb12-4a50-9845-e4686b3cacc8","system_id":"levelo_inurba_marseille","lat":43.295751,"lon":5.399791,"is_reserved":false,"is_disabled":false,"rental_uris":{"android":"levelo://app?vid=6b0ea79e-cb12-4a50-9845-e4686b3cacc8","ios":"levelo://app?vid=6b0ea79e-cb12-4a50-9845-e4686b3cacc8"},"vehicle_type_id":"4","last_reported":1731762916,"current_range_meters":14000,"station_id":"","pricing_plan_id":"cebpf4jnsgd1na2vs0mg"},{"bike_id":"ffb2a0bd-ff6a-46a2-af55-c68fe9404a35","system_id":"levelo_inurba_marseille","lat":43.255,"lon":5.37648,"is_reserved":false,"is_disabled":false,"rental_uris":{"android":"levelo://app?vid=ffb2a0bd-ff6a-46a2-af55-c68fe9404a35","ios":"levelo://app?vid=ffb2a0bd-ff6a-46a2-af55-c68fe9404a35"},"vehicle_type_id":"4","last_reported":1731762916,"current_range_meters":28800,"station_id":"ce4bhh12rcd13ifvqff0","pricing_plan_id":"cebpf4jnsgd1na2vs0mg"},{"bike_id":"4a74f469-1d99-48ee-a8ca-9199898c00a4","system_id":"levelo_inurba_marseille","lat":43.23211,"lon":5.35528,"is_reserved":false,"is_disabled":false,"rental_uris":{"android":"levelo://app?vid=4a74f469-1d99-48ee-a8ca-9199898c00a4","ios":"levelo://app?vid=4a74f469-1d99-48ee-a8ca-9199898c00a4"},"vehicle_type_id":"4","last_reported":1731762916,"current_range_meters":9200,"station_id":"ce4bhu92rcd13ifvqi70","pricing_plan_id":"cebpf4jnsgd1na2vs0mg"},{"bike_id":"b0d75183-70ff-48e8-9b4f-bb163d4c8f10","system_id":"levelo_inurba_marseille","lat":43.25503,"lon":5.37643,"is_reserved":false,"is_disabled":false,"rental_uris":{"android":"levelo://app?vid=b0d75183-70ff-48e8-9b4f-bb163d4c8f10","ios":"levelo://app?vid=b0d75183-70ff-48e8-9b4f-bb163d4c8f10"},"vehicle_type_id":"4","last_reported":1731762916,"current_range_meters":17200,"station_id":"ce4bhh12rcd13ifvqff0","pricing_plan_id":"cebpf4jnsgd1na2vs0mg"},{"bike_id":"2d00514c-8fa3-4a54-a5ab-4e2c3c95825a","system_id":"levelo_inurba_marseille","lat":43.25581,"lon":5.38242,"is_reserved":false,"is_disabled":false,"rental_uris":{"android":"levelo://app?vid=2d00514c-8fa3-4a54-a5ab-4e2c3c95825a","ios":"levelo://app?vid=2d00514c-8fa3-4a54-a5ab-4e2c3c95825a"},"vehicle_type_id":"4","last_reported":1731762916,"current_range_meters":4800,"station_id":"ce4bhih2rcd13ifvqfs0","pricing_plan_id":"cebpf4jnsgd1na2vs0mg"},{"bike_id":"bf875070-5704-4f22-9c47-ff8b5a7df24a","system_id":"levelo_inurba_marseille","lat":43.29198,"lon":5.39327,"is_reserved":false,"is_disabled":false,"rental_uris":{"android":"levelo://app?vid=bf875070-5704-4f22-9c47-ff8b5a7df24a","ios":"levelo://app?vid=bf875070-5704-4f22-9c47-ff8b5a7df24a"},"vehicle_type_id":"4","last_reported":1731762916,"current_range_meters":28400,"station_id":"ce4bh192rcd13ifvqdd0","pricing_plan_id":"cebpf4jnsgd1na2vs0mg"},{"bike_id":"16ef3756-0f59-41c1-957f-991682738268","system_id":"levelo_inurba_marseille","lat":43.32366,"lon":5.38882,"is_reserved":false,"is_disabled":false,"rental_uris":{"android":"levelo://app?vid=16ef3756-0f59-41c1-957f-991682738268","ios":"levelo://app?vid=16ef3756-0f59-41c1-957f-991682738268"},"vehicle_type_id":"4","last_reported":1731762916,"current_range_meters":14000,"station_id":"ce4bhqp2rcd13ifvqhog","pricing_plan_id":"cebpf4jnsgd1na2vs0mg"},{"bike_id":"0e1d2e7a-8318-45fe-af1b-31857eb1aac8","system_id":"levelo_inurba_marseille","lat":43.23965,"lon":5.36631,"is_reserved":false,"is_disabled":false,"rental_uris":{"android":"levelo://app?vid=0e1d2e7a-8318-45fe-af1b-31857eb1aac8","ios":"levelo://app?vid=0e1d2e7a-8318-45fe-af1b-31857eb1aac8"},"vehicle_type_id":"4","last_reported":1731762916,"current_range_meters":28800,"station_id":"ce4bhi12rcd13ifvqfp0","pricing_plan_id":"cebpf4jnsgd1na2vs0mg"},{"bike_id":"e2f6e64b-bb38-4285-9ca3-4dbe7feefaa1","system_id":"levelo_inurba_marseille","lat":43.32278,"lon":5.38278,"is_reserved":false,"is_disabled":false,"rental_uris":{"android":"levelo://app?vid=e2f6e64b-bb38-4285-9ca3-4dbe7feefaa1","ios":"levelo://app?vid=e2f6e64b-bb38-4285-9ca3-4dbe7feefaa1"},"vehicle_type_id":"4","last_reported":1731762916,"current_range_meters":38800,"station_id":"ce4bhr12rcd13ifvqhqg","pricing_plan_id":"cebpf4jnsgd1na2vs0mg"},{"bike_id":"a4811daf-4fd9-4ea6-926a-07392e185a07","system_id":"levelo_inurba_marseille","lat":43.23968,"lon":5.3663,"is_reserved":false,"is_disabled":false,"rental_uris":{"android":"levelo://app?vid=a4811daf-4fd9-4ea6-926a-07392e185a07","ios":"levelo://app?vid=a4811daf-4fd9-4ea6-926a-07392e185a07"},"vehicle_type_id":"4","last_reported":1731762916,"current_range_meters":8400,"station_id":"ce4bhi12rcd13ifvqfp0","pricing_plan_id":"cebpf4jnsgd1na2vs0mg"},{"bike_id":"75d39982-08f0-4c46-87d7-147c09734bf6","system_id":"levelo_inurba_marseille","lat":43.29622,"lon":5.37151,"is_reserved":false,"is_disabled":false,"rental_uris":{"android":"levelo://app?vid=75d39982-08f0-4c46-87d7-147c09734bf6","ios":"levelo://app?vid=75d39982-08f0-4c46-87d7-147c09734bf6"},"vehicle_type_id":"4","last_reported":1731762916,"current_range_meters":28000,"station_id":"ce4bgnh2rcd13ifvqc0g","pricing_plan_id":"cebpf4jnsgd1na2vs0mg"},{"bike_id":"381501eb-65d3-4e03-95a0-e6219b3f8f3b","system_id":"levelo_inurba_marseille","lat":43.26805,"lon":5.40274,"is_reserved":false,"is_disabled":false,"rental_uris":{"android":"levelo://app?vid=381501eb-65d3-4e03-95a0-e6219b3f8f3b","ios":"levelo://app?vid=381501eb-65d3-4e03-95a0-e6219b3f8f3b"},"vehicle_type_id":"4","last_reported":1731762916,"current_range_meters":38000,"station_id":"ce501612rcd8frsf0b60","pricing_plan_id":"cebpf4jnsgd1na2vs0mg"},{"bike_id":"321e6aad-65ac-4aba-a3fa-32f2f9ff7149","system_id":"levelo_inurba_marseille","lat":43.23969,"lon":5.36633,"is_reserved":false,"is_disabled":false,"rental_uris":{"android":"levelo://app?vid=321e6aad-65ac-4aba-a3fa-32f2f9ff7149","ios":"levelo://app?vid=321e6aad-65ac-4aba-a3fa-32f2f9ff7149"},"vehicle_type_id":"4","last_reported":1731762916,"current_range_meters":22800,"station_id":"ce4bhi12rcd13ifvqfp0","pricing_plan_id":"cebpf4jnsgd1na2vs0mg"},{"bike_id":"6875c373-3a3e-464e-8826-15cf173d3295","system_id":"levelo_inurba_marseille","lat":43.24163,"lon":5.36398,"is_reserved":false,"is_disabled":false,"rental_uris":{"android":"levelo://app?vid=6875c373-3a3e-464e-8826-15cf173d3295","ios":"levelo://app?vid=6875c373-3a3e-464e-8826-15cf173d3295"},"vehicle_type_id":"4","last_reported":1731762916,"current_range_meters":37600,"station_id":"cpo36qri1sfpv3e86is0","pricing_plan_id":"cebpf4jnsgd1na2vs0mg"},{"bike_id":"8b5f82c8-5d0f-4f01-8818-25860759f9b9","system_id":"levelo_inurba_marseille","lat":43.23199,"lon":5.35557,"is_reserved":false,"is_disabled":false,"rental_uris":{"android":"levelo://app?vid=8b5f82c8-5d0f-4f01-8818-25860759f9b9","ios":"levelo://app?vid=8b5f82c8-5d0f-4f01-8818-25860759f9b9"},"vehicle_type_id":"4","last_reported":1731762916,"current_range_meters":22800,"station_id":"ce4bhu92rcd13ifvqi70","pricing_plan_id":"cebpf4jnsgd1na2vs0mg"},{"bike_id":"27085de3-a81c-4a9c-8915-4b4ac3fed02e","system_id":"levelo_inurba_marseille","lat":43.27059,"lon":5.40257,"is_reserved":false,"is_disabled":false,"rental_uris":{"android":"levelo://app?vid=27085de3-a81c-4a9c-8915-4b4ac3fed02e","ios":"levelo://app?vid=27085de3-a81c-4a9c-8915-4b4ac3fed02e"},"vehicle_type_id":"4","last_reported":1731762916,"current_range_meters":11200,"station_id":"ce4bhk92rcd13ifvqgc0","pricing_plan_id":"cebpf4jnsgd1na2vs0mg"},{"bike_id":"b4a11eee-4cdb-41b7-803e-439054ccaa2e","system_id":"levelo_inurba_marseille","lat":43.24665,"lon":5.38156,"is_reserved":false,"is_disabled":false,"rental_uris":{"android":"levelo://app?vid=b4a11eee-4cdb-41b7-803e-439054ccaa2e","ios":"levelo://app?vid=b4a11eee-4cdb-41b7-803e-439054ccaa2e"},"vehicle_type_id":"4","last_reported":1731762916,"current_range_meters":20800,"station_id":"ce4bhih2rcd13ifvqfr0","pricing_plan_id":"cebpf4jnsgd1na2vs0mg"},{"bike_id":"a0fceeea-e756-470f-b65b-5879f2d8dbad","system_id":"levelo_inurba_marseille","lat":43.29629,"lon":5.37713,"is_reserved":false,"is_disabled":false,"rental_uris":{"android":"levelo://app?vid=a0fceeea-e756-470f-b65b-5879f2d8dbad","ios":"levelo://app?vid=a0fceeea-e756-470f-b65b-5879f2d8dbad"},"vehicle_type_id":"4","last_reported":1731762916,"current_range_meters":28800,"station_id":"ce4bgi92rcd13ifvqb90","pricing_plan_id":"cebpf4jnsgd1na2vs0mg"},{"bike_id":"24792152-1842-470c-b942-79d2337136a4","system_id":"levelo_inurba_marseille","lat":43.29893,"lon":5.389,"is_reserved":false,"is_disabled":false,"rental_uris":{"android":"levelo://app?vid=24792152-1842-470c-b942-79d2337136a4","ios":"levelo://app?vid=24792152-1842-470c-b942-79d2337136a4"},"vehicle_type_id":"4","last_reported":1731762916,"current_range_meters":32800,"station_id":"ce4bh392rcd13ifvqdl0","pricing_plan_id":"cebpf4jnsgd1na2vs0mg"},{"bike_id":"b89d32d0-4b29-4b3a-aa48-924b6a4e074b","system_id":"levelo_inurba_marseille","lat":43.29609,"lon":5.38105,"is_reserved":false,"is_disabled":false,"rental_uris":{"android":"levelo://app?vid=b89d32d0-4b29-4b3a-aa48-924b6a4e074b","ios":"levelo://app?vid=b89d32d0-4b29-4b3a-aa48-924b6a4e074b"},"vehicle_type_id":"4","last_reported":1731762916,"current_range_meters":35600,"station_id":"ce4bgl12rcd13ifvqbo0","pricing_plan_id":"cebpf4jnsgd1na2vs0mg"},{"bike_id":"6d6a0dde-c067-4493-bad2-5ee0d9b9474d","system_id":"levelo_inurba_marseille","lat":43.29306,"lon":5.37446,"is_reserved":false,"is_disabled":false,"rental_uris":{"android":"levelo://app?vid=6d6a0dde-c067-4493-bad2-5ee0d9b9474d","ios":"levelo://app?vid=6d6a0dde-c067-4493-bad2-5ee0d9b9474d"},"vehicle_type_id":"4","last_reported":1731762916,"current_range_meters":36400,"station_id":"ce4bgi12rcd13ifvqb70","pricing_plan_id":"cebpf4jnsgd1na2vs0mg"},{"bike_id":"4cbd7226-43bc-4a1c-b31a-f299d9bf5ede","system_id":"levelo_inurba_marseille","lat":43.25504,"lon":5.37654,"is_reserved":false,"is_disabled":false,"rental_uris":{"android":"levelo://app?vid=4cbd7226-43bc-4a1c-b31a-f299d9bf5ede","ios":"levelo://app?vid=4cbd7226-43bc-4a1c-b31a-f299d9bf5ede"},"vehicle_type_id":"4","last_reported":1731762916,"current_range_meters":39200,"station_id":"ce4bhh12rcd13ifvqff0","pricing_plan_id":"cebpf4jnsgd1na2vs0mg"},{"bike_id":"a84955e4-0ca9-4bb0-8f87-f6fcb31a34cb","system_id":"levelo_inurba_marseille","lat":43.28794,"lon":5.36624,"is_reserved":false,"is_disabled":false,"rental_uris":{"android":"levelo://app?vid=a84955e4-0ca9-4bb0-8f87-f6fcb31a34cb","ios":"levelo://app?vid=a84955e4-0ca9-4bb0-8f87-f6fcb31a34cb"},"vehicle_type_id":"4","last_reported":1731762916,"current_range_meters":24800,"station_id":"","pricing_plan_id":"cebpf4jnsgd1na2vs0mg"},{"bike_id":"31b75d55-7b11-49e2-9427-1fbf54457b83","system_id":"levelo_inurba_marseille","lat":43.28278,"lon":5.3507,"is_reserved":false,"is_disabled":false,"rental_uris":{"android":"levelo://app?vid=31b75d55-7b11-49e2-9427-1fbf54457b83","ios":"levelo://app?vid=31b75d55-7b11-49e2-9427-1fbf54457b83"},"vehicle_type_id":"4","last_reported":1731762916,"current_range_meters":39200,"station_id":"ce4bhbp2rcd13ifvqerg","pricing_plan_id":"cebpf4jnsgd1na2vs0mg"},{"bike_id":"e06e60bf-3959-4071-bb59-6c25b36c6410","system_id":"levelo_inurba_marseille","lat":43.30876,"lon":5.39668,"is_reserved":false,"is_disabled":false,"rental_uris":{"android":"levelo://app?vid=e06e60bf-3959-4071-bb59-6c25b36c6410","ios":"levelo://app?vid=e06e60bf-3959-4071-bb59-6c25b36c6410"},"vehicle_type_id":"4","last_reported":1731762916,"current_range_meters":16400,"station_id":"ce4bh012rcd13ifvqcv0","pricing_plan_id":"cebpf4jnsgd1na2vs0mg"},{"bike_id":"216cf6e6-b945-4a55-81fa-c7fb02ecab40","system_id":"levelo_inurba_marseille","lat":43.28461,"lon":5.35893,"is_reserved":false,"is_disabled":false,"rental_uris":{"android":"levelo://app?vid=216cf6e6-b945-4a55-81fa-c7fb02ecab40","ios":"levelo://app?vid=216cf6e6-b945-4a55-81fa-c7fb02ecab40"},"vehicle_type_id":"4","last_reported":1731762916,"current_range_meters":9600,"station_id":"ce4bhah2rcd13ifvqei0","pricing_plan_id":"cebpf4jnsgd1na2vs0mg"},{"bike_id":"9abd54d1-7da6-4ec2-90f9-8a3e190b5e37","system_id":"levelo_inurba_marseille","lat":43.25826,"lon":5.3943,"is_reserved":false,"is_disabled":false,"rental_uris":{"android":"levelo://app?vid=9abd54d1-7da6-4ec2-90f9-8a3e190b5e37","ios":"levelo://app?vid=9abd54d1-7da6-4ec2-90f9-8a3e190b5e37"},"vehicle_type_id":"4","last_reported":1731762916,"current_range_meters":20800,"station_id":"ce4bhip2rcd13ifvqft0","pricing_plan_id":"cebpf4jnsgd1na2vs0mg"},{"bike_id":"82588854-e185-482e-a51c-801099d30d24","system_id":"levelo_inurba_marseille","lat":43.24667,"lon":5.38166,"is_reserved":false,"is_disabled":false,"rental_uris":{"android":"levelo://app?vid=82588854-e185-482e-a51c-801099d30d24","ios":"levelo://app?vid=82588854-e185-482e-a51c-801099d30d24"},"vehicle_type_id":"4","last_reported":1731762916,"current_range_meters":9600,"station_id":"ce4bhih2rcd13ifvqfr0","pricing_plan_id":"cebpf4jnsgd1na2vs0mg"},{"bike_id":"49b60109-149a-427d-ba5d-9d81d065e2e0","system_id":"levelo_inurba_marseille","lat":43.31693,"lon":5.40474,"is_reserved":false,"is_disabled":false,"rental_uris":{"android":"levelo://app?vid=49b60109-149a-427d-ba5d-9d81d065e2e0","ios":"levelo://app?vid=49b60109-149a-427d-ba5d-9d81d065e2e0"},"vehicle_type_id":"4","last_reported":1731762916,"current_range_meters":27600,"station_id":"ce4bh012rcd13ifvqd00","pricing_plan_id":"cebpf4jnsgd1na2vs0mg"},{"bike_id":"11b9578d-1661-4a95-ae4c-7539b3046e04","system_id":"levelo_inurba_marseille","lat":43.301127,"lon":5.39884,"is_reserved":false,"is_disabled":false,"rental_uris":{"android":"levelo://app?vid=11b9578d-1661-4a95-ae4c-7539b3046e04","ios":"levelo://app?vid=11b9578d-1661-4a95-ae4c-7539b3046e04"},"vehicle_type_id":"4","last_reported":1731762916,"current_range_meters":36800,"station_id":"ce4bho92rcd13ifvqh4g","pricing_plan_id":"cebpf4jnsgd1na2vs0mg"},{"bike_id":"e274446e-f32a-4464-837f-90a7639c55e2","system_id":"levelo_inurba_marseille","lat":43.24663,"lon":5.38172,"is_reserved":false,"is_disabled":false,"rental_uris":{"android":"levelo://app?vid=e274446e-f32a-4464-837f-90a7639c55e2","ios":"levelo://app?vid=e274446e-f32a-4464-837f-90a7639c55e2"},"vehicle_type_id":"4","last_reported":1731762916,"current_range_meters":17200,"station_id":"ce4bhih2rcd13ifvqfr0","pricing_plan_id":"cebpf4jnsgd1na2vs0mg"},{"bike_id":"b02cad58-3de4-410a-a29d-78e174a9d94a","system_id":"levelo_inurba_marseille","lat":43.23199,"lon":5.35557,"is_reserved":false,"is_disabled":false,"rental_uris":{"android":"levelo://app?vid=b02cad58-3de4-410a-a29d-78e174a9d94a","ios":"levelo://app?vid=b02cad58-3de4-410a-a29d-78e174a9d94a"},"vehicle_type_id":"4","last_reported":1731762916,"current_range_meters":37600,"station_id":"ce4bhu92rcd13ifvqi70","pricing_plan_id":"cebpf4jnsgd1na2vs0mg"},{"bike_id":"7389b691-ebff-47a4-999d-591fee600d73","system_id":"levelo_inurba_marseille","lat":43.31713,"lon":5.43709,"is_reserved":false,"is_disabled":false,"rental_uris":{"android":"levelo://app?vid=7389b691-ebff-47a4-999d-591fee600d73","ios":"levelo://app?vid=7389b691-ebff-47a4-999d-591fee600d73"},"vehicle_type_id":"4","last_reported":1731762916,"current_range_meters":9600,"station_id":"ce4bhp92rcd13ifvqhcg","pricing_plan_id":"cebpf4jnsgd1na2vs0mg"},{"bike_id":"980c2b64-5ae6-4e8e-ac4f-88eb697394b6","system_id":"levelo_inurba_marseille","lat":43.25933,"lon":5.40911,"is_reserved":false,"is_disabled":false,"rental_uris":{"android":"levelo://app?vid=980c2b64-5ae6-4e8e-ac4f-88eb697394b6","ios":"levelo://app?vid=980c2b64-5ae6-4e8e-ac4f-88eb697394b6"},"vehicle_type_id":"4","last_reported":1731762916,"current_range_meters":19200,"station_id":"ce4bhm92rcd13ifvqglg","pricing_plan_id":"cebpf4jnsgd1na2vs0mg"},{"bike_id":"bb8447e5-48bd-43b3-ba43-d4081184fb20","system_id":"levelo_inurba_marseille","lat":43.2998,"lon":5.37181,"is_reserved":false,"is_disabled":false,"rental_uris":{"android":"levelo://app?vid=bb8447e5-48bd-43b3-ba43-d4081184fb20","ios":"levelo://app?vid=bb8447e5-48bd-43b3-ba43-d4081184fb20"},"vehicle_type_id":"4","last_reported":1731762916,"current_range_meters":20400,"station_id":"ce4bgr92rcd13ifvqc7g","pricing_plan_id":"cebpf4jnsgd1na2vs0mg"},{"bike_id":"f82da10c-cf42-4d1e-8b05-fcaa6def071f","system_id":"levelo_inurba_marseille","lat":43.29622,"lon":5.37153,"is_reserved":false,"is_disabled":false,"rental_uris":{"android":"levelo://app?vid=f82da10c-cf42-4d1e-8b05-fcaa6def071f","ios":"levelo://app?vid=f82da10c-cf42-4d1e-8b05-fcaa6def071f"},"vehicle_type_id":"4","last_reported":1731762916,"current_range_meters":35200,"station_id":"ce4bgnh2rcd13ifvqc0g","pricing_plan_id":"cebpf4jnsgd1na2vs0mg"},{"bike_id":"9e80fa8f-f0eb-4404-9b0d-a93074af700f","system_id":"levelo_inurba_marseille","lat":43.24172,"lon":5.36397,"is_reserved":false,"is_disabled":false,"rental_uris":{"android":"levelo://app?vid=9e80fa8f-f0eb-4404-9b0d-a93074af700f","ios":"levelo://app?vid=9e80fa8f-f0eb-4404-9b0d-a93074af700f"},"vehicle_type_id":"4","last_reported":1731762916,"current_range_meters":32400,"station_id":"cpo36qri1sfpv3e86is0","pricing_plan_id":"cebpf4jnsgd1na2vs0mg"},{"bike_id":"c7ad3112-6fa1-480b-b6f6-f0b1dce495ed","system_id":"levelo_inurba_marseille","lat":43.27381,"lon":5.3625,"is_reserved":false,"is_disabled":false,"rental_uris":{"android":"levelo://app?vid=c7ad3112-6fa1-480b-b6f6-f0b1dce495ed","ios":"levelo://app?vid=c7ad3112-6fa1-480b-b6f6-f0b1dce495ed"},"vehicle_type_id":"4","last_reported":1731762916,"current_range_meters":36800,"station_id":"ce4bhbh2rcd13ifvqeo0","pricing_plan_id":"cebpf4jnsgd1na2vs0mg"},{"bike_id":"da6c4056-b9d9-4fbd-9bff-fdbb53bf99fa","system_id":"levelo_inurba_marseille","lat":43.31715,"lon":5.37751,"is_reserved":false,"is_disabled":false,"rental_uris":{"android":"levelo://app?vid=da6c4056-b9d9-4fbd-9bff-fdbb53bf99fa","ios":"levelo://app?vid=da6c4056-b9d9-4fbd-9bff-fdbb53bf99fa"},"vehicle_type_id":"4","last_reported":1731762916,"current_range_meters":38800,"station_id":"ce4bgth2rcd13ifvqch0","pricing_plan_id":"cebpf4jnsgd1na2vs0mg"},{"bike_id":"65f4b027-fd60-4d5d-8a33-e74f71dcc4ab","system_id":"levelo_inurba_marseille","lat":43.28565,"lon":5.39499,"is_reserved":false,"is_disabled":false,"rental_uris":{"android":"levelo://app?vid=65f4b027-fd60-4d5d-8a33-e74f71dcc4ab","ios":"levelo://app?vid=65f4b027-fd60-4d5d-8a33-e74f71dcc4ab"},"vehicle_type_id":"4","last_reported":1731762916,"current_range_meters":30800,"station_id":"ce4bh292rcd13ifvqdg0","pricing_plan_id":"cebpf4jnsgd1na2vs0mg"},{"bike_id":"c87b5976-6cb2-450f-9074-786d4faa61f0","system_id":"levelo_inurba_marseille","lat":43.25723,"lon":5.41109,"is_reserved":false,"is_disabled":false,"rental_uris":{"android":"levelo://app?vid=c87b5976-6cb2-450f-9074-786d4faa61f0","ios":"levelo://app?vid=c87b5976-6cb2-450f-9074-786d4faa61f0"},"vehicle_type_id":"4","last_reported":1731762916,"current_range_meters":31200,"station_id":"ce4bhkp2rcd13ifvqgd0","pricing_plan_id":"cebpf4jnsgd1na2vs0mg"},{"bike_id":"46632805-d598-46ca-8978-4f5e71b702c6","system_id":"levelo_inurba_marseille","lat":43.28156,"lon":5.42636,"is_reserved":false,"is_disabled":false,"rental_uris":{"android":"levelo://app?vid=46632805-d598-46ca-8978-4f5e71b702c6","ios":"levelo://app?vid=46632805-d598-46ca-8978-4f5e71b702c6"},"vehicle_type_id":"4","last_reported":1731762916,"current_range_meters":37600,"station_id":"ce4bhnh2rcd13ifvqgug","pricing_plan_id":"cebpf4jnsgd1na2vs0mg"},{"bike_id":"d9906bd0-44a4-461f-ad8c-6931dca74a9e","system_id":"levelo_inurba_marseille","lat":43.232,"lon":5.35554,"is_reserved":false,"is_disabled":false,"rental_uris":{"android":"levelo://app?vid=d9906bd0-44a4-461f-ad8c-6931dca74a9e","ios":"levelo://app?vid=d9906bd0-44a4-461f-ad8c-6931dca74a9e"},"vehicle_type_id":"4","last_reported":1731762916,"current_range_meters":38800,"station_id":"ce4bhu92rcd13ifvqi70","pricing_plan_id":"cebpf4jnsgd1na2vs0mg"},{"bike_id":"de5c5592-d54e-4a35-9670-b00e0ce0d28e","system_id":"levelo_inurba_marseille","lat":43.28369,"lon":5.38653,"is_reserved":false,"is_disabled":false,"rental_uris":{"android":"levelo://app?vid=de5c5592-d54e-4a35-9670-b00e0ce0d28e","ios":"levelo://app?vid=de5c5592-d54e-4a35-9670-b00e0ce0d28e"},"vehicle_type_id":"4","last_reported":1731762916,"current_range_meters":7200,"station_id":"ce4bh492rcd13ifvqdvg","pricing_plan_id":"cebpf4jnsgd1na2vs0mg"},{"bike_id":"2c7da520-bf3f-4579-bbaf-d8bed38515fb","system_id":"levelo_inurba_marseille","lat":43.24656,"lon":5.38898,"is_reserved":false,"is_disabled":false,"rental_uris":{"android":"levelo://app?vid=2c7da520-bf3f-4579-bbaf-d8bed38515fb","ios":"levelo://app?vid=2c7da520-bf3f-4579-bbaf-d8bed38515fb"},"vehicle_type_id":"4","last_reported":1731762916,"current_range_meters":39200,"station_id":"ce4bhg12rcd13ifvqf60","pricing_plan_id":"cebpf4jnsgd1na2vs0mg"},{"bike_id":"6a797df7-a43a-4a5b-8f0a-e7afe1242b04","system_id":"levelo_inurba_marseille","lat":43.337444,"lon":5.374475,"is_reserved":false,"is_disabled":false,"rental_uris":{"android":"levelo://app?vid=6a797df7-a43a-4a5b-8f0a-e7afe1242b04","ios":"levelo://app?vid=6a797df7-a43a-4a5b-8f0a-e7afe1242b04"},"vehicle_type_id":"4","last_reported":1731762916,"current_range_meters":24000,"station_id":"","pricing_plan_id":"cebpf4jnsgd1na2vs0mg"},{"bike_id":"a05975dd-ac27-443b-9917-8933f9a0d852","system_id":"levelo_inurba_marseille","lat":43.3015,"lon":5.37417,"is_reserved":false,"is_disabled":false,"rental_uris":{"android":"levelo://app?vid=a05975dd-ac27-443b-9917-8933f9a0d852","ios":"levelo://app?vid=a05975dd-ac27-443b-9917-8933f9a0d852"},"vehicle_type_id":"4","last_reported":1731762916,"current_range_meters":9200,"station_id":"ce4bgs92rcd13ifvqcc0","pricing_plan_id":"cebpf4jnsgd1na2vs0mg"},{"bike_id":"d7c17772-7044-4eb6-9f10-218c34625bf9","system_id":"levelo_inurba_marseille","lat":43.27998,"lon":5.40011,"is_reserved":false,"is_disabled":false,"rental_uris":{"android":"levelo://app?vid=d7c17772-7044-4eb6-9f10-218c34625bf9","ios":"levelo://app?vid=d7c17772-7044-4eb6-9f10-218c34625bf9"},"vehicle_type_id":"4","last_reported":1731762916,"current_range_meters":12400,"station_id":"ce4bho92rcd13ifvqh4g","pricing_plan_id":"cebpf4jnsgd1na2vs0mg"},{"bike_id":"12867844-fa2a-41b2-8d74-706d4ef15909","system_id":"levelo_inurba_marseille","lat":43.337444,"lon":5.374475,"is_reserved":false,"is_disabled":false,"rental_uris":{"android":"levelo://app?vid=12867844-fa2a-41b2-8d74-706d4ef15909","ios":"levelo://app?vid=12867844-fa2a-41b2-8d74-706d4ef15909"},"vehicle_type_id":"4","last_reported":1731762916,"current_range_meters":24800,"station_id":"","pricing_plan_id":"cebpf4jnsgd1na2vs0mg"},{"bike_id":"36153c6b-e3e9-4ef1-9f64-153b02bef0bc","system_id":"levelo_inurba_marseille","lat":43.31706,"lon":5.37751,"is_reserved":false,"is_disabled":false,"rental_uris":{"android":"levelo://app?vid=36153c6b-e3e9-4ef1-9f64-153b02bef0bc","ios":"levelo://app?vid=36153c6b-e3e9-4ef1-9f64-153b02bef0bc"},"vehicle_type_id":"4","last_reported":1731762916,"current_range_meters":38800,"station_id":"ce4bgth2rcd13ifvqch0","pricing_plan_id":"cebpf4jnsgd1na2vs0mg"},{"bike_id":"c7df644c-1bb2-4c76-a135-c3504f376860","system_id":"levelo_inurba_marseille","lat":43.23201,"lon":5.35549,"is_reserved":false,"is_disabled":false,"rental_uris":{"android":"levelo://app?vid=c7df644c-1bb2-4c76-a135-c3504f376860","ios":"levelo://app?vid=c7df644c-1bb2-4c76-a135-c3504f376860"},"vehicle_type_id":"4","last_reported":1731762916,"current_range_meters":19600,"station_id":"ce4bhu92rcd13ifvqi70","pricing_plan_id":"cebpf4jnsgd1na2vs0mg"},{"bike_id":"2610ed50-4190-4312-88b9-8147e9923eae","system_id":"levelo_inurba_marseille","lat":43.2481,"lon":5.37463,"is_reserved":false,"is_disabled":false,"rental_uris":{"android":"levelo://app?vid=2610ed50-4190-4312-88b9-8147e9923eae","ios":"levelo://app?vid=2610ed50-4190-4312-88b9-8147e9923eae"},"vehicle_type_id":"4","last_reported":1731762916,"current_range_meters":38400,"station_id":"ce4bhgh2rcd13ifvqfb0","pricing_plan_id":"cebpf4jnsgd1na2vs0mg"},{"bike_id":"d206d41a-8ea1-48b7-8dea-76f005b54e28","system_id":"levelo_inurba_marseille","lat":43.33764,"lon":5.37435,"is_reserved":false,"is_disabled":false,"rental_uris":{"android":"levelo://app?vid=d206d41a-8ea1-48b7-8dea-76f005b54e28","ios":"levelo://app?vid=d206d41a-8ea1-48b7-8dea-76f005b54e28"},"vehicle_type_id":"4","last_reported":1731762916,"current_range_meters":26000,"station_id":"","pricing_plan_id":"cebpf4jnsgd1na2vs0mg"},{"bike_id":"005de976-a689-481c-b725-13756f824a0a","system_id":"levelo_inurba_marseille","lat":43.2756,"lon":5.38428,"is_reserved":false,"is_disabled":false,"rental_uris":{"android":"levelo://app?vid=005de976-a689-481c-b725-13756f824a0a","ios":"levelo://app?vid=005de976-a689-481c-b725-13756f824a0a"},"vehicle_type_id":"4","last_reported":1731762916,"current_range_meters":12400,"station_id":"ce4bhh92rcd13ifvqfi0","pricing_plan_id":"cebpf4jnsgd1na2vs0mg"},{"bike_id":"9a5d6720-6ceb-4569-a07e-0a4e1004a678","system_id":"levelo_inurba_marseille","lat":43.27974,"lon":5.38732,"is_reserved":false,"is_disabled":false,"rental_uris":{"android":"levelo://app?vid=9a5d6720-6ceb-4569-a07e-0a4e1004a678","ios":"levelo://app?vid=9a5d6720-6ceb-4569-a07e-0a4e1004a678"},"vehicle_type_id":"4","last_reported":1731762916,"current_range_meters":12400,"station_id":"ce4bhg12rcd13ifvqf80","pricing_plan_id":"cebpf4jnsgd1na2vs0mg"},{"bike_id":"e566438e-8ac1-4430-8aa3-ac76eab63759","system_id":"levelo_inurba_marseille","lat":43.28458,"lon":5.35895,"is_reserved":false,"is_disabled":false,"rental_uris":{"android":"levelo://app?vid=e566438e-8ac1-4430-8aa3-ac76eab63759","ios":"levelo://app?vid=e566438e-8ac1-4430-8aa3-ac76eab63759"},"vehicle_type_id":"4","last_reported":1731762916,"current_range_meters":33200,"station_id":"ce4bhah2rcd13ifvqei0","pricing_plan_id":"cebpf4jnsgd1na2vs0mg"},{"bike_id":"262f1cc5-bb83-4ac5-b4c8-b8efd0d615a3","system_id":"levelo_inurba_marseille","lat":43.278351,"lon":5.39197,"is_reserved":false,"is_disabled":false,"rental_uris":{"android":"levelo://app?vid=262f1cc5-bb83-4ac5-b4c8-b8efd0d615a3","ios":"levelo://app?vid=262f1cc5-bb83-4ac5-b4c8-b8efd0d615a3"},"vehicle_type_id":"4","last_reported":1731762916,"current_range_meters":8800,"station_id":"ce4bhjp2rcd13ifvqga0","pricing_plan_id":"cebpf4jnsgd1na2vs0mg"},{"bike_id":"5771df87-4eba-4f23-85b3-2ced17f29f2f","system_id":"levelo_inurba_marseille","lat":43.2841,"lon":5.37523,"is_reserved":false,"is_disabled":false,"rental_uris":{"android":"levelo://app?vid=5771df87-4eba-4f23-85b3-2ced17f29f2f","ios":"levelo://app?vid=5771df87-4eba-4f23-85b3-2ced17f29f2f"},"vehicle_type_id":"4","last_reported":1731762916,"current_range_meters":34800,"station_id":"ce4bh412rcd13ifvqds0","pricing_plan_id":"cebpf4jnsgd1na2vs0mg"},{"bike_id":"606b45be-7ce0-4dc8-af38-6e49c3c33fc3","system_id":"levelo_inurba_marseille","lat":43.30598,"lon":5.37229,"is_reserved":false,"is_disabled":false,"rental_uris":{"android":"levelo://app?vid=606b45be-7ce0-4dc8-af38-6e49c3c33fc3","ios":"levelo://app?vid=606b45be-7ce0-4dc8-af38-6e49c3c33fc3"},"vehicle_type_id":"4","last_reported":1731762916,"current_range_meters":39200,"station_id":"ce4bgqh2rcd13ifvqc4g","pricing_plan_id":"cebpf4jnsgd1na2vs0mg"},{"bike_id":"7407ba55-0e69-463f-b9ed-ec68973f1e99","system_id":"levelo_inurba_marseille","lat":43.27907,"lon":5.38012,"is_reserved":false,"is_disabled":false,"rental_uris":{"android":"levelo://app?vid=7407ba55-0e69-463f-b9ed-ec68973f1e99","ios":"levelo://app?vid=7407ba55-0e69-463f-b9ed-ec68973f1e99"},"vehicle_type_id":"4","last_reported":1731762916,"current_range_meters":26000,"station_id":"ce4bhf92rcd13ifvqf50","pricing_plan_id":"cebpf4jnsgd1na2vs0mg"},{"bike_id":"311ff7fc-adba-4c98-abf6-61341c6e123d","system_id":"levelo_inurba_marseille","lat":43.28433,"lon":5.39195,"is_reserved":false,"is_disabled":false,"rental_uris":{"android":"levelo://app?vid=311ff7fc-adba-4c98-abf6-61341c6e123d","ios":"levelo://app?vid=311ff7fc-adba-4c98-abf6-61341c6e123d"},"vehicle_type_id":"4","last_reported":1731762916,"current_range_meters":38800,"station_id":"ce4bhoh2rcd13ifvqh5g","pricing_plan_id":"cebpf4jnsgd1na2vs0mg"},{"bike_id":"974343d7-66ff-4569-be68-a69500e264e1","system_id":"levelo_inurba_marseille","lat":43.30304,"lon":5.36907,"is_reserved":false,"is_disabled":false,"rental_uris":{"android":"levelo://app?vid=974343d7-66ff-4569-be68-a69500e264e1","ios":"levelo://app?vid=974343d7-66ff-4569-be68-a69500e264e1"},"vehicle_type_id":"4","last_reported":1731762916,"current_range_meters":20400,"station_id":"ce4bgqh2rcd13ifvqc5g","pricing_plan_id":"cebpf4jnsgd1na2vs0mg"},{"bike_id":"140a7de3-ae37-4911-a978-0204434e01a5","system_id":"levelo_inurba_marseille","lat":43.30602,"lon":5.37232,"is_reserved":false,"is_disabled":false,"rental_uris":{"android":"levelo://app?vid=140a7de3-ae37-4911-a978-0204434e01a5","ios":"levelo://app?vid=140a7de3-ae37-4911-a978-0204434e01a5"},"vehicle_type_id":"4","last_reported":1731762916,"current_range_meters":24000,"station_id":"ce4bgqh2rcd13ifvqc4g","pricing_plan_id":"cebpf4jnsgd1na2vs0mg"},{"bike_id":"505a295f-ff1f-48dd-aaa7-c188569d323b","system_id":"levelo_inurba_marseille","lat":43.22227,"lon":5.34581,"is_reserved":false,"is_disabled":false,"rental_uris":{"android":"levelo://app?vid=505a295f-ff1f-48dd-aaa7-c188569d323b","ios":"levelo://app?vid=505a295f-ff1f-48dd-aaa7-c188569d323b"},"vehicle_type_id":"4","last_reported":1731762916,"current_range_meters":30000,"station_id":"","pricing_plan_id":"cebpf4jnsgd1na2vs0mg"},{"bike_id":"d012c549-f157-4e38-930f-a301d7835c27","system_id":"levelo_inurba_marseille","lat":43.2306,"lon":5.3549,"is_reserved":false,"is_disabled":false,"rental_uris":{"android":"levelo://app?vid=d012c549-f157-4e38-930f-a301d7835c27","ios":"levelo://app?vid=d012c549-f157-4e38-930f-a301d7835c27"},"vehicle_type_id":"4","last_reported":1731762916,"current_range_meters":19600,"station_id":"cpo3342slgdg3j2ifvpg","pricing_plan_id":"cebpf4jnsgd1na2vs0mg"},{"bike_id":"ba5daa89-cf31-41ce-9aa9-708e62b910b5","system_id":"levelo_inurba_marseille","lat":43.29899,"lon":5.4367,"is_reserved":false,"is_disabled":false,"rental_uris":{"android":"levelo://app?vid=ba5daa89-cf31-41ce-9aa9-708e62b910b5","ios":"levelo://app?vid=ba5daa89-cf31-41ce-9aa9-708e62b910b5"},"vehicle_type_id":"4","last_reported":1731762916,"current_range_meters":6000,"station_id":"ce4bhpp2rcd13ifvqhfg","pricing_plan_id":"cebpf4jnsgd1na2vs0mg"},{"bike_id":"36f3d622-5c64-4559-a91e-3953e8118903","system_id":"levelo_inurba_marseille","lat":43.28158,"lon":5.42641,"is_reserved":false,"is_disabled":false,"rental_uris":{"android":"levelo://app?vid=36f3d622-5c64-4559-a91e-3953e8118903","ios":"levelo://app?vid=36f3d622-5c64-4559-a91e-3953e8118903"},"vehicle_type_id":"4","last_reported":1731762916,"current_range_meters":11600,"station_id":"ce4bhnh2rcd13ifvqgug","pricing_plan_id":"cebpf4jnsgd1na2vs0mg"},{"bike_id":"0d529bea-10e7-4d9a-837d-ce36e5c8f45d","system_id":"levelo_inurba_marseille","lat":43.2768,"lon":5.38876,"is_reserved":false,"is_disabled":false,"rental_uris":{"android":"levelo://app?vid=0d529bea-10e7-4d9a-837d-ce36e5c8f45d","ios":"levelo://app?vid=0d529bea-10e7-4d9a-837d-ce36e5c8f45d"},"vehicle_type_id":"4","last_reported":1731762916,"current_range_meters":20400,"station_id":"ce4bhi12rcd13ifvqfo0","pricing_plan_id":"cebpf4jnsgd1na2vs0mg"},{"bike_id":"36431332-30c9-4c92-a4d2-20d5845ab51d","system_id":"levelo_inurba_marseille","lat":43.2749,"lon":5.42463,"is_reserved":false,"is_disabled":false,"rental_uris":{"android":"levelo://app?vid=36431332-30c9-4c92-a4d2-20d5845ab51d","ios":"levelo://app?vid=36431332-30c9-4c92-a4d2-20d5845ab51d"},"vehicle_type_id":"4","last_reported":1731762916,"current_range_meters":24800,"station_id":"ce4bhn92rcd13ifvqgrg","pricing_plan_id":"cebpf4jnsgd1na2vs0mg"},{"bike_id":"e118ac8d-9168-42ee-a9c1-966189a35f29","system_id":"levelo_inurba_marseille","lat":43.2732,"lon":5.39067,"is_reserved":false,"is_disabled":false,"rental_uris":{"android":"levelo://app?vid=e118ac8d-9168-42ee-a9c1-966189a35f29","ios":"levelo://app?vid=e118ac8d-9168-42ee-a9c1-966189a35f29"},"vehicle_type_id":"4","last_reported":1731762916,"current_range_meters":16400,"station_id":"ce4bhgp2rcd13ifvqfe0","pricing_plan_id":"cebpf4jnsgd1na2vs0mg"},{"bike_id":"d7cad7ba-a3cf-4113-8f4d-63bd503bb522","system_id":"levelo_inurba_marseille","lat":43.27612,"lon":5.36104,"is_reserved":false,"is_disabled":false,"rental_uris":{"android":"levelo://app?vid=d7cad7ba-a3cf-4113-8f4d-63bd503bb522","ios":"levelo://app?vid=d7cad7ba-a3cf-4113-8f4d-63bd503bb522"},"vehicle_type_id":"4","last_reported":1731762916,"current_range_meters":19200,"station_id":"ce4bgj92rcd13ifvqbe0","pricing_plan_id":"cebpf4jnsgd1na2vs0mg"},{"bike_id":"7fb6425f-469e-4672-8937-f235854a00af","system_id":"levelo_inurba_marseille","lat":43.26512,"lon":5.39534,"is_reserved":false,"is_disabled":false,"rental_uris":{"android":"levelo://app?vid=7fb6425f-469e-4672-8937-f235854a00af","ios":"levelo://app?vid=7fb6425f-469e-4672-8937-f235854a00af"},"vehicle_type_id":"4","last_reported":1731762916,"current_range_meters":23200,"station_id":"ce4bhi12rcd13ifvqfq0","pricing_plan_id":"cebpf4jnsgd1na2vs0mg"},{"bike_id":"1187d249-3a0b-494b-abc3-854b255d2820","system_id":"levelo_inurba_marseille","lat":43.26948,"lon":5.38633,"is_reserved":false,"is_disabled":false,"rental_uris":{"android":"levelo://app?vid=1187d249-3a0b-494b-abc3-854b255d2820","ios":"levelo://app?vid=1187d249-3a0b-494b-abc3-854b255d2820"},"vehicle_type_id":"4","last_reported":1731762916,"current_range_meters":39200,"station_id":"ce4bhh92rcd13ifvqfh0","pricing_plan_id":"cebpf4jnsgd1na2vs0mg"},{"bike_id":"34fc634c-5de1-4a26-ba3c-87bb085be596","system_id":"levelo_inurba_marseille","lat":43.30881,"lon":5.39652,"is_reserved":false,"is_disabled":false,"rental_uris":{"android":"levelo://app?vid=34fc634c-5de1-4a26-ba3c-87bb085be596","ios":"levelo://app?vid=34fc634c-5de1-4a26-ba3c-87bb085be596"},"vehicle_type_id":"4","last_reported":1731762916,"current_range_meters":24000,"station_id":"ce4bh012rcd13ifvqcv0","pricing_plan_id":"cebpf4jnsgd1na2vs0mg"},{"bike_id":"9d256885-f74a-4bdd-9fc1-fad5baf98559","system_id":"levelo_inurba_marseille","lat":43.27482,"lon":5.42462,"is_reserved":false,"is_disabled":false,"rental_uris":{"android":"levelo://app?vid=9d256885-f74a-4bdd-9fc1-fad5baf98559","ios":"levelo://app?vid=9d256885-f74a-4bdd-9fc1-fad5baf98559"},"vehicle_type_id":"4","last_reported":1731762916,"current_range_meters":17600,"station_id":"ce4bhn92rcd13ifvqgrg","pricing_plan_id":"cebpf4jnsgd1na2vs0mg"},{"bike_id":"75b6330c-37a3-4886-a871-57cc21a1b027","system_id":"levelo_inurba_marseille","lat":43.29005,"lon":5.35594,"is_reserved":false,"is_disabled":false,"rental_uris":{"android":"levelo://app?vid=75b6330c-37a3-4886-a871-57cc21a1b027","ios":"levelo://app?vid=75b6330c-37a3-4886-a871-57cc21a1b027"},"vehicle_type_id":"4","last_reported":1731762916,"current_range_meters":32400,"station_id":"ce4bhb92rcd13ifvqen0","pricing_plan_id":"cebpf4jnsgd1na2vs0mg"},{"bike_id":"717497b2-1432-4fca-8750-6edeb279ae43","system_id":"levelo_inurba_marseille","lat":43.31278,"lon":5.4017,"is_reserved":false,"is_disabled":false,"rental_uris":{"android":"levelo://app?vid=717497b2-1432-4fca-8750-6edeb279ae43","ios":"levelo://app?vid=717497b2-1432-4fca-8750-6edeb279ae43"},"vehicle_type_id":"4","last_reported":1731762916,"current_range_meters":38800,"station_id":"ce4bh092rcd13ifvqd30","pricing_plan_id":"cebpf4jnsgd1na2vs0mg"},{"bike_id":"89005150-5307-4b45-9e0d-045c12d73b80","system_id":"levelo_inurba_marseille","lat":43.28276,"lon":5.35072,"is_reserved":false,"is_disabled":false,"rental_uris":{"android":"levelo://app?vid=89005150-5307-4b45-9e0d-045c12d73b80","ios":"levelo://app?vid=89005150-5307-4b45-9e0d-045c12d73b80"},"vehicle_type_id":"4","last_reported":1731762916,"current_range_meters":12000,"station_id":"ce4bhbp2rcd13ifvqerg","pricing_plan_id":"cebpf4jnsgd1na2vs0mg"},{"bike_id":"3f37f7d7-cfd0-46ff-ad64-e239f9c03c2e","system_id":"levelo_inurba_marseille","lat":43.33023,"lon":5.39041,"is_reserved":false,"is_disabled":false,"rental_uris":{"android":"levelo://app?vid=3f37f7d7-cfd0-46ff-ad64-e239f9c03c2e","ios":"levelo://app?vid=3f37f7d7-cfd0-46ff-ad64-e239f9c03c2e"},"vehicle_type_id":"4","last_reported":1731762916,"current_range_meters":38800,"station_id":"ce4bhr92rcd13ifvqhrg","pricing_plan_id":"cebpf4jnsgd1na2vs0mg"},{"bike_id":"71822049-b518-4744-9294-1ce73682b4d9","system_id":"levelo_inurba_marseille","lat":43.29363,"lon":5.3786,"is_reserved":false,"is_disabled":false,"rental_uris":{"android":"levelo://app?vid=71822049-b518-4744-9294-1ce73682b4d9","ios":"levelo://app?vid=71822049-b518-4744-9294-1ce73682b4d9"},"vehicle_type_id":"4","last_reported":1731762916,"current_range_meters":19600,"station_id":"ce4bgjh2rcd13ifvqbf0","pricing_plan_id":"cebpf4jnsgd1na2vs0mg"},{"bike_id":"febceee8-9349-4646-85b1-b868e8c3b497","system_id":"levelo_inurba_marseille","lat":43.28424,"lon":5.34997,"is_reserved":false,"is_disabled":false,"rental_uris":{"android":"levelo://app?vid=febceee8-9349-4646-85b1-b868e8c3b497","ios":"levelo://app?vid=febceee8-9349-4646-85b1-b868e8c3b497"},"vehicle_type_id":"4","last_reported":1731762916,"current_range_meters":12400,"station_id":"ce4bhbh2rcd13ifvqepg","pricing_plan_id":"cebpf4jnsgd1na2vs0mg"},{"bike_id":"c66415a5-5b72-4ca5-9ca1-211f53b7abf9","system_id":"levelo_inurba_marseille","lat":43.31525,"lon":5.3804,"is_reserved":false,"is_disabled":false,"rental_uris":{"android":"levelo://app?vid=c66415a5-5b72-4ca5-9ca1-211f53b7abf9","ios":"levelo://app?vid=c66415a5-5b72-4ca5-9ca1-211f53b7abf9"},"vehicle_type_id":"4","last_reported":1731762916,"current_range_meters":38400,"station_id":"ce4bhsp2rcd13ifvqi50","pricing_plan_id":"cebpf4jnsgd1na2vs0mg"},{"bike_id":"d6029a07-4312-42af-9590-5c6b5c606e61","system_id":"levelo_inurba_marseille","lat":43.25579,"lon":5.38238,"is_reserved":false,"is_disabled":false,"rental_uris":{"android":"levelo://app?vid=d6029a07-4312-42af-9590-5c6b5c606e61","ios":"levelo://app?vid=d6029a07-4312-42af-9590-5c6b5c606e61"},"vehicle_type_id":"4","last_reported":1731762916,"current_range_meters":38000,"station_id":"ce4bhih2rcd13ifvqfs0","pricing_plan_id":"cebpf4jnsgd1na2vs0mg"},{"bike_id":"a1652313-7d14-4607-843a-66336bb24bbe","system_id":"levelo_inurba_marseille","lat":43.29519,"lon":5.3751,"is_reserved":false,"is_disabled":false,"rental_uris":{"android":"levelo://app?vid=a1652313-7d14-4607-843a-66336bb24bbe","ios":"levelo://app?vid=a1652313-7d14-4607-843a-66336bb24bbe"},"vehicle_type_id":"4","last_reported":1731762916,"current_range_meters":28000,"station_id":"ce4bgkp2rcd13ifvqbmg","pricing_plan_id":"cebpf4jnsgd1na2vs0mg"},{"bike_id":"9fd7a1f3-a23b-430f-a46e-07797ec16f5d","system_id":"levelo_inurba_marseille","lat":43.33779,"lon":5.3747,"is_reserved":false,"is_disabled":false,"rental_uris":{"android":"levelo://app?vid=9fd7a1f3-a23b-430f-a46e-07797ec16f5d","ios":"levelo://app?vid=9fd7a1f3-a23b-430f-a46e-07797ec16f5d"},"vehicle_type_id":"4","last_reported":1731762916,"current_range_meters":37600,"station_id":"","pricing_plan_id":"cebpf4jnsgd1na2vs0mg"},{"bike_id":"59c31e59-ad45-4236-b9a5-e1cc0321b9ff","system_id":"levelo_inurba_marseille","lat":43.22931,"lon":5.35373,"is_reserved":false,"is_disabled":false,"rental_uris":{"android":"levelo://app?vid=59c31e59-ad45-4236-b9a5-e1cc0321b9ff","ios":"levelo://app?vid=59c31e59-ad45-4236-b9a5-e1cc0321b9ff"},"vehicle_type_id":"4","last_reported":1731762916,"current_range_meters":19600,"station_id":"cpo3532slgdg3j2ikp40","pricing_plan_id":"cebpf4jnsgd1na2vs0mg"},{"bike_id":"911a706d-c30e-4a39-9d34-42e795497fc6","system_id":"levelo_inurba_marseille","lat":43.3266,"lon":5.40992,"is_reserved":false,"is_disabled":false,"rental_uris":{"android":"levelo://app?vid=911a706d-c30e-4a39-9d34-42e795497fc6","ios":"levelo://app?vid=911a706d-c30e-4a39-9d34-42e795497fc6"},"vehicle_type_id":"4","last_reported":1731762916,"current_range_meters":34000,"station_id":"ce4bhpp2rcd13ifvqhgg","pricing_plan_id":"cebpf4jnsgd1na2vs0mg"},{"bike_id":"420ac8e3-d580-4bcb-8ba4-48738772d9f0","system_id":"levelo_inurba_marseille","lat":43.23061,"lon":5.35491,"is_reserved":false,"is_disabled":false,"rental_uris":{"android":"levelo://app?vid=420ac8e3-d580-4bcb-8ba4-48738772d9f0","ios":"levelo://app?vid=420ac8e3-d580-4bcb-8ba4-48738772d9f0"},"vehicle_type_id":"4","last_reported":1731762916,"current_range_meters":4400,"station_id":"cpo3342slgdg3j2ifvpg","pricing_plan_id":"cebpf4jnsgd1na2vs0mg"},{"bike_id":"88d078f5-fad2-48fc-a02b-9b261e02cde7","system_id":"levelo_inurba_marseille","lat":43.29007,"lon":5.35613,"is_reserved":false,"is_disabled":false,"rental_uris":{"android":"levelo://app?vid=88d078f5-fad2-48fc-a02b-9b261e02cde7","ios":"levelo://app?vid=88d078f5-fad2-48fc-a02b-9b261e02cde7"},"vehicle_type_id":"4","last_reported":1731762916,"current_range_meters":38800,"station_id":"ce4bhb92rcd13ifvqen0","pricing_plan_id":"cebpf4jnsgd1na2vs0mg"},{"bike_id":"fc097786-01b4-4415-a1f7-819dc6511a43","system_id":"levelo_inurba_marseille","lat":43.29036,"lon":5.39967,"is_reserved":false,"is_disabled":false,"rental_uris":{"android":"levelo://app?vid=fc097786-01b4-4415-a1f7-819dc6511a43","ios":"levelo://app?vid=fc097786-01b4-4415-a1f7-819dc6511a43"},"vehicle_type_id":"4","last_reported":1731762916,"current_range_meters":8400,"station_id":"ce4bh392rcd13ifvqdm0","pricing_plan_id":"cebpf4jnsgd1na2vs0mg"},{"bike_id":"c1be2fed-b545-477a-a4d2-727636f4e4a3","system_id":"levelo_inurba_marseille","lat":43.30148,"lon":5.3807,"is_reserved":false,"is_disabled":false,"rental_uris":{"android":"levelo://app?vid=c1be2fed-b545-477a-a4d2-727636f4e4a3","ios":"levelo://app?vid=c1be2fed-b545-477a-a4d2-727636f4e4a3"},"vehicle_type_id":"4","last_reported":1731762916,"current_range_meters":8400,"station_id":"ce4bgjp2rcd13ifvqbh0","pricing_plan_id":"cebpf4jnsgd1na2vs0mg"},{"bike_id":"742a3675-3f27-4fe7-8aed-d24fd852fa11","system_id":"levelo_inurba_marseille","lat":43.29496,"lon":5.38173,"is_reserved":false,"is_disabled":false,"rental_uris":{"android":"levelo://app?vid=742a3675-3f27-4fe7-8aed-d24fd852fa11","ios":"levelo://app?vid=742a3675-3f27-4fe7-8aed-d24fd852fa11"},"vehicle_type_id":"4","last_reported":1731762916,"current_range_meters":17200,"station_id":"ce4bgl12rcd13ifvqbo0","pricing_plan_id":"cebpf4jnsgd1na2vs0mg"},{"bike_id":"d54f2dfa-2ad2-469a-8720-163ef98eb87d","system_id":"levelo_inurba_marseille","lat":43.25092,"lon":5.39518,"is_reserved":false,"is_disabled":false,"rental_uris":{"android":"levelo://app?vid=d54f2dfa-2ad2-469a-8720-163ef98eb87d","ios":"levelo://app?vid=d54f2dfa-2ad2-469a-8720-163ef98eb87d"},"vehicle_type_id":"4","last_reported":1731762916,"current_range_meters":23200,"station_id":"ce4bhm12rcd13ifvqgkg","pricing_plan_id":"cebpf4jnsgd1na2vs0mg"},{"bike_id":"40ef8929-036f-4b33-96b9-b96ff3a2cfe8","system_id":"levelo_inurba_marseille","lat":43.28666,"lon":5.36361,"is_reserved":false,"is_disabled":false,"rental_uris":{"android":"levelo://app?vid=40ef8929-036f-4b33-96b9-b96ff3a2cfe8","ios":"levelo://app?vid=40ef8929-036f-4b33-96b9-b96ff3a2cfe8"},"vehicle_type_id":"4","last_reported":1731762916,"current_range_meters":38800,"station_id":"ce4bhah2rcd13ifvqej0","pricing_plan_id":"cebpf4jnsgd1na2vs0mg"},{"bike_id":"4b9f4225-fb6d-433f-b75e-fc44cd5e36b3","system_id":"levelo_inurba_marseille","lat":43.29981,"lon":5.37177,"is_reserved":false,"is_disabled":false,"rental_uris":{"android":"levelo://app?vid=4b9f4225-fb6d-433f-b75e-fc44cd5e36b3","ios":"levelo://app?vid=4b9f4225-fb6d-433f-b75e-fc44cd5e36b3"},"vehicle_type_id":"4","last_reported":1731762916,"current_range_meters":20400,"station_id":"ce4bgr92rcd13ifvqc7g","pricing_plan_id":"cebpf4jnsgd1na2vs0mg"},{"bike_id":"29a90765-585c-4227-9ddc-31b6ddca1503","system_id":"levelo_inurba_marseille","lat":43.23197,"lon":5.35546,"is_reserved":false,"is_disabled":false,"rental_uris":{"android":"levelo://app?vid=29a90765-585c-4227-9ddc-31b6ddca1503","ios":"levelo://app?vid=29a90765-585c-4227-9ddc-31b6ddca1503"},"vehicle_type_id":"4","last_reported":1731762916,"current_range_meters":30000,"station_id":"ce4bhu92rcd13ifvqi70","pricing_plan_id":"cebpf4jnsgd1na2vs0mg"},{"bike_id":"6d757fef-4f26-43f9-ac2c-ffab39bf7dae","system_id":"levelo_inurba_marseille","lat":43.32249,"lon":5.36901,"is_reserved":false,"is_disabled":false,"rental_uris":{"android":"levelo://app?vid=6d757fef-4f26-43f9-ac2c-ffab39bf7dae","ios":"levelo://app?vid=6d757fef-4f26-43f9-ac2c-ffab39bf7dae"},"vehicle_type_id":"4","last_reported":1731762916,"current_range_meters":19600,"station_id":"","pricing_plan_id":"cebpf4jnsgd1na2vs0mg"},{"bike_id":"3dcbf25c-b03d-45cf-add9-f30e93c68092","system_id":"levelo_inurba_marseille","lat":43.2956,"lon":5.42289,"is_reserved":false,"is_disabled":false,"rental_uris":{"android":"levelo://app?vid=3dcbf25c-b03d-45cf-add9-f30e93c68092","ios":"levelo://app?vid=3dcbf25c-b03d-45cf-add9-f30e93c68092"},"vehicle_type_id":"4","last_reported":1731762916,"current_range_meters":38000,"station_id":"ce4bhph2rcd13ifvqhdg","pricing_plan_id":"cebpf4jnsgd1na2vs0mg"},{"bike_id":"85d6e933-076c-4be2-b466-0826a986282c","system_id":"levelo_inurba_marseille","lat":43.27206,"lon":5.39187,"is_reserved":false,"is_disabled":false,"rental_uris":{"android":"levelo://app?vid=85d6e933-076c-4be2-b466-0826a986282c","ios":"levelo://app?vid=85d6e933-076c-4be2-b466-0826a986282c"},"vehicle_type_id":"4","last_reported":1731762916,"current_range_meters":37600,"station_id":"ce4bhhp2rcd13ifvqfm0","pricing_plan_id":"cebpf4jnsgd1na2vs0mg"},{"bike_id":"0ff88d0a-2e3e-428d-8c80-aae6151d2fc8","system_id":"levelo_inurba_marseille","lat":43.29283,"lon":5.36847,"is_reserved":false,"is_disabled":false,"rental_uris":{"android":"levelo://app?vid=0ff88d0a-2e3e-428d-8c80-aae6151d2fc8","ios":"levelo://app?vid=0ff88d0a-2e3e-428d-8c80-aae6151d2fc8"},"vehicle_type_id":"4","last_reported":1731762916,"current_range_meters":17200,"station_id":"ce4bhbp2rcd13ifvqesg","pricing_plan_id":"cebpf4jnsgd1na2vs0mg"},{"bike_id":"cdfca6a3-e790-4518-9e12-60912a95166e","system_id":"levelo_inurba_marseille","lat":43.324899,"lon":5.36579,"is_reserved":false,"is_disabled":false,"rental_uris":{"android":"levelo://app?vid=cdfca6a3-e790-4518-9e12-60912a95166e","ios":"levelo://app?vid=cdfca6a3-e790-4518-9e12-60912a95166e"},"vehicle_type_id":"4","last_reported":1731762916,"current_range_meters":38800,"station_id":"ce4bhs12rcd13ifvqhvg","pricing_plan_id":"cebpf4jnsgd1na2vs0mg"},{"bike_id":"aad4669a-3cee-431b-b28a-1ae7cd9f6df0","system_id":"levelo_inurba_marseille","lat":43.24994,"lon":5.38933,"is_reserved":false,"is_disabled":false,"rental_uris":{"android":"levelo://app?vid=aad4669a-3cee-431b-b28a-1ae7cd9f6df0","ios":"levelo://app?vid=aad4669a-3cee-431b-b28a-1ae7cd9f6df0"},"vehicle_type_id":"4","last_reported":1731762916,"current_range_meters":24400,"station_id":"ce4bhgp2rcd13ifvqfd0","pricing_plan_id":"cebpf4jnsgd1na2vs0mg"},{"bike_id":"5f77c591-8b03-470e-a240-a63a58e6d295","system_id":"levelo_inurba_marseille","lat":43.28104,"lon":5.37838,"is_reserved":false,"is_disabled":false,"rental_uris":{"android":"levelo://app?vid=5f77c591-8b03-470e-a240-a63a58e6d295","ios":"levelo://app?vid=5f77c591-8b03-470e-a240-a63a58e6d295"},"vehicle_type_id":"4","last_reported":1731762916,"current_range_meters":27200,"station_id":"ce4bha12rcd13ifvqee0","pricing_plan_id":"cebpf4jnsgd1na2vs0mg"},{"bike_id":"6c00da88-f9cd-4e41-9965-df819382bec1","system_id":"levelo_inurba_marseille","lat":43.23154,"lon":5.43703,"is_reserved":false,"is_disabled":false,"rental_uris":{"android":"levelo://app?vid=6c00da88-f9cd-4e41-9965-df819382bec1","ios":"levelo://app?vid=6c00da88-f9cd-4e41-9965-df819382bec1"},"vehicle_type_id":"4","last_reported":1731762916,"current_range_meters":19200,"station_id":"ce4bhmp2rcd13ifvqgog","pricing_plan_id":"cebpf4jnsgd1na2vs0mg"},{"bike_id":"1cfc2675-9c57-4756-8168-4b8bdeac6c8b","system_id":"levelo_inurba_marseille","lat":43.299133,"lon":5.381349,"is_reserved":false,"is_disabled":false,"rental_uris":{"android":"levelo://app?vid=1cfc2675-9c57-4756-8168-4b8bdeac6c8b","ios":"levelo://app?vid=1cfc2675-9c57-4756-8168-4b8bdeac6c8b"},"vehicle_type_id":"4","last_reported":1731762916,"current_range_meters":27600,"station_id":"ce4bgj12rcd13ifvqbc0","pricing_plan_id":"cebpf4jnsgd1na2vs0mg"},{"bike_id":"7febe010-6cea-4473-a26f-dbcd437683d9","system_id":"levelo_inurba_marseille","lat":43.24662,"lon":5.38163,"is_reserved":false,"is_disabled":false,"rental_uris":{"android":"levelo://app?vid=7febe010-6cea-4473-a26f-dbcd437683d9","ios":"levelo://app?vid=7febe010-6cea-4473-a26f-dbcd437683d9"},"vehicle_type_id":"4","last_reported":1731762916,"current_range_meters":28400,"station_id":"ce4bhih2rcd13ifvqfr0","pricing_plan_id":"cebpf4jnsgd1na2vs0mg"},{"bike_id":"0381554e-0438-4fb8-a74c-f060b0e85c3c","system_id":"levelo_inurba_marseille","lat":43.29424,"lon":5.38623,"is_reserved":false,"is_disabled":false,"rental_uris":{"android":"levelo://app?vid=0381554e-0438-4fb8-a74c-f060b0e85c3c","ios":"levelo://app?vid=0381554e-0438-4fb8-a74c-f060b0e85c3c"},"vehicle_type_id":"4","last_reported":1731762916,"current_range_meters":32000,"station_id":"ce4bh2h2rcd13ifvqdh0","pricing_plan_id":"cebpf4jnsgd1na2vs0mg"},{"bike_id":"65659d58-a9b3-4c5d-84bb-d82956839694","system_id":"levelo_inurba_marseille","lat":43.30138,"lon":5.3741,"is_reserved":false,"is_disabled":false,"rental_uris":{"android":"levelo://app?vid=65659d58-a9b3-4c5d-84bb-d82956839694","ios":"levelo://app?vid=65659d58-a9b3-4c5d-84bb-d82956839694"},"vehicle_type_id":"4","last_reported":1731762916,"current_range_meters":37600,"station_id":"ce4bgs92rcd13ifvqcc0","pricing_plan_id":"cebpf4jnsgd1na2vs0mg"},{"bike_id":"a4e8e96c-867e-4521-9861-087b3f6c78bd","system_id":"levelo_inurba_marseille","lat":43.24999,"lon":5.3893,"is_reserved":false,"is_disabled":false,"rental_uris":{"android":"levelo://app?vid=a4e8e96c-867e-4521-9861-087b3f6c78bd","ios":"levelo://app?vid=a4e8e96c-867e-4521-9861-087b3f6c78bd"},"vehicle_type_id":"4","last_reported":1731762916,"current_range_meters":39200,"station_id":"ce4bhgp2rcd13ifvqfd0","pricing_plan_id":"cebpf4jnsgd1na2vs0mg"},{"bike_id":"85c6faf1-caca-4be7-8bdf-3f18846bd5df","system_id":"levelo_inurba_marseille","lat":43.26804,"lon":5.40262,"is_reserved":false,"is_disabled":false,"rental_uris":{"android":"levelo://app?vid=85c6faf1-caca-4be7-8bdf-3f18846bd5df","ios":"levelo://app?vid=85c6faf1-caca-4be7-8bdf-3f18846bd5df"},"vehicle_type_id":"4","last_reported":1731762916,"current_range_meters":38000,"station_id":"ce501612rcd8frsf0b60","pricing_plan_id":"cebpf4jnsgd1na2vs0mg"},{"bike_id":"3b527ced-0904-4196-96df-d6495913f93b","system_id":"levelo_inurba_marseille","lat":43.24669,"lon":5.3816,"is_reserved":false,"is_disabled":false,"rental_uris":{"android":"levelo://app?vid=3b527ced-0904-4196-96df-d6495913f93b","ios":"levelo://app?vid=3b527ced-0904-4196-96df-d6495913f93b"},"vehicle_type_id":"4","last_reported":1731762916,"current_range_meters":16400,"station_id":"ce4bhih2rcd13ifvqfr0","pricing_plan_id":"cebpf4jnsgd1na2vs0mg"},{"bike_id":"a7b3c0f6-c268-456c-ac17-5864101bda36","system_id":"levelo_inurba_marseille","lat":43.24649,"lon":5.3889,"is_reserved":false,"is_disabled":false,"rental_uris":{"android":"levelo://app?vid=a7b3c0f6-c268-456c-ac17-5864101bda36","ios":"levelo://app?vid=a7b3c0f6-c268-456c-ac17-5864101bda36"},"vehicle_type_id":"4","last_reported":1731762916,"current_range_meters":11200,"station_id":"ce4bhg12rcd13ifvqf60","pricing_plan_id":"cebpf4jnsgd1na2vs0mg"},{"bike_id":"54a36784-235f-4bff-a31b-8d83e35c7859","system_id":"levelo_inurba_marseille","lat":43.25579,"lon":5.382377,"is_reserved":false,"is_disabled":false,"rental_uris":{"android":"levelo://app?vid=54a36784-235f-4bff-a31b-8d83e35c7859","ios":"levelo://app?vid=54a36784-235f-4bff-a31b-8d83e35c7859"},"vehicle_type_id":"4","last_reported":1731762916,"current_range_meters":22800,"station_id":"ce4bhih2rcd13ifvqfs0","pricing_plan_id":"cebpf4jnsgd1na2vs0mg"},{"bike_id":"d7f79274-e640-43c4-b7dd-f4e3dad6011c","system_id":"levelo_inurba_marseille","lat":43.27996,"lon":5.4166,"is_reserved":false,"is_disabled":false,"rental_uris":{"android":"levelo://app?vid=d7f79274-e640-43c4-b7dd-f4e3dad6011c","ios":"levelo://app?vid=d7f79274-e640-43c4-b7dd-f4e3dad6011c"},"vehicle_type_id":"4","last_reported":1731762916,"current_range_meters":38800,"station_id":"ce4bho12rcd13ifvqh1g","pricing_plan_id":"cebpf4jnsgd1na2vs0mg"},{"bike_id":"f095f873-3c25-4d64-9c8a-9d3a77d97165","system_id":"levelo_inurba_marseille","lat":43.24078,"lon":5.37749,"is_reserved":false,"is_disabled":false,"rental_uris":{"android":"levelo://app?vid=f095f873-3c25-4d64-9c8a-9d3a77d97165","ios":"levelo://app?vid=f095f873-3c25-4d64-9c8a-9d3a77d97165"},"vehicle_type_id":"4","last_reported":1731762916,"current_range_meters":24800,"station_id":"ce4bhnp2rcd13ifvqgvg","pricing_plan_id":"cebpf4jnsgd1na2vs0mg"},{"bike_id":"052465b0-873b-4d86-b508-197a5ec55540","system_id":"levelo_inurba_marseille","lat":43.25582,"lon":5.38237,"is_reserved":false,"is_disabled":false,"rental_uris":{"android":"levelo://app?vid=052465b0-873b-4d86-b508-197a5ec55540","ios":"levelo://app?vid=052465b0-873b-4d86-b508-197a5ec55540"},"vehicle_type_id":"4","last_reported":1731762916,"current_range_meters":22800,"station_id":"ce4bhih2rcd13ifvqfs0","pricing_plan_id":"cebpf4jnsgd1na2vs0mg"},{"bike_id":"b86642f9-2f2d-48ec-b95c-b8d810fd43dc","system_id":"levelo_inurba_marseille","lat":43.23965,"lon":5.36626,"is_reserved":false,"is_disabled":false,"rental_uris":{"android":"levelo://app?vid=b86642f9-2f2d-48ec-b95c-b8d810fd43dc","ios":"levelo://app?vid=b86642f9-2f2d-48ec-b95c-b8d810fd43dc"},"vehicle_type_id":"4","last_reported":1731762916,"current_range_meters":16000,"station_id":"ce4bhi12rcd13ifvqfp0","pricing_plan_id":"cebpf4jnsgd1na2vs0mg"},{"bike_id":"1e8dbe25-17a3-4c32-8cbd-2ad8324f9029","system_id":"levelo_inurba_marseille","lat":43.28956,"lon":5.36421,"is_reserved":false,"is_disabled":false,"rental_uris":{"android":"levelo://app?vid=1e8dbe25-17a3-4c32-8cbd-2ad8324f9029","ios":"levelo://app?vid=1e8dbe25-17a3-4c32-8cbd-2ad8324f9029"},"vehicle_type_id":"4","last_reported":1731762916,"current_range_meters":32000,"station_id":"ce4bgs92rcd13ifvqcc0","pricing_plan_id":"cebpf4jnsgd1na2vs0mg"},{"bike_id":"31d2dc56-def3-4822-b9e2-4f1d1ccfdae3","system_id":"levelo_inurba_marseille","lat":43.29569,"lon":5.39975,"is_reserved":false,"is_disabled":false,"rental_uris":{"android":"levelo://app?vid=31d2dc56-def3-4822-b9e2-4f1d1ccfdae3","ios":"levelo://app?vid=31d2dc56-def3-4822-b9e2-4f1d1ccfdae3"},"vehicle_type_id":"4","last_reported":1731762916,"current_range_meters":26000,"station_id":"ce4bh312rcd13ifvqdj0","pricing_plan_id":"cebpf4jnsgd1na2vs0mg"},{"bike_id":"0822de53-10f1-4044-b858-548a2a7589b4","system_id":"levelo_inurba_marseille","lat":43.25828,"lon":5.39427,"is_reserved":false,"is_disabled":false,"rental_uris":{"android":"levelo://app?vid=0822de53-10f1-4044-b858-548a2a7589b4","ios":"levelo://app?vid=0822de53-10f1-4044-b858-548a2a7589b4"},"vehicle_type_id":"4","last_reported":1731762916,"current_range_meters":39200,"station_id":"ce4bhip2rcd13ifvqft0","pricing_plan_id":"cebpf4jnsgd1na2vs0mg"},{"bike_id":"eb9a84f5-6092-4dc4-a3c0-a07efb437c77","system_id":"levelo_inurba_marseille","lat":43.33776,"lon":5.37434,"is_reserved":false,"is_disabled":false,"rental_uris":{"android":"levelo://app?vid=eb9a84f5-6092-4dc4-a3c0-a07efb437c77","ios":"levelo://app?vid=eb9a84f5-6092-4dc4-a3c0-a07efb437c77"},"vehicle_type_id":"4","last_reported":1731762916,"current_range_meters":38800,"station_id":"","pricing_plan_id":"cebpf4jnsgd1na2vs0mg"},{"bike_id":"a57fb143-973c-47ab-ad9f-272f194992ef","system_id":"levelo_inurba_marseille","lat":43.23153,"lon":5.43706,"is_reserved":false,"is_disabled":false,"rental_uris":{"android":"levelo://app?vid=a57fb143-973c-47ab-ad9f-272f194992ef","ios":"levelo://app?vid=a57fb143-973c-47ab-ad9f-272f194992ef"},"vehicle_type_id":"4","last_reported":1731762916,"current_range_meters":12400,"station_id":"ce4bhmp2rcd13ifvqgog","pricing_plan_id":"cebpf4jnsgd1na2vs0mg"},{"bike_id":"57ab2634-cebb-4511-9ec6-293246055226","system_id":"levelo_inurba_marseille","lat":43.30953,"lon":5.39048,"is_reserved":false,"is_disabled":false,"rental_uris":{"android":"levelo://app?vid=57ab2634-cebb-4511-9ec6-293246055226","ios":"levelo://app?vid=57ab2634-cebb-4511-9ec6-293246055226"},"vehicle_type_id":"4","last_reported":1731762916,"current_range_meters":25600,"station_id":"ce4bgup2rcd13ifvqco0","pricing_plan_id":"cebpf4jnsgd1na2vs0mg"},{"bike_id":"417133a1-2200-4403-9da9-4790bc5cc00a","system_id":"levelo_inurba_marseille","lat":43.24181,"lon":5.39727,"is_reserved":false,"is_disabled":false,"rental_uris":{"android":"levelo://app?vid=417133a1-2200-4403-9da9-4790bc5cc00a","ios":"levelo://app?vid=417133a1-2200-4403-9da9-4790bc5cc00a"},"vehicle_type_id":"4","last_reported":1731762916,"current_range_meters":22400,"station_id":"ce4bhn12rcd13ifvqgpg","pricing_plan_id":"cebpf4jnsgd1na2vs0mg"},{"bike_id":"03fff82a-e494-4645-9dd5-4a513db56fbd","system_id":"levelo_inurba_marseille","lat":43.337444,"lon":5.374475,"is_reserved":false,"is_disabled":false,"rental_uris":{"android":"levelo://app?vid=03fff82a-e494-4645-9dd5-4a513db56fbd","ios":"levelo://app?vid=03fff82a-e494-4645-9dd5-4a513db56fbd"},"vehicle_type_id":"4","last_reported":1731762916,"current_range_meters":35600,"station_id":"","pricing_plan_id":"cebpf4jnsgd1na2vs0mg"},{"bike_id":"22ea48db-755d-43c3-a7d2-0beff01815d8","system_id":"levelo_inurba_marseille","lat":43.33765,"lon":5.37451,"is_reserved":false,"is_disabled":false,"rental_uris":{"android":"levelo://app?vid=22ea48db-755d-43c3-a7d2-0beff01815d8","ios":"levelo://app?vid=22ea48db-755d-43c3-a7d2-0beff01815d8"},"vehicle_type_id":"4","last_reported":1731762916,"current_range_meters":24800,"station_id":"","pricing_plan_id":"cebpf4jnsgd1na2vs0mg"},{"bike_id":"fcef6eeb-4dde-4e40-83d9-cfc202782f23","system_id":"levelo_inurba_marseille","lat":43.23967,"lon":5.36616,"is_reserved":false,"is_disabled":false,"rental_uris":{"android":"levelo://app?vid=fcef6eeb-4dde-4e40-83d9-cfc202782f23","ios":"levelo://app?vid=fcef6eeb-4dde-4e40-83d9-cfc202782f23"},"vehicle_type_id":"4","last_reported":1731762916,"current_range_meters":34000,"station_id":"ce4bhi12rcd13ifvqfp0","pricing_plan_id":"cebpf4jnsgd1na2vs0mg"},{"bike_id":"d759b2fa-5e8b-45c2-87d4-986fbbcf6533","system_id":"levelo_inurba_marseille","lat":43.33027,"lon":5.39042,"is_reserved":false,"is_disabled":false,"rental_uris":{"android":"levelo://app?vid=d759b2fa-5e8b-45c2-87d4-986fbbcf6533","ios":"levelo://app?vid=d759b2fa-5e8b-45c2-87d4-986fbbcf6533"},"vehicle_type_id":"4","last_reported":1731762916,"current_range_meters":22000,"station_id":"ce4bhr92rcd13ifvqhrg","pricing_plan_id":"cebpf4jnsgd1na2vs0mg"},{"bike_id":"bc285108-47f9-4ad1-bd08-689fef097fd6","system_id":"levelo_inurba_marseille","lat":43.28469,"lon":5.38417,"is_reserved":false,"is_disabled":false,"rental_uris":{"android":"levelo://app?vid=bc285108-47f9-4ad1-bd08-689fef097fd6","ios":"levelo://app?vid=bc285108-47f9-4ad1-bd08-689fef097fd6"},"vehicle_type_id":"4","last_reported":1731762916,"current_range_meters":22400,"station_id":"ce4bh512rcd13ifvqe3g","pricing_plan_id":"cebpf4jnsgd1na2vs0mg"},{"bike_id":"177db59b-b8ab-49f9-9ad1-eac7b66c33e6","system_id":"levelo_inurba_marseille","lat":43.23199,"lon":5.35558,"is_reserved":false,"is_disabled":false,"rental_uris":{"android":"levelo://app?vid=177db59b-b8ab-49f9-9ad1-eac7b66c33e6","ios":"levelo://app?vid=177db59b-b8ab-49f9-9ad1-eac7b66c33e6"},"vehicle_type_id":"4","last_reported":1731762916,"current_range_meters":16000,"station_id":"ce4bhu92rcd13ifvqi70","pricing_plan_id":"cebpf4jnsgd1na2vs0mg"},{"bike_id":"45156642-b4c8-42eb-82f7-126129e68141","system_id":"levelo_inurba_marseille","lat":43.25937,"lon":5.40905,"is_reserved":false,"is_disabled":false,"rental_uris":{"android":"levelo://app?vid=45156642-b4c8-42eb-82f7-126129e68141","ios":"levelo://app?vid=45156642-b4c8-42eb-82f7-126129e68141"},"vehicle_type_id":"4","last_reported":1731762916,"current_range_meters":24400,"station_id":"ce4bhm92rcd13ifvqglg","pricing_plan_id":"cebpf4jnsgd1na2vs0mg"},{"bike_id":"eb0b6258-25b5-4174-825d-16bccd206154","system_id":"levelo_inurba_marseille","lat":43.33027,"lon":5.39039,"is_reserved":false,"is_disabled":false,"rental_uris":{"android":"levelo://app?vid=eb0b6258-25b5-4174-825d-16bccd206154","ios":"levelo://app?vid=eb0b6258-25b5-4174-825d-16bccd206154"},"vehicle_type_id":"4","last_reported":1731762916,"current_range_meters":9200,"station_id":"ce4bhr92rcd13ifvqhrg","pricing_plan_id":"cebpf4jnsgd1na2vs0mg"},{"bike_id":"ca655f3b-8380-4045-b3f8-8acaa0e83ede","system_id":"levelo_inurba_marseille","lat":43.33739,"lon":5.37423,"is_reserved":false,"is_disabled":false,"rental_uris":{"android":"levelo://app?vid=ca655f3b-8380-4045-b3f8-8acaa0e83ede","ios":"levelo://app?vid=ca655f3b-8380-4045-b3f8-8acaa0e83ede"},"vehicle_type_id":"4","last_reported":1731762916,"current_range_meters":37600,"station_id":"","pricing_plan_id":"cebpf4jnsgd1na2vs0mg"},{"bike_id":"5014fbfa-bad7-4021-9ce1-84cdb1dd00c0","system_id":"levelo_inurba_marseille","lat":43.26555,"lon":5.37288,"is_reserved":false,"is_disabled":false,"rental_uris":{"android":"levelo://app?vid=5014fbfa-bad7-4021-9ce1-84cdb1dd00c0","ios":"levelo://app?vid=5014fbfa-bad7-4021-9ce1-84cdb1dd00c0"},"vehicle_type_id":"4","last_reported":1731762916,"current_range_meters":17600,"station_id":"ce4bhg12rcd13ifvqf70","pricing_plan_id":"cebpf4jnsgd1na2vs0mg"},{"bike_id":"2e298671-80fc-4060-bd3b-6941ddfa052f","system_id":"levelo_inurba_marseille","lat":43.32484,"lon":5.36563,"is_reserved":false,"is_disabled":false,"rental_uris":{"android":"levelo://app?vid=2e298671-80fc-4060-bd3b-6941ddfa052f","ios":"levelo://app?vid=2e298671-80fc-4060-bd3b-6941ddfa052f"},"vehicle_type_id":"4","last_reported":1731762916,"current_range_meters":39200,"station_id":"ce4bhs12rcd13ifvqhvg","pricing_plan_id":"cebpf4jnsgd1na2vs0mg"},{"bike_id":"a6b8c285-acc9-4039-9531-1aae39136a33","system_id":"levelo_inurba_marseille","lat":43.312042,"lon":5.367348,"is_reserved":false,"is_disabled":false,"rental_uris":{"android":"levelo://app?vid=a6b8c285-acc9-4039-9531-1aae39136a33","ios":"levelo://app?vid=a6b8c285-acc9-4039-9531-1aae39136a33"},"vehicle_type_id":"4","last_reported":1731762916,"current_range_meters":14800,"station_id":"","pricing_plan_id":"cebpf4jnsgd1na2vs0mg"},{"bike_id":"7533f0c2-14f7-425a-b3ed-0abe750ceb15","system_id":"levelo_inurba_marseille","lat":43.25586,"lon":5.38244,"is_reserved":false,"is_disabled":false,"rental_uris":{"android":"levelo://app?vid=7533f0c2-14f7-425a-b3ed-0abe750ceb15","ios":"levelo://app?vid=7533f0c2-14f7-425a-b3ed-0abe750ceb15"},"vehicle_type_id":"4","last_reported":1731762916,"current_range_meters":38800,"station_id":"ce4bhih2rcd13ifvqfs0","pricing_plan_id":"cebpf4jnsgd1na2vs0mg"},{"bike_id":"5c254126-8805-4ed8-9520-9f63561143b3","system_id":"levelo_inurba_marseille","lat":43.24167,"lon":5.36401,"is_reserved":false,"is_disabled":false,"rental_uris":{"android":"levelo://app?vid=5c254126-8805-4ed8-9520-9f63561143b3","ios":"levelo://app?vid=5c254126-8805-4ed8-9520-9f63561143b3"},"vehicle_type_id":"4","last_reported":1731762916,"current_range_meters":20800,"station_id":"cpo36qri1sfpv3e86is0","pricing_plan_id":"cebpf4jnsgd1na2vs0mg"},{"bike_id":"95189523-b163-438d-9cb1-f7dc4435500d","system_id":"levelo_inurba_marseille","lat":43.32334,"lon":5.40609,"is_reserved":false,"is_disabled":false,"rental_uris":{"android":"levelo://app?vid=95189523-b163-438d-9cb1-f7dc4435500d","ios":"levelo://app?vid=95189523-b163-438d-9cb1-f7dc4435500d"},"vehicle_type_id":"4","last_reported":1731762916,"current_range_meters":40000,"station_id":"ce4bhq92rcd13ifvqhjg","pricing_plan_id":"cebpf4jnsgd1na2vs0mg"},{"bike_id":"32fb8fcd-9b6e-4d51-81aa-23512ba1ae91","system_id":"levelo_inurba_marseille","lat":43.27184,"lon":5.40988,"is_reserved":false,"is_disabled":false,"rental_uris":{"android":"levelo://app?vid=32fb8fcd-9b6e-4d51-81aa-23512ba1ae91","ios":"levelo://app?vid=32fb8fcd-9b6e-4d51-81aa-23512ba1ae91"},"vehicle_type_id":"4","last_reported":1731762916,"current_range_meters":37600,"station_id":"ce4bhl12rcd13ifvqgf0","pricing_plan_id":"cebpf4jnsgd1na2vs0mg"},{"bike_id":"87bf5346-39f2-4ca4-9d60-63459e91e7f3","system_id":"levelo_inurba_marseille","lat":43.29692,"lon":5.37311,"is_reserved":false,"is_disabled":false,"rental_uris":{"android":"levelo://app?vid=87bf5346-39f2-4ca4-9d60-63459e91e7f3","ios":"levelo://app?vid=87bf5346-39f2-4ca4-9d60-63459e91e7f3"},"vehicle_type_id":"4","last_reported":1731762916,"current_range_meters":37600,"station_id":"ce4bgk12rcd13ifvqbj0","pricing_plan_id":"cebpf4jnsgd1na2vs0mg"},{"bike_id":"621f6eff-fccd-450a-9135-eebf57d5e756","system_id":"levelo_inurba_marseille","lat":43.29519,"lon":5.37504,"is_reserved":false,"is_disabled":false,"rental_uris":{"android":"levelo://app?vid=621f6eff-fccd-450a-9135-eebf57d5e756","ios":"levelo://app?vid=621f6eff-fccd-450a-9135-eebf57d5e756"},"vehicle_type_id":"4","last_reported":1731762916,"current_range_meters":36400,"station_id":"ce4bgkp2rcd13ifvqbmg","pricing_plan_id":"cebpf4jnsgd1na2vs0mg"},{"bike_id":"1ae8fe75-00ad-479b-a755-74d45d76bfbe","system_id":"levelo_inurba_marseille","lat":43.241696,"lon":5.364019,"is_reserved":false,"is_disabled":false,"rental_uris":{"android":"levelo://app?vid=1ae8fe75-00ad-479b-a755-74d45d76bfbe","ios":"levelo://app?vid=1ae8fe75-00ad-479b-a755-74d45d76bfbe"},"vehicle_type_id":"4","last_reported":1731762916,"current_range_meters":6400,"station_id":"cpo36qri1sfpv3e86is0","pricing_plan_id":"cebpf4jnsgd1na2vs0mg"},{"bike_id":"96d8105a-c2ca-4295-af1b-dff14b81056c","system_id":"levelo_inurba_marseille","lat":43.2904,"lon":5.3997,"is_reserved":false,"is_disabled":false,"rental_uris":{"android":"levelo://app?vid=96d8105a-c2ca-4295-af1b-dff14b81056c","ios":"levelo://app?vid=96d8105a-c2ca-4295-af1b-dff14b81056c"},"vehicle_type_id":"4","last_reported":1731762916,"current_range_meters":6000,"station_id":"ce4bh392rcd13ifvqdm0","pricing_plan_id":"cebpf4jnsgd1na2vs0mg"},{"bike_id":"b497c4c1-47c5-46df-89b4-3a0f01d4aeca","system_id":"levelo_inurba_marseille","lat":43.31519,"lon":5.3883,"is_reserved":false,"is_disabled":false,"rental_uris":{"android":"levelo://app?vid=b497c4c1-47c5-46df-89b4-3a0f01d4aeca","ios":"levelo://app?vid=b497c4c1-47c5-46df-89b4-3a0f01d4aeca"},"vehicle_type_id":"4","last_reported":1731762916,"current_range_meters":28400,"station_id":"","pricing_plan_id":"cebpf4jnsgd1na2vs0mg"},{"bike_id":"92ac4858-87d6-4ceb-8f6e-004635a816a8","system_id":"levelo_inurba_marseille","lat":43.27792,"lon":5.40724,"is_reserved":false,"is_disabled":false,"rental_uris":{"android":"levelo://app?vid=92ac4858-87d6-4ceb-8f6e-004635a816a8","ios":"levelo://app?vid=92ac4858-87d6-4ceb-8f6e-004635a816a8"},"vehicle_type_id":"4","last_reported":1731762916,"current_range_meters":31200,"station_id":"ce4bhnh2rcd13ifvqgtg","pricing_plan_id":"cebpf4jnsgd1na2vs0mg"},{"bike_id":"41b56539-4f7d-46d8-9fa9-3498d0d1f67f","system_id":"levelo_inurba_marseille","lat":43.24164,"lon":5.36394,"is_reserved":false,"is_disabled":false,"rental_uris":{"android":"levelo://app?vid=41b56539-4f7d-46d8-9fa9-3498d0d1f67f","ios":"levelo://app?vid=41b56539-4f7d-46d8-9fa9-3498d0d1f67f"},"vehicle_type_id":"4","last_reported":1731762916,"current_range_meters":17200,"station_id":"cpo36qri1sfpv3e86is0","pricing_plan_id":"cebpf4jnsgd1na2vs0mg"},{"bike_id":"4f072872-5e38-4a4b-9811-1d9e60a837c4","system_id":"levelo_inurba_marseille","lat":43.230991,"lon":5.354776,"is_reserved":false,"is_disabled":false,"rental_uris":{"android":"levelo://app?vid=4f072872-5e38-4a4b-9811-1d9e60a837c4","ios":"levelo://app?vid=4f072872-5e38-4a4b-9811-1d9e60a837c4"},"vehicle_type_id":"4","last_reported":1731762916,"current_range_meters":11600,"station_id":"","pricing_plan_id":"cebpf4jnsgd1na2vs0mg"},{"bike_id":"9e5221bc-6ba3-4f80-a78a-00e1f24bd999","system_id":"levelo_inurba_marseille","lat":43.29976,"lon":5.37178,"is_reserved":false,"is_disabled":false,"rental_uris":{"android":"levelo://app?vid=9e5221bc-6ba3-4f80-a78a-00e1f24bd999","ios":"levelo://app?vid=9e5221bc-6ba3-4f80-a78a-00e1f24bd999"},"vehicle_type_id":"4","last_reported":1731762916,"current_range_meters":39200,"station_id":"ce4bgr92rcd13ifvqc7g","pricing_plan_id":"cebpf4jnsgd1na2vs0mg"},{"bike_id":"e79c1d71-1ce6-4d60-8fff-1fc1acef8ee4","system_id":"levelo_inurba_marseille","lat":43.23959,"lon":5.3663,"is_reserved":false,"is_disabled":false,"rental_uris":{"android":"levelo://app?vid=e79c1d71-1ce6-4d60-8fff-1fc1acef8ee4","ios":"levelo://app?vid=e79c1d71-1ce6-4d60-8fff-1fc1acef8ee4"},"vehicle_type_id":"4","last_reported":1731762916,"current_range_meters":24000,"station_id":"ce4bhi12rcd13ifvqfp0","pricing_plan_id":"cebpf4jnsgd1na2vs0mg"},{"bike_id":"892adb6d-c134-4f63-a947-4eee2b92b71d","system_id":"levelo_inurba_marseille","lat":43.23065,"lon":5.35493,"is_reserved":false,"is_disabled":false,"rental_uris":{"android":"levelo://app?vid=892adb6d-c134-4f63-a947-4eee2b92b71d","ios":"levelo://app?vid=892adb6d-c134-4f63-a947-4eee2b92b71d"},"vehicle_type_id":"4","last_reported":1731762916,"current_range_meters":22800,"station_id":"cpo3342slgdg3j2ifvpg","pricing_plan_id":"cebpf4jnsgd1na2vs0mg"},{"bike_id":"a84f5389-258d-4508-9c0f-32ee5d326b43","system_id":"levelo_inurba_marseille","lat":43.33767,"lon":5.37475,"is_reserved":false,"is_disabled":false,"rental_uris":{"android":"levelo://app?vid=a84f5389-258d-4508-9c0f-32ee5d326b43","ios":"levelo://app?vid=a84f5389-258d-4508-9c0f-32ee5d326b43"},"vehicle_type_id":"4","last_reported":1731762916,"current_range_meters":34000,"station_id":"","pricing_plan_id":"cebpf4jnsgd1na2vs0mg"},{"bike_id":"24420a27-91b5-4a69-bca6-e715ce78c1dc","system_id":"levelo_inurba_marseille","lat":43.24665,"lon":5.38168,"is_reserved":false,"is_disabled":false,"rental_uris":{"android":"levelo://app?vid=24420a27-91b5-4a69-bca6-e715ce78c1dc","ios":"levelo://app?vid=24420a27-91b5-4a69-bca6-e715ce78c1dc"},"vehicle_type_id":"4","last_reported":1731762916,"current_range_meters":27600,"station_id":"ce4bhih2rcd13ifvqfr0","pricing_plan_id":"cebpf4jnsgd1na2vs0mg"},{"bike_id":"2309d72e-3387-4a05-9a8c-01300528534a","system_id":"levelo_inurba_marseille","lat":43.30801,"lon":5.43519,"is_reserved":false,"is_disabled":false,"rental_uris":{"android":"levelo://app?vid=2309d72e-3387-4a05-9a8c-01300528534a","ios":"levelo://app?vid=2309d72e-3387-4a05-9a8c-01300528534a"},"vehicle_type_id":"4","last_reported":1731762916,"current_range_meters":34000,"station_id":"ce4bhph2rcd13ifvqheg","pricing_plan_id":"cebpf4jnsgd1na2vs0mg"},{"bike_id":"381f16d3-ee59-4129-b037-21fe0f7ff042","system_id":"levelo_inurba_marseille","lat":43.258331,"lon":5.394253,"is_reserved":false,"is_disabled":false,"rental_uris":{"android":"levelo://app?vid=381f16d3-ee59-4129-b037-21fe0f7ff042","ios":"levelo://app?vid=381f16d3-ee59-4129-b037-21fe0f7ff042"},"vehicle_type_id":"4","last_reported":1731762916,"current_range_meters":20800,"station_id":"ce4bhgp2rcd13ifvqfe0","pricing_plan_id":"cebpf4jnsgd1na2vs0mg"},{"bike_id":"e8645f01-b9af-4087-9138-f647ed481892","system_id":"levelo_inurba_marseille","lat":43.30787,"lon":5.37641,"is_reserved":false,"is_disabled":false,"rental_uris":{"android":"levelo://app?vid=e8645f01-b9af-4087-9138-f647ed481892","ios":"levelo://app?vid=e8645f01-b9af-4087-9138-f647ed481892"},"vehicle_type_id":"4","last_reported":1731762916,"current_range_meters":37600,"station_id":"ce4bgv92rcd13ifvqcq0","pricing_plan_id":"cebpf4jnsgd1na2vs0mg"},{"bike_id":"b5ce9235-4ffb-4d40-a9ab-7ab7ce5a79f6","system_id":"levelo_inurba_marseille","lat":43.24813,"lon":5.37465,"is_reserved":false,"is_disabled":false,"rental_uris":{"android":"levelo://app?vid=b5ce9235-4ffb-4d40-a9ab-7ab7ce5a79f6","ios":"levelo://app?vid=b5ce9235-4ffb-4d40-a9ab-7ab7ce5a79f6"},"vehicle_type_id":"4","last_reported":1731762916,"current_range_meters":38800,"station_id":"ce4bhgh2rcd13ifvqfb0","pricing_plan_id":"cebpf4jnsgd1na2vs0mg"},{"bike_id":"1905e423-9623-404a-bf2e-53fad8283f76","system_id":"levelo_inurba_marseille","lat":43.28429,"lon":5.34992,"is_reserved":false,"is_disabled":false,"rental_uris":{"android":"levelo://app?vid=1905e423-9623-404a-bf2e-53fad8283f76","ios":"levelo://app?vid=1905e423-9623-404a-bf2e-53fad8283f76"},"vehicle_type_id":"4","last_reported":1731762916,"current_range_meters":38800,"station_id":"ce4bhbh2rcd13ifvqepg","pricing_plan_id":"cebpf4jnsgd1na2vs0mg"},{"bike_id":"24b3f190-f529-452e-b813-e3e361448f27","system_id":"levelo_inurba_marseille","lat":43.29665,"lon":5.3747,"is_reserved":false,"is_disabled":false,"rental_uris":{"android":"levelo://app?vid=24b3f190-f529-452e-b813-e3e361448f27","ios":"levelo://app?vid=24b3f190-f529-452e-b813-e3e361448f27"},"vehicle_type_id":"4","last_reported":1731762916,"current_range_meters":28000,"station_id":"","pricing_plan_id":"cebpf4jnsgd1na2vs0mg"},{"bike_id":"b37eb9d6-ab41-4ba7-a160-8c30112506ac","system_id":"levelo_inurba_marseille","lat":43.3056,"lon":5.36555,"is_reserved":false,"is_disabled":false,"rental_uris":{"android":"levelo://app?vid=b37eb9d6-ab41-4ba7-a160-8c30112506ac","ios":"levelo://app?vid=b37eb9d6-ab41-4ba7-a160-8c30112506ac"},"vehicle_type_id":"4","last_reported":1731762916,"current_range_meters":19600,"station_id":"ce4bgs12rcd13ifvqcag","pricing_plan_id":"cebpf4jnsgd1na2vs0mg"},{"bike_id":"6d6992bf-ade3-4a22-a168-306dafdc4544","system_id":"levelo_inurba_marseille","lat":43.2417,"lon":5.36406,"is_reserved":false,"is_disabled":false,"rental_uris":{"android":"levelo://app?vid=6d6992bf-ade3-4a22-a168-306dafdc4544","ios":"levelo://app?vid=6d6992bf-ade3-4a22-a168-306dafdc4544"},"vehicle_type_id":"4","last_reported":1731762916,"current_range_meters":33600,"station_id":"cpo36qri1sfpv3e86is0","pricing_plan_id":"cebpf4jnsgd1na2vs0mg"},{"bike_id":"4fbc023c-2d87-4b86-af62-95acaf1bfc89","system_id":"levelo_inurba_marseille","lat":43.337444,"lon":5.374475,"is_reserved":false,"is_disabled":false,"rental_uris":{"android":"levelo://app?vid=4fbc023c-2d87-4b86-af62-95acaf1bfc89","ios":"levelo://app?vid=4fbc023c-2d87-4b86-af62-95acaf1bfc89"},"vehicle_type_id":"4","last_reported":1731762916,"current_range_meters":37600,"station_id":"","pricing_plan_id":"cebpf4jnsgd1na2vs0mg"},{"bike_id":"074c6971-4ae7-4906-8673-1607af29a7e1","system_id":"levelo_inurba_marseille","lat":43.25093,"lon":5.39529,"is_reserved":false,"is_disabled":false,"rental_uris":{"android":"levelo://app?vid=074c6971-4ae7-4906-8673-1607af29a7e1","ios":"levelo://app?vid=074c6971-4ae7-4906-8673-1607af29a7e1"},"vehicle_type_id":"4","last_reported":1731762916,"current_range_meters":33200,"station_id":"ce4bhm12rcd13ifvqgkg","pricing_plan_id":"cebpf4jnsgd1na2vs0mg"},{"bike_id":"51049348-2dd5-440e-b0ee-ce27f3f5cb0c","system_id":"levelo_inurba_marseille","lat":43.294586,"lon":5.374486,"is_reserved":false,"is_disabled":false,"rental_uris":{"android":"levelo://app?vid=51049348-2dd5-440e-b0ee-ce27f3f5cb0c","ios":"levelo://app?vid=51049348-2dd5-440e-b0ee-ce27f3f5cb0c"},"vehicle_type_id":"4","last_reported":1731762916,"current_range_meters":26800,"station_id":"ce4bgkp2rcd13ifvqbmg","pricing_plan_id":"cebpf4jnsgd1na2vs0mg"},{"bike_id":"82e06f43-23f3-48c0-a76e-31b1190f8399","system_id":"levelo_inurba_marseille","lat":43.29796,"lon":5.381,"is_reserved":false,"is_disabled":false,"rental_uris":{"android":"levelo://app?vid=82e06f43-23f3-48c0-a76e-31b1190f8399","ios":"levelo://app?vid=82e06f43-23f3-48c0-a76e-31b1190f8399"},"vehicle_type_id":"4","last_reported":1731762916,"current_range_meters":19200,"station_id":"ce4bgip2rcd13ifvqbb0","pricing_plan_id":"cebpf4jnsgd1na2vs0mg"},{"bike_id":"fd108b9d-dd59-4891-a78a-5898f6e6e763","system_id":"levelo_inurba_marseille","lat":43.33026,"lon":5.39043,"is_reserved":false,"is_disabled":false,"rental_uris":{"android":"levelo://app?vid=fd108b9d-dd59-4891-a78a-5898f6e6e763","ios":"levelo://app?vid=fd108b9d-dd59-4891-a78a-5898f6e6e763"},"vehicle_type_id":"4","last_reported":1731762916,"current_range_meters":36800,"station_id":"ce4bhr92rcd13ifvqhrg","pricing_plan_id":"cebpf4jnsgd1na2vs0mg"},{"bike_id":"ce99c29d-25d3-43f4-80cb-ec44086b7861","system_id":"levelo_inurba_marseille","lat":43.23969,"lon":5.36622,"is_reserved":false,"is_disabled":false,"rental_uris":{"android":"levelo://app?vid=ce99c29d-25d3-43f4-80cb-ec44086b7861","ios":"levelo://app?vid=ce99c29d-25d3-43f4-80cb-ec44086b7861"},"vehicle_type_id":"4","last_reported":1731762916,"current_range_meters":39200,"station_id":"ce4bhi12rcd13ifvqfp0","pricing_plan_id":"cebpf4jnsgd1na2vs0mg"},{"bike_id":"59cfb2d8-1d07-42b7-ac1c-581526c1969d","system_id":"levelo_inurba_marseille","lat":43.28044,"lon":5.35338,"is_reserved":false,"is_disabled":false,"rental_uris":{"android":"levelo://app?vid=59cfb2d8-1d07-42b7-ac1c-581526c1969d","ios":"levelo://app?vid=59cfb2d8-1d07-42b7-ac1c-581526c1969d"},"vehicle_type_id":"4","last_reported":1731762916,"current_range_meters":34000,"station_id":"ce4bhbp2rcd13ifvqerg","pricing_plan_id":"cebpf4jnsgd1na2vs0mg"},{"bike_id":"70e089d0-d0b0-4a36-ba28-4f51863a6eb9","system_id":"levelo_inurba_marseille","lat":43.23195,"lon":5.35556,"is_reserved":false,"is_disabled":false,"rental_uris":{"android":"levelo://app?vid=70e089d0-d0b0-4a36-ba28-4f51863a6eb9","ios":"levelo://app?vid=70e089d0-d0b0-4a36-ba28-4f51863a6eb9"},"vehicle_type_id":"4","last_reported":1731762916,"current_range_meters":31200,"station_id":"ce4bhu92rcd13ifvqi70","pricing_plan_id":"cebpf4jnsgd1na2vs0mg"},{"bike_id":"96ffc11c-bf76-4f39-be4d-33dfcffebff5","system_id":"levelo_inurba_marseille","lat":43.337444,"lon":5.374475,"is_reserved":false,"is_disabled":false,"rental_uris":{"android":"levelo://app?vid=96ffc11c-bf76-4f39-be4d-33dfcffebff5","ios":"levelo://app?vid=96ffc11c-bf76-4f39-be4d-33dfcffebff5"},"vehicle_type_id":"4","last_reported":1731762916,"current_range_meters":23200,"station_id":"ce4bhb92rcd13ifvqen0","pricing_plan_id":"cebpf4jnsgd1na2vs0mg"},{"bike_id":"4ee4605c-22f2-4532-b44d-f5fb03fd5142","system_id":"levelo_inurba_marseille","lat":43.30806,"lon":5.4352,"is_reserved":false,"is_disabled":false,"rental_uris":{"android":"levelo://app?vid=4ee4605c-22f2-4532-b44d-f5fb03fd5142","ios":"levelo://app?vid=4ee4605c-22f2-4532-b44d-f5fb03fd5142"},"vehicle_type_id":"4","last_reported":1731762916,"current_range_meters":16000,"station_id":"ce4bhph2rcd13ifvqheg","pricing_plan_id":"cebpf4jnsgd1na2vs0mg"},{"bike_id":"d65589af-465e-4698-aafd-6e01eb47708e","system_id":"levelo_inurba_marseille","lat":43.29448,"lon":5.39742,"is_reserved":false,"is_disabled":false,"rental_uris":{"android":"levelo://app?vid=d65589af-465e-4698-aafd-6e01eb47708e","ios":"levelo://app?vid=d65589af-465e-4698-aafd-6e01eb47708e"},"vehicle_type_id":"4","last_reported":1731762916,"current_range_meters":36800,"station_id":"ce4bh3h2rcd13ifvqdo0","pricing_plan_id":"cebpf4jnsgd1na2vs0mg"},{"bike_id":"aa14ca49-6bc3-471e-b815-6a5501dfa305","system_id":"levelo_inurba_marseille","lat":43.25586,"lon":5.38231,"is_reserved":false,"is_disabled":false,"rental_uris":{"android":"levelo://app?vid=aa14ca49-6bc3-471e-b815-6a5501dfa305","ios":"levelo://app?vid=aa14ca49-6bc3-471e-b815-6a5501dfa305"},"vehicle_type_id":"4","last_reported":1731762916,"current_range_meters":20400,"station_id":"ce4bhih2rcd13ifvqfs0","pricing_plan_id":"cebpf4jnsgd1na2vs0mg"},{"bike_id":"8f09873d-83b4-4903-b5a7-99f516d69325","system_id":"levelo_inurba_marseille","lat":43.27925,"lon":5.3958,"is_reserved":false,"is_disabled":false,"rental_uris":{"android":"levelo://app?vid=8f09873d-83b4-4903-b5a7-99f516d69325","ios":"levelo://app?vid=8f09873d-83b4-4903-b5a7-99f516d69325"},"vehicle_type_id":"4","last_reported":1731762916,"current_range_meters":17600,"station_id":"ce4bhf92rcd13ifvqf40","pricing_plan_id":"cebpf4jnsgd1na2vs0mg"},{"bike_id":"4b095556-40bf-4330-b6e1-615681e4581a","system_id":"levelo_inurba_marseille","lat":43.29795,"lon":5.38102,"is_reserved":false,"is_disabled":false,"rental_uris":{"android":"levelo://app?vid=4b095556-40bf-4330-b6e1-615681e4581a","ios":"levelo://app?vid=4b095556-40bf-4330-b6e1-615681e4581a"},"vehicle_type_id":"4","last_reported":1731762916,"current_range_meters":27600,"station_id":"ce4bgip2rcd13ifvqbb0","pricing_plan_id":"cebpf4jnsgd1na2vs0mg"},{"bike_id":"ffef1166-6a0f-4823-92f1-7bea335b50d7","system_id":"levelo_inurba_marseille","lat":43.24072,"lon":5.37754,"is_reserved":false,"is_disabled":false,"rental_uris":{"android":"levelo://app?vid=ffef1166-6a0f-4823-92f1-7bea335b50d7","ios":"levelo://app?vid=ffef1166-6a0f-4823-92f1-7bea335b50d7"},"vehicle_type_id":"4","last_reported":1731762916,"current_range_meters":38800,"station_id":"ce4bhnp2rcd13ifvqgvg","pricing_plan_id":"cebpf4jnsgd1na2vs0mg"},{"bike_id":"4d6d89b1-2a5a-4d11-bafb-d3ff2e06e991","system_id":"levelo_inurba_marseille","lat":43.29977,"lon":5.37176,"is_reserved":false,"is_disabled":false,"rental_uris":{"android":"levelo://app?vid=4d6d89b1-2a5a-4d11-bafb-d3ff2e06e991","ios":"levelo://app?vid=4d6d89b1-2a5a-4d11-bafb-d3ff2e06e991"},"vehicle_type_id":"4","last_reported":1731762916,"current_range_meters":20800,"station_id":"ce4bgr92rcd13ifvqc7g","pricing_plan_id":"cebpf4jnsgd1na2vs0mg"},{"bike_id":"8e486e66-c7cb-407a-a01a-247d3c3557c0","system_id":"levelo_inurba_marseille","lat":43.3014,"lon":5.37421,"is_reserved":false,"is_disabled":false,"rental_uris":{"android":"levelo://app?vid=8e486e66-c7cb-407a-a01a-247d3c3557c0","ios":"levelo://app?vid=8e486e66-c7cb-407a-a01a-247d3c3557c0"},"vehicle_type_id":"4","last_reported":1731762916,"current_range_meters":40000,"station_id":"ce4bgs92rcd13ifvqcc0","pricing_plan_id":"cebpf4jnsgd1na2vs0mg"},{"bike_id":"022f478e-da93-4eda-9d1b-2d0e36905c07","system_id":"levelo_inurba_marseille","lat":43.33756,"lon":5.37438,"is_reserved":false,"is_disabled":false,"rental_uris":{"android":"levelo://app?vid=022f478e-da93-4eda-9d1b-2d0e36905c07","ios":"levelo://app?vid=022f478e-da93-4eda-9d1b-2d0e36905c07"},"vehicle_type_id":"4","last_reported":1731762916,"current_range_meters":35600,"station_id":"","pricing_plan_id":"cebpf4jnsgd1na2vs0mg"},{"bike_id":"70be134d-d413-42b5-bc19-ed259d471364","system_id":"levelo_inurba_marseille","lat":43.292145,"lon":5.359613,"is_reserved":false,"is_disabled":false,"rental_uris":{"android":"levelo://app?vid=70be134d-d413-42b5-bc19-ed259d471364","ios":"levelo://app?vid=70be134d-d413-42b5-bc19-ed259d471364"},"vehicle_type_id":"4","last_reported":1731762916,"current_range_meters":19600,"station_id":"ce4bhbh2rcd13ifvqeqg","pricing_plan_id":"cebpf4jnsgd1na2vs0mg"},{"bike_id":"09e5d805-bcdf-46a1-84e2-4ecd6a3b4ec2","system_id":"levelo_inurba_marseille","lat":43.2319,"lon":5.35554,"is_reserved":false,"is_disabled":false,"rental_uris":{"android":"levelo://app?vid=09e5d805-bcdf-46a1-84e2-4ecd6a3b4ec2","ios":"levelo://app?vid=09e5d805-bcdf-46a1-84e2-4ecd6a3b4ec2"},"vehicle_type_id":"4","last_reported":1731762916,"current_range_meters":6800,"station_id":"ce4bhu92rcd13ifvqi70","pricing_plan_id":"cebpf4jnsgd1na2vs0mg"},{"bike_id":"09d0b3f8-a534-4146-9c19-f7f3c002e77d","system_id":"levelo_inurba_marseille","lat":43.26938,"lon":5.4026,"is_reserved":false,"is_disabled":false,"rental_uris":{"android":"levelo://app?vid=09d0b3f8-a534-4146-9c19-f7f3c002e77d","ios":"levelo://app?vid=09d0b3f8-a534-4146-9c19-f7f3c002e77d"},"vehicle_type_id":"4","last_reported":1731762916,"current_range_meters":39200,"station_id":"cjm6bp8fraef2m0cb0m0","pricing_plan_id":"cebpf4jnsgd1na2vs0mg"},{"bike_id":"1c7262a4-2dc3-4c54-aefc-12b5c9268095","system_id":"levelo_inurba_marseille","lat":43.31489,"lon":5.37312,"is_reserved":false,"is_disabled":false,"rental_uris":{"android":"levelo://app?vid=1c7262a4-2dc3-4c54-aefc-12b5c9268095","ios":"levelo://app?vid=1c7262a4-2dc3-4c54-aefc-12b5c9268095"},"vehicle_type_id":"4","last_reported":1731762916,"current_range_meters":36400,"station_id":"ce4bgt12rcd13ifvqcd0","pricing_plan_id":"cebpf4jnsgd1na2vs0mg"},{"bike_id":"251d8918-1250-4853-9293-89ee39d3be92","system_id":"levelo_inurba_marseille","lat":43.33022,"lon":5.39038,"is_reserved":false,"is_disabled":false,"rental_uris":{"android":"levelo://app?vid=251d8918-1250-4853-9293-89ee39d3be92","ios":"levelo://app?vid=251d8918-1250-4853-9293-89ee39d3be92"},"vehicle_type_id":"4","last_reported":1731762916,"current_range_meters":36400,"station_id":"ce4bhr92rcd13ifvqhrg","pricing_plan_id":"cebpf4jnsgd1na2vs0mg"},{"bike_id":"4358c330-e918-4498-b53c-dc1ce95a7581","system_id":"levelo_inurba_marseille","lat":43.32004,"lon":5.38168,"is_reserved":false,"is_disabled":false,"rental_uris":{"android":"levelo://app?vid=4358c330-e918-4498-b53c-dc1ce95a7581","ios":"levelo://app?vid=4358c330-e918-4498-b53c-dc1ce95a7581"},"vehicle_type_id":"4","last_reported":1731762916,"current_range_meters":16000,"station_id":"ce4bhr12rcd13ifvqhpg","pricing_plan_id":"cebpf4jnsgd1na2vs0mg"},{"bike_id":"809471e3-ec39-4f2b-b271-49c8263623d6","system_id":"levelo_inurba_marseille","lat":43.249992,"lon":5.38925,"is_reserved":false,"is_disabled":false,"rental_uris":{"android":"levelo://app?vid=809471e3-ec39-4f2b-b271-49c8263623d6","ios":"levelo://app?vid=809471e3-ec39-4f2b-b271-49c8263623d6"},"vehicle_type_id":"4","last_reported":1731762916,"current_range_meters":39200,"station_id":"ce4bhgp2rcd13ifvqfd0","pricing_plan_id":"cebpf4jnsgd1na2vs0mg"},{"bike_id":"70c9409c-f386-4fe4-b313-12e21cda5451","system_id":"levelo_inurba_marseille","lat":43.30304,"lon":5.36915,"is_reserved":false,"is_disabled":false,"rental_uris":{"android":"levelo://app?vid=70c9409c-f386-4fe4-b313-12e21cda5451","ios":"levelo://app?vid=70c9409c-f386-4fe4-b313-12e21cda5451"},"vehicle_type_id":"4","last_reported":1731762916,"current_range_meters":38000,"station_id":"ce4bgqh2rcd13ifvqc5g","pricing_plan_id":"cebpf4jnsgd1na2vs0mg"},{"bike_id":"8831f528-9faa-44dd-ac10-3088567bd1bb","system_id":"levelo_inurba_marseille","lat":43.27051,"lon":5.40266,"is_reserved":false,"is_disabled":false,"rental_uris":{"android":"levelo://app?vid=8831f528-9faa-44dd-ac10-3088567bd1bb","ios":"levelo://app?vid=8831f528-9faa-44dd-ac10-3088567bd1bb"},"vehicle_type_id":"4","last_reported":1731762916,"current_range_meters":26000,"station_id":"ce4bhk92rcd13ifvqgc0","pricing_plan_id":"cebpf4jnsgd1na2vs0mg"},{"bike_id":"00dd188b-b194-4cc0-87e1-86f30bf6c6f4","system_id":"levelo_inurba_marseille","lat":43.28466,"lon":5.38421,"is_reserved":false,"is_disabled":false,"rental_uris":{"android":"levelo://app?vid=00dd188b-b194-4cc0-87e1-86f30bf6c6f4","ios":"levelo://app?vid=00dd188b-b194-4cc0-87e1-86f30bf6c6f4"},"vehicle_type_id":"4","last_reported":1731762916,"current_range_meters":10800,"station_id":"ce4bh512rcd13ifvqe3g","pricing_plan_id":"cebpf4jnsgd1na2vs0mg"},{"bike_id":"1013c0ae-3ea3-4b85-893d-2ad4dd4a2d21","system_id":"levelo_inurba_marseille","lat":43.272,"lon":5.39188,"is_reserved":false,"is_disabled":false,"rental_uris":{"android":"levelo://app?vid=1013c0ae-3ea3-4b85-893d-2ad4dd4a2d21","ios":"levelo://app?vid=1013c0ae-3ea3-4b85-893d-2ad4dd4a2d21"},"vehicle_type_id":"4","last_reported":1731762916,"current_range_meters":38000,"station_id":"ce4bhhp2rcd13ifvqfm0","pricing_plan_id":"cebpf4jnsgd1na2vs0mg"},{"bike_id":"e9f00305-d013-4bf7-a275-1c2350f8b797","system_id":"levelo_inurba_marseille","lat":43.24672,"lon":5.38166,"is_reserved":false,"is_disabled":false,"rental_uris":{"android":"levelo://app?vid=e9f00305-d013-4bf7-a275-1c2350f8b797","ios":"levelo://app?vid=e9f00305-d013-4bf7-a275-1c2350f8b797"},"vehicle_type_id":"4","last_reported":1731762916,"current_range_meters":5600,"station_id":"ce4bhih2rcd13ifvqfr0","pricing_plan_id":"cebpf4jnsgd1na2vs0mg"},{"bike_id":"1f40edf8-49a9-433d-8444-1ad1de2e5c0a","system_id":"levelo_inurba_marseille","lat":43.29216,"lon":5.35982,"is_reserved":false,"is_disabled":false,"rental_uris":{"android":"levelo://app?vid=1f40edf8-49a9-433d-8444-1ad1de2e5c0a","ios":"levelo://app?vid=1f40edf8-49a9-433d-8444-1ad1de2e5c0a"},"vehicle_type_id":"4","last_reported":1731762916,"current_range_meters":24400,"station_id":"","pricing_plan_id":"cebpf4jnsgd1na2vs0mg"},{"bike_id":"e05ed463-3534-4fec-bf69-3626d174144e","system_id":"levelo_inurba_marseille","lat":43.29908,"lon":5.43661,"is_reserved":false,"is_disabled":false,"rental_uris":{"android":"levelo://app?vid=e05ed463-3534-4fec-bf69-3626d174144e","ios":"levelo://app?vid=e05ed463-3534-4fec-bf69-3626d174144e"},"vehicle_type_id":"4","last_reported":1731762916,"current_range_meters":7200,"station_id":"ce4bhpp2rcd13ifvqhfg","pricing_plan_id":"cebpf4jnsgd1na2vs0mg"},{"bike_id":"ca58d68f-f625-4b76-8062-5b7eff337b26","system_id":"levelo_inurba_marseille","lat":43.27978,"lon":5.38746,"is_reserved":false,"is_disabled":false,"rental_uris":{"android":"levelo://app?vid=ca58d68f-f625-4b76-8062-5b7eff337b26","ios":"levelo://app?vid=ca58d68f-f625-4b76-8062-5b7eff337b26"},"vehicle_type_id":"4","last_reported":1731762916,"current_range_meters":29600,"station_id":"ce4bhg12rcd13ifvqf80","pricing_plan_id":"cebpf4jnsgd1na2vs0mg"},{"bike_id":"d100e8e0-f2ef-48b2-a389-0f2592f34f3b","system_id":"levelo_inurba_marseille","lat":43.31365,"lon":5.38491,"is_reserved":false,"is_disabled":false,"rental_uris":{"android":"levelo://app?vid=d100e8e0-f2ef-48b2-a389-0f2592f34f3b","ios":"levelo://app?vid=d100e8e0-f2ef-48b2-a389-0f2592f34f3b"},"vehicle_type_id":"4","last_reported":1731762916,"current_range_meters":33600,"station_id":"ce4bgt92rcd13ifvqcf0","pricing_plan_id":"cebpf4jnsgd1na2vs0mg"},{"bike_id":"237d47ac-0944-4d73-984f-6541e9deedf9","system_id":"levelo_inurba_marseille","lat":43.2997,"lon":5.38489,"is_reserved":false,"is_disabled":false,"rental_uris":{"android":"levelo://app?vid=237d47ac-0944-4d73-984f-6541e9deedf9","ios":"levelo://app?vid=237d47ac-0944-4d73-984f-6541e9deedf9"},"vehicle_type_id":"4","last_reported":1731762916,"current_range_meters":38400,"station_id":"","pricing_plan_id":"cebpf4jnsgd1na2vs0mg"},{"bike_id":"1f16d540-d4dc-49e2-a469-77da5f523f95","system_id":"levelo_inurba_marseille","lat":43.2798,"lon":5.38748,"is_reserved":false,"is_disabled":false,"rental_uris":{"android":"levelo://app?vid=1f16d540-d4dc-49e2-a469-77da5f523f95","ios":"levelo://app?vid=1f16d540-d4dc-49e2-a469-77da5f523f95"},"vehicle_type_id":"4","last_reported":1731762916,"current_range_meters":36800,"station_id":"ce4bhg12rcd13ifvqf80","pricing_plan_id":"cebpf4jnsgd1na2vs0mg"},{"bike_id":"16824378-6c41-4229-b0d7-4842860f3f8a","system_id":"levelo_inurba_marseille","lat":43.32479,"lon":5.36561,"is_reserved":false,"is_disabled":false,"rental_uris":{"android":"levelo://app?vid=16824378-6c41-4229-b0d7-4842860f3f8a","ios":"levelo://app?vid=16824378-6c41-4229-b0d7-4842860f3f8a"},"vehicle_type_id":"4","last_reported":1731762916,"current_range_meters":38800,"station_id":"ce4bhs12rcd13ifvqhvg","pricing_plan_id":"cebpf4jnsgd1na2vs0mg"},{"bike_id":"6f776ef1-2b17-481c-93f8-a7bacce09291","system_id":"levelo_inurba_marseille","lat":43.29011,"lon":5.35605,"is_reserved":false,"is_disabled":false,"rental_uris":{"android":"levelo://app?vid=6f776ef1-2b17-481c-93f8-a7bacce09291","ios":"levelo://app?vid=6f776ef1-2b17-481c-93f8-a7bacce09291"},"vehicle_type_id":"4","last_reported":1731762916,"current_range_meters":38800,"station_id":"ce4bhb92rcd13ifvqen0","pricing_plan_id":"cebpf4jnsgd1na2vs0mg"},{"bike_id":"fba07a06-d73c-42d2-a562-787d38705429","system_id":"levelo_inurba_marseille","lat":43.301433,"lon":5.380717,"is_reserved":false,"is_disabled":false,"rental_uris":{"android":"levelo://app?vid=fba07a06-d73c-42d2-a562-787d38705429","ios":"levelo://app?vid=fba07a06-d73c-42d2-a562-787d38705429"},