{"last_updated":1705863940,"ttl":30,"version":"2.2","data":{"bikes":[{"bike_id":"9c81b178-173d-451e-af61-52499845343c","system_id":"levelo_inurba_marseille","lat":43.313342,"lon":5.367445,"is_reserved":false,"is_disabled":false,"rental_uris":{"android":"levelo://app?vid=9c81b178-173d-451e-af61-52499845343c","ios":"levelo://app?vid=9c81b178-173d-451e-af61-52499845343c"},"vehicle_type_id":"4","last_reported":1705863940,"current_range_meters":26400,"station_id":"ce4bgr92rcd13ifvqc6g","pricing_plan_id":"free"},{"bike_id":"ecec50b6-60cb-4271-9e52-c1f129970901","system_id":"levelo_inurba_marseille","lat":43.313391,"lon":5.36706,"is_reserved":false,"is_disabled":false,"rental_uris":{"android":"levelo://app?vid=ecec50b6-60cb-4271-9e52-c1f129970901","ios":"levelo://app?vid=ecec50b6-60cb-4271-9e52-c1f129970901"},"vehicle_type_id":"4","last_reported":1705863940,"current_range_meters":26400,"station_id":"ce4bgr92rcd13ifvqc6g","pricing_plan_id":"free"},{"bike_id":"21a017f6-bd7c-4ad2-9671-1d034f0ed682","system_id":"levelo_inurba_marseille","lat":43.31355,"lon":5.367098,"is_reserved":false,"is_disabled":false,"rental_uris":{"android":"levelo://app?vid=21a017f6-bd7c-4ad2-9671-1d034f0ed682","ios":"levelo://app?vid=21a017f6-bd7c-4ad2-9671-1d034f0ed682"},"vehicle_type_id":"4","last_reported":1705863940,"current_range_meters":22000,"station_id":"ce4bgr92rcd13ifvqc6g","pricing_plan_id":"free"},{"bike_id":"640832be-a651-4075-b7e4-b81713489a64","system_id":"levelo_inurba_marseille","lat":43.31341,"lon":5.367098,"is_reserved":false,"is_disabled":false,"rental_uris":{"android":"levelo://app?vid=640832be-a651-4075-b7e4-b81713489a64","ios":"levelo://app?vid=640832be-a651-4075-b7e4-b81713489a64"},"vehicle_type_id":"4","last_reported":1705863940,"current_range_meters":30400,"station_id":"ce4bgr92rcd13ifvqc6g","pricing_plan_id":"free"},{"bike_id":"68bf97a8-dcdf-4652-8472-48a5c91c7a40","system_id":"levelo_inurba_marseille","lat":43.312239,"lon":5.368562,"is_reserved":false,"is_disabled":false,"rental_uris":{"android":"levelo://app?vid=68bf97a8-dcdf-4652-8472-48a5c91c7a40","ios":"levelo://app?vid=68bf97a8-dcdf-4652-8472-48a5c91c7a40"},"vehicle_type_id":"4","last_reported":1705863940,"current_range_meters":16400,"station_id":"ce4bgl92rcd13ifvqbq0","pricing_plan_id":"free"},{"bike_id":"1cbed23a-a353-4bec-b5f9-1318b461f2c9","system_id":"levelo_inurba_marseille","lat":43.312273,"lon":5.368522,"is_reserved":false,"is_disabled":false,"rental_uris":{"android":"levelo://app?vid=1cbed23a-a353-4bec-b5f9-1318b461f2c9","ios":"levelo://app?vid=1cbed23a-a353-4bec-b5f9-1318b461f2c9"},"vehicle_type_id":"4","last_reported":1705863940,"current_range_meters":31200,"station_id":"ce4bgl92rcd13ifvqbq0","pricing_plan_id":"free"},{"bike_id":"51147ab2-387a-4039-ac98-c807f47d0e86","system_id":"levelo_inurba_marseille","lat":43.312239,"lon":5.368562,"is_reserved":false,"is_disabled":false,"rental_uris":{"android":"levelo://app?vid=51147ab2-387a-4039-ac98-c807f47d0e86","ios":"levelo://app?vid=51147ab2-387a-4039-ac98-c807f47d0e86"},"vehicle_type_id":"4","last_reported":1705863940,"current_range_meters":31200,"station_id":"ce4bgl92rcd13ifvqbq0","pricing_plan_id":"free"},{"bike_id":"bfeb0a48-c60e-4901-83eb-d48f1106fd6f","system_id":"levelo_inurba_marseille","lat":43.312239,"lon":5.368562,"is_reserved":false,"is_disabled":false,"rental_uris":{"android":"levelo://app?vid=bfeb0a48-c60e-4901-83eb-d48f1106fd6f","ios":"levelo://app?vid=bfeb0a48-c60e-4901-83eb-d48f1106fd6f"},"vehicle_type_id":"4","last_reported":1705863940,"current_range_meters":31200,"station_id":"ce4bgl92rcd13ifvqbq0","pricing_plan_id":"free"},{"bike_id":"8b50ce20-ad4c-49b2-abfb-3b4d4b851370","system_id":"levelo_inurba_marseille","lat":43.312239,"lon":5.368562,"is_reserved":false,"is_disabled":false,"rental_uris":{"android":"levelo://app?vid=8b50ce20-ad4c-49b2-abfb-3b4d4b851370","ios":"levelo://app?vid=8b50ce20-ad4c-49b2-abfb-3b4d4b851370"},"vehicle_type_id":"4","last_reported":1705863940,"current_range_meters":26800,"station_id":"ce4bgl92rcd13ifvqbq0","pricing_plan_id":"free"},{"bike_id":"5f575660-f4fe-4f09-b2ea-0165cee526ba","system_id":"levelo_inurba_marseille","lat":43.312239,"lon":5.368562,"is_reserved":false,"is_disabled":false,"rental_uris":{"android":"levelo://app?vid=5f575660-f4fe-4f09-b2ea-0165cee526ba","ios":"levelo://app?vid=5f575660-f4fe-4f09-b2ea-0165cee526ba"},"vehicle_type_id":"4","last_reported":1705863940,"current_range_meters":29200,"station_id":"ce4bgl92rcd13ifvqbq0","pricing_plan_id":"free"},{"bike_id":"c68ce032-4626-496f-9ca4-82752b65bd3f","system_id":"levelo_inurba_marseille","lat":43.312254,"lon":5.368898,"is_reserved":false,"is_disabled":false,"rental_uris":{"android":"levelo://app?vid=c68ce032-4626-496f-9ca4-82752b65bd3f","ios":"levelo://app?vid=c68ce032-4626-496f-9ca4-82752b65bd3f"},"vehicle_type_id":"4","last_reported":1705863940,"current_range_meters":27200,"station_id":"ce4bgl92rcd13ifvqbq0","pricing_plan_id":"free"},{"bike_id":"63713002-1d6d-47f5-9a7f-4a76b18d63ea","system_id":"levelo_inurba_marseille","lat":43.312239,"lon":5.368562,"is_reserved":false,"is_disabled":false,"rental_uris":{"android":"levelo://app?vid=63713002-1d6d-47f5-9a7f-4a76b18d63ea","ios":"levelo://app?vid=63713002-1d6d-47f5-9a7f-4a76b18d63ea"},"vehicle_type_id":"4","last_reported":1705863940,"current_range_meters":22000,"station_id":"ce4bgl92rcd13ifvqbq0","pricing_plan_id":"free"},{"bike_id":"7e9e1560-2cee-4cd1-a961-2508388a3e2f","system_id":"levelo_inurba_marseille","lat":43.309076,"lon":5.368465,"is_reserved":false,"is_disabled":false,"rental_uris":{"android":"levelo://app?vid=7e9e1560-2cee-4cd1-a961-2508388a3e2f","ios":"levelo://app?vid=7e9e1560-2cee-4cd1-a961-2508388a3e2f"},"vehicle_type_id":"4","last_reported":1705863940,"current_range_meters":26000,"station_id":"ce4bgn92rcd13ifvqbvg","pricing_plan_id":"free"},{"bike_id":"5823a6a9-f7a2-478d-9522-48e993870d1e","system_id":"levelo_inurba_marseille","lat":43.309076,"lon":5.368465,"is_reserved":false,"is_disabled":false,"rental_uris":{"android":"levelo://app?vid=5823a6a9-f7a2-478d-9522-48e993870d1e","ios":"levelo://app?vid=5823a6a9-f7a2-478d-9522-48e993870d1e"},"vehicle_type_id":"4","last_reported":1705863940,"current_range_meters":20400,"station_id":"ce4bgn92rcd13ifvqbvg","pricing_plan_id":"free"},{"bike_id":"8b72f657-fd06-4167-8e80-20cb79d13c22","system_id":"levelo_inurba_marseille","lat":43.309076,"lon":5.368465,"is_reserved":false,"is_disabled":false,"rental_uris":{"android":"levelo://app?vid=8b72f657-fd06-4167-8e80-20cb79d13c22","ios":"levelo://app?vid=8b72f657-fd06-4167-8e80-20cb79d13c22"},"vehicle_type_id":"4","last_reported":1705863940,"current_range_meters":5200,"station_id":"ce4bgn92rcd13ifvqbvg","pricing_plan_id":"free"},{"bike_id":"5c406dbb-d838-402a-a0a9-4cf6922d7e05","system_id":"levelo_inurba_marseille","lat":43.309076,"lon":5.368465,"is_reserved":false,"is_disabled":false,"rental_uris":{"android":"levelo://app?vid=5c406dbb-d838-402a-a0a9-4cf6922d7e05","ios":"levelo://app?vid=5c406dbb-d838-402a-a0a9-4cf6922d7e05"},"vehicle_type_id":"4","last_reported":1705863940,"current_range_meters":15600,"station_id":"ce4bgn92rcd13ifvqbvg","pricing_plan_id":"free"},{"bike_id":"bc7b21f6-9eb5-410e-9457-bf487eeae083","system_id":"levelo_inurba_marseille","lat":43.309076,"lon":5.368465,"is_reserved":false,"is_disabled":false,"rental_uris":{"android":"levelo://app?vid=bc7b21f6-9eb5-410e-9457-bf487eeae083","ios":"levelo://app?vid=bc7b21f6-9eb5-410e-9457-bf487eeae083"},"vehicle_type_id":"4","last_reported":1705863940,"current_range_meters":31200,"station_id":"ce4bgn92rcd13ifvqbvg","pricing_plan_id":"free"},{"bike_id":"bb3e1ea0-25ce-4619-af95-3da128a7dcd7","system_id":"levelo_inurba_marseille","lat":43.30896,"lon":5.37075,"is_reserved":false,"is_disabled":false,"rental_uris":{"android":"levelo://app?vid=bb3e1ea0-25ce-4619-af95-3da128a7dcd7","ios":"levelo://app?vid=bb3e1ea0-25ce-4619-af95-3da128a7dcd7"},"vehicle_type_id":"4","last_reported":1705863940,"current_range_meters":12800,"station_id":"","pricing_plan_id":"free"},{"bike_id":"2d0d57cf-280b-4c9a-8d82-b94c154a15f7","system_id":"levelo_inurba_marseille","lat":43.314811,"lon":5.373104,"is_reserved":false,"is_disabled":false,"rental_uris":{"android":"levelo://app?vid=2d0d57cf-280b-4c9a-8d82-b94c154a15f7","ios":"levelo://app?vid=2d0d57cf-280b-4c9a-8d82-b94c154a15f7"},"vehicle_type_id":"4","last_reported":1705863940,"current_range_meters":5200,"station_id":"ce4bgt12rcd13ifvqcd0","pricing_plan_id":"free"},{"bike_id":"4f55d0fa-20f0-4edf-85bc-ce1b4029f9d7","system_id":"levelo_inurba_marseille","lat":43.309039,"lon":5.371797,"is_reserved":false,"is_disabled":false,"rental_uris":{"android":"levelo://app?vid=4f55d0fa-20f0-4edf-85bc-ce1b4029f9d7","ios":"levelo://app?vid=4f55d0fa-20f0-4edf-85bc-ce1b4029f9d7"},"vehicle_type_id":"4","last_reported":1705863940,"current_range_meters":3600,"station_id":"ce4bguh2rcd13ifvqckg","pricing_plan_id":"free"},{"bike_id":"722a59c1-3b6c-491f-b40f-e31d4fdb1ec1","system_id":"levelo_inurba_marseille","lat":43.309039,"lon":5.371797,"is_reserved":false,"is_disabled":false,"rental_uris":{"android":"levelo://app?vid=722a59c1-3b6c-491f-b40f-e31d4fdb1ec1","ios":"levelo://app?vid=722a59c1-3b6c-491f-b40f-e31d4fdb1ec1"},"vehicle_type_id":"4","last_reported":1705863940,"current_range_meters":16800,"station_id":"ce4bguh2rcd13ifvqckg","pricing_plan_id":"free"},{"bike_id":"f00c03da-151f-41b9-880b-b96b85ef2e45","system_id":"levelo_inurba_marseille","lat":43.305368,"lon":5.367343,"is_reserved":false,"is_disabled":false,"rental_uris":{"android":"levelo://app?vid=f00c03da-151f-41b9-880b-b96b85ef2e45","ios":"levelo://app?vid=f00c03da-151f-41b9-880b-b96b85ef2e45"},"vehicle_type_id":"4","last_reported":1705863940,"current_range_meters":15200,"station_id":"ce4bgrp2rcd13ifvqc9g","pricing_plan_id":"free"},{"bike_id":"54c8a752-e607-463c-86d9-2029f8be57f1","system_id":"levelo_inurba_marseille","lat":43.305887,"lon":5.37144,"is_reserved":false,"is_disabled":false,"rental_uris":{"android":"levelo://app?vid=54c8a752-e607-463c-86d9-2029f8be57f1","ios":"levelo://app?vid=54c8a752-e607-463c-86d9-2029f8be57f1"},"vehicle_type_id":"4","last_reported":1705863940,"current_range_meters":28000,"station_id":"","pricing_plan_id":"free"},{"bike_id":"d17293b9-1c64-4825-ad4d-726579f79409","system_id":"levelo_inurba_marseille","lat":43.305989,"lon":5.37225,"is_reserved":false,"is_disabled":false,"rental_uris":{"android":"levelo://app?vid=d17293b9-1c64-4825-ad4d-726579f79409","ios":"levelo://app?vid=d17293b9-1c64-4825-ad4d-726579f79409"},"vehicle_type_id":"4","last_reported":1705863940,"current_range_meters":30400,"station_id":"ce4bgqh2rcd13ifvqc4g","pricing_plan_id":"free"},{"bike_id":"e0803034-1f71-4077-9f75-6be358d9ca1d","system_id":"levelo_inurba_marseille","lat":43.305989,"lon":5.37225,"is_reserved":false,"is_disabled":false,"rental_uris":{"android":"levelo://app?vid=e0803034-1f71-4077-9f75-6be358d9ca1d","ios":"levelo://app?vid=e0803034-1f71-4077-9f75-6be358d9ca1d"},"vehicle_type_id":"4","last_reported":1705863940,"current_range_meters":24000,"station_id":"ce4bgqh2rcd13ifvqc4g","pricing_plan_id":"free"},{"bike_id":"87d6370e-46a7-4434-90a9-5698773419f3","system_id":"levelo_inurba_marseille","lat":43.305989,"lon":5.37225,"is_reserved":false,"is_disabled":false,"rental_uris":{"android":"levelo://app?vid=87d6370e-46a7-4434-90a9-5698773419f3","ios":"levelo://app?vid=87d6370e-46a7-4434-90a9-5698773419f3"},"vehicle_type_id":"4","last_reported":1705863940,"current_range_meters":19600,"station_id":"ce4bgqh2rcd13ifvqc4g","pricing_plan_id":"free"},{"bike_id":"b3323f21-2fd2-40e1-b13d-a13d19ac594d","system_id":"levelo_inurba_marseille","lat":43.305989,"lon":5.37225,"is_reserved":false,"is_disabled":false,"rental_uris":{"android":"levelo://app?vid=b3323f21-2fd2-40e1-b13d-a13d19ac594d","ios":"levelo://app?vid=b3323f21-2fd2-40e1-b13d-a13d19ac594d"},"vehicle_type_id":"4","last_reported":1705863940,"current_range_meters":16000,"station_id":"ce4bgqh2rcd13ifvqc4g","pricing_plan_id":"free"},{"bike_id":"32a1035a-349f-4972-a1d1-f6673df393f9","system_id":"levelo_inurba_marseille","lat":43.311125,"lon":5.377624,"is_reserved":false,"is_disabled":false,"rental_uris":{"android":"levelo://app?vid=32a1035a-349f-4972-a1d1-f6673df393f9","ios":"levelo://app?vid=32a1035a-349f-4972-a1d1-f6673df393f9"},"vehicle_type_id":"4","last_reported":1705863940,"current_range_meters":6000,"station_id":"ce4bgt92rcd13ifvqcg0","pricing_plan_id":"free"},{"bike_id":"89bd933b-2f13-45ee-a144-bab8bdca1e40","system_id":"levelo_inurba_marseille","lat":43.311125,"lon":5.377624,"is_reserved":false,"is_disabled":false,"rental_uris":{"android":"levelo://app?vid=89bd933b-2f13-45ee-a144-bab8bdca1e40","ios":"levelo://app?vid=89bd933b-2f13-45ee-a144-bab8bdca1e40"},"vehicle_type_id":"4","last_reported":1705863940,"current_range_meters":27200,"station_id":"ce4bgt92rcd13ifvqcg0","pricing_plan_id":"free"},{"bike_id":"d7854f2c-e25b-4567-9ca1-100b79dde627","system_id":"levelo_inurba_marseille","lat":43.317055,"lon":5.376825,"is_reserved":false,"is_disabled":false,"rental_uris":{"android":"levelo://app?vid=d7854f2c-e25b-4567-9ca1-100b79dde627","ios":"levelo://app?vid=d7854f2c-e25b-4567-9ca1-100b79dde627"},"vehicle_type_id":"4","last_reported":1705863940,"current_range_meters":22400,"station_id":"ce4bgth2rcd13ifvqch0","pricing_plan_id":"free"},{"bike_id":"a9a07d18-d551-4c7e-9a02-4f2c5e64b2cd","system_id":"levelo_inurba_marseille","lat":43.30789,"lon":5.37657,"is_reserved":false,"is_disabled":false,"rental_uris":{"android":"levelo://app?vid=a9a07d18-d551-4c7e-9a02-4f2c5e64b2cd","ios":"levelo://app?vid=a9a07d18-d551-4c7e-9a02-4f2c5e64b2cd"},"vehicle_type_id":"4","last_reported":1705863940,"current_range_meters":0,"station_id":"ce4bgv92rcd13ifvqcq0","pricing_plan_id":"free"},{"bike_id":"bc5fa535-88b3-406b-bd14-afa0bf9eb036","system_id":"levelo_inurba_marseille","lat":43.317,"lon":5.37758,"is_reserved":false,"is_disabled":false,"rental_uris":{"android":"levelo://app?vid=bc5fa535-88b3-406b-bd14-afa0bf9eb036","ios":"levelo://app?vid=bc5fa535-88b3-406b-bd14-afa0bf9eb036"},"vehicle_type_id":"4","last_reported":1705863940,"current_range_meters":4400,"station_id":"ce4bgth2rcd13ifvqch0","pricing_plan_id":"free"},{"bike_id":"a91f1b0c-c2f2-4f8d-95b4-3dc81767a0bd","system_id":"levelo_inurba_marseille","lat":43.317075,"lon":5.377367,"is_reserved":false,"is_disabled":false,"rental_uris":{"android":"levelo://app?vid=a91f1b0c-c2f2-4f8d-95b4-3dc81767a0bd","ios":"levelo://app?vid=a91f1b0c-c2f2-4f8d-95b4-3dc81767a0bd"},"vehicle_type_id":"4","last_reported":1705863940,"current_range_meters":31200,"station_id":"ce4bgth2rcd13ifvqch0","pricing_plan_id":"free"},{"bike_id":"12c26ea7-bf34-4d48-af42-41fcadc8a32d","system_id":"levelo_inurba_marseille","lat":43.317075,"lon":5.377367,"is_reserved":false,"is_disabled":false,"rental_uris":{"android":"levelo://app?vid=12c26ea7-bf34-4d48-af42-41fcadc8a32d","ios":"levelo://app?vid=12c26ea7-bf34-4d48-af42-41fcadc8a32d"},"vehicle_type_id":"4","last_reported":1705863940,"current_range_meters":28800,"station_id":"ce4bgth2rcd13ifvqch0","pricing_plan_id":"free"},{"bike_id":"d1c7fb28-a638-4a0c-9bbf-2bcf600fcbb0","system_id":"levelo_inurba_marseille","lat":43.301939,"lon":5.366286,"is_reserved":false,"is_disabled":false,"rental_uris":{"android":"levelo://app?vid=d1c7fb28-a638-4a0c-9bbf-2bcf600fcbb0","ios":"levelo://app?vid=d1c7fb28-a638-4a0c-9bbf-2bcf600fcbb0"},"vehicle_type_id":"4","last_reported":1705863940,"current_range_meters":14400,"station_id":"ce4bgrh2rcd13ifvqc8g","pricing_plan_id":"free"},{"bike_id":"6ae6e685-a3fd-402c-a2b7-305e481dfdfb","system_id":"levelo_inurba_marseille","lat":43.301939,"lon":5.366286,"is_reserved":false,"is_disabled":false,"rental_uris":{"android":"levelo://app?vid=6ae6e685-a3fd-402c-a2b7-305e481dfdfb","ios":"levelo://app?vid=6ae6e685-a3fd-402c-a2b7-305e481dfdfb"},"vehicle_type_id":"4","last_reported":1705863940,"current_range_meters":1600,"station_id":"ce4bgrh2rcd13ifvqc8g","pricing_plan_id":"free"},{"bike_id":"a19db356-03ff-4d8c-bf91-09d7e89992b0","system_id":"levelo_inurba_marseille","lat":43.301939,"lon":5.366286,"is_reserved":false,"is_disabled":false,"rental_uris":{"android":"levelo://app?vid=a19db356-03ff-4d8c-bf91-09d7e89992b0","ios":"levelo://app?vid=a19db356-03ff-4d8c-bf91-09d7e89992b0"},"vehicle_type_id":"4","last_reported":1705863940,"current_range_meters":24400,"station_id":"ce4bgrh2rcd13ifvqc8g","pricing_plan_id":"free"},{"bike_id":"8d3874f9-81d6-49a7-8180-ed60e4b14080","system_id":"levelo_inurba_marseille","lat":43.301939,"lon":5.366286,"is_reserved":false,"is_disabled":false,"rental_uris":{"android":"levelo://app?vid=8d3874f9-81d6-49a7-8180-ed60e4b14080","ios":"levelo://app?vid=8d3874f9-81d6-49a7-8180-ed60e4b14080"},"vehicle_type_id":"4","last_reported":1705863940,"current_range_meters":24400,"station_id":"ce4bgrh2rcd13ifvqc8g","pricing_plan_id":"free"},{"bike_id":"cfae0e78-4e97-4195-9044-2a6b9d1af01c","system_id":"levelo_inurba_marseille","lat":43.301939,"lon":5.366286,"is_reserved":false,"is_disabled":false,"rental_uris":{"android":"levelo://app?vid=cfae0e78-4e97-4195-9044-2a6b9d1af01c","ios":"levelo://app?vid=cfae0e78-4e97-4195-9044-2a6b9d1af01c"},"vehicle_type_id":"4","last_reported":1705863940,"current_range_meters":22000,"station_id":"ce4bgrh2rcd13ifvqc8g","pricing_plan_id":"free"},{"bike_id":"98cdc1f8-d72f-44b0-8c61-fc928f3cc5f7","system_id":"levelo_inurba_marseille","lat":43.301939,"lon":5.366286,"is_reserved":false,"is_disabled":false,"rental_uris":{"android":"levelo://app?vid=98cdc1f8-d72f-44b0-8c61-fc928f3cc5f7","ios":"levelo://app?vid=98cdc1f8-d72f-44b0-8c61-fc928f3cc5f7"},"vehicle_type_id":"4","last_reported":1705863940,"current_range_meters":21200,"station_id":"ce4bgrh2rcd13ifvqc8g","pricing_plan_id":"free"},{"bike_id":"b1669a85-8fa1-4bcf-8ddc-c8fe3e8bfcbb","system_id":"levelo_inurba_marseille","lat":43.308012,"lon":5.381511,"is_reserved":false,"is_disabled":false,"rental_uris":{"android":"levelo://app?vid=b1669a85-8fa1-4bcf-8ddc-c8fe3e8bfcbb","ios":"levelo://app?vid=b1669a85-8fa1-4bcf-8ddc-c8fe3e8bfcbb"},"vehicle_type_id":"4","last_reported":1705863940,"current_range_meters":5600,"station_id":"ce4bgt12rcd13ifvqce0","pricing_plan_id":"free"},{"bike_id":"45e53cc7-d61c-430f-b657-244f5655295a","system_id":"levelo_inurba_marseille","lat":43.324771,"lon":5.36557,"is_reserved":false,"is_disabled":false,"rental_uris":{"android":"levelo://app?vid=45e53cc7-d61c-430f-b657-244f5655295a","ios":"levelo://app?vid=45e53cc7-d61c-430f-b657-244f5655295a"},"vehicle_type_id":"4","last_reported":1705863940,"current_range_meters":6800,"station_id":"ce4bhs12rcd13ifvqhvg","pricing_plan_id":"free"},{"bike_id":"5a5a0a9d-5c6c-41d1-b724-77f5f7d7b776","system_id":"levelo_inurba_marseille","lat":43.324771,"lon":5.36557,"is_reserved":false,"is_disabled":false,"rental_uris":{"android":"levelo://app?vid=5a5a0a9d-5c6c-41d1-b724-77f5f7d7b776","ios":"levelo://app?vid=5a5a0a9d-5c6c-41d1-b724-77f5f7d7b776"},"vehicle_type_id":"4","last_reported":1705863940,"current_range_meters":30800,"station_id":"ce4bhs12rcd13ifvqhvg","pricing_plan_id":"free"},{"bike_id":"f5bb203f-b299-431b-a2ab-568ee977f029","system_id":"levelo_inurba_marseille","lat":43.302815,"lon":5.376695,"is_reserved":false,"is_disabled":false,"rental_uris":{"android":"levelo://app?vid=f5bb203f-b299-431b-a2ab-568ee977f029","ios":"levelo://app?vid=f5bb203f-b299-431b-a2ab-568ee977f029"},"vehicle_type_id":"4","last_reported":1705863940,"current_range_meters":10800,"station_id":"","pricing_plan_id":"free"},{"bike_id":"5eb5cbf8-d019-4ed9-b5fb-8e03d1797fab","system_id":"levelo_inurba_marseille","lat":43.301429,"lon":5.37413,"is_reserved":false,"is_disabled":false,"rental_uris":{"android":"levelo://app?vid=5eb5cbf8-d019-4ed9-b5fb-8e03d1797fab","ios":"levelo://app?vid=5eb5cbf8-d019-4ed9-b5fb-8e03d1797fab"},"vehicle_type_id":"4","last_reported":1705863940,"current_range_meters":13200,"station_id":"ce4bgs92rcd13ifvqcc0","pricing_plan_id":"free"},{"bike_id":"97eda73f-29c9-42c0-b2ba-fb9074111ad2","system_id":"levelo_inurba_marseille","lat":43.30273,"lon":5.37709,"is_reserved":false,"is_disabled":false,"rental_uris":{"android":"levelo://app?vid=97eda73f-29c9-42c0-b2ba-fb9074111ad2","ios":"levelo://app?vid=97eda73f-29c9-42c0-b2ba-fb9074111ad2"},"vehicle_type_id":"4","last_reported":1705863940,"current_range_meters":28800,"station_id":"","pricing_plan_id":"free"},{"bike_id":"16dc70bb-c19b-49f8-8c12-4e6836392df7","system_id":"levelo_inurba_marseille","lat":43.3014,"lon":5.37426,"is_reserved":false,"is_disabled":false,"rental_uris":{"android":"levelo://app?vid=16dc70bb-c19b-49f8-8c12-4e6836392df7","ios":"levelo://app?vid=16dc70bb-c19b-49f8-8c12-4e6836392df7"},"vehicle_type_id":"4","last_reported":1705863940,"current_range_meters":10800,"station_id":"ce4bgs92rcd13ifvqcc0","pricing_plan_id":"free"},{"bike_id":"51a49e23-9a9d-4d3d-84ea-05c93c1254f0","system_id":"levelo_inurba_marseille","lat":43.30143,"lon":5.37413,"is_reserved":false,"is_disabled":false,"rental_uris":{"android":"levelo://app?vid=51a49e23-9a9d-4d3d-84ea-05c93c1254f0","ios":"levelo://app?vid=51a49e23-9a9d-4d3d-84ea-05c93c1254f0"},"vehicle_type_id":"4","last_reported":1705863940,"current_range_meters":27200,"station_id":"ce4bgs92rcd13ifvqcc0","pricing_plan_id":"free"},{"bike_id":"ca84a045-b0e4-40fa-8762-ecee68e5d30e","system_id":"levelo_inurba_marseille","lat":43.301429,"lon":5.37413,"is_reserved":false,"is_disabled":false,"rental_uris":{"android":"levelo://app?vid=ca84a045-b0e4-40fa-8762-ecee68e5d30e","ios":"levelo://app?vid=ca84a045-b0e4-40fa-8762-ecee68e5d30e"},"vehicle_type_id":"4","last_reported":1705863940,"current_range_meters":24400,"station_id":"ce4bgs92rcd13ifvqcc0","pricing_plan_id":"free"},{"bike_id":"a5605478-720f-48fe-b19d-580b9c358f06","system_id":"levelo_inurba_marseille","lat":43.319935,"lon":5.381699,"is_reserved":false,"is_disabled":false,"rental_uris":{"android":"levelo://app?vid=a5605478-720f-48fe-b19d-580b9c358f06","ios":"levelo://app?vid=a5605478-720f-48fe-b19d-580b9c358f06"},"vehicle_type_id":"4","last_reported":1705863940,"current_range_meters":22000,"station_id":"ce4bhr12rcd13ifvqhpg","pricing_plan_id":"free"},{"bike_id":"f0e6f343-5d11-4ccd-b521-fba2ec1496b9","system_id":"levelo_inurba_marseille","lat":43.319935,"lon":5.381699,"is_reserved":false,"is_disabled":false,"rental_uris":{"android":"levelo://app?vid=f0e6f343-5d11-4ccd-b521-fba2ec1496b9","ios":"levelo://app?vid=f0e6f343-5d11-4ccd-b521-fba2ec1496b9"},"vehicle_type_id":"4","last_reported":1705863940,"current_range_meters":4800,"station_id":"ce4bhr12rcd13ifvqhpg","pricing_plan_id":"free"},{"bike_id":"b56b44a8-4957-45a0-ab05-24598deb6b43","system_id":"levelo_inurba_marseille","lat":43.31996,"lon":5.38147,"is_reserved":false,"is_disabled":false,"rental_uris":{"android":"levelo://app?vid=b56b44a8-4957-45a0-ab05-24598deb6b43","ios":"levelo://app?vid=b56b44a8-4957-45a0-ab05-24598deb6b43"},"vehicle_type_id":"4","last_reported":1705863940,"current_range_meters":28800,"station_id":"ce4bhr12rcd13ifvqhpg","pricing_plan_id":"free"},{"bike_id":"677ce82c-cb12-4db9-beea-aa440699ec62","system_id":"levelo_inurba_marseille","lat":43.319935,"lon":5.381699,"is_reserved":false,"is_disabled":false,"rental_uris":{"android":"levelo://app?vid=677ce82c-cb12-4db9-beea-aa440699ec62","ios":"levelo://app?vid=677ce82c-cb12-4db9-beea-aa440699ec62"},"vehicle_type_id":"4","last_reported":1705863940,"current_range_meters":0,"station_id":"ce4bhr12rcd13ifvqhpg","pricing_plan_id":"free"},{"bike_id":"00934273-d31a-464e-b4c4-b907901806ec","system_id":"levelo_inurba_marseille","lat":43.313571,"lon":5.384829,"is_reserved":false,"is_disabled":false,"rental_uris":{"android":"levelo://app?vid=00934273-d31a-464e-b4c4-b907901806ec","ios":"levelo://app?vid=00934273-d31a-464e-b4c4-b907901806ec"},"vehicle_type_id":"4","last_reported":1705863940,"current_range_meters":11600,"station_id":"ce4bgt92rcd13ifvqcf0","pricing_plan_id":"free"},{"bike_id":"9989f7bc-bebc-4213-abb7-d396a49d4c92","system_id":"levelo_inurba_marseille","lat":43.313571,"lon":5.384829,"is_reserved":false,"is_disabled":false,"rental_uris":{"android":"levelo://app?vid=9989f7bc-bebc-4213-abb7-d396a49d4c92","ios":"levelo://app?vid=9989f7bc-bebc-4213-abb7-d396a49d4c92"},"vehicle_type_id":"4","last_reported":1705863940,"current_range_meters":11600,"station_id":"ce4bgt92rcd13ifvqcf0","pricing_plan_id":"free"},{"bike_id":"8bf509f5-99ca-40e3-9bd5-77527ebbf4a4","system_id":"levelo_inurba_marseille","lat":43.313571,"lon":5.384829,"is_reserved":false,"is_disabled":false,"rental_uris":{"android":"levelo://app?vid=8bf509f5-99ca-40e3-9bd5-77527ebbf4a4","ios":"levelo://app?vid=8bf509f5-99ca-40e3-9bd5-77527ebbf4a4"},"vehicle_type_id":"4","last_reported":1705863940,"current_range_meters":19200,"station_id":"ce4bgt92rcd13ifvqcf0","pricing_plan_id":"free"},{"bike_id":"13808cc2-bbf5-4142-9d29-e061452037f7","system_id":"levelo_inurba_marseille","lat":43.313571,"lon":5.384829,"is_reserved":false,"is_disabled":false,"rental_uris":{"android":"levelo://app?vid=13808cc2-bbf5-4142-9d29-e061452037f7","ios":"levelo://app?vid=13808cc2-bbf5-4142-9d29-e061452037f7"},"vehicle_type_id":"4","last_reported":1705863940,"current_range_meters":0,"station_id":"ce4bgt92rcd13ifvqcf0","pricing_plan_id":"free"},{"bike_id":"8e16eeb2-5ae8-4508-b3ed-391081ac24e4","system_id":"levelo_inurba_marseille","lat":43.299724,"lon":5.371829,"is_reserved":false,"is_disabled":false,"rental_uris":{"android":"levelo://app?vid=8e16eeb2-5ae8-4508-b3ed-391081ac24e4","ios":"levelo://app?vid=8e16eeb2-5ae8-4508-b3ed-391081ac24e4"},"vehicle_type_id":"4","last_reported":1705863940,"current_range_meters":30400,"station_id":"ce4bgr92rcd13ifvqc7g","pricing_plan_id":"free"},{"bike_id":"29241269-3ae6-4479-92b9-27bfd6b6132a","system_id":"levelo_inurba_marseille","lat":43.299724,"lon":5.371829,"is_reserved":false,"is_disabled":false,"rental_uris":{"android":"levelo://app?vid=29241269-3ae6-4479-92b9-27bfd6b6132a","ios":"levelo://app?vid=29241269-3ae6-4479-92b9-27bfd6b6132a"},"vehicle_type_id":"4","last_reported":1705863940,"current_range_meters":9200,"station_id":"ce4bgr92rcd13ifvqc7g","pricing_plan_id":"free"},{"bike_id":"f4f5633d-51bc-4c0d-8850-25275a5917b3","system_id":"levelo_inurba_marseille","lat":43.299408,"lon":5.365588,"is_reserved":false,"is_disabled":false,"rental_uris":{"android":"levelo://app?vid=f4f5633d-51bc-4c0d-8850-25275a5917b3","ios":"levelo://app?vid=f4f5633d-51bc-4c0d-8850-25275a5917b3"},"vehicle_type_id":"4","last_reported":1705863940,"current_range_meters":28000,"station_id":"ce4bgm92rcd13ifvqbr0","pricing_plan_id":"free"},{"bike_id":"c8997890-266c-414f-8681-f57a7858b457","system_id":"levelo_inurba_marseille","lat":43.299222,"lon":5.365554,"is_reserved":false,"is_disabled":false,"rental_uris":{"android":"levelo://app?vid=c8997890-266c-414f-8681-f57a7858b457","ios":"levelo://app?vid=c8997890-266c-414f-8681-f57a7858b457"},"vehicle_type_id":"4","last_reported":1705863940,"current_range_meters":14000,"station_id":"ce4bgm92rcd13ifvqbr0","pricing_plan_id":"free"},{"bike_id":"0123d6f0-5234-47a2-baf2-1ac87a031399","system_id":"levelo_inurba_marseille","lat":43.299724,"lon":5.371829,"is_reserved":false,"is_disabled":false,"rental_uris":{"android":"levelo://app?vid=0123d6f0-5234-47a2-baf2-1ac87a031399","ios":"levelo://app?vid=0123d6f0-5234-47a2-baf2-1ac87a031399"},"vehicle_type_id":"4","last_reported":1705863940,"current_range_meters":26400,"station_id":"ce4bgr92rcd13ifvqc7g","pricing_plan_id":"free"},{"bike_id":"b5f96ce0-ec90-4165-9004-cff1fb9f9851","system_id":"levelo_inurba_marseille","lat":43.305364,"lon":5.384119,"is_reserved":false,"is_disabled":false,"rental_uris":{"android":"levelo://app?vid=b5f96ce0-ec90-4165-9004-cff1fb9f9851","ios":"levelo://app?vid=b5f96ce0-ec90-4165-9004-cff1fb9f9851"},"vehicle_type_id":"4","last_reported":1705863940,"current_range_meters":6800,"station_id":"ce4bgg92rcd13ifvqb30","pricing_plan_id":"free"},{"bike_id":"e49ac95d-546d-4297-937b-0e03ad58df78","system_id":"levelo_inurba_marseille","lat":43.299243,"lon":5.374807,"is_reserved":false,"is_disabled":false,"rental_uris":{"android":"levelo://app?vid=e49ac95d-546d-4297-937b-0e03ad58df78","ios":"levelo://app?vid=e49ac95d-546d-4297-937b-0e03ad58df78"},"vehicle_type_id":"4","last_reported":1705863940,"current_range_meters":30800,"station_id":"ce4bgjh2rcd13ifvqbg0","pricing_plan_id":"free"},{"bike_id":"40636a00-f5b2-415a-9b39-7a27f677df20","system_id":"levelo_inurba_marseille","lat":43.311722,"lon":5.387247,"is_reserved":false,"is_disabled":false,"rental_uris":{"android":"levelo://app?vid=40636a00-f5b2-415a-9b39-7a27f677df20","ios":"levelo://app?vid=40636a00-f5b2-415a-9b39-7a27f677df20"},"vehicle_type_id":"4","last_reported":1705863940,"current_range_meters":29600,"station_id":"ce4bgv12rcd13ifvqcp0","pricing_plan_id":"free"},{"bike_id":"b4d5abf6-0f4e-4d62-852c-8879ec7eb1f7","system_id":"levelo_inurba_marseille","lat":43.311722,"lon":5.387247,"is_reserved":false,"is_disabled":false,"rental_uris":{"android":"levelo://app?vid=b4d5abf6-0f4e-4d62-852c-8879ec7eb1f7","ios":"levelo://app?vid=b4d5abf6-0f4e-4d62-852c-8879ec7eb1f7"},"vehicle_type_id":"4","last_reported":1705863940,"current_range_meters":13200,"station_id":"ce4bgv12rcd13ifvqcp0","pricing_plan_id":"free"},{"bike_id":"2e2d4140-13dc-4790-b8cc-ed5ea07e396a","system_id":"levelo_inurba_marseille","lat":43.299243,"lon":5.374807,"is_reserved":false,"is_disabled":false,"rental_uris":{"android":"levelo://app?vid=2e2d4140-13dc-4790-b8cc-ed5ea07e396a","ios":"levelo://app?vid=2e2d4140-13dc-4790-b8cc-ed5ea07e396a"},"vehicle_type_id":"4","last_reported":1705863940,"current_range_meters":20800,"station_id":"ce4bgjh2rcd13ifvqbg0","pricing_plan_id":"free"},{"bike_id":"c3ab95e9-b05f-4b19-b4ee-7abea1f52c27","system_id":"levelo_inurba_marseille","lat":43.322872,"lon":5.382756,"is_reserved":false,"is_disabled":false,"rental_uris":{"android":"levelo://app?vid=c3ab95e9-b05f-4b19-b4ee-7abea1f52c27","ios":"levelo://app?vid=c3ab95e9-b05f-4b19-b4ee-7abea1f52c27"},"vehicle_type_id":"4","last_reported":1705863940,"current_range_meters":31200,"station_id":"ce4bhr12rcd13ifvqhqg","pricing_plan_id":"free"},{"bike_id":"d1da8d70-f4c2-4064-bac5-ba3f328c4021","system_id":"levelo_inurba_marseille","lat":43.322867,"lon":5.382714,"is_reserved":false,"is_disabled":false,"rental_uris":{"android":"levelo://app?vid=d1da8d70-f4c2-4064-bac5-ba3f328c4021","ios":"levelo://app?vid=d1da8d70-f4c2-4064-bac5-ba3f328c4021"},"vehicle_type_id":"4","last_reported":1705863940,"current_range_meters":12800,"station_id":"ce4bhr12rcd13ifvqhqg","pricing_plan_id":"free"},{"bike_id":"ea0178f3-2c6b-4af6-b062-91b0b8dde1df","system_id":"levelo_inurba_marseille","lat":43.328218,"lon":5.366787,"is_reserved":false,"is_disabled":false,"rental_uris":{"android":"levelo://app?vid=ea0178f3-2c6b-4af6-b062-91b0b8dde1df","ios":"levelo://app?vid=ea0178f3-2c6b-4af6-b062-91b0b8dde1df"},"vehicle_type_id":"4","last_reported":1705863940,"current_range_meters":18800,"station_id":"ce4bhs92rcd13ifvqi0g","pricing_plan_id":"free"},{"bike_id":"8c76cce8-dc76-403d-a9b8-0a976afb5aaf","system_id":"levelo_inurba_marseille","lat":43.328228,"lon":5.366746,"is_reserved":false,"is_disabled":false,"rental_uris":{"android":"levelo://app?vid=8c76cce8-dc76-403d-a9b8-0a976afb5aaf","ios":"levelo://app?vid=8c76cce8-dc76-403d-a9b8-0a976afb5aaf"},"vehicle_type_id":"4","last_reported":1705863940,"current_range_meters":20400,"station_id":"ce4bhs92rcd13ifvqi0g","pricing_plan_id":"free"},{"bike_id":"85cedcff-9e9a-415d-8415-195178ea3cb7","system_id":"levelo_inurba_marseille","lat":43.328235,"lon":5.36679,"is_reserved":false,"is_disabled":false,"rental_uris":{"android":"levelo://app?vid=85cedcff-9e9a-415d-8415-195178ea3cb7","ios":"levelo://app?vid=85cedcff-9e9a-415d-8415-195178ea3cb7"},"vehicle_type_id":"4","last_reported":1705863940,"current_range_meters":20800,"station_id":"ce4bhs92rcd13ifvqi0g","pricing_plan_id":"free"},{"bike_id":"572c30ca-2698-4ebb-9720-28d9ee8291d9","system_id":"levelo_inurba_marseille","lat":43.32824,"lon":5.36678,"is_reserved":false,"is_disabled":false,"rental_uris":{"android":"levelo://app?vid=572c30ca-2698-4ebb-9720-28d9ee8291d9","ios":"levelo://app?vid=572c30ca-2698-4ebb-9720-28d9ee8291d9"},"vehicle_type_id":"4","last_reported":1705863940,"current_range_meters":25200,"station_id":"ce4bhs92rcd13ifvqi0g","pricing_plan_id":"free"},{"bike_id":"a1372ffa-3076-49e1-851b-6ec0ac400a60","system_id":"levelo_inurba_marseille","lat":43.328256,"lon":5.366901,"is_reserved":false,"is_disabled":false,"rental_uris":{"android":"levelo://app?vid=a1372ffa-3076-49e1-851b-6ec0ac400a60","ios":"levelo://app?vid=a1372ffa-3076-49e1-851b-6ec0ac400a60"},"vehicle_type_id":"4","last_reported":1705863940,"current_range_meters":28000,"station_id":"ce4bhs92rcd13ifvqi0g","pricing_plan_id":"free"},{"bike_id":"289d6ba1-3edf-4a84-8210-90b472d195a5","system_id":"levelo_inurba_marseille","lat":43.328261,"lon":5.366753,"is_reserved":false,"is_disabled":false,"rental_uris":{"android":"levelo://app?vid=289d6ba1-3edf-4a84-8210-90b472d195a5","ios":"levelo://app?vid=289d6ba1-3edf-4a84-8210-90b472d195a5"},"vehicle_type_id":"4","last_reported":1705863940,"current_range_meters":25200,"station_id":"ce4bhs92rcd13ifvqi0g","pricing_plan_id":"free"},{"bike_id":"447532c0-56ca-46ac-9000-fea47d81b433","system_id":"levelo_inurba_marseille","lat":43.328265,"lon":5.366813,"is_reserved":false,"is_disabled":false,"rental_uris":{"android":"levelo://app?vid=447532c0-56ca-46ac-9000-fea47d81b433","ios":"levelo://app?vid=447532c0-56ca-46ac-9000-fea47d81b433"},"vehicle_type_id":"4","last_reported":1705863940,"current_range_meters":9200,"station_id":"ce4bhs92rcd13ifvqi0g","pricing_plan_id":"free"},{"bike_id":"c4689705-bde6-4219-964e-2ecc1db7262c","system_id":"levelo_inurba_marseille","lat":43.32827,"lon":5.36686,"is_reserved":false,"is_disabled":false,"rental_uris":{"android":"levelo://app?vid=c4689705-bde6-4219-964e-2ecc1db7262c","ios":"levelo://app?vid=c4689705-bde6-4219-964e-2ecc1db7262c"},"vehicle_type_id":"4","last_reported":1705863940,"current_range_meters":19200,"station_id":"ce4bhs92rcd13ifvqi0g","pricing_plan_id":"free"},{"bike_id":"6da9db5a-42ba-4fa8-afc9-4fdbb45498c1","system_id":"levelo_inurba_marseille","lat":43.32828,"lon":5.3668,"is_reserved":false,"is_disabled":false,"rental_uris":{"android":"levelo://app?vid=6da9db5a-42ba-4fa8-afc9-4fdbb45498c1","ios":"levelo://app?vid=6da9db5a-42ba-4fa8-afc9-4fdbb45498c1"},"vehicle_type_id":"4","last_reported":1705863940,"current_range_meters":10400,"station_id":"ce4bhs92rcd13ifvqi0g","pricing_plan_id":"free"},{"bike_id":"36478f2b-b1fb-49bb-9075-c7b7b66d5e11","system_id":"levelo_inurba_marseille","lat":43.328297,"lon":5.366831,"is_reserved":false,"is_disabled":false,"rental_uris":{"android":"levelo://app?vid=36478f2b-b1fb-49bb-9075-c7b7b66d5e11","ios":"levelo://app?vid=36478f2b-b1fb-49bb-9075-c7b7b66d5e11"},"vehicle_type_id":"4","last_reported":1705863940,"current_range_meters":8400,"station_id":"ce4bhs92rcd13ifvqi0g","pricing_plan_id":"free"},{"bike_id":"70884ef0-1bfe-4bf5-8b6d-8f5054f4719a","system_id":"levelo_inurba_marseille","lat":43.297163,"lon":5.365866,"is_reserved":false,"is_disabled":false,"rental_uris":{"android":"levelo://app?vid=70884ef0-1bfe-4bf5-8b6d-8f5054f4719a","ios":"levelo://app?vid=70884ef0-1bfe-4bf5-8b6d-8f5054f4719a"},"vehicle_type_id":"4","last_reported":1705863940,"current_range_meters":3600,"station_id":"ce4bgn12rcd13ifvqbt0","pricing_plan_id":"free"},{"bike_id":"5fe45976-b092-4ff8-b563-4011f6e24dc4","system_id":"levelo_inurba_marseille","lat":43.297163,"lon":5.365866,"is_reserved":false,"is_disabled":false,"rental_uris":{"android":"levelo://app?vid=5fe45976-b092-4ff8-b563-4011f6e24dc4","ios":"levelo://app?vid=5fe45976-b092-4ff8-b563-4011f6e24dc4"},"vehicle_type_id":"4","last_reported":1705863940,"current_range_meters":26400,"station_id":"ce4bgn12rcd13ifvqbt0","pricing_plan_id":"free"},{"bike_id":"38082c03-fac1-44d3-a79f-5142b4a113a9","system_id":"levelo_inurba_marseille","lat":43.328373,"lon":5.366902,"is_reserved":false,"is_disabled":false,"rental_uris":{"android":"levelo://app?vid=38082c03-fac1-44d3-a79f-5142b4a113a9","ios":"levelo://app?vid=38082c03-fac1-44d3-a79f-5142b4a113a9"},"vehicle_type_id":"4","last_reported":1705863940,"current_range_meters":22000,"station_id":"ce4bhs92rcd13ifvqi0g","pricing_plan_id":"free"},{"bike_id":"1d5e9ab0-02b7-466c-b421-d22189cde29e","system_id":"levelo_inurba_marseille","lat":43.297163,"lon":5.365866,"is_reserved":false,"is_disabled":false,"rental_uris":{"android":"levelo://app?vid=1d5e9ab0-02b7-466c-b421-d22189cde29e","ios":"levelo://app?vid=1d5e9ab0-02b7-466c-b421-d22189cde29e"},"vehicle_type_id":"4","last_reported":1705863940,"current_range_meters":28800,"station_id":"ce4bgn12rcd13ifvqbt0","pricing_plan_id":"free"},{"bike_id":"48897add-904d-47cb-a3bc-1170264204c8","system_id":"levelo_inurba_marseille","lat":43.297163,"lon":5.365866,"is_reserved":false,"is_disabled":false,"rental_uris":{"android":"levelo://app?vid=48897add-904d-47cb-a3bc-1170264204c8","ios":"levelo://app?vid=48897add-904d-47cb-a3bc-1170264204c8"},"vehicle_type_id":"4","last_reported":1705863940,"current_range_meters":21200,"station_id":"ce4bgn12rcd13ifvqbt0","pricing_plan_id":"free"},{"bike_id":"835e8103-30d9-4f9a-8f36-3072aea3a244","system_id":"levelo_inurba_marseille","lat":43.297163,"lon":5.365866,"is_reserved":false,"is_disabled":false,"rental_uris":{"android":"levelo://app?vid=835e8103-30d9-4f9a-8f36-3072aea3a244","ios":"levelo://app?vid=835e8103-30d9-4f9a-8f36-3072aea3a244"},"vehicle_type_id":"4","last_reported":1705863940,"current_range_meters":28800,"station_id":"ce4bgn12rcd13ifvqbt0","pricing_plan_id":"free"},{"bike_id":"9a6553b2-4216-4a52-9638-fb86f6c1138b","system_id":"levelo_inurba_marseille","lat":43.297163,"lon":5.365866,"is_reserved":false,"is_disabled":false,"rental_uris":{"android":"levelo://app?vid=9a6553b2-4216-4a52-9638-fb86f6c1138b","ios":"levelo://app?vid=9a6553b2-4216-4a52-9638-fb86f6c1138b"},"vehicle_type_id":"4","last_reported":1705863940,"current_range_meters":9600,"station_id":"ce4bgn12rcd13ifvqbt0","pricing_plan_id":"free"},{"bike_id":"354c1cfb-d387-47bc-898d-bd97ee14b1c2","system_id":"levelo_inurba_marseille","lat":43.2968,"lon":5.37291,"is_reserved":false,"is_disabled":false,"rental_uris":{"android":"levelo://app?vid=354c1cfb-d387-47bc-898d-bd97ee14b1c2","ios":"levelo://app?vid=354c1cfb-d387-47bc-898d-bd97ee14b1c2"},"vehicle_type_id":"4","last_reported":1705863940,"current_range_meters":26800,"station_id":"ce4bgk12rcd13ifvqbj0","pricing_plan_id":"free"},{"bike_id":"57a3deac-4b87-4154-a6b3-d876938a5117","system_id":"levelo_inurba_marseille","lat":43.31499,"lon":5.389595,"is_reserved":false,"is_disabled":false,"rental_uris":{"android":"levelo://app?vid=57a3deac-4b87-4154-a6b3-d876938a5117","ios":"levelo://app?vid=57a3deac-4b87-4154-a6b3-d876938a5117"},"vehicle_type_id":"4","last_reported":1705863940,"current_range_meters":25200,"station_id":"","pricing_plan_id":"free"},{"bike_id":"bd8a1560-e38b-472c-8997-6370df1b57b6","system_id":"levelo_inurba_marseille","lat":43.29589,"lon":5.36778,"is_reserved":false,"is_disabled":false,"rental_uris":{"android":"levelo://app?vid=bd8a1560-e38b-472c-8997-6370df1b57b6","ios":"levelo://app?vid=bd8a1560-e38b-472c-8997-6370df1b57b6"},"vehicle_type_id":"4","last_reported":1705863940,"current_range_meters":12800,"station_id":"ce4bgph2rcd13ifvqc2g","pricing_plan_id":"free"},{"bike_id":"6fe21010-1988-493d-859d-ba3e80ec4a21","system_id":"levelo_inurba_marseille","lat":43.29573,"lon":5.367355,"is_reserved":false,"is_disabled":false,"rental_uris":{"android":"levelo://app?vid=6fe21010-1988-493d-859d-ba3e80ec4a21","ios":"levelo://app?vid=6fe21010-1988-493d-859d-ba3e80ec4a21"},"vehicle_type_id":"4","last_reported":1705863940,"current_range_meters":10800,"station_id":"ce4bgph2rcd13ifvqc2g","pricing_plan_id":"free"},{"bike_id":"6c29d6c7-864b-404d-a9de-ab34fb358996","system_id":"levelo_inurba_marseille","lat":43.295825,"lon":5.367753,"is_reserved":false,"is_disabled":false,"rental_uris":{"android":"levelo://app?vid=6c29d6c7-864b-404d-a9de-ab34fb358996","ios":"levelo://app?vid=6c29d6c7-864b-404d-a9de-ab34fb358996"},"vehicle_type_id":"4","last_reported":1705863940,"current_range_meters":24800,"station_id":"","pricing_plan_id":"free"},{"bike_id":"57c89b14-d2ee-4d30-b8ce-45756998209e","system_id":"levelo_inurba_marseille","lat":43.29579,"lon":5.36749,"is_reserved":false,"is_disabled":false,"rental_uris":{"android":"levelo://app?vid=57c89b14-d2ee-4d30-b8ce-45756998209e","ios":"levelo://app?vid=57c89b14-d2ee-4d30-b8ce-45756998209e"},"vehicle_type_id":"4","last_reported":1705863940,"current_range_meters":22800,"station_id":"ce4bgph2rcd13ifvqc2g","pricing_plan_id":"free"},{"bike_id":"fd01f13d-f803-4c64-8dca-05702e39e5c0","system_id":"levelo_inurba_marseille","lat":43.299028,"lon":5.381509,"is_reserved":false,"is_disabled":false,"rental_uris":{"android":"levelo://app?vid=fd01f13d-f803-4c64-8dca-05702e39e5c0","ios":"levelo://app?vid=fd01f13d-f803-4c64-8dca-05702e39e5c0"},"vehicle_type_id":"4","last_reported":1705863940,"current_range_meters":20800,"station_id":"ce4bgj12rcd13ifvqbc0","pricing_plan_id":"free"},{"bike_id":"9efd1840-8e2d-4403-a612-821d1fea76af","system_id":"levelo_inurba_marseille","lat":43.309589,"lon":5.390258,"is_reserved":false,"is_disabled":false,"rental_uris":{"android":"levelo://app?vid=9efd1840-8e2d-4403-a612-821d1fea76af","ios":"levelo://app?vid=9efd1840-8e2d-4403-a612-821d1fea76af"},"vehicle_type_id":"4","last_reported":1705863940,"current_range_meters":7200,"station_id":"ce4bgup2rcd13ifvqco0","pricing_plan_id":"free"},{"bike_id":"eea2f6ac-e2bf-4986-b5f2-037c93fbb906","system_id":"levelo_inurba_marseille","lat":43.309589,"lon":5.390258,"is_reserved":false,"is_disabled":false,"rental_uris":{"android":"levelo://app?vid=eea2f6ac-e2bf-4986-b5f2-037c93fbb906","ios":"levelo://app?vid=eea2f6ac-e2bf-4986-b5f2-037c93fbb906"},"vehicle_type_id":"4","last_reported":1705863940,"current_range_meters":24000,"station_id":"ce4bgup2rcd13ifvqco0","pricing_plan_id":"free"},{"bike_id":"217d5bdb-beb2-4fd1-a222-8feb6c224765","system_id":"levelo_inurba_marseille","lat":43.31758,"lon":5.39025,"is_reserved":false,"is_disabled":false,"rental_uris":{"android":"levelo://app?vid=217d5bdb-beb2-4fd1-a222-8feb6c224765","ios":"levelo://app?vid=217d5bdb-beb2-4fd1-a222-8feb6c224765"},"vehicle_type_id":"4","last_reported":1705863940,"current_range_meters":28800,"station_id":"","pricing_plan_id":"free"},{"bike_id":"d2a564de-714e-4efa-8fb0-f19d62eb8017","system_id":"levelo_inurba_marseille","lat":43.31751,"lon":5.39033,"is_reserved":false,"is_disabled":false,"rental_uris":{"android":"levelo://app?vid=d2a564de-714e-4efa-8fb0-f19d62eb8017","ios":"levelo://app?vid=d2a564de-714e-4efa-8fb0-f19d62eb8017"},"vehicle_type_id":"4","last_reported":1705863940,"current_range_meters":0,"station_id":"ce4bhqp2rcd13ifvqhng","pricing_plan_id":"free"},{"bike_id":"1d196ceb-8893-4da7-8dc1-36b08ef32de2","system_id":"levelo_inurba_marseille","lat":43.298037,"lon":5.381066,"is_reserved":false,"is_disabled":false,"rental_uris":{"android":"levelo://app?vid=1d196ceb-8893-4da7-8dc1-36b08ef32de2","ios":"levelo://app?vid=1d196ceb-8893-4da7-8dc1-36b08ef32de2"},"vehicle_type_id":"4","last_reported":1705863940,"current_range_meters":16800,"station_id":"ce4bgip2rcd13ifvqbb0","pricing_plan_id":"free"},{"bike_id":"184e11b4-db7d-4601-8bce-463910082fb7","system_id":"levelo_inurba_marseille","lat":43.298037,"lon":5.381066,"is_reserved":false,"is_disabled":false,"rental_uris":{"android":"levelo://app?vid=184e11b4-db7d-4601-8bce-463910082fb7","ios":"levelo://app?vid=184e11b4-db7d-4601-8bce-463910082fb7"},"vehicle_type_id":"4","last_reported":1705863940,"current_range_meters":18000,"station_id":"ce4bgip2rcd13ifvqbb0","pricing_plan_id":"free"},{"bike_id":"b0e75d39-562c-420d-b70a-3ae5c104828d","system_id":"levelo_inurba_marseille","lat":43.298037,"lon":5.381066,"is_reserved":false,"is_disabled":false,"rental_uris":{"android":"levelo://app?vid=b0e75d39-562c-420d-b70a-3ae5c104828d","ios":"levelo://app?vid=b0e75d39-562c-420d-b70a-3ae5c104828d"},"vehicle_type_id":"4","last_reported":1705863940,"current_range_meters":17600,"station_id":"ce4bgip2rcd13ifvqbb0","pricing_plan_id":"free"},{"bike_id":"4523f54f-48c4-4a9d-af3a-6a0d4cb7a9b2","system_id":"levelo_inurba_marseille","lat":43.298037,"lon":5.381066,"is_reserved":false,"is_disabled":false,"rental_uris":{"android":"levelo://app?vid=4523f54f-48c4-4a9d-af3a-6a0d4cb7a9b2","ios":"levelo://app?vid=4523f54f-48c4-4a9d-af3a-6a0d4cb7a9b2"},"vehicle_type_id":"4","last_reported":1705863940,"current_range_meters":10800,"station_id":"ce4bgip2rcd13ifvqbb0","pricing_plan_id":"free"},{"bike_id":"ad13d1f0-437c-468e-a801-7fbc54369cef","system_id":"levelo_inurba_marseille","lat":43.298037,"lon":5.381066,"is_reserved":false,"is_disabled":false,"rental_uris":{"android":"levelo://app?vid=ad13d1f0-437c-468e-a801-7fbc54369cef","ios":"levelo://app?vid=ad13d1f0-437c-468e-a801-7fbc54369cef"},"vehicle_type_id":"4","last_reported":1705863940,"current_range_meters":13600,"station_id":"ce4bgip2rcd13ifvqbb0","pricing_plan_id":"free"},{"bike_id":"1d8c73cd-3933-4a2c-b9c8-c0af22264acb","system_id":"levelo_inurba_marseille","lat":43.296277,"lon":5.377108,"is_reserved":false,"is_disabled":false,"rental_uris":{"android":"levelo://app?vid=1d8c73cd-3933-4a2c-b9c8-c0af22264acb","ios":"levelo://app?vid=1d8c73cd-3933-4a2c-b9c8-c0af22264acb"},"vehicle_type_id":"4","last_reported":1705863940,"current_range_meters":4800,"station_id":"ce4bgi92rcd13ifvqb90","pricing_plan_id":"free"},{"bike_id":"431c855d-594f-4280-b3f5-0159f37aafff","system_id":"levelo_inurba_marseille","lat":43.304274,"lon":5.388873,"is_reserved":false,"is_disabled":false,"rental_uris":{"android":"levelo://app?vid=431c855d-594f-4280-b3f5-0159f37aafff","ios":"levelo://app?vid=431c855d-594f-4280-b3f5-0159f37aafff"},"vehicle_type_id":"4","last_reported":1705863940,"current_range_meters":19600,"station_id":"ce4bgk12rcd13ifvqbi0","pricing_plan_id":"free"},{"bike_id":"6db87038-4a41-4225-8f88-fc1fe481b32e","system_id":"levelo_inurba_marseille","lat":43.298037,"lon":5.381066,"is_reserved":false,"is_disabled":false,"rental_uris":{"android":"levelo://app?vid=6db87038-4a41-4225-8f88-fc1fe481b32e","ios":"levelo://app?vid=6db87038-4a41-4225-8f88-fc1fe481b32e"},"vehicle_type_id":"4","last_reported":1705863940,"current_range_meters":11600,"station_id":"ce4bgip2rcd13ifvqbb0","pricing_plan_id":"free"},{"bike_id":"84a82671-63f9-40db-b880-fbf2a806f277","system_id":"levelo_inurba_marseille","lat":43.304301,"lon":5.3889,"is_reserved":false,"is_disabled":false,"rental_uris":{"android":"levelo://app?vid=84a82671-63f9-40db-b880-fbf2a806f277","ios":"levelo://app?vid=84a82671-63f9-40db-b880-fbf2a806f277"},"vehicle_type_id":"4","last_reported":1705863940,"current_range_meters":0,"station_id":"ce4bgk12rcd13ifvqbi0","pricing_plan_id":"free"},{"bike_id":"f8e3599a-217e-4732-a3b2-e27b48e2db8a","system_id":"levelo_inurba_marseille","lat":43.304274,"lon":5.388873,"is_reserved":false,"is_disabled":false,"rental_uris":{"android":"levelo://app?vid=f8e3599a-217e-4732-a3b2-e27b48e2db8a","ios":"levelo://app?vid=f8e3599a-217e-4732-a3b2-e27b48e2db8a"},"vehicle_type_id":"4","last_reported":1705863940,"current_range_meters":23600,"station_id":"ce4bgk12rcd13ifvqbi0","pricing_plan_id":"free"},{"bike_id":"d26bb67a-8775-4ead-bbfa-1d94bc712f40","system_id":"levelo_inurba_marseille","lat":43.296277,"lon":5.377108,"is_reserved":false,"is_disabled":false,"rental_uris":{"android":"levelo://app?vid=d26bb67a-8775-4ead-bbfa-1d94bc712f40","ios":"levelo://app?vid=d26bb67a-8775-4ead-bbfa-1d94bc712f40"},"vehicle_type_id":"4","last_reported":1705863940,"current_range_meters":22800,"station_id":"ce4bgi92rcd13ifvqb90","pricing_plan_id":"free"},{"bike_id":"236a0cfe-59f4-41f6-8e27-89f4110c4aea","system_id":"levelo_inurba_marseille","lat":43.298037,"lon":5.381066,"is_reserved":false,"is_disabled":false,"rental_uris":{"android":"levelo://app?vid=236a0cfe-59f4-41f6-8e27-89f4110c4aea","ios":"levelo://app?vid=236a0cfe-59f4-41f6-8e27-89f4110c4aea"},"vehicle_type_id":"4","last_reported":1705863940,"current_range_meters":7200,"station_id":"ce4bgip2rcd13ifvqbb0","pricing_plan_id":"free"},{"bike_id":"4a9b394e-05f5-4518-9e14-f6e1bb943fc8","system_id":"levelo_inurba_marseille","lat":43.29624,"lon":5.37731,"is_reserved":false,"is_disabled":false,"rental_uris":{"android":"levelo://app?vid=4a9b394e-05f5-4518-9e14-f6e1bb943fc8","ios":"levelo://app?vid=4a9b394e-05f5-4518-9e14-f6e1bb943fc8"},"vehicle_type_id":"4","last_reported":1705863940,"current_range_meters":0,"station_id":"ce4bgi92rcd13ifvqb90","pricing_plan_id":"free"},{"bike_id":"3587ac82-6116-4875-9795-17452058e0cd","system_id":"levelo_inurba_marseille","lat":43.304274,"lon":5.388873,"is_reserved":false,"is_disabled":false,"rental_uris":{"android":"levelo://app?vid=3587ac82-6116-4875-9795-17452058e0cd","ios":"levelo://app?vid=3587ac82-6116-4875-9795-17452058e0cd"},"vehicle_type_id":"4","last_reported":1705863940,"current_range_meters":13200,"station_id":"ce4bgk12rcd13ifvqbi0","pricing_plan_id":"free"},{"bike_id":"beaae6db-d9b4-4424-9539-03a0ba7dc5ad","system_id":"levelo_inurba_marseille","lat":43.296263,"lon":5.377094,"is_reserved":false,"is_disabled":false,"rental_uris":{"android":"levelo://app?vid=beaae6db-d9b4-4424-9539-03a0ba7dc5ad","ios":"levelo://app?vid=beaae6db-d9b4-4424-9539-03a0ba7dc5ad"},"vehicle_type_id":"4","last_reported":1705863940,"current_range_meters":24800,"station_id":"ce4bgi92rcd13ifvqb90","pricing_plan_id":"free"},{"bike_id":"b104c5d9-097e-47d2-925d-5d284e452c60","system_id":"levelo_inurba_marseille","lat":43.298037,"lon":5.381066,"is_reserved":false,"is_disabled":false,"rental_uris":{"android":"levelo://app?vid=b104c5d9-097e-47d2-925d-5d284e452c60","ios":"levelo://app?vid=b104c5d9-097e-47d2-925d-5d284e452c60"},"vehicle_type_id":"4","last_reported":1705863940,"current_range_meters":8400,"station_id":"ce4bgip2rcd13ifvqbb0","pricing_plan_id":"free"},{"bike_id":"4aa9a632-b217-4b20-8550-c8789a1d8525","system_id":"levelo_inurba_marseille","lat":43.296046,"lon":5.37709,"is_reserved":false,"is_disabled":false,"rental_uris":{"android":"levelo://app?vid=4aa9a632-b217-4b20-8550-c8789a1d8525","ios":"levelo://app?vid=4aa9a632-b217-4b20-8550-c8789a1d8525"},"vehicle_type_id":"4","last_reported":1705863940,"current_range_meters":0,"station_id":"ce4bgi92rcd13ifvqb90","pricing_plan_id":"free"},{"bike_id":"912d3264-343e-467a-b818-23ac62d3f4ca","system_id":"levelo_inurba_marseille","lat":43.296277,"lon":5.377108,"is_reserved":false,"is_disabled":false,"rental_uris":{"android":"levelo://app?vid=912d3264-343e-467a-b818-23ac62d3f4ca","ios":"levelo://app?vid=912d3264-343e-467a-b818-23ac62d3f4ca"},"vehicle_type_id":"4","last_reported":1705863940,"current_range_meters":17200,"station_id":"ce4bgi92rcd13ifvqb90","pricing_plan_id":"free"},{"bike_id":"093a6848-cf5e-4938-80fc-0923a1e986a7","system_id":"levelo_inurba_marseille","lat":43.299717,"lon":5.384845,"is_reserved":false,"is_disabled":false,"rental_uris":{"android":"levelo://app?vid=093a6848-cf5e-4938-80fc-0923a1e986a7","ios":"levelo://app?vid=093a6848-cf5e-4938-80fc-0923a1e986a7"},"vehicle_type_id":"4","last_reported":1705863940,"current_range_meters":5600,"station_id":"ce4bgj92rcd13ifvqbd0","pricing_plan_id":"free"},{"bike_id":"5e100fd6-506d-4cd9-a7ce-62a368b34ba7","system_id":"levelo_inurba_marseille","lat":43.295279,"lon":5.375048,"is_reserved":false,"is_disabled":false,"rental_uris":{"android":"levelo://app?vid=5e100fd6-506d-4cd9-a7ce-62a368b34ba7","ios":"levelo://app?vid=5e100fd6-506d-4cd9-a7ce-62a368b34ba7"},"vehicle_type_id":"4","last_reported":1705863940,"current_range_meters":7200,"station_id":"ce4bgkp2rcd13ifvqbmg","pricing_plan_id":"free"},{"bike_id":"0082a527-5756-40aa-bfb8-bf5487947383","system_id":"levelo_inurba_marseille","lat":43.299707,"lon":5.384859,"is_reserved":false,"is_disabled":false,"rental_uris":{"android":"levelo://app?vid=0082a527-5756-40aa-bfb8-bf5487947383","ios":"levelo://app?vid=0082a527-5756-40aa-bfb8-bf5487947383"},"vehicle_type_id":"4","last_reported":1705863940,"current_range_meters":26000,"station_id":"ce4bgj92rcd13ifvqbd0","pricing_plan_id":"free"},{"bike_id":"2cc08709-8792-4562-b6ad-a62c93500843","system_id":"levelo_inurba_marseille","lat":43.299707,"lon":5.384859,"is_reserved":false,"is_disabled":false,"rental_uris":{"android":"levelo://app?vid=2cc08709-8792-4562-b6ad-a62c93500843","ios":"levelo://app?vid=2cc08709-8792-4562-b6ad-a62c93500843"},"vehicle_type_id":"4","last_reported":1705863940,"current_range_meters":15600,"station_id":"ce4bgj92rcd13ifvqbd0","pricing_plan_id":"free"},{"bike_id":"6e3c3f8a-677c-43f9-be7e-210e7398b397","system_id":"levelo_inurba_marseille","lat":43.29963,"lon":5.38497,"is_reserved":false,"is_disabled":false,"rental_uris":{"android":"levelo://app?vid=6e3c3f8a-677c-43f9-be7e-210e7398b397","ios":"levelo://app?vid=6e3c3f8a-677c-43f9-be7e-210e7398b397"},"vehicle_type_id":"4","last_reported":1705863940,"current_range_meters":25600,"station_id":"ce4bgj92rcd13ifvqbd0","pricing_plan_id":"free"},{"bike_id":"a70a3292-4ecf-44c0-89e8-2643ecf9b1e8","system_id":"levelo_inurba_marseille","lat":43.29964,"lon":5.38509,"is_reserved":false,"is_disabled":false,"rental_uris":{"android":"levelo://app?vid=a70a3292-4ecf-44c0-89e8-2643ecf9b1e8","ios":"levelo://app?vid=a70a3292-4ecf-44c0-89e8-2643ecf9b1e8"},"vehicle_type_id":"4","last_reported":1705863940,"current_range_meters":17200,"station_id":"ce4bgj92rcd13ifvqbd0","pricing_plan_id":"free"},{"bike_id":"ece81634-abf1-4f9a-9bc3-f89a95742de9","system_id":"levelo_inurba_marseille","lat":43.29962,"lon":5.38509,"is_reserved":false,"is_disabled":false,"rental_uris":{"android":"levelo://app?vid=ece81634-abf1-4f9a-9bc3-f89a95742de9","ios":"levelo://app?vid=ece81634-abf1-4f9a-9bc3-f89a95742de9"},"vehicle_type_id":"4","last_reported":1705863940,"current_range_meters":14000,"station_id":"ce4bgj92rcd13ifvqbd0","pricing_plan_id":"free"},{"bike_id":"55137e01-c271-414d-820f-1c4f2cf8d8f6","system_id":"levelo_inurba_marseille","lat":43.29601,"lon":5.381084,"is_reserved":false,"is_disabled":false,"rental_uris":{"android":"levelo://app?vid=55137e01-c271-414d-820f-1c4f2cf8d8f6","ios":"levelo://app?vid=55137e01-c271-414d-820f-1c4f2cf8d8f6"},"vehicle_type_id":"4","last_reported":1705863940,"current_range_meters":27200,"station_id":"ce4bgl12rcd13ifvqbo0","pricing_plan_id":"free"},{"bike_id":"02806411-61fa-4c25-934d-d3690171e1f3","system_id":"levelo_inurba_marseille","lat":43.32357,"lon":5.38882,"is_reserved":false,"is_disabled":false,"rental_uris":{"android":"levelo://app?vid=02806411-61fa-4c25-934d-d3690171e1f3","ios":"levelo://app?vid=02806411-61fa-4c25-934d-d3690171e1f3"},"vehicle_type_id":"4","last_reported":1705863940,"current_range_meters":5600,"station_id":"ce4bhqp2rcd13ifvqhog","pricing_plan_id":"free"},{"bike_id":"6c22759b-23cf-4f53-8bcd-3d26f569b6f9","system_id":"levelo_inurba_marseille","lat":43.32367,"lon":5.388836,"is_reserved":false,"is_disabled":false,"rental_uris":{"android":"levelo://app?vid=6c22759b-23cf-4f53-8bcd-3d26f569b6f9","ios":"levelo://app?vid=6c22759b-23cf-4f53-8bcd-3d26f569b6f9"},"vehicle_type_id":"4","last_reported":1705863940,"current_range_meters":5200,"station_id":"ce4bhqp2rcd13ifvqhog","pricing_plan_id":"free"},{"bike_id":"bf880da1-008b-4021-9b04-dc53f8a59e66","system_id":"levelo_inurba_marseille","lat":43.32367,"lon":5.388836,"is_reserved":false,"is_disabled":false,"rental_uris":{"android":"levelo://app?vid=bf880da1-008b-4021-9b04-dc53f8a59e66","ios":"levelo://app?vid=bf880da1-008b-4021-9b04-dc53f8a59e66"},"vehicle_type_id":"4","last_reported":1705863940,"current_range_meters":1200,"station_id":"ce4bhqp2rcd13ifvqhog","pricing_plan_id":"free"},{"bike_id":"04764818-933e-4c82-b999-186039aa353e","system_id":"levelo_inurba_marseille","lat":43.32367,"lon":5.388836,"is_reserved":false,"is_disabled":false,"rental_uris":{"android":"levelo://app?vid=04764818-933e-4c82-b999-186039aa353e","ios":"levelo://app?vid=04764818-933e-4c82-b999-186039aa353e"},"vehicle_type_id":"4","last_reported":1705863940,"current_range_meters":3600,"station_id":"ce4bhqp2rcd13ifvqhog","pricing_plan_id":"free"},{"bike_id":"43ce4802-7931-487e-9f5c-f811d996493a","system_id":"levelo_inurba_marseille","lat":43.32367,"lon":5.388836,"is_reserved":false,"is_disabled":false,"rental_uris":{"android":"levelo://app?vid=43ce4802-7931-487e-9f5c-f811d996493a","ios":"levelo://app?vid=43ce4802-7931-487e-9f5c-f811d996493a"},"vehicle_type_id":"4","last_reported":1705863940,"current_range_meters":19600,"station_id":"ce4bhqp2rcd13ifvqhog","pricing_plan_id":"free"},{"bike_id":"17e69bfe-c52c-4ee4-9ff5-b648ffb7add8","system_id":"levelo_inurba_marseille","lat":43.29601,"lon":5.381084,"is_reserved":false,"is_disabled":false,"rental_uris":{"android":"levelo://app?vid=17e69bfe-c52c-4ee4-9ff5-b648ffb7add8","ios":"levelo://app?vid=17e69bfe-c52c-4ee4-9ff5-b648ffb7add8"},"vehicle_type_id":"4","last_reported":1705863940,"current_range_meters":11600,"station_id":"ce4bgl12rcd13ifvqbo0","pricing_plan_id":"free"},{"bike_id":"9e1642c7-1e35-4ba4-bbda-f974e2307cb2","system_id":"levelo_inurba_marseille","lat":43.29601,"lon":5.381084,"is_reserved":false,"is_disabled":false,"rental_uris":{"android":"levelo://app?vid=9e1642c7-1e35-4ba4-bbda-f974e2307cb2","ios":"levelo://app?vid=9e1642c7-1e35-4ba4-bbda-f974e2307cb2"},"vehicle_type_id":"4","last_reported":1705863940,"current_range_meters":27600,"station_id":"ce4bgl12rcd13ifvqbo0","pricing_plan_id":"free"},{"bike_id":"099bf60b-966b-498a-998e-72648b7d0e96","system_id":"levelo_inurba_marseille","lat":43.293292,"lon":5.372359,"is_reserved":false,"is_disabled":false,"rental_uris":{"android":"levelo://app?vid=099bf60b-966b-498a-998e-72648b7d0e96","ios":"levelo://app?vid=099bf60b-966b-498a-998e-72648b7d0e96"},"vehicle_type_id":"4","last_reported":1705863940,"current_range_meters":1600,"station_id":"","pricing_plan_id":"free"},{"bike_id":"26079da9-f2f8-47fd-a23d-24da2b10494d","system_id":"levelo_inurba_marseille","lat":43.293009,"lon":5.374584,"is_reserved":false,"is_disabled":false,"rental_uris":{"android":"levelo://app?vid=26079da9-f2f8-47fd-a23d-24da2b10494d","ios":"levelo://app?vid=26079da9-f2f8-47fd-a23d-24da2b10494d"},"vehicle_type_id":"4","last_reported":1705863940,"current_range_meters":14000,"station_id":"ce4bgi12rcd13ifvqb70","pricing_plan_id":"free"},{"bike_id":"407ed806-ec51-467c-a910-f49efcce88e1","system_id":"levelo_inurba_marseille","lat":43.293009,"lon":5.374584,"is_reserved":false,"is_disabled":false,"rental_uris":{"android":"levelo://app?vid=407ed806-ec51-467c-a910-f49efcce88e1","ios":"levelo://app?vid=407ed806-ec51-467c-a910-f49efcce88e1"},"vehicle_type_id":"4","last_reported":1705863940,"current_range_meters":0,"station_id":"ce4bgi12rcd13ifvqb70","pricing_plan_id":"free"},{"bike_id":"b906ea9e-b755-446f-a003-2424b0365eb0","system_id":"levelo_inurba_marseille","lat":43.30302,"lon":5.39204,"is_reserved":false,"is_disabled":false,"rental_uris":{"android":"levelo://app?vid=b906ea9e-b755-446f-a003-2424b0365eb0","ios":"levelo://app?vid=b906ea9e-b755-446f-a003-2424b0365eb0"},"vehicle_type_id":"4","last_reported":1705863940,"current_range_meters":16800,"station_id":"ce4bgkh2rcd13ifvqbk0","pricing_plan_id":"free"},{"bike_id":"4545f9f7-3091-4329-97b1-267639f22437","system_id":"levelo_inurba_marseille","lat":43.302992,"lon":5.392136,"is_reserved":false,"is_disabled":false,"rental_uris":{"android":"levelo://app?vid=4545f9f7-3091-4329-97b1-267639f22437","ios":"levelo://app?vid=4545f9f7-3091-4329-97b1-267639f22437"},"vehicle_type_id":"4","last_reported":1705863940,"current_range_meters":0,"station_id":"ce4bgkh2rcd13ifvqbk0","pricing_plan_id":"free"},{"bike_id":"48dc2f69-de5a-4738-9074-3fe954b80836","system_id":"levelo_inurba_marseille","lat":43.303009,"lon":5.392076,"is_reserved":false,"is_disabled":false,"rental_uris":{"android":"levelo://app?vid=48dc2f69-de5a-4738-9074-3fe954b80836","ios":"levelo://app?vid=48dc2f69-de5a-4738-9074-3fe954b80836"},"vehicle_type_id":"4","last_reported":1705863940,"current_range_meters":0,"station_id":"ce4bgkh2rcd13ifvqbk0","pricing_plan_id":"free"},{"bike_id":"7a07b6a9-7667-4fdf-9ba2-525783f03441","system_id":"levelo_inurba_marseille","lat":43.303008,"lon":5.392142,"is_reserved":false,"is_disabled":false,"rental_uris":{"android":"levelo://app?vid=7a07b6a9-7667-4fdf-9ba2-525783f03441","ios":"levelo://app?vid=7a07b6a9-7667-4fdf-9ba2-525783f03441"},"vehicle_type_id":"4","last_reported":1705863940,"current_range_meters":14000,"station_id":"ce4bgkh2rcd13ifvqbk0","pricing_plan_id":"free"},{"bike_id":"ddafc91e-c30d-4b7e-b0b7-34f9c3b40226","system_id":"levelo_inurba_marseille","lat":43.2936,"lon":5.37835,"is_reserved":false,"is_disabled":false,"rental_uris":{"android":"levelo://app?vid=ddafc91e-c30d-4b7e-b0b7-34f9c3b40226","ios":"levelo://app?vid=ddafc91e-c30d-4b7e-b0b7-34f9c3b40226"},"vehicle_type_id":"4","last_reported":1705863940,"current_range_meters":4800,"station_id":"ce4bgjh2rcd13ifvqbf0","pricing_plan_id":"free"},{"bike_id":"5d8ee6e5-05f3-471b-82a7-2e5959be6458","system_id":"levelo_inurba_marseille","lat":43.2936,"lon":5.37835,"is_reserved":false,"is_disabled":false,"rental_uris":{"android":"levelo://app?vid=5d8ee6e5-05f3-471b-82a7-2e5959be6458","ios":"levelo://app?vid=5d8ee6e5-05f3-471b-82a7-2e5959be6458"},"vehicle_type_id":"4","last_reported":1705863940,"current_range_meters":12000,"station_id":"ce4bgjh2rcd13ifvqbf0","pricing_plan_id":"free"},{"bike_id":"d9b253c3-eba6-4230-aa83-2ec447ca6952","system_id":"levelo_inurba_marseille","lat":43.2936,"lon":5.37835,"is_reserved":false,"is_disabled":false,"rental_uris":{"android":"levelo://app?vid=d9b253c3-eba6-4230-aa83-2ec447ca6952","ios":"levelo://app?vid=d9b253c3-eba6-4230-aa83-2ec447ca6952"},"vehicle_type_id":"4","last_reported":1705863940,"current_range_meters":0,"station_id":"ce4bgjh2rcd13ifvqbf0","pricing_plan_id":"free"},{"bike_id":"706a8891-1d39-4663-9219-2f35bf7fe02b","system_id":"levelo_inurba_marseille","lat":43.292311,"lon":5.360731,"is_reserved":false,"is_disabled":false,"rental_uris":{"android":"levelo://app?vid=706a8891-1d39-4663-9219-2f35bf7fe02b","ios":"levelo://app?vid=706a8891-1d39-4663-9219-2f35bf7fe02b"},"vehicle_type_id":"4","last_reported":1705863940,"current_range_meters":16400,"station_id":"ce4bhbh2rcd13ifvqeqg","pricing_plan_id":"free"},{"bike_id":"6cf4d737-3b52-4be6-85ab-287dddf9231d","system_id":"levelo_inurba_marseille","lat":43.29174,"lon":5.36642,"is_reserved":false,"is_disabled":false,"rental_uris":{"android":"levelo://app?vid=6cf4d737-3b52-4be6-85ab-287dddf9231d","ios":"levelo://app?vid=6cf4d737-3b52-4be6-85ab-287dddf9231d"},"vehicle_type_id":"4","last_reported":1705863940,"current_range_meters":6000,"station_id":"","pricing_plan_id":"free"},{"bike_id":"c0d3fa63-ef98-4a06-86f1-82228450eaef","system_id":"levelo_inurba_marseille","lat":43.298413,"lon":5.388626,"is_reserved":false,"is_disabled":false,"rental_uris":{"android":"levelo://app?vid=c0d3fa63-ef98-4a06-86f1-82228450eaef","ios":"levelo://app?vid=c0d3fa63-ef98-4a06-86f1-82228450eaef"},"vehicle_type_id":"4","last_reported":1705863940,"current_range_meters":1200,"station_id":"","pricing_plan_id":"free"},{"bike_id":"b7955560-b07f-4aea-b02b-1afe0e81727a","system_id":"levelo_inurba_marseille","lat":43.298764,"lon":5.388973,"is_reserved":false,"is_disabled":false,"rental_uris":{"android":"levelo://app?vid=b7955560-b07f-4aea-b02b-1afe0e81727a","ios":"levelo://app?vid=b7955560-b07f-4aea-b02b-1afe0e81727a"},"vehicle_type_id":"4","last_reported":1705863940,"current_range_meters":0,"station_id":"ce4bh392rcd13ifvqdl0","pricing_plan_id":"free"},{"bike_id":"3fc1b655-9948-4abd-af94-dd4730bc2664","system_id":"levelo_inurba_marseille","lat":43.309038,"lon":5.396546,"is_reserved":false,"is_disabled":false,"rental_uris":{"android":"levelo://app?vid=3fc1b655-9948-4abd-af94-dd4730bc2664","ios":"levelo://app?vid=3fc1b655-9948-4abd-af94-dd4730bc2664"},"vehicle_type_id":"4","last_reported":1705863940,"current_range_meters":0,"station_id":"ce4bh012rcd13ifvqcv0","pricing_plan_id":"free"},{"bike_id":"b143fd46-608a-4eac-8bee-831cc49921c8","system_id":"levelo_inurba_marseille","lat":43.313291,"lon":5.396838,"is_reserved":false,"is_disabled":false,"rental_uris":{"android":"levelo://app?vid=b143fd46-608a-4eac-8bee-831cc49921c8","ios":"levelo://app?vid=b143fd46-608a-4eac-8bee-831cc49921c8"},"vehicle_type_id":"4","last_reported":1705863940,"current_range_meters":26400,"station_id":"ce4bgvp2rcd13ifvqcu0","pricing_plan_id":"free"},{"bike_id":"26c00b3d-d44c-499f-9bdd-2127a21c6648","system_id":"levelo_inurba_marseille","lat":43.31328,"lon":5.39689,"is_reserved":false,"is_disabled":false,"rental_uris":{"android":"levelo://app?vid=26c00b3d-d44c-499f-9bdd-2127a21c6648","ios":"levelo://app?vid=26c00b3d-d44c-499f-9bdd-2127a21c6648"},"vehicle_type_id":"4","last_reported":1705863940,"current_range_meters":18800,"station_id":"ce4bgvp2rcd13ifvqcu0","pricing_plan_id":"free"},{"bike_id":"cf87029e-f251-43f3-8aee-99502350047f","system_id":"levelo_inurba_marseille","lat":43.31325,"lon":5.39696,"is_reserved":false,"is_disabled":false,"rental_uris":{"android":"levelo://app?vid=cf87029e-f251-43f3-8aee-99502350047f","ios":"levelo://app?vid=cf87029e-f251-43f3-8aee-99502350047f"},"vehicle_type_id":"4","last_reported":1705863940,"current_range_meters":8000,"station_id":"ce4bgvp2rcd13ifvqcu0","pricing_plan_id":"free"},{"bike_id":"d306c3ef-fe10-434c-b17d-b2a2c5217141","system_id":"levelo_inurba_marseille","lat":43.309038,"lon":5.396546,"is_reserved":false,"is_disabled":false,"rental_uris":{"android":"levelo://app?vid=d306c3ef-fe10-434c-b17d-b2a2c5217141","ios":"levelo://app?vid=d306c3ef-fe10-434c-b17d-b2a2c5217141"},"vehicle_type_id":"4","last_reported":1705863940,"current_range_meters":16000,"station_id":"ce4bh012rcd13ifvqcv0","pricing_plan_id":"free"},{"bike_id":"4c8c0907-0877-49dd-bbd1-74e3f2f5e098","system_id":"levelo_inurba_marseille","lat":43.30882,"lon":5.39653,"is_reserved":false,"is_disabled":false,"rental_uris":{"android":"levelo://app?vid=4c8c0907-0877-49dd-bbd1-74e3f2f5e098","ios":"levelo://app?vid=4c8c0907-0877-49dd-bbd1-74e3f2f5e098"},"vehicle_type_id":"4","last_reported":1705863940,"current_range_meters":0,"station_id":"ce4bh012rcd13ifvqcv0","pricing_plan_id":"free"},{"bike_id":"975d588c-cfe9-4244-afcf-49635c4197d0","system_id":"levelo_inurba_marseille","lat":43.309038,"lon":5.396546,"is_reserved":false,"is_disabled":false,"rental_uris":{"android":"levelo://app?vid=975d588c-cfe9-4244-afcf-49635c4197d0","ios":"levelo://app?vid=975d588c-cfe9-4244-afcf-49635c4197d0"},"vehicle_type_id":"4","last_reported":1705863940,"current_range_meters":23600,"station_id":"ce4bh012rcd13ifvqcv0","pricing_plan_id":"free"},{"bike_id":"b0f5767a-1e0d-4346-b4bf-5e5e31cbf628","system_id":"levelo_inurba_marseille","lat":43.29529,"lon":5.385581,"is_reserved":false,"is_disabled":false,"rental_uris":{"android":"levelo://app?vid=b0f5767a-1e0d-4346-b4bf-5e5e31cbf628","ios":"levelo://app?vid=b0f5767a-1e0d-4346-b4bf-5e5e31cbf628"},"vehicle_type_id":"4","last_reported":1705863940,"current_range_meters":25600,"station_id":"ce4bgih2rcd13ifvqba0","pricing_plan_id":"free"},{"bike_id":"c45b6617-90c7-42dc-acd2-d140aa18deac","system_id":"levelo_inurba_marseille","lat":43.29529,"lon":5.385581,"is_reserved":false,"is_disabled":false,"rental_uris":{"android":"levelo://app?vid=c45b6617-90c7-42dc-acd2-d140aa18deac","ios":"levelo://app?vid=c45b6617-90c7-42dc-acd2-d140aa18deac"},"vehicle_type_id":"4","last_reported":1705863940,"current_range_meters":21600,"station_id":"ce4bgih2rcd13ifvqba0","pricing_plan_id":"free"},{"bike_id":"fbe61721-7d1e-4a44-b637-850c2a137e00","system_id":"levelo_inurba_marseille","lat":43.29529,"lon":5.385581,"is_reserved":false,"is_disabled":false,"rental_uris":{"android":"levelo://app?vid=fbe61721-7d1e-4a44-b637-850c2a137e00","ios":"levelo://app?vid=fbe61721-7d1e-4a44-b637-850c2a137e00"},"vehicle_type_id":"4","last_reported":1705863940,"current_range_meters":19600,"station_id":"ce4bgih2rcd13ifvqba0","pricing_plan_id":"free"},{"bike_id":"714a1ac6-d009-472e-b486-f1f567229a46","system_id":"levelo_inurba_marseille","lat":43.29529,"lon":5.385581,"is_reserved":false,"is_disabled":false,"rental_uris":{"android":"levelo://app?vid=714a1ac6-d009-472e-b486-f1f567229a46","ios":"levelo://app?vid=714a1ac6-d009-472e-b486-f1f567229a46"},"vehicle_type_id":"4","last_reported":1705863940,"current_range_meters":8000,"station_id":"ce4bgih2rcd13ifvqba0","pricing_plan_id":"free"},{"bike_id":"905ad801-99d6-4a6e-b52d-5d1335278f32","system_id":"levelo_inurba_marseille","lat":43.29529,"lon":5.385581,"is_reserved":false,"is_disabled":false,"rental_uris":{"android":"levelo://app?vid=905ad801-99d6-4a6e-b52d-5d1335278f32","ios":"levelo://app?vid=905ad801-99d6-4a6e-b52d-5d1335278f32"},"vehicle_type_id":"4","last_reported":1705863940,"current_range_meters":27600,"station_id":"ce4bgih2rcd13ifvqba0","pricing_plan_id":"free"},{"bike_id":"2df5de94-3fd9-4e63-9bbc-008f7642e9e4","system_id":"levelo_inurba_marseille","lat":43.29529,"lon":5.385581,"is_reserved":false,"is_disabled":false,"rental_uris":{"android":"levelo://app?vid=2df5de94-3fd9-4e63-9bbc-008f7642e9e4","ios":"levelo://app?vid=2df5de94-3fd9-4e63-9bbc-008f7642e9e4"},"vehicle_type_id":"4","last_reported":1705863940,"current_range_meters":24400,"station_id":"ce4bgih2rcd13ifvqba0","pricing_plan_id":"free"},{"bike_id":"31f7882d-fabf-41bd-a41f-0d769cb87158","system_id":"levelo_inurba_marseille","lat":43.29529,"lon":5.385581,"is_reserved":false,"is_disabled":false,"rental_uris":{"android":"levelo://app?vid=31f7882d-fabf-41bd-a41f-0d769cb87158","ios":"levelo://app?vid=31f7882d-fabf-41bd-a41f-0d769cb87158"},"vehicle_type_id":"4","last_reported":1705863940,"current_range_meters":21200,"station_id":"ce4bgih2rcd13ifvqba0","pricing_plan_id":"free"},{"bike_id":"d1e22327-de28-421e-b271-21e4fbd22ded","system_id":"levelo_inurba_marseille","lat":43.29529,"lon":5.385581,"is_reserved":false,"is_disabled":false,"rental_uris":{"android":"levelo://app?vid=d1e22327-de28-421e-b271-21e4fbd22ded","ios":"levelo://app?vid=d1e22327-de28-421e-b271-21e4fbd22ded"},"vehicle_type_id":"4","last_reported":1705863940,"current_range_meters":26000,"station_id":"ce4bgih2rcd13ifvqba0","pricing_plan_id":"free"},{"bike_id":"5063f7b4-3dd9-41af-b5a5-fdbe24569743","system_id":"levelo_inurba_marseille","lat":43.29529,"lon":5.385581,"is_reserved":false,"is_disabled":false,"rental_uris":{"android":"levelo://app?vid=5063f7b4-3dd9-41af-b5a5-fdbe24569743","ios":"levelo://app?vid=5063f7b4-3dd9-41af-b5a5-fdbe24569743"},"vehicle_type_id":"4","last_reported":1705863940,"current_range_meters":18000,"station_id":"ce4bgih2rcd13ifvqba0","pricing_plan_id":"free"},{"bike_id":"203f1765-4721-4d3d-b549-6950e56e6ec4","system_id":"levelo_inurba_marseille","lat":43.290779,"lon":5.371482,"is_reserved":false,"is_disabled":false,"rental_uris":{"android":"levelo://app?vid=203f1765-4721-4d3d-b549-6950e56e6ec4","ios":"levelo://app?vid=203f1765-4721-4d3d-b549-6950e56e6ec4"},"vehicle_type_id":"4","last_reported":1705863940,"current_range_meters":20800,"station_id":"ce4bh5p2rcd13ifvqe4g","pricing_plan_id":"free"},{"bike_id":"a84ddefd-174a-4fc5-b259-5da1fd1827cd","system_id":"levelo_inurba_marseille","lat":43.302008,"lon":5.394694,"is_reserved":false,"is_disabled":false,"rental_uris":{"android":"levelo://app?vid=a84ddefd-174a-4fc5-b259-5da1fd1827cd","ios":"levelo://app?vid=a84ddefd-174a-4fc5-b259-5da1fd1827cd"},"vehicle_type_id":"4","last_reported":1705863940,"current_range_meters":15200,"station_id":"ce4bh0p2rcd13ifvqd70","pricing_plan_id":"free"},{"bike_id":"551f962e-8ddf-4853-a107-8e54b1ffda33","system_id":"levelo_inurba_marseille","lat":43.302008,"lon":5.394694,"is_reserved":false,"is_disabled":false,"rental_uris":{"android":"levelo://app?vid=551f962e-8ddf-4853-a107-8e54b1ffda33","ios":"levelo://app?vid=551f962e-8ddf-4853-a107-8e54b1ffda33"},"vehicle_type_id":"4","last_reported":1705863940,"current_range_meters":15200,"station_id":"ce4bh0p2rcd13ifvqd70","pricing_plan_id":"free"},{"bike_id":"95be5e1d-1752-4ba0-aac9-53f07a2fd78d","system_id":"levelo_inurba_marseille","lat":43.294162,"lon":5.386292,"is_reserved":false,"is_disabled":false,"rental_uris":{"android":"levelo://app?vid=95be5e1d-1752-4ba0-aac9-53f07a2fd78d","ios":"levelo://app?vid=95be5e1d-1752-4ba0-aac9-53f07a2fd78d"},"vehicle_type_id":"4","last_reported":1705863940,"current_range_meters":9600,"station_id":"ce4bh2h2rcd13ifvqdh0","pricing_plan_id":"free"},{"bike_id":"c3d8b64c-b435-4fed-a544-11737356dd64","system_id":"levelo_inurba_marseille","lat":43.294162,"lon":5.386292,"is_reserved":false,"is_disabled":false,"rental_uris":{"android":"levelo://app?vid=c3d8b64c-b435-4fed-a544-11737356dd64","ios":"levelo://app?vid=c3d8b64c-b435-4fed-a544-11737356dd64"},"vehicle_type_id":"4","last_reported":1705863940,"current_range_meters":12000,"station_id":"ce4bh2h2rcd13ifvqdh0","pricing_plan_id":"free"},{"bike_id":"0a953b5c-1072-419f-9dd6-2064ccb7ccd1","system_id":"levelo_inurba_marseille","lat":43.294162,"lon":5.386292,"is_reserved":false,"is_disabled":false,"rental_uris":{"android":"levelo://app?vid=0a953b5c-1072-419f-9dd6-2064ccb7ccd1","ios":"levelo://app?vid=0a953b5c-1072-419f-9dd6-2064ccb7ccd1"},"vehicle_type_id":"4","last_reported":1705863940,"current_range_meters":9200,"station_id":"ce4bh2h2rcd13ifvqdh0","pricing_plan_id":"free"},{"bike_id":"3eb4cf33-aee5-4a7c-be4b-9972d9d2ce93","system_id":"levelo_inurba_marseille","lat":43.294162,"lon":5.386292,"is_reserved":false,"is_disabled":false,"rental_uris":{"android":"levelo://app?vid=3eb4cf33-aee5-4a7c-be4b-9972d9d2ce93","ios":"levelo://app?vid=3eb4cf33-aee5-4a7c-be4b-9972d9d2ce93"},"vehicle_type_id":"4","last_reported":1705863940,"current_range_meters":0,"station_id":"ce4bh2h2rcd13ifvqdh0","pricing_plan_id":"free"},{"bike_id":"954dd396-a040-4946-b4de-43ddb0f33586","system_id":"levelo_inurba_marseille","lat":43.294162,"lon":5.386292,"is_reserved":false,"is_disabled":false,"rental_uris":{"android":"levelo://app?vid=954dd396-a040-4946-b4de-43ddb0f33586","ios":"levelo://app?vid=954dd396-a040-4946-b4de-43ddb0f33586"},"vehicle_type_id":"4","last_reported":1705863940,"current_range_meters":4400,"station_id":"ce4bh2h2rcd13ifvqdh0","pricing_plan_id":"free"},{"bike_id":"d3b87906-f477-4c36-9392-1b9d80d84ffc","system_id":"levelo_inurba_marseille","lat":43.292644,"lon":5.384257,"is_reserved":false,"is_disabled":false,"rental_uris":{"android":"levelo://app?vid=d3b87906-f477-4c36-9392-1b9d80d84ffc","ios":"levelo://app?vid=d3b87906-f477-4c36-9392-1b9d80d84ffc"},"vehicle_type_id":"4","last_reported":1705863940,"current_range_meters":20000,"station_id":"ce4bh692rcd13ifvqea0","pricing_plan_id":"free"},{"bike_id":"608d8441-bd93-4feb-b5f2-f2f0f2a86797","system_id":"levelo_inurba_marseille","lat":43.292644,"lon":5.384257,"is_reserved":false,"is_disabled":false,"rental_uris":{"android":"levelo://app?vid=608d8441-bd93-4feb-b5f2-f2f0f2a86797","ios":"levelo://app?vid=608d8441-bd93-4feb-b5f2-f2f0f2a86797"},"vehicle_type_id":"4","last_reported":1705863940,"current_range_meters":26800,"station_id":"ce4bh692rcd13ifvqea0","pricing_plan_id":"free"},{"bike_id":"5b9edf31-be9e-41b1-b2cc-cc5bc637fd40","system_id":"levelo_inurba_marseille","lat":43.29262,"lon":5.38443,"is_reserved":false,"is_disabled":false,"rental_uris":{"android":"levelo://app?vid=5b9edf31-be9e-41b1-b2cc-cc5bc637fd40","ios":"levelo://app?vid=5b9edf31-be9e-41b1-b2cc-cc5bc637fd40"},"vehicle_type_id":"4","last_reported":1705863940,"current_range_meters":0,"station_id":"ce4bh692rcd13ifvqea0","pricing_plan_id":"free"},{"bike_id":"8988b695-3477-429a-a9e0-76b3c96d7e6b","system_id":"levelo_inurba_marseille","lat":43.29006,"lon":5.35611,"is_reserved":false,"is_disabled":false,"rental_uris":{"android":"levelo://app?vid=8988b695-3477-429a-a9e0-76b3c96d7e6b","ios":"levelo://app?vid=8988b695-3477-429a-a9e0-76b3c96d7e6b"},"vehicle_type_id":"4","last_reported":1705863940,"current_range_meters":0,"station_id":"ce4bhb92rcd13ifvqen0","pricing_plan_id":"free"},{"bike_id":"c969de23-3a98-45f6-b0fa-69747800c534","system_id":"levelo_inurba_marseille","lat":43.290995,"lon":5.381361,"is_reserved":false,"is_disabled":false,"rental_uris":{"android":"levelo://app?vid=c969de23-3a98-45f6-b0fa-69747800c534","ios":"levelo://app?vid=c969de23-3a98-45f6-b0fa-69747800c534"},"vehicle_type_id":"4","last_reported":1705863940,"current_range_meters":24000,"station_id":"ce4bh512rcd13ifvqe2g","pricing_plan_id":"free"},{"bike_id":"25846762-e33c-4c0c-aa47-e71e86876941","system_id":"levelo_inurba_marseille","lat":43.290995,"lon":5.381361,"is_reserved":false,"is_disabled":false,"rental_uris":{"android":"levelo://app?vid=25846762-e33c-4c0c-aa47-e71e86876941","ios":"levelo://app?vid=25846762-e33c-4c0c-aa47-e71e86876941"},"vehicle_type_id":"4","last_reported":1705863940,"current_range_meters":13200,"station_id":"ce4bh512rcd13ifvqe2g","pricing_plan_id":"free"},{"bike_id":"fa8c0534-73cb-42f8-962a-38fa12f8c814","system_id":"levelo_inurba_marseille","lat":43.290995,"lon":5.381361,"is_reserved":false,"is_disabled":false,"rental_uris":{"android":"levelo://app?vid=fa8c0534-73cb-42f8-962a-38fa12f8c814","ios":"levelo://app?vid=fa8c0534-73cb-42f8-962a-38fa12f8c814"},"vehicle_type_id":"4","last_reported":1705863940,"current_range_meters":13200,"station_id":"ce4bh512rcd13ifvqe2g","pricing_plan_id":"free"},{"bike_id":"b235338c-779d-41d6-9b17-33167818251c","system_id":"levelo_inurba_marseille","lat":43.297794,"lon":5.393203,"is_reserved":false,"is_disabled":false,"rental_uris":{"android":"levelo://app?vid=b235338c-779d-41d6-9b17-33167818251c","ios":"levelo://app?vid=b235338c-779d-41d6-9b17-33167818251c"},"vehicle_type_id":"4","last_reported":1705863940,"current_range_meters":9600,"station_id":"chh1huq6cuj3fo74tm60","pricing_plan_id":"free"},{"bike_id":"5989ef1e-d385-4472-8bb9-953303b23e00","system_id":"levelo_inurba_marseille","lat":43.297967,"lon":5.39349,"is_reserved":false,"is_disabled":false,"rental_uris":{"android":"levelo://app?vid=5989ef1e-d385-4472-8bb9-953303b23e00","ios":"levelo://app?vid=5989ef1e-d385-4472-8bb9-953303b23e00"},"vehicle_type_id":"4","last_reported":1705863940,"current_range_meters":16400,"station_id":"chh1huq6cuj3fo74tm60","pricing_plan_id":"free"},{"bike_id":"6da24cd2-b24b-42ea-9493-a9777d405b03","system_id":"levelo_inurba_marseille","lat":43.330442,"lon":5.389148,"is_reserved":false,"is_disabled":false,"rental_uris":{"android":"levelo://app?vid=6da24cd2-b24b-42ea-9493-a9777d405b03","ios":"levelo://app?vid=6da24cd2-b24b-42ea-9493-a9777d405b03"},"vehicle_type_id":"4","last_reported":1705863940,"current_range_meters":22400,"station_id":"ce4bhr92rcd13ifvqhrg","pricing_plan_id":"free"},{"bike_id":"f83831ae-997f-4bda-b98b-bc4418ba0036","system_id":"levelo_inurba_marseille","lat":43.33024,"lon":5.39033,"is_reserved":false,"is_disabled":false,"rental_uris":{"android":"levelo://app?vid=f83831ae-997f-4bda-b98b-bc4418ba0036","ios":"levelo://app?vid=f83831ae-997f-4bda-b98b-bc4418ba0036"},"vehicle_type_id":"4","last_reported":1705863940,"current_range_meters":2000,"station_id":"ce4bhr92rcd13ifvqhrg","pricing_plan_id":"free"},{"bike_id":"38db4425-86f9-4a06-b5ef-2aa25ed10529","system_id":"levelo_inurba_marseille","lat":43.29779,"lon":5.39346,"is_reserved":false,"is_disabled":false,"rental_uris":{"android":"levelo://app?vid=38db4425-86f9-4a06-b5ef-2aa25ed10529","ios":"levelo://app?vid=38db4425-86f9-4a06-b5ef-2aa25ed10529"},"vehicle_type_id":"4","last_reported":1705863940,"current_range_meters":8800,"station_id":"chh1huq6cuj3fo74tm60","pricing_plan_id":"free"},{"bike_id":"abd48582-9a4b-433f-98f3-500b663ea872","system_id":"levelo_inurba_marseille","lat":43.33022,"lon":5.3904,"is_reserved":false,"is_disabled":false,"rental_uris":{"android":"levelo://app?vid=abd48582-9a4b-433f-98f3-500b663ea872","ios":"levelo://app?vid=abd48582-9a4b-433f-98f3-500b663ea872"},"vehicle_type_id":"4","last_reported":1705863940,"current_range_meters":26400,"station_id":"ce4bhr92rcd13ifvqhrg","pricing_plan_id":"free"},{"bike_id":"5f03f87c-4a1d-45e5-95a5-04c1f5f504bc","system_id":"levelo_inurba_marseille","lat":43.330442,"lon":5.389148,"is_reserved":false,"is_disabled":false,"rental_uris":{"android":"levelo://app?vid=5f03f87c-4a1d-45e5-95a5-04c1f5f504bc","ios":"levelo://app?vid=5f03f87c-4a1d-45e5-95a5-04c1f5f504bc"},"vehicle_type_id":"4","last_reported":1705863940,"current_range_meters":3600,"station_id":"ce4bhr92rcd13ifvqhrg","pricing_plan_id":"free"},{"bike_id":"40566484-89da-412d-a858-1a427538b942","system_id":"levelo_inurba_marseille","lat":43.330442,"lon":5.389148,"is_reserved":false,"is_disabled":false,"rental_uris":{"android":"levelo://app?vid=40566484-89da-412d-a858-1a427538b942","ios":"levelo://app?vid=40566484-89da-412d-a858-1a427538b942"},"vehicle_type_id":"4","last_reported":1705863940,"current_range_meters":5600,"station_id":"ce4bhr92rcd13ifvqhrg","pricing_plan_id":"free"},{"bike_id":"3e644e07-b3c8-452b-b4f2-79c00d67e841","system_id":"levelo_inurba_marseille","lat":43.330238,"lon":5.39039,"is_reserved":false,"is_disabled":false,"rental_uris":{"android":"levelo://app?vid=3e644e07-b3c8-452b-b4f2-79c00d67e841","ios":"levelo://app?vid=3e644e07-b3c8-452b-b4f2-79c00d67e841"},"vehicle_type_id":"4","last_reported":1705863940,"current_range_meters":26000,"station_id":"ce4bhr92rcd13ifvqhrg","pricing_plan_id":"free"},{"bike_id":"77f89468-23f4-42b0-aa40-da8db5c2b420","system_id":"levelo_inurba_marseille","lat":43.330442,"lon":5.389148,"is_reserved":false,"is_disabled":false,"rental_uris":{"android":"levelo://app?vid=77f89468-23f4-42b0-aa40-da8db5c2b420","ios":"levelo://app?vid=77f89468-23f4-42b0-aa40-da8db5c2b420"},"vehicle_type_id":"4","last_reported":1705863940,"current_range_meters":22800,"station_id":"ce4bhr92rcd13ifvqhrg","pricing_plan_id":"free"},{"bike_id":"cfa59c7f-6730-419c-9862-aacab7b844ea","system_id":"levelo_inurba_marseille","lat":43.330442,"lon":5.389148,"is_reserved":false,"is_disabled":false,"rental_uris":{"android":"levelo://app?vid=cfa59c7f-6730-419c-9862-aacab7b844ea","ios":"levelo://app?vid=cfa59c7f-6730-419c-9862-aacab7b844ea"},"vehicle_type_id":"4","last_reported":1705863940,"current_range_meters":6800,"station_id":"ce4bhr92rcd13ifvqhrg","pricing_plan_id":"free"},{"bike_id":"ab001c16-e197-4d75-bc32-a8f3a5199351","system_id":"levelo_inurba_marseille","lat":43.33027,"lon":5.39041,"is_reserved":false,"is_disabled":false,"rental_uris":{"android":"levelo://app?vid=ab001c16-e197-4d75-bc32-a8f3a5199351","ios":"levelo://app?vid=ab001c16-e197-4d75-bc32-a8f3a5199351"},"vehicle_type_id":"4","last_reported":1705863940,"current_range_meters":10400,"station_id":"ce4bhr92rcd13ifvqhrg","pricing_plan_id":"free"},{"bike_id":"925eaff5-3e49-4fa2-bc92-9f7181735632","system_id":"levelo_inurba_marseille","lat":43.330251,"lon":5.390447,"is_reserved":false,"is_disabled":false,"rental_uris":{"android":"levelo://app?vid=925eaff5-3e49-4fa2-bc92-9f7181735632","ios":"levelo://app?vid=925eaff5-3e49-4fa2-bc92-9f7181735632"},"vehicle_type_id":"4","last_reported":1705863940,"current_range_meters":16800,"station_id":"ce4bhr92rcd13ifvqhrg","pricing_plan_id":"free"},{"bike_id":"18f9617a-d0fc-4fcb-8e9e-97eeb91b52e3","system_id":"levelo_inurba_marseille","lat":43.295169,"lon":5.390426,"is_reserved":false,"is_disabled":false,"rental_uris":{"android":"levelo://app?vid=18f9617a-d0fc-4fcb-8e9e-97eeb91b52e3","ios":"levelo://app?vid=18f9617a-d0fc-4fcb-8e9e-97eeb91b52e3"},"vehicle_type_id":"4","last_reported":1705863940,"current_range_meters":18800,"station_id":"ce4bh3p2rcd13ifvqdp0","pricing_plan_id":"free"},{"bike_id":"37250dff-dd19-43e3-ae5f-e85c6120b913","system_id":"levelo_inurba_marseille","lat":43.2901,"lon":5.381269,"is_reserved":false,"is_disabled":false,"rental_uris":{"android":"levelo://app?vid=37250dff-dd19-43e3-ae5f-e85c6120b913","ios":"levelo://app?vid=37250dff-dd19-43e3-ae5f-e85c6120b913"},"vehicle_type_id":"4","last_reported":1705863940,"current_range_meters":13600,"station_id":"ce4bh4p2rcd13ifvqe1g","pricing_plan_id":"free"},{"bike_id":"23750b7d-67c2-4177-a5d1-230ff3c5009b","system_id":"levelo_inurba_marseille","lat":43.2901,"lon":5.381269,"is_reserved":false,"is_disabled":false,"rental_uris":{"android":"levelo://app?vid=23750b7d-67c2-4177-a5d1-230ff3c5009b","ios":"levelo://app?vid=23750b7d-67c2-4177-a5d1-230ff3c5009b"},"vehicle_type_id":"4","last_reported":1705863940,"current_range_meters":18800,"station_id":"ce4bh4p2rcd13ifvqe1g","pricing_plan_id":"free"},{"bike_id":"cef71d98-dff7-443b-a24b-d16b281d8c24","system_id":"levelo_inurba_marseille","lat":43.309371,"lon":5.401449,"is_reserved":false,"is_disabled":false,"rental_uris":{"android":"levelo://app?vid=cef71d98-dff7-443b-a24b-d16b281d8c24","ios":"levelo://app?vid=cef71d98-dff7-443b-a24b-d16b281d8c24"},"vehicle_type_id":"4","last_reported":1705863940,"current_range_meters":3600,"station_id":"ce4bgvp2rcd13ifvqct0","pricing_plan_id":"free"},{"bike_id":"587c3baf-bc55-4d33-b3d8-479b90019f90","system_id":"levelo_inurba_marseille","lat":43.309371,"lon":5.401449,"is_reserved":false,"is_disabled":false,"rental_uris":{"android":"levelo://app?vid=587c3baf-bc55-4d33-b3d8-479b90019f90","ios":"levelo://app?vid=587c3baf-bc55-4d33-b3d8-479b90019f90"},"vehicle_type_id":"4","last_reported":1705863940,"current_range_meters":28000,"station_id":"ce4bgvp2rcd13ifvqct0","pricing_plan_id":"free"},{"bike_id":"7b7b0ca3-faf3-4ec9-971f-6ab3aeea3623","system_id":"levelo_inurba_marseille","lat":43.30642,"lon":5.401031,"is_reserved":false,"is_disabled":false,"rental_uris":{"android":"levelo://app?vid=7b7b0ca3-faf3-4ec9-971f-6ab3aeea3623","ios":"levelo://app?vid=7b7b0ca3-faf3-4ec9-971f-6ab3aeea3623"},"vehicle_type_id":"4","last_reported":1705863940,"current_range_meters":31600,"station_id":"ce4bh112rcd13ifvqda0","pricing_plan_id":"free"},{"bike_id":"4d574bc3-94dc-4a08-b7f3-e348a8b6099e","system_id":"levelo_inurba_marseille","lat":43.306412,"lon":5.401035,"is_reserved":false,"is_disabled":false,"rental_uris":{"android":"levelo://app?vid=4d574bc3-94dc-4a08-b7f3-e348a8b6099e","ios":"levelo://app?vid=4d574bc3-94dc-4a08-b7f3-e348a8b6099e"},"vehicle_type_id":"4","last_reported":1705863940,"current_range_meters":20000,"station_id":"ce4bh112rcd13ifvqda0","pricing_plan_id":"free"},{"bike_id":"c1f06e1e-b417-4e2e-8f09-74d0f04662dd","system_id":"levelo_inurba_marseille","lat":43.309371,"lon":5.401449,"is_reserved":false,"is_disabled":false,"rental_uris":{"android":"levelo://app?vid=c1f06e1e-b417-4e2e-8f09-74d0f04662dd","ios":"levelo://app?vid=c1f06e1e-b417-4e2e-8f09-74d0f04662dd"},"vehicle_type_id":"4","last_reported":1705863940,"current_range_meters":13600,"station_id":"ce4bgvp2rcd13ifvqct0","pricing_plan_id":"free"},{"bike_id":"6fa25983-454f-4953-98a5-9b17c7cf867b","system_id":"levelo_inurba_marseille","lat":43.306412,"lon":5.401035,"is_reserved":false,"is_disabled":false,"rental_uris":{"android":"levelo://app?vid=6fa25983-454f-4953-98a5-9b17c7cf867b","ios":"levelo://app?vid=6fa25983-454f-4953-98a5-9b17c7cf867b"},"vehicle_type_id":"4","last_reported":1705863940,"current_range_meters":14000,"station_id":"ce4bh112rcd13ifvqda0","pricing_plan_id":"free"},{"bike_id":"163bcccc-f883-4e93-ac1f-abb54bfe5b94","system_id":"levelo_inurba_marseille","lat":43.3376,"lon":5.3748,"is_reserved":false,"is_disabled":false,"rental_uris":{"android":"levelo://app?vid=163bcccc-f883-4e93-ac1f-abb54bfe5b94","ios":"levelo://app?vid=163bcccc-f883-4e93-ac1f-abb54bfe5b94"},"vehicle_type_id":"4","last_reported":1705863940,"current_range_meters":4400,"station_id":"","pricing_plan_id":"free"},{"bike_id":"b1ae390c-a87a-4271-ba9f-bdda1da15e01","system_id":"levelo_inurba_marseille","lat":43.30642,"lon":5.401031,"is_reserved":false,"is_disabled":false,"rental_uris":{"android":"levelo://app?vid=b1ae390c-a87a-4271-ba9f-bdda1da15e01","ios":"levelo://app?vid=b1ae390c-a87a-4271-ba9f-bdda1da15e01"},"vehicle_type_id":"4","last_reported":1705863940,"current_range_meters":6800,"station_id":"ce4bh112rcd13ifvqda0","pricing_plan_id":"free"},{"bike_id":"133da274-f834-46ed-bfd5-b6d10b4fbc7c","system_id":"levelo_inurba_marseille","lat":43.33769,"lon":5.37481,"is_reserved":false,"is_disabled":false,"rental_uris":{"android":"levelo://app?vid=133da274-f834-46ed-bfd5-b6d10b4fbc7c","ios":"levelo://app?vid=133da274-f834-46ed-bfd5-b6d10b4fbc7c"},"vehicle_type_id":"4","last_reported":1705863940,"current_range_meters":0,"station_id":"","pricing_plan_id":"free"},{"bike_id":"334db7fa-9747-4fe3-a796-6555f6c44d8a","system_id":"levelo_inurba_marseille","lat":43.301117,"lon":5.398795,"is_reserved":false,"is_disabled":false,"rental_uris":{"android":"levelo://app?vid=334db7fa-9747-4fe3-a796-6555f6c44d8a","ios":"levelo://app?vid=334db7fa-9747-4fe3-a796-6555f6c44d8a"},"vehicle_type_id":"4","last_reported":1705863940,"current_range_meters":26000,"station_id":"ce4bh0h2rcd13ifvqd40","pricing_plan_id":"free"},{"bike_id":"c2543880-039e-4c3e-bfc4-efcea32cd7ed","system_id":"levelo_inurba_marseille","lat":43.28727,"lon":5.36078,"is_reserved":false,"is_disabled":false,"rental_uris":{"android":"levelo://app?vid=c2543880-039e-4c3e-bfc4-efcea32cd7ed","ios":"levelo://app?vid=c2543880-039e-4c3e-bfc4-efcea32cd7ed"},"vehicle_type_id":"4","last_reported":1705863940,"current_range_meters":30400,"station_id":"cki0cbj6b192h4jlfktg","pricing_plan_id":"free"},{"bike_id":"aa68c360-e45f-41b2-96e3-eb07e65d4f81","system_id":"levelo_inurba_marseille","lat":43.28727,"lon":5.36078,"is_reserved":false,"is_disabled":false,"rental_uris":{"android":"levelo://app?vid=aa68c360-e45f-41b2-96e3-eb07e65d4f81","ios":"levelo://app?vid=aa68c360-e45f-41b2-96e3-eb07e65d4f81"},"vehicle_type_id":"4","last_reported":1705863940,"current_range_meters":20000,"station_id":"cki0cbj6b192h4jlfktg","pricing_plan_id":"free"},{"bike_id":"9725b7d0-cbe0-4a9f-b9ec-a7ec0512aa4d","system_id":"levelo_inurba_marseille","lat":43.295196,"lon":5.39397,"is_reserved":false,"is_disabled":false,"rental_uris":{"android":"levelo://app?vid=9725b7d0-cbe0-4a9f-b9ec-a7ec0512aa4d","ios":"levelo://app?vid=9725b7d0-cbe0-4a9f-b9ec-a7ec0512aa4d"},"vehicle_type_id":"4","last_reported":1705863940,"current_range_meters":22000,"station_id":"ce4bh292rcd13ifvqdf0","pricing_plan_id":"free"},{"bike_id":"f79e0a1a-f9ad-4329-b4a9-d45ad9fa66c9","system_id":"levelo_inurba_marseille","lat":43.298849,"lon":5.397318,"is_reserved":false,"is_disabled":false,"rental_uris":{"android":"levelo://app?vid=f79e0a1a-f9ad-4329-b4a9-d45ad9fa66c9","ios":"levelo://app?vid=f79e0a1a-f9ad-4329-b4a9-d45ad9fa66c9"},"vehicle_type_id":"4","last_reported":1705863940,"current_range_meters":23600,"station_id":"ce4bh0h2rcd13ifvqd50","pricing_plan_id":"free"},{"bike_id":"d8c9fe1c-84a5-43f1-816a-a92f5b69b87f","system_id":"levelo_inurba_marseille","lat":43.289307,"lon":5.38406,"is_reserved":false,"is_disabled":false,"rental_uris":{"android":"levelo://app?vid=d8c9fe1c-84a5-43f1-816a-a92f5b69b87f","ios":"levelo://app?vid=d8c9fe1c-84a5-43f1-816a-a92f5b69b87f"},"vehicle_type_id":"4","last_reported":1705863940,"current_range_meters":5200,"station_id":"ce4bh612rcd13ifvqe6g","pricing_plan_id":"free"},{"bike_id":"35ac3ecb-f413-45d8-8edb-13426c21c66d","system_id":"levelo_inurba_marseille","lat":43.286961,"lon":5.373785,"is_reserved":false,"is_disabled":false,"rental_uris":{"android":"levelo://app?vid=35ac3ecb-f413-45d8-8edb-13426c21c66d","ios":"levelo://app?vid=35ac3ecb-f413-45d8-8edb-13426c21c66d"},"vehicle_type_id":"4","last_reported":1705863940,"current_range_meters":14400,"station_id":"ce4bh3p2rcd13ifvqdq0","pricing_plan_id":"free"},{"bike_id":"196a231f-b5aa-4b4d-8e0f-b04f50be1e05","system_id":"levelo_inurba_marseille","lat":43.286961,"lon":5.373785,"is_reserved":false,"is_disabled":false,"rental_uris":{"android":"levelo://app?vid=196a231f-b5aa-4b4d-8e0f-b04f50be1e05","ios":"levelo://app?vid=196a231f-b5aa-4b4d-8e0f-b04f50be1e05"},"vehicle_type_id":"4","last_reported":1705863940,"current_range_meters":26400,"station_id":"ce4bh3p2rcd13ifvqdq0","pricing_plan_id":"free"},{"bike_id":"aea9d195-2ae0-4fe3-a1f9-5c11773720cc","system_id":"levelo_inurba_marseille","lat":43.286623,"lon":5.363533,"is_reserved":false,"is_disabled":false,"rental_uris":{"android":"levelo://app?vid=aea9d195-2ae0-4fe3-a1f9-5c11773720cc","ios":"levelo://app?vid=aea9d195-2ae0-4fe3-a1f9-5c11773720cc"},"vehicle_type_id":"4","last_reported":1705863940,"current_range_meters":31200,"station_id":"ce4bhah2rcd13ifvqej0","pricing_plan_id":"free"},{"bike_id":"a401166d-5e82-408a-993a-5bf6490c161b","system_id":"levelo_inurba_marseille","lat":43.286961,"lon":5.373785,"is_reserved":false,"is_disabled":false,"rental_uris":{"android":"levelo://app?vid=a401166d-5e82-408a-993a-5bf6490c161b","ios":"levelo://app?vid=a401166d-5e82-408a-993a-5bf6490c161b"},"vehicle_type_id":"4","last_reported":1705863940,"current_range_meters":11200,"station_id":"ce4bh3p2rcd13ifvqdq0","pricing_plan_id":"free"},{"bike_id":"a29b8269-91ff-4f48-980f-9823580b8513","system_id":"levelo_inurba_marseille","lat":43.286961,"lon":5.373785,"is_reserved":false,"is_disabled":false,"rental_uris":{"android":"levelo://app?vid=a29b8269-91ff-4f48-980f-9823580b8513","ios":"levelo://app?vid=a29b8269-91ff-4f48-980f-9823580b8513"},"vehicle_type_id":"4","last_reported":1705863940,"current_range_meters":18400,"station_id":"ce4bh3p2rcd13ifvqdq0","pricing_plan_id":"free"},{"bike_id":"0accacbc-c9e0-44f2-8f97-783f301dbcf6","system_id":"levelo_inurba_marseille","lat":43.295196,"lon":5.39397,"is_reserved":false,"is_disabled":false,"rental_uris":{"android":"levelo://app?vid=0accacbc-c9e0-44f2-8f97-783f301dbcf6","ios":"levelo://app?vid=0accacbc-c9e0-44f2-8f97-783f301dbcf6"},"vehicle_type_id":"4","last_reported":1705863940,"current_range_meters":19200,"station_id":"ce4bh292rcd13ifvqdf0","pricing_plan_id":"free"},{"bike_id":"c62358d0-0439-406e-aa9f-e0e4eaede80e","system_id":"levelo_inurba_marseille","lat":43.286961,"lon":5.373785,"is_reserved":false,"is_disabled":false,"rental_uris":{"android":"levelo://app?vid=c62358d0-0439-406e-aa9f-e0e4eaede80e","ios":"levelo://app?vid=c62358d0-0439-406e-aa9f-e0e4eaede80e"},"vehicle_type_id":"4","last_reported":1705863940,"current_range_meters":16000,"station_id":"ce4bh3p2rcd13ifvqdq0","pricing_plan_id":"free"},{"bike_id":"45b1c985-5d52-4762-a385-b9de50f8cee9","system_id":"levelo_inurba_marseille","lat":43.286961,"lon":5.373785,"is_reserved":false,"is_disabled":false,"rental_uris":{"android":"levelo://app?vid=45b1c985-5d52-4762-a385-b9de50f8cee9","ios":"levelo://app?vid=45b1c985-5d52-4762-a385-b9de50f8cee9"},"vehicle_type_id":"4","last_reported":1705863940,"current_range_meters":1600,"station_id":"ce4bh3p2rcd13ifvqdq0","pricing_plan_id":"free"},{"bike_id":"130a9cee-0903-476e-bc11-497666b51198","system_id":"levelo_inurba_marseille","lat":43.286961,"lon":5.373785,"is_reserved":false,"is_disabled":false,"rental_uris":{"android":"levelo://app?vid=130a9cee-0903-476e-bc11-497666b51198","ios":"levelo://app?vid=130a9cee-0903-476e-bc11-497666b51198"},"vehicle_type_id":"4","last_reported":1705863940,"current_range_meters":800,"station_id":"ce4bh3p2rcd13ifvqdq0","pricing_plan_id":"free"},{"bike_id":"71ed6235-a603-46aa-ba14-bcf4b95a41fc","system_id":"levelo_inurba_marseille","lat":43.286961,"lon":5.373785,"is_reserved":false,"is_disabled":false,"rental_uris":{"android":"levelo://app?vid=71ed6235-a603-46aa-ba14-bcf4b95a41fc","ios":"levelo://app?vid=71ed6235-a603-46aa-ba14-bcf4b95a41fc"},"vehicle_type_id":"4","last_reported":1705863940,"current_range_meters":15200,"station_id":"ce4bh3p2rcd13ifvqdq0","pricing_plan_id":"free"},{"bike_id":"ef8d11ab-e8d5-4f5d-8699-0725a72b2c16","system_id":"levelo_inurba_marseille","lat":43.290263,"lon":5.386345,"is_reserved":false,"is_disabled":false,"rental_uris":{"android":"levelo://app?vid=ef8d11ab-e8d5-4f5d-8699-0725a72b2c16","ios":"levelo://app?vid=ef8d11ab-e8d5-4f5d-8699-0725a72b2c16"},"vehicle_type_id":"4","last_reported":1705863940,"current_range_meters":6800,"station_id":"ce4bh4p2rcd13ifvqe0g","pricing_plan_id":"free"},{"bike_id":"5e7ca248-b591-40e3-94ff-ca6b0790c6ac","system_id":"levelo_inurba_marseille","lat":43.28631,"lon":5.37059,"is_reserved":false,"is_disabled":false,"rental_uris":{"android":"levelo://app?vid=5e7ca248-b591-40e3-94ff-ca6b0790c6ac","ios":"levelo://app?vid=5e7ca248-b591-40e3-94ff-ca6b0790c6ac"},"vehicle_type_id":"4","last_reported":1705863940,"current_range_meters":3200,"station_id":"ce4bht12rcd13ifvqi60","pricing_plan_id":"free"},{"bike_id":"1e905afb-1544-4f22-a93d-1353f9a27d82","system_id":"levelo_inurba_marseille","lat":43.290336,"lon":5.386425,"is_reserved":false,"is_disabled":false,"rental_uris":{"android":"levelo://app?vid=1e905afb-1544-4f22-a93d-1353f9a27d82","ios":"levelo://app?vid=1e905afb-1544-4f22-a93d-1353f9a27d82"},"vehicle_type_id":"4","last_reported":1705863940,"current_range_meters":20400,"station_id":"ce4bh4p2rcd13ifvqe0g","pricing_plan_id":"free"},{"bike_id":"e1a11faf-bcc1-4e11-b90d-8e4b393e7d64","system_id":"levelo_inurba_marseille","lat":43.290275,"lon":5.386513,"is_reserved":false,"is_disabled":false,"rental_uris":{"android":"levelo://app?vid=e1a11faf-bcc1-4e11-b90d-8e4b393e7d64","ios":"levelo://app?vid=e1a11faf-bcc1-4e11-b90d-8e4b393e7d64"},"vehicle_type_id":"4","last_reported":1705863940,"current_range_meters":26000,"station_id":"ce4bh4p2rcd13ifvqe0g","pricing_plan_id":"free"},{"bike_id":"ab43c2c3-77fe-4280-a8bd-6930bc4802e2","system_id":"levelo_inurba_marseille","lat":43.290256,"lon":5.386506,"is_reserved":false,"is_disabled":false,"rental_uris":{"android":"levelo://app?vid=ab43c2c3-77fe-4280-a8bd-6930bc4802e2","ios":"levelo://app?vid=ab43c2c3-77fe-4280-a8bd-6930bc4802e2"},"vehicle_type_id":"4","last_reported":1705863940,"current_range_meters":0,"station_id":"ce4bh4p2rcd13ifvqe0g","pricing_plan_id":"free"},{"bike_id":"7703ee07-e010-4be4-8dec-a14a90af8f7f","system_id":"levelo_inurba_marseille","lat":43.302759,"lon":5.400793,"is_reserved":false,"is_disabled":false,"rental_uris":{"android":"levelo://app?vid=7703ee07-e010-4be4-8dec-a14a90af8f7f","ios":"levelo://app?vid=7703ee07-e010-4be4-8dec-a14a90af8f7f"},"vehicle_type_id":"4","last_reported":1705863940,"current_range_meters":20800,"station_id":"ce4bgvh2rcd13ifvqcs0","pricing_plan_id":"free"},{"bike_id":"cf58c27d-4e06-40aa-8bc1-bf0d733220e9","system_id":"levelo_inurba_marseille","lat":43.302759,"lon":5.400793,"is_reserved":false,"is_disabled":false,"rental_uris":{"android":"levelo://app?vid=cf58c27d-4e06-40aa-8bc1-bf0d733220e9","ios":"levelo://app?vid=cf58c27d-4e06-40aa-8bc1-bf0d733220e9"},"vehicle_type_id":"4","last_reported":1705863940,"current_range_meters":7600,"station_id":"ce4bgvh2rcd13ifvqcs0","pricing_plan_id":"free"},{"bike_id":"4653b887-1663-4cb5-ade5-e47d20c38a7d","system_id":"levelo_inurba_marseille","lat":43.290336,"lon":5.386425,"is_reserved":false,"is_disabled":false,"rental_uris":{"android":"levelo://app?vid=4653b887-1663-4cb5-ade5-e47d20c38a7d","ios":"levelo://app?vid=4653b887-1663-4cb5-ade5-e47d20c38a7d"},"vehicle_type_id":"4","last_reported":1705863940,"current_range_meters":9200,"station_id":"ce4bh4p2rcd13ifvqe0g","pricing_plan_id":"free"},{"bike_id":"e987e4de-1522-477e-bfac-625232b17759","system_id":"levelo_inurba_marseille","lat":43.30268,"lon":5.40092,"is_reserved":false,"is_disabled":false,"rental_uris":{"android":"levelo://app?vid=e987e4de-1522-477e-bfac-625232b17759","ios":"levelo://app?vid=e987e4de-1522-477e-bfac-625232b17759"},"vehicle_type_id":"4","last_reported":1705863940,"current_range_meters":7600,"station_id":"ce4bgvh2rcd13ifvqcs0","pricing_plan_id":"free"},{"bike_id":"c14787d6-f88d-467a-880a-85cbe4272b5a","system_id":"levelo_inurba_marseille","lat":43.286039,"lon":5.370679,"is_reserved":false,"is_disabled":false,"rental_uris":{"android":"levelo://app?vid=c14787d6-f88d-467a-880a-85cbe4272b5a","ios":"levelo://app?vid=c14787d6-f88d-467a-880a-85cbe4272b5a"},"vehicle_type_id":"4","last_reported":1705863940,"current_range_meters":20800,"station_id":"ce4bht12rcd13ifvqi60","pricing_plan_id":"free"},{"bike_id":"532f2b40-5b96-4c3d-b85a-1580057b80f3","system_id":"levelo_inurba_marseille","lat":43.286039,"lon":5.370679,"is_reserved":false,"is_disabled":false,"rental_uris":{"android":"levelo://app?vid=532f2b40-5b96-4c3d-b85a-1580057b80f3","ios":"levelo://app?vid=532f2b40-5b96-4c3d-b85a-1580057b80f3"},