{"last_updated":1730985360,"ttl":60,"version":"2.2","data":{"bikes":[{"bike_id":"18b52b52-58a9-4e3f-a683-6068b12d8fc8","system_id":"levelo_inurba_marseille","lat":43.28854,"lon":5.35853,"is_reserved":false,"is_disabled":false,"rental_uris":{"android":"levelo://app?vid=18b52b52-58a9-4e3f-a683-6068b12d8fc8","ios":"levelo://app?vid=18b52b52-58a9-4e3f-a683-6068b12d8fc8"},"vehicle_type_id":"4","last_reported":1730985361,"current_range_meters":15200,"station_id":"ce4bhb12rcd13ifvqem0","pricing_plan_id":"cebpf4jnsgd1na2vs0mg"},{"bike_id":"02a8dd32-39a9-4ef4-a051-9faa0f6afeaa","system_id":"levelo_inurba_marseille","lat":43.28728,"lon":5.37936,"is_reserved":false,"is_disabled":false,"rental_uris":{"android":"levelo://app?vid=02a8dd32-39a9-4ef4-a051-9faa0f6afeaa","ios":"levelo://app?vid=02a8dd32-39a9-4ef4-a051-9faa0f6afeaa"},"vehicle_type_id":"4","last_reported":1730985361,"current_range_meters":39200,"station_id":"ce4bh9p2rcd13ifvqec0","pricing_plan_id":"cebpf4jnsgd1na2vs0mg"},{"bike_id":"36da81ad-0e02-4ae5-aa74-842712164d86","system_id":"levelo_inurba_marseille","lat":43.23154,"lon":5.43702,"is_reserved":false,"is_disabled":false,"rental_uris":{"android":"levelo://app?vid=36da81ad-0e02-4ae5-aa74-842712164d86","ios":"levelo://app?vid=36da81ad-0e02-4ae5-aa74-842712164d86"},"vehicle_type_id":"4","last_reported":1730985361,"current_range_meters":24800,"station_id":"ce4bhmp2rcd13ifvqgog","pricing_plan_id":"cebpf4jnsgd1na2vs0mg"},{"bike_id":"e8bcca23-42a0-4423-8a65-a75ab12e9cb1","system_id":"levelo_inurba_marseille","lat":43.29573,"lon":5.36746,"is_reserved":false,"is_disabled":false,"rental_uris":{"android":"levelo://app?vid=e8bcca23-42a0-4423-8a65-a75ab12e9cb1","ios":"levelo://app?vid=e8bcca23-42a0-4423-8a65-a75ab12e9cb1"},"vehicle_type_id":"4","last_reported":1730985361,"current_range_meters":35600,"station_id":"ce4bgph2rcd13ifvqc2g","pricing_plan_id":"cebpf4jnsgd1na2vs0mg"},{"bike_id":"90f1ca98-932a-42e5-82fe-80393830185b","system_id":"levelo_inurba_marseille","lat":43.341341,"lon":5.409215,"is_reserved":false,"is_disabled":false,"rental_uris":{"android":"levelo://app?vid=90f1ca98-932a-42e5-82fe-80393830185b","ios":"levelo://app?vid=90f1ca98-932a-42e5-82fe-80393830185b"},"vehicle_type_id":"4","last_reported":1730985361,"current_range_meters":38800,"station_id":"ce4bhqh2rcd13ifvqhlg","pricing_plan_id":"cebpf4jnsgd1na2vs0mg"},{"bike_id":"815139d7-01fd-4d01-8aa4-f5f5922668fc","system_id":"levelo_inurba_marseille","lat":43.27962,"lon":5.38738,"is_reserved":false,"is_disabled":false,"rental_uris":{"android":"levelo://app?vid=815139d7-01fd-4d01-8aa4-f5f5922668fc","ios":"levelo://app?vid=815139d7-01fd-4d01-8aa4-f5f5922668fc"},"vehicle_type_id":"4","last_reported":1730985361,"current_range_meters":39200,"station_id":"ce4bhg12rcd13ifvqf80","pricing_plan_id":"cebpf4jnsgd1na2vs0mg"},{"bike_id":"0e4ef1d9-0437-4d4e-b57d-4c75c4376a05","system_id":"levelo_inurba_marseille","lat":43.33722,"lon":5.39192,"is_reserved":false,"is_disabled":false,"rental_uris":{"android":"levelo://app?vid=0e4ef1d9-0437-4d4e-b57d-4c75c4376a05","ios":"levelo://app?vid=0e4ef1d9-0437-4d4e-b57d-4c75c4376a05"},"vehicle_type_id":"4","last_reported":1730985361,"current_range_meters":22800,"station_id":"ce4bhr92rcd13ifvqhsg","pricing_plan_id":"cebpf4jnsgd1na2vs0mg"},{"bike_id":"903928f5-a362-409c-adca-3c00d790c218","system_id":"levelo_inurba_marseille","lat":43.26949,"lon":5.38624,"is_reserved":false,"is_disabled":false,"rental_uris":{"android":"levelo://app?vid=903928f5-a362-409c-adca-3c00d790c218","ios":"levelo://app?vid=903928f5-a362-409c-adca-3c00d790c218"},"vehicle_type_id":"4","last_reported":1730985361,"current_range_meters":13600,"station_id":"ce4bhh92rcd13ifvqfh0","pricing_plan_id":"cebpf4jnsgd1na2vs0mg"},{"bike_id":"f9bb9c79-6f73-4109-ae8c-df53e2fac037","system_id":"levelo_inurba_marseille","lat":43.30128,"lon":5.39867,"is_reserved":false,"is_disabled":false,"rental_uris":{"android":"levelo://app?vid=f9bb9c79-6f73-4109-ae8c-df53e2fac037","ios":"levelo://app?vid=f9bb9c79-6f73-4109-ae8c-df53e2fac037"},"vehicle_type_id":"4","last_reported":1730985361,"current_range_meters":16800,"station_id":"ce4bh0h2rcd13ifvqd40","pricing_plan_id":"cebpf4jnsgd1na2vs0mg"},{"bike_id":"1df4d711-4ca5-4e4f-8f9c-e7732e3d0984","system_id":"levelo_inurba_marseille","lat":43.29799,"lon":5.37123,"is_reserved":false,"is_disabled":false,"rental_uris":{"android":"levelo://app?vid=1df4d711-4ca5-4e4f-8f9c-e7732e3d0984","ios":"levelo://app?vid=1df4d711-4ca5-4e4f-8f9c-e7732e3d0984"},"vehicle_type_id":"4","last_reported":1730985361,"current_range_meters":31200,"station_id":"ce4bgop2rcd13ifvqc1g","pricing_plan_id":"cebpf4jnsgd1na2vs0mg"},{"bike_id":"b2116663-67b9-426e-a75d-ed0e97e6dcbc","system_id":"levelo_inurba_marseille","lat":43.29606,"lon":5.3717,"is_reserved":false,"is_disabled":false,"rental_uris":{"android":"levelo://app?vid=b2116663-67b9-426e-a75d-ed0e97e6dcbc","ios":"levelo://app?vid=b2116663-67b9-426e-a75d-ed0e97e6dcbc"},"vehicle_type_id":"4","last_reported":1730985361,"current_range_meters":39200,"station_id":"ce4bgnh2rcd13ifvqc0g","pricing_plan_id":"cebpf4jnsgd1na2vs0mg"},{"bike_id":"37c549bb-893a-4dcf-b0ce-905029438d78","system_id":"levelo_inurba_marseille","lat":43.28854,"lon":5.35859,"is_reserved":false,"is_disabled":false,"rental_uris":{"android":"levelo://app?vid=37c549bb-893a-4dcf-b0ce-905029438d78","ios":"levelo://app?vid=37c549bb-893a-4dcf-b0ce-905029438d78"},"vehicle_type_id":"4","last_reported":1730985361,"current_range_meters":29600,"station_id":"ce4bhb12rcd13ifvqem0","pricing_plan_id":"cebpf4jnsgd1na2vs0mg"},{"bike_id":"1510aaa8-e4b4-4ded-be09-698b6b03d511","system_id":"levelo_inurba_marseille","lat":43.2315,"lon":5.43714,"is_reserved":false,"is_disabled":false,"rental_uris":{"android":"levelo://app?vid=1510aaa8-e4b4-4ded-be09-698b6b03d511","ios":"levelo://app?vid=1510aaa8-e4b4-4ded-be09-698b6b03d511"},"vehicle_type_id":"4","last_reported":1730985361,"current_range_meters":8800,"station_id":"ce4bhmp2rcd13ifvqgog","pricing_plan_id":"cebpf4jnsgd1na2vs0mg"},{"bike_id":"1865eed8-2d02-4860-87ac-89bd8760cc93","system_id":"levelo_inurba_marseille","lat":43.26678,"lon":5.3826,"is_reserved":false,"is_disabled":false,"rental_uris":{"android":"levelo://app?vid=1865eed8-2d02-4860-87ac-89bd8760cc93","ios":"levelo://app?vid=1865eed8-2d02-4860-87ac-89bd8760cc93"},"vehicle_type_id":"4","last_reported":1730985361,"current_range_meters":24800,"station_id":"ce4bhg92rcd13ifvqf90","pricing_plan_id":"cebpf4jnsgd1na2vs0mg"},{"bike_id":"434fe81b-9da2-49ed-aaee-dc29ee107415","system_id":"levelo_inurba_marseille","lat":43.23966,"lon":5.36641,"is_reserved":false,"is_disabled":false,"rental_uris":{"android":"levelo://app?vid=434fe81b-9da2-49ed-aaee-dc29ee107415","ios":"levelo://app?vid=434fe81b-9da2-49ed-aaee-dc29ee107415"},"vehicle_type_id":"4","last_reported":1730985361,"current_range_meters":38800,"station_id":"ce4bhi12rcd13ifvqfp0","pricing_plan_id":"cebpf4jnsgd1na2vs0mg"},{"bike_id":"ea7c2da9-cac3-4010-900e-2483d22e3c65","system_id":"levelo_inurba_marseille","lat":43.337444,"lon":5.374475,"is_reserved":false,"is_disabled":false,"rental_uris":{"android":"levelo://app?vid=ea7c2da9-cac3-4010-900e-2483d22e3c65","ios":"levelo://app?vid=ea7c2da9-cac3-4010-900e-2483d22e3c65"},"vehicle_type_id":"4","last_reported":1730985361,"current_range_meters":38800,"station_id":"","pricing_plan_id":"cebpf4jnsgd1na2vs0mg"},{"bike_id":"52025ec2-dc31-45fe-aa08-67835bc3a87a","system_id":"levelo_inurba_marseille","lat":43.34142,"lon":5.40902,"is_reserved":false,"is_disabled":false,"rental_uris":{"android":"levelo://app?vid=52025ec2-dc31-45fe-aa08-67835bc3a87a","ios":"levelo://app?vid=52025ec2-dc31-45fe-aa08-67835bc3a87a"},"vehicle_type_id":"4","last_reported":1730985361,"current_range_meters":38800,"station_id":"ce4bhqh2rcd13ifvqhlg","pricing_plan_id":"cebpf4jnsgd1na2vs0mg"},{"bike_id":"e5ffbe00-7239-4ef0-b384-371c8d83d4ab","system_id":"levelo_inurba_marseille","lat":43.27494,"lon":5.42451,"is_reserved":false,"is_disabled":false,"rental_uris":{"android":"levelo://app?vid=e5ffbe00-7239-4ef0-b384-371c8d83d4ab","ios":"levelo://app?vid=e5ffbe00-7239-4ef0-b384-371c8d83d4ab"},"vehicle_type_id":"4","last_reported":1730985361,"current_range_meters":20000,"station_id":"ce4bhn92rcd13ifvqgrg","pricing_plan_id":"cebpf4jnsgd1na2vs0mg"},{"bike_id":"bcf5dad1-721a-4f4e-82b2-15a9cc44926f","system_id":"levelo_inurba_marseille","lat":43.33776,"lon":5.37438,"is_reserved":false,"is_disabled":false,"rental_uris":{"android":"levelo://app?vid=bcf5dad1-721a-4f4e-82b2-15a9cc44926f","ios":"levelo://app?vid=bcf5dad1-721a-4f4e-82b2-15a9cc44926f"},"vehicle_type_id":"4","last_reported":1730985361,"current_range_meters":35600,"station_id":"","pricing_plan_id":"cebpf4jnsgd1na2vs0mg"},{"bike_id":"e6651dee-d5b7-4fbe-8406-c8f60d3e07be","system_id":"levelo_inurba_marseille","lat":43.28272,"lon":5.35066,"is_reserved":false,"is_disabled":false,"rental_uris":{"android":"levelo://app?vid=e6651dee-d5b7-4fbe-8406-c8f60d3e07be","ios":"levelo://app?vid=e6651dee-d5b7-4fbe-8406-c8f60d3e07be"},"vehicle_type_id":"4","last_reported":1730985361,"current_range_meters":38800,"station_id":"ce4bhbp2rcd13ifvqerg","pricing_plan_id":"cebpf4jnsgd1na2vs0mg"},{"bike_id":"8fcca26e-9b9e-465f-bbfd-abe811e5c9d0","system_id":"levelo_inurba_marseille","lat":43.28412,"lon":5.37508,"is_reserved":false,"is_disabled":false,"rental_uris":{"android":"levelo://app?vid=8fcca26e-9b9e-465f-bbfd-abe811e5c9d0","ios":"levelo://app?vid=8fcca26e-9b9e-465f-bbfd-abe811e5c9d0"},"vehicle_type_id":"4","last_reported":1730985361,"current_range_meters":8000,"station_id":"ce4bh412rcd13ifvqds0","pricing_plan_id":"cebpf4jnsgd1na2vs0mg"},{"bike_id":"a13f35d7-f4ed-4dbe-a408-136689149f8e","system_id":"levelo_inurba_marseille","lat":43.22923,"lon":5.35382,"is_reserved":false,"is_disabled":false,"rental_uris":{"android":"levelo://app?vid=a13f35d7-f4ed-4dbe-a408-136689149f8e","ios":"levelo://app?vid=a13f35d7-f4ed-4dbe-a408-136689149f8e"},"vehicle_type_id":"4","last_reported":1730985361,"current_range_meters":35600,"station_id":"cpo3532slgdg3j2ikp40","pricing_plan_id":"cebpf4jnsgd1na2vs0mg"},{"bike_id":"81a73e1e-df8e-4923-a10d-61f139a542d3","system_id":"levelo_inurba_marseille","lat":43.28029,"lon":5.36945,"is_reserved":false,"is_disabled":false,"rental_uris":{"android":"levelo://app?vid=81a73e1e-df8e-4923-a10d-61f139a542d3","ios":"levelo://app?vid=81a73e1e-df8e-4923-a10d-61f139a542d3"},"vehicle_type_id":"4","last_reported":1730985361,"current_range_meters":14000,"station_id":"ce4bha12rcd13ifvqef0","pricing_plan_id":"cebpf4jnsgd1na2vs0mg"},{"bike_id":"b011c6f3-78d7-42bb-bda8-4bbe552876c5","system_id":"levelo_inurba_marseille","lat":43.28078,"lon":5.39661,"is_reserved":false,"is_disabled":false,"rental_uris":{"android":"levelo://app?vid=b011c6f3-78d7-42bb-bda8-4bbe552876c5","ios":"levelo://app?vid=b011c6f3-78d7-42bb-bda8-4bbe552876c5"},"vehicle_type_id":"4","last_reported":1730985361,"current_range_meters":8000,"station_id":"ce4bho12rcd13ifvqh2g","pricing_plan_id":"cebpf4jnsgd1na2vs0mg"},{"bike_id":"35c658cd-6772-420c-87ce-ba3ed9431cb0","system_id":"levelo_inurba_marseille","lat":43.3053,"lon":5.36543,"is_reserved":false,"is_disabled":false,"rental_uris":{"android":"levelo://app?vid=35c658cd-6772-420c-87ce-ba3ed9431cb0","ios":"levelo://app?vid=35c658cd-6772-420c-87ce-ba3ed9431cb0"},"vehicle_type_id":"4","last_reported":1730985361,"current_range_meters":28400,"station_id":"ce4bgs12rcd13ifvqcag","pricing_plan_id":"cebpf4jnsgd1na2vs0mg"},{"bike_id":"ed315117-2401-4233-8861-cdae403171ca","system_id":"levelo_inurba_marseille","lat":43.28714,"lon":5.37943,"is_reserved":false,"is_disabled":false,"rental_uris":{"android":"levelo://app?vid=ed315117-2401-4233-8861-cdae403171ca","ios":"levelo://app?vid=ed315117-2401-4233-8861-cdae403171ca"},"vehicle_type_id":"4","last_reported":1730985361,"current_range_meters":19200,"station_id":"ce4bh9p2rcd13ifvqec0","pricing_plan_id":"cebpf4jnsgd1na2vs0mg"},{"bike_id":"dc7a0508-3f52-407d-9301-4e33bd81ba66","system_id":"levelo_inurba_marseille","lat":43.27902,"lon":5.38017,"is_reserved":false,"is_disabled":false,"rental_uris":{"android":"levelo://app?vid=dc7a0508-3f52-407d-9301-4e33bd81ba66","ios":"levelo://app?vid=dc7a0508-3f52-407d-9301-4e33bd81ba66"},"vehicle_type_id":"4","last_reported":1730985361,"current_range_meters":38000,"station_id":"ce4bhf92rcd13ifvqf50","pricing_plan_id":"cebpf4jnsgd1na2vs0mg"},{"bike_id":"921462aa-1485-4006-8be2-e4f6e691a0ee","system_id":"levelo_inurba_marseille","lat":43.30451,"lon":5.37898,"is_reserved":false,"is_disabled":false,"rental_uris":{"android":"levelo://app?vid=921462aa-1485-4006-8be2-e4f6e691a0ee","ios":"levelo://app?vid=921462aa-1485-4006-8be2-e4f6e691a0ee"},"vehicle_type_id":"4","last_reported":1730985361,"current_range_meters":39200,"station_id":"ce4bgup2rcd13ifvqcn0","pricing_plan_id":"cebpf4jnsgd1na2vs0mg"},{"bike_id":"dbe7fed8-8293-4341-b586-de12b655672c","system_id":"levelo_inurba_marseille","lat":43.32538,"lon":5.41439,"is_reserved":false,"is_disabled":false,"rental_uris":{"android":"levelo://app?vid=dbe7fed8-8293-4341-b586-de12b655672c","ios":"levelo://app?vid=dbe7fed8-8293-4341-b586-de12b655672c"},"vehicle_type_id":"4","last_reported":1730985361,"current_range_meters":17600,"station_id":"ce4bhq12rcd13ifvqhhg","pricing_plan_id":"cebpf4jnsgd1na2vs0mg"},{"bike_id":"b54ad45d-3506-40e5-91f0-df0ec9740bd8","system_id":"levelo_inurba_marseille","lat":43.29909,"lon":5.38152,"is_reserved":false,"is_disabled":false,"rental_uris":{"android":"levelo://app?vid=b54ad45d-3506-40e5-91f0-df0ec9740bd8","ios":"levelo://app?vid=b54ad45d-3506-40e5-91f0-df0ec9740bd8"},"vehicle_type_id":"4","last_reported":1730985361,"current_range_meters":19600,"station_id":"ce4bgj12rcd13ifvqbc0","pricing_plan_id":"cebpf4jnsgd1na2vs0mg"},{"bike_id":"3cb350c5-e993-42d8-accd-bb04604647c6","system_id":"levelo_inurba_marseille","lat":43.2997,"lon":5.37182,"is_reserved":false,"is_disabled":false,"rental_uris":{"android":"levelo://app?vid=3cb350c5-e993-42d8-accd-bb04604647c6","ios":"levelo://app?vid=3cb350c5-e993-42d8-accd-bb04604647c6"},"vehicle_type_id":"4","last_reported":1730985361,"current_range_meters":38800,"station_id":"ce4bgr92rcd13ifvqc7g","pricing_plan_id":"cebpf4jnsgd1na2vs0mg"},{"bike_id":"8a401a8a-30f9-4643-ad63-74116d1b600f","system_id":"levelo_inurba_marseille","lat":43.32481,"lon":5.36573,"is_reserved":false,"is_disabled":false,"rental_uris":{"android":"levelo://app?vid=8a401a8a-30f9-4643-ad63-74116d1b600f","ios":"levelo://app?vid=8a401a8a-30f9-4643-ad63-74116d1b600f"},"vehicle_type_id":"4","last_reported":1730985361,"current_range_meters":36400,"station_id":"ce4bhs12rcd13ifvqhvg","pricing_plan_id":"cebpf4jnsgd1na2vs0mg"},{"bike_id":"495f6f48-9fc5-45d2-86e8-54e8461f238a","system_id":"levelo_inurba_marseille","lat":43.24801,"lon":5.3745,"is_reserved":false,"is_disabled":false,"rental_uris":{"android":"levelo://app?vid=495f6f48-9fc5-45d2-86e8-54e8461f238a","ios":"levelo://app?vid=495f6f48-9fc5-45d2-86e8-54e8461f238a"},"vehicle_type_id":"4","last_reported":1730985361,"current_range_meters":33200,"station_id":"ce4bhgh2rcd13ifvqfb0","pricing_plan_id":"cebpf4jnsgd1na2vs0mg"},{"bike_id":"2539aa0b-7bf0-4b7f-8708-9064f01479d5","system_id":"levelo_inurba_marseille","lat":43.31081,"lon":5.4243,"is_reserved":false,"is_disabled":false,"rental_uris":{"android":"levelo://app?vid=2539aa0b-7bf0-4b7f-8708-9064f01479d5","ios":"levelo://app?vid=2539aa0b-7bf0-4b7f-8708-9064f01479d5"},"vehicle_type_id":"4","last_reported":1730985361,"current_range_meters":15200,"station_id":"ce4bhp92rcd13ifvqhag","pricing_plan_id":"cebpf4jnsgd1na2vs0mg"},{"bike_id":"60bb8ba5-396a-42c6-a39d-ec6237392067","system_id":"levelo_inurba_marseille","lat":43.22928,"lon":5.35377,"is_reserved":false,"is_disabled":false,"rental_uris":{"android":"levelo://app?vid=60bb8ba5-396a-42c6-a39d-ec6237392067","ios":"levelo://app?vid=60bb8ba5-396a-42c6-a39d-ec6237392067"},"vehicle_type_id":"4","last_reported":1730985361,"current_range_meters":36000,"station_id":"cpo3532slgdg3j2ikp40","pricing_plan_id":"cebpf4jnsgd1na2vs0mg"},{"bike_id":"8606e64c-a2ae-4e8d-a9a7-71a6d0749912","system_id":"levelo_inurba_marseille","lat":43.27943,"lon":5.41051,"is_reserved":false,"is_disabled":false,"rental_uris":{"android":"levelo://app?vid=8606e64c-a2ae-4e8d-a9a7-71a6d0749912","ios":"levelo://app?vid=8606e64c-a2ae-4e8d-a9a7-71a6d0749912"},"vehicle_type_id":"4","last_reported":1730985361,"current_range_meters":21600,"station_id":"ce4bhnp2rcd13ifvqh0g","pricing_plan_id":"cebpf4jnsgd1na2vs0mg"},{"bike_id":"794c21bb-2dc9-433c-bf5d-8d6b934201ad","system_id":"levelo_inurba_marseille","lat":43.2408,"lon":5.37754,"is_reserved":false,"is_disabled":false,"rental_uris":{"android":"levelo://app?vid=794c21bb-2dc9-433c-bf5d-8d6b934201ad","ios":"levelo://app?vid=794c21bb-2dc9-433c-bf5d-8d6b934201ad"},"vehicle_type_id":"4","last_reported":1730985361,"current_range_meters":25200,"station_id":"ce4bhnp2rcd13ifvqgvg","pricing_plan_id":"cebpf4jnsgd1na2vs0mg"},{"bike_id":"3232343b-b00a-47b1-9de8-95cc6580cbfa","system_id":"levelo_inurba_marseille","lat":43.22929,"lon":5.35376,"is_reserved":false,"is_disabled":false,"rental_uris":{"android":"levelo://app?vid=3232343b-b00a-47b1-9de8-95cc6580cbfa","ios":"levelo://app?vid=3232343b-b00a-47b1-9de8-95cc6580cbfa"},"vehicle_type_id":"4","last_reported":1730985361,"current_range_meters":30800,"station_id":"cpo3532slgdg3j2ikp40","pricing_plan_id":"cebpf4jnsgd1na2vs0mg"},{"bike_id":"af57d92d-560f-4b89-9062-e2d1d42c1629","system_id":"levelo_inurba_marseille","lat":43.26957,"lon":5.38636,"is_reserved":false,"is_disabled":false,"rental_uris":{"android":"levelo://app?vid=af57d92d-560f-4b89-9062-e2d1d42c1629","ios":"levelo://app?vid=af57d92d-560f-4b89-9062-e2d1d42c1629"},"vehicle_type_id":"4","last_reported":1730985361,"current_range_meters":9600,"station_id":"ce4bhh92rcd13ifvqfh0","pricing_plan_id":"cebpf4jnsgd1na2vs0mg"},{"bike_id":"44f25fbd-5119-4440-bd4c-c4253caacb2c","system_id":"levelo_inurba_marseille","lat":43.3014,"lon":5.381,"is_reserved":false,"is_disabled":false,"rental_uris":{"android":"levelo://app?vid=44f25fbd-5119-4440-bd4c-c4253caacb2c","ios":"levelo://app?vid=44f25fbd-5119-4440-bd4c-c4253caacb2c"},"vehicle_type_id":"4","last_reported":1730985361,"current_range_meters":17200,"station_id":"ce4bgjp2rcd13ifvqbh0","pricing_plan_id":"cebpf4jnsgd1na2vs0mg"},{"bike_id":"90b201dc-f5b9-4d3d-a624-d8c47fbf7abb","system_id":"levelo_inurba_marseille","lat":43.28931,"lon":5.3963,"is_reserved":false,"is_disabled":false,"rental_uris":{"android":"levelo://app?vid=90b201dc-f5b9-4d3d-a624-d8c47fbf7abb","ios":"levelo://app?vid=90b201dc-f5b9-4d3d-a624-d8c47fbf7abb"},"vehicle_type_id":"4","last_reported":1730985361,"current_range_meters":33600,"station_id":"ce4bh3h2rcd13ifvqdn0","pricing_plan_id":"cebpf4jnsgd1na2vs0mg"},{"bike_id":"c7f29a43-391f-435b-8b39-327707700c2a","system_id":"levelo_inurba_marseille","lat":43.29034,"lon":5.39969,"is_reserved":false,"is_disabled":false,"rental_uris":{"android":"levelo://app?vid=c7f29a43-391f-435b-8b39-327707700c2a","ios":"levelo://app?vid=c7f29a43-391f-435b-8b39-327707700c2a"},"vehicle_type_id":"4","last_reported":1730985361,"current_range_meters":26000,"station_id":"ce4bh392rcd13ifvqdm0","pricing_plan_id":"cebpf4jnsgd1na2vs0mg"},{"bike_id":"7bb61d2b-5282-43a2-83b9-044d9359fb57","system_id":"levelo_inurba_marseille","lat":43.25929,"lon":5.40912,"is_reserved":false,"is_disabled":false,"rental_uris":{"android":"levelo://app?vid=7bb61d2b-5282-43a2-83b9-044d9359fb57","ios":"levelo://app?vid=7bb61d2b-5282-43a2-83b9-044d9359fb57"},"vehicle_type_id":"4","last_reported":1730985361,"current_range_meters":35200,"station_id":"ce4bhm92rcd13ifvqglg","pricing_plan_id":"cebpf4jnsgd1na2vs0mg"},{"bike_id":"53fa0b2e-3b66-40c1-951b-858b27933324","system_id":"levelo_inurba_marseille","lat":43.28948,"lon":5.36414,"is_reserved":false,"is_disabled":false,"rental_uris":{"android":"levelo://app?vid=53fa0b2e-3b66-40c1-951b-858b27933324","ios":"levelo://app?vid=53fa0b2e-3b66-40c1-951b-858b27933324"},"vehicle_type_id":"4","last_reported":1730985361,"current_range_meters":24400,"station_id":"ce4bhc92rcd13ifvqetg","pricing_plan_id":"cebpf4jnsgd1na2vs0mg"},{"bike_id":"ec6f1adc-74d8-4c9f-9550-e78d534293f2","system_id":"levelo_inurba_marseille","lat":43.30587,"lon":5.3935,"is_reserved":false,"is_disabled":false,"rental_uris":{"android":"levelo://app?vid=ec6f1adc-74d8-4c9f-9550-e78d534293f2","ios":"levelo://app?vid=ec6f1adc-74d8-4c9f-9550-e78d534293f2"},"vehicle_type_id":"4","last_reported":1730985361,"current_range_meters":27200,"station_id":"ce4bh0p2rcd13ifvqd80","pricing_plan_id":"cebpf4jnsgd1na2vs0mg"},{"bike_id":"5fcd830b-a202-429c-ab9b-f9087793a5be","system_id":"levelo_inurba_marseille","lat":43.28345,"lon":5.38104,"is_reserved":false,"is_disabled":false,"rental_uris":{"android":"levelo://app?vid=5fcd830b-a202-429c-ab9b-f9087793a5be","ios":"levelo://app?vid=5fcd830b-a202-429c-ab9b-f9087793a5be"},"vehicle_type_id":"4","last_reported":1730985361,"current_range_meters":31200,"station_id":"ce4bh412rcd13ifvqdr0","pricing_plan_id":"cebpf4jnsgd1na2vs0mg"},{"bike_id":"8b32a402-f9e8-4c9e-bc99-ebcac453c814","system_id":"levelo_inurba_marseille","lat":43.27781,"lon":5.36251,"is_reserved":false,"is_disabled":false,"rental_uris":{"android":"levelo://app?vid=8b32a402-f9e8-4c9e-bc99-ebcac453c814","ios":"levelo://app?vid=8b32a402-f9e8-4c9e-bc99-ebcac453c814"},"vehicle_type_id":"4","last_reported":1730985361,"current_range_meters":29600,"station_id":"ce4bhh12rcd13ifvqff0","pricing_plan_id":"cebpf4jnsgd1na2vs0mg"},{"bike_id":"70d67e8b-cf90-41d7-a359-ddc74e8f5edf","system_id":"levelo_inurba_marseille","lat":43.25933,"lon":5.40908,"is_reserved":false,"is_disabled":false,"rental_uris":{"android":"levelo://app?vid=70d67e8b-cf90-41d7-a359-ddc74e8f5edf","ios":"levelo://app?vid=70d67e8b-cf90-41d7-a359-ddc74e8f5edf"},"vehicle_type_id":"4","last_reported":1730985361,"current_range_meters":16000,"station_id":"ce4bhm92rcd13ifvqglg","pricing_plan_id":"cebpf4jnsgd1na2vs0mg"},{"bike_id":"76af8b3d-9a84-4e55-b4f5-30a2c29789a2","system_id":"levelo_inurba_marseille","lat":43.24085,"lon":5.37742,"is_reserved":false,"is_disabled":false,"rental_uris":{"android":"levelo://app?vid=76af8b3d-9a84-4e55-b4f5-30a2c29789a2","ios":"levelo://app?vid=76af8b3d-9a84-4e55-b4f5-30a2c29789a2"},"vehicle_type_id":"4","last_reported":1730985361,"current_range_meters":27600,"station_id":"ce4bhnp2rcd13ifvqgvg","pricing_plan_id":"cebpf4jnsgd1na2vs0mg"},{"bike_id":"7148e5a3-e345-4df8-9602-6c428d6f2779","system_id":"levelo_inurba_marseille","lat":43.2667,"lon":5.40289,"is_reserved":false,"is_disabled":false,"rental_uris":{"android":"levelo://app?vid=7148e5a3-e345-4df8-9602-6c428d6f2779","ios":"levelo://app?vid=7148e5a3-e345-4df8-9602-6c428d6f2779"},"vehicle_type_id":"4","last_reported":1730985361,"current_range_meters":16000,"station_id":"","pricing_plan_id":"cebpf4jnsgd1na2vs0mg"},{"bike_id":"efe92105-4d2a-4aaa-bfb1-ef29a0ae18f6","system_id":"levelo_inurba_marseille","lat":43.29517,"lon":5.37509,"is_reserved":false,"is_disabled":false,"rental_uris":{"android":"levelo://app?vid=efe92105-4d2a-4aaa-bfb1-ef29a0ae18f6","ios":"levelo://app?vid=efe92105-4d2a-4aaa-bfb1-ef29a0ae18f6"},"vehicle_type_id":"4","last_reported":1730985361,"current_range_meters":39200,"station_id":"ce4bgkp2rcd13ifvqbmg","pricing_plan_id":"cebpf4jnsgd1na2vs0mg"},{"bike_id":"bbde159d-771c-477e-9cb9-0b5767d2e088","system_id":"levelo_inurba_marseille","lat":43.31503,"lon":5.37301,"is_reserved":false,"is_disabled":false,"rental_uris":{"android":"levelo://app?vid=bbde159d-771c-477e-9cb9-0b5767d2e088","ios":"levelo://app?vid=bbde159d-771c-477e-9cb9-0b5767d2e088"},"vehicle_type_id":"4","last_reported":1730985361,"current_range_meters":10800,"station_id":"ce4bgt12rcd13ifvqcd0","pricing_plan_id":"cebpf4jnsgd1na2vs0mg"},{"bike_id":"75b794b2-8e19-4b3a-88ba-6f720f6e45be","system_id":"levelo_inurba_marseille","lat":43.30458,"lon":5.37911,"is_reserved":false,"is_disabled":false,"rental_uris":{"android":"levelo://app?vid=75b794b2-8e19-4b3a-88ba-6f720f6e45be","ios":"levelo://app?vid=75b794b2-8e19-4b3a-88ba-6f720f6e45be"},"vehicle_type_id":"4","last_reported":1730985361,"current_range_meters":9200,"station_id":"ce4bgup2rcd13ifvqcn0","pricing_plan_id":"cebpf4jnsgd1na2vs0mg"},{"bike_id":"70f4f82a-b187-43b2-ba2d-79b6494332cb","system_id":"levelo_inurba_marseille","lat":43.28867,"lon":5.3586,"is_reserved":false,"is_disabled":false,"rental_uris":{"android":"levelo://app?vid=70f4f82a-b187-43b2-ba2d-79b6494332cb","ios":"levelo://app?vid=70f4f82a-b187-43b2-ba2d-79b6494332cb"},"vehicle_type_id":"4","last_reported":1730985361,"current_range_meters":26800,"station_id":"ce4bhb12rcd13ifvqem0","pricing_plan_id":"cebpf4jnsgd1na2vs0mg"},{"bike_id":"fa0b7a65-cee1-4d2a-a04c-01c31bf50672","system_id":"levelo_inurba_marseille","lat":43.24162,"lon":5.36395,"is_reserved":false,"is_disabled":false,"rental_uris":{"android":"levelo://app?vid=fa0b7a65-cee1-4d2a-a04c-01c31bf50672","ios":"levelo://app?vid=fa0b7a65-cee1-4d2a-a04c-01c31bf50672"},"vehicle_type_id":"4","last_reported":1730985361,"current_range_meters":24000,"station_id":"cpo36qri1sfpv3e86is0","pricing_plan_id":"cebpf4jnsgd1na2vs0mg"},{"bike_id":"84e9b449-261e-40d9-b4a3-e93ed9e31828","system_id":"levelo_inurba_marseille","lat":43.25858,"lon":5.39902,"is_reserved":false,"is_disabled":false,"rental_uris":{"android":"levelo://app?vid=84e9b449-261e-40d9-b4a3-e93ed9e31828","ios":"levelo://app?vid=84e9b449-261e-40d9-b4a3-e93ed9e31828"},"vehicle_type_id":"4","last_reported":1730985361,"current_range_meters":38800,"station_id":"ce4bhl92rcd13ifvqghg","pricing_plan_id":"cebpf4jnsgd1na2vs0mg"},{"bike_id":"ebe24ed0-22ef-4108-8346-d144ddd06aac","system_id":"levelo_inurba_marseille","lat":43.33718,"lon":5.39187,"is_reserved":false,"is_disabled":false,"rental_uris":{"android":"levelo://app?vid=ebe24ed0-22ef-4108-8346-d144ddd06aac","ios":"levelo://app?vid=ebe24ed0-22ef-4108-8346-d144ddd06aac"},"vehicle_type_id":"4","last_reported":1730985361,"current_range_meters":28400,"station_id":"ce4bhr92rcd13ifvqhsg","pricing_plan_id":"cebpf4jnsgd1na2vs0mg"},{"bike_id":"293ff616-1e95-4253-a842-dff9d0b112d8","system_id":"levelo_inurba_marseille","lat":43.29267,"lon":5.40127,"is_reserved":false,"is_disabled":false,"rental_uris":{"android":"levelo://app?vid=293ff616-1e95-4253-a842-dff9d0b112d8","ios":"levelo://app?vid=293ff616-1e95-4253-a842-dff9d0b112d8"},"vehicle_type_id":"4","last_reported":1730985361,"current_range_meters":38800,"station_id":"ce4bh312rcd13ifvqdk0","pricing_plan_id":"cebpf4jnsgd1na2vs0mg"},{"bike_id":"bf451a61-8504-4338-b68b-b25402be7433","system_id":"levelo_inurba_marseille","lat":43.29599,"lon":5.37698,"is_reserved":false,"is_disabled":false,"rental_uris":{"android":"levelo://app?vid=bf451a61-8504-4338-b68b-b25402be7433","ios":"levelo://app?vid=bf451a61-8504-4338-b68b-b25402be7433"},"vehicle_type_id":"4","last_reported":1730985361,"current_range_meters":27600,"station_id":"ce4bgi92rcd13ifvqb90","pricing_plan_id":"cebpf4jnsgd1na2vs0mg"},{"bike_id":"5205fbf7-8d59-4be8-bf69-1e6422de7447","system_id":"levelo_inurba_marseille","lat":43.30908,"lon":5.36855,"is_reserved":false,"is_disabled":false,"rental_uris":{"android":"levelo://app?vid=5205fbf7-8d59-4be8-bf69-1e6422de7447","ios":"levelo://app?vid=5205fbf7-8d59-4be8-bf69-1e6422de7447"},"vehicle_type_id":"4","last_reported":1730985361,"current_range_meters":7200,"station_id":"ce4bgn92rcd13ifvqbvg","pricing_plan_id":"cebpf4jnsgd1na2vs0mg"},{"bike_id":"cb0ff2cc-ff1a-49a6-b8fb-f55be74a223d","system_id":"levelo_inurba_marseille","lat":43.30557,"lon":5.36536,"is_reserved":false,"is_disabled":false,"rental_uris":{"android":"levelo://app?vid=cb0ff2cc-ff1a-49a6-b8fb-f55be74a223d","ios":"levelo://app?vid=cb0ff2cc-ff1a-49a6-b8fb-f55be74a223d"},"vehicle_type_id":"4","last_reported":1730985361,"current_range_meters":31200,"station_id":"ce4bgs12rcd13ifvqcag","pricing_plan_id":"cebpf4jnsgd1na2vs0mg"},{"bike_id":"f57cc4aa-169c-4e0d-bd33-97601102de51","system_id":"levelo_inurba_marseille","lat":43.23949,"lon":5.36642,"is_reserved":false,"is_disabled":false,"rental_uris":{"android":"levelo://app?vid=f57cc4aa-169c-4e0d-bd33-97601102de51","ios":"levelo://app?vid=f57cc4aa-169c-4e0d-bd33-97601102de51"},"vehicle_type_id":"4","last_reported":1730985361,"current_range_meters":38800,"station_id":"ce4bhi12rcd13ifvqfp0","pricing_plan_id":"cebpf4jnsgd1na2vs0mg"},{"bike_id":"b72c4c69-2898-4c3d-aeef-f3da571569d0","system_id":"levelo_inurba_marseille","lat":43.26678,"lon":5.38271,"is_reserved":false,"is_disabled":false,"rental_uris":{"android":"levelo://app?vid=b72c4c69-2898-4c3d-aeef-f3da571569d0","ios":"levelo://app?vid=b72c4c69-2898-4c3d-aeef-f3da571569d0"},"vehicle_type_id":"4","last_reported":1730985361,"current_range_meters":38000,"station_id":"ce4bhg92rcd13ifvqf90","pricing_plan_id":"cebpf4jnsgd1na2vs0mg"},{"bike_id":"def2c055-3c93-44a3-ab5f-0192fddff446","system_id":"levelo_inurba_marseille","lat":43.32536,"lon":5.41448,"is_reserved":false,"is_disabled":false,"rental_uris":{"android":"levelo://app?vid=def2c055-3c93-44a3-ab5f-0192fddff446","ios":"levelo://app?vid=def2c055-3c93-44a3-ab5f-0192fddff446"},"vehicle_type_id":"4","last_reported":1730985361,"current_range_meters":9200,"station_id":"ce4bhq12rcd13ifvqhhg","pricing_plan_id":"cebpf4jnsgd1na2vs0mg"},{"bike_id":"73ddab19-f3bf-49d8-9a14-da51e0ed8f6c","system_id":"levelo_inurba_marseille","lat":43.23144,"lon":5.4372,"is_reserved":false,"is_disabled":false,"rental_uris":{"android":"levelo://app?vid=73ddab19-f3bf-49d8-9a14-da51e0ed8f6c","ios":"levelo://app?vid=73ddab19-f3bf-49d8-9a14-da51e0ed8f6c"},"vehicle_type_id":"4","last_reported":1730985361,"current_range_meters":38800,"station_id":"ce4bhmp2rcd13ifvqgog","pricing_plan_id":"cebpf4jnsgd1na2vs0mg"},{"bike_id":"d1eef8ed-8492-4f33-b593-cbb9c4965d77","system_id":"levelo_inurba_marseille","lat":43.27493,"lon":5.42455,"is_reserved":false,"is_disabled":false,"rental_uris":{"android":"levelo://app?vid=d1eef8ed-8492-4f33-b593-cbb9c4965d77","ios":"levelo://app?vid=d1eef8ed-8492-4f33-b593-cbb9c4965d77"},"vehicle_type_id":"4","last_reported":1730985361,"current_range_meters":30400,"station_id":"ce4bhn92rcd13ifvqgrg","pricing_plan_id":"cebpf4jnsgd1na2vs0mg"},{"bike_id":"207ed067-29d8-4a8f-b9f3-0849ce579f81","system_id":"levelo_inurba_marseille","lat":43.33025,"lon":5.39046,"is_reserved":false,"is_disabled":false,"rental_uris":{"android":"levelo://app?vid=207ed067-29d8-4a8f-b9f3-0849ce579f81","ios":"levelo://app?vid=207ed067-29d8-4a8f-b9f3-0849ce579f81"},"vehicle_type_id":"4","last_reported":1730985361,"current_range_meters":2000,"station_id":"ce4bhr92rcd13ifvqhrg","pricing_plan_id":"cebpf4jnsgd1na2vs0mg"},{"bike_id":"f4c9a353-b8df-4e25-a8dc-b8756d83db91","system_id":"levelo_inurba_marseille","lat":43.25498,"lon":5.37652,"is_reserved":false,"is_disabled":false,"rental_uris":{"android":"levelo://app?vid=f4c9a353-b8df-4e25-a8dc-b8756d83db91","ios":"levelo://app?vid=f4c9a353-b8df-4e25-a8dc-b8756d83db91"},"vehicle_type_id":"4","last_reported":1730985361,"current_range_meters":32400,"station_id":"ce4bhh12rcd13ifvqff0","pricing_plan_id":"cebpf4jnsgd1na2vs0mg"},{"bike_id":"045b0955-37d5-4484-83f8-9686e7cf6640","system_id":"levelo_inurba_marseille","lat":43.30181,"lon":5.36598,"is_reserved":false,"is_disabled":false,"rental_uris":{"android":"levelo://app?vid=045b0955-37d5-4484-83f8-9686e7cf6640","ios":"levelo://app?vid=045b0955-37d5-4484-83f8-9686e7cf6640"},"vehicle_type_id":"4","last_reported":1730985361,"current_range_meters":12400,"station_id":"ce4bgrh2rcd13ifvqc8g","pricing_plan_id":"cebpf4jnsgd1na2vs0mg"},{"bike_id":"9d696f74-b98f-4b00-9f07-06ed4abe3915","system_id":"levelo_inurba_marseille","lat":43.24081,"lon":5.37748,"is_reserved":false,"is_disabled":false,"rental_uris":{"android":"levelo://app?vid=9d696f74-b98f-4b00-9f07-06ed4abe3915","ios":"levelo://app?vid=9d696f74-b98f-4b00-9f07-06ed4abe3915"},"vehicle_type_id":"4","last_reported":1730985361,"current_range_meters":31200,"station_id":"ce4bhnp2rcd13ifvqgvg","pricing_plan_id":"cebpf4jnsgd1na2vs0mg"},{"bike_id":"f725cf5e-fb9b-4e2c-8c7e-78c302dc6966","system_id":"levelo_inurba_marseille","lat":43.2847,"lon":5.3842,"is_reserved":false,"is_disabled":false,"rental_uris":{"android":"levelo://app?vid=f725cf5e-fb9b-4e2c-8c7e-78c302dc6966","ios":"levelo://app?vid=f725cf5e-fb9b-4e2c-8c7e-78c302dc6966"},"vehicle_type_id":"4","last_reported":1730985361,"current_range_meters":8800,"station_id":"ce4bh512rcd13ifvqe3g","pricing_plan_id":"cebpf4jnsgd1na2vs0mg"},{"bike_id":"f653ebca-ff32-4f7c-9fdc-b2ad9381391e","system_id":"levelo_inurba_marseille","lat":43.24077,"lon":5.37752,"is_reserved":false,"is_disabled":false,"rental_uris":{"android":"levelo://app?vid=f653ebca-ff32-4f7c-9fdc-b2ad9381391e","ios":"levelo://app?vid=f653ebca-ff32-4f7c-9fdc-b2ad9381391e"},"vehicle_type_id":"4","last_reported":1730985361,"current_range_meters":28400,"station_id":"ce4bhnp2rcd13ifvqgvg","pricing_plan_id":"cebpf4jnsgd1na2vs0mg"},{"bike_id":"2e20f2a1-b564-48ea-877a-8fba77b4c953","system_id":"levelo_inurba_marseille","lat":43.22926,"lon":5.35376,"is_reserved":false,"is_disabled":false,"rental_uris":{"android":"levelo://app?vid=2e20f2a1-b564-48ea-877a-8fba77b4c953","ios":"levelo://app?vid=2e20f2a1-b564-48ea-877a-8fba77b4c953"},"vehicle_type_id":"4","last_reported":1730985361,"current_range_meters":36400,"station_id":"cpo3532slgdg3j2ikp40","pricing_plan_id":"cebpf4jnsgd1na2vs0mg"},{"bike_id":"2b00c955-209e-4afd-8242-155060f72c57","system_id":"levelo_inurba_marseille","lat":43.23181,"lon":5.39996,"is_reserved":false,"is_disabled":false,"rental_uris":{"android":"levelo://app?vid=2b00c955-209e-4afd-8242-155060f72c57","ios":"levelo://app?vid=2b00c955-209e-4afd-8242-155060f72c57"},"vehicle_type_id":"4","last_reported":1730985361,"current_range_meters":5600,"station_id":"ce4bhn12rcd13ifvqgqg","pricing_plan_id":"cebpf4jnsgd1na2vs0mg"},{"bike_id":"9d3b4400-828c-4e34-90d4-860944fd1c38","system_id":"levelo_inurba_marseille","lat":43.29228,"lon":5.36056,"is_reserved":false,"is_disabled":false,"rental_uris":{"android":"levelo://app?vid=9d3b4400-828c-4e34-90d4-860944fd1c38","ios":"levelo://app?vid=9d3b4400-828c-4e34-90d4-860944fd1c38"},"vehicle_type_id":"4","last_reported":1730985361,"current_range_meters":8800,"station_id":"ce4bhbh2rcd13ifvqeqg","pricing_plan_id":"cebpf4jnsgd1na2vs0mg"},{"bike_id":"e96a0000-4c65-4389-84e3-72bb9e3f1a77","system_id":"levelo_inurba_marseille","lat":43.2418,"lon":5.39726,"is_reserved":false,"is_disabled":false,"rental_uris":{"android":"levelo://app?vid=e96a0000-4c65-4389-84e3-72bb9e3f1a77","ios":"levelo://app?vid=e96a0000-4c65-4389-84e3-72bb9e3f1a77"},"vehicle_type_id":"4","last_reported":1730985361,"current_range_meters":8800,"station_id":"ce4bhn12rcd13ifvqgpg","pricing_plan_id":"cebpf4jnsgd1na2vs0mg"},{"bike_id":"d8ef467e-de11-4b45-88d3-970600d9b69b","system_id":"levelo_inurba_marseille","lat":43.30209,"lon":5.39465,"is_reserved":false,"is_disabled":false,"rental_uris":{"android":"levelo://app?vid=d8ef467e-de11-4b45-88d3-970600d9b69b","ios":"levelo://app?vid=d8ef467e-de11-4b45-88d3-970600d9b69b"},"vehicle_type_id":"4","last_reported":1730985361,"current_range_meters":32000,"station_id":"ce4bh0p2rcd13ifvqd70","pricing_plan_id":"cebpf4jnsgd1na2vs0mg"},{"bike_id":"4df686f7-8cdc-4be1-bac7-404bbaea22b8","system_id":"levelo_inurba_marseille","lat":43.23961,"lon":5.36637,"is_reserved":false,"is_disabled":false,"rental_uris":{"android":"levelo://app?vid=4df686f7-8cdc-4be1-bac7-404bbaea22b8","ios":"levelo://app?vid=4df686f7-8cdc-4be1-bac7-404bbaea22b8"},"vehicle_type_id":"4","last_reported":1730985361,"current_range_meters":22400,"station_id":"ce4bhi12rcd13ifvqfp0","pricing_plan_id":"cebpf4jnsgd1na2vs0mg"},{"bike_id":"f6be9b35-e22b-47f5-afe1-1f886e398857","system_id":"levelo_inurba_marseille","lat":43.241035,"lon":5.377362,"is_reserved":false,"is_disabled":false,"rental_uris":{"android":"levelo://app?vid=f6be9b35-e22b-47f5-afe1-1f886e398857","ios":"levelo://app?vid=f6be9b35-e22b-47f5-afe1-1f886e398857"},"vehicle_type_id":"4","last_reported":1730985361,"current_range_meters":38800,"station_id":"ce4bhnp2rcd13ifvqgvg","pricing_plan_id":"cebpf4jnsgd1na2vs0mg"},{"bike_id":"9df837eb-2315-4108-8e81-a9a6aea2e7ca","system_id":"levelo_inurba_marseille","lat":43.29884,"lon":5.38904,"is_reserved":false,"is_disabled":false,"rental_uris":{"android":"levelo://app?vid=9df837eb-2315-4108-8e81-a9a6aea2e7ca","ios":"levelo://app?vid=9df837eb-2315-4108-8e81-a9a6aea2e7ca"},"vehicle_type_id":"4","last_reported":1730985361,"current_range_meters":25600,"station_id":"ce4bh392rcd13ifvqdl0","pricing_plan_id":"cebpf4jnsgd1na2vs0mg"},{"bike_id":"e3ee10fb-8b83-41c1-b250-bb9136e88156","system_id":"levelo_inurba_marseille","lat":43.24089,"lon":5.37745,"is_reserved":false,"is_disabled":false,"rental_uris":{"android":"levelo://app?vid=e3ee10fb-8b83-41c1-b250-bb9136e88156","ios":"levelo://app?vid=e3ee10fb-8b83-41c1-b250-bb9136e88156"},"vehicle_type_id":"4","last_reported":1730985361,"current_range_meters":20400,"station_id":"ce4bhnp2rcd13ifvqgvg","pricing_plan_id":"cebpf4jnsgd1na2vs0mg"},{"bike_id":"7cce6816-4690-418b-99b6-346ea176f531","system_id":"levelo_inurba_marseille","lat":43.280053,"lon":5.404174,"is_reserved":false,"is_disabled":false,"rental_uris":{"android":"levelo://app?vid=7cce6816-4690-418b-99b6-346ea176f531","ios":"levelo://app?vid=7cce6816-4690-418b-99b6-346ea176f531"},"vehicle_type_id":"4","last_reported":1730985361,"current_range_meters":22000,"station_id":"","pricing_plan_id":"cebpf4jnsgd1na2vs0mg"},{"bike_id":"84c10ecf-fd70-42a4-91a9-a3bf7b0dfb61","system_id":"levelo_inurba_marseille","lat":43.29786,"lon":5.38111,"is_reserved":false,"is_disabled":false,"rental_uris":{"android":"levelo://app?vid=84c10ecf-fd70-42a4-91a9-a3bf7b0dfb61","ios":"levelo://app?vid=84c10ecf-fd70-42a4-91a9-a3bf7b0dfb61"},"vehicle_type_id":"4","last_reported":1730985361,"current_range_meters":12800,"station_id":"ce4bgip2rcd13ifvqbb0","pricing_plan_id":"cebpf4jnsgd1na2vs0mg"},{"bike_id":"9eff26dc-07d3-4ee1-ba46-fbc16d690b94","system_id":"levelo_inurba_marseille","lat":43.2815,"lon":5.42646,"is_reserved":false,"is_disabled":false,"rental_uris":{"android":"levelo://app?vid=9eff26dc-07d3-4ee1-ba46-fbc16d690b94","ios":"levelo://app?vid=9eff26dc-07d3-4ee1-ba46-fbc16d690b94"},"vehicle_type_id":"4","last_reported":1730985361,"current_range_meters":26000,"station_id":"ce4bhnh2rcd13ifvqgug","pricing_plan_id":"cebpf4jnsgd1na2vs0mg"},{"bike_id":"0da152f3-a69e-4216-9cfa-9108b495e7a0","system_id":"levelo_inurba_marseille","lat":43.30462,"lon":5.37909,"is_reserved":false,"is_disabled":false,"rental_uris":{"android":"levelo://app?vid=0da152f3-a69e-4216-9cfa-9108b495e7a0","ios":"levelo://app?vid=0da152f3-a69e-4216-9cfa-9108b495e7a0"},"vehicle_type_id":"4","last_reported":1730985361,"current_range_meters":30400,"station_id":"ce4bgup2rcd13ifvqcn0","pricing_plan_id":"cebpf4jnsgd1na2vs0mg"},{"bike_id":"34db35d6-c534-453f-8026-9ad1841046bc","system_id":"levelo_inurba_marseille","lat":43.24166,"lon":5.36386,"is_reserved":false,"is_disabled":false,"rental_uris":{"android":"levelo://app?vid=34db35d6-c534-453f-8026-9ad1841046bc","ios":"levelo://app?vid=34db35d6-c534-453f-8026-9ad1841046bc"},"vehicle_type_id":"4","last_reported":1730985361,"current_range_meters":14400,"station_id":"cpo36qri1sfpv3e86is0","pricing_plan_id":"cebpf4jnsgd1na2vs0mg"},{"bike_id":"3abaa40a-e468-4195-8a23-8b8fcf30ab1b","system_id":"levelo_inurba_marseille","lat":43.28343,"lon":5.38108,"is_reserved":false,"is_disabled":false,"rental_uris":{"android":"levelo://app?vid=3abaa40a-e468-4195-8a23-8b8fcf30ab1b","ios":"levelo://app?vid=3abaa40a-e468-4195-8a23-8b8fcf30ab1b"},"vehicle_type_id":"4","last_reported":1730985361,"current_range_meters":28000,"station_id":"ce4bh412rcd13ifvqdr0","pricing_plan_id":"cebpf4jnsgd1na2vs0mg"},{"bike_id":"7d4e8a8d-3659-4d3a-924f-ced17c814af1","system_id":"levelo_inurba_marseille","lat":43.30588,"lon":5.39356,"is_reserved":false,"is_disabled":false,"rental_uris":{"android":"levelo://app?vid=7d4e8a8d-3659-4d3a-924f-ced17c814af1","ios":"levelo://app?vid=7d4e8a8d-3659-4d3a-924f-ced17c814af1"},"vehicle_type_id":"4","last_reported":1730985361,"current_range_meters":38800,"station_id":"ce4bh0p2rcd13ifvqd80","pricing_plan_id":"cebpf4jnsgd1na2vs0mg"},{"bike_id":"e41e5be4-c508-4d61-b847-98292c01416f","system_id":"levelo_inurba_marseille","lat":43.24086,"lon":5.37741,"is_reserved":false,"is_disabled":false,"rental_uris":{"android":"levelo://app?vid=e41e5be4-c508-4d61-b847-98292c01416f","ios":"levelo://app?vid=e41e5be4-c508-4d61-b847-98292c01416f"},"vehicle_type_id":"4","last_reported":1730985361,"current_range_meters":33200,"station_id":"ce4bhnp2rcd13ifvqgvg","pricing_plan_id":"cebpf4jnsgd1na2vs0mg"},{"bike_id":"d7579dd1-3fb3-43f4-8a49-ce84f9997972","system_id":"levelo_inurba_marseille","lat":43.29282,"lon":5.40123,"is_reserved":false,"is_disabled":false,"rental_uris":{"android":"levelo://app?vid=d7579dd1-3fb3-43f4-8a49-ce84f9997972","ios":"levelo://app?vid=d7579dd1-3fb3-43f4-8a49-ce84f9997972"},"vehicle_type_id":"4","last_reported":1730985361,"current_range_meters":10800,"station_id":"ce4bh312rcd13ifvqdk0","pricing_plan_id":"cebpf4jnsgd1na2vs0mg"},{"bike_id":"15959e40-daa6-4e1c-8936-8996ca870cbd","system_id":"levelo_inurba_marseille","lat":43.26568,"lon":5.3901,"is_reserved":false,"is_disabled":false,"rental_uris":{"android":"levelo://app?vid=15959e40-daa6-4e1c-8936-8996ca870cbd","ios":"levelo://app?vid=15959e40-daa6-4e1c-8936-8996ca870cbd"},"vehicle_type_id":"4","last_reported":1730985361,"current_range_meters":38400,"station_id":"ce4bhe12rcd13ifvqf30","pricing_plan_id":"cebpf4jnsgd1na2vs0mg"},{"bike_id":"56724e01-9843-478f-9957-90072d770c6c","system_id":"levelo_inurba_marseille","lat":43.23196,"lon":5.35557,"is_reserved":false,"is_disabled":false,"rental_uris":{"android":"levelo://app?vid=56724e01-9843-478f-9957-90072d770c6c","ios":"levelo://app?vid=56724e01-9843-478f-9957-90072d770c6c"},"vehicle_type_id":"4","last_reported":1730985361,"current_range_meters":10000,"station_id":"ce4bhu92rcd13ifvqi70","pricing_plan_id":"cebpf4jnsgd1na2vs0mg"},{"bike_id":"ba81f366-ea79-4c3c-b173-d3b6978cafbf","system_id":"levelo_inurba_marseille","lat":43.29623,"lon":5.37175,"is_reserved":false,"is_disabled":false,"rental_uris":{"android":"levelo://app?vid=ba81f366-ea79-4c3c-b173-d3b6978cafbf","ios":"levelo://app?vid=ba81f366-ea79-4c3c-b173-d3b6978cafbf"},"vehicle_type_id":"4","last_reported":1730985361,"current_range_meters":38800,"station_id":"ce4bgnh2rcd13ifvqc0g","pricing_plan_id":"cebpf4jnsgd1na2vs0mg"},{"bike_id":"2133dfbe-49e8-4189-a0e7-2637129ed1cc","system_id":"levelo_inurba_marseille","lat":43.30144,"lon":5.3808,"is_reserved":false,"is_disabled":false,"rental_uris":{"android":"levelo://app?vid=2133dfbe-49e8-4189-a0e7-2637129ed1cc","ios":"levelo://app?vid=2133dfbe-49e8-4189-a0e7-2637129ed1cc"},"vehicle_type_id":"4","last_reported":1730985361,"current_range_meters":12400,"station_id":"ce4bgjp2rcd13ifvqbh0","pricing_plan_id":"cebpf4jnsgd1na2vs0mg"},{"bike_id":"cde33d01-4fdf-4588-9993-50576e545d63","system_id":"levelo_inurba_marseille","lat":43.29895,"lon":5.43656,"is_reserved":false,"is_disabled":false,"rental_uris":{"android":"levelo://app?vid=cde33d01-4fdf-4588-9993-50576e545d63","ios":"levelo://app?vid=cde33d01-4fdf-4588-9993-50576e545d63"},"vehicle_type_id":"4","last_reported":1730985361,"current_range_meters":33600,"station_id":"ce4bhpp2rcd13ifvqhfg","pricing_plan_id":"cebpf4jnsgd1na2vs0mg"},{"bike_id":"aa1b17f6-92bf-40ae-9475-ae4c96498ada","system_id":"levelo_inurba_marseille","lat":43.30296,"lon":5.3769,"is_reserved":false,"is_disabled":false,"rental_uris":{"android":"levelo://app?vid=aa1b17f6-92bf-40ae-9475-ae4c96498ada","ios":"levelo://app?vid=aa1b17f6-92bf-40ae-9475-ae4c96498ada"},"vehicle_type_id":"4","last_reported":1730985361,"current_range_meters":32000,"station_id":"ce4bguh2rcd13ifvqcj0","pricing_plan_id":"cebpf4jnsgd1na2vs0mg"},{"bike_id":"29437727-1ea9-49c5-b91e-06a73c7a40b9","system_id":"levelo_inurba_marseille","lat":43.24806,"lon":5.37457,"is_reserved":false,"is_disabled":false,"rental_uris":{"android":"levelo://app?vid=29437727-1ea9-49c5-b91e-06a73c7a40b9","ios":"levelo://app?vid=29437727-1ea9-49c5-b91e-06a73c7a40b9"},"vehicle_type_id":"4","last_reported":1730985361,"current_range_meters":30800,"station_id":"ce4bhgh2rcd13ifvqfb0","pricing_plan_id":"cebpf4jnsgd1na2vs0mg"},{"bike_id":"84d60574-e97d-416a-bb69-40e9fb469182","system_id":"levelo_inurba_marseille","lat":43.22928,"lon":5.35377,"is_reserved":false,"is_disabled":false,"rental_uris":{"android":"levelo://app?vid=84d60574-e97d-416a-bb69-40e9fb469182","ios":"levelo://app?vid=84d60574-e97d-416a-bb69-40e9fb469182"},"vehicle_type_id":"4","last_reported":1730985361,"current_range_meters":38800,"station_id":"cpo3532slgdg3j2ikp40","pricing_plan_id":"cebpf4jnsgd1na2vs0mg"},{"bike_id":"6677c91d-3e85-4d69-93bd-16eddf6f0c93","system_id":"levelo_inurba_marseille","lat":43.25866,"lon":5.39895,"is_reserved":false,"is_disabled":false,"rental_uris":{"android":"levelo://app?vid=6677c91d-3e85-4d69-93bd-16eddf6f0c93","ios":"levelo://app?vid=6677c91d-3e85-4d69-93bd-16eddf6f0c93"},"vehicle_type_id":"4","last_reported":1730985361,"current_range_meters":38000,"station_id":"ce4bhl92rcd13ifvqghg","pricing_plan_id":"cebpf4jnsgd1na2vs0mg"},{"bike_id":"0a25284e-5388-46ee-a7fa-7218dc4eb495","system_id":"levelo_inurba_marseille","lat":43.29805,"lon":5.3809,"is_reserved":false,"is_disabled":false,"rental_uris":{"android":"levelo://app?vid=0a25284e-5388-46ee-a7fa-7218dc4eb495","ios":"levelo://app?vid=0a25284e-5388-46ee-a7fa-7218dc4eb495"},"vehicle_type_id":"4","last_reported":1730985361,"current_range_meters":8000,"station_id":"ce4bgip2rcd13ifvqbb0","pricing_plan_id":"cebpf4jnsgd1na2vs0mg"},{"bike_id":"34634ce2-f8c9-4afd-9d91-a815c55201fd","system_id":"levelo_inurba_marseille","lat":43.28422,"lon":5.40917,"is_reserved":false,"is_disabled":false,"rental_uris":{"android":"levelo://app?vid=34634ce2-f8c9-4afd-9d91-a815c55201fd","ios":"levelo://app?vid=34634ce2-f8c9-4afd-9d91-a815c55201fd"},"vehicle_type_id":"4","last_reported":1730985361,"current_range_meters":25600,"station_id":"","pricing_plan_id":"cebpf4jnsgd1na2vs0mg"},{"bike_id":"5eed7c4f-166a-423f-b11f-87a3edace396","system_id":"levelo_inurba_marseille","lat":43.25941,"lon":5.40902,"is_reserved":false,"is_disabled":false,"rental_uris":{"android":"levelo://app?vid=5eed7c4f-166a-423f-b11f-87a3edace396","ios":"levelo://app?vid=5eed7c4f-166a-423f-b11f-87a3edace396"},"vehicle_type_id":"4","last_reported":1730985361,"current_range_meters":6000,"station_id":"ce4bhm92rcd13ifvqglg","pricing_plan_id":"cebpf4jnsgd1na2vs0mg"},{"bike_id":"8fba7c7b-3a6f-4601-ada4-3b123dcb6725","system_id":"levelo_inurba_marseille","lat":43.24664,"lon":5.38159,"is_reserved":false,"is_disabled":false,"rental_uris":{"android":"levelo://app?vid=8fba7c7b-3a6f-4601-ada4-3b123dcb6725","ios":"levelo://app?vid=8fba7c7b-3a6f-4601-ada4-3b123dcb6725"},"vehicle_type_id":"4","last_reported":1730985361,"current_range_meters":7200,"station_id":"ce4bhih2rcd13ifvqfr0","pricing_plan_id":"cebpf4jnsgd1na2vs0mg"},{"bike_id":"7253505f-9bcf-4d63-be66-056442abda17","system_id":"levelo_inurba_marseille","lat":43.297964,"lon":5.381087,"is_reserved":false,"is_disabled":false,"rental_uris":{"android":"levelo://app?vid=7253505f-9bcf-4d63-be66-056442abda17","ios":"levelo://app?vid=7253505f-9bcf-4d63-be66-056442abda17"},"vehicle_type_id":"4","last_reported":1730985361,"current_range_meters":20000,"station_id":"ce4bgv92rcd13ifvqcq0","pricing_plan_id":"cebpf4jnsgd1na2vs0mg"},{"bike_id":"bfdd89d3-afe7-4069-81c1-9b6edfb549d7","system_id":"levelo_inurba_marseille","lat":43.29194,"lon":5.39316,"is_reserved":false,"is_disabled":false,"rental_uris":{"android":"levelo://app?vid=bfdd89d3-afe7-4069-81c1-9b6edfb549d7","ios":"levelo://app?vid=bfdd89d3-afe7-4069-81c1-9b6edfb549d7"},"vehicle_type_id":"4","last_reported":1730985361,"current_range_meters":9200,"station_id":"ce4bh192rcd13ifvqdd0","pricing_plan_id":"cebpf4jnsgd1na2vs0mg"},{"bike_id":"f1184172-cb85-400c-9060-866f9017656c","system_id":"levelo_inurba_marseille","lat":43.292,"lon":5.39324,"is_reserved":false,"is_disabled":false,"rental_uris":{"android":"levelo://app?vid=f1184172-cb85-400c-9060-866f9017656c","ios":"levelo://app?vid=f1184172-cb85-400c-9060-866f9017656c"},"vehicle_type_id":"4","last_reported":1730985361,"current_range_meters":38800,"station_id":"ce4bh192rcd13ifvqdd0","pricing_plan_id":"cebpf4jnsgd1na2vs0mg"},{"bike_id":"5174ae6b-73b7-4eb9-b82e-9c61c1f78ce8","system_id":"levelo_inurba_marseille","lat":43.31222,"lon":5.40597,"is_reserved":false,"is_disabled":false,"rental_uris":{"android":"levelo://app?vid=5174ae6b-73b7-4eb9-b82e-9c61c1f78ce8","ios":"levelo://app?vid=5174ae6b-73b7-4eb9-b82e-9c61c1f78ce8"},"vehicle_type_id":"4","last_reported":1730985361,"current_range_meters":16800,"station_id":"","pricing_plan_id":"cebpf4jnsgd1na2vs0mg"},{"bike_id":"dbdda8d4-cf10-4eef-99cc-0af832233252","system_id":"levelo_inurba_marseille","lat":43.34135,"lon":5.40908,"is_reserved":false,"is_disabled":false,"rental_uris":{"android":"levelo://app?vid=dbdda8d4-cf10-4eef-99cc-0af832233252","ios":"levelo://app?vid=dbdda8d4-cf10-4eef-99cc-0af832233252"},"vehicle_type_id":"4","last_reported":1730985361,"current_range_meters":13600,"station_id":"ce4bhqh2rcd13ifvqhlg","pricing_plan_id":"cebpf4jnsgd1na2vs0mg"},{"bike_id":"510a5cfc-702d-4f08-9bfc-195aa7d9a58d","system_id":"levelo_inurba_marseille","lat":43.29262,"lon":5.38433,"is_reserved":false,"is_disabled":false,"rental_uris":{"android":"levelo://app?vid=510a5cfc-702d-4f08-9bfc-195aa7d9a58d","ios":"levelo://app?vid=510a5cfc-702d-4f08-9bfc-195aa7d9a58d"},"vehicle_type_id":"4","last_reported":1730985361,"current_range_meters":16400,"station_id":"ce4bh692rcd13ifvqea0","pricing_plan_id":"cebpf4jnsgd1na2vs0mg"},{"bike_id":"c3e27800-3ee3-4406-99ec-fa9ce1dee0ca","system_id":"levelo_inurba_marseille","lat":43.30538,"lon":5.3653,"is_reserved":false,"is_disabled":false,"rental_uris":{"android":"levelo://app?vid=c3e27800-3ee3-4406-99ec-fa9ce1dee0ca","ios":"levelo://app?vid=c3e27800-3ee3-4406-99ec-fa9ce1dee0ca"},"vehicle_type_id":"4","last_reported":1730985361,"current_range_meters":39200,"station_id":"ce4bgs12rcd13ifvqcag","pricing_plan_id":"cebpf4jnsgd1na2vs0mg"},{"bike_id":"198f67f3-24a9-4d19-bed7-14145d808d1a","system_id":"levelo_inurba_marseille","lat":43.26559,"lon":5.37284,"is_reserved":false,"is_disabled":false,"rental_uris":{"android":"levelo://app?vid=198f67f3-24a9-4d19-bed7-14145d808d1a","ios":"levelo://app?vid=198f67f3-24a9-4d19-bed7-14145d808d1a"},"vehicle_type_id":"4","last_reported":1730985361,"current_range_meters":6000,"station_id":"ce4bhg12rcd13ifvqf70","pricing_plan_id":"cebpf4jnsgd1na2vs0mg"},{"bike_id":"e4514b24-38be-4b78-b84b-e2df015203eb","system_id":"levelo_inurba_marseille","lat":43.29889,"lon":5.40087,"is_reserved":false,"is_disabled":false,"rental_uris":{"android":"levelo://app?vid=e4514b24-38be-4b78-b84b-e2df015203eb","ios":"levelo://app?vid=e4514b24-38be-4b78-b84b-e2df015203eb"},"vehicle_type_id":"4","last_reported":1730985361,"current_range_meters":30800,"station_id":"","pricing_plan_id":"cebpf4jnsgd1na2vs0mg"},{"bike_id":"76733292-6685-4127-a6aa-dc0a61b373d8","system_id":"levelo_inurba_marseille","lat":43.23147,"lon":5.43716,"is_reserved":false,"is_disabled":false,"rental_uris":{"android":"levelo://app?vid=76733292-6685-4127-a6aa-dc0a61b373d8","ios":"levelo://app?vid=76733292-6685-4127-a6aa-dc0a61b373d8"},"vehicle_type_id":"4","last_reported":1730985361,"current_range_meters":36800,"station_id":"ce4bhmp2rcd13ifvqgog","pricing_plan_id":"cebpf4jnsgd1na2vs0mg"},{"bike_id":"e2c783ad-487e-476c-b5b2-a2d671f755e3","system_id":"levelo_inurba_marseille","lat":43.30275,"lon":5.37714,"is_reserved":false,"is_disabled":false,"rental_uris":{"android":"levelo://app?vid=e2c783ad-487e-476c-b5b2-a2d671f755e3","ios":"levelo://app?vid=e2c783ad-487e-476c-b5b2-a2d671f755e3"},"vehicle_type_id":"4","last_reported":1730985361,"current_range_meters":28000,"station_id":"ce4bh2p2rcd13ifvqdi0","pricing_plan_id":"cebpf4jnsgd1na2vs0mg"},{"bike_id":"ef7f0fff-ce35-45d6-9194-fe2fa4d1b4ab","system_id":"levelo_inurba_marseille","lat":43.33612,"lon":5.41038,"is_reserved":false,"is_disabled":false,"rental_uris":{"android":"levelo://app?vid=ef7f0fff-ce35-45d6-9194-fe2fa4d1b4ab","ios":"levelo://app?vid=ef7f0fff-ce35-45d6-9194-fe2fa4d1b4ab"},"vehicle_type_id":"4","last_reported":1730985361,"current_range_meters":9600,"station_id":"ce4bhqh2rcd13ifvqhmg","pricing_plan_id":"cebpf4jnsgd1na2vs0mg"},{"bike_id":"6a9a6289-063a-4177-bd5d-9fd3688cadfd","system_id":"levelo_inurba_marseille","lat":43.24666,"lon":5.38159,"is_reserved":false,"is_disabled":false,"rental_uris":{"android":"levelo://app?vid=6a9a6289-063a-4177-bd5d-9fd3688cadfd","ios":"levelo://app?vid=6a9a6289-063a-4177-bd5d-9fd3688cadfd"},"vehicle_type_id":"4","last_reported":1730985361,"current_range_meters":15200,"station_id":"ce4bhih2rcd13ifvqfr0","pricing_plan_id":"cebpf4jnsgd1na2vs0mg"},{"bike_id":"a6ea12f3-65fe-4b29-9494-41c3c96afbc0","system_id":"levelo_inurba_marseille","lat":43.26061,"lon":5.39397,"is_reserved":false,"is_disabled":false,"rental_uris":{"android":"levelo://app?vid=a6ea12f3-65fe-4b29-9494-41c3c96afbc0","ios":"levelo://app?vid=a6ea12f3-65fe-4b29-9494-41c3c96afbc0"},"vehicle_type_id":"4","last_reported":1730985361,"current_range_meters":39200,"station_id":"ce4bhh92rcd13ifvqfj0","pricing_plan_id":"cebpf4jnsgd1na2vs0mg"},{"bike_id":"873554ef-d009-4c29-9a4b-c0c2f4098e25","system_id":"levelo_inurba_marseille","lat":43.30331,"lon":5.40435,"is_reserved":false,"is_disabled":false,"rental_uris":{"android":"levelo://app?vid=873554ef-d009-4c29-9a4b-c0c2f4098e25","ios":"levelo://app?vid=873554ef-d009-4c29-9a4b-c0c2f4098e25"},"vehicle_type_id":"4","last_reported":1730985361,"current_range_meters":36000,"station_id":"ce4bh012rcd13ifvqd10","pricing_plan_id":"cebpf4jnsgd1na2vs0mg"},{"bike_id":"528d84ce-5dda-4a61-b7bd-1b3ee493d7f9","system_id":"levelo_inurba_marseille","lat":43.28468,"lon":5.38411,"is_reserved":false,"is_disabled":false,"rental_uris":{"android":"levelo://app?vid=528d84ce-5dda-4a61-b7bd-1b3ee493d7f9","ios":"levelo://app?vid=528d84ce-5dda-4a61-b7bd-1b3ee493d7f9"},"vehicle_type_id":"4","last_reported":1730985361,"current_range_meters":27200,"station_id":"ce4bh512rcd13ifvqe3g","pricing_plan_id":"cebpf4jnsgd1na2vs0mg"},{"bike_id":"adaaba0e-9314-457e-b940-e4660275bfa0","system_id":"levelo_inurba_marseille","lat":43.3028,"lon":5.3771,"is_reserved":false,"is_disabled":false,"rental_uris":{"android":"levelo://app?vid=adaaba0e-9314-457e-b940-e4660275bfa0","ios":"levelo://app?vid=adaaba0e-9314-457e-b940-e4660275bfa0"},"vehicle_type_id":"4","last_reported":1730985361,"current_range_meters":19600,"station_id":"ce4bguh2rcd13ifvqcj0","pricing_plan_id":"cebpf4jnsgd1na2vs0mg"},{"bike_id":"d619c91b-880c-4c6b-8f5a-fdbd568603fe","system_id":"levelo_inurba_marseille","lat":43.306,"lon":5.37225,"is_reserved":false,"is_disabled":false,"rental_uris":{"android":"levelo://app?vid=d619c91b-880c-4c6b-8f5a-fdbd568603fe","ios":"levelo://app?vid=d619c91b-880c-4c6b-8f5a-fdbd568603fe"},"vehicle_type_id":"4","last_reported":1730985361,"current_range_meters":28000,"station_id":"ce4bgqh2rcd13ifvqc4g","pricing_plan_id":"cebpf4jnsgd1na2vs0mg"},{"bike_id":"58c1f2be-4fe6-48d7-9deb-bdc097dfe4cc","system_id":"levelo_inurba_marseille","lat":43.24076,"lon":5.37747,"is_reserved":false,"is_disabled":false,"rental_uris":{"android":"levelo://app?vid=58c1f2be-4fe6-48d7-9deb-bdc097dfe4cc","ios":"levelo://app?vid=58c1f2be-4fe6-48d7-9deb-bdc097dfe4cc"},"vehicle_type_id":"4","last_reported":1730985361,"current_range_meters":38800,"station_id":"ce4bhnp2rcd13ifvqgvg","pricing_plan_id":"cebpf4jnsgd1na2vs0mg"},{"bike_id":"f9b51361-1f59-4e32-8790-218894731a9c","system_id":"levelo_inurba_marseille","lat":43.23958,"lon":5.36637,"is_reserved":false,"is_disabled":false,"rental_uris":{"android":"levelo://app?vid=f9b51361-1f59-4e32-8790-218894731a9c","ios":"levelo://app?vid=f9b51361-1f59-4e32-8790-218894731a9c"},"vehicle_type_id":"4","last_reported":1730985361,"current_range_meters":35200,"station_id":"ce4bhi12rcd13ifvqfp0","pricing_plan_id":"cebpf4jnsgd1na2vs0mg"},{"bike_id":"d6fdae69-642e-4d84-a8fd-edeb75ed0ef4","system_id":"levelo_inurba_marseille","lat":43.22925,"lon":5.35374,"is_reserved":false,"is_disabled":false,"rental_uris":{"android":"levelo://app?vid=d6fdae69-642e-4d84-a8fd-edeb75ed0ef4","ios":"levelo://app?vid=d6fdae69-642e-4d84-a8fd-edeb75ed0ef4"},"vehicle_type_id":"4","last_reported":1730985361,"current_range_meters":28000,"station_id":"cpo3532slgdg3j2ikp40","pricing_plan_id":"cebpf4jnsgd1na2vs0mg"},{"bike_id":"6c397028-147e-424f-9c74-f458b3eeeb06","system_id":"levelo_inurba_marseille","lat":43.31486,"lon":5.37309,"is_reserved":false,"is_disabled":false,"rental_uris":{"android":"levelo://app?vid=6c397028-147e-424f-9c74-f458b3eeeb06","ios":"levelo://app?vid=6c397028-147e-424f-9c74-f458b3eeeb06"},"vehicle_type_id":"4","last_reported":1730985361,"current_range_meters":26000,"station_id":"ce4bgt12rcd13ifvqcd0","pricing_plan_id":"cebpf4jnsgd1na2vs0mg"},{"bike_id":"28ca97b7-b90f-43b5-b18c-1a6a39a52b07","system_id":"levelo_inurba_marseille","lat":43.23972,"lon":5.36618,"is_reserved":false,"is_disabled":false,"rental_uris":{"android":"levelo://app?vid=28ca97b7-b90f-43b5-b18c-1a6a39a52b07","ios":"levelo://app?vid=28ca97b7-b90f-43b5-b18c-1a6a39a52b07"},"vehicle_type_id":"4","last_reported":1730985361,"current_range_meters":38800,"station_id":"ce4bhi12rcd13ifvqfp0","pricing_plan_id":"cebpf4jnsgd1na2vs0mg"},{"bike_id":"73579928-e2e7-4f6c-b2ab-d967c3bfe602","system_id":"levelo_inurba_marseille","lat":43.30532,"lon":5.36534,"is_reserved":false,"is_disabled":false,"rental_uris":{"android":"levelo://app?vid=73579928-e2e7-4f6c-b2ab-d967c3bfe602","ios":"levelo://app?vid=73579928-e2e7-4f6c-b2ab-d967c3bfe602"},"vehicle_type_id":"4","last_reported":1730985361,"current_range_meters":7200,"station_id":"ce4bgs12rcd13ifvqcag","pricing_plan_id":"cebpf4jnsgd1na2vs0mg"},{"bike_id":"0d7114f2-4e4d-47ef-a69c-acdd5c771288","system_id":"levelo_inurba_marseille","lat":43.31488,"lon":5.37303,"is_reserved":false,"is_disabled":false,"rental_uris":{"android":"levelo://app?vid=0d7114f2-4e4d-47ef-a69c-acdd5c771288","ios":"levelo://app?vid=0d7114f2-4e4d-47ef-a69c-acdd5c771288"},"vehicle_type_id":"4","last_reported":1730985361,"current_range_meters":36800,"station_id":"ce4bgt12rcd13ifvqcd0","pricing_plan_id":"cebpf4jnsgd1na2vs0mg"},{"bike_id":"21b37299-84e4-4b5b-8bf6-49ee4ecf921e","system_id":"levelo_inurba_marseille","lat":43.23967,"lon":5.36627,"is_reserved":false,"is_disabled":false,"rental_uris":{"android":"levelo://app?vid=21b37299-84e4-4b5b-8bf6-49ee4ecf921e","ios":"levelo://app?vid=21b37299-84e4-4b5b-8bf6-49ee4ecf921e"},"vehicle_type_id":"4","last_reported":1730985361,"current_range_meters":39200,"station_id":"ce4bhi12rcd13ifvqfp0","pricing_plan_id":"cebpf4jnsgd1na2vs0mg"},{"bike_id":"001b7c42-40a7-47a9-927f-6c03197892aa","system_id":"levelo_inurba_marseille","lat":43.33717,"lon":5.39169,"is_reserved":false,"is_disabled":false,"rental_uris":{"android":"levelo://app?vid=001b7c42-40a7-47a9-927f-6c03197892aa","ios":"levelo://app?vid=001b7c42-40a7-47a9-927f-6c03197892aa"},"vehicle_type_id":"4","last_reported":1730985361,"current_range_meters":39200,"station_id":"ce4bhr92rcd13ifvqhsg","pricing_plan_id":"cebpf4jnsgd1na2vs0mg"},{"bike_id":"d7b8ed8e-4523-4b3b-8909-08fa061003b5","system_id":"levelo_inurba_marseille","lat":43.2293,"lon":5.35375,"is_reserved":false,"is_disabled":false,"rental_uris":{"android":"levelo://app?vid=d7b8ed8e-4523-4b3b-8909-08fa061003b5","ios":"levelo://app?vid=d7b8ed8e-4523-4b3b-8909-08fa061003b5"},"vehicle_type_id":"4","last_reported":1730985361,"current_range_meters":10800,"station_id":"cpo3532slgdg3j2ikp40","pricing_plan_id":"cebpf4jnsgd1na2vs0mg"},{"bike_id":"29cc6e66-5457-48b2-9eb2-13a85d942513","system_id":"levelo_inurba_marseille","lat":43.24071,"lon":5.37763,"is_reserved":false,"is_disabled":false,"rental_uris":{"android":"levelo://app?vid=29cc6e66-5457-48b2-9eb2-13a85d942513","ios":"levelo://app?vid=29cc6e66-5457-48b2-9eb2-13a85d942513"},"vehicle_type_id":"4","last_reported":1730985361,"current_range_meters":23200,"station_id":"ce4bhnp2rcd13ifvqgvg","pricing_plan_id":"cebpf4jnsgd1na2vs0mg"},{"bike_id":"eb0e8ae7-be8d-4ed5-944f-3285b8b963e5","system_id":"levelo_inurba_marseille","lat":43.239656,"lon":5.366088,"is_reserved":false,"is_disabled":false,"rental_uris":{"android":"levelo://app?vid=eb0e8ae7-be8d-4ed5-944f-3285b8b963e5","ios":"levelo://app?vid=eb0e8ae7-be8d-4ed5-944f-3285b8b963e5"},"vehicle_type_id":"4","last_reported":1730985361,"current_range_meters":38800,"station_id":"ce4bhi12rcd13ifvqfp0","pricing_plan_id":"cebpf4jnsgd1na2vs0mg"},{"bike_id":"622f1f9f-3013-4975-9f17-d6b32b16f936","system_id":"levelo_inurba_marseille","lat":43.3045,"lon":5.37903,"is_reserved":false,"is_disabled":false,"rental_uris":{"android":"levelo://app?vid=622f1f9f-3013-4975-9f17-d6b32b16f936","ios":"levelo://app?vid=622f1f9f-3013-4975-9f17-d6b32b16f936"},"vehicle_type_id":"4","last_reported":1730985361,"current_range_meters":36400,"station_id":"ce4bgup2rcd13ifvqcn0","pricing_plan_id":"cebpf4jnsgd1na2vs0mg"},{"bike_id":"9178d598-d5de-4d5c-85ae-0efa9377149a","system_id":"levelo_inurba_marseille","lat":43.23181,"lon":5.39988,"is_reserved":false,"is_disabled":false,"rental_uris":{"android":"levelo://app?vid=9178d598-d5de-4d5c-85ae-0efa9377149a","ios":"levelo://app?vid=9178d598-d5de-4d5c-85ae-0efa9377149a"},"vehicle_type_id":"4","last_reported":1730985361,"current_range_meters":24800,"station_id":"ce4bhn12rcd13ifvqgqg","pricing_plan_id":"cebpf4jnsgd1na2vs0mg"},{"bike_id":"24fc1f95-596e-40fb-aecd-360ba4fa6125","system_id":"levelo_inurba_marseille","lat":43.337444,"lon":5.374475,"is_reserved":false,"is_disabled":false,"rental_uris":{"android":"levelo://app?vid=24fc1f95-596e-40fb-aecd-360ba4fa6125","ios":"levelo://app?vid=24fc1f95-596e-40fb-aecd-360ba4fa6125"},"vehicle_type_id":"4","last_reported":1730985361,"current_range_meters":27200,"station_id":"","pricing_plan_id":"cebpf4jnsgd1na2vs0mg"},{"bike_id":"22529114-7083-4dc7-ae65-79aead05e022","system_id":"levelo_inurba_marseille","lat":43.28473,"lon":5.38569,"is_reserved":false,"is_disabled":false,"rental_uris":{"android":"levelo://app?vid=22529114-7083-4dc7-ae65-79aead05e022","ios":"levelo://app?vid=22529114-7083-4dc7-ae65-79aead05e022"},"vehicle_type_id":"4","last_reported":1730985361,"current_range_meters":14000,"station_id":"ce4bh8p2rcd13ifvqeb0","pricing_plan_id":"cebpf4jnsgd1na2vs0mg"},{"bike_id":"7ef3145a-4650-48ee-95cf-8d5ee9532d09","system_id":"levelo_inurba_marseille","lat":43.30594,"lon":5.3936,"is_reserved":false,"is_disabled":false,"rental_uris":{"android":"levelo://app?vid=7ef3145a-4650-48ee-95cf-8d5ee9532d09","ios":"levelo://app?vid=7ef3145a-4650-48ee-95cf-8d5ee9532d09"},"vehicle_type_id":"4","last_reported":1730985361,"current_range_meters":10800,"station_id":"ce4bh0p2rcd13ifvqd80","pricing_plan_id":"cebpf4jnsgd1na2vs0mg"},{"bike_id":"7dacef44-2335-430a-a19f-2e9335745064","system_id":"levelo_inurba_marseille","lat":43.2835,"lon":5.38098,"is_reserved":false,"is_disabled":false,"rental_uris":{"android":"levelo://app?vid=7dacef44-2335-430a-a19f-2e9335745064","ios":"levelo://app?vid=7dacef44-2335-430a-a19f-2e9335745064"},"vehicle_type_id":"4","last_reported":1730985361,"current_range_meters":22800,"station_id":"ce4bh412rcd13ifvqdr0","pricing_plan_id":"cebpf4jnsgd1na2vs0mg"},{"bike_id":"b7435ef5-727b-4311-8cc4-4dc5c2bf23c3","system_id":"levelo_inurba_marseille","lat":43.2407,"lon":5.37748,"is_reserved":false,"is_disabled":false,"rental_uris":{"android":"levelo://app?vid=b7435ef5-727b-4311-8cc4-4dc5c2bf23c3","ios":"levelo://app?vid=b7435ef5-727b-4311-8cc4-4dc5c2bf23c3"},"vehicle_type_id":"4","last_reported":1730985361,"current_range_meters":39200,"station_id":"ce4bhnp2rcd13ifvqgvg","pricing_plan_id":"cebpf4jnsgd1na2vs0mg"},{"bike_id":"b727744b-d032-4576-9b28-52f7ced5c1bf","system_id":"levelo_inurba_marseille","lat":43.32534,"lon":5.41445,"is_reserved":false,"is_disabled":false,"rental_uris":{"android":"levelo://app?vid=b727744b-d032-4576-9b28-52f7ced5c1bf","ios":"levelo://app?vid=b727744b-d032-4576-9b28-52f7ced5c1bf"},"vehicle_type_id":"4","last_reported":1730985361,"current_range_meters":20000,"station_id":"ce4bhq12rcd13ifvqhhg","pricing_plan_id":"cebpf4jnsgd1na2vs0mg"},{"bike_id":"0993ae53-b33b-4ec0-8420-6942bdb9eb84","system_id":"levelo_inurba_marseille","lat":43.30795,"lon":5.43533,"is_reserved":false,"is_disabled":false,"rental_uris":{"android":"levelo://app?vid=0993ae53-b33b-4ec0-8420-6942bdb9eb84","ios":"levelo://app?vid=0993ae53-b33b-4ec0-8420-6942bdb9eb84"},"vehicle_type_id":"4","last_reported":1730985361,"current_range_meters":10800,"station_id":"ce4bhph2rcd13ifvqheg","pricing_plan_id":"cebpf4jnsgd1na2vs0mg"},{"bike_id":"8193e270-1e14-4def-9432-76697263457c","system_id":"levelo_inurba_marseille","lat":43.301514,"lon":5.380924,"is_reserved":false,"is_disabled":false,"rental_uris":{"android":"levelo://app?vid=8193e270-1e14-4def-9432-76697263457c","ios":"levelo://app?vid=8193e270-1e14-4def-9432-76697263457c"},"vehicle_type_id":"4","last_reported":1730985361,"current_range_meters":38800,"station_id":"ce4bgg92rcd13ifvqb30","pricing_plan_id":"cebpf4jnsgd1na2vs0mg"},{"bike_id":"96bbe4b9-c3df-4eb3-8e8f-0dd163426af7","system_id":"levelo_inurba_marseille","lat":43.27486,"lon":5.42454,"is_reserved":false,"is_disabled":false,"rental_uris":{"android":"levelo://app?vid=96bbe4b9-c3df-4eb3-8e8f-0dd163426af7","ios":"levelo://app?vid=96bbe4b9-c3df-4eb3-8e8f-0dd163426af7"},"vehicle_type_id":"4","last_reported":1730985361,"current_range_meters":30400,"station_id":"ce4bhn92rcd13ifvqgrg","pricing_plan_id":"cebpf4jnsgd1na2vs0mg"},{"bike_id":"714b0d0c-93c7-4d25-bbb1-44681139cb1f","system_id":"levelo_inurba_marseille","lat":43.30143,"lon":5.37429,"is_reserved":false,"is_disabled":false,"rental_uris":{"android":"levelo://app?vid=714b0d0c-93c7-4d25-bbb1-44681139cb1f","ios":"levelo://app?vid=714b0d0c-93c7-4d25-bbb1-44681139cb1f"},"vehicle_type_id":"4","last_reported":1730985361,"current_range_meters":31200,"station_id":"ce4bgs92rcd13ifvqcc0","pricing_plan_id":"cebpf4jnsgd1na2vs0mg"},{"bike_id":"52af7a3b-ddda-465a-a3b9-5cc6f08e1552","system_id":"levelo_inurba_marseille","lat":43.24169,"lon":5.36391,"is_reserved":false,"is_disabled":false,"rental_uris":{"android":"levelo://app?vid=52af7a3b-ddda-465a-a3b9-5cc6f08e1552","ios":"levelo://app?vid=52af7a3b-ddda-465a-a3b9-5cc6f08e1552"},"vehicle_type_id":"4","last_reported":1730985361,"current_range_meters":14400,"station_id":"cpo36qri1sfpv3e86is0","pricing_plan_id":"cebpf4jnsgd1na2vs0mg"},{"bike_id":"8a76bcd1-0f5e-4170-8a69-1f04e611da97","system_id":"levelo_inurba_marseille","lat":43.32482,"lon":5.36564,"is_reserved":false,"is_disabled":false,"rental_uris":{"android":"levelo://app?vid=8a76bcd1-0f5e-4170-8a69-1f04e611da97","ios":"levelo://app?vid=8a76bcd1-0f5e-4170-8a69-1f04e611da97"},"vehicle_type_id":"4","last_reported":1730985361,"current_range_meters":11200,"station_id":"ce4bhs12rcd13ifvqhvg","pricing_plan_id":"cebpf4jnsgd1na2vs0mg"},{"bike_id":"186d9995-4644-4dc9-ab30-10648929078f","system_id":"levelo_inurba_marseille","lat":43.30538,"lon":5.38432,"is_reserved":false,"is_disabled":false,"rental_uris":{"android":"levelo://app?vid=186d9995-4644-4dc9-ab30-10648929078f","ios":"levelo://app?vid=186d9995-4644-4dc9-ab30-10648929078f"},"vehicle_type_id":"4","last_reported":1730985361,"current_range_meters":39200,"station_id":"ce4bgg92rcd13ifvqb30","pricing_plan_id":"cebpf4jnsgd1na2vs0mg"},{"bike_id":"c85b7568-8bdf-4c8d-9e39-8c322a011a63","system_id":"levelo_inurba_marseille","lat":43.2871,"lon":5.39982,"is_reserved":false,"is_disabled":false,"rental_uris":{"android":"levelo://app?vid=c85b7568-8bdf-4c8d-9e39-8c322a011a63","ios":"levelo://app?vid=c85b7568-8bdf-4c8d-9e39-8c322a011a63"},"vehicle_type_id":"4","last_reported":1730985361,"current_range_meters":2800,"station_id":"ce4bho92rcd13ifvqh3g","pricing_plan_id":"cebpf4jnsgd1na2vs0mg"},{"bike_id":"1f92a978-0fe1-416d-b202-7ab4f1f26041","system_id":"levelo_inurba_marseille","lat":43.25082,"lon":5.39512,"is_reserved":false,"is_disabled":false,"rental_uris":{"android":"levelo://app?vid=1f92a978-0fe1-416d-b202-7ab4f1f26041","ios":"levelo://app?vid=1f92a978-0fe1-416d-b202-7ab4f1f26041"},"vehicle_type_id":"4","last_reported":1730985361,"current_range_meters":38800,"station_id":"ce4bhm12rcd13ifvqgkg","pricing_plan_id":"cebpf4jnsgd1na2vs0mg"},{"bike_id":"3f4fc512-c09e-425c-8600-f50abb41362b","system_id":"levelo_inurba_marseille","lat":43.27486,"lon":5.42455,"is_reserved":false,"is_disabled":false,"rental_uris":{"android":"levelo://app?vid=3f4fc512-c09e-425c-8600-f50abb41362b","ios":"levelo://app?vid=3f4fc512-c09e-425c-8600-f50abb41362b"},"vehicle_type_id":"4","last_reported":1730985361,"current_range_meters":31200,"station_id":"ce4bhn92rcd13ifvqgrg","pricing_plan_id":"cebpf4jnsgd1na2vs0mg"},{"bike_id":"e219d995-5606-44d4-baae-a33bc5236c96","system_id":"levelo_inurba_marseille","lat":43.29631,"lon":5.40596,"is_reserved":false,"is_disabled":false,"rental_uris":{"android":"levelo://app?vid=e219d995-5606-44d4-baae-a33bc5236c96","ios":"levelo://app?vid=e219d995-5606-44d4-baae-a33bc5236c96"},"vehicle_type_id":"4","last_reported":1730985361,"current_range_meters":3200,"station_id":"ce4bh0h2rcd13ifvqd60","pricing_plan_id":"cebpf4jnsgd1na2vs0mg"},{"bike_id":"7eefe55c-4d12-47e8-ad7f-737e7f1315ff","system_id":"levelo_inurba_marseille","lat":43.2835,"lon":5.38115,"is_reserved":false,"is_disabled":false,"rental_uris":{"android":"levelo://app?vid=7eefe55c-4d12-47e8-ad7f-737e7f1315ff","ios":"levelo://app?vid=7eefe55c-4d12-47e8-ad7f-737e7f1315ff"},"vehicle_type_id":"4","last_reported":1730985361,"current_range_meters":22400,"station_id":"ce4bh412rcd13ifvqdr0","pricing_plan_id":"cebpf4jnsgd1na2vs0mg"},{"bike_id":"b9b15904-0759-44de-8de0-bbcd25f99c36","system_id":"levelo_inurba_marseille","lat":43.31488,"lon":5.37307,"is_reserved":false,"is_disabled":false,"rental_uris":{"android":"levelo://app?vid=b9b15904-0759-44de-8de0-bbcd25f99c36","ios":"levelo://app?vid=b9b15904-0759-44de-8de0-bbcd25f99c36"},"vehicle_type_id":"4","last_reported":1730985361,"current_range_meters":32400,"station_id":"ce4bgt12rcd13ifvqcd0","pricing_plan_id":"cebpf4jnsgd1na2vs0mg"},{"bike_id":"f182e709-9758-4617-a945-4c8dd2a2d28f","system_id":"levelo_inurba_marseille","lat":43.29879,"lon":5.38907,"is_reserved":false,"is_disabled":false,"rental_uris":{"android":"levelo://app?vid=f182e709-9758-4617-a945-4c8dd2a2d28f","ios":"levelo://app?vid=f182e709-9758-4617-a945-4c8dd2a2d28f"},"vehicle_type_id":"4","last_reported":1730985361,"current_range_meters":35600,"station_id":"ce4bh392rcd13ifvqdl0","pricing_plan_id":"cebpf4jnsgd1na2vs0mg"},{"bike_id":"caaaa4a1-06c0-4b85-817c-42c384330249","system_id":"levelo_inurba_marseille","lat":43.34146,"lon":5.40899,"is_reserved":false,"is_disabled":false,"rental_uris":{"android":"levelo://app?vid=caaaa4a1-06c0-4b85-817c-42c384330249","ios":"levelo://app?vid=caaaa4a1-06c0-4b85-817c-42c384330249"},"vehicle_type_id":"4","last_reported":1730985361,"current_range_meters":17600,"station_id":"ce4bhqh2rcd13ifvqhlg","pricing_plan_id":"cebpf4jnsgd1na2vs0mg"},{"bike_id":"bed4004a-21ef-45fd-9bd7-62af360c69bf","system_id":"levelo_inurba_marseille","lat":43.24079,"lon":5.37738,"is_reserved":false,"is_disabled":false,"rental_uris":{"android":"levelo://app?vid=bed4004a-21ef-45fd-9bd7-62af360c69bf","ios":"levelo://app?vid=bed4004a-21ef-45fd-9bd7-62af360c69bf"},"vehicle_type_id":"4","last_reported":1730985361,"current_range_meters":28800,"station_id":"ce4bhnp2rcd13ifvqgvg","pricing_plan_id":"cebpf4jnsgd1na2vs0mg"},{"bike_id":"72c05de2-f053-4ec5-b701-d4e54a00d021","system_id":"levelo_inurba_marseille","lat":43.24662,"lon":5.38161,"is_reserved":false,"is_disabled":false,"rental_uris":{"android":"levelo://app?vid=72c05de2-f053-4ec5-b701-d4e54a00d021","ios":"levelo://app?vid=72c05de2-f053-4ec5-b701-d4e54a00d021"},"vehicle_type_id":"4","last_reported":1730985361,"current_range_meters":27600,"station_id":"ce4bhih2rcd13ifvqfr0","pricing_plan_id":"cebpf4jnsgd1na2vs0mg"},{"bike_id":"cdd64da5-123d-44db-8157-5473e1626676","system_id":"levelo_inurba_marseille","lat":43.29586,"lon":5.36743,"is_reserved":false,"is_disabled":false,"rental_uris":{"android":"levelo://app?vid=cdd64da5-123d-44db-8157-5473e1626676","ios":"levelo://app?vid=cdd64da5-123d-44db-8157-5473e1626676"},"vehicle_type_id":"4","last_reported":1730985361,"current_range_meters":35600,"station_id":"ce4bgph2rcd13ifvqc2g","pricing_plan_id":"cebpf4jnsgd1na2vs0mg"},{"bike_id":"b7af5fe1-1ffc-4983-a28e-5e881777edc3","system_id":"levelo_inurba_marseille","lat":43.25929,"lon":5.40909,"is_reserved":false,"is_disabled":false,"rental_uris":{"android":"levelo://app?vid=b7af5fe1-1ffc-4983-a28e-5e881777edc3","ios":"levelo://app?vid=b7af5fe1-1ffc-4983-a28e-5e881777edc3"},"vehicle_type_id":"4","last_reported":1730985361,"current_range_meters":16400,"station_id":"ce4bhm92rcd13ifvqglg","pricing_plan_id":"cebpf4jnsgd1na2vs0mg"},{"bike_id":"a855ad7e-9c0d-4208-a49b-c8a42bbd808f","system_id":"levelo_inurba_marseille","lat":43.30091,"lon":5.39076,"is_reserved":false,"is_disabled":false,"rental_uris":{"android":"levelo://app?vid=a855ad7e-9c0d-4208-a49b-c8a42bbd808f","ios":"levelo://app?vid=a855ad7e-9c0d-4208-a49b-c8a42bbd808f"},"vehicle_type_id":"4","last_reported":1730985361,"current_range_meters":16400,"station_id":"ce4bh192rcd13ifvqdb0","pricing_plan_id":"cebpf4jnsgd1na2vs0mg"},{"bike_id":"0b5d772d-5cec-4a8a-aea9-55de7cdca622","system_id":"levelo_inurba_marseille","lat":43.29791,"lon":5.38104,"is_reserved":false,"is_disabled":false,"rental_uris":{"android":"levelo://app?vid=0b5d772d-5cec-4a8a-aea9-55de7cdca622","ios":"levelo://app?vid=0b5d772d-5cec-4a8a-aea9-55de7cdca622"},"vehicle_type_id":"4","last_reported":1730985361,"current_range_meters":38800,"station_id":"ce4bgip2rcd13ifvqbb0","pricing_plan_id":"cebpf4jnsgd1na2vs0mg"},{"bike_id":"31370be7-bd9c-4a97-a16e-8d6a5ceded68","system_id":"levelo_inurba_marseille","lat":43.31356,"lon":5.367,"is_reserved":false,"is_disabled":false,"rental_uris":{"android":"levelo://app?vid=31370be7-bd9c-4a97-a16e-8d6a5ceded68","ios":"levelo://app?vid=31370be7-bd9c-4a97-a16e-8d6a5ceded68"},"vehicle_type_id":"4","last_reported":1730985361,"current_range_meters":30000,"station_id":"ce4bgr92rcd13ifvqc6g","pricing_plan_id":"cebpf4jnsgd1na2vs0mg"},{"bike_id":"26ee007d-c521-4271-a726-fe0c9aeca07e","system_id":"levelo_inurba_marseille","lat":43.33109,"lon":5.38214,"is_reserved":false,"is_disabled":false,"rental_uris":{"android":"levelo://app?vid=26ee007d-c521-4271-a726-fe0c9aeca07e","ios":"levelo://app?vid=26ee007d-c521-4271-a726-fe0c9aeca07e"},"vehicle_type_id":"4","last_reported":1730985361,"current_range_meters":8400,"station_id":"","pricing_plan_id":"cebpf4jnsgd1na2vs0mg"},{"bike_id":"68e4afd4-3ae4-4673-9448-7172816410df","system_id":"levelo_inurba_marseille","lat":43.29567,"lon":5.37516,"is_reserved":false,"is_disabled":false,"rental_uris":{"android":"levelo://app?vid=68e4afd4-3ae4-4673-9448-7172816410df","ios":"levelo://app?vid=68e4afd4-3ae4-4673-9448-7172816410df"},"vehicle_type_id":"4","last_reported":1730985361,"current_range_meters":10800,"station_id":"ce4bgh92rcd13ifvqb50","pricing_plan_id":"cebpf4jnsgd1na2vs0mg"},{"bike_id":"38036383-2e8a-4e36-b394-4564f315de48","system_id":"levelo_inurba_marseille","lat":43.30462,"lon":5.37902,"is_reserved":false,"is_disabled":false,"rental_uris":{"android":"levelo://app?vid=38036383-2e8a-4e36-b394-4564f315de48","ios":"levelo://app?vid=38036383-2e8a-4e36-b394-4564f315de48"},"vehicle_type_id":"4","last_reported":1730985361,"current_range_meters":30800,"station_id":"ce4bgup2rcd13ifvqcn0","pricing_plan_id":"cebpf4jnsgd1na2vs0mg"},{"bike_id":"cb89ba96-e790-4caa-86f6-c03f178ef4df","system_id":"levelo_inurba_marseille","lat":43.306061,"lon":5.393659,"is_reserved":false,"is_disabled":false,"rental_uris":{"android":"levelo://app?vid=cb89ba96-e790-4caa-86f6-c03f178ef4df","ios":"levelo://app?vid=cb89ba96-e790-4caa-86f6-c03f178ef4df"},"vehicle_type_id":"4","last_reported":1730985361,"current_range_meters":28000,"station_id":"ce4bh0p2rcd13ifvqd80","pricing_plan_id":"cebpf4jnsgd1na2vs0mg"},{"bike_id":"6fb25d64-3b0b-4eff-9fed-c3969bcf924a","system_id":"levelo_inurba_marseille","lat":43.3028,"lon":5.37701,"is_reserved":false,"is_disabled":false,"rental_uris":{"android":"levelo://app?vid=6fb25d64-3b0b-4eff-9fed-c3969bcf924a","ios":"levelo://app?vid=6fb25d64-3b0b-4eff-9fed-c3969bcf924a"},"vehicle_type_id":"4","last_reported":1730985361,"current_range_meters":38800,"station_id":"ce4bguh2rcd13ifvqcj0","pricing_plan_id":"cebpf4jnsgd1na2vs0mg"},{"bike_id":"c12fc122-9081-4c70-a9f1-d2cd2bc19b18","system_id":"levelo_inurba_marseille","lat":43.28852,"lon":5.35845,"is_reserved":false,"is_disabled":false,"rental_uris":{"android":"levelo://app?vid=c12fc122-9081-4c70-a9f1-d2cd2bc19b18","ios":"levelo://app?vid=c12fc122-9081-4c70-a9f1-d2cd2bc19b18"},"vehicle_type_id":"4","last_reported":1730985361,"current_range_meters":22000,"station_id":"ce4bhb12rcd13ifvqem0","pricing_plan_id":"cebpf4jnsgd1na2vs0mg"},{"bike_id":"63679012-d0a0-44a9-a805-20815a46a99d","system_id":"levelo_inurba_marseille","lat":43.30795,"lon":5.4,"is_reserved":false,"is_disabled":false,"rental_uris":{"android":"levelo://app?vid=63679012-d0a0-44a9-a805-20815a46a99d","ios":"levelo://app?vid=63679012-d0a0-44a9-a805-20815a46a99d"},"vehicle_type_id":"4","last_reported":1730985361,"current_range_meters":8000,"station_id":"","pricing_plan_id":"cebpf4jnsgd1na2vs0mg"},{"bike_id":"641f2b17-95bc-47d2-9497-15037a737bd1","system_id":"levelo_inurba_marseille","lat":43.25584,"lon":5.38244,"is_reserved":false,"is_disabled":false,"rental_uris":{"android":"levelo://app?vid=641f2b17-95bc-47d2-9497-15037a737bd1","ios":"levelo://app?vid=641f2b17-95bc-47d2-9497-15037a737bd1"},"vehicle_type_id":"4","last_reported":1730985361,"current_range_meters":30000,"station_id":"ce4bhih2rcd13ifvqfs0","pricing_plan_id":"cebpf4jnsgd1na2vs0mg"},{"bike_id":"d14c4060-5042-4148-9705-719f9fd0a5a7","system_id":"levelo_inurba_marseille","lat":43.24804,"lon":5.37458,"is_reserved":false,"is_disabled":false,"rental_uris":{"android":"levelo://app?vid=d14c4060-5042-4148-9705-719f9fd0a5a7","ios":"levelo://app?vid=d14c4060-5042-4148-9705-719f9fd0a5a7"},"vehicle_type_id":"4","last_reported":1730985361,"current_range_meters":3200,"station_id":"ce4bhgh2rcd13ifvqfb0","pricing_plan_id":"cebpf4jnsgd1na2vs0mg"},{"bike_id":"54e0c3a6-3f5d-46a6-8fc6-6563253655c5","system_id":"levelo_inurba_marseille","lat":43.3014,"lon":5.38791,"is_reserved":false,"is_disabled":false,"rental_uris":{"android":"levelo://app?vid=54e0c3a6-3f5d-46a6-8fc6-6563253655c5","ios":"levelo://app?vid=54e0c3a6-3f5d-46a6-8fc6-6563253655c5"},"vehicle_type_id":"4","last_reported":1730985361,"current_range_meters":30000,"station_id":"ce4bh692rcd13ifvqe90","pricing_plan_id":"cebpf4jnsgd1na2vs0mg"},{"bike_id":"f19e21fc-3fb8-4be5-8aae-3b3f9019566c","system_id":"levelo_inurba_marseille","lat":43.30545,"lon":5.36525,"is_reserved":false,"is_disabled":false,"rental_uris":{"android":"levelo://app?vid=f19e21fc-3fb8-4be5-8aae-3b3f9019566c","ios":"levelo://app?vid=f19e21fc-3fb8-4be5-8aae-3b3f9019566c"},"vehicle_type_id":"4","last_reported":1730985361,"current_range_meters":39200,"station_id":"ce4bgs12rcd13ifvqcag","pricing_plan_id":"cebpf4jnsgd1na2vs0mg"},{"bike_id":"0562544a-b79d-473e-a168-4b06e39e4c5b","system_id":"levelo_inurba_marseille","lat":43.32473,"lon":5.36565,"is_reserved":false,"is_disabled":false,"rental_uris":{"android":"levelo://app?vid=0562544a-b79d-473e-a168-4b06e39e4c5b","ios":"levelo://app?vid=0562544a-b79d-473e-a168-4b06e39e4c5b"},"vehicle_type_id":"4","last_reported":1730985361,"current_range_meters":31200,"station_id":"ce4bhs12rcd13ifvqhvg","pricing_plan_id":"cebpf4jnsgd1na2vs0mg"},{"bike_id":"5176766f-05f0-4984-ac79-a81ebfd9f8b1","system_id":"levelo_inurba_marseille","lat":43.29617,"lon":5.37152,"is_reserved":false,"is_disabled":false,"rental_uris":{"android":"levelo://app?vid=5176766f-05f0-4984-ac79-a81ebfd9f8b1","ios":"levelo://app?vid=5176766f-05f0-4984-ac79-a81ebfd9f8b1"},"vehicle_type_id":"4","last_reported":1730985361,"current_range_meters":32800,"station_id":"ce4bgnh2rcd13ifvqc0g","pricing_plan_id":"cebpf4jnsgd1na2vs0mg"},{"bike_id":"6955bc4d-0983-40d3-908b-0faa4c16a626","system_id":"levelo_inurba_marseille","lat":43.29065,"lon":5.37178,"is_reserved":false,"is_disabled":false,"rental_uris":{"android":"levelo://app?vid=6955bc4d-0983-40d3-908b-0faa4c16a626","ios":"levelo://app?vid=6955bc4d-0983-40d3-908b-0faa4c16a626"},"vehicle_type_id":"4","last_reported":1730985361,"current_range_meters":28800,"station_id":"ce4bh5p2rcd13ifvqe4g","pricing_plan_id":"cebpf4jnsgd1na2vs0mg"},{"bike_id":"0df07d6f-3731-4658-8f4f-c613542b3c1d","system_id":"levelo_inurba_marseille","lat":43.28931,"lon":5.36383,"is_reserved":false,"is_disabled":false,"rental_uris":{"android":"levelo://app?vid=0df07d6f-3731-4658-8f4f-c613542b3c1d","ios":"levelo://app?vid=0df07d6f-3731-4658-8f4f-c613542b3c1d"},"vehicle_type_id":"4","last_reported":1730985361,"current_range_meters":38800,"station_id":"ce4bhc92rcd13ifvqetg","pricing_plan_id":"cebpf4jnsgd1na2vs0mg"},{"bike_id":"036644b3-4035-4b02-b63a-112d8ddce538","system_id":"levelo_inurba_marseille","lat":43.302797,"lon":5.377023,"is_reserved":false,"is_disabled":false,"rental_uris":{"android":"levelo://app?vid=036644b3-4035-4b02-b63a-112d8ddce538","ios":"levelo://app?vid=036644b3-4035-4b02-b63a-112d8ddce538"},"vehicle_type_id":"4","last_reported":1730985361,"current_range_meters":36000,"station_id":"ce4bguh2rcd13ifvqcj0","pricing_plan_id":"cebpf4jnsgd1na2vs0mg"},{"bike_id":"2c6750c8-2253-41d7-ac6a-d7ba5e4c1697","system_id":"levelo_inurba_marseille","lat":43.2858,"lon":5.39494,"is_reserved":false,"is_disabled":false,"rental_uris":{"android":"levelo://app?vid=2c6750c8-2253-41d7-ac6a-d7ba5e4c1697","ios":"levelo://app?vid=2c6750c8-2253-41d7-ac6a-d7ba5e4c1697"},"vehicle_type_id":"4","last_reported":1730985361,"current_range_meters":6000,"station_id":"ce4bh292rcd13ifvqdg0","pricing_plan_id":"cebpf4jnsgd1na2vs0mg"},{"bike_id":"ff60cedb-901b-44e0-8529-d4821f64d50c","system_id":"levelo_inurba_marseille","lat":43.24071,"lon":5.37759,"is_reserved":false,"is_disabled":false,"rental_uris":{"android":"levelo://app?vid=ff60cedb-901b-44e0-8529-d4821f64d50c","ios":"levelo://app?vid=ff60cedb-901b-44e0-8529-d4821f64d50c"},"vehicle_type_id":"4","last_reported":1730985361,"current_range_meters":37600,"station_id":"ce4bhnp2rcd13ifvqgvg","pricing_plan_id":"cebpf4jnsgd1na2vs0mg"},{"bike_id":"cda84aaf-873e-4b9e-854f-520a8da843e6","system_id":"levelo_inurba_marseille","lat":43.30907,"lon":5.36848,"is_reserved":false,"is_disabled":false,"rental_uris":{"android":"levelo://app?vid=cda84aaf-873e-4b9e-854f-520a8da843e6","ios":"levelo://app?vid=cda84aaf-873e-4b9e-854f-520a8da843e6"},"vehicle_type_id":"4","last_reported":1730985361,"current_range_meters":38000,"station_id":"ce4bgn92rcd13ifvqbvg","pricing_plan_id":"cebpf4jnsgd1na2vs0mg"},{"bike_id":"bf89549c-f9ef-47d4-ac5a-c0e49c827009","system_id":"levelo_inurba_marseille","lat":43.27071,"lon":5.42282,"is_reserved":false,"is_disabled":false,"rental_uris":{"android":"levelo://app?vid=bf89549c-f9ef-47d4-ac5a-c0e49c827009","ios":"levelo://app?vid=bf89549c-f9ef-47d4-ac5a-c0e49c827009"},"vehicle_type_id":"4","last_reported":1730985361,"current_range_meters":9600,"station_id":"ce4bhk92rcd13ifvqgb0","pricing_plan_id":"cebpf4jnsgd1na2vs0mg"},{"bike_id":"9c3169c5-7306-4ddc-9f15-d6bb8c9cdea4","system_id":"levelo_inurba_marseille","lat":43.27488,"lon":5.42459,"is_reserved":false,"is_disabled":false,"rental_uris":{"android":"levelo://app?vid=9c3169c5-7306-4ddc-9f15-d6bb8c9cdea4","ios":"levelo://app?vid=9c3169c5-7306-4ddc-9f15-d6bb8c9cdea4"},"vehicle_type_id":"4","last_reported":1730985361,"current_range_meters":28400,"station_id":"ce4bhn92rcd13ifvqgrg","pricing_plan_id":"cebpf4jnsgd1na2vs0mg"},{"bike_id":"745864c2-39c8-45dd-8b55-da9cbe50a5d3","system_id":"levelo_inurba_marseille","lat":43.29516,"lon":5.37503,"is_reserved":false,"is_disabled":false,"rental_uris":{"android":"levelo://app?vid=745864c2-39c8-45dd-8b55-da9cbe50a5d3","ios":"levelo://app?vid=745864c2-39c8-45dd-8b55-da9cbe50a5d3"},"vehicle_type_id":"4","last_reported":1730985361,"current_range_meters":38800,"station_id":"ce4bgkp2rcd13ifvqbmg","pricing_plan_id":"cebpf4jnsgd1na2vs0mg"},{"bike_id":"9af9c25b-33ad-4158-a1cc-079d3f198d97","system_id":"levelo_inurba_marseille","lat":43.27072,"lon":5.42277,"is_reserved":false,"is_disabled":false,"rental_uris":{"android":"levelo://app?vid=9af9c25b-33ad-4158-a1cc-079d3f198d97","ios":"levelo://app?vid=9af9c25b-33ad-4158-a1cc-079d3f198d97"},"vehicle_type_id":"4","last_reported":1730985361,"current_range_meters":14000,"station_id":"ce4bhk92rcd13ifvqgb0","pricing_plan_id":"cebpf4jnsgd1na2vs0mg"},{"bike_id":"f0af1873-117f-4176-988b-7bbf7d14df74","system_id":"levelo_inurba_marseille","lat":43.22928,"lon":5.35377,"is_reserved":false,"is_disabled":false,"rental_uris":{"android":"levelo://app?vid=f0af1873-117f-4176-988b-7bbf7d14df74","ios":"levelo://app?vid=f0af1873-117f-4176-988b-7bbf7d14df74"},"vehicle_type_id":"4","last_reported":1730985361,"current_range_meters":37600,"station_id":"cpo3532slgdg3j2ikp40","pricing_plan_id":"cebpf4jnsgd1na2vs0mg"},{"bike_id":"3432efb2-a10d-427c-a287-16ab67192755","system_id":"levelo_inurba_marseille","lat":43.30235,"lon":5.39038,"is_reserved":false,"is_disabled":false,"rental_uris":{"android":"levelo://app?vid=3432efb2-a10d-427c-a287-16ab67192755","ios":"levelo://app?vid=3432efb2-a10d-427c-a287-16ab67192755"},"vehicle_type_id":"4","last_reported":1730985361,"current_range_meters":19600,"station_id":"","pricing_plan_id":"cebpf4jnsgd1na2vs0mg"},{"bike_id":"ac1d1755-24cd-43c6-9e2f-6377c075f897","system_id":"levelo_inurba_marseille","lat":43.2558,"lon":5.38233,"is_reserved":false,"is_disabled":false,"rental_uris":{"android":"levelo://app?vid=ac1d1755-24cd-43c6-9e2f-6377c075f897","ios":"levelo://app?vid=ac1d1755-24cd-43c6-9e2f-6377c075f897"},"vehicle_type_id":"4","last_reported":1730985361,"current_range_meters":9200,"station_id":"ce4bhih2rcd13ifvqfs0","pricing_plan_id":"cebpf4jnsgd1na2vs0mg"},{"bike_id":"97388f91-2be9-453c-b668-a737022f5a3f","system_id":"levelo_inurba_marseille","lat":43.29035,"lon":5.39961,"is_reserved":false,"is_disabled":false,"rental_uris":{"android":"levelo://app?vid=97388f91-2be9-453c-b668-a737022f5a3f","ios":"levelo://app?vid=97388f91-2be9-453c-b668-a737022f5a3f"},"vehicle_type_id":"4","last_reported":1730985361,"current_range_meters":28000,"station_id":"ce4bh392rcd13ifvqdm0","pricing_plan_id":"cebpf4jnsgd1na2vs0mg"},{"bike_id":"cfc11eb8-a50b-404c-83f1-c085a52452f6","system_id":"levelo_inurba_marseille","lat":43.29567,"lon":5.37515,"is_reserved":false,"is_disabled":false,"rental_uris":{"android":"levelo://app?vid=cfc11eb8-a50b-404c-83f1-c085a52452f6","ios":"levelo://app?vid=cfc11eb8-a50b-404c-83f1-c085a52452f6"},"vehicle_type_id":"4","last_reported":1730985361,"current_range_meters":10800,"station_id":"ce4bgh92rcd13ifvqb50","pricing_plan_id":"cebpf4jnsgd1na2vs0mg"},{"bike_id":"0fc64b37-6624-444f-8695-2eaf2bfde4b7","system_id":"levelo_inurba_marseille","lat":43.31229,"lon":5.36859,"is_reserved":false,"is_disabled":false,"rental_uris":{"android":"levelo://app?vid=0fc64b37-6624-444f-8695-2eaf2bfde4b7","ios":"levelo://app?vid=0fc64b37-6624-444f-8695-2eaf2bfde4b7"},"vehicle_type_id":"4","last_reported":1730985361,"current_range_meters":19200,"station_id":"ce4bgl92rcd13ifvqbq0","pricing_plan_id":"cebpf4jnsgd1na2vs0mg"},{"bike_id":"1ed4b874-bdae-43c6-98a8-b3cf65705ae8","system_id":"levelo_inurba_marseille","lat":43.23151,"lon":5.43724,"is_reserved":false,"is_disabled":false,"rental_uris":{"android":"levelo://app?vid=1ed4b874-bdae-43c6-98a8-b3cf65705ae8","ios":"levelo://app?vid=1ed4b874-bdae-43c6-98a8-b3cf65705ae8"},"vehicle_type_id":"4","last_reported":1730985361,"current_range_meters":16400,"station_id":"ce4bhmp2rcd13ifvqgog","pricing_plan_id":"cebpf4jnsgd1na2vs0mg"},{"bike_id":"8584aebc-79b3-441e-8934-780c18b10cfa","system_id":"levelo_inurba_marseille","lat":43.29976,"lon":5.37184,"is_reserved":false,"is_disabled":false,"rental_uris":{"android":"levelo://app?vid=8584aebc-79b3-441e-8934-780c18b10cfa","ios":"levelo://app?vid=8584aebc-79b3-441e-8934-780c18b10cfa"},"vehicle_type_id":"4","last_reported":1730985361,"current_range_meters":14000,"station_id":"ce4bgr92rcd13ifvqc7g","pricing_plan_id":"cebpf4jnsgd1na2vs0mg"},{"bike_id":"5aa2eeb1-0b88-4c0a-8b4a-d066526c3725","system_id":"levelo_inurba_marseille","lat":43.24388,"lon":5.37054,"is_reserved":false,"is_disabled":false,"rental_uris":{"android":"levelo://app?vid=5aa2eeb1-0b88-4c0a-8b4a-d066526c3725","ios":"levelo://app?vid=5aa2eeb1-0b88-4c0a-8b4a-d066526c3725"},"vehicle_type_id":"4","last_reported":1730985361,"current_range_meters":15200,"station_id":"ce4bhhh2rcd13ifvqfk0","pricing_plan_id":"cebpf4jnsgd1na2vs0mg"},{"bike_id":"a19386dd-e1d1-4cdc-86fa-57e465ba9fd4","system_id":"levelo_inurba_marseille","lat":43.29087,"lon":5.38137,"is_reserved":false,"is_disabled":false,"rental_uris":{"android":"levelo://app?vid=a19386dd-e1d1-4cdc-86fa-57e465ba9fd4","ios":"levelo://app?vid=a19386dd-e1d1-4cdc-86fa-57e465ba9fd4"},"vehicle_type_id":"4","last_reported":1730985361,"current_range_meters":33200,"station_id":"ce4bh512rcd13ifvqe2g","pricing_plan_id":"cebpf4jnsgd1na2vs0mg"},{"bike_id":"c0cd4c56-8008-47bf-9ddc-fc31b7c69a28","system_id":"levelo_inurba_marseille","lat":43.28845,"lon":5.39327,"is_reserved":false,"is_disabled":false,"rental_uris":{"android":"levelo://app?vid=c0cd4c56-8008-47bf-9ddc-fc31b7c69a28","ios":"levelo://app?vid=c0cd4c56-8008-47bf-9ddc-fc31b7c69a28"},"vehicle_type_id":"4","last_reported":1730985361,"current_range_meters":25600,"station_id":"ce4bh2p2rcd13ifvqdi0","pricing_plan_id":"cebpf4jnsgd1na2vs0mg"},{"bike_id":"d3483d93-a7bc-4997-81cd-931db08f99b7","system_id":"levelo_inurba_marseille","lat":43.295736,"lon":5.375194,"is_reserved":false,"is_disabled":false,"rental_uris":{"android":"levelo://app?vid=d3483d93-a7bc-4997-81cd-931db08f99b7","ios":"levelo://app?vid=d3483d93-a7bc-4997-81cd-931db08f99b7"},"vehicle_type_id":"4","last_reported":1730985361,"current_range_meters":24400,"station_id":"ce4bh4p2rcd13ifvqe1g","pricing_plan_id":"cebpf4jnsgd1na2vs0mg"},{"bike_id":"981c02af-8dd2-4356-ba2b-b50f2976535a","system_id":"levelo_inurba_marseille","lat":43.337444,"lon":5.374475,"is_reserved":false,"is_disabled":false,"rental_uris":{"android":"levelo://app?vid=981c02af-8dd2-4356-ba2b-b50f2976535a","ios":"levelo://app?vid=981c02af-8dd2-4356-ba2b-b50f2976535a"},"vehicle_type_id":"4","last_reported":1730985361,"current_range_meters":38800,"station_id":"ce4bh012rcd13ifvqcv0","pricing_plan_id":"cebpf4jnsgd1na2vs0mg"},{"bike_id":"d3e54780-ddfb-432e-bfd3-55d19e8c43c8","system_id":"levelo_inurba_marseille","lat":43.31756,"lon":5.39021,"is_reserved":false,"is_disabled":false,"rental_uris":{"android":"levelo://app?vid=d3e54780-ddfb-432e-bfd3-55d19e8c43c8","ios":"levelo://app?vid=d3e54780-ddfb-432e-bfd3-55d19e8c43c8"},"vehicle_type_id":"4","last_reported":1730985361,"current_range_meters":31200,"station_id":"ce4bhqp2rcd13ifvqhng","pricing_plan_id":"cebpf4jnsgd1na2vs0mg"},{"bike_id":"9c1cae5d-1e19-41ab-a284-42410761399c","system_id":"levelo_inurba_marseille","lat":43.31712,"lon":5.43705,"is_reserved":false,"is_disabled":false,"rental_uris":{"android":"levelo://app?vid=9c1cae5d-1e19-41ab-a284-42410761399c","ios":"levelo://app?vid=9c1cae5d-1e19-41ab-a284-42410761399c"},"vehicle_type_id":"4","last_reported":1730985361,"current_range_meters":38800,"station_id":"ce4bhp92rcd13ifvqhcg","pricing_plan_id":"cebpf4jnsgd1na2vs0mg"},{"bike_id":"27c19e94-1e8c-42d1-a268-14ca74dc6d7c","system_id":"levelo_inurba_marseille","lat":43.30327,"lon":5.4043,"is_reserved":false,"is_disabled":false,"rental_uris":{"android":"levelo://app?vid=27c19e94-1e8c-42d1-a268-14ca74dc6d7c","ios":"levelo://app?vid=27c19e94-1e8c-42d1-a268-14ca74dc6d7c"},"vehicle_type_id":"4","last_reported":1730985361,"current_range_meters":24800,"station_id":"ce4bh012rcd13ifvqd10","pricing_plan_id":"cebpf4jnsgd1na2vs0mg"},{"bike_id":"647bb081-3c19-41ba-a02f-a775c8a26f1f","system_id":"levelo_inurba_marseille","lat":43.29724,"lon":5.37699,"is_reserved":false,"is_disabled":false,"rental_uris":{"android":"levelo://app?vid=647bb081-3c19-41ba-a02f-a775c8a26f1f","ios":"levelo://app?vid=647bb081-3c19-41ba-a02f-a775c8a26f1f"},"vehicle_type_id":"4","last_reported":1730985361,"current_range_meters":36400,"station_id":"ce4bgkh2rcd13ifvqbl0","pricing_plan_id":"cebpf4jnsgd1na2vs0mg"},{"bike_id":"b5b7e5eb-7875-4ce5-8d39-95d8d16f4f19","system_id":"levelo_inurba_marseille","lat":43.2466,"lon":5.38165,"is_reserved":false,"is_disabled":false,"rental_uris":{"android":"levelo://app?vid=b5b7e5eb-7875-4ce5-8d39-95d8d16f4f19","ios":"levelo://app?vid=b5b7e5eb-7875-4ce5-8d39-95d8d16f4f19"},"vehicle_type_id":"4","last_reported":1730985361,"current_range_meters":20400,"station_id":"ce4bhih2rcd13ifvqfr0","pricing_plan_id":"cebpf4jnsgd1na2vs0mg"},{"bike_id":"e11f2957-c866-431f-b50b-d0178644b09f","system_id":"levelo_inurba_marseille","lat":43.2318,"lon":5.3999,"is_reserved":false,"is_disabled":false,"rental_uris":{"android":"levelo://app?vid=e11f2957-c866-431f-b50b-d0178644b09f","ios":"levelo://app?vid=e11f2957-c866-431f-b50b-d0178644b09f"},"vehicle_type_id":"4","last_reported":1730985361,"current_range_meters":26000,"station_id":"ce4bhn12rcd13ifvqgqg","pricing_plan_id":"cebpf4jnsgd1na2vs0mg"},{"bike_id":"16011c9c-19c1-4efc-a082-96549931df21","system_id":"levelo_inurba_marseille","lat":43.3021,"lon":5.39472,"is_reserved":false,"is_disabled":false,"rental_uris":{"android":"levelo://app?vid=16011c9c-19c1-4efc-a082-96549931df21","ios":"levelo://app?vid=16011c9c-19c1-4efc-a082-96549931df21"},"vehicle_type_id":"4","last_reported":1730985361,"current_range_meters":39200,"station_id":"ce4bh0p2rcd13ifvqd70","pricing_plan_id":"cebpf4jnsgd1na2vs0mg"},{"bike_id":"1c22f66d-906c-4647-9cec-30e0993f7b15","system_id":"levelo_inurba_marseille","lat":43.28701,"lon":5.37412,"is_reserved":false,"is_disabled":false,"rental_uris":{"android":"levelo://app?vid=1c22f66d-906c-4647-9cec-30e0993f7b15","ios":"levelo://app?vid=1c22f66d-906c-4647-9cec-30e0993f7b15"},"vehicle_type_id":"4","last_reported":1730985361,"current_range_meters":17600,"station_id":"ce4bh3p2rcd13ifvqdq0","pricing_plan_id":"cebpf4jnsgd1na2vs0mg"},{"bike_id":"92bfdb81-1ac2-4e23-9e47-9d5b1f837dde","system_id":"levelo_inurba_marseille","lat":43.30534,"lon":5.36532,"is_reserved":false,"is_disabled":false,"rental_uris":{"android":"levelo://app?vid=92bfdb81-1ac2-4e23-9e47-9d5b1f837dde","ios":"levelo://app?vid=92bfdb81-1ac2-4e23-9e47-9d5b1f837dde"},"vehicle_type_id":"4","last_reported":1730985361,"current_range_meters":17600,"station_id":"ce4bgs12rcd13ifvqcag","pricing_plan_id":"cebpf4jnsgd1na2vs0mg"},{"bike_id":"0890b25c-eb6d-4ffb-9cc8-6aa1888c070a","system_id":"levelo_inurba_marseille","lat":43.29786,"lon":5.39345,"is_reserved":false,"is_disabled":false,"rental_uris":{"android":"levelo://app?vid=0890b25c-eb6d-4ffb-9cc8-6aa1888c070a","ios":"levelo://app?vid=0890b25c-eb6d-4ffb-9cc8-6aa1888c070a"},"vehicle_type_id":"4","last_reported":1730985361,"current_range_meters":8400,"station_id":"chh1huq6cuj3fo74tm60","pricing_plan_id":"cebpf4jnsgd1na2vs0mg"},{"bike_id":"8befa393-3872-493a-9a5d-6005d6827670","system_id":"levelo_inurba_marseille","lat":43.33714,"lon":5.39181,"is_reserved":false,"is_disabled":false,"rental_uris":{"android":"levelo://app?vid=8befa393-3872-493a-9a5d-6005d6827670","ios":"levelo://app?vid=8befa393-3872-493a-9a5d-6005d6827670"},"vehicle_type_id":"4","last_reported":1730985361,"current_range_meters":32400,"station_id":"ce4bhr92rcd13ifvqhsg","pricing_plan_id":"cebpf4jnsgd1na2vs0mg"},{"bike_id":"9fc49755-493e-4943-ba82-79480e8185c0","system_id":"levelo_inurba_marseille","lat":43.25498,"lon":5.37652,"is_reserved":false,"is_disabled":false,"rental_uris":{"android":"levelo://app?vid=9fc49755-493e-4943-ba82-79480e8185c0","ios":"levelo://app?vid=9fc49755-493e-4943-ba82-79480e8185c0"},"vehicle_type_id":"4","last_reported":1730985361,"current_range_meters":28000,"station_id":"ce4bhh12rcd13ifvqff0","pricing_plan_id":"cebpf4jnsgd1na2vs0mg"},{"bike_id":"a101278a-32b1-40a9-b8fe-b9423f97a586","system_id":"levelo_inurba_marseille","lat":43.30595,"lon":5.39355,"is_reserved":false,"is_disabled":false,"rental_uris":{"android":"levelo://app?vid=a101278a-32b1-40a9-b8fe-b9423f97a586","ios":"levelo://app?vid=a101278a-32b1-40a9-b8fe-b9423f97a586"},"vehicle_type_id":"4","last_reported":1730985361,"current_range_meters":32000,"station_id":"ce4bh0p2rcd13ifvqd80","pricing_plan_id":"cebpf4jnsgd1na2vs0mg"},{"bike_id":"3849e2c7-006f-4b98-8d2e-5ac2da9bb9e2","system_id":"levelo_inurba_marseille","lat":43.26209,"lon":5.37442,"is_reserved":false,"is_disabled":false,"rental_uris":{"android":"levelo://app?vid=3849e2c7-006f-4b98-8d2e-5ac2da9bb9e2","ios":"levelo://app?vid=3849e2c7-006f-4b98-8d2e-5ac2da9bb9e2"},"vehicle_type_id":"4","last_reported":1730985361,"current_range_meters":14800,"station_id":"ce4bhgp2rcd13ifvqfc0","pricing_plan_id":"cebpf4jnsgd1na2vs0mg"},{"bike_id":"164d2af1-ca60-47d4-9935-4e56683dd060","system_id":"levelo_inurba_marseille","lat":43.34141,"lon":5.409,"is_reserved":false,"is_disabled":false,"rental_uris":{"android":"levelo://app?vid=164d2af1-ca60-47d4-9935-4e56683dd060","ios":"levelo://app?vid=164d2af1-ca60-47d4-9935-4e56683dd060"},"vehicle_type_id":"4","last_reported":1730985361,"current_range_meters":28400,"station_id":"ce4bhqh2rcd13ifvqhlg","pricing_plan_id":"cebpf4jnsgd1na2vs0mg"},{"bike_id":"c7dad4c2-9ad8-44e1-802e-2d874f0d02c4","system_id":"levelo_inurba_marseille","lat":43.28274,"lon":5.35066,"is_reserved":false,"is_disabled":false,"rental_uris":{"android":"levelo://app?vid=c7dad4c2-9ad8-44e1-802e-2d874f0d02c4","ios":"levelo://app?vid=c7dad4c2-9ad8-44e1-802e-2d874f0d02c4"},"vehicle_type_id":"4","last_reported":1730985361,"current_range_meters":34800,"station_id":"ce4bhbp2rcd13ifvqerg","pricing_plan_id":"cebpf4jnsgd1na2vs0mg"},{"bike_id":"c5aff4f4-4452-4f7b-9855-a52a5e05b4ad","system_id":"levelo_inurba_marseille","lat":43.27993,"lon":5.41663,"is_reserved":false,"is_disabled":false,"rental_uris":{"android":"levelo://app?vid=c5aff4f4-4452-4f7b-9855-a52a5e05b4ad","ios":"levelo://app?vid=c5aff4f4-4452-4f7b-9855-a52a5e05b4ad"},"vehicle_type_id":"4","last_reported":1730985361,"current_range_meters":38800,"station_id":"ce4bho12rcd13ifvqh1g","pricing_plan_id":"cebpf4jnsgd1na2vs0mg"},{"bike_id":"e822e0c9-24dc-4dc5-b15d-8ba138d409d7","system_id":"levelo_inurba_marseille","lat":43.29941,"lon":5.37486,"is_reserved":false,"is_disabled":false,"rental_uris":{"android":"levelo://app?vid=e822e0c9-24dc-4dc5-b15d-8ba138d409d7","ios":"levelo://app?vid=e822e0c9-24dc-4dc5-b15d-8ba138d409d7"},"vehicle_type_id":"4","last_reported":1730985361,"current_range_meters":38800,"station_id":"ce4bgjh2rcd13ifvqbg0","pricing_plan_id":"cebpf4jnsgd1na2vs0mg"},{"bike_id":"e6e153aa-0239-43ea-a4a9-d0b077af47c9","system_id":"levelo_inurba_marseille","lat":43.26949,"lon":5.3864,"is_reserved":false,"is_disabled":false,"rental_uris":{"android":"levelo://app?vid=e6e153aa-0239-43ea-a4a9-d0b077af47c9","ios":"levelo://app?vid=e6e153aa-0239-43ea-a4a9-d0b077af47c9"},"vehicle_type_id":"4","last_reported":1730985361,"current_range_meters":26800,"station_id":"ce4bhh92rcd13ifvqfh0","pricing_plan_id":"cebpf4jnsgd1na2vs0mg"},{"bike_id":"0e0aa953-ce04-478d-bf26-e5f223f30f5e","system_id":"levelo_inurba_marseille","lat":43.30535,"lon":5.36527,"is_reserved":false,"is_disabled":false,"rental_uris":{"android":"levelo://app?vid=0e0aa953-ce04-478d-bf26-e5f223f30f5e","ios":"levelo://app?vid=0e0aa953-ce04-478d-bf26-e5f223f30f5e"},"vehicle_type_id":"4","last_reported":1730985361,"current_range_meters":38800,"station_id":"ce4bgs12rcd13ifvqcag","pricing_plan_id":"cebpf4jnsgd1na2vs0mg"},