{"last_updated":1751065854,"ttl":60,"version":"2.2","data":{"bikes":[{"bike_id":"3da29fb8-fc97-44c6-b9ac-31dd456b2fd4","system_id":"levelo_inurba_marseille","lat":43.33771,"lon":5.37424,"is_reserved":false,"is_disabled":true,"rental_uris":{"android":"levelo://app?vid=3da29fb8-fc97-44c6-b9ac-31dd456b2fd4","ios":"levelo://app?vid=3da29fb8-fc97-44c6-b9ac-31dd456b2fd4"},"vehicle_type_id":"4","last_reported":1751065854,"current_range_meters":0,"station_id":"","pricing_plan_id":"cebpf4jnsgd1na2vs0mg"},{"bike_id":"01861ad8-a8d7-4be6-816e-651927c87584","system_id":"levelo_inurba_marseille","lat":43.33751,"lon":5.37456,"is_reserved":false,"is_disabled":true,"rental_uris":{"android":"levelo://app?vid=01861ad8-a8d7-4be6-816e-651927c87584","ios":"levelo://app?vid=01861ad8-a8d7-4be6-816e-651927c87584"},"vehicle_type_id":"4","last_reported":1751065854,"current_range_meters":0,"station_id":"","pricing_plan_id":"cebpf4jnsgd1na2vs0mg"},{"bike_id":"d527aaef-dd77-4d55-8a3e-faf748ebc665","system_id":"levelo_inurba_marseille","lat":43.26141,"lon":5.41733,"is_reserved":false,"is_disabled":true,"rental_uris":{"android":"levelo://app?vid=d527aaef-dd77-4d55-8a3e-faf748ebc665","ios":"levelo://app?vid=d527aaef-dd77-4d55-8a3e-faf748ebc665"},"vehicle_type_id":"4","last_reported":1751065854,"current_range_meters":0,"station_id":"","pricing_plan_id":"cebpf4jnsgd1na2vs0mg"},{"bike_id":"a147e67d-e0b1-425e-bbda-ae9524df353e","system_id":"levelo_inurba_marseille","lat":43.337541,"lon":5.374577,"is_reserved":false,"is_disabled":true,"rental_uris":{"android":"levelo://app?vid=a147e67d-e0b1-425e-bbda-ae9524df353e","ios":"levelo://app?vid=a147e67d-e0b1-425e-bbda-ae9524df353e"},"vehicle_type_id":"4","last_reported":1751065854,"current_range_meters":0,"station_id":"","pricing_plan_id":"cebpf4jnsgd1na2vs0mg"},{"bike_id":"2c5ab5ef-6e3c-47bf-9405-4e96ff645858","system_id":"levelo_inurba_marseille","lat":43.34034,"lon":5.429,"is_reserved":false,"is_disabled":true,"rental_uris":{"android":"levelo://app?vid=2c5ab5ef-6e3c-47bf-9405-4e96ff645858","ios":"levelo://app?vid=2c5ab5ef-6e3c-47bf-9405-4e96ff645858"},"vehicle_type_id":"4","last_reported":1751065854,"current_range_meters":0,"station_id":"","pricing_plan_id":"cebpf4jnsgd1na2vs0mg"},{"bike_id":"67a5051a-b32e-408a-8389-c22b54eb81f6","system_id":"levelo_inurba_marseille","lat":43.33045,"lon":5.456032,"is_reserved":false,"is_disabled":true,"rental_uris":{"android":"levelo://app?vid=67a5051a-b32e-408a-8389-c22b54eb81f6","ios":"levelo://app?vid=67a5051a-b32e-408a-8389-c22b54eb81f6"},"vehicle_type_id":"4","last_reported":1751065854,"current_range_meters":0,"station_id":"","pricing_plan_id":"cebpf4jnsgd1na2vs0mg"},{"bike_id":"4d064f95-6dcb-4234-9e98-7c70fbb74351","system_id":"levelo_inurba_marseille","lat":43.337444,"lon":5.374475,"is_reserved":false,"is_disabled":true,"rental_uris":{"android":"levelo://app?vid=4d064f95-6dcb-4234-9e98-7c70fbb74351","ios":"levelo://app?vid=4d064f95-6dcb-4234-9e98-7c70fbb74351"},"vehicle_type_id":"4","last_reported":1751065854,"current_range_meters":0,"station_id":"","pricing_plan_id":"cebpf4jnsgd1na2vs0mg"},{"bike_id":"77673b0f-fa8d-4a5f-802e-e3125964cb45","system_id":"levelo_inurba_marseille","lat":43.34813,"lon":5.3591,"is_reserved":false,"is_disabled":true,"rental_uris":{"android":"levelo://app?vid=77673b0f-fa8d-4a5f-802e-e3125964cb45","ios":"levelo://app?vid=77673b0f-fa8d-4a5f-802e-e3125964cb45"},"vehicle_type_id":"4","last_reported":1751065854,"current_range_meters":0,"station_id":"","pricing_plan_id":"cebpf4jnsgd1na2vs0mg"},{"bike_id":"446c66be-a677-44c2-9116-79a23398a824","system_id":"levelo_inurba_marseille","lat":43.276422,"lon":5.431763,"is_reserved":false,"is_disabled":true,"rental_uris":{"android":"levelo://app?vid=446c66be-a677-44c2-9116-79a23398a824","ios":"levelo://app?vid=446c66be-a677-44c2-9116-79a23398a824"},"vehicle_type_id":"4","last_reported":1751065854,"current_range_meters":0,"station_id":"","pricing_plan_id":"cebpf4jnsgd1na2vs0mg"},{"bike_id":"a86d2f9f-83d8-4f17-8422-d08e982c4a2a","system_id":"levelo_inurba_marseille","lat":43.29806,"lon":5.44827,"is_reserved":false,"is_disabled":true,"rental_uris":{"android":"levelo://app?vid=a86d2f9f-83d8-4f17-8422-d08e982c4a2a","ios":"levelo://app?vid=a86d2f9f-83d8-4f17-8422-d08e982c4a2a"},"vehicle_type_id":"4","last_reported":1751065854,"current_range_meters":0,"station_id":"","pricing_plan_id":"cebpf4jnsgd1na2vs0mg"},{"bike_id":"2315c627-494e-41a8-a12f-403d40de57ef","system_id":"levelo_inurba_marseille","lat":43.30118,"lon":5.40382,"is_reserved":false,"is_disabled":true,"rental_uris":{"android":"levelo://app?vid=2315c627-494e-41a8-a12f-403d40de57ef","ios":"levelo://app?vid=2315c627-494e-41a8-a12f-403d40de57ef"},"vehicle_type_id":"4","last_reported":1751065854,"current_range_meters":0,"station_id":"","pricing_plan_id":"cebpf4jnsgd1na2vs0mg"},{"bike_id":"a1ae4fee-cbeb-43dc-a969-5827f87e448d","system_id":"levelo_inurba_marseille","lat":43.37937,"lon":5.35758,"is_reserved":false,"is_disabled":true,"rental_uris":{"android":"levelo://app?vid=a1ae4fee-cbeb-43dc-a969-5827f87e448d","ios":"levelo://app?vid=a1ae4fee-cbeb-43dc-a969-5827f87e448d"},"vehicle_type_id":"4","last_reported":1751065854,"current_range_meters":0,"station_id":"","pricing_plan_id":"cebpf4jnsgd1na2vs0mg"},{"bike_id":"d6609b4f-333b-43c1-9ebe-8726f5e76e88","system_id":"levelo_inurba_marseille","lat":43.337444,"lon":5.374475,"is_reserved":false,"is_disabled":true,"rental_uris":{"android":"levelo://app?vid=d6609b4f-333b-43c1-9ebe-8726f5e76e88","ios":"levelo://app?vid=d6609b4f-333b-43c1-9ebe-8726f5e76e88"},"vehicle_type_id":"4","last_reported":1751065854,"current_range_meters":0,"station_id":"","pricing_plan_id":"cebpf4jnsgd1na2vs0mg"},{"bike_id":"b17b6606-336a-4606-9b65-af139c49de26","system_id":"levelo_inurba_marseille","lat":43.25684,"lon":5.42705,"is_reserved":false,"is_disabled":true,"rental_uris":{"android":"levelo://app?vid=b17b6606-336a-4606-9b65-af139c49de26","ios":"levelo://app?vid=b17b6606-336a-4606-9b65-af139c49de26"},"vehicle_type_id":"4","last_reported":1751065854,"current_range_meters":0,"station_id":"","pricing_plan_id":"cebpf4jnsgd1na2vs0mg"},{"bike_id":"9d3724b1-0dc8-4689-9d6a-55005a9503cb","system_id":"levelo_inurba_marseille","lat":43.28615,"lon":5.4282,"is_reserved":false,"is_disabled":true,"rental_uris":{"android":"levelo://app?vid=9d3724b1-0dc8-4689-9d6a-55005a9503cb","ios":"levelo://app?vid=9d3724b1-0dc8-4689-9d6a-55005a9503cb"},"vehicle_type_id":"4","last_reported":1751065854,"current_range_meters":0,"station_id":"","pricing_plan_id":"cebpf4jnsgd1na2vs0mg"},{"bike_id":"f0144160-7431-4fa9-8143-da96a800681e","system_id":"levelo_inurba_marseille","lat":43.29525,"lon":5.38547,"is_reserved":false,"is_disabled":true,"rental_uris":{"android":"levelo://app?vid=f0144160-7431-4fa9-8143-da96a800681e","ios":"levelo://app?vid=f0144160-7431-4fa9-8143-da96a800681e"},"vehicle_type_id":"4","last_reported":1751065854,"current_range_meters":0,"station_id":"ce4bgih2rcd13ifvqba0","pricing_plan_id":"cebpf4jnsgd1na2vs0mg"},{"bike_id":"db230da8-7069-44cc-a618-f863436285c0","system_id":"levelo_inurba_marseille","lat":43.29608,"lon":5.38104,"is_reserved":false,"is_disabled":true,"rental_uris":{"android":"levelo://app?vid=db230da8-7069-44cc-a618-f863436285c0","ios":"levelo://app?vid=db230da8-7069-44cc-a618-f863436285c0"},"vehicle_type_id":"4","last_reported":1751065854,"current_range_meters":0,"station_id":"ce4bgl12rcd13ifvqbo0","pricing_plan_id":"cebpf4jnsgd1na2vs0mg"},{"bike_id":"d822dd0a-4187-4928-aeb1-9f792adafb4b","system_id":"levelo_inurba_marseille","lat":43.2902,"lon":5.38648,"is_reserved":false,"is_disabled":true,"rental_uris":{"android":"levelo://app?vid=d822dd0a-4187-4928-aeb1-9f792adafb4b","ios":"levelo://app?vid=d822dd0a-4187-4928-aeb1-9f792adafb4b"},"vehicle_type_id":"4","last_reported":1751065854,"current_range_meters":0,"station_id":"ce4bh4p2rcd13ifvqe0g","pricing_plan_id":"cebpf4jnsgd1na2vs0mg"},{"bike_id":"e5601b76-beb0-4dc6-8005-e277cfabedfa","system_id":"levelo_inurba_marseille","lat":43.29265,"lon":5.38439,"is_reserved":false,"is_disabled":true,"rental_uris":{"android":"levelo://app?vid=e5601b76-beb0-4dc6-8005-e277cfabedfa","ios":"levelo://app?vid=e5601b76-beb0-4dc6-8005-e277cfabedfa"},"vehicle_type_id":"4","last_reported":1751065854,"current_range_meters":0,"station_id":"ce4bh692rcd13ifvqea0","pricing_plan_id":"cebpf4jnsgd1na2vs0mg"},{"bike_id":"271a5da5-4035-470a-ba7c-aa58268e9930","system_id":"levelo_inurba_marseille","lat":43.21742,"lon":5.34605,"is_reserved":false,"is_disabled":true,"rental_uris":{"android":"levelo://app?vid=271a5da5-4035-470a-ba7c-aa58268e9930","ios":"levelo://app?vid=271a5da5-4035-470a-ba7c-aa58268e9930"},"vehicle_type_id":"4","last_reported":1751065854,"current_range_meters":0,"station_id":"ce4bhgh2rcd13ifvqfb0","pricing_plan_id":"cebpf4jnsgd1na2vs0mg"},{"bike_id":"29ec4185-f87e-45a2-91e6-759a1d934b1c","system_id":"levelo_inurba_marseille","lat":43.217469,"lon":5.346058,"is_reserved":false,"is_disabled":true,"rental_uris":{"android":"levelo://app?vid=29ec4185-f87e-45a2-91e6-759a1d934b1c","ios":"levelo://app?vid=29ec4185-f87e-45a2-91e6-759a1d934b1c"},"vehicle_type_id":"4","last_reported":1751065854,"current_range_meters":0,"station_id":"st_cvj6r9ubvosntc0bgbag","pricing_plan_id":"cebpf4jnsgd1na2vs0mg"},{"bike_id":"4af02f6b-f73c-4520-be37-7732ed82367a","system_id":"levelo_inurba_marseille","lat":43.28404,"lon":5.37525,"is_reserved":false,"is_disabled":true,"rental_uris":{"android":"levelo://app?vid=4af02f6b-f73c-4520-be37-7732ed82367a","ios":"levelo://app?vid=4af02f6b-f73c-4520-be37-7732ed82367a"},"vehicle_type_id":"4","last_reported":1751065854,"current_range_meters":400,"station_id":"ce4bh412rcd13ifvqds0","pricing_plan_id":"cebpf4jnsgd1na2vs0mg"},{"bike_id":"fe30fcfd-3599-4913-8af4-362e6979d3c4","system_id":"levelo_inurba_marseille","lat":43.31081,"lon":5.4243,"is_reserved":false,"is_disabled":true,"rental_uris":{"android":"levelo://app?vid=fe30fcfd-3599-4913-8af4-362e6979d3c4","ios":"levelo://app?vid=fe30fcfd-3599-4913-8af4-362e6979d3c4"},"vehicle_type_id":"4","last_reported":1751065854,"current_range_meters":400,"station_id":"ce4bhp92rcd13ifvqhag","pricing_plan_id":"cebpf4jnsgd1na2vs0mg"},{"bike_id":"f7458c08-0016-4c0a-87ab-e5383230060b","system_id":"levelo_inurba_marseille","lat":43.280412,"lon":5.356537,"is_reserved":false,"is_disabled":true,"rental_uris":{"android":"levelo://app?vid=f7458c08-0016-4c0a-87ab-e5383230060b","ios":"levelo://app?vid=f7458c08-0016-4c0a-87ab-e5383230060b"},"vehicle_type_id":"4","last_reported":1751065854,"current_range_meters":800,"station_id":"","pricing_plan_id":"cebpf4jnsgd1na2vs0mg"},{"bike_id":"3cb4bb73-cb56-407e-bb1c-780a36e59603","system_id":"levelo_inurba_marseille","lat":43.29571,"lon":5.37526,"is_reserved":false,"is_disabled":true,"rental_uris":{"android":"levelo://app?vid=3cb4bb73-cb56-407e-bb1c-780a36e59603","ios":"levelo://app?vid=3cb4bb73-cb56-407e-bb1c-780a36e59603"},"vehicle_type_id":"4","last_reported":1751065854,"current_range_meters":800,"station_id":"ce4bgh92rcd13ifvqb50","pricing_plan_id":"cebpf4jnsgd1na2vs0mg"},{"bike_id":"aa47192c-a612-45f5-be58-385baa01ad3a","system_id":"levelo_inurba_marseille","lat":43.29533,"lon":5.38544,"is_reserved":false,"is_disabled":true,"rental_uris":{"android":"levelo://app?vid=aa47192c-a612-45f5-be58-385baa01ad3a","ios":"levelo://app?vid=aa47192c-a612-45f5-be58-385baa01ad3a"},"vehicle_type_id":"4","last_reported":1751065854,"current_range_meters":800,"station_id":"ce4bgih2rcd13ifvqba0","pricing_plan_id":"cebpf4jnsgd1na2vs0mg"},{"bike_id":"fb30bafe-ced9-4f0a-9b95-95676e25c5cd","system_id":"levelo_inurba_marseille","lat":43.30304,"lon":5.39211,"is_reserved":false,"is_disabled":true,"rental_uris":{"android":"levelo://app?vid=fb30bafe-ced9-4f0a-9b95-95676e25c5cd","ios":"levelo://app?vid=fb30bafe-ced9-4f0a-9b95-95676e25c5cd"},"vehicle_type_id":"4","last_reported":1751065854,"current_range_meters":800,"station_id":"ce4bgkh2rcd13ifvqbk0","pricing_plan_id":"cebpf4jnsgd1na2vs0mg"},{"bike_id":"3248b39a-759e-4902-8d30-2d37fa51b694","system_id":"levelo_inurba_marseille","lat":43.25493,"lon":5.3765,"is_reserved":false,"is_disabled":true,"rental_uris":{"android":"levelo://app?vid=3248b39a-759e-4902-8d30-2d37fa51b694","ios":"levelo://app?vid=3248b39a-759e-4902-8d30-2d37fa51b694"},"vehicle_type_id":"4","last_reported":1751065854,"current_range_meters":800,"station_id":"ce4bhh12rcd13ifvqff0","pricing_plan_id":"cebpf4jnsgd1na2vs0mg"},{"bike_id":"43e068dd-02c8-47d0-8ac8-213f410db2ca","system_id":"levelo_inurba_marseille","lat":43.278597,"lon":5.391932,"is_reserved":false,"is_disabled":true,"rental_uris":{"android":"levelo://app?vid=43e068dd-02c8-47d0-8ac8-213f410db2ca","ios":"levelo://app?vid=43e068dd-02c8-47d0-8ac8-213f410db2ca"},"vehicle_type_id":"4","last_reported":1751065854,"current_range_meters":800,"station_id":"ce4bhjp2rcd13ifvqga0","pricing_plan_id":"cebpf4jnsgd1na2vs0mg"},{"bike_id":"fe3933bc-6561-447d-9fd3-bccb048edd61","system_id":"levelo_inurba_marseille","lat":43.299164,"lon":5.381571,"is_reserved":false,"is_disabled":true,"rental_uris":{"android":"levelo://app?vid=fe3933bc-6561-447d-9fd3-bccb048edd61","ios":"levelo://app?vid=fe3933bc-6561-447d-9fd3-bccb048edd61"},"vehicle_type_id":"4","last_reported":1751065854,"current_range_meters":2000,"station_id":"ce4bgj12rcd13ifvqbc0","pricing_plan_id":"cebpf4jnsgd1na2vs0mg"},{"bike_id":"905ce69c-ec49-4aef-93eb-0e997acc81b6","system_id":"levelo_inurba_marseille","lat":43.29262,"lon":5.38446,"is_reserved":false,"is_disabled":false,"rental_uris":{"android":"levelo://app?vid=905ce69c-ec49-4aef-93eb-0e997acc81b6","ios":"levelo://app?vid=905ce69c-ec49-4aef-93eb-0e997acc81b6"},"vehicle_type_id":"4","last_reported":1751065854,"current_range_meters":2800,"station_id":"ce4bh692rcd13ifvqea0","pricing_plan_id":"cebpf4jnsgd1na2vs0mg"},{"bike_id":"19894f46-9bcd-41a1-9699-71e13c09a3b4","system_id":"levelo_inurba_marseille","lat":43.29036,"lon":5.39956,"is_reserved":false,"is_disabled":false,"rental_uris":{"android":"levelo://app?vid=19894f46-9bcd-41a1-9699-71e13c09a3b4","ios":"levelo://app?vid=19894f46-9bcd-41a1-9699-71e13c09a3b4"},"vehicle_type_id":"4","last_reported":1751065854,"current_range_meters":3200,"station_id":"ce4bh392rcd13ifvqdm0","pricing_plan_id":"cebpf4jnsgd1na2vs0mg"},{"bike_id":"f47876d7-9c85-474e-92c5-7a242e08b67c","system_id":"levelo_inurba_marseille","lat":43.305547,"lon":5.37556,"is_reserved":false,"is_disabled":false,"rental_uris":{"android":"levelo://app?vid=f47876d7-9c85-474e-92c5-7a242e08b67c","ios":"levelo://app?vid=f47876d7-9c85-474e-92c5-7a242e08b67c"},"vehicle_type_id":"4","last_reported":1751065854,"current_range_meters":3600,"station_id":"","pricing_plan_id":"cebpf4jnsgd1na2vs0mg"},{"bike_id":"b4482354-51da-41f6-8811-3cfee71f08f5","system_id":"levelo_inurba_marseille","lat":43.30776,"lon":5.37663,"is_reserved":false,"is_disabled":false,"rental_uris":{"android":"levelo://app?vid=b4482354-51da-41f6-8811-3cfee71f08f5","ios":"levelo://app?vid=b4482354-51da-41f6-8811-3cfee71f08f5"},"vehicle_type_id":"4","last_reported":1751065854,"current_range_meters":3600,"station_id":"ce4bgv92rcd13ifvqcq0","pricing_plan_id":"cebpf4jnsgd1na2vs0mg"},{"bike_id":"4ba3c0a0-d748-412c-ab01-adb4506f530f","system_id":"levelo_inurba_marseille","lat":43.29899,"lon":5.43665,"is_reserved":false,"is_disabled":false,"rental_uris":{"android":"levelo://app?vid=4ba3c0a0-d748-412c-ab01-adb4506f530f","ios":"levelo://app?vid=4ba3c0a0-d748-412c-ab01-adb4506f530f"},"vehicle_type_id":"4","last_reported":1751065854,"current_range_meters":3600,"station_id":"ce4bhpp2rcd13ifvqhfg","pricing_plan_id":"cebpf4jnsgd1na2vs0mg"},{"bike_id":"c871be5d-2e2c-4dd7-b2df-c288a55ff09d","system_id":"levelo_inurba_marseille","lat":43.29378,"lon":5.37847,"is_reserved":false,"is_disabled":false,"rental_uris":{"android":"levelo://app?vid=c871be5d-2e2c-4dd7-b2df-c288a55ff09d","ios":"levelo://app?vid=c871be5d-2e2c-4dd7-b2df-c288a55ff09d"},"vehicle_type_id":"4","last_reported":1751065854,"current_range_meters":5600,"station_id":"ce4bgjh2rcd13ifvqbf0","pricing_plan_id":"cebpf4jnsgd1na2vs0mg"},{"bike_id":"52d6646b-61b4-4fbd-99ce-b02633d58056","system_id":"levelo_inurba_marseille","lat":43.30301,"lon":5.39216,"is_reserved":false,"is_disabled":false,"rental_uris":{"android":"levelo://app?vid=52d6646b-61b4-4fbd-99ce-b02633d58056","ios":"levelo://app?vid=52d6646b-61b4-4fbd-99ce-b02633d58056"},"vehicle_type_id":"4","last_reported":1751065854,"current_range_meters":5600,"station_id":"ce4bgkh2rcd13ifvqbk0","pricing_plan_id":"cebpf4jnsgd1na2vs0mg"},{"bike_id":"9bfebaaa-e048-4440-a426-6587e8ce910d","system_id":"levelo_inurba_marseille","lat":43.29184,"lon":5.39345,"is_reserved":false,"is_disabled":false,"rental_uris":{"android":"levelo://app?vid=9bfebaaa-e048-4440-a426-6587e8ce910d","ios":"levelo://app?vid=9bfebaaa-e048-4440-a426-6587e8ce910d"},"vehicle_type_id":"4","last_reported":1751065854,"current_range_meters":5600,"station_id":"ce4bh192rcd13ifvqdd0","pricing_plan_id":"cebpf4jnsgd1na2vs0mg"},{"bike_id":"8929182a-e533-4e68-a340-5aaf9829336a","system_id":"levelo_inurba_marseille","lat":43.29256,"lon":5.3844,"is_reserved":false,"is_disabled":false,"rental_uris":{"android":"levelo://app?vid=8929182a-e533-4e68-a340-5aaf9829336a","ios":"levelo://app?vid=8929182a-e533-4e68-a340-5aaf9829336a"},"vehicle_type_id":"4","last_reported":1751065854,"current_range_meters":5600,"station_id":"ce4bh692rcd13ifvqea0","pricing_plan_id":"cebpf4jnsgd1na2vs0mg"},{"bike_id":"6526ccbb-e091-4dec-9834-c0cb18c24e2c","system_id":"levelo_inurba_marseille","lat":43.27071,"lon":5.4227,"is_reserved":false,"is_disabled":false,"rental_uris":{"android":"levelo://app?vid=6526ccbb-e091-4dec-9834-c0cb18c24e2c","ios":"levelo://app?vid=6526ccbb-e091-4dec-9834-c0cb18c24e2c"},"vehicle_type_id":"4","last_reported":1751065854,"current_range_meters":6000,"station_id":"ce4bhk92rcd13ifvqgb0","pricing_plan_id":"cebpf4jnsgd1na2vs0mg"},{"bike_id":"c9be503d-950b-4c19-8944-4d62529cc3ff","system_id":"levelo_inurba_marseille","lat":43.279436,"lon":5.410417,"is_reserved":false,"is_disabled":false,"rental_uris":{"android":"levelo://app?vid=c9be503d-950b-4c19-8944-4d62529cc3ff","ios":"levelo://app?vid=c9be503d-950b-4c19-8944-4d62529cc3ff"},"vehicle_type_id":"4","last_reported":1751065854,"current_range_meters":6000,"station_id":"ce4bhnp2rcd13ifvqh0g","pricing_plan_id":"cebpf4jnsgd1na2vs0mg"},{"bike_id":"dc809ce2-210e-4ab0-8cab-fb58a4b75109","system_id":"levelo_inurba_marseille","lat":43.30317,"lon":5.40447,"is_reserved":false,"is_disabled":false,"rental_uris":{"android":"levelo://app?vid=dc809ce2-210e-4ab0-8cab-fb58a4b75109","ios":"levelo://app?vid=dc809ce2-210e-4ab0-8cab-fb58a4b75109"},"vehicle_type_id":"4","last_reported":1751065854,"current_range_meters":6400,"station_id":"ce4bh012rcd13ifvqd10","pricing_plan_id":"cebpf4jnsgd1na2vs0mg"},{"bike_id":"f4f207c4-7413-4968-8e0a-9ca6d28258df","system_id":"levelo_inurba_marseille","lat":43.29258,"lon":5.40894,"is_reserved":false,"is_disabled":false,"rental_uris":{"android":"levelo://app?vid=f4f207c4-7413-4968-8e0a-9ca6d28258df","ios":"levelo://app?vid=f4f207c4-7413-4968-8e0a-9ca6d28258df"},"vehicle_type_id":"4","last_reported":1751065854,"current_range_meters":6400,"station_id":"ce4bh192rcd13ifvqdc0","pricing_plan_id":"cebpf4jnsgd1na2vs0mg"},{"bike_id":"94e84186-d780-461a-b647-8d1cf3f036ad","system_id":"levelo_inurba_marseille","lat":43.31671,"lon":5.37824,"is_reserved":false,"is_disabled":false,"rental_uris":{"android":"levelo://app?vid=94e84186-d780-461a-b647-8d1cf3f036ad","ios":"levelo://app?vid=94e84186-d780-461a-b647-8d1cf3f036ad"},"vehicle_type_id":"4","last_reported":1751065854,"current_range_meters":6800,"station_id":"","pricing_plan_id":"cebpf4jnsgd1na2vs0mg"},{"bike_id":"e69593c0-4b3b-4dc4-90c2-b828632bc7e2","system_id":"levelo_inurba_marseille","lat":43.28415,"lon":5.37511,"is_reserved":false,"is_disabled":false,"rental_uris":{"android":"levelo://app?vid=e69593c0-4b3b-4dc4-90c2-b828632bc7e2","ios":"levelo://app?vid=e69593c0-4b3b-4dc4-90c2-b828632bc7e2"},"vehicle_type_id":"4","last_reported":1751065854,"current_range_meters":6800,"station_id":"ce4bh412rcd13ifvqds0","pricing_plan_id":"cebpf4jnsgd1na2vs0mg"},{"bike_id":"1678e075-df3c-4276-bed6-a57df97494c7","system_id":"levelo_inurba_marseille","lat":43.28099,"lon":5.37835,"is_reserved":false,"is_disabled":false,"rental_uris":{"android":"levelo://app?vid=1678e075-df3c-4276-bed6-a57df97494c7","ios":"levelo://app?vid=1678e075-df3c-4276-bed6-a57df97494c7"},"vehicle_type_id":"4","last_reported":1751065854,"current_range_meters":6800,"station_id":"ce4bha12rcd13ifvqee0","pricing_plan_id":"cebpf4jnsgd1na2vs0mg"},{"bike_id":"27b40ad7-b251-45e2-b49a-8840797e5ca7","system_id":"levelo_inurba_marseille","lat":43.27172,"lon":5.40993,"is_reserved":false,"is_disabled":false,"rental_uris":{"android":"levelo://app?vid=27b40ad7-b251-45e2-b49a-8840797e5ca7","ios":"levelo://app?vid=27b40ad7-b251-45e2-b49a-8840797e5ca7"},"vehicle_type_id":"4","last_reported":1751065854,"current_range_meters":6800,"station_id":"ce4bhl12rcd13ifvqgf0","pricing_plan_id":"cebpf4jnsgd1na2vs0mg"},{"bike_id":"dcea07ca-9323-4b9b-98f6-e1fc9b106559","system_id":"levelo_inurba_marseille","lat":43.30298,"lon":5.37623,"is_reserved":false,"is_disabled":false,"rental_uris":{"android":"levelo://app?vid=dcea07ca-9323-4b9b-98f6-e1fc9b106559","ios":"levelo://app?vid=dcea07ca-9323-4b9b-98f6-e1fc9b106559"},"vehicle_type_id":"4","last_reported":1751065854,"current_range_meters":7200,"station_id":"","pricing_plan_id":"cebpf4jnsgd1na2vs0mg"},{"bike_id":"ea2b9f18-7bae-4355-92cd-02f310391031","system_id":"levelo_inurba_marseille","lat":43.30085,"lon":5.39068,"is_reserved":false,"is_disabled":false,"rental_uris":{"android":"levelo://app?vid=ea2b9f18-7bae-4355-92cd-02f310391031","ios":"levelo://app?vid=ea2b9f18-7bae-4355-92cd-02f310391031"},"vehicle_type_id":"4","last_reported":1751065854,"current_range_meters":7200,"station_id":"ce4bh192rcd13ifvqdb0","pricing_plan_id":"cebpf4jnsgd1na2vs0mg"},{"bike_id":"d51d24d1-2ed9-47db-9e1a-c4c5ac7e8614","system_id":"levelo_inurba_marseille","lat":43.26695,"lon":5.38262,"is_reserved":false,"is_disabled":false,"rental_uris":{"android":"levelo://app?vid=d51d24d1-2ed9-47db-9e1a-c4c5ac7e8614","ios":"levelo://app?vid=d51d24d1-2ed9-47db-9e1a-c4c5ac7e8614"},"vehicle_type_id":"4","last_reported":1751065854,"current_range_meters":7200,"station_id":"ce4bhg92rcd13ifvqf90","pricing_plan_id":"cebpf4jnsgd1na2vs0mg"},{"bike_id":"447a5c07-2605-49a1-ab80-decdc56f8c4f","system_id":"levelo_inurba_marseille","lat":43.27954,"lon":5.35323,"is_reserved":false,"is_disabled":false,"rental_uris":{"android":"levelo://app?vid=447a5c07-2605-49a1-ab80-decdc56f8c4f","ios":"levelo://app?vid=447a5c07-2605-49a1-ab80-decdc56f8c4f"},"vehicle_type_id":"4","last_reported":1751065854,"current_range_meters":8000,"station_id":"","pricing_plan_id":"cebpf4jnsgd1na2vs0mg"},{"bike_id":"73a03650-973e-42b0-bad4-545481e15f73","system_id":"levelo_inurba_marseille","lat":43.31225,"lon":5.39099,"is_reserved":false,"is_disabled":false,"rental_uris":{"android":"levelo://app?vid=73a03650-973e-42b0-bad4-545481e15f73","ios":"levelo://app?vid=73a03650-973e-42b0-bad4-545481e15f73"},"vehicle_type_id":"4","last_reported":1751065854,"current_range_meters":8000,"station_id":"","pricing_plan_id":"cebpf4jnsgd1na2vs0mg"},{"bike_id":"4b8da722-ee9e-48a4-a5e5-3a8a10364708","system_id":"levelo_inurba_marseille","lat":43.312244,"lon":5.37824,"is_reserved":false,"is_disabled":false,"rental_uris":{"android":"levelo://app?vid=4b8da722-ee9e-48a4-a5e5-3a8a10364708","ios":"levelo://app?vid=4b8da722-ee9e-48a4-a5e5-3a8a10364708"},"vehicle_type_id":"4","last_reported":1751065854,"current_range_meters":8400,"station_id":"","pricing_plan_id":"cebpf4jnsgd1na2vs0mg"},{"bike_id":"545a69f4-a681-4d1e-ae52-2dd5a5e90df2","system_id":"levelo_inurba_marseille","lat":43.30544,"lon":5.38429,"is_reserved":false,"is_disabled":false,"rental_uris":{"android":"levelo://app?vid=545a69f4-a681-4d1e-ae52-2dd5a5e90df2","ios":"levelo://app?vid=545a69f4-a681-4d1e-ae52-2dd5a5e90df2"},"vehicle_type_id":"4","last_reported":1751065854,"current_range_meters":8400,"station_id":"ce4bgg92rcd13ifvqb30","pricing_plan_id":"cebpf4jnsgd1na2vs0mg"},{"bike_id":"fa5594a9-de83-4746-a3c3-d6d07c77f443","system_id":"levelo_inurba_marseille","lat":43.30641,"lon":5.40072,"is_reserved":false,"is_disabled":false,"rental_uris":{"android":"levelo://app?vid=fa5594a9-de83-4746-a3c3-d6d07c77f443","ios":"levelo://app?vid=fa5594a9-de83-4746-a3c3-d6d07c77f443"},"vehicle_type_id":"4","last_reported":1751065854,"current_range_meters":8400,"station_id":"ce4bh112rcd13ifvqda0","pricing_plan_id":"cebpf4jnsgd1na2vs0mg"},{"bike_id":"687a7c7f-095a-453c-9531-e8adf87e9639","system_id":"levelo_inurba_marseille","lat":43.29891,"lon":5.43671,"is_reserved":false,"is_disabled":false,"rental_uris":{"android":"levelo://app?vid=687a7c7f-095a-453c-9531-e8adf87e9639","ios":"levelo://app?vid=687a7c7f-095a-453c-9531-e8adf87e9639"},"vehicle_type_id":"4","last_reported":1751065854,"current_range_meters":8400,"station_id":"ce4bhpp2rcd13ifvqhfg","pricing_plan_id":"cebpf4jnsgd1na2vs0mg"},{"bike_id":"90b4d2ae-47a1-4744-8917-1491a5e2aea3","system_id":"levelo_inurba_marseille","lat":43.287545,"lon":5.448714,"is_reserved":false,"is_disabled":false,"rental_uris":{"android":"levelo://app?vid=90b4d2ae-47a1-4744-8917-1491a5e2aea3","ios":"levelo://app?vid=90b4d2ae-47a1-4744-8917-1491a5e2aea3"},"vehicle_type_id":"4","last_reported":1751065854,"current_range_meters":8800,"station_id":"","pricing_plan_id":"cebpf4jnsgd1na2vs0mg"},{"bike_id":"09dc1a91-069c-424e-9d3c-bdb231d4fd2e","system_id":"levelo_inurba_marseille","lat":43.30795,"lon":5.37652,"is_reserved":false,"is_disabled":false,"rental_uris":{"android":"levelo://app?vid=09dc1a91-069c-424e-9d3c-bdb231d4fd2e","ios":"levelo://app?vid=09dc1a91-069c-424e-9d3c-bdb231d4fd2e"},"vehicle_type_id":"4","last_reported":1751065854,"current_range_meters":8800,"station_id":"ce4bgv92rcd13ifvqcq0","pricing_plan_id":"cebpf4jnsgd1na2vs0mg"},{"bike_id":"13eeb800-f015-4177-9830-fa5520c66b43","system_id":"levelo_inurba_marseille","lat":43.28092,"lon":5.3788,"is_reserved":false,"is_disabled":false,"rental_uris":{"android":"levelo://app?vid=13eeb800-f015-4177-9830-fa5520c66b43","ios":"levelo://app?vid=13eeb800-f015-4177-9830-fa5520c66b43"},"vehicle_type_id":"4","last_reported":1751065854,"current_range_meters":8800,"station_id":"ce4bha12rcd13ifvqee0","pricing_plan_id":"cebpf4jnsgd1na2vs0mg"},{"bike_id":"7a92a51b-12db-41cc-98c0-2618d3831133","system_id":"levelo_inurba_marseille","lat":43.32291,"lon":5.38275,"is_reserved":false,"is_disabled":false,"rental_uris":{"android":"levelo://app?vid=7a92a51b-12db-41cc-98c0-2618d3831133","ios":"levelo://app?vid=7a92a51b-12db-41cc-98c0-2618d3831133"},"vehicle_type_id":"4","last_reported":1751065854,"current_range_meters":8800,"station_id":"ce4bhr12rcd13ifvqhqg","pricing_plan_id":"cebpf4jnsgd1na2vs0mg"},{"bike_id":"12d035e8-d7ea-454e-803e-de49ec463601","system_id":"levelo_inurba_marseille","lat":43.301371,"lon":5.398532,"is_reserved":false,"is_disabled":false,"rental_uris":{"android":"levelo://app?vid=12d035e8-d7ea-454e-803e-de49ec463601","ios":"levelo://app?vid=12d035e8-d7ea-454e-803e-de49ec463601"},"vehicle_type_id":"4","last_reported":1751065854,"current_range_meters":9200,"station_id":"ce4bh0h2rcd13ifvqd40","pricing_plan_id":"cebpf4jnsgd1na2vs0mg"},{"bike_id":"93b9909d-e1ce-47ab-ae56-9d1f948d1c9b","system_id":"levelo_inurba_marseille","lat":43.29865,"lon":5.38912,"is_reserved":false,"is_disabled":false,"rental_uris":{"android":"levelo://app?vid=93b9909d-e1ce-47ab-ae56-9d1f948d1c9b","ios":"levelo://app?vid=93b9909d-e1ce-47ab-ae56-9d1f948d1c9b"},"vehicle_type_id":"4","last_reported":1751065854,"current_range_meters":9200,"station_id":"ce4bh392rcd13ifvqdl0","pricing_plan_id":"cebpf4jnsgd1na2vs0mg"},{"bike_id":"b7d0d8a1-c5dd-4278-8b3b-f5786872fe32","system_id":"levelo_inurba_marseille","lat":43.32088,"lon":5.36782,"is_reserved":false,"is_disabled":false,"rental_uris":{"android":"levelo://app?vid=b7d0d8a1-c5dd-4278-8b3b-f5786872fe32","ios":"levelo://app?vid=b7d0d8a1-c5dd-4278-8b3b-f5786872fe32"},"vehicle_type_id":"4","last_reported":1751065854,"current_range_meters":9200,"station_id":"ce4bhrh2rcd13ifvqhug","pricing_plan_id":"cebpf4jnsgd1na2vs0mg"},{"bike_id":"b4f024f7-1889-4b85-8d0d-7e4f4cc8f1bb","system_id":"levelo_inurba_marseille","lat":43.30458,"lon":5.37909,"is_reserved":false,"is_disabled":false,"rental_uris":{"android":"levelo://app?vid=b4f024f7-1889-4b85-8d0d-7e4f4cc8f1bb","ios":"levelo://app?vid=b4f024f7-1889-4b85-8d0d-7e4f4cc8f1bb"},"vehicle_type_id":"4","last_reported":1751065854,"current_range_meters":9600,"station_id":"ce4bgup2rcd13ifvqcn0","pricing_plan_id":"cebpf4jnsgd1na2vs0mg"},{"bike_id":"a95db220-8aa6-47ad-a4da-8d55c6120972","system_id":"levelo_inurba_marseille","lat":43.27944,"lon":5.41045,"is_reserved":false,"is_disabled":false,"rental_uris":{"android":"levelo://app?vid=a95db220-8aa6-47ad-a4da-8d55c6120972","ios":"levelo://app?vid=a95db220-8aa6-47ad-a4da-8d55c6120972"},"vehicle_type_id":"4","last_reported":1751065854,"current_range_meters":9600,"station_id":"ce4bhnp2rcd13ifvqh0g","pricing_plan_id":"cebpf4jnsgd1na2vs0mg"},{"bike_id":"a440f2f6-8cf8-4348-9ba1-e21002a18a07","system_id":"levelo_inurba_marseille","lat":43.321083,"lon":5.36774,"is_reserved":false,"is_disabled":false,"rental_uris":{"android":"levelo://app?vid=a440f2f6-8cf8-4348-9ba1-e21002a18a07","ios":"levelo://app?vid=a440f2f6-8cf8-4348-9ba1-e21002a18a07"},"vehicle_type_id":"4","last_reported":1751065854,"current_range_meters":9600,"station_id":"ce4bhrh2rcd13ifvqhug","pricing_plan_id":"cebpf4jnsgd1na2vs0mg"},{"bike_id":"d93518a7-acea-49d1-8b1d-66917831e25a","system_id":"levelo_inurba_marseille","lat":43.283616,"lon":5.395751,"is_reserved":false,"is_disabled":false,"rental_uris":{"android":"levelo://app?vid=d93518a7-acea-49d1-8b1d-66917831e25a","ios":"levelo://app?vid=d93518a7-acea-49d1-8b1d-66917831e25a"},"vehicle_type_id":"4","last_reported":1751065854,"current_range_meters":10000,"station_id":"","pricing_plan_id":"cebpf4jnsgd1na2vs0mg"},{"bike_id":"046cec36-6054-498c-85da-26fe6f2a75dd","system_id":"levelo_inurba_marseille","lat":43.30327,"lon":5.4043,"is_reserved":false,"is_disabled":false,"rental_uris":{"android":"levelo://app?vid=046cec36-6054-498c-85da-26fe6f2a75dd","ios":"levelo://app?vid=046cec36-6054-498c-85da-26fe6f2a75dd"},"vehicle_type_id":"4","last_reported":1751065854,"current_range_meters":10000,"station_id":"ce4bh012rcd13ifvqd10","pricing_plan_id":"cebpf4jnsgd1na2vs0mg"},{"bike_id":"a1efc803-1520-45fc-9e03-1f27beb25e3d","system_id":"levelo_inurba_marseille","lat":43.3064,"lon":5.40091,"is_reserved":false,"is_disabled":false,"rental_uris":{"android":"levelo://app?vid=a1efc803-1520-45fc-9e03-1f27beb25e3d","ios":"levelo://app?vid=a1efc803-1520-45fc-9e03-1f27beb25e3d"},"vehicle_type_id":"4","last_reported":1751065854,"current_range_meters":10000,"station_id":"ce4bh112rcd13ifvqda0","pricing_plan_id":"cebpf4jnsgd1na2vs0mg"},{"bike_id":"a82feb88-72ff-4e38-9550-052ec2bfd842","system_id":"levelo_inurba_marseille","lat":43.28365,"lon":5.3863,"is_reserved":false,"is_disabled":false,"rental_uris":{"android":"levelo://app?vid=a82feb88-72ff-4e38-9550-052ec2bfd842","ios":"levelo://app?vid=a82feb88-72ff-4e38-9550-052ec2bfd842"},"vehicle_type_id":"4","last_reported":1751065854,"current_range_meters":10000,"station_id":"ce4bh492rcd13ifvqdvg","pricing_plan_id":"cebpf4jnsgd1na2vs0mg"},{"bike_id":"530805b6-b020-4449-9044-8c2804baabe5","system_id":"levelo_inurba_marseille","lat":43.28108,"lon":5.37831,"is_reserved":false,"is_disabled":false,"rental_uris":{"android":"levelo://app?vid=530805b6-b020-4449-9044-8c2804baabe5","ios":"levelo://app?vid=530805b6-b020-4449-9044-8c2804baabe5"},"vehicle_type_id":"4","last_reported":1751065854,"current_range_meters":10000,"station_id":"ce4bha12rcd13ifvqee0","pricing_plan_id":"cebpf4jnsgd1na2vs0mg"},{"bike_id":"d28969f5-6858-4de7-b205-44ac6df35c56","system_id":"levelo_inurba_marseille","lat":43.25831,"lon":5.39449,"is_reserved":false,"is_disabled":false,"rental_uris":{"android":"levelo://app?vid=d28969f5-6858-4de7-b205-44ac6df35c56","ios":"levelo://app?vid=d28969f5-6858-4de7-b205-44ac6df35c56"},"vehicle_type_id":"4","last_reported":1751065854,"current_range_meters":10000,"station_id":"ce4bhip2rcd13ifvqft0","pricing_plan_id":"cebpf4jnsgd1na2vs0mg"},{"bike_id":"1c8ab180-05fd-405f-9922-b2b2c2d5142f","system_id":"levelo_inurba_marseille","lat":43.321013,"lon":5.36787,"is_reserved":false,"is_disabled":false,"rental_uris":{"android":"levelo://app?vid=1c8ab180-05fd-405f-9922-b2b2c2d5142f","ios":"levelo://app?vid=1c8ab180-05fd-405f-9922-b2b2c2d5142f"},"vehicle_type_id":"4","last_reported":1751065854,"current_range_meters":10000,"station_id":"ce4bhrh2rcd13ifvqhug","pricing_plan_id":"cebpf4jnsgd1na2vs0mg"},{"bike_id":"ef3c5bc3-f443-4d08-b60a-926bbabd8913","system_id":"levelo_inurba_marseille","lat":43.315373,"lon":5.380417,"is_reserved":false,"is_disabled":false,"rental_uris":{"android":"levelo://app?vid=ef3c5bc3-f443-4d08-b60a-926bbabd8913","ios":"levelo://app?vid=ef3c5bc3-f443-4d08-b60a-926bbabd8913"},"vehicle_type_id":"4","last_reported":1751065854,"current_range_meters":10000,"station_id":"ce4bhsp2rcd13ifvqi50","pricing_plan_id":"cebpf4jnsgd1na2vs0mg"},{"bike_id":"3e82f598-9d1d-4257-8afa-a4dc7305de09","system_id":"levelo_inurba_marseille","lat":43.21151,"lon":5.35101,"is_reserved":false,"is_disabled":false,"rental_uris":{"android":"levelo://app?vid=3e82f598-9d1d-4257-8afa-a4dc7305de09","ios":"levelo://app?vid=3e82f598-9d1d-4257-8afa-a4dc7305de09"},"vehicle_type_id":"4","last_reported":1751065854,"current_range_meters":10000,"station_id":"st_cvj6sg6p6f1abm77japg","pricing_plan_id":"cebpf4jnsgd1na2vs0mg"},{"bike_id":"1afdbdc7-9d81-4e98-85e1-ee5984fde0af","system_id":"levelo_inurba_marseille","lat":43.29549,"lon":5.38229,"is_reserved":false,"is_disabled":false,"rental_uris":{"android":"levelo://app?vid=1afdbdc7-9d81-4e98-85e1-ee5984fde0af","ios":"levelo://app?vid=1afdbdc7-9d81-4e98-85e1-ee5984fde0af"},"vehicle_type_id":"4","last_reported":1751065854,"current_range_meters":10800,"station_id":"","pricing_plan_id":"cebpf4jnsgd1na2vs0mg"},{"bike_id":"77ed0e1c-b62b-40df-a2a1-41d0bc0db4c9","system_id":"levelo_inurba_marseille","lat":43.3026,"lon":5.40077,"is_reserved":false,"is_disabled":false,"rental_uris":{"android":"levelo://app?vid=77ed0e1c-b62b-40df-a2a1-41d0bc0db4c9","ios":"levelo://app?vid=77ed0e1c-b62b-40df-a2a1-41d0bc0db4c9"},"vehicle_type_id":"4","last_reported":1751065854,"current_range_meters":10800,"station_id":"ce4bgvh2rcd13ifvqcs0","pricing_plan_id":"cebpf4jnsgd1na2vs0mg"},{"bike_id":"ded35a97-472b-4adb-94e7-b0229275dba8","system_id":"levelo_inurba_marseille","lat":43.3169,"lon":5.40477,"is_reserved":false,"is_disabled":false,"rental_uris":{"android":"levelo://app?vid=ded35a97-472b-4adb-94e7-b0229275dba8","ios":"levelo://app?vid=ded35a97-472b-4adb-94e7-b0229275dba8"},"vehicle_type_id":"4","last_reported":1751065854,"current_range_meters":10800,"station_id":"ce4bh012rcd13ifvqd00","pricing_plan_id":"cebpf4jnsgd1na2vs0mg"},{"bike_id":"332a8533-cd18-4fdf-b356-8dacb7a8f12c","system_id":"levelo_inurba_marseille","lat":43.30414,"lon":5.41291,"is_reserved":false,"is_disabled":false,"rental_uris":{"android":"levelo://app?vid=332a8533-cd18-4fdf-b356-8dacb7a8f12c","ios":"levelo://app?vid=332a8533-cd18-4fdf-b356-8dacb7a8f12c"},"vehicle_type_id":"4","last_reported":1751065854,"current_range_meters":10800,"station_id":"ce4bhop2rcd13ifvqh8g","pricing_plan_id":"cebpf4jnsgd1na2vs0mg"},{"bike_id":"405f4b4b-4256-4dff-809e-3c93356f1e83","system_id":"levelo_inurba_marseille","lat":43.26935,"lon":5.4026,"is_reserved":false,"is_disabled":false,"rental_uris":{"android":"levelo://app?vid=405f4b4b-4256-4dff-809e-3c93356f1e83","ios":"levelo://app?vid=405f4b4b-4256-4dff-809e-3c93356f1e83"},"vehicle_type_id":"4","last_reported":1751065854,"current_range_meters":10800,"station_id":"cjm6bp8fraef2m0cb0m0","pricing_plan_id":"cebpf4jnsgd1na2vs0mg"},{"bike_id":"5d5e13a4-10cc-485c-a362-06d02242e666","system_id":"levelo_inurba_marseille","lat":43.21204,"lon":5.3509,"is_reserved":false,"is_disabled":false,"rental_uris":{"android":"levelo://app?vid=5d5e13a4-10cc-485c-a362-06d02242e666","ios":"levelo://app?vid=5d5e13a4-10cc-485c-a362-06d02242e666"},"vehicle_type_id":"4","last_reported":1751065854,"current_range_meters":10800,"station_id":"st_cvj6sg6p6f1abm77japg","pricing_plan_id":"cebpf4jnsgd1na2vs0mg"},{"bike_id":"5a01ae6d-9064-484c-8d77-2d9e141e2313","system_id":"levelo_inurba_marseille","lat":43.24491,"lon":5.39021,"is_reserved":false,"is_disabled":false,"rental_uris":{"android":"levelo://app?vid=5a01ae6d-9064-484c-8d77-2d9e141e2313","ios":"levelo://app?vid=5a01ae6d-9064-484c-8d77-2d9e141e2313"},"vehicle_type_id":"4","last_reported":1751065854,"current_range_meters":11200,"station_id":"","pricing_plan_id":"cebpf4jnsgd1na2vs0mg"},{"bike_id":"001d3347-539c-42ca-b238-6c0f345f78c9","system_id":"levelo_inurba_marseille","lat":43.29438,"lon":5.39755,"is_reserved":false,"is_disabled":false,"rental_uris":{"android":"levelo://app?vid=001d3347-539c-42ca-b238-6c0f345f78c9","ios":"levelo://app?vid=001d3347-539c-42ca-b238-6c0f345f78c9"},"vehicle_type_id":"4","last_reported":1751065854,"current_range_meters":11200,"station_id":"ce4bh3h2rcd13ifvqdo0","pricing_plan_id":"cebpf4jnsgd1na2vs0mg"},{"bike_id":"f4d4a6af-7fb3-4bea-918e-3557b55d132b","system_id":"levelo_inurba_marseille","lat":43.29553,"lon":5.39017,"is_reserved":false,"is_disabled":false,"rental_uris":{"android":"levelo://app?vid=f4d4a6af-7fb3-4bea-918e-3557b55d132b","ios":"levelo://app?vid=f4d4a6af-7fb3-4bea-918e-3557b55d132b"},"vehicle_type_id":"4","last_reported":1751065854,"current_range_meters":11200,"station_id":"ce4bh3p2rcd13ifvqdp0","pricing_plan_id":"cebpf4jnsgd1na2vs0mg"},{"bike_id":"164803b0-f543-41e1-b52b-7af4d5cfa03f","system_id":"levelo_inurba_marseille","lat":43.30421,"lon":5.38885,"is_reserved":false,"is_disabled":false,"rental_uris":{"android":"levelo://app?vid=164803b0-f543-41e1-b52b-7af4d5cfa03f","ios":"levelo://app?vid=164803b0-f543-41e1-b52b-7af4d5cfa03f"},"vehicle_type_id":"4","last_reported":1751065854,"current_range_meters":11600,"station_id":"ce4bgk12rcd13ifvqbi0","pricing_plan_id":"cebpf4jnsgd1na2vs0mg"},{"bike_id":"4fd70823-7f50-409a-80c0-aa5ee76e2e20","system_id":"levelo_inurba_marseille","lat":43.30633,"lon":5.40074,"is_reserved":false,"is_disabled":false,"rental_uris":{"android":"levelo://app?vid=4fd70823-7f50-409a-80c0-aa5ee76e2e20","ios":"levelo://app?vid=4fd70823-7f50-409a-80c0-aa5ee76e2e20"},"vehicle_type_id":"4","last_reported":1751065854,"current_range_meters":11600,"station_id":"ce4bh112rcd13ifvqda0","pricing_plan_id":"cebpf4jnsgd1na2vs0mg"},{"bike_id":"cc1f6053-e567-4f60-91f7-d3d2a60e3ad3","system_id":"levelo_inurba_marseille","lat":43.29089,"lon":5.38107,"is_reserved":false,"is_disabled":false,"rental_uris":{"android":"levelo://app?vid=cc1f6053-e567-4f60-91f7-d3d2a60e3ad3","ios":"levelo://app?vid=cc1f6053-e567-4f60-91f7-d3d2a60e3ad3"},"vehicle_type_id":"4","last_reported":1751065854,"current_range_meters":11600,"station_id":"ce4bh512rcd13ifvqe2g","pricing_plan_id":"cebpf4jnsgd1na2vs0mg"},{"bike_id":"ec6f9060-020f-4101-adca-6bb5b89f8c79","system_id":"levelo_inurba_marseille","lat":43.29553,"lon":5.42296,"is_reserved":false,"is_disabled":false,"rental_uris":{"android":"levelo://app?vid=ec6f9060-020f-4101-adca-6bb5b89f8c79","ios":"levelo://app?vid=ec6f9060-020f-4101-adca-6bb5b89f8c79"},"vehicle_type_id":"4","last_reported":1751065854,"current_range_meters":11600,"station_id":"ce4bhph2rcd13ifvqhdg","pricing_plan_id":"cebpf4jnsgd1na2vs0mg"},{"bike_id":"524c3edf-5690-47ae-a64c-f89b3023f57a","system_id":"levelo_inurba_marseille","lat":43.32655,"lon":5.40994,"is_reserved":false,"is_disabled":false,"rental_uris":{"android":"levelo://app?vid=524c3edf-5690-47ae-a64c-f89b3023f57a","ios":"levelo://app?vid=524c3edf-5690-47ae-a64c-f89b3023f57a"},"vehicle_type_id":"4","last_reported":1751065854,"current_range_meters":11600,"station_id":"ce4bhpp2rcd13ifvqhgg","pricing_plan_id":"cebpf4jnsgd1na2vs0mg"},{"bike_id":"97740012-6332-43c8-9de2-10015824bd31","system_id":"levelo_inurba_marseille","lat":43.323658,"lon":5.388846,"is_reserved":false,"is_disabled":false,"rental_uris":{"android":"levelo://app?vid=97740012-6332-43c8-9de2-10015824bd31","ios":"levelo://app?vid=97740012-6332-43c8-9de2-10015824bd31"},"vehicle_type_id":"4","last_reported":1751065854,"current_range_meters":11600,"station_id":"ce4bhqp2rcd13ifvqhog","pricing_plan_id":"cebpf4jnsgd1na2vs0mg"},{"bike_id":"cc98310d-b3b7-4557-b28b-7cd78d37d154","system_id":"levelo_inurba_marseille","lat":43.31325,"lon":5.39692,"is_reserved":false,"is_disabled":false,"rental_uris":{"android":"levelo://app?vid=cc98310d-b3b7-4557-b28b-7cd78d37d154","ios":"levelo://app?vid=cc98310d-b3b7-4557-b28b-7cd78d37d154"},"vehicle_type_id":"4","last_reported":1751065854,"current_range_meters":12000,"station_id":"ce4bgvp2rcd13ifvqcu0","pricing_plan_id":"cebpf4jnsgd1na2vs0mg"},{"bike_id":"3334bce0-f553-4084-ba24-bea62ca8b568","system_id":"levelo_inurba_marseille","lat":43.28663,"lon":5.36335,"is_reserved":false,"is_disabled":false,"rental_uris":{"android":"levelo://app?vid=3334bce0-f553-4084-ba24-bea62ca8b568","ios":"levelo://app?vid=3334bce0-f553-4084-ba24-bea62ca8b568"},"vehicle_type_id":"4","last_reported":1751065854,"current_range_meters":12000,"station_id":"ce4bhah2rcd13ifvqej0","pricing_plan_id":"cebpf4jnsgd1na2vs0mg"},{"bike_id":"4f89f3a8-61a9-4adf-8fb3-a45363798119","system_id":"levelo_inurba_marseille","lat":43.25087,"lon":5.39519,"is_reserved":false,"is_disabled":false,"rental_uris":{"android":"levelo://app?vid=4f89f3a8-61a9-4adf-8fb3-a45363798119","ios":"levelo://app?vid=4f89f3a8-61a9-4adf-8fb3-a45363798119"},"vehicle_type_id":"4","last_reported":1751065854,"current_range_meters":12000,"station_id":"ce4bhm12rcd13ifvqgkg","pricing_plan_id":"cebpf4jnsgd1na2vs0mg"},{"bike_id":"abfa48e8-288c-4e6f-93a8-68eebdd07d49","system_id":"levelo_inurba_marseille","lat":43.231805,"lon":5.399908,"is_reserved":false,"is_disabled":false,"rental_uris":{"android":"levelo://app?vid=abfa48e8-288c-4e6f-93a8-68eebdd07d49","ios":"levelo://app?vid=abfa48e8-288c-4e6f-93a8-68eebdd07d49"},"vehicle_type_id":"4","last_reported":1751065854,"current_range_meters":12000,"station_id":"ce4bhn12rcd13ifvqgqg","pricing_plan_id":"cebpf4jnsgd1na2vs0mg"},{"bike_id":"ef141b91-8958-4945-a5cb-a9264fc5c104","system_id":"levelo_inurba_marseille","lat":43.28442,"lon":5.39205,"is_reserved":false,"is_disabled":false,"rental_uris":{"android":"levelo://app?vid=ef141b91-8958-4945-a5cb-a9264fc5c104","ios":"levelo://app?vid=ef141b91-8958-4945-a5cb-a9264fc5c104"},"vehicle_type_id":"4","last_reported":1751065854,"current_range_meters":12000,"station_id":"ce4bhoh2rcd13ifvqh5g","pricing_plan_id":"cebpf4jnsgd1na2vs0mg"},{"bike_id":"66eaaeff-316e-45a2-853f-797342644dc4","system_id":"levelo_inurba_marseille","lat":43.29894,"lon":5.43671,"is_reserved":false,"is_disabled":false,"rental_uris":{"android":"levelo://app?vid=66eaaeff-316e-45a2-853f-797342644dc4","ios":"levelo://app?vid=66eaaeff-316e-45a2-853f-797342644dc4"},"vehicle_type_id":"4","last_reported":1751065854,"current_range_meters":12000,"station_id":"ce4bhpp2rcd13ifvqhfg","pricing_plan_id":"cebpf4jnsgd1na2vs0mg"},{"bike_id":"46fc1da8-b21e-49ec-9f51-bd3892d403d9","system_id":"levelo_inurba_marseille","lat":43.2417,"lon":5.36406,"is_reserved":false,"is_disabled":false,"rental_uris":{"android":"levelo://app?vid=46fc1da8-b21e-49ec-9f51-bd3892d403d9","ios":"levelo://app?vid=46fc1da8-b21e-49ec-9f51-bd3892d403d9"},"vehicle_type_id":"4","last_reported":1751065854,"current_range_meters":12000,"station_id":"cpo36qri1sfpv3e86is0","pricing_plan_id":"cebpf4jnsgd1na2vs0mg"},{"bike_id":"f0057ca2-de2d-4464-8902-068dc3677e00","system_id":"levelo_inurba_marseille","lat":43.211889,"lon":5.350702,"is_reserved":false,"is_disabled":false,"rental_uris":{"android":"levelo://app?vid=f0057ca2-de2d-4464-8902-068dc3677e00","ios":"levelo://app?vid=f0057ca2-de2d-4464-8902-068dc3677e00"},"vehicle_type_id":"4","last_reported":1751065854,"current_range_meters":12000,"station_id":"st_cvj6sg6p6f1abm77japg","pricing_plan_id":"cebpf4jnsgd1na2vs0mg"},{"bike_id":"43af7379-8edd-4b60-a729-fbe8b5f1723b","system_id":"levelo_inurba_marseille","lat":43.30139,"lon":5.37418,"is_reserved":false,"is_disabled":false,"rental_uris":{"android":"levelo://app?vid=43af7379-8edd-4b60-a729-fbe8b5f1723b","ios":"levelo://app?vid=43af7379-8edd-4b60-a729-fbe8b5f1723b"},"vehicle_type_id":"4","last_reported":1751065854,"current_range_meters":12400,"station_id":"ce4bgs92rcd13ifvqcc0","pricing_plan_id":"cebpf4jnsgd1na2vs0mg"},{"bike_id":"2a9a5366-8dad-42f1-bee6-ffb042c54776","system_id":"levelo_inurba_marseille","lat":43.211886,"lon":5.35074,"is_reserved":false,"is_disabled":false,"rental_uris":{"android":"levelo://app?vid=2a9a5366-8dad-42f1-bee6-ffb042c54776","ios":"levelo://app?vid=2a9a5366-8dad-42f1-bee6-ffb042c54776"},"vehicle_type_id":"4","last_reported":1751065854,"current_range_meters":12400,"station_id":"st_cvj6sg6p6f1abm77japg","pricing_plan_id":"cebpf4jnsgd1na2vs0mg"},{"bike_id":"7dfe0422-df83-4d75-8d15-3ceb90d0c0a5","system_id":"levelo_inurba_marseille","lat":43.30433,"lon":5.38886,"is_reserved":false,"is_disabled":false,"rental_uris":{"android":"levelo://app?vid=7dfe0422-df83-4d75-8d15-3ceb90d0c0a5","ios":"levelo://app?vid=7dfe0422-df83-4d75-8d15-3ceb90d0c0a5"},"vehicle_type_id":"4","last_reported":1751065854,"current_range_meters":12800,"station_id":"ce4bgk12rcd13ifvqbi0","pricing_plan_id":"cebpf4jnsgd1na2vs0mg"},{"bike_id":"03bf2de9-e7e9-4523-9bf9-8ff0185e31f3","system_id":"levelo_inurba_marseille","lat":43.31072,"lon":5.38352,"is_reserved":false,"is_disabled":false,"rental_uris":{"android":"levelo://app?vid=03bf2de9-e7e9-4523-9bf9-8ff0185e31f3","ios":"levelo://app?vid=03bf2de9-e7e9-4523-9bf9-8ff0185e31f3"},"vehicle_type_id":"4","last_reported":1751065854,"current_range_meters":12800,"station_id":"ce4bgv92rcd13ifvqcr0","pricing_plan_id":"cebpf4jnsgd1na2vs0mg"},{"bike_id":"52404d38-61d8-462c-8e59-e83380c2aa57","system_id":"levelo_inurba_marseille","lat":43.28561,"lon":5.39503,"is_reserved":false,"is_disabled":false,"rental_uris":{"android":"levelo://app?vid=52404d38-61d8-462c-8e59-e83380c2aa57","ios":"levelo://app?vid=52404d38-61d8-462c-8e59-e83380c2aa57"},"vehicle_type_id":"4","last_reported":1751065854,"current_range_meters":12800,"station_id":"ce4bh292rcd13ifvqdg0","pricing_plan_id":"cebpf4jnsgd1na2vs0mg"},{"bike_id":"37aea54a-7651-443a-9664-011c7d638061","system_id":"levelo_inurba_marseille","lat":43.29542,"lon":5.39031,"is_reserved":false,"is_disabled":false,"rental_uris":{"android":"levelo://app?vid=37aea54a-7651-443a-9664-011c7d638061","ios":"levelo://app?vid=37aea54a-7651-443a-9664-011c7d638061"},"vehicle_type_id":"4","last_reported":1751065854,"current_range_meters":12800,"station_id":"ce4bh3p2rcd13ifvqdp0","pricing_plan_id":"cebpf4jnsgd1na2vs0mg"},{"bike_id":"425f470a-b25c-41b1-9707-5e2c6f66ada2","system_id":"levelo_inurba_marseille","lat":43.28087,"lon":5.37863,"is_reserved":false,"is_disabled":false,"rental_uris":{"android":"levelo://app?vid=425f470a-b25c-41b1-9707-5e2c6f66ada2","ios":"levelo://app?vid=425f470a-b25c-41b1-9707-5e2c6f66ada2"},"vehicle_type_id":"4","last_reported":1751065854,"current_range_meters":12800,"station_id":"ce4bha12rcd13ifvqee0","pricing_plan_id":"cebpf4jnsgd1na2vs0mg"},{"bike_id":"cd1bc6c1-6b6c-49cc-81a7-97fdf0f3a681","system_id":"levelo_inurba_marseille","lat":43.2406,"lon":5.37774,"is_reserved":false,"is_disabled":false,"rental_uris":{"android":"levelo://app?vid=cd1bc6c1-6b6c-49cc-81a7-97fdf0f3a681","ios":"levelo://app?vid=cd1bc6c1-6b6c-49cc-81a7-97fdf0f3a681"},"vehicle_type_id":"4","last_reported":1751065854,"current_range_meters":12800,"station_id":"ce4bhnp2rcd13ifvqgvg","pricing_plan_id":"cebpf4jnsgd1na2vs0mg"},{"bike_id":"6910b214-f4f8-4108-ba03-c3a5bc8e06b5","system_id":"levelo_inurba_marseille","lat":43.32288,"lon":5.38292,"is_reserved":false,"is_disabled":false,"rental_uris":{"android":"levelo://app?vid=6910b214-f4f8-4108-ba03-c3a5bc8e06b5","ios":"levelo://app?vid=6910b214-f4f8-4108-ba03-c3a5bc8e06b5"},"vehicle_type_id":"4","last_reported":1751065854,"current_range_meters":12800,"station_id":"ce4bhr12rcd13ifvqhqg","pricing_plan_id":"cebpf4jnsgd1na2vs0mg"},{"bike_id":"d5e70777-ad97-4594-91b6-43ede9611b14","system_id":"levelo_inurba_marseille","lat":43.321049,"lon":5.367789,"is_reserved":false,"is_disabled":false,"rental_uris":{"android":"levelo://app?vid=d5e70777-ad97-4594-91b6-43ede9611b14","ios":"levelo://app?vid=d5e70777-ad97-4594-91b6-43ede9611b14"},"vehicle_type_id":"4","last_reported":1751065854,"current_range_meters":12800,"station_id":"ce4bhrh2rcd13ifvqhug","pricing_plan_id":"cebpf4jnsgd1na2vs0mg"},{"bike_id":"d641659c-64fc-486a-91a2-3cc8072043e6","system_id":"levelo_inurba_marseille","lat":43.32117,"lon":5.36784,"is_reserved":false,"is_disabled":false,"rental_uris":{"android":"levelo://app?vid=d641659c-64fc-486a-91a2-3cc8072043e6","ios":"levelo://app?vid=d641659c-64fc-486a-91a2-3cc8072043e6"},"vehicle_type_id":"4","last_reported":1751065854,"current_range_meters":12800,"station_id":"ce4bhrh2rcd13ifvqhug","pricing_plan_id":"cebpf4jnsgd1na2vs0mg"},{"bike_id":"7dfc5216-abd2-4eb0-aa98-27c7a95c769d","system_id":"levelo_inurba_marseille","lat":43.22928,"lon":5.35405,"is_reserved":false,"is_disabled":false,"rental_uris":{"android":"levelo://app?vid=7dfc5216-abd2-4eb0-aa98-27c7a95c769d","ios":"levelo://app?vid=7dfc5216-abd2-4eb0-aa98-27c7a95c769d"},"vehicle_type_id":"4","last_reported":1751065854,"current_range_meters":12800,"station_id":"cpo3532slgdg3j2ikp40","pricing_plan_id":"cebpf4jnsgd1na2vs0mg"},{"bike_id":"2c72c9b1-564b-478a-b039-4fb6c52967cc","system_id":"levelo_inurba_marseille","lat":43.2746,"lon":5.4109,"is_reserved":false,"is_disabled":false,"rental_uris":{"android":"levelo://app?vid=2c72c9b1-564b-478a-b039-4fb6c52967cc","ios":"levelo://app?vid=2c72c9b1-564b-478a-b039-4fb6c52967cc"},"vehicle_type_id":"4","last_reported":1751065854,"current_range_meters":13600,"station_id":"","pricing_plan_id":"cebpf4jnsgd1na2vs0mg"},{"bike_id":"07d2abd9-e4e4-490c-a856-2c8b378eb3af","system_id":"levelo_inurba_marseille","lat":43.30797,"lon":5.38152,"is_reserved":false,"is_disabled":false,"rental_uris":{"android":"levelo://app?vid=07d2abd9-e4e4-490c-a856-2c8b378eb3af","ios":"levelo://app?vid=07d2abd9-e4e4-490c-a856-2c8b378eb3af"},"vehicle_type_id":"4","last_reported":1751065854,"current_range_meters":13600,"station_id":"ce4bgt12rcd13ifvqce0","pricing_plan_id":"cebpf4jnsgd1na2vs0mg"},{"bike_id":"cc42e683-5dbc-4681-9c5b-6777fe44a697","system_id":"levelo_inurba_marseille","lat":43.31075,"lon":5.38363,"is_reserved":false,"is_disabled":false,"rental_uris":{"android":"levelo://app?vid=cc42e683-5dbc-4681-9c5b-6777fe44a697","ios":"levelo://app?vid=cc42e683-5dbc-4681-9c5b-6777fe44a697"},"vehicle_type_id":"4","last_reported":1751065854,"current_range_meters":13600,"station_id":"ce4bgv92rcd13ifvqcr0","pricing_plan_id":"cebpf4jnsgd1na2vs0mg"},{"bike_id":"ca4dc2b1-48ef-4cff-8334-c439494ca911","system_id":"levelo_inurba_marseille","lat":43.30649,"lon":5.40114,"is_reserved":false,"is_disabled":false,"rental_uris":{"android":"levelo://app?vid=ca4dc2b1-48ef-4cff-8334-c439494ca911","ios":"levelo://app?vid=ca4dc2b1-48ef-4cff-8334-c439494ca911"},"vehicle_type_id":"4","last_reported":1751065854,"current_range_meters":13600,"station_id":"ce4bh112rcd13ifvqda0","pricing_plan_id":"cebpf4jnsgd1na2vs0mg"},{"bike_id":"f9bc5838-6de1-4bee-a9e2-fb1c20e06dc5","system_id":"levelo_inurba_marseille","lat":43.285632,"lon":5.395008,"is_reserved":false,"is_disabled":false,"rental_uris":{"android":"levelo://app?vid=f9bc5838-6de1-4bee-a9e2-fb1c20e06dc5","ios":"levelo://app?vid=f9bc5838-6de1-4bee-a9e2-fb1c20e06dc5"},"vehicle_type_id":"4","last_reported":1751065854,"current_range_meters":13600,"station_id":"ce4bh292rcd13ifvqdg0","pricing_plan_id":"cebpf4jnsgd1na2vs0mg"},{"bike_id":"9e6e35af-b84e-47f2-b4d4-7404ec83bff1","system_id":"levelo_inurba_marseille","lat":43.28352,"lon":5.38115,"is_reserved":false,"is_disabled":false,"rental_uris":{"android":"levelo://app?vid=9e6e35af-b84e-47f2-b4d4-7404ec83bff1","ios":"levelo://app?vid=9e6e35af-b84e-47f2-b4d4-7404ec83bff1"},"vehicle_type_id":"4","last_reported":1751065854,"current_range_meters":13600,"station_id":"ce4bh412rcd13ifvqdr0","pricing_plan_id":"cebpf4jnsgd1na2vs0mg"},{"bike_id":"84cdea62-7b1d-4b1a-8f94-00854ad22848","system_id":"levelo_inurba_marseille","lat":43.27177,"lon":5.40996,"is_reserved":false,"is_disabled":false,"rental_uris":{"android":"levelo://app?vid=84cdea62-7b1d-4b1a-8f94-00854ad22848","ios":"levelo://app?vid=84cdea62-7b1d-4b1a-8f94-00854ad22848"},"vehicle_type_id":"4","last_reported":1751065854,"current_range_meters":13600,"station_id":"ce4bhl12rcd13ifvqgf0","pricing_plan_id":"cebpf4jnsgd1na2vs0mg"},{"bike_id":"e6ce70f7-9138-485c-a4db-2c9174614cff","system_id":"levelo_inurba_marseille","lat":43.31759,"lon":5.36889,"is_reserved":false,"is_disabled":false,"rental_uris":{"android":"levelo://app?vid=e6ce70f7-9138-485c-a4db-2c9174614cff","ios":"levelo://app?vid=e6ce70f7-9138-485c-a4db-2c9174614cff"},"vehicle_type_id":"4","last_reported":1751065854,"current_range_meters":14000,"station_id":"","pricing_plan_id":"cebpf4jnsgd1na2vs0mg"},{"bike_id":"13726ea4-91b3-4b24-87ce-db653217d50c","system_id":"levelo_inurba_marseille","lat":43.32137,"lon":5.367445,"is_reserved":false,"is_disabled":false,"rental_uris":{"android":"levelo://app?vid=13726ea4-91b3-4b24-87ce-db653217d50c","ios":"levelo://app?vid=13726ea4-91b3-4b24-87ce-db653217d50c"},"vehicle_type_id":"4","last_reported":1751065854,"current_range_meters":14000,"station_id":"","pricing_plan_id":"cebpf4jnsgd1na2vs0mg"},{"bike_id":"4b58342c-a973-43ae-a4aa-875e3fb09599","system_id":"levelo_inurba_marseille","lat":43.30134,"lon":5.37425,"is_reserved":false,"is_disabled":false,"rental_uris":{"android":"levelo://app?vid=4b58342c-a973-43ae-a4aa-875e3fb09599","ios":"levelo://app?vid=4b58342c-a973-43ae-a4aa-875e3fb09599"},"vehicle_type_id":"4","last_reported":1751065854,"current_range_meters":14000,"station_id":"ce4bgs92rcd13ifvqcc0","pricing_plan_id":"cebpf4jnsgd1na2vs0mg"},{"bike_id":"4d83bcde-c879-4a93-8a86-c61ee6e9a886","system_id":"levelo_inurba_marseille","lat":43.30135,"lon":5.37423,"is_reserved":false,"is_disabled":false,"rental_uris":{"android":"levelo://app?vid=4d83bcde-c879-4a93-8a86-c61ee6e9a886","ios":"levelo://app?vid=4d83bcde-c879-4a93-8a86-c61ee6e9a886"},"vehicle_type_id":"4","last_reported":1751065854,"current_range_meters":14000,"station_id":"ce4bgs92rcd13ifvqcc0","pricing_plan_id":"cebpf4jnsgd1na2vs0mg"},{"bike_id":"19dc3be5-f54e-42ad-85cb-87f2e08a1fb2","system_id":"levelo_inurba_marseille","lat":43.24676,"lon":5.38203,"is_reserved":false,"is_disabled":false,"rental_uris":{"android":"levelo://app?vid=19dc3be5-f54e-42ad-85cb-87f2e08a1fb2","ios":"levelo://app?vid=19dc3be5-f54e-42ad-85cb-87f2e08a1fb2"},"vehicle_type_id":"4","last_reported":1751065854,"current_range_meters":14000,"station_id":"ce4bhih2rcd13ifvqfr0","pricing_plan_id":"cebpf4jnsgd1na2vs0mg"},{"bike_id":"9bf8f1c5-9995-43ba-b576-53c67c8baf8d","system_id":"levelo_inurba_marseille","lat":43.32323,"lon":5.40626,"is_reserved":false,"is_disabled":false,"rental_uris":{"android":"levelo://app?vid=9bf8f1c5-9995-43ba-b576-53c67c8baf8d","ios":"levelo://app?vid=9bf8f1c5-9995-43ba-b576-53c67c8baf8d"},"vehicle_type_id":"4","last_reported":1751065854,"current_range_meters":14000,"station_id":"ce4bhq92rcd13ifvqhjg","pricing_plan_id":"cebpf4jnsgd1na2vs0mg"},{"bike_id":"bbc4a376-bee7-4ad5-a49a-1022d27c1489","system_id":"levelo_inurba_marseille","lat":43.320865,"lon":5.36774,"is_reserved":false,"is_disabled":false,"rental_uris":{"android":"levelo://app?vid=bbc4a376-bee7-4ad5-a49a-1022d27c1489","ios":"levelo://app?vid=bbc4a376-bee7-4ad5-a49a-1022d27c1489"},"vehicle_type_id":"4","last_reported":1751065854,"current_range_meters":14000,"station_id":"ce4bhrh2rcd13ifvqhug","pricing_plan_id":"cebpf4jnsgd1na2vs0mg"},{"bike_id":"b2059454-34f9-4639-b91e-0f3e6ae72b4f","system_id":"levelo_inurba_marseille","lat":43.3358,"lon":5.42827,"is_reserved":false,"is_disabled":false,"rental_uris":{"android":"levelo://app?vid=b2059454-34f9-4639-b91e-0f3e6ae72b4f","ios":"levelo://app?vid=b2059454-34f9-4639-b91e-0f3e6ae72b4f"},"vehicle_type_id":"4","last_reported":1751065854,"current_range_meters":14400,"station_id":"","pricing_plan_id":"cebpf4jnsgd1na2vs0mg"},{"bike_id":"1142d72b-1dd8-4635-bc3e-36ec4fae41d4","system_id":"levelo_inurba_marseille","lat":43.30643,"lon":5.40068,"is_reserved":false,"is_disabled":false,"rental_uris":{"android":"levelo://app?vid=1142d72b-1dd8-4635-bc3e-36ec4fae41d4","ios":"levelo://app?vid=1142d72b-1dd8-4635-bc3e-36ec4fae41d4"},"vehicle_type_id":"4","last_reported":1751065854,"current_range_meters":14400,"station_id":"ce4bh112rcd13ifvqda0","pricing_plan_id":"cebpf4jnsgd1na2vs0mg"},{"bike_id":"06ee009d-fb3d-49c6-8a98-8a4efa61368d","system_id":"levelo_inurba_marseille","lat":43.28571,"lon":5.39496,"is_reserved":false,"is_disabled":false,"rental_uris":{"android":"levelo://app?vid=06ee009d-fb3d-49c6-8a98-8a4efa61368d","ios":"levelo://app?vid=06ee009d-fb3d-49c6-8a98-8a4efa61368d"},"vehicle_type_id":"4","last_reported":1751065854,"current_range_meters":14400,"station_id":"ce4bh292rcd13ifvqdg0","pricing_plan_id":"cebpf4jnsgd1na2vs0mg"},{"bike_id":"815201a7-dbbe-4827-ab77-bd49f80ea5ee","system_id":"levelo_inurba_marseille","lat":43.29746,"lon":5.45993,"is_reserved":false,"is_disabled":false,"rental_uris":{"android":"levelo://app?vid=815201a7-dbbe-4827-ab77-bd49f80ea5ee","ios":"levelo://app?vid=815201a7-dbbe-4827-ab77-bd49f80ea5ee"},"vehicle_type_id":"4","last_reported":1751065854,"current_range_meters":14800,"station_id":"","pricing_plan_id":"cebpf4jnsgd1na2vs0mg"},{"bike_id":"fe499081-7ff4-4b0a-8352-f654eb79d844","system_id":"levelo_inurba_marseille","lat":43.31505,"lon":5.37292,"is_reserved":false,"is_disabled":false,"rental_uris":{"android":"levelo://app?vid=fe499081-7ff4-4b0a-8352-f654eb79d844","ios":"levelo://app?vid=fe499081-7ff4-4b0a-8352-f654eb79d844"},"vehicle_type_id":"4","last_reported":1751065854,"current_range_meters":14800,"station_id":"ce4bgt12rcd13ifvqcd0","pricing_plan_id":"cebpf4jnsgd1na2vs0mg"},{"bike_id":"17b4ba63-9e2d-4064-b7f0-711ac34330d7","system_id":"levelo_inurba_marseille","lat":43.24818,"lon":5.37478,"is_reserved":false,"is_disabled":false,"rental_uris":{"android":"levelo://app?vid=17b4ba63-9e2d-4064-b7f0-711ac34330d7","ios":"levelo://app?vid=17b4ba63-9e2d-4064-b7f0-711ac34330d7"},"vehicle_type_id":"4","last_reported":1751065854,"current_range_meters":15200,"station_id":"ce4bhgh2rcd13ifvqfb0","pricing_plan_id":"cebpf4jnsgd1na2vs0mg"},{"bike_id":"dd2c6de7-3b0e-4cc8-ba9a-3b71d23b2eb4","system_id":"levelo_inurba_marseille","lat":43.28152,"lon":5.42646,"is_reserved":false,"is_disabled":false,"rental_uris":{"android":"levelo://app?vid=dd2c6de7-3b0e-4cc8-ba9a-3b71d23b2eb4","ios":"levelo://app?vid=dd2c6de7-3b0e-4cc8-ba9a-3b71d23b2eb4"},"vehicle_type_id":"4","last_reported":1751065854,"current_range_meters":15200,"station_id":"ce4bhnh2rcd13ifvqgug","pricing_plan_id":"cebpf4jnsgd1na2vs0mg"},{"bike_id":"b680a168-7e85-4fca-bea1-dd5815a4911a","system_id":"levelo_inurba_marseille","lat":43.34027,"lon":5.37493,"is_reserved":false,"is_disabled":false,"rental_uris":{"android":"levelo://app?vid=b680a168-7e85-4fca-bea1-dd5815a4911a","ios":"levelo://app?vid=b680a168-7e85-4fca-bea1-dd5815a4911a"},"vehicle_type_id":"4","last_reported":1751065854,"current_range_meters":16000,"station_id":"","pricing_plan_id":"cebpf4jnsgd1na2vs0mg"},{"bike_id":"85669eca-80d4-4f6a-8c3a-c927939c3f3e","system_id":"levelo_inurba_marseille","lat":43.29026,"lon":5.38641,"is_reserved":false,"is_disabled":false,"rental_uris":{"android":"levelo://app?vid=85669eca-80d4-4f6a-8c3a-c927939c3f3e","ios":"levelo://app?vid=85669eca-80d4-4f6a-8c3a-c927939c3f3e"},"vehicle_type_id":"4","last_reported":1751065854,"current_range_meters":16000,"station_id":"ce4bh4p2rcd13ifvqe0g","pricing_plan_id":"cebpf4jnsgd1na2vs0mg"},{"bike_id":"d74d7be5-ba54-4d68-9cdb-a520d677c267","system_id":"levelo_inurba_marseille","lat":43.2321,"lon":5.35579,"is_reserved":false,"is_disabled":false,"rental_uris":{"android":"levelo://app?vid=d74d7be5-ba54-4d68-9cdb-a520d677c267","ios":"levelo://app?vid=d74d7be5-ba54-4d68-9cdb-a520d677c267"},"vehicle_type_id":"4","last_reported":1751065854,"current_range_meters":16000,"station_id":"ce4bhu92rcd13ifvqi70","pricing_plan_id":"cebpf4jnsgd1na2vs0mg"},{"bike_id":"721165c1-ef6f-40cc-8d33-af3a7999864b","system_id":"levelo_inurba_marseille","lat":43.32652,"lon":5.37866,"is_reserved":false,"is_disabled":false,"rental_uris":{"android":"levelo://app?vid=721165c1-ef6f-40cc-8d33-af3a7999864b","ios":"levelo://app?vid=721165c1-ef6f-40cc-8d33-af3a7999864b"},"vehicle_type_id":"4","last_reported":1751065854,"current_range_meters":16400,"station_id":"","pricing_plan_id":"cebpf4jnsgd1na2vs0mg"},{"bike_id":"0e8e85f4-b022-4370-bc8e-48089a433016","system_id":"levelo_inurba_marseille","lat":43.30808,"lon":5.38165,"is_reserved":false,"is_disabled":false,"rental_uris":{"android":"levelo://app?vid=0e8e85f4-b022-4370-bc8e-48089a433016","ios":"levelo://app?vid=0e8e85f4-b022-4370-bc8e-48089a433016"},"vehicle_type_id":"4","last_reported":1751065854,"current_range_meters":16400,"station_id":"ce4bgt12rcd13ifvqce0","pricing_plan_id":"cebpf4jnsgd1na2vs0mg"},{"bike_id":"24e12cb0-24bd-4bdd-a547-15c679e436a6","system_id":"levelo_inurba_marseille","lat":43.298952,"lon":5.397716,"is_reserved":false,"is_disabled":false,"rental_uris":{"android":"levelo://app?vid=24e12cb0-24bd-4bdd-a547-15c679e436a6","ios":"levelo://app?vid=24e12cb0-24bd-4bdd-a547-15c679e436a6"},"vehicle_type_id":"4","last_reported":1751065854,"current_range_meters":16400,"station_id":"ce4bh0h2rcd13ifvqd50","pricing_plan_id":"cebpf4jnsgd1na2vs0mg"},{"bike_id":"81115363-d7ba-42ce-969b-a1d7ad97fa06","system_id":"levelo_inurba_marseille","lat":43.33742,"lon":5.39192,"is_reserved":false,"is_disabled":false,"rental_uris":{"android":"levelo://app?vid=81115363-d7ba-42ce-969b-a1d7ad97fa06","ios":"levelo://app?vid=81115363-d7ba-42ce-969b-a1d7ad97fa06"},"vehicle_type_id":"4","last_reported":1751065854,"current_range_meters":16400,"station_id":"ce4bhr92rcd13ifvqhsg","pricing_plan_id":"cebpf4jnsgd1na2vs0mg"},{"bike_id":"873ce198-d36d-4815-8778-b72bd2ca0116","system_id":"levelo_inurba_marseille","lat":43.32103,"lon":5.36779,"is_reserved":false,"is_disabled":false,"rental_uris":{"android":"levelo://app?vid=873ce198-d36d-4815-8778-b72bd2ca0116","ios":"levelo://app?vid=873ce198-d36d-4815-8778-b72bd2ca0116"},"vehicle_type_id":"4","last_reported":1751065854,"current_range_meters":16400,"station_id":"ce4bhrh2rcd13ifvqhug","pricing_plan_id":"cebpf4jnsgd1na2vs0mg"},{"bike_id":"f1ff92a8-5c11-4ada-9288-1fbc0651bc7b","system_id":"levelo_inurba_marseille","lat":43.28832,"lon":5.43844,"is_reserved":false,"is_disabled":false,"rental_uris":{"android":"levelo://app?vid=f1ff92a8-5c11-4ada-9288-1fbc0651bc7b","ios":"levelo://app?vid=f1ff92a8-5c11-4ada-9288-1fbc0651bc7b"},"vehicle_type_id":"4","last_reported":1751065854,"current_range_meters":16800,"station_id":"","pricing_plan_id":"cebpf4jnsgd1na2vs0mg"},{"bike_id":"dd8e249a-3d2d-4b04-9cc3-4de43feb86b3","system_id":"levelo_inurba_marseille","lat":43.295365,"lon":5.385463,"is_reserved":false,"is_disabled":false,"rental_uris":{"android":"levelo://app?vid=dd8e249a-3d2d-4b04-9cc3-4de43feb86b3","ios":"levelo://app?vid=dd8e249a-3d2d-4b04-9cc3-4de43feb86b3"},"vehicle_type_id":"4","last_reported":1751065854,"current_range_meters":16800,"station_id":"ce4bgih2rcd13ifvqba0","pricing_plan_id":"cebpf4jnsgd1na2vs0mg"},{"bike_id":"576289f8-cb8b-4fe0-b67f-84826d253af0","system_id":"levelo_inurba_marseille","lat":43.29601,"lon":5.38101,"is_reserved":false,"is_disabled":false,"rental_uris":{"android":"levelo://app?vid=576289f8-cb8b-4fe0-b67f-84826d253af0","ios":"levelo://app?vid=576289f8-cb8b-4fe0-b67f-84826d253af0"},"vehicle_type_id":"4","last_reported":1751065854,"current_range_meters":16800,"station_id":"ce4bgl12rcd13ifvqbo0","pricing_plan_id":"cebpf4jnsgd1na2vs0mg"},{"bike_id":"74a307a0-a3f4-4169-871e-f0a615796b8e","system_id":"levelo_inurba_marseille","lat":43.29568,"lon":5.39971,"is_reserved":false,"is_disabled":false,"rental_uris":{"android":"levelo://app?vid=74a307a0-a3f4-4169-871e-f0a615796b8e","ios":"levelo://app?vid=74a307a0-a3f4-4169-871e-f0a615796b8e"},"vehicle_type_id":"4","last_reported":1751065854,"current_range_meters":16800,"station_id":"ce4bh312rcd13ifvqdj0","pricing_plan_id":"cebpf4jnsgd1na2vs0mg"},{"bike_id":"7feaf67b-ff72-465f-bb0b-3373a29cb948","system_id":"levelo_inurba_marseille","lat":43.28663,"lon":5.36341,"is_reserved":false,"is_disabled":false,"rental_uris":{"android":"levelo://app?vid=7feaf67b-ff72-465f-bb0b-3373a29cb948","ios":"levelo://app?vid=7feaf67b-ff72-465f-bb0b-3373a29cb948"},"vehicle_type_id":"4","last_reported":1751065854,"current_range_meters":16800,"station_id":"ce4bhah2rcd13ifvqej0","pricing_plan_id":"cebpf4jnsgd1na2vs0mg"},{"bike_id":"96ac4a9b-fe66-446b-9d08-bf00736fc549","system_id":"levelo_inurba_marseille","lat":43.27902,"lon":5.38013,"is_reserved":false,"is_disabled":false,"rental_uris":{"android":"levelo://app?vid=96ac4a9b-fe66-446b-9d08-bf00736fc549","ios":"levelo://app?vid=96ac4a9b-fe66-446b-9d08-bf00736fc549"},"vehicle_type_id":"4","last_reported":1751065854,"current_range_meters":16800,"station_id":"ce4bhf92rcd13ifvqf50","pricing_plan_id":"cebpf4jnsgd1na2vs0mg"},{"bike_id":"12c7fc9f-7c7b-4185-9b2f-badd0c17e36b","system_id":"levelo_inurba_marseille","lat":43.2476,"lon":5.37444,"is_reserved":false,"is_disabled":false,"rental_uris":{"android":"levelo://app?vid=12c7fc9f-7c7b-4185-9b2f-badd0c17e36b","ios":"levelo://app?vid=12c7fc9f-7c7b-4185-9b2f-badd0c17e36b"},"vehicle_type_id":"4","last_reported":1751065854,"current_range_meters":16800,"station_id":"ce4bhgh2rcd13ifvqfb0","pricing_plan_id":"cebpf4jnsgd1na2vs0mg"},{"bike_id":"4a2cf1d6-62d5-4abf-a38d-0f2569e54c39","system_id":"levelo_inurba_marseille","lat":43.32363,"lon":5.38855,"is_reserved":false,"is_disabled":false,"rental_uris":{"android":"levelo://app?vid=4a2cf1d6-62d5-4abf-a38d-0f2569e54c39","ios":"levelo://app?vid=4a2cf1d6-62d5-4abf-a38d-0f2569e54c39"},"vehicle_type_id":"4","last_reported":1751065854,"current_range_meters":16800,"station_id":"ce4bhqp2rcd13ifvqhog","pricing_plan_id":"cebpf4jnsgd1na2vs0mg"},{"bike_id":"a7883090-0e10-4075-944b-a3cca54bc544","system_id":"levelo_inurba_marseille","lat":43.22512,"lon":5.34819,"is_reserved":false,"is_disabled":false,"rental_uris":{"android":"levelo://app?vid=a7883090-0e10-4075-944b-a3cca54bc544","ios":"levelo://app?vid=a7883090-0e10-4075-944b-a3cca54bc544"},"vehicle_type_id":"4","last_reported":1751065854,"current_range_meters":16800,"station_id":"st_cvj5dfep6f1abm77gieg","pricing_plan_id":"cebpf4jnsgd1na2vs0mg"},{"bike_id":"14e8ef37-e834-4d76-9946-e98f7a083a2f","system_id":"levelo_inurba_marseille","lat":43.21199,"lon":5.35077,"is_reserved":false,"is_disabled":false,"rental_uris":{"android":"levelo://app?vid=14e8ef37-e834-4d76-9946-e98f7a083a2f","ios":"levelo://app?vid=14e8ef37-e834-4d76-9946-e98f7a083a2f"},"vehicle_type_id":"4","last_reported":1751065854,"current_range_meters":16800,"station_id":"st_cvj6sg6p6f1abm77japg","pricing_plan_id":"cebpf4jnsgd1na2vs0mg"},{"bike_id":"29e30b4e-3a72-4977-b18a-ecd80772bf2a","system_id":"levelo_inurba_marseille","lat":43.26924,"lon":5.4209,"is_reserved":false,"is_disabled":false,"rental_uris":{"android":"levelo://app?vid=29e30b4e-3a72-4977-b18a-ecd80772bf2a","ios":"levelo://app?vid=29e30b4e-3a72-4977-b18a-ecd80772bf2a"},"vehicle_type_id":"4","last_reported":1751065854,"current_range_meters":17200,"station_id":"","pricing_plan_id":"cebpf4jnsgd1na2vs0mg"},{"bike_id":"0c803610-f6e9-41d4-936d-0b433fa62796","system_id":"levelo_inurba_marseille","lat":43.30184,"lon":5.37833,"is_reserved":false,"is_disabled":false,"rental_uris":{"android":"levelo://app?vid=0c803610-f6e9-41d4-936d-0b433fa62796","ios":"levelo://app?vid=0c803610-f6e9-41d4-936d-0b433fa62796"},"vehicle_type_id":"4","last_reported":1751065854,"current_range_meters":17200,"station_id":"","pricing_plan_id":"cebpf4jnsgd1na2vs0mg"},{"bike_id":"c686e7c2-9166-4249-92c6-b4cb91fcfd98","system_id":"levelo_inurba_marseille","lat":43.308,"lon":5.381783,"is_reserved":false,"is_disabled":false,"rental_uris":{"android":"levelo://app?vid=c686e7c2-9166-4249-92c6-b4cb91fcfd98","ios":"levelo://app?vid=c686e7c2-9166-4249-92c6-b4cb91fcfd98"},"vehicle_type_id":"4","last_reported":1751065854,"current_range_meters":17200,"station_id":"ce4bgt12rcd13ifvqce0","pricing_plan_id":"cebpf4jnsgd1na2vs0mg"},{"bike_id":"f2e8df84-c8b1-410d-8e1a-f92bf0b775f3","system_id":"levelo_inurba_marseille","lat":43.30336,"lon":5.4043,"is_reserved":false,"is_disabled":false,"rental_uris":{"android":"levelo://app?vid=f2e8df84-c8b1-410d-8e1a-f92bf0b775f3","ios":"levelo://app?vid=f2e8df84-c8b1-410d-8e1a-f92bf0b775f3"},"vehicle_type_id":"4","last_reported":1751065854,"current_range_meters":17200,"station_id":"ce4bh012rcd13ifvqd10","pricing_plan_id":"cebpf4jnsgd1na2vs0mg"},{"bike_id":"6813a4c2-e180-4702-90d1-c3f7f1ff0023","system_id":"levelo_inurba_marseille","lat":43.304215,"lon":5.397555,"is_reserved":false,"is_disabled":false,"rental_uris":{"android":"levelo://app?vid=6813a4c2-e180-4702-90d1-c3f7f1ff0023","ios":"levelo://app?vid=6813a4c2-e180-4702-90d1-c3f7f1ff0023"},"vehicle_type_id":"4","last_reported":1751065854,"current_range_meters":17200,"station_id":"ce4bh092rcd13ifvqd20","pricing_plan_id":"cebpf4jnsgd1na2vs0mg"},{"bike_id":"509deaef-3043-4b97-93ce-2900d4ee7f3f","system_id":"levelo_inurba_marseille","lat":43.29517,"lon":5.39405,"is_reserved":false,"is_disabled":false,"rental_uris":{"android":"levelo://app?vid=509deaef-3043-4b97-93ce-2900d4ee7f3f","ios":"levelo://app?vid=509deaef-3043-4b97-93ce-2900d4ee7f3f"},"vehicle_type_id":"4","last_reported":1751065854,"current_range_meters":17200,"station_id":"ce4bh292rcd13ifvqdf0","pricing_plan_id":"cebpf4jnsgd1na2vs0mg"},{"bike_id":"c99ba3df-f462-45e3-9441-f99b98aa4205","system_id":"levelo_inurba_marseille","lat":43.29026,"lon":5.38655,"is_reserved":false,"is_disabled":false,"rental_uris":{"android":"levelo://app?vid=c99ba3df-f462-45e3-9441-f99b98aa4205","ios":"levelo://app?vid=c99ba3df-f462-45e3-9441-f99b98aa4205"},"vehicle_type_id":"4","last_reported":1751065854,"current_range_meters":17200,"station_id":"ce4bh4p2rcd13ifvqe0g","pricing_plan_id":"cebpf4jnsgd1na2vs0mg"},{"bike_id":"f020d5f0-3e7b-4cc6-98ef-ba2443e01c66","system_id":"levelo_inurba_marseille","lat":43.27172,"lon":5.40996,"is_reserved":false,"is_disabled":false,"rental_uris":{"android":"levelo://app?vid=f020d5f0-3e7b-4cc6-98ef-ba2443e01c66","ios":"levelo://app?vid=f020d5f0-3e7b-4cc6-98ef-ba2443e01c66"},"vehicle_type_id":"4","last_reported":1751065854,"current_range_meters":17200,"station_id":"ce4bhl12rcd13ifvqgf0","pricing_plan_id":"cebpf4jnsgd1na2vs0mg"},{"bike_id":"6af79a00-84aa-4908-a347-34425e08c383","system_id":"levelo_inurba_marseille","lat":43.30281,"lon":5.37569,"is_reserved":false,"is_disabled":false,"rental_uris":{"android":"levelo://app?vid=6af79a00-84aa-4908-a347-34425e08c383","ios":"levelo://app?vid=6af79a00-84aa-4908-a347-34425e08c383"},"vehicle_type_id":"4","last_reported":1751065854,"current_range_meters":17600,"station_id":"","pricing_plan_id":"cebpf4jnsgd1na2vs0mg"},{"bike_id":"805073ca-85b9-42b0-9e57-7e7428595d04","system_id":"levelo_inurba_marseille","lat":43.2885,"lon":5.38459,"is_reserved":false,"is_disabled":false,"rental_uris":{"android":"levelo://app?vid=805073ca-85b9-42b0-9e57-7e7428595d04","ios":"levelo://app?vid=805073ca-85b9-42b0-9e57-7e7428595d04"},"vehicle_type_id":"4","last_reported":1751065854,"current_range_meters":17600,"station_id":"","pricing_plan_id":"cebpf4jnsgd1na2vs0mg"},{"bike_id":"ed8262fe-d3cc-4aa4-8c5e-9e3e5d060cb8","system_id":"levelo_inurba_marseille","lat":43.29262,"lon":5.40898,"is_reserved":false,"is_disabled":false,"rental_uris":{"android":"levelo://app?vid=ed8262fe-d3cc-4aa4-8c5e-9e3e5d060cb8","ios":"levelo://app?vid=ed8262fe-d3cc-4aa4-8c5e-9e3e5d060cb8"},"vehicle_type_id":"4","last_reported":1751065854,"current_range_meters":17600,"station_id":"ce4bh192rcd13ifvqdc0","pricing_plan_id":"cebpf4jnsgd1na2vs0mg"},{"bike_id":"a151b0e8-86f2-43f3-a75f-28984150d991","system_id":"levelo_inurba_marseille","lat":43.29038,"lon":5.39979,"is_reserved":false,"is_disabled":false,"rental_uris":{"android":"levelo://app?vid=a151b0e8-86f2-43f3-a75f-28984150d991","ios":"levelo://app?vid=a151b0e8-86f2-43f3-a75f-28984150d991"},"vehicle_type_id":"4","last_reported":1751065854,"current_range_meters":17600,"station_id":"ce4bh392rcd13ifvqdm0","pricing_plan_id":"cebpf4jnsgd1na2vs0mg"},{"bike_id":"6bd9b448-0b38-4c33-b738-f1b5e8722b1e","system_id":"levelo_inurba_marseille","lat":43.27173,"lon":5.40987,"is_reserved":false,"is_disabled":false,"rental_uris":{"android":"levelo://app?vid=6bd9b448-0b38-4c33-b738-f1b5e8722b1e","ios":"levelo://app?vid=6bd9b448-0b38-4c33-b738-f1b5e8722b1e"},"vehicle_type_id":"4","last_reported":1751065854,"current_range_meters":17600,"station_id":"ce4bhl12rcd13ifvqgf0","pricing_plan_id":"cebpf4jnsgd1na2vs0mg"},{"bike_id":"43b90f66-d6f9-4e4e-a32f-49c531e37b2d","system_id":"levelo_inurba_marseille","lat":43.26262,"lon":5.40186,"is_reserved":false,"is_disabled":false,"rental_uris":{"android":"levelo://app?vid=43b90f66-d6f9-4e4e-a32f-49c531e37b2d","ios":"levelo://app?vid=43b90f66-d6f9-4e4e-a32f-49c531e37b2d"},"vehicle_type_id":"4","last_reported":1751065854,"current_range_meters":18000,"station_id":"","pricing_plan_id":"cebpf4jnsgd1na2vs0mg"},{"bike_id":"e913e37b-d5d1-42b5-879e-02d25f801181","system_id":"levelo_inurba_marseille","lat":43.29531,"lon":5.38541,"is_reserved":false,"is_disabled":false,"rental_uris":{"android":"levelo://app?vid=e913e37b-d5d1-42b5-879e-02d25f801181","ios":"levelo://app?vid=e913e37b-d5d1-42b5-879e-02d25f801181"},"vehicle_type_id":"4","last_reported":1751065854,"current_range_meters":18000,"station_id":"ce4bgih2rcd13ifvqba0","pricing_plan_id":"cebpf4jnsgd1na2vs0mg"},{"bike_id":"e2f100fc-6a18-4e68-a1ba-9090ef1f425d","system_id":"levelo_inurba_marseille","lat":43.29278,"lon":5.401293,"is_reserved":false,"is_disabled":false,"rental_uris":{"android":"levelo://app?vid=e2f100fc-6a18-4e68-a1ba-9090ef1f425d","ios":"levelo://app?vid=e2f100fc-6a18-4e68-a1ba-9090ef1f425d"},"vehicle_type_id":"4","last_reported":1751065854,"current_range_meters":18000,"station_id":"ce4bh312rcd13ifvqdk0","pricing_plan_id":"cebpf4jnsgd1na2vs0mg"},{"bike_id":"641e6289-6811-41fe-a848-4459481912e3","system_id":"levelo_inurba_marseille","lat":43.27907,"lon":5.39582,"is_reserved":false,"is_disabled":false,"rental_uris":{"android":"levelo://app?vid=641e6289-6811-41fe-a848-4459481912e3","ios":"levelo://app?vid=641e6289-6811-41fe-a848-4459481912e3"},"vehicle_type_id":"4","last_reported":1751065854,"current_range_meters":18000,"station_id":"ce4bhf92rcd13ifvqf40","pricing_plan_id":"cebpf4jnsgd1na2vs0mg"},{"bike_id":"4043f5ed-1c71-456d-9c90-de5b8866cdaf","system_id":"levelo_inurba_marseille","lat":43.22949,"lon":5.35385,"is_reserved":false,"is_disabled":false,"rental_uris":{"android":"levelo://app?vid=4043f5ed-1c71-456d-9c90-de5b8866cdaf","ios":"levelo://app?vid=4043f5ed-1c71-456d-9c90-de5b8866cdaf"},"vehicle_type_id":"4","last_reported":1751065854,"current_range_meters":18000,"station_id":"cpo3532slgdg3j2ikp40","pricing_plan_id":"cebpf4jnsgd1na2vs0mg"},{"bike_id":"b334124c-c876-45e4-8b38-f47ede11b4b7","system_id":"levelo_inurba_marseille","lat":43.217569,"lon":5.345909,"is_reserved":false,"is_disabled":false,"rental_uris":{"android":"levelo://app?vid=b334124c-c876-45e4-8b38-f47ede11b4b7","ios":"levelo://app?vid=b334124c-c876-45e4-8b38-f47ede11b4b7"},"vehicle_type_id":"4","last_reported":1751065854,"current_range_meters":18000,"station_id":"st_cvj6r9ubvosntc0bgbag","pricing_plan_id":"cebpf4jnsgd1na2vs0mg"},{"bike_id":"b6a8d8dc-8e4c-4fdb-9d51-4a2a085f02d2","system_id":"levelo_inurba_marseille","lat":43.29435,"lon":5.39755,"is_reserved":false,"is_disabled":false,"rental_uris":{"android":"levelo://app?vid=b6a8d8dc-8e4c-4fdb-9d51-4a2a085f02d2","ios":"levelo://app?vid=b6a8d8dc-8e4c-4fdb-9d51-4a2a085f02d2"},"vehicle_type_id":"4","last_reported":1751065854,"current_range_meters":18800,"station_id":"ce4bh3h2rcd13ifvqdo0","pricing_plan_id":"cebpf4jnsgd1na2vs0mg"},{"bike_id":"962fb7a9-f330-4f21-b9c2-410fc2560e49","system_id":"levelo_inurba_marseille","lat":43.28697,"lon":5.37399,"is_reserved":false,"is_disabled":false,"rental_uris":{"android":"levelo://app?vid=962fb7a9-f330-4f21-b9c2-410fc2560e49","ios":"levelo://app?vid=962fb7a9-f330-4f21-b9c2-410fc2560e49"},"vehicle_type_id":"4","last_reported":1751065854,"current_range_meters":18800,"station_id":"ce4bh3p2rcd13ifvqdq0","pricing_plan_id":"cebpf4jnsgd1na2vs0mg"},{"bike_id":"cd9a5ecb-cdfb-4665-b028-107f45b245c0","system_id":"levelo_inurba_marseille","lat":43.29091,"lon":5.38143,"is_reserved":false,"is_disabled":false,"rental_uris":{"android":"levelo://app?vid=cd9a5ecb-cdfb-4665-b028-107f45b245c0","ios":"levelo://app?vid=cd9a5ecb-cdfb-4665-b028-107f45b245c0"},"vehicle_type_id":"4","last_reported":1751065854,"current_range_meters":18800,"station_id":"ce4bh512rcd13ifvqe2g","pricing_plan_id":"cebpf4jnsgd1na2vs0mg"},{"bike_id":"efe9c120-9b15-48fe-b939-eec20a70411a","system_id":"levelo_inurba_marseille","lat":43.28725,"lon":5.37945,"is_reserved":false,"is_disabled":false,"rental_uris":{"android":"levelo://app?vid=efe9c120-9b15-48fe-b939-eec20a70411a","ios":"levelo://app?vid=efe9c120-9b15-48fe-b939-eec20a70411a"},"vehicle_type_id":"4","last_reported":1751065854,"current_range_meters":18800,"station_id":"ce4bh9p2rcd13ifvqec0","pricing_plan_id":"cebpf4jnsgd1na2vs0mg"},{"bike_id":"2287b753-3344-403e-a9e0-526651a52461","system_id":"levelo_inurba_marseille","lat":43.24069,"lon":5.37763,"is_reserved":false,"is_disabled":false,"rental_uris":{"android":"levelo://app?vid=2287b753-3344-403e-a9e0-526651a52461","ios":"levelo://app?vid=2287b753-3344-403e-a9e0-526651a52461"},"vehicle_type_id":"4","last_reported":1751065854,"current_range_meters":18800,"station_id":"ce4bhnp2rcd13ifvqgvg","pricing_plan_id":"cebpf4jnsgd1na2vs0mg"},{"bike_id":"beab8b8c-76ca-47b7-afaf-0cde5c7bf214","system_id":"levelo_inurba_marseille","lat":43.31753,"lon":5.39014,"is_reserved":false,"is_disabled":false,"rental_uris":{"android":"levelo://app?vid=beab8b8c-76ca-47b7-afaf-0cde5c7bf214","ios":"levelo://app?vid=beab8b8c-76ca-47b7-afaf-0cde5c7bf214"},"vehicle_type_id":"4","last_reported":1751065854,"current_range_meters":18800,"station_id":"ce4bhqp2rcd13ifvqhng","pricing_plan_id":"cebpf4jnsgd1na2vs0mg"},{"bike_id":"f810be2a-3c00-446f-9ba1-1f3840ce349d","system_id":"levelo_inurba_marseille","lat":43.32104,"lon":5.36793,"is_reserved":false,"is_disabled":false,"rental_uris":{"android":"levelo://app?vid=f810be2a-3c00-446f-9ba1-1f3840ce349d","ios":"levelo://app?vid=f810be2a-3c00-446f-9ba1-1f3840ce349d"},"vehicle_type_id":"4","last_reported":1751065854,"current_range_meters":18800,"station_id":"ce4bhrh2rcd13ifvqhug","pricing_plan_id":"cebpf4jnsgd1na2vs0mg"},{"bike_id":"73eae19d-5cc5-48fe-810c-85fc7175c6a0","system_id":"levelo_inurba_marseille","lat":43.23059,"lon":5.3552,"is_reserved":false,"is_disabled":false,"rental_uris":{"android":"levelo://app?vid=73eae19d-5cc5-48fe-810c-85fc7175c6a0","ios":"levelo://app?vid=73eae19d-5cc5-48fe-810c-85fc7175c6a0"},"vehicle_type_id":"4","last_reported":1751065854,"current_range_meters":18800,"station_id":"cpo3342slgdg3j2ifvpg","pricing_plan_id":"cebpf4jnsgd1na2vs0mg"},{"bike_id":"b7b58613-cdc6-4750-8137-2d44544d5e13","system_id":"levelo_inurba_marseille","lat":43.31482,"lon":5.36945,"is_reserved":false,"is_disabled":false,"rental_uris":{"android":"levelo://app?vid=b7b58613-cdc6-4750-8137-2d44544d5e13","ios":"levelo://app?vid=b7b58613-cdc6-4750-8137-2d44544d5e13"},"vehicle_type_id":"4","last_reported":1751065854,"current_range_meters":19200,"station_id":"","pricing_plan_id":"cebpf4jnsgd1na2vs0mg"},{"bike_id":"b13877a6-4825-4d82-b46b-67fa8ad66c5d","system_id":"levelo_inurba_marseille","lat":43.21213,"lon":5.35034,"is_reserved":false,"is_disabled":false,"rental_uris":{"android":"levelo://app?vid=b13877a6-4825-4d82-b46b-67fa8ad66c5d","ios":"levelo://app?vid=b13877a6-4825-4d82-b46b-67fa8ad66c5d"},"vehicle_type_id":"4","last_reported":1751065854,"current_range_meters":19200,"station_id":"","pricing_plan_id":"cebpf4jnsgd1na2vs0mg"},{"bike_id":"44b677c8-76ed-4eac-8888-58151f9d5d6e","system_id":"levelo_inurba_marseille","lat":43.31481,"lon":5.36929,"is_reserved":false,"is_disabled":false,"rental_uris":{"android":"levelo://app?vid=44b677c8-76ed-4eac-8888-58151f9d5d6e","ios":"levelo://app?vid=44b677c8-76ed-4eac-8888-58151f9d5d6e"},"vehicle_type_id":"4","last_reported":1751065854,"current_range_meters":19200,"station_id":"","pricing_plan_id":"cebpf4jnsgd1na2vs0mg"},{"bike_id":"45b25a45-8ea9-48c0-bfeb-2f1c80281eb6","system_id":"levelo_inurba_marseille","lat":43.27367,"lon":5.36263,"is_reserved":false,"is_disabled":false,"rental_uris":{"android":"levelo://app?vid=45b25a45-8ea9-48c0-bfeb-2f1c80281eb6","ios":"levelo://app?vid=45b25a45-8ea9-48c0-bfeb-2f1c80281eb6"},"vehicle_type_id":"4","last_reported":1751065854,"current_range_meters":19200,"station_id":"ce4bhbh2rcd13ifvqeo0","pricing_plan_id":"cebpf4jnsgd1na2vs0mg"},{"bike_id":"199da982-c58a-463c-8d09-2d4a921b2dff","system_id":"levelo_inurba_marseille","lat":43.28614,"lon":5.35102,"is_reserved":false,"is_disabled":false,"rental_uris":{"android":"levelo://app?vid=199da982-c58a-463c-8d09-2d4a921b2dff","ios":"levelo://app?vid=199da982-c58a-463c-8d09-2d4a921b2dff"},"vehicle_type_id":"4","last_reported":1751065854,"current_range_meters":19200,"station_id":"ce4bhch2rcd13ifvqeug","pricing_plan_id":"cebpf4jnsgd1na2vs0mg"},{"bike_id":"2319f758-8cc4-44be-a026-46a4638bdf6c","system_id":"levelo_inurba_marseille","lat":43.27921,"lon":5.39601,"is_reserved":false,"is_disabled":false,"rental_uris":{"android":"levelo://app?vid=2319f758-8cc4-44be-a026-46a4638bdf6c","ios":"levelo://app?vid=2319f758-8cc4-44be-a026-46a4638bdf6c"},"vehicle_type_id":"4","last_reported":1751065854,"current_range_meters":19200,"station_id":"ce4bhf92rcd13ifvqf40","pricing_plan_id":"cebpf4jnsgd1na2vs0mg"},{"bike_id":"7de6199c-be75-4198-b587-0b9314aee21f","system_id":"levelo_inurba_marseille","lat":43.27923,"lon":5.39585,"is_reserved":false,"is_disabled":false,"rental_uris":{"android":"levelo://app?vid=7de6199c-be75-4198-b587-0b9314aee21f","ios":"levelo://app?vid=7de6199c-be75-4198-b587-0b9314aee21f"},"vehicle_type_id":"4","last_reported":1751065854,"current_range_meters":19200,"station_id":"ce4bhf92rcd13ifvqf40","pricing_plan_id":"cebpf4jnsgd1na2vs0mg"},{"bike_id":"420562ea-bd5a-4e39-ad5b-d81a14c5ba59","system_id":"levelo_inurba_marseille","lat":43.27836,"lon":5.39211,"is_reserved":false,"is_disabled":false,"rental_uris":{"android":"levelo://app?vid=420562ea-bd5a-4e39-ad5b-d81a14c5ba59","ios":"levelo://app?vid=420562ea-bd5a-4e39-ad5b-d81a14c5ba59"},"vehicle_type_id":"4","last_reported":1751065854,"current_range_meters":19200,"station_id":"ce4bhjp2rcd13ifvqga0","pricing_plan_id":"cebpf4jnsgd1na2vs0mg"},{"bike_id":"d308c658-b19c-49c0-8014-5506ff26f69a","system_id":"levelo_inurba_marseille","lat":43.23085,"lon":5.40509,"is_reserved":false,"is_disabled":false,"rental_uris":{"android":"levelo://app?vid=d308c658-b19c-49c0-8014-5506ff26f69a","ios":"levelo://app?vid=d308c658-b19c-49c0-8014-5506ff26f69a"},"vehicle_type_id":"4","last_reported":1751065854,"current_range_meters":19600,"station_id":"","pricing_plan_id":"cebpf4jnsgd1na2vs0mg"},{"bike_id":"f342fe44-5d74-40e3-a0fa-5214bcb4d08c","system_id":"levelo_inurba_marseille","lat":43.31717,"lon":5.40454,"is_reserved":false,"is_disabled":false,"rental_uris":{"android":"levelo://app?vid=f342fe44-5d74-40e3-a0fa-5214bcb4d08c","ios":"levelo://app?vid=f342fe44-5d74-40e3-a0fa-5214bcb4d08c"},"vehicle_type_id":"4","last_reported":1751065854,"current_range_meters":19600,"station_id":"ce4bh012rcd13ifvqd00","pricing_plan_id":"cebpf4jnsgd1na2vs0mg"},{"bike_id":"9dde9d03-f000-4365-a155-c02d84554b38","system_id":"levelo_inurba_marseille","lat":43.29014,"lon":5.38617,"is_reserved":false,"is_disabled":false,"rental_uris":{"android":"levelo://app?vid=9dde9d03-f000-4365-a155-c02d84554b38","ios":"levelo://app?vid=9dde9d03-f000-4365-a155-c02d84554b38"},"vehicle_type_id":"4","last_reported":1751065854,"current_range_meters":19600,"station_id":"ce4bh4p2rcd13ifvqe0g","pricing_plan_id":"cebpf4jnsgd1na2vs0mg"},{"bike_id":"6b4cec30-6f8c-4070-b381-df59368ed543","system_id":"levelo_inurba_marseille","lat":43.29007,"lon":5.38664,"is_reserved":false,"is_disabled":false,"rental_uris":{"android":"levelo://app?vid=6b4cec30-6f8c-4070-b381-df59368ed543","ios":"levelo://app?vid=6b4cec30-6f8c-4070-b381-df59368ed543"},"vehicle_type_id":"4","last_reported":1751065854,"current_range_meters":19600,"station_id":"ce4bh4p2rcd13ifvqe0g","pricing_plan_id":"cebpf4jnsgd1na2vs0mg"},{"bike_id":"c1034231-e977-469e-b6b9-f492e750701a","system_id":"levelo_inurba_marseille","lat":43.284258,"lon":5.349873,"is_reserved":false,"is_disabled":false,"rental_uris":{"android":"levelo://app?vid=c1034231-e977-469e-b6b9-f492e750701a","ios":"levelo://app?vid=c1034231-e977-469e-b6b9-f492e750701a"},"vehicle_type_id":"4","last_reported":1751065854,"current_range_meters":19600,"station_id":"ce4bhbh2rcd13ifvqepg","pricing_plan_id":"cebpf4jnsgd1na2vs0mg"},{"bike_id":"c0a2de0a-20e3-4e62-848e-f0dbd6b2e588","system_id":"levelo_inurba_marseille","lat":43.22512,"lon":5.34806,"is_reserved":false,"is_disabled":false,"rental_uris":{"android":"levelo://app?vid=c0a2de0a-20e3-4e62-848e-f0dbd6b2e588","ios":"levelo://app?vid=c0a2de0a-20e3-4e62-848e-f0dbd6b2e588"},"vehicle_type_id":"4","last_reported":1751065854,"current_range_meters":19600,"station_id":"st_cvj5dfep6f1abm77gieg","pricing_plan_id":"cebpf4jnsgd1na2vs0mg"},{"bike_id":"4f7da216-f811-4c57-9e64-cdee7467bddd","system_id":"levelo_inurba_marseille","lat":43.22493,"lon":5.34781,"is_reserved":false,"is_disabled":false,"rental_uris":{"android":"levelo://app?vid=4f7da216-f811-4c57-9e64-cdee7467bddd","ios":"levelo://app?vid=4f7da216-f811-4c57-9e64-cdee7467bddd"},"vehicle_type_id":"4","last_reported":1751065854,"current_range_meters":19600,"station_id":"st_cvj5dfep6f1abm77gieg","pricing_plan_id":"cebpf4jnsgd1na2vs0mg"},{"bike_id":"37fae773-c603-46e4-b3e1-610479914831","system_id":"levelo_inurba_marseille","lat":43.2723,"lon":5.38706,"is_reserved":false,"is_disabled":false,"rental_uris":{"android":"levelo://app?vid=37fae773-c603-46e4-b3e1-610479914831","ios":"levelo://app?vid=37fae773-c603-46e4-b3e1-610479914831"},"vehicle_type_id":"4","last_reported":1751065854,"current_range_meters":20000,"station_id":"","pricing_plan_id":"cebpf4jnsgd1na2vs0mg"},{"bike_id":"3bbbd3b8-c7b7-49a4-8cc1-59a109047141","system_id":"levelo_inurba_marseille","lat":43.29926,"lon":5.37461,"is_reserved":false,"is_disabled":false,"rental_uris":{"android":"levelo://app?vid=3bbbd3b8-c7b7-49a4-8cc1-59a109047141","ios":"levelo://app?vid=3bbbd3b8-c7b7-49a4-8cc1-59a109047141"},"vehicle_type_id":"4","last_reported":1751065854,"current_range_meters":20000,"station_id":"ce4bgjh2rcd13ifvqbg0","pricing_plan_id":"cebpf4jnsgd1na2vs0mg"},{"bike_id":"044a7db4-f323-4fb1-9ba2-484a6f919f34","system_id":"levelo_inurba_marseille","lat":43.30787,"lon":5.38164,"is_reserved":false,"is_disabled":false,"rental_uris":{"android":"levelo://app?vid=044a7db4-f323-4fb1-9ba2-484a6f919f34","ios":"levelo://app?vid=044a7db4-f323-4fb1-9ba2-484a6f919f34"},"vehicle_type_id":"4","last_reported":1751065854,"current_range_meters":20000,"station_id":"ce4bgt12rcd13ifvqce0","pricing_plan_id":"cebpf4jnsgd1na2vs0mg"},{"bike_id":"db3878bd-8bdb-418e-a678-9388265ed913","system_id":"levelo_inurba_marseille","lat":43.294212,"lon":5.386155,"is_reserved":false,"is_disabled":false,"rental_uris":{"android":"levelo://app?vid=db3878bd-8bdb-418e-a678-9388265ed913","ios":"levelo://app?vid=db3878bd-8bdb-418e-a678-9388265ed913"},"vehicle_type_id":"4","last_reported":1751065854,"current_range_meters":20000,"station_id":"ce4bh2h2rcd13ifvqdh0","pricing_plan_id":"cebpf4jnsgd1na2vs0mg"},{"bike_id":"81312d32-3b67-465f-84d7-8b19e39c90ee","system_id":"levelo_inurba_marseille","lat":43.25494,"lon":5.37674,"is_reserved":false,"is_disabled":false,"rental_uris":{"android":"levelo://app?vid=81312d32-3b67-465f-84d7-8b19e39c90ee","ios":"levelo://app?vid=81312d32-3b67-465f-84d7-8b19e39c90ee"},"vehicle_type_id":"4","last_reported":1751065854,"current_range_meters":20000,"station_id":"ce4bhh12rcd13ifvqff0","pricing_plan_id":"cebpf4jnsgd1na2vs0mg"},{"bike_id":"8938ae4b-572d-47fc-b025-02b05af60188","system_id":"levelo_inurba_marseille","lat":43.22502,"lon":5.34798,"is_reserved":false,"is_disabled":false,"rental_uris":{"android":"levelo://app?vid=8938ae4b-572d-47fc-b025-02b05af60188","ios":"levelo://app?vid=8938ae4b-572d-47fc-b025-02b05af60188"},"vehicle_type_id":"4","last_reported":1751065854,"current_range_meters":20000,"station_id":"st_cvj5dfep6f1abm77gieg","pricing_plan_id":"cebpf4jnsgd1na2vs0mg"},{"bike_id":"8814e667-cf75-4729-9f52-3706f15a90e9","system_id":"levelo_inurba_marseille","lat":43.30432,"lon":5.39744,"is_reserved":false,"is_disabled":false,"rental_uris":{"android":"levelo://app?vid=8814e667-cf75-4729-9f52-3706f15a90e9","ios":"levelo://app?vid=8814e667-cf75-4729-9f52-3706f15a90e9"},"vehicle_type_id":"4","last_reported":1751065854,"current_range_meters":20400,"station_id":"ce4bh092rcd13ifvqd20","pricing_plan_id":"cebpf4jnsgd1na2vs0mg"},{"bike_id":"4c9654ad-a525-406f-9403-7e7f5ab58833","system_id":"levelo_inurba_marseille","lat":43.2872,"lon":5.3794,"is_reserved":false,"is_disabled":false,"rental_uris":{"android":"levelo://app?vid=4c9654ad-a525-406f-9403-7e7f5ab58833","ios":"levelo://app?vid=4c9654ad-a525-406f-9403-7e7f5ab58833"},"vehicle_type_id":"4","last_reported":1751065854,"current_range_meters":20400,"station_id":"ce4bh9p2rcd13ifvqec0","pricing_plan_id":"cebpf4jnsgd1na2vs0mg"},{"bike_id":"59165c66-c191-480e-845f-ffd50d537473","system_id":"levelo_inurba_marseille","lat":43.27889,"lon":5.38022,"is_reserved":false,"is_disabled":false,"rental_uris":{"android":"levelo://app?vid=59165c66-c191-480e-845f-ffd50d537473","ios":"levelo://app?vid=59165c66-c191-480e-845f-ffd50d537473"},"vehicle_type_id":"4","last_reported":1751065854,"current_range_meters":20400,"station_id":"ce4bhf92rcd13ifvqf50","pricing_plan_id":"cebpf4jnsgd1na2vs0mg"},{"bike_id":"50ec48c0-d225-46f2-ba94-8777d234d58c","system_id":"levelo_inurba_marseille","lat":43.25501,"lon":5.37648,"is_reserved":false,"is_disabled":false,"rental_uris":{"android":"levelo://app?vid=50ec48c0-d225-46f2-ba94-8777d234d58c","ios":"levelo://app?vid=50ec48c0-d225-46f2-ba94-8777d234d58c"},"vehicle_type_id":"4","last_reported":1751065854,"current_range_meters":20400,"station_id":"ce4bhh12rcd13ifvqff0","pricing_plan_id":"cebpf4jnsgd1na2vs0mg"},{"bike_id":"0c846c51-d014-472f-b4f7-3ae955011b16","system_id":"levelo_inurba_marseille","lat":43.31083,"lon":5.42425,"is_reserved":false,"is_disabled":false,"rental_uris":{"android":"levelo://app?vid=0c846c51-d014-472f-b4f7-3ae955011b16","ios":"levelo://app?vid=0c846c51-d014-472f-b4f7-3ae955011b16"},"vehicle_type_id":"4","last_reported":1751065854,"current_range_meters":20400,"station_id":"ce4bhp92rcd13ifvqhag","pricing_plan_id":"cebpf4jnsgd1na2vs0mg"},{"bike_id":"33864af8-a8c6-433d-9e21-40c23b504105","system_id":"levelo_inurba_marseille","lat":43.34138,"lon":5.40913,"is_reserved":false,"is_disabled":false,"rental_uris":{"android":"levelo://app?vid=33864af8-a8c6-433d-9e21-40c23b504105","ios":"levelo://app?vid=33864af8-a8c6-433d-9e21-40c23b504105"},"vehicle_type_id":"4","last_reported":1751065854,"current_range_meters":20400,"station_id":"ce4bhqh2rcd13ifvqhlg","pricing_plan_id":"cebpf4jnsgd1na2vs0mg"},{"bike_id":"6672828e-1144-4fd5-8b1c-123a3349e341","system_id":"levelo_inurba_marseille","lat":43.28016,"lon":5.40825,"is_reserved":false,"is_disabled":false,"rental_uris":{"android":"levelo://app?vid=6672828e-1144-4fd5-8b1c-123a3349e341","ios":"levelo://app?vid=6672828e-1144-4fd5-8b1c-123a3349e341"},"vehicle_type_id":"4","last_reported":1751065854,"current_range_meters":20800,"station_id":"","pricing_plan_id":"cebpf4jnsgd1na2vs0mg"},{"bike_id":"00232df6-47e0-4159-9a64-03051f9ea3a1","system_id":"levelo_inurba_marseille","lat":43.28135,"lon":5.39883,"is_reserved":false,"is_disabled":false,"rental_uris":{"android":"levelo://app?vid=00232df6-47e0-4159-9a64-03051f9ea3a1","ios":"levelo://app?vid=00232df6-47e0-4159-9a64-03051f9ea3a1"},"vehicle_type_id":"4","last_reported":1751065854,"current_range_meters":20800,"station_id":"","pricing_plan_id":"cebpf4jnsgd1na2vs0mg"},{"bike_id":"735fb3ec-51d3-42a0-b0e0-35a6ef148211","system_id":"levelo_inurba_marseille","lat":43.31293,"lon":5.37342,"is_reserved":false,"is_disabled":false,"rental_uris":{"android":"levelo://app?vid=735fb3ec-51d3-42a0-b0e0-35a6ef148211","ios":"levelo://app?vid=735fb3ec-51d3-42a0-b0e0-35a6ef148211"},"vehicle_type_id":"4","last_reported":1751065854,"current_range_meters":20800,"station_id":"","pricing_plan_id":"cebpf4jnsgd1na2vs0mg"},{"bike_id":"c595d0e1-c778-4abe-9c79-a9dd74f54e27","system_id":"levelo_inurba_marseille","lat":43.24463,"lon":5.37231,"is_reserved":false,"is_disabled":false,"rental_uris":{"android":"levelo://app?vid=c595d0e1-c778-4abe-9c79-a9dd74f54e27","ios":"levelo://app?vid=c595d0e1-c778-4abe-9c79-a9dd74f54e27"},"vehicle_type_id":"4","last_reported":1751065854,"current_range_meters":20800,"station_id":"","pricing_plan_id":"cebpf4jnsgd1na2vs0mg"},{"bike_id":"9c07d7e3-9e87-4343-b830-91e801f7cce4","system_id":"levelo_inurba_marseille","lat":43.30147,"lon":5.38096,"is_reserved":false,"is_disabled":false,"rental_uris":{"android":"levelo://app?vid=9c07d7e3-9e87-4343-b830-91e801f7cce4","ios":"levelo://app?vid=9c07d7e3-9e87-4343-b830-91e801f7cce4"},"vehicle_type_id":"4","last_reported":1751065854,"current_range_meters":20800,"station_id":"ce4bgjp2rcd13ifvqbh0","pricing_plan_id":"cebpf4jnsgd1na2vs0mg"},{"bike_id":"179c2962-7495-45b1-aaa0-06fc358ab815","system_id":"levelo_inurba_marseille","lat":43.30904,"lon":5.36845,"is_reserved":false,"is_disabled":false,"rental_uris":{"android":"levelo://app?vid=179c2962-7495-45b1-aaa0-06fc358ab815","ios":"levelo://app?vid=179c2962-7495-45b1-aaa0-06fc358ab815"},"vehicle_type_id":"4","last_reported":1751065854,"current_range_meters":20800,"station_id":"ce4bgn92rcd13ifvqbvg","pricing_plan_id":"cebpf4jnsgd1na2vs0mg"},{"bike_id":"5adacf3e-c18b-47ae-a6f9-c34ff30d42e0","system_id":"levelo_inurba_marseille","lat":43.28562,"lon":5.39511,"is_reserved":false,"is_disabled":false,"rental_uris":{"android":"levelo://app?vid=5adacf3e-c18b-47ae-a6f9-c34ff30d42e0","ios":"levelo://app?vid=5adacf3e-c18b-47ae-a6f9-c34ff30d42e0"},"vehicle_type_id":"4","last_reported":1751065854,"current_range_meters":20800,"station_id":"ce4bh292rcd13ifvqdg0","pricing_plan_id":"cebpf4jnsgd1na2vs0mg"},{"bike_id":"60dd3eed-1f25-495f-9a8b-f7268eebe4e7","system_id":"levelo_inurba_marseille","lat":43.28669,"lon":5.38666,"is_reserved":false,"is_disabled":false,"rental_uris":{"android":"levelo://app?vid=60dd3eed-1f25-495f-9a8b-f7268eebe4e7","ios":"levelo://app?vid=60dd3eed-1f25-495f-9a8b-f7268eebe4e7"},"vehicle_type_id":"4","last_reported":1751065854,"current_range_meters":20800,"station_id":"ce4bh492rcd13ifvqdug","pricing_plan_id":"cebpf4jnsgd1na2vs0mg"},{"bike_id":"7757c5d7-8597-4da8-bc28-0c6a39bb89b9","system_id":"levelo_inurba_marseille","lat":43.32289,"lon":5.38263,"is_reserved":false,"is_disabled":false,"rental_uris":{"android":"levelo://app?vid=7757c5d7-8597-4da8-bc28-0c6a39bb89b9","ios":"levelo://app?vid=7757c5d7-8597-4da8-bc28-0c6a39bb89b9"},"vehicle_type_id":"4","last_reported":1751065854,"current_range_meters":20800,"station_id":"ce4bhr12rcd13ifvqhqg","pricing_plan_id":"cebpf4jnsgd1na2vs0mg"},{"bike_id":"a53c4935-a347-4bec-82e7-ff410fea482e","system_id":"levelo_inurba_marseille","lat":43.31115,"lon":5.37779,"is_reserved":false,"is_disabled":false,"rental_uris":{"android":"levelo://app?vid=a53c4935-a347-4bec-82e7-ff410fea482e","ios":"levelo://app?vid=a53c4935-a347-4bec-82e7-ff410fea482e"},"vehicle_type_id":"4","last_reported":1751065854,"current_range_meters":21600,"station_id":"ce4bgt92rcd13ifvqcg0","pricing_plan_id":"cebpf4jnsgd1na2vs0mg"},{"bike_id":"24327496-ca18-444c-a81b-6c4c26e44fc4","system_id":"levelo_inurba_marseille","lat":43.289432,"lon":5.396366,"is_reserved":false,"is_disabled":false,"rental_uris":{"android":"levelo://app?vid=24327496-ca18-444c-a81b-6c4c26e44fc4","ios":"levelo://app?vid=24327496-ca18-444c-a81b-6c4c26e44fc4"},"vehicle_type_id":"4","last_reported":1751065854,"current_range_meters":21600,"station_id":"ce4bh3h2rcd13ifvqdn0","pricing_plan_id":"cebpf4jnsgd1na2vs0mg"},{"bike_id":"93fa22fc-f7cc-4c29-84fc-f4f30b866067","system_id":"levelo_inurba_marseille","lat":43.28713,"lon":5.37366,"is_reserved":false,"is_disabled":false,"rental_uris":{"android":"levelo://app?vid=93fa22fc-f7cc-4c29-84fc-f4f30b866067","ios":"levelo://app?vid=93fa22fc-f7cc-4c29-84fc-f4f30b866067"},"vehicle_type_id":"4","last_reported":1751065854,"current_range_meters":21600,"station_id":"ce4bh3p2rcd13ifvqdq0","pricing_plan_id":"cebpf4jnsgd1na2vs0mg"},{"bike_id":"acea23ba-5095-4a5f-8184-efc4989906cd","system_id":"levelo_inurba_marseille","lat":43.26201,"lon":5.37932,"is_reserved":false,"is_disabled":false,"rental_uris":{"android":"levelo://app?vid=acea23ba-5095-4a5f-8184-efc4989906cd","ios":"levelo://app?vid=acea23ba-5095-4a5f-8184-efc4989906cd"},"vehicle_type_id":"4","last_reported":1751065854,"current_range_meters":21600,"station_id":"ce4bhjp2rcd13ifvqg90","pricing_plan_id":"cebpf4jnsgd1na2vs0mg"},{"bike_id":"0a577a4f-8d5f-4039-b3fc-588f92ad3bcd","system_id":"levelo_inurba_marseille","lat":43.211963,"lon":5.3508,"is_reserved":false,"is_disabled":false,"rental_uris":{"android":"levelo://app?vid=0a577a4f-8d5f-4039-b3fc-588f92ad3bcd","ios":"levelo://app?vid=0a577a4f-8d5f-4039-b3fc-588f92ad3bcd"},"vehicle_type_id":"4","last_reported":1751065854,"current_range_meters":21600,"station_id":"st_cvj6sg6p6f1abm77japg","pricing_plan_id":"cebpf4jnsgd1na2vs0mg"},{"bike_id":"b8b87cec-b8fe-4430-8a44-001a7d4c52d9","system_id":"levelo_inurba_marseille","lat":43.29599,"lon":5.38085,"is_reserved":false,"is_disabled":false,"rental_uris":{"android":"levelo://app?vid=b8b87cec-b8fe-4430-8a44-001a7d4c52d9","ios":"levelo://app?vid=b8b87cec-b8fe-4430-8a44-001a7d4c52d9"},"vehicle_type_id":"4","last_reported":1751065854,"current_range_meters":22000,"station_id":"ce4bgl12rcd13ifvqbo0","pricing_plan_id":"cebpf4jnsgd1na2vs0mg"},{"bike_id":"1013f7b8-c1be-41fe-b6bf-bced632e7fac","system_id":"levelo_inurba_marseille","lat":43.30279,"lon":5.37709,"is_reserved":false,"is_disabled":false,"rental_uris":{"android":"levelo://app?vid=1013f7b8-c1be-41fe-b6bf-bced632e7fac","ios":"levelo://app?vid=1013f7b8-c1be-41fe-b6bf-bced632e7fac"},"vehicle_type_id":"4","last_reported":1751065854,"current_range_meters":22000,"station_id":"ce4bguh2rcd13ifvqcj0","pricing_plan_id":"cebpf4jnsgd1na2vs0mg"},{"bike_id":"e8d76c7c-70c8-4748-89e2-9adfbe1e8703","system_id":"levelo_inurba_marseille","lat":43.29267,"lon":5.38448,"is_reserved":false,"is_disabled":false,"rental_uris":{"android":"levelo://app?vid=e8d76c7c-70c8-4748-89e2-9adfbe1e8703","ios":"levelo://app?vid=e8d76c7c-70c8-4748-89e2-9adfbe1e8703"},"vehicle_type_id":"4","last_reported":1751065854,"current_range_meters":22000,"station_id":"ce4bh692rcd13ifvqea0","pricing_plan_id":"cebpf4jnsgd1na2vs0mg"},{"bike_id":"a49ac062-5b5d-45ce-a615-a8eb9898f673","system_id":"levelo_inurba_marseille","lat":43.29548,"lon":5.38533,"is_reserved":false,"is_disabled":false,"rental_uris":{"android":"levelo://app?vid=a49ac062-5b5d-45ce-a615-a8eb9898f673","ios":"levelo://app?vid=a49ac062-5b5d-45ce-a615-a8eb9898f673"},