{"last_updated":1752754963,"ttl":60,"version":"2.2","data":{"bikes":[{"bike_id":"53b742a7-31ae-4272-9bba-7740339e2a2f","system_id":"levelo_inurba_marseille","lat":43.33747,"lon":5.37463,"is_reserved":false,"is_disabled":false,"rental_uris":{"android":"levelo://app?vid=53b742a7-31ae-4272-9bba-7740339e2a2f","ios":"levelo://app?vid=53b742a7-31ae-4272-9bba-7740339e2a2f"},"vehicle_type_id":"1","last_reported":1752754963,"current_range_meters":24400,"station_id":"","pricing_plan_id":"cebpf4jnsgd1na2vs0mg"},{"bike_id":"d5eda749-47f2-4e7b-b252-17e2d183d9d3","system_id":"levelo_inurba_marseille","lat":43.31332,"lon":5.39691,"is_reserved":false,"is_disabled":false,"rental_uris":{"android":"levelo://app?vid=d5eda749-47f2-4e7b-b252-17e2d183d9d3","ios":"levelo://app?vid=d5eda749-47f2-4e7b-b252-17e2d183d9d3"},"vehicle_type_id":"4","last_reported":1752754963,"current_range_meters":2800,"station_id":"ce4bgvp2rcd13ifvqcu0","pricing_plan_id":"cebpf4jnsgd1na2vs0mg"},{"bike_id":"1230adaa-afbd-45b6-a2f9-57c4671ae934","system_id":"levelo_inurba_marseille","lat":43.26945,"lon":5.38635,"is_reserved":false,"is_disabled":false,"rental_uris":{"android":"levelo://app?vid=1230adaa-afbd-45b6-a2f9-57c4671ae934","ios":"levelo://app?vid=1230adaa-afbd-45b6-a2f9-57c4671ae934"},"vehicle_type_id":"4","last_reported":1752754963,"current_range_meters":3200,"station_id":"ce4bhh92rcd13ifvqfh0","pricing_plan_id":"cebpf4jnsgd1na2vs0mg"},{"bike_id":"09e7d344-016c-4ef5-a2c3-17e3db407ce5","system_id":"levelo_inurba_marseille","lat":43.29553,"lon":5.42297,"is_reserved":false,"is_disabled":false,"rental_uris":{"android":"levelo://app?vid=09e7d344-016c-4ef5-a2c3-17e3db407ce5","ios":"levelo://app?vid=09e7d344-016c-4ef5-a2c3-17e3db407ce5"},"vehicle_type_id":"4","last_reported":1752754963,"current_range_meters":3200,"station_id":"ce4bhph2rcd13ifvqhdg","pricing_plan_id":"cebpf4jnsgd1na2vs0mg"},{"bike_id":"6570c62f-b447-4521-81fa-62732e7b2106","system_id":"levelo_inurba_marseille","lat":43.26939,"lon":5.38916,"is_reserved":false,"is_disabled":false,"rental_uris":{"android":"levelo://app?vid=6570c62f-b447-4521-81fa-62732e7b2106","ios":"levelo://app?vid=6570c62f-b447-4521-81fa-62732e7b2106"},"vehicle_type_id":"4","last_reported":1752754963,"current_range_meters":3600,"station_id":"ce4bhhh2rcd13ifvqfl0","pricing_plan_id":"cebpf4jnsgd1na2vs0mg"},{"bike_id":"b972ec57-fed9-4ec4-a837-4c058c8d65ad","system_id":"levelo_inurba_marseille","lat":43.310787,"lon":5.383493,"is_reserved":false,"is_disabled":false,"rental_uris":{"android":"levelo://app?vid=b972ec57-fed9-4ec4-a837-4c058c8d65ad","ios":"levelo://app?vid=b972ec57-fed9-4ec4-a837-4c058c8d65ad"},"vehicle_type_id":"4","last_reported":1752754963,"current_range_meters":4000,"station_id":"ce4bgv92rcd13ifvqcr0","pricing_plan_id":"cebpf4jnsgd1na2vs0mg"},{"bike_id":"667ea8c5-7f3f-4466-92e1-f07ac8ff0426","system_id":"levelo_inurba_marseille","lat":43.30098,"lon":5.36988,"is_reserved":false,"is_disabled":false,"rental_uris":{"android":"levelo://app?vid=667ea8c5-7f3f-4466-92e1-f07ac8ff0426","ios":"levelo://app?vid=667ea8c5-7f3f-4466-92e1-f07ac8ff0426"},"vehicle_type_id":"4","last_reported":1752754963,"current_range_meters":4800,"station_id":"","pricing_plan_id":"cebpf4jnsgd1na2vs0mg"},{"bike_id":"080b0f22-14dd-4044-a18f-ee7f74366cea","system_id":"levelo_inurba_marseille","lat":43.31988,"lon":5.38147,"is_reserved":false,"is_disabled":true,"rental_uris":{"android":"levelo://app?vid=080b0f22-14dd-4044-a18f-ee7f74366cea","ios":"levelo://app?vid=080b0f22-14dd-4044-a18f-ee7f74366cea"},"vehicle_type_id":"4","last_reported":1752754963,"current_range_meters":4400,"station_id":"ce4bhr12rcd13ifvqhpg","pricing_plan_id":"cebpf4jnsgd1na2vs0mg"},{"bike_id":"e73db4ab-cb65-49e2-aeab-e8d76799777d","system_id":"levelo_inurba_marseille","lat":43.23144,"lon":5.43747,"is_reserved":false,"is_disabled":false,"rental_uris":{"android":"levelo://app?vid=e73db4ab-cb65-49e2-aeab-e8d76799777d","ios":"levelo://app?vid=e73db4ab-cb65-49e2-aeab-e8d76799777d"},"vehicle_type_id":"4","last_reported":1752754963,"current_range_meters":4800,"station_id":"ce4bhmp2rcd13ifvqgog","pricing_plan_id":"cebpf4jnsgd1na2vs0mg"},{"bike_id":"d98ef30e-38a0-41ef-a00a-304afa979a1e","system_id":"levelo_inurba_marseille","lat":43.29888,"lon":5.43665,"is_reserved":false,"is_disabled":false,"rental_uris":{"android":"levelo://app?vid=d98ef30e-38a0-41ef-a00a-304afa979a1e","ios":"levelo://app?vid=d98ef30e-38a0-41ef-a00a-304afa979a1e"},"vehicle_type_id":"4","last_reported":1752754963,"current_range_meters":5600,"station_id":"ce4bhpp2rcd13ifvqhfg","pricing_plan_id":"cebpf4jnsgd1na2vs0mg"},{"bike_id":"1145602c-3b12-4604-b8ff-291284dfc532","system_id":"levelo_inurba_marseille","lat":43.22505,"lon":5.347858,"is_reserved":false,"is_disabled":false,"rental_uris":{"android":"levelo://app?vid=1145602c-3b12-4604-b8ff-291284dfc532","ios":"levelo://app?vid=1145602c-3b12-4604-b8ff-291284dfc532"},"vehicle_type_id":"4","last_reported":1752754963,"current_range_meters":5600,"station_id":"st_cvj5dfep6f1abm77gieg","pricing_plan_id":"cebpf4jnsgd1na2vs0mg"},{"bike_id":"06d1ec58-6cf6-4494-bd53-c6578f2260bc","system_id":"levelo_inurba_marseille","lat":43.27989,"lon":5.41661,"is_reserved":false,"is_disabled":false,"rental_uris":{"android":"levelo://app?vid=06d1ec58-6cf6-4494-bd53-c6578f2260bc","ios":"levelo://app?vid=06d1ec58-6cf6-4494-bd53-c6578f2260bc"},"vehicle_type_id":"4","last_reported":1752754963,"current_range_meters":5600,"station_id":"ce4bho12rcd13ifvqh1g","pricing_plan_id":"cebpf4jnsgd1na2vs0mg"},{"bike_id":"f55c5b2f-966d-4cbc-a7e3-3e5f406fb65d","system_id":"levelo_inurba_marseille","lat":43.21756,"lon":5.34628,"is_reserved":false,"is_disabled":false,"rental_uris":{"android":"levelo://app?vid=f55c5b2f-966d-4cbc-a7e3-3e5f406fb65d","ios":"levelo://app?vid=f55c5b2f-966d-4cbc-a7e3-3e5f406fb65d"},"vehicle_type_id":"4","last_reported":1752754963,"current_range_meters":5600,"station_id":"st_cvj6r9ubvosntc0bgbag","pricing_plan_id":"cebpf4jnsgd1na2vs0mg"},{"bike_id":"5dcb6581-dd19-4072-835b-0428e5406c79","system_id":"levelo_inurba_marseille","lat":43.31352,"lon":5.36709,"is_reserved":false,"is_disabled":false,"rental_uris":{"android":"levelo://app?vid=5dcb6581-dd19-4072-835b-0428e5406c79","ios":"levelo://app?vid=5dcb6581-dd19-4072-835b-0428e5406c79"},"vehicle_type_id":"4","last_reported":1752754963,"current_range_meters":5600,"station_id":"ce4bgr92rcd13ifvqc6g","pricing_plan_id":"cebpf4jnsgd1na2vs0mg"},{"bike_id":"4c665bb2-36ef-4cef-aab6-257b32b7ec2f","system_id":"levelo_inurba_marseille","lat":43.2908,"lon":5.3715,"is_reserved":false,"is_disabled":false,"rental_uris":{"android":"levelo://app?vid=4c665bb2-36ef-4cef-aab6-257b32b7ec2f","ios":"levelo://app?vid=4c665bb2-36ef-4cef-aab6-257b32b7ec2f"},"vehicle_type_id":"4","last_reported":1752754963,"current_range_meters":5600,"station_id":"ce4bh5p2rcd13ifvqe4g","pricing_plan_id":"cebpf4jnsgd1na2vs0mg"},{"bike_id":"0ebc37b5-0478-4a32-81dd-72a59a7775f2","system_id":"levelo_inurba_marseille","lat":43.30896,"lon":5.36847,"is_reserved":false,"is_disabled":false,"rental_uris":{"android":"levelo://app?vid=0ebc37b5-0478-4a32-81dd-72a59a7775f2","ios":"levelo://app?vid=0ebc37b5-0478-4a32-81dd-72a59a7775f2"},"vehicle_type_id":"4","last_reported":1752754963,"current_range_meters":6000,"station_id":"ce4bgn92rcd13ifvqbvg","pricing_plan_id":"cebpf4jnsgd1na2vs0mg"},{"bike_id":"2c6e34ec-e4ad-4b55-908f-732bdcecdb2f","system_id":"levelo_inurba_marseille","lat":43.21192,"lon":5.350671,"is_reserved":false,"is_disabled":false,"rental_uris":{"android":"levelo://app?vid=2c6e34ec-e4ad-4b55-908f-732bdcecdb2f","ios":"levelo://app?vid=2c6e34ec-e4ad-4b55-908f-732bdcecdb2f"},"vehicle_type_id":"4","last_reported":1752754963,"current_range_meters":6000,"station_id":"st_cvj6sg6p6f1abm77japg","pricing_plan_id":"cebpf4jnsgd1na2vs0mg"},{"bike_id":"b894a72c-b040-4848-b3f5-87568990beb2","system_id":"levelo_inurba_marseille","lat":43.31476,"lon":5.37258,"is_reserved":false,"is_disabled":false,"rental_uris":{"android":"levelo://app?vid=b894a72c-b040-4848-b3f5-87568990beb2","ios":"levelo://app?vid=b894a72c-b040-4848-b3f5-87568990beb2"},"vehicle_type_id":"4","last_reported":1752754963,"current_range_meters":6000,"station_id":"ce4bgt12rcd13ifvqcd0","pricing_plan_id":"cebpf4jnsgd1na2vs0mg"},{"bike_id":"af6146f2-45d2-4136-a41a-76e3e91ad245","system_id":"levelo_inurba_marseille","lat":43.273,"lon":5.39122,"is_reserved":false,"is_disabled":false,"rental_uris":{"android":"levelo://app?vid=af6146f2-45d2-4136-a41a-76e3e91ad245","ios":"levelo://app?vid=af6146f2-45d2-4136-a41a-76e3e91ad245"},"vehicle_type_id":"4","last_reported":1752754963,"current_range_meters":6000,"station_id":"ce4bhgp2rcd13ifvqfe0","pricing_plan_id":"cebpf4jnsgd1na2vs0mg"},{"bike_id":"05f94473-c36f-4e01-b5d4-d3bb29505365","system_id":"levelo_inurba_marseille","lat":43.295276,"lon":5.375055,"is_reserved":false,"is_disabled":false,"rental_uris":{"android":"levelo://app?vid=05f94473-c36f-4e01-b5d4-d3bb29505365","ios":"levelo://app?vid=05f94473-c36f-4e01-b5d4-d3bb29505365"},"vehicle_type_id":"4","last_reported":1752754963,"current_range_meters":6000,"station_id":"ce4bgkp2rcd13ifvqbmg","pricing_plan_id":"cebpf4jnsgd1na2vs0mg"},{"bike_id":"08ab8ab3-9baf-4bae-981c-55b17fb3e51d","system_id":"levelo_inurba_marseille","lat":43.28613,"lon":5.35104,"is_reserved":false,"is_disabled":false,"rental_uris":{"android":"levelo://app?vid=08ab8ab3-9baf-4bae-981c-55b17fb3e51d","ios":"levelo://app?vid=08ab8ab3-9baf-4bae-981c-55b17fb3e51d"},"vehicle_type_id":"4","last_reported":1752754963,"current_range_meters":6000,"station_id":"ce4bhch2rcd13ifvqeug","pricing_plan_id":"cebpf4jnsgd1na2vs0mg"},{"bike_id":"4fd647de-2694-4e64-a5d9-b34bc100756d","system_id":"levelo_inurba_marseille","lat":43.30896,"lon":5.391356,"is_reserved":false,"is_disabled":false,"rental_uris":{"android":"levelo://app?vid=4fd647de-2694-4e64-a5d9-b34bc100756d","ios":"levelo://app?vid=4fd647de-2694-4e64-a5d9-b34bc100756d"},"vehicle_type_id":"4","last_reported":1752754963,"current_range_meters":6400,"station_id":"ce4bgup2rcd13ifvqco0","pricing_plan_id":"cebpf4jnsgd1na2vs0mg"},{"bike_id":"e69c4cfb-27ea-43e3-8211-71c04491758d","system_id":"levelo_inurba_marseille","lat":43.2174,"lon":5.34605,"is_reserved":false,"is_disabled":false,"rental_uris":{"android":"levelo://app?vid=e69c4cfb-27ea-43e3-8211-71c04491758d","ios":"levelo://app?vid=e69c4cfb-27ea-43e3-8211-71c04491758d"},"vehicle_type_id":"4","last_reported":1752754963,"current_range_meters":6800,"station_id":"st_cvj6r9ubvosntc0bgbag","pricing_plan_id":"cebpf4jnsgd1na2vs0mg"},{"bike_id":"f668d1a2-154f-4b3a-9672-303a2c6d23bf","system_id":"levelo_inurba_marseille","lat":43.31065,"lon":5.38349,"is_reserved":false,"is_disabled":true,"rental_uris":{"android":"levelo://app?vid=f668d1a2-154f-4b3a-9672-303a2c6d23bf","ios":"levelo://app?vid=f668d1a2-154f-4b3a-9672-303a2c6d23bf"},"vehicle_type_id":"4","last_reported":1752754963,"current_range_meters":7200,"station_id":"ce4bgv92rcd13ifvqcr0","pricing_plan_id":"cebpf4jnsgd1na2vs0mg"},{"bike_id":"c3504d01-ae21-4d51-b5bb-c5e7be14a75e","system_id":"levelo_inurba_marseille","lat":43.31195,"lon":5.36876,"is_reserved":false,"is_disabled":false,"rental_uris":{"android":"levelo://app?vid=c3504d01-ae21-4d51-b5bb-c5e7be14a75e","ios":"levelo://app?vid=c3504d01-ae21-4d51-b5bb-c5e7be14a75e"},"vehicle_type_id":"4","last_reported":1752754963,"current_range_meters":7200,"station_id":"ce4bgl92rcd13ifvqbq0","pricing_plan_id":"cebpf4jnsgd1na2vs0mg"},{"bike_id":"e0658d79-7dfa-4166-adcc-550083b1066a","system_id":"levelo_inurba_marseille","lat":43.24161,"lon":5.36397,"is_reserved":false,"is_disabled":false,"rental_uris":{"android":"levelo://app?vid=e0658d79-7dfa-4166-adcc-550083b1066a","ios":"levelo://app?vid=e0658d79-7dfa-4166-adcc-550083b1066a"},"vehicle_type_id":"4","last_reported":1752754963,"current_range_meters":7200,"station_id":"cpo36qri1sfpv3e86is0","pricing_plan_id":"cebpf4jnsgd1na2vs0mg"},{"bike_id":"bb5d9deb-7517-43be-8a1b-f804625d2132","system_id":"levelo_inurba_marseille","lat":43.29294,"lon":5.37443,"is_reserved":false,"is_disabled":false,"rental_uris":{"android":"levelo://app?vid=bb5d9deb-7517-43be-8a1b-f804625d2132","ios":"levelo://app?vid=bb5d9deb-7517-43be-8a1b-f804625d2132"},"vehicle_type_id":"4","last_reported":1752754963,"current_range_meters":7200,"station_id":"ce4bgi12rcd13ifvqb70","pricing_plan_id":"cebpf4jnsgd1na2vs0mg"},{"bike_id":"e6decac7-8084-4c10-8266-d20895c614d0","system_id":"levelo_inurba_marseille","lat":43.31083,"lon":5.42432,"is_reserved":false,"is_disabled":false,"rental_uris":{"android":"levelo://app?vid=e6decac7-8084-4c10-8266-d20895c614d0","ios":"levelo://app?vid=e6decac7-8084-4c10-8266-d20895c614d0"},"vehicle_type_id":"4","last_reported":1752754963,"current_range_meters":7200,"station_id":"ce4bhp92rcd13ifvqhag","pricing_plan_id":"cebpf4jnsgd1na2vs0mg"},{"bike_id":"c4e3adcf-b133-4a48-ad8a-5f7284a8ca7c","system_id":"levelo_inurba_marseille","lat":43.2314,"lon":5.43834,"is_reserved":false,"is_disabled":false,"rental_uris":{"android":"levelo://app?vid=c4e3adcf-b133-4a48-ad8a-5f7284a8ca7c","ios":"levelo://app?vid=c4e3adcf-b133-4a48-ad8a-5f7284a8ca7c"},"vehicle_type_id":"4","last_reported":1752754963,"current_range_meters":7200,"station_id":"","pricing_plan_id":"cebpf4jnsgd1na2vs0mg"},{"bike_id":"c2e00d8b-0eaa-473b-88d6-5f1d6b334395","system_id":"levelo_inurba_marseille","lat":43.30464,"lon":5.379,"is_reserved":false,"is_disabled":false,"rental_uris":{"android":"levelo://app?vid=c2e00d8b-0eaa-473b-88d6-5f1d6b334395","ios":"levelo://app?vid=c2e00d8b-0eaa-473b-88d6-5f1d6b334395"},"vehicle_type_id":"4","last_reported":1752754963,"current_range_meters":6400,"station_id":"ce4bgup2rcd13ifvqcn0","pricing_plan_id":"cebpf4jnsgd1na2vs0mg"},{"bike_id":"d088024d-801c-46b7-a4f4-bb7919407cd0","system_id":"levelo_inurba_marseille","lat":43.32464,"lon":5.366,"is_reserved":false,"is_disabled":false,"rental_uris":{"android":"levelo://app?vid=d088024d-801c-46b7-a4f4-bb7919407cd0","ios":"levelo://app?vid=d088024d-801c-46b7-a4f4-bb7919407cd0"},"vehicle_type_id":"4","last_reported":1752754963,"current_range_meters":8000,"station_id":"ce4bhs12rcd13ifvqhvg","pricing_plan_id":"cebpf4jnsgd1na2vs0mg"},{"bike_id":"5c037a77-75ea-470f-a73f-adba10db87f7","system_id":"levelo_inurba_marseille","lat":43.26191,"lon":5.3745,"is_reserved":false,"is_disabled":false,"rental_uris":{"android":"levelo://app?vid=5c037a77-75ea-470f-a73f-adba10db87f7","ios":"levelo://app?vid=5c037a77-75ea-470f-a73f-adba10db87f7"},"vehicle_type_id":"4","last_reported":1752754963,"current_range_meters":8000,"station_id":"ce4bhgp2rcd13ifvqfc0","pricing_plan_id":"cebpf4jnsgd1na2vs0mg"},{"bike_id":"0cff7487-d4dd-4840-b22b-ef3cf5f3d268","system_id":"levelo_inurba_marseille","lat":43.28405,"lon":5.34989,"is_reserved":false,"is_disabled":false,"rental_uris":{"android":"levelo://app?vid=0cff7487-d4dd-4840-b22b-ef3cf5f3d268","ios":"levelo://app?vid=0cff7487-d4dd-4840-b22b-ef3cf5f3d268"},"vehicle_type_id":"4","last_reported":1752754963,"current_range_meters":8400,"station_id":"ce4bhbh2rcd13ifvqepg","pricing_plan_id":"cebpf4jnsgd1na2vs0mg"},{"bike_id":"3497b8c1-eec3-4bcf-a2a8-074629d1c01b","system_id":"levelo_inurba_marseille","lat":43.305316,"lon":5.367038,"is_reserved":false,"is_disabled":true,"rental_uris":{"android":"levelo://app?vid=3497b8c1-eec3-4bcf-a2a8-074629d1c01b","ios":"levelo://app?vid=3497b8c1-eec3-4bcf-a2a8-074629d1c01b"},"vehicle_type_id":"4","last_reported":1752754963,"current_range_meters":8400,"station_id":"","pricing_plan_id":"cebpf4jnsgd1na2vs0mg"},{"bike_id":"34c63ca6-cade-4a65-8472-cd6ff48a91d2","system_id":"levelo_inurba_marseille","lat":43.21746,"lon":5.34609,"is_reserved":false,"is_disabled":false,"rental_uris":{"android":"levelo://app?vid=34c63ca6-cade-4a65-8472-cd6ff48a91d2","ios":"levelo://app?vid=34c63ca6-cade-4a65-8472-cd6ff48a91d2"},"vehicle_type_id":"4","last_reported":1752754963,"current_range_meters":8400,"station_id":"st_cvj6r9ubvosntc0bgbag","pricing_plan_id":"cebpf4jnsgd1na2vs0mg"},{"bike_id":"b7e34742-d417-44dc-867a-1170764e9b9e","system_id":"levelo_inurba_marseille","lat":43.28694,"lon":5.37391,"is_reserved":false,"is_disabled":false,"rental_uris":{"android":"levelo://app?vid=b7e34742-d417-44dc-867a-1170764e9b9e","ios":"levelo://app?vid=b7e34742-d417-44dc-867a-1170764e9b9e"},"vehicle_type_id":"4","last_reported":1752754963,"current_range_meters":8400,"station_id":"ce4bh3p2rcd13ifvqdq0","pricing_plan_id":"cebpf4jnsgd1na2vs0mg"},{"bike_id":"6ed371ac-d55c-4fd3-a505-514e058ac9c1","system_id":"levelo_inurba_marseille","lat":43.28039,"lon":5.36946,"is_reserved":false,"is_disabled":false,"rental_uris":{"android":"levelo://app?vid=6ed371ac-d55c-4fd3-a505-514e058ac9c1","ios":"levelo://app?vid=6ed371ac-d55c-4fd3-a505-514e058ac9c1"},"vehicle_type_id":"4","last_reported":1752754963,"current_range_meters":8800,"station_id":"ce4bha12rcd13ifvqef0","pricing_plan_id":"cebpf4jnsgd1na2vs0mg"},{"bike_id":"675a4573-a1f2-4f9d-b1bd-48fb0f00616c","system_id":"levelo_inurba_marseille","lat":43.286123,"lon":5.35102,"is_reserved":false,"is_disabled":false,"rental_uris":{"android":"levelo://app?vid=675a4573-a1f2-4f9d-b1bd-48fb0f00616c","ios":"levelo://app?vid=675a4573-a1f2-4f9d-b1bd-48fb0f00616c"},"vehicle_type_id":"4","last_reported":1752754963,"current_range_meters":8800,"station_id":"ce4bhch2rcd13ifvqeug","pricing_plan_id":"cebpf4jnsgd1na2vs0mg"},{"bike_id":"4ce55f4d-3b70-4375-b63b-9a909ade43f9","system_id":"levelo_inurba_marseille","lat":43.21186,"lon":5.35067,"is_reserved":false,"is_disabled":false,"rental_uris":{"android":"levelo://app?vid=4ce55f4d-3b70-4375-b63b-9a909ade43f9","ios":"levelo://app?vid=4ce55f4d-3b70-4375-b63b-9a909ade43f9"},"vehicle_type_id":"4","last_reported":1752754963,"current_range_meters":9200,"station_id":"st_cvj6sg6p6f1abm77japg","pricing_plan_id":"cebpf4jnsgd1na2vs0mg"},{"bike_id":"acc34e86-0382-4d1d-a4a5-80350ebc955c","system_id":"levelo_inurba_marseille","lat":43.28042,"lon":5.36948,"is_reserved":false,"is_disabled":false,"rental_uris":{"android":"levelo://app?vid=acc34e86-0382-4d1d-a4a5-80350ebc955c","ios":"levelo://app?vid=acc34e86-0382-4d1d-a4a5-80350ebc955c"},"vehicle_type_id":"4","last_reported":1752754963,"current_range_meters":9200,"station_id":"ce4bha12rcd13ifvqef0","pricing_plan_id":"cebpf4jnsgd1na2vs0mg"},{"bike_id":"4c5ac849-29a6-42b3-8638-845e2ec30fc1","system_id":"levelo_inurba_marseille","lat":43.2439,"lon":5.37048,"is_reserved":false,"is_disabled":false,"rental_uris":{"android":"levelo://app?vid=4c5ac849-29a6-42b3-8638-845e2ec30fc1","ios":"levelo://app?vid=4c5ac849-29a6-42b3-8638-845e2ec30fc1"},"vehicle_type_id":"4","last_reported":1752754963,"current_range_meters":9200,"station_id":"ce4bhhh2rcd13ifvqfk0","pricing_plan_id":"cebpf4jnsgd1na2vs0mg"},{"bike_id":"aa486e73-1d27-41ec-b417-f88dfd6c1e5e","system_id":"levelo_inurba_marseille","lat":43.29027,"lon":5.38639,"is_reserved":false,"is_disabled":true,"rental_uris":{"android":"levelo://app?vid=aa486e73-1d27-41ec-b417-f88dfd6c1e5e","ios":"levelo://app?vid=aa486e73-1d27-41ec-b417-f88dfd6c1e5e"},"vehicle_type_id":"4","last_reported":1752754963,"current_range_meters":9600,"station_id":"ce4bh4p2rcd13ifvqe0g","pricing_plan_id":"cebpf4jnsgd1na2vs0mg"},{"bike_id":"a4fd652b-34f8-4c68-a6e6-032a5cc5e418","system_id":"levelo_inurba_marseille","lat":43.31312,"lon":5.36799,"is_reserved":false,"is_disabled":true,"rental_uris":{"android":"levelo://app?vid=a4fd652b-34f8-4c68-a6e6-032a5cc5e418","ios":"levelo://app?vid=a4fd652b-34f8-4c68-a6e6-032a5cc5e418"},"vehicle_type_id":"4","last_reported":1752754963,"current_range_meters":9600,"station_id":"ce4bgr92rcd13ifvqc6g","pricing_plan_id":"cebpf4jnsgd1na2vs0mg"},{"bike_id":"61a9e916-b95f-4f2c-8dca-c5b11be80287","system_id":"levelo_inurba_marseille","lat":43.29222,"lon":5.36048,"is_reserved":false,"is_disabled":false,"rental_uris":{"android":"levelo://app?vid=61a9e916-b95f-4f2c-8dca-c5b11be80287","ios":"levelo://app?vid=61a9e916-b95f-4f2c-8dca-c5b11be80287"},"vehicle_type_id":"4","last_reported":1752754963,"current_range_meters":9600,"station_id":"ce4bhbh2rcd13ifvqeqg","pricing_plan_id":"cebpf4jnsgd1na2vs0mg"},{"bike_id":"db8096e2-5dd6-4134-a08c-713ec936d3ff","system_id":"levelo_inurba_marseille","lat":43.28698,"lon":5.37392,"is_reserved":false,"is_disabled":false,"rental_uris":{"android":"levelo://app?vid=db8096e2-5dd6-4134-a08c-713ec936d3ff","ios":"levelo://app?vid=db8096e2-5dd6-4134-a08c-713ec936d3ff"},"vehicle_type_id":"4","last_reported":1752754963,"current_range_meters":9600,"station_id":"ce4bh3p2rcd13ifvqdq0","pricing_plan_id":"cebpf4jnsgd1na2vs0mg"},{"bike_id":"c5e6105e-4989-411b-a6ec-5e426b7b22f8","system_id":"levelo_inurba_marseille","lat":43.29272,"lon":5.36848,"is_reserved":false,"is_disabled":false,"rental_uris":{"android":"levelo://app?vid=c5e6105e-4989-411b-a6ec-5e426b7b22f8","ios":"levelo://app?vid=c5e6105e-4989-411b-a6ec-5e426b7b22f8"},"vehicle_type_id":"4","last_reported":1752754963,"current_range_meters":10000,"station_id":"ce4bhbp2rcd13ifvqesg","pricing_plan_id":"cebpf4jnsgd1na2vs0mg"},{"bike_id":"ea56ba37-2478-4a77-82da-e60bd49eba6a","system_id":"levelo_inurba_marseille","lat":43.27957,"lon":5.38748,"is_reserved":false,"is_disabled":false,"rental_uris":{"android":"levelo://app?vid=ea56ba37-2478-4a77-82da-e60bd49eba6a","ios":"levelo://app?vid=ea56ba37-2478-4a77-82da-e60bd49eba6a"},"vehicle_type_id":"4","last_reported":1752754963,"current_range_meters":10000,"station_id":"ce4bhg12rcd13ifvqf80","pricing_plan_id":"cebpf4jnsgd1na2vs0mg"},{"bike_id":"6d9712cf-e8d6-419f-a306-c1582006c3ec","system_id":"levelo_inurba_marseille","lat":43.3373,"lon":5.37458,"is_reserved":false,"is_disabled":false,"rental_uris":{"android":"levelo://app?vid=6d9712cf-e8d6-419f-a306-c1582006c3ec","ios":"levelo://app?vid=6d9712cf-e8d6-419f-a306-c1582006c3ec"},"vehicle_type_id":"4","last_reported":1752754963,"current_range_meters":14000,"station_id":"","pricing_plan_id":"cebpf4jnsgd1na2vs0mg"},{"bike_id":"8cea7c64-503d-44ea-93dd-1c24ba834cb4","system_id":"levelo_inurba_marseille","lat":43.28672,"lon":5.3865,"is_reserved":false,"is_disabled":false,"rental_uris":{"android":"levelo://app?vid=8cea7c64-503d-44ea-93dd-1c24ba834cb4","ios":"levelo://app?vid=8cea7c64-503d-44ea-93dd-1c24ba834cb4"},"vehicle_type_id":"4","last_reported":1752754963,"current_range_meters":10000,"station_id":"ce4bh492rcd13ifvqdug","pricing_plan_id":"cebpf4jnsgd1na2vs0mg"},{"bike_id":"63b68163-23ff-4509-a7ff-da745c70a782","system_id":"levelo_inurba_marseille","lat":43.295232,"lon":5.394075,"is_reserved":false,"is_disabled":false,"rental_uris":{"android":"levelo://app?vid=63b68163-23ff-4509-a7ff-da745c70a782","ios":"levelo://app?vid=63b68163-23ff-4509-a7ff-da745c70a782"},"vehicle_type_id":"4","last_reported":1752754963,"current_range_meters":10000,"station_id":"","pricing_plan_id":"cebpf4jnsgd1na2vs0mg"},{"bike_id":"7dee92bf-5b07-4927-aa41-9e9493644eeb","system_id":"levelo_inurba_marseille","lat":43.211904,"lon":5.350752,"is_reserved":false,"is_disabled":false,"rental_uris":{"android":"levelo://app?vid=7dee92bf-5b07-4927-aa41-9e9493644eeb","ios":"levelo://app?vid=7dee92bf-5b07-4927-aa41-9e9493644eeb"},"vehicle_type_id":"4","last_reported":1752754963,"current_range_meters":10000,"station_id":"st_cvj6sg6p6f1abm77japg","pricing_plan_id":"cebpf4jnsgd1na2vs0mg"},{"bike_id":"98cfdfb3-cf57-4012-95fe-fd04ad855a81","system_id":"levelo_inurba_marseille","lat":43.239607,"lon":5.36625,"is_reserved":false,"is_disabled":false,"rental_uris":{"android":"levelo://app?vid=98cfdfb3-cf57-4012-95fe-fd04ad855a81","ios":"levelo://app?vid=98cfdfb3-cf57-4012-95fe-fd04ad855a81"},"vehicle_type_id":"4","last_reported":1752754963,"current_range_meters":10800,"station_id":"ce4bhi12rcd13ifvqfp0","pricing_plan_id":"cebpf4jnsgd1na2vs0mg"},{"bike_id":"1be28061-1b85-4eb2-8cf5-d832f5e8190e","system_id":"levelo_inurba_marseille","lat":43.30281,"lon":5.37695,"is_reserved":false,"is_disabled":false,"rental_uris":{"android":"levelo://app?vid=1be28061-1b85-4eb2-8cf5-d832f5e8190e","ios":"levelo://app?vid=1be28061-1b85-4eb2-8cf5-d832f5e8190e"},"vehicle_type_id":"4","last_reported":1752754963,"current_range_meters":10800,"station_id":"ce4bguh2rcd13ifvqcj0","pricing_plan_id":"cebpf4jnsgd1na2vs0mg"},{"bike_id":"5d2b154f-fe1f-4b9b-b2e1-e19a4cde7566","system_id":"levelo_inurba_marseille","lat":43.24166,"lon":5.36392,"is_reserved":false,"is_disabled":false,"rental_uris":{"android":"levelo://app?vid=5d2b154f-fe1f-4b9b-b2e1-e19a4cde7566","ios":"levelo://app?vid=5d2b154f-fe1f-4b9b-b2e1-e19a4cde7566"},"vehicle_type_id":"4","last_reported":1752754963,"current_range_meters":10800,"station_id":"cpo36qri1sfpv3e86is0","pricing_plan_id":"cebpf4jnsgd1na2vs0mg"},{"bike_id":"9ff813f5-7ffe-477a-a652-434a34f03c1a","system_id":"levelo_inurba_marseille","lat":43.29267,"lon":5.38439,"is_reserved":false,"is_disabled":true,"rental_uris":{"android":"levelo://app?vid=9ff813f5-7ffe-477a-a652-434a34f03c1a","ios":"levelo://app?vid=9ff813f5-7ffe-477a-a652-434a34f03c1a"},"vehicle_type_id":"4","last_reported":1752754963,"current_range_meters":10800,"station_id":"ce4bh692rcd13ifvqea0","pricing_plan_id":"cebpf4jnsgd1na2vs0mg"},{"bike_id":"c4009eea-a682-4a2c-9567-0078895c1999","system_id":"levelo_inurba_marseille","lat":43.29509,"lon":5.39397,"is_reserved":false,"is_disabled":false,"rental_uris":{"android":"levelo://app?vid=c4009eea-a682-4a2c-9567-0078895c1999","ios":"levelo://app?vid=c4009eea-a682-4a2c-9567-0078895c1999"},"vehicle_type_id":"4","last_reported":1752754963,"current_range_meters":10800,"station_id":"ce4bh292rcd13ifvqdf0","pricing_plan_id":"cebpf4jnsgd1na2vs0mg"},{"bike_id":"7fc6ebd8-c0b1-4e77-8345-e5ffce2a02ab","system_id":"levelo_inurba_marseille","lat":43.24166,"lon":5.36395,"is_reserved":false,"is_disabled":false,"rental_uris":{"android":"levelo://app?vid=7fc6ebd8-c0b1-4e77-8345-e5ffce2a02ab","ios":"levelo://app?vid=7fc6ebd8-c0b1-4e77-8345-e5ffce2a02ab"},"vehicle_type_id":"4","last_reported":1752754963,"current_range_meters":11200,"station_id":"cpo36qri1sfpv3e86is0","pricing_plan_id":"cebpf4jnsgd1na2vs0mg"},{"bike_id":"6a69d0cc-faf8-4dc3-8ded-5ef811a5de8d","system_id":"levelo_inurba_marseille","lat":43.30745,"lon":5.4243,"is_reserved":false,"is_disabled":false,"rental_uris":{"android":"levelo://app?vid=6a69d0cc-faf8-4dc3-8ded-5ef811a5de8d","ios":"levelo://app?vid=6a69d0cc-faf8-4dc3-8ded-5ef811a5de8d"},"vehicle_type_id":"4","last_reported":1752754963,"current_range_meters":11600,"station_id":"st_cvj6ca6bvosntc0bfgr0","pricing_plan_id":"cebpf4jnsgd1na2vs0mg"},{"bike_id":"0a81d3d5-1a88-4207-bfeb-dce61510f31f","system_id":"levelo_inurba_marseille","lat":43.2951,"lon":5.39425,"is_reserved":false,"is_disabled":true,"rental_uris":{"android":"levelo://app?vid=0a81d3d5-1a88-4207-bfeb-dce61510f31f","ios":"levelo://app?vid=0a81d3d5-1a88-4207-bfeb-dce61510f31f"},"vehicle_type_id":"4","last_reported":1752754963,"current_range_meters":11600,"station_id":"ce4bh292rcd13ifvqdf0","pricing_plan_id":"cebpf4jnsgd1na2vs0mg"},{"bike_id":"37e8189d-3a2e-4706-90e4-fe0a1abcb858","system_id":"levelo_inurba_marseille","lat":43.28905,"lon":5.37853,"is_reserved":false,"is_disabled":false,"rental_uris":{"android":"levelo://app?vid=37e8189d-3a2e-4706-90e4-fe0a1abcb858","ios":"levelo://app?vid=37e8189d-3a2e-4706-90e4-fe0a1abcb858"},"vehicle_type_id":"4","last_reported":1752754963,"current_range_meters":11600,"station_id":"","pricing_plan_id":"cebpf4jnsgd1na2vs0mg"},{"bike_id":"e48afed1-932e-421a-a33d-f0fc8d082b2f","system_id":"levelo_inurba_marseille","lat":43.23067,"lon":5.35534,"is_reserved":false,"is_disabled":false,"rental_uris":{"android":"levelo://app?vid=e48afed1-932e-421a-a33d-f0fc8d082b2f","ios":"levelo://app?vid=e48afed1-932e-421a-a33d-f0fc8d082b2f"},"vehicle_type_id":"4","last_reported":1752754963,"current_range_meters":11600,"station_id":"cpo3342slgdg3j2ifvpg","pricing_plan_id":"cebpf4jnsgd1na2vs0mg"},{"bike_id":"40599027-a6ab-4363-bf4e-8d769d1e1446","system_id":"levelo_inurba_marseille","lat":43.2904,"lon":5.38644,"is_reserved":false,"is_disabled":false,"rental_uris":{"android":"levelo://app?vid=40599027-a6ab-4363-bf4e-8d769d1e1446","ios":"levelo://app?vid=40599027-a6ab-4363-bf4e-8d769d1e1446"},"vehicle_type_id":"4","last_reported":1752754963,"current_range_meters":12000,"station_id":"ce4bh4p2rcd13ifvqe0g","pricing_plan_id":"cebpf4jnsgd1na2vs0mg"},{"bike_id":"9e365865-b118-4295-83f9-77049644431e","system_id":"levelo_inurba_marseille","lat":43.31339,"lon":5.3682,"is_reserved":false,"is_disabled":false,"rental_uris":{"android":"levelo://app?vid=9e365865-b118-4295-83f9-77049644431e","ios":"levelo://app?vid=9e365865-b118-4295-83f9-77049644431e"},"vehicle_type_id":"4","last_reported":1752754963,"current_range_meters":12000,"station_id":"ce4bgr92rcd13ifvqc6g","pricing_plan_id":"cebpf4jnsgd1na2vs0mg"},{"bike_id":"d55d4cb5-1558-4ea0-aa08-b3c24522217e","system_id":"levelo_inurba_marseille","lat":43.24386,"lon":5.37138,"is_reserved":false,"is_disabled":false,"rental_uris":{"android":"levelo://app?vid=d55d4cb5-1558-4ea0-aa08-b3c24522217e","ios":"levelo://app?vid=d55d4cb5-1558-4ea0-aa08-b3c24522217e"},"vehicle_type_id":"4","last_reported":1752754963,"current_range_meters":12000,"station_id":"","pricing_plan_id":"cebpf4jnsgd1na2vs0mg"},{"bike_id":"555bc53e-5286-4fb6-9154-af42b3fd9792","system_id":"levelo_inurba_marseille","lat":43.300774,"lon":5.3728,"is_reserved":false,"is_disabled":false,"rental_uris":{"android":"levelo://app?vid=555bc53e-5286-4fb6-9154-af42b3fd9792","ios":"levelo://app?vid=555bc53e-5286-4fb6-9154-af42b3fd9792"},"vehicle_type_id":"4","last_reported":1752754963,"current_range_meters":12000,"station_id":"","pricing_plan_id":"cebpf4jnsgd1na2vs0mg"},{"bike_id":"23b67836-e5ff-43af-846b-acbc71ce3016","system_id":"levelo_inurba_marseille","lat":43.29557,"lon":5.42292,"is_reserved":false,"is_disabled":false,"rental_uris":{"android":"levelo://app?vid=23b67836-e5ff-43af-846b-acbc71ce3016","ios":"levelo://app?vid=23b67836-e5ff-43af-846b-acbc71ce3016"},"vehicle_type_id":"4","last_reported":1752754963,"current_range_meters":12000,"station_id":"ce4bhph2rcd13ifvqhdg","pricing_plan_id":"cebpf4jnsgd1na2vs0mg"},{"bike_id":"24ea0494-1518-49e4-b8f9-e40dc2fca43d","system_id":"levelo_inurba_marseille","lat":43.28406,"lon":5.37501,"is_reserved":false,"is_disabled":false,"rental_uris":{"android":"levelo://app?vid=24ea0494-1518-49e4-b8f9-e40dc2fca43d","ios":"levelo://app?vid=24ea0494-1518-49e4-b8f9-e40dc2fca43d"},"vehicle_type_id":"4","last_reported":1752754963,"current_range_meters":12400,"station_id":"ce4bh412rcd13ifvqds0","pricing_plan_id":"cebpf4jnsgd1na2vs0mg"},{"bike_id":"80231c84-7b8a-45cd-bfca-24b185528e8d","system_id":"levelo_inurba_marseille","lat":43.29037,"lon":5.39974,"is_reserved":false,"is_disabled":false,"rental_uris":{"android":"levelo://app?vid=80231c84-7b8a-45cd-bfca-24b185528e8d","ios":"levelo://app?vid=80231c84-7b8a-45cd-bfca-24b185528e8d"},"vehicle_type_id":"4","last_reported":1752754963,"current_range_meters":12400,"station_id":"ce4bh392rcd13ifvqdm0","pricing_plan_id":"cebpf4jnsgd1na2vs0mg"},{"bike_id":"c4d5af09-17ed-4e74-804c-fda7225584bf","system_id":"levelo_inurba_marseille","lat":43.29036,"lon":5.37544,"is_reserved":false,"is_disabled":false,"rental_uris":{"android":"levelo://app?vid=c4d5af09-17ed-4e74-804c-fda7225584bf","ios":"levelo://app?vid=c4d5af09-17ed-4e74-804c-fda7225584bf"},"vehicle_type_id":"4","last_reported":1752754963,"current_range_meters":12400,"station_id":"ce4bh692rcd13ifvqe90","pricing_plan_id":"cebpf4jnsgd1na2vs0mg"},{"bike_id":"57239988-9161-49ce-a0a2-4581baf1b159","system_id":"levelo_inurba_marseille","lat":43.337747,"lon":5.374501,"is_reserved":false,"is_disabled":false,"rental_uris":{"android":"levelo://app?vid=57239988-9161-49ce-a0a2-4581baf1b159","ios":"levelo://app?vid=57239988-9161-49ce-a0a2-4581baf1b159"},"vehicle_type_id":"4","last_reported":1752754963,"current_range_meters":12400,"station_id":"","pricing_plan_id":"cebpf4jnsgd1na2vs0mg"},{"bike_id":"98daf460-c45d-4be9-b03d-fde500644729","system_id":"levelo_inurba_marseille","lat":43.296223,"lon":5.377025,"is_reserved":false,"is_disabled":false,"rental_uris":{"android":"levelo://app?vid=98daf460-c45d-4be9-b03d-fde500644729","ios":"levelo://app?vid=98daf460-c45d-4be9-b03d-fde500644729"},"vehicle_type_id":"4","last_reported":1752754963,"current_range_meters":12800,"station_id":"","pricing_plan_id":"cebpf4jnsgd1na2vs0mg"},{"bike_id":"3444bdc6-514a-4ba6-9650-f9073305e33d","system_id":"levelo_inurba_marseille","lat":43.29682,"lon":5.3698,"is_reserved":false,"is_disabled":false,"rental_uris":{"android":"levelo://app?vid=3444bdc6-514a-4ba6-9650-f9073305e33d","ios":"levelo://app?vid=3444bdc6-514a-4ba6-9650-f9073305e33d"},"vehicle_type_id":"4","last_reported":1752754963,"current_range_meters":13600,"station_id":"","pricing_plan_id":"cebpf4jnsgd1na2vs0mg"},{"bike_id":"a5d5cb13-84af-4027-ae4b-16082d9af06e","system_id":"levelo_inurba_marseille","lat":43.2799,"lon":5.38733,"is_reserved":false,"is_disabled":false,"rental_uris":{"android":"levelo://app?vid=a5d5cb13-84af-4027-ae4b-16082d9af06e","ios":"levelo://app?vid=a5d5cb13-84af-4027-ae4b-16082d9af06e"},"vehicle_type_id":"4","last_reported":1752754963,"current_range_meters":13600,"station_id":"ce4bhg12rcd13ifvqf80","pricing_plan_id":"cebpf4jnsgd1na2vs0mg"},{"bike_id":"a5259347-0098-4d23-8515-cec448fc633d","system_id":"levelo_inurba_marseille","lat":43.24384,"lon":5.37056,"is_reserved":false,"is_disabled":false,"rental_uris":{"android":"levelo://app?vid=a5259347-0098-4d23-8515-cec448fc633d","ios":"levelo://app?vid=a5259347-0098-4d23-8515-cec448fc633d"},"vehicle_type_id":"4","last_reported":1752754963,"current_range_meters":13600,"station_id":"ce4bhhh2rcd13ifvqfk0","pricing_plan_id":"cebpf4jnsgd1na2vs0mg"},{"bike_id":"50bfd207-ad35-4f05-b467-ff9c6fb97efd","system_id":"levelo_inurba_marseille","lat":43.29004,"lon":5.35605,"is_reserved":false,"is_disabled":false,"rental_uris":{"android":"levelo://app?vid=50bfd207-ad35-4f05-b467-ff9c6fb97efd","ios":"levelo://app?vid=50bfd207-ad35-4f05-b467-ff9c6fb97efd"},"vehicle_type_id":"4","last_reported":1752754963,"current_range_meters":12800,"station_id":"ce4bhb92rcd13ifvqen0","pricing_plan_id":"cebpf4jnsgd1na2vs0mg"},{"bike_id":"28d27c17-e6ca-4cec-aec9-f1f6696b8a12","system_id":"levelo_inurba_marseille","lat":43.29902,"lon":5.43678,"is_reserved":false,"is_disabled":true,"rental_uris":{"android":"levelo://app?vid=28d27c17-e6ca-4cec-aec9-f1f6696b8a12","ios":"levelo://app?vid=28d27c17-e6ca-4cec-aec9-f1f6696b8a12"},"vehicle_type_id":"4","last_reported":1752754963,"current_range_meters":13600,"station_id":"ce4bhpp2rcd13ifvqhfg","pricing_plan_id":"cebpf4jnsgd1na2vs0mg"},{"bike_id":"f6e67167-3686-4cae-82da-4610049996dc","system_id":"levelo_inurba_marseille","lat":43.26927,"lon":5.38533,"is_reserved":false,"is_disabled":false,"rental_uris":{"android":"levelo://app?vid=f6e67167-3686-4cae-82da-4610049996dc","ios":"levelo://app?vid=f6e67167-3686-4cae-82da-4610049996dc"},"vehicle_type_id":"4","last_reported":1752754963,"current_range_meters":14000,"station_id":"","pricing_plan_id":"cebpf4jnsgd1na2vs0mg"},{"bike_id":"5f777582-ba87-48cc-b3fe-c0a51d78c734","system_id":"levelo_inurba_marseille","lat":43.26783,"lon":5.40293,"is_reserved":false,"is_disabled":false,"rental_uris":{"android":"levelo://app?vid=5f777582-ba87-48cc-b3fe-c0a51d78c734","ios":"levelo://app?vid=5f777582-ba87-48cc-b3fe-c0a51d78c734"},"vehicle_type_id":"4","last_reported":1752754963,"current_range_meters":14000,"station_id":"ce501612rcd8frsf0b60","pricing_plan_id":"cebpf4jnsgd1na2vs0mg"},{"bike_id":"59cffb55-e45a-4832-b75b-2722591a0c98","system_id":"levelo_inurba_marseille","lat":43.3091,"lon":5.36834,"is_reserved":false,"is_disabled":false,"rental_uris":{"android":"levelo://app?vid=59cffb55-e45a-4832-b75b-2722591a0c98","ios":"levelo://app?vid=59cffb55-e45a-4832-b75b-2722591a0c98"},"vehicle_type_id":"4","last_reported":1752754963,"current_range_meters":14000,"station_id":"ce4bgn92rcd13ifvqbvg","pricing_plan_id":"cebpf4jnsgd1na2vs0mg"},{"bike_id":"45d8ab6b-626c-4541-a932-3a87c843eba6","system_id":"levelo_inurba_marseille","lat":43.2929,"lon":5.37151,"is_reserved":false,"is_disabled":false,"rental_uris":{"android":"levelo://app?vid=45d8ab6b-626c-4541-a932-3a87c843eba6","ios":"levelo://app?vid=45d8ab6b-626c-4541-a932-3a87c843eba6"},"vehicle_type_id":"4","last_reported":1752754963,"current_range_meters":14000,"station_id":"ce4bgh92rcd13ifvqb40","pricing_plan_id":"cebpf4jnsgd1na2vs0mg"},{"bike_id":"a6ad2597-d35f-40c2-9606-f75afa3aba4c","system_id":"levelo_inurba_marseille","lat":43.28261,"lon":5.35077,"is_reserved":false,"is_disabled":false,"rental_uris":{"android":"levelo://app?vid=a6ad2597-d35f-40c2-9606-f75afa3aba4c","ios":"levelo://app?vid=a6ad2597-d35f-40c2-9606-f75afa3aba4c"},"vehicle_type_id":"4","last_reported":1752754963,"current_range_meters":14000,"station_id":"ce4bhbp2rcd13ifvqerg","pricing_plan_id":"cebpf4jnsgd1na2vs0mg"},{"bike_id":"48f08ecd-a690-410f-a43b-7d1b1e7c396e","system_id":"levelo_inurba_marseille","lat":43.28617,"lon":5.3511,"is_reserved":false,"is_disabled":false,"rental_uris":{"android":"levelo://app?vid=48f08ecd-a690-410f-a43b-7d1b1e7c396e","ios":"levelo://app?vid=48f08ecd-a690-410f-a43b-7d1b1e7c396e"},"vehicle_type_id":"4","last_reported":1752754963,"current_range_meters":14000,"station_id":"ce4bhch2rcd13ifvqeug","pricing_plan_id":"cebpf4jnsgd1na2vs0mg"},{"bike_id":"e8db7860-c461-4659-866b-a14a730ae823","system_id":"levelo_inurba_marseille","lat":43.3149,"lon":5.37331,"is_reserved":false,"is_disabled":false,"rental_uris":{"android":"levelo://app?vid=e8db7860-c461-4659-866b-a14a730ae823","ios":"levelo://app?vid=e8db7860-c461-4659-866b-a14a730ae823"},"vehicle_type_id":"4","last_reported":1752754963,"current_range_meters":14000,"station_id":"ce4bgt12rcd13ifvqcd0","pricing_plan_id":"cebpf4jnsgd1na2vs0mg"},{"bike_id":"d99ff2fe-54a6-4e1d-bef4-d02c8c2f8b9e","system_id":"levelo_inurba_marseille","lat":43.27564,"lon":5.38421,"is_reserved":false,"is_disabled":false,"rental_uris":{"android":"levelo://app?vid=d99ff2fe-54a6-4e1d-bef4-d02c8c2f8b9e","ios":"levelo://app?vid=d99ff2fe-54a6-4e1d-bef4-d02c8c2f8b9e"},"vehicle_type_id":"4","last_reported":1752754963,"current_range_meters":14000,"station_id":"ce4bhh92rcd13ifvqfi0","pricing_plan_id":"cebpf4jnsgd1na2vs0mg"},{"bike_id":"aa09a5a0-f1d7-443a-b79b-ed79ef9c7835","system_id":"levelo_inurba_marseille","lat":43.24542,"lon":5.39524,"is_reserved":false,"is_disabled":false,"rental_uris":{"android":"levelo://app?vid=aa09a5a0-f1d7-443a-b79b-ed79ef9c7835","ios":"levelo://app?vid=aa09a5a0-f1d7-443a-b79b-ed79ef9c7835"},"vehicle_type_id":"4","last_reported":1752754963,"current_range_meters":14000,"station_id":"ce4bhlp2rcd13ifvqgjg","pricing_plan_id":"cebpf4jnsgd1na2vs0mg"},{"bike_id":"07f5ae19-0925-43ef-aab4-48ec58bc62b9","system_id":"levelo_inurba_marseille","lat":43.31451,"lon":5.37444,"is_reserved":false,"is_disabled":false,"rental_uris":{"android":"levelo://app?vid=07f5ae19-0925-43ef-aab4-48ec58bc62b9","ios":"levelo://app?vid=07f5ae19-0925-43ef-aab4-48ec58bc62b9"},"vehicle_type_id":"4","last_reported":1752754963,"current_range_meters":14000,"station_id":"","pricing_plan_id":"cebpf4jnsgd1na2vs0mg"},{"bike_id":"0f89fd71-e7b8-4727-9738-cd83625ec43f","system_id":"levelo_inurba_marseille","lat":43.288466,"lon":5.39312,"is_reserved":false,"is_disabled":false,"rental_uris":{"android":"levelo://app?vid=0f89fd71-e7b8-4727-9738-cd83625ec43f","ios":"levelo://app?vid=0f89fd71-e7b8-4727-9738-cd83625ec43f"},"vehicle_type_id":"4","last_reported":1752754963,"current_range_meters":14400,"station_id":"ce4bh2p2rcd13ifvqdi0","pricing_plan_id":"cebpf4jnsgd1na2vs0mg"},{"bike_id":"b6e40dbb-482e-43e6-bc56-ee373b6225ae","system_id":"levelo_inurba_marseille","lat":43.314962,"lon":5.373136,"is_reserved":false,"is_disabled":false,"rental_uris":{"android":"levelo://app?vid=b6e40dbb-482e-43e6-bc56-ee373b6225ae","ios":"levelo://app?vid=b6e40dbb-482e-43e6-bc56-ee373b6225ae"},"vehicle_type_id":"4","last_reported":1752754963,"current_range_meters":14400,"station_id":"ce4bgt12rcd13ifvqcd0","pricing_plan_id":"cebpf4jnsgd1na2vs0mg"},{"bike_id":"063b7548-1358-4c02-af8e-f37daeffb9f7","system_id":"levelo_inurba_marseille","lat":43.31223,"lon":5.36888,"is_reserved":false,"is_disabled":false,"rental_uris":{"android":"levelo://app?vid=063b7548-1358-4c02-af8e-f37daeffb9f7","ios":"levelo://app?vid=063b7548-1358-4c02-af8e-f37daeffb9f7"},"vehicle_type_id":"4","last_reported":1752754963,"current_range_meters":14400,"station_id":"ce4bgl92rcd13ifvqbq0","pricing_plan_id":"cebpf4jnsgd1na2vs0mg"},{"bike_id":"8acdf02c-787e-4a1e-956a-5c94a3dff06a","system_id":"levelo_inurba_marseille","lat":43.28502,"lon":5.40622,"is_reserved":false,"is_disabled":false,"rental_uris":{"android":"levelo://app?vid=8acdf02c-787e-4a1e-956a-5c94a3dff06a","ios":"levelo://app?vid=8acdf02c-787e-4a1e-956a-5c94a3dff06a"},"vehicle_type_id":"4","last_reported":1752754963,"current_range_meters":14400,"station_id":"","pricing_plan_id":"cebpf4jnsgd1na2vs0mg"},{"bike_id":"d942b3aa-47f9-4f57-ac94-bf390babc8fb","system_id":"levelo_inurba_marseille","lat":43.24534,"lon":5.39547,"is_reserved":false,"is_disabled":false,"rental_uris":{"android":"levelo://app?vid=d942b3aa-47f9-4f57-ac94-bf390babc8fb","ios":"levelo://app?vid=d942b3aa-47f9-4f57-ac94-bf390babc8fb"},"vehicle_type_id":"4","last_reported":1752754963,"current_range_meters":14400,"station_id":"ce4bhlp2rcd13ifvqgjg","pricing_plan_id":"cebpf4jnsgd1na2vs0mg"},{"bike_id":"061b4d5d-9b7c-447f-91b1-cbbcaab4f794","system_id":"levelo_inurba_marseille","lat":43.28349,"lon":5.3863,"is_reserved":false,"is_disabled":false,"rental_uris":{"android":"levelo://app?vid=061b4d5d-9b7c-447f-91b1-cbbcaab4f794","ios":"levelo://app?vid=061b4d5d-9b7c-447f-91b1-cbbcaab4f794"},"vehicle_type_id":"4","last_reported":1752754963,"current_range_meters":14800,"station_id":"ce4bh492rcd13ifvqdvg","pricing_plan_id":"cebpf4jnsgd1na2vs0mg"},{"bike_id":"85b70d93-d783-4df9-bd12-dd879b9b4e27","system_id":"levelo_inurba_marseille","lat":43.28474,"lon":5.38423,"is_reserved":false,"is_disabled":false,"rental_uris":{"android":"levelo://app?vid=85b70d93-d783-4df9-bd12-dd879b9b4e27","ios":"levelo://app?vid=85b70d93-d783-4df9-bd12-dd879b9b4e27"},"vehicle_type_id":"4","last_reported":1752754963,"current_range_meters":14800,"station_id":"ce4bh512rcd13ifvqe3g","pricing_plan_id":"cebpf4jnsgd1na2vs0mg"},{"bike_id":"1f24918d-b606-4ec2-916d-9bfb1ef6346d","system_id":"levelo_inurba_marseille","lat":43.26497,"lon":5.39538,"is_reserved":false,"is_disabled":false,"rental_uris":{"android":"levelo://app?vid=1f24918d-b606-4ec2-916d-9bfb1ef6346d","ios":"levelo://app?vid=1f24918d-b606-4ec2-916d-9bfb1ef6346d"},"vehicle_type_id":"4","last_reported":1752754963,"current_range_meters":14800,"station_id":"ce4bhi12rcd13ifvqfq0","pricing_plan_id":"cebpf4jnsgd1na2vs0mg"},{"bike_id":"3cb0d7d2-e706-4ab7-b69a-a419c43c53c6","system_id":"levelo_inurba_marseille","lat":43.28696,"lon":5.3738,"is_reserved":false,"is_disabled":false,"rental_uris":{"android":"levelo://app?vid=3cb0d7d2-e706-4ab7-b69a-a419c43c53c6","ios":"levelo://app?vid=3cb0d7d2-e706-4ab7-b69a-a419c43c53c6"},"vehicle_type_id":"4","last_reported":1752754963,"current_range_meters":15200,"station_id":"ce4bh3p2rcd13ifvqdq0","pricing_plan_id":"cebpf4jnsgd1na2vs0mg"},{"bike_id":"e7da9e5c-d85f-46e6-a48f-3a347681dc09","system_id":"levelo_inurba_marseille","lat":43.308887,"lon":5.37201,"is_reserved":false,"is_disabled":false,"rental_uris":{"android":"levelo://app?vid=e7da9e5c-d85f-46e6-a48f-3a347681dc09","ios":"levelo://app?vid=e7da9e5c-d85f-46e6-a48f-3a347681dc09"},"vehicle_type_id":"4","last_reported":1752754963,"current_range_meters":15200,"station_id":"ce4bguh2rcd13ifvqckg","pricing_plan_id":"cebpf4jnsgd1na2vs0mg"},{"bike_id":"7e5c69eb-7979-42bf-83a4-a038c8e1735c","system_id":"levelo_inurba_marseille","lat":43.25719,"lon":5.41111,"is_reserved":false,"is_disabled":false,"rental_uris":{"android":"levelo://app?vid=7e5c69eb-7979-42bf-83a4-a038c8e1735c","ios":"levelo://app?vid=7e5c69eb-7979-42bf-83a4-a038c8e1735c"},"vehicle_type_id":"4","last_reported":1752754963,"current_range_meters":15200,"station_id":"ce4bhkp2rcd13ifvqgd0","pricing_plan_id":"cebpf4jnsgd1na2vs0mg"},{"bike_id":"2ac93549-5c94-4228-8eea-782a21384d10","system_id":"levelo_inurba_marseille","lat":43.29634,"lon":5.37793,"is_reserved":false,"is_disabled":false,"rental_uris":{"android":"levelo://app?vid=2ac93549-5c94-4228-8eea-782a21384d10","ios":"levelo://app?vid=2ac93549-5c94-4228-8eea-782a21384d10"},"vehicle_type_id":"4","last_reported":1752754963,"current_range_meters":15200,"station_id":"","pricing_plan_id":"cebpf4jnsgd1na2vs0mg"},{"bike_id":"fd07f785-948d-48e7-9c57-46cccfaa2b14","system_id":"levelo_inurba_marseille","lat":43.28393,"lon":5.34982,"is_reserved":false,"is_disabled":false,"rental_uris":{"android":"levelo://app?vid=fd07f785-948d-48e7-9c57-46cccfaa2b14","ios":"levelo://app?vid=fd07f785-948d-48e7-9c57-46cccfaa2b14"},"vehicle_type_id":"4","last_reported":1752754963,"current_range_meters":15200,"station_id":"ce4bhbh2rcd13ifvqepg","pricing_plan_id":"cebpf4jnsgd1na2vs0mg"},{"bike_id":"409515f8-3415-426d-b0c7-61f840c7c187","system_id":"levelo_inurba_marseille","lat":43.2251,"lon":5.34785,"is_reserved":false,"is_disabled":false,"rental_uris":{"android":"levelo://app?vid=409515f8-3415-426d-b0c7-61f840c7c187","ios":"levelo://app?vid=409515f8-3415-426d-b0c7-61f840c7c187"},"vehicle_type_id":"4","last_reported":1752754963,"current_range_meters":15200,"station_id":"st_cvj5dfep6f1abm77gieg","pricing_plan_id":"cebpf4jnsgd1na2vs0mg"},{"bike_id":"dab62de4-01c0-4f53-bfde-184f78541cf5","system_id":"levelo_inurba_marseille","lat":43.29844,"lon":5.3628,"is_reserved":false,"is_disabled":false,"rental_uris":{"android":"levelo://app?vid=dab62de4-01c0-4f53-bfde-184f78541cf5","ios":"levelo://app?vid=dab62de4-01c0-4f53-bfde-184f78541cf5"},"vehicle_type_id":"4","last_reported":1752754963,"current_range_meters":15200,"station_id":"ce4bgpp2rcd13ifvqc3g","pricing_plan_id":"cebpf4jnsgd1na2vs0mg"},{"bike_id":"be2d9d11-e19c-4a33-99cd-7a0f048a2777","system_id":"levelo_inurba_marseille","lat":43.2655,"lon":5.37284,"is_reserved":false,"is_disabled":false,"rental_uris":{"android":"levelo://app?vid=be2d9d11-e19c-4a33-99cd-7a0f048a2777","ios":"levelo://app?vid=be2d9d11-e19c-4a33-99cd-7a0f048a2777"},"vehicle_type_id":"4","last_reported":1752754963,"current_range_meters":16000,"station_id":"ce4bhg12rcd13ifvqf70","pricing_plan_id":"cebpf4jnsgd1na2vs0mg"},{"bike_id":"1a1de22c-864f-4087-990e-227151d55abc","system_id":"levelo_inurba_marseille","lat":43.2121,"lon":5.35081,"is_reserved":false,"is_disabled":false,"rental_uris":{"android":"levelo://app?vid=1a1de22c-864f-4087-990e-227151d55abc","ios":"levelo://app?vid=1a1de22c-864f-4087-990e-227151d55abc"},"vehicle_type_id":"4","last_reported":1752754963,"current_range_meters":16000,"station_id":"st_cvj6sg6p6f1abm77japg","pricing_plan_id":"cebpf4jnsgd1na2vs0mg"},{"bike_id":"6d70d6d4-7776-4d1e-a307-46e9e54de733","system_id":"levelo_inurba_marseille","lat":43.2957,"lon":5.39975,"is_reserved":false,"is_disabled":true,"rental_uris":{"android":"levelo://app?vid=6d70d6d4-7776-4d1e-a307-46e9e54de733","ios":"levelo://app?vid=6d70d6d4-7776-4d1e-a307-46e9e54de733"},"vehicle_type_id":"4","last_reported":1752754963,"current_range_meters":16000,"station_id":"ce4bh312rcd13ifvqdj0","pricing_plan_id":"cebpf4jnsgd1na2vs0mg"},{"bike_id":"fa2f4b01-3074-4cbf-a524-688050b06c46","system_id":"levelo_inurba_marseille","lat":43.32656,"lon":5.40998,"is_reserved":false,"is_disabled":false,"rental_uris":{"android":"levelo://app?vid=fa2f4b01-3074-4cbf-a524-688050b06c46","ios":"levelo://app?vid=fa2f4b01-3074-4cbf-a524-688050b06c46"},"vehicle_type_id":"4","last_reported":1752754963,"current_range_meters":16000,"station_id":"ce4bhpp2rcd13ifvqhgg","pricing_plan_id":"cebpf4jnsgd1na2vs0mg"},{"bike_id":"da891840-0cec-4ccc-961c-48903736c6fa","system_id":"levelo_inurba_marseille","lat":43.31139,"lon":5.37692,"is_reserved":false,"is_disabled":false,"rental_uris":{"android":"levelo://app?vid=da891840-0cec-4ccc-961c-48903736c6fa","ios":"levelo://app?vid=da891840-0cec-4ccc-961c-48903736c6fa"},"vehicle_type_id":"4","last_reported":1752754963,"current_range_meters":16000,"station_id":"","pricing_plan_id":"cebpf4jnsgd1na2vs0mg"},{"bike_id":"38b35f9b-1ac6-4992-a9f3-9b3506988642","system_id":"levelo_inurba_marseille","lat":43.23189,"lon":5.35546,"is_reserved":false,"is_disabled":false,"rental_uris":{"android":"levelo://app?vid=38b35f9b-1ac6-4992-a9f3-9b3506988642","ios":"levelo://app?vid=38b35f9b-1ac6-4992-a9f3-9b3506988642"},"vehicle_type_id":"4","last_reported":1752754963,"current_range_meters":16000,"station_id":"ce4bhu92rcd13ifvqi70","pricing_plan_id":"cebpf4jnsgd1na2vs0mg"},{"bike_id":"a6925f3c-d3d1-4189-a180-b325ef653dcf","system_id":"levelo_inurba_marseille","lat":43.28628,"lon":5.35129,"is_reserved":false,"is_disabled":false,"rental_uris":{"android":"levelo://app?vid=a6925f3c-d3d1-4189-a180-b325ef653dcf","ios":"levelo://app?vid=a6925f3c-d3d1-4189-a180-b325ef653dcf"},"vehicle_type_id":"4","last_reported":1752754963,"current_range_meters":16000,"station_id":"ce4bhch2rcd13ifvqeug","pricing_plan_id":"cebpf4jnsgd1na2vs0mg"},{"bike_id":"1af876d9-6e0a-45cc-bed9-deae0b87ca9c","system_id":"levelo_inurba_marseille","lat":43.21195,"lon":5.350715,"is_reserved":false,"is_disabled":false,"rental_uris":{"android":"levelo://app?vid=1af876d9-6e0a-45cc-bed9-deae0b87ca9c","ios":"levelo://app?vid=1af876d9-6e0a-45cc-bed9-deae0b87ca9c"},"vehicle_type_id":"4","last_reported":1752754963,"current_range_meters":16000,"station_id":"st_cvj6sg6p6f1abm77japg","pricing_plan_id":"cebpf4jnsgd1na2vs0mg"},{"bike_id":"fd75f631-a93f-469d-bea7-4e480ab41eae","system_id":"levelo_inurba_marseille","lat":43.28262,"lon":5.3508,"is_reserved":false,"is_disabled":false,"rental_uris":{"android":"levelo://app?vid=fd75f631-a93f-469d-bea7-4e480ab41eae","ios":"levelo://app?vid=fd75f631-a93f-469d-bea7-4e480ab41eae"},"vehicle_type_id":"4","last_reported":1752754963,"current_range_meters":16000,"station_id":"ce4bhbp2rcd13ifvqerg","pricing_plan_id":"cebpf4jnsgd1na2vs0mg"},{"bike_id":"e555b545-304c-4dce-8496-1643c0f2600e","system_id":"levelo_inurba_marseille","lat":43.337444,"lon":5.374475,"is_reserved":false,"is_disabled":false,"rental_uris":{"android":"levelo://app?vid=e555b545-304c-4dce-8496-1643c0f2600e","ios":"levelo://app?vid=e555b545-304c-4dce-8496-1643c0f2600e"},"vehicle_type_id":"4","last_reported":1752754963,"current_range_meters":16000,"station_id":"","pricing_plan_id":"cebpf4jnsgd1na2vs0mg"},{"bike_id":"582d5e63-4946-44ff-8da5-cdf3e52be7b6","system_id":"levelo_inurba_marseille","lat":43.27056,"lon":5.40259,"is_reserved":false,"is_disabled":false,"rental_uris":{"android":"levelo://app?vid=582d5e63-4946-44ff-8da5-cdf3e52be7b6","ios":"levelo://app?vid=582d5e63-4946-44ff-8da5-cdf3e52be7b6"},"vehicle_type_id":"4","last_reported":1752754963,"current_range_meters":16000,"station_id":"ce4bhk92rcd13ifvqgc0","pricing_plan_id":"cebpf4jnsgd1na2vs0mg"},{"bike_id":"7cb8d0b6-2641-4508-afb6-421f239b2180","system_id":"levelo_inurba_marseille","lat":43.29172,"lon":5.37167,"is_reserved":false,"is_disabled":false,"rental_uris":{"android":"levelo://app?vid=7cb8d0b6-2641-4508-afb6-421f239b2180","ios":"levelo://app?vid=7cb8d0b6-2641-4508-afb6-421f239b2180"},"vehicle_type_id":"4","last_reported":1752754963,"current_range_meters":16000,"station_id":"ce4bha92rcd13ifvqeh0","pricing_plan_id":"cebpf4jnsgd1na2vs0mg"},{"bike_id":"aebeee84-419c-4ac0-8ad4-257b0df9d04f","system_id":"levelo_inurba_marseille","lat":43.33601,"lon":5.41016,"is_reserved":false,"is_disabled":false,"rental_uris":{"android":"levelo://app?vid=aebeee84-419c-4ac0-8ad4-257b0df9d04f","ios":"levelo://app?vid=aebeee84-419c-4ac0-8ad4-257b0df9d04f"},"vehicle_type_id":"4","last_reported":1752754963,"current_range_meters":16400,"station_id":"ce4bhqh2rcd13ifvqhmg","pricing_plan_id":"cebpf4jnsgd1na2vs0mg"},{"bike_id":"0fae53b9-b6f9-4f22-be00-84f77ca07b98","system_id":"levelo_inurba_marseille","lat":43.29029,"lon":5.37578,"is_reserved":false,"is_disabled":false,"rental_uris":{"android":"levelo://app?vid=0fae53b9-b6f9-4f22-be00-84f77ca07b98","ios":"levelo://app?vid=0fae53b9-b6f9-4f22-be00-84f77ca07b98"},"vehicle_type_id":"4","last_reported":1752754963,"current_range_meters":16400,"station_id":"ce4bh692rcd13ifvqe90","pricing_plan_id":"cebpf4jnsgd1na2vs0mg"},{"bike_id":"661b7c6c-9707-424b-bd8c-d81e2868a861","system_id":"levelo_inurba_marseille","lat":43.2953,"lon":5.38535,"is_reserved":false,"is_disabled":false,"rental_uris":{"android":"levelo://app?vid=661b7c6c-9707-424b-bd8c-d81e2868a861","ios":"levelo://app?vid=661b7c6c-9707-424b-bd8c-d81e2868a861"},"vehicle_type_id":"4","last_reported":1752754963,"current_range_meters":16400,"station_id":"ce4bgih2rcd13ifvqba0","pricing_plan_id":"cebpf4jnsgd1na2vs0mg"},{"bike_id":"370b5495-4112-49cd-80ba-c31203562c50","system_id":"levelo_inurba_marseille","lat":43.30328,"lon":5.37908,"is_reserved":false,"is_disabled":false,"rental_uris":{"android":"levelo://app?vid=370b5495-4112-49cd-80ba-c31203562c50","ios":"levelo://app?vid=370b5495-4112-49cd-80ba-c31203562c50"},"vehicle_type_id":"4","last_reported":1752754963,"current_range_meters":16400,"station_id":"","pricing_plan_id":"cebpf4jnsgd1na2vs0mg"},{"bike_id":"a092d05c-8017-44f5-ba8a-35792463d6a3","system_id":"levelo_inurba_marseille","lat":43.22512,"lon":5.34795,"is_reserved":false,"is_disabled":false,"rental_uris":{"android":"levelo://app?vid=a092d05c-8017-44f5-ba8a-35792463d6a3","ios":"levelo://app?vid=a092d05c-8017-44f5-ba8a-35792463d6a3"},"vehicle_type_id":"4","last_reported":1752754963,"current_range_meters":16400,"station_id":"st_cvj5dfep6f1abm77gieg","pricing_plan_id":"cebpf4jnsgd1na2vs0mg"},{"bike_id":"eab9537b-893b-47b5-b14d-13822947026a","system_id":"levelo_inurba_marseille","lat":43.25909,"lon":5.40863,"is_reserved":false,"is_disabled":false,"rental_uris":{"android":"levelo://app?vid=eab9537b-893b-47b5-b14d-13822947026a","ios":"levelo://app?vid=eab9537b-893b-47b5-b14d-13822947026a"},"vehicle_type_id":"4","last_reported":1752754963,"current_range_meters":16400,"station_id":"ce4bhm92rcd13ifvqglg","pricing_plan_id":"cebpf4jnsgd1na2vs0mg"},{"bike_id":"169b84c4-0fec-4b66-a9bc-55f8f1d9adff","system_id":"levelo_inurba_marseille","lat":43.22937,"lon":5.35428,"is_reserved":false,"is_disabled":false,"rental_uris":{"android":"levelo://app?vid=169b84c4-0fec-4b66-a9bc-55f8f1d9adff","ios":"levelo://app?vid=169b84c4-0fec-4b66-a9bc-55f8f1d9adff"},"vehicle_type_id":"4","last_reported":1752754963,"current_range_meters":16400,"station_id":"cpo3532slgdg3j2ikp40","pricing_plan_id":"cebpf4jnsgd1na2vs0mg"},{"bike_id":"2272a1cb-30d4-47dd-bed5-39b01483f853","system_id":"levelo_inurba_marseille","lat":43.22923,"lon":5.35385,"is_reserved":false,"is_disabled":false,"rental_uris":{"android":"levelo://app?vid=2272a1cb-30d4-47dd-bed5-39b01483f853","ios":"levelo://app?vid=2272a1cb-30d4-47dd-bed5-39b01483f853"},"vehicle_type_id":"4","last_reported":1752754963,"current_range_meters":16400,"station_id":"cpo3532slgdg3j2ikp40","pricing_plan_id":"cebpf4jnsgd1na2vs0mg"},{"bike_id":"a06c7735-c62e-4b47-85a2-38e701fcbd91","system_id":"levelo_inurba_marseille","lat":43.24655,"lon":5.38918,"is_reserved":false,"is_disabled":false,"rental_uris":{"android":"levelo://app?vid=a06c7735-c62e-4b47-85a2-38e701fcbd91","ios":"levelo://app?vid=a06c7735-c62e-4b47-85a2-38e701fcbd91"},"vehicle_type_id":"4","last_reported":1752754963,"current_range_meters":16400,"station_id":"ce4bhg12rcd13ifvqf60","pricing_plan_id":"cebpf4jnsgd1na2vs0mg"},{"bike_id":"fd080ef6-1ffd-4399-bc91-7ac9fd287e49","system_id":"levelo_inurba_marseille","lat":43.305445,"lon":5.365517,"is_reserved":false,"is_disabled":false,"rental_uris":{"android":"levelo://app?vid=fd080ef6-1ffd-4399-bc91-7ac9fd287e49","ios":"levelo://app?vid=fd080ef6-1ffd-4399-bc91-7ac9fd287e49"},"vehicle_type_id":"4","last_reported":1752754963,"current_range_meters":16400,"station_id":"ce4bgs12rcd13ifvqcag","pricing_plan_id":"cebpf4jnsgd1na2vs0mg"},{"bike_id":"81f88721-00d0-431c-83bf-446e11578408","system_id":"levelo_inurba_marseille","lat":43.22498,"lon":5.34777,"is_reserved":false,"is_disabled":false,"rental_uris":{"android":"levelo://app?vid=81f88721-00d0-431c-83bf-446e11578408","ios":"levelo://app?vid=81f88721-00d0-431c-83bf-446e11578408"},"vehicle_type_id":"4","last_reported":1752754963,"current_range_meters":16400,"station_id":"st_cvj5dfep6f1abm77gieg","pricing_plan_id":"cebpf4jnsgd1na2vs0mg"},{"bike_id":"0c21421d-5352-4834-98e2-9edd59b3d75b","system_id":"levelo_inurba_marseille","lat":43.29532,"lon":5.38543,"is_reserved":false,"is_disabled":false,"rental_uris":{"android":"levelo://app?vid=0c21421d-5352-4834-98e2-9edd59b3d75b","ios":"levelo://app?vid=0c21421d-5352-4834-98e2-9edd59b3d75b"},"vehicle_type_id":"4","last_reported":1752754963,"current_range_meters":16800,"station_id":"ce4bgih2rcd13ifvqba0","pricing_plan_id":"cebpf4jnsgd1na2vs0mg"},{"bike_id":"c3a061f7-b76c-4dd1-a988-11757c15f2b6","system_id":"levelo_inurba_marseille","lat":43.26554,"lon":5.37282,"is_reserved":false,"is_disabled":false,"rental_uris":{"android":"levelo://app?vid=c3a061f7-b76c-4dd1-a988-11757c15f2b6","ios":"levelo://app?vid=c3a061f7-b76c-4dd1-a988-11757c15f2b6"},"vehicle_type_id":"4","last_reported":1752754963,"current_range_meters":16800,"station_id":"ce4bhg12rcd13ifvqf70","pricing_plan_id":"cebpf4jnsgd1na2vs0mg"},{"bike_id":"46f4f80d-dd8d-4538-9520-0268e5f9a675","system_id":"levelo_inurba_marseille","lat":43.30146,"lon":5.38073,"is_reserved":false,"is_disabled":false,"rental_uris":{"android":"levelo://app?vid=46f4f80d-dd8d-4538-9520-0268e5f9a675","ios":"levelo://app?vid=46f4f80d-dd8d-4538-9520-0268e5f9a675"},"vehicle_type_id":"4","last_reported":1752754963,"current_range_meters":16400,"station_id":"ce4bgjp2rcd13ifvqbh0","pricing_plan_id":"cebpf4jnsgd1na2vs0mg"},{"bike_id":"531dca68-8617-41b0-a6cd-abffc94e1d45","system_id":"levelo_inurba_marseille","lat":43.31202,"lon":5.3735,"is_reserved":false,"is_disabled":false,"rental_uris":{"android":"levelo://app?vid=531dca68-8617-41b0-a6cd-abffc94e1d45","ios":"levelo://app?vid=531dca68-8617-41b0-a6cd-abffc94e1d45"},"vehicle_type_id":"4","last_reported":1752754963,"current_range_meters":16800,"station_id":"","pricing_plan_id":"cebpf4jnsgd1na2vs0mg"},{"bike_id":"1e350f23-4b9c-4f28-9490-673ccf7326ae","system_id":"levelo_inurba_marseille","lat":43.28917,"lon":5.38398,"is_reserved":false,"is_disabled":false,"rental_uris":{"android":"levelo://app?vid=1e350f23-4b9c-4f28-9490-673ccf7326ae","ios":"levelo://app?vid=1e350f23-4b9c-4f28-9490-673ccf7326ae"},"vehicle_type_id":"4","last_reported":1752754963,"current_range_meters":16400,"station_id":"ce4bh612rcd13ifvqe6g","pricing_plan_id":"cebpf4jnsgd1na2vs0mg"},{"bike_id":"892b02ff-9cf1-4333-8fff-2231a32c5e31","system_id":"levelo_inurba_marseille","lat":43.30899,"lon":5.39635,"is_reserved":false,"is_disabled":false,"rental_uris":{"android":"levelo://app?vid=892b02ff-9cf1-4333-8fff-2231a32c5e31","ios":"levelo://app?vid=892b02ff-9cf1-4333-8fff-2231a32c5e31"},"vehicle_type_id":"4","last_reported":1752754963,"current_range_meters":16800,"station_id":"ce4bh012rcd13ifvqcv0","pricing_plan_id":"cebpf4jnsgd1na2vs0mg"},{"bike_id":"beaf768d-8a14-4503-a527-4a484efc759b","system_id":"levelo_inurba_marseille","lat":43.2174,"lon":5.34606,"is_reserved":false,"is_disabled":false,"rental_uris":{"android":"levelo://app?vid=beaf768d-8a14-4503-a527-4a484efc759b","ios":"levelo://app?vid=beaf768d-8a14-4503-a527-4a484efc759b"},"vehicle_type_id":"4","last_reported":1752754963,"current_range_meters":17200,"station_id":"st_cvj6r9ubvosntc0bgbag","pricing_plan_id":"cebpf4jnsgd1na2vs0mg"},{"bike_id":"5c741540-b34b-4252-89fb-27c2f42db8f5","system_id":"levelo_inurba_marseille","lat":43.30352,"lon":5.41868,"is_reserved":false,"is_disabled":false,"rental_uris":{"android":"levelo://app?vid=5c741540-b34b-4252-89fb-27c2f42db8f5","ios":"levelo://app?vid=5c741540-b34b-4252-89fb-27c2f42db8f5"},"vehicle_type_id":"4","last_reported":1752754963,"current_range_meters":16800,"station_id":"ce4bhop2rcd13ifvqh7g","pricing_plan_id":"cebpf4jnsgd1na2vs0mg"},{"bike_id":"17d5835f-94fc-4b49-af95-c93c2311a156","system_id":"levelo_inurba_marseille","lat":43.24384,"lon":5.37059,"is_reserved":false,"is_disabled":false,"rental_uris":{"android":"levelo://app?vid=17d5835f-94fc-4b49-af95-c93c2311a156","ios":"levelo://app?vid=17d5835f-94fc-4b49-af95-c93c2311a156"},"vehicle_type_id":"4","last_reported":1752754963,"current_range_meters":17200,"station_id":"ce4bhhh2rcd13ifvqfk0","pricing_plan_id":"cebpf4jnsgd1na2vs0mg"},{"bike_id":"3d81bf7d-01ed-4b33-9451-cbb539dac082","system_id":"levelo_inurba_marseille","lat":43.31489,"lon":5.373015,"is_reserved":false,"is_disabled":false,"rental_uris":{"android":"levelo://app?vid=3d81bf7d-01ed-4b33-9451-cbb539dac082","ios":"levelo://app?vid=3d81bf7d-01ed-4b33-9451-cbb539dac082"},"vehicle_type_id":"4","last_reported":1752754963,"current_range_meters":17200,"station_id":"ce4bgt12rcd13ifvqcd0","pricing_plan_id":"cebpf4jnsgd1na2vs0mg"},{"bike_id":"43c41d74-e827-4455-bdbc-da0b9f2a4518","system_id":"levelo_inurba_marseille","lat":43.21742,"lon":5.34611,"is_reserved":false,"is_disabled":false,"rental_uris":{"android":"levelo://app?vid=43c41d74-e827-4455-bdbc-da0b9f2a4518","ios":"levelo://app?vid=43c41d74-e827-4455-bdbc-da0b9f2a4518"},"vehicle_type_id":"4","last_reported":1752754963,"current_range_meters":17200,"station_id":"st_cvj6r9ubvosntc0bgbag","pricing_plan_id":"cebpf4jnsgd1na2vs0mg"},{"bike_id":"ee77f27c-f1c1-46ed-bbc3-8ed0a48c0994","system_id":"levelo_inurba_marseille","lat":43.30409,"lon":5.36741,"is_reserved":false,"is_disabled":false,"rental_uris":{"android":"levelo://app?vid=ee77f27c-f1c1-46ed-bbc3-8ed0a48c0994","ios":"levelo://app?vid=ee77f27c-f1c1-46ed-bbc3-8ed0a48c0994"},"vehicle_type_id":"4","last_reported":1752754963,"current_range_meters":17200,"station_id":"","pricing_plan_id":"cebpf4jnsgd1na2vs0mg"},{"bike_id":"98eb6128-2520-43a6-9cf9-f90fb282e9f9","system_id":"levelo_inurba_marseille","lat":43.3136,"lon":5.36696,"is_reserved":false,"is_disabled":false,"rental_uris":{"android":"levelo://app?vid=98eb6128-2520-43a6-9cf9-f90fb282e9f9","ios":"levelo://app?vid=98eb6128-2520-43a6-9cf9-f90fb282e9f9"},"vehicle_type_id":"4","last_reported":1752754963,"current_range_meters":17200,"station_id":"ce4bgr92rcd13ifvqc6g","pricing_plan_id":"cebpf4jnsgd1na2vs0mg"},{"bike_id":"e54582ed-ba92-4640-a97f-9e97144ce87f","system_id":"levelo_inurba_marseille","lat":43.32257,"lon":5.40652,"is_reserved":false,"is_disabled":false,"rental_uris":{"android":"levelo://app?vid=e54582ed-ba92-4640-a97f-9e97144ce87f","ios":"levelo://app?vid=e54582ed-ba92-4640-a97f-9e97144ce87f"},"vehicle_type_id":"4","last_reported":1752754963,"current_range_meters":17200,"station_id":"","pricing_plan_id":"cebpf4jnsgd1na2vs0mg"},{"bike_id":"6b362509-06ab-40c1-8c3b-c0c0e26e8380","system_id":"levelo_inurba_marseille","lat":43.30904,"lon":5.36848,"is_reserved":false,"is_disabled":false,"rental_uris":{"android":"levelo://app?vid=6b362509-06ab-40c1-8c3b-c0c0e26e8380","ios":"levelo://app?vid=6b362509-06ab-40c1-8c3b-c0c0e26e8380"},"vehicle_type_id":"4","last_reported":1752754963,"current_range_meters":17200,"station_id":"ce4bgn92rcd13ifvqbvg","pricing_plan_id":"cebpf4jnsgd1na2vs0mg"},{"bike_id":"9e24261a-3ff0-4bbe-8ad2-9c9c4d31a875","system_id":"levelo_inurba_marseille","lat":43.33717,"lon":5.39189,"is_reserved":false,"is_disabled":false,"rental_uris":{"android":"levelo://app?vid=9e24261a-3ff0-4bbe-8ad2-9c9c4d31a875","ios":"levelo://app?vid=9e24261a-3ff0-4bbe-8ad2-9c9c4d31a875"},"vehicle_type_id":"4","last_reported":1752754963,"current_range_meters":16800,"station_id":"ce4bhr92rcd13ifvqhsg","pricing_plan_id":"cebpf4jnsgd1na2vs0mg"},{"bike_id":"78274e74-ab73-4fa7-b1a3-d1a684863996","system_id":"levelo_inurba_marseille","lat":43.225041,"lon":5.347796,"is_reserved":false,"is_disabled":false,"rental_uris":{"android":"levelo://app?vid=78274e74-ab73-4fa7-b1a3-d1a684863996","ios":"levelo://app?vid=78274e74-ab73-4fa7-b1a3-d1a684863996"},"vehicle_type_id":"4","last_reported":1752754963,"current_range_meters":17200,"station_id":"st_cvj5dfep6f1abm77gieg","pricing_plan_id":"cebpf4jnsgd1na2vs0mg"},{"bike_id":"a0daf90b-2d1b-46b9-aa98-dadfbe670e7d","system_id":"levelo_inurba_marseille","lat":43.2904,"lon":5.38113,"is_reserved":false,"is_disabled":false,"rental_uris":{"android":"levelo://app?vid=a0daf90b-2d1b-46b9-aa98-dadfbe670e7d","ios":"levelo://app?vid=a0daf90b-2d1b-46b9-aa98-dadfbe670e7d"},"vehicle_type_id":"4","last_reported":1752754963,"current_range_meters":17200,"station_id":"","pricing_plan_id":"cebpf4jnsgd1na2vs0mg"},{"bike_id":"73beccd1-f184-4326-8064-c91f6505c977","system_id":"levelo_inurba_marseille","lat":43.33605,"lon":5.410299,"is_reserved":false,"is_disabled":false,"rental_uris":{"android":"levelo://app?vid=73beccd1-f184-4326-8064-c91f6505c977","ios":"levelo://app?vid=73beccd1-f184-4326-8064-c91f6505c977"},"vehicle_type_id":"4","last_reported":1752754963,"current_range_meters":17600,"station_id":"ce4bhqh2rcd13ifvqhmg","pricing_plan_id":"cebpf4jnsgd1na2vs0mg"},{"bike_id":"2885d0c6-1589-4a2c-8815-61bfb2fa4477","system_id":"levelo_inurba_marseille","lat":43.28409,"lon":5.34921,"is_reserved":false,"is_disabled":false,"rental_uris":{"android":"levelo://app?vid=2885d0c6-1589-4a2c-8815-61bfb2fa4477","ios":"levelo://app?vid=2885d0c6-1589-4a2c-8815-61bfb2fa4477"},"vehicle_type_id":"4","last_reported":1752754963,"current_range_meters":17600,"station_id":"ce4bhbh2rcd13ifvqepg","pricing_plan_id":"cebpf4jnsgd1na2vs0mg"},{"bike_id":"781c48d0-2276-490d-93f8-2c8e73414681","system_id":"levelo_inurba_marseille","lat":43.29572,"lon":5.37514,"is_reserved":false,"is_disabled":false,"rental_uris":{"android":"levelo://app?vid=781c48d0-2276-490d-93f8-2c8e73414681","ios":"levelo://app?vid=781c48d0-2276-490d-93f8-2c8e73414681"},"vehicle_type_id":"4","last_reported":1752754963,"current_range_meters":17600,"station_id":"ce4bgh92rcd13ifvqb50","pricing_plan_id":"cebpf4jnsgd1na2vs0mg"},{"bike_id":"a07d2709-212a-469a-9e86-fe6624f858b0","system_id":"levelo_inurba_marseille","lat":43.21734,"lon":5.34601,"is_reserved":false,"is_disabled":false,"rental_uris":{"android":"levelo://app?vid=a07d2709-212a-469a-9e86-fe6624f858b0","ios":"levelo://app?vid=a07d2709-212a-469a-9e86-fe6624f858b0"},"vehicle_type_id":"4","last_reported":1752754963,"current_range_meters":17600,"station_id":"st_cvj6r9ubvosntc0bgbag","pricing_plan_id":"cebpf4jnsgd1na2vs0mg"},{"bike_id":"660d6db3-3d46-4bf1-a04a-db097cd3027d","system_id":"levelo_inurba_marseille","lat":43.28274,"lon":5.3508,"is_reserved":false,"is_disabled":false,"rental_uris":{"android":"levelo://app?vid=660d6db3-3d46-4bf1-a04a-db097cd3027d","ios":"levelo://app?vid=660d6db3-3d46-4bf1-a04a-db097cd3027d"},"vehicle_type_id":"4","last_reported":1752754963,"current_range_meters":17600,"station_id":"ce4bhbp2rcd13ifvqerg","pricing_plan_id":"cebpf4jnsgd1na2vs0mg"},{"bike_id":"2f49c0bd-1fa3-4487-8922-9564c7b35ecb","system_id":"levelo_inurba_marseille","lat":43.275,"lon":5.42479,"is_reserved":false,"is_disabled":false,"rental_uris":{"android":"levelo://app?vid=2f49c0bd-1fa3-4487-8922-9564c7b35ecb","ios":"levelo://app?vid=2f49c0bd-1fa3-4487-8922-9564c7b35ecb"},"vehicle_type_id":"4","last_reported":1752754963,"current_range_meters":17600,"station_id":"ce4bhn92rcd13ifvqgrg","pricing_plan_id":"cebpf4jnsgd1na2vs0mg"},{"bike_id":"f04e7b22-2e5b-4c80-ba0d-4d4980d9c823","system_id":"levelo_inurba_marseille","lat":43.30157,"lon":5.38085,"is_reserved":false,"is_disabled":false,"rental_uris":{"android":"levelo://app?vid=f04e7b22-2e5b-4c80-ba0d-4d4980d9c823","ios":"levelo://app?vid=f04e7b22-2e5b-4c80-ba0d-4d4980d9c823"},"vehicle_type_id":"4","last_reported":1752754963,"current_range_meters":17600,"station_id":"ce4bgjp2rcd13ifvqbh0","pricing_plan_id":"cebpf4jnsgd1na2vs0mg"},{"bike_id":"d8b55396-0a3b-4c30-95c1-a87c7c7246d7","system_id":"levelo_inurba_marseille","lat":43.31491,"lon":5.37303,"is_reserved":false,"is_disabled":false,"rental_uris":{"android":"levelo://app?vid=d8b55396-0a3b-4c30-95c1-a87c7c7246d7","ios":"levelo://app?vid=d8b55396-0a3b-4c30-95c1-a87c7c7246d7"},"vehicle_type_id":"4","last_reported":1752754963,"current_range_meters":17600,"station_id":"ce4bgt12rcd13ifvqcd0","pricing_plan_id":"cebpf4jnsgd1na2vs0mg"},{"bike_id":"6be86623-c65c-4a0d-b3a4-c58891bfa931","system_id":"levelo_inurba_marseille","lat":43.22503,"lon":5.34769,"is_reserved":false,"is_disabled":false,"rental_uris":{"android":"levelo://app?vid=6be86623-c65c-4a0d-b3a4-c58891bfa931","ios":"levelo://app?vid=6be86623-c65c-4a0d-b3a4-c58891bfa931"},"vehicle_type_id":"4","last_reported":1752754963,"current_range_meters":18000,"station_id":"st_cvj5dfep6f1abm77gieg","pricing_plan_id":"cebpf4jnsgd1na2vs0mg"},{"bike_id":"084eace8-045f-4012-9455-c501cad7ce10","system_id":"levelo_inurba_marseille","lat":43.22498,"lon":5.3477,"is_reserved":false,"is_disabled":false,"rental_uris":{"android":"levelo://app?vid=084eace8-045f-4012-9455-c501cad7ce10","ios":"levelo://app?vid=084eace8-045f-4012-9455-c501cad7ce10"},"vehicle_type_id":"4","last_reported":1752754963,"current_range_meters":18000,"station_id":"st_cvj5dfep6f1abm77gieg","pricing_plan_id":"cebpf4jnsgd1na2vs0mg"},{"bike_id":"ed822664-f978-4865-b4d3-8b7323601ddf","system_id":"levelo_inurba_marseille","lat":43.29796,"lon":5.39361,"is_reserved":false,"is_disabled":true,"rental_uris":{"android":"levelo://app?vid=ed822664-f978-4865-b4d3-8b7323601ddf","ios":"levelo://app?vid=ed822664-f978-4865-b4d3-8b7323601ddf"},"vehicle_type_id":"4","last_reported":1752754963,"current_range_meters":18000,"station_id":"chh1huq6cuj3fo74tm60","pricing_plan_id":"cebpf4jnsgd1na2vs0mg"},{"bike_id":"43219a6b-421c-431b-97ae-62443e207880","system_id":"levelo_inurba_marseille","lat":43.25097,"lon":5.40346,"is_reserved":false,"is_disabled":false,"rental_uris":{"android":"levelo://app?vid=43219a6b-421c-431b-97ae-62443e207880","ios":"levelo://app?vid=43219a6b-421c-431b-97ae-62443e207880"},"vehicle_type_id":"4","last_reported":1752754963,"current_range_meters":17600,"station_id":"ce4bhlh2rcd13ifvqgig","pricing_plan_id":"cebpf4jnsgd1na2vs0mg"},{"bike_id":"72712d78-f8ef-49ca-840d-42880d468206","system_id":"levelo_inurba_marseille","lat":43.3031,"lon":5.369,"is_reserved":false,"is_disabled":false,"rental_uris":{"android":"levelo://app?vid=72712d78-f8ef-49ca-840d-42880d468206","ios":"levelo://app?vid=72712d78-f8ef-49ca-840d-42880d468206"},"vehicle_type_id":"4","last_reported":1752754963,"current_range_meters":18000,"station_id":"ce4bgqh2rcd13ifvqc5g","pricing_plan_id":"cebpf4jnsgd1na2vs0mg"},{"bike_id":"159ca100-ed7a-4b2d-96d8-e87fcefe83b4","system_id":"levelo_inurba_marseille","lat":43.30533,"lon":5.36701,"is_reserved":false,"is_disabled":false,"rental_uris":{"android":"levelo://app?vid=159ca100-ed7a-4b2d-96d8-e87fcefe83b4","ios":"levelo://app?vid=159ca100-ed7a-4b2d-96d8-e87fcefe83b4"},"vehicle_type_id":"4","last_reported":1752754963,"current_range_meters":18000,"station_id":"ce4bgrp2rcd13ifvqc9g","pricing_plan_id":"cebpf4jnsgd1na2vs0mg"},{"bike_id":"4bf2a7cd-ca06-42a4-93b4-80502380b5c2","system_id":"levelo_inurba_marseille","lat":43.269343,"lon":5.402586,"is_reserved":false,"is_disabled":false,"rental_uris":{"android":"levelo://app?vid=4bf2a7cd-ca06-42a4-93b4-80502380b5c2","ios":"levelo://app?vid=4bf2a7cd-ca06-42a4-93b4-80502380b5c2"},"vehicle_type_id":"4","last_reported":1752754963,"current_range_meters":18000,"station_id":"cjm6bp8fraef2m0cb0m0","pricing_plan_id":"cebpf4jnsgd1na2vs0mg"},{"bike_id":"9f9a48d8-372d-43d8-bffe-042ed4b1b483","system_id":"levelo_inurba_marseille","lat":43.31337,"lon":5.36724,"is_reserved":false,"is_disabled":false,"rental_uris":{"android":"levelo://app?vid=9f9a48d8-372d-43d8-bffe-042ed4b1b483","ios":"levelo://app?vid=9f9a48d8-372d-43d8-bffe-042ed4b1b483"},"vehicle_type_id":"4","last_reported":1752754963,"current_range_meters":18000,"station_id":"ce4bgr92rcd13ifvqc6g","pricing_plan_id":"cebpf4jnsgd1na2vs0mg"},{"bike_id":"4c0580d4-f2e2-4c67-8250-a65c39c0f7d6","system_id":"levelo_inurba_marseille","lat":43.22515,"lon":5.34777,"is_reserved":false,"is_disabled":false,"rental_uris":{"android":"levelo://app?vid=4c0580d4-f2e2-4c67-8250-a65c39c0f7d6","ios":"levelo://app?vid=4c0580d4-f2e2-4c67-8250-a65c39c0f7d6"},"vehicle_type_id":"4","last_reported":1752754963,"current_range_meters":18000,"station_id":"st_cvj5dfep6f1abm77gieg","pricing_plan_id":"cebpf4jnsgd1na2vs0mg"},{"bike_id":"5b4e5f0f-cac3-450a-9463-e6a77e2c277e","system_id":"levelo_inurba_marseille","lat":43.246423,"lon":5.388921,"is_reserved":false,"is_disabled":true,"rental_uris":{"android":"levelo://app?vid=5b4e5f0f-cac3-450a-9463-e6a77e2c277e","ios":"levelo://app?vid=5b4e5f0f-cac3-450a-9463-e6a77e2c277e"},"vehicle_type_id":"4","last_reported":1752754963,"current_range_meters":18000,"station_id":"ce4bhg12rcd13ifvqf60","pricing_plan_id":"cebpf4jnsgd1na2vs0mg"},{"bike_id":"ada59548-549d-47ed-a0a2-68fec6bfbccb","system_id":"levelo_inurba_marseille","lat":43.32474,"lon":5.365636,"is_reserved":false,"is_disabled":false,"rental_uris":{"android":"levelo://app?vid=ada59548-549d-47ed-a0a2-68fec6bfbccb","ios":"levelo://app?vid=ada59548-549d-47ed-a0a2-68fec6bfbccb"},"vehicle_type_id":"4","last_reported":1752754963,"current_range_meters":18000,"station_id":"ce4bhs12rcd13ifvqhvg","pricing_plan_id":"cebpf4jnsgd1na2vs0mg"},{"bike_id":"90ff6360-61cf-4a1f-ada0-5ba4cd4b6ba6","system_id":"levelo_inurba_marseille","lat":43.3025,"lon":5.37731,"is_reserved":false,"is_disabled":false,"rental_uris":{"android":"levelo://app?vid=90ff6360-61cf-4a1f-ada0-5ba4cd4b6ba6","ios":"levelo://app?vid=90ff6360-61cf-4a1f-ada0-5ba4cd4b6ba6"},"vehicle_type_id":"4","last_reported":1752754963,"current_range_meters":18000,"station_id":"ce4bguh2rcd13ifvqcj0","pricing_plan_id":"cebpf4jnsgd1na2vs0mg"},{"bike_id":"c2dba01e-7253-4f47-be7e-556b63c0e205","system_id":"levelo_inurba_marseille","lat":43.30266,"lon":5.37698,"is_reserved":false,"is_disabled":false,"rental_uris":{"android":"levelo://app?vid=c2dba01e-7253-4f47-be7e-556b63c0e205","ios":"levelo://app?vid=c2dba01e-7253-4f47-be7e-556b63c0e205"},"vehicle_type_id":"4","last_reported":1752754963,"current_range_meters":18000,"station_id":"ce4bguh2rcd13ifvqcj0","pricing_plan_id":"cebpf4jnsgd1na2vs0mg"},{"bike_id":"6fe4e2d5-c342-447b-94f7-9cfc12ce2c4e","system_id":"levelo_inurba_marseille","lat":43.29593,"lon":5.38098,"is_reserved":false,"is_disabled":false,"rental_uris":{"android":"levelo://app?vid=6fe4e2d5-c342-447b-94f7-9cfc12ce2c4e","ios":"levelo://app?vid=6fe4e2d5-c342-447b-94f7-9cfc12ce2c4e"},"vehicle_type_id":"4","last_reported":1752754963,"current_range_meters":18000,"station_id":"ce4bgl12rcd13ifvqbo0","pricing_plan_id":"cebpf4jnsgd1na2vs0mg"},{"bike_id":"499d8a2c-056d-4229-a4e7-ad0831e85ec2","system_id":"levelo_inurba_marseille","lat":43.30272,"lon":5.40068,"is_reserved":false,"is_disabled":false,"rental_uris":{"android":"levelo://app?vid=499d8a2c-056d-4229-a4e7-ad0831e85ec2","ios":"levelo://app?vid=499d8a2c-056d-4229-a4e7-ad0831e85ec2"},"vehicle_type_id":"4","last_reported":1752754963,"current_range_meters":18000,"station_id":"ce4bgvh2rcd13ifvqcs0","pricing_plan_id":"cebpf4jnsgd1na2vs0mg"},{"bike_id":"c6db0f6a-96fe-4e1d-8ded-c2ef38c9bab4","system_id":"levelo_inurba_marseille","lat":43.304183,"lon":5.412838,"is_reserved":false,"is_disabled":true,"rental_uris":{"android":"levelo://app?vid=c6db0f6a-96fe-4e1d-8ded-c2ef38c9bab4","ios":"levelo://app?vid=c6db0f6a-96fe-4e1d-8ded-c2ef38c9bab4"},"vehicle_type_id":"4","last_reported":1752754963,"current_range_meters":18800,"station_id":"ce4bhop2rcd13ifvqh8g","pricing_plan_id":"cebpf4jnsgd1na2vs0mg"},{"bike_id":"f99ff1e4-4111-475a-aa3e-cb902d081040","system_id":"levelo_inurba_marseille","lat":43.23198,"lon":5.35549,"is_reserved":false,"is_disabled":false,"rental_uris":{"android":"levelo://app?vid=f99ff1e4-4111-475a-aa3e-cb902d081040","ios":"levelo://app?vid=f99ff1e4-4111-475a-aa3e-cb902d081040"},"vehicle_type_id":"4","last_reported":1752754963,"current_range_meters":18800,"station_id":"ce4bhu92rcd13ifvqi70","pricing_plan_id":"cebpf4jnsgd1na2vs0mg"},{"bike_id":"ea75efb2-ac36-4344-b925-58a5bd2f6327","system_id":"levelo_inurba_marseille","lat":43.271854,"lon":5.362776,"is_reserved":false,"is_disabled":false,"rental_uris":{"android":"levelo://app?vid=ea75efb2-ac36-4344-b925-58a5bd2f6327","ios":"levelo://app?vid=ea75efb2-ac36-4344-b925-58a5bd2f6327"},"vehicle_type_id":"4","last_reported":1752754963,"current_range_meters":18800,"station_id":"","pricing_plan_id":"cebpf4jnsgd1na2vs0mg"},{"bike_id":"9fa50dd7-7fbd-4ce8-98cf-60e73f62ec1f","system_id":"levelo_inurba_marseille","lat":43.2175,"lon":5.34593,"is_reserved":false,"is_disabled":false,"rental_uris":{"android":"levelo://app?vid=9fa50dd7-7fbd-4ce8-98cf-60e73f62ec1f","ios":"levelo://app?vid=9fa50dd7-7fbd-4ce8-98cf-60e73f62ec1f"},"vehicle_type_id":"4","last_reported":1752754963,"current_range_meters":18800,"station_id":"st_cvj6r9ubvosntc0bgbag","pricing_plan_id":"cebpf4jnsgd1na2vs0mg"},{"bike_id":"53073354-7fda-41fa-b606-a04ad7bf043c","system_id":"levelo_inurba_marseille","lat":43.30162,"lon":5.38091,"is_reserved":false,"is_disabled":false,"rental_uris":{"android":"levelo://app?vid=53073354-7fda-41fa-b606-a04ad7bf043c","ios":"levelo://app?vid=53073354-7fda-41fa-b606-a04ad7bf043c"},"vehicle_type_id":"4","last_reported":1752754963,"current_range_meters":19200,"station_id":"ce4bgjp2rcd13ifvqbh0","pricing_plan_id":"cebpf4jnsgd1na2vs0mg"},{"bike_id":"2b4f500e-621a-49e9-98e0-204a2d3ef15f","system_id":"levelo_inurba_marseille","lat":43.25477,"lon":5.37663,"is_reserved":false,"is_disabled":false,"rental_uris":{"android":"levelo://app?vid=2b4f500e-621a-49e9-98e0-204a2d3ef15f","ios":"levelo://app?vid=2b4f500e-621a-49e9-98e0-204a2d3ef15f"},"vehicle_type_id":"4","last_reported":1752754963,"current_range_meters":19200,"station_id":"ce4bhh12rcd13ifvqff0","pricing_plan_id":"cebpf4jnsgd1na2vs0mg"},{"bike_id":"72790707-035c-4bca-b9bf-a8b4e9ad2919","system_id":"levelo_inurba_marseille","lat":43.23146,"lon":5.43719,"is_reserved":false,"is_disabled":false,"rental_uris":{"android":"levelo://app?vid=72790707-035c-4bca-b9bf-a8b4e9ad2919","ios":"levelo://app?vid=72790707-035c-4bca-b9bf-a8b4e9ad2919"},"vehicle_type_id":"4","last_reported":1752754963,"current_range_meters":19200,"station_id":"ce4bhmp2rcd13ifvqgog","pricing_plan_id":"cebpf4jnsgd1na2vs0mg"},{"bike_id":"ce40837d-3edf-4cc2-a747-2f8d4ee2c7fb","system_id":"levelo_inurba_marseille","lat":43.22506,"lon":5.34757,"is_reserved":false,"is_disabled":false,"rental_uris":{"android":"levelo://app?vid=ce40837d-3edf-4cc2-a747-2f8d4ee2c7fb","ios":"levelo://app?vid=ce40837d-3edf-4cc2-a747-2f8d4ee2c7fb"},"vehicle_type_id":"4","last_reported":1752754963,"current_range_meters":19200,"station_id":"st_cvj5dfep6f1abm77gieg","pricing_plan_id":"cebpf4jnsgd1na2vs0mg"},{"bike_id":"1fa6e47a-247c-43f3-a2d5-2457ee6c5d39","system_id":"levelo_inurba_marseille","lat":43.21198,"lon":5.35079,"is_reserved":false,"is_disabled":false,"rental_uris":{"android":"levelo://app?vid=1fa6e47a-247c-43f3-a2d5-2457ee6c5d39","ios":"levelo://app?vid=1fa6e47a-247c-43f3-a2d5-2457ee6c5d39"},"vehicle_type_id":"4","last_reported":1752754963,"current_range_meters":19200,"station_id":"st_cvj6sg6p6f1abm77japg","pricing_plan_id":"cebpf4jnsgd1na2vs0mg"},{"bike_id":"9e46aa88-7b19-47c3-b789-71b8902b53cb","system_id":"levelo_inurba_marseille","lat":43.2817,"lon":5.42664,"is_reserved":false,"is_disabled":false,"rental_uris":{"android":"levelo://app?vid=9e46aa88-7b19-47c3-b789-71b8902b53cb","ios":"levelo://app?vid=9e46aa88-7b19-47c3-b789-71b8902b53cb"},"vehicle_type_id":"4","last_reported":1752754963,"current_range_meters":19200,"station_id":"ce4bhnh2rcd13ifvqgug","pricing_plan_id":"cebpf4jnsgd1na2vs0mg"},{"bike_id":"66867a12-d88b-4820-bc2a-9a8726321e3c","system_id":"levelo_inurba_marseille","lat":43.295549,"lon":5.423009,"is_reserved":false,"is_disabled":false,"rental_uris":{"android":"levelo://app?vid=66867a12-d88b-4820-bc2a-9a8726321e3c","ios":"levelo://app?vid=66867a12-d88b-4820-bc2a-9a8726321e3c"},"vehicle_type_id":"4","last_reported":1752754963,"current_range_meters":19200,"station_id":"ce4bhph2rcd13ifvqhdg","pricing_plan_id":"cebpf4jnsgd1na2vs0mg"},{"bike_id":"ce7bd25b-5213-4881-a28b-f582e6a1d712","system_id":"levelo_inurba_marseille","lat":43.31362,"lon":5.36688,"is_reserved":false,"is_disabled":true,"rental_uris":{"android":"levelo://app?vid=ce7bd25b-5213-4881-a28b-f582e6a1d712","ios":"levelo://app?vid=ce7bd25b-5213-4881-a28b-f582e6a1d712"},"vehicle_type_id":"4","last_reported":1752754963,"current_range_meters":19200,"station_id":"ce4bgr92rcd13ifvqc6g","pricing_plan_id":"cebpf4jnsgd1na2vs0mg"},{"bike_id":"1d66c58d-703f-4f25-bec9-77e7fb7ea059","system_id":"levelo_inurba_marseille","lat":43.26902,"lon":5.40291,"is_reserved":false,"is_disabled":false,"rental_uris":{"android":"levelo://app?vid=1d66c58d-703f-4f25-bec9-77e7fb7ea059","ios":"levelo://app?vid=1d66c58d-703f-4f25-bec9-77e7fb7ea059"},"vehicle_type_id":"4","last_reported":1752754963,"current_range_meters":19200,"station_id":"cjm6bp8fraef2m0cb0m0","pricing_plan_id":"cebpf4jnsgd1na2vs0mg"},{"bike_id":"d21dccae-073c-4035-abaf-204996e62f1d","system_id":"levelo_inurba_marseille","lat":43.30414,"lon":5.41276,"is_reserved":false,"is_disabled":false,"rental_uris":{"android":"levelo://app?vid=d21dccae-073c-4035-abaf-204996e62f1d","ios":"levelo://app?vid=d21dccae-073c-4035-abaf-204996e62f1d"},"vehicle_type_id":"4","last_reported":1752754963,"current_range_meters":18800,"station_id":"ce4bhop2rcd13ifvqh8g","pricing_plan_id":"cebpf4jnsgd1na2vs0mg"},{"bike_id":"1383f82d-be3c-4abe-bdc3-534b8a03f785","system_id":"levelo_inurba_marseille","lat":43.2782,"lon":5.40761,"is_reserved":false,"is_disabled":false,"rental_uris":{"android":"levelo://app?vid=1383f82d-be3c-4abe-bdc3-534b8a03f785","ios":"levelo://app?vid=1383f82d-be3c-4abe-bdc3-534b8a03f785"},"vehicle_type_id":"4","last_reported":1752754963,"current_range_meters":19600,"station_id":"ce4bhnh2rcd13ifvqgtg","pricing_plan_id":"cebpf4jnsgd1na2vs0mg"},{"bike_id":"1c95ec2f-b4a2-48ad-9bf3-8d3e5c5614fb","system_id":"levelo_inurba_marseille","lat":43.241821,"lon":5.39716,"is_reserved":false,"is_disabled":false,"rental_uris":{"android":"levelo://app?vid=1c95ec2f-b4a2-48ad-9bf3-8d3e5c5614fb","ios":"levelo://app?vid=1c95ec2f-b4a2-48ad-9bf3-8d3e5c5614fb"},"vehicle_type_id":"4","last_reported":1752754963,"current_range_meters":19600,"station_id":"ce4bhn12rcd13ifvqgpg","pricing_plan_id":"cebpf4jnsgd1na2vs0mg"},{"bike_id":"af445d04-545e-4008-bf6d-71b2068dfacf","system_id":"levelo_inurba_marseille","lat":43.29896,"lon":5.43654,"is_reserved":false,"is_disabled":false,"rental_uris":{"android":"levelo://app?vid=af445d04-545e-4008-bf6d-71b2068dfacf","ios":"levelo://app?vid=af445d04-545e-4008-bf6d-71b2068dfacf"},"vehicle_type_id":"4","last_reported":1752754963,"current_range_meters":19600,"station_id":"ce4bhpp2rcd13ifvqhfg","pricing_plan_id":"cebpf4jnsgd1na2vs0mg"},{"bike_id":"ac0ed4be-466c-4caa-b855-3c6bbe5a11b5","system_id":"levelo_inurba_marseille","lat":43.26738,"lon":5.37234,"is_reserved":false,"is_disabled":false,"rental_uris":{"android":"levelo://app?vid=ac0ed4be-466c-4caa-b855-3c6bbe5a11b5","ios":"levelo://app?vid=ac0ed4be-466c-4caa-b855-3c6bbe5a11b5"},"vehicle_type_id":"4","last_reported":1752754963,"current_range_meters":19600,"station_id":"","pricing_plan_id":"cebpf4jnsgd1na2vs0mg"},{"bike_id":"01c4cad4-ab83-4c6c-bb99-def54328b75f","system_id":"levelo_inurba_marseille","lat":43.28615,"lon":5.35095,"is_reserved":false,"is_disabled":false,"rental_uris":{"android":"levelo://app?vid=01c4cad4-ab83-4c6c-bb99-def54328b75f","ios":"levelo://app?vid=01c4cad4-ab83-4c6c-bb99-def54328b75f"},"vehicle_type_id":"4","last_reported":1752754963,"current_range_meters":19600,"station_id":"ce4bhch2rcd13ifvqeug","pricing_plan_id":"cebpf4jnsgd1na2vs0mg"},{"bike_id":"ead35c9e-21c9-4174-8d2f-747f4e557a37","system_id":"levelo_inurba_marseille","lat":43.29624,"lon":5.40592,"is_reserved":false,"is_disabled":false,"rental_uris":{"android":"levelo://app?vid=ead35c9e-21c9-4174-8d2f-747f4e557a37","ios":"levelo://app?vid=ead35c9e-21c9-4174-8d2f-747f4e557a37"},"vehicle_type_id":"4","last_reported":1752754963,"current_range_meters":19600,"station_id":"ce4bh0h2rcd13ifvqd60","pricing_plan_id":"cebpf4jnsgd1na2vs0mg"},{"bike_id":"86d398e7-3ab0-449d-bca0-747a9f49b8f5","system_id":"levelo_inurba_marseille","lat":43.27488,"lon":5.42453,"is_reserved":false,"is_disabled":false,"rental_uris":{"android":"levelo://app?vid=86d398e7-3ab0-449d-bca0-747a9f49b8f5","ios":"levelo://app?vid=86d398e7-3ab0-449d-bca0-747a9f49b8f5"},"vehicle_type_id":"4","last_reported":1752754963,"current_range_meters":19600,"station_id":"ce4bhn92rcd13ifvqgrg","pricing_plan_id":"cebpf4jnsgd1na2vs0mg"},{"bike_id":"e63db760-60f2-4063-aa2b-9e0100a40135","system_id":"levelo_inurba_marseille","lat":43.3073,"lon":5.42454,"is_reserved":false,"is_disabled":false,"rental_uris":{"android":"levelo://app?vid=e63db760-60f2-4063-aa2b-9e0100a40135","ios":"levelo://app?vid=e63db760-60f2-4063-aa2b-9e0100a40135"},"vehicle_type_id":"4","last_reported":1752754963,"current_range_meters":19600,"station_id":"st_cvj6ca6bvosntc0bfgr0","pricing_plan_id":"cebpf4jnsgd1na2vs0mg"},{"bike_id":"f12e064a-e7be-4208-94a3-fcddaf5dbd4c","system_id":"levelo_inurba_marseille","lat":43.25725,"lon":5.41106,"is_reserved":false,"is_disabled":false,"rental_uris":{"android":"levelo://app?vid=f12e064a-e7be-4208-94a3-fcddaf5dbd4c","ios":"levelo://app?vid=f12e064a-e7be-4208-94a3-fcddaf5dbd4c"},"vehicle_type_id":"4","last_reported":1752754963,"current_range_meters":19600,"station_id":"ce4bhkp2rcd13ifvqgd0","pricing_plan_id":"cebpf4jnsgd1na2vs0mg"},{"bike_id":"d8eb8f2f-df0a-4c63-af99-112cd7385b86","system_id":"levelo_inurba_marseille","lat":43.28621,"lon":5.35107,"is_reserved":false,"is_disabled":false,"rental_uris":{"android":"levelo://app?vid=d8eb8f2f-df0a-4c63-af99-112cd7385b86","ios":"levelo://app?vid=d8eb8f2f-df0a-4c63-af99-112cd7385b86"},"vehicle_type_id":"4","last_reported":1752754963,"current_range_meters":19600,"station_id":"ce4bhch2rcd13ifvqeug","pricing_plan_id":"cebpf4jnsgd1na2vs0mg"},{"bike_id":"67023bf1-73d9-4ab4-9be6-30e6077b9751","system_id":"levelo_inurba_marseille","lat":43.287,"lon":5.37396,"is_reserved":false,"is_disabled":false,"rental_uris":{"android":"levelo://app?vid=67023bf1-73d9-4ab4-9be6-30e6077b9751","ios":"levelo://app?vid=67023bf1-73d9-4ab4-9be6-30e6077b9751"},"vehicle_type_id":"4","last_reported":1752754963,"current_range_meters":19600,"station_id":"ce4bh3p2rcd13ifvqdq0","pricing_plan_id":"cebpf4jnsgd1na2vs0mg"},{"bike_id":"57673fd9-e9a8-4292-9f48-49558084ac5a","system_id":"levelo_inurba_marseille","lat":43.30577,"lon":5.36518,"is_reserved":false,"is_disabled":false,"rental_uris":{"android":"levelo://app?vid=57673fd9-e9a8-4292-9f48-49558084ac5a","ios":"levelo://app?vid=57673fd9-e9a8-4292-9f48-49558084ac5a"},"vehicle_type_id":"4","last_reported":1752754963,"current_range_meters":19600,"station_id":"ce4bgs12rcd13ifvqcag","pricing_plan_id":"cebpf4jnsgd1na2vs0mg"},{"bike_id":"c83e5866-3057-41c7-b1dc-bfd42f8bcd2a","system_id":"levelo_inurba_marseille","lat":43.231444,"lon":5.437137,"is_reserved":false,"is_disabled":false,"rental_uris":{"android":"levelo://app?vid=c83e5866-3057-41c7-b1dc-bfd42f8bcd2a","ios":"levelo://app?vid=c83e5866-3057-41c7-b1dc-bfd42f8bcd2a"},"vehicle_type_id":"4","last_reported":1752754963,"current_range_meters":20000,"station_id":"ce4bhmp2rcd13ifvqgog","pricing_plan_id":"cebpf4jnsgd1na2vs0mg"},{"bike_id":"029233f3-c4e3-4034-b7a1-614db823795d","system_id":"levelo_inurba_marseille","lat":43.25863,"lon":5.39895,"is_reserved":false,"is_disabled":false,"rental_uris":{"android":"levelo://app?vid=029233f3-c4e3-4034-b7a1-614db823795d","ios":"levelo://app?vid=029233f3-c4e3-4034-b7a1-614db823795d"},"vehicle_type_id":"4","last_reported":1752754963,"current_range_meters":20000,"station_id":"ce4bhl92rcd13ifvqghg","pricing_plan_id":"cebpf4jnsgd1na2vs0mg"},{"bike_id":"0d1a7a28-bfbc-470c-a37a-32e80625ff26","system_id":"levelo_inurba_marseille","lat":43.28721,"lon":5.36077,"is_reserved":false,"is_disabled":false,"rental_uris":{"android":"levelo://app?vid=0d1a7a28-bfbc-470c-a37a-32e80625ff26","ios":"levelo://app?vid=0d1a7a28-bfbc-470c-a37a-32e80625ff26"},"vehicle_type_id":"4","last_reported":1752754963,"current_range_meters":20000,"station_id":"cki0cbj6b192h4jlfktg","pricing_plan_id":"cebpf4jnsgd1na2vs0mg"},{"bike_id":"9216eb90-8b5b-4ed7-892b-043f413766f6","system_id":"levelo_inurba_marseille","lat":43.31272,"lon":5.40166,"is_reserved":false,"is_disabled":false,"rental_uris":{"android":"levelo://app?vid=9216eb90-8b5b-4ed7-892b-043f413766f6","ios":"levelo://app?vid=9216eb90-8b5b-4ed7-892b-043f413766f6"},"vehicle_type_id":"4","last_reported":1752754963,"current_range_meters":19600,"station_id":"ce4bh092rcd13ifvqd30","pricing_plan_id":"cebpf4jnsgd1na2vs0mg"},{"bike_id":"c120b10e-3c54-499a-96f4-fb08d196aabd","system_id":"levelo_inurba_marseille","lat":43.260266,"lon":5.375489,"is_reserved":false,"is_disabled":false,"rental_uris":{"android":"levelo://app?vid=c120b10e-3c54-499a-96f4-fb08d196aabd","ios":"levelo://app?vid=c120b10e-3c54-499a-96f4-fb08d196aabd"},"vehicle_type_id":"4","last_reported":1752754963,"current_range_meters":20000,"station_id":"ce4bh112rcd13ifvqda0","pricing_plan_id":"cebpf4jnsgd1na2vs0mg"},{"bike_id":"db42604b-c15c-49d3-b62c-7cc2ce8e29c6","system_id":"levelo_inurba_marseille","lat":43.21194,"lon":5.35076,"is_reserved":false,"is_disabled":false,"rental_uris":{"android":"levelo://app?vid=db42604b-c15c-49d3-b62c-7cc2ce8e29c6","ios":"levelo://app?vid=db42604b-c15c-49d3-b62c-7cc2ce8e29c6"},"vehicle_type_id":"4","last_reported":1752754963,"current_range_meters":20000,"station_id":"st_cvj6sg6p6f1abm77japg","pricing_plan_id":"cebpf4jnsgd1na2vs0mg"},{"bike_id":"a67156ae-789e-45f5-ab3f-ed7d95b24540","system_id":"levelo_inurba_marseille","lat":43.211908,"lon":5.350729,"is_reserved":false,"is_disabled":false,"rental_uris":{"android":"levelo://app?vid=a67156ae-789e-45f5-ab3f-ed7d95b24540","ios":"levelo://app?vid=a67156ae-789e-45f5-ab3f-ed7d95b24540"},"vehicle_type_id":"4","last_reported":1752754963,"current_range_meters":20000,"station_id":"st_cvj6sg6p6f1abm77japg","pricing_plan_id":"cebpf4jnsgd1na2vs0mg"},{"bike_id":"03c4e37a-9d44-4a60-b09e-c2fe99e2bf34","system_id":"levelo_inurba_marseille","lat":43.22926,"lon":5.35391,"is_reserved":false,"is_disabled":false,"rental_uris":{"android":"levelo://app?vid=03c4e37a-9d44-4a60-b09e-c2fe99e2bf34","ios":"levelo://app?vid=03c4e37a-9d44-4a60-b09e-c2fe99e2bf34"},"vehicle_type_id":"4","last_reported":1752754963,"current_range_meters":20000,"station_id":"cpo3532slgdg3j2ikp40","pricing_plan_id":"cebpf4jnsgd1na2vs0mg"},{"bike_id":"5ac93e7c-286a-4c1e-b6c0-4e9963e5a9f8","system_id":"levelo_inurba_marseille","lat":43.21192,"lon":5.35076,"is_reserved":false,"is_disabled":false,"rental_uris":{"android":"levelo://app?vid=5ac93e7c-286a-4c1e-b6c0-4e9963e5a9f8","ios":"levelo://app?vid=5ac93e7c-286a-4c1e-b6c0-4e9963e5a9f8"},"vehicle_type_id":"4","last_reported":1752754963,"current_range_meters":20000,"station_id":"st_cvj6sg6p6f1abm77japg","pricing_plan_id":"cebpf4jnsgd1na2vs0mg"},{"bike_id":"d0b9c26a-cad3-45ce-af06-3d8528da855d","system_id":"levelo_inurba_marseille","lat":43.28935,"lon":5.39633,"is_reserved":false,"is_disabled":false,"rental_uris":{"android":"levelo://app?vid=d0b9c26a-cad3-45ce-af06-3d8528da855d","ios":"levelo://app?vid=d0b9c26a-cad3-45ce-af06-3d8528da855d"},"vehicle_type_id":"4","last_reported":1752754963,"current_range_meters":20400,"station_id":"ce4bh3h2rcd13ifvqdn0","pricing_plan_id":"cebpf4jnsgd1na2vs0mg"},{"bike_id":"eb5e954c-b3bf-48c3-aa20-b166f84e680c","system_id":"levelo_inurba_marseille","lat":43.28415,"lon":5.35006,"is_reserved":false,"is_disabled":false,"rental_uris":{"android":"levelo://app?vid=eb5e954c-b3bf-48c3-aa20-b166f84e680c","ios":"levelo://app?vid=eb5e954c-b3bf-48c3-aa20-b166f84e680c"},"vehicle_type_id":"4","last_reported":1752754963,"current_range_meters":20400,"station_id":"ce4bhbh2rcd13ifvqepg","pricing_plan_id":"cebpf4jnsgd1na2vs0mg"},{"bike_id":"39156484-d3df-4ce6-9da5-beeab1f9c214","system_id":"levelo_inurba_marseille","lat":43.21739,"lon":5.34612,"is_reserved":false,"is_disabled":false,"rental_uris":{"android":"levelo://app?vid=39156484-d3df-4ce6-9da5-beeab1f9c214","ios":"levelo://app?vid=39156484-d3df-4ce6-9da5-beeab1f9c214"},"vehicle_type_id":"4","last_reported":1752754963,"current_range_meters":20400,"station_id":"st_cvj6r9ubvosntc0bgbag","pricing_plan_id":"cebpf4jnsgd1na2vs0mg"},{"bike_id":"882748a5-a9cb-4dfc-b341-7bb04154b2ba","system_id":"levelo_inurba_marseille","lat":43.28415,"lon":5.35029,"is_reserved":false,"is_disabled":false,"rental_uris":{"android":"levelo://app?vid=882748a5-a9cb-4dfc-b341-7bb04154b2ba","ios":"levelo://app?vid=882748a5-a9cb-4dfc-b341-7bb04154b2ba"},"vehicle_type_id":"4","last_reported":1752754963,"current_range_meters":20400,"station_id":"ce4bhbh2rcd13ifvqepg","pricing_plan_id":"cebpf4jnsgd1na2vs0mg"},{"bike_id":"8ce9b80c-19c6-4985-81c6-50f285c26740","system_id":"levelo_inurba_marseille","lat":43.23961,"lon":5.36648,"is_reserved":false,"is_disabled":false,"rental_uris":{"android":"levelo://app?vid=8ce9b80c-19c6-4985-81c6-50f285c26740","ios":"levelo://app?vid=8ce9b80c-19c6-4985-81c6-50f285c26740"},"vehicle_type_id":"4","last_reported":1752754963,"current_range_meters":20400,"station_id":"ce4bhi12rcd13ifvqfp0","pricing_plan_id":"cebpf4jnsgd1na2vs0mg"},{"bike_id":"653fe53c-93ed-4e47-a254-06e1d3b181a8","system_id":"levelo_inurba_marseille","lat":43.29845,"lon":5.3627,"is_reserved":false,"is_disabled":false,"rental_uris":{"android":"levelo://app?vid=653fe53c-93ed-4e47-a254-06e1d3b181a8","ios":"levelo://app?vid=653fe53c-93ed-4e47-a254-06e1d3b181a8"},"vehicle_type_id":"4","last_reported":1752754963,"current_range_meters":20400,"station_id":"ce4bgpp2rcd13ifvqc3g","pricing_plan_id":"cebpf4jnsgd1na2vs0mg"},{"bike_id":"7ba3cc2c-151f-40c1-852d-35fd2112b52c","system_id":"levelo_inurba_marseille","lat":43.28411,"lon":5.34942,"is_reserved":false,"is_disabled":false,"rental_uris":{"android":"levelo://app?vid=7ba3cc2c-151f-40c1-852d-35fd2112b52c","ios":"levelo://app?vid=7ba3cc2c-151f-40c1-852d-35fd2112b52c"},"vehicle_type_id":"4","last_reported":1752754963,"current_range_meters":20400,"station_id":"ce4bhbh2rcd13ifvqepg","pricing_plan_id":"cebpf4jnsgd1na2vs0mg"},{"bike_id":"db7bad39-17ec-4f0b-95ae-0ccbb39420e1","system_id":"levelo_inurba_marseille","lat":43.22503,"lon":5.34777,"is_reserved":false,"is_disabled":false,"rental_uris":{"android":"levelo://app?vid=db7bad39-17ec-4f0b-95ae-0ccbb39420e1","ios":"levelo://app?vid=db7bad39-17ec-4f0b-95ae-0ccbb39420e1"},"vehicle_type_id":"4","last_reported":1752754963,"current_range_meters":20400,"station_id":"st_cvj5dfep6f1abm77gieg","pricing_plan_id":"cebpf4jnsgd1na2vs0mg"},{"bike_id":"d6d17411-0526-45dc-841f-3cde305afeae","system_id":"levelo_inurba_marseille","lat":43.21742,"lon":5.34614,"is_reserved":false,"is_disabled":false,"rental_uris":{"android":"levelo://app?vid=d6d17411-0526-45dc-841f-3cde305afeae","ios":"levelo://app?vid=d6d17411-0526-45dc-841f-3cde305afeae"},"vehicle_type_id":"4","last_reported":1752754963,"current_range_meters":20400,"station_id":"st_cvj6r9ubvosntc0bgbag","pricing_plan_id":"cebpf4jnsgd1na2vs0mg"},{"bike_id":"edd0079d-996b-4ae3-9a31-d781f3a059ec","system_id":"levelo_inurba_marseille","lat":43.33786,"lon":5.37426,"is_reserved":false,"is_disabled":false,"rental_uris":{"android":"levelo://app?vid=edd0079d-996b-4ae3-9a31-d781f3a059ec","ios":"levelo://app?vid=edd0079d-996b-4ae3-9a31-d781f3a059ec"},"vehicle_type_id":"4","last_reported":1752754963,"current_range_meters":20400,"station_id":"","pricing_plan_id":"cebpf4jnsgd1na2vs0mg"},{"bike_id":"d191c7f3-2e74-4030-a032-8d36459907d3","system_id":"levelo_inurba_marseille","lat":43.321065,"lon":5.36795,"is_reserved":false,"is_disabled":false,"rental_uris":{"android":"levelo://app?vid=d191c7f3-2e74-4030-a032-8d36459907d3","ios":"levelo://app?vid=d191c7f3-2e74-4030-a032-8d36459907d3"},"vehicle_type_id":"4","last_reported":1752754963,"current_range_meters":20400,"station_id":"ce4bhrh2rcd13ifvqhug","pricing_plan_id":"cebpf4jnsgd1na2vs0mg"},{"bike_id":"63c1bf79-a994-4e57-950b-ce9e3d3a58bb","system_id":"levelo_inurba_marseille","lat":43.30541,"lon":5.36559,"is_reserved":false,"is_disabled":false,"rental_uris":{"android":"levelo://app?vid=63c1bf79-a994-4e57-950b-ce9e3d3a58bb","ios":"levelo://app?vid=63c1bf79-a994-4e57-950b-ce9e3d3a58bb"},"vehicle_type_id":"4","last_reported":1752754963,"current_range_meters":20400,"station_id":"ce4bgs12rcd13ifvqcag","pricing_plan_id":"cebpf4jnsgd1na2vs0mg"},{"bike_id":"b1dd90fd-fe0f-4498-9c89-a91238ea8366","system_id":"levelo_inurba_marseille","lat":43.29572,"lon":5.39963,"is_reserved":false,"is_disabled":false,"rental_uris":{"android":"levelo://app?vid=b1dd90fd-fe0f-4498-9c89-a91238ea8366","ios":"levelo://app?vid=b1dd90fd-fe0f-4498-9c89-a91238ea8366"},"vehicle_type_id":"4","last_reported":1752754963,"current_range_meters":20400,"station_id":"ce4bh312rcd13ifvqdj0","pricing_plan_id":"cebpf4jnsgd1na2vs0mg"},{"bike_id":"e1c5fb73-8e5c-47b3-89c0-8cb7e90f0620","system_id":"levelo_inurba_marseille","lat":43.28618,"lon":5.3511,"is_reserved":false,"is_disabled":false,"rental_uris":{"android":"levelo://app?vid=e1c5fb73-8e5c-47b3-89c0-8cb7e90f0620","ios":"levelo://app?vid=e1c5fb73-8e5c-47b3-89c0-8cb7e90f0620"},"vehicle_type_id":"4","last_reported":1752754963,"current_range_meters":20800,"station_id":"ce4bhch2rcd13ifvqeug","pricing_plan_id":"cebpf4jnsgd1na2vs0mg"},{"bike_id":"1d9bf584-41ef-4bf3-aa4f-c2cce8d3727b","system_id":"levelo_inurba_marseille","lat":43.22521,"lon":5.3478,"is_reserved":false,"is_disabled":true,"rental_uris":{"android":"levelo://app?vid=1d9bf584-41ef-4bf3-aa4f-c2cce8d3727b","ios":"levelo://app?vid=1d9bf584-41ef-4bf3-aa4f-c2cce8d3727b"},"vehicle_type_id":"4","last_reported":1752754963,"current_range_meters":20800,"station_id":"st_cvj5dfep6f1abm77gieg","pricing_plan_id":"cebpf4jnsgd1na2vs0mg"},{"bike_id":"58cb234b-86ec-4b63-99db-717c732d6291","system_id":"levelo_inurba_marseille","lat":43.31209,"lon":5.36901,"is_reserved":false,"is_disabled":false,"rental_uris":{"android":"levelo://app?vid=58cb234b-86ec-4b63-99db-717c732d6291","ios":"levelo://app?vid=58cb234b-86ec-4b63-99db-717c732d6291"},"vehicle_type_id":"4","last_reported":1752754963,"current_range_meters":20800,"station_id":"ce4bgl92rcd13ifvqbq0","pricing_plan_id":"cebpf4jnsgd1na2vs0mg"},{"bike_id":"2d95b47d-d06f-40a4-bb6e-c13e954e3c8f","system_id":"levelo_inurba_marseille","lat":43.27709,"lon":5.41454,"is_reserved":false,"is_disabled":false,"rental_uris":{"android":"levelo://app?vid=2d95b47d-d06f-40a4-bb6e-c13e954e3c8f","ios":"levelo://app?vid=2d95b47d-d06f-40a4-bb6e-c13e954e3c8f"},"vehicle_type_id":"4","last_reported":1752754963,"current_range_meters":20800,"station_id":"","pricing_plan_id":"cebpf4jnsgd1na2vs0mg"},{"bike_id":"5f609dac-09f6-4f7d-905f-6338275679f0","system_id":"levelo_inurba_marseille","lat":43.30362,"lon":5.42487,"is_reserved":false,"is_disabled":false,"rental_uris":{"android":"levelo://app?vid=5f609dac-09f6-4f7d-905f-6338275679f0","ios":"levelo://app?vid=5f609dac-09f6-4f7d-905f-6338275679f0"},"vehicle_type_id":"4","last_reported":1752754963,"current_range_meters":20800,"station_id":"ce4bhoh2rcd13ifvqh6g","pricing_plan_id":"cebpf4jnsgd1na2vs0mg"},{"bike_id":"a675df32-16e1-46de-af30-d0726fd89292","system_id":"levelo_inurba_marseille","lat":43.24395,"lon":5.37057,"is_reserved":false,"is_disabled":false,"rental_uris":{"android":"levelo://app?vid=a675df32-16e1-46de-af30-d0726fd89292","ios":"levelo://app?vid=a675df32-16e1-46de-af30-d0726fd89292"},"vehicle_type_id":"4","last_reported":1752754963,"current_range_meters":20800,"station_id":"ce4bhhh2rcd13ifvqfk0","pricing_plan_id":"cebpf4jnsgd1na2vs0mg"},{"bike_id":"516e362f-cca9-4f09-8e14-aaae2480870e","system_id":"levelo_inurba_marseille","lat":43.337444,"lon":5.374475,"is_reserved":false,"is_disabled":false,"rental_uris":{"android":"levelo://app?vid=516e362f-cca9-4f09-8e14-aaae2480870e","ios":"levelo://app?vid=516e362f-cca9-4f09-8e14-aaae2480870e"},