{"last_updated":1730853843,"ttl":60,"version":"2.2","data":{"bikes":[{"bike_id":"2f303e9d-7400-40a4-a59c-f412d183bbe2","system_id":"levelo_inurba_marseille","lat":43.3228,"lon":5.38877,"is_reserved":false,"is_disabled":false,"rental_uris":{"android":"levelo://app?vid=2f303e9d-7400-40a4-a59c-f412d183bbe2","ios":"levelo://app?vid=2f303e9d-7400-40a4-a59c-f412d183bbe2"},"vehicle_type_id":"4","last_reported":1730853843,"current_range_meters":38800,"station_id":"ce4bhqp2rcd13ifvqhog","pricing_plan_id":"cebpf4jnsgd1na2vs0mg"},{"bike_id":"d024ca49-630e-4344-9dc4-2694c875c1b5","system_id":"levelo_inurba_marseille","lat":43.310786,"lon":5.424462,"is_reserved":false,"is_disabled":false,"rental_uris":{"android":"levelo://app?vid=d024ca49-630e-4344-9dc4-2694c875c1b5","ios":"levelo://app?vid=d024ca49-630e-4344-9dc4-2694c875c1b5"},"vehicle_type_id":"4","last_reported":1730853843,"current_range_meters":7200,"station_id":"ce4bhp92rcd13ifvqhag","pricing_plan_id":"cebpf4jnsgd1na2vs0mg"},{"bike_id":"e983a3a2-b468-48ef-a374-a54128068ac7","system_id":"levelo_inurba_marseille","lat":43.33028,"lon":5.39039,"is_reserved":false,"is_disabled":false,"rental_uris":{"android":"levelo://app?vid=e983a3a2-b468-48ef-a374-a54128068ac7","ios":"levelo://app?vid=e983a3a2-b468-48ef-a374-a54128068ac7"},"vehicle_type_id":"4","last_reported":1730853843,"current_range_meters":28000,"station_id":"ce4bhr92rcd13ifvqhrg","pricing_plan_id":"cebpf4jnsgd1na2vs0mg"},{"bike_id":"bc869811-1aad-4ece-b858-9965c373b037","system_id":"levelo_inurba_marseille","lat":43.23141,"lon":5.43713,"is_reserved":false,"is_disabled":false,"rental_uris":{"android":"levelo://app?vid=bc869811-1aad-4ece-b858-9965c373b037","ios":"levelo://app?vid=bc869811-1aad-4ece-b858-9965c373b037"},"vehicle_type_id":"4","last_reported":1730853843,"current_range_meters":38800,"station_id":"ce4bhmp2rcd13ifvqgog","pricing_plan_id":"cebpf4jnsgd1na2vs0mg"},{"bike_id":"6ec4e730-c54a-4330-8601-6a8d69259da3","system_id":"levelo_inurba_marseille","lat":43.24068,"lon":5.37761,"is_reserved":false,"is_disabled":false,"rental_uris":{"android":"levelo://app?vid=6ec4e730-c54a-4330-8601-6a8d69259da3","ios":"levelo://app?vid=6ec4e730-c54a-4330-8601-6a8d69259da3"},"vehicle_type_id":"4","last_reported":1730853843,"current_range_meters":16000,"station_id":"ce4bhnp2rcd13ifvqgvg","pricing_plan_id":"cebpf4jnsgd1na2vs0mg"},{"bike_id":"d43d5285-f672-442b-81bf-c6b155099aef","system_id":"levelo_inurba_marseille","lat":43.29193,"lon":5.35769,"is_reserved":false,"is_disabled":false,"rental_uris":{"android":"levelo://app?vid=d43d5285-f672-442b-81bf-c6b155099aef","ios":"levelo://app?vid=d43d5285-f672-442b-81bf-c6b155099aef"},"vehicle_type_id":"4","last_reported":1730853843,"current_range_meters":38800,"station_id":"ce4bhb12rcd13ifvqel0","pricing_plan_id":"cebpf4jnsgd1na2vs0mg"},{"bike_id":"438afe63-9c7c-4d65-a30d-b9f7154e5afa","system_id":"levelo_inurba_marseille","lat":43.29986,"lon":5.37189,"is_reserved":false,"is_disabled":false,"rental_uris":{"android":"levelo://app?vid=438afe63-9c7c-4d65-a30d-b9f7154e5afa","ios":"levelo://app?vid=438afe63-9c7c-4d65-a30d-b9f7154e5afa"},"vehicle_type_id":"4","last_reported":1730853843,"current_range_meters":37600,"station_id":"ce4bgr92rcd13ifvqc7g","pricing_plan_id":"cebpf4jnsgd1na2vs0mg"},{"bike_id":"6f24135f-ffef-4131-8fbb-c2a781cf1a6b","system_id":"levelo_inurba_marseille","lat":43.26563,"lon":5.37267,"is_reserved":false,"is_disabled":false,"rental_uris":{"android":"levelo://app?vid=6f24135f-ffef-4131-8fbb-c2a781cf1a6b","ios":"levelo://app?vid=6f24135f-ffef-4131-8fbb-c2a781cf1a6b"},"vehicle_type_id":"4","last_reported":1730853843,"current_range_meters":38800,"station_id":"ce4bhg12rcd13ifvqf70","pricing_plan_id":"cebpf4jnsgd1na2vs0mg"},{"bike_id":"aaf896be-23fc-4cde-b212-d643c208e7c1","system_id":"levelo_inurba_marseille","lat":43.30436,"lon":5.41258,"is_reserved":false,"is_disabled":false,"rental_uris":{"android":"levelo://app?vid=aaf896be-23fc-4cde-b212-d643c208e7c1","ios":"levelo://app?vid=aaf896be-23fc-4cde-b212-d643c208e7c1"},"vehicle_type_id":"4","last_reported":1730853843,"current_range_meters":38800,"station_id":"ce4bhop2rcd13ifvqh8g","pricing_plan_id":"cebpf4jnsgd1na2vs0mg"},{"bike_id":"fec9a4d0-bcc9-4c3f-a053-4aa9ae1aa0ed","system_id":"levelo_inurba_marseille","lat":43.25869,"lon":5.39907,"is_reserved":false,"is_disabled":false,"rental_uris":{"android":"levelo://app?vid=fec9a4d0-bcc9-4c3f-a053-4aa9ae1aa0ed","ios":"levelo://app?vid=fec9a4d0-bcc9-4c3f-a053-4aa9ae1aa0ed"},"vehicle_type_id":"4","last_reported":1730853843,"current_range_meters":11600,"station_id":"ce4bhl92rcd13ifvqghg","pricing_plan_id":"cebpf4jnsgd1na2vs0mg"},{"bike_id":"b945d05a-3833-431b-b35a-2ce853a19a1e","system_id":"levelo_inurba_marseille","lat":43.3089,"lon":5.39629,"is_reserved":false,"is_disabled":false,"rental_uris":{"android":"levelo://app?vid=b945d05a-3833-431b-b35a-2ce853a19a1e","ios":"levelo://app?vid=b945d05a-3833-431b-b35a-2ce853a19a1e"},"vehicle_type_id":"4","last_reported":1730853843,"current_range_meters":30000,"station_id":"ce4bh012rcd13ifvqcv0","pricing_plan_id":"cebpf4jnsgd1na2vs0mg"},{"bike_id":"53e4a266-9666-4231-847d-f773fcfaddcb","system_id":"levelo_inurba_marseille","lat":43.30802,"lon":5.3815,"is_reserved":false,"is_disabled":false,"rental_uris":{"android":"levelo://app?vid=53e4a266-9666-4231-847d-f773fcfaddcb","ios":"levelo://app?vid=53e4a266-9666-4231-847d-f773fcfaddcb"},"vehicle_type_id":"4","last_reported":1730853843,"current_range_meters":38400,"station_id":"ce4bgt12rcd13ifvqce0","pricing_plan_id":"cebpf4jnsgd1na2vs0mg"},{"bike_id":"d53555b9-a9d6-4012-b0fa-c27a996d6f37","system_id":"levelo_inurba_marseille","lat":43.28409,"lon":5.37514,"is_reserved":false,"is_disabled":false,"rental_uris":{"android":"levelo://app?vid=d53555b9-a9d6-4012-b0fa-c27a996d6f37","ios":"levelo://app?vid=d53555b9-a9d6-4012-b0fa-c27a996d6f37"},"vehicle_type_id":"4","last_reported":1730853843,"current_range_meters":36800,"station_id":"ce4bh412rcd13ifvqds0","pricing_plan_id":"cebpf4jnsgd1na2vs0mg"},{"bike_id":"70c444c7-7bb1-4608-b126-9e87f526f4b3","system_id":"levelo_inurba_marseille","lat":43.307773,"lon":5.376487,"is_reserved":false,"is_disabled":false,"rental_uris":{"android":"levelo://app?vid=70c444c7-7bb1-4608-b126-9e87f526f4b3","ios":"levelo://app?vid=70c444c7-7bb1-4608-b126-9e87f526f4b3"},"vehicle_type_id":"4","last_reported":1730853843,"current_range_meters":21600,"station_id":"ce4bgv92rcd13ifvqcq0","pricing_plan_id":"cebpf4jnsgd1na2vs0mg"},{"bike_id":"ebe33179-e1dc-4a94-86fc-954f574b04d1","system_id":"levelo_inurba_marseille","lat":43.31531,"lon":5.38032,"is_reserved":false,"is_disabled":false,"rental_uris":{"android":"levelo://app?vid=ebe33179-e1dc-4a94-86fc-954f574b04d1","ios":"levelo://app?vid=ebe33179-e1dc-4a94-86fc-954f574b04d1"},"vehicle_type_id":"4","last_reported":1730853843,"current_range_meters":30400,"station_id":"ce4bhsp2rcd13ifvqi50","pricing_plan_id":"cebpf4jnsgd1na2vs0mg"},{"bike_id":"c4c19a0c-8d82-42b0-9ed3-22a2537291ef","system_id":"levelo_inurba_marseille","lat":43.28852,"lon":5.35845,"is_reserved":false,"is_disabled":false,"rental_uris":{"android":"levelo://app?vid=c4c19a0c-8d82-42b0-9ed3-22a2537291ef","ios":"levelo://app?vid=c4c19a0c-8d82-42b0-9ed3-22a2537291ef"},"vehicle_type_id":"4","last_reported":1730853843,"current_range_meters":31200,"station_id":"ce4bhb12rcd13ifvqem0","pricing_plan_id":"cebpf4jnsgd1na2vs0mg"},{"bike_id":"c117bc61-f498-442b-841f-82c31785d7f9","system_id":"levelo_inurba_marseille","lat":43.30806,"lon":5.38155,"is_reserved":false,"is_disabled":false,"rental_uris":{"android":"levelo://app?vid=c117bc61-f498-442b-841f-82c31785d7f9","ios":"levelo://app?vid=c117bc61-f498-442b-841f-82c31785d7f9"},"vehicle_type_id":"4","last_reported":1730853843,"current_range_meters":28400,"station_id":"ce4bgt12rcd13ifvqce0","pricing_plan_id":"cebpf4jnsgd1na2vs0mg"},{"bike_id":"d7d20756-0263-4239-b190-2bf90f8edd36","system_id":"levelo_inurba_marseille","lat":43.29864,"lon":5.39747,"is_reserved":false,"is_disabled":false,"rental_uris":{"android":"levelo://app?vid=d7d20756-0263-4239-b190-2bf90f8edd36","ios":"levelo://app?vid=d7d20756-0263-4239-b190-2bf90f8edd36"},"vehicle_type_id":"4","last_reported":1730853843,"current_range_meters":25600,"station_id":"ce4bh0h2rcd13ifvqd50","pricing_plan_id":"cebpf4jnsgd1na2vs0mg"},{"bike_id":"41919be8-3176-4f73-81be-0bd4084ed967","system_id":"levelo_inurba_marseille","lat":43.31172,"lon":5.38715,"is_reserved":false,"is_disabled":false,"rental_uris":{"android":"levelo://app?vid=41919be8-3176-4f73-81be-0bd4084ed967","ios":"levelo://app?vid=41919be8-3176-4f73-81be-0bd4084ed967"},"vehicle_type_id":"4","last_reported":1730853843,"current_range_meters":17600,"station_id":"ce4bgv12rcd13ifvqcp0","pricing_plan_id":"cebpf4jnsgd1na2vs0mg"},{"bike_id":"280707c2-3b97-4452-a27e-aba0470ebebc","system_id":"levelo_inurba_marseille","lat":43.28703,"lon":5.39984,"is_reserved":false,"is_disabled":false,"rental_uris":{"android":"levelo://app?vid=280707c2-3b97-4452-a27e-aba0470ebebc","ios":"levelo://app?vid=280707c2-3b97-4452-a27e-aba0470ebebc"},"vehicle_type_id":"4","last_reported":1730853843,"current_range_meters":33200,"station_id":"ce4bho92rcd13ifvqh3g","pricing_plan_id":"cebpf4jnsgd1na2vs0mg"},{"bike_id":"7d71752e-26ca-4b12-99aa-dafff6111371","system_id":"levelo_inurba_marseille","lat":43.30798,"lon":5.38153,"is_reserved":false,"is_disabled":false,"rental_uris":{"android":"levelo://app?vid=7d71752e-26ca-4b12-99aa-dafff6111371","ios":"levelo://app?vid=7d71752e-26ca-4b12-99aa-dafff6111371"},"vehicle_type_id":"4","last_reported":1730853843,"current_range_meters":35600,"station_id":"ce4bgt12rcd13ifvqce0","pricing_plan_id":"cebpf4jnsgd1na2vs0mg"},{"bike_id":"9ed341e7-8dd8-4a79-bad4-560fb0374227","system_id":"levelo_inurba_marseille","lat":43.28444,"lon":5.39184,"is_reserved":false,"is_disabled":false,"rental_uris":{"android":"levelo://app?vid=9ed341e7-8dd8-4a79-bad4-560fb0374227","ios":"levelo://app?vid=9ed341e7-8dd8-4a79-bad4-560fb0374227"},"vehicle_type_id":"4","last_reported":1730853843,"current_range_meters":38800,"station_id":"ce4bhoh2rcd13ifvqh5g","pricing_plan_id":"cebpf4jnsgd1na2vs0mg"},{"bike_id":"35cf71f5-f37e-4bbb-b151-04fa72375f7a","system_id":"levelo_inurba_marseille","lat":43.2315,"lon":5.43716,"is_reserved":false,"is_disabled":false,"rental_uris":{"android":"levelo://app?vid=35cf71f5-f37e-4bbb-b151-04fa72375f7a","ios":"levelo://app?vid=35cf71f5-f37e-4bbb-b151-04fa72375f7a"},"vehicle_type_id":"4","last_reported":1730853843,"current_range_meters":38800,"station_id":"ce4bhmp2rcd13ifvqgog","pricing_plan_id":"cebpf4jnsgd1na2vs0mg"},{"bike_id":"4147bbfb-4b14-4aca-b782-8ec6c0473609","system_id":"levelo_inurba_marseille","lat":43.23603,"lon":5.40342,"is_reserved":false,"is_disabled":false,"rental_uris":{"android":"levelo://app?vid=4147bbfb-4b14-4aca-b782-8ec6c0473609","ios":"levelo://app?vid=4147bbfb-4b14-4aca-b782-8ec6c0473609"},"vehicle_type_id":"4","last_reported":1730853843,"current_range_meters":6000,"station_id":"","pricing_plan_id":"cebpf4jnsgd1na2vs0mg"},{"bike_id":"7bdc745b-9489-4084-98ef-29d08318caf3","system_id":"levelo_inurba_marseille","lat":43.2893,"lon":5.36631,"is_reserved":false,"is_disabled":false,"rental_uris":{"android":"levelo://app?vid=7bdc745b-9489-4084-98ef-29d08318caf3","ios":"levelo://app?vid=7bdc745b-9489-4084-98ef-29d08318caf3"},"vehicle_type_id":"4","last_reported":1730853843,"current_range_meters":37600,"station_id":"ce4bhap2rcd13ifvqek0","pricing_plan_id":"cebpf4jnsgd1na2vs0mg"},{"bike_id":"26c468f0-0619-4e89-8435-8968b7688fc5","system_id":"levelo_inurba_marseille","lat":43.24075,"lon":5.37759,"is_reserved":false,"is_disabled":false,"rental_uris":{"android":"levelo://app?vid=26c468f0-0619-4e89-8435-8968b7688fc5","ios":"levelo://app?vid=26c468f0-0619-4e89-8435-8968b7688fc5"},"vehicle_type_id":"4","last_reported":1730853843,"current_range_meters":12800,"station_id":"ce4bhnp2rcd13ifvqgvg","pricing_plan_id":"cebpf4jnsgd1na2vs0mg"},{"bike_id":"875c3b51-709b-4cf8-8c4f-9465fa317359","system_id":"levelo_inurba_marseille","lat":43.2757,"lon":5.38411,"is_reserved":false,"is_disabled":false,"rental_uris":{"android":"levelo://app?vid=875c3b51-709b-4cf8-8c4f-9465fa317359","ios":"levelo://app?vid=875c3b51-709b-4cf8-8c4f-9465fa317359"},"vehicle_type_id":"4","last_reported":1730853843,"current_range_meters":38000,"station_id":"ce4bhh92rcd13ifvqfi0","pricing_plan_id":"cebpf4jnsgd1na2vs0mg"},{"bike_id":"e31e4cf5-101c-478b-86ee-892913430e27","system_id":"levelo_inurba_marseille","lat":43.31169,"lon":5.38721,"is_reserved":false,"is_disabled":false,"rental_uris":{"android":"levelo://app?vid=e31e4cf5-101c-478b-86ee-892913430e27","ios":"levelo://app?vid=e31e4cf5-101c-478b-86ee-892913430e27"},"vehicle_type_id":"4","last_reported":1730853843,"current_range_meters":38800,"station_id":"ce4bgv12rcd13ifvqcp0","pricing_plan_id":"cebpf4jnsgd1na2vs0mg"},{"bike_id":"8ec3278a-eaa6-4e4c-bba8-c73729ed1e3c","system_id":"levelo_inurba_marseille","lat":43.30786,"lon":5.37653,"is_reserved":false,"is_disabled":false,"rental_uris":{"android":"levelo://app?vid=8ec3278a-eaa6-4e4c-bba8-c73729ed1e3c","ios":"levelo://app?vid=8ec3278a-eaa6-4e4c-bba8-c73729ed1e3c"},"vehicle_type_id":"4","last_reported":1730853843,"current_range_meters":31200,"station_id":"ce4bgv92rcd13ifvqcq0","pricing_plan_id":"cebpf4jnsgd1na2vs0mg"},{"bike_id":"0bab68bc-ea1d-4f77-bf80-f7f38376273b","system_id":"levelo_inurba_marseille","lat":43.28107,"lon":5.37844,"is_reserved":false,"is_disabled":false,"rental_uris":{"android":"levelo://app?vid=0bab68bc-ea1d-4f77-bf80-f7f38376273b","ios":"levelo://app?vid=0bab68bc-ea1d-4f77-bf80-f7f38376273b"},"vehicle_type_id":"4","last_reported":1730853843,"current_range_meters":18000,"station_id":"ce4bha12rcd13ifvqee0","pricing_plan_id":"cebpf4jnsgd1na2vs0mg"},{"bike_id":"267ac658-912d-47e4-88af-b8653f1b742a","system_id":"levelo_inurba_marseille","lat":43.3112,"lon":5.37782,"is_reserved":false,"is_disabled":false,"rental_uris":{"android":"levelo://app?vid=267ac658-912d-47e4-88af-b8653f1b742a","ios":"levelo://app?vid=267ac658-912d-47e4-88af-b8653f1b742a"},"vehicle_type_id":"4","last_reported":1730853843,"current_range_meters":35600,"station_id":"ce4bgt92rcd13ifvqcg0","pricing_plan_id":"cebpf4jnsgd1na2vs0mg"},{"bike_id":"45fcbe75-58dc-4100-989c-ce412968b684","system_id":"levelo_inurba_marseille","lat":43.29967,"lon":5.38493,"is_reserved":false,"is_disabled":false,"rental_uris":{"android":"levelo://app?vid=45fcbe75-58dc-4100-989c-ce412968b684","ios":"levelo://app?vid=45fcbe75-58dc-4100-989c-ce412968b684"},"vehicle_type_id":"4","last_reported":1730853843,"current_range_meters":26000,"station_id":"ce4bgj92rcd13ifvqbd0","pricing_plan_id":"cebpf4jnsgd1na2vs0mg"},{"bike_id":"35d46972-faca-4525-a2d2-3f928f24f16c","system_id":"levelo_inurba_marseille","lat":43.24172,"lon":5.36406,"is_reserved":false,"is_disabled":false,"rental_uris":{"android":"levelo://app?vid=35d46972-faca-4525-a2d2-3f928f24f16c","ios":"levelo://app?vid=35d46972-faca-4525-a2d2-3f928f24f16c"},"vehicle_type_id":"4","last_reported":1730853843,"current_range_meters":35600,"station_id":"cpo36qri1sfpv3e86is0","pricing_plan_id":"cebpf4jnsgd1na2vs0mg"},{"bike_id":"1a181bef-f173-4081-a1d9-a8b185cd7779","system_id":"levelo_inurba_marseille","lat":43.28932,"lon":5.38389,"is_reserved":false,"is_disabled":false,"rental_uris":{"android":"levelo://app?vid=1a181bef-f173-4081-a1d9-a8b185cd7779","ios":"levelo://app?vid=1a181bef-f173-4081-a1d9-a8b185cd7779"},"vehicle_type_id":"4","last_reported":1730853843,"current_range_meters":36800,"station_id":"ce4bh612rcd13ifvqe6g","pricing_plan_id":"cebpf4jnsgd1na2vs0mg"},{"bike_id":"eb089fb3-dadc-4447-8591-ed467d8a78fc","system_id":"levelo_inurba_marseille","lat":43.2885,"lon":5.35836,"is_reserved":false,"is_disabled":false,"rental_uris":{"android":"levelo://app?vid=eb089fb3-dadc-4447-8591-ed467d8a78fc","ios":"levelo://app?vid=eb089fb3-dadc-4447-8591-ed467d8a78fc"},"vehicle_type_id":"4","last_reported":1730853843,"current_range_meters":38800,"station_id":"ce4bhb12rcd13ifvqem0","pricing_plan_id":"cebpf4jnsgd1na2vs0mg"},{"bike_id":"692f31da-ed64-4e18-b7cc-350f01a2fb79","system_id":"levelo_inurba_marseille","lat":43.29893,"lon":5.43669,"is_reserved":false,"is_disabled":false,"rental_uris":{"android":"levelo://app?vid=692f31da-ed64-4e18-b7cc-350f01a2fb79","ios":"levelo://app?vid=692f31da-ed64-4e18-b7cc-350f01a2fb79"},"vehicle_type_id":"4","last_reported":1730853843,"current_range_meters":22800,"station_id":"ce4bhpp2rcd13ifvqhfg","pricing_plan_id":"cebpf4jnsgd1na2vs0mg"},{"bike_id":"1b358c2a-4546-44d6-8702-db48f79b8243","system_id":"levelo_inurba_marseille","lat":43.30262,"lon":5.40067,"is_reserved":false,"is_disabled":false,"rental_uris":{"android":"levelo://app?vid=1b358c2a-4546-44d6-8702-db48f79b8243","ios":"levelo://app?vid=1b358c2a-4546-44d6-8702-db48f79b8243"},"vehicle_type_id":"4","last_reported":1730853843,"current_range_meters":26800,"station_id":"ce4bgvh2rcd13ifvqcs0","pricing_plan_id":"cebpf4jnsgd1na2vs0mg"},{"bike_id":"1524b6a5-be73-4a83-8e58-56d66d018bea","system_id":"levelo_inurba_marseille","lat":43.3065,"lon":5.40084,"is_reserved":false,"is_disabled":false,"rental_uris":{"android":"levelo://app?vid=1524b6a5-be73-4a83-8e58-56d66d018bea","ios":"levelo://app?vid=1524b6a5-be73-4a83-8e58-56d66d018bea"},"vehicle_type_id":"4","last_reported":1730853843,"current_range_meters":32000,"station_id":"ce4bh112rcd13ifvqda0","pricing_plan_id":"cebpf4jnsgd1na2vs0mg"},{"bike_id":"548dc0a3-2ea2-468f-b4b6-a23822b28cfa","system_id":"levelo_inurba_marseille","lat":43.28414,"lon":5.37512,"is_reserved":false,"is_disabled":false,"rental_uris":{"android":"levelo://app?vid=548dc0a3-2ea2-468f-b4b6-a23822b28cfa","ios":"levelo://app?vid=548dc0a3-2ea2-468f-b4b6-a23822b28cfa"},"vehicle_type_id":"4","last_reported":1730853843,"current_range_meters":35200,"station_id":"ce4bh412rcd13ifvqds0","pricing_plan_id":"cebpf4jnsgd1na2vs0mg"},{"bike_id":"3f225623-09d8-4079-a7dc-3cd669dea6fd","system_id":"levelo_inurba_marseille","lat":43.25867,"lon":5.39898,"is_reserved":false,"is_disabled":false,"rental_uris":{"android":"levelo://app?vid=3f225623-09d8-4079-a7dc-3cd669dea6fd","ios":"levelo://app?vid=3f225623-09d8-4079-a7dc-3cd669dea6fd"},"vehicle_type_id":"4","last_reported":1730853843,"current_range_meters":12000,"station_id":"ce4bhl92rcd13ifvqghg","pricing_plan_id":"cebpf4jnsgd1na2vs0mg"},{"bike_id":"334cdee4-4240-4749-9832-70926dccc31a","system_id":"levelo_inurba_marseille","lat":43.2997,"lon":5.38496,"is_reserved":false,"is_disabled":false,"rental_uris":{"android":"levelo://app?vid=334cdee4-4240-4749-9832-70926dccc31a","ios":"levelo://app?vid=334cdee4-4240-4749-9832-70926dccc31a"},"vehicle_type_id":"4","last_reported":1730853843,"current_range_meters":8800,"station_id":"ce4bgj92rcd13ifvqbd0","pricing_plan_id":"cebpf4jnsgd1na2vs0mg"},{"bike_id":"f2a83c3a-a30c-4c82-9eab-8725ad46fd6f","system_id":"levelo_inurba_marseille","lat":43.306395,"lon":5.400858,"is_reserved":false,"is_disabled":false,"rental_uris":{"android":"levelo://app?vid=f2a83c3a-a30c-4c82-9eab-8725ad46fd6f","ios":"levelo://app?vid=f2a83c3a-a30c-4c82-9eab-8725ad46fd6f"},"vehicle_type_id":"4","last_reported":1730853843,"current_range_meters":8000,"station_id":"ce4bh112rcd13ifvqda0","pricing_plan_id":"cebpf4jnsgd1na2vs0mg"},{"bike_id":"47f2bf5d-90fc-4e21-a7fe-b24994bac761","system_id":"levelo_inurba_marseille","lat":43.27921,"lon":5.3958,"is_reserved":false,"is_disabled":false,"rental_uris":{"android":"levelo://app?vid=47f2bf5d-90fc-4e21-a7fe-b24994bac761","ios":"levelo://app?vid=47f2bf5d-90fc-4e21-a7fe-b24994bac761"},"vehicle_type_id":"4","last_reported":1730853843,"current_range_meters":38800,"station_id":"ce4bhf92rcd13ifvqf40","pricing_plan_id":"cebpf4jnsgd1na2vs0mg"},{"bike_id":"7295c7a4-7b40-415f-9492-c2724dc6fc82","system_id":"levelo_inurba_marseille","lat":43.3133,"lon":5.39692,"is_reserved":false,"is_disabled":false,"rental_uris":{"android":"levelo://app?vid=7295c7a4-7b40-415f-9492-c2724dc6fc82","ios":"levelo://app?vid=7295c7a4-7b40-415f-9492-c2724dc6fc82"},"vehicle_type_id":"4","last_reported":1730853843,"current_range_meters":33600,"station_id":"ce4bgvp2rcd13ifvqcu0","pricing_plan_id":"cebpf4jnsgd1na2vs0mg"},{"bike_id":"a8c599ed-7385-4f3f-a2cc-007076b4bbf1","system_id":"levelo_inurba_marseille","lat":43.28103,"lon":5.3784,"is_reserved":false,"is_disabled":false,"rental_uris":{"android":"levelo://app?vid=a8c599ed-7385-4f3f-a2cc-007076b4bbf1","ios":"levelo://app?vid=a8c599ed-7385-4f3f-a2cc-007076b4bbf1"},"vehicle_type_id":"4","last_reported":1730853843,"current_range_meters":38800,"station_id":"ce4bha12rcd13ifvqee0","pricing_plan_id":"cebpf4jnsgd1na2vs0mg"},{"bike_id":"b23c5d38-917e-48ad-840f-04c136c7cc6d","system_id":"levelo_inurba_marseille","lat":43.28572,"lon":5.39489,"is_reserved":false,"is_disabled":false,"rental_uris":{"android":"levelo://app?vid=b23c5d38-917e-48ad-840f-04c136c7cc6d","ios":"levelo://app?vid=b23c5d38-917e-48ad-840f-04c136c7cc6d"},"vehicle_type_id":"4","last_reported":1730853843,"current_range_meters":38800,"station_id":"ce4bh292rcd13ifvqdg0","pricing_plan_id":"cebpf4jnsgd1na2vs0mg"},{"bike_id":"0742f2b7-e756-4214-8333-301cd46dc0f5","system_id":"levelo_inurba_marseille","lat":43.290474,"lon":5.359067,"is_reserved":false,"is_disabled":false,"rental_uris":{"android":"levelo://app?vid=0742f2b7-e756-4214-8333-301cd46dc0f5","ios":"levelo://app?vid=0742f2b7-e756-4214-8333-301cd46dc0f5"},"vehicle_type_id":"4","last_reported":1730853843,"current_range_meters":38000,"station_id":"ce4bha92rcd13ifvqeg0","pricing_plan_id":"cebpf4jnsgd1na2vs0mg"},{"bike_id":"9a715620-71c2-4f60-b6bf-b10aaa620630","system_id":"levelo_inurba_marseille","lat":43.2695,"lon":5.38636,"is_reserved":false,"is_disabled":false,"rental_uris":{"android":"levelo://app?vid=9a715620-71c2-4f60-b6bf-b10aaa620630","ios":"levelo://app?vid=9a715620-71c2-4f60-b6bf-b10aaa620630"},"vehicle_type_id":"4","last_reported":1730853843,"current_range_meters":21600,"station_id":"ce4bhh92rcd13ifvqfh0","pricing_plan_id":"cebpf4jnsgd1na2vs0mg"},{"bike_id":"0b7cad0a-1409-4296-ac40-3fdf34c1f8a6","system_id":"levelo_inurba_marseille","lat":43.275,"lon":5.42448,"is_reserved":false,"is_disabled":false,"rental_uris":{"android":"levelo://app?vid=0b7cad0a-1409-4296-ac40-3fdf34c1f8a6","ios":"levelo://app?vid=0b7cad0a-1409-4296-ac40-3fdf34c1f8a6"},"vehicle_type_id":"4","last_reported":1730853843,"current_range_meters":16000,"station_id":"ce4bhn92rcd13ifvqgrg","pricing_plan_id":"cebpf4jnsgd1na2vs0mg"},{"bike_id":"b7714781-d668-438d-8d4e-7166167a7e37","system_id":"levelo_inurba_marseille","lat":43.2319,"lon":5.39977,"is_reserved":false,"is_disabled":false,"rental_uris":{"android":"levelo://app?vid=b7714781-d668-438d-8d4e-7166167a7e37","ios":"levelo://app?vid=b7714781-d668-438d-8d4e-7166167a7e37"},"vehicle_type_id":"4","last_reported":1730853843,"current_range_meters":24400,"station_id":"ce4bhn12rcd13ifvqgqg","pricing_plan_id":"cebpf4jnsgd1na2vs0mg"},{"bike_id":"397ea7d5-10ff-4d3b-8b15-b6869235f192","system_id":"levelo_inurba_marseille","lat":43.28419,"lon":5.34976,"is_reserved":false,"is_disabled":false,"rental_uris":{"android":"levelo://app?vid=397ea7d5-10ff-4d3b-8b15-b6869235f192","ios":"levelo://app?vid=397ea7d5-10ff-4d3b-8b15-b6869235f192"},"vehicle_type_id":"4","last_reported":1730853843,"current_range_meters":19200,"station_id":"ce4bhbh2rcd13ifvqepg","pricing_plan_id":"cebpf4jnsgd1na2vs0mg"},{"bike_id":"504a2677-e7f9-490d-8752-2a9c4e557185","system_id":"levelo_inurba_marseille","lat":43.27185,"lon":5.40995,"is_reserved":false,"is_disabled":false,"rental_uris":{"android":"levelo://app?vid=504a2677-e7f9-490d-8752-2a9c4e557185","ios":"levelo://app?vid=504a2677-e7f9-490d-8752-2a9c4e557185"},"vehicle_type_id":"4","last_reported":1730853843,"current_range_meters":32800,"station_id":"ce4bhl12rcd13ifvqgf0","pricing_plan_id":"cebpf4jnsgd1na2vs0mg"},{"bike_id":"891b36d6-8506-48b6-a270-3cc3d7fc25ef","system_id":"levelo_inurba_marseille","lat":43.31176,"lon":5.38716,"is_reserved":false,"is_disabled":false,"rental_uris":{"android":"levelo://app?vid=891b36d6-8506-48b6-a270-3cc3d7fc25ef","ios":"levelo://app?vid=891b36d6-8506-48b6-a270-3cc3d7fc25ef"},"vehicle_type_id":"4","last_reported":1730853843,"current_range_meters":28800,"station_id":"ce4bgv12rcd13ifvqcp0","pricing_plan_id":"cebpf4jnsgd1na2vs0mg"},{"bike_id":"eb465cb4-072d-40cf-adb6-2029199374bd","system_id":"levelo_inurba_marseille","lat":43.26568,"lon":5.39003,"is_reserved":false,"is_disabled":false,"rental_uris":{"android":"levelo://app?vid=eb465cb4-072d-40cf-adb6-2029199374bd","ios":"levelo://app?vid=eb465cb4-072d-40cf-adb6-2029199374bd"},"vehicle_type_id":"4","last_reported":1730853843,"current_range_meters":24000,"station_id":"ce4bhe12rcd13ifvqf30","pricing_plan_id":"cebpf4jnsgd1na2vs0mg"},{"bike_id":"98b46397-a779-4a67-8e01-b5209b4c19b8","system_id":"levelo_inurba_marseille","lat":43.294289,"lon":5.374741,"is_reserved":false,"is_disabled":false,"rental_uris":{"android":"levelo://app?vid=98b46397-a779-4a67-8e01-b5209b4c19b8","ios":"levelo://app?vid=98b46397-a779-4a67-8e01-b5209b4c19b8"},"vehicle_type_id":"4","last_reported":1730853843,"current_range_meters":34000,"station_id":"ce4bhc92rcd13ifvqetg","pricing_plan_id":"cebpf4jnsgd1na2vs0mg"},{"bike_id":"30eb9235-2b25-441f-aa71-5f4c675a078c","system_id":"levelo_inurba_marseille","lat":43.24651,"lon":5.38888,"is_reserved":false,"is_disabled":false,"rental_uris":{"android":"levelo://app?vid=30eb9235-2b25-441f-aa71-5f4c675a078c","ios":"levelo://app?vid=30eb9235-2b25-441f-aa71-5f4c675a078c"},"vehicle_type_id":"4","last_reported":1730853843,"current_range_meters":38800,"station_id":"ce4bhg12rcd13ifvqf60","pricing_plan_id":"cebpf4jnsgd1na2vs0mg"},{"bike_id":"ebffee7c-cae5-47c5-9bdb-6d314ad8c91e","system_id":"levelo_inurba_marseille","lat":43.33026,"lon":5.39043,"is_reserved":false,"is_disabled":false,"rental_uris":{"android":"levelo://app?vid=ebffee7c-cae5-47c5-9bdb-6d314ad8c91e","ios":"levelo://app?vid=ebffee7c-cae5-47c5-9bdb-6d314ad8c91e"},"vehicle_type_id":"4","last_reported":1730853843,"current_range_meters":38000,"station_id":"ce4bhr92rcd13ifvqhrg","pricing_plan_id":"cebpf4jnsgd1na2vs0mg"},{"bike_id":"3a1c507a-5c4e-4112-b2b7-bcbbcdbf39af","system_id":"levelo_inurba_marseille","lat":43.271712,"lon":5.409878,"is_reserved":false,"is_disabled":false,"rental_uris":{"android":"levelo://app?vid=3a1c507a-5c4e-4112-b2b7-bcbbcdbf39af","ios":"levelo://app?vid=3a1c507a-5c4e-4112-b2b7-bcbbcdbf39af"},"vehicle_type_id":"4","last_reported":1730853843,"current_range_meters":36400,"station_id":"ce4bhl12rcd13ifvqgf0","pricing_plan_id":"cebpf4jnsgd1na2vs0mg"},{"bike_id":"117bd3e1-591f-47f8-a96d-f4e0707103e1","system_id":"levelo_inurba_marseille","lat":43.23961,"lon":5.36632,"is_reserved":false,"is_disabled":false,"rental_uris":{"android":"levelo://app?vid=117bd3e1-591f-47f8-a96d-f4e0707103e1","ios":"levelo://app?vid=117bd3e1-591f-47f8-a96d-f4e0707103e1"},"vehicle_type_id":"4","last_reported":1730853843,"current_range_meters":11200,"station_id":"ce4bhi12rcd13ifvqfp0","pricing_plan_id":"cebpf4jnsgd1na2vs0mg"},{"bike_id":"42163e3e-5009-401f-a1ce-f09eb7e2a510","system_id":"levelo_inurba_marseille","lat":43.31328,"lon":5.39693,"is_reserved":false,"is_disabled":false,"rental_uris":{"android":"levelo://app?vid=42163e3e-5009-401f-a1ce-f09eb7e2a510","ios":"levelo://app?vid=42163e3e-5009-401f-a1ce-f09eb7e2a510"},"vehicle_type_id":"4","last_reported":1730853843,"current_range_meters":38800,"station_id":"ce4bgvp2rcd13ifvqcu0","pricing_plan_id":"cebpf4jnsgd1na2vs0mg"},{"bike_id":"42f1053f-43d7-49b0-a29f-f7d1ff81c5d2","system_id":"levelo_inurba_marseille","lat":43.24809,"lon":5.37455,"is_reserved":false,"is_disabled":false,"rental_uris":{"android":"levelo://app?vid=42f1053f-43d7-49b0-a29f-f7d1ff81c5d2","ios":"levelo://app?vid=42f1053f-43d7-49b0-a29f-f7d1ff81c5d2"},"vehicle_type_id":"4","last_reported":1730853843,"current_range_meters":37600,"station_id":"ce4bhgh2rcd13ifvqfb0","pricing_plan_id":"cebpf4jnsgd1na2vs0mg"},{"bike_id":"679768bc-ebe5-47e4-8e67-960726d0f63f","system_id":"levelo_inurba_marseille","lat":43.30887,"lon":5.39639,"is_reserved":false,"is_disabled":false,"rental_uris":{"android":"levelo://app?vid=679768bc-ebe5-47e4-8e67-960726d0f63f","ios":"levelo://app?vid=679768bc-ebe5-47e4-8e67-960726d0f63f"},"vehicle_type_id":"4","last_reported":1730853843,"current_range_meters":38800,"station_id":"ce4bh012rcd13ifvqcv0","pricing_plan_id":"cebpf4jnsgd1na2vs0mg"},{"bike_id":"975c9234-f477-4849-a4e3-e3d7d0b25fab","system_id":"levelo_inurba_marseille","lat":43.31326,"lon":5.39686,"is_reserved":false,"is_disabled":false,"rental_uris":{"android":"levelo://app?vid=975c9234-f477-4849-a4e3-e3d7d0b25fab","ios":"levelo://app?vid=975c9234-f477-4849-a4e3-e3d7d0b25fab"},"vehicle_type_id":"4","last_reported":1730853843,"current_range_meters":32000,"station_id":"ce4bgvp2rcd13ifvqcu0","pricing_plan_id":"cebpf4jnsgd1na2vs0mg"},{"bike_id":"259516d4-3728-4458-a1f0-136a5bf8b4af","system_id":"levelo_inurba_marseille","lat":43.29253,"lon":5.40904,"is_reserved":false,"is_disabled":false,"rental_uris":{"android":"levelo://app?vid=259516d4-3728-4458-a1f0-136a5bf8b4af","ios":"levelo://app?vid=259516d4-3728-4458-a1f0-136a5bf8b4af"},"vehicle_type_id":"4","last_reported":1730853843,"current_range_meters":38800,"station_id":"ce4bh192rcd13ifvqdc0","pricing_plan_id":"cebpf4jnsgd1na2vs0mg"},{"bike_id":"551fe42e-4e0d-4309-a881-c4afa4e62c55","system_id":"levelo_inurba_marseille","lat":43.27918,"lon":5.39574,"is_reserved":false,"is_disabled":false,"rental_uris":{"android":"levelo://app?vid=551fe42e-4e0d-4309-a881-c4afa4e62c55","ios":"levelo://app?vid=551fe42e-4e0d-4309-a881-c4afa4e62c55"},"vehicle_type_id":"4","last_reported":1730853843,"current_range_meters":38800,"station_id":"ce4bhf92rcd13ifvqf40","pricing_plan_id":"cebpf4jnsgd1na2vs0mg"},{"bike_id":"ca47ef99-3712-4100-b1ee-d99fcf83ba59","system_id":"levelo_inurba_marseille","lat":43.27894,"lon":5.38009,"is_reserved":false,"is_disabled":false,"rental_uris":{"android":"levelo://app?vid=ca47ef99-3712-4100-b1ee-d99fcf83ba59","ios":"levelo://app?vid=ca47ef99-3712-4100-b1ee-d99fcf83ba59"},"vehicle_type_id":"4","last_reported":1730853843,"current_range_meters":37600,"station_id":"ce4bhf92rcd13ifvqf50","pricing_plan_id":"cebpf4jnsgd1na2vs0mg"},{"bike_id":"2be58595-1ee4-4e97-90d2-c6d933b5e1c7","system_id":"levelo_inurba_marseille","lat":43.29897,"lon":5.43672,"is_reserved":false,"is_disabled":false,"rental_uris":{"android":"levelo://app?vid=2be58595-1ee4-4e97-90d2-c6d933b5e1c7","ios":"levelo://app?vid=2be58595-1ee4-4e97-90d2-c6d933b5e1c7"},"vehicle_type_id":"4","last_reported":1730853843,"current_range_meters":24000,"station_id":"ce4bhpp2rcd13ifvqhfg","pricing_plan_id":"cebpf4jnsgd1na2vs0mg"},{"bike_id":"0ab2d0fb-4558-435e-8a7a-e5e54e69a749","system_id":"levelo_inurba_marseille","lat":43.30417,"lon":5.41289,"is_reserved":false,"is_disabled":false,"rental_uris":{"android":"levelo://app?vid=0ab2d0fb-4558-435e-8a7a-e5e54e69a749","ios":"levelo://app?vid=0ab2d0fb-4558-435e-8a7a-e5e54e69a749"},"vehicle_type_id":"4","last_reported":1730853843,"current_range_meters":32000,"station_id":"ce4bhop2rcd13ifvqh8g","pricing_plan_id":"cebpf4jnsgd1na2vs0mg"},{"bike_id":"5c379277-7caa-4514-b2aa-30b0366c0807","system_id":"levelo_inurba_marseille","lat":43.29986,"lon":5.37185,"is_reserved":false,"is_disabled":false,"rental_uris":{"android":"levelo://app?vid=5c379277-7caa-4514-b2aa-30b0366c0807","ios":"levelo://app?vid=5c379277-7caa-4514-b2aa-30b0366c0807"},"vehicle_type_id":"4","last_reported":1730853843,"current_range_meters":38800,"station_id":"ce4bgr92rcd13ifvqc7g","pricing_plan_id":"cebpf4jnsgd1na2vs0mg"},{"bike_id":"89631293-2912-4d2a-88ed-498806a0718e","system_id":"levelo_inurba_marseille","lat":43.29197,"lon":5.39327,"is_reserved":false,"is_disabled":false,"rental_uris":{"android":"levelo://app?vid=89631293-2912-4d2a-88ed-498806a0718e","ios":"levelo://app?vid=89631293-2912-4d2a-88ed-498806a0718e"},"vehicle_type_id":"4","last_reported":1730853843,"current_range_meters":38800,"station_id":"ce4bh192rcd13ifvqdd0","pricing_plan_id":"cebpf4jnsgd1na2vs0mg"},{"bike_id":"f5dd8b8e-f4ba-4b50-bf9f-31af57becbb7","system_id":"levelo_inurba_marseille","lat":43.25109,"lon":5.40329,"is_reserved":false,"is_disabled":false,"rental_uris":{"android":"levelo://app?vid=f5dd8b8e-f4ba-4b50-bf9f-31af57becbb7","ios":"levelo://app?vid=f5dd8b8e-f4ba-4b50-bf9f-31af57becbb7"},"vehicle_type_id":"4","last_reported":1730853843,"current_range_meters":38800,"station_id":"ce4bhlh2rcd13ifvqgig","pricing_plan_id":"cebpf4jnsgd1na2vs0mg"},{"bike_id":"8feeb9a7-b61b-4c8d-960d-c3e7350c5d93","system_id":"levelo_inurba_marseille","lat":43.26933,"lon":5.38928,"is_reserved":false,"is_disabled":false,"rental_uris":{"android":"levelo://app?vid=8feeb9a7-b61b-4c8d-960d-c3e7350c5d93","ios":"levelo://app?vid=8feeb9a7-b61b-4c8d-960d-c3e7350c5d93"},"vehicle_type_id":"4","last_reported":1730853843,"current_range_meters":38000,"station_id":"ce4bhhh2rcd13ifvqfl0","pricing_plan_id":"cebpf4jnsgd1na2vs0mg"},{"bike_id":"ad904825-b55c-4511-97a1-1553bf400123","system_id":"levelo_inurba_marseille","lat":43.28707,"lon":5.37385,"is_reserved":false,"is_disabled":false,"rental_uris":{"android":"levelo://app?vid=ad904825-b55c-4511-97a1-1553bf400123","ios":"levelo://app?vid=ad904825-b55c-4511-97a1-1553bf400123"},"vehicle_type_id":"4","last_reported":1730853843,"current_range_meters":28400,"station_id":"ce4bh3p2rcd13ifvqdq0","pricing_plan_id":"cebpf4jnsgd1na2vs0mg"},{"bike_id":"7da45cf2-3e2c-4417-ae03-52387d64cc6d","system_id":"levelo_inurba_marseille","lat":43.30323,"lon":5.40441,"is_reserved":false,"is_disabled":false,"rental_uris":{"android":"levelo://app?vid=7da45cf2-3e2c-4417-ae03-52387d64cc6d","ios":"levelo://app?vid=7da45cf2-3e2c-4417-ae03-52387d64cc6d"},"vehicle_type_id":"4","last_reported":1730853843,"current_range_meters":16000,"station_id":"ce4bh012rcd13ifvqd10","pricing_plan_id":"cebpf4jnsgd1na2vs0mg"},{"bike_id":"5fd19f13-30de-4365-95b4-c064d19a7f38","system_id":"levelo_inurba_marseille","lat":43.28728,"lon":5.36091,"is_reserved":false,"is_disabled":false,"rental_uris":{"android":"levelo://app?vid=5fd19f13-30de-4365-95b4-c064d19a7f38","ios":"levelo://app?vid=5fd19f13-30de-4365-95b4-c064d19a7f38"},"vehicle_type_id":"4","last_reported":1730853843,"current_range_meters":38800,"station_id":"cki0cbj6b192h4jlfktg","pricing_plan_id":"cebpf4jnsgd1na2vs0mg"},{"bike_id":"16ffedeb-5f1c-4bc6-9b89-cbfccb7afa8e","system_id":"levelo_inurba_marseille","lat":43.27176,"lon":5.40989,"is_reserved":false,"is_disabled":false,"rental_uris":{"android":"levelo://app?vid=16ffedeb-5f1c-4bc6-9b89-cbfccb7afa8e","ios":"levelo://app?vid=16ffedeb-5f1c-4bc6-9b89-cbfccb7afa8e"},"vehicle_type_id":"4","last_reported":1730853843,"current_range_meters":38800,"station_id":"ce4bhl12rcd13ifvqgf0","pricing_plan_id":"cebpf4jnsgd1na2vs0mg"},{"bike_id":"0559e4fb-62dd-4064-ac6a-64d8cd25748a","system_id":"levelo_inurba_marseille","lat":43.25122,"lon":5.40316,"is_reserved":false,"is_disabled":false,"rental_uris":{"android":"levelo://app?vid=0559e4fb-62dd-4064-ac6a-64d8cd25748a","ios":"levelo://app?vid=0559e4fb-62dd-4064-ac6a-64d8cd25748a"},"vehicle_type_id":"4","last_reported":1730853843,"current_range_meters":34800,"station_id":"ce4bhlh2rcd13ifvqgig","pricing_plan_id":"cebpf4jnsgd1na2vs0mg"},{"bike_id":"07b32d1e-1dd4-4029-b11e-bddc1e81d2f6","system_id":"levelo_inurba_marseille","lat":43.30429,"lon":5.3888,"is_reserved":false,"is_disabled":false,"rental_uris":{"android":"levelo://app?vid=07b32d1e-1dd4-4029-b11e-bddc1e81d2f6","ios":"levelo://app?vid=07b32d1e-1dd4-4029-b11e-bddc1e81d2f6"},"vehicle_type_id":"4","last_reported":1730853843,"current_range_meters":38000,"station_id":"ce4bgk12rcd13ifvqbi0","pricing_plan_id":"cebpf4jnsgd1na2vs0mg"},{"bike_id":"7d1cc712-4f0a-4d7c-a84c-f84148ad4c46","system_id":"levelo_inurba_marseille","lat":43.23154,"lon":5.43707,"is_reserved":false,"is_disabled":false,"rental_uris":{"android":"levelo://app?vid=7d1cc712-4f0a-4d7c-a84c-f84148ad4c46","ios":"levelo://app?vid=7d1cc712-4f0a-4d7c-a84c-f84148ad4c46"},"vehicle_type_id":"4","last_reported":1730853843,"current_range_meters":7200,"station_id":"ce4bhmp2rcd13ifvqgog","pricing_plan_id":"cebpf4jnsgd1na2vs0mg"},{"bike_id":"1bed534d-51f0-4523-a28c-e6cb1290aa3d","system_id":"levelo_inurba_marseille","lat":43.30798,"lon":5.3816,"is_reserved":false,"is_disabled":false,"rental_uris":{"android":"levelo://app?vid=1bed534d-51f0-4523-a28c-e6cb1290aa3d","ios":"levelo://app?vid=1bed534d-51f0-4523-a28c-e6cb1290aa3d"},"vehicle_type_id":"4","last_reported":1730853843,"current_range_meters":38800,"station_id":"ce4bgt12rcd13ifvqce0","pricing_plan_id":"cebpf4jnsgd1na2vs0mg"},{"bike_id":"6ddc2d30-7330-430f-9278-6b9971047cca","system_id":"levelo_inurba_marseille","lat":43.30885,"lon":5.3964,"is_reserved":false,"is_disabled":false,"rental_uris":{"android":"levelo://app?vid=6ddc2d30-7330-430f-9278-6b9971047cca","ios":"levelo://app?vid=6ddc2d30-7330-430f-9278-6b9971047cca"},"vehicle_type_id":"4","last_reported":1730853843,"current_range_meters":22800,"station_id":"ce4bh012rcd13ifvqcv0","pricing_plan_id":"cebpf4jnsgd1na2vs0mg"},{"bike_id":"39c63b6b-43ba-4904-a5e0-341d3eb14130","system_id":"levelo_inurba_marseille","lat":43.26805,"lon":5.40272,"is_reserved":false,"is_disabled":false,"rental_uris":{"android":"levelo://app?vid=39c63b6b-43ba-4904-a5e0-341d3eb14130","ios":"levelo://app?vid=39c63b6b-43ba-4904-a5e0-341d3eb14130"},"vehicle_type_id":"4","last_reported":1730853843,"current_range_meters":30000,"station_id":"ce501612rcd8frsf0b60","pricing_plan_id":"cebpf4jnsgd1na2vs0mg"},{"bike_id":"87a2baf5-bfda-4f9c-9b76-3171f34d73d4","system_id":"levelo_inurba_marseille","lat":43.25093,"lon":5.3951,"is_reserved":false,"is_disabled":false,"rental_uris":{"android":"levelo://app?vid=87a2baf5-bfda-4f9c-9b76-3171f34d73d4","ios":"levelo://app?vid=87a2baf5-bfda-4f9c-9b76-3171f34d73d4"},"vehicle_type_id":"4","last_reported":1730853843,"current_range_meters":38400,"station_id":"ce4bhm12rcd13ifvqgkg","pricing_plan_id":"cebpf4jnsgd1na2vs0mg"},{"bike_id":"5e42b28c-ad1d-4e66-a171-9dd61fc8cdac","system_id":"levelo_inurba_marseille","lat":43.31894,"lon":5.40733,"is_reserved":false,"is_disabled":false,"rental_uris":{"android":"levelo://app?vid=5e42b28c-ad1d-4e66-a171-9dd61fc8cdac","ios":"levelo://app?vid=5e42b28c-ad1d-4e66-a171-9dd61fc8cdac"},"vehicle_type_id":"4","last_reported":1730853843,"current_range_meters":38800,"station_id":"ce4bhq12rcd13ifvqhig","pricing_plan_id":"cebpf4jnsgd1na2vs0mg"},{"bike_id":"b389ee16-6b09-4e68-9a18-616d27308de2","system_id":"levelo_inurba_marseille","lat":43.2467,"lon":5.38164,"is_reserved":false,"is_disabled":false,"rental_uris":{"android":"levelo://app?vid=b389ee16-6b09-4e68-9a18-616d27308de2","ios":"levelo://app?vid=b389ee16-6b09-4e68-9a18-616d27308de2"},"vehicle_type_id":"4","last_reported":1730853843,"current_range_meters":38800,"station_id":"ce4bhih2rcd13ifvqfr0","pricing_plan_id":"cebpf4jnsgd1na2vs0mg"},{"bike_id":"5cb640fa-2eb7-44cf-8de4-a3b43f3ed145","system_id":"levelo_inurba_marseille","lat":43.30776,"lon":5.37654,"is_reserved":false,"is_disabled":false,"rental_uris":{"android":"levelo://app?vid=5cb640fa-2eb7-44cf-8de4-a3b43f3ed145","ios":"levelo://app?vid=5cb640fa-2eb7-44cf-8de4-a3b43f3ed145"},"vehicle_type_id":"4","last_reported":1730853843,"current_range_meters":36000,"station_id":"ce4bgv92rcd13ifvqcq0","pricing_plan_id":"cebpf4jnsgd1na2vs0mg"},{"bike_id":"c18e3377-4dcd-4010-86ae-a2cf9f144b20","system_id":"levelo_inurba_marseille","lat":43.26561,"lon":5.37282,"is_reserved":false,"is_disabled":false,"rental_uris":{"android":"levelo://app?vid=c18e3377-4dcd-4010-86ae-a2cf9f144b20","ios":"levelo://app?vid=c18e3377-4dcd-4010-86ae-a2cf9f144b20"},"vehicle_type_id":"4","last_reported":1730853843,"current_range_meters":36400,"station_id":"ce4bhg12rcd13ifvqf70","pricing_plan_id":"cebpf4jnsgd1na2vs0mg"},{"bike_id":"6edcb5d2-dbf0-49f4-9f8b-5d93ccae943e","system_id":"levelo_inurba_marseille","lat":43.27904,"lon":5.38017,"is_reserved":false,"is_disabled":false,"rental_uris":{"android":"levelo://app?vid=6edcb5d2-dbf0-49f4-9f8b-5d93ccae943e","ios":"levelo://app?vid=6edcb5d2-dbf0-49f4-9f8b-5d93ccae943e"},"vehicle_type_id":"4","last_reported":1730853843,"current_range_meters":26800,"station_id":"ce4bhf92rcd13ifvqf50","pricing_plan_id":"cebpf4jnsgd1na2vs0mg"},{"bike_id":"f134a36c-da7a-4ca9-aa39-cfe49d7fbeef","system_id":"levelo_inurba_marseille","lat":43.265852,"lon":5.390122,"is_reserved":false,"is_disabled":false,"rental_uris":{"android":"levelo://app?vid=f134a36c-da7a-4ca9-aa39-cfe49d7fbeef","ios":"levelo://app?vid=f134a36c-da7a-4ca9-aa39-cfe49d7fbeef"},"vehicle_type_id":"4","last_reported":1730853843,"current_range_meters":34000,"station_id":"ce4bhe12rcd13ifvqf30","pricing_plan_id":"cebpf4jnsgd1na2vs0mg"},{"bike_id":"340ee037-c5f9-4ff6-a16b-0e0f3098fa79","system_id":"levelo_inurba_marseille","lat":43.31463,"lon":5.37371,"is_reserved":false,"is_disabled":false,"rental_uris":{"android":"levelo://app?vid=340ee037-c5f9-4ff6-a16b-0e0f3098fa79","ios":"levelo://app?vid=340ee037-c5f9-4ff6-a16b-0e0f3098fa79"},"vehicle_type_id":"4","last_reported":1730853843,"current_range_meters":27200,"station_id":"","pricing_plan_id":"cebpf4jnsgd1na2vs0mg"},{"bike_id":"18785e56-b0c8-4e0f-97a9-c53fa7e7f7bc","system_id":"levelo_inurba_marseille","lat":43.30804,"lon":5.43528,"is_reserved":false,"is_disabled":false,"rental_uris":{"android":"levelo://app?vid=18785e56-b0c8-4e0f-97a9-c53fa7e7f7bc","ios":"levelo://app?vid=18785e56-b0c8-4e0f-97a9-c53fa7e7f7bc"},"vehicle_type_id":"4","last_reported":1730853843,"current_range_meters":8000,"station_id":"ce4bhph2rcd13ifvqheg","pricing_plan_id":"cebpf4jnsgd1na2vs0mg"},{"bike_id":"b932f170-e0a2-49bf-bde0-0ef62129d428","system_id":"levelo_inurba_marseille","lat":43.26943,"lon":5.40248,"is_reserved":false,"is_disabled":false,"rental_uris":{"android":"levelo://app?vid=b932f170-e0a2-49bf-bde0-0ef62129d428","ios":"levelo://app?vid=b932f170-e0a2-49bf-bde0-0ef62129d428"},"vehicle_type_id":"4","last_reported":1730853843,"current_range_meters":26000,"station_id":"cjm6bp8fraef2m0cb0m0","pricing_plan_id":"cebpf4jnsgd1na2vs0mg"},{"bike_id":"fb6e0097-609c-4a31-a37d-72d195a0407b","system_id":"levelo_inurba_marseille","lat":43.29861,"lon":5.39741,"is_reserved":false,"is_disabled":false,"rental_uris":{"android":"levelo://app?vid=fb6e0097-609c-4a31-a37d-72d195a0407b","ios":"levelo://app?vid=fb6e0097-609c-4a31-a37d-72d195a0407b"},"vehicle_type_id":"4","last_reported":1730853843,"current_range_meters":18800,"station_id":"ce4bh0h2rcd13ifvqd50","pricing_plan_id":"cebpf4jnsgd1na2vs0mg"},{"bike_id":"6e7dca57-06bc-4102-8c2c-b936f9c883ae","system_id":"levelo_inurba_marseille","lat":43.23187,"lon":5.39981,"is_reserved":false,"is_disabled":false,"rental_uris":{"android":"levelo://app?vid=6e7dca57-06bc-4102-8c2c-b936f9c883ae","ios":"levelo://app?vid=6e7dca57-06bc-4102-8c2c-b936f9c883ae"},"vehicle_type_id":"4","last_reported":1730853843,"current_range_meters":38800,"station_id":"ce4bhn12rcd13ifvqgqg","pricing_plan_id":"cebpf4jnsgd1na2vs0mg"},{"bike_id":"805205aa-6868-4ae4-a501-7a6b89146641","system_id":"levelo_inurba_marseille","lat":43.27498,"lon":5.42449,"is_reserved":false,"is_disabled":false,"rental_uris":{"android":"levelo://app?vid=805205aa-6868-4ae4-a501-7a6b89146641","ios":"levelo://app?vid=805205aa-6868-4ae4-a501-7a6b89146641"},"vehicle_type_id":"4","last_reported":1730853843,"current_range_meters":38800,"station_id":"ce4bhn92rcd13ifvqgrg","pricing_plan_id":"cebpf4jnsgd1na2vs0mg"},{"bike_id":"28e4885d-9200-4e60-96af-eaca8769468c","system_id":"levelo_inurba_marseille","lat":43.31277,"lon":5.40166,"is_reserved":false,"is_disabled":false,"rental_uris":{"android":"levelo://app?vid=28e4885d-9200-4e60-96af-eaca8769468c","ios":"levelo://app?vid=28e4885d-9200-4e60-96af-eaca8769468c"},"vehicle_type_id":"4","last_reported":1730853843,"current_range_meters":33600,"station_id":"ce4bh092rcd13ifvqd30","pricing_plan_id":"cebpf4jnsgd1na2vs0mg"},{"bike_id":"91bca46f-4a2b-4d3d-97bd-83f2d6281f6e","system_id":"levelo_inurba_marseille","lat":43.29286,"lon":5.40131,"is_reserved":false,"is_disabled":false,"rental_uris":{"android":"levelo://app?vid=91bca46f-4a2b-4d3d-97bd-83f2d6281f6e","ios":"levelo://app?vid=91bca46f-4a2b-4d3d-97bd-83f2d6281f6e"},"vehicle_type_id":"4","last_reported":1730853843,"current_range_meters":34800,"station_id":"ce4bh312rcd13ifvqdk0","pricing_plan_id":"cebpf4jnsgd1na2vs0mg"},{"bike_id":"2d965f9c-7972-408e-95bf-f3b6b511b891","system_id":"levelo_inurba_marseille","lat":43.30649,"lon":5.4009,"is_reserved":false,"is_disabled":false,"rental_uris":{"android":"levelo://app?vid=2d965f9c-7972-408e-95bf-f3b6b511b891","ios":"levelo://app?vid=2d965f9c-7972-408e-95bf-f3b6b511b891"},"vehicle_type_id":"4","last_reported":1730853843,"current_range_meters":14000,"station_id":"ce4bh112rcd13ifvqda0","pricing_plan_id":"cebpf4jnsgd1na2vs0mg"},{"bike_id":"9d9dc117-b422-4432-b305-2ee17862cef6","system_id":"levelo_inurba_marseille","lat":43.31204,"lon":5.36906,"is_reserved":false,"is_disabled":false,"rental_uris":{"android":"levelo://app?vid=9d9dc117-b422-4432-b305-2ee17862cef6","ios":"levelo://app?vid=9d9dc117-b422-4432-b305-2ee17862cef6"},"vehicle_type_id":"4","last_reported":1730853843,"current_range_meters":34800,"station_id":"ce4bgl92rcd13ifvqbq0","pricing_plan_id":"cebpf4jnsgd1na2vs0mg"},{"bike_id":"615498ac-bc5f-4a34-9c3e-72e6a9112978","system_id":"levelo_inurba_marseille","lat":43.30263,"lon":5.40066,"is_reserved":false,"is_disabled":false,"rental_uris":{"android":"levelo://app?vid=615498ac-bc5f-4a34-9c3e-72e6a9112978","ios":"levelo://app?vid=615498ac-bc5f-4a34-9c3e-72e6a9112978"},"vehicle_type_id":"4","last_reported":1730853843,"current_range_meters":34800,"station_id":"ce4bgvh2rcd13ifvqcs0","pricing_plan_id":"cebpf4jnsgd1na2vs0mg"},{"bike_id":"32412e8b-4791-4497-ac8f-85ce4a3b1bf5","system_id":"levelo_inurba_marseille","lat":43.27425,"lon":5.39401,"is_reserved":false,"is_disabled":false,"rental_uris":{"android":"levelo://app?vid=32412e8b-4791-4497-ac8f-85ce4a3b1bf5","ios":"levelo://app?vid=32412e8b-4791-4497-ac8f-85ce4a3b1bf5"},"vehicle_type_id":"4","last_reported":1730853843,"current_range_meters":38800,"station_id":"ce4bhdp2rcd13ifvqf20","pricing_plan_id":"cebpf4jnsgd1na2vs0mg"},{"bike_id":"7701395b-8a30-4ab3-ae33-9bfea81c267f","system_id":"levelo_inurba_marseille","lat":43.31329,"lon":5.39694,"is_reserved":false,"is_disabled":false,"rental_uris":{"android":"levelo://app?vid=7701395b-8a30-4ab3-ae33-9bfea81c267f","ios":"levelo://app?vid=7701395b-8a30-4ab3-ae33-9bfea81c267f"},"vehicle_type_id":"4","last_reported":1730853843,"current_range_meters":8400,"station_id":"ce4bgvp2rcd13ifvqcu0","pricing_plan_id":"cebpf4jnsgd1na2vs0mg"},{"bike_id":"cad7064a-f388-4bba-95a0-b86da617831d","system_id":"levelo_inurba_marseille","lat":43.30608,"lon":5.37221,"is_reserved":false,"is_disabled":false,"rental_uris":{"android":"levelo://app?vid=cad7064a-f388-4bba-95a0-b86da617831d","ios":"levelo://app?vid=cad7064a-f388-4bba-95a0-b86da617831d"},"vehicle_type_id":"4","last_reported":1730853843,"current_range_meters":39200,"station_id":"ce4bgqh2rcd13ifvqc4g","pricing_plan_id":"cebpf4jnsgd1na2vs0mg"},{"bike_id":"1f9427b0-5fa1-48cb-9b31-8a0b0ffec652","system_id":"levelo_inurba_marseille","lat":43.29194,"lon":5.39315,"is_reserved":false,"is_disabled":false,"rental_uris":{"android":"levelo://app?vid=1f9427b0-5fa1-48cb-9b31-8a0b0ffec652","ios":"levelo://app?vid=1f9427b0-5fa1-48cb-9b31-8a0b0ffec652"},"vehicle_type_id":"4","last_reported":1730853843,"current_range_meters":9200,"station_id":"ce4bh192rcd13ifvqdd0","pricing_plan_id":"cebpf4jnsgd1na2vs0mg"},{"bike_id":"5174ae6b-73b7-4eb9-b82e-9c61c1f78ce8","system_id":"levelo_inurba_marseille","lat":43.3122,"lon":5.406513,"is_reserved":false,"is_disabled":false,"rental_uris":{"android":"levelo://app?vid=5174ae6b-73b7-4eb9-b82e-9c61c1f78ce8","ios":"levelo://app?vid=5174ae6b-73b7-4eb9-b82e-9c61c1f78ce8"},"vehicle_type_id":"4","last_reported":1730853843,"current_range_meters":25200,"station_id":"","pricing_plan_id":"cebpf4jnsgd1na2vs0mg"},{"bike_id":"f110eb14-9997-4ad7-992a-e7270be086a2","system_id":"levelo_inurba_marseille","lat":43.31325,"lon":5.39698,"is_reserved":false,"is_disabled":false,"rental_uris":{"android":"levelo://app?vid=f110eb14-9997-4ad7-992a-e7270be086a2","ios":"levelo://app?vid=f110eb14-9997-4ad7-992a-e7270be086a2"},"vehicle_type_id":"4","last_reported":1730853843,"current_range_meters":7200,"station_id":"ce4bgvp2rcd13ifvqcu0","pricing_plan_id":"cebpf4jnsgd1na2vs0mg"},{"bike_id":"f00cbde1-7b6f-4628-808a-8aecb2212f16","system_id":"levelo_inurba_marseille","lat":43.31362,"lon":5.38488,"is_reserved":false,"is_disabled":false,"rental_uris":{"android":"levelo://app?vid=f00cbde1-7b6f-4628-808a-8aecb2212f16","ios":"levelo://app?vid=f00cbde1-7b6f-4628-808a-8aecb2212f16"},"vehicle_type_id":"4","last_reported":1730853843,"current_range_meters":28800,"station_id":"ce4bgt92rcd13ifvqcf0","pricing_plan_id":"cebpf4jnsgd1na2vs0mg"},{"bike_id":"00db643c-5868-4206-be55-7a08f1b86e96","system_id":"levelo_inurba_marseille","lat":43.23185,"lon":5.3998,"is_reserved":false,"is_disabled":false,"rental_uris":{"android":"levelo://app?vid=00db643c-5868-4206-be55-7a08f1b86e96","ios":"levelo://app?vid=00db643c-5868-4206-be55-7a08f1b86e96"},"vehicle_type_id":"4","last_reported":1730853843,"current_range_meters":17200,"station_id":"ce4bhn12rcd13ifvqgqg","pricing_plan_id":"cebpf4jnsgd1na2vs0mg"},{"bike_id":"cc96e30f-49a7-461f-83b2-28db708273cb","system_id":"levelo_inurba_marseille","lat":43.30798,"lon":5.38143,"is_reserved":false,"is_disabled":false,"rental_uris":{"android":"levelo://app?vid=cc96e30f-49a7-461f-83b2-28db708273cb","ios":"levelo://app?vid=cc96e30f-49a7-461f-83b2-28db708273cb"},"vehicle_type_id":"4","last_reported":1730853843,"current_range_meters":17200,"station_id":"ce4bgt12rcd13ifvqce0","pricing_plan_id":"cebpf4jnsgd1na2vs0mg"},{"bike_id":"303b735f-35cd-4b5b-818d-169b9a55c2bc","system_id":"levelo_inurba_marseille","lat":43.29308,"lon":5.37187,"is_reserved":false,"is_disabled":false,"rental_uris":{"android":"levelo://app?vid=303b735f-35cd-4b5b-818d-169b9a55c2bc","ios":"levelo://app?vid=303b735f-35cd-4b5b-818d-169b9a55c2bc"},"vehicle_type_id":"4","last_reported":1730853843,"current_range_meters":38800,"station_id":"ce4bgh92rcd13ifvqb40","pricing_plan_id":"cebpf4jnsgd1na2vs0mg"},{"bike_id":"ff404c7f-7bb7-463d-8520-cba3fe0d0b9a","system_id":"levelo_inurba_marseille","lat":43.30777,"lon":5.37662,"is_reserved":false,"is_disabled":false,"rental_uris":{"android":"levelo://app?vid=ff404c7f-7bb7-463d-8520-cba3fe0d0b9a","ios":"levelo://app?vid=ff404c7f-7bb7-463d-8520-cba3fe0d0b9a"},"vehicle_type_id":"4","last_reported":1730853843,"current_range_meters":25600,"station_id":"ce4bgv92rcd13ifvqcq0","pricing_plan_id":"cebpf4jnsgd1na2vs0mg"},{"bike_id":"09ae89aa-d8fd-468f-94dc-9a05a884115a","system_id":"levelo_inurba_marseille","lat":43.24069,"lon":5.37767,"is_reserved":false,"is_disabled":false,"rental_uris":{"android":"levelo://app?vid=09ae89aa-d8fd-468f-94dc-9a05a884115a","ios":"levelo://app?vid=09ae89aa-d8fd-468f-94dc-9a05a884115a"},"vehicle_type_id":"4","last_reported":1730853843,"current_range_meters":22800,"station_id":"ce4bhnp2rcd13ifvqgvg","pricing_plan_id":"cebpf4jnsgd1na2vs0mg"},{"bike_id":"7ba83686-4624-453c-8ee6-0564ccf6fcb6","system_id":"levelo_inurba_marseille","lat":43.2582,"lon":5.39439,"is_reserved":false,"is_disabled":false,"rental_uris":{"android":"levelo://app?vid=7ba83686-4624-453c-8ee6-0564ccf6fcb6","ios":"levelo://app?vid=7ba83686-4624-453c-8ee6-0564ccf6fcb6"},"vehicle_type_id":"4","last_reported":1730853843,"current_range_meters":38000,"station_id":"ce4bhip2rcd13ifvqft0","pricing_plan_id":"cebpf4jnsgd1na2vs0mg"},{"bike_id":"aaa32c29-f262-40a8-a501-7418891001d4","system_id":"levelo_inurba_marseille","lat":43.27819,"lon":5.40718,"is_reserved":false,"is_disabled":false,"rental_uris":{"android":"levelo://app?vid=aaa32c29-f262-40a8-a501-7418891001d4","ios":"levelo://app?vid=aaa32c29-f262-40a8-a501-7418891001d4"},"vehicle_type_id":"4","last_reported":1730853843,"current_range_meters":38400,"station_id":"ce4bhnh2rcd13ifvqgtg","pricing_plan_id":"cebpf4jnsgd1na2vs0mg"},{"bike_id":"7bb366b3-e7cd-412b-910a-0c0c9c30ad37","system_id":"levelo_inurba_marseille","lat":43.318982,"lon":5.407309,"is_reserved":false,"is_disabled":false,"rental_uris":{"android":"levelo://app?vid=7bb366b3-e7cd-412b-910a-0c0c9c30ad37","ios":"levelo://app?vid=7bb366b3-e7cd-412b-910a-0c0c9c30ad37"},"vehicle_type_id":"4","last_reported":1730853843,"current_range_meters":38800,"station_id":"ce4bhq12rcd13ifvqhig","pricing_plan_id":"cebpf4jnsgd1na2vs0mg"},{"bike_id":"0ed737ce-537e-4cb7-a1b6-4e75fd718d9d","system_id":"levelo_inurba_marseille","lat":43.29739,"lon":5.4067,"is_reserved":false,"is_disabled":false,"rental_uris":{"android":"levelo://app?vid=0ed737ce-537e-4cb7-a1b6-4e75fd718d9d","ios":"levelo://app?vid=0ed737ce-537e-4cb7-a1b6-4e75fd718d9d"},"vehicle_type_id":"4","last_reported":1730853843,"current_range_meters":27200,"station_id":"","pricing_plan_id":"cebpf4jnsgd1na2vs0mg"},{"bike_id":"b44b0b48-9a85-405c-b983-dc9cb4802105","system_id":"levelo_inurba_marseille","lat":43.28571,"lon":5.39502,"is_reserved":false,"is_disabled":false,"rental_uris":{"android":"levelo://app?vid=b44b0b48-9a85-405c-b983-dc9cb4802105","ios":"levelo://app?vid=b44b0b48-9a85-405c-b983-dc9cb4802105"},"vehicle_type_id":"4","last_reported":1730853843,"current_range_meters":38000,"station_id":"ce4bh292rcd13ifvqdg0","pricing_plan_id":"cebpf4jnsgd1na2vs0mg"},{"bike_id":"814f224b-377e-4923-a420-cdcd4718352f","system_id":"levelo_inurba_marseille","lat":43.33019,"lon":5.39045,"is_reserved":false,"is_disabled":false,"rental_uris":{"android":"levelo://app?vid=814f224b-377e-4923-a420-cdcd4718352f","ios":"levelo://app?vid=814f224b-377e-4923-a420-cdcd4718352f"},"vehicle_type_id":"4","last_reported":1730853843,"current_range_meters":38800,"station_id":"ce4bhr92rcd13ifvqhrg","pricing_plan_id":"cebpf4jnsgd1na2vs0mg"},{"bike_id":"80e3e6ac-147b-4cbb-b0de-c7b890fedfd4","system_id":"levelo_inurba_marseille","lat":43.308,"lon":5.4353,"is_reserved":false,"is_disabled":false,"rental_uris":{"android":"levelo://app?vid=80e3e6ac-147b-4cbb-b0de-c7b890fedfd4","ios":"levelo://app?vid=80e3e6ac-147b-4cbb-b0de-c7b890fedfd4"},"vehicle_type_id":"4","last_reported":1730853843,"current_range_meters":30000,"station_id":"ce4bhph2rcd13ifvqheg","pricing_plan_id":"cebpf4jnsgd1na2vs0mg"},{"bike_id":"7386d356-93ac-4ce3-a13e-ba238ae2ea52","system_id":"levelo_inurba_marseille","lat":43.30131,"lon":5.39865,"is_reserved":false,"is_disabled":false,"rental_uris":{"android":"levelo://app?vid=7386d356-93ac-4ce3-a13e-ba238ae2ea52","ios":"levelo://app?vid=7386d356-93ac-4ce3-a13e-ba238ae2ea52"},"vehicle_type_id":"4","last_reported":1730853843,"current_range_meters":25200,"station_id":"ce4bh0h2rcd13ifvqd40","pricing_plan_id":"cebpf4jnsgd1na2vs0mg"},{"bike_id":"22868da5-4c38-4ce5-8489-cbec9dcaa3b0","system_id":"levelo_inurba_marseille","lat":43.28031,"lon":5.36946,"is_reserved":false,"is_disabled":false,"rental_uris":{"android":"levelo://app?vid=22868da5-4c38-4ce5-8489-cbec9dcaa3b0","ios":"levelo://app?vid=22868da5-4c38-4ce5-8489-cbec9dcaa3b0"},"vehicle_type_id":"4","last_reported":1730853843,"current_range_meters":38400,"station_id":"ce4bha12rcd13ifvqef0","pricing_plan_id":"cebpf4jnsgd1na2vs0mg"},{"bike_id":"e6b9a3bd-343b-4efe-b451-d9ddc466724d","system_id":"levelo_inurba_marseille","lat":43.31068,"lon":5.38349,"is_reserved":false,"is_disabled":false,"rental_uris":{"android":"levelo://app?vid=e6b9a3bd-343b-4efe-b451-d9ddc466724d","ios":"levelo://app?vid=e6b9a3bd-343b-4efe-b451-d9ddc466724d"},"vehicle_type_id":"4","last_reported":1730853843,"current_range_meters":6800,"station_id":"ce4bgv92rcd13ifvqcr0","pricing_plan_id":"cebpf4jnsgd1na2vs0mg"},{"bike_id":"7ba1c308-cf7f-478b-be7c-91d09437c3cf","system_id":"levelo_inurba_marseille","lat":43.307992,"lon":5.381541,"is_reserved":false,"is_disabled":false,"rental_uris":{"android":"levelo://app?vid=7ba1c308-cf7f-478b-be7c-91d09437c3cf","ios":"levelo://app?vid=7ba1c308-cf7f-478b-be7c-91d09437c3cf"},"vehicle_type_id":"4","last_reported":1730853843,"current_range_meters":38800,"station_id":"ce4bgt12rcd13ifvqce0","pricing_plan_id":"cebpf4jnsgd1na2vs0mg"},{"bike_id":"d5087937-1aea-4522-9f3e-f1abdc210b7f","system_id":"levelo_inurba_marseille","lat":43.30132,"lon":5.39855,"is_reserved":false,"is_disabled":false,"rental_uris":{"android":"levelo://app?vid=d5087937-1aea-4522-9f3e-f1abdc210b7f","ios":"levelo://app?vid=d5087937-1aea-4522-9f3e-f1abdc210b7f"},"vehicle_type_id":"4","last_reported":1730853843,"current_range_meters":38800,"station_id":"ce4bh0h2rcd13ifvqd40","pricing_plan_id":"cebpf4jnsgd1na2vs0mg"},{"bike_id":"437037e9-de2d-4c1f-b6d8-074d1c9b96f5","system_id":"levelo_inurba_marseille","lat":43.30801,"lon":5.38147,"is_reserved":false,"is_disabled":false,"rental_uris":{"android":"levelo://app?vid=437037e9-de2d-4c1f-b6d8-074d1c9b96f5","ios":"levelo://app?vid=437037e9-de2d-4c1f-b6d8-074d1c9b96f5"},"vehicle_type_id":"4","last_reported":1730853843,"current_range_meters":11200,"station_id":"ce4bgt12rcd13ifvqce0","pricing_plan_id":"cebpf4jnsgd1na2vs0mg"},{"bike_id":"c6c01f0b-d953-4372-a4de-74be6e92d36a","system_id":"levelo_inurba_marseille","lat":43.28477,"lon":5.38415,"is_reserved":false,"is_disabled":false,"rental_uris":{"android":"levelo://app?vid=c6c01f0b-d953-4372-a4de-74be6e92d36a","ios":"levelo://app?vid=c6c01f0b-d953-4372-a4de-74be6e92d36a"},"vehicle_type_id":"4","last_reported":1730853843,"current_range_meters":32400,"station_id":"ce4bh512rcd13ifvqe3g","pricing_plan_id":"cebpf4jnsgd1na2vs0mg"},{"bike_id":"8e8b985d-b1e1-41a2-8132-f0ba2ee524fd","system_id":"levelo_inurba_marseille","lat":43.31531,"lon":5.38024,"is_reserved":false,"is_disabled":false,"rental_uris":{"android":"levelo://app?vid=8e8b985d-b1e1-41a2-8132-f0ba2ee524fd","ios":"levelo://app?vid=8e8b985d-b1e1-41a2-8132-f0ba2ee524fd"},"vehicle_type_id":"4","last_reported":1730853843,"current_range_meters":37600,"station_id":"ce4bhsp2rcd13ifvqi50","pricing_plan_id":"cebpf4jnsgd1na2vs0mg"},{"bike_id":"da35fddd-6cbb-4e6c-9f9d-fb571fd29e9d","system_id":"levelo_inurba_marseille","lat":43.31077,"lon":5.38347,"is_reserved":false,"is_disabled":false,"rental_uris":{"android":"levelo://app?vid=da35fddd-6cbb-4e6c-9f9d-fb571fd29e9d","ios":"levelo://app?vid=da35fddd-6cbb-4e6c-9f9d-fb571fd29e9d"},"vehicle_type_id":"4","last_reported":1730853843,"current_range_meters":8800,"station_id":"ce4bgv92rcd13ifvqcr0","pricing_plan_id":"cebpf4jnsgd1na2vs0mg"},{"bike_id":"a98dc656-1033-49f7-ab4c-18b53d446b8c","system_id":"levelo_inurba_marseille","lat":43.28706,"lon":5.37944,"is_reserved":false,"is_disabled":false,"rental_uris":{"android":"levelo://app?vid=a98dc656-1033-49f7-ab4c-18b53d446b8c","ios":"levelo://app?vid=a98dc656-1033-49f7-ab4c-18b53d446b8c"},"vehicle_type_id":"4","last_reported":1730853843,"current_range_meters":38800,"station_id":"ce4bh9p2rcd13ifvqec0","pricing_plan_id":"cebpf4jnsgd1na2vs0mg"},{"bike_id":"8ba9bdd7-2fbb-4057-9790-39e8b8c10d48","system_id":"levelo_inurba_marseille","lat":43.2841,"lon":5.37903,"is_reserved":false,"is_disabled":false,"rental_uris":{"android":"levelo://app?vid=8ba9bdd7-2fbb-4057-9790-39e8b8c10d48","ios":"levelo://app?vid=8ba9bdd7-2fbb-4057-9790-39e8b8c10d48"},"vehicle_type_id":"4","last_reported":1730853843,"current_range_meters":18800,"station_id":"","pricing_plan_id":"cebpf4jnsgd1na2vs0mg"},{"bike_id":"bb10a7e5-28ee-4ce5-959a-fb4e69a519f8","system_id":"levelo_inurba_marseille","lat":43.28154,"lon":5.42647,"is_reserved":false,"is_disabled":false,"rental_uris":{"android":"levelo://app?vid=bb10a7e5-28ee-4ce5-959a-fb4e69a519f8","ios":"levelo://app?vid=bb10a7e5-28ee-4ce5-959a-fb4e69a519f8"},"vehicle_type_id":"4","last_reported":1730853843,"current_range_meters":38800,"station_id":"ce4bhnh2rcd13ifvqgug","pricing_plan_id":"cebpf4jnsgd1na2vs0mg"},{"bike_id":"3b336f68-e9cb-4a91-afff-e57d8f8fa6a7","system_id":"levelo_inurba_marseille","lat":43.27916,"lon":5.39582,"is_reserved":false,"is_disabled":false,"rental_uris":{"android":"levelo://app?vid=3b336f68-e9cb-4a91-afff-e57d8f8fa6a7","ios":"levelo://app?vid=3b336f68-e9cb-4a91-afff-e57d8f8fa6a7"},"vehicle_type_id":"4","last_reported":1730853843,"current_range_meters":34000,"station_id":"ce4bhf92rcd13ifvqf40","pricing_plan_id":"cebpf4jnsgd1na2vs0mg"},{"bike_id":"ba141181-7760-4f01-b5cb-6647f70de3b3","system_id":"levelo_inurba_marseille","lat":43.31699,"lon":5.40457,"is_reserved":false,"is_disabled":false,"rental_uris":{"android":"levelo://app?vid=ba141181-7760-4f01-b5cb-6647f70de3b3","ios":"levelo://app?vid=ba141181-7760-4f01-b5cb-6647f70de3b3"},"vehicle_type_id":"4","last_reported":1730853843,"current_range_meters":38800,"station_id":"ce4bh012rcd13ifvqd00","pricing_plan_id":"cebpf4jnsgd1na2vs0mg"},{"bike_id":"146d593e-9d63-4ae3-aeee-336ab9ffefcf","system_id":"levelo_inurba_marseille","lat":43.24176,"lon":5.39731,"is_reserved":false,"is_disabled":false,"rental_uris":{"android":"levelo://app?vid=146d593e-9d63-4ae3-aeee-336ab9ffefcf","ios":"levelo://app?vid=146d593e-9d63-4ae3-aeee-336ab9ffefcf"},"vehicle_type_id":"4","last_reported":1730853843,"current_range_meters":18800,"station_id":"ce4bhn12rcd13ifvqgpg","pricing_plan_id":"cebpf4jnsgd1na2vs0mg"},{"bike_id":"b8d968c2-430e-4297-9b22-19cd8c0f916d","system_id":"levelo_inurba_marseille","lat":43.23157,"lon":5.43705,"is_reserved":false,"is_disabled":false,"rental_uris":{"android":"levelo://app?vid=b8d968c2-430e-4297-9b22-19cd8c0f916d","ios":"levelo://app?vid=b8d968c2-430e-4297-9b22-19cd8c0f916d"},"vehicle_type_id":"4","last_reported":1730853843,"current_range_meters":38800,"station_id":"ce4bhmp2rcd13ifvqgog","pricing_plan_id":"cebpf4jnsgd1na2vs0mg"},{"bike_id":"5b8bb2fb-1f89-4213-afcd-7b3734dbb455","system_id":"levelo_inurba_marseille","lat":43.29257,"lon":5.40903,"is_reserved":false,"is_disabled":false,"rental_uris":{"android":"levelo://app?vid=5b8bb2fb-1f89-4213-afcd-7b3734dbb455","ios":"levelo://app?vid=5b8bb2fb-1f89-4213-afcd-7b3734dbb455"},"vehicle_type_id":"4","last_reported":1730853843,"current_range_meters":36400,"station_id":"ce4bh192rcd13ifvqdc0","pricing_plan_id":"cebpf4jnsgd1na2vs0mg"},{"bike_id":"79081f43-3cf1-4924-8c5b-46fba5f65f32","system_id":"levelo_inurba_marseille","lat":43.32345,"lon":5.40621,"is_reserved":false,"is_disabled":false,"rental_uris":{"android":"levelo://app?vid=79081f43-3cf1-4924-8c5b-46fba5f65f32","ios":"levelo://app?vid=79081f43-3cf1-4924-8c5b-46fba5f65f32"},"vehicle_type_id":"4","last_reported":1730853843,"current_range_meters":36800,"station_id":"ce4bhq92rcd13ifvqhjg","pricing_plan_id":"cebpf4jnsgd1na2vs0mg"},{"bike_id":"00651bd0-700d-429e-a9a9-41228751fbe7","system_id":"levelo_inurba_marseille","lat":43.29275,"lon":5.40108,"is_reserved":false,"is_disabled":false,"rental_uris":{"android":"levelo://app?vid=00651bd0-700d-429e-a9a9-41228751fbe7","ios":"levelo://app?vid=00651bd0-700d-429e-a9a9-41228751fbe7"},"vehicle_type_id":"4","last_reported":1730853843,"current_range_meters":35200,"station_id":"ce4bh312rcd13ifvqdk0","pricing_plan_id":"cebpf4jnsgd1na2vs0mg"},{"bike_id":"a3f212ed-75fc-427e-8abd-1528e23a35ba","system_id":"levelo_inurba_marseille","lat":43.28731,"lon":5.36075,"is_reserved":false,"is_disabled":false,"rental_uris":{"android":"levelo://app?vid=a3f212ed-75fc-427e-8abd-1528e23a35ba","ios":"levelo://app?vid=a3f212ed-75fc-427e-8abd-1528e23a35ba"},"vehicle_type_id":"4","last_reported":1730853843,"current_range_meters":36400,"station_id":"cki0cbj6b192h4jlfktg","pricing_plan_id":"cebpf4jnsgd1na2vs0mg"},{"bike_id":"5d5df8cd-1e52-4c79-9e88-c08e2600eae7","system_id":"levelo_inurba_marseille","lat":43.31883,"lon":5.40732,"is_reserved":false,"is_disabled":false,"rental_uris":{"android":"levelo://app?vid=5d5df8cd-1e52-4c79-9e88-c08e2600eae7","ios":"levelo://app?vid=5d5df8cd-1e52-4c79-9e88-c08e2600eae7"},"vehicle_type_id":"4","last_reported":1730853843,"current_range_meters":15200,"station_id":"ce4bhq12rcd13ifvqhig","pricing_plan_id":"cebpf4jnsgd1na2vs0mg"},{"bike_id":"a7d5eca0-b475-4a8f-93d9-1bc5ac98126d","system_id":"levelo_inurba_marseille","lat":43.29565,"lon":5.39974,"is_reserved":false,"is_disabled":false,"rental_uris":{"android":"levelo://app?vid=a7d5eca0-b475-4a8f-93d9-1bc5ac98126d","ios":"levelo://app?vid=a7d5eca0-b475-4a8f-93d9-1bc5ac98126d"},"vehicle_type_id":"4","last_reported":1730853843,"current_range_meters":37600,"station_id":"ce4bh312rcd13ifvqdj0","pricing_plan_id":"cebpf4jnsgd1na2vs0mg"},{"bike_id":"b0782088-2a0c-4916-a4b8-d3b7a3d7a021","system_id":"levelo_inurba_marseille","lat":43.28464,"lon":5.35885,"is_reserved":false,"is_disabled":false,"rental_uris":{"android":"levelo://app?vid=b0782088-2a0c-4916-a4b8-d3b7a3d7a021","ios":"levelo://app?vid=b0782088-2a0c-4916-a4b8-d3b7a3d7a021"},"vehicle_type_id":"4","last_reported":1730853843,"current_range_meters":25200,"station_id":"ce4bhah2rcd13ifvqei0","pricing_plan_id":"cebpf4jnsgd1na2vs0mg"},{"bike_id":"77f0f942-cc19-4114-9693-f96851c5cf8b","system_id":"levelo_inurba_marseille","lat":43.31071,"lon":5.3835,"is_reserved":false,"is_disabled":false,"rental_uris":{"android":"levelo://app?vid=77f0f942-cc19-4114-9693-f96851c5cf8b","ios":"levelo://app?vid=77f0f942-cc19-4114-9693-f96851c5cf8b"},"vehicle_type_id":"4","last_reported":1730853843,"current_range_meters":12800,"station_id":"ce4bgv92rcd13ifvqcr0","pricing_plan_id":"cebpf4jnsgd1na2vs0mg"},{"bike_id":"1600515d-2cf9-44bb-9b6a-9c97b427f289","system_id":"levelo_inurba_marseille","lat":43.3107,"lon":5.3835,"is_reserved":false,"is_disabled":false,"rental_uris":{"android":"levelo://app?vid=1600515d-2cf9-44bb-9b6a-9c97b427f289","ios":"levelo://app?vid=1600515d-2cf9-44bb-9b6a-9c97b427f289"},"vehicle_type_id":"4","last_reported":1730853843,"current_range_meters":28400,"station_id":"ce4bgv92rcd13ifvqcr0","pricing_plan_id":"cebpf4jnsgd1na2vs0mg"},{"bike_id":"7d9772b3-5026-405b-b858-d313524ececb","system_id":"levelo_inurba_marseille","lat":43.23958,"lon":5.36633,"is_reserved":false,"is_disabled":false,"rental_uris":{"android":"levelo://app?vid=7d9772b3-5026-405b-b858-d313524ececb","ios":"levelo://app?vid=7d9772b3-5026-405b-b858-d313524ececb"},"vehicle_type_id":"4","last_reported":1730853843,"current_range_meters":38400,"station_id":"ce4bhi12rcd13ifvqfp0","pricing_plan_id":"cebpf4jnsgd1na2vs0mg"},{"bike_id":"3249afd4-6825-4a97-ac62-b58b88ddcba3","system_id":"levelo_inurba_marseille","lat":43.27957,"lon":5.38714,"is_reserved":false,"is_disabled":false,"rental_uris":{"android":"levelo://app?vid=3249afd4-6825-4a97-ac62-b58b88ddcba3","ios":"levelo://app?vid=3249afd4-6825-4a97-ac62-b58b88ddcba3"},"vehicle_type_id":"4","last_reported":1730853843,"current_range_meters":38800,"station_id":"ce4bhg12rcd13ifvqf80","pricing_plan_id":"cebpf4jnsgd1na2vs0mg"},{"bike_id":"8c5739ba-55e3-4850-bc53-48822400c857","system_id":"levelo_inurba_marseille","lat":43.30256,"lon":5.40061,"is_reserved":false,"is_disabled":false,"rental_uris":{"android":"levelo://app?vid=8c5739ba-55e3-4850-bc53-48822400c857","ios":"levelo://app?vid=8c5739ba-55e3-4850-bc53-48822400c857"},"vehicle_type_id":"4","last_reported":1730853843,"current_range_meters":38800,"station_id":"ce4bgvh2rcd13ifvqcs0","pricing_plan_id":"cebpf4jnsgd1na2vs0mg"},{"bike_id":"2ad025ba-75b1-4ffb-abca-9b3cfd365230","system_id":"levelo_inurba_marseille","lat":43.25112,"lon":5.40327,"is_reserved":false,"is_disabled":false,"rental_uris":{"android":"levelo://app?vid=2ad025ba-75b1-4ffb-abca-9b3cfd365230","ios":"levelo://app?vid=2ad025ba-75b1-4ffb-abca-9b3cfd365230"},"vehicle_type_id":"4","last_reported":1730853843,"current_range_meters":39200,"station_id":"ce4bhlh2rcd13ifvqgig","pricing_plan_id":"cebpf4jnsgd1na2vs0mg"},{"bike_id":"753f4c78-4df7-4ca5-b561-7ed7a8eca1d9","system_id":"levelo_inurba_marseille","lat":43.24073,"lon":5.37761,"is_reserved":false,"is_disabled":false,"rental_uris":{"android":"levelo://app?vid=753f4c78-4df7-4ca5-b561-7ed7a8eca1d9","ios":"levelo://app?vid=753f4c78-4df7-4ca5-b561-7ed7a8eca1d9"},"vehicle_type_id":"4","last_reported":1730853843,"current_range_meters":38400,"station_id":"ce4bhnp2rcd13ifvqgvg","pricing_plan_id":"cebpf4jnsgd1na2vs0mg"},{"bike_id":"6a1ff42f-e89f-495d-8c70-9d353ff7b464","system_id":"levelo_inurba_marseille","lat":43.30357,"lon":5.41878,"is_reserved":false,"is_disabled":false,"rental_uris":{"android":"levelo://app?vid=6a1ff42f-e89f-495d-8c70-9d353ff7b464","ios":"levelo://app?vid=6a1ff42f-e89f-495d-8c70-9d353ff7b464"},"vehicle_type_id":"4","last_reported":1730853843,"current_range_meters":37600,"station_id":"ce4bhop2rcd13ifvqh7g","pricing_plan_id":"cebpf4jnsgd1na2vs0mg"},{"bike_id":"a6cec6af-6878-4121-86ca-2aa1b3ec484c","system_id":"levelo_inurba_marseille","lat":43.31168,"lon":5.38722,"is_reserved":false,"is_disabled":false,"rental_uris":{"android":"levelo://app?vid=a6cec6af-6878-4121-86ca-2aa1b3ec484c","ios":"levelo://app?vid=a6cec6af-6878-4121-86ca-2aa1b3ec484c"},"vehicle_type_id":"4","last_reported":1730853843,"current_range_meters":22800,"station_id":"ce4bgv12rcd13ifvqcp0","pricing_plan_id":"cebpf4jnsgd1na2vs0mg"},{"bike_id":"13b1728a-6ba8-4697-b953-7d5c1172b1be","system_id":"levelo_inurba_marseille","lat":43.29441,"lon":5.39751,"is_reserved":false,"is_disabled":false,"rental_uris":{"android":"levelo://app?vid=13b1728a-6ba8-4697-b953-7d5c1172b1be","ios":"levelo://app?vid=13b1728a-6ba8-4697-b953-7d5c1172b1be"},"vehicle_type_id":"4","last_reported":1730853843,"current_range_meters":38800,"station_id":"ce4bh3h2rcd13ifvqdo0","pricing_plan_id":"cebpf4jnsgd1na2vs0mg"},{"bike_id":"814ab176-58a4-48b4-8ed6-30b958118792","system_id":"levelo_inurba_marseille","lat":43.33603,"lon":5.41036,"is_reserved":false,"is_disabled":false,"rental_uris":{"android":"levelo://app?vid=814ab176-58a4-48b4-8ed6-30b958118792","ios":"levelo://app?vid=814ab176-58a4-48b4-8ed6-30b958118792"},"vehicle_type_id":"4","last_reported":1730853843,"current_range_meters":38800,"station_id":"ce4bhqh2rcd13ifvqhmg","pricing_plan_id":"cebpf4jnsgd1na2vs0mg"},{"bike_id":"165ef37c-2866-4a0d-89b9-884a287a5e14","system_id":"levelo_inurba_marseille","lat":43.29919,"lon":5.37473,"is_reserved":false,"is_disabled":false,"rental_uris":{"android":"levelo://app?vid=165ef37c-2866-4a0d-89b9-884a287a5e14","ios":"levelo://app?vid=165ef37c-2866-4a0d-89b9-884a287a5e14"},"vehicle_type_id":"4","last_reported":1730853843,"current_range_meters":32800,"station_id":"ce4bgjh2rcd13ifvqbg0","pricing_plan_id":"cebpf4jnsgd1na2vs0mg"},{"bike_id":"6f2da1e6-b6b8-4fb6-b38b-97a891a1b680","system_id":"levelo_inurba_marseille","lat":43.30434,"lon":5.38898,"is_reserved":false,"is_disabled":false,"rental_uris":{"android":"levelo://app?vid=6f2da1e6-b6b8-4fb6-b38b-97a891a1b680","ios":"levelo://app?vid=6f2da1e6-b6b8-4fb6-b38b-97a891a1b680"},"vehicle_type_id":"4","last_reported":1730853843,"current_range_meters":35200,"station_id":"ce4bgk12rcd13ifvqbi0","pricing_plan_id":"cebpf4jnsgd1na2vs0mg"},{"bike_id":"35b06bc8-da46-4ba5-8c07-e31dde1f57ed","system_id":"levelo_inurba_marseille","lat":43.30348,"lon":5.40445,"is_reserved":false,"is_disabled":false,"rental_uris":{"android":"levelo://app?vid=35b06bc8-da46-4ba5-8c07-e31dde1f57ed","ios":"levelo://app?vid=35b06bc8-da46-4ba5-8c07-e31dde1f57ed"},"vehicle_type_id":"4","last_reported":1730853843,"current_range_meters":35600,"station_id":"ce4bh012rcd13ifvqd10","pricing_plan_id":"cebpf4jnsgd1na2vs0mg"},{"bike_id":"0d016970-3387-4420-8830-110d7dd6c7d6","system_id":"levelo_inurba_marseille","lat":43.31282,"lon":5.40165,"is_reserved":false,"is_disabled":false,"rental_uris":{"android":"levelo://app?vid=0d016970-3387-4420-8830-110d7dd6c7d6","ios":"levelo://app?vid=0d016970-3387-4420-8830-110d7dd6c7d6"},"vehicle_type_id":"4","last_reported":1730853843,"current_range_meters":36000,"station_id":"ce4bh092rcd13ifvqd30","pricing_plan_id":"cebpf4jnsgd1na2vs0mg"},{"bike_id":"d411cf03-cce4-4b68-b4d2-e257e743e03b","system_id":"levelo_inurba_marseille","lat":43.31074,"lon":5.38348,"is_reserved":false,"is_disabled":false,"rental_uris":{"android":"levelo://app?vid=d411cf03-cce4-4b68-b4d2-e257e743e03b","ios":"levelo://app?vid=d411cf03-cce4-4b68-b4d2-e257e743e03b"},"vehicle_type_id":"4","last_reported":1730853843,"current_range_meters":9200,"station_id":"ce4bgv92rcd13ifvqcr0","pricing_plan_id":"cebpf4jnsgd1na2vs0mg"},{"bike_id":"2f49d284-52bf-45d7-bda8-784d0ed3fdf6","system_id":"levelo_inurba_marseille","lat":43.29783,"lon":5.39357,"is_reserved":false,"is_disabled":false,"rental_uris":{"android":"levelo://app?vid=2f49d284-52bf-45d7-bda8-784d0ed3fdf6","ios":"levelo://app?vid=2f49d284-52bf-45d7-bda8-784d0ed3fdf6"},"vehicle_type_id":"4","last_reported":1730853843,"current_range_meters":37600,"station_id":"chh1huq6cuj3fo74tm60","pricing_plan_id":"cebpf4jnsgd1na2vs0mg"},{"bike_id":"805449ff-e867-4ae1-a652-2ac7e3173dea","system_id":"levelo_inurba_marseille","lat":43.29986,"lon":5.37172,"is_reserved":false,"is_disabled":false,"rental_uris":{"android":"levelo://app?vid=805449ff-e867-4ae1-a652-2ac7e3173dea","ios":"levelo://app?vid=805449ff-e867-4ae1-a652-2ac7e3173dea"},"vehicle_type_id":"4","last_reported":1730853843,"current_range_meters":24400,"station_id":"ce4bgr92rcd13ifvqc7g","pricing_plan_id":"cebpf4jnsgd1na2vs0mg"},{"bike_id":"70e0d61b-4d76-49a8-a13c-d24eda1de38e","system_id":"levelo_inurba_marseille","lat":43.29441,"lon":5.39743,"is_reserved":false,"is_disabled":false,"rental_uris":{"android":"levelo://app?vid=70e0d61b-4d76-49a8-a13c-d24eda1de38e","ios":"levelo://app?vid=70e0d61b-4d76-49a8-a13c-d24eda1de38e"},"vehicle_type_id":"4","last_reported":1730853843,"current_range_meters":39200,"station_id":"ce4bh3h2rcd13ifvqdo0","pricing_plan_id":"cebpf4jnsgd1na2vs0mg"},{"bike_id":"55c76d5d-4688-4758-8197-2f55229e36aa","system_id":"levelo_inurba_marseille","lat":43.25083,"lon":5.39515,"is_reserved":false,"is_disabled":false,"rental_uris":{"android":"levelo://app?vid=55c76d5d-4688-4758-8197-2f55229e36aa","ios":"levelo://app?vid=55c76d5d-4688-4758-8197-2f55229e36aa"},"vehicle_type_id":"4","last_reported":1730853843,"current_range_meters":33600,"station_id":"ce4bhm12rcd13ifvqgkg","pricing_plan_id":"cebpf4jnsgd1na2vs0mg"},{"bike_id":"26685491-9af1-4124-9930-9335357e2468","system_id":"levelo_inurba_marseille","lat":43.28933,"lon":5.36643,"is_reserved":false,"is_disabled":false,"rental_uris":{"android":"levelo://app?vid=26685491-9af1-4124-9930-9335357e2468","ios":"levelo://app?vid=26685491-9af1-4124-9930-9335357e2468"},"vehicle_type_id":"4","last_reported":1730853843,"current_range_meters":37600,"station_id":"ce4bhap2rcd13ifvqek0","pricing_plan_id":"cebpf4jnsgd1na2vs0mg"},{"bike_id":"c3cc4d3c-939d-4f3c-b1cc-4aa798cb58cc","system_id":"levelo_inurba_marseille","lat":43.28837,"lon":5.35855,"is_reserved":false,"is_disabled":false,"rental_uris":{"android":"levelo://app?vid=c3cc4d3c-939d-4f3c-b1cc-4aa798cb58cc","ios":"levelo://app?vid=c3cc4d3c-939d-4f3c-b1cc-4aa798cb58cc"},"vehicle_type_id":"4","last_reported":1730853843,"current_range_meters":38800,"station_id":"ce4bhb12rcd13ifvqem0","pricing_plan_id":"cebpf4jnsgd1na2vs0mg"},{"bike_id":"dacb3127-cf48-43ba-ac28-e87e8fb962d2","system_id":"levelo_inurba_marseille","lat":43.24073,"lon":5.37762,"is_reserved":false,"is_disabled":false,"rental_uris":{"android":"levelo://app?vid=dacb3127-cf48-43ba-ac28-e87e8fb962d2","ios":"levelo://app?vid=dacb3127-cf48-43ba-ac28-e87e8fb962d2"},"vehicle_type_id":"4","last_reported":1730853843,"current_range_meters":9200,"station_id":"ce4bhnp2rcd13ifvqgvg","pricing_plan_id":"cebpf4jnsgd1na2vs0mg"},{"bike_id":"954d8c79-64a8-4c84-8f7e-e8133903cc1f","system_id":"levelo_inurba_marseille","lat":43.2848,"lon":5.38545,"is_reserved":false,"is_disabled":false,"rental_uris":{"android":"levelo://app?vid=954d8c79-64a8-4c84-8f7e-e8133903cc1f","ios":"levelo://app?vid=954d8c79-64a8-4c84-8f7e-e8133903cc1f"},"vehicle_type_id":"4","last_reported":1730853843,"current_range_meters":36800,"station_id":"ce4bh8p2rcd13ifvqeb0","pricing_plan_id":"cebpf4jnsgd1na2vs0mg"},{"bike_id":"83c477a4-4eb7-416a-a5f1-380f0fe5c742","system_id":"levelo_inurba_marseille","lat":43.30325,"lon":5.40443,"is_reserved":false,"is_disabled":false,"rental_uris":{"android":"levelo://app?vid=83c477a4-4eb7-416a-a5f1-380f0fe5c742","ios":"levelo://app?vid=83c477a4-4eb7-416a-a5f1-380f0fe5c742"},"vehicle_type_id":"4","last_reported":1730853843,"current_range_meters":20400,"station_id":"ce4bh012rcd13ifvqd10","pricing_plan_id":"cebpf4jnsgd1na2vs0mg"},{"bike_id":"b6601711-195e-48fa-9b57-3829b0a3d5bf","system_id":"levelo_inurba_marseille","lat":43.31087,"lon":5.38341,"is_reserved":false,"is_disabled":false,"rental_uris":{"android":"levelo://app?vid=b6601711-195e-48fa-9b57-3829b0a3d5bf","ios":"levelo://app?vid=b6601711-195e-48fa-9b57-3829b0a3d5bf"},"vehicle_type_id":"4","last_reported":1730853843,"current_range_meters":37600,"station_id":"ce4bgv92rcd13ifvqcr0","pricing_plan_id":"cebpf4jnsgd1na2vs0mg"},{"bike_id":"afce958e-c83c-4b70-a2e0-54c65d8b1ce1","system_id":"levelo_inurba_marseille","lat":43.31491,"lon":5.37298,"is_reserved":false,"is_disabled":false,"rental_uris":{"android":"levelo://app?vid=afce958e-c83c-4b70-a2e0-54c65d8b1ce1","ios":"levelo://app?vid=afce958e-c83c-4b70-a2e0-54c65d8b1ce1"},"vehicle_type_id":"4","last_reported":1730853843,"current_range_meters":19600,"station_id":"ce4bgt12rcd13ifvqcd0","pricing_plan_id":"cebpf4jnsgd1na2vs0mg"},{"bike_id":"2bc44a94-bba1-4329-9bcc-c33d7bd87d68","system_id":"levelo_inurba_marseille","lat":43.29974,"lon":5.38493,"is_reserved":false,"is_disabled":false,"rental_uris":{"android":"levelo://app?vid=2bc44a94-bba1-4329-9bcc-c33d7bd87d68","ios":"levelo://app?vid=2bc44a94-bba1-4329-9bcc-c33d7bd87d68"},"vehicle_type_id":"4","last_reported":1730853843,"current_range_meters":8800,"station_id":"ce4bgj92rcd13ifvqbd0","pricing_plan_id":"cebpf4jnsgd1na2vs0mg"},{"bike_id":"9ede0290-953e-4cbc-a916-1a0a568da8ac","system_id":"levelo_inurba_marseille","lat":43.28697,"lon":5.39986,"is_reserved":false,"is_disabled":false,"rental_uris":{"android":"levelo://app?vid=9ede0290-953e-4cbc-a916-1a0a568da8ac","ios":"levelo://app?vid=9ede0290-953e-4cbc-a916-1a0a568da8ac"},"vehicle_type_id":"4","last_reported":1730853843,"current_range_meters":38800,"station_id":"ce4bho92rcd13ifvqh3g","pricing_plan_id":"cebpf4jnsgd1na2vs0mg"},{"bike_id":"0a3c1a6b-eadc-4e53-adb5-ce60bbc39060","system_id":"levelo_inurba_marseille","lat":43.33017,"lon":5.3903,"is_reserved":false,"is_disabled":false,"rental_uris":{"android":"levelo://app?vid=0a3c1a6b-eadc-4e53-adb5-ce60bbc39060","ios":"levelo://app?vid=0a3c1a6b-eadc-4e53-adb5-ce60bbc39060"},"vehicle_type_id":"4","last_reported":1730853843,"current_range_meters":38400,"station_id":"ce4bhr92rcd13ifvqhrg","pricing_plan_id":"cebpf4jnsgd1na2vs0mg"},{"bike_id":"1739efa0-1976-4011-90b0-49960d2daaa1","system_id":"levelo_inurba_marseille","lat":43.287145,"lon":5.37939,"is_reserved":false,"is_disabled":false,"rental_uris":{"android":"levelo://app?vid=1739efa0-1976-4011-90b0-49960d2daaa1","ios":"levelo://app?vid=1739efa0-1976-4011-90b0-49960d2daaa1"},"vehicle_type_id":"4","last_reported":1730853843,"current_range_meters":14800,"station_id":"ce4bh9p2rcd13ifvqec0","pricing_plan_id":"cebpf4jnsgd1na2vs0mg"},{"bike_id":"78748120-af8a-41ec-b8de-4729529d05ba","system_id":"levelo_inurba_marseille","lat":43.28104,"lon":5.37841,"is_reserved":false,"is_disabled":false,"rental_uris":{"android":"levelo://app?vid=78748120-af8a-41ec-b8de-4729529d05ba","ios":"levelo://app?vid=78748120-af8a-41ec-b8de-4729529d05ba"},"vehicle_type_id":"4","last_reported":1730853843,"current_range_meters":17200,"station_id":"ce4bha12rcd13ifvqee0","pricing_plan_id":"cebpf4jnsgd1na2vs0mg"},{"bike_id":"05751a2f-f18d-4f60-9cd6-747a374216a3","system_id":"levelo_inurba_marseille","lat":43.2318,"lon":5.39989,"is_reserved":false,"is_disabled":false,"rental_uris":{"android":"levelo://app?vid=05751a2f-f18d-4f60-9cd6-747a374216a3","ios":"levelo://app?vid=05751a2f-f18d-4f60-9cd6-747a374216a3"},"vehicle_type_id":"4","last_reported":1730853843,"current_range_meters":26000,"station_id":"ce4bhn12rcd13ifvqgqg","pricing_plan_id":"cebpf4jnsgd1na2vs0mg"},{"bike_id":"ac3085be-2aba-453a-b37c-d1057ee9d66b","system_id":"levelo_inurba_marseille","lat":43.31278,"lon":5.40164,"is_reserved":false,"is_disabled":false,"rental_uris":{"android":"levelo://app?vid=ac3085be-2aba-453a-b37c-d1057ee9d66b","ios":"levelo://app?vid=ac3085be-2aba-453a-b37c-d1057ee9d66b"},"vehicle_type_id":"4","last_reported":1730853843,"current_range_meters":8400,"station_id":"ce4bh092rcd13ifvqd30","pricing_plan_id":"cebpf4jnsgd1na2vs0mg"},{"bike_id":"643a302e-be1e-423e-a059-c5779e611f73","system_id":"levelo_inurba_marseille","lat":43.2873,"lon":5.36084,"is_reserved":false,"is_disabled":false,"rental_uris":{"android":"levelo://app?vid=643a302e-be1e-423e-a059-c5779e611f73","ios":"levelo://app?vid=643a302e-be1e-423e-a059-c5779e611f73"},"vehicle_type_id":"4","last_reported":1730853843,"current_range_meters":39200,"station_id":"cki0cbj6b192h4jlfktg","pricing_plan_id":"cebpf4jnsgd1na2vs0mg"},{"bike_id":"82f5c55c-8fe7-4521-a75c-179bf85b9ff8","system_id":"levelo_inurba_marseille","lat":43.32657,"lon":5.40997,"is_reserved":false,"is_disabled":false,"rental_uris":{"android":"levelo://app?vid=82f5c55c-8fe7-4521-a75c-179bf85b9ff8","ios":"levelo://app?vid=82f5c55c-8fe7-4521-a75c-179bf85b9ff8"},"vehicle_type_id":"4","last_reported":1730853843,"current_range_meters":38800,"station_id":"ce4bhpp2rcd13ifvqhgg","pricing_plan_id":"cebpf4jnsgd1na2vs0mg"},{"bike_id":"671ee801-ed83-4222-b723-723fea4dce62","system_id":"levelo_inurba_marseille","lat":43.27844,"lon":5.40721,"is_reserved":false,"is_disabled":false,"rental_uris":{"android":"levelo://app?vid=671ee801-ed83-4222-b723-723fea4dce62","ios":"levelo://app?vid=671ee801-ed83-4222-b723-723fea4dce62"},"vehicle_type_id":"4","last_reported":1730853843,"current_range_meters":32800,"station_id":"ce4bhnh2rcd13ifvqgtg","pricing_plan_id":"cebpf4jnsgd1na2vs0mg"},{"bike_id":"818f01a2-70c1-4282-8f3e-a5df75b74421","system_id":"levelo_inurba_marseille","lat":43.23154,"lon":5.43708,"is_reserved":false,"is_disabled":false,"rental_uris":{"android":"levelo://app?vid=818f01a2-70c1-4282-8f3e-a5df75b74421","ios":"levelo://app?vid=818f01a2-70c1-4282-8f3e-a5df75b74421"},"vehicle_type_id":"4","last_reported":1730853843,"current_range_meters":19200,"station_id":"ce4bhmp2rcd13ifvqgog","pricing_plan_id":"cebpf4jnsgd1na2vs0mg"},{"bike_id":"4413b06b-e470-4acd-9de6-90c3837b91a4","system_id":"levelo_inurba_marseille","lat":43.30129,"lon":5.39867,"is_reserved":false,"is_disabled":false,"rental_uris":{"android":"levelo://app?vid=4413b06b-e470-4acd-9de6-90c3837b91a4","ios":"levelo://app?vid=4413b06b-e470-4acd-9de6-90c3837b91a4"},"vehicle_type_id":"4","last_reported":1730853843,"current_range_meters":27600,"station_id":"ce4bh0h2rcd13ifvqd40","pricing_plan_id":"cebpf4jnsgd1na2vs0mg"},{"bike_id":"333b0aae-276c-4843-ac1a-6be197ab7b09","system_id":"levelo_inurba_marseille","lat":43.28344,"lon":5.38106,"is_reserved":false,"is_disabled":false,"rental_uris":{"android":"levelo://app?vid=333b0aae-276c-4843-ac1a-6be197ab7b09","ios":"levelo://app?vid=333b0aae-276c-4843-ac1a-6be197ab7b09"},"vehicle_type_id":"4","last_reported":1730853843,"current_range_meters":38800,"station_id":"ce4bh412rcd13ifvqdr0","pricing_plan_id":"cebpf4jnsgd1na2vs0mg"},{"bike_id":"8770241d-63e5-44fd-b573-c66afef6a3ba","system_id":"levelo_inurba_marseille","lat":43.29191,"lon":5.39318,"is_reserved":false,"is_disabled":false,"rental_uris":{"android":"levelo://app?vid=8770241d-63e5-44fd-b573-c66afef6a3ba","ios":"levelo://app?vid=8770241d-63e5-44fd-b573-c66afef6a3ba"},"vehicle_type_id":"4","last_reported":1730853843,"current_range_meters":36800,"station_id":"ce4bh192rcd13ifvqdd0","pricing_plan_id":"cebpf4jnsgd1na2vs0mg"},{"bike_id":"9d3d6aac-ae92-4938-b44d-7a31517f4a57","system_id":"levelo_inurba_marseille","lat":43.29794,"lon":5.38098,"is_reserved":false,"is_disabled":false,"rental_uris":{"android":"levelo://app?vid=9d3d6aac-ae92-4938-b44d-7a31517f4a57","ios":"levelo://app?vid=9d3d6aac-ae92-4938-b44d-7a31517f4a57"},"vehicle_type_id":"4","last_reported":1730853843,"current_range_meters":38800,"station_id":"ce4bgip2rcd13ifvqbb0","pricing_plan_id":"cebpf4jnsgd1na2vs0mg"},{"bike_id":"3f0696ec-aadd-463c-8fb4-d52baf1529f6","system_id":"levelo_inurba_marseille","lat":43.31068,"lon":5.38351,"is_reserved":false,"is_disabled":false,"rental_uris":{"android":"levelo://app?vid=3f0696ec-aadd-463c-8fb4-d52baf1529f6","ios":"levelo://app?vid=3f0696ec-aadd-463c-8fb4-d52baf1529f6"},"vehicle_type_id":"4","last_reported":1730853843,"current_range_meters":32400,"station_id":"ce4bgv92rcd13ifvqcr0","pricing_plan_id":"cebpf4jnsgd1na2vs0mg"},{"bike_id":"d8ec9817-ff98-4d9d-aa83-ca5854d168e7","system_id":"levelo_inurba_marseille","lat":43.25865,"lon":5.399,"is_reserved":false,"is_disabled":false,"rental_uris":{"android":"levelo://app?vid=d8ec9817-ff98-4d9d-aa83-ca5854d168e7","ios":"levelo://app?vid=d8ec9817-ff98-4d9d-aa83-ca5854d168e7"},"vehicle_type_id":"4","last_reported":1730853843,"current_range_meters":11200,"station_id":"ce4bhl92rcd13ifvqghg","pricing_plan_id":"cebpf4jnsgd1na2vs0mg"},{"bike_id":"83675056-f7fe-445c-8154-3884f1a3657c","system_id":"levelo_inurba_marseille","lat":43.24071,"lon":5.37768,"is_reserved":false,"is_disabled":false,"rental_uris":{"android":"levelo://app?vid=83675056-f7fe-445c-8154-3884f1a3657c","ios":"levelo://app?vid=83675056-f7fe-445c-8154-3884f1a3657c"},"vehicle_type_id":"4","last_reported":1730853843,"current_range_meters":32000,"station_id":"ce4bhnp2rcd13ifvqgvg","pricing_plan_id":"cebpf4jnsgd1na2vs0mg"},{"bike_id":"ae154c72-0d7a-4340-abc3-faa7d5d4bee5","system_id":"levelo_inurba_marseille","lat":43.26941,"lon":5.4025,"is_reserved":false,"is_disabled":false,"rental_uris":{"android":"levelo://app?vid=ae154c72-0d7a-4340-abc3-faa7d5d4bee5","ios":"levelo://app?vid=ae154c72-0d7a-4340-abc3-faa7d5d4bee5"},"vehicle_type_id":"4","last_reported":1730853843,"current_range_meters":34000,"station_id":"cjm6bp8fraef2m0cb0m0","pricing_plan_id":"cebpf4jnsgd1na2vs0mg"},{"bike_id":"ebeb89f9-416e-487c-98db-accaa64ac807","system_id":"levelo_inurba_marseille","lat":43.2803,"lon":5.36947,"is_reserved":false,"is_disabled":false,"rental_uris":{"android":"levelo://app?vid=ebeb89f9-416e-487c-98db-accaa64ac807","ios":"levelo://app?vid=ebeb89f9-416e-487c-98db-accaa64ac807"},"vehicle_type_id":"4","last_reported":1730853843,"current_range_meters":16000,"station_id":"ce4bha12rcd13ifvqef0","pricing_plan_id":"cebpf4jnsgd1na2vs0mg"},{"bike_id":"f3dc2158-5498-494b-92da-eb30ba02261e","system_id":"levelo_inurba_marseille","lat":43.27912,"lon":5.37998,"is_reserved":false,"is_disabled":false,"rental_uris":{"android":"levelo://app?vid=f3dc2158-5498-494b-92da-eb30ba02261e","ios":"levelo://app?vid=f3dc2158-5498-494b-92da-eb30ba02261e"},"vehicle_type_id":"4","last_reported":1730853843,"current_range_meters":38800,"station_id":"ce4bhf92rcd13ifvqf50","pricing_plan_id":"cebpf4jnsgd1na2vs0mg"},{"bike_id":"dad0908f-bfaa-4024-9822-97e3adf99f6b","system_id":"levelo_inurba_marseille","lat":43.29793,"lon":5.38103,"is_reserved":false,"is_disabled":false,"rental_uris":{"android":"levelo://app?vid=dad0908f-bfaa-4024-9822-97e3adf99f6b","ios":"levelo://app?vid=dad0908f-bfaa-4024-9822-97e3adf99f6b"},"vehicle_type_id":"4","last_reported":1730853843,"current_range_meters":34800,"station_id":"ce4bgip2rcd13ifvqbb0","pricing_plan_id":"cebpf4jnsgd1na2vs0mg"},{"bike_id":"878d907b-00e7-4742-bff4-0294b4cce6c6","system_id":"levelo_inurba_marseille","lat":43.28481,"lon":5.38413,"is_reserved":false,"is_disabled":false,"rental_uris":{"android":"levelo://app?vid=878d907b-00e7-4742-bff4-0294b4cce6c6","ios":"levelo://app?vid=878d907b-00e7-4742-bff4-0294b4cce6c6"},"vehicle_type_id":"4","last_reported":1730853843,"current_range_meters":38800,"station_id":"ce4bh512rcd13ifvqe3g","pricing_plan_id":"cebpf4jnsgd1na2vs0mg"},{"bike_id":"5d4cf290-2292-4a3f-a1cd-99091d4ab8ee","system_id":"levelo_inurba_marseille","lat":43.32364,"lon":5.38883,"is_reserved":false,"is_disabled":false,"rental_uris":{"android":"levelo://app?vid=5d4cf290-2292-4a3f-a1cd-99091d4ab8ee","ios":"levelo://app?vid=5d4cf290-2292-4a3f-a1cd-99091d4ab8ee"},"vehicle_type_id":"4","last_reported":1730853843,"current_range_meters":38800,"station_id":"ce4bhqp2rcd13ifvqhog","pricing_plan_id":"cebpf4jnsgd1na2vs0mg"},{"bike_id":"9048ebe6-0239-470a-af7d-c5634530ba1b","system_id":"levelo_inurba_marseille","lat":43.33024,"lon":5.39042,"is_reserved":false,"is_disabled":false,"rental_uris":{"android":"levelo://app?vid=9048ebe6-0239-470a-af7d-c5634530ba1b","ios":"levelo://app?vid=9048ebe6-0239-470a-af7d-c5634530ba1b"},"vehicle_type_id":"4","last_reported":1730853843,"current_range_meters":24000,"station_id":"ce4bhr92rcd13ifvqhrg","pricing_plan_id":"cebpf4jnsgd1na2vs0mg"},{"bike_id":"d9338a35-0678-4248-9fdb-bffe4f819910","system_id":"levelo_inurba_marseille","lat":43.30804,"lon":5.38144,"is_reserved":false,"is_disabled":false,"rental_uris":{"android":"levelo://app?vid=d9338a35-0678-4248-9fdb-bffe4f819910","ios":"levelo://app?vid=d9338a35-0678-4248-9fdb-bffe4f819910"},"vehicle_type_id":"4","last_reported":1730853843,"current_range_meters":36800,"station_id":"ce4bgt12rcd13ifvqce0","pricing_plan_id":"cebpf4jnsgd1na2vs0mg"},{"bike_id":"ce1990ac-3390-413c-9a93-5d1336a43aa1","system_id":"levelo_inurba_marseille","lat":43.27382,"lon":5.36254,"is_reserved":false,"is_disabled":false,"rental_uris":{"android":"levelo://app?vid=ce1990ac-3390-413c-9a93-5d1336a43aa1","ios":"levelo://app?vid=ce1990ac-3390-413c-9a93-5d1336a43aa1"},"vehicle_type_id":"4","last_reported":1730853843,"current_range_meters":38000,"station_id":"ce4bhbh2rcd13ifvqeo0","pricing_plan_id":"cebpf4jnsgd1na2vs0mg"},{"bike_id":"1d27b3a1-f13e-4920-8c40-27faf2c97a48","system_id":"levelo_inurba_marseille","lat":43.2319,"lon":5.3556,"is_reserved":false,"is_disabled":false,"rental_uris":{"android":"levelo://app?vid=1d27b3a1-f13e-4920-8c40-27faf2c97a48","ios":"levelo://app?vid=1d27b3a1-f13e-4920-8c40-27faf2c97a48"},"vehicle_type_id":"4","last_reported":1730853843,"current_range_meters":38800,"station_id":"ce4bhu92rcd13ifvqi70","pricing_plan_id":"cebpf4jnsgd1na2vs0mg"},{"bike_id":"3f3041da-8424-4cc3-a139-fd8a99ad9a6c","system_id":"levelo_inurba_marseille","lat":43.33606,"lon":5.41034,"is_reserved":false,"is_disabled":false,"rental_uris":{"android":"levelo://app?vid=3f3041da-8424-4cc3-a139-fd8a99ad9a6c","ios":"levelo://app?vid=3f3041da-8424-4cc3-a139-fd8a99ad9a6c"},"vehicle_type_id":"4","last_reported":1730853843,"current_range_meters":16800,"station_id":"ce4bhqh2rcd13ifvqhmg","pricing_plan_id":"cebpf4jnsgd1na2vs0mg"},{"bike_id":"21ada0ba-3690-4b1c-9dd6-116e87f878cc","system_id":"levelo_inurba_marseille","lat":43.311115,"lon":5.369459,"is_reserved":false,"is_disabled":false,"rental_uris":{"android":"levelo://app?vid=21ada0ba-3690-4b1c-9dd6-116e87f878cc","ios":"levelo://app?vid=21ada0ba-3690-4b1c-9dd6-116e87f878cc"},"vehicle_type_id":"4","last_reported":1730853843,"current_range_meters":37600,"station_id":"ce4bgt12rcd13ifvqcd0","pricing_plan_id":"cebpf4jnsgd1na2vs0mg"},{"bike_id":"cb87361d-d664-4f06-9d00-79de4d552fc1","system_id":"levelo_inurba_marseille","lat":43.24072,"lon":5.37765,"is_reserved":false,"is_disabled":false,"rental_uris":{"android":"levelo://app?vid=cb87361d-d664-4f06-9d00-79de4d552fc1","ios":"levelo://app?vid=cb87361d-d664-4f06-9d00-79de4d552fc1"},"vehicle_type_id":"4","last_reported":1730853843,"current_range_meters":38800,"station_id":"ce4bhnp2rcd13ifvqgvg","pricing_plan_id":"cebpf4jnsgd1na2vs0mg"},{"bike_id":"56175641-0e17-46f3-8248-f1a54a8f0529","system_id":"levelo_inurba_marseille","lat":43.24181,"lon":5.39736,"is_reserved":false,"is_disabled":false,"rental_uris":{"android":"levelo://app?vid=56175641-0e17-46f3-8248-f1a54a8f0529","ios":"levelo://app?vid=56175641-0e17-46f3-8248-f1a54a8f0529"},"vehicle_type_id":"4","last_reported":1730853843,"current_range_meters":38000,"station_id":"ce4bhn12rcd13ifvqgpg","pricing_plan_id":"cebpf4jnsgd1na2vs0mg"},{"bike_id":"5a21dff0-5257-44a0-8628-b52b6f2dcfaa","system_id":"levelo_inurba_marseille","lat":43.30797,"lon":5.38147,"is_reserved":false,"is_disabled":false,"rental_uris":{"android":"levelo://app?vid=5a21dff0-5257-44a0-8628-b52b6f2dcfaa","ios":"levelo://app?vid=5a21dff0-5257-44a0-8628-b52b6f2dcfaa"},"vehicle_type_id":"4","last_reported":1730853843,"current_range_meters":19200,"station_id":"ce4bgt12rcd13ifvqce0","pricing_plan_id":"cebpf4jnsgd1na2vs0mg"},{"bike_id":"b2a201f8-3cd5-4b26-96c1-71715b360909","system_id":"levelo_inurba_marseille","lat":43.28258,"lon":5.35058,"is_reserved":false,"is_disabled":false,"rental_uris":{"android":"levelo://app?vid=b2a201f8-3cd5-4b26-96c1-71715b360909","ios":"levelo://app?vid=b2a201f8-3cd5-4b26-96c1-71715b360909"},"vehicle_type_id":"4","last_reported":1730853843,"current_range_meters":38800,"station_id":"ce4bhbp2rcd13ifvqerg","pricing_plan_id":"cebpf4jnsgd1na2vs0mg"},{"bike_id":"f07fbcaf-8661-42ff-b1a9-f658a7b10760","system_id":"levelo_inurba_marseille","lat":43.23964,"lon":5.36638,"is_reserved":false,"is_disabled":false,"rental_uris":{"android":"levelo://app?vid=f07fbcaf-8661-42ff-b1a9-f658a7b10760","ios":"levelo://app?vid=f07fbcaf-8661-42ff-b1a9-f658a7b10760"},"vehicle_type_id":"4","last_reported":1730853843,"current_range_meters":38800,"station_id":"ce4bhi12rcd13ifvqfp0","pricing_plan_id":"cebpf4jnsgd1na2vs0mg"},{"bike_id":"891b63ae-eb77-4dae-85e1-2c16ae2137b9","system_id":"levelo_inurba_marseille","lat":43.31277,"lon":5.40169,"is_reserved":false,"is_disabled":false,"rental_uris":{"android":"levelo://app?vid=891b63ae-eb77-4dae-85e1-2c16ae2137b9","ios":"levelo://app?vid=891b63ae-eb77-4dae-85e1-2c16ae2137b9"},"vehicle_type_id":"4","last_reported":1730853843,"current_range_meters":33600,"station_id":"ce4bh092rcd13ifvqd30","pricing_plan_id":"cebpf4jnsgd1na2vs0mg"},{"bike_id":"9c07c115-8458-42eb-a90e-dec43e520f3f","system_id":"levelo_inurba_marseille","lat":43.26025,"lon":5.3755,"is_reserved":false,"is_disabled":false,"rental_uris":{"android":"levelo://app?vid=9c07c115-8458-42eb-a90e-dec43e520f3f","ios":"levelo://app?vid=9c07c115-8458-42eb-a90e-dec43e520f3f"},"vehicle_type_id":"4","last_reported":1730853843,"current_range_meters":38800,"station_id":"ce4bhgh2rcd13ifvqfa0","pricing_plan_id":"cebpf4jnsgd1na2vs0mg"},{"bike_id":"1f82a49a-8bc9-4fae-a335-8306d7ae1cc9","system_id":"levelo_inurba_marseille","lat":43.2848,"lon":5.38415,"is_reserved":false,"is_disabled":false,"rental_uris":{"android":"levelo://app?vid=1f82a49a-8bc9-4fae-a335-8306d7ae1cc9","ios":"levelo://app?vid=1f82a49a-8bc9-4fae-a335-8306d7ae1cc9"},"vehicle_type_id":"4","last_reported":1730853843,"current_range_meters":38000,"station_id":"ce4bh512rcd13ifvqe3g","pricing_plan_id":"cebpf4jnsgd1na2vs0mg"},{"bike_id":"e7874ce2-f692-46c5-87b4-56890b100158","system_id":"levelo_inurba_marseille","lat":43.23064,"lon":5.35496,"is_reserved":false,"is_disabled":false,"rental_uris":{"android":"levelo://app?vid=e7874ce2-f692-46c5-87b4-56890b100158","ios":"levelo://app?vid=e7874ce2-f692-46c5-87b4-56890b100158"},"vehicle_type_id":"4","last_reported":1730853843,"current_range_meters":38400,"station_id":"cpo3342slgdg3j2ifvpg","pricing_plan_id":"cebpf4jnsgd1na2vs0mg"},{"bike_id":"ab4c9a5e-3ec7-4b95-a1e8-ea21270d7c43","system_id":"levelo_inurba_marseille","lat":43.26683,"lon":5.38272,"is_reserved":false,"is_disabled":false,"rental_uris":{"android":"levelo://app?vid=ab4c9a5e-3ec7-4b95-a1e8-ea21270d7c43","ios":"levelo://app?vid=ab4c9a5e-3ec7-4b95-a1e8-ea21270d7c43"},"vehicle_type_id":"4","last_reported":1730853843,"current_range_meters":27200,"station_id":"ce4bhg92rcd13ifvqf90","pricing_plan_id":"cebpf4jnsgd1na2vs0mg"},{"bike_id":"9e511375-4e3b-45de-b69b-9aca0ee97715","system_id":"levelo_inurba_marseille","lat":43.31892,"lon":5.4073,"is_reserved":false,"is_disabled":false,"rental_uris":{"android":"levelo://app?vid=9e511375-4e3b-45de-b69b-9aca0ee97715","ios":"levelo://app?vid=9e511375-4e3b-45de-b69b-9aca0ee97715"},"vehicle_type_id":"4","last_reported":1730853843,"current_range_meters":38800,"station_id":"ce4bhq12rcd13ifvqhig","pricing_plan_id":"cebpf4jnsgd1na2vs0mg"},{"bike_id":"b19bc3e4-8d0b-4d44-8d1b-f2a0e72dd29b","system_id":"levelo_inurba_marseille","lat":43.31279,"lon":5.40162,"is_reserved":false,"is_disabled":false,"rental_uris":{"android":"levelo://app?vid=b19bc3e4-8d0b-4d44-8d1b-f2a0e72dd29b","ios":"levelo://app?vid=b19bc3e4-8d0b-4d44-8d1b-f2a0e72dd29b"},"vehicle_type_id":"4","last_reported":1730853843,"current_range_meters":22800,"station_id":"ce4bh092rcd13ifvqd30","pricing_plan_id":"cebpf4jnsgd1na2vs0mg"},{"bike_id":"61e46dc7-33b6-44f4-b019-eab4672cee09","system_id":"levelo_inurba_marseille","lat":43.28702,"lon":5.39984,"is_reserved":false,"is_disabled":false,"rental_uris":{"android":"levelo://app?vid=61e46dc7-33b6-44f4-b019-eab4672cee09","ios":"levelo://app?vid=61e46dc7-33b6-44f4-b019-eab4672cee09"},"vehicle_type_id":"4","last_reported":1730853843,"current_range_meters":39200,"station_id":"ce4bho92rcd13ifvqh3g","pricing_plan_id":"cebpf4jnsgd1na2vs0mg"},{"bike_id":"4e9078bc-bc86-41b0-88b1-feae4c3c5785","system_id":"levelo_inurba_marseille","lat":43.24808,"lon":5.37452,"is_reserved":false,"is_disabled":false,"rental_uris":{"android":"levelo://app?vid=4e9078bc-bc86-41b0-88b1-feae4c3c5785","ios":"levelo://app?vid=4e9078bc-bc86-41b0-88b1-feae4c3c5785"},"vehicle_type_id":"4","last_reported":1730853843,"current_range_meters":17600,"station_id":"ce4bhgh2rcd13ifvqfb0","pricing_plan_id":"cebpf4jnsgd1na2vs0mg"},{"bike_id":"c2f1d062-5a39-412a-b7da-8b6a187914f0","system_id":"levelo_inurba_marseille","lat":43.29885,"lon":5.38901,"is_reserved":false,"is_disabled":false,"rental_uris":{"android":"levelo://app?vid=c2f1d062-5a39-412a-b7da-8b6a187914f0","ios":"levelo://app?vid=c2f1d062-5a39-412a-b7da-8b6a187914f0"},"vehicle_type_id":"4","last_reported":1730853843,"current_range_meters":36000,"station_id":"ce4bh392rcd13ifvqdl0","pricing_plan_id":"cebpf4jnsgd1na2vs0mg"},{"bike_id":"1ad90c90-34d5-44dd-8036-6a38b76660f0","system_id":"levelo_inurba_marseille","lat":43.31273,"lon":5.40162,"is_reserved":false,"is_disabled":false,"rental_uris":{"android":"levelo://app?vid=1ad90c90-34d5-44dd-8036-6a38b76660f0","ios":"levelo://app?vid=1ad90c90-34d5-44dd-8036-6a38b76660f0"},"vehicle_type_id":"4","last_reported":1730853843,"current_range_meters":39200,"station_id":"ce4bh092rcd13ifvqd30","pricing_plan_id":"cebpf4jnsgd1na2vs0mg"},{"bike_id":"97f53153-f9bd-4b8d-94f5-881ade138b33","system_id":"levelo_inurba_marseille","lat":43.2998,"lon":5.37188,"is_reserved":false,"is_disabled":false,"rental_uris":{"android":"levelo://app?vid=97f53153-f9bd-4b8d-94f5-881ade138b33","ios":"levelo://app?vid=97f53153-f9bd-4b8d-94f5-881ade138b33"},"vehicle_type_id":"4","last_reported":1730853843,"current_range_meters":24400,"station_id":"ce4bgr92rcd13ifvqc7g","pricing_plan_id":"cebpf4jnsgd1na2vs0mg"},{"bike_id":"2dec5a23-0bb5-46c0-b966-abfd7bdb9b86","system_id":"levelo_inurba_marseille","lat":43.27994,"lon":5.40014,"is_reserved":false,"is_disabled":false,"rental_uris":{"android":"levelo://app?vid=2dec5a23-0bb5-46c0-b966-abfd7bdb9b86","ios":"levelo://app?vid=2dec5a23-0bb5-46c0-b966-abfd7bdb9b86"},"vehicle_type_id":"4","last_reported":1730853843,"current_range_meters":38800,"station_id":"ce4bho92rcd13ifvqh4g","pricing_plan_id":"cebpf4jnsgd1na2vs0mg"},{"bike_id":"9bf51cfd-59f7-461a-a1ce-1f518512b7ef","system_id":"levelo_inurba_marseille","lat":43.23963,"lon":5.36636,"is_reserved":false,"is_disabled":false,"rental_uris":{"android":"levelo://app?vid=9bf51cfd-59f7-461a-a1ce-1f518512b7ef","ios":"levelo://app?vid=9bf51cfd-59f7-461a-a1ce-1f518512b7ef"},"vehicle_type_id":"4","last_reported":1730853843,"current_range_meters":12800,"station_id":"ce4bhi12rcd13ifvqfp0","pricing_plan_id":"cebpf4jnsgd1na2vs0mg"},{"bike_id":"135c3b53-6426-4bf7-839f-40130cd6fa0f","system_id":"levelo_inurba_marseille","lat":43.30257,"lon":5.40081,"is_reserved":false,"is_disabled":false,"rental_uris":{"android":"levelo://app?vid=135c3b53-6426-4bf7-839f-40130cd6fa0f","ios":"levelo://app?vid=135c3b53-6426-4bf7-839f-40130cd6fa0f"},