{"last_updated":1731341435,"ttl":60,"version":"2.2","data":{"bikes":[{"bike_id":"29f6b7c2-0acd-4bb4-90a3-9d554a916ed0","system_id":"levelo_inurba_marseille","lat":43.24673,"lon":5.38171,"is_reserved":false,"is_disabled":false,"rental_uris":{"android":"levelo://app?vid=29f6b7c2-0acd-4bb4-90a3-9d554a916ed0","ios":"levelo://app?vid=29f6b7c2-0acd-4bb4-90a3-9d554a916ed0"},"vehicle_type_id":"4","last_reported":1731341435,"current_range_meters":34800,"station_id":"ce4bhih2rcd13ifvqfr0","pricing_plan_id":"cebpf4jnsgd1na2vs0mg"},{"bike_id":"55f338da-564d-4339-bcb5-5d0a4b68c4e6","system_id":"levelo_inurba_marseille","lat":43.31047,"lon":5.40099,"is_reserved":false,"is_disabled":false,"rental_uris":{"android":"levelo://app?vid=55f338da-564d-4339-bcb5-5d0a4b68c4e6","ios":"levelo://app?vid=55f338da-564d-4339-bcb5-5d0a4b68c4e6"},"vehicle_type_id":"4","last_reported":1731341435,"current_range_meters":6800,"station_id":"","pricing_plan_id":"cebpf4jnsgd1na2vs0mg"},{"bike_id":"95e4920f-94c2-48f5-b4b4-0a16389ea401","system_id":"levelo_inurba_marseille","lat":43.29195,"lon":5.35804,"is_reserved":false,"is_disabled":false,"rental_uris":{"android":"levelo://app?vid=95e4920f-94c2-48f5-b4b4-0a16389ea401","ios":"levelo://app?vid=95e4920f-94c2-48f5-b4b4-0a16389ea401"},"vehicle_type_id":"4","last_reported":1731341435,"current_range_meters":0,"station_id":"ce4bhb12rcd13ifvqel0","pricing_plan_id":"cebpf4jnsgd1na2vs0mg"},{"bike_id":"9cc7b497-4855-48c7-8f7f-590ef1f2381d","system_id":"levelo_inurba_marseille","lat":43.26067,"lon":5.39403,"is_reserved":false,"is_disabled":false,"rental_uris":{"android":"levelo://app?vid=9cc7b497-4855-48c7-8f7f-590ef1f2381d","ios":"levelo://app?vid=9cc7b497-4855-48c7-8f7f-590ef1f2381d"},"vehicle_type_id":"4","last_reported":1731341435,"current_range_meters":8000,"station_id":"ce4bhh92rcd13ifvqfj0","pricing_plan_id":"cebpf4jnsgd1na2vs0mg"},{"bike_id":"70af172d-98d4-42fb-b95d-10bd72339aa2","system_id":"levelo_inurba_marseille","lat":43.27617,"lon":5.36115,"is_reserved":false,"is_disabled":false,"rental_uris":{"android":"levelo://app?vid=70af172d-98d4-42fb-b95d-10bd72339aa2","ios":"levelo://app?vid=70af172d-98d4-42fb-b95d-10bd72339aa2"},"vehicle_type_id":"4","last_reported":1731341435,"current_range_meters":39200,"station_id":"ce4bgj92rcd13ifvqbe0","pricing_plan_id":"cebpf4jnsgd1na2vs0mg"},{"bike_id":"26a70235-a153-4467-9b9a-0174c0606597","system_id":"levelo_inurba_marseille","lat":43.28615,"lon":5.35108,"is_reserved":false,"is_disabled":false,"rental_uris":{"android":"levelo://app?vid=26a70235-a153-4467-9b9a-0174c0606597","ios":"levelo://app?vid=26a70235-a153-4467-9b9a-0174c0606597"},"vehicle_type_id":"4","last_reported":1731341435,"current_range_meters":33600,"station_id":"ce4bhch2rcd13ifvqeug","pricing_plan_id":"cebpf4jnsgd1na2vs0mg"},{"bike_id":"e2a3f2c0-c11d-4c6c-a0c3-ac78c2bb0c4a","system_id":"levelo_inurba_marseille","lat":43.30898,"lon":5.37199,"is_reserved":false,"is_disabled":false,"rental_uris":{"android":"levelo://app?vid=e2a3f2c0-c11d-4c6c-a0c3-ac78c2bb0c4a","ios":"levelo://app?vid=e2a3f2c0-c11d-4c6c-a0c3-ac78c2bb0c4a"},"vehicle_type_id":"4","last_reported":1731341435,"current_range_meters":20000,"station_id":"ce4bguh2rcd13ifvqckg","pricing_plan_id":"cebpf4jnsgd1na2vs0mg"},{"bike_id":"d2c1fb59-08cf-4886-bdef-b5fac3c49007","system_id":"levelo_inurba_marseille","lat":43.28417,"lon":5.35922,"is_reserved":false,"is_disabled":false,"rental_uris":{"android":"levelo://app?vid=d2c1fb59-08cf-4886-bdef-b5fac3c49007","ios":"levelo://app?vid=d2c1fb59-08cf-4886-bdef-b5fac3c49007"},"vehicle_type_id":"4","last_reported":1731341435,"current_range_meters":36800,"station_id":"ce4bhah2rcd13ifvqei0","pricing_plan_id":"cebpf4jnsgd1na2vs0mg"},{"bike_id":"28350b20-6663-4acb-871a-090d11484da5","system_id":"levelo_inurba_marseille","lat":43.28034,"lon":5.36954,"is_reserved":false,"is_disabled":false,"rental_uris":{"android":"levelo://app?vid=28350b20-6663-4acb-871a-090d11484da5","ios":"levelo://app?vid=28350b20-6663-4acb-871a-090d11484da5"},"vehicle_type_id":"4","last_reported":1731341435,"current_range_meters":38400,"station_id":"ce4bha12rcd13ifvqef0","pricing_plan_id":"cebpf4jnsgd1na2vs0mg"},{"bike_id":"21dde677-107f-4b15-a499-7a4daf4d2706","system_id":"levelo_inurba_marseille","lat":43.25581,"lon":5.38237,"is_reserved":false,"is_disabled":false,"rental_uris":{"android":"levelo://app?vid=21dde677-107f-4b15-a499-7a4daf4d2706","ios":"levelo://app?vid=21dde677-107f-4b15-a499-7a4daf4d2706"},"vehicle_type_id":"4","last_reported":1731341435,"current_range_meters":30400,"station_id":"ce4bhih2rcd13ifvqfs0","pricing_plan_id":"cebpf4jnsgd1na2vs0mg"},{"bike_id":"a1ecb850-21e1-449e-a877-c997499f3703","system_id":"levelo_inurba_marseille","lat":43.29102,"lon":5.38117,"is_reserved":false,"is_disabled":false,"rental_uris":{"android":"levelo://app?vid=a1ecb850-21e1-449e-a877-c997499f3703","ios":"levelo://app?vid=a1ecb850-21e1-449e-a877-c997499f3703"},"vehicle_type_id":"4","last_reported":1731341435,"current_range_meters":8000,"station_id":"ce4bh512rcd13ifvqe2g","pricing_plan_id":"cebpf4jnsgd1na2vs0mg"},{"bike_id":"dc80f759-1532-44d3-9c84-e35f011f1f99","system_id":"levelo_inurba_marseille","lat":43.29303,"lon":5.375731,"is_reserved":false,"is_disabled":false,"rental_uris":{"android":"levelo://app?vid=dc80f759-1532-44d3-9c84-e35f011f1f99","ios":"levelo://app?vid=dc80f759-1532-44d3-9c84-e35f011f1f99"},"vehicle_type_id":"4","last_reported":1731341435,"current_range_meters":23200,"station_id":"ce4bhg12rcd13ifvqf80","pricing_plan_id":"cebpf4jnsgd1na2vs0mg"},{"bike_id":"1ec31f50-d96c-47c6-9806-96f227089cd4","system_id":"levelo_inurba_marseille","lat":43.27493,"lon":5.42455,"is_reserved":false,"is_disabled":false,"rental_uris":{"android":"levelo://app?vid=1ec31f50-d96c-47c6-9806-96f227089cd4","ios":"levelo://app?vid=1ec31f50-d96c-47c6-9806-96f227089cd4"},"vehicle_type_id":"4","last_reported":1731341435,"current_range_meters":36800,"station_id":"ce4bhn92rcd13ifvqgrg","pricing_plan_id":"cebpf4jnsgd1na2vs0mg"},{"bike_id":"59a13651-d647-4c48-9fad-7dead49c757f","system_id":"levelo_inurba_marseille","lat":43.298706,"lon":5.397356,"is_reserved":false,"is_disabled":false,"rental_uris":{"android":"levelo://app?vid=59a13651-d647-4c48-9fad-7dead49c757f","ios":"levelo://app?vid=59a13651-d647-4c48-9fad-7dead49c757f"},"vehicle_type_id":"4","last_reported":1731341435,"current_range_meters":36000,"station_id":"","pricing_plan_id":"cebpf4jnsgd1na2vs0mg"},{"bike_id":"a6e1f363-d1a5-456e-af2c-db710b41c04e","system_id":"levelo_inurba_marseille","lat":43.27323,"lon":5.39084,"is_reserved":false,"is_disabled":false,"rental_uris":{"android":"levelo://app?vid=a6e1f363-d1a5-456e-af2c-db710b41c04e","ios":"levelo://app?vid=a6e1f363-d1a5-456e-af2c-db710b41c04e"},"vehicle_type_id":"4","last_reported":1731341435,"current_range_meters":35600,"station_id":"ce4bhgp2rcd13ifvqfe0","pricing_plan_id":"cebpf4jnsgd1na2vs0mg"},{"bike_id":"b5701c50-742a-458d-a073-7f393c69c241","system_id":"levelo_inurba_marseille","lat":43.26029,"lon":5.37551,"is_reserved":false,"is_disabled":false,"rental_uris":{"android":"levelo://app?vid=b5701c50-742a-458d-a073-7f393c69c241","ios":"levelo://app?vid=b5701c50-742a-458d-a073-7f393c69c241"},"vehicle_type_id":"4","last_reported":1731341435,"current_range_meters":2000,"station_id":"ce4bhgh2rcd13ifvqfa0","pricing_plan_id":"cebpf4jnsgd1na2vs0mg"},{"bike_id":"1c8a66f6-e638-40a1-af13-15b4f28f7a17","system_id":"levelo_inurba_marseille","lat":43.26567,"lon":5.39015,"is_reserved":false,"is_disabled":false,"rental_uris":{"android":"levelo://app?vid=1c8a66f6-e638-40a1-af13-15b4f28f7a17","ios":"levelo://app?vid=1c8a66f6-e638-40a1-af13-15b4f28f7a17"},"vehicle_type_id":"4","last_reported":1731341435,"current_range_meters":37600,"station_id":"ce4bhe12rcd13ifvqf30","pricing_plan_id":"cebpf4jnsgd1na2vs0mg"},{"bike_id":"7e89a2a2-7dda-4227-9aa9-e88b8aa2bba8","system_id":"levelo_inurba_marseille","lat":43.290197,"lon":5.359269,"is_reserved":false,"is_disabled":false,"rental_uris":{"android":"levelo://app?vid=7e89a2a2-7dda-4227-9aa9-e88b8aa2bba8","ios":"levelo://app?vid=7e89a2a2-7dda-4227-9aa9-e88b8aa2bba8"},"vehicle_type_id":"4","last_reported":1731341435,"current_range_meters":6400,"station_id":"ce4bha92rcd13ifvqeg0","pricing_plan_id":"cebpf4jnsgd1na2vs0mg"},{"bike_id":"96ac797d-fee3-4d9f-93fe-eff2df4bd39e","system_id":"levelo_inurba_marseille","lat":43.232,"lon":5.35545,"is_reserved":false,"is_disabled":false,"rental_uris":{"android":"levelo://app?vid=96ac797d-fee3-4d9f-93fe-eff2df4bd39e","ios":"levelo://app?vid=96ac797d-fee3-4d9f-93fe-eff2df4bd39e"},"vehicle_type_id":"4","last_reported":1731341435,"current_range_meters":14400,"station_id":"ce4bhu92rcd13ifvqi70","pricing_plan_id":"cebpf4jnsgd1na2vs0mg"},{"bike_id":"deb71da8-411e-4c5d-99fa-80743537238f","system_id":"levelo_inurba_marseille","lat":43.29194,"lon":5.39319,"is_reserved":false,"is_disabled":false,"rental_uris":{"android":"levelo://app?vid=deb71da8-411e-4c5d-99fa-80743537238f","ios":"levelo://app?vid=deb71da8-411e-4c5d-99fa-80743537238f"},"vehicle_type_id":"4","last_reported":1731341435,"current_range_meters":2000,"station_id":"ce4bh192rcd13ifvqdd0","pricing_plan_id":"cebpf4jnsgd1na2vs0mg"},{"bike_id":"4fa00555-c5df-4cda-8ad1-a4623a2b3b76","system_id":"levelo_inurba_marseille","lat":43.276903,"lon":5.389123,"is_reserved":false,"is_disabled":false,"rental_uris":{"android":"levelo://app?vid=4fa00555-c5df-4cda-8ad1-a4623a2b3b76","ios":"levelo://app?vid=4fa00555-c5df-4cda-8ad1-a4623a2b3b76"},"vehicle_type_id":"4","last_reported":1731341435,"current_range_meters":37600,"station_id":"ce4bhi12rcd13ifvqfo0","pricing_plan_id":"cebpf4jnsgd1na2vs0mg"},{"bike_id":"92dee9f1-ba56-4bff-a227-aa005b26002a","system_id":"levelo_inurba_marseille","lat":43.33613,"lon":5.41036,"is_reserved":false,"is_disabled":false,"rental_uris":{"android":"levelo://app?vid=92dee9f1-ba56-4bff-a227-aa005b26002a","ios":"levelo://app?vid=92dee9f1-ba56-4bff-a227-aa005b26002a"},"vehicle_type_id":"4","last_reported":1731341435,"current_range_meters":10000,"station_id":"ce4bhqh2rcd13ifvqhmg","pricing_plan_id":"cebpf4jnsgd1na2vs0mg"},{"bike_id":"2c5fdb4b-c3d2-4bbb-af5b-fd080253a2f3","system_id":"levelo_inurba_marseille","lat":43.32005,"lon":5.38159,"is_reserved":false,"is_disabled":false,"rental_uris":{"android":"levelo://app?vid=2c5fdb4b-c3d2-4bbb-af5b-fd080253a2f3","ios":"levelo://app?vid=2c5fdb4b-c3d2-4bbb-af5b-fd080253a2f3"},"vehicle_type_id":"4","last_reported":1731341435,"current_range_meters":18800,"station_id":"ce4bhr12rcd13ifvqhpg","pricing_plan_id":"cebpf4jnsgd1na2vs0mg"},{"bike_id":"850a518d-96b2-4a0d-bb4a-e9bde36efda1","system_id":"levelo_inurba_marseille","lat":43.29974,"lon":5.38491,"is_reserved":false,"is_disabled":false,"rental_uris":{"android":"levelo://app?vid=850a518d-96b2-4a0d-bb4a-e9bde36efda1","ios":"levelo://app?vid=850a518d-96b2-4a0d-bb4a-e9bde36efda1"},"vehicle_type_id":"4","last_reported":1731341435,"current_range_meters":3600,"station_id":"ce4bgj92rcd13ifvqbd0","pricing_plan_id":"cebpf4jnsgd1na2vs0mg"},{"bike_id":"c58c8e57-57ed-43b0-9d74-a04216eab278","system_id":"levelo_inurba_marseille","lat":43.29845,"lon":5.36274,"is_reserved":false,"is_disabled":false,"rental_uris":{"android":"levelo://app?vid=c58c8e57-57ed-43b0-9d74-a04216eab278","ios":"levelo://app?vid=c58c8e57-57ed-43b0-9d74-a04216eab278"},"vehicle_type_id":"4","last_reported":1731341435,"current_range_meters":10000,"station_id":"ce4bgpp2rcd13ifvqc3g","pricing_plan_id":"cebpf4jnsgd1na2vs0mg"},{"bike_id":"f669496d-fae4-44fd-8a51-586e76ca89f8","system_id":"levelo_inurba_marseille","lat":43.23196,"lon":5.35555,"is_reserved":false,"is_disabled":false,"rental_uris":{"android":"levelo://app?vid=f669496d-fae4-44fd-8a51-586e76ca89f8","ios":"levelo://app?vid=f669496d-fae4-44fd-8a51-586e76ca89f8"},"vehicle_type_id":"4","last_reported":1731341435,"current_range_meters":14800,"station_id":"ce4bhu92rcd13ifvqi70","pricing_plan_id":"cebpf4jnsgd1na2vs0mg"},{"bike_id":"333a8fd1-0af5-4d2d-8e99-f8610bc57a84","system_id":"levelo_inurba_marseille","lat":43.23965,"lon":5.36635,"is_reserved":false,"is_disabled":false,"rental_uris":{"android":"levelo://app?vid=333a8fd1-0af5-4d2d-8e99-f8610bc57a84","ios":"levelo://app?vid=333a8fd1-0af5-4d2d-8e99-f8610bc57a84"},"vehicle_type_id":"4","last_reported":1731341435,"current_range_meters":9600,"station_id":"ce4bhi12rcd13ifvqfp0","pricing_plan_id":"cebpf4jnsgd1na2vs0mg"},{"bike_id":"20bbb40d-b3d0-4597-85b3-32aa3507ab89","system_id":"levelo_inurba_marseille","lat":43.33612,"lon":5.4103,"is_reserved":false,"is_disabled":false,"rental_uris":{"android":"levelo://app?vid=20bbb40d-b3d0-4597-85b3-32aa3507ab89","ios":"levelo://app?vid=20bbb40d-b3d0-4597-85b3-32aa3507ab89"},"vehicle_type_id":"4","last_reported":1731341435,"current_range_meters":12800,"station_id":"ce4bhqh2rcd13ifvqhmg","pricing_plan_id":"cebpf4jnsgd1na2vs0mg"},{"bike_id":"91283836-74ec-44a0-b54d-eed63da210c7","system_id":"levelo_inurba_marseille","lat":43.27205,"lon":5.3918,"is_reserved":false,"is_disabled":false,"rental_uris":{"android":"levelo://app?vid=91283836-74ec-44a0-b54d-eed63da210c7","ios":"levelo://app?vid=91283836-74ec-44a0-b54d-eed63da210c7"},"vehicle_type_id":"4","last_reported":1731341435,"current_range_meters":5600,"station_id":"ce4bhhp2rcd13ifvqfm0","pricing_plan_id":"cebpf4jnsgd1na2vs0mg"},{"bike_id":"2efc2186-41e3-4a84-ba6d-71e92e202349","system_id":"levelo_inurba_marseille","lat":43.28414,"lon":5.35007,"is_reserved":false,"is_disabled":false,"rental_uris":{"android":"levelo://app?vid=2efc2186-41e3-4a84-ba6d-71e92e202349","ios":"levelo://app?vid=2efc2186-41e3-4a84-ba6d-71e92e202349"},"vehicle_type_id":"4","last_reported":1731341435,"current_range_meters":30800,"station_id":"ce4bhbh2rcd13ifvqepg","pricing_plan_id":"cebpf4jnsgd1na2vs0mg"},{"bike_id":"2972f759-c98e-4fe7-9758-85d215895273","system_id":"levelo_inurba_marseille","lat":43.23955,"lon":5.36633,"is_reserved":false,"is_disabled":false,"rental_uris":{"android":"levelo://app?vid=2972f759-c98e-4fe7-9758-85d215895273","ios":"levelo://app?vid=2972f759-c98e-4fe7-9758-85d215895273"},"vehicle_type_id":"4","last_reported":1731341435,"current_range_meters":30000,"station_id":"ce4bhi12rcd13ifvqfp0","pricing_plan_id":"cebpf4jnsgd1na2vs0mg"},{"bike_id":"fa9afdd1-95e5-4a99-9358-a815f43cfe9c","system_id":"levelo_inurba_marseille","lat":43.26569,"lon":5.39005,"is_reserved":false,"is_disabled":false,"rental_uris":{"android":"levelo://app?vid=fa9afdd1-95e5-4a99-9358-a815f43cfe9c","ios":"levelo://app?vid=fa9afdd1-95e5-4a99-9358-a815f43cfe9c"},"vehicle_type_id":"4","last_reported":1731341435,"current_range_meters":22000,"station_id":"ce4bhe12rcd13ifvqf30","pricing_plan_id":"cebpf4jnsgd1na2vs0mg"},{"bike_id":"ad9054c5-3d33-417c-bab9-7a426ca4c9e6","system_id":"levelo_inurba_marseille","lat":43.25723,"lon":5.4111,"is_reserved":false,"is_disabled":false,"rental_uris":{"android":"levelo://app?vid=ad9054c5-3d33-417c-bab9-7a426ca4c9e6","ios":"levelo://app?vid=ad9054c5-3d33-417c-bab9-7a426ca4c9e6"},"vehicle_type_id":"4","last_reported":1731341435,"current_range_meters":20400,"station_id":"ce4bhkp2rcd13ifvqgd0","pricing_plan_id":"cebpf4jnsgd1na2vs0mg"},{"bike_id":"54a9a527-6779-4e5a-ba6a-5061eafe34a4","system_id":"levelo_inurba_marseille","lat":43.29883,"lon":5.38894,"is_reserved":false,"is_disabled":false,"rental_uris":{"android":"levelo://app?vid=54a9a527-6779-4e5a-ba6a-5061eafe34a4","ios":"levelo://app?vid=54a9a527-6779-4e5a-ba6a-5061eafe34a4"},"vehicle_type_id":"4","last_reported":1731341435,"current_range_meters":35200,"station_id":"ce4bh392rcd13ifvqdl0","pricing_plan_id":"cebpf4jnsgd1na2vs0mg"},{"bike_id":"7c57b3cc-e4c2-4883-872e-936e770ec0e4","system_id":"levelo_inurba_marseille","lat":43.25117,"lon":5.40323,"is_reserved":false,"is_disabled":false,"rental_uris":{"android":"levelo://app?vid=7c57b3cc-e4c2-4883-872e-936e770ec0e4","ios":"levelo://app?vid=7c57b3cc-e4c2-4883-872e-936e770ec0e4"},"vehicle_type_id":"4","last_reported":1731341435,"current_range_meters":32400,"station_id":"ce4bhlh2rcd13ifvqgig","pricing_plan_id":"cebpf4jnsgd1na2vs0mg"},{"bike_id":"b7bed7fe-e8e6-48fa-8a74-d3d9864586b3","system_id":"levelo_inurba_marseille","lat":43.29284,"lon":5.40119,"is_reserved":false,"is_disabled":false,"rental_uris":{"android":"levelo://app?vid=b7bed7fe-e8e6-48fa-8a74-d3d9864586b3","ios":"levelo://app?vid=b7bed7fe-e8e6-48fa-8a74-d3d9864586b3"},"vehicle_type_id":"4","last_reported":1731341435,"current_range_meters":18800,"station_id":"ce4bh312rcd13ifvqdk0","pricing_plan_id":"cebpf4jnsgd1na2vs0mg"},{"bike_id":"ff18750a-df57-4647-a09e-31056603eac0","system_id":"levelo_inurba_marseille","lat":43.2656,"lon":5.38996,"is_reserved":false,"is_disabled":false,"rental_uris":{"android":"levelo://app?vid=ff18750a-df57-4647-a09e-31056603eac0","ios":"levelo://app?vid=ff18750a-df57-4647-a09e-31056603eac0"},"vehicle_type_id":"4","last_reported":1731341435,"current_range_meters":12000,"station_id":"ce4bhe12rcd13ifvqf30","pricing_plan_id":"cebpf4jnsgd1na2vs0mg"},{"bike_id":"b2d480e7-844f-46fd-8986-d86405ae647a","system_id":"levelo_inurba_marseille","lat":43.247905,"lon":5.3744,"is_reserved":false,"is_disabled":false,"rental_uris":{"android":"levelo://app?vid=b2d480e7-844f-46fd-8986-d86405ae647a","ios":"levelo://app?vid=b2d480e7-844f-46fd-8986-d86405ae647a"},"vehicle_type_id":"4","last_reported":1731341435,"current_range_meters":26000,"station_id":"ce4bhgh2rcd13ifvqfb0","pricing_plan_id":"cebpf4jnsgd1na2vs0mg"},{"bike_id":"e6b098be-d2e0-4794-a988-451893aaba89","system_id":"levelo_inurba_marseille","lat":43.27179,"lon":5.41003,"is_reserved":false,"is_disabled":false,"rental_uris":{"android":"levelo://app?vid=e6b098be-d2e0-4794-a988-451893aaba89","ios":"levelo://app?vid=e6b098be-d2e0-4794-a988-451893aaba89"},"vehicle_type_id":"4","last_reported":1731341435,"current_range_meters":30800,"station_id":"ce4bhl12rcd13ifvqgf0","pricing_plan_id":"cebpf4jnsgd1na2vs0mg"},{"bike_id":"21d56cd3-662f-433d-8588-bef4cbe926b1","system_id":"levelo_inurba_marseille","lat":43.284751,"lon":5.385859,"is_reserved":false,"is_disabled":false,"rental_uris":{"android":"levelo://app?vid=21d56cd3-662f-433d-8588-bef4cbe926b1","ios":"levelo://app?vid=21d56cd3-662f-433d-8588-bef4cbe926b1"},"vehicle_type_id":"4","last_reported":1731341435,"current_range_meters":20400,"station_id":"ce4bh8p2rcd13ifvqeb0","pricing_plan_id":"cebpf4jnsgd1na2vs0mg"},{"bike_id":"480c493a-a0c4-4573-84bd-8e318d792dcf","system_id":"levelo_inurba_marseille","lat":43.26562,"lon":5.37282,"is_reserved":false,"is_disabled":false,"rental_uris":{"android":"levelo://app?vid=480c493a-a0c4-4573-84bd-8e318d792dcf","ios":"levelo://app?vid=480c493a-a0c4-4573-84bd-8e318d792dcf"},"vehicle_type_id":"4","last_reported":1731341435,"current_range_meters":3600,"station_id":"ce4bhg12rcd13ifvqf70","pricing_plan_id":"cebpf4jnsgd1na2vs0mg"},{"bike_id":"4514953f-8e7b-4249-8afb-c062b9dda5f4","system_id":"levelo_inurba_marseille","lat":43.28157,"lon":5.42646,"is_reserved":false,"is_disabled":false,"rental_uris":{"android":"levelo://app?vid=4514953f-8e7b-4249-8afb-c062b9dda5f4","ios":"levelo://app?vid=4514953f-8e7b-4249-8afb-c062b9dda5f4"},"vehicle_type_id":"4","last_reported":1731341435,"current_range_meters":9600,"station_id":"ce4bhnh2rcd13ifvqgug","pricing_plan_id":"cebpf4jnsgd1na2vs0mg"},{"bike_id":"11a8d845-cd62-4973-bbda-3a1552eebcd6","system_id":"levelo_inurba_marseille","lat":43.292908,"lon":5.374713,"is_reserved":false,"is_disabled":false,"rental_uris":{"android":"levelo://app?vid=11a8d845-cd62-4973-bbda-3a1552eebcd6","ios":"levelo://app?vid=11a8d845-cd62-4973-bbda-3a1552eebcd6"},"vehicle_type_id":"4","last_reported":1731341435,"current_range_meters":38000,"station_id":"ce4bgi12rcd13ifvqb70","pricing_plan_id":"cebpf4jnsgd1na2vs0mg"},{"bike_id":"f5f7adb1-08a0-41e5-84f8-4eacbb87fa6f","system_id":"levelo_inurba_marseille","lat":43.2396,"lon":5.36642,"is_reserved":false,"is_disabled":false,"rental_uris":{"android":"levelo://app?vid=f5f7adb1-08a0-41e5-84f8-4eacbb87fa6f","ios":"levelo://app?vid=f5f7adb1-08a0-41e5-84f8-4eacbb87fa6f"},"vehicle_type_id":"4","last_reported":1731341435,"current_range_meters":38000,"station_id":"ce4bhi12rcd13ifvqfp0","pricing_plan_id":"cebpf4jnsgd1na2vs0mg"},{"bike_id":"cd3763b4-c6c9-439a-8c88-6b6d78464d6e","system_id":"levelo_inurba_marseille","lat":43.337444,"lon":5.374475,"is_reserved":false,"is_disabled":false,"rental_uris":{"android":"levelo://app?vid=cd3763b4-c6c9-439a-8c88-6b6d78464d6e","ios":"levelo://app?vid=cd3763b4-c6c9-439a-8c88-6b6d78464d6e"},"vehicle_type_id":"4","last_reported":1731341435,"current_range_meters":36000,"station_id":"","pricing_plan_id":"cebpf4jnsgd1na2vs0mg"},{"bike_id":"c4773bc0-e021-4cc0-a28d-9360b0acc7dd","system_id":"levelo_inurba_marseille","lat":43.23957,"lon":5.36626,"is_reserved":false,"is_disabled":false,"rental_uris":{"android":"levelo://app?vid=c4773bc0-e021-4cc0-a28d-9360b0acc7dd","ios":"levelo://app?vid=c4773bc0-e021-4cc0-a28d-9360b0acc7dd"},"vehicle_type_id":"4","last_reported":1731341435,"current_range_meters":22800,"station_id":"ce4bhi12rcd13ifvqfp0","pricing_plan_id":"cebpf4jnsgd1na2vs0mg"},{"bike_id":"453dc6b0-f2d0-4daa-aab9-663747a21ebe","system_id":"levelo_inurba_marseille","lat":43.34139,"lon":5.40905,"is_reserved":false,"is_disabled":false,"rental_uris":{"android":"levelo://app?vid=453dc6b0-f2d0-4daa-aab9-663747a21ebe","ios":"levelo://app?vid=453dc6b0-f2d0-4daa-aab9-663747a21ebe"},"vehicle_type_id":"4","last_reported":1731341435,"current_range_meters":16400,"station_id":"ce4bhqh2rcd13ifvqhlg","pricing_plan_id":"cebpf4jnsgd1na2vs0mg"},{"bike_id":"b31c98a3-ece0-4438-ac1d-712fe56529dd","system_id":"levelo_inurba_marseille","lat":43.28422,"lon":5.37527,"is_reserved":false,"is_disabled":false,"rental_uris":{"android":"levelo://app?vid=b31c98a3-ece0-4438-ac1d-712fe56529dd","ios":"levelo://app?vid=b31c98a3-ece0-4438-ac1d-712fe56529dd"},"vehicle_type_id":"4","last_reported":1731341435,"current_range_meters":32800,"station_id":"ce4bh412rcd13ifvqds0","pricing_plan_id":"cebpf4jnsgd1na2vs0mg"},{"bike_id":"c5fa1f17-e4e4-4447-bb1d-4a5836048c64","system_id":"levelo_inurba_marseille","lat":43.28935,"lon":5.36403,"is_reserved":false,"is_disabled":false,"rental_uris":{"android":"levelo://app?vid=c5fa1f17-e4e4-4447-bb1d-4a5836048c64","ios":"levelo://app?vid=c5fa1f17-e4e4-4447-bb1d-4a5836048c64"},"vehicle_type_id":"4","last_reported":1731341435,"current_range_meters":28000,"station_id":"ce4bhc92rcd13ifvqetg","pricing_plan_id":"cebpf4jnsgd1na2vs0mg"},{"bike_id":"f51c864f-0979-403c-bba5-cdf6e98815c6","system_id":"levelo_inurba_marseille","lat":43.29579,"lon":5.39974,"is_reserved":false,"is_disabled":false,"rental_uris":{"android":"levelo://app?vid=f51c864f-0979-403c-bba5-cdf6e98815c6","ios":"levelo://app?vid=f51c864f-0979-403c-bba5-cdf6e98815c6"},"vehicle_type_id":"4","last_reported":1731341435,"current_range_meters":32800,"station_id":"ce4bh312rcd13ifvqdj0","pricing_plan_id":"cebpf4jnsgd1na2vs0mg"},{"bike_id":"a22186ce-3c6d-4770-8d8b-23011c65cd3a","system_id":"levelo_inurba_marseille","lat":43.28686,"lon":5.38667,"is_reserved":false,"is_disabled":false,"rental_uris":{"android":"levelo://app?vid=a22186ce-3c6d-4770-8d8b-23011c65cd3a","ios":"levelo://app?vid=a22186ce-3c6d-4770-8d8b-23011c65cd3a"},"vehicle_type_id":"4","last_reported":1731341435,"current_range_meters":27200,"station_id":"ce4bh492rcd13ifvqdug","pricing_plan_id":"cebpf4jnsgd1na2vs0mg"},{"bike_id":"f97b6bb8-fda2-436e-9020-908b83fb722c","system_id":"levelo_inurba_marseille","lat":43.23192,"lon":5.35549,"is_reserved":false,"is_disabled":false,"rental_uris":{"android":"levelo://app?vid=f97b6bb8-fda2-436e-9020-908b83fb722c","ios":"levelo://app?vid=f97b6bb8-fda2-436e-9020-908b83fb722c"},"vehicle_type_id":"4","last_reported":1731341435,"current_range_meters":9600,"station_id":"ce4bhu92rcd13ifvqi70","pricing_plan_id":"cebpf4jnsgd1na2vs0mg"},{"bike_id":"85c6c43a-ec27-4ab5-a406-8ca39b34fe69","system_id":"levelo_inurba_marseille","lat":43.23195,"lon":5.35557,"is_reserved":false,"is_disabled":false,"rental_uris":{"android":"levelo://app?vid=85c6c43a-ec27-4ab5-a406-8ca39b34fe69","ios":"levelo://app?vid=85c6c43a-ec27-4ab5-a406-8ca39b34fe69"},"vehicle_type_id":"4","last_reported":1731341435,"current_range_meters":8800,"station_id":"ce4bhu92rcd13ifvqi70","pricing_plan_id":"cebpf4jnsgd1na2vs0mg"},{"bike_id":"44f04e96-8032-4e88-a749-17fdb4c1bb4d","system_id":"levelo_inurba_marseille","lat":43.28853,"lon":5.39312,"is_reserved":false,"is_disabled":false,"rental_uris":{"android":"levelo://app?vid=44f04e96-8032-4e88-a749-17fdb4c1bb4d","ios":"levelo://app?vid=44f04e96-8032-4e88-a749-17fdb4c1bb4d"},"vehicle_type_id":"4","last_reported":1731341435,"current_range_meters":18000,"station_id":"ce4bh2p2rcd13ifvqdi0","pricing_plan_id":"cebpf4jnsgd1na2vs0mg"},{"bike_id":"1d75d4ce-da07-47a0-83ad-027ef32b7b53","system_id":"levelo_inurba_marseille","lat":43.27409,"lon":5.38951,"is_reserved":false,"is_disabled":false,"rental_uris":{"android":"levelo://app?vid=1d75d4ce-da07-47a0-83ad-027ef32b7b53","ios":"levelo://app?vid=1d75d4ce-da07-47a0-83ad-027ef32b7b53"},"vehicle_type_id":"4","last_reported":1731341435,"current_range_meters":20400,"station_id":"","pricing_plan_id":"cebpf4jnsgd1na2vs0mg"},{"bike_id":"cc865665-60dd-4a12-9834-76295f26718e","system_id":"levelo_inurba_marseille","lat":43.28398,"lon":5.37525,"is_reserved":false,"is_disabled":false,"rental_uris":{"android":"levelo://app?vid=cc865665-60dd-4a12-9834-76295f26718e","ios":"levelo://app?vid=cc865665-60dd-4a12-9834-76295f26718e"},"vehicle_type_id":"4","last_reported":1731341435,"current_range_meters":2800,"station_id":"ce4bh412rcd13ifvqds0","pricing_plan_id":"cebpf4jnsgd1na2vs0mg"},{"bike_id":"cb32d0a8-b2de-42ad-b147-a94dda329382","system_id":"levelo_inurba_marseille","lat":43.27941,"lon":5.41051,"is_reserved":false,"is_disabled":false,"rental_uris":{"android":"levelo://app?vid=cb32d0a8-b2de-42ad-b147-a94dda329382","ios":"levelo://app?vid=cb32d0a8-b2de-42ad-b147-a94dda329382"},"vehicle_type_id":"4","last_reported":1731341435,"current_range_meters":26000,"station_id":"ce4bhnp2rcd13ifvqh0g","pricing_plan_id":"cebpf4jnsgd1na2vs0mg"},{"bike_id":"7d660045-5afa-4e0b-a55a-8219d41d02ff","system_id":"levelo_inurba_marseille","lat":43.27385,"lon":5.36264,"is_reserved":false,"is_disabled":false,"rental_uris":{"android":"levelo://app?vid=7d660045-5afa-4e0b-a55a-8219d41d02ff","ios":"levelo://app?vid=7d660045-5afa-4e0b-a55a-8219d41d02ff"},"vehicle_type_id":"4","last_reported":1731341435,"current_range_meters":5600,"station_id":"ce4bhbh2rcd13ifvqeo0","pricing_plan_id":"cebpf4jnsgd1na2vs0mg"},{"bike_id":"d37abee1-ce26-4fb8-af39-920cd38dffa1","system_id":"levelo_inurba_marseille","lat":43.24815,"lon":5.37465,"is_reserved":false,"is_disabled":false,"rental_uris":{"android":"levelo://app?vid=d37abee1-ce26-4fb8-af39-920cd38dffa1","ios":"levelo://app?vid=d37abee1-ce26-4fb8-af39-920cd38dffa1"},"vehicle_type_id":"4","last_reported":1731341435,"current_range_meters":28400,"station_id":"ce4bhgh2rcd13ifvqfb0","pricing_plan_id":"cebpf4jnsgd1na2vs0mg"},{"bike_id":"bdf00644-feeb-4cfc-b7e7-a0b3e87216f9","system_id":"levelo_inurba_marseille","lat":43.23197,"lon":5.35552,"is_reserved":false,"is_disabled":false,"rental_uris":{"android":"levelo://app?vid=bdf00644-feeb-4cfc-b7e7-a0b3e87216f9","ios":"levelo://app?vid=bdf00644-feeb-4cfc-b7e7-a0b3e87216f9"},"vehicle_type_id":"4","last_reported":1731341435,"current_range_meters":37600,"station_id":"ce4bhu92rcd13ifvqi70","pricing_plan_id":"cebpf4jnsgd1na2vs0mg"},{"bike_id":"ec1e9e10-e646-49ac-add2-ac15d4910cdf","system_id":"levelo_inurba_marseille","lat":43.308874,"lon":5.380649,"is_reserved":false,"is_disabled":false,"rental_uris":{"android":"levelo://app?vid=ec1e9e10-e646-49ac-add2-ac15d4910cdf","ios":"levelo://app?vid=ec1e9e10-e646-49ac-add2-ac15d4910cdf"},"vehicle_type_id":"4","last_reported":1731341435,"current_range_meters":22800,"station_id":"ce4bgv92rcd13ifvqcq0","pricing_plan_id":"cebpf4jnsgd1na2vs0mg"},{"bike_id":"10ceb3dd-efe5-476c-81bf-0a2c25d46dea","system_id":"levelo_inurba_marseille","lat":43.248016,"lon":5.374566,"is_reserved":false,"is_disabled":false,"rental_uris":{"android":"levelo://app?vid=10ceb3dd-efe5-476c-81bf-0a2c25d46dea","ios":"levelo://app?vid=10ceb3dd-efe5-476c-81bf-0a2c25d46dea"},"vehicle_type_id":"4","last_reported":1731341435,"current_range_meters":36400,"station_id":"ce4bhjp2rcd13ifvqg90","pricing_plan_id":"cebpf4jnsgd1na2vs0mg"},{"bike_id":"5eaee5c8-8c99-425b-929c-c0183c42e724","system_id":"levelo_inurba_marseille","lat":43.30541,"lon":5.36717,"is_reserved":false,"is_disabled":false,"rental_uris":{"android":"levelo://app?vid=5eaee5c8-8c99-425b-929c-c0183c42e724","ios":"levelo://app?vid=5eaee5c8-8c99-425b-929c-c0183c42e724"},"vehicle_type_id":"4","last_reported":1731341435,"current_range_meters":38800,"station_id":"ce4bgrp2rcd13ifvqc9g","pricing_plan_id":"cebpf4jnsgd1na2vs0mg"},{"bike_id":"784616cb-3dcc-4a17-ae25-f5786a0d223a","system_id":"levelo_inurba_marseille","lat":43.337444,"lon":5.374475,"is_reserved":false,"is_disabled":false,"rental_uris":{"android":"levelo://app?vid=784616cb-3dcc-4a17-ae25-f5786a0d223a","ios":"levelo://app?vid=784616cb-3dcc-4a17-ae25-f5786a0d223a"},"vehicle_type_id":"4","last_reported":1731341435,"current_range_meters":36400,"station_id":"","pricing_plan_id":"cebpf4jnsgd1na2vs0mg"},{"bike_id":"624a7b3f-a30c-42b8-b0b8-bae9ece983e6","system_id":"levelo_inurba_marseille","lat":43.26035,"lon":5.37549,"is_reserved":false,"is_disabled":false,"rental_uris":{"android":"levelo://app?vid=624a7b3f-a30c-42b8-b0b8-bae9ece983e6","ios":"levelo://app?vid=624a7b3f-a30c-42b8-b0b8-bae9ece983e6"},"vehicle_type_id":"4","last_reported":1731341435,"current_range_meters":28800,"station_id":"ce4bhgh2rcd13ifvqfa0","pricing_plan_id":"cebpf4jnsgd1na2vs0mg"},{"bike_id":"bf26cce5-70af-4db1-b294-e3f280d1df49","system_id":"levelo_inurba_marseille","lat":43.28612,"lon":5.35099,"is_reserved":false,"is_disabled":false,"rental_uris":{"android":"levelo://app?vid=bf26cce5-70af-4db1-b294-e3f280d1df49","ios":"levelo://app?vid=bf26cce5-70af-4db1-b294-e3f280d1df49"},"vehicle_type_id":"4","last_reported":1731341435,"current_range_meters":38800,"station_id":"ce4bhch2rcd13ifvqeug","pricing_plan_id":"cebpf4jnsgd1na2vs0mg"},{"bike_id":"ed01fa4f-61ab-4e3c-9524-6f09c303685d","system_id":"levelo_inurba_marseille","lat":43.28711,"lon":5.37392,"is_reserved":false,"is_disabled":false,"rental_uris":{"android":"levelo://app?vid=ed01fa4f-61ab-4e3c-9524-6f09c303685d","ios":"levelo://app?vid=ed01fa4f-61ab-4e3c-9524-6f09c303685d"},"vehicle_type_id":"4","last_reported":1731341435,"current_range_meters":20000,"station_id":"ce4bh3p2rcd13ifvqdq0","pricing_plan_id":"cebpf4jnsgd1na2vs0mg"},{"bike_id":"38494b26-732c-4693-af81-a3cf4c4e1902","system_id":"levelo_inurba_marseille","lat":43.30641,"lon":5.37234,"is_reserved":false,"is_disabled":false,"rental_uris":{"android":"levelo://app?vid=38494b26-732c-4693-af81-a3cf4c4e1902","ios":"levelo://app?vid=38494b26-732c-4693-af81-a3cf4c4e1902"},"vehicle_type_id":"4","last_reported":1731341435,"current_range_meters":24800,"station_id":"","pricing_plan_id":"cebpf4jnsgd1na2vs0mg"},{"bike_id":"181fa628-fd06-4339-88f4-5d411c857699","system_id":"levelo_inurba_marseille","lat":43.270668,"lon":5.422775,"is_reserved":false,"is_disabled":false,"rental_uris":{"android":"levelo://app?vid=181fa628-fd06-4339-88f4-5d411c857699","ios":"levelo://app?vid=181fa628-fd06-4339-88f4-5d411c857699"},"vehicle_type_id":"4","last_reported":1731341435,"current_range_meters":36800,"station_id":"ce4bhk92rcd13ifvqgb0","pricing_plan_id":"cebpf4jnsgd1na2vs0mg"},{"bike_id":"fabafcf1-e6c3-4f3c-88a2-594e6319bc52","system_id":"levelo_inurba_marseille","lat":43.29947,"lon":5.36555,"is_reserved":false,"is_disabled":false,"rental_uris":{"android":"levelo://app?vid=fabafcf1-e6c3-4f3c-88a2-594e6319bc52","ios":"levelo://app?vid=fabafcf1-e6c3-4f3c-88a2-594e6319bc52"},"vehicle_type_id":"4","last_reported":1731341435,"current_range_meters":6000,"station_id":"ce4bgm92rcd13ifvqbr0","pricing_plan_id":"cebpf4jnsgd1na2vs0mg"},{"bike_id":"d7425ed5-16f4-4986-ab5b-a93e0b9eff2a","system_id":"levelo_inurba_marseille","lat":43.28153,"lon":5.42653,"is_reserved":false,"is_disabled":false,"rental_uris":{"android":"levelo://app?vid=d7425ed5-16f4-4986-ab5b-a93e0b9eff2a","ios":"levelo://app?vid=d7425ed5-16f4-4986-ab5b-a93e0b9eff2a"},"vehicle_type_id":"4","last_reported":1731341435,"current_range_meters":4400,"station_id":"ce4bhnh2rcd13ifvqgug","pricing_plan_id":"cebpf4jnsgd1na2vs0mg"},{"bike_id":"b2889522-9aa4-4aad-a89f-f3f799f95a45","system_id":"levelo_inurba_marseille","lat":43.30414,"lon":5.41286,"is_reserved":false,"is_disabled":false,"rental_uris":{"android":"levelo://app?vid=b2889522-9aa4-4aad-a89f-f3f799f95a45","ios":"levelo://app?vid=b2889522-9aa4-4aad-a89f-f3f799f95a45"},"vehicle_type_id":"4","last_reported":1731341435,"current_range_meters":38800,"station_id":"ce4bhop2rcd13ifvqh8g","pricing_plan_id":"cebpf4jnsgd1na2vs0mg"},{"bike_id":"57dc02c0-93c2-4af2-a635-162acc4edb15","system_id":"levelo_inurba_marseille","lat":43.31085,"lon":5.42429,"is_reserved":false,"is_disabled":false,"rental_uris":{"android":"levelo://app?vid=57dc02c0-93c2-4af2-a635-162acc4edb15","ios":"levelo://app?vid=57dc02c0-93c2-4af2-a635-162acc4edb15"},"vehicle_type_id":"4","last_reported":1731341435,"current_range_meters":17200,"station_id":"ce4bhp92rcd13ifvqhag","pricing_plan_id":"cebpf4jnsgd1na2vs0mg"},{"bike_id":"96266ca0-4915-44e4-a0f2-caecd529d9cc","system_id":"levelo_inurba_marseille","lat":43.28001,"lon":5.41662,"is_reserved":false,"is_disabled":false,"rental_uris":{"android":"levelo://app?vid=96266ca0-4915-44e4-a0f2-caecd529d9cc","ios":"levelo://app?vid=96266ca0-4915-44e4-a0f2-caecd529d9cc"},"vehicle_type_id":"4","last_reported":1731341435,"current_range_meters":10000,"station_id":"ce4bho12rcd13ifvqh1g","pricing_plan_id":"cebpf4jnsgd1na2vs0mg"},{"bike_id":"fc01d943-4616-4d37-8e17-5947c751d06c","system_id":"levelo_inurba_marseille","lat":43.28108,"lon":5.37846,"is_reserved":false,"is_disabled":false,"rental_uris":{"android":"levelo://app?vid=fc01d943-4616-4d37-8e17-5947c751d06c","ios":"levelo://app?vid=fc01d943-4616-4d37-8e17-5947c751d06c"},"vehicle_type_id":"4","last_reported":1731341435,"current_range_meters":16800,"station_id":"ce4bha12rcd13ifvqee0","pricing_plan_id":"cebpf4jnsgd1na2vs0mg"},{"bike_id":"6a189fff-4962-4373-a11d-810b0e8252db","system_id":"levelo_inurba_marseille","lat":43.27376,"lon":5.36258,"is_reserved":false,"is_disabled":false,"rental_uris":{"android":"levelo://app?vid=6a189fff-4962-4373-a11d-810b0e8252db","ios":"levelo://app?vid=6a189fff-4962-4373-a11d-810b0e8252db"},"vehicle_type_id":"4","last_reported":1731341435,"current_range_meters":27600,"station_id":"ce4bhbh2rcd13ifvqeo0","pricing_plan_id":"cebpf4jnsgd1na2vs0mg"},{"bike_id":"6e7edb60-78e3-46d3-81b0-56489f199812","system_id":"levelo_inurba_marseille","lat":43.28036,"lon":5.3697,"is_reserved":false,"is_disabled":false,"rental_uris":{"android":"levelo://app?vid=6e7edb60-78e3-46d3-81b0-56489f199812","ios":"levelo://app?vid=6e7edb60-78e3-46d3-81b0-56489f199812"},"vehicle_type_id":"4","last_reported":1731341435,"current_range_meters":11200,"station_id":"ce4bha12rcd13ifvqef0","pricing_plan_id":"cebpf4jnsgd1na2vs0mg"},{"bike_id":"96f80235-4242-4a3c-ab18-5c2dc1f3b2db","system_id":"levelo_inurba_marseille","lat":43.29282,"lon":5.40116,"is_reserved":false,"is_disabled":false,"rental_uris":{"android":"levelo://app?vid=96f80235-4242-4a3c-ab18-5c2dc1f3b2db","ios":"levelo://app?vid=96f80235-4242-4a3c-ab18-5c2dc1f3b2db"},"vehicle_type_id":"4","last_reported":1731341435,"current_range_meters":25200,"station_id":"ce4bh312rcd13ifvqdk0","pricing_plan_id":"cebpf4jnsgd1na2vs0mg"},{"bike_id":"9488d1b2-e4c9-41d2-a10c-49d77c8f3ef3","system_id":"levelo_inurba_marseille","lat":43.28666,"lon":5.36357,"is_reserved":false,"is_disabled":false,"rental_uris":{"android":"levelo://app?vid=9488d1b2-e4c9-41d2-a10c-49d77c8f3ef3","ios":"levelo://app?vid=9488d1b2-e4c9-41d2-a10c-49d77c8f3ef3"},"vehicle_type_id":"4","last_reported":1731341435,"current_range_meters":36800,"station_id":"ce4bhah2rcd13ifvqej0","pricing_plan_id":"cebpf4jnsgd1na2vs0mg"},{"bike_id":"fb0c370a-c680-4ed7-82f1-b420af3e0fe4","system_id":"levelo_inurba_marseille","lat":43.28372,"lon":5.38643,"is_reserved":false,"is_disabled":false,"rental_uris":{"android":"levelo://app?vid=fb0c370a-c680-4ed7-82f1-b420af3e0fe4","ios":"levelo://app?vid=fb0c370a-c680-4ed7-82f1-b420af3e0fe4"},"vehicle_type_id":"4","last_reported":1731341435,"current_range_meters":32800,"station_id":"ce4bh492rcd13ifvqdvg","pricing_plan_id":"cebpf4jnsgd1na2vs0mg"},{"bike_id":"70a0c8b9-7dd1-4d8d-a096-ac9001d42116","system_id":"levelo_inurba_marseille","lat":43.28464,"lon":5.35896,"is_reserved":false,"is_disabled":false,"rental_uris":{"android":"levelo://app?vid=70a0c8b9-7dd1-4d8d-a096-ac9001d42116","ios":"levelo://app?vid=70a0c8b9-7dd1-4d8d-a096-ac9001d42116"},"vehicle_type_id":"4","last_reported":1731341435,"current_range_meters":17200,"station_id":"ce4bhah2rcd13ifvqei0","pricing_plan_id":"cebpf4jnsgd1na2vs0mg"},{"bike_id":"14d20505-09c3-49e6-b487-149678ce51b5","system_id":"levelo_inurba_marseille","lat":43.23195,"lon":5.35557,"is_reserved":false,"is_disabled":false,"rental_uris":{"android":"levelo://app?vid=14d20505-09c3-49e6-b487-149678ce51b5","ios":"levelo://app?vid=14d20505-09c3-49e6-b487-149678ce51b5"},"vehicle_type_id":"4","last_reported":1731341435,"current_range_meters":23200,"station_id":"ce4bhu92rcd13ifvqi70","pricing_plan_id":"cebpf4jnsgd1na2vs0mg"},{"bike_id":"0389f6ba-9b11-4bae-aa59-6c887bee55e5","system_id":"levelo_inurba_marseille","lat":43.32252,"lon":5.3852,"is_reserved":false,"is_disabled":false,"rental_uris":{"android":"levelo://app?vid=0389f6ba-9b11-4bae-aa59-6c887bee55e5","ios":"levelo://app?vid=0389f6ba-9b11-4bae-aa59-6c887bee55e5"},"vehicle_type_id":"4","last_reported":1731341435,"current_range_meters":30400,"station_id":"","pricing_plan_id":"cebpf4jnsgd1na2vs0mg"},{"bike_id":"ac5941e1-3fd0-4a36-b1af-70a3352289e4","system_id":"levelo_inurba_marseille","lat":43.2803,"lon":5.36952,"is_reserved":false,"is_disabled":false,"rental_uris":{"android":"levelo://app?vid=ac5941e1-3fd0-4a36-b1af-70a3352289e4","ios":"levelo://app?vid=ac5941e1-3fd0-4a36-b1af-70a3352289e4"},"vehicle_type_id":"4","last_reported":1731341435,"current_range_meters":18800,"station_id":"ce4bha12rcd13ifvqef0","pricing_plan_id":"cebpf4jnsgd1na2vs0mg"},{"bike_id":"d0f43f93-425a-4427-8402-f94b7a9e3c01","system_id":"levelo_inurba_marseille","lat":43.26491,"lon":5.39546,"is_reserved":false,"is_disabled":false,"rental_uris":{"android":"levelo://app?vid=d0f43f93-425a-4427-8402-f94b7a9e3c01","ios":"levelo://app?vid=d0f43f93-425a-4427-8402-f94b7a9e3c01"},"vehicle_type_id":"4","last_reported":1731341435,"current_range_meters":32400,"station_id":"ce4bhi12rcd13ifvqfq0","pricing_plan_id":"cebpf4jnsgd1na2vs0mg"},{"bike_id":"05b62862-8331-49c7-8a0f-0d0121269a5e","system_id":"levelo_inurba_marseille","lat":43.28416,"lon":5.34993,"is_reserved":false,"is_disabled":false,"rental_uris":{"android":"levelo://app?vid=05b62862-8331-49c7-8a0f-0d0121269a5e","ios":"levelo://app?vid=05b62862-8331-49c7-8a0f-0d0121269a5e"},"vehicle_type_id":"4","last_reported":1731341435,"current_range_meters":38800,"station_id":"ce4bhbh2rcd13ifvqepg","pricing_plan_id":"cebpf4jnsgd1na2vs0mg"},{"bike_id":"c84eb76b-0bce-4e73-a87c-6972559ca8c1","system_id":"levelo_inurba_marseille","lat":43.29011,"lon":5.35618,"is_reserved":false,"is_disabled":false,"rental_uris":{"android":"levelo://app?vid=c84eb76b-0bce-4e73-a87c-6972559ca8c1","ios":"levelo://app?vid=c84eb76b-0bce-4e73-a87c-6972559ca8c1"},"vehicle_type_id":"4","last_reported":1731341435,"current_range_meters":20800,"station_id":"ce4bgi12rcd13ifvqb70","pricing_plan_id":"cebpf4jnsgd1na2vs0mg"},{"bike_id":"a433663b-7bf5-4655-b7d6-0ffb07007343","system_id":"levelo_inurba_marseille","lat":43.27809,"lon":5.40713,"is_reserved":false,"is_disabled":false,"rental_uris":{"android":"levelo://app?vid=a433663b-7bf5-4655-b7d6-0ffb07007343","ios":"levelo://app?vid=a433663b-7bf5-4655-b7d6-0ffb07007343"},"vehicle_type_id":"4","last_reported":1731341435,"current_range_meters":32400,"station_id":"ce4bhnh2rcd13ifvqgtg","pricing_plan_id":"cebpf4jnsgd1na2vs0mg"},{"bike_id":"265a4816-06ac-4ff1-a5f2-fd8b57315e8d","system_id":"levelo_inurba_marseille","lat":43.29556,"lon":5.42293,"is_reserved":false,"is_disabled":false,"rental_uris":{"android":"levelo://app?vid=265a4816-06ac-4ff1-a5f2-fd8b57315e8d","ios":"levelo://app?vid=265a4816-06ac-4ff1-a5f2-fd8b57315e8d"},"vehicle_type_id":"4","last_reported":1731341435,"current_range_meters":7200,"station_id":"ce4bhph2rcd13ifvqhdg","pricing_plan_id":"cebpf4jnsgd1na2vs0mg"},{"bike_id":"82ce0d1a-35aa-4501-b8b0-471c54595dce","system_id":"levelo_inurba_marseille","lat":43.23963,"lon":5.36642,"is_reserved":false,"is_disabled":false,"rental_uris":{"android":"levelo://app?vid=82ce0d1a-35aa-4501-b8b0-471c54595dce","ios":"levelo://app?vid=82ce0d1a-35aa-4501-b8b0-471c54595dce"},"vehicle_type_id":"4","last_reported":1731341435,"current_range_meters":24000,"station_id":"ce4bhi12rcd13ifvqfp0","pricing_plan_id":"cebpf4jnsgd1na2vs0mg"},{"bike_id":"0f22c2a6-e94e-4f17-a7aa-0f3dc499945b","system_id":"levelo_inurba_marseille","lat":43.31712,"lon":5.43711,"is_reserved":false,"is_disabled":false,"rental_uris":{"android":"levelo://app?vid=0f22c2a6-e94e-4f17-a7aa-0f3dc499945b","ios":"levelo://app?vid=0f22c2a6-e94e-4f17-a7aa-0f3dc499945b"},"vehicle_type_id":"4","last_reported":1731341435,"current_range_meters":38800,"station_id":"ce4bhp92rcd13ifvqhcg","pricing_plan_id":"cebpf4jnsgd1na2vs0mg"},{"bike_id":"5ca0a3d9-87a5-4071-b61a-6fa02f2ee3bf","system_id":"levelo_inurba_marseille","lat":43.28614,"lon":5.35107,"is_reserved":false,"is_disabled":false,"rental_uris":{"android":"levelo://app?vid=5ca0a3d9-87a5-4071-b61a-6fa02f2ee3bf","ios":"levelo://app?vid=5ca0a3d9-87a5-4071-b61a-6fa02f2ee3bf"},"vehicle_type_id":"4","last_reported":1731341435,"current_range_meters":38800,"station_id":"ce4bhch2rcd13ifvqeug","pricing_plan_id":"cebpf4jnsgd1na2vs0mg"},{"bike_id":"05eaf40c-4a01-43b8-b3db-b79b7cfebd90","system_id":"levelo_inurba_marseille","lat":43.28944,"lon":5.3664,"is_reserved":false,"is_disabled":false,"rental_uris":{"android":"levelo://app?vid=05eaf40c-4a01-43b8-b3db-b79b7cfebd90","ios":"levelo://app?vid=05eaf40c-4a01-43b8-b3db-b79b7cfebd90"},"vehicle_type_id":"4","last_reported":1731341435,"current_range_meters":11600,"station_id":"ce4bhap2rcd13ifvqek0","pricing_plan_id":"cebpf4jnsgd1na2vs0mg"},{"bike_id":"b4e30adf-8328-4338-ac08-954775b88e84","system_id":"levelo_inurba_marseille","lat":43.28925,"lon":5.38408,"is_reserved":false,"is_disabled":false,"rental_uris":{"android":"levelo://app?vid=b4e30adf-8328-4338-ac08-954775b88e84","ios":"levelo://app?vid=b4e30adf-8328-4338-ac08-954775b88e84"},"vehicle_type_id":"4","last_reported":1731341435,"current_range_meters":20000,"station_id":"ce4bh612rcd13ifvqe6g","pricing_plan_id":"cebpf4jnsgd1na2vs0mg"},{"bike_id":"bc1472f7-1a43-44b5-8a86-06f3f0989c5e","system_id":"levelo_inurba_marseille","lat":43.31491,"lon":5.37314,"is_reserved":false,"is_disabled":false,"rental_uris":{"android":"levelo://app?vid=bc1472f7-1a43-44b5-8a86-06f3f0989c5e","ios":"levelo://app?vid=bc1472f7-1a43-44b5-8a86-06f3f0989c5e"},"vehicle_type_id":"4","last_reported":1731341435,"current_range_meters":29600,"station_id":"ce4bgt12rcd13ifvqcd0","pricing_plan_id":"cebpf4jnsgd1na2vs0mg"},{"bike_id":"d5990e19-0551-4ad3-8c2a-d80513ba61ae","system_id":"levelo_inurba_marseille","lat":43.23194,"lon":5.35552,"is_reserved":false,"is_disabled":false,"rental_uris":{"android":"levelo://app?vid=d5990e19-0551-4ad3-8c2a-d80513ba61ae","ios":"levelo://app?vid=d5990e19-0551-4ad3-8c2a-d80513ba61ae"},"vehicle_type_id":"4","last_reported":1731341435,"current_range_meters":38800,"station_id":"ce4bhu92rcd13ifvqi70","pricing_plan_id":"cebpf4jnsgd1na2vs0mg"},{"bike_id":"5348ecd6-3890-4290-afd2-4970af47bbf5","system_id":"levelo_inurba_marseille","lat":43.29856,"lon":5.36289,"is_reserved":false,"is_disabled":false,"rental_uris":{"android":"levelo://app?vid=5348ecd6-3890-4290-afd2-4970af47bbf5","ios":"levelo://app?vid=5348ecd6-3890-4290-afd2-4970af47bbf5"},"vehicle_type_id":"4","last_reported":1731341435,"current_range_meters":26000,"station_id":"ce4bgpp2rcd13ifvqc3g","pricing_plan_id":"cebpf4jnsgd1na2vs0mg"},{"bike_id":"b2f3adca-b446-441d-a1ab-5903c30fd432","system_id":"levelo_inurba_marseille","lat":43.33772,"lon":5.37447,"is_reserved":false,"is_disabled":false,"rental_uris":{"android":"levelo://app?vid=b2f3adca-b446-441d-a1ab-5903c30fd432","ios":"levelo://app?vid=b2f3adca-b446-441d-a1ab-5903c30fd432"},"vehicle_type_id":"4","last_reported":1731341435,"current_range_meters":10000,"station_id":"","pricing_plan_id":"cebpf4jnsgd1na2vs0mg"},{"bike_id":"b152357b-3f6e-49bd-aa80-487eecba3ca7","system_id":"levelo_inurba_marseille","lat":43.2738,"lon":5.36259,"is_reserved":false,"is_disabled":false,"rental_uris":{"android":"levelo://app?vid=b152357b-3f6e-49bd-aa80-487eecba3ca7","ios":"levelo://app?vid=b152357b-3f6e-49bd-aa80-487eecba3ca7"},"vehicle_type_id":"4","last_reported":1731341435,"current_range_meters":12400,"station_id":"ce4bhbh2rcd13ifvqeo0","pricing_plan_id":"cebpf4jnsgd1na2vs0mg"},{"bike_id":"1f594838-3896-4fdf-8eb6-db4f6fa927bb","system_id":"levelo_inurba_marseille","lat":43.29848,"lon":5.36276,"is_reserved":false,"is_disabled":false,"rental_uris":{"android":"levelo://app?vid=1f594838-3896-4fdf-8eb6-db4f6fa927bb","ios":"levelo://app?vid=1f594838-3896-4fdf-8eb6-db4f6fa927bb"},"vehicle_type_id":"4","last_reported":1731341435,"current_range_meters":20800,"station_id":"ce4bgpp2rcd13ifvqc3g","pricing_plan_id":"cebpf4jnsgd1na2vs0mg"},{"bike_id":"f869b676-b7d2-486d-aed7-e102ee0b4ce1","system_id":"levelo_inurba_marseille","lat":43.28365,"lon":5.38646,"is_reserved":false,"is_disabled":false,"rental_uris":{"android":"levelo://app?vid=f869b676-b7d2-486d-aed7-e102ee0b4ce1","ios":"levelo://app?vid=f869b676-b7d2-486d-aed7-e102ee0b4ce1"},"vehicle_type_id":"4","last_reported":1731341435,"current_range_meters":4400,"station_id":"ce4bh492rcd13ifvqdvg","pricing_plan_id":"cebpf4jnsgd1na2vs0mg"},{"bike_id":"6bca4859-02c3-45d3-9719-15501d7be33b","system_id":"levelo_inurba_marseille","lat":43.2894,"lon":5.36402,"is_reserved":false,"is_disabled":false,"rental_uris":{"android":"levelo://app?vid=6bca4859-02c3-45d3-9719-15501d7be33b","ios":"levelo://app?vid=6bca4859-02c3-45d3-9719-15501d7be33b"},"vehicle_type_id":"4","last_reported":1731341435,"current_range_meters":11200,"station_id":"ce4bhc92rcd13ifvqetg","pricing_plan_id":"cebpf4jnsgd1na2vs0mg"},{"bike_id":"bdf81e05-b6a5-4bbc-956c-33dd4749c7aa","system_id":"levelo_inurba_marseille","lat":43.29264,"lon":5.3844,"is_reserved":false,"is_disabled":false,"rental_uris":{"android":"levelo://app?vid=bdf81e05-b6a5-4bbc-956c-33dd4749c7aa","ios":"levelo://app?vid=bdf81e05-b6a5-4bbc-956c-33dd4749c7aa"},"vehicle_type_id":"4","last_reported":1731341435,"current_range_meters":16800,"station_id":"ce4bh692rcd13ifvqea0","pricing_plan_id":"cebpf4jnsgd1na2vs0mg"},{"bike_id":"b72ca6e7-47e9-42be-9a97-b74e22acdc0e","system_id":"levelo_inurba_marseille","lat":43.32101,"lon":5.36784,"is_reserved":false,"is_disabled":false,"rental_uris":{"android":"levelo://app?vid=b72ca6e7-47e9-42be-9a97-b74e22acdc0e","ios":"levelo://app?vid=b72ca6e7-47e9-42be-9a97-b74e22acdc0e"},"vehicle_type_id":"4","last_reported":1731341435,"current_range_meters":30000,"station_id":"ce4bhrh2rcd13ifvqhug","pricing_plan_id":"cebpf4jnsgd1na2vs0mg"},{"bike_id":"0e8b328d-d250-4022-b102-700ab6c44fe0","system_id":"levelo_inurba_marseille","lat":43.28041,"lon":5.36949,"is_reserved":false,"is_disabled":false,"rental_uris":{"android":"levelo://app?vid=0e8b328d-d250-4022-b102-700ab6c44fe0","ios":"levelo://app?vid=0e8b328d-d250-4022-b102-700ab6c44fe0"},"vehicle_type_id":"4","last_reported":1731341435,"current_range_meters":37600,"station_id":"ce4bha12rcd13ifvqef0","pricing_plan_id":"cebpf4jnsgd1na2vs0mg"},{"bike_id":"46ebbe9d-b751-4aef-804c-1876f9e81d6c","system_id":"levelo_inurba_marseille","lat":43.28425,"lon":5.35001,"is_reserved":false,"is_disabled":false,"rental_uris":{"android":"levelo://app?vid=46ebbe9d-b751-4aef-804c-1876f9e81d6c","ios":"levelo://app?vid=46ebbe9d-b751-4aef-804c-1876f9e81d6c"},"vehicle_type_id":"4","last_reported":1731341435,"current_range_meters":31200,"station_id":"ce4bhbh2rcd13ifvqepg","pricing_plan_id":"cebpf4jnsgd1na2vs0mg"},{"bike_id":"e32c04e2-8888-41ae-be8b-b5e7504ecbbf","system_id":"levelo_inurba_marseille","lat":43.29559,"lon":5.42296,"is_reserved":false,"is_disabled":false,"rental_uris":{"android":"levelo://app?vid=e32c04e2-8888-41ae-be8b-b5e7504ecbbf","ios":"levelo://app?vid=e32c04e2-8888-41ae-be8b-b5e7504ecbbf"},"vehicle_type_id":"4","last_reported":1731341435,"current_range_meters":17600,"station_id":"ce4bhph2rcd13ifvqhdg","pricing_plan_id":"cebpf4jnsgd1na2vs0mg"},{"bike_id":"52a71ef5-8ef7-4a13-9edb-b931936b8cfb","system_id":"levelo_inurba_marseille","lat":43.33727,"lon":5.39189,"is_reserved":false,"is_disabled":false,"rental_uris":{"android":"levelo://app?vid=52a71ef5-8ef7-4a13-9edb-b931936b8cfb","ios":"levelo://app?vid=52a71ef5-8ef7-4a13-9edb-b931936b8cfb"},"vehicle_type_id":"4","last_reported":1731341435,"current_range_meters":30400,"station_id":"ce4bhr92rcd13ifvqhsg","pricing_plan_id":"cebpf4jnsgd1na2vs0mg"},{"bike_id":"092fc115-ca8e-4c8b-80e2-3c14f2edba02","system_id":"levelo_inurba_marseille","lat":43.25503,"lon":5.37653,"is_reserved":false,"is_disabled":false,"rental_uris":{"android":"levelo://app?vid=092fc115-ca8e-4c8b-80e2-3c14f2edba02","ios":"levelo://app?vid=092fc115-ca8e-4c8b-80e2-3c14f2edba02"},"vehicle_type_id":"4","last_reported":1731341435,"current_range_meters":33200,"station_id":"ce4bhh12rcd13ifvqff0","pricing_plan_id":"cebpf4jnsgd1na2vs0mg"},{"bike_id":"2c507cd7-54ef-475c-8faa-961482f8a251","system_id":"levelo_inurba_marseille","lat":43.29563,"lon":5.42286,"is_reserved":false,"is_disabled":false,"rental_uris":{"android":"levelo://app?vid=2c507cd7-54ef-475c-8faa-961482f8a251","ios":"levelo://app?vid=2c507cd7-54ef-475c-8faa-961482f8a251"},"vehicle_type_id":"4","last_reported":1731341435,"current_range_meters":26800,"station_id":"ce4bhph2rcd13ifvqhdg","pricing_plan_id":"cebpf4jnsgd1na2vs0mg"},{"bike_id":"b1d375fb-cabf-4417-b283-efc766281276","system_id":"levelo_inurba_marseille","lat":43.31159,"lon":5.37858,"is_reserved":false,"is_disabled":false,"rental_uris":{"android":"levelo://app?vid=b1d375fb-cabf-4417-b283-efc766281276","ios":"levelo://app?vid=b1d375fb-cabf-4417-b283-efc766281276"},"vehicle_type_id":"4","last_reported":1731341435,"current_range_meters":19600,"station_id":"ce4bguh2rcd13ifvqckg","pricing_plan_id":"cebpf4jnsgd1na2vs0mg"},{"bike_id":"a1e85cd1-f7d6-456c-9d86-09def41c5aee","system_id":"levelo_inurba_marseille","lat":43.28276,"lon":5.35056,"is_reserved":false,"is_disabled":false,"rental_uris":{"android":"levelo://app?vid=a1e85cd1-f7d6-456c-9d86-09def41c5aee","ios":"levelo://app?vid=a1e85cd1-f7d6-456c-9d86-09def41c5aee"},"vehicle_type_id":"4","last_reported":1731341435,"current_range_meters":17200,"station_id":"ce4bhqp2rcd13ifvqhng","pricing_plan_id":"cebpf4jnsgd1na2vs0mg"},{"bike_id":"c02a192e-5825-44fe-a0c9-fd04411f4ff2","system_id":"levelo_inurba_marseille","lat":43.2501,"lon":5.38912,"is_reserved":false,"is_disabled":false,"rental_uris":{"android":"levelo://app?vid=c02a192e-5825-44fe-a0c9-fd04411f4ff2","ios":"levelo://app?vid=c02a192e-5825-44fe-a0c9-fd04411f4ff2"},"vehicle_type_id":"4","last_reported":1731341435,"current_range_meters":24800,"station_id":"ce4bhgp2rcd13ifvqfd0","pricing_plan_id":"cebpf4jnsgd1na2vs0mg"},{"bike_id":"feb86f62-2c80-4064-8e38-33c5534046da","system_id":"levelo_inurba_marseille","lat":43.282,"lon":5.39908,"is_reserved":false,"is_disabled":false,"rental_uris":{"android":"levelo://app?vid=feb86f62-2c80-4064-8e38-33c5534046da","ios":"levelo://app?vid=feb86f62-2c80-4064-8e38-33c5534046da"},"vehicle_type_id":"4","last_reported":1731341435,"current_range_meters":15200,"station_id":"","pricing_plan_id":"cebpf4jnsgd1na2vs0mg"},{"bike_id":"a2e0dbd8-6bb6-4f58-81e6-a5bb2ebfdca4","system_id":"levelo_inurba_marseille","lat":43.23198,"lon":5.35555,"is_reserved":false,"is_disabled":false,"rental_uris":{"android":"levelo://app?vid=a2e0dbd8-6bb6-4f58-81e6-a5bb2ebfdca4","ios":"levelo://app?vid=a2e0dbd8-6bb6-4f58-81e6-a5bb2ebfdca4"},"vehicle_type_id":"4","last_reported":1731341435,"current_range_meters":38800,"station_id":"ce4bhu92rcd13ifvqi70","pricing_plan_id":"cebpf4jnsgd1na2vs0mg"},{"bike_id":"74c504cd-92b8-4681-83ea-e3af213923b6","system_id":"levelo_inurba_marseille","lat":43.28957,"lon":5.36643,"is_reserved":false,"is_disabled":false,"rental_uris":{"android":"levelo://app?vid=74c504cd-92b8-4681-83ea-e3af213923b6","ios":"levelo://app?vid=74c504cd-92b8-4681-83ea-e3af213923b6"},"vehicle_type_id":"4","last_reported":1731341435,"current_range_meters":20400,"station_id":"ce4bhap2rcd13ifvqek0","pricing_plan_id":"cebpf4jnsgd1na2vs0mg"},{"bike_id":"d34bf5b5-25e3-4cbb-9654-ea9ef4a468a2","system_id":"levelo_inurba_marseille","lat":43.23963,"lon":5.36636,"is_reserved":false,"is_disabled":false,"rental_uris":{"android":"levelo://app?vid=d34bf5b5-25e3-4cbb-9654-ea9ef4a468a2","ios":"levelo://app?vid=d34bf5b5-25e3-4cbb-9654-ea9ef4a468a2"},"vehicle_type_id":"4","last_reported":1731341435,"current_range_meters":20000,"station_id":"ce4bhi12rcd13ifvqfp0","pricing_plan_id":"cebpf4jnsgd1na2vs0mg"},{"bike_id":"859c30a1-fa34-4c5f-92c4-049f5aaea4a6","system_id":"levelo_inurba_marseille","lat":43.3043,"lon":5.38839,"is_reserved":false,"is_disabled":false,"rental_uris":{"android":"levelo://app?vid=859c30a1-fa34-4c5f-92c4-049f5aaea4a6","ios":"levelo://app?vid=859c30a1-fa34-4c5f-92c4-049f5aaea4a6"},"vehicle_type_id":"4","last_reported":1731341435,"current_range_meters":4000,"station_id":"ce4bgk12rcd13ifvqbi0","pricing_plan_id":"cebpf4jnsgd1na2vs0mg"},{"bike_id":"43b14cd0-89bb-4437-bd30-74acfcc0f07f","system_id":"levelo_inurba_marseille","lat":43.29076,"lon":5.37149,"is_reserved":false,"is_disabled":false,"rental_uris":{"android":"levelo://app?vid=43b14cd0-89bb-4437-bd30-74acfcc0f07f","ios":"levelo://app?vid=43b14cd0-89bb-4437-bd30-74acfcc0f07f"},"vehicle_type_id":"4","last_reported":1731341435,"current_range_meters":8800,"station_id":"ce4bh5p2rcd13ifvqe4g","pricing_plan_id":"cebpf4jnsgd1na2vs0mg"},{"bike_id":"b8150844-6f22-47ad-8676-c28f6a16f204","system_id":"levelo_inurba_marseille","lat":43.26564,"lon":5.37288,"is_reserved":false,"is_disabled":false,"rental_uris":{"android":"levelo://app?vid=b8150844-6f22-47ad-8676-c28f6a16f204","ios":"levelo://app?vid=b8150844-6f22-47ad-8676-c28f6a16f204"},"vehicle_type_id":"4","last_reported":1731341435,"current_range_meters":16800,"station_id":"ce4bhg12rcd13ifvqf70","pricing_plan_id":"cebpf4jnsgd1na2vs0mg"},{"bike_id":"0f564930-73c3-47a9-bbf3-ca941cea0180","system_id":"levelo_inurba_marseille","lat":43.25581,"lon":5.38227,"is_reserved":false,"is_disabled":false,"rental_uris":{"android":"levelo://app?vid=0f564930-73c3-47a9-bbf3-ca941cea0180","ios":"levelo://app?vid=0f564930-73c3-47a9-bbf3-ca941cea0180"},"vehicle_type_id":"4","last_reported":1731341435,"current_range_meters":22800,"station_id":"ce4bhih2rcd13ifvqfs0","pricing_plan_id":"cebpf4jnsgd1na2vs0mg"},{"bike_id":"106cc77c-122d-43e9-b84f-d8544cad5890","system_id":"levelo_inurba_marseille","lat":43.28994,"lon":5.36695,"is_reserved":false,"is_disabled":false,"rental_uris":{"android":"levelo://app?vid=106cc77c-122d-43e9-b84f-d8544cad5890","ios":"levelo://app?vid=106cc77c-122d-43e9-b84f-d8544cad5890"},"vehicle_type_id":"4","last_reported":1731341435,"current_range_meters":30400,"station_id":"","pricing_plan_id":"cebpf4jnsgd1na2vs0mg"},{"bike_id":"4c401297-6a30-423c-b015-30e410f46f4f","system_id":"levelo_inurba_marseille","lat":43.283771,"lon":5.375332,"is_reserved":false,"is_disabled":false,"rental_uris":{"android":"levelo://app?vid=4c401297-6a30-423c-b015-30e410f46f4f","ios":"levelo://app?vid=4c401297-6a30-423c-b015-30e410f46f4f"},"vehicle_type_id":"4","last_reported":1731341435,"current_range_meters":20800,"station_id":"ce4bh412rcd13ifvqds0","pricing_plan_id":"cebpf4jnsgd1na2vs0mg"},{"bike_id":"b16943e1-6e4b-4767-8789-7da828786277","system_id":"levelo_inurba_marseille","lat":43.34174,"lon":5.38611,"is_reserved":false,"is_disabled":false,"rental_uris":{"android":"levelo://app?vid=b16943e1-6e4b-4767-8789-7da828786277","ios":"levelo://app?vid=b16943e1-6e4b-4767-8789-7da828786277"},"vehicle_type_id":"4","last_reported":1731341435,"current_range_meters":12400,"station_id":"","pricing_plan_id":"cebpf4jnsgd1na2vs0mg"},{"bike_id":"a33390c7-6375-4325-9681-d60530ae4f0e","system_id":"levelo_inurba_marseille","lat":43.28669,"lon":5.36359,"is_reserved":false,"is_disabled":false,"rental_uris":{"android":"levelo://app?vid=a33390c7-6375-4325-9681-d60530ae4f0e","ios":"levelo://app?vid=a33390c7-6375-4325-9681-d60530ae4f0e"},"vehicle_type_id":"4","last_reported":1731341435,"current_range_meters":22800,"station_id":"ce4bhah2rcd13ifvqej0","pricing_plan_id":"cebpf4jnsgd1na2vs0mg"},{"bike_id":"0b51dfba-49d0-4438-a5f8-e71b87618bab","system_id":"levelo_inurba_marseille","lat":43.27945,"lon":5.41049,"is_reserved":false,"is_disabled":false,"rental_uris":{"android":"levelo://app?vid=0b51dfba-49d0-4438-a5f8-e71b87618bab","ios":"levelo://app?vid=0b51dfba-49d0-4438-a5f8-e71b87618bab"},"vehicle_type_id":"4","last_reported":1731341435,"current_range_meters":8400,"station_id":"ce4bhnp2rcd13ifvqh0g","pricing_plan_id":"cebpf4jnsgd1na2vs0mg"},{"bike_id":"99008123-c64a-4bcf-9c07-bf7aa0256805","system_id":"levelo_inurba_marseille","lat":43.29533,"lon":5.38549,"is_reserved":false,"is_disabled":false,"rental_uris":{"android":"levelo://app?vid=99008123-c64a-4bcf-9c07-bf7aa0256805","ios":"levelo://app?vid=99008123-c64a-4bcf-9c07-bf7aa0256805"},"vehicle_type_id":"4","last_reported":1731341435,"current_range_meters":29600,"station_id":"ce4bgih2rcd13ifvqba0","pricing_plan_id":"cebpf4jnsgd1na2vs0mg"},{"bike_id":"dc12c22a-8cf2-4528-b50b-ec412d178453","system_id":"levelo_inurba_marseille","lat":43.31728,"lon":5.42398,"is_reserved":false,"is_disabled":false,"rental_uris":{"android":"levelo://app?vid=dc12c22a-8cf2-4528-b50b-ec412d178453","ios":"levelo://app?vid=dc12c22a-8cf2-4528-b50b-ec412d178453"},"vehicle_type_id":"4","last_reported":1731341435,"current_range_meters":38000,"station_id":"ce4bhp92rcd13ifvqhbg","pricing_plan_id":"cebpf4jnsgd1na2vs0mg"},{"bike_id":"3dfc655f-dc40-40e1-adc8-dad4496f2e4c","system_id":"levelo_inurba_marseille","lat":43.23961,"lon":5.36635,"is_reserved":false,"is_disabled":false,"rental_uris":{"android":"levelo://app?vid=3dfc655f-dc40-40e1-adc8-dad4496f2e4c","ios":"levelo://app?vid=3dfc655f-dc40-40e1-adc8-dad4496f2e4c"},"vehicle_type_id":"4","last_reported":1731341435,"current_range_meters":35200,"station_id":"ce4bhi12rcd13ifvqfp0","pricing_plan_id":"cebpf4jnsgd1na2vs0mg"},{"bike_id":"670a0569-1cd2-4534-816e-2223647a4790","system_id":"levelo_inurba_marseille","lat":43.337444,"lon":5.374475,"is_reserved":false,"is_disabled":false,"rental_uris":{"android":"levelo://app?vid=670a0569-1cd2-4534-816e-2223647a4790","ios":"levelo://app?vid=670a0569-1cd2-4534-816e-2223647a4790"},"vehicle_type_id":"4","last_reported":1731341435,"current_range_meters":36000,"station_id":"","pricing_plan_id":"cebpf4jnsgd1na2vs0mg"},{"bike_id":"2678dba8-96db-431b-8501-19eb207e0f6b","system_id":"levelo_inurba_marseille","lat":43.284546,"lon":5.358936,"is_reserved":false,"is_disabled":false,"rental_uris":{"android":"levelo://app?vid=2678dba8-96db-431b-8501-19eb207e0f6b","ios":"levelo://app?vid=2678dba8-96db-431b-8501-19eb207e0f6b"},"vehicle_type_id":"4","last_reported":1731341435,"current_range_meters":38800,"station_id":"ce4bhah2rcd13ifvqei0","pricing_plan_id":"cebpf4jnsgd1na2vs0mg"},{"bike_id":"cda4d5ca-16db-4d45-9822-14141a1915b8","system_id":"levelo_inurba_marseille","lat":43.3172,"lon":5.42401,"is_reserved":false,"is_disabled":false,"rental_uris":{"android":"levelo://app?vid=cda4d5ca-16db-4d45-9822-14141a1915b8","ios":"levelo://app?vid=cda4d5ca-16db-4d45-9822-14141a1915b8"},"vehicle_type_id":"4","last_reported":1731341435,"current_range_meters":12000,"station_id":"ce4bhp92rcd13ifvqhbg","pricing_plan_id":"cebpf4jnsgd1na2vs0mg"},{"bike_id":"dbd90aed-ee13-49a9-b118-b0ab9f7706ee","system_id":"levelo_inurba_marseille","lat":43.28727,"lon":5.36086,"is_reserved":false,"is_disabled":false,"rental_uris":{"android":"levelo://app?vid=dbd90aed-ee13-49a9-b118-b0ab9f7706ee","ios":"levelo://app?vid=dbd90aed-ee13-49a9-b118-b0ab9f7706ee"},"vehicle_type_id":"4","last_reported":1731341435,"current_range_meters":17200,"station_id":"cki0cbj6b192h4jlfktg","pricing_plan_id":"cebpf4jnsgd1na2vs0mg"},{"bike_id":"5b86b072-d114-4fe3-b97d-b7eec3b13ee7","system_id":"levelo_inurba_marseille","lat":43.2593,"lon":5.40916,"is_reserved":false,"is_disabled":false,"rental_uris":{"android":"levelo://app?vid=5b86b072-d114-4fe3-b97d-b7eec3b13ee7","ios":"levelo://app?vid=5b86b072-d114-4fe3-b97d-b7eec3b13ee7"},"vehicle_type_id":"4","last_reported":1731341435,"current_range_meters":8400,"station_id":"ce4bhm92rcd13ifvqglg","pricing_plan_id":"cebpf4jnsgd1na2vs0mg"},{"bike_id":"c5222783-c5ca-4f71-949e-7508f94952eb","system_id":"levelo_inurba_marseille","lat":43.28274,"lon":5.3507,"is_reserved":false,"is_disabled":false,"rental_uris":{"android":"levelo://app?vid=c5222783-c5ca-4f71-949e-7508f94952eb","ios":"levelo://app?vid=c5222783-c5ca-4f71-949e-7508f94952eb"},"vehicle_type_id":"4","last_reported":1731341435,"current_range_meters":38800,"station_id":"ce4bhbp2rcd13ifvqerg","pricing_plan_id":"cebpf4jnsgd1na2vs0mg"},{"bike_id":"77d79473-c105-43fd-bc58-202f0de3d9f2","system_id":"levelo_inurba_marseille","lat":43.32485,"lon":5.36566,"is_reserved":false,"is_disabled":false,"rental_uris":{"android":"levelo://app?vid=77d79473-c105-43fd-bc58-202f0de3d9f2","ios":"levelo://app?vid=77d79473-c105-43fd-bc58-202f0de3d9f2"},"vehicle_type_id":"4","last_reported":1731341435,"current_range_meters":27200,"station_id":"ce4bhs12rcd13ifvqhvg","pricing_plan_id":"cebpf4jnsgd1na2vs0mg"},{"bike_id":"cf59b943-4a60-4a95-a53d-5aedd36529da","system_id":"levelo_inurba_marseille","lat":43.25573,"lon":5.38241,"is_reserved":false,"is_disabled":false,"rental_uris":{"android":"levelo://app?vid=cf59b943-4a60-4a95-a53d-5aedd36529da","ios":"levelo://app?vid=cf59b943-4a60-4a95-a53d-5aedd36529da"},"vehicle_type_id":"4","last_reported":1731341435,"current_range_meters":14400,"station_id":"ce4bhih2rcd13ifvqfs0","pricing_plan_id":"cebpf4jnsgd1na2vs0mg"},{"bike_id":"82c9b95f-7670-46d2-8de1-1c40015bfade","system_id":"levelo_inurba_marseille","lat":43.28926,"lon":5.36649,"is_reserved":false,"is_disabled":false,"rental_uris":{"android":"levelo://app?vid=82c9b95f-7670-46d2-8de1-1c40015bfade","ios":"levelo://app?vid=82c9b95f-7670-46d2-8de1-1c40015bfade"},"vehicle_type_id":"4","last_reported":1731341435,"current_range_meters":36400,"station_id":"ce4bhap2rcd13ifvqek0","pricing_plan_id":"cebpf4jnsgd1na2vs0mg"},{"bike_id":"183f5334-f59b-4dba-b44c-622b8baabe12","system_id":"levelo_inurba_marseille","lat":43.29031,"lon":5.37554,"is_reserved":false,"is_disabled":false,"rental_uris":{"android":"levelo://app?vid=183f5334-f59b-4dba-b44c-622b8baabe12","ios":"levelo://app?vid=183f5334-f59b-4dba-b44c-622b8baabe12"},"vehicle_type_id":"4","last_reported":1731341435,"current_range_meters":36400,"station_id":"ce4bh692rcd13ifvqe90","pricing_plan_id":"cebpf4jnsgd1na2vs0mg"},{"bike_id":"91d27678-9fb5-4cf2-a1c3-8861feddf228","system_id":"levelo_inurba_marseille","lat":43.2319,"lon":5.35552,"is_reserved":false,"is_disabled":false,"rental_uris":{"android":"levelo://app?vid=91d27678-9fb5-4cf2-a1c3-8861feddf228","ios":"levelo://app?vid=91d27678-9fb5-4cf2-a1c3-8861feddf228"},"vehicle_type_id":"4","last_reported":1731341435,"current_range_meters":36800,"station_id":"ce4bhu92rcd13ifvqi70","pricing_plan_id":"cebpf4jnsgd1na2vs0mg"},{"bike_id":"a63cc4fe-db6a-4bea-8ed1-159697122d63","system_id":"levelo_inurba_marseille","lat":43.31215,"lon":5.36882,"is_reserved":false,"is_disabled":false,"rental_uris":{"android":"levelo://app?vid=a63cc4fe-db6a-4bea-8ed1-159697122d63","ios":"levelo://app?vid=a63cc4fe-db6a-4bea-8ed1-159697122d63"},"vehicle_type_id":"4","last_reported":1731341435,"current_range_meters":26000,"station_id":"ce4bgl92rcd13ifvqbq0","pricing_plan_id":"cebpf4jnsgd1na2vs0mg"},{"bike_id":"d1de80b0-db1c-45cb-9439-decd1dcb3e3d","system_id":"levelo_inurba_marseille","lat":43.2738,"lon":5.36273,"is_reserved":false,"is_disabled":false,"rental_uris":{"android":"levelo://app?vid=d1de80b0-db1c-45cb-9439-decd1dcb3e3d","ios":"levelo://app?vid=d1de80b0-db1c-45cb-9439-decd1dcb3e3d"},"vehicle_type_id":"4","last_reported":1731341435,"current_range_meters":6800,"station_id":"ce4bhbh2rcd13ifvqeo0","pricing_plan_id":"cebpf4jnsgd1na2vs0mg"},{"bike_id":"73ace6f2-0a89-419c-8c76-b00383a2441d","system_id":"levelo_inurba_marseille","lat":43.31374,"lon":5.38492,"is_reserved":false,"is_disabled":false,"rental_uris":{"android":"levelo://app?vid=73ace6f2-0a89-419c-8c76-b00383a2441d","ios":"levelo://app?vid=73ace6f2-0a89-419c-8c76-b00383a2441d"},"vehicle_type_id":"4","last_reported":1731341435,"current_range_meters":23200,"station_id":"ce4bgt92rcd13ifvqcf0","pricing_plan_id":"cebpf4jnsgd1na2vs0mg"},{"bike_id":"196d96e7-39b9-404d-9f03-63d715e7eebd","system_id":"levelo_inurba_marseille","lat":43.28152,"lon":5.42648,"is_reserved":false,"is_disabled":false,"rental_uris":{"android":"levelo://app?vid=196d96e7-39b9-404d-9f03-63d715e7eebd","ios":"levelo://app?vid=196d96e7-39b9-404d-9f03-63d715e7eebd"},"vehicle_type_id":"4","last_reported":1731341435,"current_range_meters":3600,"station_id":"ce4bhnh2rcd13ifvqgug","pricing_plan_id":"cebpf4jnsgd1na2vs0mg"},{"bike_id":"4dc0e3bd-ab9c-461a-835f-d4784d7b8326","system_id":"levelo_inurba_marseille","lat":43.3133,"lon":5.42369,"is_reserved":false,"is_disabled":false,"rental_uris":{"android":"levelo://app?vid=4dc0e3bd-ab9c-461a-835f-d4784d7b8326","ios":"levelo://app?vid=4dc0e3bd-ab9c-461a-835f-d4784d7b8326"},"vehicle_type_id":"4","last_reported":1731341435,"current_range_meters":8400,"station_id":"ce4bhp92rcd13ifvqhcg","pricing_plan_id":"cebpf4jnsgd1na2vs0mg"},{"bike_id":"8e3d5b00-e559-4ba4-8506-b31b8a4e5008","system_id":"levelo_inurba_marseille","lat":43.28418,"lon":5.35002,"is_reserved":false,"is_disabled":false,"rental_uris":{"android":"levelo://app?vid=8e3d5b00-e559-4ba4-8506-b31b8a4e5008","ios":"levelo://app?vid=8e3d5b00-e559-4ba4-8506-b31b8a4e5008"},"vehicle_type_id":"4","last_reported":1731341435,"current_range_meters":38800,"station_id":"ce4bhbh2rcd13ifvqepg","pricing_plan_id":"cebpf4jnsgd1na2vs0mg"},{"bike_id":"52cbd37b-1529-4980-ae8a-b78e49fdebce","system_id":"levelo_inurba_marseille","lat":43.23961,"lon":5.36634,"is_reserved":false,"is_disabled":false,"rental_uris":{"android":"levelo://app?vid=52cbd37b-1529-4980-ae8a-b78e49fdebce","ios":"levelo://app?vid=52cbd37b-1529-4980-ae8a-b78e49fdebce"},"vehicle_type_id":"4","last_reported":1731341435,"current_range_meters":6800,"station_id":"ce4bhi12rcd13ifvqfp0","pricing_plan_id":"cebpf4jnsgd1na2vs0mg"},{"bike_id":"add831eb-3a28-4296-b71b-2150476564e6","system_id":"levelo_inurba_marseille","lat":43.27494,"lon":5.42456,"is_reserved":false,"is_disabled":false,"rental_uris":{"android":"levelo://app?vid=add831eb-3a28-4296-b71b-2150476564e6","ios":"levelo://app?vid=add831eb-3a28-4296-b71b-2150476564e6"},"vehicle_type_id":"4","last_reported":1731341435,"current_range_meters":22800,"station_id":"ce4bhn92rcd13ifvqgrg","pricing_plan_id":"cebpf4jnsgd1na2vs0mg"},{"bike_id":"c30c7c17-b515-4143-9517-47b104debd66","system_id":"levelo_inurba_marseille","lat":43.337444,"lon":5.374475,"is_reserved":false,"is_disabled":false,"rental_uris":{"android":"levelo://app?vid=c30c7c17-b515-4143-9517-47b104debd66","ios":"levelo://app?vid=c30c7c17-b515-4143-9517-47b104debd66"},"vehicle_type_id":"4","last_reported":1731341435,"current_range_meters":9600,"station_id":"","pricing_plan_id":"cebpf4jnsgd1na2vs0mg"},{"bike_id":"a3737c00-2b24-45c7-87f6-a52becd1e5b4","system_id":"levelo_inurba_marseille","lat":43.27083,"lon":5.37999,"is_reserved":false,"is_disabled":false,"rental_uris":{"android":"levelo://app?vid=a3737c00-2b24-45c7-87f6-a52becd1e5b4","ios":"levelo://app?vid=a3737c00-2b24-45c7-87f6-a52becd1e5b4"},"vehicle_type_id":"4","last_reported":1731341435,"current_range_meters":30400,"station_id":"","pricing_plan_id":"cebpf4jnsgd1na2vs0mg"},{"bike_id":"ac38081c-7443-4cd4-8601-7d80351ac7a4","system_id":"levelo_inurba_marseille","lat":43.29005,"lon":5.356,"is_reserved":false,"is_disabled":false,"rental_uris":{"android":"levelo://app?vid=ac38081c-7443-4cd4-8601-7d80351ac7a4","ios":"levelo://app?vid=ac38081c-7443-4cd4-8601-7d80351ac7a4"},"vehicle_type_id":"4","last_reported":1731341435,"current_range_meters":15200,"station_id":"ce4bhb92rcd13ifvqen0","pricing_plan_id":"cebpf4jnsgd1na2vs0mg"},{"bike_id":"da33cd04-9f8c-4e3b-8a79-af3f178e714d","system_id":"levelo_inurba_marseille","lat":43.2827,"lon":5.35069,"is_reserved":false,"is_disabled":false,"rental_uris":{"android":"levelo://app?vid=da33cd04-9f8c-4e3b-8a79-af3f178e714d","ios":"levelo://app?vid=da33cd04-9f8c-4e3b-8a79-af3f178e714d"},"vehicle_type_id":"4","last_reported":1731341435,"current_range_meters":38800,"station_id":"ce4bhbp2rcd13ifvqerg","pricing_plan_id":"cebpf4jnsgd1na2vs0mg"},{"bike_id":"3c8af3c5-bb73-4ccb-bf1c-ce6f9151d77c","system_id":"levelo_inurba_marseille","lat":43.23964,"lon":5.36642,"is_reserved":false,"is_disabled":false,"rental_uris":{"android":"levelo://app?vid=3c8af3c5-bb73-4ccb-bf1c-ce6f9151d77c","ios":"levelo://app?vid=3c8af3c5-bb73-4ccb-bf1c-ce6f9151d77c"},"vehicle_type_id":"4","last_reported":1731341435,"current_range_meters":38800,"station_id":"ce4bhi12rcd13ifvqfp0","pricing_plan_id":"cebpf4jnsgd1na2vs0mg"},{"bike_id":"0be8e768-e8a0-4c67-9ece-6e51ece97592","system_id":"levelo_inurba_marseille","lat":43.2985,"lon":5.36292,"is_reserved":false,"is_disabled":false,"rental_uris":{"android":"levelo://app?vid=0be8e768-e8a0-4c67-9ece-6e51ece97592","ios":"levelo://app?vid=0be8e768-e8a0-4c67-9ece-6e51ece97592"},"vehicle_type_id":"4","last_reported":1731341435,"current_range_meters":38800,"station_id":"ce4bgpp2rcd13ifvqc3g","pricing_plan_id":"cebpf4jnsgd1na2vs0mg"},{"bike_id":"850518c8-8b06-475b-94bf-5c77b523d1f7","system_id":"levelo_inurba_marseille","lat":43.28416,"lon":5.35,"is_reserved":false,"is_disabled":false,"rental_uris":{"android":"levelo://app?vid=850518c8-8b06-475b-94bf-5c77b523d1f7","ios":"levelo://app?vid=850518c8-8b06-475b-94bf-5c77b523d1f7"},"vehicle_type_id":"4","last_reported":1731341435,"current_range_meters":38800,"station_id":"ce4bhbh2rcd13ifvqepg","pricing_plan_id":"cebpf4jnsgd1na2vs0mg"},{"bike_id":"47ac16a6-b6aa-4da2-8502-393371b631f0","system_id":"levelo_inurba_marseille","lat":43.23182,"lon":5.39993,"is_reserved":false,"is_disabled":false,"rental_uris":{"android":"levelo://app?vid=47ac16a6-b6aa-4da2-8502-393371b631f0","ios":"levelo://app?vid=47ac16a6-b6aa-4da2-8502-393371b631f0"},"vehicle_type_id":"4","last_reported":1731341435,"current_range_meters":4400,"station_id":"ce4bhn12rcd13ifvqgqg","pricing_plan_id":"cebpf4jnsgd1na2vs0mg"},{"bike_id":"3c9c3067-40b0-4fdd-b31a-b4ed7c72723c","system_id":"levelo_inurba_marseille","lat":43.23961,"lon":5.36634,"is_reserved":false,"is_disabled":false,"rental_uris":{"android":"levelo://app?vid=3c9c3067-40b0-4fdd-b31a-b4ed7c72723c","ios":"levelo://app?vid=3c9c3067-40b0-4fdd-b31a-b4ed7c72723c"},"vehicle_type_id":"4","last_reported":1731341435,"current_range_meters":24800,"station_id":"ce4bhi12rcd13ifvqfp0","pricing_plan_id":"cebpf4jnsgd1na2vs0mg"},{"bike_id":"ec84a4b9-97e6-4ce6-8435-acb88f6cd9f5","system_id":"levelo_inurba_marseille","lat":43.25722,"lon":5.4112,"is_reserved":false,"is_disabled":false,"rental_uris":{"android":"levelo://app?vid=ec84a4b9-97e6-4ce6-8435-acb88f6cd9f5","ios":"levelo://app?vid=ec84a4b9-97e6-4ce6-8435-acb88f6cd9f5"},"vehicle_type_id":"4","last_reported":1731341435,"current_range_meters":8800,"station_id":"ce4bhkp2rcd13ifvqgd0","pricing_plan_id":"cebpf4jnsgd1na2vs0mg"},{"bike_id":"d1002e6f-ed47-49ee-92a9-d53dff30160d","system_id":"levelo_inurba_marseille","lat":43.28428,"lon":5.34986,"is_reserved":false,"is_disabled":false,"rental_uris":{"android":"levelo://app?vid=d1002e6f-ed47-49ee-92a9-d53dff30160d","ios":"levelo://app?vid=d1002e6f-ed47-49ee-92a9-d53dff30160d"},"vehicle_type_id":"4","last_reported":1731341435,"current_range_meters":24000,"station_id":"ce4bhbh2rcd13ifvqepg","pricing_plan_id":"cebpf4jnsgd1na2vs0mg"},{"bike_id":"57387bfc-62e0-4728-a14b-fb326538ed76","system_id":"levelo_inurba_marseille","lat":43.29567,"lon":5.37541,"is_reserved":false,"is_disabled":false,"rental_uris":{"android":"levelo://app?vid=57387bfc-62e0-4728-a14b-fb326538ed76","ios":"levelo://app?vid=57387bfc-62e0-4728-a14b-fb326538ed76"},"vehicle_type_id":"4","last_reported":1731341435,"current_range_meters":10800,"station_id":"ce4bgh92rcd13ifvqb50","pricing_plan_id":"cebpf4jnsgd1na2vs0mg"},{"bike_id":"e6798bbc-0707-42c5-9a11-d1fda0166cf7","system_id":"levelo_inurba_marseille","lat":43.337444,"lon":5.374475,"is_reserved":false,"is_disabled":false,"rental_uris":{"android":"levelo://app?vid=e6798bbc-0707-42c5-9a11-d1fda0166cf7","ios":"levelo://app?vid=e6798bbc-0707-42c5-9a11-d1fda0166cf7"},"vehicle_type_id":"4","last_reported":1731341435,"current_range_meters":10000,"station_id":"","pricing_plan_id":"cebpf4jnsgd1na2vs0mg"},{"bike_id":"04bd219e-7ad5-4c16-9a71-7fa57a6b73c6","system_id":"levelo_inurba_marseille","lat":43.29792,"lon":5.3811,"is_reserved":false,"is_disabled":false,"rental_uris":{"android":"levelo://app?vid=04bd219e-7ad5-4c16-9a71-7fa57a6b73c6","ios":"levelo://app?vid=04bd219e-7ad5-4c16-9a71-7fa57a6b73c6"},"vehicle_type_id":"4","last_reported":1731341435,"current_range_meters":32000,"station_id":"ce4bgip2rcd13ifvqbb0","pricing_plan_id":"cebpf4jnsgd1na2vs0mg"},{"bike_id":"42fe550d-43eb-4681-9b6f-e26c0c9098d9","system_id":"levelo_inurba_marseille","lat":43.28947,"lon":5.36415,"is_reserved":false,"is_disabled":false,"rental_uris":{"android":"levelo://app?vid=42fe550d-43eb-4681-9b6f-e26c0c9098d9","ios":"levelo://app?vid=42fe550d-43eb-4681-9b6f-e26c0c9098d9"},"vehicle_type_id":"4","last_reported":1731341435,"current_range_meters":23200,"station_id":"ce4bhc92rcd13ifvqetg","pricing_plan_id":"cebpf4jnsgd1na2vs0mg"},{"bike_id":"6962350e-7aa4-440c-82bf-69fc595fca75","system_id":"levelo_inurba_marseille","lat":43.23963,"lon":5.36636,"is_reserved":false,"is_disabled":false,"rental_uris":{"android":"levelo://app?vid=6962350e-7aa4-440c-82bf-69fc595fca75","ios":"levelo://app?vid=6962350e-7aa4-440c-82bf-69fc595fca75"},"vehicle_type_id":"4","last_reported":1731341435,"current_range_meters":6400,"station_id":"ce4bhi12rcd13ifvqfp0","pricing_plan_id":"cebpf4jnsgd1na2vs0mg"},{"bike_id":"e1d21352-b3ff-433c-aa83-9ec9a3501cff","system_id":"levelo_inurba_marseille","lat":43.29926,"lon":5.37473,"is_reserved":false,"is_disabled":false,"rental_uris":{"android":"levelo://app?vid=e1d21352-b3ff-433c-aa83-9ec9a3501cff","ios":"levelo://app?vid=e1d21352-b3ff-433c-aa83-9ec9a3501cff"},"vehicle_type_id":"4","last_reported":1731341435,"current_range_meters":8000,"station_id":"ce4bgjh2rcd13ifvqbg0","pricing_plan_id":"cebpf4jnsgd1na2vs0mg"},{"bike_id":"85600b83-fbb8-4a1d-871b-d12d0e49c9a3","system_id":"levelo_inurba_marseille","lat":43.23956,"lon":5.36632,"is_reserved":false,"is_disabled":false,"rental_uris":{"android":"levelo://app?vid=85600b83-fbb8-4a1d-871b-d12d0e49c9a3","ios":"levelo://app?vid=85600b83-fbb8-4a1d-871b-d12d0e49c9a3"},"vehicle_type_id":"4","last_reported":1731341435,"current_range_meters":8000,"station_id":"ce4bhi12rcd13ifvqfp0","pricing_plan_id":"cebpf4jnsgd1na2vs0mg"},{"bike_id":"05616948-74f4-45b4-82c7-6a31efaf0a58","system_id":"levelo_inurba_marseille","lat":43.28461,"lon":5.35891,"is_reserved":false,"is_disabled":false,"rental_uris":{"android":"levelo://app?vid=05616948-74f4-45b4-82c7-6a31efaf0a58","ios":"levelo://app?vid=05616948-74f4-45b4-82c7-6a31efaf0a58"},"vehicle_type_id":"4","last_reported":1731341435,"current_range_meters":1600,"station_id":"ce4bhah2rcd13ifvqei0","pricing_plan_id":"cebpf4jnsgd1na2vs0mg"},{"bike_id":"5870b8b8-fdff-43fa-b5bd-c7233d18dae9","system_id":"levelo_inurba_marseille","lat":43.23193,"lon":5.35562,"is_reserved":false,"is_disabled":false,"rental_uris":{"android":"levelo://app?vid=5870b8b8-fdff-43fa-b5bd-c7233d18dae9","ios":"levelo://app?vid=5870b8b8-fdff-43fa-b5bd-c7233d18dae9"},"vehicle_type_id":"4","last_reported":1731341435,"current_range_meters":34800,"station_id":"ce4bhu92rcd13ifvqi70","pricing_plan_id":"cebpf4jnsgd1na2vs0mg"},{"bike_id":"f4e31bc9-0a7e-4703-a1de-2c0e7e421865","system_id":"levelo_inurba_marseille","lat":43.29713,"lon":5.36611,"is_reserved":false,"is_disabled":false,"rental_uris":{"android":"levelo://app?vid=f4e31bc9-0a7e-4703-a1de-2c0e7e421865","ios":"levelo://app?vid=f4e31bc9-0a7e-4703-a1de-2c0e7e421865"},"vehicle_type_id":"4","last_reported":1731341435,"current_range_meters":9200,"station_id":"ce4bgn12rcd13ifvqbt0","pricing_plan_id":"cebpf4jnsgd1na2vs0mg"},{"bike_id":"deabd688-bcc2-4c19-8736-f2414d474dc3","system_id":"levelo_inurba_marseille","lat":43.27172,"lon":5.41007,"is_reserved":false,"is_disabled":false,"rental_uris":{"android":"levelo://app?vid=deabd688-bcc2-4c19-8736-f2414d474dc3","ios":"levelo://app?vid=deabd688-bcc2-4c19-8736-f2414d474dc3"},"vehicle_type_id":"4","last_reported":1731341435,"current_range_meters":38800,"station_id":"ce4bhl12rcd13ifvqgf0","pricing_plan_id":"cebpf4jnsgd1na2vs0mg"},{"bike_id":"afd84fcc-4d8c-4b89-ba13-10681ba93fa3","system_id":"levelo_inurba_marseille","lat":43.29356,"lon":5.45046,"is_reserved":false,"is_disabled":false,"rental_uris":{"android":"levelo://app?vid=afd84fcc-4d8c-4b89-ba13-10681ba93fa3","ios":"levelo://app?vid=afd84fcc-4d8c-4b89-ba13-10681ba93fa3"},"vehicle_type_id":"4","last_reported":1731341435,"current_range_meters":17200,"station_id":"","pricing_plan_id":"cebpf4jnsgd1na2vs0mg"},{"bike_id":"a00c50e9-f932-4280-8641-6de0ae3844c5","system_id":"levelo_inurba_marseille","lat":43.32434,"lon":5.36981,"is_reserved":false,"is_disabled":false,"rental_uris":{"android":"levelo://app?vid=a00c50e9-f932-4280-8641-6de0ae3844c5","ios":"levelo://app?vid=a00c50e9-f932-4280-8641-6de0ae3844c5"},"vehicle_type_id":"4","last_reported":1731341435,"current_range_meters":16400,"station_id":"","pricing_plan_id":"cebpf4jnsgd1na2vs0mg"},{"bike_id":"5e50d75e-b002-4fa5-a26f-ffead006208b","system_id":"levelo_inurba_marseille","lat":43.2396,"lon":5.36631,"is_reserved":false,"is_disabled":false,"rental_uris":{"android":"levelo://app?vid=5e50d75e-b002-4fa5-a26f-ffead006208b","ios":"levelo://app?vid=5e50d75e-b002-4fa5-a26f-ffead006208b"},"vehicle_type_id":"4","last_reported":1731341435,"current_range_meters":15200,"station_id":"ce4bhi12rcd13ifvqfp0","pricing_plan_id":"cebpf4jnsgd1na2vs0mg"},{"bike_id":"ad4b8995-ac98-4aa2-9021-25d79f7bd9a0","system_id":"levelo_inurba_marseille","lat":43.29035,"lon":5.35932,"is_reserved":false,"is_disabled":false,"rental_uris":{"android":"levelo://app?vid=ad4b8995-ac98-4aa2-9021-25d79f7bd9a0","ios":"levelo://app?vid=ad4b8995-ac98-4aa2-9021-25d79f7bd9a0"},"vehicle_type_id":"4","last_reported":1731341435,"current_range_meters":38800,"station_id":"ce4bha92rcd13ifvqeg0","pricing_plan_id":"cebpf4jnsgd1na2vs0mg"},{"bike_id":"566eab89-15f5-4d14-956b-e8eac078cde9","system_id":"levelo_inurba_marseille","lat":43.23956,"lon":5.36634,"is_reserved":false,"is_disabled":false,"rental_uris":{"android":"levelo://app?vid=566eab89-15f5-4d14-956b-e8eac078cde9","ios":"levelo://app?vid=566eab89-15f5-4d14-956b-e8eac078cde9"},"vehicle_type_id":"4","last_reported":1731341435,"current_range_meters":30800,"station_id":"ce4bhi12rcd13ifvqfp0","pricing_plan_id":"cebpf4jnsgd1na2vs0mg"},{"bike_id":"37f38da1-d45c-4fc0-ad72-0dd851f7eb0b","system_id":"levelo_inurba_marseille","lat":43.30529,"lon":5.36698,"is_reserved":false,"is_disabled":false,"rental_uris":{"android":"levelo://app?vid=37f38da1-d45c-4fc0-ad72-0dd851f7eb0b","ios":"levelo://app?vid=37f38da1-d45c-4fc0-ad72-0dd851f7eb0b"},"vehicle_type_id":"4","last_reported":1731341435,"current_range_meters":38800,"station_id":"ce4bgrp2rcd13ifvqc9g","pricing_plan_id":"cebpf4jnsgd1na2vs0mg"},{"bike_id":"5cd241d1-ee41-4a56-8772-871d86ae6160","system_id":"levelo_inurba_marseille","lat":43.30805,"lon":5.4353,"is_reserved":false,"is_disabled":false,"rental_uris":{"android":"levelo://app?vid=5cd241d1-ee41-4a56-8772-871d86ae6160","ios":"levelo://app?vid=5cd241d1-ee41-4a56-8772-871d86ae6160"},"vehicle_type_id":"4","last_reported":1731341435,"current_range_meters":24400,"station_id":"ce4bhph2rcd13ifvqheg","pricing_plan_id":"cebpf4jnsgd1na2vs0mg"},{"bike_id":"94567c21-e55a-4908-97f5-71419e20efbc","system_id":"levelo_inurba_marseille","lat":43.28456,"lon":5.35883,"is_reserved":false,"is_disabled":false,"rental_uris":{"android":"levelo://app?vid=94567c21-e55a-4908-97f5-71419e20efbc","ios":"levelo://app?vid=94567c21-e55a-4908-97f5-71419e20efbc"},"vehicle_type_id":"4","last_reported":1731341435,"current_range_meters":2800,"station_id":"ce4bhah2rcd13ifvqei0","pricing_plan_id":"cebpf4jnsgd1na2vs0mg"},{"bike_id":"4bfc7cfc-a0a8-496b-932f-a2b1757ae91d","system_id":"levelo_inurba_marseille","lat":43.24454,"lon":5.37252,"is_reserved":false,"is_disabled":false,"rental_uris":{"android":"levelo://app?vid=4bfc7cfc-a0a8-496b-932f-a2b1757ae91d","ios":"levelo://app?vid=4bfc7cfc-a0a8-496b-932f-a2b1757ae91d"},"vehicle_type_id":"4","last_reported":1731341435,"current_range_meters":26800,"station_id":"","pricing_plan_id":"cebpf4jnsgd1na2vs0mg"},{"bike_id":"549a95d5-8007-4529-9056-1dd1e4ae98b7","system_id":"levelo_inurba_marseille","lat":43.29031,"lon":5.38128,"is_reserved":false,"is_disabled":false,"rental_uris":{"android":"levelo://app?vid=549a95d5-8007-4529-9056-1dd1e4ae98b7","ios":"levelo://app?vid=549a95d5-8007-4529-9056-1dd1e4ae98b7"},"vehicle_type_id":"4","last_reported":1731341435,"current_range_meters":34000,"station_id":"ce4bh4p2rcd13ifvqe1g","pricing_plan_id":"cebpf4jnsgd1na2vs0mg"},{"bike_id":"036ed9a3-ecbd-42c2-8f66-aa5d9df3af7c","system_id":"levelo_inurba_marseille","lat":43.269365,"lon":5.402453,"is_reserved":false,"is_disabled":false,"rental_uris":{"android":"levelo://app?vid=036ed9a3-ecbd-42c2-8f66-aa5d9df3af7c","ios":"levelo://app?vid=036ed9a3-ecbd-42c2-8f66-aa5d9df3af7c"},"vehicle_type_id":"4","last_reported":1731341435,"current_range_meters":8400,"station_id":"cjm6bp8fraef2m0cb0m0","pricing_plan_id":"cebpf4jnsgd1na2vs0mg"},{"bike_id":"a1189e62-52e3-4f25-b718-2ae9f3ab074e","system_id":"levelo_inurba_marseille","lat":43.30895,"lon":5.37195,"is_reserved":false,"is_disabled":false,"rental_uris":{"android":"levelo://app?vid=a1189e62-52e3-4f25-b718-2ae9f3ab074e","ios":"levelo://app?vid=a1189e62-52e3-4f25-b718-2ae9f3ab074e"},"vehicle_type_id":"4","last_reported":1731341435,"current_range_meters":29600,"station_id":"ce4bguh2rcd13ifvqckg","pricing_plan_id":"cebpf4jnsgd1na2vs0mg"},{"bike_id":"97c72c15-b2a4-44ec-9a14-8ec0a3148744","system_id":"levelo_inurba_marseille","lat":43.27495,"lon":5.42454,"is_reserved":false,"is_disabled":false,"rental_uris":{"android":"levelo://app?vid=97c72c15-b2a4-44ec-9a14-8ec0a3148744","ios":"levelo://app?vid=97c72c15-b2a4-44ec-9a14-8ec0a3148744"},"vehicle_type_id":"4","last_reported":1731341435,"current_range_meters":34800,"station_id":"ce4bhn92rcd13ifvqgrg","pricing_plan_id":"cebpf4jnsgd1na2vs0mg"},{"bike_id":"0709646c-f55c-4bcf-a9ba-81f7ba7e860c","system_id":"levelo_inurba_marseille","lat":43.27376,"lon":5.36276,"is_reserved":false,"is_disabled":false,"rental_uris":{"android":"levelo://app?vid=0709646c-f55c-4bcf-a9ba-81f7ba7e860c","ios":"levelo://app?vid=0709646c-f55c-4bcf-a9ba-81f7ba7e860c"},"vehicle_type_id":"4","last_reported":1731341435,"current_range_meters":39200,"station_id":"ce4bhbh2rcd13ifvqeo0","pricing_plan_id":"cebpf4jnsgd1na2vs0mg"},{"bike_id":"d28113cb-ffbb-4b53-83f0-91df46702b56","system_id":"levelo_inurba_marseille","lat":43.28379,"lon":5.3863,"is_reserved":false,"is_disabled":false,"rental_uris":{"android":"levelo://app?vid=d28113cb-ffbb-4b53-83f0-91df46702b56","ios":"levelo://app?vid=d28113cb-ffbb-4b53-83f0-91df46702b56"},"vehicle_type_id":"4","last_reported":1731341435,"current_range_meters":7200,"station_id":"ce4bh492rcd13ifvqdvg","pricing_plan_id":"cebpf4jnsgd1na2vs0mg"},{"bike_id":"8ec809c6-9d28-4f0a-89af-71c5b058a09b","system_id":"levelo_inurba_marseille","lat":43.2895,"lon":5.36401,"is_reserved":false,"is_disabled":false,"rental_uris":{"android":"levelo://app?vid=8ec809c6-9d28-4f0a-89af-71c5b058a09b","ios":"levelo://app?vid=8ec809c6-9d28-4f0a-89af-71c5b058a09b"},"vehicle_type_id":"4","last_reported":1731341435,"current_range_meters":20800,"station_id":"ce4bhc92rcd13ifvqetg","pricing_plan_id":"cebpf4jnsgd1na2vs0mg"},{"bike_id":"a9aa792e-6634-4cad-a087-2d5fb2d9a9f3","system_id":"levelo_inurba_marseille","lat":43.23958,"lon":5.36626,"is_reserved":false,"is_disabled":false,"rental_uris":{"android":"levelo://app?vid=a9aa792e-6634-4cad-a087-2d5fb2d9a9f3","ios":"levelo://app?vid=a9aa792e-6634-4cad-a087-2d5fb2d9a9f3"},"vehicle_type_id":"4","last_reported":1731341435,"current_range_meters":32400,"station_id":"ce4bhi12rcd13ifvqfp0","pricing_plan_id":"cebpf4jnsgd1na2vs0mg"},{"bike_id":"7c7a6408-bf1f-4bd5-a13e-de8ae6c8e0e9","system_id":"levelo_inurba_marseille","lat":43.28937,"lon":5.3963,"is_reserved":false,"is_disabled":false,"rental_uris":{"android":"levelo://app?vid=7c7a6408-bf1f-4bd5-a13e-de8ae6c8e0e9","ios":"levelo://app?vid=7c7a6408-bf1f-4bd5-a13e-de8ae6c8e0e9"},"vehicle_type_id":"4","last_reported":1731341435,"current_range_meters":1200,"station_id":"ce4bh3h2rcd13ifvqdn0","pricing_plan_id":"cebpf4jnsgd1na2vs0mg"},{"bike_id":"f5903d35-93b2-40d7-877c-3f4b399c4e58","system_id":"levelo_inurba_marseille","lat":43.31088,"lon":5.42427,"is_reserved":false,"is_disabled":false,"rental_uris":{"android":"levelo://app?vid=f5903d35-93b2-40d7-877c-3f4b399c4e58","ios":"levelo://app?vid=f5903d35-93b2-40d7-877c-3f4b399c4e58"},"vehicle_type_id":"4","last_reported":1731341435,"current_range_meters":10800,"station_id":"ce4bhp92rcd13ifvqhag","pricing_plan_id":"cebpf4jnsgd1na2vs0mg"},{"bike_id":"5ffa3e0b-d034-4bbe-a326-77a4588baefb","system_id":"levelo_inurba_marseille","lat":43.28412,"lon":5.34981,"is_reserved":false,"is_disabled":false,"rental_uris":{"android":"levelo://app?vid=5ffa3e0b-d034-4bbe-a326-77a4588baefb","ios":"levelo://app?vid=5ffa3e0b-d034-4bbe-a326-77a4588baefb"},"vehicle_type_id":"4","last_reported":1731341435,"current_range_meters":6400,"station_id":"ce4bhbh2rcd13ifvqepg","pricing_plan_id":"cebpf4jnsgd1na2vs0mg"},{"bike_id":"8de7f459-0981-45f9-a3da-ade5713dbad6","system_id":"levelo_inurba_marseille","lat":43.28275,"lon":5.35066,"is_reserved":false,"is_disabled":false,"rental_uris":{"android":"levelo://app?vid=8de7f459-0981-45f9-a3da-ade5713dbad6","ios":"levelo://app?vid=8de7f459-0981-45f9-a3da-ade5713dbad6"},"vehicle_type_id":"4","last_reported":1731341435,"current_range_meters":20800,"station_id":"ce4bhbp2rcd13ifvqerg","pricing_plan_id":"cebpf4jnsgd1na2vs0mg"},{"bike_id":"07a181ba-c73c-4e56-9782-f9f4cb3e8f99","system_id":"levelo_inurba_marseille","lat":43.28261,"lon":5.35069,"is_reserved":false,"is_disabled":false,"rental_uris":{"android":"levelo://app?vid=07a181ba-c73c-4e56-9782-f9f4cb3e8f99","ios":"levelo://app?vid=07a181ba-c73c-4e56-9782-f9f4cb3e8f99"},"vehicle_type_id":"4","last_reported":1731341435,"current_range_meters":16000,"station_id":"ce4bhbp2rcd13ifvqerg","pricing_plan_id":"cebpf4jnsgd1na2vs0mg"},{"bike_id":"59b08a36-4c60-4340-b6a9-0edb2c1dc5a9","system_id":"levelo_inurba_marseille","lat":43.28459,"lon":5.35893,"is_reserved":false,"is_disabled":false,"rental_uris":{"android":"levelo://app?vid=59b08a36-4c60-4340-b6a9-0edb2c1dc5a9","ios":"levelo://app?vid=59b08a36-4c60-4340-b6a9-0edb2c1dc5a9"},"vehicle_type_id":"4","last_reported":1731341435,"current_range_meters":30000,"station_id":"ce4bhah2rcd13ifvqei0","pricing_plan_id":"cebpf4jnsgd1na2vs0mg"},{"bike_id":"74e4cf0d-265d-4859-bba3-f227d0ab251f","system_id":"levelo_inurba_marseille","lat":43.28431,"lon":5.34988,"is_reserved":false,"is_disabled":false,"rental_uris":{"android":"levelo://app?vid=74e4cf0d-265d-4859-bba3-f227d0ab251f","ios":"levelo://app?vid=74e4cf0d-265d-4859-bba3-f227d0ab251f"},"vehicle_type_id":"4","last_reported":1731341435,"current_range_meters":30800,"station_id":"ce4bhbh2rcd13ifvqepg","pricing_plan_id":"cebpf4jnsgd1na2vs0mg"},{"bike_id":"ff4da423-dec8-441a-b9e0-1ad6af332fe2","system_id":"levelo_inurba_marseille","lat":43.30145,"lon":5.37429,"is_reserved":false,"is_disabled":false,"rental_uris":{"android":"levelo://app?vid=ff4da423-dec8-441a-b9e0-1ad6af332fe2","ios":"levelo://app?vid=ff4da423-dec8-441a-b9e0-1ad6af332fe2"},"vehicle_type_id":"4","last_reported":1731341435,"current_range_meters":8400,"station_id":"ce4bgs92rcd13ifvqcc0","pricing_plan_id":"cebpf4jnsgd1na2vs0mg"},{"bike_id":"278f4e99-80cd-46dd-bfab-68c9c844ae91","system_id":"levelo_inurba_marseille","lat":43.23955,"lon":5.36645,"is_reserved":false,"is_disabled":false,"rental_uris":{"android":"levelo://app?vid=278f4e99-80cd-46dd-bfab-68c9c844ae91","ios":"levelo://app?vid=278f4e99-80cd-46dd-bfab-68c9c844ae91"},"vehicle_type_id":"4","last_reported":1731341435,"current_range_meters":8000,"station_id":"ce4bhi12rcd13ifvqfp0","pricing_plan_id":"cebpf4jnsgd1na2vs0mg"},{"bike_id":"3b0ebda7-68fd-4a92-a3c6-f4626106b3fa","system_id":"levelo_inurba_marseille","lat":43.31829,"lon":5.38988,"is_reserved":false,"is_disabled":false,"rental_uris":{"android":"levelo://app?vid=3b0ebda7-68fd-4a92-a3c6-f4626106b3fa","ios":"levelo://app?vid=3b0ebda7-68fd-4a92-a3c6-f4626106b3fa"},"vehicle_type_id":"4","last_reported":1731341435,"current_range_meters":38800,"station_id":"","pricing_plan_id":"cebpf4jnsgd1na2vs0mg"},{"bike_id":"f1849913-0cff-42bd-98ed-687381ee9ea2","system_id":"levelo_inurba_marseille","lat":43.24933,"lon":5.37512,"is_reserved":false,"is_disabled":false,"rental_uris":{"android":"levelo://app?vid=f1849913-0cff-42bd-98ed-687381ee9ea2","ios":"levelo://app?vid=f1849913-0cff-42bd-98ed-687381ee9ea2"},"vehicle_type_id":"4","last_reported":1731341435,"current_range_meters":7200,"station_id":"","pricing_plan_id":"cebpf4jnsgd1na2vs0mg"},{"bike_id":"145f2476-1b54-4306-b32a-73728e75400a","system_id":"levelo_inurba_marseille","lat":43.29006,"lon":5.3561,"is_reserved":false,"is_disabled":false,"rental_uris":{"android":"levelo://app?vid=145f2476-1b54-4306-b32a-73728e75400a","ios":"levelo://app?vid=145f2476-1b54-4306-b32a-73728e75400a"},"vehicle_type_id":"4","last_reported":1731341435,"current_range_meters":17200,"station_id":"ce4bhb92rcd13ifvqen0","pricing_plan_id":"cebpf4jnsgd1na2vs0mg"},{"bike_id":"248a97cf-8397-4cfe-97ef-b2809e29dc58","system_id":"levelo_inurba_marseille","lat":43.26935,"lon":5.38924,"is_reserved":false,"is_disabled":false,"rental_uris":{"android":"levelo://app?vid=248a97cf-8397-4cfe-97ef-b2809e29dc58","ios":"levelo://app?vid=248a97cf-8397-4cfe-97ef-b2809e29dc58"},"vehicle_type_id":"4","last_reported":1731341435,"current_range_meters":20000,"station_id":"ce4bhhh2rcd13ifvqfl0","pricing_plan_id":"cebpf4jnsgd1na2vs0mg"},{"bike_id":"230fb9dc-df1c-404a-af45-8ee30d8519be","system_id":"levelo_inurba_marseille","lat":43.28461,"lon":5.35891,"is_reserved":false,"is_disabled":false,"rental_uris":{"android":"levelo://app?vid=230fb9dc-df1c-404a-af45-8ee30d8519be","ios":"levelo://app?vid=230fb9dc-df1c-404a-af45-8ee30d8519be"},"vehicle_type_id":"4","last_reported":1731341435,"current_range_meters":19200,"station_id":"ce4bhah2rcd13ifvqei0","pricing_plan_id":"cebpf4jnsgd1na2vs0mg"},{"bike_id":"18c29324-2995-4af3-90f1-c3be7d39794c","system_id":"levelo_inurba_marseille","lat":43.27074,"lon":5.42296,"is_reserved":false,"is_disabled":false,"rental_uris":{"android":"levelo://app?vid=18c29324-2995-4af3-90f1-c3be7d39794c","ios":"levelo://app?vid=18c29324-2995-4af3-90f1-c3be7d39794c"},"vehicle_type_id":"4","last_reported":1731341435,"current_range_meters":38000,"station_id":"ce4bhk92rcd13ifvqgb0","pricing_plan_id":"cebpf4jnsgd1na2vs0mg"},{"bike_id":"35691824-6e39-46ba-b51e-ee3123ec2af0","system_id":"levelo_inurba_marseille","lat":43.28424,"lon":5.34992,"is_reserved":false,"is_disabled":false,"rental_uris":{"android":"levelo://app?vid=35691824-6e39-46ba-b51e-ee3123ec2af0","ios":"levelo://app?vid=35691824-6e39-46ba-b51e-ee3123ec2af0"},"vehicle_type_id":"4","last_reported":1731341435,"current_range_meters":38800,"station_id":"ce4bhbh2rcd13ifvqepg","pricing_plan_id":"cebpf4jnsgd1na2vs0mg"},{"bike_id":"9fc3c308-2d00-414a-9256-5e325ea289d0","system_id":"levelo_inurba_marseille","lat":43.2862,"lon":5.35106,"is_reserved":false,"is_disabled":false,"rental_uris":{"android":"levelo://app?vid=9fc3c308-2d00-414a-9256-5e325ea289d0","ios":"levelo://app?vid=9fc3c308-2d00-414a-9256-5e325ea289d0"},"vehicle_type_id":"4","last_reported":1731341435,"current_range_meters":21600,"station_id":"ce4bhch2rcd13ifvqeug","pricing_plan_id":"cebpf4jnsgd1na2vs0mg"},{"bike_id":"fcfa648e-b824-427a-94b7-5d0dc06a7718","system_id":"levelo_inurba_marseille","lat":43.28354,"lon":5.38107,"is_reserved":false,"is_disabled":false,"rental_uris":{"android":"levelo://app?vid=fcfa648e-b824-427a-94b7-5d0dc06a7718","ios":"levelo://app?vid=fcfa648e-b824-427a-94b7-5d0dc06a7718"},"vehicle_type_id":"4","last_reported":1731341435,"current_range_meters":8800,"station_id":"ce4bh412rcd13ifvqdr0","pricing_plan_id":"cebpf4jnsgd1na2vs0mg"},{"bike_id":"d8ab9dc0-2a32-4626-807b-955ba8356ecc","system_id":"levelo_inurba_marseille","lat":43.23197,"lon":5.355587,"is_reserved":false,"is_disabled":false,"rental_uris":{"android":"levelo://app?vid=d8ab9dc0-2a32-4626-807b-955ba8356ecc","ios":"levelo://app?vid=d8ab9dc0-2a32-4626-807b-955ba8356ecc"},"vehicle_type_id":"4","last_reported":1731341435,"current_range_meters":38800,"station_id":"ce4bhu92rcd13ifvqi70","pricing_plan_id":"cebpf4jnsgd1na2vs0mg"},{"bike_id":"5433990a-9145-4c4b-a6f0-cbfedcd1a6f4","system_id":"levelo_inurba_marseille","lat":43.29711,"lon":5.37693,"is_reserved":false,"is_disabled":false,"rental_uris":{"android":"levelo://app?vid=5433990a-9145-4c4b-a6f0-cbfedcd1a6f4","ios":"levelo://app?vid=5433990a-9145-4c4b-a6f0-cbfedcd1a6f4"},"vehicle_type_id":"4","last_reported":1731341435,"current_range_meters":7200,"station_id":"ce4bgkh2rcd13ifvqbl0","pricing_plan_id":"cebpf4jnsgd1na2vs0mg"},{"bike_id":"1e1efb4f-0be4-4f6d-a453-32e1c39f7722","system_id":"levelo_inurba_marseille","lat":43.26558,"lon":5.37286,"is_reserved":false,"is_disabled":false,"rental_uris":{"android":"levelo://app?vid=1e1efb4f-0be4-4f6d-a453-32e1c39f7722","ios":"levelo://app?vid=1e1efb4f-0be4-4f6d-a453-32e1c39f7722"},"vehicle_type_id":"4","last_reported":1731341435,"current_range_meters":8000,"station_id":"ce4bhg12rcd13ifvqf70","pricing_plan_id":"cebpf4jnsgd1na2vs0mg"},{"bike_id":"eba4cceb-a25f-4223-be1e-eb8ca0162675","system_id":"levelo_inurba_marseille","lat":43.29618,"lon":5.37709,"is_reserved":false,"is_disabled":false,"rental_uris":{"android":"levelo://app?vid=eba4cceb-a25f-4223-be1e-eb8ca0162675","ios":"levelo://app?vid=eba4cceb-a25f-4223-be1e-eb8ca0162675"},"vehicle_type_id":"4","last_reported":1731341435,"current_range_meters":3200,"station_id":"","pricing_plan_id":"cebpf4jnsgd1na2vs0mg"},{"bike_id":"623ee099-d512-41a2-b7d4-fa38287409ec","system_id":"levelo_inurba_marseille","lat":43.26198,"lon":5.37458,"is_reserved":false,"is_disabled":false,"rental_uris":{"android":"levelo://app?vid=623ee099-d512-41a2-b7d4-fa38287409ec","ios":"levelo://app?vid=623ee099-d512-41a2-b7d4-fa38287409ec"},"vehicle_type_id":"4","last_reported":1731341435,"current_range_meters":21600,"station_id":"ce4bhgp2rcd13ifvqfc0","pricing_plan_id":"cebpf4jnsgd1na2vs0mg"},{"bike_id":"3dc460b1-48dc-4224-b3ec-48cc87c22d27","system_id":"levelo_inurba_marseille","lat":43.29512,"lon":5.39044,"is_reserved":false,"is_disabled":false,"rental_uris":{"android":"levelo://app?vid=3dc460b1-48dc-4224-b3ec-48cc87c22d27","ios":"levelo://app?vid=3dc460b1-48dc-4224-b3ec-48cc87c22d27"},"vehicle_type_id":"4","last_reported":1731341435,"current_range_meters":0,"station_id":"ce4bh3p2rcd13ifvqdp0","pricing_plan_id":"cebpf4jnsgd1na2vs0mg"},{"bike_id":"969db3bc-049c-43df-8b0c-34083dbc24f9","system_id":"levelo_inurba_marseille","lat":43.28031,"lon":5.36944,"is_reserved":false,"is_disabled":false,"rental_uris":{"android":"levelo://app?vid=969db3bc-049c-43df-8b0c-34083dbc24f9","ios":"levelo://app?vid=969db3bc-049c-43df-8b0c-34083dbc24f9"},"vehicle_type_id":"4","last_reported":1731341435,"current_range_meters":20400,"station_id":"ce4bha12rcd13ifvqef0","pricing_plan_id":"cebpf4jnsgd1na2vs0mg"},{"bike_id":"635ede77-dbfd-4009-8072-98067be2c1a1","system_id":"levelo_inurba_marseille","lat":43.27808,"lon":5.40718,"is_reserved":false,"is_disabled":false,"rental_uris":{"android":"levelo://app?vid=635ede77-dbfd-4009-8072-98067be2c1a1","ios":"levelo://app?vid=635ede77-dbfd-4009-8072-98067be2c1a1"},"vehicle_type_id":"4","last_reported":1731341435,"current_range_meters":32400,"station_id":"ce4bhnh2rcd13ifvqgtg","pricing_plan_id":"cebpf4jnsgd1na2vs0mg"},{"bike_id":"145be357-bce1-411b-8e0c-e9d057c04b71","system_id":"levelo_inurba_marseille","lat":43.28413,"lon":5.34993,"is_reserved":false,"is_disabled":false,"rental_uris":{"android":"levelo://app?vid=145be357-bce1-411b-8e0c-e9d057c04b71","ios":"levelo://app?vid=145be357-bce1-411b-8e0c-e9d057c04b71"},"vehicle_type_id":"4","last_reported":1731341435,"current_range_meters":38800,"station_id":"ce4bhbh2rcd13ifvqepg","pricing_plan_id":"cebpf4jnsgd1na2vs0mg"},{"bike_id":"c2114c61-80b4-428a-a9fb-677acfd566e6","system_id":"levelo_inurba_marseille","lat":43.28717,"lon":5.36089,"is_reserved":false,"is_disabled":false,"rental_uris":{"android":"levelo://app?vid=c2114c61-80b4-428a-a9fb-677acfd566e6","ios":"levelo://app?vid=c2114c61-80b4-428a-a9fb-677acfd566e6"},"vehicle_type_id":"4","last_reported":1731341435,"current_range_meters":29600,"station_id":"cki0cbj6b192h4jlfktg","pricing_plan_id":"cebpf4jnsgd1na2vs0mg"},{"bike_id":"ed0abc91-7bad-4b2f-88fa-475f1f35175d","system_id":"levelo_inurba_marseille","lat":43.28457,"lon":5.35894,"is_reserved":false,"is_disabled":false,"rental_uris":{"android":"levelo://app?vid=ed0abc91-7bad-4b2f-88fa-475f1f35175d","ios":"levelo://app?vid=ed0abc91-7bad-4b2f-88fa-475f1f35175d"},"vehicle_type_id":"4","last_reported":1731341435,"current_range_meters":9200,"station_id":"ce4bhah2rcd13ifvqei0","pricing_plan_id":"cebpf4jnsgd1na2vs0mg"},{"bike_id":"6b45d3e5-d73a-430a-bc44-2a9caf370968","system_id":"levelo_inurba_marseille","lat":43.284605,"lon":5.358857,"is_reserved":false,"is_disabled":false,"rental_uris":{"android":"levelo://app?vid=6b45d3e5-d73a-430a-bc44-2a9caf370968","ios":"levelo://app?vid=6b45d3e5-d73a-430a-bc44-2a9caf370968"},"vehicle_type_id":"4","last_reported":1731341435,"current_range_meters":32800,"station_id":"ce4bhah2rcd13ifvqei0","pricing_plan_id":"cebpf4jnsgd1na2vs0mg"},{"bike_id":"de581d7c-3654-4217-ba30-cfffbba35f94","system_id":"levelo_inurba_marseille","lat":43.32337,"lon":5.40615,"is_reserved":false,"is_disabled":false,"rental_uris":{"android":"levelo://app?vid=de581d7c-3654-4217-ba30-cfffbba35f94","ios":"levelo://app?vid=de581d7c-3654-4217-ba30-cfffbba35f94"},"vehicle_type_id":"4","last_reported":1731341435,"current_range_meters":6000,"station_id":"ce4bhq92rcd13ifvqhjg","pricing_plan_id":"cebpf4jnsgd1na2vs0mg"},{"bike_id":"0d0dd40d-86ca-407d-96f6-14d3610216cb","system_id":"levelo_inurba_marseille","lat":43.31477,"lon":5.45047,"is_reserved":false,"is_disabled":false,"rental_uris":{"android":"levelo://app?vid=0d0dd40d-86ca-407d-96f6-14d3610216cb","ios":"levelo://app?vid=0d0dd40d-86ca-407d-96f6-14d3610216cb"},"vehicle_type_id":"4","last_reported":1731341435,"current_range_meters":24000,"station_id":"","pricing_plan_id":"cebpf4jnsgd1na2vs0mg"},{"bike_id":"25836ee3-e256-4485-ad9b-2813f08f499d","system_id":"levelo_inurba_marseille","lat":43.31537,"lon":5.38029,"is_reserved":false,"is_disabled":false,"rental_uris":{"android":"levelo://app?vid=25836ee3-e256-4485-ad9b-2813f08f499d","ios":"levelo://app?vid=25836ee3-e256-4485-ad9b-2813f08f499d"},