{"last_updated":1736672911,"ttl":60,"version":"2.2","data":{"bikes":[{"bike_id":"a45576f7-42f1-4909-b017-bd1e8379966a","system_id":"levelo_inurba_marseille","lat":43.29979,"lon":5.4403,"is_reserved":false,"is_disabled":false,"rental_uris":{"android":"levelo://app?vid=a45576f7-42f1-4909-b017-bd1e8379966a","ios":"levelo://app?vid=a45576f7-42f1-4909-b017-bd1e8379966a"},"vehicle_type_id":"4","last_reported":1736672911,"current_range_meters":22800,"station_id":"","pricing_plan_id":"cebpf4jnsgd1na2vs0mg"},{"bike_id":"3c27e972-9fce-498f-b8b7-bd13c5fa2706","system_id":"levelo_inurba_marseille","lat":43.29048,"lon":5.39954,"is_reserved":false,"is_disabled":false,"rental_uris":{"android":"levelo://app?vid=3c27e972-9fce-498f-b8b7-bd13c5fa2706","ios":"levelo://app?vid=3c27e972-9fce-498f-b8b7-bd13c5fa2706"},"vehicle_type_id":"4","last_reported":1736672911,"current_range_meters":36000,"station_id":"ce4bh392rcd13ifvqdm0","pricing_plan_id":"cebpf4jnsgd1na2vs0mg"},{"bike_id":"e17ccd69-0a20-4bad-9046-6e88e438ae8a","system_id":"levelo_inurba_marseille","lat":43.29038,"lon":5.40021,"is_reserved":false,"is_disabled":false,"rental_uris":{"android":"levelo://app?vid=e17ccd69-0a20-4bad-9046-6e88e438ae8a","ios":"levelo://app?vid=e17ccd69-0a20-4bad-9046-6e88e438ae8a"},"vehicle_type_id":"4","last_reported":1736672911,"current_range_meters":36400,"station_id":"ce4bh392rcd13ifvqdm0","pricing_plan_id":"cebpf4jnsgd1na2vs0mg"},{"bike_id":"8ec1251a-8baf-4d63-8b7a-28e608dd863b","system_id":"levelo_inurba_marseille","lat":43.23964,"lon":5.36635,"is_reserved":false,"is_disabled":false,"rental_uris":{"android":"levelo://app?vid=8ec1251a-8baf-4d63-8b7a-28e608dd863b","ios":"levelo://app?vid=8ec1251a-8baf-4d63-8b7a-28e608dd863b"},"vehicle_type_id":"4","last_reported":1736672911,"current_range_meters":28000,"station_id":"ce4bhi12rcd13ifvqfp0","pricing_plan_id":"cebpf4jnsgd1na2vs0mg"},{"bike_id":"08cb4e26-fab2-42cd-bb35-892c06874343","system_id":"levelo_inurba_marseille","lat":43.29689,"lon":5.36638,"is_reserved":false,"is_disabled":false,"rental_uris":{"android":"levelo://app?vid=08cb4e26-fab2-42cd-bb35-892c06874343","ios":"levelo://app?vid=08cb4e26-fab2-42cd-bb35-892c06874343"},"vehicle_type_id":"4","last_reported":1736672911,"current_range_meters":20400,"station_id":"ce4bgn12rcd13ifvqbt0","pricing_plan_id":"cebpf4jnsgd1na2vs0mg"},{"bike_id":"d031f589-3619-4bbf-bbf9-1315e5d3b535","system_id":"levelo_inurba_marseille","lat":43.28615,"lon":5.35076,"is_reserved":false,"is_disabled":false,"rental_uris":{"android":"levelo://app?vid=d031f589-3619-4bbf-bbf9-1315e5d3b535","ios":"levelo://app?vid=d031f589-3619-4bbf-bbf9-1315e5d3b535"},"vehicle_type_id":"4","last_reported":1736672911,"current_range_meters":28000,"station_id":"ce4bhch2rcd13ifvqeug","pricing_plan_id":"cebpf4jnsgd1na2vs0mg"},{"bike_id":"a2f393fe-0e07-4ed4-a52c-e182447a5a41","system_id":"levelo_inurba_marseille","lat":43.2467,"lon":5.38179,"is_reserved":false,"is_disabled":false,"rental_uris":{"android":"levelo://app?vid=a2f393fe-0e07-4ed4-a52c-e182447a5a41","ios":"levelo://app?vid=a2f393fe-0e07-4ed4-a52c-e182447a5a41"},"vehicle_type_id":"4","last_reported":1736672911,"current_range_meters":32800,"station_id":"ce4bhih2rcd13ifvqfr0","pricing_plan_id":"cebpf4jnsgd1na2vs0mg"},{"bike_id":"d5ac13cd-bd34-49d4-ab1a-eb613e2c3f58","system_id":"levelo_inurba_marseille","lat":43.30644,"lon":5.40097,"is_reserved":false,"is_disabled":false,"rental_uris":{"android":"levelo://app?vid=d5ac13cd-bd34-49d4-ab1a-eb613e2c3f58","ios":"levelo://app?vid=d5ac13cd-bd34-49d4-ab1a-eb613e2c3f58"},"vehicle_type_id":"4","last_reported":1736672911,"current_range_meters":29600,"station_id":"ce4bh112rcd13ifvqda0","pricing_plan_id":"cebpf4jnsgd1na2vs0mg"},{"bike_id":"0ea60a2f-cda4-4308-83fa-1ed45460e073","system_id":"levelo_inurba_marseille","lat":43.3229,"lon":5.38282,"is_reserved":false,"is_disabled":false,"rental_uris":{"android":"levelo://app?vid=0ea60a2f-cda4-4308-83fa-1ed45460e073","ios":"levelo://app?vid=0ea60a2f-cda4-4308-83fa-1ed45460e073"},"vehicle_type_id":"4","last_reported":1736672911,"current_range_meters":38800,"station_id":"ce4bhr12rcd13ifvqhqg","pricing_plan_id":"cebpf4jnsgd1na2vs0mg"},{"bike_id":"abf37e93-da64-4481-ab65-53026ce06183","system_id":"levelo_inurba_marseille","lat":43.31676,"lon":5.40424,"is_reserved":false,"is_disabled":false,"rental_uris":{"android":"levelo://app?vid=abf37e93-da64-4481-ab65-53026ce06183","ios":"levelo://app?vid=abf37e93-da64-4481-ab65-53026ce06183"},"vehicle_type_id":"4","last_reported":1736672911,"current_range_meters":38000,"station_id":"ce4bh012rcd13ifvqd00","pricing_plan_id":"cebpf4jnsgd1na2vs0mg"},{"bike_id":"77c7428a-d751-4a96-9a3d-793cc76e156d","system_id":"levelo_inurba_marseille","lat":43.25679,"lon":5.41146,"is_reserved":false,"is_disabled":false,"rental_uris":{"android":"levelo://app?vid=77c7428a-d751-4a96-9a3d-793cc76e156d","ios":"levelo://app?vid=77c7428a-d751-4a96-9a3d-793cc76e156d"},"vehicle_type_id":"4","last_reported":1736672911,"current_range_meters":31200,"station_id":"ce4bhkp2rcd13ifvqgd0","pricing_plan_id":"cebpf4jnsgd1na2vs0mg"},{"bike_id":"a9cf3968-1afa-4287-b566-7da04c0b0960","system_id":"levelo_inurba_marseille","lat":43.28838,"lon":5.35853,"is_reserved":false,"is_disabled":false,"rental_uris":{"android":"levelo://app?vid=a9cf3968-1afa-4287-b566-7da04c0b0960","ios":"levelo://app?vid=a9cf3968-1afa-4287-b566-7da04c0b0960"},"vehicle_type_id":"4","last_reported":1736672911,"current_range_meters":14400,"station_id":"ce4bhb12rcd13ifvqem0","pricing_plan_id":"cebpf4jnsgd1na2vs0mg"},{"bike_id":"7b64ec25-751a-48cd-9609-57e6513e4188","system_id":"levelo_inurba_marseille","lat":43.29254,"lon":5.40915,"is_reserved":false,"is_disabled":false,"rental_uris":{"android":"levelo://app?vid=7b64ec25-751a-48cd-9609-57e6513e4188","ios":"levelo://app?vid=7b64ec25-751a-48cd-9609-57e6513e4188"},"vehicle_type_id":"4","last_reported":1736672911,"current_range_meters":38000,"station_id":"ce4bh192rcd13ifvqdc0","pricing_plan_id":"cebpf4jnsgd1na2vs0mg"},{"bike_id":"ef831cc2-5920-451a-a230-e0620cbcb55e","system_id":"levelo_inurba_marseille","lat":43.31717,"lon":5.43732,"is_reserved":false,"is_disabled":false,"rental_uris":{"android":"levelo://app?vid=ef831cc2-5920-451a-a230-e0620cbcb55e","ios":"levelo://app?vid=ef831cc2-5920-451a-a230-e0620cbcb55e"},"vehicle_type_id":"4","last_reported":1736672911,"current_range_meters":9200,"station_id":"ce4bhp92rcd13ifvqhcg","pricing_plan_id":"cebpf4jnsgd1na2vs0mg"},{"bike_id":"d35eade4-56bf-4d63-86ef-e00d56e9858c","system_id":"levelo_inurba_marseille","lat":43.27076,"lon":5.42286,"is_reserved":false,"is_disabled":false,"rental_uris":{"android":"levelo://app?vid=d35eade4-56bf-4d63-86ef-e00d56e9858c","ios":"levelo://app?vid=d35eade4-56bf-4d63-86ef-e00d56e9858c"},"vehicle_type_id":"4","last_reported":1736672911,"current_range_meters":3600,"station_id":"ce4bhk92rcd13ifvqgb0","pricing_plan_id":"cebpf4jnsgd1na2vs0mg"},{"bike_id":"a11fc480-222d-49e9-aa71-70263424aa24","system_id":"levelo_inurba_marseille","lat":43.313638,"lon":5.402571,"is_reserved":false,"is_disabled":false,"rental_uris":{"android":"levelo://app?vid=a11fc480-222d-49e9-aa71-70263424aa24","ios":"levelo://app?vid=a11fc480-222d-49e9-aa71-70263424aa24"},"vehicle_type_id":"4","last_reported":1736672911,"current_range_meters":33600,"station_id":"ce4bgv92rcd13ifvqcq0","pricing_plan_id":"cebpf4jnsgd1na2vs0mg"},{"bike_id":"5f160b55-fb3f-48ee-84e2-54e5caf10a0d","system_id":"levelo_inurba_marseille","lat":43.29054,"lon":5.35916,"is_reserved":false,"is_disabled":false,"rental_uris":{"android":"levelo://app?vid=5f160b55-fb3f-48ee-84e2-54e5caf10a0d","ios":"levelo://app?vid=5f160b55-fb3f-48ee-84e2-54e5caf10a0d"},"vehicle_type_id":"4","last_reported":1736672911,"current_range_meters":38800,"station_id":"ce4bha92rcd13ifvqeg0","pricing_plan_id":"cebpf4jnsgd1na2vs0mg"},{"bike_id":"f4c1775f-57a5-41e1-9281-570509b61244","system_id":"levelo_inurba_marseille","lat":43.2465,"lon":5.38913,"is_reserved":false,"is_disabled":false,"rental_uris":{"android":"levelo://app?vid=f4c1775f-57a5-41e1-9281-570509b61244","ios":"levelo://app?vid=f4c1775f-57a5-41e1-9281-570509b61244"},"vehicle_type_id":"4","last_reported":1736672911,"current_range_meters":28000,"station_id":"ce4bhg12rcd13ifvqf60","pricing_plan_id":"cebpf4jnsgd1na2vs0mg"},{"bike_id":"df769e2a-fe2d-4401-bba1-67494069f92a","system_id":"levelo_inurba_marseille","lat":43.28453,"lon":5.35995,"is_reserved":false,"is_disabled":false,"rental_uris":{"android":"levelo://app?vid=df769e2a-fe2d-4401-bba1-67494069f92a","ios":"levelo://app?vid=df769e2a-fe2d-4401-bba1-67494069f92a"},"vehicle_type_id":"4","last_reported":1736672911,"current_range_meters":28800,"station_id":"ce4bhah2rcd13ifvqei0","pricing_plan_id":"cebpf4jnsgd1na2vs0mg"},{"bike_id":"102f5f37-6d05-471d-a558-1d5ddf00f775","system_id":"levelo_inurba_marseille","lat":43.317,"lon":5.43722,"is_reserved":false,"is_disabled":false,"rental_uris":{"android":"levelo://app?vid=102f5f37-6d05-471d-a558-1d5ddf00f775","ios":"levelo://app?vid=102f5f37-6d05-471d-a558-1d5ddf00f775"},"vehicle_type_id":"4","last_reported":1736672911,"current_range_meters":8400,"station_id":"ce4bhp92rcd13ifvqhcg","pricing_plan_id":"cebpf4jnsgd1na2vs0mg"},{"bike_id":"295b6b1c-1c9c-4719-a530-ff21d5379a47","system_id":"levelo_inurba_marseille","lat":43.24393,"lon":5.37107,"is_reserved":false,"is_disabled":false,"rental_uris":{"android":"levelo://app?vid=295b6b1c-1c9c-4719-a530-ff21d5379a47","ios":"levelo://app?vid=295b6b1c-1c9c-4719-a530-ff21d5379a47"},"vehicle_type_id":"4","last_reported":1736672911,"current_range_meters":36000,"station_id":"ce4bhhh2rcd13ifvqfk0","pricing_plan_id":"cebpf4jnsgd1na2vs0mg"},{"bike_id":"ab3cede9-6893-464c-ac8b-2a932ab1a8af","system_id":"levelo_inurba_marseille","lat":43.29197,"lon":5.39333,"is_reserved":false,"is_disabled":false,"rental_uris":{"android":"levelo://app?vid=ab3cede9-6893-464c-ac8b-2a932ab1a8af","ios":"levelo://app?vid=ab3cede9-6893-464c-ac8b-2a932ab1a8af"},"vehicle_type_id":"4","last_reported":1736672911,"current_range_meters":38800,"station_id":"ce4bh192rcd13ifvqdd0","pricing_plan_id":"cebpf4jnsgd1na2vs0mg"},{"bike_id":"139ac908-a657-42f3-b14e-97ea7720a05d","system_id":"levelo_inurba_marseille","lat":43.34145,"lon":5.40882,"is_reserved":false,"is_disabled":false,"rental_uris":{"android":"levelo://app?vid=139ac908-a657-42f3-b14e-97ea7720a05d","ios":"levelo://app?vid=139ac908-a657-42f3-b14e-97ea7720a05d"},"vehicle_type_id":"4","last_reported":1736672911,"current_range_meters":38000,"station_id":"ce4bhqh2rcd13ifvqhlg","pricing_plan_id":"cebpf4jnsgd1na2vs0mg"},{"bike_id":"004c2ac5-7f25-4e48-8a80-9a02537f6ba6","system_id":"levelo_inurba_marseille","lat":43.32109,"lon":5.36776,"is_reserved":false,"is_disabled":false,"rental_uris":{"android":"levelo://app?vid=004c2ac5-7f25-4e48-8a80-9a02537f6ba6","ios":"levelo://app?vid=004c2ac5-7f25-4e48-8a80-9a02537f6ba6"},"vehicle_type_id":"4","last_reported":1736672911,"current_range_meters":26800,"station_id":"ce4bhrh2rcd13ifvqhug","pricing_plan_id":"cebpf4jnsgd1na2vs0mg"},{"bike_id":"6a8dc65c-8c47-4239-8815-8efa2acdc338","system_id":"levelo_inurba_marseille","lat":43.27992,"lon":5.4166,"is_reserved":false,"is_disabled":true,"rental_uris":{"android":"levelo://app?vid=6a8dc65c-8c47-4239-8815-8efa2acdc338","ios":"levelo://app?vid=6a8dc65c-8c47-4239-8815-8efa2acdc338"},"vehicle_type_id":"4","last_reported":1736672911,"current_range_meters":8000,"station_id":"ce4bho12rcd13ifvqh1g","pricing_plan_id":"cebpf4jnsgd1na2vs0mg"},{"bike_id":"957b1cab-6d66-4896-ae44-55b3b0cd4e0a","system_id":"levelo_inurba_marseille","lat":43.28025,"lon":5.36983,"is_reserved":false,"is_disabled":false,"rental_uris":{"android":"levelo://app?vid=957b1cab-6d66-4896-ae44-55b3b0cd4e0a","ios":"levelo://app?vid=957b1cab-6d66-4896-ae44-55b3b0cd4e0a"},"vehicle_type_id":"4","last_reported":1736672911,"current_range_meters":28400,"station_id":"ce4bha12rcd13ifvqef0","pricing_plan_id":"cebpf4jnsgd1na2vs0mg"},{"bike_id":"94d00723-79f7-443c-bc62-0c89ddbb1d1c","system_id":"levelo_inurba_marseille","lat":43.28155,"lon":5.42643,"is_reserved":false,"is_disabled":true,"rental_uris":{"android":"levelo://app?vid=94d00723-79f7-443c-bc62-0c89ddbb1d1c","ios":"levelo://app?vid=94d00723-79f7-443c-bc62-0c89ddbb1d1c"},"vehicle_type_id":"4","last_reported":1736672911,"current_range_meters":26000,"station_id":"ce4bhnh2rcd13ifvqgug","pricing_plan_id":"cebpf4jnsgd1na2vs0mg"},{"bike_id":"f2e2570c-bb1f-4460-9d53-954a72a660f1","system_id":"levelo_inurba_marseille","lat":43.29806,"lon":5.40411,"is_reserved":false,"is_disabled":false,"rental_uris":{"android":"levelo://app?vid=f2e2570c-bb1f-4460-9d53-954a72a660f1","ios":"levelo://app?vid=f2e2570c-bb1f-4460-9d53-954a72a660f1"},"vehicle_type_id":"4","last_reported":1736672911,"current_range_meters":38000,"station_id":"ce4bh112rcd13ifvqd90","pricing_plan_id":"cebpf4jnsgd1na2vs0mg"},{"bike_id":"cd6d2208-2ce7-4c3f-a18e-8f409506f7d1","system_id":"levelo_inurba_marseille","lat":43.23058,"lon":5.35493,"is_reserved":false,"is_disabled":false,"rental_uris":{"android":"levelo://app?vid=cd6d2208-2ce7-4c3f-a18e-8f409506f7d1","ios":"levelo://app?vid=cd6d2208-2ce7-4c3f-a18e-8f409506f7d1"},"vehicle_type_id":"4","last_reported":1736672911,"current_range_meters":20000,"station_id":"cpo3342slgdg3j2ifvpg","pricing_plan_id":"cebpf4jnsgd1na2vs0mg"},{"bike_id":"11220a06-5578-40ac-bba5-67b992b32098","system_id":"levelo_inurba_marseille","lat":43.27319,"lon":5.39136,"is_reserved":false,"is_disabled":false,"rental_uris":{"android":"levelo://app?vid=11220a06-5578-40ac-bba5-67b992b32098","ios":"levelo://app?vid=11220a06-5578-40ac-bba5-67b992b32098"},"vehicle_type_id":"4","last_reported":1736672911,"current_range_meters":37600,"station_id":"ce4bhgp2rcd13ifvqfe0","pricing_plan_id":"cebpf4jnsgd1na2vs0mg"},{"bike_id":"e616dde7-4b83-43d4-82e4-041bada11ba1","system_id":"levelo_inurba_marseille","lat":43.30436,"lon":5.36349,"is_reserved":false,"is_disabled":false,"rental_uris":{"android":"levelo://app?vid=e616dde7-4b83-43d4-82e4-041bada11ba1","ios":"levelo://app?vid=e616dde7-4b83-43d4-82e4-041bada11ba1"},"vehicle_type_id":"4","last_reported":1736672911,"current_range_meters":16000,"station_id":"","pricing_plan_id":"cebpf4jnsgd1na2vs0mg"},{"bike_id":"c1dea8eb-dedb-48c3-82b9-ba4d059a0755","system_id":"levelo_inurba_marseille","lat":43.26549,"lon":5.37294,"is_reserved":false,"is_disabled":true,"rental_uris":{"android":"levelo://app?vid=c1dea8eb-dedb-48c3-82b9-ba4d059a0755","ios":"levelo://app?vid=c1dea8eb-dedb-48c3-82b9-ba4d059a0755"},"vehicle_type_id":"4","last_reported":1736672911,"current_range_meters":6800,"station_id":"ce4bhg12rcd13ifvqf70","pricing_plan_id":"cebpf4jnsgd1na2vs0mg"},{"bike_id":"f7253ea7-1840-46d0-b4c6-8bc8303cef00","system_id":"levelo_inurba_marseille","lat":43.24406,"lon":5.37057,"is_reserved":false,"is_disabled":false,"rental_uris":{"android":"levelo://app?vid=f7253ea7-1840-46d0-b4c6-8bc8303cef00","ios":"levelo://app?vid=f7253ea7-1840-46d0-b4c6-8bc8303cef00"},"vehicle_type_id":"4","last_reported":1736672911,"current_range_meters":38800,"station_id":"ce4bhhh2rcd13ifvqfk0","pricing_plan_id":"cebpf4jnsgd1na2vs0mg"},{"bike_id":"824c4c31-cff3-42b3-877b-6f5243ac81c7","system_id":"levelo_inurba_marseille","lat":43.2464,"lon":5.389,"is_reserved":false,"is_disabled":false,"rental_uris":{"android":"levelo://app?vid=824c4c31-cff3-42b3-877b-6f5243ac81c7","ios":"levelo://app?vid=824c4c31-cff3-42b3-877b-6f5243ac81c7"},"vehicle_type_id":"4","last_reported":1736672911,"current_range_meters":25200,"station_id":"ce4bhg12rcd13ifvqf60","pricing_plan_id":"cebpf4jnsgd1na2vs0mg"},{"bike_id":"bde10037-439a-4c35-9259-2f7d936db73a","system_id":"levelo_inurba_marseille","lat":43.27824,"lon":5.39229,"is_reserved":false,"is_disabled":false,"rental_uris":{"android":"levelo://app?vid=bde10037-439a-4c35-9259-2f7d936db73a","ios":"levelo://app?vid=bde10037-439a-4c35-9259-2f7d936db73a"},"vehicle_type_id":"4","last_reported":1736672911,"current_range_meters":28000,"station_id":"ce4bhjp2rcd13ifvqga0","pricing_plan_id":"cebpf4jnsgd1na2vs0mg"},{"bike_id":"74cd82b8-7007-4ec1-90b0-bde4e296072f","system_id":"levelo_inurba_marseille","lat":43.27943,"lon":5.41059,"is_reserved":false,"is_disabled":false,"rental_uris":{"android":"levelo://app?vid=74cd82b8-7007-4ec1-90b0-bde4e296072f","ios":"levelo://app?vid=74cd82b8-7007-4ec1-90b0-bde4e296072f"},"vehicle_type_id":"4","last_reported":1736672911,"current_range_meters":30800,"station_id":"ce4bhnp2rcd13ifvqh0g","pricing_plan_id":"cebpf4jnsgd1na2vs0mg"},{"bike_id":"2f222ba4-ac09-46d4-8ee2-013b716d4228","system_id":"levelo_inurba_marseille","lat":43.31761,"lon":5.38996,"is_reserved":false,"is_disabled":false,"rental_uris":{"android":"levelo://app?vid=2f222ba4-ac09-46d4-8ee2-013b716d4228","ios":"levelo://app?vid=2f222ba4-ac09-46d4-8ee2-013b716d4228"},"vehicle_type_id":"4","last_reported":1736672911,"current_range_meters":37600,"station_id":"ce4bhqp2rcd13ifvqhng","pricing_plan_id":"cebpf4jnsgd1na2vs0mg"},{"bike_id":"44ad9bf6-9550-4530-b74c-7606b4dfb73a","system_id":"levelo_inurba_marseille","lat":43.27318,"lon":5.39137,"is_reserved":false,"is_disabled":false,"rental_uris":{"android":"levelo://app?vid=44ad9bf6-9550-4530-b74c-7606b4dfb73a","ios":"levelo://app?vid=44ad9bf6-9550-4530-b74c-7606b4dfb73a"},"vehicle_type_id":"4","last_reported":1736672911,"current_range_meters":14000,"station_id":"ce4bhgp2rcd13ifvqfe0","pricing_plan_id":"cebpf4jnsgd1na2vs0mg"},{"bike_id":"804acd2c-eff6-4f19-b231-84891b5ea8dc","system_id":"levelo_inurba_marseille","lat":43.25478,"lon":5.37665,"is_reserved":false,"is_disabled":false,"rental_uris":{"android":"levelo://app?vid=804acd2c-eff6-4f19-b231-84891b5ea8dc","ios":"levelo://app?vid=804acd2c-eff6-4f19-b231-84891b5ea8dc"},"vehicle_type_id":"4","last_reported":1736672911,"current_range_meters":9200,"station_id":"ce4bhh12rcd13ifvqff0","pricing_plan_id":"cebpf4jnsgd1na2vs0mg"},{"bike_id":"6b750947-fb43-40e2-9931-495446cc2b3f","system_id":"levelo_inurba_marseille","lat":43.22933,"lon":5.35381,"is_reserved":false,"is_disabled":false,"rental_uris":{"android":"levelo://app?vid=6b750947-fb43-40e2-9931-495446cc2b3f","ios":"levelo://app?vid=6b750947-fb43-40e2-9931-495446cc2b3f"},"vehicle_type_id":"4","last_reported":1736672911,"current_range_meters":34800,"station_id":"cpo3532slgdg3j2ikp40","pricing_plan_id":"cebpf4jnsgd1na2vs0mg"},{"bike_id":"c8e997c0-8580-4d0f-8d9f-0766596381e1","system_id":"levelo_inurba_marseille","lat":43.340273,"lon":5.375499,"is_reserved":false,"is_disabled":true,"rental_uris":{"android":"levelo://app?vid=c8e997c0-8580-4d0f-8d9f-0766596381e1","ios":"levelo://app?vid=c8e997c0-8580-4d0f-8d9f-0766596381e1"},"vehicle_type_id":"4","last_reported":1736672911,"current_range_meters":1600,"station_id":"","pricing_plan_id":"cebpf4jnsgd1na2vs0mg"},{"bike_id":"4b46f18f-aac1-48a7-8621-63c9b65fbd68","system_id":"levelo_inurba_marseille","lat":43.279928,"lon":5.400111,"is_reserved":false,"is_disabled":false,"rental_uris":{"android":"levelo://app?vid=4b46f18f-aac1-48a7-8621-63c9b65fbd68","ios":"levelo://app?vid=4b46f18f-aac1-48a7-8621-63c9b65fbd68"},"vehicle_type_id":"4","last_reported":1736672911,"current_range_meters":3200,"station_id":"ce4bho92rcd13ifvqh4g","pricing_plan_id":"cebpf4jnsgd1na2vs0mg"},{"bike_id":"ba5df164-d25c-4a1c-8679-1bd1a1db0642","system_id":"levelo_inurba_marseille","lat":43.33733,"lon":5.39187,"is_reserved":false,"is_disabled":false,"rental_uris":{"android":"levelo://app?vid=ba5df164-d25c-4a1c-8679-1bd1a1db0642","ios":"levelo://app?vid=ba5df164-d25c-4a1c-8679-1bd1a1db0642"},"vehicle_type_id":"4","last_reported":1736672911,"current_range_meters":24800,"station_id":"ce4bhr92rcd13ifvqhsg","pricing_plan_id":"cebpf4jnsgd1na2vs0mg"},{"bike_id":"087f784c-6451-4665-896b-9e7c7cacc314","system_id":"levelo_inurba_marseille","lat":43.30052,"lon":5.3755,"is_reserved":false,"is_disabled":false,"rental_uris":{"android":"levelo://app?vid=087f784c-6451-4665-896b-9e7c7cacc314","ios":"levelo://app?vid=087f784c-6451-4665-896b-9e7c7cacc314"},"vehicle_type_id":"4","last_reported":1736672911,"current_range_meters":2800,"station_id":"","pricing_plan_id":"cebpf4jnsgd1na2vs0mg"},{"bike_id":"d1b36e84-8ce6-4f7d-a1a3-52c8de035845","system_id":"levelo_inurba_marseille","lat":43.31712,"lon":5.42405,"is_reserved":false,"is_disabled":false,"rental_uris":{"android":"levelo://app?vid=d1b36e84-8ce6-4f7d-a1a3-52c8de035845","ios":"levelo://app?vid=d1b36e84-8ce6-4f7d-a1a3-52c8de035845"},"vehicle_type_id":"4","last_reported":1736672911,"current_range_meters":38000,"station_id":"ce4bhp92rcd13ifvqhbg","pricing_plan_id":"cebpf4jnsgd1na2vs0mg"},{"bike_id":"a0fcb8ae-3c62-42ed-9258-294b5ce23087","system_id":"levelo_inurba_marseille","lat":43.25098,"lon":5.4035,"is_reserved":false,"is_disabled":false,"rental_uris":{"android":"levelo://app?vid=a0fcb8ae-3c62-42ed-9258-294b5ce23087","ios":"levelo://app?vid=a0fcb8ae-3c62-42ed-9258-294b5ce23087"},"vehicle_type_id":"4","last_reported":1736672911,"current_range_meters":38800,"station_id":"ce4bhlh2rcd13ifvqgig","pricing_plan_id":"cebpf4jnsgd1na2vs0mg"},{"bike_id":"eb9b2df2-fdc1-4d66-abed-6bda4748c4f1","system_id":"levelo_inurba_marseille","lat":43.262034,"lon":5.37928,"is_reserved":false,"is_disabled":false,"rental_uris":{"android":"levelo://app?vid=eb9b2df2-fdc1-4d66-abed-6bda4748c4f1","ios":"levelo://app?vid=eb9b2df2-fdc1-4d66-abed-6bda4748c4f1"},"vehicle_type_id":"4","last_reported":1736672911,"current_range_meters":24000,"station_id":"ce4bhjp2rcd13ifvqg90","pricing_plan_id":"cebpf4jnsgd1na2vs0mg"},{"bike_id":"7dd5dd5e-1d75-4c5b-b5b8-248a34302cca","system_id":"levelo_inurba_marseille","lat":43.30445,"lon":5.3789,"is_reserved":false,"is_disabled":true,"rental_uris":{"android":"levelo://app?vid=7dd5dd5e-1d75-4c5b-b5b8-248a34302cca","ios":"levelo://app?vid=7dd5dd5e-1d75-4c5b-b5b8-248a34302cca"},"vehicle_type_id":"4","last_reported":1736672911,"current_range_meters":30800,"station_id":"ce4bgup2rcd13ifvqcn0","pricing_plan_id":"cebpf4jnsgd1na2vs0mg"},{"bike_id":"4e6a1fdd-84f1-4ff7-9556-c133bbbd986f","system_id":"levelo_inurba_marseille","lat":43.26196,"lon":5.37476,"is_reserved":false,"is_disabled":false,"rental_uris":{"android":"levelo://app?vid=4e6a1fdd-84f1-4ff7-9556-c133bbbd986f","ios":"levelo://app?vid=4e6a1fdd-84f1-4ff7-9556-c133bbbd986f"},"vehicle_type_id":"4","last_reported":1736672911,"current_range_meters":29600,"station_id":"ce4bhgp2rcd13ifvqfc0","pricing_plan_id":"cebpf4jnsgd1na2vs0mg"},{"bike_id":"226e6ef0-a4fc-4895-9ad6-89f66438544b","system_id":"levelo_inurba_marseille","lat":43.290031,"lon":5.356069,"is_reserved":false,"is_disabled":true,"rental_uris":{"android":"levelo://app?vid=226e6ef0-a4fc-4895-9ad6-89f66438544b","ios":"levelo://app?vid=226e6ef0-a4fc-4895-9ad6-89f66438544b"},"vehicle_type_id":"4","last_reported":1736672911,"current_range_meters":38800,"station_id":"ce4bhb92rcd13ifvqen0","pricing_plan_id":"cebpf4jnsgd1na2vs0mg"},{"bike_id":"d8327471-e10e-4e1d-a46b-c43156fc0620","system_id":"levelo_inurba_marseille","lat":43.2678,"lon":5.39417,"is_reserved":false,"is_disabled":true,"rental_uris":{"android":"levelo://app?vid=d8327471-e10e-4e1d-a46b-c43156fc0620","ios":"levelo://app?vid=d8327471-e10e-4e1d-a46b-c43156fc0620"},"vehicle_type_id":"4","last_reported":1736672911,"current_range_meters":0,"station_id":"ce4bhh12rcd13ifvqfg0","pricing_plan_id":"cebpf4jnsgd1na2vs0mg"},{"bike_id":"c035b76c-6980-4108-a17c-071c32af70e1","system_id":"levelo_inurba_marseille","lat":43.26048,"lon":5.39406,"is_reserved":false,"is_disabled":false,"rental_uris":{"android":"levelo://app?vid=c035b76c-6980-4108-a17c-071c32af70e1","ios":"levelo://app?vid=c035b76c-6980-4108-a17c-071c32af70e1"},"vehicle_type_id":"4","last_reported":1736672911,"current_range_meters":38000,"station_id":"ce4bhh92rcd13ifvqfj0","pricing_plan_id":"cebpf4jnsgd1na2vs0mg"},{"bike_id":"88a901cb-7f74-4019-a0f1-f661d13208c8","system_id":"levelo_inurba_marseille","lat":43.32479,"lon":5.36567,"is_reserved":false,"is_disabled":false,"rental_uris":{"android":"levelo://app?vid=88a901cb-7f74-4019-a0f1-f661d13208c8","ios":"levelo://app?vid=88a901cb-7f74-4019-a0f1-f661d13208c8"},"vehicle_type_id":"4","last_reported":1736672911,"current_range_meters":37600,"station_id":"ce4bhs12rcd13ifvqhvg","pricing_plan_id":"cebpf4jnsgd1na2vs0mg"},{"bike_id":"7d959c37-4d60-4094-901d-194afd224ca0","system_id":"levelo_inurba_marseille","lat":43.283696,"lon":5.386399,"is_reserved":false,"is_disabled":true,"rental_uris":{"android":"levelo://app?vid=7d959c37-4d60-4094-901d-194afd224ca0","ios":"levelo://app?vid=7d959c37-4d60-4094-901d-194afd224ca0"},"vehicle_type_id":"4","last_reported":1736672911,"current_range_meters":11200,"station_id":"ce4bh492rcd13ifvqdvg","pricing_plan_id":"cebpf4jnsgd1na2vs0mg"},{"bike_id":"6efaf63a-d498-4501-96b0-c9655d575055","system_id":"levelo_inurba_marseille","lat":43.29077,"lon":5.37801,"is_reserved":false,"is_disabled":false,"rental_uris":{"android":"levelo://app?vid=6efaf63a-d498-4501-96b0-c9655d575055","ios":"levelo://app?vid=6efaf63a-d498-4501-96b0-c9655d575055"},"vehicle_type_id":"4","last_reported":1736672911,"current_range_meters":38800,"station_id":"ce4bh9p2rcd13ifvqed0","pricing_plan_id":"cebpf4jnsgd1na2vs0mg"},{"bike_id":"80a6abfb-8b79-4771-9e26-0cfab9a42816","system_id":"levelo_inurba_marseille","lat":43.29839,"lon":5.36269,"is_reserved":false,"is_disabled":false,"rental_uris":{"android":"levelo://app?vid=80a6abfb-8b79-4771-9e26-0cfab9a42816","ios":"levelo://app?vid=80a6abfb-8b79-4771-9e26-0cfab9a42816"},"vehicle_type_id":"4","last_reported":1736672911,"current_range_meters":30000,"station_id":"ce4bgpp2rcd13ifvqc3g","pricing_plan_id":"cebpf4jnsgd1na2vs0mg"},{"bike_id":"2f89f973-f79d-4481-ae53-58827e22969c","system_id":"levelo_inurba_marseille","lat":43.25578,"lon":5.38239,"is_reserved":false,"is_disabled":false,"rental_uris":{"android":"levelo://app?vid=2f89f973-f79d-4481-ae53-58827e22969c","ios":"levelo://app?vid=2f89f973-f79d-4481-ae53-58827e22969c"},"vehicle_type_id":"4","last_reported":1736672911,"current_range_meters":20400,"station_id":"ce4bhih2rcd13ifvqfs0","pricing_plan_id":"cebpf4jnsgd1na2vs0mg"},{"bike_id":"426ee80e-06b0-4d0f-86a5-ea8ad64aaa11","system_id":"levelo_inurba_marseille","lat":43.2891,"lon":5.43779,"is_reserved":false,"is_disabled":false,"rental_uris":{"android":"levelo://app?vid=426ee80e-06b0-4d0f-86a5-ea8ad64aaa11","ios":"levelo://app?vid=426ee80e-06b0-4d0f-86a5-ea8ad64aaa11"},"vehicle_type_id":"4","last_reported":1736672911,"current_range_meters":13600,"station_id":"","pricing_plan_id":"cebpf4jnsgd1na2vs0mg"},{"bike_id":"af66193d-fd8e-4c6b-a65c-ee1d59367e83","system_id":"levelo_inurba_marseille","lat":43.28437,"lon":5.35948,"is_reserved":false,"is_disabled":false,"rental_uris":{"android":"levelo://app?vid=af66193d-fd8e-4c6b-a65c-ee1d59367e83","ios":"levelo://app?vid=af66193d-fd8e-4c6b-a65c-ee1d59367e83"},"vehicle_type_id":"4","last_reported":1736672911,"current_range_meters":38800,"station_id":"ce4bhah2rcd13ifvqei0","pricing_plan_id":"cebpf4jnsgd1na2vs0mg"},{"bike_id":"b29dca30-1f99-4556-8d02-1cd94cfb8ea1","system_id":"levelo_inurba_marseille","lat":43.32466,"lon":5.36598,"is_reserved":false,"is_disabled":false,"rental_uris":{"android":"levelo://app?vid=b29dca30-1f99-4556-8d02-1cd94cfb8ea1","ios":"levelo://app?vid=b29dca30-1f99-4556-8d02-1cd94cfb8ea1"},"vehicle_type_id":"4","last_reported":1736672911,"current_range_meters":14800,"station_id":"ce4bhs12rcd13ifvqhvg","pricing_plan_id":"cebpf4jnsgd1na2vs0mg"},{"bike_id":"2b8ddac0-7918-454e-af5a-f9c04a1d3f9e","system_id":"levelo_inurba_marseille","lat":43.297711,"lon":5.378839,"is_reserved":false,"is_disabled":false,"rental_uris":{"android":"levelo://app?vid=2b8ddac0-7918-454e-af5a-f9c04a1d3f9e","ios":"levelo://app?vid=2b8ddac0-7918-454e-af5a-f9c04a1d3f9e"},"vehicle_type_id":"4","last_reported":1736672911,"current_range_meters":6000,"station_id":"","pricing_plan_id":"cebpf4jnsgd1na2vs0mg"},{"bike_id":"9fa5613d-39b6-40e4-be80-3428e5831144","system_id":"levelo_inurba_marseille","lat":43.25855,"lon":5.39918,"is_reserved":false,"is_disabled":false,"rental_uris":{"android":"levelo://app?vid=9fa5613d-39b6-40e4-be80-3428e5831144","ios":"levelo://app?vid=9fa5613d-39b6-40e4-be80-3428e5831144"},"vehicle_type_id":"4","last_reported":1736672911,"current_range_meters":38800,"station_id":"ce4bhl92rcd13ifvqghg","pricing_plan_id":"cebpf4jnsgd1na2vs0mg"},{"bike_id":"3729f538-7148-458e-bf57-af4b40fcbf2f","system_id":"levelo_inurba_marseille","lat":43.31526,"lon":5.38029,"is_reserved":false,"is_disabled":false,"rental_uris":{"android":"levelo://app?vid=3729f538-7148-458e-bf57-af4b40fcbf2f","ios":"levelo://app?vid=3729f538-7148-458e-bf57-af4b40fcbf2f"},"vehicle_type_id":"4","last_reported":1736672911,"current_range_meters":38800,"station_id":"ce4bhsp2rcd13ifvqi50","pricing_plan_id":"cebpf4jnsgd1na2vs0mg"},{"bike_id":"bfd7fc97-d388-47cb-b784-31a4641f4b4c","system_id":"levelo_inurba_marseille","lat":43.31172,"lon":5.38728,"is_reserved":false,"is_disabled":false,"rental_uris":{"android":"levelo://app?vid=bfd7fc97-d388-47cb-b784-31a4641f4b4c","ios":"levelo://app?vid=bfd7fc97-d388-47cb-b784-31a4641f4b4c"},"vehicle_type_id":"4","last_reported":1736672911,"current_range_meters":39200,"station_id":"ce4bgv12rcd13ifvqcp0","pricing_plan_id":"cebpf4jnsgd1na2vs0mg"},{"bike_id":"ea415a8c-aacb-481b-a750-8855399248a0","system_id":"levelo_inurba_marseille","lat":43.28629,"lon":5.36389,"is_reserved":false,"is_disabled":false,"rental_uris":{"android":"levelo://app?vid=ea415a8c-aacb-481b-a750-8855399248a0","ios":"levelo://app?vid=ea415a8c-aacb-481b-a750-8855399248a0"},"vehicle_type_id":"4","last_reported":1736672911,"current_range_meters":35200,"station_id":"","pricing_plan_id":"cebpf4jnsgd1na2vs0mg"},{"bike_id":"251bcb32-9754-4a96-be14-f473e0e9719e","system_id":"levelo_inurba_marseille","lat":43.32549,"lon":5.38015,"is_reserved":false,"is_disabled":false,"rental_uris":{"android":"levelo://app?vid=251bcb32-9754-4a96-be14-f473e0e9719e","ios":"levelo://app?vid=251bcb32-9754-4a96-be14-f473e0e9719e"},"vehicle_type_id":"4","last_reported":1736672911,"current_range_meters":5600,"station_id":"","pricing_plan_id":"cebpf4jnsgd1na2vs0mg"},{"bike_id":"27feaeee-0597-491e-960c-390adee3229f","system_id":"levelo_inurba_marseille","lat":43.29189,"lon":5.39327,"is_reserved":false,"is_disabled":true,"rental_uris":{"android":"levelo://app?vid=27feaeee-0597-491e-960c-390adee3229f","ios":"levelo://app?vid=27feaeee-0597-491e-960c-390adee3229f"},"vehicle_type_id":"4","last_reported":1736672911,"current_range_meters":24400,"station_id":"ce4bh192rcd13ifvqdd0","pricing_plan_id":"cebpf4jnsgd1na2vs0mg"},{"bike_id":"f4dbc556-58b0-4dfd-be99-18a51c032520","system_id":"levelo_inurba_marseille","lat":43.24171,"lon":5.39726,"is_reserved":false,"is_disabled":true,"rental_uris":{"android":"levelo://app?vid=f4dbc556-58b0-4dfd-be99-18a51c032520","ios":"levelo://app?vid=f4dbc556-58b0-4dfd-be99-18a51c032520"},"vehicle_type_id":"4","last_reported":1736672911,"current_range_meters":36000,"station_id":"ce4bhn12rcd13ifvqgpg","pricing_plan_id":"cebpf4jnsgd1na2vs0mg"},{"bike_id":"9c62e164-6cf9-4292-996f-7c2ed5673e8e","system_id":"levelo_inurba_marseille","lat":43.23958,"lon":5.36624,"is_reserved":false,"is_disabled":false,"rental_uris":{"android":"levelo://app?vid=9c62e164-6cf9-4292-996f-7c2ed5673e8e","ios":"levelo://app?vid=9c62e164-6cf9-4292-996f-7c2ed5673e8e"},"vehicle_type_id":"4","last_reported":1736672911,"current_range_meters":27600,"station_id":"ce4bhi12rcd13ifvqfp0","pricing_plan_id":"cebpf4jnsgd1na2vs0mg"},{"bike_id":"b5ed240a-18a2-42c0-8b6e-36914ad075c6","system_id":"levelo_inurba_marseille","lat":43.31113,"lon":5.37831,"is_reserved":false,"is_disabled":false,"rental_uris":{"android":"levelo://app?vid=b5ed240a-18a2-42c0-8b6e-36914ad075c6","ios":"levelo://app?vid=b5ed240a-18a2-42c0-8b6e-36914ad075c6"},"vehicle_type_id":"4","last_reported":1736672911,"current_range_meters":39200,"station_id":"ce4bgt92rcd13ifvqcg0","pricing_plan_id":"cebpf4jnsgd1na2vs0mg"},{"bike_id":"45636413-29bd-43b6-bd8b-1246eb3c7c1a","system_id":"levelo_inurba_marseille","lat":43.27121,"lon":5.385,"is_reserved":false,"is_disabled":false,"rental_uris":{"android":"levelo://app?vid=45636413-29bd-43b6-bd8b-1246eb3c7c1a","ios":"levelo://app?vid=45636413-29bd-43b6-bd8b-1246eb3c7c1a"},"vehicle_type_id":"4","last_reported":1736672911,"current_range_meters":8800,"station_id":"","pricing_plan_id":"cebpf4jnsgd1na2vs0mg"},{"bike_id":"4d2f8fd0-21ed-4425-9dc5-0ad45a59fb73","system_id":"levelo_inurba_marseille","lat":43.24646,"lon":5.38175,"is_reserved":false,"is_disabled":false,"rental_uris":{"android":"levelo://app?vid=4d2f8fd0-21ed-4425-9dc5-0ad45a59fb73","ios":"levelo://app?vid=4d2f8fd0-21ed-4425-9dc5-0ad45a59fb73"},"vehicle_type_id":"4","last_reported":1736672911,"current_range_meters":38800,"station_id":"ce4bhih2rcd13ifvqfr0","pricing_plan_id":"cebpf4jnsgd1na2vs0mg"},{"bike_id":"ac4d5cd6-b524-4ae0-9988-7068bb5828c5","system_id":"levelo_inurba_marseille","lat":43.305367,"lon":5.36695,"is_reserved":false,"is_disabled":false,"rental_uris":{"android":"levelo://app?vid=ac4d5cd6-b524-4ae0-9988-7068bb5828c5","ios":"levelo://app?vid=ac4d5cd6-b524-4ae0-9988-7068bb5828c5"},"vehicle_type_id":"4","last_reported":1736672911,"current_range_meters":38800,"station_id":"ce4bgrp2rcd13ifvqc9g","pricing_plan_id":"cebpf4jnsgd1na2vs0mg"},{"bike_id":"80609ff8-7d7d-4ae2-9159-aea837c7c52b","system_id":"levelo_inurba_marseille","lat":43.23954,"lon":5.36636,"is_reserved":false,"is_disabled":false,"rental_uris":{"android":"levelo://app?vid=80609ff8-7d7d-4ae2-9159-aea837c7c52b","ios":"levelo://app?vid=80609ff8-7d7d-4ae2-9159-aea837c7c52b"},"vehicle_type_id":"4","last_reported":1736672911,"current_range_meters":7200,"station_id":"ce4bhi12rcd13ifvqfp0","pricing_plan_id":"cebpf4jnsgd1na2vs0mg"},{"bike_id":"01d8cf89-b6fb-431c-ac59-b08e483c001d","system_id":"levelo_inurba_marseille","lat":43.28456,"lon":5.35941,"is_reserved":false,"is_disabled":false,"rental_uris":{"android":"levelo://app?vid=01d8cf89-b6fb-431c-ac59-b08e483c001d","ios":"levelo://app?vid=01d8cf89-b6fb-431c-ac59-b08e483c001d"},"vehicle_type_id":"4","last_reported":1736672911,"current_range_meters":27600,"station_id":"ce4bhah2rcd13ifvqei0","pricing_plan_id":"cebpf4jnsgd1na2vs0mg"},{"bike_id":"c2b657e0-67fb-4721-a4d6-0ebb2fa0fcbe","system_id":"levelo_inurba_marseille","lat":43.286109,"lon":5.350946,"is_reserved":false,"is_disabled":false,"rental_uris":{"android":"levelo://app?vid=c2b657e0-67fb-4721-a4d6-0ebb2fa0fcbe","ios":"levelo://app?vid=c2b657e0-67fb-4721-a4d6-0ebb2fa0fcbe"},"vehicle_type_id":"4","last_reported":1736672911,"current_range_meters":37600,"station_id":"ce4bhch2rcd13ifvqeug","pricing_plan_id":"cebpf4jnsgd1na2vs0mg"},{"bike_id":"ede110e2-d6d1-4df1-a22c-56141f38a63d","system_id":"levelo_inurba_marseille","lat":43.29254,"lon":5.40918,"is_reserved":false,"is_disabled":false,"rental_uris":{"android":"levelo://app?vid=ede110e2-d6d1-4df1-a22c-56141f38a63d","ios":"levelo://app?vid=ede110e2-d6d1-4df1-a22c-56141f38a63d"},"vehicle_type_id":"4","last_reported":1736672911,"current_range_meters":38800,"station_id":"ce4bh192rcd13ifvqdc0","pricing_plan_id":"cebpf4jnsgd1na2vs0mg"},{"bike_id":"d12f9832-4c75-444f-92d0-02d4aa57d464","system_id":"levelo_inurba_marseille","lat":43.2318,"lon":5.39989,"is_reserved":false,"is_disabled":false,"rental_uris":{"android":"levelo://app?vid=d12f9832-4c75-444f-92d0-02d4aa57d464","ios":"levelo://app?vid=d12f9832-4c75-444f-92d0-02d4aa57d464"},"vehicle_type_id":"4","last_reported":1736672911,"current_range_meters":7200,"station_id":"ce4bhn12rcd13ifvqgqg","pricing_plan_id":"cebpf4jnsgd1na2vs0mg"},{"bike_id":"3bf91848-c5d0-4524-ac3b-a43d812f5094","system_id":"levelo_inurba_marseille","lat":43.230613,"lon":5.354818,"is_reserved":false,"is_disabled":false,"rental_uris":{"android":"levelo://app?vid=3bf91848-c5d0-4524-ac3b-a43d812f5094","ios":"levelo://app?vid=3bf91848-c5d0-4524-ac3b-a43d812f5094"},"vehicle_type_id":"4","last_reported":1736672911,"current_range_meters":38000,"station_id":"cpo3342slgdg3j2ifvpg","pricing_plan_id":"cebpf4jnsgd1na2vs0mg"},{"bike_id":"8cd33a3d-1860-478d-a151-22d613deb8d9","system_id":"levelo_inurba_marseille","lat":43.26501,"lon":5.39536,"is_reserved":false,"is_disabled":false,"rental_uris":{"android":"levelo://app?vid=8cd33a3d-1860-478d-a151-22d613deb8d9","ios":"levelo://app?vid=8cd33a3d-1860-478d-a151-22d613deb8d9"},"vehicle_type_id":"4","last_reported":1736672911,"current_range_meters":37600,"station_id":"ce4bhi12rcd13ifvqfq0","pricing_plan_id":"cebpf4jnsgd1na2vs0mg"},{"bike_id":"aa4fa961-77ec-4d6f-875d-5cba342b5b27","system_id":"levelo_inurba_marseille","lat":43.255656,"lon":5.382469,"is_reserved":false,"is_disabled":false,"rental_uris":{"android":"levelo://app?vid=aa4fa961-77ec-4d6f-875d-5cba342b5b27","ios":"levelo://app?vid=aa4fa961-77ec-4d6f-875d-5cba342b5b27"},"vehicle_type_id":"4","last_reported":1736672911,"current_range_meters":38800,"station_id":"ce4bhih2rcd13ifvqfs0","pricing_plan_id":"cebpf4jnsgd1na2vs0mg"},{"bike_id":"33f772a9-3316-47c9-ba2c-b8bb5b0473dc","system_id":"levelo_inurba_marseille","lat":43.29567,"lon":5.36765,"is_reserved":false,"is_disabled":true,"rental_uris":{"android":"levelo://app?vid=33f772a9-3316-47c9-ba2c-b8bb5b0473dc","ios":"levelo://app?vid=33f772a9-3316-47c9-ba2c-b8bb5b0473dc"},"vehicle_type_id":"4","last_reported":1736672911,"current_range_meters":38000,"station_id":"ce4bgph2rcd13ifvqc2g","pricing_plan_id":"cebpf4jnsgd1na2vs0mg"},{"bike_id":"905452b7-c0dc-4ce7-9290-08103a443dba","system_id":"levelo_inurba_marseille","lat":43.24689,"lon":5.38161,"is_reserved":false,"is_disabled":false,"rental_uris":{"android":"levelo://app?vid=905452b7-c0dc-4ce7-9290-08103a443dba","ios":"levelo://app?vid=905452b7-c0dc-4ce7-9290-08103a443dba"},"vehicle_type_id":"4","last_reported":1736672911,"current_range_meters":28000,"station_id":"ce4bhih2rcd13ifvqfr0","pricing_plan_id":"cebpf4jnsgd1na2vs0mg"},{"bike_id":"55ba99ed-985e-49c8-b072-957201c19c69","system_id":"levelo_inurba_marseille","lat":43.25115,"lon":5.40326,"is_reserved":false,"is_disabled":false,"rental_uris":{"android":"levelo://app?vid=55ba99ed-985e-49c8-b072-957201c19c69","ios":"levelo://app?vid=55ba99ed-985e-49c8-b072-957201c19c69"},"vehicle_type_id":"4","last_reported":1736672911,"current_range_meters":27600,"station_id":"ce4bhlh2rcd13ifvqgig","pricing_plan_id":"cebpf4jnsgd1na2vs0mg"},{"bike_id":"7c636309-fe85-4233-be7e-72ace32407df","system_id":"levelo_inurba_marseille","lat":43.28559,"lon":5.395,"is_reserved":false,"is_disabled":false,"rental_uris":{"android":"levelo://app?vid=7c636309-fe85-4233-be7e-72ace32407df","ios":"levelo://app?vid=7c636309-fe85-4233-be7e-72ace32407df"},"vehicle_type_id":"4","last_reported":1736672911,"current_range_meters":32800,"station_id":"ce4bh292rcd13ifvqdg0","pricing_plan_id":"cebpf4jnsgd1na2vs0mg"},{"bike_id":"b7e2f4aa-3f2d-4412-937a-c1402990155a","system_id":"levelo_inurba_marseille","lat":43.30617,"lon":5.36799,"is_reserved":false,"is_disabled":false,"rental_uris":{"android":"levelo://app?vid=b7e2f4aa-3f2d-4412-937a-c1402990155a","ios":"levelo://app?vid=b7e2f4aa-3f2d-4412-937a-c1402990155a"},"vehicle_type_id":"4","last_reported":1736672911,"current_range_meters":38400,"station_id":"","pricing_plan_id":"cebpf4jnsgd1na2vs0mg"},{"bike_id":"a970c79a-c8a4-4818-b132-1b08b0d8a27c","system_id":"levelo_inurba_marseille","lat":43.29032,"lon":5.39933,"is_reserved":false,"is_disabled":false,"rental_uris":{"android":"levelo://app?vid=a970c79a-c8a4-4818-b132-1b08b0d8a27c","ios":"levelo://app?vid=a970c79a-c8a4-4818-b132-1b08b0d8a27c"},"vehicle_type_id":"4","last_reported":1736672911,"current_range_meters":34000,"station_id":"ce4bh392rcd13ifvqdm0","pricing_plan_id":"cebpf4jnsgd1na2vs0mg"},{"bike_id":"eb135d1a-caa3-4267-9897-276a74f6bc88","system_id":"levelo_inurba_marseille","lat":43.25861,"lon":5.39931,"is_reserved":false,"is_disabled":false,"rental_uris":{"android":"levelo://app?vid=eb135d1a-caa3-4267-9897-276a74f6bc88","ios":"levelo://app?vid=eb135d1a-caa3-4267-9897-276a74f6bc88"},"vehicle_type_id":"4","last_reported":1736672911,"current_range_meters":32400,"station_id":"ce4bhl92rcd13ifvqghg","pricing_plan_id":"cebpf4jnsgd1na2vs0mg"},{"bike_id":"1dcb0e10-1342-44d0-8aa8-ae2d43f8dc77","system_id":"levelo_inurba_marseille","lat":43.30132,"lon":5.3879,"is_reserved":false,"is_disabled":false,"rental_uris":{"android":"levelo://app?vid=1dcb0e10-1342-44d0-8aa8-ae2d43f8dc77","ios":"levelo://app?vid=1dcb0e10-1342-44d0-8aa8-ae2d43f8dc77"},"vehicle_type_id":"4","last_reported":1736672911,"current_range_meters":38800,"station_id":"ce4bhoh2rcd13ifvqh6g","pricing_plan_id":"cebpf4jnsgd1na2vs0mg"},{"bike_id":"066fc890-cce1-4b7e-a941-320c51e991c9","system_id":"levelo_inurba_marseille","lat":43.23967,"lon":5.36628,"is_reserved":false,"is_disabled":false,"rental_uris":{"android":"levelo://app?vid=066fc890-cce1-4b7e-a941-320c51e991c9","ios":"levelo://app?vid=066fc890-cce1-4b7e-a941-320c51e991c9"},"vehicle_type_id":"4","last_reported":1736672911,"current_range_meters":18000,"station_id":"ce4bhi12rcd13ifvqfp0","pricing_plan_id":"cebpf4jnsgd1na2vs0mg"},{"bike_id":"75911712-e1fe-4582-8d3c-3a9f41d95fcc","system_id":"levelo_inurba_marseille","lat":43.27378,"lon":5.36266,"is_reserved":false,"is_disabled":false,"rental_uris":{"android":"levelo://app?vid=75911712-e1fe-4582-8d3c-3a9f41d95fcc","ios":"levelo://app?vid=75911712-e1fe-4582-8d3c-3a9f41d95fcc"},"vehicle_type_id":"4","last_reported":1736672911,"current_range_meters":11600,"station_id":"ce4bhbh2rcd13ifvqeo0","pricing_plan_id":"cebpf4jnsgd1na2vs0mg"},{"bike_id":"4100518d-ec21-4c20-9cbc-a715dd414659","system_id":"levelo_inurba_marseille","lat":43.27826,"lon":5.39201,"is_reserved":false,"is_disabled":false,"rental_uris":{"android":"levelo://app?vid=4100518d-ec21-4c20-9cbc-a715dd414659","ios":"levelo://app?vid=4100518d-ec21-4c20-9cbc-a715dd414659"},"vehicle_type_id":"4","last_reported":1736672911,"current_range_meters":38800,"station_id":"ce4bhjp2rcd13ifvqga0","pricing_plan_id":"cebpf4jnsgd1na2vs0mg"},{"bike_id":"f23303a1-2950-4186-aef1-0aceb167a700","system_id":"levelo_inurba_marseille","lat":43.28939,"lon":5.39627,"is_reserved":false,"is_disabled":false,"rental_uris":{"android":"levelo://app?vid=f23303a1-2950-4186-aef1-0aceb167a700","ios":"levelo://app?vid=f23303a1-2950-4186-aef1-0aceb167a700"},"vehicle_type_id":"4","last_reported":1736672911,"current_range_meters":38800,"station_id":"ce4bh3h2rcd13ifvqdn0","pricing_plan_id":"cebpf4jnsgd1na2vs0mg"},{"bike_id":"c4a9f4d8-3097-4c73-b16c-f476d0136944","system_id":"levelo_inurba_marseille","lat":43.25003,"lon":5.38917,"is_reserved":false,"is_disabled":false,"rental_uris":{"android":"levelo://app?vid=c4a9f4d8-3097-4c73-b16c-f476d0136944","ios":"levelo://app?vid=c4a9f4d8-3097-4c73-b16c-f476d0136944"},"vehicle_type_id":"4","last_reported":1736672911,"current_range_meters":18800,"station_id":"ce4bhgp2rcd13ifvqfd0","pricing_plan_id":"cebpf4jnsgd1na2vs0mg"},{"bike_id":"f30cb7b0-bac8-46ac-92c6-53aa90cba244","system_id":"levelo_inurba_marseille","lat":43.31726,"lon":5.42402,"is_reserved":false,"is_disabled":false,"rental_uris":{"android":"levelo://app?vid=f30cb7b0-bac8-46ac-92c6-53aa90cba244","ios":"levelo://app?vid=f30cb7b0-bac8-46ac-92c6-53aa90cba244"},"vehicle_type_id":"4","last_reported":1736672911,"current_range_meters":37600,"station_id":"ce4bhp92rcd13ifvqhbg","pricing_plan_id":"cebpf4jnsgd1na2vs0mg"},{"bike_id":"54a3f591-d039-4614-bfe0-35b7e0054969","system_id":"levelo_inurba_marseille","lat":43.24663,"lon":5.38158,"is_reserved":false,"is_disabled":false,"rental_uris":{"android":"levelo://app?vid=54a3f591-d039-4614-bfe0-35b7e0054969","ios":"levelo://app?vid=54a3f591-d039-4614-bfe0-35b7e0054969"},"vehicle_type_id":"4","last_reported":1736672911,"current_range_meters":38400,"station_id":"ce4bhih2rcd13ifvqfr0","pricing_plan_id":"cebpf4jnsgd1na2vs0mg"},{"bike_id":"a93f552d-b365-4ed0-9344-b6eeb5fc5fbc","system_id":"levelo_inurba_marseille","lat":43.24386,"lon":5.37076,"is_reserved":false,"is_disabled":false,"rental_uris":{"android":"levelo://app?vid=a93f552d-b365-4ed0-9344-b6eeb5fc5fbc","ios":"levelo://app?vid=a93f552d-b365-4ed0-9344-b6eeb5fc5fbc"},"vehicle_type_id":"4","last_reported":1736672911,"current_range_meters":18800,"station_id":"ce4bhhh2rcd13ifvqfk0","pricing_plan_id":"cebpf4jnsgd1na2vs0mg"},{"bike_id":"705aaf97-205d-4a6b-bf7f-80d89ff319e4","system_id":"levelo_inurba_marseille","lat":43.24666,"lon":5.38159,"is_reserved":false,"is_disabled":false,"rental_uris":{"android":"levelo://app?vid=705aaf97-205d-4a6b-bf7f-80d89ff319e4","ios":"levelo://app?vid=705aaf97-205d-4a6b-bf7f-80d89ff319e4"},"vehicle_type_id":"4","last_reported":1736672911,"current_range_meters":25600,"station_id":"ce4bhih2rcd13ifvqfr0","pricing_plan_id":"cebpf4jnsgd1na2vs0mg"},{"bike_id":"dc388f0e-5ba4-4401-b2b7-3e59da087469","system_id":"levelo_inurba_marseille","lat":43.28611,"lon":5.35107,"is_reserved":false,"is_disabled":false,"rental_uris":{"android":"levelo://app?vid=dc388f0e-5ba4-4401-b2b7-3e59da087469","ios":"levelo://app?vid=dc388f0e-5ba4-4401-b2b7-3e59da087469"},"vehicle_type_id":"4","last_reported":1736672911,"current_range_meters":18000,"station_id":"ce4bhch2rcd13ifvqeug","pricing_plan_id":"cebpf4jnsgd1na2vs0mg"},{"bike_id":"1413339e-d420-4024-9cb9-0e4f930f22dd","system_id":"levelo_inurba_marseille","lat":43.24546,"lon":5.39519,"is_reserved":false,"is_disabled":false,"rental_uris":{"android":"levelo://app?vid=1413339e-d420-4024-9cb9-0e4f930f22dd","ios":"levelo://app?vid=1413339e-d420-4024-9cb9-0e4f930f22dd"},"vehicle_type_id":"4","last_reported":1736672911,"current_range_meters":33600,"station_id":"ce4bhlp2rcd13ifvqgjg","pricing_plan_id":"cebpf4jnsgd1na2vs0mg"},{"bike_id":"8c00cf29-540b-4d5d-a97c-7e1b2682eb3a","system_id":"levelo_inurba_marseille","lat":43.24677,"lon":5.3816,"is_reserved":false,"is_disabled":false,"rental_uris":{"android":"levelo://app?vid=8c00cf29-540b-4d5d-a97c-7e1b2682eb3a","ios":"levelo://app?vid=8c00cf29-540b-4d5d-a97c-7e1b2682eb3a"},"vehicle_type_id":"4","last_reported":1736672911,"current_range_meters":38800,"station_id":"ce4bhih2rcd13ifvqfr0","pricing_plan_id":"cebpf4jnsgd1na2vs0mg"},{"bike_id":"eabf8fa3-7034-47ca-ac29-c6c3f424c9ec","system_id":"levelo_inurba_marseille","lat":43.32347,"lon":5.40615,"is_reserved":false,"is_disabled":false,"rental_uris":{"android":"levelo://app?vid=eabf8fa3-7034-47ca-ac29-c6c3f424c9ec","ios":"levelo://app?vid=eabf8fa3-7034-47ca-ac29-c6c3f424c9ec"},"vehicle_type_id":"4","last_reported":1736672911,"current_range_meters":38000,"station_id":"ce4bhq92rcd13ifvqhjg","pricing_plan_id":"cebpf4jnsgd1na2vs0mg"},{"bike_id":"c84c60ce-c7f6-42eb-bb3c-f11a697bd396","system_id":"levelo_inurba_marseille","lat":43.2997,"lon":5.3853,"is_reserved":false,"is_disabled":true,"rental_uris":{"android":"levelo://app?vid=c84c60ce-c7f6-42eb-bb3c-f11a697bd396","ios":"levelo://app?vid=c84c60ce-c7f6-42eb-bb3c-f11a697bd396"},"vehicle_type_id":"4","last_reported":1736672911,"current_range_meters":6400,"station_id":"ce4bgj92rcd13ifvqbd0","pricing_plan_id":"cebpf4jnsgd1na2vs0mg"},{"bike_id":"420cc4f0-5dae-4076-8aa5-3954771a9298","system_id":"levelo_inurba_marseille","lat":43.30791,"lon":5.3765,"is_reserved":false,"is_disabled":false,"rental_uris":{"android":"levelo://app?vid=420cc4f0-5dae-4076-8aa5-3954771a9298","ios":"levelo://app?vid=420cc4f0-5dae-4076-8aa5-3954771a9298"},"vehicle_type_id":"4","last_reported":1736672911,"current_range_meters":34000,"station_id":"ce4bgv92rcd13ifvqcq0","pricing_plan_id":"cebpf4jnsgd1na2vs0mg"},{"bike_id":"5b037463-e776-4f8a-b002-41b2aa90a2b6","system_id":"levelo_inurba_marseille","lat":43.230544,"lon":5.355016,"is_reserved":false,"is_disabled":false,"rental_uris":{"android":"levelo://app?vid=5b037463-e776-4f8a-b002-41b2aa90a2b6","ios":"levelo://app?vid=5b037463-e776-4f8a-b002-41b2aa90a2b6"},"vehicle_type_id":"4","last_reported":1736672911,"current_range_meters":38000,"station_id":"cpo3342slgdg3j2ifvpg","pricing_plan_id":"cebpf4jnsgd1na2vs0mg"},{"bike_id":"125e826f-483b-47dc-9a84-f3a82cf45a8e","system_id":"levelo_inurba_marseille","lat":43.30129,"lon":5.37814,"is_reserved":false,"is_disabled":false,"rental_uris":{"android":"levelo://app?vid=125e826f-483b-47dc-9a84-f3a82cf45a8e","ios":"levelo://app?vid=125e826f-483b-47dc-9a84-f3a82cf45a8e"},"vehicle_type_id":"4","last_reported":1736672911,"current_range_meters":8000,"station_id":"","pricing_plan_id":"cebpf4jnsgd1na2vs0mg"},{"bike_id":"58ba27ab-c124-4665-ba9c-8ac9098850f3","system_id":"levelo_inurba_marseille","lat":43.265559,"lon":5.372878,"is_reserved":false,"is_disabled":false,"rental_uris":{"android":"levelo://app?vid=58ba27ab-c124-4665-ba9c-8ac9098850f3","ios":"levelo://app?vid=58ba27ab-c124-4665-ba9c-8ac9098850f3"},"vehicle_type_id":"4","last_reported":1736672911,"current_range_meters":38000,"station_id":"ce4bhg12rcd13ifvqf70","pricing_plan_id":"cebpf4jnsgd1na2vs0mg"},{"bike_id":"2c1599c9-7584-4bf2-91fe-b662752a8eaf","system_id":"levelo_inurba_marseille","lat":43.2681,"lon":5.39478,"is_reserved":false,"is_disabled":false,"rental_uris":{"android":"levelo://app?vid=2c1599c9-7584-4bf2-91fe-b662752a8eaf","ios":"levelo://app?vid=2c1599c9-7584-4bf2-91fe-b662752a8eaf"},"vehicle_type_id":"4","last_reported":1736672911,"current_range_meters":38400,"station_id":"ce4bhh12rcd13ifvqfg0","pricing_plan_id":"cebpf4jnsgd1na2vs0mg"},{"bike_id":"c1c51f67-6348-4482-a3d4-31704cefaf37","system_id":"levelo_inurba_marseille","lat":43.28619,"lon":5.35114,"is_reserved":false,"is_disabled":false,"rental_uris":{"android":"levelo://app?vid=c1c51f67-6348-4482-a3d4-31704cefaf37","ios":"levelo://app?vid=c1c51f67-6348-4482-a3d4-31704cefaf37"},"vehicle_type_id":"4","last_reported":1736672911,"current_range_meters":38000,"station_id":"ce4bhch2rcd13ifvqeug","pricing_plan_id":"cebpf4jnsgd1na2vs0mg"},{"bike_id":"91fb11d4-1c76-4f66-b3aa-69dae02619f9","system_id":"levelo_inurba_marseille","lat":43.32359,"lon":5.38887,"is_reserved":false,"is_disabled":false,"rental_uris":{"android":"levelo://app?vid=91fb11d4-1c76-4f66-b3aa-69dae02619f9","ios":"levelo://app?vid=91fb11d4-1c76-4f66-b3aa-69dae02619f9"},"vehicle_type_id":"4","last_reported":1736672911,"current_range_meters":38000,"station_id":"ce4bhqp2rcd13ifvqhog","pricing_plan_id":"cebpf4jnsgd1na2vs0mg"},{"bike_id":"d365f8f3-2e8a-46f8-afab-dce1c5f4f669","system_id":"levelo_inurba_marseille","lat":43.31327,"lon":5.39713,"is_reserved":false,"is_disabled":false,"rental_uris":{"android":"levelo://app?vid=d365f8f3-2e8a-46f8-afab-dce1c5f4f669","ios":"levelo://app?vid=d365f8f3-2e8a-46f8-afab-dce1c5f4f669"},"vehicle_type_id":"4","last_reported":1736672911,"current_range_meters":38800,"station_id":"ce4bgvp2rcd13ifvqcu0","pricing_plan_id":"cebpf4jnsgd1na2vs0mg"},{"bike_id":"6e6f3e70-5581-4356-a45f-f1c87247c63b","system_id":"levelo_inurba_marseille","lat":43.28709,"lon":5.39993,"is_reserved":false,"is_disabled":true,"rental_uris":{"android":"levelo://app?vid=6e6f3e70-5581-4356-a45f-f1c87247c63b","ios":"levelo://app?vid=6e6f3e70-5581-4356-a45f-f1c87247c63b"},"vehicle_type_id":"4","last_reported":1736672911,"current_range_meters":36400,"station_id":"ce4bho92rcd13ifvqh3g","pricing_plan_id":"cebpf4jnsgd1na2vs0mg"},{"bike_id":"36725181-d3b5-4842-99e3-8dc9c3fc870c","system_id":"levelo_inurba_marseille","lat":43.27495,"lon":5.42456,"is_reserved":false,"is_disabled":false,"rental_uris":{"android":"levelo://app?vid=36725181-d3b5-4842-99e3-8dc9c3fc870c","ios":"levelo://app?vid=36725181-d3b5-4842-99e3-8dc9c3fc870c"},"vehicle_type_id":"4","last_reported":1736672911,"current_range_meters":38800,"station_id":"ce4bhn92rcd13ifvqgrg","pricing_plan_id":"cebpf4jnsgd1na2vs0mg"},{"bike_id":"1a93e2db-cfef-44c3-88cb-cf63f25e1865","system_id":"levelo_inurba_marseille","lat":43.24386,"lon":5.37072,"is_reserved":false,"is_disabled":false,"rental_uris":{"android":"levelo://app?vid=1a93e2db-cfef-44c3-88cb-cf63f25e1865","ios":"levelo://app?vid=1a93e2db-cfef-44c3-88cb-cf63f25e1865"},"vehicle_type_id":"4","last_reported":1736672911,"current_range_meters":30000,"station_id":"ce4bhhh2rcd13ifvqfk0","pricing_plan_id":"cebpf4jnsgd1na2vs0mg"},{"bike_id":"3db15e78-0259-4d3a-9775-04349b1aed30","system_id":"levelo_inurba_marseille","lat":43.305481,"lon":5.36532,"is_reserved":false,"is_disabled":true,"rental_uris":{"android":"levelo://app?vid=3db15e78-0259-4d3a-9775-04349b1aed30","ios":"levelo://app?vid=3db15e78-0259-4d3a-9775-04349b1aed30"},"vehicle_type_id":"4","last_reported":1736672911,"current_range_meters":27600,"station_id":"ce4bgs12rcd13ifvqcag","pricing_plan_id":"cebpf4jnsgd1na2vs0mg"},{"bike_id":"a754abf4-87cb-4915-a97f-0b4d0e8971f5","system_id":"levelo_inurba_marseille","lat":43.28617,"lon":5.35092,"is_reserved":false,"is_disabled":false,"rental_uris":{"android":"levelo://app?vid=a754abf4-87cb-4915-a97f-0b4d0e8971f5","ios":"levelo://app?vid=a754abf4-87cb-4915-a97f-0b4d0e8971f5"},"vehicle_type_id":"4","last_reported":1736672911,"current_range_meters":37600,"station_id":"ce4bhch2rcd13ifvqeug","pricing_plan_id":"cebpf4jnsgd1na2vs0mg"},{"bike_id":"b51b8509-c21e-40ac-802b-edd56e55cdd0","system_id":"levelo_inurba_marseille","lat":43.303662,"lon":5.418917,"is_reserved":false,"is_disabled":true,"rental_uris":{"android":"levelo://app?vid=b51b8509-c21e-40ac-802b-edd56e55cdd0","ios":"levelo://app?vid=b51b8509-c21e-40ac-802b-edd56e55cdd0"},"vehicle_type_id":"4","last_reported":1736672911,"current_range_meters":27200,"station_id":"ce4bhop2rcd13ifvqh7g","pricing_plan_id":"cebpf4jnsgd1na2vs0mg"},{"bike_id":"4e902877-1d1e-491d-be4e-4863106562a0","system_id":"levelo_inurba_marseille","lat":43.25115,"lon":5.40345,"is_reserved":false,"is_disabled":false,"rental_uris":{"android":"levelo://app?vid=4e902877-1d1e-491d-be4e-4863106562a0","ios":"levelo://app?vid=4e902877-1d1e-491d-be4e-4863106562a0"},"vehicle_type_id":"4","last_reported":1736672911,"current_range_meters":33200,"station_id":"ce4bhlh2rcd13ifvqgig","pricing_plan_id":"cebpf4jnsgd1na2vs0mg"},{"bike_id":"78fc2529-851e-44ea-9e17-e5a76c9197b1","system_id":"levelo_inurba_marseille","lat":43.29921,"lon":5.38227,"is_reserved":false,"is_disabled":true,"rental_uris":{"android":"levelo://app?vid=78fc2529-851e-44ea-9e17-e5a76c9197b1","ios":"levelo://app?vid=78fc2529-851e-44ea-9e17-e5a76c9197b1"},"vehicle_type_id":"4","last_reported":1736672911,"current_range_meters":34800,"station_id":"ce4bgj12rcd13ifvqbc0","pricing_plan_id":"cebpf4jnsgd1na2vs0mg"},{"bike_id":"6e0b7390-3f03-4896-850a-30b735b3a5fe","system_id":"levelo_inurba_marseille","lat":43.254876,"lon":5.376533,"is_reserved":false,"is_disabled":false,"rental_uris":{"android":"levelo://app?vid=6e0b7390-3f03-4896-850a-30b735b3a5fe","ios":"levelo://app?vid=6e0b7390-3f03-4896-850a-30b735b3a5fe"},"vehicle_type_id":"4","last_reported":1736672911,"current_range_meters":16800,"station_id":"ce4bhh12rcd13ifvqff0","pricing_plan_id":"cebpf4jnsgd1na2vs0mg"},{"bike_id":"5af95480-8c13-4b34-a3f1-e8d8f8a10af5","system_id":"levelo_inurba_marseille","lat":43.26508,"lon":5.39572,"is_reserved":false,"is_disabled":false,"rental_uris":{"android":"levelo://app?vid=5af95480-8c13-4b34-a3f1-e8d8f8a10af5","ios":"levelo://app?vid=5af95480-8c13-4b34-a3f1-e8d8f8a10af5"},"vehicle_type_id":"4","last_reported":1736672911,"current_range_meters":38000,"station_id":"ce4bhi12rcd13ifvqfq0","pricing_plan_id":"cebpf4jnsgd1na2vs0mg"},{"bike_id":"ebc55eb9-194f-4e99-8e23-b42fca6cc43d","system_id":"levelo_inurba_marseille","lat":43.27662,"lon":5.3896,"is_reserved":false,"is_disabled":true,"rental_uris":{"android":"levelo://app?vid=ebc55eb9-194f-4e99-8e23-b42fca6cc43d","ios":"levelo://app?vid=ebc55eb9-194f-4e99-8e23-b42fca6cc43d"},"vehicle_type_id":"4","last_reported":1736672911,"current_range_meters":36800,"station_id":"","pricing_plan_id":"cebpf4jnsgd1na2vs0mg"},{"bike_id":"63cdcf82-248c-4b6b-8d66-12ed7f09703d","system_id":"levelo_inurba_marseille","lat":43.28666,"lon":5.36425,"is_reserved":false,"is_disabled":false,"rental_uris":{"android":"levelo://app?vid=63cdcf82-248c-4b6b-8d66-12ed7f09703d","ios":"levelo://app?vid=63cdcf82-248c-4b6b-8d66-12ed7f09703d"},"vehicle_type_id":"4","last_reported":1736672911,"current_range_meters":37600,"station_id":"ce4bhah2rcd13ifvqej0","pricing_plan_id":"cebpf4jnsgd1na2vs0mg"},{"bike_id":"efa73633-1e63-4f83-8274-8587a262ba25","system_id":"levelo_inurba_marseille","lat":43.23184,"lon":5.39982,"is_reserved":false,"is_disabled":false,"rental_uris":{"android":"levelo://app?vid=efa73633-1e63-4f83-8274-8587a262ba25","ios":"levelo://app?vid=efa73633-1e63-4f83-8274-8587a262ba25"},"vehicle_type_id":"4","last_reported":1736672911,"current_range_meters":37600,"station_id":"ce4bhn12rcd13ifvqgqg","pricing_plan_id":"cebpf4jnsgd1na2vs0mg"},{"bike_id":"d679e8ad-e35b-4604-a475-064f331d9c01","system_id":"levelo_inurba_marseille","lat":43.315304,"lon":5.380291,"is_reserved":false,"is_disabled":true,"rental_uris":{"android":"levelo://app?vid=d679e8ad-e35b-4604-a475-064f331d9c01","ios":"levelo://app?vid=d679e8ad-e35b-4604-a475-064f331d9c01"},"vehicle_type_id":"4","last_reported":1736672911,"current_range_meters":38800,"station_id":"ce4bhsp2rcd13ifvqi50","pricing_plan_id":"cebpf4jnsgd1na2vs0mg"},{"bike_id":"14a28aa5-943a-4608-a77e-d97fa73e637a","system_id":"levelo_inurba_marseille","lat":43.27572,"lon":5.3843,"is_reserved":false,"is_disabled":false,"rental_uris":{"android":"levelo://app?vid=14a28aa5-943a-4608-a77e-d97fa73e637a","ios":"levelo://app?vid=14a28aa5-943a-4608-a77e-d97fa73e637a"},"vehicle_type_id":"4","last_reported":1736672911,"current_range_meters":32400,"station_id":"ce4bhh92rcd13ifvqfi0","pricing_plan_id":"cebpf4jnsgd1na2vs0mg"},{"bike_id":"0be57012-21b1-4218-831c-d4015e9ce408","system_id":"levelo_inurba_marseille","lat":43.29971,"lon":5.38494,"is_reserved":false,"is_disabled":false,"rental_uris":{"android":"levelo://app?vid=0be57012-21b1-4218-831c-d4015e9ce408","ios":"levelo://app?vid=0be57012-21b1-4218-831c-d4015e9ce408"},"vehicle_type_id":"4","last_reported":1736672911,"current_range_meters":20800,"station_id":"ce4bgj92rcd13ifvqbd0","pricing_plan_id":"cebpf4jnsgd1na2vs0mg"},{"bike_id":"7a26cee2-ab4c-4e00-ac58-8f5841f72a9b","system_id":"levelo_inurba_marseille","lat":43.31362,"lon":5.38494,"is_reserved":false,"is_disabled":false,"rental_uris":{"android":"levelo://app?vid=7a26cee2-ab4c-4e00-ac58-8f5841f72a9b","ios":"levelo://app?vid=7a26cee2-ab4c-4e00-ac58-8f5841f72a9b"},"vehicle_type_id":"4","last_reported":1736672911,"current_range_meters":24800,"station_id":"ce4bgt92rcd13ifvqcf0","pricing_plan_id":"cebpf4jnsgd1na2vs0mg"},{"bike_id":"ff1967d5-1ce8-4480-9abc-3ccac9d3917b","system_id":"levelo_inurba_marseille","lat":43.28264,"lon":5.35082,"is_reserved":false,"is_disabled":false,"rental_uris":{"android":"levelo://app?vid=ff1967d5-1ce8-4480-9abc-3ccac9d3917b","ios":"levelo://app?vid=ff1967d5-1ce8-4480-9abc-3ccac9d3917b"},"vehicle_type_id":"4","last_reported":1736672911,"current_range_meters":11200,"station_id":"ce4bhbp2rcd13ifvqerg","pricing_plan_id":"cebpf4jnsgd1na2vs0mg"},{"bike_id":"a81e0000-9ba4-4446-9746-fec6f4420090","system_id":"levelo_inurba_marseille","lat":43.30177,"lon":5.38077,"is_reserved":false,"is_disabled":false,"rental_uris":{"android":"levelo://app?vid=a81e0000-9ba4-4446-9746-fec6f4420090","ios":"levelo://app?vid=a81e0000-9ba4-4446-9746-fec6f4420090"},"vehicle_type_id":"4","last_reported":1736672911,"current_range_meters":28000,"station_id":"ce4bgjp2rcd13ifvqbh0","pricing_plan_id":"cebpf4jnsgd1na2vs0mg"},{"bike_id":"dcb8cf23-4194-49ea-a6ea-b6e4bbab19cd","system_id":"levelo_inurba_marseille","lat":43.262,"lon":5.37931,"is_reserved":false,"is_disabled":false,"rental_uris":{"android":"levelo://app?vid=dcb8cf23-4194-49ea-a6ea-b6e4bbab19cd","ios":"levelo://app?vid=dcb8cf23-4194-49ea-a6ea-b6e4bbab19cd"},"vehicle_type_id":"4","last_reported":1736672911,"current_range_meters":21600,"station_id":"ce4bhjp2rcd13ifvqg90","pricing_plan_id":"cebpf4jnsgd1na2vs0mg"},{"bike_id":"d9edb216-ee47-40a8-8ccd-82ecd79a1993","system_id":"levelo_inurba_marseille","lat":43.29031,"lon":5.38139,"is_reserved":false,"is_disabled":true,"rental_uris":{"android":"levelo://app?vid=d9edb216-ee47-40a8-8ccd-82ecd79a1993","ios":"levelo://app?vid=d9edb216-ee47-40a8-8ccd-82ecd79a1993"},"vehicle_type_id":"4","last_reported":1736672911,"current_range_meters":38800,"station_id":"ce4bh4p2rcd13ifvqe1g","pricing_plan_id":"cebpf4jnsgd1na2vs0mg"},{"bike_id":"4729126b-0335-4a3c-bc10-3e11d69e82f2","system_id":"levelo_inurba_marseille","lat":43.24078,"lon":5.3775,"is_reserved":false,"is_disabled":false,"rental_uris":{"android":"levelo://app?vid=4729126b-0335-4a3c-bc10-3e11d69e82f2","ios":"levelo://app?vid=4729126b-0335-4a3c-bc10-3e11d69e82f2"},"vehicle_type_id":"4","last_reported":1736672911,"current_range_meters":3600,"station_id":"ce4bhnp2rcd13ifvqgvg","pricing_plan_id":"cebpf4jnsgd1na2vs0mg"},{"bike_id":"7190806d-6efc-4d5f-adc8-8e7c04344e9c","system_id":"levelo_inurba_marseille","lat":43.30524,"lon":5.36525,"is_reserved":false,"is_disabled":true,"rental_uris":{"android":"levelo://app?vid=7190806d-6efc-4d5f-adc8-8e7c04344e9c","ios":"levelo://app?vid=7190806d-6efc-4d5f-adc8-8e7c04344e9c"},"vehicle_type_id":"4","last_reported":1736672911,"current_range_meters":0,"station_id":"ce4bgs12rcd13ifvqcag","pricing_plan_id":"cebpf4jnsgd1na2vs0mg"},{"bike_id":"717c9b7d-e3d6-441e-a2b5-35caee37f8e8","system_id":"levelo_inurba_marseille","lat":43.28641,"lon":5.35031,"is_reserved":false,"is_disabled":false,"rental_uris":{"android":"levelo://app?vid=717c9b7d-e3d6-441e-a2b5-35caee37f8e8","ios":"levelo://app?vid=717c9b7d-e3d6-441e-a2b5-35caee37f8e8"},"vehicle_type_id":"4","last_reported":1736672911,"current_range_meters":37600,"station_id":"","pricing_plan_id":"cebpf4jnsgd1na2vs0mg"},{"bike_id":"a66ed9f8-da03-4a0d-a6ac-a956dec5aa10","system_id":"levelo_inurba_marseille","lat":43.27611,"lon":5.36101,"is_reserved":false,"is_disabled":false,"rental_uris":{"android":"levelo://app?vid=a66ed9f8-da03-4a0d-a6ac-a956dec5aa10","ios":"levelo://app?vid=a66ed9f8-da03-4a0d-a6ac-a956dec5aa10"},"vehicle_type_id":"4","last_reported":1736672911,"current_range_meters":36800,"station_id":"ce4bgj92rcd13ifvqbe0","pricing_plan_id":"cebpf4jnsgd1na2vs0mg"},{"bike_id":"1ff4d6af-d168-4206-80a1-8f85ab0c0a00","system_id":"levelo_inurba_marseille","lat":43.25864,"lon":5.39943,"is_reserved":false,"is_disabled":true,"rental_uris":{"android":"levelo://app?vid=1ff4d6af-d168-4206-80a1-8f85ab0c0a00","ios":"levelo://app?vid=1ff4d6af-d168-4206-80a1-8f85ab0c0a00"},"vehicle_type_id":"4","last_reported":1736672911,"current_range_meters":13600,"station_id":"ce4bhl92rcd13ifvqghg","pricing_plan_id":"cebpf4jnsgd1na2vs0mg"},{"bike_id":"a16fd609-1fc6-4798-b9e0-3ea7526c402a","system_id":"levelo_inurba_marseille","lat":43.23565,"lon":5.37909,"is_reserved":false,"is_disabled":false,"rental_uris":{"android":"levelo://app?vid=a16fd609-1fc6-4798-b9e0-3ea7526c402a","ios":"levelo://app?vid=a16fd609-1fc6-4798-b9e0-3ea7526c402a"},"vehicle_type_id":"4","last_reported":1736672911,"current_range_meters":28000,"station_id":"","pricing_plan_id":"cebpf4jnsgd1na2vs0mg"},{"bike_id":"55e10a13-573c-4876-a3f3-1d7244726716","system_id":"levelo_inurba_marseille","lat":43.24798,"lon":5.37466,"is_reserved":false,"is_disabled":false,"rental_uris":{"android":"levelo://app?vid=55e10a13-573c-4876-a3f3-1d7244726716","ios":"levelo://app?vid=55e10a13-573c-4876-a3f3-1d7244726716"},"vehicle_type_id":"4","last_reported":1736672911,"current_range_meters":39200,"station_id":"ce4bhgh2rcd13ifvqfb0","pricing_plan_id":"cebpf4jnsgd1na2vs0mg"},{"bike_id":"86abeea7-c434-4e10-8df8-12c24097eeb0","system_id":"levelo_inurba_marseille","lat":43.30411,"lon":5.39754,"is_reserved":false,"is_disabled":true,"rental_uris":{"android":"levelo://app?vid=86abeea7-c434-4e10-8df8-12c24097eeb0","ios":"levelo://app?vid=86abeea7-c434-4e10-8df8-12c24097eeb0"},"vehicle_type_id":"4","last_reported":1736672911,"current_range_meters":23200,"station_id":"ce4bh092rcd13ifvqd20","pricing_plan_id":"cebpf4jnsgd1na2vs0mg"},{"bike_id":"9e4b700b-0bd2-4742-b6bd-c75a8782c39a","system_id":"levelo_inurba_marseille","lat":43.269381,"lon":5.389239,"is_reserved":false,"is_disabled":false,"rental_uris":{"android":"levelo://app?vid=9e4b700b-0bd2-4742-b6bd-c75a8782c39a","ios":"levelo://app?vid=9e4b700b-0bd2-4742-b6bd-c75a8782c39a"},"vehicle_type_id":"4","last_reported":1736672911,"current_range_meters":16400,"station_id":"ce4bhhh2rcd13ifvqfl0","pricing_plan_id":"cebpf4jnsgd1na2vs0mg"},{"bike_id":"311416b5-73b1-46de-9478-39cfbd47dd40","system_id":"levelo_inurba_marseille","lat":43.28869,"lon":5.35862,"is_reserved":false,"is_disabled":false,"rental_uris":{"android":"levelo://app?vid=311416b5-73b1-46de-9478-39cfbd47dd40","ios":"levelo://app?vid=311416b5-73b1-46de-9478-39cfbd47dd40"},"vehicle_type_id":"4","last_reported":1736672911,"current_range_meters":38000,"station_id":"ce4bhb12rcd13ifvqem0","pricing_plan_id":"cebpf4jnsgd1na2vs0mg"},{"bike_id":"c72bfc00-b8bb-4330-820c-edf0d16ec086","system_id":"levelo_inurba_marseille","lat":43.289205,"lon":5.384026,"is_reserved":false,"is_disabled":false,"rental_uris":{"android":"levelo://app?vid=c72bfc00-b8bb-4330-820c-edf0d16ec086","ios":"levelo://app?vid=c72bfc00-b8bb-4330-820c-edf0d16ec086"},"vehicle_type_id":"4","last_reported":1736672911,"current_range_meters":33200,"station_id":"","pricing_plan_id":"cebpf4jnsgd1na2vs0mg"},{"bike_id":"a9f9576d-03ae-49ac-86c5-be2394d0bcf7","system_id":"levelo_inurba_marseille","lat":43.29965,"lon":5.38491,"is_reserved":false,"is_disabled":false,"rental_uris":{"android":"levelo://app?vid=a9f9576d-03ae-49ac-86c5-be2394d0bcf7","ios":"levelo://app?vid=a9f9576d-03ae-49ac-86c5-be2394d0bcf7"},"vehicle_type_id":"4","last_reported":1736672911,"current_range_meters":30000,"station_id":"ce4bgj92rcd13ifvqbd0","pricing_plan_id":"cebpf4jnsgd1na2vs0mg"},{"bike_id":"c1ef2878-40ea-4883-a77d-20bf9ce35368","system_id":"levelo_inurba_marseille","lat":43.27992,"lon":5.4003,"is_reserved":false,"is_disabled":false,"rental_uris":{"android":"levelo://app?vid=c1ef2878-40ea-4883-a77d-20bf9ce35368","ios":"levelo://app?vid=c1ef2878-40ea-4883-a77d-20bf9ce35368"},"vehicle_type_id":"4","last_reported":1736672911,"current_range_meters":28000,"station_id":"ce4bho92rcd13ifvqh4g","pricing_plan_id":"cebpf4jnsgd1na2vs0mg"},{"bike_id":"e4f2aa47-c487-488e-84a4-e0ec89ae813d","system_id":"levelo_inurba_marseille","lat":43.28313,"lon":5.38092,"is_reserved":false,"is_disabled":false,"rental_uris":{"android":"levelo://app?vid=e4f2aa47-c487-488e-84a4-e0ec89ae813d","ios":"levelo://app?vid=e4f2aa47-c487-488e-84a4-e0ec89ae813d"},"vehicle_type_id":"4","last_reported":1736672911,"current_range_meters":38800,"station_id":"ce4bh412rcd13ifvqdr0","pricing_plan_id":"cebpf4jnsgd1na2vs0mg"},{"bike_id":"c7a817d3-63e5-4652-8814-98e74bb31058","system_id":"levelo_inurba_marseille","lat":43.23966,"lon":5.36635,"is_reserved":false,"is_disabled":false,"rental_uris":{"android":"levelo://app?vid=c7a817d3-63e5-4652-8814-98e74bb31058","ios":"levelo://app?vid=c7a817d3-63e5-4652-8814-98e74bb31058"},"vehicle_type_id":"4","last_reported":1736672911,"current_range_meters":6400,"station_id":"ce4bhi12rcd13ifvqfp0","pricing_plan_id":"cebpf4jnsgd1na2vs0mg"},{"bike_id":"10f7d31a-ef8d-4e8a-acbf-8aa9a8c72143","system_id":"levelo_inurba_marseille","lat":43.24398,"lon":5.37076,"is_reserved":false,"is_disabled":false,"rental_uris":{"android":"levelo://app?vid=10f7d31a-ef8d-4e8a-acbf-8aa9a8c72143","ios":"levelo://app?vid=10f7d31a-ef8d-4e8a-acbf-8aa9a8c72143"},"vehicle_type_id":"4","last_reported":1736672911,"current_range_meters":12800,"station_id":"ce4bhhh2rcd13ifvqfk0","pricing_plan_id":"cebpf4jnsgd1na2vs0mg"},{"bike_id":"1fedc598-f70f-4c41-a2c3-d78b434b4e36","system_id":"levelo_inurba_marseille","lat":43.26189,"lon":5.37458,"is_reserved":false,"is_disabled":false,"rental_uris":{"android":"levelo://app?vid=1fedc598-f70f-4c41-a2c3-d78b434b4e36","ios":"levelo://app?vid=1fedc598-f70f-4c41-a2c3-d78b434b4e36"},"vehicle_type_id":"4","last_reported":1736672911,"current_range_meters":21600,"station_id":"ce4bhgp2rcd13ifvqfc0","pricing_plan_id":"cebpf4jnsgd1na2vs0mg"},{"bike_id":"5a8bd260-f25f-4024-944c-22b9a5d3becb","system_id":"levelo_inurba_marseille","lat":43.29524,"lon":5.39416,"is_reserved":false,"is_disabled":false,"rental_uris":{"android":"levelo://app?vid=5a8bd260-f25f-4024-944c-22b9a5d3becb","ios":"levelo://app?vid=5a8bd260-f25f-4024-944c-22b9a5d3becb"},"vehicle_type_id":"4","last_reported":1736672911,"current_range_meters":36400,"station_id":"ce4bh292rcd13ifvqdf0","pricing_plan_id":"cebpf4jnsgd1na2vs0mg"},{"bike_id":"9cda7140-cd76-4b76-af44-293be04b201c","system_id":"levelo_inurba_marseille","lat":43.28693,"lon":5.37394,"is_reserved":false,"is_disabled":false,"rental_uris":{"android":"levelo://app?vid=9cda7140-cd76-4b76-af44-293be04b201c","ios":"levelo://app?vid=9cda7140-cd76-4b76-af44-293be04b201c"},"vehicle_type_id":"4","last_reported":1736672911,"current_range_meters":37600,"station_id":"ce4bh3p2rcd13ifvqdq0","pricing_plan_id":"cebpf4jnsgd1na2vs0mg"},{"bike_id":"295bd26f-64bb-4f9a-b1ce-9227768f18ec","system_id":"levelo_inurba_marseille","lat":43.29177,"lon":5.3714,"is_reserved":false,"is_disabled":true,"rental_uris":{"android":"levelo://app?vid=295bd26f-64bb-4f9a-b1ce-9227768f18ec","ios":"levelo://app?vid=295bd26f-64bb-4f9a-b1ce-9227768f18ec"},"vehicle_type_id":"4","last_reported":1736672911,"current_range_meters":34000,"station_id":"ce4bha92rcd13ifvqeh0","pricing_plan_id":"cebpf4jnsgd1na2vs0mg"},{"bike_id":"dbbf8104-301b-4523-aba5-5ddb4a93756d","system_id":"levelo_inurba_marseille","lat":43.32038,"lon":5.41568,"is_reserved":false,"is_disabled":false,"rental_uris":{"android":"levelo://app?vid=dbbf8104-301b-4523-aba5-5ddb4a93756d","ios":"levelo://app?vid=dbbf8104-301b-4523-aba5-5ddb4a93756d"},"vehicle_type_id":"4","last_reported":1736672911,"current_range_meters":30400,"station_id":"ce4bhq92rcd13ifvqhkg","pricing_plan_id":"cebpf4jnsgd1na2vs0mg"},{"bike_id":"1bff2bac-4883-4019-adbe-2dc598af8aad","system_id":"levelo_inurba_marseille","lat":43.27421,"lon":5.39426,"is_reserved":false,"is_disabled":true,"rental_uris":{"android":"levelo://app?vid=1bff2bac-4883-4019-adbe-2dc598af8aad","ios":"levelo://app?vid=1bff2bac-4883-4019-adbe-2dc598af8aad"},"vehicle_type_id":"4","last_reported":1736672911,"current_range_meters":26000,"station_id":"ce4bhdp2rcd13ifvqf20","pricing_plan_id":"cebpf4jnsgd1na2vs0mg"},{"bike_id":"ae29e0de-7b5a-45d6-ace3-313c5e88010a","system_id":"levelo_inurba_marseille","lat":43.27984,"lon":5.41661,"is_reserved":false,"is_disabled":true,"rental_uris":{"android":"levelo://app?vid=ae29e0de-7b5a-45d6-ace3-313c5e88010a","ios":"levelo://app?vid=ae29e0de-7b5a-45d6-ace3-313c5e88010a"},"vehicle_type_id":"4","last_reported":1736672911,"current_range_meters":0,"station_id":"ce4bho12rcd13ifvqh1g","pricing_plan_id":"cebpf4jnsgd1na2vs0mg"},{"bike_id":"0bc3f5f5-60c2-41a0-a6ff-a38fba6be8aa","system_id":"levelo_inurba_marseille","lat":43.25481,"lon":5.37664,"is_reserved":false,"is_disabled":true,"rental_uris":{"android":"levelo://app?vid=0bc3f5f5-60c2-41a0-a6ff-a38fba6be8aa","ios":"levelo://app?vid=0bc3f5f5-60c2-41a0-a6ff-a38fba6be8aa"},"vehicle_type_id":"4","last_reported":1736672911,"current_range_meters":30400,"station_id":"ce4bhh12rcd13ifvqff0","pricing_plan_id":"cebpf4jnsgd1na2vs0mg"},{"bike_id":"572f0254-11cf-4ef2-b3f9-66737ed8298a","system_id":"levelo_inurba_marseille","lat":43.28413,"lon":5.34994,"is_reserved":false,"is_disabled":true,"rental_uris":{"android":"levelo://app?vid=572f0254-11cf-4ef2-b3f9-66737ed8298a","ios":"levelo://app?vid=572f0254-11cf-4ef2-b3f9-66737ed8298a"},"vehicle_type_id":"4","last_reported":1736672911,"current_range_meters":0,"station_id":"ce4bhbh2rcd13ifvqepg","pricing_plan_id":"cebpf4jnsgd1na2vs0mg"},{"bike_id":"6845255b-3748-47a8-80ff-32e6d62dd708","system_id":"levelo_inurba_marseille","lat":43.23188,"lon":5.39982,"is_reserved":false,"is_disabled":false,"rental_uris":{"android":"levelo://app?vid=6845255b-3748-47a8-80ff-32e6d62dd708","ios":"levelo://app?vid=6845255b-3748-47a8-80ff-32e6d62dd708"},"vehicle_type_id":"4","last_reported":1736672911,"current_range_meters":38800,"station_id":"ce4bhn12rcd13ifvqgqg","pricing_plan_id":"cebpf4jnsgd1na2vs0mg"},{"bike_id":"136c61aa-a244-4f82-9113-620a348666ce","system_id":"levelo_inurba_marseille","lat":43.27563,"lon":5.38452,"is_reserved":false,"is_disabled":true,"rental_uris":{"android":"levelo://app?vid=136c61aa-a244-4f82-9113-620a348666ce","ios":"levelo://app?vid=136c61aa-a244-4f82-9113-620a348666ce"},"vehicle_type_id":"4","last_reported":1736672911,"current_range_meters":29600,"station_id":"ce4bhh92rcd13ifvqfi0","pricing_plan_id":"cebpf4jnsgd1na2vs0mg"},{"bike_id":"ef988ec5-19bd-46c7-8cc2-ce417331a833","system_id":"levelo_inurba_marseille","lat":43.31081,"lon":5.42434,"is_reserved":false,"is_disabled":false,"rental_uris":{"android":"levelo://app?vid=ef988ec5-19bd-46c7-8cc2-ce417331a833","ios":"levelo://app?vid=ef988ec5-19bd-46c7-8cc2-ce417331a833"},"vehicle_type_id":"4","last_reported":1736672911,"current_range_meters":38800,"station_id":"ce4bhp92rcd13ifvqhag","pricing_plan_id":"cebpf4jnsgd1na2vs0mg"},{"bike_id":"42ecc464-da44-487e-b0da-d25d9d2043d6","system_id":"levelo_inurba_marseille","lat":43.25725,"lon":5.41117,"is_reserved":false,"is_disabled":false,"rental_uris":{"android":"levelo://app?vid=42ecc464-da44-487e-b0da-d25d9d2043d6","ios":"levelo://app?vid=42ecc464-da44-487e-b0da-d25d9d2043d6"},"vehicle_type_id":"4","last_reported":1736672911,"current_range_meters":38800,"station_id":"ce4bhkp2rcd13ifvqgd0","pricing_plan_id":"cebpf4jnsgd1na2vs0mg"},{"bike_id":"88b12e91-6dd1-40a2-a474-d190ad538fe1","system_id":"levelo_inurba_marseille","lat":43.31126,"lon":5.37751,"is_reserved":false,"is_disabled":false,"rental_uris":{"android":"levelo://app?vid=88b12e91-6dd1-40a2-a474-d190ad538fe1","ios":"levelo://app?vid=88b12e91-6dd1-40a2-a474-d190ad538fe1"},"vehicle_type_id":"4","last_reported":1736672911,"current_range_meters":38800,"station_id":"ce4bgt92rcd13ifvqcg0","pricing_plan_id":"cebpf4jnsgd1na2vs0mg"},{"bike_id":"b7e8dd08-60c6-4ec8-95ea-61794c9f9e48","system_id":"levelo_inurba_marseille","lat":43.2548,"lon":5.37686,"is_reserved":false,"is_disabled":false,"rental_uris":{"android":"levelo://app?vid=b7e8dd08-60c6-4ec8-95ea-61794c9f9e48","ios":"levelo://app?vid=b7e8dd08-60c6-4ec8-95ea-61794c9f9e48"},"vehicle_type_id":"4","last_reported":1736672911,"current_range_meters":39200,"station_id":"ce4bhh12rcd13ifvqff0","pricing_plan_id":"cebpf4jnsgd1na2vs0mg"},{"bike_id":"65e8b99d-cb00-44f8-a57f-7740743f51e0","system_id":"levelo_inurba_marseille","lat":43.25012,"lon":5.38891,"is_reserved":false,"is_disabled":true,"rental_uris":{"android":"levelo://app?vid=65e8b99d-cb00-44f8-a57f-7740743f51e0","ios":"levelo://app?vid=65e8b99d-cb00-44f8-a57f-7740743f51e0"},"vehicle_type_id":"4","last_reported":1736672911,"current_range_meters":28400,"station_id":"ce4bhgp2rcd13ifvqfd0","pricing_plan_id":"cebpf4jnsgd1na2vs0mg"},{"bike_id":"e7bed24c-76b8-4bfe-8ea5-51efa81df6c2","system_id":"levelo_inurba_marseille","lat":43.27489,"lon":5.4246,"is_reserved":false,"is_disabled":true,"rental_uris":{"android":"levelo://app?vid=e7bed24c-76b8-4bfe-8ea5-51efa81df6c2","ios":"levelo://app?vid=e7bed24c-76b8-4bfe-8ea5-51efa81df6c2"},"vehicle_type_id":"4","last_reported":1736672911,"current_range_meters":0,"station_id":"ce4bhn92rcd13ifvqgrg","pricing_plan_id":"cebpf4jnsgd1na2vs0mg"},{"bike_id":"1f9c2bc2-af69-415b-93c8-180a83e425f4","system_id":"levelo_inurba_marseille","lat":43.294365,"lon":5.397684,"is_reserved":false,"is_disabled":false,"rental_uris":{"android":"levelo://app?vid=1f9c2bc2-af69-415b-93c8-180a83e425f4","ios":"levelo://app?vid=1f9c2bc2-af69-415b-93c8-180a83e425f4"},"vehicle_type_id":"4","last_reported":1736672911,"current_range_meters":14800,"station_id":"ce4bh3h2rcd13ifvqdo0","pricing_plan_id":"cebpf4jnsgd1na2vs0mg"},{"bike_id":"d98c10a0-54da-424a-a395-417d65e35ad0","system_id":"levelo_inurba_marseille","lat":43.2892,"lon":5.38393,"is_reserved":false,"is_disabled":false,"rental_uris":{"android":"levelo://app?vid=d98c10a0-54da-424a-a395-417d65e35ad0","ios":"levelo://app?vid=d98c10a0-54da-424a-a395-417d65e35ad0"},"vehicle_type_id":"4","last_reported":1736672911,"current_range_meters":28400,"station_id":"ce4bh612rcd13ifvqe6g","pricing_plan_id":"cebpf4jnsgd1na2vs0mg"},{"bike_id":"cc464ccb-457a-4c65-bb12-9e9cbd11ca96","system_id":"levelo_inurba_marseille","lat":43.250003,"lon":5.389517,"is_reserved":false,"is_disabled":false,"rental_uris":{"android":"levelo://app?vid=cc464ccb-457a-4c65-bb12-9e9cbd11ca96","ios":"levelo://app?vid=cc464ccb-457a-4c65-bb12-9e9cbd11ca96"},"vehicle_type_id":"4","last_reported":1736672911,"current_range_meters":33600,"station_id":"ce4bhgp2rcd13ifvqfd0","pricing_plan_id":"cebpf4jnsgd1na2vs0mg"},{"bike_id":"0e61ec43-c876-45d3-a431-7ad6cb87fc6c","system_id":"levelo_inurba_marseille","lat":43.25709,"lon":5.41141,"is_reserved":false,"is_disabled":false,"rental_uris":{"android":"levelo://app?vid=0e61ec43-c876-45d3-a431-7ad6cb87fc6c","ios":"levelo://app?vid=0e61ec43-c876-45d3-a431-7ad6cb87fc6c"},"vehicle_type_id":"4","last_reported":1736672911,"current_range_meters":38800,"station_id":"ce4bhkp2rcd13ifvqgd0","pricing_plan_id":"cebpf4jnsgd1na2vs0mg"},{"bike_id":"b704bf42-2bc7-4506-b669-8ca7a3330fef","system_id":"levelo_inurba_marseille","lat":43.28144,"lon":5.426543,"is_reserved":false,"is_disabled":true,"rental_uris":{"android":"levelo://app?vid=b704bf42-2bc7-4506-b669-8ca7a3330fef","ios":"levelo://app?vid=b704bf42-2bc7-4506-b669-8ca7a3330fef"},"vehicle_type_id":"4","last_reported":1736672911,"current_range_meters":28400,"station_id":"ce4bhnh2rcd13ifvqgug","pricing_plan_id":"cebpf4jnsgd1na2vs0mg"},{"bike_id":"cfb1a237-01a2-45b9-8b75-8a36d55c4428","system_id":"levelo_inurba_marseille","lat":43.298526,"lon":5.362883,"is_reserved":false,"is_disabled":false,"rental_uris":{"android":"levelo://app?vid=cfb1a237-01a2-45b9-8b75-8a36d55c4428","ios":"levelo://app?vid=cfb1a237-01a2-45b9-8b75-8a36d55c4428"},"vehicle_type_id":"4","last_reported":1736672911,"current_range_meters":31200,"station_id":"ce4bgpp2rcd13ifvqc3g","pricing_plan_id":"cebpf4jnsgd1na2vs0mg"},{"bike_id":"52cb6240-5285-4796-91cf-940d48fc7b61","system_id":"levelo_inurba_marseille","lat":43.2454,"lon":5.39537,"is_reserved":false,"is_disabled":false,"rental_uris":{"android":"levelo://app?vid=52cb6240-5285-4796-91cf-940d48fc7b61","ios":"levelo://app?vid=52cb6240-5285-4796-91cf-940d48fc7b61"},"vehicle_type_id":"4","last_reported":1736672911,"current_range_meters":27600,"station_id":"ce4bhlp2rcd13ifvqgjg","pricing_plan_id":"cebpf4jnsgd1na2vs0mg"},{"bike_id":"d1c8ef8e-59d9-4023-b21f-1e6f44d5ee36","system_id":"levelo_inurba_marseille","lat":43.28609,"lon":5.35075,"is_reserved":false,"is_disabled":false,"rental_uris":{"android":"levelo://app?vid=d1c8ef8e-59d9-4023-b21f-1e6f44d5ee36","ios":"levelo://app?vid=d1c8ef8e-59d9-4023-b21f-1e6f44d5ee36"},"vehicle_type_id":"4","last_reported":1736672911,"current_range_meters":28400,"station_id":"ce4bhch2rcd13ifvqeug","pricing_plan_id":"cebpf4jnsgd1na2vs0mg"},{"bike_id":"86ae900a-b2b2-46f1-909d-d34f451eb1a3","system_id":"levelo_inurba_marseille","lat":43.3248,"lon":5.36573,"is_reserved":false,"is_disabled":false,"rental_uris":{"android":"levelo://app?vid=86ae900a-b2b2-46f1-909d-d34f451eb1a3","ios":"levelo://app?vid=86ae900a-b2b2-46f1-909d-d34f451eb1a3"},"vehicle_type_id":"4","last_reported":1736672911,"current_range_meters":16000,"station_id":"ce4bhs12rcd13ifvqhvg","pricing_plan_id":"cebpf4jnsgd1na2vs0mg"},{"bike_id":"99992ce0-e13f-4dee-95af-06d78d23df51","system_id":"levelo_inurba_marseille","lat":43.25928,"lon":5.40929,"is_reserved":false,"is_disabled":false,"rental_uris":{"android":"levelo://app?vid=99992ce0-e13f-4dee-95af-06d78d23df51","ios":"levelo://app?vid=99992ce0-e13f-4dee-95af-06d78d23df51"},"vehicle_type_id":"4","last_reported":1736672911,"current_range_meters":18800,"station_id":"ce4bhm92rcd13ifvqglg","pricing_plan_id":"cebpf4jnsgd1na2vs0mg"},{"bike_id":"f62a7ed4-7c80-4ed8-9568-a4dea62069d1","system_id":"levelo_inurba_marseille","lat":43.28075,"lon":5.39671,"is_reserved":false,"is_disabled":true,"rental_uris":{"android":"levelo://app?vid=f62a7ed4-7c80-4ed8-9568-a4dea62069d1","ios":"levelo://app?vid=f62a7ed4-7c80-4ed8-9568-a4dea62069d1"},"vehicle_type_id":"4","last_reported":1736672911,"current_range_meters":33600,"station_id":"ce4bho12rcd13ifvqh2g","pricing_plan_id":"cebpf4jnsgd1na2vs0mg"},{"bike_id":"e2744ec8-2f1a-4025-9ec0-6a07f5db3fc4","system_id":"levelo_inurba_marseille","lat":43.25496,"lon":5.3766,"is_reserved":false,"is_disabled":false,"rental_uris":{"android":"levelo://app?vid=e2744ec8-2f1a-4025-9ec0-6a07f5db3fc4","ios":"levelo://app?vid=e2744ec8-2f1a-4025-9ec0-6a07f5db3fc4"},"vehicle_type_id":"4","last_reported":1736672911,"current_range_meters":38800,"station_id":"ce4bhh12rcd13ifvqff0","pricing_plan_id":"cebpf4jnsgd1na2vs0mg"},{"bike_id":"486385ae-09ad-4011-8a40-9152b5cca0c1","system_id":"levelo_inurba_marseille","lat":43.287,"lon":5.37402,"is_reserved":false,"is_disabled":false,"rental_uris":{"android":"levelo://app?vid=486385ae-09ad-4011-8a40-9152b5cca0c1","ios":"levelo://app?vid=486385ae-09ad-4011-8a40-9152b5cca0c1"},"vehicle_type_id":"4","last_reported":1736672911,"current_range_meters":36800,"station_id":"ce4bh3p2rcd13ifvqdq0","pricing_plan_id":"cebpf4jnsgd1na2vs0mg"},{"bike_id":"dab5b284-16e6-46c6-9c53-0801d6bd093a","system_id":"levelo_inurba_marseille","lat":43.29772,"lon":5.39335,"is_reserved":false,"is_disabled":false,"rental_uris":{"android":"levelo://app?vid=dab5b284-16e6-46c6-9c53-0801d6bd093a","ios":"levelo://app?vid=dab5b284-16e6-46c6-9c53-0801d6bd093a"},"vehicle_type_id":"4","last_reported":1736672911,"current_range_meters":14400,"station_id":"chh1huq6cuj3fo74tm60","pricing_plan_id":"cebpf4jnsgd1na2vs0mg"},{"bike_id":"79a6c167-29fc-4727-9530-0f2c5abf20a9","system_id":"levelo_inurba_marseille","lat":43.27985,"lon":5.40015,"is_reserved":false,"is_disabled":false,"rental_uris":{"android":"levelo://app?vid=79a6c167-29fc-4727-9530-0f2c5abf20a9","ios":"levelo://app?vid=79a6c167-29fc-4727-9530-0f2c5abf20a9"},"vehicle_type_id":"4","last_reported":1736672911,"current_range_meters":39200,"station_id":"ce4bho92rcd13ifvqh4g","pricing_plan_id":"cebpf4jnsgd1na2vs0mg"},{"bike_id":"c0554c14-b732-413c-8451-54f8ec41ea32","system_id":"levelo_inurba_marseille","lat":43.27182,"lon":5.41004,"is_reserved":false,"is_disabled":false,"rental_uris":{"android":"levelo://app?vid=c0554c14-b732-413c-8451-54f8ec41ea32","ios":"levelo://app?vid=c0554c14-b732-413c-8451-54f8ec41ea32"},"vehicle_type_id":"4","last_reported":1736672911,"current_range_meters":38800,"station_id":"ce4bhl12rcd13ifvqgf0","pricing_plan_id":"cebpf4jnsgd1na2vs0mg"},{"bike_id":"5c381e93-4073-49d5-a465-9aabfddfee01","system_id":"levelo_inurba_marseille","lat":43.2466,"lon":5.38165,"is_reserved":false,"is_disabled":false,"rental_uris":{"android":"levelo://app?vid=5c381e93-4073-49d5-a465-9aabfddfee01","ios":"levelo://app?vid=5c381e93-4073-49d5-a465-9aabfddfee01"},"vehicle_type_id":"4","last_reported":1736672911,"current_range_meters":17200,"station_id":"ce4bhih2rcd13ifvqfr0","pricing_plan_id":"cebpf4jnsgd1na2vs0mg"},{"bike_id":"31240ca4-9f64-4406-9c52-14b4354e548c","system_id":"levelo_inurba_marseille","lat":43.28622,"lon":5.35083,"is_reserved":false,"is_disabled":false,"rental_uris":{"android":"levelo://app?vid=31240ca4-9f64-4406-9c52-14b4354e548c","ios":"levelo://app?vid=31240ca4-9f64-4406-9c52-14b4354e548c"},"vehicle_type_id":"4","last_reported":1736672911,"current_range_meters":37600,"station_id":"ce4bhch2rcd13ifvqeug","pricing_plan_id":"cebpf4jnsgd1na2vs0mg"},{"bike_id":"b1cf0171-e6f8-4824-8fe5-a17e6d6e7517","system_id":"levelo_inurba_marseille","lat":43.313297,"lon":5.396952,"is_reserved":false,"is_disabled":false,"rental_uris":{"android":"levelo://app?vid=b1cf0171-e6f8-4824-8fe5-a17e6d6e7517","ios":"levelo://app?vid=b1cf0171-e6f8-4824-8fe5-a17e6d6e7517"},"vehicle_type_id":"4","last_reported":1736672911,"current_range_meters":20000,"station_id":"ce4bgvp2rcd13ifvqcu0","pricing_plan_id":"cebpf4jnsgd1na2vs0mg"},{"bike_id":"d9b042e2-bbf3-47bf-851f-426caf4d0e01","system_id":"levelo_inurba_marseille","lat":43.24815,"lon":5.37463,"is_reserved":false,"is_disabled":false,"rental_uris":{"android":"levelo://app?vid=d9b042e2-bbf3-47bf-851f-426caf4d0e01","ios":"levelo://app?vid=d9b042e2-bbf3-47bf-851f-426caf4d0e01"},"vehicle_type_id":"4","last_reported":1736672911,"current_range_meters":38000,"station_id":"ce4bhgh2rcd13ifvqfb0","pricing_plan_id":"cebpf4jnsgd1na2vs0mg"},{"bike_id":"ce124b13-208e-4c9a-8beb-e49fc2a49e4a","system_id":"levelo_inurba_marseille","lat":43.30294,"lon":5.36935,"is_reserved":false,"is_disabled":true,"rental_uris":{"android":"levelo://app?vid=ce124b13-208e-4c9a-8beb-e49fc2a49e4a","ios":"levelo://app?vid=ce124b13-208e-4c9a-8beb-e49fc2a49e4a"},"vehicle_type_id":"4","last_reported":1736672911,"current_range_meters":38400,"station_id":"ce4bgqh2rcd13ifvqc5g","pricing_plan_id":"cebpf4jnsgd1na2vs0mg"},{"bike_id":"1e2223a2-c032-49e7-8dbf-982df86a0520","system_id":"levelo_inurba_marseille","lat":43.2291,"lon":5.35408,"is_reserved":false,"is_disabled":false,"rental_uris":{"android":"levelo://app?vid=1e2223a2-c032-49e7-8dbf-982df86a0520","ios":"levelo://app?vid=1e2223a2-c032-49e7-8dbf-982df86a0520"},"vehicle_type_id":"4","last_reported":1736672911,"current_range_meters":25200,"station_id":"cpo3532slgdg3j2ikp40","pricing_plan_id":"cebpf4jnsgd1na2vs0mg"},{"bike_id":"b2a49521-11bf-4cd5-b57b-779b50b4b536","system_id":"levelo_inurba_marseille","lat":43.30937,"lon":5.40152,"is_reserved":false,"is_disabled":false,"rental_uris":{"android":"levelo://app?vid=b2a49521-11bf-4cd5-b57b-779b50b4b536","ios":"levelo://app?vid=b2a49521-11bf-4cd5-b57b-779b50b4b536"},"vehicle_type_id":"4","last_reported":1736672911,"current_range_meters":36800,"station_id":"ce4bgvp2rcd13ifvqct0","pricing_plan_id":"cebpf4jnsgd1na2vs0mg"},{"bike_id":"915cd833-29d3-4ec5-8614-f693a561d9a2","system_id":"levelo_inurba_marseille","lat":43.30137,"lon":5.37418,"is_reserved":false,"is_disabled":false,"rental_uris":{"android":"levelo://app?vid=915cd833-29d3-4ec5-8614-f693a561d9a2","ios":"levelo://app?vid=915cd833-29d3-4ec5-8614-f693a561d9a2"},"vehicle_type_id":"4","last_reported":1736672911,"current_range_meters":28400,"station_id":"ce4bgs92rcd13ifvqcc0","pricing_plan_id":"cebpf4jnsgd1na2vs0mg"},{"bike_id":"5f2cf356-122a-4d24-85ba-e38bc4612223","system_id":"levelo_inurba_marseille","lat":43.25581,"lon":5.38251,"is_reserved":false,"is_disabled":true,"rental_uris":{"android":"levelo://app?vid=5f2cf356-122a-4d24-85ba-e38bc4612223","ios":"levelo://app?vid=5f2cf356-122a-4d24-85ba-e38bc4612223"},"vehicle_type_id":"4","last_reported":1736672911,"current_range_meters":29600,"station_id":"ce4bhih2rcd13ifvqfs0","pricing_plan_id":"cebpf4jnsgd1na2vs0mg"},{"bike_id":"0fa5a85f-7a9d-4dea-b522-cdd0eb609691","system_id":"levelo_inurba_marseille","lat":43.27374,"lon":5.36251,"is_reserved":false,"is_disabled":false,"rental_uris":{"android":"levelo://app?vid=0fa5a85f-7a9d-4dea-b522-cdd0eb609691","ios":"levelo://app?vid=0fa5a85f-7a9d-4dea-b522-cdd0eb609691"},"vehicle_type_id":"4","last_reported":1736672911,"current_range_meters":5600,"station_id":"ce4bhbh2rcd13ifvqeo0","pricing_plan_id":"cebpf4jnsgd1na2vs0mg"},{"bike_id":"ac5ad7d8-ccea-458d-83e0-31976cff9c0d","system_id":"levelo_inurba_marseille","lat":43.2569,"lon":5.41136,"is_reserved":false,"is_disabled":false,"rental_uris":{"android":"levelo://app?vid=ac5ad7d8-ccea-458d-83e0-31976cff9c0d","ios":"levelo://app?vid=ac5ad7d8-ccea-458d-83e0-31976cff9c0d"},"vehicle_type_id":"4","last_reported":1736672911,"current_range_meters":38800,"station_id":"ce4bhkp2rcd13ifvqgd0","pricing_plan_id":"cebpf4jnsgd1na2vs0mg"},{"bike_id":"ff93243d-51a0-4416-8745-9b0d7ce138cb","system_id":"levelo_inurba_marseille","lat":43.28729,"lon":5.36097,"is_reserved":false,"is_disabled":false,"rental_uris":{"android":"levelo://app?vid=ff93243d-51a0-4416-8745-9b0d7ce138cb","ios":"levelo://app?vid=ff93243d-51a0-4416-8745-9b0d7ce138cb"},"vehicle_type_id":"4","last_reported":1736672911,"current_range_meters":38800,"station_id":"cki0cbj6b192h4jlfktg","pricing_plan_id":"cebpf4jnsgd1na2vs0mg"},{"bike_id":"39c3c4a5-d4ec-4fce-95db-3823db8f6b82","system_id":"levelo_inurba_marseille","lat":43.25721,"lon":5.41116,"is_reserved":false,"is_disabled":false,"rental_uris":{"android":"levelo://app?vid=39c3c4a5-d4ec-4fce-95db-3823db8f6b82","ios":"levelo://app?vid=39c3c4a5-d4ec-4fce-95db-3823db8f6b82"},"vehicle_type_id":"4","last_reported":1736672911,"current_range_meters":32000,"station_id":"ce4bhkp2rcd13ifvqgd0","pricing_plan_id":"cebpf4jnsgd1na2vs0mg"},{"bike_id":"6557bc8c-74fd-4fa7-ab08-bf03f041fb06","system_id":"levelo_inurba_marseille","lat":43.31297,"lon":5.38513,"is_reserved":false,"is_disabled":false,"rental_uris":{"android":"levelo://app?vid=6557bc8c-74fd-4fa7-ab08-bf03f041fb06","ios":"levelo://app?vid=6557bc8c-74fd-4fa7-ab08-bf03f041fb06"},"vehicle_type_id":"4","last_reported":1736672911,"current_range_meters":18000,"station_id":"","pricing_plan_id":"cebpf4jnsgd1na2vs0mg"},{"bike_id":"8242826e-ab20-43ea-95c1-e76b426a119e","system_id":"levelo_inurba_marseille","lat":43.3378,"lon":5.37434,"is_reserved":false,"is_disabled":false,"rental_uris":{"android":"levelo://app?vid=8242826e-ab20-43ea-95c1-e76b426a119e","ios":"levelo://app?vid=8242826e-ab20-43ea-95c1-e76b426a119e"},"vehicle_type_id":"4","last_reported":1736672911,"current_range_meters":14000,"station_id":"","pricing_plan_id":"cebpf4jnsgd1na2vs0mg"},{"bike_id":"57f5a8a9-f2e5-4673-966d-ca04b8d8c8e6","system_id":"levelo_inurba_marseille","lat":43.31112,"lon":5.3777,"is_reserved":false,"is_disabled":true,"rental_uris":{"android":"levelo://app?vid=57f5a8a9-f2e5-4673-966d-ca04b8d8c8e6","ios":"levelo://app?vid=57f5a8a9-f2e5-4673-966d-ca04b8d8c8e6"},"vehicle_type_id":"4","last_reported":1736672911,"current_range_meters":2800,"station_id":"ce4bgt92rcd13ifvqcg0","pricing_plan_id":"cebpf4jnsgd1na2vs0mg"},{"bike_id":"70be71ea-57e2-4728-b52f-40370cdcd946","system_id":"levelo_inurba_marseille","lat":43.24803,"lon":5.3746,"is_reserved":false,"is_disabled":false,"rental_uris":{"android":"levelo://app?vid=70be71ea-57e2-4728-b52f-40370cdcd946","ios":"levelo://app?vid=70be71ea-57e2-4728-b52f-40370cdcd946"},"vehicle_type_id":"4","last_reported":1736672911,"current_range_meters":31200,"station_id":"ce4bhgh2rcd13ifvqfb0","pricing_plan_id":"cebpf4jnsgd1na2vs0mg"},{"bike_id":"a6855111-0943-4d14-9802-91718c0bec80","system_id":"levelo_inurba_marseille","lat":43.25596,"lon":5.38234,"is_reserved":false,"is_disabled":false,"rental_uris":{"android":"levelo://app?vid=a6855111-0943-4d14-9802-91718c0bec80","ios":"levelo://app?vid=a6855111-0943-4d14-9802-91718c0bec80"},"vehicle_type_id":"4","last_reported":1736672911,"current_range_meters":28800,"station_id":"ce4bhih2rcd13ifvqfs0","pricing_plan_id":"cebpf4jnsgd1na2vs0mg"},{"bike_id":"9343157b-1c2d-4548-bf4c-6991e6c0cdde","system_id":"levelo_inurba_marseille","lat":43.29762,"lon":5.37096,"is_reserved":false,"is_disabled":true,"rental_uris":{"android":"levelo://app?vid=9343157b-1c2d-4548-bf4c-6991e6c0cdde","ios":"levelo://app?vid=9343157b-1c2d-4548-bf4c-6991e6c0cdde"},"vehicle_type_id":"4","last_reported":1736672911,"current_range_meters":27600,"station_id":"ce4bgop2rcd13ifvqc1g","pricing_plan_id":"cebpf4jnsgd1na2vs0mg"},{"bike_id":"7966a29c-09c7-4115-9f20-e57dfa9fe5cc","system_id":"levelo_inurba_marseille","lat":43.27893,"lon":5.39606,"is_reserved":false,"is_disabled":false,"rental_uris":{"android":"levelo://app?vid=7966a29c-09c7-4115-9f20-e57dfa9fe5cc","ios":"levelo://app?vid=7966a29c-09c7-4115-9f20-e57dfa9fe5cc"},"vehicle_type_id":"4","last_reported":1736672911,"current_range_meters":8400,"station_id":"ce4bhf92rcd13ifvqf40","pricing_plan_id":"cebpf4jnsgd1na2vs0mg"},{"bike_id":"f3d63fbe-0b15-4d5a-b8ba-74356810cdf7","system_id":"levelo_inurba_marseille","lat":43.27051,"lon":5.42296,"is_reserved":false,"is_disabled":false,"rental_uris":{"android":"levelo://app?vid=f3d63fbe-0b15-4d5a-b8ba-74356810cdf7","ios":"levelo://app?vid=f3d63fbe-0b15-4d5a-b8ba-74356810cdf7"},"vehicle_type_id":"4","last_reported":1736672911,"current_range_meters":38800,"station_id":"ce4bhk92rcd13ifvqgb0","pricing_plan_id":"cebpf4jnsgd1na2vs0mg"},{"bike_id":"cfc7d4e2-0371-4fb2-9ec5-116a185cb80c","system_id":"levelo_inurba_marseille","lat":43.23183,"lon":5.3999,"is_reserved":false,"is_disabled":false,"rental_uris":{"android":"levelo://app?vid=cfc7d4e2-0371-4fb2-9ec5-116a185cb80c","ios":"levelo://app?vid=cfc7d4e2-0371-4fb2-9ec5-116a185cb80c"},"vehicle_type_id":"4","last_reported":1736672911,"current_range_meters":20400,"station_id":"ce4bhn12rcd13ifvqgqg","pricing_plan_id":"cebpf4jnsgd1na2vs0mg"},{"bike_id":"6f8d5613-68e8-453b-9903-0b6c2da05e2d","system_id":"levelo_inurba_marseille","lat":43.24177,"lon":5.36393,"is_reserved":false,"is_disabled":false,"rental_uris":{"android":"levelo://app?vid=6f8d5613-68e8-453b-9903-0b6c2da05e2d","ios":"levelo://app?vid=6f8d5613-68e8-453b-9903-0b6c2da05e2d"},"vehicle_type_id":"4","last_reported":1736672911,"current_range_meters":36800,"station_id":"cpo36qri1sfpv3e86is0","pricing_plan_id":"cebpf4jnsgd1na2vs0mg"},{"bike_id":"297ed5aa-c846-407f-9135-c1596f506589","system_id":"levelo_inurba_marseille","lat":43.30329,"lon":5.40453,"is_reserved":false,"is_disabled":false,"rental_uris":{"android":"levelo://app?vid=297ed5aa-c846-407f-9135-c1596f506589","ios":"levelo://app?vid=297ed5aa-c846-407f-9135-c1596f506589"},"vehicle_type_id":"4","last_reported":1736672911,"current_range_meters":39200,"station_id":"ce4bh012rcd13ifvqd10","pricing_plan_id":"cebpf4jnsgd1na2vs0mg"},{"bike_id":"ed3f3c69-27c8-48af-8c96-2ad0c07b0d26","system_id":"levelo_inurba_marseille","lat":43.30924,"lon":5.40154,"is_reserved":false,"is_disabled":false,"rental_uris":{"android":"levelo://app?vid=ed3f3c69-27c8-48af-8c96-2ad0c07b0d26","ios":"levelo://app?vid=ed3f3c69-27c8-48af-8c96-2ad0c07b0d26"},"vehicle_type_id":"4","last_reported":1736672911,"current_range_meters":33600,"station_id":"ce4bgvp2rcd13ifvqct0","pricing_plan_id":"cebpf4jnsgd1na2vs0mg"},{"bike_id":"4ea89943-560f-4480-a533-4fe6664bd873","system_id":"levelo_inurba_marseille","lat":43.26192,"lon":5.37472,"is_reserved":false,"is_disabled":false,"rental_uris":{"android":"levelo://app?vid=4ea89943-560f-4480-a533-4fe6664bd873","ios":"levelo://app?vid=4ea89943-560f-4480-a533-4fe6664bd873"},"vehicle_type_id":"4","last_reported":1736672911,"current_range_meters":15200,"station_id":"ce4bhgp2rcd13ifvqfc0","pricing_plan_id":"cebpf4jnsgd1na2vs0mg"},{"bike_id":"85603f95-286b-4848-8682-ec6ae6094237","system_id":"levelo_inurba_marseille","lat":43.27055,"lon":5.4028,"is_reserved":false,"is_disabled":true,"rental_uris":{"android":"levelo://app?vid=85603f95-286b-4848-8682-ec6ae6094237","ios":"levelo://app?vid=85603f95-286b-4848-8682-ec6ae6094237"},"vehicle_type_id":"4","last_reported":1736672911,"current_range_meters":8400,"station_id":"ce4bhk92rcd13ifvqgc0","pricing_plan_id":"cebpf4jnsgd1na2vs0mg"},{"bike_id":"b52cf5d7-d0ff-45b3-ac5b-ffe5c33591d4","system_id":"levelo_inurba_marseille","lat":43.23069,"lon":5.35499,"is_reserved":false,"is_disabled":false,"rental_uris":{"android":"levelo://app?vid=b52cf5d7-d0ff-45b3-ac5b-ffe5c33591d4","ios":"levelo://app?vid=b52cf5d7-d0ff-45b3-ac5b-ffe5c33591d4"},"vehicle_type_id":"4","last_reported":1736672911,"current_range_meters":6400,"station_id":"cpo3342slgdg3j2ifvpg","pricing_plan_id":"cebpf4jnsgd1na2vs0mg"},{"bike_id":"8b88170d-e695-4530-8583-a66b3ec41a93","system_id":"levelo_inurba_marseille","lat":43.33597,"lon":5.40971,"is_reserved":false,"is_disabled":true,"rental_uris":{"android":"levelo://app?vid=8b88170d-e695-4530-8583-a66b3ec41a93","ios":"levelo://app?vid=8b88170d-e695-4530-8583-a66b3ec41a93"},"vehicle_type_id":"4","last_reported":1736672911,"current_range_meters":8400,"station_id":"","pricing_plan_id":"cebpf4jnsgd1na2vs0mg"},{"bike_id":"05da1427-11d2-409f-b1a9-8274ceefa2b5","system_id":"levelo_inurba_marseille","lat":43.29274,"lon":5.36839,"is_reserved":false,"is_disabled":true,"rental_uris":{"android":"levelo://app?vid=05da1427-11d2-409f-b1a9-8274ceefa2b5","ios":"levelo://app?vid=05da1427-11d2-409f-b1a9-8274ceefa2b5"},"vehicle_type_id":"4","last_reported":1736672911,"current_range_meters":19600,"station_id":"ce4bhbp2rcd13ifvqesg","pricing_plan_id":"cebpf4jnsgd1na2vs0mg"},{"bike_id":"32434007-22ad-4edf-95ad-b3d72d9e537b","system_id":"levelo_inurba_marseille","lat":43.31168,"lon":5.38717,"is_reserved":false,"is_disabled":false,"rental_uris":{"android":"levelo://app?vid=32434007-22ad-4edf-95ad-b3d72d9e537b","ios":"levelo://app?vid=32434007-22ad-4edf-95ad-b3d72d9e537b"},"vehicle_type_id":"4","last_reported":1736672911,"current_range_meters":38400,"station_id":"ce4bgv12rcd13ifvqcp0","pricing_plan_id":"cebpf4jnsgd1na2vs0mg"},{"bike_id":"b8acbba0-a715-4ced-a2aa-0517db10ac9d","system_id":"levelo_inurba_marseille","lat":43.22919,"lon":5.35392,"is_reserved":false,"is_disabled":true,"rental_uris":{"android":"levelo://app?vid=b8acbba0-a715-4ced-a2aa-0517db10ac9d","ios":"levelo://app?vid=b8acbba0-a715-4ced-a2aa-0517db10ac9d"},"vehicle_type_id":"4","last_reported":1736672911,"current_range_meters":32400,"station_id":"cpo3532slgdg3j2ikp40","pricing_plan_id":"cebpf4jnsgd1na2vs0mg"},{"bike_id":"83b1e8a6-b3db-42d8-b2d4-942c99251968","system_id":"levelo_inurba_marseille","lat":43.24653,"lon":5.38896,"is_reserved":false,"is_disabled":false,"rental_uris":{"android":"levelo://app?vid=83b1e8a6-b3db-42d8-b2d4-942c99251968","ios":"levelo://app?vid=83b1e8a6-b3db-42d8-b2d4-942c99251968"},"vehicle_type_id":"4","last_reported":1736672911,"current_range_meters":38800,"station_id":"ce4bhg12rcd13ifvqf60","pricing_plan_id":"cebpf4jnsgd1na2vs0mg"},{"bike_id":"649a35fd-af3f-4ad6-b595-f3c36f0f5e7f","system_id":"levelo_inurba_marseille","lat":43.29628,"lon":5.40617,"is_reserved":false,"is_disabled":false,"rental_uris":{"android":"levelo://app?vid=649a35fd-af3f-4ad6-b595-f3c36f0f5e7f","ios":"levelo://app?vid=649a35fd-af3f-4ad6-b595-f3c36f0f5e7f"},"vehicle_type_id":"4","last_reported":1736672911,"current_range_meters":28800,"station_id":"ce4bh0h2rcd13ifvqd60","pricing_plan_id":"cebpf4jnsgd1na2vs0mg"},{"bike_id":"b570ec5e-60fc-4629-819d-b32caf44ad24","system_id":"levelo_inurba_marseille","lat":43.29547,"lon":5.42285,"is_reserved":false,"is_disabled":true,"rental_uris":{"android":"levelo://app?vid=b570ec5e-60fc-4629-819d-b32caf44ad24","ios":"levelo://app?vid=b570ec5e-60fc-4629-819d-b32caf44ad24"},"vehicle_type_id":"4","last_reported":1736672911,"current_range_meters":800,"station_id":"ce4bhph2rcd13ifvqhdg","pricing_plan_id":"cebpf4jnsgd1na2vs0mg"},{"bike_id":"b648fcdf-209d-4fe9-abca-4cec6fea667a","system_id":"levelo_inurba_marseille","lat":43.26204,"lon":5.37932,"is_reserved":false,"is_disabled":false,"rental_uris":{"android":"levelo://app?vid=b648fcdf-209d-4fe9-abca-4cec6fea667a","ios":"levelo://app?vid=b648fcdf-209d-4fe9-abca-4cec6fea667a"},"vehicle_type_id":"4","last_reported":1736672911,"current_range_meters":34000,"station_id":"ce4bhjp2rcd13ifvqg90","pricing_plan_id":"cebpf4jnsgd1na2vs0mg"},{"bike_id":"05951c07-4648-4ea1-b2a3-1c7d55e34ce0","system_id":"levelo_inurba_marseille","lat":43.28704,"lon":5.3999,"is_reserved":false,"is_disabled":false,"rental_uris":{"android":"levelo://app?vid=05951c07-4648-4ea1-b2a3-1c7d55e34ce0","ios":"levelo://app?vid=05951c07-4648-4ea1-b2a3-1c7d55e34ce0"},"vehicle_type_id":"4","last_reported":1736672911,"current_range_meters":38400,"station_id":"ce4bho92rcd13ifvqh3g","pricing_plan_id":"cebpf4jnsgd1na2vs0mg"},{"bike_id":"a5698a19-52c1-45d9-b6a6-bd07a196dc04","system_id":"levelo_inurba_marseille","lat":43.25573,"lon":5.38241,"is_reserved":false,"is_disabled":true,"rental_uris":{"android":"levelo://app?vid=a5698a19-52c1-45d9-b6a6-bd07a196dc04","ios":"levelo://app?vid=a5698a19-52c1-45d9-b6a6-bd07a196dc04"},"vehicle_type_id":"4","last_reported":1736672911,"current_range_meters":26800,"station_id":"ce4bhih2rcd13ifvqfs0","pricing_plan_id":"cebpf4jnsgd1na2vs0mg"},{"bike_id":"377730c6-0336-4c78-9c46-cdee41ff19a9","system_id":"levelo_inurba_marseille","lat":43.280361,"lon":5.411186,"is_reserved":false,"is_disabled":true,"rental_uris":{"android":"levelo://app?vid=377730c6-0336-4c78-9c46-cdee41ff19a9","ios":"levelo://app?vid=377730c6-0336-4c78-9c46-cdee41ff19a9"},