{"last_updated":1766142619,"ttl":60,"version":"2.2","data":{"bikes":[{"bike_id":"0c2ad1d4-b646-42d4-b4ac-bbc1f74f2523","system_id":"levelo_inurba_marseille","lat":43.303741,"lon":5.42486,"is_reserved":false,"is_disabled":false,"rental_uris":{"android":"levelo://app?vid=0c2ad1d4-b646-42d4-b4ac-bbc1f74f2523","ios":"levelo://app?vid=0c2ad1d4-b646-42d4-b4ac-bbc1f74f2523"},"vehicle_type_id":"4","last_reported":1766142620,"current_range_meters":2800,"station_id":"ce4bhoh2rcd13ifvqh6g","pricing_plan_id":"cebpf4jnsgd1na2vs0mg"},{"bike_id":"888d894b-56e1-4e3f-9c31-d6db3b4f8a3e","system_id":"levelo_inurba_marseille","lat":43.29037,"lon":5.3995,"is_reserved":false,"is_disabled":false,"rental_uris":{"android":"levelo://app?vid=888d894b-56e1-4e3f-9c31-d6db3b4f8a3e","ios":"levelo://app?vid=888d894b-56e1-4e3f-9c31-d6db3b4f8a3e"},"vehicle_type_id":"4","last_reported":1766142620,"current_range_meters":2800,"station_id":"ce4bh392rcd13ifvqdm0","pricing_plan_id":"cebpf4jnsgd1na2vs0mg"},{"bike_id":"cc178787-4e27-477e-85ac-bb874f1df1de","system_id":"levelo_inurba_marseille","lat":43.27332,"lon":5.41085,"is_reserved":false,"is_disabled":false,"rental_uris":{"android":"levelo://app?vid=cc178787-4e27-477e-85ac-bb874f1df1de","ios":"levelo://app?vid=cc178787-4e27-477e-85ac-bb874f1df1de"},"vehicle_type_id":"4","last_reported":1766142620,"current_range_meters":2800,"station_id":"","pricing_plan_id":"cebpf4jnsgd1na2vs0mg"},{"bike_id":"1541fb33-8a48-4ade-a9ca-ccb368fdd8ef","system_id":"levelo_inurba_marseille","lat":43.26222,"lon":5.404562,"is_reserved":false,"is_disabled":false,"rental_uris":{"android":"levelo://app?vid=1541fb33-8a48-4ade-a9ca-ccb368fdd8ef","ios":"levelo://app?vid=1541fb33-8a48-4ade-a9ca-ccb368fdd8ef"},"vehicle_type_id":"4","last_reported":1766142620,"current_range_meters":2800,"station_id":"ce4bhmh2rcd13ifvqgmg","pricing_plan_id":"cebpf4jnsgd1na2vs0mg"},{"bike_id":"a1ac0ba7-1483-464e-9caa-755fc64f46a4","system_id":"levelo_inurba_marseille","lat":43.24068,"lon":5.37829,"is_reserved":false,"is_disabled":false,"rental_uris":{"android":"levelo://app?vid=a1ac0ba7-1483-464e-9caa-755fc64f46a4","ios":"levelo://app?vid=a1ac0ba7-1483-464e-9caa-755fc64f46a4"},"vehicle_type_id":"4","last_reported":1766142620,"current_range_meters":2800,"station_id":"","pricing_plan_id":"cebpf4jnsgd1na2vs0mg"},{"bike_id":"c07d613a-7541-48ee-ba87-227495708493","system_id":"levelo_inurba_marseille","lat":43.29029,"lon":5.39971,"is_reserved":false,"is_disabled":false,"rental_uris":{"android":"levelo://app?vid=c07d613a-7541-48ee-ba87-227495708493","ios":"levelo://app?vid=c07d613a-7541-48ee-ba87-227495708493"},"vehicle_type_id":"4","last_reported":1766142620,"current_range_meters":2800,"station_id":"ce4bh392rcd13ifvqdm0","pricing_plan_id":"cebpf4jnsgd1na2vs0mg"},{"bike_id":"ec9d8cfa-7177-4a22-b722-be96750525bd","system_id":"levelo_inurba_marseille","lat":43.2888,"lon":5.42535,"is_reserved":false,"is_disabled":false,"rental_uris":{"android":"levelo://app?vid=ec9d8cfa-7177-4a22-b722-be96750525bd","ios":"levelo://app?vid=ec9d8cfa-7177-4a22-b722-be96750525bd"},"vehicle_type_id":"4","last_reported":1766142620,"current_range_meters":2800,"station_id":"st_d3b462108ojc7389ooeg","pricing_plan_id":"cebpf4jnsgd1na2vs0mg"},{"bike_id":"60e34adf-4728-4039-abc1-8325a586baad","system_id":"levelo_inurba_marseille","lat":43.31484,"lon":5.37295,"is_reserved":false,"is_disabled":false,"rental_uris":{"android":"levelo://app?vid=60e34adf-4728-4039-abc1-8325a586baad","ios":"levelo://app?vid=60e34adf-4728-4039-abc1-8325a586baad"},"vehicle_type_id":"4","last_reported":1766142620,"current_range_meters":3200,"station_id":"ce4bgt12rcd13ifvqcd0","pricing_plan_id":"cebpf4jnsgd1na2vs0mg"},{"bike_id":"ad214d31-bb02-4116-8f7f-7792b50ee25f","system_id":"levelo_inurba_marseille","lat":43.2511,"lon":5.40336,"is_reserved":false,"is_disabled":false,"rental_uris":{"android":"levelo://app?vid=ad214d31-bb02-4116-8f7f-7792b50ee25f","ios":"levelo://app?vid=ad214d31-bb02-4116-8f7f-7792b50ee25f"},"vehicle_type_id":"4","last_reported":1766142620,"current_range_meters":3200,"station_id":"ce4bhlh2rcd13ifvqgig","pricing_plan_id":"cebpf4jnsgd1na2vs0mg"},{"bike_id":"d235767a-3e44-44c9-893e-7ebda15e5a64","system_id":"levelo_inurba_marseille","lat":43.254055,"lon":5.385582,"is_reserved":false,"is_disabled":false,"rental_uris":{"android":"levelo://app?vid=d235767a-3e44-44c9-893e-7ebda15e5a64","ios":"levelo://app?vid=d235767a-3e44-44c9-893e-7ebda15e5a64"},"vehicle_type_id":"4","last_reported":1766142620,"current_range_meters":3200,"station_id":"","pricing_plan_id":"cebpf4jnsgd1na2vs0mg"},{"bike_id":"07102bbf-8e43-4cc8-abfb-b7bffaf00185","system_id":"levelo_inurba_marseille","lat":43.29381,"lon":5.36281,"is_reserved":false,"is_disabled":false,"rental_uris":{"android":"levelo://app?vid=07102bbf-8e43-4cc8-abfb-b7bffaf00185","ios":"levelo://app?vid=07102bbf-8e43-4cc8-abfb-b7bffaf00185"},"vehicle_type_id":"4","last_reported":1766142620,"current_range_meters":3200,"station_id":"","pricing_plan_id":"cebpf4jnsgd1na2vs0mg"},{"bike_id":"2772c2c3-1703-4ad8-b3f3-a727b2bc4238","system_id":"levelo_inurba_marseille","lat":43.31892,"lon":5.40722,"is_reserved":false,"is_disabled":false,"rental_uris":{"android":"levelo://app?vid=2772c2c3-1703-4ad8-b3f3-a727b2bc4238","ios":"levelo://app?vid=2772c2c3-1703-4ad8-b3f3-a727b2bc4238"},"vehicle_type_id":"4","last_reported":1766142620,"current_range_meters":3200,"station_id":"ce4bhq12rcd13ifvqhig","pricing_plan_id":"cebpf4jnsgd1na2vs0mg"},{"bike_id":"c7e5daf3-a6b0-4ffc-8e95-134c47362fa1","system_id":"levelo_inurba_marseille","lat":43.30131,"lon":5.36866,"is_reserved":false,"is_disabled":false,"rental_uris":{"android":"levelo://app?vid=c7e5daf3-a6b0-4ffc-8e95-134c47362fa1","ios":"levelo://app?vid=c7e5daf3-a6b0-4ffc-8e95-134c47362fa1"},"vehicle_type_id":"4","last_reported":1766142620,"current_range_meters":3200,"station_id":"","pricing_plan_id":"cebpf4jnsgd1na2vs0mg"},{"bike_id":"fdb18b9b-3b90-486e-b306-62bb1a73300b","system_id":"levelo_inurba_marseille","lat":43.24669,"lon":5.38172,"is_reserved":false,"is_disabled":true,"rental_uris":{"android":"levelo://app?vid=fdb18b9b-3b90-486e-b306-62bb1a73300b","ios":"levelo://app?vid=fdb18b9b-3b90-486e-b306-62bb1a73300b"},"vehicle_type_id":"4","last_reported":1766142620,"current_range_meters":3600,"station_id":"ce4bhih2rcd13ifvqfr0","pricing_plan_id":"cebpf4jnsgd1na2vs0mg"},{"bike_id":"50e6eefe-8aea-4054-ab8f-87d6e301ff34","system_id":"levelo_inurba_marseille","lat":43.242998,"lon":5.438436,"is_reserved":false,"is_disabled":false,"rental_uris":{"android":"levelo://app?vid=50e6eefe-8aea-4054-ab8f-87d6e301ff34","ios":"levelo://app?vid=50e6eefe-8aea-4054-ab8f-87d6e301ff34"},"vehicle_type_id":"4","last_reported":1766142620,"current_range_meters":3600,"station_id":"","pricing_plan_id":"cebpf4jnsgd1na2vs0mg"},{"bike_id":"d88f83fc-7a24-4804-9301-839b1ae399e9","system_id":"levelo_inurba_marseille","lat":43.29515,"lon":5.37862,"is_reserved":false,"is_disabled":false,"rental_uris":{"android":"levelo://app?vid=d88f83fc-7a24-4804-9301-839b1ae399e9","ios":"levelo://app?vid=d88f83fc-7a24-4804-9301-839b1ae399e9"},"vehicle_type_id":"4","last_reported":1766142620,"current_range_meters":4000,"station_id":"","pricing_plan_id":"cebpf4jnsgd1na2vs0mg"},{"bike_id":"c194a18a-77ef-403b-9eeb-22624c7dc88c","system_id":"levelo_inurba_marseille","lat":43.30133,"lon":5.37419,"is_reserved":false,"is_disabled":false,"rental_uris":{"android":"levelo://app?vid=c194a18a-77ef-403b-9eeb-22624c7dc88c","ios":"levelo://app?vid=c194a18a-77ef-403b-9eeb-22624c7dc88c"},"vehicle_type_id":"4","last_reported":1766142620,"current_range_meters":4000,"station_id":"ce4bgs92rcd13ifvqcc0","pricing_plan_id":"cebpf4jnsgd1na2vs0mg"},{"bike_id":"336e4966-a613-499a-8292-fd99a0387452","system_id":"levelo_inurba_marseille","lat":43.25914,"lon":5.40894,"is_reserved":false,"is_disabled":false,"rental_uris":{"android":"levelo://app?vid=336e4966-a613-499a-8292-fd99a0387452","ios":"levelo://app?vid=336e4966-a613-499a-8292-fd99a0387452"},"vehicle_type_id":"4","last_reported":1766142620,"current_range_meters":4000,"station_id":"ce4bhm92rcd13ifvqglg","pricing_plan_id":"cebpf4jnsgd1na2vs0mg"},{"bike_id":"d5dd2e1f-6caa-403c-b144-e678f4b6bd63","system_id":"levelo_inurba_marseille","lat":43.32104,"lon":5.36765,"is_reserved":false,"is_disabled":false,"rental_uris":{"android":"levelo://app?vid=d5dd2e1f-6caa-403c-b144-e678f4b6bd63","ios":"levelo://app?vid=d5dd2e1f-6caa-403c-b144-e678f4b6bd63"},"vehicle_type_id":"4","last_reported":1766142620,"current_range_meters":4000,"station_id":"ce4bhrh2rcd13ifvqhug","pricing_plan_id":"cebpf4jnsgd1na2vs0mg"},{"bike_id":"d2bcf7e6-9e6c-48c1-8c64-5337f19dad07","system_id":"levelo_inurba_marseille","lat":43.22872,"lon":5.39956,"is_reserved":false,"is_disabled":false,"rental_uris":{"android":"levelo://app?vid=d2bcf7e6-9e6c-48c1-8c64-5337f19dad07","ios":"levelo://app?vid=d2bcf7e6-9e6c-48c1-8c64-5337f19dad07"},"vehicle_type_id":"4","last_reported":1766142620,"current_range_meters":4000,"station_id":"","pricing_plan_id":"cebpf4jnsgd1na2vs0mg"},{"bike_id":"3d9b0651-3bbc-4b4b-aa1f-c54ade653924","system_id":"levelo_inurba_marseille","lat":43.27208,"lon":5.39222,"is_reserved":false,"is_disabled":false,"rental_uris":{"android":"levelo://app?vid=3d9b0651-3bbc-4b4b-aa1f-c54ade653924","ios":"levelo://app?vid=3d9b0651-3bbc-4b4b-aa1f-c54ade653924"},"vehicle_type_id":"4","last_reported":1766142620,"current_range_meters":4400,"station_id":"ce4bhhp2rcd13ifvqfm0","pricing_plan_id":"cebpf4jnsgd1na2vs0mg"},{"bike_id":"00fd2dcb-6faf-4c7a-8c99-525909084655","system_id":"levelo_inurba_marseille","lat":43.28158,"lon":5.42651,"is_reserved":false,"is_disabled":true,"rental_uris":{"android":"levelo://app?vid=00fd2dcb-6faf-4c7a-8c99-525909084655","ios":"levelo://app?vid=00fd2dcb-6faf-4c7a-8c99-525909084655"},"vehicle_type_id":"4","last_reported":1766142620,"current_range_meters":4400,"station_id":"ce4bhnh2rcd13ifvqgug","pricing_plan_id":"cebpf4jnsgd1na2vs0mg"},{"bike_id":"a9adc8bf-52f1-4c31-a2de-42743dd086bf","system_id":"levelo_inurba_marseille","lat":43.33723,"lon":5.3748,"is_reserved":false,"is_disabled":false,"rental_uris":{"android":"levelo://app?vid=a9adc8bf-52f1-4c31-a2de-42743dd086bf","ios":"levelo://app?vid=a9adc8bf-52f1-4c31-a2de-42743dd086bf"},"vehicle_type_id":"4","last_reported":1766142620,"current_range_meters":4400,"station_id":"","pricing_plan_id":"cebpf4jnsgd1na2vs0mg"},{"bike_id":"d613c7dc-3d50-4b8d-bb80-a1e773b150d2","system_id":"levelo_inurba_marseille","lat":43.29969,"lon":5.38489,"is_reserved":false,"is_disabled":false,"rental_uris":{"android":"levelo://app?vid=d613c7dc-3d50-4b8d-bb80-a1e773b150d2","ios":"levelo://app?vid=d613c7dc-3d50-4b8d-bb80-a1e773b150d2"},"vehicle_type_id":"4","last_reported":1766142620,"current_range_meters":4800,"station_id":"ce4bgj92rcd13ifvqbd0","pricing_plan_id":"cebpf4jnsgd1na2vs0mg"},{"bike_id":"6ffdae3b-a52e-467d-9cfc-11d3b3e8193c","system_id":"levelo_inurba_marseille","lat":43.24056,"lon":5.37786,"is_reserved":false,"is_disabled":true,"rental_uris":{"android":"levelo://app?vid=6ffdae3b-a52e-467d-9cfc-11d3b3e8193c","ios":"levelo://app?vid=6ffdae3b-a52e-467d-9cfc-11d3b3e8193c"},"vehicle_type_id":"4","last_reported":1766142620,"current_range_meters":4800,"station_id":"ce4bhnp2rcd13ifvqgvg","pricing_plan_id":"cebpf4jnsgd1na2vs0mg"},{"bike_id":"c77ed1c3-96ae-45e5-a4d4-21b6a72cf6a6","system_id":"levelo_inurba_marseille","lat":43.31345,"lon":5.39714,"is_reserved":false,"is_disabled":true,"rental_uris":{"android":"levelo://app?vid=c77ed1c3-96ae-45e5-a4d4-21b6a72cf6a6","ios":"levelo://app?vid=c77ed1c3-96ae-45e5-a4d4-21b6a72cf6a6"},"vehicle_type_id":"4","last_reported":1766142620,"current_range_meters":5600,"station_id":"ce4bgvp2rcd13ifvqcu0","pricing_plan_id":"cebpf4jnsgd1na2vs0mg"},{"bike_id":"8080e206-1a15-4198-8e73-b70339b0f1ad","system_id":"levelo_inurba_marseille","lat":43.25466,"lon":5.37678,"is_reserved":false,"is_disabled":false,"rental_uris":{"android":"levelo://app?vid=8080e206-1a15-4198-8e73-b70339b0f1ad","ios":"levelo://app?vid=8080e206-1a15-4198-8e73-b70339b0f1ad"},"vehicle_type_id":"4","last_reported":1766142620,"current_range_meters":5600,"station_id":"ce4bhh12rcd13ifvqff0","pricing_plan_id":"cebpf4jnsgd1na2vs0mg"},{"bike_id":"135034e9-a9ba-448f-8fb7-1a6ab7b9598e","system_id":"levelo_inurba_marseille","lat":43.2656,"lon":5.37268,"is_reserved":false,"is_disabled":true,"rental_uris":{"android":"levelo://app?vid=135034e9-a9ba-448f-8fb7-1a6ab7b9598e","ios":"levelo://app?vid=135034e9-a9ba-448f-8fb7-1a6ab7b9598e"},"vehicle_type_id":"4","last_reported":1766142620,"current_range_meters":5600,"station_id":"ce4bhg12rcd13ifvqf70","pricing_plan_id":"cebpf4jnsgd1na2vs0mg"},{"bike_id":"623746b5-cce7-4837-9f5d-2112e3e20084","system_id":"levelo_inurba_marseille","lat":43.25334,"lon":5.42174,"is_reserved":false,"is_disabled":false,"rental_uris":{"android":"levelo://app?vid=623746b5-cce7-4837-9f5d-2112e3e20084","ios":"levelo://app?vid=623746b5-cce7-4837-9f5d-2112e3e20084"},"vehicle_type_id":"4","last_reported":1766142620,"current_range_meters":5600,"station_id":"st_d2m65c5bi1j21697t3ng","pricing_plan_id":"cebpf4jnsgd1na2vs0mg"},{"bike_id":"81508f0a-e327-4705-ae72-228165570b37","system_id":"levelo_inurba_marseille","lat":43.25082,"lon":5.38926,"is_reserved":false,"is_disabled":false,"rental_uris":{"android":"levelo://app?vid=81508f0a-e327-4705-ae72-228165570b37","ios":"levelo://app?vid=81508f0a-e327-4705-ae72-228165570b37"},"vehicle_type_id":"4","last_reported":1766142620,"current_range_meters":6000,"station_id":"","pricing_plan_id":"cebpf4jnsgd1na2vs0mg"},{"bike_id":"6cfaf691-8636-4831-a99b-f278739cde5c","system_id":"levelo_inurba_marseille","lat":43.27806,"lon":5.4072,"is_reserved":false,"is_disabled":false,"rental_uris":{"android":"levelo://app?vid=6cfaf691-8636-4831-a99b-f278739cde5c","ios":"levelo://app?vid=6cfaf691-8636-4831-a99b-f278739cde5c"},"vehicle_type_id":"4","last_reported":1766142620,"current_range_meters":6000,"station_id":"ce4bhnh2rcd13ifvqgtg","pricing_plan_id":"cebpf4jnsgd1na2vs0mg"},{"bike_id":"c6d46fa6-4244-47db-bf38-73e3be416caa","system_id":"levelo_inurba_marseille","lat":43.29245,"lon":5.37615,"is_reserved":false,"is_disabled":false,"rental_uris":{"android":"levelo://app?vid=c6d46fa6-4244-47db-bf38-73e3be416caa","ios":"levelo://app?vid=c6d46fa6-4244-47db-bf38-73e3be416caa"},"vehicle_type_id":"4","last_reported":1766142620,"current_range_meters":6000,"station_id":"ce4bgi12rcd13ifvqb80","pricing_plan_id":"cebpf4jnsgd1na2vs0mg"},{"bike_id":"a96e8f12-6904-4a45-aa16-0c9b2d30b482","system_id":"levelo_inurba_marseille","lat":43.315483,"lon":5.368917,"is_reserved":false,"is_disabled":false,"rental_uris":{"android":"levelo://app?vid=a96e8f12-6904-4a45-aa16-0c9b2d30b482","ios":"levelo://app?vid=a96e8f12-6904-4a45-aa16-0c9b2d30b482"},"vehicle_type_id":"4","last_reported":1766142620,"current_range_meters":6000,"station_id":"","pricing_plan_id":"cebpf4jnsgd1na2vs0mg"},{"bike_id":"3cde007c-a409-4597-91e7-ca2461274ad1","system_id":"levelo_inurba_marseille","lat":43.26553,"lon":5.4021,"is_reserved":false,"is_disabled":false,"rental_uris":{"android":"levelo://app?vid=3cde007c-a409-4597-91e7-ca2461274ad1","ios":"levelo://app?vid=3cde007c-a409-4597-91e7-ca2461274ad1"},"vehicle_type_id":"4","last_reported":1766142620,"current_range_meters":6400,"station_id":"","pricing_plan_id":"cebpf4jnsgd1na2vs0mg"},{"bike_id":"a24ee5b6-572d-4941-9ef3-a9d89c28bd82","system_id":"levelo_inurba_marseille","lat":43.30559,"lon":5.36682,"is_reserved":false,"is_disabled":false,"rental_uris":{"android":"levelo://app?vid=a24ee5b6-572d-4941-9ef3-a9d89c28bd82","ios":"levelo://app?vid=a24ee5b6-572d-4941-9ef3-a9d89c28bd82"},"vehicle_type_id":"4","last_reported":1766142620,"current_range_meters":6400,"station_id":"ce4bgrp2rcd13ifvqc9g","pricing_plan_id":"cebpf4jnsgd1na2vs0mg"},{"bike_id":"da18a3b0-ce97-43eb-b181-936e440b40e5","system_id":"levelo_inurba_marseille","lat":43.31682,"lon":5.40408,"is_reserved":false,"is_disabled":false,"rental_uris":{"android":"levelo://app?vid=da18a3b0-ce97-43eb-b181-936e440b40e5","ios":"levelo://app?vid=da18a3b0-ce97-43eb-b181-936e440b40e5"},"vehicle_type_id":"4","last_reported":1766142620,"current_range_meters":6400,"station_id":"","pricing_plan_id":"cebpf4jnsgd1na2vs0mg"},{"bike_id":"48e30a46-3a61-4ed5-93c8-2b0ee8661bac","system_id":"levelo_inurba_marseille","lat":43.30192,"lon":5.38086,"is_reserved":false,"is_disabled":false,"rental_uris":{"android":"levelo://app?vid=48e30a46-3a61-4ed5-93c8-2b0ee8661bac","ios":"levelo://app?vid=48e30a46-3a61-4ed5-93c8-2b0ee8661bac"},"vehicle_type_id":"4","last_reported":1766142620,"current_range_meters":6400,"station_id":"","pricing_plan_id":"cebpf4jnsgd1na2vs0mg"},{"bike_id":"f87a7598-e6b9-4feb-a6e3-d98d4acd6941","system_id":"levelo_inurba_marseille","lat":43.24174,"lon":5.36407,"is_reserved":false,"is_disabled":true,"rental_uris":{"android":"levelo://app?vid=f87a7598-e6b9-4feb-a6e3-d98d4acd6941","ios":"levelo://app?vid=f87a7598-e6b9-4feb-a6e3-d98d4acd6941"},"vehicle_type_id":"4","last_reported":1766142620,"current_range_meters":6400,"station_id":"cpo36qri1sfpv3e86is0","pricing_plan_id":"cebpf4jnsgd1na2vs0mg"},{"bike_id":"9aceb044-6f8e-473e-bfe4-8753c4b42b5b","system_id":"levelo_inurba_marseille","lat":43.28978,"lon":5.38131,"is_reserved":false,"is_disabled":false,"rental_uris":{"android":"levelo://app?vid=9aceb044-6f8e-473e-bfe4-8753c4b42b5b","ios":"levelo://app?vid=9aceb044-6f8e-473e-bfe4-8753c4b42b5b"},"vehicle_type_id":"4","last_reported":1766142620,"current_range_meters":6800,"station_id":"ce4bh4p2rcd13ifvqe1g","pricing_plan_id":"cebpf4jnsgd1na2vs0mg"},{"bike_id":"9282d5a7-0e9c-4010-ae8a-61b36e696bbc","system_id":"levelo_inurba_marseille","lat":43.253329,"lon":5.421781,"is_reserved":false,"is_disabled":false,"rental_uris":{"android":"levelo://app?vid=9282d5a7-0e9c-4010-ae8a-61b36e696bbc","ios":"levelo://app?vid=9282d5a7-0e9c-4010-ae8a-61b36e696bbc"},"vehicle_type_id":"4","last_reported":1766142620,"current_range_meters":6800,"station_id":"st_d2m65c5bi1j21697t3ng","pricing_plan_id":"cebpf4jnsgd1na2vs0mg"},{"bike_id":"21d0bc37-bafa-4a85-9544-79525cc5b88d","system_id":"levelo_inurba_marseille","lat":43.31161,"lon":5.38732,"is_reserved":false,"is_disabled":false,"rental_uris":{"android":"levelo://app?vid=21d0bc37-bafa-4a85-9544-79525cc5b88d","ios":"levelo://app?vid=21d0bc37-bafa-4a85-9544-79525cc5b88d"},"vehicle_type_id":"4","last_reported":1766142620,"current_range_meters":6800,"station_id":"ce4bgv12rcd13ifvqcp0","pricing_plan_id":"cebpf4jnsgd1na2vs0mg"},{"bike_id":"40c51ff6-bcdf-4189-b2f9-53259a9dc236","system_id":"levelo_inurba_marseille","lat":43.28306,"lon":5.38919,"is_reserved":false,"is_disabled":true,"rental_uris":{"android":"levelo://app?vid=40c51ff6-bcdf-4189-b2f9-53259a9dc236","ios":"levelo://app?vid=40c51ff6-bcdf-4189-b2f9-53259a9dc236"},"vehicle_type_id":"4","last_reported":1766142620,"current_range_meters":6800,"station_id":"","pricing_plan_id":"cebpf4jnsgd1na2vs0mg"},{"bike_id":"4c392446-9a44-4a44-b310-4ff62f539abc","system_id":"levelo_inurba_marseille","lat":43.27826,"lon":5.40708,"is_reserved":false,"is_disabled":false,"rental_uris":{"android":"levelo://app?vid=4c392446-9a44-4a44-b310-4ff62f539abc","ios":"levelo://app?vid=4c392446-9a44-4a44-b310-4ff62f539abc"},"vehicle_type_id":"4","last_reported":1766142620,"current_range_meters":6800,"station_id":"ce4bhnh2rcd13ifvqgtg","pricing_plan_id":"cebpf4jnsgd1na2vs0mg"},{"bike_id":"6ea1c15e-5b74-4575-9f55-3622c6e19603","system_id":"levelo_inurba_marseille","lat":43.28864,"lon":5.35877,"is_reserved":false,"is_disabled":false,"rental_uris":{"android":"levelo://app?vid=6ea1c15e-5b74-4575-9f55-3622c6e19603","ios":"levelo://app?vid=6ea1c15e-5b74-4575-9f55-3622c6e19603"},"vehicle_type_id":"4","last_reported":1766142620,"current_range_meters":7200,"station_id":"ce4bhb12rcd13ifvqem0","pricing_plan_id":"cebpf4jnsgd1na2vs0mg"},{"bike_id":"21e5fd9f-e5d4-4aeb-929a-a23be3e8819d","system_id":"levelo_inurba_marseille","lat":43.30933,"lon":5.40141,"is_reserved":false,"is_disabled":false,"rental_uris":{"android":"levelo://app?vid=21e5fd9f-e5d4-4aeb-929a-a23be3e8819d","ios":"levelo://app?vid=21e5fd9f-e5d4-4aeb-929a-a23be3e8819d"},"vehicle_type_id":"4","last_reported":1766142620,"current_range_meters":7200,"station_id":"ce4bgvp2rcd13ifvqct0","pricing_plan_id":"cebpf4jnsgd1na2vs0mg"},{"bike_id":"467517c8-ed87-4e02-bef8-4ed63963538d","system_id":"levelo_inurba_marseille","lat":43.27181,"lon":5.41005,"is_reserved":false,"is_disabled":true,"rental_uris":{"android":"levelo://app?vid=467517c8-ed87-4e02-bef8-4ed63963538d","ios":"levelo://app?vid=467517c8-ed87-4e02-bef8-4ed63963538d"},"vehicle_type_id":"4","last_reported":1766142620,"current_range_meters":7200,"station_id":"ce4bhl12rcd13ifvqgf0","pricing_plan_id":"cebpf4jnsgd1na2vs0mg"},{"bike_id":"7ca36e65-29f2-4389-9847-4bff73ecf20a","system_id":"levelo_inurba_marseille","lat":43.32336,"lon":5.36734,"is_reserved":false,"is_disabled":false,"rental_uris":{"android":"levelo://app?vid=7ca36e65-29f2-4389-9847-4bff73ecf20a","ios":"levelo://app?vid=7ca36e65-29f2-4389-9847-4bff73ecf20a"},"vehicle_type_id":"4","last_reported":1766142620,"current_range_meters":7200,"station_id":"ce4bhsh2rcd13ifvqi2g","pricing_plan_id":"cebpf4jnsgd1na2vs0mg"},{"bike_id":"c63ccd62-9e0a-4e66-92ab-9a7e6a0ecf3e","system_id":"levelo_inurba_marseille","lat":43.28988,"lon":5.39073,"is_reserved":false,"is_disabled":false,"rental_uris":{"android":"levelo://app?vid=c63ccd62-9e0a-4e66-92ab-9a7e6a0ecf3e","ios":"levelo://app?vid=c63ccd62-9e0a-4e66-92ab-9a7e6a0ecf3e"},"vehicle_type_id":"4","last_reported":1766142620,"current_range_meters":7200,"station_id":"","pricing_plan_id":"cebpf4jnsgd1na2vs0mg"},{"bike_id":"dc6a2266-669a-4d11-8438-ed5e537aec04","system_id":"levelo_inurba_marseille","lat":43.3136,"lon":5.38499,"is_reserved":false,"is_disabled":false,"rental_uris":{"android":"levelo://app?vid=dc6a2266-669a-4d11-8438-ed5e537aec04","ios":"levelo://app?vid=dc6a2266-669a-4d11-8438-ed5e537aec04"},"vehicle_type_id":"4","last_reported":1766142620,"current_range_meters":8000,"station_id":"ce4bgt92rcd13ifvqcf0","pricing_plan_id":"cebpf4jnsgd1na2vs0mg"},{"bike_id":"cf0e2dfe-8751-4251-bbd3-3ad00be9f3ad","system_id":"levelo_inurba_marseille","lat":43.28502,"lon":5.48388,"is_reserved":false,"is_disabled":false,"rental_uris":{"android":"levelo://app?vid=cf0e2dfe-8751-4251-bbd3-3ad00be9f3ad","ios":"levelo://app?vid=cf0e2dfe-8751-4251-bbd3-3ad00be9f3ad"},"vehicle_type_id":"4","last_reported":1766142620,"current_range_meters":8000,"station_id":"","pricing_plan_id":"cebpf4jnsgd1na2vs0mg"},{"bike_id":"b2930c46-b7b7-4c68-aaaf-02e56fba4a18","system_id":"levelo_inurba_marseille","lat":43.305567,"lon":5.365524,"is_reserved":false,"is_disabled":false,"rental_uris":{"android":"levelo://app?vid=b2930c46-b7b7-4c68-aaaf-02e56fba4a18","ios":"levelo://app?vid=b2930c46-b7b7-4c68-aaaf-02e56fba4a18"},"vehicle_type_id":"4","last_reported":1766142620,"current_range_meters":8000,"station_id":"ce4bgs12rcd13ifvqcag","pricing_plan_id":"cebpf4jnsgd1na2vs0mg"},{"bike_id":"f0552324-7f16-45f2-af53-7d50398c0e4b","system_id":"levelo_inurba_marseille","lat":43.292074,"lon":5.393166,"is_reserved":false,"is_disabled":true,"rental_uris":{"android":"levelo://app?vid=f0552324-7f16-45f2-af53-7d50398c0e4b","ios":"levelo://app?vid=f0552324-7f16-45f2-af53-7d50398c0e4b"},"vehicle_type_id":"4","last_reported":1766142620,"current_range_meters":8000,"station_id":"ce4bh192rcd13ifvqdd0","pricing_plan_id":"cebpf4jnsgd1na2vs0mg"},{"bike_id":"4a614ce4-d61c-499d-8955-0569e02f377b","system_id":"levelo_inurba_marseille","lat":43.275141,"lon":5.372689,"is_reserved":false,"is_disabled":false,"rental_uris":{"android":"levelo://app?vid=4a614ce4-d61c-499d-8955-0569e02f377b","ios":"levelo://app?vid=4a614ce4-d61c-499d-8955-0569e02f377b"},"vehicle_type_id":"4","last_reported":1766142620,"current_range_meters":8400,"station_id":"","pricing_plan_id":"cebpf4jnsgd1na2vs0mg"},{"bike_id":"1e6b9ab6-11b1-4c99-beb7-30b30e8ec0aa","system_id":"levelo_inurba_marseille","lat":43.25348,"lon":5.42173,"is_reserved":false,"is_disabled":false,"rental_uris":{"android":"levelo://app?vid=1e6b9ab6-11b1-4c99-beb7-30b30e8ec0aa","ios":"levelo://app?vid=1e6b9ab6-11b1-4c99-beb7-30b30e8ec0aa"},"vehicle_type_id":"4","last_reported":1766142620,"current_range_meters":8400,"station_id":"st_d2m65c5bi1j21697t3ng","pricing_plan_id":"cebpf4jnsgd1na2vs0mg"},{"bike_id":"13d3967b-4cfe-47bf-8d35-564fb9330955","system_id":"levelo_inurba_marseille","lat":43.28406,"lon":5.375343,"is_reserved":false,"is_disabled":true,"rental_uris":{"android":"levelo://app?vid=13d3967b-4cfe-47bf-8d35-564fb9330955","ios":"levelo://app?vid=13d3967b-4cfe-47bf-8d35-564fb9330955"},"vehicle_type_id":"4","last_reported":1766142620,"current_range_meters":8400,"station_id":"ce4bh412rcd13ifvqds0","pricing_plan_id":"cebpf4jnsgd1na2vs0mg"},{"bike_id":"92e2511c-c371-4d33-95ca-5e7881da6b56","system_id":"levelo_inurba_marseille","lat":43.31361,"lon":5.367,"is_reserved":false,"is_disabled":false,"rental_uris":{"android":"levelo://app?vid=92e2511c-c371-4d33-95ca-5e7881da6b56","ios":"levelo://app?vid=92e2511c-c371-4d33-95ca-5e7881da6b56"},"vehicle_type_id":"4","last_reported":1766142620,"current_range_meters":8400,"station_id":"ce4bgr92rcd13ifvqc6g","pricing_plan_id":"cebpf4jnsgd1na2vs0mg"},{"bike_id":"8949e435-91fb-49ea-9c88-df37a6620e4b","system_id":"levelo_inurba_marseille","lat":43.29792,"lon":5.3808,"is_reserved":false,"is_disabled":false,"rental_uris":{"android":"levelo://app?vid=8949e435-91fb-49ea-9c88-df37a6620e4b","ios":"levelo://app?vid=8949e435-91fb-49ea-9c88-df37a6620e4b"},"vehicle_type_id":"4","last_reported":1766142620,"current_range_meters":8400,"station_id":"ce4bgip2rcd13ifvqbb0","pricing_plan_id":"cebpf4jnsgd1na2vs0mg"},{"bike_id":"e3545456-9ccd-47b9-9f35-1db0fbdf5c17","system_id":"levelo_inurba_marseille","lat":43.28526,"lon":5.44106,"is_reserved":false,"is_disabled":false,"rental_uris":{"android":"levelo://app?vid=e3545456-9ccd-47b9-9f35-1db0fbdf5c17","ios":"levelo://app?vid=e3545456-9ccd-47b9-9f35-1db0fbdf5c17"},"vehicle_type_id":"4","last_reported":1766142620,"current_range_meters":8400,"station_id":"st_d3j3df2ikq2c7380ej80","pricing_plan_id":"cebpf4jnsgd1na2vs0mg"},{"bike_id":"436e467e-3ef8-4484-b12e-82fd46509f97","system_id":"levelo_inurba_marseille","lat":43.232959,"lon":5.443907,"is_reserved":false,"is_disabled":false,"rental_uris":{"android":"levelo://app?vid=436e467e-3ef8-4484-b12e-82fd46509f97","ios":"levelo://app?vid=436e467e-3ef8-4484-b12e-82fd46509f97"},"vehicle_type_id":"4","last_reported":1766142620,"current_range_meters":8800,"station_id":"","pricing_plan_id":"cebpf4jnsgd1na2vs0mg"},{"bike_id":"0a598fce-978f-4f90-b03f-b8be1902feff","system_id":"levelo_inurba_marseille","lat":43.312805,"lon":5.37827,"is_reserved":false,"is_disabled":false,"rental_uris":{"android":"levelo://app?vid=0a598fce-978f-4f90-b03f-b8be1902feff","ios":"levelo://app?vid=0a598fce-978f-4f90-b03f-b8be1902feff"},"vehicle_type_id":"4","last_reported":1766142620,"current_range_meters":8800,"station_id":"","pricing_plan_id":"cebpf4jnsgd1na2vs0mg"},{"bike_id":"7646bb24-8e97-4ec7-8f0b-3bd06c67dd5d","system_id":"levelo_inurba_marseille","lat":43.31076,"lon":5.42433,"is_reserved":false,"is_disabled":false,"rental_uris":{"android":"levelo://app?vid=7646bb24-8e97-4ec7-8f0b-3bd06c67dd5d","ios":"levelo://app?vid=7646bb24-8e97-4ec7-8f0b-3bd06c67dd5d"},"vehicle_type_id":"4","last_reported":1766142620,"current_range_meters":8800,"station_id":"ce4bhp92rcd13ifvqhag","pricing_plan_id":"cebpf4jnsgd1na2vs0mg"},{"bike_id":"21773796-24c4-4fd9-837c-05f1753acd33","system_id":"levelo_inurba_marseille","lat":43.31124,"lon":5.37791,"is_reserved":false,"is_disabled":false,"rental_uris":{"android":"levelo://app?vid=21773796-24c4-4fd9-837c-05f1753acd33","ios":"levelo://app?vid=21773796-24c4-4fd9-837c-05f1753acd33"},"vehicle_type_id":"4","last_reported":1766142620,"current_range_meters":8800,"station_id":"ce4bgt92rcd13ifvqcg0","pricing_plan_id":"cebpf4jnsgd1na2vs0mg"},{"bike_id":"c430ca7e-2501-435b-b2b1-a77e31f5ae90","system_id":"levelo_inurba_marseille","lat":43.29599,"lon":5.38086,"is_reserved":false,"is_disabled":false,"rental_uris":{"android":"levelo://app?vid=c430ca7e-2501-435b-b2b1-a77e31f5ae90","ios":"levelo://app?vid=c430ca7e-2501-435b-b2b1-a77e31f5ae90"},"vehicle_type_id":"4","last_reported":1766142620,"current_range_meters":8800,"station_id":"ce4bgl12rcd13ifvqbo0","pricing_plan_id":"cebpf4jnsgd1na2vs0mg"},{"bike_id":"228ed5e4-a793-4f90-a46f-1e70b2793524","system_id":"levelo_inurba_marseille","lat":43.28613,"lon":5.39875,"is_reserved":false,"is_disabled":true,"rental_uris":{"android":"levelo://app?vid=228ed5e4-a793-4f90-a46f-1e70b2793524","ios":"levelo://app?vid=228ed5e4-a793-4f90-a46f-1e70b2793524"},"vehicle_type_id":"4","last_reported":1766142620,"current_range_meters":8800,"station_id":"st_d4a7ka997mjs738ck50g","pricing_plan_id":"cebpf4jnsgd1na2vs0mg"},{"bike_id":"c5365846-c619-4f12-8c92-97c9f9725a15","system_id":"levelo_inurba_marseille","lat":43.295,"lon":5.37932,"is_reserved":false,"is_disabled":false,"rental_uris":{"android":"levelo://app?vid=c5365846-c619-4f12-8c92-97c9f9725a15","ios":"levelo://app?vid=c5365846-c619-4f12-8c92-97c9f9725a15"},"vehicle_type_id":"4","last_reported":1766142620,"current_range_meters":8800,"station_id":"","pricing_plan_id":"cebpf4jnsgd1na2vs0mg"},{"bike_id":"fade1f76-6248-43fe-aeb9-7f93aeff737b","system_id":"levelo_inurba_marseille","lat":43.279215,"lon":5.39599,"is_reserved":false,"is_disabled":false,"rental_uris":{"android":"levelo://app?vid=fade1f76-6248-43fe-aeb9-7f93aeff737b","ios":"levelo://app?vid=fade1f76-6248-43fe-aeb9-7f93aeff737b"},"vehicle_type_id":"4","last_reported":1766142620,"current_range_meters":8800,"station_id":"ce4bhf92rcd13ifvqf40","pricing_plan_id":"cebpf4jnsgd1na2vs0mg"},{"bike_id":"5468063e-389f-4f8a-885a-ff84b80cef4c","system_id":"levelo_inurba_marseille","lat":43.29036,"lon":5.40012,"is_reserved":false,"is_disabled":false,"rental_uris":{"android":"levelo://app?vid=5468063e-389f-4f8a-885a-ff84b80cef4c","ios":"levelo://app?vid=5468063e-389f-4f8a-885a-ff84b80cef4c"},"vehicle_type_id":"4","last_reported":1766142620,"current_range_meters":8800,"station_id":"ce4bh392rcd13ifvqdm0","pricing_plan_id":"cebpf4jnsgd1na2vs0mg"},{"bike_id":"c2b60210-c2fc-42df-8a7f-5d2ba9cadabb","system_id":"levelo_inurba_marseille","lat":43.30948,"lon":5.3902,"is_reserved":false,"is_disabled":true,"rental_uris":{"android":"levelo://app?vid=c2b60210-c2fc-42df-8a7f-5d2ba9cadabb","ios":"levelo://app?vid=c2b60210-c2fc-42df-8a7f-5d2ba9cadabb"},"vehicle_type_id":"4","last_reported":1766142620,"current_range_meters":8800,"station_id":"ce4bgup2rcd13ifvqco0","pricing_plan_id":"cebpf4jnsgd1na2vs0mg"},{"bike_id":"8da87535-0100-4221-83f0-f383058c78a7","system_id":"levelo_inurba_marseille","lat":43.29004,"lon":5.38129,"is_reserved":false,"is_disabled":false,"rental_uris":{"android":"levelo://app?vid=8da87535-0100-4221-83f0-f383058c78a7","ios":"levelo://app?vid=8da87535-0100-4221-83f0-f383058c78a7"},"vehicle_type_id":"4","last_reported":1766142620,"current_range_meters":8800,"station_id":"ce4bh4p2rcd13ifvqe1g","pricing_plan_id":"cebpf4jnsgd1na2vs0mg"},{"bike_id":"aa0b0b74-1ac9-4c3e-afbb-3f0846536c61","system_id":"levelo_inurba_marseille","lat":43.293642,"lon":5.378356,"is_reserved":false,"is_disabled":false,"rental_uris":{"android":"levelo://app?vid=aa0b0b74-1ac9-4c3e-afbb-3f0846536c61","ios":"levelo://app?vid=aa0b0b74-1ac9-4c3e-afbb-3f0846536c61"},"vehicle_type_id":"4","last_reported":1766142620,"current_range_meters":9200,"station_id":"ce4bgjh2rcd13ifvqbf0","pricing_plan_id":"cebpf4jnsgd1na2vs0mg"},{"bike_id":"ee6f7e5c-24b4-4046-a3ec-072080785116","system_id":"levelo_inurba_marseille","lat":43.21746,"lon":5.34594,"is_reserved":false,"is_disabled":true,"rental_uris":{"android":"levelo://app?vid=ee6f7e5c-24b4-4046-a3ec-072080785116","ios":"levelo://app?vid=ee6f7e5c-24b4-4046-a3ec-072080785116"},"vehicle_type_id":"4","last_reported":1766142620,"current_range_meters":9200,"station_id":"st_cvj6r9ubvosntc0bgbag","pricing_plan_id":"cebpf4jnsgd1na2vs0mg"},{"bike_id":"d0dd282f-2c05-49dd-834d-6d93cee6c88a","system_id":"levelo_inurba_marseille","lat":43.301844,"lon":5.366143,"is_reserved":false,"is_disabled":true,"rental_uris":{"android":"levelo://app?vid=d0dd282f-2c05-49dd-834d-6d93cee6c88a","ios":"levelo://app?vid=d0dd282f-2c05-49dd-834d-6d93cee6c88a"},"vehicle_type_id":"4","last_reported":1766142620,"current_range_meters":9200,"station_id":"ce4bgrh2rcd13ifvqc8g","pricing_plan_id":"cebpf4jnsgd1na2vs0mg"},{"bike_id":"83827a3f-dff7-4bfc-af5f-3a355fb587e4","system_id":"levelo_inurba_marseille","lat":43.27057,"lon":5.40245,"is_reserved":false,"is_disabled":false,"rental_uris":{"android":"levelo://app?vid=83827a3f-dff7-4bfc-af5f-3a355fb587e4","ios":"levelo://app?vid=83827a3f-dff7-4bfc-af5f-3a355fb587e4"},"vehicle_type_id":"4","last_reported":1766142620,"current_range_meters":9200,"station_id":"ce4bhk92rcd13ifvqgc0","pricing_plan_id":"cebpf4jnsgd1na2vs0mg"},{"bike_id":"01a22ff4-19c2-4976-a549-24240c0f7d2f","system_id":"levelo_inurba_marseille","lat":43.25345,"lon":5.42179,"is_reserved":false,"is_disabled":false,"rental_uris":{"android":"levelo://app?vid=01a22ff4-19c2-4976-a549-24240c0f7d2f","ios":"levelo://app?vid=01a22ff4-19c2-4976-a549-24240c0f7d2f"},"vehicle_type_id":"4","last_reported":1766142620,"current_range_meters":9200,"station_id":"st_d2m65c5bi1j21697t3ng","pricing_plan_id":"cebpf4jnsgd1na2vs0mg"},{"bike_id":"374a0371-4968-4fe9-88a9-ac5ffa94b236","system_id":"levelo_inurba_marseille","lat":43.3149,"lon":5.45373,"is_reserved":false,"is_disabled":false,"rental_uris":{"android":"levelo://app?vid=374a0371-4968-4fe9-88a9-ac5ffa94b236","ios":"levelo://app?vid=374a0371-4968-4fe9-88a9-ac5ffa94b236"},"vehicle_type_id":"4","last_reported":1766142620,"current_range_meters":9200,"station_id":"","pricing_plan_id":"cebpf4jnsgd1na2vs0mg"},{"bike_id":"1626daf3-5722-4708-8aed-cbc8067f87db","system_id":"levelo_inurba_marseille","lat":43.28629,"lon":5.35112,"is_reserved":false,"is_disabled":false,"rental_uris":{"android":"levelo://app?vid=1626daf3-5722-4708-8aed-cbc8067f87db","ios":"levelo://app?vid=1626daf3-5722-4708-8aed-cbc8067f87db"},"vehicle_type_id":"4","last_reported":1766142620,"current_range_meters":9200,"station_id":"ce4bhch2rcd13ifvqeug","pricing_plan_id":"cebpf4jnsgd1na2vs0mg"},{"bike_id":"a6bb7fde-2db0-447e-8cac-38a0c3844ce6","system_id":"levelo_inurba_marseille","lat":43.277864,"lon":5.38854,"is_reserved":false,"is_disabled":false,"rental_uris":{"android":"levelo://app?vid=a6bb7fde-2db0-447e-8cac-38a0c3844ce6","ios":"levelo://app?vid=a6bb7fde-2db0-447e-8cac-38a0c3844ce6"},"vehicle_type_id":"4","last_reported":1766142620,"current_range_meters":9600,"station_id":"","pricing_plan_id":"cebpf4jnsgd1na2vs0mg"},{"bike_id":"600d55a4-2f20-4fd7-90f6-704497e65a89","system_id":"levelo_inurba_marseille","lat":43.292772,"lon":5.401137,"is_reserved":false,"is_disabled":false,"rental_uris":{"android":"levelo://app?vid=600d55a4-2f20-4fd7-90f6-704497e65a89","ios":"levelo://app?vid=600d55a4-2f20-4fd7-90f6-704497e65a89"},"vehicle_type_id":"4","last_reported":1766142620,"current_range_meters":9600,"station_id":"","pricing_plan_id":"cebpf4jnsgd1na2vs0mg"},{"bike_id":"3600545b-6af9-4527-916c-36a9c126b47e","system_id":"levelo_inurba_marseille","lat":43.30129,"lon":5.37422,"is_reserved":false,"is_disabled":false,"rental_uris":{"android":"levelo://app?vid=3600545b-6af9-4527-916c-36a9c126b47e","ios":"levelo://app?vid=3600545b-6af9-4527-916c-36a9c126b47e"},"vehicle_type_id":"4","last_reported":1766142620,"current_range_meters":9600,"station_id":"ce4bgs92rcd13ifvqcc0","pricing_plan_id":"cebpf4jnsgd1na2vs0mg"},{"bike_id":"56618555-07dd-421f-b982-e9c356439bd9","system_id":"levelo_inurba_marseille","lat":43.337444,"lon":5.374475,"is_reserved":false,"is_disabled":false,"rental_uris":{"android":"levelo://app?vid=56618555-07dd-421f-b982-e9c356439bd9","ios":"levelo://app?vid=56618555-07dd-421f-b982-e9c356439bd9"},"vehicle_type_id":"4","last_reported":1766142620,"current_range_meters":9600,"station_id":"cpo3342slgdg3j2ifvpg","pricing_plan_id":"cebpf4jnsgd1na2vs0mg"},{"bike_id":"f07708a6-82af-4792-a815-0ab5057b5c95","system_id":"levelo_inurba_marseille","lat":43.306446,"lon":5.400658,"is_reserved":false,"is_disabled":false,"rental_uris":{"android":"levelo://app?vid=f07708a6-82af-4792-a815-0ab5057b5c95","ios":"levelo://app?vid=f07708a6-82af-4792-a815-0ab5057b5c95"},"vehicle_type_id":"4","last_reported":1766142620,"current_range_meters":9600,"station_id":"ce4bh112rcd13ifvqda0","pricing_plan_id":"cebpf4jnsgd1na2vs0mg"},{"bike_id":"d50867a0-a974-4546-a28c-eba4c2e0b399","system_id":"levelo_inurba_marseille","lat":43.23196,"lon":5.3555,"is_reserved":false,"is_disabled":false,"rental_uris":{"android":"levelo://app?vid=d50867a0-a974-4546-a28c-eba4c2e0b399","ios":"levelo://app?vid=d50867a0-a974-4546-a28c-eba4c2e0b399"},"vehicle_type_id":"4","last_reported":1766142620,"current_range_meters":9600,"station_id":"ce4bhu92rcd13ifvqi70","pricing_plan_id":"cebpf4jnsgd1na2vs0mg"},{"bike_id":"1f8bf9e3-c9bd-4c05-9201-34f9580d25af","system_id":"levelo_inurba_marseille","lat":43.21169,"lon":5.35087,"is_reserved":false,"is_disabled":false,"rental_uris":{"android":"levelo://app?vid=1f8bf9e3-c9bd-4c05-9201-34f9580d25af","ios":"levelo://app?vid=1f8bf9e3-c9bd-4c05-9201-34f9580d25af"},"vehicle_type_id":"4","last_reported":1766142620,"current_range_meters":9600,"station_id":"st_cvj6sg6p6f1abm77japg","pricing_plan_id":"cebpf4jnsgd1na2vs0mg"},{"bike_id":"91dc96a9-ec51-4128-814e-ce3aa80480d3","system_id":"levelo_inurba_marseille","lat":43.30023,"lon":5.38087,"is_reserved":false,"is_disabled":false,"rental_uris":{"android":"levelo://app?vid=91dc96a9-ec51-4128-814e-ce3aa80480d3","ios":"levelo://app?vid=91dc96a9-ec51-4128-814e-ce3aa80480d3"},"vehicle_type_id":"4","last_reported":1766142620,"current_range_meters":9600,"station_id":"","pricing_plan_id":"cebpf4jnsgd1na2vs0mg"},{"bike_id":"da5282ec-6bd3-4c4d-b24b-a02d04b80815","system_id":"levelo_inurba_marseille","lat":43.24998,"lon":5.38944,"is_reserved":false,"is_disabled":false,"rental_uris":{"android":"levelo://app?vid=da5282ec-6bd3-4c4d-b24b-a02d04b80815","ios":"levelo://app?vid=da5282ec-6bd3-4c4d-b24b-a02d04b80815"},"vehicle_type_id":"4","last_reported":1766142620,"current_range_meters":9600,"station_id":"","pricing_plan_id":"cebpf4jnsgd1na2vs0mg"},{"bike_id":"a571a605-ea66-46fb-af76-c19ee8fe09cf","system_id":"levelo_inurba_marseille","lat":43.31162,"lon":5.3872,"is_reserved":false,"is_disabled":false,"rental_uris":{"android":"levelo://app?vid=a571a605-ea66-46fb-af76-c19ee8fe09cf","ios":"levelo://app?vid=a571a605-ea66-46fb-af76-c19ee8fe09cf"},"vehicle_type_id":"4","last_reported":1766142620,"current_range_meters":9600,"station_id":"ce4bgv12rcd13ifvqcp0","pricing_plan_id":"cebpf4jnsgd1na2vs0mg"},{"bike_id":"bd9f5726-57b9-4211-811f-03f39d31409a","system_id":"levelo_inurba_marseille","lat":43.26353,"lon":5.41089,"is_reserved":false,"is_disabled":false,"rental_uris":{"android":"levelo://app?vid=bd9f5726-57b9-4211-811f-03f39d31409a","ios":"levelo://app?vid=bd9f5726-57b9-4211-811f-03f39d31409a"},"vehicle_type_id":"4","last_reported":1766142620,"current_range_meters":9600,"station_id":"st_d4e5ca6na9uc73bfl5fg","pricing_plan_id":"cebpf4jnsgd1na2vs0mg"},{"bike_id":"3165b46a-3493-4d35-8deb-2335a6e8b422","system_id":"levelo_inurba_marseille","lat":43.25338,"lon":5.42143,"is_reserved":false,"is_disabled":false,"rental_uris":{"android":"levelo://app?vid=3165b46a-3493-4d35-8deb-2335a6e8b422","ios":"levelo://app?vid=3165b46a-3493-4d35-8deb-2335a6e8b422"},"vehicle_type_id":"4","last_reported":1766142620,"current_range_meters":9600,"station_id":"st_d2m65c5bi1j21697t3ng","pricing_plan_id":"cebpf4jnsgd1na2vs0mg"},{"bike_id":"2089392d-6463-48ba-9daa-f06a7da7f382","system_id":"levelo_inurba_marseille","lat":43.295302,"lon":5.375014,"is_reserved":false,"is_disabled":false,"rental_uris":{"android":"levelo://app?vid=2089392d-6463-48ba-9daa-f06a7da7f382","ios":"levelo://app?vid=2089392d-6463-48ba-9daa-f06a7da7f382"},"vehicle_type_id":"4","last_reported":1766142620,"current_range_meters":9600,"station_id":"ce4bgkp2rcd13ifvqbmg","pricing_plan_id":"cebpf4jnsgd1na2vs0mg"},{"bike_id":"305412fd-41fd-4f48-b0ce-d25b5a7eb63f","system_id":"levelo_inurba_marseille","lat":43.34574,"lon":5.38203,"is_reserved":false,"is_disabled":false,"rental_uris":{"android":"levelo://app?vid=305412fd-41fd-4f48-b0ce-d25b5a7eb63f","ios":"levelo://app?vid=305412fd-41fd-4f48-b0ce-d25b5a7eb63f"},"vehicle_type_id":"4","last_reported":1766142620,"current_range_meters":10000,"station_id":"","pricing_plan_id":"cebpf4jnsgd1na2vs0mg"},{"bike_id":"cf5eb2c1-c87d-4ae3-9256-41d8d82f1276","system_id":"levelo_inurba_marseille","lat":43.29227,"lon":5.360612,"is_reserved":false,"is_disabled":false,"rental_uris":{"android":"levelo://app?vid=cf5eb2c1-c87d-4ae3-9256-41d8d82f1276","ios":"levelo://app?vid=cf5eb2c1-c87d-4ae3-9256-41d8d82f1276"},"vehicle_type_id":"4","last_reported":1766142620,"current_range_meters":10000,"station_id":"ce4bhbh2rcd13ifvqeqg","pricing_plan_id":"cebpf4jnsgd1na2vs0mg"},{"bike_id":"8d6c33e5-a379-470a-a745-f7299c853194","system_id":"levelo_inurba_marseille","lat":43.263701,"lon":5.410858,"is_reserved":false,"is_disabled":false,"rental_uris":{"android":"levelo://app?vid=8d6c33e5-a379-470a-a745-f7299c853194","ios":"levelo://app?vid=8d6c33e5-a379-470a-a745-f7299c853194"},"vehicle_type_id":"4","last_reported":1766142620,"current_range_meters":10000,"station_id":"ce4bhb92rcd13ifvqen0","pricing_plan_id":"cebpf4jnsgd1na2vs0mg"},{"bike_id":"f3a4c2fd-c27a-4ca6-bbe5-3949d2a88808","system_id":"levelo_inurba_marseille","lat":43.28584,"lon":5.43,"is_reserved":false,"is_disabled":false,"rental_uris":{"android":"levelo://app?vid=f3a4c2fd-c27a-4ca6-bbe5-3949d2a88808","ios":"levelo://app?vid=f3a4c2fd-c27a-4ca6-bbe5-3949d2a88808"},"vehicle_type_id":"4","last_reported":1766142620,"current_range_meters":10000,"station_id":"","pricing_plan_id":"cebpf4jnsgd1na2vs0mg"},{"bike_id":"17a49efb-d179-4b85-b20c-4afe87c0613f","system_id":"levelo_inurba_marseille","lat":43.310516,"lon":5.37175,"is_reserved":false,"is_disabled":true,"rental_uris":{"android":"levelo://app?vid=17a49efb-d179-4b85-b20c-4afe87c0613f","ios":"levelo://app?vid=17a49efb-d179-4b85-b20c-4afe87c0613f"},"vehicle_type_id":"4","last_reported":1766142620,"current_range_meters":10000,"station_id":"st_d4kl2rp97mjs73e7tdfg","pricing_plan_id":"cebpf4jnsgd1na2vs0mg"},{"bike_id":"6ee09353-49a6-4450-aff0-bcc1b05ea875","system_id":"levelo_inurba_marseille","lat":43.28852,"lon":5.3585,"is_reserved":false,"is_disabled":false,"rental_uris":{"android":"levelo://app?vid=6ee09353-49a6-4450-aff0-bcc1b05ea875","ios":"levelo://app?vid=6ee09353-49a6-4450-aff0-bcc1b05ea875"},"vehicle_type_id":"4","last_reported":1766142620,"current_range_meters":10000,"station_id":"ce4bhb12rcd13ifvqem0","pricing_plan_id":"cebpf4jnsgd1na2vs0mg"},{"bike_id":"4a4511f8-e03d-4104-bc90-a58fb016d12a","system_id":"levelo_inurba_marseille","lat":43.31123,"lon":5.37781,"is_reserved":false,"is_disabled":false,"rental_uris":{"android":"levelo://app?vid=4a4511f8-e03d-4104-bc90-a58fb016d12a","ios":"levelo://app?vid=4a4511f8-e03d-4104-bc90-a58fb016d12a"},"vehicle_type_id":"4","last_reported":1766142620,"current_range_meters":10800,"station_id":"ce4bgt92rcd13ifvqcg0","pricing_plan_id":"cebpf4jnsgd1na2vs0mg"},{"bike_id":"221325bd-ec9a-4285-9407-f23495128f9a","system_id":"levelo_inurba_marseille","lat":43.29051,"lon":5.39959,"is_reserved":false,"is_disabled":false,"rental_uris":{"android":"levelo://app?vid=221325bd-ec9a-4285-9407-f23495128f9a","ios":"levelo://app?vid=221325bd-ec9a-4285-9407-f23495128f9a"},"vehicle_type_id":"4","last_reported":1766142620,"current_range_meters":10800,"station_id":"ce4bh392rcd13ifvqdm0","pricing_plan_id":"cebpf4jnsgd1na2vs0mg"},{"bike_id":"467de831-2f68-4e35-b5b7-2fd9784f5260","system_id":"levelo_inurba_marseille","lat":43.31358,"lon":5.36746,"is_reserved":false,"is_disabled":false,"rental_uris":{"android":"levelo://app?vid=467de831-2f68-4e35-b5b7-2fd9784f5260","ios":"levelo://app?vid=467de831-2f68-4e35-b5b7-2fd9784f5260"},"vehicle_type_id":"4","last_reported":1766142620,"current_range_meters":10800,"station_id":"ce4bgr92rcd13ifvqc6g","pricing_plan_id":"cebpf4jnsgd1na2vs0mg"},{"bike_id":"413557ff-13d9-40fb-81ee-6ad5e7d92bea","system_id":"levelo_inurba_marseille","lat":43.21176,"lon":5.35086,"is_reserved":false,"is_disabled":false,"rental_uris":{"android":"levelo://app?vid=413557ff-13d9-40fb-81ee-6ad5e7d92bea","ios":"levelo://app?vid=413557ff-13d9-40fb-81ee-6ad5e7d92bea"},"vehicle_type_id":"4","last_reported":1766142620,"current_range_meters":10800,"station_id":"st_cvj6sg6p6f1abm77japg","pricing_plan_id":"cebpf4jnsgd1na2vs0mg"},{"bike_id":"dfbce69e-f6e8-4b7d-b65d-85deba113350","system_id":"levelo_inurba_marseille","lat":43.282756,"lon":5.350746,"is_reserved":false,"is_disabled":false,"rental_uris":{"android":"levelo://app?vid=dfbce69e-f6e8-4b7d-b65d-85deba113350","ios":"levelo://app?vid=dfbce69e-f6e8-4b7d-b65d-85deba113350"},"vehicle_type_id":"4","last_reported":1766142620,"current_range_meters":10800,"station_id":"ce4bhbp2rcd13ifvqerg","pricing_plan_id":"cebpf4jnsgd1na2vs0mg"},{"bike_id":"212913cc-edbe-465e-9367-b63552bde39f","system_id":"levelo_inurba_marseille","lat":43.28986,"lon":5.35604,"is_reserved":false,"is_disabled":false,"rental_uris":{"android":"levelo://app?vid=212913cc-edbe-465e-9367-b63552bde39f","ios":"levelo://app?vid=212913cc-edbe-465e-9367-b63552bde39f"},"vehicle_type_id":"4","last_reported":1766142620,"current_range_meters":10800,"station_id":"ce4bhb92rcd13ifvqen0","pricing_plan_id":"cebpf4jnsgd1na2vs0mg"},{"bike_id":"28e7ea25-d676-49ca-8be6-ac1c19bc94ea","system_id":"levelo_inurba_marseille","lat":43.334065,"lon":5.400813,"is_reserved":false,"is_disabled":false,"rental_uris":{"android":"levelo://app?vid=28e7ea25-d676-49ca-8be6-ac1c19bc94ea","ios":"levelo://app?vid=28e7ea25-d676-49ca-8be6-ac1c19bc94ea"},"vehicle_type_id":"4","last_reported":1766142620,"current_range_meters":10800,"station_id":"","pricing_plan_id":"cebpf4jnsgd1na2vs0mg"},{"bike_id":"a995a60a-c8a4-454d-a12f-523b7a8e58ae","system_id":"levelo_inurba_marseille","lat":43.27494,"lon":5.42468,"is_reserved":false,"is_disabled":false,"rental_uris":{"android":"levelo://app?vid=a995a60a-c8a4-454d-a12f-523b7a8e58ae","ios":"levelo://app?vid=a995a60a-c8a4-454d-a12f-523b7a8e58ae"},"vehicle_type_id":"4","last_reported":1766142620,"current_range_meters":10800,"station_id":"ce4bhn92rcd13ifvqgrg","pricing_plan_id":"cebpf4jnsgd1na2vs0mg"},{"bike_id":"6ee4c9ab-838e-438b-9933-5a64b8c8b53e","system_id":"levelo_inurba_marseille","lat":43.29616,"lon":5.38081,"is_reserved":false,"is_disabled":false,"rental_uris":{"android":"levelo://app?vid=6ee4c9ab-838e-438b-9933-5a64b8c8b53e","ios":"levelo://app?vid=6ee4c9ab-838e-438b-9933-5a64b8c8b53e"},"vehicle_type_id":"4","last_reported":1766142620,"current_range_meters":10800,"station_id":"ce4bgl12rcd13ifvqbo0","pricing_plan_id":"cebpf4jnsgd1na2vs0mg"},{"bike_id":"387f8880-6730-4411-8f16-5c9cbbf8a4f7","system_id":"levelo_inurba_marseille","lat":43.30922,"lon":5.40154,"is_reserved":false,"is_disabled":false,"rental_uris":{"android":"levelo://app?vid=387f8880-6730-4411-8f16-5c9cbbf8a4f7","ios":"levelo://app?vid=387f8880-6730-4411-8f16-5c9cbbf8a4f7"},"vehicle_type_id":"4","last_reported":1766142620,"current_range_meters":11200,"station_id":"ce4bgvp2rcd13ifvqct0","pricing_plan_id":"cebpf4jnsgd1na2vs0mg"},{"bike_id":"18b0cfd7-5f30-4518-a382-b5b3311e5faf","system_id":"levelo_inurba_marseille","lat":43.29874,"lon":5.39732,"is_reserved":false,"is_disabled":false,"rental_uris":{"android":"levelo://app?vid=18b0cfd7-5f30-4518-a382-b5b3311e5faf","ios":"levelo://app?vid=18b0cfd7-5f30-4518-a382-b5b3311e5faf"},"vehicle_type_id":"4","last_reported":1766142620,"current_range_meters":11200,"station_id":"ce4bh0h2rcd13ifvqd50","pricing_plan_id":"cebpf4jnsgd1na2vs0mg"},{"bike_id":"ecbf33d1-ea9e-4c73-86a0-bbf927870a65","system_id":"levelo_inurba_marseille","lat":43.32341,"lon":5.3854,"is_reserved":false,"is_disabled":false,"rental_uris":{"android":"levelo://app?vid=ecbf33d1-ea9e-4c73-86a0-bbf927870a65","ios":"levelo://app?vid=ecbf33d1-ea9e-4c73-86a0-bbf927870a65"},"vehicle_type_id":"4","last_reported":1766142620,"current_range_meters":11200,"station_id":"st_d45171o9ee8s73djdqug","pricing_plan_id":"cebpf4jnsgd1na2vs0mg"},{"bike_id":"27c8e6be-d422-4208-903a-9bcccf07649a","system_id":"levelo_inurba_marseille","lat":43.30154,"lon":5.37417,"is_reserved":false,"is_disabled":false,"rental_uris":{"android":"levelo://app?vid=27c8e6be-d422-4208-903a-9bcccf07649a","ios":"levelo://app?vid=27c8e6be-d422-4208-903a-9bcccf07649a"},"vehicle_type_id":"4","last_reported":1766142620,"current_range_meters":11200,"station_id":"ce4bgs92rcd13ifvqcc0","pricing_plan_id":"cebpf4jnsgd1na2vs0mg"},{"bike_id":"700442f5-a082-454e-8bc7-ab3bbb77bfce","system_id":"levelo_inurba_marseille","lat":43.26641,"lon":5.37455,"is_reserved":false,"is_disabled":false,"rental_uris":{"android":"levelo://app?vid=700442f5-a082-454e-8bc7-ab3bbb77bfce","ios":"levelo://app?vid=700442f5-a082-454e-8bc7-ab3bbb77bfce"},"vehicle_type_id":"4","last_reported":1766142620,"current_range_meters":11200,"station_id":"","pricing_plan_id":"cebpf4jnsgd1na2vs0mg"},{"bike_id":"3c034401-8f6a-449e-b23f-1adc0cb90996","system_id":"levelo_inurba_marseille","lat":43.30947,"lon":5.39074,"is_reserved":false,"is_disabled":false,"rental_uris":{"android":"levelo://app?vid=3c034401-8f6a-449e-b23f-1adc0cb90996","ios":"levelo://app?vid=3c034401-8f6a-449e-b23f-1adc0cb90996"},"vehicle_type_id":"4","last_reported":1766142620,"current_range_meters":11200,"station_id":"ce4bgup2rcd13ifvqco0","pricing_plan_id":"cebpf4jnsgd1na2vs0mg"},{"bike_id":"76fb7a73-a5f9-4340-855e-fcbbe13e759a","system_id":"levelo_inurba_marseille","lat":43.31875,"lon":5.4,"is_reserved":false,"is_disabled":false,"rental_uris":{"android":"levelo://app?vid=76fb7a73-a5f9-4340-855e-fcbbe13e759a","ios":"levelo://app?vid=76fb7a73-a5f9-4340-855e-fcbbe13e759a"},"vehicle_type_id":"4","last_reported":1766142620,"current_range_meters":11600,"station_id":"","pricing_plan_id":"cebpf4jnsgd1na2vs0mg"},{"bike_id":"8f4a549b-344a-4fc6-aab0-739441a53b76","system_id":"levelo_inurba_marseille","lat":43.31091,"lon":5.42433,"is_reserved":false,"is_disabled":false,"rental_uris":{"android":"levelo://app?vid=8f4a549b-344a-4fc6-aab0-739441a53b76","ios":"levelo://app?vid=8f4a549b-344a-4fc6-aab0-739441a53b76"},"vehicle_type_id":"4","last_reported":1766142620,"current_range_meters":11600,"station_id":"ce4bhp92rcd13ifvqhag","pricing_plan_id":"cebpf4jnsgd1na2vs0mg"},{"bike_id":"5c1f0183-cbe5-4a9e-a493-d80ce3862cbd","system_id":"levelo_inurba_marseille","lat":43.32104,"lon":5.36762,"is_reserved":false,"is_disabled":false,"rental_uris":{"android":"levelo://app?vid=5c1f0183-cbe5-4a9e-a493-d80ce3862cbd","ios":"levelo://app?vid=5c1f0183-cbe5-4a9e-a493-d80ce3862cbd"},"vehicle_type_id":"4","last_reported":1766142620,"current_range_meters":11600,"station_id":"ce4bhrh2rcd13ifvqhug","pricing_plan_id":"cebpf4jnsgd1na2vs0mg"},{"bike_id":"d6bc7465-ed58-4731-8353-a1bf1c3037e6","system_id":"levelo_inurba_marseille","lat":43.26563,"lon":5.40332,"is_reserved":false,"is_disabled":false,"rental_uris":{"android":"levelo://app?vid=d6bc7465-ed58-4731-8353-a1bf1c3037e6","ios":"levelo://app?vid=d6bc7465-ed58-4731-8353-a1bf1c3037e6"},"vehicle_type_id":"4","last_reported":1766142620,"current_range_meters":11600,"station_id":"ce4bhmp2rcd13ifvqgng","pricing_plan_id":"cebpf4jnsgd1na2vs0mg"},{"bike_id":"05bd41fd-2fcb-4ca8-9913-d07b67ddb482","system_id":"levelo_inurba_marseille","lat":43.33619,"lon":5.41021,"is_reserved":false,"is_disabled":false,"rental_uris":{"android":"levelo://app?vid=05bd41fd-2fcb-4ca8-9913-d07b67ddb482","ios":"levelo://app?vid=05bd41fd-2fcb-4ca8-9913-d07b67ddb482"},"vehicle_type_id":"4","last_reported":1766142620,"current_range_meters":11600,"station_id":"ce4bhqh2rcd13ifvqhmg","pricing_plan_id":"cebpf4jnsgd1na2vs0mg"},{"bike_id":"51850788-6d18-4067-a22e-183a3dbd8b5e","system_id":"levelo_inurba_marseille","lat":43.28618,"lon":5.35109,"is_reserved":false,"is_disabled":false,"rental_uris":{"android":"levelo://app?vid=51850788-6d18-4067-a22e-183a3dbd8b5e","ios":"levelo://app?vid=51850788-6d18-4067-a22e-183a3dbd8b5e"},"vehicle_type_id":"4","last_reported":1766142620,"current_range_meters":11600,"station_id":"ce4bhch2rcd13ifvqeug","pricing_plan_id":"cebpf4jnsgd1na2vs0mg"},{"bike_id":"935b76e0-10f2-48ca-8df1-cf8115faada4","system_id":"levelo_inurba_marseille","lat":43.31215,"lon":5.36871,"is_reserved":false,"is_disabled":false,"rental_uris":{"android":"levelo://app?vid=935b76e0-10f2-48ca-8df1-cf8115faada4","ios":"levelo://app?vid=935b76e0-10f2-48ca-8df1-cf8115faada4"},"vehicle_type_id":"4","last_reported":1766142620,"current_range_meters":11600,"station_id":"ce4bgl92rcd13ifvqbq0","pricing_plan_id":"cebpf4jnsgd1na2vs0mg"},{"bike_id":"689e1e25-96b9-418c-bbe1-0e8f9558c52f","system_id":"levelo_inurba_marseille","lat":43.31375,"lon":5.3774,"is_reserved":false,"is_disabled":false,"rental_uris":{"android":"levelo://app?vid=689e1e25-96b9-418c-bbe1-0e8f9558c52f","ios":"levelo://app?vid=689e1e25-96b9-418c-bbe1-0e8f9558c52f"},"vehicle_type_id":"4","last_reported":1766142620,"current_range_meters":11600,"station_id":"","pricing_plan_id":"cebpf4jnsgd1na2vs0mg"},{"bike_id":"3fb9850a-6ed6-418d-a320-b48707f5b464","system_id":"levelo_inurba_marseille","lat":43.27806,"lon":5.40733,"is_reserved":false,"is_disabled":false,"rental_uris":{"android":"levelo://app?vid=3fb9850a-6ed6-418d-a320-b48707f5b464","ios":"levelo://app?vid=3fb9850a-6ed6-418d-a320-b48707f5b464"},"vehicle_type_id":"4","last_reported":1766142620,"current_range_meters":11600,"station_id":"ce4bhnh2rcd13ifvqgtg","pricing_plan_id":"cebpf4jnsgd1na2vs0mg"},{"bike_id":"1c79eb29-135e-40c1-8651-901759d4aaa6","system_id":"levelo_inurba_marseille","lat":43.28568,"lon":5.3531,"is_reserved":false,"is_disabled":false,"rental_uris":{"android":"levelo://app?vid=1c79eb29-135e-40c1-8651-901759d4aaa6","ios":"levelo://app?vid=1c79eb29-135e-40c1-8651-901759d4aaa6"},"vehicle_type_id":"4","last_reported":1766142620,"current_range_meters":12000,"station_id":"","pricing_plan_id":"cebpf4jnsgd1na2vs0mg"},{"bike_id":"dcebbb45-765e-44b9-9596-1f8fdae0f25e","system_id":"levelo_inurba_marseille","lat":43.24625,"lon":5.38883,"is_reserved":false,"is_disabled":false,"rental_uris":{"android":"levelo://app?vid=dcebbb45-765e-44b9-9596-1f8fdae0f25e","ios":"levelo://app?vid=dcebbb45-765e-44b9-9596-1f8fdae0f25e"},"vehicle_type_id":"4","last_reported":1766142620,"current_range_meters":12000,"station_id":"ce4bhg12rcd13ifvqf60","pricing_plan_id":"cebpf4jnsgd1na2vs0mg"},{"bike_id":"ec6401bf-06e9-4881-946b-649f2b1df2d1","system_id":"levelo_inurba_marseille","lat":43.25327,"lon":5.42187,"is_reserved":false,"is_disabled":false,"rental_uris":{"android":"levelo://app?vid=ec6401bf-06e9-4881-946b-649f2b1df2d1","ios":"levelo://app?vid=ec6401bf-06e9-4881-946b-649f2b1df2d1"},"vehicle_type_id":"4","last_reported":1766142620,"current_range_meters":12000,"station_id":"st_d2m65c5bi1j21697t3ng","pricing_plan_id":"cebpf4jnsgd1na2vs0mg"},{"bike_id":"1b242f74-0031-42b6-9e71-062aba3f7d85","system_id":"levelo_inurba_marseille","lat":43.253387,"lon":5.421689,"is_reserved":false,"is_disabled":false,"rental_uris":{"android":"levelo://app?vid=1b242f74-0031-42b6-9e71-062aba3f7d85","ios":"levelo://app?vid=1b242f74-0031-42b6-9e71-062aba3f7d85"},"vehicle_type_id":"4","last_reported":1766142620,"current_range_meters":12000,"station_id":"st_d2m65c5bi1j21697t3ng","pricing_plan_id":"cebpf4jnsgd1na2vs0mg"},{"bike_id":"8965bd2e-8152-488c-82f6-eca1ad732749","system_id":"levelo_inurba_marseille","lat":43.312804,"lon":5.401662,"is_reserved":false,"is_disabled":false,"rental_uris":{"android":"levelo://app?vid=8965bd2e-8152-488c-82f6-eca1ad732749","ios":"levelo://app?vid=8965bd2e-8152-488c-82f6-eca1ad732749"},"vehicle_type_id":"4","last_reported":1766142620,"current_range_meters":12000,"station_id":"ce4bh092rcd13ifvqd30","pricing_plan_id":"cebpf4jnsgd1na2vs0mg"},{"bike_id":"545c4cd4-8ff2-4661-8441-b5febf6eec48","system_id":"levelo_inurba_marseille","lat":43.337444,"lon":5.374475,"is_reserved":false,"is_disabled":false,"rental_uris":{"android":"levelo://app?vid=545c4cd4-8ff2-4661-8441-b5febf6eec48","ios":"levelo://app?vid=545c4cd4-8ff2-4661-8441-b5febf6eec48"},"vehicle_type_id":"4","last_reported":1766142620,"current_range_meters":12000,"station_id":"cpo3342slgdg3j2ifvpg","pricing_plan_id":"cebpf4jnsgd1na2vs0mg"},{"bike_id":"24df08af-7a2c-4580-b263-bcb3f62d73e3","system_id":"levelo_inurba_marseille","lat":43.24471,"lon":5.42545,"is_reserved":false,"is_disabled":false,"rental_uris":{"android":"levelo://app?vid=24df08af-7a2c-4580-b263-bcb3f62d73e3","ios":"levelo://app?vid=24df08af-7a2c-4580-b263-bcb3f62d73e3"},"vehicle_type_id":"4","last_reported":1766142620,"current_range_meters":12000,"station_id":"st_d4a3vfp97mjs738cd8kg","pricing_plan_id":"cebpf4jnsgd1na2vs0mg"},{"bike_id":"fdde03c4-f3c6-4562-b5d1-e681d3e4b56e","system_id":"levelo_inurba_marseille","lat":43.32363,"lon":5.36742,"is_reserved":false,"is_disabled":false,"rental_uris":{"android":"levelo://app?vid=fdde03c4-f3c6-4562-b5d1-e681d3e4b56e","ios":"levelo://app?vid=fdde03c4-f3c6-4562-b5d1-e681d3e4b56e"},"vehicle_type_id":"4","last_reported":1766142620,"current_range_meters":12400,"station_id":"ce4bhsh2rcd13ifvqi2g","pricing_plan_id":"cebpf4jnsgd1na2vs0mg"},{"bike_id":"47b454cd-01f9-4de3-b129-3f7a7abb6370","system_id":"levelo_inurba_marseille","lat":43.292215,"lon":5.360608,"is_reserved":false,"is_disabled":false,"rental_uris":{"android":"levelo://app?vid=47b454cd-01f9-4de3-b129-3f7a7abb6370","ios":"levelo://app?vid=47b454cd-01f9-4de3-b129-3f7a7abb6370"},"vehicle_type_id":"4","last_reported":1766142620,"current_range_meters":12400,"station_id":"ce4bhbh2rcd13ifvqeqg","pricing_plan_id":"cebpf4jnsgd1na2vs0mg"},{"bike_id":"ed0b0efc-7ff2-4ff0-8f38-23867c9755df","system_id":"levelo_inurba_marseille","lat":43.25346,"lon":5.42149,"is_reserved":false,"is_disabled":false,"rental_uris":{"android":"levelo://app?vid=ed0b0efc-7ff2-4ff0-8f38-23867c9755df","ios":"levelo://app?vid=ed0b0efc-7ff2-4ff0-8f38-23867c9755df"},"vehicle_type_id":"4","last_reported":1766142620,"current_range_meters":12400,"station_id":"st_d2m65c5bi1j21697t3ng","pricing_plan_id":"cebpf4jnsgd1na2vs0mg"},{"bike_id":"d674a729-c24a-42f8-8d99-54fc4e699b40","system_id":"levelo_inurba_marseille","lat":43.30776,"lon":5.3765,"is_reserved":false,"is_disabled":false,"rental_uris":{"android":"levelo://app?vid=d674a729-c24a-42f8-8d99-54fc4e699b40","ios":"levelo://app?vid=d674a729-c24a-42f8-8d99-54fc4e699b40"},"vehicle_type_id":"4","last_reported":1766142620,"current_range_meters":12400,"station_id":"ce4bgv92rcd13ifvqcq0","pricing_plan_id":"cebpf4jnsgd1na2vs0mg"},{"bike_id":"29ff8d65-fbca-42c1-b12e-cd4dc579808a","system_id":"levelo_inurba_marseille","lat":43.30151,"lon":5.37407,"is_reserved":false,"is_disabled":false,"rental_uris":{"android":"levelo://app?vid=29ff8d65-fbca-42c1-b12e-cd4dc579808a","ios":"levelo://app?vid=29ff8d65-fbca-42c1-b12e-cd4dc579808a"},"vehicle_type_id":"4","last_reported":1766142620,"current_range_meters":12400,"station_id":"ce4bgs92rcd13ifvqcc0","pricing_plan_id":"cebpf4jnsgd1na2vs0mg"},{"bike_id":"353191d5-c85e-4d2b-8a88-8af8c037e499","system_id":"levelo_inurba_marseille","lat":43.30133,"lon":5.37432,"is_reserved":false,"is_disabled":false,"rental_uris":{"android":"levelo://app?vid=353191d5-c85e-4d2b-8a88-8af8c037e499","ios":"levelo://app?vid=353191d5-c85e-4d2b-8a88-8af8c037e499"},"vehicle_type_id":"4","last_reported":1766142620,"current_range_meters":12400,"station_id":"ce4bgs92rcd13ifvqcc0","pricing_plan_id":"cebpf4jnsgd1na2vs0mg"},{"bike_id":"a8bb7bbc-85dc-488d-8db9-15a263115c98","system_id":"levelo_inurba_marseille","lat":43.29024,"lon":5.40042,"is_reserved":false,"is_disabled":false,"rental_uris":{"android":"levelo://app?vid=a8bb7bbc-85dc-488d-8db9-15a263115c98","ios":"levelo://app?vid=a8bb7bbc-85dc-488d-8db9-15a263115c98"},"vehicle_type_id":"4","last_reported":1766142620,"current_range_meters":12400,"station_id":"","pricing_plan_id":"cebpf4jnsgd1na2vs0mg"},{"bike_id":"67d835a6-21e4-471b-bcce-6e8b660c295a","system_id":"levelo_inurba_marseille","lat":43.28628,"lon":5.35104,"is_reserved":false,"is_disabled":false,"rental_uris":{"android":"levelo://app?vid=67d835a6-21e4-471b-bcce-6e8b660c295a","ios":"levelo://app?vid=67d835a6-21e4-471b-bcce-6e8b660c295a"},"vehicle_type_id":"4","last_reported":1766142620,"current_range_meters":12400,"station_id":"ce4bhch2rcd13ifvqeug","pricing_plan_id":"cebpf4jnsgd1na2vs0mg"},{"bike_id":"12ddb4c5-9a4d-4a0b-8db4-6d16d71da3e9","system_id":"levelo_inurba_marseille","lat":43.28746,"lon":5.352184,"is_reserved":false,"is_disabled":true,"rental_uris":{"android":"levelo://app?vid=12ddb4c5-9a4d-4a0b-8db4-6d16d71da3e9","ios":"levelo://app?vid=12ddb4c5-9a4d-4a0b-8db4-6d16d71da3e9"},"vehicle_type_id":"4","last_reported":1766142620,"current_range_meters":12800,"station_id":"","pricing_plan_id":"cebpf4jnsgd1na2vs0mg"},{"bike_id":"fcae12e9-dde1-430e-95a7-f5567d679aa5","system_id":"levelo_inurba_marseille","lat":43.29251,"lon":5.38451,"is_reserved":false,"is_disabled":true,"rental_uris":{"android":"levelo://app?vid=fcae12e9-dde1-430e-95a7-f5567d679aa5","ios":"levelo://app?vid=fcae12e9-dde1-430e-95a7-f5567d679aa5"},"vehicle_type_id":"4","last_reported":1766142620,"current_range_meters":12800,"station_id":"ce4bh692rcd13ifvqea0","pricing_plan_id":"cebpf4jnsgd1na2vs0mg"},{"bike_id":"eace70d9-abc4-463e-ad30-564a1fb2f71d","system_id":"levelo_inurba_marseille","lat":43.2587,"lon":5.39897,"is_reserved":false,"is_disabled":false,"rental_uris":{"android":"levelo://app?vid=eace70d9-abc4-463e-ad30-564a1fb2f71d","ios":"levelo://app?vid=eace70d9-abc4-463e-ad30-564a1fb2f71d"},"vehicle_type_id":"4","last_reported":1766142620,"current_range_meters":12800,"station_id":"ce4bhl92rcd13ifvqghg","pricing_plan_id":"cebpf4jnsgd1na2vs0mg"},{"bike_id":"128f68df-e6c8-471d-bf6e-3a9c347712de","system_id":"levelo_inurba_marseille","lat":43.29234,"lon":5.40898,"is_reserved":false,"is_disabled":false,"rental_uris":{"android":"levelo://app?vid=128f68df-e6c8-471d-bf6e-3a9c347712de","ios":"levelo://app?vid=128f68df-e6c8-471d-bf6e-3a9c347712de"},"vehicle_type_id":"4","last_reported":1766142620,"current_range_meters":12800,"station_id":"ce4bh192rcd13ifvqdc0","pricing_plan_id":"cebpf4jnsgd1na2vs0mg"},{"bike_id":"d4019682-44c3-455d-93b8-3f5cb1951937","system_id":"levelo_inurba_marseille","lat":43.26204,"lon":5.37451,"is_reserved":false,"is_disabled":false,"rental_uris":{"android":"levelo://app?vid=d4019682-44c3-455d-93b8-3f5cb1951937","ios":"levelo://app?vid=d4019682-44c3-455d-93b8-3f5cb1951937"},"vehicle_type_id":"4","last_reported":1766142620,"current_range_meters":12800,"station_id":"ce4bhgp2rcd13ifvqfc0","pricing_plan_id":"cebpf4jnsgd1na2vs0mg"},{"bike_id":"f1fe0e05-fe90-40dc-bf1c-51498d3a38bb","system_id":"levelo_inurba_marseille","lat":43.27374,"lon":5.36263,"is_reserved":false,"is_disabled":false,"rental_uris":{"android":"levelo://app?vid=f1fe0e05-fe90-40dc-bf1c-51498d3a38bb","ios":"levelo://app?vid=f1fe0e05-fe90-40dc-bf1c-51498d3a38bb"},"vehicle_type_id":"4","last_reported":1766142620,"current_range_meters":12800,"station_id":"ce4bhbh2rcd13ifvqeo0","pricing_plan_id":"cebpf4jnsgd1na2vs0mg"},{"bike_id":"d07b9d65-9fcf-4f23-95be-1330a9dbf58f","system_id":"levelo_inurba_marseille","lat":43.337444,"lon":5.374475,"is_reserved":false,"is_disabled":false,"rental_uris":{"android":"levelo://app?vid=d07b9d65-9fcf-4f23-95be-1330a9dbf58f","ios":"levelo://app?vid=d07b9d65-9fcf-4f23-95be-1330a9dbf58f"},"vehicle_type_id":"4","last_reported":1766142620,"current_range_meters":12800,"station_id":"","pricing_plan_id":"cebpf4jnsgd1na2vs0mg"},{"bike_id":"e0effb5a-e8c9-4234-ae32-e89cc890b254","system_id":"levelo_inurba_marseille","lat":43.28863,"lon":5.42522,"is_reserved":false,"is_disabled":false,"rental_uris":{"android":"levelo://app?vid=e0effb5a-e8c9-4234-ae32-e89cc890b254","ios":"levelo://app?vid=e0effb5a-e8c9-4234-ae32-e89cc890b254"},"vehicle_type_id":"4","last_reported":1766142620,"current_range_meters":12800,"station_id":"st_d3b462108ojc7389ooeg","pricing_plan_id":"cebpf4jnsgd1na2vs0mg"},{"bike_id":"9059853e-cbe4-4135-a44d-2e6b73d8c077","system_id":"levelo_inurba_marseille","lat":43.2975,"lon":5.42792,"is_reserved":false,"is_disabled":false,"rental_uris":{"android":"levelo://app?vid=9059853e-cbe4-4135-a44d-2e6b73d8c077","ios":"levelo://app?vid=9059853e-cbe4-4135-a44d-2e6b73d8c077"},"vehicle_type_id":"4","last_reported":1766142620,"current_range_meters":12800,"station_id":"st_d3md5207bmas73dh9klg","pricing_plan_id":"cebpf4jnsgd1na2vs0mg"},{"bike_id":"1d7a2ca0-8161-4459-b5d5-06113213bda9","system_id":"levelo_inurba_marseille","lat":43.23191,"lon":5.35563,"is_reserved":false,"is_disabled":false,"rental_uris":{"android":"levelo://app?vid=1d7a2ca0-8161-4459-b5d5-06113213bda9","ios":"levelo://app?vid=1d7a2ca0-8161-4459-b5d5-06113213bda9"},"vehicle_type_id":"4","last_reported":1766142620,"current_range_meters":12800,"station_id":"ce4bhu92rcd13ifvqi70","pricing_plan_id":"cebpf4jnsgd1na2vs0mg"},{"bike_id":"90054a0f-7707-4d38-a2c3-d622d9809e49","system_id":"levelo_inurba_marseille","lat":43.29768,"lon":5.42793,"is_reserved":false,"is_disabled":false,"rental_uris":{"android":"levelo://app?vid=90054a0f-7707-4d38-a2c3-d622d9809e49","ios":"levelo://app?vid=90054a0f-7707-4d38-a2c3-d622d9809e49"},"vehicle_type_id":"4","last_reported":1766142620,"current_range_meters":12800,"station_id":"st_d3md5207bmas73dh9klg","pricing_plan_id":"cebpf4jnsgd1na2vs0mg"},{"bike_id":"6ec9a6be-eed9-4adb-a34f-9a64c85ea37b","system_id":"levelo_inurba_marseille","lat":43.3065,"lon":5.37612,"is_reserved":false,"is_disabled":false,"rental_uris":{"android":"levelo://app?vid=6ec9a6be-eed9-4adb-a34f-9a64c85ea37b","ios":"levelo://app?vid=6ec9a6be-eed9-4adb-a34f-9a64c85ea37b"},"vehicle_type_id":"4","last_reported":1766142620,"current_range_meters":12800,"station_id":"","pricing_plan_id":"cebpf4jnsgd1na2vs0mg"},{"bike_id":"d5b984f5-f1f2-4013-9f55-4a8a19e0d74a","system_id":"levelo_inurba_marseille","lat":43.30126,"lon":5.39848,"is_reserved":false,"is_disabled":false,"rental_uris":{"android":"levelo://app?vid=d5b984f5-f1f2-4013-9f55-4a8a19e0d74a","ios":"levelo://app?vid=d5b984f5-f1f2-4013-9f55-4a8a19e0d74a"},"vehicle_type_id":"4","last_reported":1766142620,"current_range_meters":12800,"station_id":"ce4bh0h2rcd13ifvqd40","pricing_plan_id":"cebpf4jnsgd1na2vs0mg"},{"bike_id":"02cb24cc-e062-4b73-80fd-141f91a697f7","system_id":"levelo_inurba_marseille","lat":43.31565,"lon":5.37663,"is_reserved":false,"is_disabled":false,"rental_uris":{"android":"levelo://app?vid=02cb24cc-e062-4b73-80fd-141f91a697f7","ios":"levelo://app?vid=02cb24cc-e062-4b73-80fd-141f91a697f7"},"vehicle_type_id":"4","last_reported":1766142620,"current_range_meters":12800,"station_id":"","pricing_plan_id":"cebpf4jnsgd1na2vs0mg"},{"bike_id":"a53a38ba-72e7-48ca-acc5-aade36b9bf5b","system_id":"levelo_inurba_marseille","lat":43.2316,"lon":5.43711,"is_reserved":false,"is_disabled":false,"rental_uris":{"android":"levelo://app?vid=a53a38ba-72e7-48ca-acc5-aade36b9bf5b","ios":"levelo://app?vid=a53a38ba-72e7-48ca-acc5-aade36b9bf5b"},"vehicle_type_id":"4","last_reported":1766142620,"current_range_meters":12800,"station_id":"ce4bhmp2rcd13ifvqgog","pricing_plan_id":"cebpf4jnsgd1na2vs0mg"},{"bike_id":"d3fcd822-177c-4652-bd1b-c4847def5cc0","system_id":"levelo_inurba_marseille","lat":43.30633,"lon":5.40081,"is_reserved":false,"is_disabled":false,"rental_uris":{"android":"levelo://app?vid=d3fcd822-177c-4652-bd1b-c4847def5cc0","ios":"levelo://app?vid=d3fcd822-177c-4652-bd1b-c4847def5cc0"},"vehicle_type_id":"4","last_reported":1766142620,"current_range_meters":13600,"station_id":"ce4bh112rcd13ifvqda0","pricing_plan_id":"cebpf4jnsgd1na2vs0mg"},{"bike_id":"ea256e15-911b-4621-ad34-0da346b9761e","system_id":"levelo_inurba_marseille","lat":43.30423,"lon":5.378199,"is_reserved":false,"is_disabled":false,"rental_uris":{"android":"levelo://app?vid=ea256e15-911b-4621-ad34-0da346b9761e","ios":"levelo://app?vid=ea256e15-911b-4621-ad34-0da346b9761e"},"vehicle_type_id":"4","last_reported":1766142620,"current_range_meters":13600,"station_id":"ce4bgup2rcd13ifvqcn0","pricing_plan_id":"cebpf4jnsgd1na2vs0mg"},{"bike_id":"00a29bb1-88ca-440d-9219-07d673c689ed","system_id":"levelo_inurba_marseille","lat":43.29813,"lon":5.3635,"is_reserved":false,"is_disabled":false,"rental_uris":{"android":"levelo://app?vid=00a29bb1-88ca-440d-9219-07d673c689ed","ios":"levelo://app?vid=00a29bb1-88ca-440d-9219-07d673c689ed"},"vehicle_type_id":"4","last_reported":1766142620,"current_range_meters":13600,"station_id":"","pricing_plan_id":"cebpf4jnsgd1na2vs0mg"},{"bike_id":"67486f1b-a40b-4e91-8dc3-2d661fa8d1bb","system_id":"levelo_inurba_marseille","lat":43.29227,"lon":5.36058,"is_reserved":false,"is_disabled":false,"rental_uris":{"android":"levelo://app?vid=67486f1b-a40b-4e91-8dc3-2d661fa8d1bb","ios":"levelo://app?vid=67486f1b-a40b-4e91-8dc3-2d661fa8d1bb"},"vehicle_type_id":"4","last_reported":1766142620,"current_range_meters":13600,"station_id":"ce4bhbh2rcd13ifvqeqg","pricing_plan_id":"cebpf4jnsgd1na2vs0mg"},{"bike_id":"e1174ac3-8072-4001-8ce5-6d8228097e59","system_id":"levelo_inurba_marseille","lat":43.263702,"lon":5.410692,"is_reserved":false,"is_disabled":false,"rental_uris":{"android":"levelo://app?vid=e1174ac3-8072-4001-8ce5-6d8228097e59","ios":"levelo://app?vid=e1174ac3-8072-4001-8ce5-6d8228097e59"},"vehicle_type_id":"4","last_reported":1766142620,"current_range_meters":13600,"station_id":"","pricing_plan_id":"cebpf4jnsgd1na2vs0mg"},{"bike_id":"2804a5d3-faa8-4e3b-a458-ce91cd4919af","system_id":"levelo_inurba_marseille","lat":43.29234,"lon":5.36066,"is_reserved":false,"is_disabled":false,"rental_uris":{"android":"levelo://app?vid=2804a5d3-faa8-4e3b-a458-ce91cd4919af","ios":"levelo://app?vid=2804a5d3-faa8-4e3b-a458-ce91cd4919af"},"vehicle_type_id":"4","last_reported":1766142620,"current_range_meters":13600,"station_id":"ce4bhbh2rcd13ifvqeqg","pricing_plan_id":"cebpf4jnsgd1na2vs0mg"},{"bike_id":"d67904e3-d432-4bb6-9c59-13ac7cead46a","system_id":"levelo_inurba_marseille","lat":43.32347,"lon":5.36743,"is_reserved":false,"is_disabled":false,"rental_uris":{"android":"levelo://app?vid=d67904e3-d432-4bb6-9c59-13ac7cead46a","ios":"levelo://app?vid=d67904e3-d432-4bb6-9c59-13ac7cead46a"},"vehicle_type_id":"4","last_reported":1766142620,"current_range_meters":13600,"station_id":"ce4bhsh2rcd13ifvqi2g","pricing_plan_id":"cebpf4jnsgd1na2vs0mg"},{"bike_id":"0e831b8a-ba65-4401-84c3-afd3e8869534","system_id":"levelo_inurba_marseille","lat":43.29616,"lon":5.37152,"is_reserved":false,"is_disabled":false,"rental_uris":{"android":"levelo://app?vid=0e831b8a-ba65-4401-84c3-afd3e8869534","ios":"levelo://app?vid=0e831b8a-ba65-4401-84c3-afd3e8869534"},"vehicle_type_id":"4","last_reported":1766142620,"current_range_meters":13600,"station_id":"ce4bgnh2rcd13ifvqc0g","pricing_plan_id":"cebpf4jnsgd1na2vs0mg"},{"bike_id":"80e8783e-3db0-4d29-8267-328078fe1a78","system_id":"levelo_inurba_marseille","lat":43.250892,"lon":5.395248,"is_reserved":false,"is_disabled":false,"rental_uris":{"android":"levelo://app?vid=80e8783e-3db0-4d29-8267-328078fe1a78","ios":"levelo://app?vid=80e8783e-3db0-4d29-8267-328078fe1a78"},"vehicle_type_id":"4","last_reported":1766142620,"current_range_meters":13600,"station_id":"ce4bhm12rcd13ifvqgkg","pricing_plan_id":"cebpf4jnsgd1na2vs0mg"},{"bike_id":"bb9e8009-1b63-46b9-8f33-b6e7b8e01577","system_id":"levelo_inurba_marseille","lat":43.27503,"lon":5.42454,"is_reserved":false,"is_disabled":false,"rental_uris":{"android":"levelo://app?vid=bb9e8009-1b63-46b9-8f33-b6e7b8e01577","ios":"levelo://app?vid=bb9e8009-1b63-46b9-8f33-b6e7b8e01577"},"vehicle_type_id":"4","last_reported":1766142620,"current_range_meters":13600,"station_id":"ce4bhn92rcd13ifvqgrg","pricing_plan_id":"cebpf4jnsgd1na2vs0mg"},{"bike_id":"b1052a63-d500-4a53-b6b2-e15fe08b204e","system_id":"levelo_inurba_marseille","lat":43.29256,"lon":5.38427,"is_reserved":false,"is_disabled":false,"rental_uris":{"android":"levelo://app?vid=b1052a63-d500-4a53-b6b2-e15fe08b204e","ios":"levelo://app?vid=b1052a63-d500-4a53-b6b2-e15fe08b204e"},"vehicle_type_id":"4","last_reported":1766142620,"current_range_meters":13600,"station_id":"ce4bh692rcd13ifvqea0","pricing_plan_id":"cebpf4jnsgd1na2vs0mg"},{"bike_id":"340f8d30-ede3-427a-836c-03a47321f603","system_id":"levelo_inurba_marseille","lat":43.26237,"lon":5.40439,"is_reserved":false,"is_disabled":false,"rental_uris":{"android":"levelo://app?vid=340f8d30-ede3-427a-836c-03a47321f603","ios":"levelo://app?vid=340f8d30-ede3-427a-836c-03a47321f603"},"vehicle_type_id":"4","last_reported":1766142620,"current_range_meters":14000,"station_id":"ce4bhmh2rcd13ifvqgmg","pricing_plan_id":"cebpf4jnsgd1na2vs0mg"},{"bike_id":"b8b6113f-eddb-42aa-96c2-5658abfc32d2","system_id":"levelo_inurba_marseille","lat":43.24804,"lon":5.3743,"is_reserved":false,"is_disabled":false,"rental_uris":{"android":"levelo://app?vid=b8b6113f-eddb-42aa-96c2-5658abfc32d2","ios":"levelo://app?vid=b8b6113f-eddb-42aa-96c2-5658abfc32d2"},"vehicle_type_id":"4","last_reported":1766142620,"current_range_meters":14000,"station_id":"ce4bhgh2rcd13ifvqfb0","pricing_plan_id":"cebpf4jnsgd1na2vs0mg"},{"bike_id":"dcf784f4-8fb6-484a-a880-b53a6c3cae38","system_id":"levelo_inurba_marseille","lat":43.24463,"lon":5.42528,"is_reserved":false,"is_disabled":false,"rental_uris":{"android":"levelo://app?vid=dcf784f4-8fb6-484a-a880-b53a6c3cae38","ios":"levelo://app?vid=dcf784f4-8fb6-484a-a880-b53a6c3cae38"},"vehicle_type_id":"4","last_reported":1766142620,"current_range_meters":14000,"station_id":"st_d4a3vfp97mjs738cd8kg","pricing_plan_id":"cebpf4jnsgd1na2vs0mg"},{"bike_id":"342831ac-e927-49d6-8b43-22fa72e5bef8","system_id":"levelo_inurba_marseille","lat":43.28066,"lon":5.38745,"is_reserved":false,"is_disabled":false,"rental_uris":{"android":"levelo://app?vid=342831ac-e927-49d6-8b43-22fa72e5bef8","ios":"levelo://app?vid=342831ac-e927-49d6-8b43-22fa72e5bef8"},"vehicle_type_id":"4","last_reported":1766142620,"current_range_meters":14000,"station_id":"","pricing_plan_id":"cebpf4jnsgd1na2vs0mg"},{"bike_id":"17e6a6d7-a83e-4be6-ac4f-a147c0b56fba","system_id":"levelo_inurba_marseille","lat":43.23773,"lon":5.36665,"is_reserved":false,"is_disabled":false,"rental_uris":{"android":"levelo://app?vid=17e6a6d7-a83e-4be6-ac4f-a147c0b56fba","ios":"levelo://app?vid=17e6a6d7-a83e-4be6-ac4f-a147c0b56fba"},"vehicle_type_id":"4","last_reported":1766142620,"current_range_meters":14000,"station_id":"st_d3nk18o9ro0c73en2l3g","pricing_plan_id":"cebpf4jnsgd1na2vs0mg"},{"bike_id":"42db75f6-880b-4288-a1c4-83142dcba0de","system_id":"levelo_inurba_marseille","lat":43.25859,"lon":5.39897,"is_reserved":false,"is_disabled":false,"rental_uris":{"android":"levelo://app?vid=42db75f6-880b-4288-a1c4-83142dcba0de","ios":"levelo://app?vid=42db75f6-880b-4288-a1c4-83142dcba0de"},"vehicle_type_id":"4","last_reported":1766142620,"current_range_meters":14000,"station_id":"ce4bhl92rcd13ifvqghg","pricing_plan_id":"cebpf4jnsgd1na2vs0mg"},{"bike_id":"4493d340-f1c4-475d-8e6f-674e6519566b","system_id":"levelo_inurba_marseille","lat":43.28486,"lon":5.38569,"is_reserved":false,"is_disabled":false,"rental_uris":{"android":"levelo://app?vid=4493d340-f1c4-475d-8e6f-674e6519566b","ios":"levelo://app?vid=4493d340-f1c4-475d-8e6f-674e6519566b"},"vehicle_type_id":"4","last_reported":1766142620,"current_range_meters":14000,"station_id":"ce4bh8p2rcd13ifvqeb0","pricing_plan_id":"cebpf4jnsgd1na2vs0mg"},{"bike_id":"589dcbee-c6bd-4054-aaa3-f7eccae79d63","system_id":"levelo_inurba_marseille","lat":43.337444,"lon":5.374475,"is_reserved":false,"is_disabled":false,"rental_uris":{"android":"levelo://app?vid=589dcbee-c6bd-4054-aaa3-f7eccae79d63","ios":"levelo://app?vid=589dcbee-c6bd-4054-aaa3-f7eccae79d63"},"vehicle_type_id":"4","last_reported":1766142620,"current_range_meters":14000,"station_id":"","pricing_plan_id":"cebpf4jnsgd1na2vs0mg"},{"bike_id":"db6b0cc7-b9db-4628-83ce-019dc0f883ff","system_id":"levelo_inurba_marseille","lat":43.26554,"lon":5.39054,"is_reserved":false,"is_disabled":false,"rental_uris":{"android":"levelo://app?vid=db6b0cc7-b9db-4628-83ce-019dc0f883ff","ios":"levelo://app?vid=db6b0cc7-b9db-4628-83ce-019dc0f883ff"},"vehicle_type_id":"4","last_reported":1766142620,"current_range_meters":14400,"station_id":"ce4bhe12rcd13ifvqf30","pricing_plan_id":"cebpf4jnsgd1na2vs0mg"},{"bike_id":"7a43e231-defe-4efd-b06f-ab104624f90e","system_id":"levelo_inurba_marseille","lat":43.30139,"lon":5.37421,"is_reserved":false,"is_disabled":false,"rental_uris":{"android":"levelo://app?vid=7a43e231-defe-4efd-b06f-ab104624f90e","ios":"levelo://app?vid=7a43e231-defe-4efd-b06f-ab104624f90e"},"vehicle_type_id":"4","last_reported":1766142620,"current_range_meters":14400,"station_id":"ce4bgs92rcd13ifvqcc0","pricing_plan_id":"cebpf4jnsgd1na2vs0mg"},{"bike_id":"7d04a59d-052f-40a7-8094-4edf07c71710","system_id":"levelo_inurba_marseille","lat":43.2864,"lon":5.35108,"is_reserved":false,"is_disabled":false,"rental_uris":{"android":"levelo://app?vid=7d04a59d-052f-40a7-8094-4edf07c71710","ios":"levelo://app?vid=7d04a59d-052f-40a7-8094-4edf07c71710"},"vehicle_type_id":"4","last_reported":1766142620,"current_range_meters":14400,"station_id":"ce4bhch2rcd13ifvqeug","pricing_plan_id":"cebpf4jnsgd1na2vs0mg"},{"bike_id":"207776d7-b88e-48a6-b74f-2b1aae5e54c7","system_id":"levelo_inurba_marseille","lat":43.268961,"lon":5.387159,"is_reserved":false,"is_disabled":false,"rental_uris":{"android":"levelo://app?vid=207776d7-b88e-48a6-b74f-2b1aae5e54c7","ios":"levelo://app?vid=207776d7-b88e-48a6-b74f-2b1aae5e54c7"},"vehicle_type_id":"4","last_reported":1766142620,"current_range_meters":14400,"station_id":"","pricing_plan_id":"cebpf4jnsgd1na2vs0mg"},{"bike_id":"bb67b255-5e37-444f-b7a3-316dd67e2430","system_id":"levelo_inurba_marseille","lat":43.29177,"lon":5.35789,"is_reserved":false,"is_disabled":false,"rental_uris":{"android":"levelo://app?vid=bb67b255-5e37-444f-b7a3-316dd67e2430","ios":"levelo://app?vid=bb67b255-5e37-444f-b7a3-316dd67e2430"},"vehicle_type_id":"4","last_reported":1766142620,"current_range_meters":14400,"station_id":"ce4bgh92rcd13ifvqb40","pricing_plan_id":"cebpf4jnsgd1na2vs0mg"},{"bike_id":"8ddf5f0b-8638-4227-b0ee-efe27c023df6","system_id":"levelo_inurba_marseille","lat":43.308014,"lon":5.381433,"is_reserved":false,"is_disabled":false,"rental_uris":{"android":"levelo://app?vid=8ddf5f0b-8638-4227-b0ee-efe27c023df6","ios":"levelo://app?vid=8ddf5f0b-8638-4227-b0ee-efe27c023df6"},"vehicle_type_id":"4","last_reported":1766142620,"current_range_meters":14400,"station_id":"ce4bgjp2rcd13ifvqbh0","pricing_plan_id":"cebpf4jnsgd1na2vs0mg"},{"bike_id":"657677ff-bd0f-45b9-a985-0cee09b5fde2","system_id":"levelo_inurba_marseille","lat":43.31705,"lon":5.43722,"is_reserved":false,"is_disabled":false,"rental_uris":{"android":"levelo://app?vid=657677ff-bd0f-45b9-a985-0cee09b5fde2","ios":"levelo://app?vid=657677ff-bd0f-45b9-a985-0cee09b5fde2"},"vehicle_type_id":"4","last_reported":1766142620,"current_range_meters":14400,"station_id":"ce4bhp92rcd13ifvqhcg","pricing_plan_id":"cebpf4jnsgd1na2vs0mg"},{"bike_id":"5cfdf108-64c2-4b38-8628-9d012576cd8b","system_id":"levelo_inurba_marseille","lat":43.335405,"lon":5.374705,"is_reserved":false,"is_disabled":false,"rental_uris":{"android":"levelo://app?vid=5cfdf108-64c2-4b38-8628-9d012576cd8b","ios":"levelo://app?vid=5cfdf108-64c2-4b38-8628-9d012576cd8b"},"vehicle_type_id":"4","last_reported":1766142620,"current_range_meters":14400,"station_id":"st_d46tts09ee8s73dlu43g","pricing_plan_id":"cebpf4jnsgd1na2vs0mg"},{"bike_id":"60ad61fc-391b-40c3-a128-f2534fd6bf25","system_id":"levelo_inurba_marseille","lat":43.24376,"lon":5.371,"is_reserved":false,"is_disabled":false,"rental_uris":{"android":"levelo://app?vid=60ad61fc-391b-40c3-a128-f2534fd6bf25","ios":"levelo://app?vid=60ad61fc-391b-40c3-a128-f2534fd6bf25"},"vehicle_type_id":"4","last_reported":1766142620,"current_range_meters":14400,"station_id":"ce4bhhh2rcd13ifvqfk0","pricing_plan_id":"cebpf4jnsgd1na2vs0mg"},{"bike_id":"63daf17d-55c7-4d34-b6d5-5c96a2dfc377","system_id":"levelo_inurba_marseille","lat":43.29265,"lon":5.37652,"is_reserved":false,"is_disabled":false,"rental_uris":{"android":"levelo://app?vid=63daf17d-55c7-4d34-b6d5-5c96a2dfc377","ios":"levelo://app?vid=63daf17d-55c7-4d34-b6d5-5c96a2dfc377"},"vehicle_type_id":"4","last_reported":1766142620,"current_range_meters":14400,"station_id":"ce4bgi12rcd13ifvqb80","pricing_plan_id":"cebpf4jnsgd1na2vs0mg"},{"bike_id":"f1c6ef30-df40-4531-b632-19b3b8de3f93","system_id":"levelo_inurba_marseille","lat":43.337444,"lon":5.374475,"is_reserved":false,"is_disabled":false,"rental_uris":{"android":"levelo://app?vid=f1c6ef30-df40-4531-b632-19b3b8de3f93","ios":"levelo://app?vid=f1c6ef30-df40-4531-b632-19b3b8de3f93"},"vehicle_type_id":"4","last_reported":1766142620,"current_range_meters":14800,"station_id":"","pricing_plan_id":"cebpf4jnsgd1na2vs0mg"},{"bike_id":"fcd75001-1344-42ec-a013-2f4c6240ace8","system_id":"levelo_inurba_marseille","lat":43.29753,"lon":5.38661,"is_reserved":false,"is_disabled":false,"rental_uris":{"android":"levelo://app?vid=fcd75001-1344-42ec-a013-2f4c6240ace8","ios":"levelo://app?vid=fcd75001-1344-42ec-a013-2f4c6240ace8"},"vehicle_type_id":"4","last_reported":1766142620,"current_range_meters":14800,"station_id":"","pricing_plan_id":"cebpf4jnsgd1na2vs0mg"},{"bike_id":"3632f2ab-b221-4863-b774-2c55ea753df5","system_id":"levelo_inurba_marseille","lat":43.29808,"lon":5.38054,"is_reserved":false,"is_disabled":false,"rental_uris":{"android":"levelo://app?vid=3632f2ab-b221-4863-b774-2c55ea753df5","ios":"levelo://app?vid=3632f2ab-b221-4863-b774-2c55ea753df5"},"vehicle_type_id":"4","last_reported":1766142620,"current_range_meters":14800,"station_id":"","pricing_plan_id":"cebpf4jnsgd1na2vs0mg"},{"bike_id":"5dc013a0-6d5f-425a-8554-3da4042bc007","system_id":"levelo_inurba_marseille","lat":43.22922,"lon":5.35385,"is_reserved":false,"is_disabled":false,"rental_uris":{"android":"levelo://app?vid=5dc013a0-6d5f-425a-8554-3da4042bc007","ios":"levelo://app?vid=5dc013a0-6d5f-425a-8554-3da4042bc007"},"vehicle_type_id":"4","last_reported":1766142620,"current_range_meters":14800,"station_id":"cpo3532slgdg3j2ikp40","pricing_plan_id":"cebpf4jnsgd1na2vs0mg"},{"bike_id":"6dd02831-3476-40a3-9648-da8b220f9ce0","system_id":"levelo_inurba_marseille","lat":43.30119,"lon":5.38113,"is_reserved":false,"is_disabled":false,"rental_uris":{"android":"levelo://app?vid=6dd02831-3476-40a3-9648-da8b220f9ce0","ios":"levelo://app?vid=6dd02831-3476-40a3-9648-da8b220f9ce0"},"vehicle_type_id":"4","last_reported":1766142620,"current_range_meters":14800,"station_id":"ce4bgjp2rcd13ifvqbh0","pricing_plan_id":"cebpf4jnsgd1na2vs0mg"},{"bike_id":"6c7cdeb8-b2c3-4427-b73a-735e42079b93","system_id":"levelo_inurba_marseille","lat":43.26513,"lon":5.3953,"is_reserved":false,"is_disabled":false,"rental_uris":{"android":"levelo://app?vid=6c7cdeb8-b2c3-4427-b73a-735e42079b93","ios":"levelo://app?vid=6c7cdeb8-b2c3-4427-b73a-735e42079b93"},"vehicle_type_id":"4","last_reported":1766142620,"current_range_meters":14800,"station_id":"ce4bhi12rcd13ifvqfq0","pricing_plan_id":"cebpf4jnsgd1na2vs0mg"},{"bike_id":"62f5c004-1e9f-4d5e-afaa-33b08a7310d9","system_id":"levelo_inurba_marseille","lat":43.273622,"lon":5.393296,"is_reserved":false,"is_disabled":false,"rental_uris":{"android":"levelo://app?vid=62f5c004-1e9f-4d5e-afaa-33b08a7310d9","ios":"levelo://app?vid=62f5c004-1e9f-4d5e-afaa-33b08a7310d9"},"vehicle_type_id":"4","last_reported":1766142620,"current_range_meters":15200,"station_id":"","pricing_plan_id":"cebpf4jnsgd1na2vs0mg"},{"bike_id":"0fc20a45-8ff7-4ef9-a4f1-4e338576f4f7","system_id":"levelo_inurba_marseille","lat":43.3045,"lon":5.38888,"is_reserved":false,"is_disabled":false,"rental_uris":{"android":"levelo://app?vid=0fc20a45-8ff7-4ef9-a4f1-4e338576f4f7","ios":"levelo://app?vid=0fc20a45-8ff7-4ef9-a4f1-4e338576f4f7"},"vehicle_type_id":"4","last_reported":1766142620,"current_range_meters":15200,"station_id":"ce4bgk12rcd13ifvqbi0","pricing_plan_id":"cebpf4jnsgd1na2vs0mg"},{"bike_id":"99ad97c1-5a83-4b1c-9cf1-08492f7d7210","system_id":"levelo_inurba_marseille","lat":43.29249,"lon":5.409,"is_reserved":false,"is_disabled":false,"rental_uris":{"android":"levelo://app?vid=99ad97c1-5a83-4b1c-9cf1-08492f7d7210","ios":"levelo://app?vid=99ad97c1-5a83-4b1c-9cf1-08492f7d7210"},"vehicle_type_id":"4","last_reported":1766142620,"current_range_meters":15200,"station_id":"ce4bh192rcd13ifvqdc0","pricing_plan_id":"cebpf4jnsgd1na2vs0mg"},{"bike_id":"bcb638ec-1f7a-45bb-913f-62a7a0a453a1","system_id":"levelo_inurba_marseille","lat":43.29839,"lon":5.38579,"is_reserved":false,"is_disabled":false,"rental_uris":{"android":"levelo://app?vid=bcb638ec-1f7a-45bb-913f-62a7a0a453a1","ios":"levelo://app?vid=bcb638ec-1f7a-45bb-913f-62a7a0a453a1"},"vehicle_type_id":"4","last_reported":1766142620,"current_range_meters":15200,"station_id":"","pricing_plan_id":"cebpf4jnsgd1na2vs0mg"},{"bike_id":"aed44b94-9da3-4d3c-a739-39b49164f988","system_id":"levelo_inurba_marseille","lat":43.27072,"lon":5.42282,"is_reserved":false,"is_disabled":false,"rental_uris":{"android":"levelo://app?vid=aed44b94-9da3-4d3c-a739-39b49164f988","ios":"levelo://app?vid=aed44b94-9da3-4d3c-a739-39b49164f988"},"vehicle_type_id":"4","last_reported":1766142620,"current_range_meters":15200,"station_id":"ce4bhk92rcd13ifvqgb0","pricing_plan_id":"cebpf4jnsgd1na2vs0mg"},{"bike_id":"cd8ea67b-02ff-44a2-9f1e-0f06c2acc51a","system_id":"levelo_inurba_marseille","lat":43.3317,"lon":5.37656,"is_reserved":false,"is_disabled":false,"rental_uris":{"android":"levelo://app?vid=cd8ea67b-02ff-44a2-9f1e-0f06c2acc51a","ios":"levelo://app?vid=cd8ea67b-02ff-44a2-9f1e-0f06c2acc51a"},"vehicle_type_id":"4","last_reported":1766142620,"current_range_meters":15200,"station_id":"st_d46cu089ee8s73dldbu0","pricing_plan_id":"cebpf4jnsgd1na2vs0mg"},{"bike_id":"0d9297ce-f2d0-4d3a-b34b-40c0d18a1dd9","system_id":"levelo_inurba_marseille","lat":43.22908,"lon":5.35375,"is_reserved":false,"is_disabled":true,"rental_uris":{"android":"levelo://app?vid=0d9297ce-f2d0-4d3a-b34b-40c0d18a1dd9","ios":"levelo://app?vid=0d9297ce-f2d0-4d3a-b34b-40c0d18a1dd9"},"vehicle_type_id":"4","last_reported":1766142620,"current_range_meters":15200,"station_id":"cpo3532slgdg3j2ikp40","pricing_plan_id":"cebpf4jnsgd1na2vs0mg"},{"bike_id":"0d303fc7-606f-4943-9629-57c31a744736","system_id":"levelo_inurba_marseille","lat":43.285345,"lon":5.440974,"is_reserved":false,"is_disabled":false,"rental_uris":{"android":"levelo://app?vid=0d303fc7-606f-4943-9629-57c31a744736","ios":"levelo://app?vid=0d303fc7-606f-4943-9629-57c31a744736"},"vehicle_type_id":"4","last_reported":1766142620,"current_range_meters":15200,"station_id":"st_d3j3df2ikq2c7380ej80","pricing_plan_id":"cebpf4jnsgd1na2vs0mg"},{"bike_id":"73cc0dc4-9f6a-4c82-8edc-f26d80fb76a4","system_id":"levelo_inurba_marseille","lat":43.308051,"lon":5.381537,"is_reserved":false,"is_disabled":false,"rental_uris":{"android":"levelo://app?vid=73cc0dc4-9f6a-4c82-8edc-f26d80fb76a4","ios":"levelo://app?vid=73cc0dc4-9f6a-4c82-8edc-f26d80fb76a4"},"vehicle_type_id":"4","last_reported":1766142620,"current_range_meters":15200,"station_id":"ce4bgt12rcd13ifvqce0","pricing_plan_id":"cebpf4jnsgd1na2vs0mg"},{"bike_id":"b3209cad-600b-4d77-a062-3b110acc5940","system_id":"levelo_inurba_marseille","lat":43.337165,"lon":5.39186,"is_reserved":false,"is_disabled":false,"rental_uris":{"android":"levelo://app?vid=b3209cad-600b-4d77-a062-3b110acc5940","ios":"levelo://app?vid=b3209cad-600b-4d77-a062-3b110acc5940"},"vehicle_type_id":"4","last_reported":1766142620,"current_range_meters":15200,"station_id":"","pricing_plan_id":"cebpf4jnsgd1na2vs0mg"},{"bike_id":"bcfb7497-ca0f-41a9-9700-e18117c50009","system_id":"levelo_inurba_marseille","lat":43.30649,"lon":5.40108,"is_reserved":false,"is_disabled":false,"rental_uris":{"android":"levelo://app?vid=bcfb7497-ca0f-41a9-9700-e18117c50009","ios":"levelo://app?vid=bcfb7497-ca0f-41a9-9700-e18117c50009"},"vehicle_type_id":"4","last_reported":1766142620,"current_range_meters":15200,"station_id":"ce4bh112rcd13ifvqda0","pricing_plan_id":"cebpf4jnsgd1na2vs0mg"},{"bike_id":"aa8be09f-7ae6-49cc-a1d3-ad9b024bba3d","system_id":"levelo_inurba_marseille","lat":43.2958,"lon":5.4228,"is_reserved":false,"is_disabled":false,"rental_uris":{"android":"levelo://app?vid=aa8be09f-7ae6-49cc-a1d3-ad9b024bba3d","ios":"levelo://app?vid=aa8be09f-7ae6-49cc-a1d3-ad9b024bba3d"},"vehicle_type_id":"4","last_reported":1766142620,"current_range_meters":15200,"station_id":"ce4bhph2rcd13ifvqhdg","pricing_plan_id":"cebpf4jnsgd1na2vs0mg"},{"bike_id":"9db9525b-b8b9-4be1-b8a6-eba8fccfec66","system_id":"levelo_inurba_marseille","lat":43.253308,"lon":5.421644,"is_reserved":false,"is_disabled":false,"rental_uris":{"android":"levelo://app?vid=9db9525b-b8b9-4be1-b8a6-eba8fccfec66","ios":"levelo://app?vid=9db9525b-b8b9-4be1-b8a6-eba8fccfec66"},"vehicle_type_id":"4","last_reported":1766142620,"current_range_meters":15200,"station_id":"st_d2m65c5bi1j21697t3ng","pricing_plan_id":"cebpf4jnsgd1na2vs0mg"},{"bike_id":"8fcf17e9-6f12-40c5-b477-90499f0bb83c","system_id":"levelo_inurba_marseille","lat":43.337444,"lon":5.374475,"is_reserved":false,"is_disabled":false,"rental_uris":{"android":"levelo://app?vid=8fcf17e9-6f12-40c5-b477-90499f0bb83c","ios":"levelo://app?vid=8fcf17e9-6f12-40c5-b477-90499f0bb83c"},"vehicle_type_id":"4","last_reported":1766142620,"current_range_meters":16000,"station_id":"","pricing_plan_id":"cebpf4jnsgd1na2vs0mg"},{"bike_id":"63b71f61-0ce8-4f6b-8098-b32775a7e568","system_id":"levelo_inurba_marseille","lat":43.32102,"lon":5.36774,"is_reserved":false,"is_disabled":false,"rental_uris":{"android":"levelo://app?vid=63b71f61-0ce8-4f6b-8098-b32775a7e568","ios":"levelo://app?vid=63b71f61-0ce8-4f6b-8098-b32775a7e568"},"vehicle_type_id":"4","last_reported":1766142620,"current_range_meters":16000,"station_id":"ce4bhrh2rcd13ifvqhug","pricing_plan_id":"cebpf4jnsgd1na2vs0mg"},{"bike_id":"c770c5ef-15e0-436a-803e-ab05afe1a0d7","system_id":"levelo_inurba_marseille","lat":43.29615,"lon":5.37716,"is_reserved":false,"is_disabled":false,"rental_uris":{"android":"levelo://app?vid=c770c5ef-15e0-436a-803e-ab05afe1a0d7","ios":"levelo://app?vid=c770c5ef-15e0-436a-803e-ab05afe1a0d7"},"vehicle_type_id":"4","last_reported":1766142620,"current_range_meters":16000,"station_id":"ce4bgi92rcd13ifvqb90","pricing_plan_id":"cebpf4jnsgd1na2vs0mg"},{"bike_id":"4c6371cd-3444-4a6d-896a-7ee2fb82ed15","system_id":"levelo_inurba_marseille","lat":43.244713,"lon":5.425481,"is_reserved":false,"is_disabled":false,"rental_uris":{"android":"levelo://app?vid=4c6371cd-3444-4a6d-896a-7ee2fb82ed15","ios":"levelo://app?vid=4c6371cd-3444-4a6d-896a-7ee2fb82ed15"},"vehicle_type_id":"4","last_reported":1766142620,"current_range_meters":16000,"station_id":"st_d4a3vfp97mjs738cd8kg","pricing_plan_id":"cebpf4jnsgd1na2vs0mg"},{"bike_id":"4717226a-30f1-4131-8a9b-e3d1426584ce","system_id":"levelo_inurba_marseille","lat":43.31485,"lon":5.37302,"is_reserved":false,"is_disabled":false,"rental_uris":{"android":"levelo://app?vid=4717226a-30f1-4131-8a9b-e3d1426584ce","ios":"levelo://app?vid=4717226a-30f1-4131-8a9b-e3d1426584ce"},"vehicle_type_id":"4","last_reported":1766142620,"current_range_meters":16000,"station_id":"ce4bgt12rcd13ifvqcd0","pricing_plan_id":"cebpf4jnsgd1na2vs0mg"},{"bike_id":"537c2515-56e5-41cc-bab9-5d4c6d888975","system_id":"levelo_inurba_marseille","lat":43.31323,"lon":5.39711,"is_reserved":false,"is_disabled":false,"rental_uris":{"android":"levelo://app?vid=537c2515-56e5-41cc-bab9-5d4c6d888975","ios":"levelo://app?vid=537c2515-56e5-41cc-bab9-5d4c6d888975"},"vehicle_type_id":"4","last_reported":1766142620,"current_range_meters":16000,"station_id":"ce4bgvp2rcd13ifvqcu0","pricing_plan_id":"cebpf4jnsgd1na2vs0mg"},{"bike_id":"8e61577e-d41b-44cf-98e8-16081bd4d9a6","system_id":"levelo_inurba_marseille","lat":43.29565,"lon":5.37517,"is_reserved":false,"is_disabled":false,"rental_uris":{"android":"levelo://app?vid=8e61577e-d41b-44cf-98e8-16081bd4d9a6","ios":"levelo://app?vid=8e61577e-d41b-44cf-98e8-16081bd4d9a6"},"vehicle_type_id":"4","last_reported":1766142620,"current_range_meters":16000,"station_id":"ce4bgh92rcd13ifvqb50","pricing_plan_id":"cebpf4jnsgd1na2vs0mg"},{"bike_id":"c2368f23-7bcd-4c72-af08-a84c442a2ae2","system_id":"levelo_inurba_marseille","lat":43.275601,"lon":5.384098,"is_reserved":false,"is_disabled":false,"rental_uris":{"android":"levelo://app?vid=c2368f23-7bcd-4c72-af08-a84c442a2ae2","ios":"levelo://app?vid=c2368f23-7bcd-4c72-af08-a84c442a2ae2"},"vehicle_type_id":"4","last_reported":1766142620,"current_range_meters":16000,"station_id":"ce4bhh92rcd13ifvqfi0","pricing_plan_id":"cebpf4jnsgd1na2vs0mg"},{"bike_id":"20e9dd8e-ed66-4bff-9188-35cbfde59a24","system_id":"levelo_inurba_marseille","lat":43.32323,"lon":5.39369,"is_reserved":false,"is_disabled":false,"rental_uris":{"android":"levelo://app?vid=20e9dd8e-ed66-4bff-9188-35cbfde59a24","ios":"levelo://app?vid=20e9dd8e-ed66-4bff-9188-35cbfde59a24"},"vehicle_type_id":"4","last_reported":1766142620,"current_range_meters":16000,"station_id":"","pricing_plan_id":"cebpf4jnsgd1na2vs0mg"},{"bike_id":"eaa78c39-81ae-4e60-b205-821feda66770","system_id":"levelo_inurba_marseille","lat":43.27176,"lon":5.39214,"is_reserved":false,"is_disabled":false,"rental_uris":{"android":"levelo://app?vid=eaa78c39-81ae-4e60-b205-821feda66770","ios":"levelo://app?vid=eaa78c39-81ae-4e60-b205-821feda66770"},"vehicle_type_id":"4","last_reported":1766142620,"current_range_meters":16000,"station_id":"","pricing_plan_id":"cebpf4jnsgd1na2vs0mg"},{"bike_id":"e18d88c4-447f-4613-ac8f-5a6e3bb9a21c","system_id":"levelo_inurba_marseille","lat":43.29816,"lon":5.44073,"is_reserved":false,"is_disabled":false,"rental_uris":{"android":"levelo://app?vid=e18d88c4-447f-4613-ac8f-5a6e3bb9a21c","ios":"levelo://app?vid=e18d88c4-447f-4613-ac8f-5a6e3bb9a21c"},"vehicle_type_id":"4","last_reported":1766142620,"current_range_meters":16000,"station_id":"st_d3jp68qikq2c7381ktn0","pricing_plan_id":"cebpf4jnsgd1na2vs0mg"},{"bike_id":"025bcf3c-9127-4e0c-b7ed-8709d35ce958","system_id":"levelo_inurba_marseille","lat":43.31533,"lon":5.37327,"is_reserved":false,"is_disabled":false,"rental_uris":{"android":"levelo://app?vid=025bcf3c-9127-4e0c-b7ed-8709d35ce958","ios":"levelo://app?vid=025bcf3c-9127-4e0c-b7ed-8709d35ce958"},"vehicle_type_id":"4","last_reported":1766142620,"current_range_meters":16400,"station_id":"","pricing_plan_id":"cebpf4jnsgd1na2vs0mg"},{"bike_id":"29f4586e-a24a-4834-a195-c73b547e5869","system_id":"levelo_inurba_marseille","lat":43.32335,"lon":5.36734,"is_reserved":false,"is_disabled":false,"rental_uris":{"android":"levelo://app?vid=29f4586e-a24a-4834-a195-c73b547e5869","ios":"levelo://app?vid=29f4586e-a24a-4834-a195-c73b547e5869"},"vehicle_type_id":"4","last_reported":1766142620,"current_range_meters":16400,"station_id":"ce4bhsh2rcd13ifvqi2g","pricing_plan_id":"cebpf4jnsgd1na2vs0mg"},{"bike_id":"960000b9-5f6a-4874-8ba2-61bf0329fc25","system_id":"levelo_inurba_marseille","lat":43.30636,"lon":5.41051,"is_reserved":false,"is_disabled":false,"rental_uris":{"android":"levelo://app?vid=960000b9-5f6a-4874-8ba2-61bf0329fc25","ios":"levelo://app?vid=960000b9-5f6a-4874-8ba2-61bf0329fc25"},"vehicle_type_id":"4","last_reported":1766142620,"current_range_meters":16400,"station_id":"","pricing_plan_id":"cebpf4jnsgd1na2vs0mg"},{"bike_id":"9e1886ee-5978-4b4e-a4ad-7b1a3973e38d","system_id":"levelo_inurba_marseille","lat":43.311717,"lon":5.387126,"is_reserved":false,"is_disabled":false,"rental_uris":{"android":"levelo://app?vid=9e1886ee-5978-4b4e-a4ad-7b1a3973e38d","ios":"levelo://app?vid=9e1886ee-5978-4b4e-a4ad-7b1a3973e38d"},"vehicle_type_id":"4","last_reported":1766142620,"current_range_meters":16400,"station_id":"ce4bgv12rcd13ifvqcp0","pricing_plan_id":"cebpf4jnsgd1na2vs0mg"},{"bike_id":"3dfe5889-af27-4d32-8d39-acf5edcdf83e","system_id":"levelo_inurba_marseille","lat":43.32527,"lon":5.37502,"is_reserved":false,"is_disabled":false,"rental_uris":{"android":"levelo://app?vid=3dfe5889-af27-4d32-8d39-acf5edcdf83e","ios":"levelo://app?vid=3dfe5889-af27-4d32-8d39-acf5edcdf83e"},"vehicle_type_id":"4","last_reported":1766142620,"current_range_meters":16400,"station_id":"","pricing_plan_id":"cebpf4jnsgd1na2vs0mg"},{"bike_id":"f5d65f97-1d44-4e87-ad69-28de4d76573d","system_id":"levelo_inurba_marseille","lat":43.33756,"lon":5.3743,"is_reserved":false,"is_disabled":false,"rental_uris":{"android":"levelo://app?vid=f5d65f97-1d44-4e87-ad69-28de4d76573d","ios":"levelo://app?vid=f5d65f97-1d44-4e87-ad69-28de4d76573d"},"vehicle_type_id":"4","last_reported":1766142620,"current_range_meters":16400,"station_id":"","pricing_plan_id":"cebpf4jnsgd1na2vs0mg"},{"bike_id":"f2364b2e-178e-40c8-8681-6c34f1d777d6","system_id":"levelo_inurba_marseille","lat":43.307754,"lon":5.376444,"is_reserved":false,"is_disabled":true,"rental_uris":{"android":"levelo://app?vid=f2364b2e-178e-40c8-8681-6c34f1d777d6","ios":"levelo://app?vid=f2364b2e-178e-40c8-8681-6c34f1d777d6"},"vehicle_type_id":"4","last_reported":1766142620,"current_range_meters":16400,"station_id":"ce4bgv92rcd13ifvqcq0","pricing_plan_id":"cebpf4jnsgd1na2vs0mg"},{"bike_id":"d6d2bb3a-fbb7-4a3d-8530-972c5de173fe","system_id":"levelo_inurba_marseille","lat":43.231979,"lon":5.355559,"is_reserved":false,"is_disabled":false,"rental_uris":{"android":"levelo://app?vid=d6d2bb3a-fbb7-4a3d-8530-972c5de173fe","ios":"levelo://app?vid=d6d2bb3a-fbb7-4a3d-8530-972c5de173fe"},"vehicle_type_id":"4","last_reported":1766142620,"current_range_meters":16400,"station_id":"ce4bhu92rcd13ifvqi70","pricing_plan_id":"cebpf4jnsgd1na2vs0mg"},{"bike_id":"19f83498-9c2c-438c-9319-9c90e9928c89","system_id":"levelo_inurba_marseille","lat":43.30285,"lon":5.37742,"is_reserved":false,"is_disabled":false,"rental_uris":{"android":"levelo://app?vid=19f83498-9c2c-438c-9319-9c90e9928c89","ios":"levelo://app?vid=19f83498-9c2c-438c-9319-9c90e9928c89"},"vehicle_type_id":"4","last_reported":1766142620,"current_range_meters":16400,"station_id":"ce4bguh2rcd13ifvqcj0","pricing_plan_id":"cebpf4jnsgd1na2vs0mg"},{"bike_id":"06c5fccb-feb8-4ccd-ba7b-a53b73e5ec3a","system_id":"levelo_inurba_marseille","lat":43.26944,"lon":5.3893,"is_reserved":false,"is_disabled":false,"rental_uris":{"android":"levelo://app?vid=06c5fccb-feb8-4ccd-ba7b-a53b73e5ec3a","ios":"levelo://app?vid=06c5fccb-feb8-4ccd-ba7b-a53b73e5ec3a"},"vehicle_type_id":"4","last_reported":1766142620,"current_range_meters":16400,"station_id":"ce4bhhh2rcd13ifvqfl0","pricing_plan_id":"cebpf4jnsgd1na2vs0mg"},{"bike_id":"6bb7cf08-cc4f-43ae-aed3-8d6ab6b6c137","system_id":"levelo_inurba_marseille","lat":43.33155,"lon":5.37709,"is_reserved":false,"is_disabled":false,"rental_uris":{"android":"levelo://app?vid=6bb7cf08-cc4f-43ae-aed3-8d6ab6b6c137","ios":"levelo://app?vid=6bb7cf08-cc4f-43ae-aed3-8d6ab6b6c137"},"vehicle_type_id":"4","last_reported":1766142620,"current_range_meters":16400,"station_id":"st_d46cu089ee8s73dldbu0","pricing_plan_id":"cebpf4jnsgd1na2vs0mg"},{"bike_id":"2a1e36a3-38af-415c-87af-b602a5d01c78","system_id":"levelo_inurba_marseille","lat":43.312753,"lon":5.401803,"is_reserved":false,"is_disabled":false,"rental_uris":{"android":"levelo://app?vid=2a1e36a3-38af-415c-87af-b602a5d01c78","ios":"levelo://app?vid=2a1e36a3-38af-415c-87af-b602a5d01c78"},"vehicle_type_id":"4","last_reported":1766142620,"current_range_meters":16400,"station_id":"","pricing_plan_id":"cebpf4jnsgd1na2vs0mg"},{"bike_id":"5aa6494d-0eee-4a3c-bc5e-0d25343561e5","system_id":"levelo_inurba_marseille","lat":43.270582,"lon":5.383012,"is_reserved":false,"is_disabled":false,"rental_uris":{"android":"levelo://app?vid=5aa6494d-0eee-4a3c-bc5e-0d25343561e5","ios":"levelo://app?vid=5aa6494d-0eee-4a3c-bc5e-0d25343561e5"},"vehicle_type_id":"4","last_reported":1766142620,"current_range_meters":16400,"station_id":"st_d3n2fo6cfp8s73cte1j0","pricing_plan_id":"cebpf4jnsgd1na2vs0mg"},