{"last_updated":1784374980,"ttl":60,"version":"2.2","data":{"bikes":[{"bike_id":"ba0c28b1-8732-48e2-8079-f25b2b3fbc3c","system_id":"levelo_inurba_marseille","lat":43.337444,"lon":5.374475,"is_reserved":false,"is_disabled":false,"rental_uris":{"android":"levelo://app?vid=ba0c28b1-8732-48e2-8079-f25b2b3fbc3c","ios":"levelo://app?vid=ba0c28b1-8732-48e2-8079-f25b2b3fbc3c"},"vehicle_type_id":"4","last_reported":1784374981,"current_range_meters":0,"station_id":"","pricing_plan_id":"cebpf4jnsgd1na2vs0mg"},{"bike_id":"efef664a-3e3f-4e2f-8b55-eb16bec52017","system_id":"levelo_inurba_marseille","lat":43.30651,"lon":5.401,"is_reserved":false,"is_disabled":false,"rental_uris":{"android":"levelo://app?vid=efef664a-3e3f-4e2f-8b55-eb16bec52017","ios":"levelo://app?vid=efef664a-3e3f-4e2f-8b55-eb16bec52017"},"vehicle_type_id":"4","last_reported":1784374981,"current_range_meters":17200,"station_id":"ce4bh112rcd13ifvqda0","pricing_plan_id":"cebpf4jnsgd1na2vs0mg"},{"bike_id":"8dee376d-a075-42bb-b6d2-fbd88615acc6","system_id":"levelo_inurba_marseille","lat":43.29531,"lon":5.37541,"is_reserved":false,"is_disabled":false,"rental_uris":{"android":"levelo://app?vid=8dee376d-a075-42bb-b6d2-fbd88615acc6","ios":"levelo://app?vid=8dee376d-a075-42bb-b6d2-fbd88615acc6"},"vehicle_type_id":"4","last_reported":1784374981,"current_range_meters":32000,"station_id":"ce4bgkp2rcd13ifvqbmg","pricing_plan_id":"cebpf4jnsgd1na2vs0mg"},{"bike_id":"63dc20ac-90f4-4eae-ac6c-d24ae13a7929","system_id":"levelo_inurba_marseille","lat":43.25367,"lon":5.42194,"is_reserved":false,"is_disabled":false,"rental_uris":{"android":"levelo://app?vid=63dc20ac-90f4-4eae-ac6c-d24ae13a7929","ios":"levelo://app?vid=63dc20ac-90f4-4eae-ac6c-d24ae13a7929"},"vehicle_type_id":"4","last_reported":1784374981,"current_range_meters":32800,"station_id":"st_d2m65c5bi1j21697t3ng","pricing_plan_id":"cebpf4jnsgd1na2vs0mg"},{"bike_id":"6e6f6dae-936f-41d5-baca-6df8291a6b4a","system_id":"levelo_inurba_marseille","lat":43.29317,"lon":5.40141,"is_reserved":false,"is_disabled":false,"rental_uris":{"android":"levelo://app?vid=6e6f6dae-936f-41d5-baca-6df8291a6b4a","ios":"levelo://app?vid=6e6f6dae-936f-41d5-baca-6df8291a6b4a"},"vehicle_type_id":"4","last_reported":1784374981,"current_range_meters":17600,"station_id":"","pricing_plan_id":"cebpf4jnsgd1na2vs0mg"},{"bike_id":"33e6a9a9-dba5-4ff9-b2d6-5d0bc9c3b28f","system_id":"levelo_inurba_marseille","lat":43.30533,"lon":5.3654,"is_reserved":false,"is_disabled":false,"rental_uris":{"android":"levelo://app?vid=33e6a9a9-dba5-4ff9-b2d6-5d0bc9c3b28f","ios":"levelo://app?vid=33e6a9a9-dba5-4ff9-b2d6-5d0bc9c3b28f"},"vehicle_type_id":"4","last_reported":1784374981,"current_range_meters":22000,"station_id":"ce4bgs12rcd13ifvqcag","pricing_plan_id":"cebpf4jnsgd1na2vs0mg"},{"bike_id":"e2c87284-8916-4c55-a672-5b39f2ec067d","system_id":"levelo_inurba_marseille","lat":43.29278,"lon":5.40121,"is_reserved":false,"is_disabled":false,"rental_uris":{"android":"levelo://app?vid=e2c87284-8916-4c55-a672-5b39f2ec067d","ios":"levelo://app?vid=e2c87284-8916-4c55-a672-5b39f2ec067d"},"vehicle_type_id":"4","last_reported":1784374981,"current_range_meters":14000,"station_id":"ce4bh312rcd13ifvqdk0","pricing_plan_id":"cebpf4jnsgd1na2vs0mg"},{"bike_id":"96d9dfc3-d000-45ed-a92a-b6b266fbe727","system_id":"levelo_inurba_marseille","lat":43.24172,"lon":5.39755,"is_reserved":false,"is_disabled":false,"rental_uris":{"android":"levelo://app?vid=96d9dfc3-d000-45ed-a92a-b6b266fbe727","ios":"levelo://app?vid=96d9dfc3-d000-45ed-a92a-b6b266fbe727"},"vehicle_type_id":"4","last_reported":1784374981,"current_range_meters":28800,"station_id":"ce4bhn12rcd13ifvqgpg","pricing_plan_id":"cebpf4jnsgd1na2vs0mg"},{"bike_id":"4bc585f4-7b34-4ea3-a909-abcff49c2177","system_id":"levelo_inurba_marseille","lat":43.21747,"lon":5.34604,"is_reserved":false,"is_disabled":false,"rental_uris":{"android":"levelo://app?vid=4bc585f4-7b34-4ea3-a909-abcff49c2177","ios":"levelo://app?vid=4bc585f4-7b34-4ea3-a909-abcff49c2177"},"vehicle_type_id":"4","last_reported":1784374981,"current_range_meters":9600,"station_id":"st_cvj6r9ubvosntc0bgbag","pricing_plan_id":"cebpf4jnsgd1na2vs0mg"},{"bike_id":"70966810-cf69-4aec-842d-13ff88a398b0","system_id":"levelo_inurba_marseille","lat":43.28008,"lon":5.36928,"is_reserved":false,"is_disabled":false,"rental_uris":{"android":"levelo://app?vid=70966810-cf69-4aec-842d-13ff88a398b0","ios":"levelo://app?vid=70966810-cf69-4aec-842d-13ff88a398b0"},"vehicle_type_id":"4","last_reported":1784374981,"current_range_meters":32800,"station_id":"ce4bha12rcd13ifvqef0","pricing_plan_id":"cebpf4jnsgd1na2vs0mg"},{"bike_id":"7af3fbdb-bc12-4fe9-9db7-8c531c6ed524","system_id":"levelo_inurba_marseille","lat":43.28925,"lon":5.36627,"is_reserved":false,"is_disabled":false,"rental_uris":{"android":"levelo://app?vid=7af3fbdb-bc12-4fe9-9db7-8c531c6ed524","ios":"levelo://app?vid=7af3fbdb-bc12-4fe9-9db7-8c531c6ed524"},"vehicle_type_id":"4","last_reported":1784374981,"current_range_meters":19600,"station_id":"ce4bhap2rcd13ifvqek0","pricing_plan_id":"cebpf4jnsgd1na2vs0mg"},{"bike_id":"9da5cadf-cdd1-429b-9b5e-9173177dfcc4","system_id":"levelo_inurba_marseille","lat":43.24386,"lon":5.37097,"is_reserved":false,"is_disabled":false,"rental_uris":{"android":"levelo://app?vid=9da5cadf-cdd1-429b-9b5e-9173177dfcc4","ios":"levelo://app?vid=9da5cadf-cdd1-429b-9b5e-9173177dfcc4"},"vehicle_type_id":"4","last_reported":1784374981,"current_range_meters":11200,"station_id":"ce4bhhh2rcd13ifvqfk0","pricing_plan_id":"cebpf4jnsgd1na2vs0mg"},{"bike_id":"e71494cd-d4a8-436a-a5c6-260a2924500e","system_id":"levelo_inurba_marseille","lat":43.26214,"lon":5.38791,"is_reserved":false,"is_disabled":true,"rental_uris":{"android":"levelo://app?vid=e71494cd-d4a8-436a-a5c6-260a2924500e","ios":"levelo://app?vid=e71494cd-d4a8-436a-a5c6-260a2924500e"},"vehicle_type_id":"4","last_reported":1784374981,"current_range_meters":28000,"station_id":"st_d8gjfg747rts73coq3b0","pricing_plan_id":"cebpf4jnsgd1na2vs0mg"},{"bike_id":"4dd83e35-73dd-44b8-9d3c-9c21e3418d4e","system_id":"levelo_inurba_marseille","lat":43.27486,"lon":5.42555,"is_reserved":false,"is_disabled":false,"rental_uris":{"android":"levelo://app?vid=4dd83e35-73dd-44b8-9d3c-9c21e3418d4e","ios":"levelo://app?vid=4dd83e35-73dd-44b8-9d3c-9c21e3418d4e"},"vehicle_type_id":"4","last_reported":1784374981,"current_range_meters":13600,"station_id":"st_d8t4bh7nbrqs73arha60","pricing_plan_id":"cebpf4jnsgd1na2vs0mg"},{"bike_id":"6666b766-2ccd-467a-ad53-5ec31fb4dec4","system_id":"levelo_inurba_marseille","lat":43.248,"lon":5.37489,"is_reserved":false,"is_disabled":false,"rental_uris":{"android":"levelo://app?vid=6666b766-2ccd-467a-ad53-5ec31fb4dec4","ios":"levelo://app?vid=6666b766-2ccd-467a-ad53-5ec31fb4dec4"},"vehicle_type_id":"4","last_reported":1784374981,"current_range_meters":36000,"station_id":"ce4bhgh2rcd13ifvqfb0","pricing_plan_id":"cebpf4jnsgd1na2vs0mg"},{"bike_id":"99b71f5c-1940-4bdd-9de0-82b4107d6f19","system_id":"levelo_inurba_marseille","lat":43.2379,"lon":5.36646,"is_reserved":false,"is_disabled":false,"rental_uris":{"android":"levelo://app?vid=99b71f5c-1940-4bdd-9de0-82b4107d6f19","ios":"levelo://app?vid=99b71f5c-1940-4bdd-9de0-82b4107d6f19"},"vehicle_type_id":"4","last_reported":1784374981,"current_range_meters":39200,"station_id":"st_d3nk18o9ro0c73en2l3g","pricing_plan_id":"cebpf4jnsgd1na2vs0mg"},{"bike_id":"46306a0d-9235-46a7-be48-833c7f44f8a2","system_id":"levelo_inurba_marseille","lat":43.29485,"lon":5.43301,"is_reserved":false,"is_disabled":false,"rental_uris":{"android":"levelo://app?vid=46306a0d-9235-46a7-be48-833c7f44f8a2","ios":"levelo://app?vid=46306a0d-9235-46a7-be48-833c7f44f8a2"},"vehicle_type_id":"4","last_reported":1784374981,"current_range_meters":32000,"station_id":"st_d3j5ugp08ojc73fj9d10","pricing_plan_id":"cebpf4jnsgd1na2vs0mg"},{"bike_id":"d7da764c-850d-4748-a1c2-68e3cab24b17","system_id":"levelo_inurba_marseille","lat":43.26226,"lon":5.38755,"is_reserved":false,"is_disabled":false,"rental_uris":{"android":"levelo://app?vid=d7da764c-850d-4748-a1c2-68e3cab24b17","ios":"levelo://app?vid=d7da764c-850d-4748-a1c2-68e3cab24b17"},"vehicle_type_id":"4","last_reported":1784374981,"current_range_meters":39200,"station_id":"st_d8gjfg747rts73coq3b0","pricing_plan_id":"cebpf4jnsgd1na2vs0mg"},{"bike_id":"a5c066f9-cfab-43a6-a658-6f2e51485a99","system_id":"levelo_inurba_marseille","lat":43.29968,"lon":5.38497,"is_reserved":false,"is_disabled":false,"rental_uris":{"android":"levelo://app?vid=a5c066f9-cfab-43a6-a658-6f2e51485a99","ios":"levelo://app?vid=a5c066f9-cfab-43a6-a658-6f2e51485a99"},"vehicle_type_id":"4","last_reported":1784374981,"current_range_meters":31200,"station_id":"ce4bgj92rcd13ifvqbd0","pricing_plan_id":"cebpf4jnsgd1na2vs0mg"},{"bike_id":"c3763d08-2139-4ef6-9ac7-8be7d504c24b","system_id":"levelo_inurba_marseille","lat":43.22931,"lon":5.35376,"is_reserved":false,"is_disabled":false,"rental_uris":{"android":"levelo://app?vid=c3763d08-2139-4ef6-9ac7-8be7d504c24b","ios":"levelo://app?vid=c3763d08-2139-4ef6-9ac7-8be7d504c24b"},"vehicle_type_id":"4","last_reported":1784374981,"current_range_meters":39200,"station_id":"cpo3532slgdg3j2ikp40","pricing_plan_id":"cebpf4jnsgd1na2vs0mg"},{"bike_id":"2e713f5f-0d30-4049-b21c-bfce54a23bd5","system_id":"levelo_inurba_marseille","lat":43.23876,"lon":5.37463,"is_reserved":false,"is_disabled":false,"rental_uris":{"android":"levelo://app?vid=2e713f5f-0d30-4049-b21c-bfce54a23bd5","ios":"levelo://app?vid=2e713f5f-0d30-4049-b21c-bfce54a23bd5"},"vehicle_type_id":"4","last_reported":1784374981,"current_range_meters":30800,"station_id":"st_d6sm7csbq4hs73f8fpjg","pricing_plan_id":"cebpf4jnsgd1na2vs0mg"},{"bike_id":"c180bc57-12f5-435a-8219-0c0ef26aa8c0","system_id":"levelo_inurba_marseille","lat":43.22558,"lon":5.34853,"is_reserved":false,"is_disabled":false,"rental_uris":{"android":"levelo://app?vid=c180bc57-12f5-435a-8219-0c0ef26aa8c0","ios":"levelo://app?vid=c180bc57-12f5-435a-8219-0c0ef26aa8c0"},"vehicle_type_id":"4","last_reported":1784374981,"current_range_meters":36000,"station_id":"st_cvj5dfep6f1abm77gieg","pricing_plan_id":"cebpf4jnsgd1na2vs0mg"},{"bike_id":"32c95016-82d3-4943-8193-1a98c4bf18c7","system_id":"levelo_inurba_marseille","lat":43.28065,"lon":5.35675,"is_reserved":false,"is_disabled":false,"rental_uris":{"android":"levelo://app?vid=32c95016-82d3-4943-8193-1a98c4bf18c7","ios":"levelo://app?vid=32c95016-82d3-4943-8193-1a98c4bf18c7"},"vehicle_type_id":"4","last_reported":1784374981,"current_range_meters":9200,"station_id":"","pricing_plan_id":"cebpf4jnsgd1na2vs0mg"},{"bike_id":"1a305c6a-520f-4fbc-8ce8-a3f8e3bd6a3b","system_id":"levelo_inurba_marseille","lat":43.27999,"lon":5.38686,"is_reserved":false,"is_disabled":false,"rental_uris":{"android":"levelo://app?vid=1a305c6a-520f-4fbc-8ce8-a3f8e3bd6a3b","ios":"levelo://app?vid=1a305c6a-520f-4fbc-8ce8-a3f8e3bd6a3b"},"vehicle_type_id":"4","last_reported":1784374981,"current_range_meters":36400,"station_id":"","pricing_plan_id":"cebpf4jnsgd1na2vs0mg"},{"bike_id":"a6a33a18-41c6-45de-a2d0-436ba5fa8320","system_id":"levelo_inurba_marseille","lat":43.27958,"lon":5.38748,"is_reserved":false,"is_disabled":false,"rental_uris":{"android":"levelo://app?vid=a6a33a18-41c6-45de-a2d0-436ba5fa8320","ios":"levelo://app?vid=a6a33a18-41c6-45de-a2d0-436ba5fa8320"},"vehicle_type_id":"4","last_reported":1784374981,"current_range_meters":38000,"station_id":"ce4bhg12rcd13ifvqf80","pricing_plan_id":"cebpf4jnsgd1na2vs0mg"},{"bike_id":"ad650ba3-413e-4b12-8252-f78519c6730a","system_id":"levelo_inurba_marseille","lat":43.29799,"lon":5.40413,"is_reserved":false,"is_disabled":false,"rental_uris":{"android":"levelo://app?vid=ad650ba3-413e-4b12-8252-f78519c6730a","ios":"levelo://app?vid=ad650ba3-413e-4b12-8252-f78519c6730a"},"vehicle_type_id":"4","last_reported":1784374981,"current_range_meters":24000,"station_id":"ce4bh112rcd13ifvqd90","pricing_plan_id":"cebpf4jnsgd1na2vs0mg"},{"bike_id":"5d5475f5-aba3-42d8-9f12-41ca26561132","system_id":"levelo_inurba_marseille","lat":43.31024,"lon":5.37185,"is_reserved":false,"is_disabled":false,"rental_uris":{"android":"levelo://app?vid=5d5475f5-aba3-42d8-9f12-41ca26561132","ios":"levelo://app?vid=5d5475f5-aba3-42d8-9f12-41ca26561132"},"vehicle_type_id":"4","last_reported":1784374981,"current_range_meters":30400,"station_id":"st_d4kl2rp97mjs73e7tdfg","pricing_plan_id":"cebpf4jnsgd1na2vs0mg"},{"bike_id":"ef6880d0-6944-4f6a-8f40-6662368b8f75","system_id":"levelo_inurba_marseille","lat":43.31711,"lon":5.43718,"is_reserved":false,"is_disabled":false,"rental_uris":{"android":"levelo://app?vid=ef6880d0-6944-4f6a-8f40-6662368b8f75","ios":"levelo://app?vid=ef6880d0-6944-4f6a-8f40-6662368b8f75"},"vehicle_type_id":"4","last_reported":1784374981,"current_range_meters":11600,"station_id":"ce4bhp92rcd13ifvqhcg","pricing_plan_id":"cebpf4jnsgd1na2vs0mg"},{"bike_id":"76e56128-7e8d-4151-aad9-a0fce8b3b381","system_id":"levelo_inurba_marseille","lat":43.25334,"lon":5.42156,"is_reserved":false,"is_disabled":false,"rental_uris":{"android":"levelo://app?vid=76e56128-7e8d-4151-aad9-a0fce8b3b381","ios":"levelo://app?vid=76e56128-7e8d-4151-aad9-a0fce8b3b381"},"vehicle_type_id":"4","last_reported":1784374981,"current_range_meters":38000,"station_id":"st_d2m65c5bi1j21697t3ng","pricing_plan_id":"cebpf4jnsgd1na2vs0mg"},{"bike_id":"ac73781c-7964-453a-82c7-5e417be13435","system_id":"levelo_inurba_marseille","lat":43.28607,"lon":5.37067,"is_reserved":false,"is_disabled":false,"rental_uris":{"android":"levelo://app?vid=ac73781c-7964-453a-82c7-5e417be13435","ios":"levelo://app?vid=ac73781c-7964-453a-82c7-5e417be13435"},"vehicle_type_id":"4","last_reported":1784374981,"current_range_meters":34800,"station_id":"ce4bht12rcd13ifvqi60","pricing_plan_id":"cebpf4jnsgd1na2vs0mg"},{"bike_id":"e82c5ec4-94db-4621-8f74-0f33673dfa6f","system_id":"levelo_inurba_marseille","lat":43.23787,"lon":5.36629,"is_reserved":false,"is_disabled":false,"rental_uris":{"android":"levelo://app?vid=e82c5ec4-94db-4621-8f74-0f33673dfa6f","ios":"levelo://app?vid=e82c5ec4-94db-4621-8f74-0f33673dfa6f"},"vehicle_type_id":"4","last_reported":1784374981,"current_range_meters":7200,"station_id":"st_d3nk18o9ro0c73en2l3g","pricing_plan_id":"cebpf4jnsgd1na2vs0mg"},{"bike_id":"45cde2d1-3b85-46a9-a505-36cf113cf210","system_id":"levelo_inurba_marseille","lat":43.30464,"lon":5.38874,"is_reserved":false,"is_disabled":false,"rental_uris":{"android":"levelo://app?vid=45cde2d1-3b85-46a9-a505-36cf113cf210","ios":"levelo://app?vid=45cde2d1-3b85-46a9-a505-36cf113cf210"},"vehicle_type_id":"4","last_reported":1784374981,"current_range_meters":14000,"station_id":"ce4bgk12rcd13ifvqbi0","pricing_plan_id":"cebpf4jnsgd1na2vs0mg"},{"bike_id":"d183c213-4177-4bf2-b9e0-24872be8a9c8","system_id":"levelo_inurba_marseille","lat":43.28478,"lon":5.48387,"is_reserved":false,"is_disabled":false,"rental_uris":{"android":"levelo://app?vid=d183c213-4177-4bf2-b9e0-24872be8a9c8","ios":"levelo://app?vid=d183c213-4177-4bf2-b9e0-24872be8a9c8"},"vehicle_type_id":"4","last_reported":1784374981,"current_range_meters":17200,"station_id":"st_d3svhcjqgbts73a3dn0g","pricing_plan_id":"cebpf4jnsgd1na2vs0mg"},{"bike_id":"a687a6f3-2477-4e4a-a156-bd6355c403cd","system_id":"levelo_inurba_marseille","lat":43.24382,"lon":5.37052,"is_reserved":false,"is_disabled":false,"rental_uris":{"android":"levelo://app?vid=a687a6f3-2477-4e4a-a156-bd6355c403cd","ios":"levelo://app?vid=a687a6f3-2477-4e4a-a156-bd6355c403cd"},"vehicle_type_id":"4","last_reported":1784374981,"current_range_meters":29600,"station_id":"ce4bhhh2rcd13ifvqfk0","pricing_plan_id":"cebpf4jnsgd1na2vs0mg"},{"bike_id":"e975d81f-466f-4fbf-9278-3f973430f9dc","system_id":"levelo_inurba_marseille","lat":43.26191,"lon":5.37452,"is_reserved":false,"is_disabled":false,"rental_uris":{"android":"levelo://app?vid=e975d81f-466f-4fbf-9278-3f973430f9dc","ios":"levelo://app?vid=e975d81f-466f-4fbf-9278-3f973430f9dc"},"vehicle_type_id":"4","last_reported":1784374981,"current_range_meters":19600,"station_id":"ce4bhgp2rcd13ifvqfc0","pricing_plan_id":"cebpf4jnsgd1na2vs0mg"},{"bike_id":"ba30ccf4-16e1-40bf-ba02-a72f005c3605","system_id":"levelo_inurba_marseille","lat":43.289355,"lon":5.366453,"is_reserved":false,"is_disabled":false,"rental_uris":{"android":"levelo://app?vid=ba30ccf4-16e1-40bf-ba02-a72f005c3605","ios":"levelo://app?vid=ba30ccf4-16e1-40bf-ba02-a72f005c3605"},"vehicle_type_id":"4","last_reported":1784374981,"current_range_meters":24000,"station_id":"ce4bhap2rcd13ifvqek0","pricing_plan_id":"cebpf4jnsgd1na2vs0mg"},{"bike_id":"abacac81-85bb-43e8-a072-9b356eba7ca7","system_id":"levelo_inurba_marseille","lat":43.28417,"lon":5.34996,"is_reserved":false,"is_disabled":false,"rental_uris":{"android":"levelo://app?vid=abacac81-85bb-43e8-a072-9b356eba7ca7","ios":"levelo://app?vid=abacac81-85bb-43e8-a072-9b356eba7ca7"},"vehicle_type_id":"4","last_reported":1784374981,"current_range_meters":25600,"station_id":"ce4bhbh2rcd13ifvqepg","pricing_plan_id":"cebpf4jnsgd1na2vs0mg"},{"bike_id":"e0c7065e-7f74-4b06-ae7b-f933c635df87","system_id":"levelo_inurba_marseille","lat":43.29558,"lon":5.42262,"is_reserved":false,"is_disabled":false,"rental_uris":{"android":"levelo://app?vid=e0c7065e-7f74-4b06-ae7b-f933c635df87","ios":"levelo://app?vid=e0c7065e-7f74-4b06-ae7b-f933c635df87"},"vehicle_type_id":"4","last_reported":1784374981,"current_range_meters":39200,"station_id":"ce4bhph2rcd13ifvqhdg","pricing_plan_id":"cebpf4jnsgd1na2vs0mg"},{"bike_id":"3d9d15ce-5804-4209-b92a-723f598d0341","system_id":"levelo_inurba_marseille","lat":43.21194,"lon":5.35065,"is_reserved":false,"is_disabled":false,"rental_uris":{"android":"levelo://app?vid=3d9d15ce-5804-4209-b92a-723f598d0341","ios":"levelo://app?vid=3d9d15ce-5804-4209-b92a-723f598d0341"},"vehicle_type_id":"4","last_reported":1784374981,"current_range_meters":38800,"station_id":"st_cvj6sg6p6f1abm77japg","pricing_plan_id":"cebpf4jnsgd1na2vs0mg"},{"bike_id":"ff6c8340-fd25-4964-85ef-b09e1173c088","system_id":"levelo_inurba_marseille","lat":43.28481,"lon":5.38422,"is_reserved":false,"is_disabled":false,"rental_uris":{"android":"levelo://app?vid=ff6c8340-fd25-4964-85ef-b09e1173c088","ios":"levelo://app?vid=ff6c8340-fd25-4964-85ef-b09e1173c088"},"vehicle_type_id":"4","last_reported":1784374981,"current_range_meters":34000,"station_id":"ce4bh512rcd13ifvqe3g","pricing_plan_id":"cebpf4jnsgd1na2vs0mg"},{"bike_id":"30ff9eb0-0de5-4442-83d3-e39620921d93","system_id":"levelo_inurba_marseille","lat":43.27661,"lon":5.38929,"is_reserved":false,"is_disabled":false,"rental_uris":{"android":"levelo://app?vid=30ff9eb0-0de5-4442-83d3-e39620921d93","ios":"levelo://app?vid=30ff9eb0-0de5-4442-83d3-e39620921d93"},"vehicle_type_id":"4","last_reported":1784374981,"current_range_meters":10000,"station_id":"ce4bhi12rcd13ifvqfo0","pricing_plan_id":"cebpf4jnsgd1na2vs0mg"},{"bike_id":"22553efb-0746-4526-af26-2701f1d0b834","system_id":"levelo_inurba_marseille","lat":43.25493,"lon":5.37652,"is_reserved":false,"is_disabled":false,"rental_uris":{"android":"levelo://app?vid=22553efb-0746-4526-af26-2701f1d0b834","ios":"levelo://app?vid=22553efb-0746-4526-af26-2701f1d0b834"},"vehicle_type_id":"4","last_reported":1784374981,"current_range_meters":32000,"station_id":"ce4bhh12rcd13ifvqff0","pricing_plan_id":"cebpf4jnsgd1na2vs0mg"},{"bike_id":"e1bb6861-ee59-438c-aa2a-2a553b2d6f43","system_id":"levelo_inurba_marseille","lat":43.27173,"lon":5.41002,"is_reserved":false,"is_disabled":true,"rental_uris":{"android":"levelo://app?vid=e1bb6861-ee59-438c-aa2a-2a553b2d6f43","ios":"levelo://app?vid=e1bb6861-ee59-438c-aa2a-2a553b2d6f43"},"vehicle_type_id":"4","last_reported":1784374981,"current_range_meters":31200,"station_id":"ce4bhl12rcd13ifvqgf0","pricing_plan_id":"cebpf4jnsgd1na2vs0mg"},{"bike_id":"c3f4a8d5-58ca-46e0-be47-eaeab3f1e402","system_id":"levelo_inurba_marseille","lat":43.22862,"lon":5.34992,"is_reserved":false,"is_disabled":true,"rental_uris":{"android":"levelo://app?vid=c3f4a8d5-58ca-46e0-be47-eaeab3f1e402","ios":"levelo://app?vid=c3f4a8d5-58ca-46e0-be47-eaeab3f1e402"},"vehicle_type_id":"4","last_reported":1784374981,"current_range_meters":1600,"station_id":"","pricing_plan_id":"cebpf4jnsgd1na2vs0mg"},{"bike_id":"06097b1f-6886-48c9-a8e6-84f03d133de4","system_id":"levelo_inurba_marseille","lat":43.31718,"lon":5.43691,"is_reserved":false,"is_disabled":false,"rental_uris":{"android":"levelo://app?vid=06097b1f-6886-48c9-a8e6-84f03d133de4","ios":"levelo://app?vid=06097b1f-6886-48c9-a8e6-84f03d133de4"},"vehicle_type_id":"4","last_reported":1784374981,"current_range_meters":39200,"station_id":"ce4bhp92rcd13ifvqhcg","pricing_plan_id":"cebpf4jnsgd1na2vs0mg"},{"bike_id":"c2e7fe27-d2b0-440e-b62d-ead50feed951","system_id":"levelo_inurba_marseille","lat":43.29505,"lon":5.43329,"is_reserved":false,"is_disabled":false,"rental_uris":{"android":"levelo://app?vid=c2e7fe27-d2b0-440e-b62d-ead50feed951","ios":"levelo://app?vid=c2e7fe27-d2b0-440e-b62d-ead50feed951"},"vehicle_type_id":"4","last_reported":1784374981,"current_range_meters":8400,"station_id":"st_d3j5ugp08ojc73fj9d10","pricing_plan_id":"cebpf4jnsgd1na2vs0mg"},{"bike_id":"cd8636bf-4678-4336-a11c-b12b2f9a64d1","system_id":"levelo_inurba_marseille","lat":43.24457,"lon":5.42556,"is_reserved":false,"is_disabled":false,"rental_uris":{"android":"levelo://app?vid=cd8636bf-4678-4336-a11c-b12b2f9a64d1","ios":"levelo://app?vid=cd8636bf-4678-4336-a11c-b12b2f9a64d1"},"vehicle_type_id":"4","last_reported":1784374981,"current_range_meters":39200,"station_id":"st_d4a3vfp97mjs738cd8kg","pricing_plan_id":"cebpf4jnsgd1na2vs0mg"},{"bike_id":"99babde9-3915-452c-b14b-d4cd123ce9a3","system_id":"levelo_inurba_marseille","lat":43.26938,"lon":5.40271,"is_reserved":false,"is_disabled":false,"rental_uris":{"android":"levelo://app?vid=99babde9-3915-452c-b14b-d4cd123ce9a3","ios":"levelo://app?vid=99babde9-3915-452c-b14b-d4cd123ce9a3"},"vehicle_type_id":"4","last_reported":1784374981,"current_range_meters":9200,"station_id":"cjm6bp8fraef2m0cb0m0","pricing_plan_id":"cebpf4jnsgd1na2vs0mg"},{"bike_id":"2623e023-e953-40ac-8068-15d2169ca99d","system_id":"levelo_inurba_marseille","lat":43.28706,"lon":5.46686,"is_reserved":false,"is_disabled":false,"rental_uris":{"android":"levelo://app?vid=2623e023-e953-40ac-8068-15d2169ca99d","ios":"levelo://app?vid=2623e023-e953-40ac-8068-15d2169ca99d"},"vehicle_type_id":"4","last_reported":1784374981,"current_range_meters":39200,"station_id":"st_d6tc3vkotcvc738tfjhg","pricing_plan_id":"cebpf4jnsgd1na2vs0mg"},{"bike_id":"a6cca12a-d729-4412-9614-fa46c764886f","system_id":"levelo_inurba_marseille","lat":43.29045,"lon":5.35918,"is_reserved":false,"is_disabled":false,"rental_uris":{"android":"levelo://app?vid=a6cca12a-d729-4412-9614-fa46c764886f","ios":"levelo://app?vid=a6cca12a-d729-4412-9614-fa46c764886f"},"vehicle_type_id":"4","last_reported":1784374981,"current_range_meters":36400,"station_id":"ce4bha92rcd13ifvqeg0","pricing_plan_id":"cebpf4jnsgd1na2vs0mg"},{"bike_id":"9d27f3aa-b353-4a7a-a0fa-132f296bb47c","system_id":"levelo_inurba_marseille","lat":43.21742,"lon":5.34611,"is_reserved":false,"is_disabled":false,"rental_uris":{"android":"levelo://app?vid=9d27f3aa-b353-4a7a-a0fa-132f296bb47c","ios":"levelo://app?vid=9d27f3aa-b353-4a7a-a0fa-132f296bb47c"},"vehicle_type_id":"4","last_reported":1784374981,"current_range_meters":4400,"station_id":"st_cvj6r9ubvosntc0bgbag","pricing_plan_id":"cebpf4jnsgd1na2vs0mg"},{"bike_id":"94725203-526f-4363-8a82-d5f8270101b2","system_id":"levelo_inurba_marseille","lat":43.32368,"lon":5.38892,"is_reserved":false,"is_disabled":false,"rental_uris":{"android":"levelo://app?vid=94725203-526f-4363-8a82-d5f8270101b2","ios":"levelo://app?vid=94725203-526f-4363-8a82-d5f8270101b2"},"vehicle_type_id":"4","last_reported":1784374981,"current_range_meters":36000,"station_id":"ce4bhqp2rcd13ifvqhog","pricing_plan_id":"cebpf4jnsgd1na2vs0mg"},{"bike_id":"f3d81bec-b928-42fc-8615-8458d7f8acee","system_id":"levelo_inurba_marseille","lat":43.26579,"lon":5.39032,"is_reserved":false,"is_disabled":false,"rental_uris":{"android":"levelo://app?vid=f3d81bec-b928-42fc-8615-8458d7f8acee","ios":"levelo://app?vid=f3d81bec-b928-42fc-8615-8458d7f8acee"},"vehicle_type_id":"4","last_reported":1784374981,"current_range_meters":18000,"station_id":"ce4bhe12rcd13ifvqf30","pricing_plan_id":"cebpf4jnsgd1na2vs0mg"},{"bike_id":"a7ea4f12-d8d2-4764-bc93-0f0fa971da7c","system_id":"levelo_inurba_marseille","lat":43.30323,"lon":5.40439,"is_reserved":false,"is_disabled":false,"rental_uris":{"android":"levelo://app?vid=a7ea4f12-d8d2-4764-bc93-0f0fa971da7c","ios":"levelo://app?vid=a7ea4f12-d8d2-4764-bc93-0f0fa971da7c"},"vehicle_type_id":"4","last_reported":1784374981,"current_range_meters":12400,"station_id":"ce4bh012rcd13ifvqd10","pricing_plan_id":"cebpf4jnsgd1na2vs0mg"},{"bike_id":"f8955ac0-4fb0-43de-bef9-e6c33ea71dd3","system_id":"levelo_inurba_marseille","lat":43.28614,"lon":5.35101,"is_reserved":false,"is_disabled":true,"rental_uris":{"android":"levelo://app?vid=f8955ac0-4fb0-43de-bef9-e6c33ea71dd3","ios":"levelo://app?vid=f8955ac0-4fb0-43de-bef9-e6c33ea71dd3"},"vehicle_type_id":"4","last_reported":1784374981,"current_range_meters":25600,"station_id":"ce4bhch2rcd13ifvqeug","pricing_plan_id":"cebpf4jnsgd1na2vs0mg"},{"bike_id":"93851e2e-1860-453a-afe6-7973af62250a","system_id":"levelo_inurba_marseille","lat":43.31688,"lon":5.40457,"is_reserved":false,"is_disabled":false,"rental_uris":{"android":"levelo://app?vid=93851e2e-1860-453a-afe6-7973af62250a","ios":"levelo://app?vid=93851e2e-1860-453a-afe6-7973af62250a"},"vehicle_type_id":"4","last_reported":1784374981,"current_range_meters":22800,"station_id":"ce4bh012rcd13ifvqd00","pricing_plan_id":"cebpf4jnsgd1na2vs0mg"},{"bike_id":"863d0357-9100-4091-8be6-61d932e4e898","system_id":"levelo_inurba_marseille","lat":43.33756,"lon":5.37458,"is_reserved":false,"is_disabled":false,"rental_uris":{"android":"levelo://app?vid=863d0357-9100-4091-8be6-61d932e4e898","ios":"levelo://app?vid=863d0357-9100-4091-8be6-61d932e4e898"},"vehicle_type_id":"4","last_reported":1784374981,"current_range_meters":36800,"station_id":"","pricing_plan_id":"cebpf4jnsgd1na2vs0mg"},{"bike_id":"0d249168-c1b9-4fc1-a9ca-ee81dcabf286","system_id":"levelo_inurba_marseille","lat":43.30827,"lon":5.40443,"is_reserved":false,"is_disabled":false,"rental_uris":{"android":"levelo://app?vid=0d249168-c1b9-4fc1-a9ca-ee81dcabf286","ios":"levelo://app?vid=0d249168-c1b9-4fc1-a9ca-ee81dcabf286"},"vehicle_type_id":"4","last_reported":1784374981,"current_range_meters":12400,"station_id":"","pricing_plan_id":"cebpf4jnsgd1na2vs0mg"},{"bike_id":"558fd974-cc7a-4def-8898-d8766340dec7","system_id":"levelo_inurba_marseille","lat":43.27822,"lon":5.39227,"is_reserved":false,"is_disabled":false,"rental_uris":{"android":"levelo://app?vid=558fd974-cc7a-4def-8898-d8766340dec7","ios":"levelo://app?vid=558fd974-cc7a-4def-8898-d8766340dec7"},"vehicle_type_id":"4","last_reported":1784374981,"current_range_meters":40000,"station_id":"ce4bhjp2rcd13ifvqga0","pricing_plan_id":"cebpf4jnsgd1na2vs0mg"},{"bike_id":"42a06539-fa05-4673-9b8c-ca7a6023165c","system_id":"levelo_inurba_marseille","lat":43.26677,"lon":5.38266,"is_reserved":false,"is_disabled":false,"rental_uris":{"android":"levelo://app?vid=42a06539-fa05-4673-9b8c-ca7a6023165c","ios":"levelo://app?vid=42a06539-fa05-4673-9b8c-ca7a6023165c"},"vehicle_type_id":"4","last_reported":1784374981,"current_range_meters":38800,"station_id":"ce4bhg92rcd13ifvqf90","pricing_plan_id":"cebpf4jnsgd1na2vs0mg"},{"bike_id":"ef1a7cea-d1ab-486b-9ad7-2e1d97429565","system_id":"levelo_inurba_marseille","lat":43.28147,"lon":5.42639,"is_reserved":false,"is_disabled":false,"rental_uris":{"android":"levelo://app?vid=ef1a7cea-d1ab-486b-9ad7-2e1d97429565","ios":"levelo://app?vid=ef1a7cea-d1ab-486b-9ad7-2e1d97429565"},"vehicle_type_id":"4","last_reported":1784374981,"current_range_meters":38800,"station_id":"ce4bhnh2rcd13ifvqgug","pricing_plan_id":"cebpf4jnsgd1na2vs0mg"},{"bike_id":"8ba7f2d6-52d3-4c56-b19a-19a142e62779","system_id":"levelo_inurba_marseille","lat":43.24082,"lon":5.37766,"is_reserved":false,"is_disabled":false,"rental_uris":{"android":"levelo://app?vid=8ba7f2d6-52d3-4c56-b19a-19a142e62779","ios":"levelo://app?vid=8ba7f2d6-52d3-4c56-b19a-19a142e62779"},"vehicle_type_id":"4","last_reported":1784374981,"current_range_meters":13600,"station_id":"ce4bhnp2rcd13ifvqgvg","pricing_plan_id":"cebpf4jnsgd1na2vs0mg"},{"bike_id":"83430c1a-b44e-4fb6-9f9c-fdb69c2d228c","system_id":"levelo_inurba_marseille","lat":43.26062,"lon":5.39383,"is_reserved":false,"is_disabled":false,"rental_uris":{"android":"levelo://app?vid=83430c1a-b44e-4fb6-9f9c-fdb69c2d228c","ios":"levelo://app?vid=83430c1a-b44e-4fb6-9f9c-fdb69c2d228c"},"vehicle_type_id":"4","last_reported":1784374981,"current_range_meters":38000,"station_id":"ce4bhh92rcd13ifvqfj0","pricing_plan_id":"cebpf4jnsgd1na2vs0mg"},{"bike_id":"66afdf81-3bfc-4f74-a2b5-978630e17649","system_id":"levelo_inurba_marseille","lat":43.27907,"lon":5.37283,"is_reserved":false,"is_disabled":false,"rental_uris":{"android":"levelo://app?vid=66afdf81-3bfc-4f74-a2b5-978630e17649","ios":"levelo://app?vid=66afdf81-3bfc-4f74-a2b5-978630e17649"},"vehicle_type_id":"4","last_reported":1784374981,"current_range_meters":28400,"station_id":"","pricing_plan_id":"cebpf4jnsgd1na2vs0mg"},{"bike_id":"c46ef1ad-e8a0-40ae-b948-1665800ed0fb","system_id":"levelo_inurba_marseille","lat":43.2938,"lon":5.37849,"is_reserved":false,"is_disabled":false,"rental_uris":{"android":"levelo://app?vid=c46ef1ad-e8a0-40ae-b948-1665800ed0fb","ios":"levelo://app?vid=c46ef1ad-e8a0-40ae-b948-1665800ed0fb"},"vehicle_type_id":"4","last_reported":1784374981,"current_range_meters":4400,"station_id":"ce4bgjh2rcd13ifvqbf0","pricing_plan_id":"cebpf4jnsgd1na2vs0mg"},{"bike_id":"5a44f8da-244e-4b4d-84d5-1cd07fac4647","system_id":"levelo_inurba_marseille","lat":43.30885,"lon":5.3719,"is_reserved":false,"is_disabled":false,"rental_uris":{"android":"levelo://app?vid=5a44f8da-244e-4b4d-84d5-1cd07fac4647","ios":"levelo://app?vid=5a44f8da-244e-4b4d-84d5-1cd07fac4647"},"vehicle_type_id":"4","last_reported":1784374981,"current_range_meters":39200,"station_id":"ce4bguh2rcd13ifvqckg","pricing_plan_id":"cebpf4jnsgd1na2vs0mg"},{"bike_id":"ba59f076-04ed-441a-a45c-a08a66183425","system_id":"levelo_inurba_marseille","lat":43.2968,"lon":5.37307,"is_reserved":false,"is_disabled":false,"rental_uris":{"android":"levelo://app?vid=ba59f076-04ed-441a-a45c-a08a66183425","ios":"levelo://app?vid=ba59f076-04ed-441a-a45c-a08a66183425"},"vehicle_type_id":"4","last_reported":1784374981,"current_range_meters":15200,"station_id":"ce4bgk12rcd13ifvqbj0","pricing_plan_id":"cebpf4jnsgd1na2vs0mg"},{"bike_id":"44d3a8d6-3284-432a-8031-eb6a62573e80","system_id":"levelo_inurba_marseille","lat":43.30522,"lon":5.40078,"is_reserved":false,"is_disabled":false,"rental_uris":{"android":"levelo://app?vid=44d3a8d6-3284-432a-8031-eb6a62573e80","ios":"levelo://app?vid=44d3a8d6-3284-432a-8031-eb6a62573e80"},"vehicle_type_id":"4","last_reported":1784374981,"current_range_meters":30800,"station_id":"","pricing_plan_id":"cebpf4jnsgd1na2vs0mg"},{"bike_id":"efd6fa8e-61a4-4517-bf37-4dfe3ba684fe","system_id":"levelo_inurba_marseille","lat":43.28717,"lon":5.37941,"is_reserved":false,"is_disabled":false,"rental_uris":{"android":"levelo://app?vid=efd6fa8e-61a4-4517-bf37-4dfe3ba684fe","ios":"levelo://app?vid=efd6fa8e-61a4-4517-bf37-4dfe3ba684fe"},"vehicle_type_id":"4","last_reported":1784374981,"current_range_meters":8000,"station_id":"ce4bh9p2rcd13ifvqec0","pricing_plan_id":"cebpf4jnsgd1na2vs0mg"},{"bike_id":"6e2fa25e-c4e4-473c-b5d3-3e0f51dcc142","system_id":"levelo_inurba_marseille","lat":43.2979,"lon":5.38114,"is_reserved":false,"is_disabled":true,"rental_uris":{"android":"levelo://app?vid=6e2fa25e-c4e4-473c-b5d3-3e0f51dcc142","ios":"levelo://app?vid=6e2fa25e-c4e4-473c-b5d3-3e0f51dcc142"},"vehicle_type_id":"4","last_reported":1784374981,"current_range_meters":32400,"station_id":"ce4bgip2rcd13ifvqbb0","pricing_plan_id":"cebpf4jnsgd1na2vs0mg"},{"bike_id":"32e22d5f-6381-4316-92a1-1df68c5aa895","system_id":"levelo_inurba_marseille","lat":43.29525,"lon":5.37512,"is_reserved":false,"is_disabled":false,"rental_uris":{"android":"levelo://app?vid=32e22d5f-6381-4316-92a1-1df68c5aa895","ios":"levelo://app?vid=32e22d5f-6381-4316-92a1-1df68c5aa895"},"vehicle_type_id":"4","last_reported":1784374981,"current_range_meters":17600,"station_id":"ce4bgkp2rcd13ifvqbmg","pricing_plan_id":"cebpf4jnsgd1na2vs0mg"},{"bike_id":"c552b414-4f18-4dab-a6be-0c646338c3d2","system_id":"levelo_inurba_marseille","lat":43.30525,"lon":5.38423,"is_reserved":false,"is_disabled":false,"rental_uris":{"android":"levelo://app?vid=c552b414-4f18-4dab-a6be-0c646338c3d2","ios":"levelo://app?vid=c552b414-4f18-4dab-a6be-0c646338c3d2"},"vehicle_type_id":"4","last_reported":1784374981,"current_range_meters":20000,"station_id":"ce4bgg92rcd13ifvqb30","pricing_plan_id":"cebpf4jnsgd1na2vs0mg"},{"bike_id":"21a31c6d-ff9d-434c-94c9-c56fd7669232","system_id":"levelo_inurba_marseille","lat":43.28611,"lon":5.37071,"is_reserved":false,"is_disabled":false,"rental_uris":{"android":"levelo://app?vid=21a31c6d-ff9d-434c-94c9-c56fd7669232","ios":"levelo://app?vid=21a31c6d-ff9d-434c-94c9-c56fd7669232"},"vehicle_type_id":"4","last_reported":1784374981,"current_range_meters":24400,"station_id":"ce4bht12rcd13ifvqi60","pricing_plan_id":"cebpf4jnsgd1na2vs0mg"},{"bike_id":"3be277da-7c39-44c3-abca-0e4d12212b42","system_id":"levelo_inurba_marseille","lat":43.3105,"lon":5.37156,"is_reserved":false,"is_disabled":false,"rental_uris":{"android":"levelo://app?vid=3be277da-7c39-44c3-abca-0e4d12212b42","ios":"levelo://app?vid=3be277da-7c39-44c3-abca-0e4d12212b42"},"vehicle_type_id":"4","last_reported":1784374981,"current_range_meters":16400,"station_id":"st_d4kl2rp97mjs73e7tdfg","pricing_plan_id":"cebpf4jnsgd1na2vs0mg"},{"bike_id":"7e62a1e7-e43e-4c6d-97fe-eb42228edf6d","system_id":"levelo_inurba_marseille","lat":43.26547,"lon":5.39389,"is_reserved":false,"is_disabled":false,"rental_uris":{"android":"levelo://app?vid=7e62a1e7-e43e-4c6d-97fe-eb42228edf6d","ios":"levelo://app?vid=7e62a1e7-e43e-4c6d-97fe-eb42228edf6d"},"vehicle_type_id":"4","last_reported":1784374981,"current_range_meters":10000,"station_id":"","pricing_plan_id":"cebpf4jnsgd1na2vs0mg"},{"bike_id":"4055bf55-0ca0-4226-9c1a-f628e7fa1640","system_id":"levelo_inurba_marseille","lat":43.26793,"lon":5.39439,"is_reserved":false,"is_disabled":false,"rental_uris":{"android":"levelo://app?vid=4055bf55-0ca0-4226-9c1a-f628e7fa1640","ios":"levelo://app?vid=4055bf55-0ca0-4226-9c1a-f628e7fa1640"},"vehicle_type_id":"4","last_reported":1784374981,"current_range_meters":37600,"station_id":"ce4bhh12rcd13ifvqfg0","pricing_plan_id":"cebpf4jnsgd1na2vs0mg"},{"bike_id":"e66afdcb-3787-4fbb-95bd-c9f6eb01dbd4","system_id":"levelo_inurba_marseille","lat":43.29154,"lon":5.38042,"is_reserved":false,"is_disabled":false,"rental_uris":{"android":"levelo://app?vid=e66afdcb-3787-4fbb-95bd-c9f6eb01dbd4","ios":"levelo://app?vid=e66afdcb-3787-4fbb-95bd-c9f6eb01dbd4"},"vehicle_type_id":"4","last_reported":1784374981,"current_range_meters":31200,"station_id":"","pricing_plan_id":"cebpf4jnsgd1na2vs0mg"},{"bike_id":"2a4171e7-4e20-41f3-941b-37780cdee558","system_id":"levelo_inurba_marseille","lat":43.31728,"lon":5.40435,"is_reserved":false,"is_disabled":false,"rental_uris":{"android":"levelo://app?vid=2a4171e7-4e20-41f3-941b-37780cdee558","ios":"levelo://app?vid=2a4171e7-4e20-41f3-941b-37780cdee558"},"vehicle_type_id":"4","last_reported":1784374981,"current_range_meters":19600,"station_id":"","pricing_plan_id":"cebpf4jnsgd1na2vs0mg"},{"bike_id":"81587832-75ed-49cd-91c3-f57f9b8cec45","system_id":"levelo_inurba_marseille","lat":43.29033,"lon":5.35933,"is_reserved":false,"is_disabled":true,"rental_uris":{"android":"levelo://app?vid=81587832-75ed-49cd-91c3-f57f9b8cec45","ios":"levelo://app?vid=81587832-75ed-49cd-91c3-f57f9b8cec45"},"vehicle_type_id":"4","last_reported":1784374981,"current_range_meters":8000,"station_id":"ce4bha92rcd13ifvqeg0","pricing_plan_id":"cebpf4jnsgd1na2vs0mg"},{"bike_id":"1b805917-bab1-4afd-9613-6ed5773cce67","system_id":"levelo_inurba_marseille","lat":43.29971,"lon":5.38499,"is_reserved":false,"is_disabled":false,"rental_uris":{"android":"levelo://app?vid=1b805917-bab1-4afd-9613-6ed5773cce67","ios":"levelo://app?vid=1b805917-bab1-4afd-9613-6ed5773cce67"},"vehicle_type_id":"4","last_reported":1784374981,"current_range_meters":4800,"station_id":"ce4bgj92rcd13ifvqbd0","pricing_plan_id":"cebpf4jnsgd1na2vs0mg"},{"bike_id":"9bf98e17-a381-41de-875c-61a7b7a9de43","system_id":"levelo_inurba_marseille","lat":43.23363,"lon":5.41233,"is_reserved":false,"is_disabled":false,"rental_uris":{"android":"levelo://app?vid=9bf98e17-a381-41de-875c-61a7b7a9de43","ios":"levelo://app?vid=9bf98e17-a381-41de-875c-61a7b7a9de43"},"vehicle_type_id":"4","last_reported":1784374981,"current_range_meters":39200,"station_id":"st_d75pvndhf9lc73cqq3eg","pricing_plan_id":"cebpf4jnsgd1na2vs0mg"},{"bike_id":"3012f589-fc1a-402d-9cd0-f1af0553fb4f","system_id":"levelo_inurba_marseille","lat":43.27212,"lon":5.39189,"is_reserved":false,"is_disabled":false,"rental_uris":{"android":"levelo://app?vid=3012f589-fc1a-402d-9cd0-f1af0553fb4f","ios":"levelo://app?vid=3012f589-fc1a-402d-9cd0-f1af0553fb4f"},"vehicle_type_id":"4","last_reported":1784374981,"current_range_meters":16400,"station_id":"ce4bhhp2rcd13ifvqfm0","pricing_plan_id":"cebpf4jnsgd1na2vs0mg"},{"bike_id":"845894b6-8a9b-465d-9c7c-5c5f502f64fb","system_id":"levelo_inurba_marseille","lat":43.28247,"lon":5.35084,"is_reserved":false,"is_disabled":true,"rental_uris":{"android":"levelo://app?vid=845894b6-8a9b-465d-9c7c-5c5f502f64fb","ios":"levelo://app?vid=845894b6-8a9b-465d-9c7c-5c5f502f64fb"},"vehicle_type_id":"4","last_reported":1784374981,"current_range_meters":10000,"station_id":"ce4bhbp2rcd13ifvqerg","pricing_plan_id":"cebpf4jnsgd1na2vs0mg"},{"bike_id":"9e0af9ec-9913-4615-b550-abfd082791d2","system_id":"levelo_inurba_marseille","lat":43.23169,"lon":5.43718,"is_reserved":false,"is_disabled":true,"rental_uris":{"android":"levelo://app?vid=9e0af9ec-9913-4615-b550-abfd082791d2","ios":"levelo://app?vid=9e0af9ec-9913-4615-b550-abfd082791d2"},"vehicle_type_id":"4","last_reported":1784374981,"current_range_meters":800,"station_id":"ce4bhmp2rcd13ifvqgog","pricing_plan_id":"cebpf4jnsgd1na2vs0mg"},{"bike_id":"e363b584-92a2-4c61-adfd-371a2577000d","system_id":"levelo_inurba_marseille","lat":43.29889,"lon":5.43651,"is_reserved":false,"is_disabled":false,"rental_uris":{"android":"levelo://app?vid=e363b584-92a2-4c61-adfd-371a2577000d","ios":"levelo://app?vid=e363b584-92a2-4c61-adfd-371a2577000d"},"vehicle_type_id":"4","last_reported":1784374981,"current_range_meters":39200,"station_id":"ce4bhpp2rcd13ifvqhfg","pricing_plan_id":"cebpf4jnsgd1na2vs0mg"},{"bike_id":"1738dc9c-1133-48f6-bf1e-5749d0da4495","system_id":"levelo_inurba_marseille","lat":43.29193,"lon":5.36192,"is_reserved":false,"is_disabled":false,"rental_uris":{"android":"levelo://app?vid=1738dc9c-1133-48f6-bf1e-5749d0da4495","ios":"levelo://app?vid=1738dc9c-1133-48f6-bf1e-5749d0da4495"},"vehicle_type_id":"4","last_reported":1784374981,"current_range_meters":27600,"station_id":"","pricing_plan_id":"cebpf4jnsgd1na2vs0mg"},{"bike_id":"2682f7cc-7d5e-4517-b03e-0218b7326308","system_id":"levelo_inurba_marseille","lat":43.28358,"lon":5.38629,"is_reserved":false,"is_disabled":false,"rental_uris":{"android":"levelo://app?vid=2682f7cc-7d5e-4517-b03e-0218b7326308","ios":"levelo://app?vid=2682f7cc-7d5e-4517-b03e-0218b7326308"},"vehicle_type_id":"4","last_reported":1784374981,"current_range_meters":38000,"station_id":"ce4bh492rcd13ifvqdvg","pricing_plan_id":"cebpf4jnsgd1na2vs0mg"},{"bike_id":"7ff8118f-6c81-4cdf-8a1d-4753d954065d","system_id":"levelo_inurba_marseille","lat":43.29594,"lon":5.37981,"is_reserved":false,"is_disabled":false,"rental_uris":{"android":"levelo://app?vid=7ff8118f-6c81-4cdf-8a1d-4753d954065d","ios":"levelo://app?vid=7ff8118f-6c81-4cdf-8a1d-4753d954065d"},"vehicle_type_id":"4","last_reported":1784374981,"current_range_meters":7200,"station_id":"","pricing_plan_id":"cebpf4jnsgd1na2vs0mg"},{"bike_id":"8d8b9b68-1b3e-4685-955e-b8241080cd7b","system_id":"levelo_inurba_marseille","lat":43.31484,"lon":5.37302,"is_reserved":false,"is_disabled":false,"rental_uris":{"android":"levelo://app?vid=8d8b9b68-1b3e-4685-955e-b8241080cd7b","ios":"levelo://app?vid=8d8b9b68-1b3e-4685-955e-b8241080cd7b"},"vehicle_type_id":"4","last_reported":1784374981,"current_range_meters":28800,"station_id":"ce4bgt12rcd13ifvqcd0","pricing_plan_id":"cebpf4jnsgd1na2vs0mg"},{"bike_id":"0efa47ee-d0bf-416e-82f3-4055cb3fadd2","system_id":"levelo_inurba_marseille","lat":43.24799,"lon":5.37455,"is_reserved":false,"is_disabled":false,"rental_uris":{"android":"levelo://app?vid=0efa47ee-d0bf-416e-82f3-4055cb3fadd2","ios":"levelo://app?vid=0efa47ee-d0bf-416e-82f3-4055cb3fadd2"},"vehicle_type_id":"4","last_reported":1784374981,"current_range_meters":38400,"station_id":"ce4bhgh2rcd13ifvqfb0","pricing_plan_id":"cebpf4jnsgd1na2vs0mg"},{"bike_id":"c7c7135d-74a6-4d91-a6ec-ce1bff85e445","system_id":"levelo_inurba_marseille","lat":43.28487,"lon":5.38561,"is_reserved":false,"is_disabled":false,"rental_uris":{"android":"levelo://app?vid=c7c7135d-74a6-4d91-a6ec-ce1bff85e445","ios":"levelo://app?vid=c7c7135d-74a6-4d91-a6ec-ce1bff85e445"},"vehicle_type_id":"4","last_reported":1784374981,"current_range_meters":12800,"station_id":"ce4bh8p2rcd13ifvqeb0","pricing_plan_id":"cebpf4jnsgd1na2vs0mg"},{"bike_id":"7eb8ce95-4e9a-4ce3-a1cc-44081352892a","system_id":"levelo_inurba_marseille","lat":43.30539,"lon":5.38445,"is_reserved":false,"is_disabled":false,"rental_uris":{"android":"levelo://app?vid=7eb8ce95-4e9a-4ce3-a1cc-44081352892a","ios":"levelo://app?vid=7eb8ce95-4e9a-4ce3-a1cc-44081352892a"},"vehicle_type_id":"4","last_reported":1784374981,"current_range_meters":17600,"station_id":"ce4bgg92rcd13ifvqb30","pricing_plan_id":"cebpf4jnsgd1na2vs0mg"},{"bike_id":"1de5753c-f77d-4a34-b134-58bee8bc010c","system_id":"levelo_inurba_marseille","lat":43.26539,"lon":5.37314,"is_reserved":false,"is_disabled":false,"rental_uris":{"android":"levelo://app?vid=1de5753c-f77d-4a34-b134-58bee8bc010c","ios":"levelo://app?vid=1de5753c-f77d-4a34-b134-58bee8bc010c"},"vehicle_type_id":"4","last_reported":1784374981,"current_range_meters":21600,"station_id":"ce4bhg12rcd13ifvqf70","pricing_plan_id":"cebpf4jnsgd1na2vs0mg"},{"bike_id":"515084d4-7673-434a-8f32-1c911e26bfa8","system_id":"levelo_inurba_marseille","lat":43.31467,"lon":5.37223,"is_reserved":false,"is_disabled":false,"rental_uris":{"android":"levelo://app?vid=515084d4-7673-434a-8f32-1c911e26bfa8","ios":"levelo://app?vid=515084d4-7673-434a-8f32-1c911e26bfa8"},"vehicle_type_id":"4","last_reported":1784374981,"current_range_meters":39200,"station_id":"ce4bgt12rcd13ifvqcd0","pricing_plan_id":"cebpf4jnsgd1na2vs0mg"},{"bike_id":"bd259e01-bc4a-46f9-a113-c4b2420c55cb","system_id":"levelo_inurba_marseille","lat":43.24389,"lon":5.37043,"is_reserved":false,"is_disabled":false,"rental_uris":{"android":"levelo://app?vid=bd259e01-bc4a-46f9-a113-c4b2420c55cb","ios":"levelo://app?vid=bd259e01-bc4a-46f9-a113-c4b2420c55cb"},"vehicle_type_id":"4","last_reported":1784374981,"current_range_meters":6000,"station_id":"ce4bhhh2rcd13ifvqfk0","pricing_plan_id":"cebpf4jnsgd1na2vs0mg"},{"bike_id":"edff3b13-7f69-495d-bc24-7ac4bea4ee6d","system_id":"levelo_inurba_marseille","lat":43.30462,"lon":5.37905,"is_reserved":false,"is_disabled":false,"rental_uris":{"android":"levelo://app?vid=edff3b13-7f69-495d-bc24-7ac4bea4ee6d","ios":"levelo://app?vid=edff3b13-7f69-495d-bc24-7ac4bea4ee6d"},"vehicle_type_id":"4","last_reported":1784374981,"current_range_meters":36400,"station_id":"ce4bgup2rcd13ifvqcn0","pricing_plan_id":"cebpf4jnsgd1na2vs0mg"},{"bike_id":"4edc4148-d9b7-4b9d-9714-ef6d71a21c97","system_id":"levelo_inurba_marseille","lat":43.32288,"lon":5.38293,"is_reserved":false,"is_disabled":false,"rental_uris":{"android":"levelo://app?vid=4edc4148-d9b7-4b9d-9714-ef6d71a21c97","ios":"levelo://app?vid=4edc4148-d9b7-4b9d-9714-ef6d71a21c97"},"vehicle_type_id":"4","last_reported":1784374981,"current_range_meters":38800,"station_id":"ce4bhr12rcd13ifvqhqg","pricing_plan_id":"cebpf4jnsgd1na2vs0mg"},{"bike_id":"ae5a0ed2-8aa5-425b-99f6-2aee209ee161","system_id":"levelo_inurba_marseille","lat":43.29186,"lon":5.35816,"is_reserved":false,"is_disabled":false,"rental_uris":{"android":"levelo://app?vid=ae5a0ed2-8aa5-425b-99f6-2aee209ee161","ios":"levelo://app?vid=ae5a0ed2-8aa5-425b-99f6-2aee209ee161"},"vehicle_type_id":"4","last_reported":1784374981,"current_range_meters":23200,"station_id":"ce4bhb12rcd13ifvqel0","pricing_plan_id":"cebpf4jnsgd1na2vs0mg"},{"bike_id":"d7282232-c975-4a88-8978-14c4ed2ea27c","system_id":"levelo_inurba_marseille","lat":43.26956,"lon":5.38638,"is_reserved":false,"is_disabled":false,"rental_uris":{"android":"levelo://app?vid=d7282232-c975-4a88-8978-14c4ed2ea27c","ios":"levelo://app?vid=d7282232-c975-4a88-8978-14c4ed2ea27c"},"vehicle_type_id":"4","last_reported":1784374981,"current_range_meters":39200,"station_id":"ce4bhh92rcd13ifvqfh0","pricing_plan_id":"cebpf4jnsgd1na2vs0mg"},{"bike_id":"0f6ff1da-c9e3-42e7-a8d3-8280d1c0addc","system_id":"levelo_inurba_marseille","lat":43.3375,"lon":5.37451,"is_reserved":false,"is_disabled":false,"rental_uris":{"android":"levelo://app?vid=0f6ff1da-c9e3-42e7-a8d3-8280d1c0addc","ios":"levelo://app?vid=0f6ff1da-c9e3-42e7-a8d3-8280d1c0addc"},"vehicle_type_id":"4","last_reported":1784374981,"current_range_meters":30400,"station_id":"","pricing_plan_id":"cebpf4jnsgd1na2vs0mg"},{"bike_id":"1e628dec-3141-48e0-b510-1c285ab03f4c","system_id":"levelo_inurba_marseille","lat":43.26371,"lon":5.41058,"is_reserved":false,"is_disabled":false,"rental_uris":{"android":"levelo://app?vid=1e628dec-3141-48e0-b510-1c285ab03f4c","ios":"levelo://app?vid=1e628dec-3141-48e0-b510-1c285ab03f4c"},"vehicle_type_id":"4","last_reported":1784374981,"current_range_meters":38800,"station_id":"st_d4e5ca6na9uc73bfl5fg","pricing_plan_id":"cebpf4jnsgd1na2vs0mg"},{"bike_id":"8337f5b4-2806-4bc0-9f71-af183adb5db8","system_id":"levelo_inurba_marseille","lat":43.23822,"lon":5.43512,"is_reserved":false,"is_disabled":false,"rental_uris":{"android":"levelo://app?vid=8337f5b4-2806-4bc0-9f71-af183adb5db8","ios":"levelo://app?vid=8337f5b4-2806-4bc0-9f71-af183adb5db8"},"vehicle_type_id":"4","last_reported":1784374981,"current_range_meters":8800,"station_id":"","pricing_plan_id":"cebpf4jnsgd1na2vs0mg"},{"bike_id":"1d97b98d-7b1a-4d20-9542-c79ab1eb85b4","system_id":"levelo_inurba_marseille","lat":43.31902,"lon":5.36815,"is_reserved":false,"is_disabled":false,"rental_uris":{"android":"levelo://app?vid=1d97b98d-7b1a-4d20-9542-c79ab1eb85b4","ios":"levelo://app?vid=1d97b98d-7b1a-4d20-9542-c79ab1eb85b4"},"vehicle_type_id":"4","last_reported":1784374981,"current_range_meters":12800,"station_id":"st_d6o2h0d0559c73evc1b0","pricing_plan_id":"cebpf4jnsgd1na2vs0mg"},{"bike_id":"6fc8b5b0-6351-4c5d-a6ac-3a414b33f1d2","system_id":"levelo_inurba_marseille","lat":43.26024,"lon":5.37553,"is_reserved":false,"is_disabled":false,"rental_uris":{"android":"levelo://app?vid=6fc8b5b0-6351-4c5d-a6ac-3a414b33f1d2","ios":"levelo://app?vid=6fc8b5b0-6351-4c5d-a6ac-3a414b33f1d2"},"vehicle_type_id":"4","last_reported":1784374981,"current_range_meters":35600,"station_id":"ce4bhgh2rcd13ifvqfa0","pricing_plan_id":"cebpf4jnsgd1na2vs0mg"},{"bike_id":"8234e4ba-c0cc-45bb-8dac-83745f25b6f7","system_id":"levelo_inurba_marseille","lat":43.32477,"lon":5.36571,"is_reserved":false,"is_disabled":false,"rental_uris":{"android":"levelo://app?vid=8234e4ba-c0cc-45bb-8dac-83745f25b6f7","ios":"levelo://app?vid=8234e4ba-c0cc-45bb-8dac-83745f25b6f7"},"vehicle_type_id":"4","last_reported":1784374981,"current_range_meters":27200,"station_id":"ce4bhs12rcd13ifvqhvg","pricing_plan_id":"cebpf4jnsgd1na2vs0mg"},{"bike_id":"ad193227-d210-4e9a-af26-3f25b41f58db","system_id":"levelo_inurba_marseille","lat":43.23895,"lon":5.37472,"is_reserved":false,"is_disabled":false,"rental_uris":{"android":"levelo://app?vid=ad193227-d210-4e9a-af26-3f25b41f58db","ios":"levelo://app?vid=ad193227-d210-4e9a-af26-3f25b41f58db"},"vehicle_type_id":"4","last_reported":1784374981,"current_range_meters":38000,"station_id":"st_d6sm7csbq4hs73f8fpjg","pricing_plan_id":"cebpf4jnsgd1na2vs0mg"},{"bike_id":"ee06a958-7f2b-4eb7-a6b1-2d3112db17a0","system_id":"levelo_inurba_marseille","lat":43.30865,"lon":5.37198,"is_reserved":false,"is_disabled":false,"rental_uris":{"android":"levelo://app?vid=ee06a958-7f2b-4eb7-a6b1-2d3112db17a0","ios":"levelo://app?vid=ee06a958-7f2b-4eb7-a6b1-2d3112db17a0"},"vehicle_type_id":"4","last_reported":1784374981,"current_range_meters":36400,"station_id":"ce4bguh2rcd13ifvqckg","pricing_plan_id":"cebpf4jnsgd1na2vs0mg"},{"bike_id":"7d565e8a-b267-420f-b35b-131c47ec8e43","system_id":"levelo_inurba_marseille","lat":43.30465,"lon":5.379015,"is_reserved":false,"is_disabled":true,"rental_uris":{"android":"levelo://app?vid=7d565e8a-b267-420f-b35b-131c47ec8e43","ios":"levelo://app?vid=7d565e8a-b267-420f-b35b-131c47ec8e43"},"vehicle_type_id":"4","last_reported":1784374981,"current_range_meters":0,"station_id":"ce4bgup2rcd13ifvqcn0","pricing_plan_id":"cebpf4jnsgd1na2vs0mg"},{"bike_id":"5056677b-eb57-4a36-a97e-c1ea58d45322","system_id":"levelo_inurba_marseille","lat":43.31356,"lon":5.38498,"is_reserved":false,"is_disabled":false,"rental_uris":{"android":"levelo://app?vid=5056677b-eb57-4a36-a97e-c1ea58d45322","ios":"levelo://app?vid=5056677b-eb57-4a36-a97e-c1ea58d45322"},"vehicle_type_id":"4","last_reported":1784374981,"current_range_meters":38800,"station_id":"ce4bgt92rcd13ifvqcf0","pricing_plan_id":"cebpf4jnsgd1na2vs0mg"},{"bike_id":"07d6c3a0-4d4f-4938-8226-e7647b3829f9","system_id":"levelo_inurba_marseille","lat":43.27313,"lon":5.39085,"is_reserved":false,"is_disabled":false,"rental_uris":{"android":"levelo://app?vid=07d6c3a0-4d4f-4938-8226-e7647b3829f9","ios":"levelo://app?vid=07d6c3a0-4d4f-4938-8226-e7647b3829f9"},"vehicle_type_id":"4","last_reported":1784374981,"current_range_meters":33600,"station_id":"ce4bhgp2rcd13ifvqfe0","pricing_plan_id":"cebpf4jnsgd1na2vs0mg"},{"bike_id":"f4a1091b-da1f-4203-87c5-5e199d6cf2d8","system_id":"levelo_inurba_marseille","lat":43.30746,"lon":5.42438,"is_reserved":false,"is_disabled":false,"rental_uris":{"android":"levelo://app?vid=f4a1091b-da1f-4203-87c5-5e199d6cf2d8","ios":"levelo://app?vid=f4a1091b-da1f-4203-87c5-5e199d6cf2d8"},"vehicle_type_id":"4","last_reported":1784374981,"current_range_meters":35600,"station_id":"st_cvj6ca6bvosntc0bfgr0","pricing_plan_id":"cebpf4jnsgd1na2vs0mg"},{"bike_id":"942148f9-90f2-4171-8f05-98ba0ca85bcb","system_id":"levelo_inurba_marseille","lat":43.2847,"lon":5.48413,"is_reserved":false,"is_disabled":false,"rental_uris":{"android":"levelo://app?vid=942148f9-90f2-4171-8f05-98ba0ca85bcb","ios":"levelo://app?vid=942148f9-90f2-4171-8f05-98ba0ca85bcb"},"vehicle_type_id":"4","last_reported":1784374981,"current_range_meters":4800,"station_id":"st_d3svhcjqgbts73a3dn0g","pricing_plan_id":"cebpf4jnsgd1na2vs0mg"},{"bike_id":"c810f4d1-b4da-406c-8d26-e38927a8150c","system_id":"levelo_inurba_marseille","lat":43.26683,"lon":5.38269,"is_reserved":false,"is_disabled":false,"rental_uris":{"android":"levelo://app?vid=c810f4d1-b4da-406c-8d26-e38927a8150c","ios":"levelo://app?vid=c810f4d1-b4da-406c-8d26-e38927a8150c"},"vehicle_type_id":"4","last_reported":1784374981,"current_range_meters":30400,"station_id":"ce4bhg92rcd13ifvqf90","pricing_plan_id":"cebpf4jnsgd1na2vs0mg"},{"bike_id":"b2b194ed-86a5-4dc8-b828-5b80e1681197","system_id":"levelo_inurba_marseille","lat":43.28517,"lon":5.4409,"is_reserved":false,"is_disabled":false,"rental_uris":{"android":"levelo://app?vid=b2b194ed-86a5-4dc8-b828-5b80e1681197","ios":"levelo://app?vid=b2b194ed-86a5-4dc8-b828-5b80e1681197"},"vehicle_type_id":"4","last_reported":1784374981,"current_range_meters":38800,"station_id":"st_d3j3df2ikq2c7380ej80","pricing_plan_id":"cebpf4jnsgd1na2vs0mg"},{"bike_id":"d180132e-f1a9-41a8-a2cc-e1f147744b6e","system_id":"levelo_inurba_marseille","lat":43.27928,"lon":5.38711,"is_reserved":false,"is_disabled":false,"rental_uris":{"android":"levelo://app?vid=d180132e-f1a9-41a8-a2cc-e1f147744b6e","ios":"levelo://app?vid=d180132e-f1a9-41a8-a2cc-e1f147744b6e"},"vehicle_type_id":"4","last_reported":1784374981,"current_range_meters":39200,"station_id":"","pricing_plan_id":"cebpf4jnsgd1na2vs0mg"},{"bike_id":"2a93def1-9840-4751-b465-b53bb0ce6123","system_id":"levelo_inurba_marseille","lat":43.22559,"lon":5.41631,"is_reserved":false,"is_disabled":false,"rental_uris":{"android":"levelo://app?vid=2a93def1-9840-4751-b465-b53bb0ce6123","ios":"levelo://app?vid=2a93def1-9840-4751-b465-b53bb0ce6123"},"vehicle_type_id":"4","last_reported":1784374981,"current_range_meters":12000,"station_id":"st_d2o4gvlbi1j2169b742g","pricing_plan_id":"cebpf4jnsgd1na2vs0mg"},{"bike_id":"edf2de48-0e02-4593-b7d3-e5418dcef451","system_id":"levelo_inurba_marseille","lat":43.30463,"lon":5.37909,"is_reserved":false,"is_disabled":false,"rental_uris":{"android":"levelo://app?vid=edf2de48-0e02-4593-b7d3-e5418dcef451","ios":"levelo://app?vid=edf2de48-0e02-4593-b7d3-e5418dcef451"},"vehicle_type_id":"4","last_reported":1784374981,"current_range_meters":26800,"station_id":"ce4bgup2rcd13ifvqcn0","pricing_plan_id":"cebpf4jnsgd1na2vs0mg"},{"bike_id":"d2b08bfe-8d05-4397-91e9-fe938a2b845f","system_id":"levelo_inurba_marseille","lat":43.27499,"lon":5.42453,"is_reserved":false,"is_disabled":false,"rental_uris":{"android":"levelo://app?vid=d2b08bfe-8d05-4397-91e9-fe938a2b845f","ios":"levelo://app?vid=d2b08bfe-8d05-4397-91e9-fe938a2b845f"},"vehicle_type_id":"4","last_reported":1784374981,"current_range_meters":32000,"station_id":"ce4bhn92rcd13ifvqgrg","pricing_plan_id":"cebpf4jnsgd1na2vs0mg"},{"bike_id":"23b107ce-b6cc-45b7-bbb8-6fc6a6cbc260","system_id":"levelo_inurba_marseille","lat":43.31757,"lon":5.39015,"is_reserved":false,"is_disabled":false,"rental_uris":{"android":"levelo://app?vid=23b107ce-b6cc-45b7-bbb8-6fc6a6cbc260","ios":"levelo://app?vid=23b107ce-b6cc-45b7-bbb8-6fc6a6cbc260"},"vehicle_type_id":"4","last_reported":1784374981,"current_range_meters":17200,"station_id":"ce4bhqp2rcd13ifvqhng","pricing_plan_id":"cebpf4jnsgd1na2vs0mg"},{"bike_id":"1c42f203-e04d-4bd2-ba24-a170a2dbe8fc","system_id":"levelo_inurba_marseille","lat":43.29574,"lon":5.37564,"is_reserved":false,"is_disabled":false,"rental_uris":{"android":"levelo://app?vid=1c42f203-e04d-4bd2-ba24-a170a2dbe8fc","ios":"levelo://app?vid=1c42f203-e04d-4bd2-ba24-a170a2dbe8fc"},"vehicle_type_id":"4","last_reported":1784374981,"current_range_meters":32800,"station_id":"ce4bgh92rcd13ifvqb50","pricing_plan_id":"cebpf4jnsgd1na2vs0mg"},{"bike_id":"83741070-3a1f-46c3-b431-07eff2814aa4","system_id":"levelo_inurba_marseille","lat":43.27482,"lon":5.36112,"is_reserved":false,"is_disabled":true,"rental_uris":{"android":"levelo://app?vid=83741070-3a1f-46c3-b431-07eff2814aa4","ios":"levelo://app?vid=83741070-3a1f-46c3-b431-07eff2814aa4"},"vehicle_type_id":"4","last_reported":1784374981,"current_range_meters":0,"station_id":"","pricing_plan_id":"cebpf4jnsgd1na2vs0mg"},{"bike_id":"e97d923d-d560-461e-94e7-6b746b3d8d92","system_id":"levelo_inurba_marseille","lat":43.32118,"lon":5.36778,"is_reserved":false,"is_disabled":false,"rental_uris":{"android":"levelo://app?vid=e97d923d-d560-461e-94e7-6b746b3d8d92","ios":"levelo://app?vid=e97d923d-d560-461e-94e7-6b746b3d8d92"},"vehicle_type_id":"4","last_reported":1784374981,"current_range_meters":26000,"station_id":"ce4bhrh2rcd13ifvqhug","pricing_plan_id":"cebpf4jnsgd1na2vs0mg"},{"bike_id":"eb97f188-bf77-4cfa-82f5-3cc624843059","system_id":"levelo_inurba_marseille","lat":43.26956,"lon":5.38639,"is_reserved":false,"is_disabled":false,"rental_uris":{"android":"levelo://app?vid=eb97f188-bf77-4cfa-82f5-3cc624843059","ios":"levelo://app?vid=eb97f188-bf77-4cfa-82f5-3cc624843059"},"vehicle_type_id":"4","last_reported":1784374981,"current_range_meters":39200,"station_id":"ce4bhh92rcd13ifvqfh0","pricing_plan_id":"cebpf4jnsgd1na2vs0mg"},{"bike_id":"006d845d-5708-4579-9596-ebb2a960282b","system_id":"levelo_inurba_marseille","lat":43.27209,"lon":5.39168,"is_reserved":false,"is_disabled":false,"rental_uris":{"android":"levelo://app?vid=006d845d-5708-4579-9596-ebb2a960282b","ios":"levelo://app?vid=006d845d-5708-4579-9596-ebb2a960282b"},"vehicle_type_id":"4","last_reported":1784374981,"current_range_meters":38800,"station_id":"ce4bhhp2rcd13ifvqfm0","pricing_plan_id":"cebpf4jnsgd1na2vs0mg"},{"bike_id":"48837646-8c52-45de-9e76-9ec9cdd47775","system_id":"levelo_inurba_marseille","lat":43.28749,"lon":5.38551,"is_reserved":false,"is_disabled":false,"rental_uris":{"android":"levelo://app?vid=48837646-8c52-45de-9e76-9ec9cdd47775","ios":"levelo://app?vid=48837646-8c52-45de-9e76-9ec9cdd47775"},"vehicle_type_id":"4","last_reported":1784374981,"current_range_meters":10800,"station_id":"","pricing_plan_id":"cebpf4jnsgd1na2vs0mg"},{"bike_id":"aea5e7b6-070d-40f2-910e-ed36e3d2a61b","system_id":"levelo_inurba_marseille","lat":43.32005,"lon":5.38147,"is_reserved":false,"is_disabled":false,"rental_uris":{"android":"levelo://app?vid=aea5e7b6-070d-40f2-910e-ed36e3d2a61b","ios":"levelo://app?vid=aea5e7b6-070d-40f2-910e-ed36e3d2a61b"},"vehicle_type_id":"4","last_reported":1784374981,"current_range_meters":29600,"station_id":"ce4bhr12rcd13ifvqhpg","pricing_plan_id":"cebpf4jnsgd1na2vs0mg"},{"bike_id":"9ded3aaf-3123-4885-b287-bf61b9d86866","system_id":"levelo_inurba_marseille","lat":43.21753,"lon":5.34608,"is_reserved":false,"is_disabled":false,"rental_uris":{"android":"levelo://app?vid=9ded3aaf-3123-4885-b287-bf61b9d86866","ios":"levelo://app?vid=9ded3aaf-3123-4885-b287-bf61b9d86866"},"vehicle_type_id":"4","last_reported":1784374981,"current_range_meters":7200,"station_id":"st_cvj6r9ubvosntc0bgbag","pricing_plan_id":"cebpf4jnsgd1na2vs0mg"},{"bike_id":"4d4f8116-b78d-45df-894b-0d08a3cd82b5","system_id":"levelo_inurba_marseille","lat":43.30708,"lon":5.38404,"is_reserved":false,"is_disabled":false,"rental_uris":{"android":"levelo://app?vid=4d4f8116-b78d-45df-894b-0d08a3cd82b5","ios":"levelo://app?vid=4d4f8116-b78d-45df-894b-0d08a3cd82b5"},"vehicle_type_id":"4","last_reported":1784374981,"current_range_meters":4800,"station_id":"","pricing_plan_id":"cebpf4jnsgd1na2vs0mg"},{"bike_id":"c4dbc9b6-78b5-4fd7-951c-6f5619e68399","system_id":"levelo_inurba_marseille","lat":43.33761,"lon":5.37441,"is_reserved":false,"is_disabled":false,"rental_uris":{"android":"levelo://app?vid=c4dbc9b6-78b5-4fd7-951c-6f5619e68399","ios":"levelo://app?vid=c4dbc9b6-78b5-4fd7-951c-6f5619e68399"},"vehicle_type_id":"4","last_reported":1784374981,"current_range_meters":38400,"station_id":"","pricing_plan_id":"cebpf4jnsgd1na2vs0mg"},{"bike_id":"183060a4-3267-48cb-9b5a-6aa1ec813fef","system_id":"levelo_inurba_marseille","lat":43.31217,"lon":5.3684,"is_reserved":false,"is_disabled":false,"rental_uris":{"android":"levelo://app?vid=183060a4-3267-48cb-9b5a-6aa1ec813fef","ios":"levelo://app?vid=183060a4-3267-48cb-9b5a-6aa1ec813fef"},"vehicle_type_id":"4","last_reported":1784374981,"current_range_meters":39200,"station_id":"ce4bgl92rcd13ifvqbq0","pricing_plan_id":"cebpf4jnsgd1na2vs0mg"},{"bike_id":"f5d60082-14d9-4563-89ae-263807d37ce3","system_id":"levelo_inurba_marseille","lat":43.28532,"lon":5.44117,"is_reserved":false,"is_disabled":false,"rental_uris":{"android":"levelo://app?vid=f5d60082-14d9-4563-89ae-263807d37ce3","ios":"levelo://app?vid=f5d60082-14d9-4563-89ae-263807d37ce3"},"vehicle_type_id":"4","last_reported":1784374981,"current_range_meters":38800,"station_id":"st_d3j3df2ikq2c7380ej80","pricing_plan_id":"cebpf4jnsgd1na2vs0mg"},{"bike_id":"f874777c-a853-4d0c-a8d2-1fc6b2084091","system_id":"levelo_inurba_marseille","lat":43.28484,"lon":5.38422,"is_reserved":false,"is_disabled":false,"rental_uris":{"android":"levelo://app?vid=f874777c-a853-4d0c-a8d2-1fc6b2084091","ios":"levelo://app?vid=f874777c-a853-4d0c-a8d2-1fc6b2084091"},"vehicle_type_id":"4","last_reported":1784374981,"current_range_meters":22800,"station_id":"ce4bh512rcd13ifvqe3g","pricing_plan_id":"cebpf4jnsgd1na2vs0mg"},{"bike_id":"b64426df-a3f7-424e-923a-a5218fc5bce4","system_id":"levelo_inurba_marseille","lat":43.27651,"lon":5.38965,"is_reserved":false,"is_disabled":false,"rental_uris":{"android":"levelo://app?vid=b64426df-a3f7-424e-923a-a5218fc5bce4","ios":"levelo://app?vid=b64426df-a3f7-424e-923a-a5218fc5bce4"},"vehicle_type_id":"4","last_reported":1784374981,"current_range_meters":27600,"station_id":"","pricing_plan_id":"cebpf4jnsgd1na2vs0mg"},{"bike_id":"7d566c0f-7657-49e5-ab6c-759efdec1e88","system_id":"levelo_inurba_marseille","lat":43.27209,"lon":5.39186,"is_reserved":false,"is_disabled":false,"rental_uris":{"android":"levelo://app?vid=7d566c0f-7657-49e5-ab6c-759efdec1e88","ios":"levelo://app?vid=7d566c0f-7657-49e5-ab6c-759efdec1e88"},"vehicle_type_id":"4","last_reported":1784374981,"current_range_meters":15200,"station_id":"ce4bhhp2rcd13ifvqfm0","pricing_plan_id":"cebpf4jnsgd1na2vs0mg"},{"bike_id":"3d4aa178-44db-467e-a1bd-4fcdf991f22c","system_id":"levelo_inurba_marseille","lat":43.31721,"lon":5.43717,"is_reserved":false,"is_disabled":false,"rental_uris":{"android":"levelo://app?vid=3d4aa178-44db-467e-a1bd-4fcdf991f22c","ios":"levelo://app?vid=3d4aa178-44db-467e-a1bd-4fcdf991f22c"},"vehicle_type_id":"4","last_reported":1784374981,"current_range_meters":39200,"station_id":"ce4bhp92rcd13ifvqhcg","pricing_plan_id":"cebpf4jnsgd1na2vs0mg"},{"bike_id":"78b472ae-7ca1-438d-a65f-f93d06645001","system_id":"levelo_inurba_marseille","lat":43.29201,"lon":5.36036,"is_reserved":false,"is_disabled":true,"rental_uris":{"android":"levelo://app?vid=78b472ae-7ca1-438d-a65f-f93d06645001","ios":"levelo://app?vid=78b472ae-7ca1-438d-a65f-f93d06645001"},"vehicle_type_id":"4","last_reported":1784374981,"current_range_meters":3600,"station_id":"","pricing_plan_id":"cebpf4jnsgd1na2vs0mg"},{"bike_id":"a11a6339-dae6-4a13-a6a7-f99c0b5ddda5","system_id":"levelo_inurba_marseille","lat":43.29034,"lon":5.37559,"is_reserved":false,"is_disabled":false,"rental_uris":{"android":"levelo://app?vid=a11a6339-dae6-4a13-a6a7-f99c0b5ddda5","ios":"levelo://app?vid=a11a6339-dae6-4a13-a6a7-f99c0b5ddda5"},"vehicle_type_id":"4","last_reported":1784374981,"current_range_meters":10000,"station_id":"ce4bh692rcd13ifvqe90","pricing_plan_id":"cebpf4jnsgd1na2vs0mg"},{"bike_id":"dd76154e-9196-4c32-8428-20b541d39152","system_id":"levelo_inurba_marseille","lat":43.30143,"lon":5.38104,"is_reserved":false,"is_disabled":false,"rental_uris":{"android":"levelo://app?vid=dd76154e-9196-4c32-8428-20b541d39152","ios":"levelo://app?vid=dd76154e-9196-4c32-8428-20b541d39152"},"vehicle_type_id":"4","last_reported":1784374981,"current_range_meters":14400,"station_id":"ce4bgjp2rcd13ifvqbh0","pricing_plan_id":"cebpf4jnsgd1na2vs0mg"},{"bike_id":"3e958c34-f027-4657-989a-77c7cb29fec9","system_id":"levelo_inurba_marseille","lat":43.27986,"lon":5.41648,"is_reserved":false,"is_disabled":false,"rental_uris":{"android":"levelo://app?vid=3e958c34-f027-4657-989a-77c7cb29fec9","ios":"levelo://app?vid=3e958c34-f027-4657-989a-77c7cb29fec9"},"vehicle_type_id":"4","last_reported":1784374981,"current_range_meters":30000,"station_id":"ce4bho12rcd13ifvqh1g","pricing_plan_id":"cebpf4jnsgd1na2vs0mg"},{"bike_id":"d2f34006-1965-4081-80c1-914b2b32ec56","system_id":"levelo_inurba_marseille","lat":43.24164,"lon":5.36409,"is_reserved":false,"is_disabled":false,"rental_uris":{"android":"levelo://app?vid=d2f34006-1965-4081-80c1-914b2b32ec56","ios":"levelo://app?vid=d2f34006-1965-4081-80c1-914b2b32ec56"},"vehicle_type_id":"4","last_reported":1784374981,"current_range_meters":20400,"station_id":"cpo36qri1sfpv3e86is0","pricing_plan_id":"cebpf4jnsgd1na2vs0mg"},{"bike_id":"348caf77-82d6-4562-a72e-c7becae0b0ae","system_id":"levelo_inurba_marseille","lat":43.230549,"lon":5.354901,"is_reserved":false,"is_disabled":false,"rental_uris":{"android":"levelo://app?vid=348caf77-82d6-4562-a72e-c7becae0b0ae","ios":"levelo://app?vid=348caf77-82d6-4562-a72e-c7becae0b0ae"},"vehicle_type_id":"4","last_reported":1784374981,"current_range_meters":39200,"station_id":"cpo3342slgdg3j2ifvpg","pricing_plan_id":"cebpf4jnsgd1na2vs0mg"},{"bike_id":"88b3333d-68df-42df-8ef7-a9a4f08abce5","system_id":"levelo_inurba_marseille","lat":43.22916,"lon":5.41527,"is_reserved":false,"is_disabled":false,"rental_uris":{"android":"levelo://app?vid=88b3333d-68df-42df-8ef7-a9a4f08abce5","ios":"levelo://app?vid=88b3333d-68df-42df-8ef7-a9a4f08abce5"},"vehicle_type_id":"4","last_reported":1784374981,"current_range_meters":23200,"station_id":"","pricing_plan_id":"cebpf4jnsgd1na2vs0mg"},{"bike_id":"09ba8df8-40fd-4a4a-9e13-bc588fe60b64","system_id":"levelo_inurba_marseille","lat":43.28616,"lon":5.35095,"is_reserved":false,"is_disabled":false,"rental_uris":{"android":"levelo://app?vid=09ba8df8-40fd-4a4a-9e13-bc588fe60b64","ios":"levelo://app?vid=09ba8df8-40fd-4a4a-9e13-bc588fe60b64"},"vehicle_type_id":"4","last_reported":1784374981,"current_range_meters":22000,"station_id":"ce4bhch2rcd13ifvqeug","pricing_plan_id":"cebpf4jnsgd1na2vs0mg"},{"bike_id":"f160515b-0b5b-4bb7-9662-e82e0b140ef2","system_id":"levelo_inurba_marseille","lat":43.21741,"lon":5.34604,"is_reserved":false,"is_disabled":false,"rental_uris":{"android":"levelo://app?vid=f160515b-0b5b-4bb7-9662-e82e0b140ef2","ios":"levelo://app?vid=f160515b-0b5b-4bb7-9662-e82e0b140ef2"},"vehicle_type_id":"4","last_reported":1784374981,"current_range_meters":20000,"station_id":"st_cvj6r9ubvosntc0bgbag","pricing_plan_id":"cebpf4jnsgd1na2vs0mg"},{"bike_id":"cbf57bb6-373a-442c-9860-92cf9215a1bb","system_id":"levelo_inurba_marseille","lat":43.30542,"lon":5.36563,"is_reserved":false,"is_disabled":true,"rental_uris":{"android":"levelo://app?vid=cbf57bb6-373a-442c-9860-92cf9215a1bb","ios":"levelo://app?vid=cbf57bb6-373a-442c-9860-92cf9215a1bb"},"vehicle_type_id":"4","last_reported":1784374981,"current_range_meters":25200,"station_id":"ce4bgs12rcd13ifvqcag","pricing_plan_id":"cebpf4jnsgd1na2vs0mg"},{"bike_id":"69099ed8-e9ad-48b8-baf4-c83fb449e2c2","system_id":"levelo_inurba_marseille","lat":43.26214,"lon":5.3744,"is_reserved":false,"is_disabled":false,"rental_uris":{"android":"levelo://app?vid=69099ed8-e9ad-48b8-baf4-c83fb449e2c2","ios":"levelo://app?vid=69099ed8-e9ad-48b8-baf4-c83fb449e2c2"},"vehicle_type_id":"4","last_reported":1784374981,"current_range_meters":38800,"station_id":"ce4bhgp2rcd13ifvqfc0","pricing_plan_id":"cebpf4jnsgd1na2vs0mg"},{"bike_id":"d9632fc5-4f25-4268-8d79-87fd6d52e7c0","system_id":"levelo_inurba_marseille","lat":43.24813,"lon":5.37462,"is_reserved":false,"is_disabled":false,"rental_uris":{"android":"levelo://app?vid=d9632fc5-4f25-4268-8d79-87fd6d52e7c0","ios":"levelo://app?vid=d9632fc5-4f25-4268-8d79-87fd6d52e7c0"},"vehicle_type_id":"4","last_reported":1784374981,"current_range_meters":20400,"station_id":"ce4bhgh2rcd13ifvqfb0","pricing_plan_id":"cebpf4jnsgd1na2vs0mg"},{"bike_id":"e8b2132e-2e2f-4678-bd27-ce3f9f11f158","system_id":"levelo_inurba_marseille","lat":43.30465,"lon":5.37899,"is_reserved":false,"is_disabled":true,"rental_uris":{"android":"levelo://app?vid=e8b2132e-2e2f-4678-bd27-ce3f9f11f158","ios":"levelo://app?vid=e8b2132e-2e2f-4678-bd27-ce3f9f11f158"},"vehicle_type_id":"4","last_reported":1784374981,"current_range_meters":16400,"station_id":"ce4bgup2rcd13ifvqcn0","pricing_plan_id":"cebpf4jnsgd1na2vs0mg"},{"bike_id":"17f00b12-f8d0-413a-b992-98dadbd11261","system_id":"levelo_inurba_marseille","lat":43.25015,"lon":5.38922,"is_reserved":false,"is_disabled":false,"rental_uris":{"android":"levelo://app?vid=17f00b12-f8d0-413a-b992-98dadbd11261","ios":"levelo://app?vid=17f00b12-f8d0-413a-b992-98dadbd11261"},"vehicle_type_id":"4","last_reported":1784374981,"current_range_meters":32000,"station_id":"ce4bhgp2rcd13ifvqfd0","pricing_plan_id":"cebpf4jnsgd1na2vs0mg"},{"bike_id":"d0689963-1360-4eec-9974-1c99b2ed8187","system_id":"levelo_inurba_marseille","lat":43.30589,"lon":5.37221,"is_reserved":false,"is_disabled":true,"rental_uris":{"android":"levelo://app?vid=d0689963-1360-4eec-9974-1c99b2ed8187","ios":"levelo://app?vid=d0689963-1360-4eec-9974-1c99b2ed8187"},"vehicle_type_id":"4","last_reported":1784374981,"current_range_meters":37600,"station_id":"ce4bgqh2rcd13ifvqc4g","pricing_plan_id":"cebpf4jnsgd1na2vs0mg"},{"bike_id":"4f54c651-15d1-492f-8d09-70f1f809ad4f","system_id":"levelo_inurba_marseille","lat":43.27475,"lon":5.42555,"is_reserved":false,"is_disabled":false,"rental_uris":{"android":"levelo://app?vid=4f54c651-15d1-492f-8d09-70f1f809ad4f","ios":"levelo://app?vid=4f54c651-15d1-492f-8d09-70f1f809ad4f"},"vehicle_type_id":"4","last_reported":1784374981,"current_range_meters":22400,"station_id":"st_d8t4bh7nbrqs73arha60","pricing_plan_id":"cebpf4jnsgd1na2vs0mg"},{"bike_id":"7065528a-f292-4b1d-9927-6e05933d2cf0","system_id":"levelo_inurba_marseille","lat":43.22562,"lon":5.41635,"is_reserved":false,"is_disabled":false,"rental_uris":{"android":"levelo://app?vid=7065528a-f292-4b1d-9927-6e05933d2cf0","ios":"levelo://app?vid=7065528a-f292-4b1d-9927-6e05933d2cf0"},"vehicle_type_id":"4","last_reported":1784374981,"current_range_meters":27600,"station_id":"st_d2o4gvlbi1j2169b742g","pricing_plan_id":"cebpf4jnsgd1na2vs0mg"},{"bike_id":"a21c1dba-9af9-497d-86de-500a284e4f1c","system_id":"levelo_inurba_marseille","lat":43.26194,"lon":5.37927,"is_reserved":false,"is_disabled":false,"rental_uris":{"android":"levelo://app?vid=a21c1dba-9af9-497d-86de-500a284e4f1c","ios":"levelo://app?vid=a21c1dba-9af9-497d-86de-500a284e4f1c"},"vehicle_type_id":"4","last_reported":1784374981,"current_range_meters":39200,"station_id":"ce4bhjp2rcd13ifvqg90","pricing_plan_id":"cebpf4jnsgd1na2vs0mg"},{"bike_id":"02f6963e-dcc2-4cb5-8f89-7f8ac684c99b","system_id":"levelo_inurba_marseille","lat":43.29532,"lon":5.37527,"is_reserved":false,"is_disabled":false,"rental_uris":{"android":"levelo://app?vid=02f6963e-dcc2-4cb5-8f89-7f8ac684c99b","ios":"levelo://app?vid=02f6963e-dcc2-4cb5-8f89-7f8ac684c99b"},"vehicle_type_id":"4","last_reported":1784374981,"current_range_meters":6800,"station_id":"ce4bgkp2rcd13ifvqbmg","pricing_plan_id":"cebpf4jnsgd1na2vs0mg"},{"bike_id":"63e5267e-189d-4b67-a5c7-2b64e2e2184b","system_id":"levelo_inurba_marseille","lat":43.24654,"lon":5.38896,"is_reserved":false,"is_disabled":false,"rental_uris":{"android":"levelo://app?vid=63e5267e-189d-4b67-a5c7-2b64e2e2184b","ios":"levelo://app?vid=63e5267e-189d-4b67-a5c7-2b64e2e2184b"},"vehicle_type_id":"4","last_reported":1784374981,"current_range_meters":34000,"station_id":"ce4bhg12rcd13ifvqf60","pricing_plan_id":"cebpf4jnsgd1na2vs0mg"},{"bike_id":"e35b3037-ccf2-48a7-b6f2-14a77143bba4","system_id":"levelo_inurba_marseille","lat":43.32346,"lon":5.36769,"is_reserved":false,"is_disabled":false,"rental_uris":{"android":"levelo://app?vid=e35b3037-ccf2-48a7-b6f2-14a77143bba4","ios":"levelo://app?vid=e35b3037-ccf2-48a7-b6f2-14a77143bba4"},"vehicle_type_id":"4","last_reported":1784374981,"current_range_meters":30400,"station_id":"ce4bhsh2rcd13ifvqi2g","pricing_plan_id":"cebpf4jnsgd1na2vs0mg"},{"bike_id":"0cc9064c-9e67-4dd7-b11e-84260d626c23","system_id":"levelo_inurba_marseille","lat":43.29905,"lon":5.38133,"is_reserved":false,"is_disabled":true,"rental_uris":{"android":"levelo://app?vid=0cc9064c-9e67-4dd7-b11e-84260d626c23","ios":"levelo://app?vid=0cc9064c-9e67-4dd7-b11e-84260d626c23"},"vehicle_type_id":"4","last_reported":1784374981,"current_range_meters":27200,"station_id":"ce4bgj12rcd13ifvqbc0","pricing_plan_id":"cebpf4jnsgd1na2vs0mg"},{"bike_id":"a8300199-1789-4bc8-8198-4be2e5277446","system_id":"levelo_inurba_marseille","lat":43.28415,"lon":5.34986,"is_reserved":false,"is_disabled":false,"rental_uris":{"android":"levelo://app?vid=a8300199-1789-4bc8-8198-4be2e5277446","ios":"levelo://app?vid=a8300199-1789-4bc8-8198-4be2e5277446"},"vehicle_type_id":"4","last_reported":1784374981,"current_range_meters":24400,"station_id":"ce4bhbh2rcd13ifvqepg","pricing_plan_id":"cebpf4jnsgd1na2vs0mg"},{"bike_id":"27e47b1c-c6c8-4c7a-9057-a30a031a40ae","system_id":"levelo_inurba_marseille","lat":43.28419,"lon":5.34989,"is_reserved":false,"is_disabled":false,"rental_uris":{"android":"levelo://app?vid=27e47b1c-c6c8-4c7a-9057-a30a031a40ae","ios":"levelo://app?vid=27e47b1c-c6c8-4c7a-9057-a30a031a40ae"},"vehicle_type_id":"4","last_reported":1784374981,"current_range_meters":39200,"station_id":"ce4bhbh2rcd13ifvqepg","pricing_plan_id":"cebpf4jnsgd1na2vs0mg"},{"bike_id":"4fbc1513-b8de-4f35-90b5-6d3503675302","system_id":"levelo_inurba_marseille","lat":43.2901,"lon":5.35601,"is_reserved":false,"is_disabled":false,"rental_uris":{"android":"levelo://app?vid=4fbc1513-b8de-4f35-90b5-6d3503675302","ios":"levelo://app?vid=4fbc1513-b8de-4f35-90b5-6d3503675302"},"vehicle_type_id":"4","last_reported":1784374981,"current_range_meters":14400,"station_id":"ce4bhgp2rcd13ifvqfc0","pricing_plan_id":"cebpf4jnsgd1na2vs0mg"},{"bike_id":"d5059fa0-6871-48a8-9299-77f7fec79934","system_id":"levelo_inurba_marseille","lat":43.28414,"lon":5.34997,"is_reserved":false,"is_disabled":false,"rental_uris":{"android":"levelo://app?vid=d5059fa0-6871-48a8-9299-77f7fec79934","ios":"levelo://app?vid=d5059fa0-6871-48a8-9299-77f7fec79934"},"vehicle_type_id":"4","last_reported":1784374981,"current_range_meters":30400,"station_id":"ce4bhbh2rcd13ifvqepg","pricing_plan_id":"cebpf4jnsgd1na2vs0mg"},{"bike_id":"f23925bf-ec71-444f-9b1c-6a79e8650d38","system_id":"levelo_inurba_marseille","lat":43.29609,"lon":5.37715,"is_reserved":false,"is_disabled":false,"rental_uris":{"android":"levelo://app?vid=f23925bf-ec71-444f-9b1c-6a79e8650d38","ios":"levelo://app?vid=f23925bf-ec71-444f-9b1c-6a79e8650d38"},"vehicle_type_id":"4","last_reported":1784374981,"current_range_meters":39200,"station_id":"ce4bgi92rcd13ifvqb90","pricing_plan_id":"cebpf4jnsgd1na2vs0mg"},{"bike_id":"fd037da1-a432-432e-a3f2-dc764a6a6e13","system_id":"levelo_inurba_marseille","lat":43.28444,"lon":5.39208,"is_reserved":false,"is_disabled":false,"rental_uris":{"android":"levelo://app?vid=fd037da1-a432-432e-a3f2-dc764a6a6e13","ios":"levelo://app?vid=fd037da1-a432-432e-a3f2-dc764a6a6e13"},"vehicle_type_id":"4","last_reported":1784374981,"current_range_meters":33600,"station_id":"ce4bhoh2rcd13ifvqh5g","pricing_plan_id":"cebpf4jnsgd1na2vs0mg"},{"bike_id":"f55adb12-774f-4ebd-bb20-51656b1fce3c","system_id":"levelo_inurba_marseille","lat":43.30306,"lon":5.36896,"is_reserved":false,"is_disabled":true,"rental_uris":{"android":"levelo://app?vid=f55adb12-774f-4ebd-bb20-51656b1fce3c","ios":"levelo://app?vid=f55adb12-774f-4ebd-bb20-51656b1fce3c"},"vehicle_type_id":"4","last_reported":1784374981,"current_range_meters":36800,"station_id":"ce4bgqh2rcd13ifvqc5g","pricing_plan_id":"cebpf4jnsgd1na2vs0mg"},{"bike_id":"83e55caf-1c65-44bd-95c0-fa334073002e","system_id":"levelo_inurba_marseille","lat":43.27207,"lon":5.39193,"is_reserved":false,"is_disabled":false,"rental_uris":{"android":"levelo://app?vid=83e55caf-1c65-44bd-95c0-fa334073002e","ios":"levelo://app?vid=83e55caf-1c65-44bd-95c0-fa334073002e"},"vehicle_type_id":"4","last_reported":1784374981,"current_range_meters":26000,"station_id":"ce4bhhp2rcd13ifvqfm0","pricing_plan_id":"cebpf4jnsgd1na2vs0mg"},{"bike_id":"202f9ad0-42a8-41b4-9ba7-c7ec0280e620","system_id":"levelo_inurba_marseille","lat":43.23187,"lon":5.35555,"is_reserved":false,"is_disabled":false,"rental_uris":{"android":"levelo://app?vid=202f9ad0-42a8-41b4-9ba7-c7ec0280e620","ios":"levelo://app?vid=202f9ad0-42a8-41b4-9ba7-c7ec0280e620"},"vehicle_type_id":"4","last_reported":1784374981,"current_range_meters":36000,"station_id":"ce4bhu92rcd13ifvqi70","pricing_plan_id":"cebpf4jnsgd1na2vs0mg"},{"bike_id":"a2cc4697-bbd0-4fc2-891f-c6f2dfb93140","system_id":"levelo_inurba_marseille","lat":43.29105,"lon":5.38134,"is_reserved":false,"is_disabled":false,"rental_uris":{"android":"levelo://app?vid=a2cc4697-bbd0-4fc2-891f-c6f2dfb93140","ios":"levelo://app?vid=a2cc4697-bbd0-4fc2-891f-c6f2dfb93140"},"vehicle_type_id":"4","last_reported":1784374981,"current_range_meters":31200,"station_id":"ce4bh512rcd13ifvqe2g","pricing_plan_id":"cebpf4jnsgd1na2vs0mg"},{"bike_id":"f3955824-bc9b-40e3-bb4b-91c4e41aa833","system_id":"levelo_inurba_marseille","lat":43.30143,"lon":5.37413,"is_reserved":false,"is_disabled":true,"rental_uris":{"android":"levelo://app?vid=f3955824-bc9b-40e3-bb4b-91c4e41aa833","ios":"levelo://app?vid=f3955824-bc9b-40e3-bb4b-91c4e41aa833"},"vehicle_type_id":"4","last_reported":1784374981,"current_range_meters":11600,"station_id":"ce4bgs92rcd13ifvqcc0","pricing_plan_id":"cebpf4jnsgd1na2vs0mg"},{"bike_id":"cbc9aeba-f2ce-4bd5-a228-f334d0d159ba","system_id":"levelo_inurba_marseille","lat":43.25499,"lon":5.3765,"is_reserved":false,"is_disabled":false,"rental_uris":{"android":"levelo://app?vid=cbc9aeba-f2ce-4bd5-a228-f334d0d159ba","ios":"levelo://app?vid=cbc9aeba-f2ce-4bd5-a228-f334d0d159ba"},"vehicle_type_id":"4","last_reported":1784374981,"current_range_meters":28000,"station_id":"ce4bhh12rcd13ifvqff0","pricing_plan_id":"cebpf4jnsgd1na2vs0mg"},{"bike_id":"825d7056-0f0a-4ca2-9020-3ab3a5045e06","system_id":"levelo_inurba_marseille","lat":43.27068,"lon":5.38315,"is_reserved":false,"is_disabled":false,"rental_uris":{"android":"levelo://app?vid=825d7056-0f0a-4ca2-9020-3ab3a5045e06","ios":"levelo://app?vid=825d7056-0f0a-4ca2-9020-3ab3a5045e06"},"vehicle_type_id":"4","last_reported":1784374981,"current_range_meters":28800,"station_id":"st_d3n2fo6cfp8s73cte1j0","pricing_plan_id":"cebpf4jnsgd1na2vs0mg"},{"bike_id":"2fd3fd2a-5afd-41dc-a0e5-4abd957555d4","system_id":"levelo_inurba_marseille","lat":43.26683,"lon":5.38269,"is_reserved":false,"is_disabled":false,"rental_uris":{"android":"levelo://app?vid=2fd3fd2a-5afd-41dc-a0e5-4abd957555d4","ios":"levelo://app?vid=2fd3fd2a-5afd-41dc-a0e5-4abd957555d4"},"vehicle_type_id":"4","last_reported":1784374981,"current_range_meters":17200,"station_id":"ce4bhg92rcd13ifvqf90","pricing_plan_id":"cebpf4jnsgd1na2vs0mg"},{"bike_id":"8b6331b3-2914-4282-8a4c-45cca24291f2","system_id":"levelo_inurba_marseille","lat":43.3093,"lon":5.40124,"is_reserved":false,"is_disabled":false,"rental_uris":{"android":"levelo://app?vid=8b6331b3-2914-4282-8a4c-45cca24291f2","ios":"levelo://app?vid=8b6331b3-2914-4282-8a4c-45cca24291f2"},"vehicle_type_id":"4","last_reported":1784374981,"current_range_meters":25600,"station_id":"","pricing_plan_id":"cebpf4jnsgd1na2vs0mg"},{"bike_id":"e342b9f1-a6f4-474a-88a4-70e56cc058cc","system_id":"levelo_inurba_marseille","lat":43.31889,"lon":5.36804,"is_reserved":false,"is_disabled":false,"rental_uris":{"android":"levelo://app?vid=e342b9f1-a6f4-474a-88a4-70e56cc058cc","ios":"levelo://app?vid=e342b9f1-a6f4-474a-88a4-70e56cc058cc"},"vehicle_type_id":"4","last_reported":1784374981,"current_range_meters":38800,"station_id":"st_d6o2h0d0559c73evc1b0","pricing_plan_id":"cebpf4jnsgd1na2vs0mg"},{"bike_id":"a287babe-2875-4e47-a1fc-a71e0666296b","system_id":"levelo_inurba_marseille","lat":43.260263,"lon":5.375491,"is_reserved":false,"is_disabled":false,"rental_uris":{"android":"levelo://app?vid=a287babe-2875-4e47-a1fc-a71e0666296b","ios":"levelo://app?vid=a287babe-2875-4e47-a1fc-a71e0666296b"},"vehicle_type_id":"4","last_reported":1784374981,"current_range_meters":25600,"station_id":"ce4bh392rcd13ifvqdm0","pricing_plan_id":"cebpf4jnsgd1na2vs0mg"},{"bike_id":"617c4c83-0e69-4bbc-81ae-440d1263eae2","system_id":"levelo_inurba_marseille","lat":43.28432,"lon":5.35109,"is_reserved":false,"is_disabled":false,"rental_uris":{"android":"levelo://app?vid=617c4c83-0e69-4bbc-81ae-440d1263eae2","ios":"levelo://app?vid=617c4c83-0e69-4bbc-81ae-440d1263eae2"},"vehicle_type_id":"4","last_reported":1784374981,"current_range_meters":37600,"station_id":"","pricing_plan_id":"cebpf4jnsgd1na2vs0mg"},{"bike_id":"0d3e100f-48fe-47e1-bef7-0a1dcfcc4955","system_id":"levelo_inurba_marseille","lat":43.33715,"lon":5.39179,"is_reserved":false,"is_disabled":false,"rental_uris":{"android":"levelo://app?vid=0d3e100f-48fe-47e1-bef7-0a1dcfcc4955","ios":"levelo://app?vid=0d3e100f-48fe-47e1-bef7-0a1dcfcc4955"},"vehicle_type_id":"4","last_reported":1784374981,"current_range_meters":39200,"station_id":"ce4bhr92rcd13ifvqhsg","pricing_plan_id":"cebpf4jnsgd1na2vs0mg"},{"bike_id":"f994dddc-9194-4b4c-a02e-45b8c9c31ce1","system_id":"levelo_inurba_marseille","lat":43.29602,"lon":5.37103,"is_reserved":false,"is_disabled":false,"rental_uris":{"android":"levelo://app?vid=f994dddc-9194-4b4c-a02e-45b8c9c31ce1","ios":"levelo://app?vid=f994dddc-9194-4b4c-a02e-45b8c9c31ce1"},"vehicle_type_id":"4","last_reported":1784374981,"current_range_meters":25200,"station_id":"","pricing_plan_id":"cebpf4jnsgd1na2vs0mg"},{"bike_id":"197dc166-6526-4d10-a0b3-48cd1f4543ba","system_id":"levelo_inurba_marseille","lat":43.30538,"lon":5.38431,"is_reserved":false,"is_disabled":false,"rental_uris":{"android":"levelo://app?vid=197dc166-6526-4d10-a0b3-48cd1f4543ba","ios":"levelo://app?vid=197dc166-6526-4d10-a0b3-48cd1f4543ba"},"vehicle_type_id":"4","last_reported":1784374981,"current_range_meters":8800,"station_id":"ce4bgg92rcd13ifvqb30","pricing_plan_id":"cebpf4jnsgd1na2vs0mg"},{"bike_id":"8ed2e4fb-a45b-441a-9b5c-0fc1bfce1ef6","system_id":"levelo_inurba_marseille","lat":43.30926,"lon":5.40144,"is_reserved":false,"is_disabled":false,"rental_uris":{"android":"levelo://app?vid=8ed2e4fb-a45b-441a-9b5c-0fc1bfce1ef6","ios":"levelo://app?vid=8ed2e4fb-a45b-441a-9b5c-0fc1bfce1ef6"},"vehicle_type_id":"4","last_reported":1784374981,"current_range_meters":9600,"station_id":"ce4bgvp2rcd13ifvqct0","pricing_plan_id":"cebpf4jnsgd1na2vs0mg"},{"bike_id":"c76a0f3e-20d9-4a56-9927-4122c9a1cdd7","system_id":"levelo_inurba_marseille","lat":43.29569,"lon":5.39977,"is_reserved":false,"is_disabled":false,"rental_uris":{"android":"levelo://app?vid=c76a0f3e-20d9-4a56-9927-4122c9a1cdd7","ios":"levelo://app?vid=c76a0f3e-20d9-4a56-9927-4122c9a1cdd7"},"vehicle_type_id":"4","last_reported":1784374981,"current_range_meters":16400,"station_id":"ce4bh312rcd13ifvqdj0","pricing_plan_id":"cebpf4jnsgd1na2vs0mg"},{"bike_id":"82023b68-46df-41b5-9d8b-ec4c67021220","system_id":"levelo_inurba_marseille","lat":43.30257,"lon":5.40058,"is_reserved":false,"is_disabled":false,"rental_uris":{"android":"levelo://app?vid=82023b68-46df-41b5-9d8b-ec4c67021220","ios":"levelo://app?vid=82023b68-46df-41b5-9d8b-ec4c67021220"},"vehicle_type_id":"4","last_reported":1784374981,"current_range_meters":38400,"station_id":"ce4bgvh2rcd13ifvqcs0","pricing_plan_id":"cebpf4jnsgd1na2vs0mg"},{"bike_id":"43649b46-4dc1-4a21-856f-940f23b1a83b","system_id":"levelo_inurba_marseille","lat":43.27396,"lon":5.36261,"is_reserved":false,"is_disabled":false,"rental_uris":{"android":"levelo://app?vid=43649b46-4dc1-4a21-856f-940f23b1a83b","ios":"levelo://app?vid=43649b46-4dc1-4a21-856f-940f23b1a83b"},"vehicle_type_id":"4","last_reported":1784374981,"current_range_meters":16400,"station_id":"ce4bhbh2rcd13ifvqeo0","pricing_plan_id":"cebpf4jnsgd1na2vs0mg"},{"bike_id":"9add7d9b-214a-40dc-a324-5a0e81d35b67","system_id":"levelo_inurba_marseille","lat":43.2657,"lon":5.40313,"is_reserved":false,"is_disabled":true,"rental_uris":{"android":"levelo://app?vid=9add7d9b-214a-40dc-a324-5a0e81d35b67","ios":"levelo://app?vid=9add7d9b-214a-40dc-a324-5a0e81d35b67"},"vehicle_type_id":"4","last_reported":1784374981,"current_range_meters":14400,"station_id":"ce4bhmp2rcd13ifvqgng","pricing_plan_id":"cebpf4jnsgd1na2vs0mg"},{"bike_id":"9a4c1917-12d5-4fd0-beb9-9df30b58299b","system_id":"levelo_inurba_marseille","lat":43.23198,"lon":5.35552,"is_reserved":false,"is_disabled":false,"rental_uris":{"android":"levelo://app?vid=9a4c1917-12d5-4fd0-beb9-9df30b58299b","ios":"levelo://app?vid=9a4c1917-12d5-4fd0-beb9-9df30b58299b"},"vehicle_type_id":"4","last_reported":1784374981,"current_range_meters":38800,"station_id":"ce4bhu92rcd13ifvqi70","pricing_plan_id":"cebpf4jnsgd1na2vs0mg"},{"bike_id":"91f0e4ce-79d8-4655-828a-63e54a2d5488","system_id":"levelo_inurba_marseille","lat":43.24798,"lon":5.37483,"is_reserved":false,"is_disabled":false,"rental_uris":{"android":"levelo://app?vid=91f0e4ce-79d8-4655-828a-63e54a2d5488","ios":"levelo://app?vid=91f0e4ce-79d8-4655-828a-63e54a2d5488"},"vehicle_type_id":"4","last_reported":1784374981,"current_range_meters":5600,"station_id":"ce4bhgh2rcd13ifvqfb0","pricing_plan_id":"cebpf4jnsgd1na2vs0mg"},{"bike_id":"e0914a14-d858-4c5e-9484-d67227290ca2","system_id":"levelo_inurba_marseille","lat":43.28853,"lon":5.39301,"is_reserved":false,"is_disabled":false,"rental_uris":{"android":"levelo://app?vid=e0914a14-d858-4c5e-9484-d67227290ca2","ios":"levelo://app?vid=e0914a14-d858-4c5e-9484-d67227290ca2"},"vehicle_type_id":"4","last_reported":1784374981,"current_range_meters":17200,"station_id":"ce4bh2p2rcd13ifvqdi0","pricing_plan_id":"cebpf4jnsgd1na2vs0mg"},{"bike_id":"08e37548-b939-4c95-ad3e-38d80489c90b","system_id":"levelo_inurba_marseille","lat":43.21639,"lon":5.34363,"is_reserved":false,"is_disabled":false,"rental_uris":{"android":"levelo://app?vid=08e37548-b939-4c95-ad3e-38d80489c90b","ios":"levelo://app?vid=08e37548-b939-4c95-ad3e-38d80489c90b"},"vehicle_type_id":"4","last_reported":1784374981,"current_range_meters":5600,"station_id":"","pricing_plan_id":"cebpf4jnsgd1na2vs0mg"},{"bike_id":"98bce0f5-25e4-4db3-b698-d3dcf6d7b213","system_id":"levelo_inurba_marseille","lat":43.24798,"lon":5.37456,"is_reserved":false,"is_disabled":false,"rental_uris":{"android":"levelo://app?vid=98bce0f5-25e4-4db3-b698-d3dcf6d7b213","ios":"levelo://app?vid=98bce0f5-25e4-4db3-b698-d3dcf6d7b213"},"vehicle_type_id":"4","last_reported":1784374981,"current_range_meters":26800,"station_id":"ce4bhgh2rcd13ifvqfb0","pricing_plan_id":"cebpf4jnsgd1na2vs0mg"},{"bike_id":"c1a5a6ac-f8ac-46f8-912d-f52960c1edb5","system_id":"levelo_inurba_marseille","lat":43.30481,"lon":5.37889,"is_reserved":false,"is_disabled":false,"rental_uris":{"android":"levelo://app?vid=c1a5a6ac-f8ac-46f8-912d-f52960c1edb5","ios":"levelo://app?vid=c1a5a6ac-f8ac-46f8-912d-f52960c1edb5"},"vehicle_type_id":"4","last_reported":1784374981,"current_range_meters":38000,"station_id":"ce4bgup2rcd13ifvqcn0","pricing_plan_id":"cebpf4jnsgd1na2vs0mg"},{"bike_id":"5f6b1ae6-492b-48bf-96a7-6bd84d108e0b","system_id":"levelo_inurba_marseille","lat":43.23203,"lon":5.35568,"is_reserved":false,"is_disabled":false,"rental_uris":{"android":"levelo://app?vid=5f6b1ae6-492b-48bf-96a7-6bd84d108e0b","ios":"levelo://app?vid=5f6b1ae6-492b-48bf-96a7-6bd84d108e0b"},"vehicle_type_id":"4","last_reported":1784374981,"current_range_meters":40000,"station_id":"ce4bhu92rcd13ifvqi70","pricing_plan_id":"cebpf4jnsgd1na2vs0mg"},{"bike_id":"e3d9bbcb-54c4-4817-8697-66fcc50a141c","system_id":"levelo_inurba_marseille","lat":43.30009,"lon":5.3881,"is_reserved":false,"is_disabled":false,"rental_uris":{"android":"levelo://app?vid=e3d9bbcb-54c4-4817-8697-66fcc50a141c","ios":"levelo://app?vid=e3d9bbcb-54c4-4817-8697-66fcc50a141c"},"vehicle_type_id":"4","last_reported":1784374981,"current_range_meters":38000,"station_id":"","pricing_plan_id":"cebpf4jnsgd1na2vs0mg"},{"bike_id":"aa899d6f-0408-4a23-8d3b-ffb1059b430c","system_id":"levelo_inurba_marseille","lat":43.23972,"lon":5.36652,"is_reserved":false,"is_disabled":false,"rental_uris":{"android":"levelo://app?vid=aa899d6f-0408-4a23-8d3b-ffb1059b430c","ios":"levelo://app?vid=aa899d6f-0408-4a23-8d3b-ffb1059b430c"},"vehicle_type_id":"4","last_reported":1784374981,"current_range_meters":10000,"station_id":"ce4bhi12rcd13ifvqfp0","pricing_plan_id":"cebpf4jnsgd1na2vs0mg"},{"bike_id":"9dcfdf96-578b-46e7-b429-1767b2ea8f00","system_id":"levelo_inurba_marseille","lat":43.2469,"lon":5.38167,"is_reserved":false,"is_disabled":false,"rental_uris":{"android":"levelo://app?vid=9dcfdf96-578b-46e7-b429-1767b2ea8f00","ios":"levelo://app?vid=9dcfdf96-578b-46e7-b429-1767b2ea8f00"},"vehicle_type_id":"4","last_reported":1784374981,"current_range_meters":38000,"station_id":"ce4bhih2rcd13ifvqfr0","pricing_plan_id":"cebpf4jnsgd1na2vs0mg"},{"bike_id":"9fc8cbab-c7f1-4b0c-8deb-d790633e930c","system_id":"levelo_inurba_marseille","lat":43.3093,"lon":5.4013,"is_reserved":false,"is_disabled":false,"rental_uris":{"android":"levelo://app?vid=9fc8cbab-c7f1-4b0c-8deb-d790633e930c","ios":"levelo://app?vid=9fc8cbab-c7f1-4b0c-8deb-d790633e930c"},"vehicle_type_id":"4","last_reported":1784374981,"current_range_meters":4000,"station_id":"ce4bgvp2rcd13ifvqct0","pricing_plan_id":"cebpf4jnsgd1na2vs0mg"},{"bike_id":"345ffc9d-d5cc-4798-aa50-b5964a013f3b","system_id":"levelo_inurba_marseille","lat":43.24988,"lon":5.38928,"is_reserved":false,"is_disabled":false,"rental_uris":{"android":"levelo://app?vid=345ffc9d-d5cc-4798-aa50-b5964a013f3b","ios":"levelo://app?vid=345ffc9d-d5cc-4798-aa50-b5964a013f3b"},"vehicle_type_id":"4","last_reported":1784374981,"current_range_meters":36800,"station_id":"ce4bhgp2rcd13ifvqfd0","pricing_plan_id":"cebpf4jnsgd1na2vs0mg"},{"bike_id":"7604574c-06cb-407e-9e16-b7858411e1bc","system_id":"levelo_inurba_marseille","lat":43.27809,"lon":5.40701,"is_reserved":false,"is_disabled":true,"rental_uris":{"android":"levelo://app?vid=7604574c-06cb-407e-9e16-b7858411e1bc","ios":"levelo://app?vid=7604574c-06cb-407e-9e16-b7858411e1bc"},"vehicle_type_id":"4","last_reported":1784374981,"current_range_meters":18800,"station_id":"ce4bhnh2rcd13ifvqgtg","pricing_plan_id":"cebpf4jnsgd1na2vs0mg"},{"bike_id":"600d3649-4b6d-473c-a715-d27921e00684","system_id":"levelo_inurba_marseille","lat":43.23189,"lon":5.35602,"is_reserved":false,"is_disabled":false,"rental_uris":{"android":"levelo://app?vid=600d3649-4b6d-473c-a715-d27921e00684","ios":"levelo://app?vid=600d3649-4b6d-473c-a715-d27921e00684"},"vehicle_type_id":"4","last_reported":1784374981,"current_range_meters":22800,"station_id":"ce4bhu92rcd13ifvqi70","pricing_plan_id":"cebpf4jnsgd1na2vs0mg"},{"bike_id":"c1eed1c1-ec73-46cd-b3d8-0fed6bc9a76a","system_id":"levelo_inurba_marseille","lat":43.23187,"lon":5.35556,"is_reserved":false,"is_disabled":false,"rental_uris":{"android":"levelo://app?vid=c1eed1c1-ec73-46cd-b3d8-0fed6bc9a76a","ios":"levelo://app?vid=c1eed1c1-ec73-46cd-b3d8-0fed6bc9a76a"},"vehicle_type_id":"4","last_reported":1784374981,"current_range_meters":28000,"station_id":"ce4bhu92rcd13ifvqi70","pricing_plan_id":"cebpf4jnsgd1na2vs0mg"},{"bike_id":"8601b829-59f8-4eab-bab2-2f8e891d8617","system_id":"levelo_inurba_marseille","lat":43.254993,"lon":5.376487,"is_reserved":false,"is_disabled":false,"rental_uris":{"android":"levelo://app?vid=8601b829-59f8-4eab-bab2-2f8e891d8617","ios":"levelo://app?vid=8601b829-59f8-4eab-bab2-2f8e891d8617"},"vehicle_type_id":"4","last_reported":1784374981,"current_range_meters":25600,"station_id":"ce4bhh12rcd13ifvqff0","pricing_plan_id":"cebpf4jnsgd1na2vs0mg"},{"bike_id":"ba379027-e543-479a-87b0-c944e42746e1","system_id":"levelo_inurba_marseille","lat":43.30288,"lon":5.377,"is_reserved":false,"is_disabled":false,"rental_uris":{"android":"levelo://app?vid=ba379027-e543-479a-87b0-c944e42746e1","ios":"levelo://app?vid=ba379027-e543-479a-87b0-c944e42746e1"},"vehicle_type_id":"4","last_reported":1784374981,"current_range_meters":39200,"station_id":"ce4bguh2rcd13ifvqcj0","pricing_plan_id":"cebpf4jnsgd1na2vs0mg"},{"bike_id":"717aff13-3264-4f2e-9ef3-a9b4abe17129","system_id":"levelo_inurba_marseille","lat":43.30272,"lon":5.3772,"is_reserved":false,"is_disabled":false,"rental_uris":{"android":"levelo://app?vid=717aff13-3264-4f2e-9ef3-a9b4abe17129","ios":"levelo://app?vid=717aff13-3264-4f2e-9ef3-a9b4abe17129"},"vehicle_type_id":"4","last_reported":1784374981,"current_range_meters":19200,"station_id":"ce4bguh2rcd13ifvqcj0","pricing_plan_id":"cebpf4jnsgd1na2vs0mg"},{"bike_id":"81959744-4786-4515-8028-caa8a3c86e5c","system_id":"levelo_inurba_marseille","lat":43.23907,"lon":5.37484,"is_reserved":false,"is_disabled":false,"rental_uris":{"android":"levelo://app?vid=81959744-4786-4515-8028-caa8a3c86e5c","ios":"levelo://app?vid=81959744-4786-4515-8028-caa8a3c86e5c"},"vehicle_type_id":"4","last_reported":1784374981,"current_range_meters":38400,"station_id":"st_d6sm7csbq4hs73f8fpjg","pricing_plan_id":"cebpf4jnsgd1na2vs0mg"},{"bike_id":"cf2b3953-f312-4740-b418-485fb0e5ae3f","system_id":"levelo_inurba_marseille","lat":43.28417,"lon":5.34995,"is_reserved":false,"is_disabled":true,"rental_uris":{"android":"levelo://app?vid=cf2b3953-f312-4740-b418-485fb0e5ae3f","ios":"levelo://app?vid=cf2b3953-f312-4740-b418-485fb0e5ae3f"},"vehicle_type_id":"4","last_reported":1784374981,"current_range_meters":1200,"station_id":"ce4bhbh2rcd13ifvqepg","pricing_plan_id":"cebpf4jnsgd1na2vs0mg"},{"bike_id":"8bc2a9f8-c386-47db-b3cc-a6f5de076525","system_id":"levelo_inurba_marseille","lat":43.28404,"lon":5.37512,"is_reserved":false,"is_disabled":false,"rental_uris":{"android":"levelo://app?vid=8bc2a9f8-c386-47db-b3cc-a6f5de076525","ios":"levelo://app?vid=8bc2a9f8-c386-47db-b3cc-a6f5de076525"},"vehicle_type_id":"4","last_reported":1784374981,"current_range_meters":12400,"station_id":"ce4bh412rcd13ifvqds0","pricing_plan_id":"cebpf4jnsgd1na2vs0mg"},{"bike_id":"625b633d-f8de-424b-ba0e-8c9213c1a102","system_id":"levelo_inurba_marseille","lat":43.29969,"lon":5.41335,"is_reserved":false,"is_disabled":false,"rental_uris":{"android":"levelo://app?vid=625b633d-f8de-424b-ba0e-8c9213c1a102","ios":"levelo://app?vid=625b633d-f8de-424b-ba0e-8c9213c1a102"},"vehicle_type_id":"4","last_reported":1784374981,"current_range_meters":38400,"station_id":"ce4bhp12rcd13ifvqh9g","pricing_plan_id":"cebpf4jnsgd1na2vs0mg"},{"bike_id":"f0c9de47-5e4d-4c29-af85-57b80ffdd421","system_id":"levelo_inurba_marseille","lat":43.24174,"lon":5.36397,"is_reserved":false,"is_disabled":false,"rental_uris":{"android":"levelo://app?vid=f0c9de47-5e4d-4c29-af85-57b80ffdd421","ios":"levelo://app?vid=f0c9de47-5e4d-4c29-af85-57b80ffdd421"},"vehicle_type_id":"4","last_reported":1784374981,"current_range_meters":18800,"station_id":"cpo36qri1sfpv3e86is0","pricing_plan_id":"cebpf4jnsgd1na2vs0mg"},{"bike_id":"b0ae3b50-5ecb-4663-89b6-88cab863c70a","system_id":"levelo_inurba_marseille","lat":43.30193,"lon":5.36619,"is_reserved":false,"is_disabled":false,"rental_uris":{"android":"levelo://app?vid=b0ae3b50-5ecb-4663-89b6-88cab863c70a","ios":"levelo://app?vid=b0ae3b50-5ecb-4663-89b6-88cab863c70a"},"vehicle_type_id":"4","last_reported":1784374981,"current_range_meters":20400,"station_id":"ce4bgrh2rcd13ifvqc8g","pricing_plan_id":"cebpf4jnsgd1na2vs0mg"},{"bike_id":"35bd0f1d-508e-41f7-83fa-f3e805aab35e","system_id":"levelo_inurba_marseille","lat":43.30275,"lon":5.37749,"is_reserved":false,"is_disabled":true,"rental_uris":{"android":"levelo://app?vid=35bd0f1d-508e-41f7-83fa-f3e805aab35e","ios":"levelo://app?vid=35bd0f1d-508e-41f7-83fa-f3e805aab35e"},"vehicle_type_id":"4","last_reported":1784374981,"current_range_meters":10000,"station_id":"ce4bguh2rcd13ifvqcj0","pricing_plan_id":"cebpf4jnsgd1na2vs0mg"},{"bike_id":"6815261d-d85f-4ad0-bb1f-1e36f11a17eb","system_id":"levelo_inurba_marseille","lat":43.3047,"lon":5.3791,"is_reserved":false,"is_disabled":false,"rental_uris":{"android":"levelo://app?vid=6815261d-d85f-4ad0-bb1f-1e36f11a17eb","ios":"levelo://app?vid=6815261d-d85f-4ad0-bb1f-1e36f11a17eb"},"vehicle_type_id":"4","last_reported":1784374981,"current_range_meters":28800,"station_id":"ce4bgup2rcd13ifvqcn0","pricing_plan_id":"cebpf4jnsgd1na2vs0mg"},{"bike_id":"327631c4-acc4-45e0-9e91-316b42cf11ee","system_id":"levelo_inurba_marseille","lat":43.28266,"lon":5.35065,"is_reserved":false,"is_disabled":false,"rental_uris":{"android":"levelo://app?vid=327631c4-acc4-45e0-9e91-316b42cf11ee","ios":"levelo://app?vid=327631c4-acc4-45e0-9e91-316b42cf11ee"},"vehicle_type_id":"4","last_reported":1784374981,"current_range_meters":30400,"station_id":"ce4bhbp2rcd13ifvqerg","pricing_plan_id":"cebpf4jnsgd1na2vs0mg"},{"bike_id":"5df176a0-28e8-49f4-b8de-992702b345b3","system_id":"levelo_inurba_marseille","lat":43.2319,"lon":5.39979,"is_reserved":false,"is_disabled":false,"rental_uris":{"android":"levelo://app?vid=5df176a0-28e8-49f4-b8de-992702b345b3","ios":"levelo://app?vid=5df176a0-28e8-49f4-b8de-992702b345b3"},"vehicle_type_id":"4","last_reported":1784374981,"current_range_meters":25200,"station_id":"ce4bhn12rcd13ifvqgqg","pricing_plan_id":"cebpf4jnsgd1na2vs0mg"},{"bike_id":"3a7bc097-3d28-4f52-88ed-d3904da59c29","system_id":"levelo_inurba_marseille","lat":43.24476,"lon":5.42548,"is_reserved":false,"is_disabled":false,"rental_uris":{"android":"levelo://app?vid=3a7bc097-3d28-4f52-88ed-d3904da59c29","ios":"levelo://app?vid=3a7bc097-3d28-4f52-88ed-d3904da59c29"},"vehicle_type_id":"4","last_reported":1784374981,"current_range_meters":6800,"station_id":"st_d4a3vfp97mjs738cd8kg","pricing_plan_id":"cebpf4jnsgd1na2vs0mg"},{"bike_id":"dd68f0d2-2405-425c-8bb2-3b99c67d8450","system_id":"levelo_inurba_marseille","lat":43.23899,"lon":5.37465,"is_reserved":false,"is_disabled":false,"rental_uris":{"android":"levelo://app?vid=dd68f0d2-2405-425c-8bb2-3b99c67d8450","ios":"levelo://app?vid=dd68f0d2-2405-425c-8bb2-3b99c67d8450"},"vehicle_type_id":"4","last_reported":1784374981,"current_range_meters":8000,"station_id":"st_d6sm7csbq4hs73f8fpjg","pricing_plan_id":"cebpf4jnsgd1na2vs0mg"},{"bike_id":"098cb1b0-aa89-454f-9bc2-2c4ea2f0e0ee","system_id":"levelo_inurba_marseille","lat":43.31552,"lon":5.40591,"is_reserved":false,"is_disabled":false,"rental_uris":{"android":"levelo://app?vid=098cb1b0-aa89-454f-9bc2-2c4ea2f0e0ee","ios":"levelo://app?vid=098cb1b0-aa89-454f-9bc2-2c4ea2f0e0ee"},"vehicle_type_id":"4","last_reported":1784374981,"current_range_meters":16800,"station_id":"","pricing_plan_id":"cebpf4jnsgd1na2vs0mg"},{"bike_id":"a4d19a78-4795-4080-9f7a-38bcb20e87f0","system_id":"levelo_inurba_marseille","lat":43.25707,"lon":5.41124,"is_reserved":false,"is_disabled":false,"rental_uris":{"android":"levelo://app?vid=a4d19a78-4795-4080-9f7a-38bcb20e87f0","ios":"levelo://app?vid=a4d19a78-4795-4080-9f7a-38bcb20e87f0"},"vehicle_type_id":"4","last_reported":1784374981,"current_range_meters":36000,"station_id":"ce4bhkp2rcd13ifvqgd0","pricing_plan_id":"cebpf4jnsgd1na2vs0mg"},{"bike_id":"b999c4de-71e5-49f1-adc8-530bd4aa9637","system_id":"levelo_inurba_marseille","lat":43.21176,"lon":5.35086,"is_reserved":false,"is_disabled":false,"rental_uris":{"android":"levelo://app?vid=b999c4de-71e5-49f1-adc8-530bd4aa9637","ios":"levelo://app?vid=b999c4de-71e5-49f1-adc8-530bd4aa9637"},"vehicle_type_id":"4","last_reported":1784374981,"current_range_meters":38000,"station_id":"st_cvj6sg6p6f1abm77japg","pricing_plan_id":"cebpf4jnsgd1na2vs0mg"},{"bike_id":"be6bb617-0345-47d0-a9a1-2dfad3491c00","system_id":"levelo_inurba_marseille","lat":43.25495,"lon":5.37665,"is_reserved":false,"is_disabled":false,"rental_uris":{"android":"levelo://app?vid=be6bb617-0345-47d0-a9a1-2dfad3491c00","ios":"levelo://app?vid=be6bb617-0345-47d0-a9a1-2dfad3491c00"},"vehicle_type_id":"4","last_reported":1784374981,"current_range_meters":38400,"station_id":"ce4bhh12rcd13ifvqff0","pricing_plan_id":"cebpf4jnsgd1na2vs0mg"},{"bike_id":"aeadc001-b838-45ac-ab10-da795bb8945b","system_id":"levelo_inurba_marseille","lat":43.30419,"lon":5.41288,"is_reserved":false,"is_disabled":false,"rental_uris":{"android":"levelo://app?vid=aeadc001-b838-45ac-ab10-da795bb8945b","ios":"levelo://app?vid=aeadc001-b838-45ac-ab10-da795bb8945b"},"vehicle_type_id":"4","last_reported":1784374981,"current_range_meters":19200,"station_id":"ce4bhop2rcd13ifvqh8g","pricing_plan_id":"cebpf4jnsgd1na2vs0mg"},{"bike_id":"5a29e6f3-d0ba-49e7-af5d-f8e60471c1fc","system_id":"levelo_inurba_marseille","lat":43.27449,"lon":5.42487,"is_reserved":false,"is_disabled":true,"rental_uris":{"android":"levelo://app?vid=5a29e6f3-d0ba-49e7-af5d-f8e60471c1fc","ios":"levelo://app?vid=5a29e6f3-d0ba-49e7-af5d-f8e60471c1fc"},"vehicle_type_id":"4","last_reported":1784374981,"current_range_meters":7200,"station_id":"","pricing_plan_id":"cebpf4jnsgd1na2vs0mg"},{"bike_id":"d3b82640-d84c-42c7-8c57-b5a14f4fcab5","system_id":"levelo_inurba_marseille","lat":43.30874,"lon":5.37209,"is_reserved":false,"is_disabled":false,"rental_uris":{"android":"levelo://app?vid=d3b82640-d84c-42c7-8c57-b5a14f4fcab5","ios":"levelo://app?vid=d3b82640-d84c-42c7-8c57-b5a14f4fcab5"},