{"last_updated":1769245930,"ttl":60,"version":"2.2","data":{"bikes":[{"bike_id":"5ed4e9d2-631e-4b69-8907-913cd14f0cf9","system_id":"levelo_inurba_marseille","lat":43.258271,"lon":5.394466,"is_reserved":false,"is_disabled":false,"rental_uris":{"android":"levelo://app?vid=5ed4e9d2-631e-4b69-8907-913cd14f0cf9","ios":"levelo://app?vid=5ed4e9d2-631e-4b69-8907-913cd14f0cf9"},"vehicle_type_id":"4","last_reported":1769245930,"current_range_meters":2800,"station_id":"ce4bhip2rcd13ifvqft0","pricing_plan_id":"cebpf4jnsgd1na2vs0mg"},{"bike_id":"249a4cf7-06f6-4fea-96cc-c9c6b750c37f","system_id":"levelo_inurba_marseille","lat":43.241728,"lon":5.363854,"is_reserved":false,"is_disabled":false,"rental_uris":{"android":"levelo://app?vid=249a4cf7-06f6-4fea-96cc-c9c6b750c37f","ios":"levelo://app?vid=249a4cf7-06f6-4fea-96cc-c9c6b750c37f"},"vehicle_type_id":"4","last_reported":1769245930,"current_range_meters":2800,"station_id":"cpo36qri1sfpv3e86is0","pricing_plan_id":"cebpf4jnsgd1na2vs0mg"},{"bike_id":"751ffa1c-687c-4c14-b167-cf8c71a79ffa","system_id":"levelo_inurba_marseille","lat":43.295783,"lon":5.375165,"is_reserved":false,"is_disabled":true,"rental_uris":{"android":"levelo://app?vid=751ffa1c-687c-4c14-b167-cf8c71a79ffa","ios":"levelo://app?vid=751ffa1c-687c-4c14-b167-cf8c71a79ffa"},"vehicle_type_id":"4","last_reported":1769245930,"current_range_meters":2800,"station_id":"ce4bgh92rcd13ifvqb50","pricing_plan_id":"cebpf4jnsgd1na2vs0mg"},{"bike_id":"a730c815-e775-4129-8064-c5472248920d","system_id":"levelo_inurba_marseille","lat":43.22919,"lon":5.35387,"is_reserved":false,"is_disabled":false,"rental_uris":{"android":"levelo://app?vid=a730c815-e775-4129-8064-c5472248920d","ios":"levelo://app?vid=a730c815-e775-4129-8064-c5472248920d"},"vehicle_type_id":"4","last_reported":1769245930,"current_range_meters":2800,"station_id":"cpo3532slgdg3j2ikp40","pricing_plan_id":"cebpf4jnsgd1na2vs0mg"},{"bike_id":"640ee36d-83fc-46a1-9d41-1d8f44651d74","system_id":"levelo_inurba_marseille","lat":43.290288,"lon":5.378088,"is_reserved":false,"is_disabled":false,"rental_uris":{"android":"levelo://app?vid=640ee36d-83fc-46a1-9d41-1d8f44651d74","ios":"levelo://app?vid=640ee36d-83fc-46a1-9d41-1d8f44651d74"},"vehicle_type_id":"4","last_reported":1769245930,"current_range_meters":2800,"station_id":"ce4bh9p2rcd13ifvqed0","pricing_plan_id":"cebpf4jnsgd1na2vs0mg"},{"bike_id":"217c986b-eb9e-44c4-a3e0-92f4ba70b7a5","system_id":"levelo_inurba_marseille","lat":43.23194,"lon":5.39984,"is_reserved":false,"is_disabled":false,"rental_uris":{"android":"levelo://app?vid=217c986b-eb9e-44c4-a3e0-92f4ba70b7a5","ios":"levelo://app?vid=217c986b-eb9e-44c4-a3e0-92f4ba70b7a5"},"vehicle_type_id":"4","last_reported":1769245930,"current_range_meters":3200,"station_id":"ce4bhn12rcd13ifvqgqg","pricing_plan_id":"cebpf4jnsgd1na2vs0mg"},{"bike_id":"0cab4dce-1eba-4f48-9e41-4b96789c1c25","system_id":"levelo_inurba_marseille","lat":43.24079,"lon":5.37805,"is_reserved":false,"is_disabled":false,"rental_uris":{"android":"levelo://app?vid=0cab4dce-1eba-4f48-9e41-4b96789c1c25","ios":"levelo://app?vid=0cab4dce-1eba-4f48-9e41-4b96789c1c25"},"vehicle_type_id":"4","last_reported":1769245930,"current_range_meters":3200,"station_id":"ce4bhnp2rcd13ifvqgvg","pricing_plan_id":"cebpf4jnsgd1na2vs0mg"},{"bike_id":"b773bbbb-d72b-4b38-92a3-28fca628ed6c","system_id":"levelo_inurba_marseille","lat":43.229235,"lon":5.353765,"is_reserved":false,"is_disabled":false,"rental_uris":{"android":"levelo://app?vid=b773bbbb-d72b-4b38-92a3-28fca628ed6c","ios":"levelo://app?vid=b773bbbb-d72b-4b38-92a3-28fca628ed6c"},"vehicle_type_id":"4","last_reported":1769245930,"current_range_meters":3200,"station_id":"cpo3532slgdg3j2ikp40","pricing_plan_id":"cebpf4jnsgd1na2vs0mg"},{"bike_id":"b57df7ad-97cd-44b3-a204-ea83c250292c","system_id":"levelo_inurba_marseille","lat":43.23185,"lon":5.35594,"is_reserved":false,"is_disabled":false,"rental_uris":{"android":"levelo://app?vid=b57df7ad-97cd-44b3-a204-ea83c250292c","ios":"levelo://app?vid=b57df7ad-97cd-44b3-a204-ea83c250292c"},"vehicle_type_id":"4","last_reported":1769245930,"current_range_meters":3200,"station_id":"ce4bhu92rcd13ifvqi70","pricing_plan_id":"cebpf4jnsgd1na2vs0mg"},{"bike_id":"9f9c4f85-7d9e-4e8a-9123-cbd1f8de03db","system_id":"levelo_inurba_marseille","lat":43.3182,"lon":5.39023,"is_reserved":false,"is_disabled":false,"rental_uris":{"android":"levelo://app?vid=9f9c4f85-7d9e-4e8a-9123-cbd1f8de03db","ios":"levelo://app?vid=9f9c4f85-7d9e-4e8a-9123-cbd1f8de03db"},"vehicle_type_id":"4","last_reported":1769245930,"current_range_meters":3200,"station_id":"","pricing_plan_id":"cebpf4jnsgd1na2vs0mg"},{"bike_id":"731e3c39-4cfc-47aa-926e-d6f514d68010","system_id":"levelo_inurba_marseille","lat":43.22563,"lon":5.41628,"is_reserved":false,"is_disabled":false,"rental_uris":{"android":"levelo://app?vid=731e3c39-4cfc-47aa-926e-d6f514d68010","ios":"levelo://app?vid=731e3c39-4cfc-47aa-926e-d6f514d68010"},"vehicle_type_id":"4","last_reported":1769245930,"current_range_meters":3600,"station_id":"st_d2o4gvlbi1j2169b742g","pricing_plan_id":"cebpf4jnsgd1na2vs0mg"},{"bike_id":"4bda9fbf-e807-4004-97a4-a46713e183ee","system_id":"levelo_inurba_marseille","lat":43.30135,"lon":5.38115,"is_reserved":false,"is_disabled":false,"rental_uris":{"android":"levelo://app?vid=4bda9fbf-e807-4004-97a4-a46713e183ee","ios":"levelo://app?vid=4bda9fbf-e807-4004-97a4-a46713e183ee"},"vehicle_type_id":"4","last_reported":1769245930,"current_range_meters":3600,"station_id":"ce4bgjp2rcd13ifvqbh0","pricing_plan_id":"cebpf4jnsgd1na2vs0mg"},{"bike_id":"d8368424-7a2e-4ab4-b75d-24eb5c1743cf","system_id":"levelo_inurba_marseille","lat":43.305287,"lon":5.36711,"is_reserved":false,"is_disabled":false,"rental_uris":{"android":"levelo://app?vid=d8368424-7a2e-4ab4-b75d-24eb5c1743cf","ios":"levelo://app?vid=d8368424-7a2e-4ab4-b75d-24eb5c1743cf"},"vehicle_type_id":"4","last_reported":1769245930,"current_range_meters":3600,"station_id":"ce4bgrp2rcd13ifvqc9g","pricing_plan_id":"cebpf4jnsgd1na2vs0mg"},{"bike_id":"b3e5a56e-3fab-4277-a25e-9fba39a3f617","system_id":"levelo_inurba_marseille","lat":43.279984,"lon":5.416655,"is_reserved":false,"is_disabled":false,"rental_uris":{"android":"levelo://app?vid=b3e5a56e-3fab-4277-a25e-9fba39a3f617","ios":"levelo://app?vid=b3e5a56e-3fab-4277-a25e-9fba39a3f617"},"vehicle_type_id":"4","last_reported":1769245930,"current_range_meters":3600,"station_id":"ce4bho12rcd13ifvqh1g","pricing_plan_id":"cebpf4jnsgd1na2vs0mg"},{"bike_id":"58d2ae64-d77b-49b0-aa64-83302e76931b","system_id":"levelo_inurba_marseille","lat":43.24636,"lon":5.43145,"is_reserved":false,"is_disabled":false,"rental_uris":{"android":"levelo://app?vid=58d2ae64-d77b-49b0-aa64-83302e76931b","ios":"levelo://app?vid=58d2ae64-d77b-49b0-aa64-83302e76931b"},"vehicle_type_id":"4","last_reported":1769245930,"current_range_meters":3600,"station_id":"st_d2m6c4gdas8pm72e190g","pricing_plan_id":"cebpf4jnsgd1na2vs0mg"},{"bike_id":"3046e026-9ad0-4040-9762-5420b00c2e3e","system_id":"levelo_inurba_marseille","lat":43.31064,"lon":5.371693,"is_reserved":false,"is_disabled":false,"rental_uris":{"android":"levelo://app?vid=3046e026-9ad0-4040-9762-5420b00c2e3e","ios":"levelo://app?vid=3046e026-9ad0-4040-9762-5420b00c2e3e"},"vehicle_type_id":"4","last_reported":1769245930,"current_range_meters":3600,"station_id":"st_d4kl2rp97mjs73e7tdfg","pricing_plan_id":"cebpf4jnsgd1na2vs0mg"},{"bike_id":"8750ab90-342c-4b21-9046-287ee13df746","system_id":"levelo_inurba_marseille","lat":43.32425,"lon":5.36652,"is_reserved":false,"is_disabled":false,"rental_uris":{"android":"levelo://app?vid=8750ab90-342c-4b21-9046-287ee13df746","ios":"levelo://app?vid=8750ab90-342c-4b21-9046-287ee13df746"},"vehicle_type_id":"4","last_reported":1769245930,"current_range_meters":3600,"station_id":"","pricing_plan_id":"cebpf4jnsgd1na2vs0mg"},{"bike_id":"9843f11a-f39a-44ed-a63d-64bd2d452c6d","system_id":"levelo_inurba_marseille","lat":43.26567,"lon":5.40344,"is_reserved":false,"is_disabled":false,"rental_uris":{"android":"levelo://app?vid=9843f11a-f39a-44ed-a63d-64bd2d452c6d","ios":"levelo://app?vid=9843f11a-f39a-44ed-a63d-64bd2d452c6d"},"vehicle_type_id":"4","last_reported":1769245930,"current_range_meters":4000,"station_id":"ce4bhmp2rcd13ifvqgng","pricing_plan_id":"cebpf4jnsgd1na2vs0mg"},{"bike_id":"fb842022-45b9-4c4c-bfeb-5beaac36a9dc","system_id":"levelo_inurba_marseille","lat":43.31039,"lon":5.37113,"is_reserved":false,"is_disabled":false,"rental_uris":{"android":"levelo://app?vid=fb842022-45b9-4c4c-bfeb-5beaac36a9dc","ios":"levelo://app?vid=fb842022-45b9-4c4c-bfeb-5beaac36a9dc"},"vehicle_type_id":"4","last_reported":1769245930,"current_range_meters":4000,"station_id":"st_d4kl2rp97mjs73e7tdfg","pricing_plan_id":"cebpf4jnsgd1na2vs0mg"},{"bike_id":"aa3b2638-12ae-4779-ad7a-7c1579b567ec","system_id":"levelo_inurba_marseille","lat":43.24066,"lon":5.37747,"is_reserved":false,"is_disabled":false,"rental_uris":{"android":"levelo://app?vid=aa3b2638-12ae-4779-ad7a-7c1579b567ec","ios":"levelo://app?vid=aa3b2638-12ae-4779-ad7a-7c1579b567ec"},"vehicle_type_id":"4","last_reported":1769245930,"current_range_meters":4000,"station_id":"ce4bhnp2rcd13ifvqgvg","pricing_plan_id":"cebpf4jnsgd1na2vs0mg"},{"bike_id":"6ad619ab-b9bd-4b5b-9c57-f794324fd855","system_id":"levelo_inurba_marseille","lat":43.28056,"lon":5.40617,"is_reserved":false,"is_disabled":false,"rental_uris":{"android":"levelo://app?vid=6ad619ab-b9bd-4b5b-9c57-f794324fd855","ios":"levelo://app?vid=6ad619ab-b9bd-4b5b-9c57-f794324fd855"},"vehicle_type_id":"4","last_reported":1769245930,"current_range_meters":4000,"station_id":"","pricing_plan_id":"cebpf4jnsgd1na2vs0mg"},{"bike_id":"8922c302-f86b-43f3-9807-7ebc28264ed3","system_id":"levelo_inurba_marseille","lat":43.26217,"lon":5.40463,"is_reserved":false,"is_disabled":false,"rental_uris":{"android":"levelo://app?vid=8922c302-f86b-43f3-9807-7ebc28264ed3","ios":"levelo://app?vid=8922c302-f86b-43f3-9807-7ebc28264ed3"},"vehicle_type_id":"4","last_reported":1769245930,"current_range_meters":4000,"station_id":"ce4bhmh2rcd13ifvqgmg","pricing_plan_id":"cebpf4jnsgd1na2vs0mg"},{"bike_id":"f1e185b8-5e0b-4b89-8faa-045ef6935269","system_id":"levelo_inurba_marseille","lat":43.30036,"lon":5.37811,"is_reserved":false,"is_disabled":true,"rental_uris":{"android":"levelo://app?vid=f1e185b8-5e0b-4b89-8faa-045ef6935269","ios":"levelo://app?vid=f1e185b8-5e0b-4b89-8faa-045ef6935269"},"vehicle_type_id":"4","last_reported":1769245930,"current_range_meters":4000,"station_id":"","pricing_plan_id":"cebpf4jnsgd1na2vs0mg"},{"bike_id":"8765f5ca-3ede-4ade-8d10-982a2f369fc3","system_id":"levelo_inurba_marseille","lat":43.31625,"lon":5.40734,"is_reserved":false,"is_disabled":false,"rental_uris":{"android":"levelo://app?vid=8765f5ca-3ede-4ade-8d10-982a2f369fc3","ios":"levelo://app?vid=8765f5ca-3ede-4ade-8d10-982a2f369fc3"},"vehicle_type_id":"4","last_reported":1769245930,"current_range_meters":4000,"station_id":"","pricing_plan_id":"cebpf4jnsgd1na2vs0mg"},{"bike_id":"d5979a98-94ba-4609-af07-e02fe23bf3bc","system_id":"levelo_inurba_marseille","lat":43.22557,"lon":5.41648,"is_reserved":false,"is_disabled":false,"rental_uris":{"android":"levelo://app?vid=d5979a98-94ba-4609-af07-e02fe23bf3bc","ios":"levelo://app?vid=d5979a98-94ba-4609-af07-e02fe23bf3bc"},"vehicle_type_id":"4","last_reported":1769245930,"current_range_meters":4000,"station_id":"st_d2o4gvlbi1j2169b742g","pricing_plan_id":"cebpf4jnsgd1na2vs0mg"},{"bike_id":"02e7a81c-add2-44fa-966b-2d696b46b0f6","system_id":"levelo_inurba_marseille","lat":43.29485,"lon":5.3738,"is_reserved":false,"is_disabled":false,"rental_uris":{"android":"levelo://app?vid=02e7a81c-add2-44fa-966b-2d696b46b0f6","ios":"levelo://app?vid=02e7a81c-add2-44fa-966b-2d696b46b0f6"},"vehicle_type_id":"4","last_reported":1769245930,"current_range_meters":4000,"station_id":"","pricing_plan_id":"cebpf4jnsgd1na2vs0mg"},{"bike_id":"a35157b8-f52d-4b67-9dfc-9c6979992a5c","system_id":"levelo_inurba_marseille","lat":43.24808,"lon":5.37482,"is_reserved":false,"is_disabled":false,"rental_uris":{"android":"levelo://app?vid=a35157b8-f52d-4b67-9dfc-9c6979992a5c","ios":"levelo://app?vid=a35157b8-f52d-4b67-9dfc-9c6979992a5c"},"vehicle_type_id":"4","last_reported":1769245930,"current_range_meters":4000,"station_id":"ce4bhgh2rcd13ifvqfb0","pricing_plan_id":"cebpf4jnsgd1na2vs0mg"},{"bike_id":"8008594e-a479-4cad-900c-79592b5808d4","system_id":"levelo_inurba_marseille","lat":43.29256,"lon":5.36075,"is_reserved":false,"is_disabled":false,"rental_uris":{"android":"levelo://app?vid=8008594e-a479-4cad-900c-79592b5808d4","ios":"levelo://app?vid=8008594e-a479-4cad-900c-79592b5808d4"},"vehicle_type_id":"4","last_reported":1769245930,"current_range_meters":4400,"station_id":"","pricing_plan_id":"cebpf4jnsgd1na2vs0mg"},{"bike_id":"8c0442e3-2101-49d9-a999-4e4315bd74c6","system_id":"levelo_inurba_marseille","lat":43.33544,"lon":5.37465,"is_reserved":false,"is_disabled":false,"rental_uris":{"android":"levelo://app?vid=8c0442e3-2101-49d9-a999-4e4315bd74c6","ios":"levelo://app?vid=8c0442e3-2101-49d9-a999-4e4315bd74c6"},"vehicle_type_id":"4","last_reported":1769245930,"current_range_meters":4400,"station_id":"st_d46tts09ee8s73dlu43g","pricing_plan_id":"cebpf4jnsgd1na2vs0mg"},{"bike_id":"f2cf4006-04c8-4943-83ec-ca4b18b297c9","system_id":"levelo_inurba_marseille","lat":43.27366,"lon":5.36255,"is_reserved":false,"is_disabled":false,"rental_uris":{"android":"levelo://app?vid=f2cf4006-04c8-4943-83ec-ca4b18b297c9","ios":"levelo://app?vid=f2cf4006-04c8-4943-83ec-ca4b18b297c9"},"vehicle_type_id":"4","last_reported":1769245930,"current_range_meters":4400,"station_id":"ce4bhbh2rcd13ifvqeo0","pricing_plan_id":"cebpf4jnsgd1na2vs0mg"},{"bike_id":"dc82bfc6-2b44-4bff-8892-9b8eb7e91578","system_id":"levelo_inurba_marseille","lat":43.23966,"lon":5.36631,"is_reserved":false,"is_disabled":false,"rental_uris":{"android":"levelo://app?vid=dc82bfc6-2b44-4bff-8892-9b8eb7e91578","ios":"levelo://app?vid=dc82bfc6-2b44-4bff-8892-9b8eb7e91578"},"vehicle_type_id":"4","last_reported":1769245930,"current_range_meters":4400,"station_id":"ce4bhi12rcd13ifvqfp0","pricing_plan_id":"cebpf4jnsgd1na2vs0mg"},{"bike_id":"d2dd2bd5-35c6-4cf8-86dc-87c4bf274249","system_id":"levelo_inurba_marseille","lat":43.24648,"lon":5.38881,"is_reserved":false,"is_disabled":false,"rental_uris":{"android":"levelo://app?vid=d2dd2bd5-35c6-4cf8-86dc-87c4bf274249","ios":"levelo://app?vid=d2dd2bd5-35c6-4cf8-86dc-87c4bf274249"},"vehicle_type_id":"4","last_reported":1769245930,"current_range_meters":4400,"station_id":"ce4bhg12rcd13ifvqf60","pricing_plan_id":"cebpf4jnsgd1na2vs0mg"},{"bike_id":"5560fc7f-1e40-4887-b56f-d8792953a489","system_id":"levelo_inurba_marseille","lat":43.24156,"lon":5.36411,"is_reserved":false,"is_disabled":false,"rental_uris":{"android":"levelo://app?vid=5560fc7f-1e40-4887-b56f-d8792953a489","ios":"levelo://app?vid=5560fc7f-1e40-4887-b56f-d8792953a489"},"vehicle_type_id":"4","last_reported":1769245930,"current_range_meters":4400,"station_id":"cpo36qri1sfpv3e86is0","pricing_plan_id":"cebpf4jnsgd1na2vs0mg"},{"bike_id":"5bf2ea0f-11d6-4695-9c7c-54597dc9431f","system_id":"levelo_inurba_marseille","lat":43.285051,"lon":5.38514,"is_reserved":false,"is_disabled":false,"rental_uris":{"android":"levelo://app?vid=5bf2ea0f-11d6-4695-9c7c-54597dc9431f","ios":"levelo://app?vid=5bf2ea0f-11d6-4695-9c7c-54597dc9431f"},"vehicle_type_id":"4","last_reported":1769245930,"current_range_meters":4400,"station_id":"ce4bh8p2rcd13ifvqeb0","pricing_plan_id":"cebpf4jnsgd1na2vs0mg"},{"bike_id":"10d81607-b2c6-4f43-9034-1dd057977b39","system_id":"levelo_inurba_marseille","lat":43.24217,"lon":5.39711,"is_reserved":false,"is_disabled":false,"rental_uris":{"android":"levelo://app?vid=10d81607-b2c6-4f43-9034-1dd057977b39","ios":"levelo://app?vid=10d81607-b2c6-4f43-9034-1dd057977b39"},"vehicle_type_id":"4","last_reported":1769245930,"current_range_meters":4400,"station_id":"ce4bhn12rcd13ifvqgpg","pricing_plan_id":"cebpf4jnsgd1na2vs0mg"},{"bike_id":"493afd47-0150-4eb7-b05d-19b96b3484d1","system_id":"levelo_inurba_marseille","lat":43.263715,"lon":5.410768,"is_reserved":false,"is_disabled":true,"rental_uris":{"android":"levelo://app?vid=493afd47-0150-4eb7-b05d-19b96b3484d1","ios":"levelo://app?vid=493afd47-0150-4eb7-b05d-19b96b3484d1"},"vehicle_type_id":"4","last_reported":1769245930,"current_range_meters":4800,"station_id":"st_d4e5ca6na9uc73bfl5fg","pricing_plan_id":"cebpf4jnsgd1na2vs0mg"},{"bike_id":"ee1097c7-66cb-4cde-affa-a4b0a3128b81","system_id":"levelo_inurba_marseille","lat":43.28398,"lon":5.37161,"is_reserved":false,"is_disabled":false,"rental_uris":{"android":"levelo://app?vid=ee1097c7-66cb-4cde-affa-a4b0a3128b81","ios":"levelo://app?vid=ee1097c7-66cb-4cde-affa-a4b0a3128b81"},"vehicle_type_id":"4","last_reported":1769245930,"current_range_meters":4800,"station_id":"","pricing_plan_id":"cebpf4jnsgd1na2vs0mg"},{"bike_id":"d1248e4b-c241-4185-9668-62cef44fb4ea","system_id":"levelo_inurba_marseille","lat":43.3234,"lon":5.36728,"is_reserved":false,"is_disabled":false,"rental_uris":{"android":"levelo://app?vid=d1248e4b-c241-4185-9668-62cef44fb4ea","ios":"levelo://app?vid=d1248e4b-c241-4185-9668-62cef44fb4ea"},"vehicle_type_id":"4","last_reported":1769245930,"current_range_meters":4800,"station_id":"ce4bhsh2rcd13ifvqi2g","pricing_plan_id":"cebpf4jnsgd1na2vs0mg"},{"bike_id":"07b346de-78ce-4467-8573-2d9ec0aae249","system_id":"levelo_inurba_marseille","lat":43.240832,"lon":5.377514,"is_reserved":false,"is_disabled":false,"rental_uris":{"android":"levelo://app?vid=07b346de-78ce-4467-8573-2d9ec0aae249","ios":"levelo://app?vid=07b346de-78ce-4467-8573-2d9ec0aae249"},"vehicle_type_id":"4","last_reported":1769245930,"current_range_meters":4800,"station_id":"ce4bhnp2rcd13ifvqgvg","pricing_plan_id":"cebpf4jnsgd1na2vs0mg"},{"bike_id":"d3746757-64c0-4deb-8ffa-a59c72b048ff","system_id":"levelo_inurba_marseille","lat":43.29685,"lon":5.37301,"is_reserved":false,"is_disabled":false,"rental_uris":{"android":"levelo://app?vid=d3746757-64c0-4deb-8ffa-a59c72b048ff","ios":"levelo://app?vid=d3746757-64c0-4deb-8ffa-a59c72b048ff"},"vehicle_type_id":"4","last_reported":1769245930,"current_range_meters":4800,"station_id":"ce4bgk12rcd13ifvqbj0","pricing_plan_id":"cebpf4jnsgd1na2vs0mg"},{"bike_id":"6f32f966-e42c-476f-b8d9-54d29e666e71","system_id":"levelo_inurba_marseille","lat":43.27198,"lon":5.39181,"is_reserved":false,"is_disabled":false,"rental_uris":{"android":"levelo://app?vid=6f32f966-e42c-476f-b8d9-54d29e666e71","ios":"levelo://app?vid=6f32f966-e42c-476f-b8d9-54d29e666e71"},"vehicle_type_id":"4","last_reported":1769245930,"current_range_meters":4800,"station_id":"ce4bhhp2rcd13ifvqfm0","pricing_plan_id":"cebpf4jnsgd1na2vs0mg"},{"bike_id":"1755120d-9bb6-4f67-b470-f1a9abb79a61","system_id":"levelo_inurba_marseille","lat":43.23197,"lon":5.35558,"is_reserved":false,"is_disabled":false,"rental_uris":{"android":"levelo://app?vid=1755120d-9bb6-4f67-b470-f1a9abb79a61","ios":"levelo://app?vid=1755120d-9bb6-4f67-b470-f1a9abb79a61"},"vehicle_type_id":"4","last_reported":1769245930,"current_range_meters":4800,"station_id":"ce4bhu92rcd13ifvqi70","pricing_plan_id":"cebpf4jnsgd1na2vs0mg"},{"bike_id":"26a6c9df-0866-44d7-a5e4-77dd7fdf73b3","system_id":"levelo_inurba_marseille","lat":43.28653,"lon":5.37047,"is_reserved":false,"is_disabled":false,"rental_uris":{"android":"levelo://app?vid=26a6c9df-0866-44d7-a5e4-77dd7fdf73b3","ios":"levelo://app?vid=26a6c9df-0866-44d7-a5e4-77dd7fdf73b3"},"vehicle_type_id":"4","last_reported":1769245930,"current_range_meters":4800,"station_id":"","pricing_plan_id":"cebpf4jnsgd1na2vs0mg"},{"bike_id":"242c68f1-6b62-4a57-bfce-28531eca4eaf","system_id":"levelo_inurba_marseille","lat":43.29743,"lon":5.42768,"is_reserved":false,"is_disabled":false,"rental_uris":{"android":"levelo://app?vid=242c68f1-6b62-4a57-bfce-28531eca4eaf","ios":"levelo://app?vid=242c68f1-6b62-4a57-bfce-28531eca4eaf"},"vehicle_type_id":"4","last_reported":1769245930,"current_range_meters":4800,"station_id":"st_d3md5207bmas73dh9klg","pricing_plan_id":"cebpf4jnsgd1na2vs0mg"},{"bike_id":"640121a6-98f3-4df3-8ec4-d218eca026e4","system_id":"levelo_inurba_marseille","lat":43.24163,"lon":5.36393,"is_reserved":false,"is_disabled":false,"rental_uris":{"android":"levelo://app?vid=640121a6-98f3-4df3-8ec4-d218eca026e4","ios":"levelo://app?vid=640121a6-98f3-4df3-8ec4-d218eca026e4"},"vehicle_type_id":"4","last_reported":1769245930,"current_range_meters":5600,"station_id":"cpo36qri1sfpv3e86is0","pricing_plan_id":"cebpf4jnsgd1na2vs0mg"},{"bike_id":"3f2251c2-5185-4cac-808a-d69526c32cf1","system_id":"levelo_inurba_marseille","lat":43.249509,"lon":5.404878,"is_reserved":false,"is_disabled":false,"rental_uris":{"android":"levelo://app?vid=3f2251c2-5185-4cac-808a-d69526c32cf1","ios":"levelo://app?vid=3f2251c2-5185-4cac-808a-d69526c32cf1"},"vehicle_type_id":"4","last_reported":1769245930,"current_range_meters":5600,"station_id":"st_d2ngiaodas8pm72gd1h0","pricing_plan_id":"cebpf4jnsgd1na2vs0mg"},{"bike_id":"6ef69e1d-3d5b-42d4-9af7-2b6ac622d1ab","system_id":"levelo_inurba_marseille","lat":43.30328,"lon":5.40435,"is_reserved":false,"is_disabled":false,"rental_uris":{"android":"levelo://app?vid=6ef69e1d-3d5b-42d4-9af7-2b6ac622d1ab","ios":"levelo://app?vid=6ef69e1d-3d5b-42d4-9af7-2b6ac622d1ab"},"vehicle_type_id":"4","last_reported":1769245930,"current_range_meters":5600,"station_id":"ce4bh012rcd13ifvqd10","pricing_plan_id":"cebpf4jnsgd1na2vs0mg"},{"bike_id":"15ce2f7b-e27b-4b73-b1d7-521910c86f00","system_id":"levelo_inurba_marseille","lat":43.284784,"lon":5.483955,"is_reserved":false,"is_disabled":false,"rental_uris":{"android":"levelo://app?vid=15ce2f7b-e27b-4b73-b1d7-521910c86f00","ios":"levelo://app?vid=15ce2f7b-e27b-4b73-b1d7-521910c86f00"},"vehicle_type_id":"4","last_reported":1769245930,"current_range_meters":5600,"station_id":"","pricing_plan_id":"cebpf4jnsgd1na2vs0mg"},{"bike_id":"83cfc6fc-818a-4d29-b877-3fdba22e0a51","system_id":"levelo_inurba_marseille","lat":43.30527,"lon":5.36719,"is_reserved":false,"is_disabled":false,"rental_uris":{"android":"levelo://app?vid=83cfc6fc-818a-4d29-b877-3fdba22e0a51","ios":"levelo://app?vid=83cfc6fc-818a-4d29-b877-3fdba22e0a51"},"vehicle_type_id":"4","last_reported":1769245930,"current_range_meters":5600,"station_id":"ce4bgrp2rcd13ifvqc9g","pricing_plan_id":"cebpf4jnsgd1na2vs0mg"},{"bike_id":"867e317b-7602-47b1-aabc-63ed6c690985","system_id":"levelo_inurba_marseille","lat":43.30899,"lon":5.36859,"is_reserved":false,"is_disabled":false,"rental_uris":{"android":"levelo://app?vid=867e317b-7602-47b1-aabc-63ed6c690985","ios":"levelo://app?vid=867e317b-7602-47b1-aabc-63ed6c690985"},"vehicle_type_id":"4","last_reported":1769245930,"current_range_meters":5600,"station_id":"ce4bgn92rcd13ifvqbvg","pricing_plan_id":"cebpf4jnsgd1na2vs0mg"},{"bike_id":"7dc9374e-ff67-42c2-8fdf-a0f9104cad12","system_id":"levelo_inurba_marseille","lat":43.29225,"lon":5.36054,"is_reserved":false,"is_disabled":false,"rental_uris":{"android":"levelo://app?vid=7dc9374e-ff67-42c2-8fdf-a0f9104cad12","ios":"levelo://app?vid=7dc9374e-ff67-42c2-8fdf-a0f9104cad12"},"vehicle_type_id":"4","last_reported":1769245930,"current_range_meters":5600,"station_id":"ce4bhbh2rcd13ifvqeqg","pricing_plan_id":"cebpf4jnsgd1na2vs0mg"},{"bike_id":"9cea3fab-a99e-4f27-ac36-13187248fc09","system_id":"levelo_inurba_marseille","lat":43.30512,"lon":5.38254,"is_reserved":false,"is_disabled":true,"rental_uris":{"android":"levelo://app?vid=9cea3fab-a99e-4f27-ac36-13187248fc09","ios":"levelo://app?vid=9cea3fab-a99e-4f27-ac36-13187248fc09"},"vehicle_type_id":"4","last_reported":1769245930,"current_range_meters":5600,"station_id":"","pricing_plan_id":"cebpf4jnsgd1na2vs0mg"},{"bike_id":"bb3ecf2b-4199-42d1-9b75-4f79ea09bb52","system_id":"levelo_inurba_marseille","lat":43.30373,"lon":5.42505,"is_reserved":false,"is_disabled":false,"rental_uris":{"android":"levelo://app?vid=bb3ecf2b-4199-42d1-9b75-4f79ea09bb52","ios":"levelo://app?vid=bb3ecf2b-4199-42d1-9b75-4f79ea09bb52"},"vehicle_type_id":"4","last_reported":1769245930,"current_range_meters":5600,"station_id":"ce4bhoh2rcd13ifvqh6g","pricing_plan_id":"cebpf4jnsgd1na2vs0mg"},{"bike_id":"a406e8a4-835e-4d37-afdc-cc2038bc8238","system_id":"levelo_inurba_marseille","lat":43.3016,"lon":5.38106,"is_reserved":false,"is_disabled":false,"rental_uris":{"android":"levelo://app?vid=a406e8a4-835e-4d37-afdc-cc2038bc8238","ios":"levelo://app?vid=a406e8a4-835e-4d37-afdc-cc2038bc8238"},"vehicle_type_id":"4","last_reported":1769245930,"current_range_meters":6000,"station_id":"ce4bgjp2rcd13ifvqbh0","pricing_plan_id":"cebpf4jnsgd1na2vs0mg"},{"bike_id":"651915f3-ebc5-4ef3-a2ae-2742ff4a9c5f","system_id":"levelo_inurba_marseille","lat":43.281545,"lon":5.426455,"is_reserved":false,"is_disabled":false,"rental_uris":{"android":"levelo://app?vid=651915f3-ebc5-4ef3-a2ae-2742ff4a9c5f","ios":"levelo://app?vid=651915f3-ebc5-4ef3-a2ae-2742ff4a9c5f"},"vehicle_type_id":"4","last_reported":1769245930,"current_range_meters":6000,"station_id":"ce4bhnh2rcd13ifvqgug","pricing_plan_id":"cebpf4jnsgd1na2vs0mg"},{"bike_id":"17ed46bf-b051-47fc-a887-339e35ccca50","system_id":"levelo_inurba_marseille","lat":43.29041,"lon":5.37565,"is_reserved":false,"is_disabled":false,"rental_uris":{"android":"levelo://app?vid=17ed46bf-b051-47fc-a887-339e35ccca50","ios":"levelo://app?vid=17ed46bf-b051-47fc-a887-339e35ccca50"},"vehicle_type_id":"4","last_reported":1769245930,"current_range_meters":6000,"station_id":"ce4bh692rcd13ifvqe90","pricing_plan_id":"cebpf4jnsgd1na2vs0mg"},{"bike_id":"cfbb9345-bae0-43a7-a74b-5ceff25b15dd","system_id":"levelo_inurba_marseille","lat":43.289294,"lon":5.366438,"is_reserved":false,"is_disabled":false,"rental_uris":{"android":"levelo://app?vid=cfbb9345-bae0-43a7-a74b-5ceff25b15dd","ios":"levelo://app?vid=cfbb9345-bae0-43a7-a74b-5ceff25b15dd"},"vehicle_type_id":"4","last_reported":1769245930,"current_range_meters":6000,"station_id":"ce4bhap2rcd13ifvqek0","pricing_plan_id":"cebpf4jnsgd1na2vs0mg"},{"bike_id":"88bfa311-94c0-4341-96c1-792f5ba36ea1","system_id":"levelo_inurba_marseille","lat":43.28096,"lon":5.37845,"is_reserved":false,"is_disabled":false,"rental_uris":{"android":"levelo://app?vid=88bfa311-94c0-4341-96c1-792f5ba36ea1","ios":"levelo://app?vid=88bfa311-94c0-4341-96c1-792f5ba36ea1"},"vehicle_type_id":"4","last_reported":1769245930,"current_range_meters":6000,"station_id":"ce4bha12rcd13ifvqee0","pricing_plan_id":"cebpf4jnsgd1na2vs0mg"},{"bike_id":"d26d9ea2-ce28-42f1-b4d6-90586df6c347","system_id":"levelo_inurba_marseille","lat":43.2984,"lon":5.39756,"is_reserved":false,"is_disabled":false,"rental_uris":{"android":"levelo://app?vid=d26d9ea2-ce28-42f1-b4d6-90586df6c347","ios":"levelo://app?vid=d26d9ea2-ce28-42f1-b4d6-90586df6c347"},"vehicle_type_id":"4","last_reported":1769245930,"current_range_meters":6000,"station_id":"ce4bh0h2rcd13ifvqd50","pricing_plan_id":"cebpf4jnsgd1na2vs0mg"},{"bike_id":"68c95c8b-09c7-498d-a2d0-cace9a958f00","system_id":"levelo_inurba_marseille","lat":43.29565,"lon":5.37544,"is_reserved":false,"is_disabled":false,"rental_uris":{"android":"levelo://app?vid=68c95c8b-09c7-498d-a2d0-cace9a958f00","ios":"levelo://app?vid=68c95c8b-09c7-498d-a2d0-cace9a958f00"},"vehicle_type_id":"4","last_reported":1769245930,"current_range_meters":6000,"station_id":"ce4bgh92rcd13ifvqb50","pricing_plan_id":"cebpf4jnsgd1na2vs0mg"},{"bike_id":"42258f14-4722-4aac-b949-245a1ef55bb3","system_id":"levelo_inurba_marseille","lat":43.22924,"lon":5.35399,"is_reserved":false,"is_disabled":false,"rental_uris":{"android":"levelo://app?vid=42258f14-4722-4aac-b949-245a1ef55bb3","ios":"levelo://app?vid=42258f14-4722-4aac-b949-245a1ef55bb3"},"vehicle_type_id":"4","last_reported":1769245930,"current_range_meters":6000,"station_id":"cpo3532slgdg3j2ikp40","pricing_plan_id":"cebpf4jnsgd1na2vs0mg"},{"bike_id":"298d7fcd-6ba2-4884-bf24-218f6a758cb9","system_id":"levelo_inurba_marseille","lat":43.29715,"lon":5.3771,"is_reserved":false,"is_disabled":false,"rental_uris":{"android":"levelo://app?vid=298d7fcd-6ba2-4884-bf24-218f6a758cb9","ios":"levelo://app?vid=298d7fcd-6ba2-4884-bf24-218f6a758cb9"},"vehicle_type_id":"4","last_reported":1769245930,"current_range_meters":6000,"station_id":"ce4bgkh2rcd13ifvqbl0","pricing_plan_id":"cebpf4jnsgd1na2vs0mg"},{"bike_id":"f9a9942f-2b8c-4b2e-91ad-50a9e46645a4","system_id":"levelo_inurba_marseille","lat":43.30955,"lon":5.37795,"is_reserved":false,"is_disabled":false,"rental_uris":{"android":"levelo://app?vid=f9a9942f-2b8c-4b2e-91ad-50a9e46645a4","ios":"levelo://app?vid=f9a9942f-2b8c-4b2e-91ad-50a9e46645a4"},"vehicle_type_id":"4","last_reported":1769245930,"current_range_meters":6000,"station_id":"","pricing_plan_id":"cebpf4jnsgd1na2vs0mg"},{"bike_id":"8c62329e-71c2-4f7a-81bf-708e91fc92be","system_id":"levelo_inurba_marseille","lat":43.24903,"lon":5.38979,"is_reserved":false,"is_disabled":false,"rental_uris":{"android":"levelo://app?vid=8c62329e-71c2-4f7a-81bf-708e91fc92be","ios":"levelo://app?vid=8c62329e-71c2-4f7a-81bf-708e91fc92be"},"vehicle_type_id":"4","last_reported":1769245930,"current_range_meters":6000,"station_id":"","pricing_plan_id":"cebpf4jnsgd1na2vs0mg"},{"bike_id":"b607e3a5-2c70-4386-a488-f7c83d958dd6","system_id":"levelo_inurba_marseille","lat":43.2973,"lon":5.37675,"is_reserved":false,"is_disabled":false,"rental_uris":{"android":"levelo://app?vid=b607e3a5-2c70-4386-a488-f7c83d958dd6","ios":"levelo://app?vid=b607e3a5-2c70-4386-a488-f7c83d958dd6"},"vehicle_type_id":"4","last_reported":1769245930,"current_range_meters":6400,"station_id":"ce4bgkh2rcd13ifvqbl0","pricing_plan_id":"cebpf4jnsgd1na2vs0mg"},{"bike_id":"c04a5f67-8f5d-4135-86b4-b72fa6fb5eb3","system_id":"levelo_inurba_marseille","lat":43.27217,"lon":5.39201,"is_reserved":false,"is_disabled":false,"rental_uris":{"android":"levelo://app?vid=c04a5f67-8f5d-4135-86b4-b72fa6fb5eb3","ios":"levelo://app?vid=c04a5f67-8f5d-4135-86b4-b72fa6fb5eb3"},"vehicle_type_id":"4","last_reported":1769245930,"current_range_meters":6400,"station_id":"ce4bhhp2rcd13ifvqfm0","pricing_plan_id":"cebpf4jnsgd1na2vs0mg"},{"bike_id":"3e10bd30-a062-4bb4-8e27-f93eb1e497ff","system_id":"levelo_inurba_marseille","lat":43.29617,"lon":5.37696,"is_reserved":false,"is_disabled":false,"rental_uris":{"android":"levelo://app?vid=3e10bd30-a062-4bb4-8e27-f93eb1e497ff","ios":"levelo://app?vid=3e10bd30-a062-4bb4-8e27-f93eb1e497ff"},"vehicle_type_id":"4","last_reported":1769245930,"current_range_meters":6400,"station_id":"ce4bgi92rcd13ifvqb90","pricing_plan_id":"cebpf4jnsgd1na2vs0mg"},{"bike_id":"911d5535-cfd0-4827-af14-2b91cedb15fe","system_id":"levelo_inurba_marseille","lat":43.29971,"lon":5.39905,"is_reserved":false,"is_disabled":false,"rental_uris":{"android":"levelo://app?vid=911d5535-cfd0-4827-af14-2b91cedb15fe","ios":"levelo://app?vid=911d5535-cfd0-4827-af14-2b91cedb15fe"},"vehicle_type_id":"4","last_reported":1769245930,"current_range_meters":6400,"station_id":"","pricing_plan_id":"cebpf4jnsgd1na2vs0mg"},{"bike_id":"718d5db1-dc44-4b74-8e82-1e977ee8f15e","system_id":"levelo_inurba_marseille","lat":43.25092,"lon":5.40452,"is_reserved":false,"is_disabled":false,"rental_uris":{"android":"levelo://app?vid=718d5db1-dc44-4b74-8e82-1e977ee8f15e","ios":"levelo://app?vid=718d5db1-dc44-4b74-8e82-1e977ee8f15e"},"vehicle_type_id":"4","last_reported":1769245930,"current_range_meters":6400,"station_id":"","pricing_plan_id":"cebpf4jnsgd1na2vs0mg"},{"bike_id":"7c7cc252-7f4f-4ac1-8175-44f20e46ac77","system_id":"levelo_inurba_marseille","lat":43.2673,"lon":5.40192,"is_reserved":false,"is_disabled":false,"rental_uris":{"android":"levelo://app?vid=7c7cc252-7f4f-4ac1-8175-44f20e46ac77","ios":"levelo://app?vid=7c7cc252-7f4f-4ac1-8175-44f20e46ac77"},"vehicle_type_id":"4","last_reported":1769245930,"current_range_meters":6400,"station_id":"","pricing_plan_id":"cebpf4jnsgd1na2vs0mg"},{"bike_id":"b44f5893-98a6-4d48-9916-c3973925500f","system_id":"levelo_inurba_marseille","lat":43.29571,"lon":5.37517,"is_reserved":false,"is_disabled":false,"rental_uris":{"android":"levelo://app?vid=b44f5893-98a6-4d48-9916-c3973925500f","ios":"levelo://app?vid=b44f5893-98a6-4d48-9916-c3973925500f"},"vehicle_type_id":"4","last_reported":1769245930,"current_range_meters":6400,"station_id":"ce4bgh92rcd13ifvqb50","pricing_plan_id":"cebpf4jnsgd1na2vs0mg"},{"bike_id":"17a88ffa-bff1-4fe3-9faa-89fa827e7200","system_id":"levelo_inurba_marseille","lat":43.26557,"lon":5.37289,"is_reserved":false,"is_disabled":false,"rental_uris":{"android":"levelo://app?vid=17a88ffa-bff1-4fe3-9faa-89fa827e7200","ios":"levelo://app?vid=17a88ffa-bff1-4fe3-9faa-89fa827e7200"},"vehicle_type_id":"4","last_reported":1769245930,"current_range_meters":6400,"station_id":"ce4bhg12rcd13ifvqf70","pricing_plan_id":"cebpf4jnsgd1na2vs0mg"},{"bike_id":"8d651ce5-2af6-4d67-a695-d29bc342bb83","system_id":"levelo_inurba_marseille","lat":43.229338,"lon":5.353806,"is_reserved":false,"is_disabled":false,"rental_uris":{"android":"levelo://app?vid=8d651ce5-2af6-4d67-a695-d29bc342bb83","ios":"levelo://app?vid=8d651ce5-2af6-4d67-a695-d29bc342bb83"},"vehicle_type_id":"4","last_reported":1769245930,"current_range_meters":6400,"station_id":"cpo3532slgdg3j2ikp40","pricing_plan_id":"cebpf4jnsgd1na2vs0mg"},{"bike_id":"8249b795-1399-4a9c-bbc0-1737c461790c","system_id":"levelo_inurba_marseille","lat":43.24546,"lon":5.39537,"is_reserved":false,"is_disabled":false,"rental_uris":{"android":"levelo://app?vid=8249b795-1399-4a9c-bbc0-1737c461790c","ios":"levelo://app?vid=8249b795-1399-4a9c-bbc0-1737c461790c"},"vehicle_type_id":"4","last_reported":1769245930,"current_range_meters":6400,"station_id":"ce4bhlp2rcd13ifvqgjg","pricing_plan_id":"cebpf4jnsgd1na2vs0mg"},{"bike_id":"fb17407f-cd04-49b2-9056-6a1a5f3482ca","system_id":"levelo_inurba_marseille","lat":43.30112,"lon":5.39058,"is_reserved":false,"is_disabled":false,"rental_uris":{"android":"levelo://app?vid=fb17407f-cd04-49b2-9056-6a1a5f3482ca","ios":"levelo://app?vid=fb17407f-cd04-49b2-9056-6a1a5f3482ca"},"vehicle_type_id":"4","last_reported":1769245930,"current_range_meters":6400,"station_id":"ce4bh192rcd13ifvqdb0","pricing_plan_id":"cebpf4jnsgd1na2vs0mg"},{"bike_id":"ca08b871-7556-4423-ab4f-4b47cc411081","system_id":"levelo_inurba_marseille","lat":43.31721,"lon":5.43722,"is_reserved":false,"is_disabled":false,"rental_uris":{"android":"levelo://app?vid=ca08b871-7556-4423-ab4f-4b47cc411081","ios":"levelo://app?vid=ca08b871-7556-4423-ab4f-4b47cc411081"},"vehicle_type_id":"4","last_reported":1769245930,"current_range_meters":6400,"station_id":"ce4bhp92rcd13ifvqhcg","pricing_plan_id":"cebpf4jnsgd1na2vs0mg"},{"bike_id":"325d6000-e7a8-417c-aa29-6d5b58f2d9fb","system_id":"levelo_inurba_marseille","lat":43.29607,"lon":5.37183,"is_reserved":false,"is_disabled":false,"rental_uris":{"android":"levelo://app?vid=325d6000-e7a8-417c-aa29-6d5b58f2d9fb","ios":"levelo://app?vid=325d6000-e7a8-417c-aa29-6d5b58f2d9fb"},"vehicle_type_id":"4","last_reported":1769245930,"current_range_meters":6400,"station_id":"ce4bgnh2rcd13ifvqc0g","pricing_plan_id":"cebpf4jnsgd1na2vs0mg"},{"bike_id":"02fc82d5-d373-4dc5-a155-6cc42147fdcf","system_id":"levelo_inurba_marseille","lat":43.25577,"lon":5.38239,"is_reserved":false,"is_disabled":false,"rental_uris":{"android":"levelo://app?vid=02fc82d5-d373-4dc5-a155-6cc42147fdcf","ios":"levelo://app?vid=02fc82d5-d373-4dc5-a155-6cc42147fdcf"},"vehicle_type_id":"4","last_reported":1769245930,"current_range_meters":6400,"station_id":"ce4bhih2rcd13ifvqfs0","pricing_plan_id":"cebpf4jnsgd1na2vs0mg"},{"bike_id":"631483d0-ada8-4ace-8a32-eb461cd8070c","system_id":"levelo_inurba_marseille","lat":43.3054,"lon":5.36746,"is_reserved":false,"is_disabled":false,"rental_uris":{"android":"levelo://app?vid=631483d0-ada8-4ace-8a32-eb461cd8070c","ios":"levelo://app?vid=631483d0-ada8-4ace-8a32-eb461cd8070c"},"vehicle_type_id":"4","last_reported":1769245930,"current_range_meters":6400,"station_id":"ce4bgrp2rcd13ifvqc9g","pricing_plan_id":"cebpf4jnsgd1na2vs0mg"},{"bike_id":"0dc9dc39-9a79-4974-b3ae-9c8631cf059e","system_id":"levelo_inurba_marseille","lat":43.24015,"lon":5.39583,"is_reserved":false,"is_disabled":false,"rental_uris":{"android":"levelo://app?vid=0dc9dc39-9a79-4974-b3ae-9c8631cf059e","ios":"levelo://app?vid=0dc9dc39-9a79-4974-b3ae-9c8631cf059e"},"vehicle_type_id":"4","last_reported":1769245930,"current_range_meters":6800,"station_id":"","pricing_plan_id":"cebpf4jnsgd1na2vs0mg"},{"bike_id":"ce91f19c-6b5f-4475-ac98-6aba43530cf5","system_id":"levelo_inurba_marseille","lat":43.24995,"lon":5.38941,"is_reserved":false,"is_disabled":false,"rental_uris":{"android":"levelo://app?vid=ce91f19c-6b5f-4475-ac98-6aba43530cf5","ios":"levelo://app?vid=ce91f19c-6b5f-4475-ac98-6aba43530cf5"},"vehicle_type_id":"4","last_reported":1769245930,"current_range_meters":6800,"station_id":"ce4bhgp2rcd13ifvqfd0","pricing_plan_id":"cebpf4jnsgd1na2vs0mg"},{"bike_id":"c6fbb98a-9128-48c7-8d2a-17a846ffd7f3","system_id":"levelo_inurba_marseille","lat":43.28565,"lon":5.39513,"is_reserved":false,"is_disabled":false,"rental_uris":{"android":"levelo://app?vid=c6fbb98a-9128-48c7-8d2a-17a846ffd7f3","ios":"levelo://app?vid=c6fbb98a-9128-48c7-8d2a-17a846ffd7f3"},"vehicle_type_id":"4","last_reported":1769245930,"current_range_meters":6800,"station_id":"ce4bh292rcd13ifvqdg0","pricing_plan_id":"cebpf4jnsgd1na2vs0mg"},{"bike_id":"5ef0fcdb-b107-4dbb-97e8-c66d13c4cf00","system_id":"levelo_inurba_marseille","lat":43.280804,"lon":5.396452,"is_reserved":false,"is_disabled":false,"rental_uris":{"android":"levelo://app?vid=5ef0fcdb-b107-4dbb-97e8-c66d13c4cf00","ios":"levelo://app?vid=5ef0fcdb-b107-4dbb-97e8-c66d13c4cf00"},"vehicle_type_id":"4","last_reported":1769245930,"current_range_meters":6800,"station_id":"","pricing_plan_id":"cebpf4jnsgd1na2vs0mg"},{"bike_id":"80a1e85a-5f34-42d9-8022-daacfd0fc80b","system_id":"levelo_inurba_marseille","lat":43.27325,"lon":5.390615,"is_reserved":false,"is_disabled":false,"rental_uris":{"android":"levelo://app?vid=80a1e85a-5f34-42d9-8022-daacfd0fc80b","ios":"levelo://app?vid=80a1e85a-5f34-42d9-8022-daacfd0fc80b"},"vehicle_type_id":"4","last_reported":1769245930,"current_range_meters":6800,"station_id":"ce4bhgp2rcd13ifvqfe0","pricing_plan_id":"cebpf4jnsgd1na2vs0mg"},{"bike_id":"89c44b54-78bd-4017-ab5b-d551e3b90754","system_id":"levelo_inurba_marseille","lat":43.29045,"lon":5.39963,"is_reserved":false,"is_disabled":false,"rental_uris":{"android":"levelo://app?vid=89c44b54-78bd-4017-ab5b-d551e3b90754","ios":"levelo://app?vid=89c44b54-78bd-4017-ab5b-d551e3b90754"},"vehicle_type_id":"4","last_reported":1769245930,"current_range_meters":6800,"station_id":"ce4bh392rcd13ifvqdm0","pricing_plan_id":"cebpf4jnsgd1na2vs0mg"},{"bike_id":"20ee4b28-10b7-4e3e-8027-dc39d1baf0ba","system_id":"levelo_inurba_marseille","lat":43.281523,"lon":5.4265,"is_reserved":false,"is_disabled":false,"rental_uris":{"android":"levelo://app?vid=20ee4b28-10b7-4e3e-8027-dc39d1baf0ba","ios":"levelo://app?vid=20ee4b28-10b7-4e3e-8027-dc39d1baf0ba"},"vehicle_type_id":"4","last_reported":1769245930,"current_range_meters":6800,"station_id":"ce4bhnh2rcd13ifvqgug","pricing_plan_id":"cebpf4jnsgd1na2vs0mg"},{"bike_id":"e3bf064c-53bb-4e5e-a214-36779e2347bf","system_id":"levelo_inurba_marseille","lat":43.280001,"lon":5.416682,"is_reserved":false,"is_disabled":false,"rental_uris":{"android":"levelo://app?vid=e3bf064c-53bb-4e5e-a214-36779e2347bf","ios":"levelo://app?vid=e3bf064c-53bb-4e5e-a214-36779e2347bf"},"vehicle_type_id":"4","last_reported":1769245930,"current_range_meters":6800,"station_id":"ce4bho12rcd13ifvqh1g","pricing_plan_id":"cebpf4jnsgd1na2vs0mg"},{"bike_id":"81501642-8bc1-455e-bd31-54a9b040d3f2","system_id":"levelo_inurba_marseille","lat":43.3048,"lon":5.37906,"is_reserved":false,"is_disabled":false,"rental_uris":{"android":"levelo://app?vid=81501642-8bc1-455e-bd31-54a9b040d3f2","ios":"levelo://app?vid=81501642-8bc1-455e-bd31-54a9b040d3f2"},"vehicle_type_id":"4","last_reported":1769245930,"current_range_meters":6800,"station_id":"ce4bgup2rcd13ifvqcn0","pricing_plan_id":"cebpf4jnsgd1na2vs0mg"},{"bike_id":"1ee07084-a0a9-43af-bdb4-955f248e5678","system_id":"levelo_inurba_marseille","lat":43.28388,"lon":5.387533,"is_reserved":false,"is_disabled":false,"rental_uris":{"android":"levelo://app?vid=1ee07084-a0a9-43af-bdb4-955f248e5678","ios":"levelo://app?vid=1ee07084-a0a9-43af-bdb4-955f248e5678"},"vehicle_type_id":"4","last_reported":1769245930,"current_range_meters":6800,"station_id":"","pricing_plan_id":"cebpf4jnsgd1na2vs0mg"},{"bike_id":"b554fdf9-8382-4981-b529-f812e238f05f","system_id":"levelo_inurba_marseille","lat":43.2997,"lon":5.38503,"is_reserved":false,"is_disabled":false,"rental_uris":{"android":"levelo://app?vid=b554fdf9-8382-4981-b529-f812e238f05f","ios":"levelo://app?vid=b554fdf9-8382-4981-b529-f812e238f05f"},"vehicle_type_id":"4","last_reported":1769245930,"current_range_meters":6800,"station_id":"ce4bgj92rcd13ifvqbd0","pricing_plan_id":"cebpf4jnsgd1na2vs0mg"},{"bike_id":"d2d53e0f-af2d-4a18-8781-8f93386bbf13","system_id":"levelo_inurba_marseille","lat":43.29574,"lon":5.37514,"is_reserved":false,"is_disabled":false,"rental_uris":{"android":"levelo://app?vid=d2d53e0f-af2d-4a18-8781-8f93386bbf13","ios":"levelo://app?vid=d2d53e0f-af2d-4a18-8781-8f93386bbf13"},"vehicle_type_id":"4","last_reported":1769245930,"current_range_meters":6800,"station_id":"ce4bgh92rcd13ifvqb50","pricing_plan_id":"cebpf4jnsgd1na2vs0mg"},{"bike_id":"514778f3-cb3c-44e7-bfaa-f93fb491b5fc","system_id":"levelo_inurba_marseille","lat":43.25002,"lon":5.38948,"is_reserved":false,"is_disabled":false,"rental_uris":{"android":"levelo://app?vid=514778f3-cb3c-44e7-bfaa-f93fb491b5fc","ios":"levelo://app?vid=514778f3-cb3c-44e7-bfaa-f93fb491b5fc"},"vehicle_type_id":"4","last_reported":1769245930,"current_range_meters":6800,"station_id":"ce4bhgp2rcd13ifvqfd0","pricing_plan_id":"cebpf4jnsgd1na2vs0mg"},{"bike_id":"d040ef4c-b503-4ce1-af38-2d8a33b49cb0","system_id":"levelo_inurba_marseille","lat":43.31707,"lon":5.43707,"is_reserved":false,"is_disabled":false,"rental_uris":{"android":"levelo://app?vid=d040ef4c-b503-4ce1-af38-2d8a33b49cb0","ios":"levelo://app?vid=d040ef4c-b503-4ce1-af38-2d8a33b49cb0"},"vehicle_type_id":"4","last_reported":1769245930,"current_range_meters":6800,"station_id":"ce4bhp92rcd13ifvqhcg","pricing_plan_id":"cebpf4jnsgd1na2vs0mg"},{"bike_id":"2b16ff9b-1532-4a37-9b9d-95bb7d5a2516","system_id":"levelo_inurba_marseille","lat":43.28143,"lon":5.42665,"is_reserved":false,"is_disabled":true,"rental_uris":{"android":"levelo://app?vid=2b16ff9b-1532-4a37-9b9d-95bb7d5a2516","ios":"levelo://app?vid=2b16ff9b-1532-4a37-9b9d-95bb7d5a2516"},"vehicle_type_id":"4","last_reported":1769245930,"current_range_meters":6800,"station_id":"ce4bhnh2rcd13ifvqgug","pricing_plan_id":"cebpf4jnsgd1na2vs0mg"},{"bike_id":"d6bcc36c-0988-4104-853c-6ca0cbca9b29","system_id":"levelo_inurba_marseille","lat":43.28855,"lon":5.42544,"is_reserved":false,"is_disabled":false,"rental_uris":{"android":"levelo://app?vid=d6bcc36c-0988-4104-853c-6ca0cbca9b29","ios":"levelo://app?vid=d6bcc36c-0988-4104-853c-6ca0cbca9b29"},"vehicle_type_id":"4","last_reported":1769245930,"current_range_meters":6800,"station_id":"st_d3b462108ojc7389ooeg","pricing_plan_id":"cebpf4jnsgd1na2vs0mg"},{"bike_id":"6deea6e9-9ab3-48ca-9abc-afa805f8a442","system_id":"levelo_inurba_marseille","lat":43.30216,"lon":5.39467,"is_reserved":false,"is_disabled":false,"rental_uris":{"android":"levelo://app?vid=6deea6e9-9ab3-48ca-9abc-afa805f8a442","ios":"levelo://app?vid=6deea6e9-9ab3-48ca-9abc-afa805f8a442"},"vehicle_type_id":"4","last_reported":1769245930,"current_range_meters":6800,"station_id":"ce4bh0p2rcd13ifvqd70","pricing_plan_id":"cebpf4jnsgd1na2vs0mg"},{"bike_id":"2e2ce66a-3f89-4c21-a9df-34056a5a5860","system_id":"levelo_inurba_marseille","lat":43.22556,"lon":5.41636,"is_reserved":false,"is_disabled":false,"rental_uris":{"android":"levelo://app?vid=2e2ce66a-3f89-4c21-a9df-34056a5a5860","ios":"levelo://app?vid=2e2ce66a-3f89-4c21-a9df-34056a5a5860"},"vehicle_type_id":"4","last_reported":1769245930,"current_range_meters":6800,"station_id":"st_d2o4gvlbi1j2169b742g","pricing_plan_id":"cebpf4jnsgd1na2vs0mg"},{"bike_id":"824c621c-a202-476e-adb4-d2ef81fa6574","system_id":"levelo_inurba_marseille","lat":43.24469,"lon":5.42539,"is_reserved":false,"is_disabled":false,"rental_uris":{"android":"levelo://app?vid=824c621c-a202-476e-adb4-d2ef81fa6574","ios":"levelo://app?vid=824c621c-a202-476e-adb4-d2ef81fa6574"},"vehicle_type_id":"4","last_reported":1769245930,"current_range_meters":6800,"station_id":"st_d4a3vfp97mjs738cd8kg","pricing_plan_id":"cebpf4jnsgd1na2vs0mg"},{"bike_id":"e4c4f5dd-c80d-4d75-801c-35c973416425","system_id":"levelo_inurba_marseille","lat":43.26552,"lon":5.37312,"is_reserved":false,"is_disabled":false,"rental_uris":{"android":"levelo://app?vid=e4c4f5dd-c80d-4d75-801c-35c973416425","ios":"levelo://app?vid=e4c4f5dd-c80d-4d75-801c-35c973416425"},"vehicle_type_id":"4","last_reported":1769245930,"current_range_meters":7200,"station_id":"ce4bhg12rcd13ifvqf70","pricing_plan_id":"cebpf4jnsgd1na2vs0mg"},{"bike_id":"0067e0af-5ba0-4b0d-a268-ed0ed9e19547","system_id":"levelo_inurba_marseille","lat":43.32349,"lon":5.36743,"is_reserved":false,"is_disabled":false,"rental_uris":{"android":"levelo://app?vid=0067e0af-5ba0-4b0d-a268-ed0ed9e19547","ios":"levelo://app?vid=0067e0af-5ba0-4b0d-a268-ed0ed9e19547"},"vehicle_type_id":"4","last_reported":1769245930,"current_range_meters":7200,"station_id":"ce4bhsh2rcd13ifvqi2g","pricing_plan_id":"cebpf4jnsgd1na2vs0mg"},{"bike_id":"10c585ec-0d69-49bc-a403-a71e7446105a","system_id":"levelo_inurba_marseille","lat":43.24921,"lon":5.3971,"is_reserved":false,"is_disabled":false,"rental_uris":{"android":"levelo://app?vid=10c585ec-0d69-49bc-a403-a71e7446105a","ios":"levelo://app?vid=10c585ec-0d69-49bc-a403-a71e7446105a"},"vehicle_type_id":"4","last_reported":1769245930,"current_range_meters":7200,"station_id":"","pricing_plan_id":"cebpf4jnsgd1na2vs0mg"},{"bike_id":"f95f1b41-c459-4716-90e0-3945d441d261","system_id":"levelo_inurba_marseille","lat":43.29707,"lon":5.36611,"is_reserved":false,"is_disabled":false,"rental_uris":{"android":"levelo://app?vid=f95f1b41-c459-4716-90e0-3945d441d261","ios":"levelo://app?vid=f95f1b41-c459-4716-90e0-3945d441d261"},"vehicle_type_id":"4","last_reported":1769245930,"current_range_meters":7200,"station_id":"ce4bgn12rcd13ifvqbt0","pricing_plan_id":"cebpf4jnsgd1na2vs0mg"},{"bike_id":"3df1c2ce-b029-4e4a-acf7-75de203dd298","system_id":"levelo_inurba_marseille","lat":43.24962,"lon":5.40519,"is_reserved":false,"is_disabled":false,"rental_uris":{"android":"levelo://app?vid=3df1c2ce-b029-4e4a-acf7-75de203dd298","ios":"levelo://app?vid=3df1c2ce-b029-4e4a-acf7-75de203dd298"},"vehicle_type_id":"4","last_reported":1769245930,"current_range_meters":7200,"station_id":"st_d2ngiaodas8pm72gd1h0","pricing_plan_id":"cebpf4jnsgd1na2vs0mg"},{"bike_id":"44ff8850-ae68-4cf9-ac2c-234966d5cf18","system_id":"levelo_inurba_marseille","lat":43.29696,"lon":5.37295,"is_reserved":false,"is_disabled":false,"rental_uris":{"android":"levelo://app?vid=44ff8850-ae68-4cf9-ac2c-234966d5cf18","ios":"levelo://app?vid=44ff8850-ae68-4cf9-ac2c-234966d5cf18"},"vehicle_type_id":"4","last_reported":1769245930,"current_range_meters":7200,"station_id":"ce4bgk12rcd13ifvqbj0","pricing_plan_id":"cebpf4jnsgd1na2vs0mg"},{"bike_id":"16525725-a4c4-4bd9-9925-eb9b950936aa","system_id":"levelo_inurba_marseille","lat":43.26919,"lon":5.391,"is_reserved":false,"is_disabled":false,"rental_uris":{"android":"levelo://app?vid=16525725-a4c4-4bd9-9925-eb9b950936aa","ios":"levelo://app?vid=16525725-a4c4-4bd9-9925-eb9b950936aa"},"vehicle_type_id":"4","last_reported":1769245930,"current_range_meters":7200,"station_id":"","pricing_plan_id":"cebpf4jnsgd1na2vs0mg"},{"bike_id":"7a1b6b69-5f61-4e11-91d3-12cf02858ca8","system_id":"levelo_inurba_marseille","lat":43.24385,"lon":5.37085,"is_reserved":false,"is_disabled":false,"rental_uris":{"android":"levelo://app?vid=7a1b6b69-5f61-4e11-91d3-12cf02858ca8","ios":"levelo://app?vid=7a1b6b69-5f61-4e11-91d3-12cf02858ca8"},"vehicle_type_id":"4","last_reported":1769245930,"current_range_meters":8000,"station_id":"ce4bhhh2rcd13ifvqfk0","pricing_plan_id":"cebpf4jnsgd1na2vs0mg"},{"bike_id":"0e7c9739-7c0b-462d-b69e-90718e9a5775","system_id":"levelo_inurba_marseille","lat":43.26552,"lon":5.37314,"is_reserved":false,"is_disabled":false,"rental_uris":{"android":"levelo://app?vid=0e7c9739-7c0b-462d-b69e-90718e9a5775","ios":"levelo://app?vid=0e7c9739-7c0b-462d-b69e-90718e9a5775"},"vehicle_type_id":"4","last_reported":1769245930,"current_range_meters":8000,"station_id":"ce4bhg12rcd13ifvqf70","pricing_plan_id":"cebpf4jnsgd1na2vs0mg"},{"bike_id":"994cd074-f869-4813-80d0-fd8e13f5f341","system_id":"levelo_inurba_marseille","lat":43.29943,"lon":5.36564,"is_reserved":false,"is_disabled":false,"rental_uris":{"android":"levelo://app?vid=994cd074-f869-4813-80d0-fd8e13f5f341","ios":"levelo://app?vid=994cd074-f869-4813-80d0-fd8e13f5f341"},"vehicle_type_id":"4","last_reported":1769245930,"current_range_meters":8000,"station_id":"ce4bgm92rcd13ifvqbr0","pricing_plan_id":"cebpf4jnsgd1na2vs0mg"},{"bike_id":"21f6fd5f-51e0-4ace-adf3-8e7223e07642","system_id":"levelo_inurba_marseille","lat":43.29897,"lon":5.43661,"is_reserved":false,"is_disabled":false,"rental_uris":{"android":"levelo://app?vid=21f6fd5f-51e0-4ace-adf3-8e7223e07642","ios":"levelo://app?vid=21f6fd5f-51e0-4ace-adf3-8e7223e07642"},"vehicle_type_id":"4","last_reported":1769245930,"current_range_meters":8000,"station_id":"ce4bhpp2rcd13ifvqhfg","pricing_plan_id":"cebpf4jnsgd1na2vs0mg"},{"bike_id":"b019e1a9-e9bb-4a00-b8fa-7bb78b5700ac","system_id":"levelo_inurba_marseille","lat":43.32361,"lon":5.36753,"is_reserved":false,"is_disabled":false,"rental_uris":{"android":"levelo://app?vid=b019e1a9-e9bb-4a00-b8fa-7bb78b5700ac","ios":"levelo://app?vid=b019e1a9-e9bb-4a00-b8fa-7bb78b5700ac"},"vehicle_type_id":"4","last_reported":1769245930,"current_range_meters":8000,"station_id":"ce4bhsh2rcd13ifvqi2g","pricing_plan_id":"cebpf4jnsgd1na2vs0mg"},{"bike_id":"19c9b524-76f1-4e5d-8be9-000b11a19079","system_id":"levelo_inurba_marseille","lat":43.25005,"lon":5.38914,"is_reserved":false,"is_disabled":false,"rental_uris":{"android":"levelo://app?vid=19c9b524-76f1-4e5d-8be9-000b11a19079","ios":"levelo://app?vid=19c9b524-76f1-4e5d-8be9-000b11a19079"},"vehicle_type_id":"4","last_reported":1769245930,"current_range_meters":8000,"station_id":"ce4bhgp2rcd13ifvqfd0","pricing_plan_id":"cebpf4jnsgd1na2vs0mg"},{"bike_id":"b8d70063-1063-4a8b-8a6c-15c01f2ab3f8","system_id":"levelo_inurba_marseille","lat":43.30386,"lon":5.42488,"is_reserved":false,"is_disabled":false,"rental_uris":{"android":"levelo://app?vid=b8d70063-1063-4a8b-8a6c-15c01f2ab3f8","ios":"levelo://app?vid=b8d70063-1063-4a8b-8a6c-15c01f2ab3f8"},"vehicle_type_id":"4","last_reported":1769245930,"current_range_meters":8000,"station_id":"ce4bhoh2rcd13ifvqh6g","pricing_plan_id":"cebpf4jnsgd1na2vs0mg"},{"bike_id":"42e07818-1b39-4532-9657-17361bba031a","system_id":"levelo_inurba_marseille","lat":43.30879,"lon":5.3774,"is_reserved":false,"is_disabled":true,"rental_uris":{"android":"levelo://app?vid=42e07818-1b39-4532-9657-17361bba031a","ios":"levelo://app?vid=42e07818-1b39-4532-9657-17361bba031a"},"vehicle_type_id":"4","last_reported":1769245930,"current_range_meters":8000,"station_id":"ce4bgv92rcd13ifvqcq0","pricing_plan_id":"cebpf4jnsgd1na2vs0mg"},{"bike_id":"89d2f176-9210-47d4-8e8a-9009973231fc","system_id":"levelo_inurba_marseille","lat":43.31379,"lon":5.36663,"is_reserved":false,"is_disabled":false,"rental_uris":{"android":"levelo://app?vid=89d2f176-9210-47d4-8e8a-9009973231fc","ios":"levelo://app?vid=89d2f176-9210-47d4-8e8a-9009973231fc"},"vehicle_type_id":"4","last_reported":1769245930,"current_range_meters":8000,"station_id":"","pricing_plan_id":"cebpf4jnsgd1na2vs0mg"},{"bike_id":"13283d82-8c02-42ed-bd4e-535a0a93bd96","system_id":"levelo_inurba_marseille","lat":43.29681,"lon":5.37122,"is_reserved":false,"is_disabled":false,"rental_uris":{"android":"levelo://app?vid=13283d82-8c02-42ed-bd4e-535a0a93bd96","ios":"levelo://app?vid=13283d82-8c02-42ed-bd4e-535a0a93bd96"},"vehicle_type_id":"4","last_reported":1769245930,"current_range_meters":8000,"station_id":"","pricing_plan_id":"cebpf4jnsgd1na2vs0mg"},{"bike_id":"d53aa9d5-2a5b-4c87-a2ec-7bd3f4bf9eba","system_id":"levelo_inurba_marseille","lat":43.24998,"lon":5.38941,"is_reserved":false,"is_disabled":false,"rental_uris":{"android":"levelo://app?vid=d53aa9d5-2a5b-4c87-a2ec-7bd3f4bf9eba","ios":"levelo://app?vid=d53aa9d5-2a5b-4c87-a2ec-7bd3f4bf9eba"},"vehicle_type_id":"4","last_reported":1769245930,"current_range_meters":8000,"station_id":"ce4bhgp2rcd13ifvqfd0","pricing_plan_id":"cebpf4jnsgd1na2vs0mg"},{"bike_id":"c12b25a7-3400-4559-8334-7bd3f633fa25","system_id":"levelo_inurba_marseille","lat":43.24548,"lon":5.37339,"is_reserved":false,"is_disabled":false,"rental_uris":{"android":"levelo://app?vid=c12b25a7-3400-4559-8334-7bd3f633fa25","ios":"levelo://app?vid=c12b25a7-3400-4559-8334-7bd3f633fa25"},"vehicle_type_id":"4","last_reported":1769245930,"current_range_meters":8000,"station_id":"","pricing_plan_id":"cebpf4jnsgd1na2vs0mg"},{"bike_id":"e1d27491-b72b-4ef0-a0bb-689c46d99a28","system_id":"levelo_inurba_marseille","lat":43.28478,"lon":5.4843,"is_reserved":false,"is_disabled":false,"rental_uris":{"android":"levelo://app?vid=e1d27491-b72b-4ef0-a0bb-689c46d99a28","ios":"levelo://app?vid=e1d27491-b72b-4ef0-a0bb-689c46d99a28"},"vehicle_type_id":"4","last_reported":1769245930,"current_range_meters":8000,"station_id":"st_d3svhcjqgbts73a3dn0g","pricing_plan_id":"cebpf4jnsgd1na2vs0mg"},{"bike_id":"bacf159a-72cf-43fc-8f05-ab0a893e4068","system_id":"levelo_inurba_marseille","lat":43.30932,"lon":5.39069,"is_reserved":false,"is_disabled":false,"rental_uris":{"android":"levelo://app?vid=bacf159a-72cf-43fc-8f05-ab0a893e4068","ios":"levelo://app?vid=bacf159a-72cf-43fc-8f05-ab0a893e4068"},"vehicle_type_id":"4","last_reported":1769245930,"current_range_meters":8000,"station_id":"ce4bgup2rcd13ifvqco0","pricing_plan_id":"cebpf4jnsgd1na2vs0mg"},{"bike_id":"df555a76-00ff-4a78-b858-b2c5019e602a","system_id":"levelo_inurba_marseille","lat":43.31713,"lon":5.43711,"is_reserved":false,"is_disabled":false,"rental_uris":{"android":"levelo://app?vid=df555a76-00ff-4a78-b858-b2c5019e602a","ios":"levelo://app?vid=df555a76-00ff-4a78-b858-b2c5019e602a"},"vehicle_type_id":"4","last_reported":1769245930,"current_range_meters":8000,"station_id":"ce4bhp92rcd13ifvqhcg","pricing_plan_id":"cebpf4jnsgd1na2vs0mg"},{"bike_id":"54247625-5421-4985-8cfb-4f29ba1ac252","system_id":"levelo_inurba_marseille","lat":43.31668,"lon":5.37678,"is_reserved":false,"is_disabled":false,"rental_uris":{"android":"levelo://app?vid=54247625-5421-4985-8cfb-4f29ba1ac252","ios":"levelo://app?vid=54247625-5421-4985-8cfb-4f29ba1ac252"},"vehicle_type_id":"4","last_reported":1769245930,"current_range_meters":8000,"station_id":"","pricing_plan_id":"cebpf4jnsgd1na2vs0mg"},{"bike_id":"914c29ca-d94d-43d4-8b43-5f05213a1257","system_id":"levelo_inurba_marseille","lat":43.30145,"lon":5.38094,"is_reserved":false,"is_disabled":false,"rental_uris":{"android":"levelo://app?vid=914c29ca-d94d-43d4-8b43-5f05213a1257","ios":"levelo://app?vid=914c29ca-d94d-43d4-8b43-5f05213a1257"},"vehicle_type_id":"4","last_reported":1769245930,"current_range_meters":8000,"station_id":"ce4bgjp2rcd13ifvqbh0","pricing_plan_id":"cebpf4jnsgd1na2vs0mg"},{"bike_id":"5c44d9da-a9f7-4333-ab1c-8bd91f24f729","system_id":"levelo_inurba_marseille","lat":43.22562,"lon":5.41625,"is_reserved":false,"is_disabled":false,"rental_uris":{"android":"levelo://app?vid=5c44d9da-a9f7-4333-ab1c-8bd91f24f729","ios":"levelo://app?vid=5c44d9da-a9f7-4333-ab1c-8bd91f24f729"},"vehicle_type_id":"4","last_reported":1769245930,"current_range_meters":8000,"station_id":"st_d2o4gvlbi1j2169b742g","pricing_plan_id":"cebpf4jnsgd1na2vs0mg"},{"bike_id":"5becb3d1-28c0-4316-be9c-06d3b3d2470d","system_id":"levelo_inurba_marseille","lat":43.29621,"lon":5.37705,"is_reserved":false,"is_disabled":false,"rental_uris":{"android":"levelo://app?vid=5becb3d1-28c0-4316-be9c-06d3b3d2470d","ios":"levelo://app?vid=5becb3d1-28c0-4316-be9c-06d3b3d2470d"},"vehicle_type_id":"4","last_reported":1769245930,"current_range_meters":8000,"station_id":"ce4bgi92rcd13ifvqb90","pricing_plan_id":"cebpf4jnsgd1na2vs0mg"},{"bike_id":"ff7457c3-3c3c-4e6e-83e0-10bd3d24af62","system_id":"levelo_inurba_marseille","lat":43.29219,"lon":5.36074,"is_reserved":false,"is_disabled":false,"rental_uris":{"android":"levelo://app?vid=ff7457c3-3c3c-4e6e-83e0-10bd3d24af62","ios":"levelo://app?vid=ff7457c3-3c3c-4e6e-83e0-10bd3d24af62"},"vehicle_type_id":"4","last_reported":1769245930,"current_range_meters":8000,"station_id":"ce4bhbh2rcd13ifvqeqg","pricing_plan_id":"cebpf4jnsgd1na2vs0mg"},{"bike_id":"52de9daa-2482-4c5b-a055-632fee89cdc4","system_id":"levelo_inurba_marseille","lat":43.255763,"lon":5.382379,"is_reserved":false,"is_disabled":false,"rental_uris":{"android":"levelo://app?vid=52de9daa-2482-4c5b-a055-632fee89cdc4","ios":"levelo://app?vid=52de9daa-2482-4c5b-a055-632fee89cdc4"},"vehicle_type_id":"4","last_reported":1769245930,"current_range_meters":8000,"station_id":"ce4bhih2rcd13ifvqfs0","pricing_plan_id":"cebpf4jnsgd1na2vs0mg"},{"bike_id":"46ab6aa7-f50a-4b91-a31e-e243979c5335","system_id":"levelo_inurba_marseille","lat":43.30166,"lon":5.38082,"is_reserved":false,"is_disabled":false,"rental_uris":{"android":"levelo://app?vid=46ab6aa7-f50a-4b91-a31e-e243979c5335","ios":"levelo://app?vid=46ab6aa7-f50a-4b91-a31e-e243979c5335"},"vehicle_type_id":"4","last_reported":1769245930,"current_range_meters":8000,"station_id":"ce4bgjp2rcd13ifvqbh0","pricing_plan_id":"cebpf4jnsgd1na2vs0mg"},{"bike_id":"903ed6fb-e30d-426f-a862-93953b3b0883","system_id":"levelo_inurba_marseille","lat":43.32352,"lon":5.36716,"is_reserved":false,"is_disabled":false,"rental_uris":{"android":"levelo://app?vid=903ed6fb-e30d-426f-a862-93953b3b0883","ios":"levelo://app?vid=903ed6fb-e30d-426f-a862-93953b3b0883"},"vehicle_type_id":"4","last_reported":1769245930,"current_range_meters":8400,"station_id":"ce4bhsh2rcd13ifvqi2g","pricing_plan_id":"cebpf4jnsgd1na2vs0mg"},{"bike_id":"f50ab09b-5d0e-47a7-a8be-db0e252af394","system_id":"levelo_inurba_marseille","lat":43.22568,"lon":5.41605,"is_reserved":false,"is_disabled":false,"rental_uris":{"android":"levelo://app?vid=f50ab09b-5d0e-47a7-a8be-db0e252af394","ios":"levelo://app?vid=f50ab09b-5d0e-47a7-a8be-db0e252af394"},"vehicle_type_id":"4","last_reported":1769245930,"current_range_meters":8400,"station_id":"st_d2o4gvlbi1j2169b742g","pricing_plan_id":"cebpf4jnsgd1na2vs0mg"},{"bike_id":"66c2f67d-9378-4299-a196-56e15500f607","system_id":"levelo_inurba_marseille","lat":43.2465,"lon":5.38229,"is_reserved":false,"is_disabled":true,"rental_uris":{"android":"levelo://app?vid=66c2f67d-9378-4299-a196-56e15500f607","ios":"levelo://app?vid=66c2f67d-9378-4299-a196-56e15500f607"},"vehicle_type_id":"4","last_reported":1769245930,"current_range_meters":8400,"station_id":"ce4bhih2rcd13ifvqfr0","pricing_plan_id":"cebpf4jnsgd1na2vs0mg"},{"bike_id":"7fbd08ac-4873-40ce-8348-00e50d4fd738","system_id":"levelo_inurba_marseille","lat":43.27157,"lon":5.41003,"is_reserved":false,"is_disabled":false,"rental_uris":{"android":"levelo://app?vid=7fbd08ac-4873-40ce-8348-00e50d4fd738","ios":"levelo://app?vid=7fbd08ac-4873-40ce-8348-00e50d4fd738"},"vehicle_type_id":"4","last_reported":1769245930,"current_range_meters":8400,"station_id":"ce4bhl12rcd13ifvqgf0","pricing_plan_id":"cebpf4jnsgd1na2vs0mg"},{"bike_id":"08962946-fb02-4f38-815e-994eda782353","system_id":"levelo_inurba_marseille","lat":43.283852,"lon":5.394397,"is_reserved":false,"is_disabled":false,"rental_uris":{"android":"levelo://app?vid=08962946-fb02-4f38-815e-994eda782353","ios":"levelo://app?vid=08962946-fb02-4f38-815e-994eda782353"},"vehicle_type_id":"4","last_reported":1769245930,"current_range_meters":8400,"station_id":"","pricing_plan_id":"cebpf4jnsgd1na2vs0mg"},{"bike_id":"8f72bfe4-ee21-4ee8-b70c-bdb39befee0d","system_id":"levelo_inurba_marseille","lat":43.23187,"lon":5.39996,"is_reserved":false,"is_disabled":false,"rental_uris":{"android":"levelo://app?vid=8f72bfe4-ee21-4ee8-b70c-bdb39befee0d","ios":"levelo://app?vid=8f72bfe4-ee21-4ee8-b70c-bdb39befee0d"},"vehicle_type_id":"4","last_reported":1769245930,"current_range_meters":8400,"station_id":"ce4bhn12rcd13ifvqgqg","pricing_plan_id":"cebpf4jnsgd1na2vs0mg"},{"bike_id":"82db4c88-0894-40e3-a1c0-b0b986fd760a","system_id":"levelo_inurba_marseille","lat":43.24358,"lon":5.37103,"is_reserved":false,"is_disabled":false,"rental_uris":{"android":"levelo://app?vid=82db4c88-0894-40e3-a1c0-b0b986fd760a","ios":"levelo://app?vid=82db4c88-0894-40e3-a1c0-b0b986fd760a"},"vehicle_type_id":"4","last_reported":1769245930,"current_range_meters":8400,"station_id":"ce4bhhh2rcd13ifvqfk0","pricing_plan_id":"cebpf4jnsgd1na2vs0mg"},{"bike_id":"819d554d-33ee-4abe-894a-dc86ff277d52","system_id":"levelo_inurba_marseille","lat":43.22926,"lon":5.3541,"is_reserved":false,"is_disabled":false,"rental_uris":{"android":"levelo://app?vid=819d554d-33ee-4abe-894a-dc86ff277d52","ios":"levelo://app?vid=819d554d-33ee-4abe-894a-dc86ff277d52"},"vehicle_type_id":"4","last_reported":1769245930,"current_range_meters":8400,"station_id":"cpo3532slgdg3j2ikp40","pricing_plan_id":"cebpf4jnsgd1na2vs0mg"},{"bike_id":"5b91b93d-b3ae-4751-8498-b1dabc506a1f","system_id":"levelo_inurba_marseille","lat":43.244659,"lon":5.425338,"is_reserved":false,"is_disabled":false,"rental_uris":{"android":"levelo://app?vid=5b91b93d-b3ae-4751-8498-b1dabc506a1f","ios":"levelo://app?vid=5b91b93d-b3ae-4751-8498-b1dabc506a1f"},"vehicle_type_id":"4","last_reported":1769245930,"current_range_meters":8400,"station_id":"st_d4a3vfp97mjs738cd8kg","pricing_plan_id":"cebpf4jnsgd1na2vs0mg"},{"bike_id":"5a626986-ad66-468c-a8b6-d68cc0ed79d7","system_id":"levelo_inurba_marseille","lat":43.299423,"lon":5.365377,"is_reserved":false,"is_disabled":false,"rental_uris":{"android":"levelo://app?vid=5a626986-ad66-468c-a8b6-d68cc0ed79d7","ios":"levelo://app?vid=5a626986-ad66-468c-a8b6-d68cc0ed79d7"},"vehicle_type_id":"4","last_reported":1769245930,"current_range_meters":8400,"station_id":"ce4bgm92rcd13ifvqbr0","pricing_plan_id":"cebpf4jnsgd1na2vs0mg"},{"bike_id":"589eebb0-c0cf-4d19-afe3-eff9c648d5c0","system_id":"levelo_inurba_marseille","lat":43.26205,"lon":5.404664,"is_reserved":false,"is_disabled":false,"rental_uris":{"android":"levelo://app?vid=589eebb0-c0cf-4d19-afe3-eff9c648d5c0","ios":"levelo://app?vid=589eebb0-c0cf-4d19-afe3-eff9c648d5c0"},"vehicle_type_id":"4","last_reported":1769245930,"current_range_meters":8400,"station_id":"","pricing_plan_id":"cebpf4jnsgd1na2vs0mg"},{"bike_id":"dc3bd017-a36c-437c-a91a-6cab42202242","system_id":"levelo_inurba_marseille","lat":43.28539,"lon":5.44102,"is_reserved":false,"is_disabled":false,"rental_uris":{"android":"levelo://app?vid=dc3bd017-a36c-437c-a91a-6cab42202242","ios":"levelo://app?vid=dc3bd017-a36c-437c-a91a-6cab42202242"},"vehicle_type_id":"4","last_reported":1769245930,"current_range_meters":8400,"station_id":"st_d3j3df2ikq2c7380ej80","pricing_plan_id":"cebpf4jnsgd1na2vs0mg"},{"bike_id":"cf291d04-00ee-4dae-8c1c-e27eb3446a64","system_id":"levelo_inurba_marseille","lat":43.27793,"lon":5.40761,"is_reserved":false,"is_disabled":false,"rental_uris":{"android":"levelo://app?vid=cf291d04-00ee-4dae-8c1c-e27eb3446a64","ios":"levelo://app?vid=cf291d04-00ee-4dae-8c1c-e27eb3446a64"},"vehicle_type_id":"4","last_reported":1769245930,"current_range_meters":8400,"station_id":"ce4bhnh2rcd13ifvqgtg","pricing_plan_id":"cebpf4jnsgd1na2vs0mg"},{"bike_id":"4e90e248-219d-49fb-a2e7-e6805342c8d3","system_id":"levelo_inurba_marseille","lat":43.24667,"lon":5.38162,"is_reserved":false,"is_disabled":false,"rental_uris":{"android":"levelo://app?vid=4e90e248-219d-49fb-a2e7-e6805342c8d3","ios":"levelo://app?vid=4e90e248-219d-49fb-a2e7-e6805342c8d3"},"vehicle_type_id":"4","last_reported":1769245930,"current_range_meters":8400,"station_id":"ce4bhih2rcd13ifvqfr0","pricing_plan_id":"cebpf4jnsgd1na2vs0mg"},{"bike_id":"8d270819-adc1-49e1-abc4-b636cf1a9812","system_id":"levelo_inurba_marseille","lat":43.30569,"lon":5.36709,"is_reserved":false,"is_disabled":false,"rental_uris":{"android":"levelo://app?vid=8d270819-adc1-49e1-abc4-b636cf1a9812","ios":"levelo://app?vid=8d270819-adc1-49e1-abc4-b636cf1a9812"},"vehicle_type_id":"4","last_reported":1769245930,"current_range_meters":8400,"station_id":"ce4bgrp2rcd13ifvqc9g","pricing_plan_id":"cebpf4jnsgd1na2vs0mg"},{"bike_id":"b09b1361-457f-41a9-8d0f-135e88227a1b","system_id":"levelo_inurba_marseille","lat":43.2733,"lon":5.39106,"is_reserved":false,"is_disabled":false,"rental_uris":{"android":"levelo://app?vid=b09b1361-457f-41a9-8d0f-135e88227a1b","ios":"levelo://app?vid=b09b1361-457f-41a9-8d0f-135e88227a1b"},"vehicle_type_id":"4","last_reported":1769245930,"current_range_meters":8400,"station_id":"ce4bhgp2rcd13ifvqfe0","pricing_plan_id":"cebpf4jnsgd1na2vs0mg"},{"bike_id":"b08baa6b-a421-49de-8df9-0eb9a93aaf86","system_id":"levelo_inurba_marseille","lat":43.31161,"lon":5.38719,"is_reserved":false,"is_disabled":false,"rental_uris":{"android":"levelo://app?vid=b08baa6b-a421-49de-8df9-0eb9a93aaf86","ios":"levelo://app?vid=b08baa6b-a421-49de-8df9-0eb9a93aaf86"},"vehicle_type_id":"4","last_reported":1769245930,"current_range_meters":8400,"station_id":"ce4bgv12rcd13ifvqcp0","pricing_plan_id":"cebpf4jnsgd1na2vs0mg"},{"bike_id":"ba883ae6-41d0-430b-b2c5-fa8f015c672b","system_id":"levelo_inurba_marseille","lat":43.30488,"lon":5.4106,"is_reserved":false,"is_disabled":false,"rental_uris":{"android":"levelo://app?vid=ba883ae6-41d0-430b-b2c5-fa8f015c672b","ios":"levelo://app?vid=ba883ae6-41d0-430b-b2c5-fa8f015c672b"},"vehicle_type_id":"4","last_reported":1769245930,"current_range_meters":8400,"station_id":"","pricing_plan_id":"cebpf4jnsgd1na2vs0mg"},{"bike_id":"42a9072c-20ae-4f3e-9a38-771201cc3731","system_id":"levelo_inurba_marseille","lat":43.26544,"lon":5.37284,"is_reserved":false,"is_disabled":false,"rental_uris":{"android":"levelo://app?vid=42a9072c-20ae-4f3e-9a38-771201cc3731","ios":"levelo://app?vid=42a9072c-20ae-4f3e-9a38-771201cc3731"},"vehicle_type_id":"4","last_reported":1769245930,"current_range_meters":8800,"station_id":"ce4bhg12rcd13ifvqf70","pricing_plan_id":"cebpf4jnsgd1na2vs0mg"},{"bike_id":"3f444b80-42a5-44cb-ab46-d7a22aca5751","system_id":"levelo_inurba_marseille","lat":43.26557,"lon":5.37287,"is_reserved":false,"is_disabled":false,"rental_uris":{"android":"levelo://app?vid=3f444b80-42a5-44cb-ab46-d7a22aca5751","ios":"levelo://app?vid=3f444b80-42a5-44cb-ab46-d7a22aca5751"},"vehicle_type_id":"4","last_reported":1769245930,"current_range_meters":8800,"station_id":"ce4bhg12rcd13ifvqf70","pricing_plan_id":"cebpf4jnsgd1na2vs0mg"},{"bike_id":"ad323744-06fd-45f0-8106-c7e6ac5566c6","system_id":"levelo_inurba_marseille","lat":43.29529,"lon":5.42285,"is_reserved":false,"is_disabled":false,"rental_uris":{"android":"levelo://app?vid=ad323744-06fd-45f0-8106-c7e6ac5566c6","ios":"levelo://app?vid=ad323744-06fd-45f0-8106-c7e6ac5566c6"},"vehicle_type_id":"4","last_reported":1769245930,"current_range_meters":8800,"station_id":"ce4bhph2rcd13ifvqhdg","pricing_plan_id":"cebpf4jnsgd1na2vs0mg"},{"bike_id":"49208718-4763-495e-944d-0d3acc9a003f","system_id":"levelo_inurba_marseille","lat":43.28863,"lon":5.42517,"is_reserved":false,"is_disabled":false,"rental_uris":{"android":"levelo://app?vid=49208718-4763-495e-944d-0d3acc9a003f","ios":"levelo://app?vid=49208718-4763-495e-944d-0d3acc9a003f"},"vehicle_type_id":"4","last_reported":1769245930,"current_range_meters":8800,"station_id":"st_d3b462108ojc7389ooeg","pricing_plan_id":"cebpf4jnsgd1na2vs0mg"},{"bike_id":"ee836985-9c91-4410-a89e-feab34f96b34","system_id":"levelo_inurba_marseille","lat":43.30192,"lon":5.36658,"is_reserved":false,"is_disabled":true,"rental_uris":{"android":"levelo://app?vid=ee836985-9c91-4410-a89e-feab34f96b34","ios":"levelo://app?vid=ee836985-9c91-4410-a89e-feab34f96b34"},"vehicle_type_id":"4","last_reported":1769245930,"current_range_meters":8800,"station_id":"ce4bgrh2rcd13ifvqc8g","pricing_plan_id":"cebpf4jnsgd1na2vs0mg"},{"bike_id":"c4b9fb50-c1c1-45e2-a420-d27b5fd55927","system_id":"levelo_inurba_marseille","lat":43.23194,"lon":5.39975,"is_reserved":false,"is_disabled":false,"rental_uris":{"android":"levelo://app?vid=c4b9fb50-c1c1-45e2-a420-d27b5fd55927","ios":"levelo://app?vid=c4b9fb50-c1c1-45e2-a420-d27b5fd55927"},"vehicle_type_id":"4","last_reported":1769245930,"current_range_meters":8800,"station_id":"ce4bhn12rcd13ifvqgqg","pricing_plan_id":"cebpf4jnsgd1na2vs0mg"},{"bike_id":"2762ef31-30af-4622-8a7b-f8bc59330d3d","system_id":"levelo_inurba_marseille","lat":43.30193,"lon":5.37478,"is_reserved":false,"is_disabled":false,"rental_uris":{"android":"levelo://app?vid=2762ef31-30af-4622-8a7b-f8bc59330d3d","ios":"levelo://app?vid=2762ef31-30af-4622-8a7b-f8bc59330d3d"},"vehicle_type_id":"4","last_reported":1769245930,"current_range_meters":8800,"station_id":"","pricing_plan_id":"cebpf4jnsgd1na2vs0mg"},{"bike_id":"c8f043c8-a1cd-4533-8ac5-09a3aac34519","system_id":"levelo_inurba_marseille","lat":43.26561,"lon":5.37279,"is_reserved":false,"is_disabled":false,"rental_uris":{"android":"levelo://app?vid=c8f043c8-a1cd-4533-8ac5-09a3aac34519","ios":"levelo://app?vid=c8f043c8-a1cd-4533-8ac5-09a3aac34519"},"vehicle_type_id":"4","last_reported":1769245930,"current_range_meters":8800,"station_id":"ce4bhg12rcd13ifvqf70","pricing_plan_id":"cebpf4jnsgd1na2vs0mg"},{"bike_id":"3018bd0f-1eb9-47af-8fda-422f2be35d9a","system_id":"levelo_inurba_marseille","lat":43.21176,"lon":5.351,"is_reserved":false,"is_disabled":false,"rental_uris":{"android":"levelo://app?vid=3018bd0f-1eb9-47af-8fda-422f2be35d9a","ios":"levelo://app?vid=3018bd0f-1eb9-47af-8fda-422f2be35d9a"},"vehicle_type_id":"4","last_reported":1769245930,"current_range_meters":8800,"station_id":"st_cvj6sg6p6f1abm77japg","pricing_plan_id":"cebpf4jnsgd1na2vs0mg"},{"bike_id":"21565e7c-0187-4a95-9988-6198b784b204","system_id":"levelo_inurba_marseille","lat":43.31102,"lon":5.37783,"is_reserved":false,"is_disabled":false,"rental_uris":{"android":"levelo://app?vid=21565e7c-0187-4a95-9988-6198b784b204","ios":"levelo://app?vid=21565e7c-0187-4a95-9988-6198b784b204"},"vehicle_type_id":"4","last_reported":1769245930,"current_range_meters":8800,"station_id":"ce4bgt92rcd13ifvqcg0","pricing_plan_id":"cebpf4jnsgd1na2vs0mg"},{"bike_id":"94cfdaf1-4d3a-477d-b13b-1ee3f2eea34a","system_id":"levelo_inurba_marseille","lat":43.24968,"lon":5.40496,"is_reserved":false,"is_disabled":false,"rental_uris":{"android":"levelo://app?vid=94cfdaf1-4d3a-477d-b13b-1ee3f2eea34a","ios":"levelo://app?vid=94cfdaf1-4d3a-477d-b13b-1ee3f2eea34a"},"vehicle_type_id":"4","last_reported":1769245930,"current_range_meters":8800,"station_id":"st_d2ngiaodas8pm72gd1h0","pricing_plan_id":"cebpf4jnsgd1na2vs0mg"},{"bike_id":"4327602b-692d-4825-a0ec-f44e8f870c7a","system_id":"levelo_inurba_marseille","lat":43.28616,"lon":5.35111,"is_reserved":false,"is_disabled":false,"rental_uris":{"android":"levelo://app?vid=4327602b-692d-4825-a0ec-f44e8f870c7a","ios":"levelo://app?vid=4327602b-692d-4825-a0ec-f44e8f870c7a"},"vehicle_type_id":"4","last_reported":1769245930,"current_range_meters":8800,"station_id":"ce4bhch2rcd13ifvqeug","pricing_plan_id":"cebpf4jnsgd1na2vs0mg"},{"bike_id":"f5ac4918-0ec2-4761-b7b6-0929b50d8bfd","system_id":"levelo_inurba_marseille","lat":43.28477,"lon":5.48392,"is_reserved":false,"is_disabled":false,"rental_uris":{"android":"levelo://app?vid=f5ac4918-0ec2-4761-b7b6-0929b50d8bfd","ios":"levelo://app?vid=f5ac4918-0ec2-4761-b7b6-0929b50d8bfd"},"vehicle_type_id":"4","last_reported":1769245930,"current_range_meters":8800,"station_id":"","pricing_plan_id":"cebpf4jnsgd1na2vs0mg"},{"bike_id":"0ca50414-b22f-4e75-aa54-cfd808d06083","system_id":"levelo_inurba_marseille","lat":43.33153,"lon":5.37685,"is_reserved":false,"is_disabled":false,"rental_uris":{"android":"levelo://app?vid=0ca50414-b22f-4e75-aa54-cfd808d06083","ios":"levelo://app?vid=0ca50414-b22f-4e75-aa54-cfd808d06083"},"vehicle_type_id":"4","last_reported":1769245930,"current_range_meters":8800,"station_id":"st_d46cu089ee8s73dldbu0","pricing_plan_id":"cebpf4jnsgd1na2vs0mg"},{"bike_id":"810615af-4dfc-4ff9-8fd7-15ca4401249a","system_id":"levelo_inurba_marseille","lat":43.241797,"lon":5.397329,"is_reserved":false,"is_disabled":false,"rental_uris":{"android":"levelo://app?vid=810615af-4dfc-4ff9-8fd7-15ca4401249a","ios":"levelo://app?vid=810615af-4dfc-4ff9-8fd7-15ca4401249a"},"vehicle_type_id":"4","last_reported":1769245930,"current_range_meters":8800,"station_id":"ce4bhn12rcd13ifvqgpg","pricing_plan_id":"cebpf4jnsgd1na2vs0mg"},{"bike_id":"4fdcdcbd-0ffb-4827-b33f-dde05c750210","system_id":"levelo_inurba_marseille","lat":43.281954,"lon":5.390617,"is_reserved":false,"is_disabled":false,"rental_uris":{"android":"levelo://app?vid=4fdcdcbd-0ffb-4827-b33f-dde05c750210","ios":"levelo://app?vid=4fdcdcbd-0ffb-4827-b33f-dde05c750210"},"vehicle_type_id":"4","last_reported":1769245930,"current_range_meters":9200,"station_id":"ce4bhn92rcd13ifvqgsg","pricing_plan_id":"cebpf4jnsgd1na2vs0mg"},{"bike_id":"b8d6001d-5efb-4200-8dd5-116f1ecfccb1","system_id":"levelo_inurba_marseille","lat":43.24062,"lon":5.37769,"is_reserved":false,"is_disabled":false,"rental_uris":{"android":"levelo://app?vid=b8d6001d-5efb-4200-8dd5-116f1ecfccb1","ios":"levelo://app?vid=b8d6001d-5efb-4200-8dd5-116f1ecfccb1"},"vehicle_type_id":"4","last_reported":1769245930,"current_range_meters":9200,"station_id":"ce4bhnp2rcd13ifvqgvg","pricing_plan_id":"cebpf4jnsgd1na2vs0mg"},{"bike_id":"f8d6a6e0-1d68-4650-a94d-f633bf8c4370","system_id":"levelo_inurba_marseille","lat":43.23789,"lon":5.36627,"is_reserved":false,"is_disabled":false,"rental_uris":{"android":"levelo://app?vid=f8d6a6e0-1d68-4650-a94d-f633bf8c4370","ios":"levelo://app?vid=f8d6a6e0-1d68-4650-a94d-f633bf8c4370"},"vehicle_type_id":"4","last_reported":1769245930,"current_range_meters":9200,"station_id":"st_d3nk18o9ro0c73en2l3g","pricing_plan_id":"cebpf4jnsgd1na2vs0mg"},{"bike_id":"0c1db0f6-04c1-4e73-b12d-3dd98c0a03f3","system_id":"levelo_inurba_marseille","lat":43.31042,"lon":5.37135,"is_reserved":false,"is_disabled":false,"rental_uris":{"android":"levelo://app?vid=0c1db0f6-04c1-4e73-b12d-3dd98c0a03f3","ios":"levelo://app?vid=0c1db0f6-04c1-4e73-b12d-3dd98c0a03f3"},"vehicle_type_id":"4","last_reported":1769245930,"current_range_meters":9200,"station_id":"st_d4kl2rp97mjs73e7tdfg","pricing_plan_id":"cebpf4jnsgd1na2vs0mg"},{"bike_id":"126cf0a7-4589-4b93-bb41-55dcf1b0bf93","system_id":"levelo_inurba_marseille","lat":43.26586,"lon":5.37295,"is_reserved":false,"is_disabled":false,"rental_uris":{"android":"levelo://app?vid=126cf0a7-4589-4b93-bb41-55dcf1b0bf93","ios":"levelo://app?vid=126cf0a7-4589-4b93-bb41-55dcf1b0bf93"},"vehicle_type_id":"4","last_reported":1769245930,"current_range_meters":9200,"station_id":"ce4bhg12rcd13ifvqf70","pricing_plan_id":"cebpf4jnsgd1na2vs0mg"},{"bike_id":"e46d8a17-af5a-42e0-b036-cb3c86080336","system_id":"levelo_inurba_marseille","lat":43.24467,"lon":5.425362,"is_reserved":false,"is_disabled":false,"rental_uris":{"android":"levelo://app?vid=e46d8a17-af5a-42e0-b036-cb3c86080336","ios":"levelo://app?vid=e46d8a17-af5a-42e0-b036-cb3c86080336"},"vehicle_type_id":"4","last_reported":1769245930,"current_range_meters":9200,"station_id":"st_d4a3vfp97mjs738cd8kg","pricing_plan_id":"cebpf4jnsgd1na2vs0mg"},{"bike_id":"e07e68dd-c898-432c-ba3f-2dae4d6b1eb0","system_id":"levelo_inurba_marseille","lat":43.26038,"lon":5.39404,"is_reserved":false,"is_disabled":false,"rental_uris":{"android":"levelo://app?vid=e07e68dd-c898-432c-ba3f-2dae4d6b1eb0","ios":"levelo://app?vid=e07e68dd-c898-432c-ba3f-2dae4d6b1eb0"},"vehicle_type_id":"4","last_reported":1769245930,"current_range_meters":9200,"station_id":"ce4bhh92rcd13ifvqfj0","pricing_plan_id":"cebpf4jnsgd1na2vs0mg"},{"bike_id":"531078e9-e6ae-426d-a507-48f287cdb17b","system_id":"levelo_inurba_marseille","lat":43.24679,"lon":5.3815,"is_reserved":false,"is_disabled":false,"rental_uris":{"android":"levelo://app?vid=531078e9-e6ae-426d-a507-48f287cdb17b","ios":"levelo://app?vid=531078e9-e6ae-426d-a507-48f287cdb17b"},"vehicle_type_id":"4","last_reported":1769245930,"current_range_meters":9200,"station_id":"ce4bhih2rcd13ifvqfr0","pricing_plan_id":"cebpf4jnsgd1na2vs0mg"},{"bike_id":"695ba03e-aa60-4a16-ad44-0d1b43b21bd5","system_id":"levelo_inurba_marseille","lat":43.22556,"lon":5.41651,"is_reserved":false,"is_disabled":false,"rental_uris":{"android":"levelo://app?vid=695ba03e-aa60-4a16-ad44-0d1b43b21bd5","ios":"levelo://app?vid=695ba03e-aa60-4a16-ad44-0d1b43b21bd5"},"vehicle_type_id":"4","last_reported":1769245930,"current_range_meters":9200,"station_id":"st_d2o4gvlbi1j2169b742g","pricing_plan_id":"cebpf4jnsgd1na2vs0mg"},{"bike_id":"fbb3e0e1-93ef-4ce4-871d-b7b38b04969f","system_id":"levelo_inurba_marseille","lat":43.21188,"lon":5.350792,"is_reserved":false,"is_disabled":false,"rental_uris":{"android":"levelo://app?vid=fbb3e0e1-93ef-4ce4-871d-b7b38b04969f","ios":"levelo://app?vid=fbb3e0e1-93ef-4ce4-871d-b7b38b04969f"},"vehicle_type_id":"4","last_reported":1769245930,"current_range_meters":9200,"station_id":"st_cvj6sg6p6f1abm77japg","pricing_plan_id":"cebpf4jnsgd1na2vs0mg"},{"bike_id":"53a59507-c154-4a40-9d9d-269841157214","system_id":"levelo_inurba_marseille","lat":43.24387,"lon":5.37055,"is_reserved":false,"is_disabled":false,"rental_uris":{"android":"levelo://app?vid=53a59507-c154-4a40-9d9d-269841157214","ios":"levelo://app?vid=53a59507-c154-4a40-9d9d-269841157214"},"vehicle_type_id":"4","last_reported":1769245930,"current_range_meters":9200,"station_id":"ce4bhhh2rcd13ifvqfk0","pricing_plan_id":"cebpf4jnsgd1na2vs0mg"},{"bike_id":"21f94f27-e956-4f77-9fb4-afec8d918cb9","system_id":"levelo_inurba_marseille","lat":43.26207,"lon":5.37932,"is_reserved":false,"is_disabled":false,"rental_uris":{"android":"levelo://app?vid=21f94f27-e956-4f77-9fb4-afec8d918cb9","ios":"levelo://app?vid=21f94f27-e956-4f77-9fb4-afec8d918cb9"},"vehicle_type_id":"4","last_reported":1769245930,"current_range_meters":9200,"station_id":"ce4bhjp2rcd13ifvqg90","pricing_plan_id":"cebpf4jnsgd1na2vs0mg"},{"bike_id":"3770c2e9-8904-416b-a171-2857d4f07466","system_id":"levelo_inurba_marseille","lat":43.24399,"lon":5.3708,"is_reserved":false,"is_disabled":false,"rental_uris":{"android":"levelo://app?vid=3770c2e9-8904-416b-a171-2857d4f07466","ios":"levelo://app?vid=3770c2e9-8904-416b-a171-2857d4f07466"},"vehicle_type_id":"4","last_reported":1769245930,"current_range_meters":9200,"station_id":"ce4bhhh2rcd13ifvqfk0","pricing_plan_id":"cebpf4jnsgd1na2vs0mg"},{"bike_id":"655bd777-1439-41cf-b1e8-61377b5a3625","system_id":"levelo_inurba_marseille","lat":43.29645,"lon":5.37553,"is_reserved":false,"is_disabled":false,"rental_uris":{"android":"levelo://app?vid=655bd777-1439-41cf-b1e8-61377b5a3625","ios":"levelo://app?vid=655bd777-1439-41cf-b1e8-61377b5a3625"},"vehicle_type_id":"4","last_reported":1769245930,"current_range_meters":9200,"station_id":"","pricing_plan_id":"cebpf4jnsgd1na2vs0mg"},{"bike_id":"71da8860-67fd-467d-ab47-bcfee6c132db","system_id":"levelo_inurba_marseille","lat":43.27331,"lon":5.36241,"is_reserved":false,"is_disabled":false,"rental_uris":{"android":"levelo://app?vid=71da8860-67fd-467d-ab47-bcfee6c132db","ios":"levelo://app?vid=71da8860-67fd-467d-ab47-bcfee6c132db"},"vehicle_type_id":"4","last_reported":1769245930,"current_range_meters":9200,"station_id":"ce4bhbh2rcd13ifvqeo0","pricing_plan_id":"cebpf4jnsgd1na2vs0mg"},{"bike_id":"43ace758-19e2-45f5-81d3-4d0e67cb2c4e","system_id":"levelo_inurba_marseille","lat":43.23784,"lon":5.36623,"is_reserved":false,"is_disabled":false,"rental_uris":{"android":"levelo://app?vid=43ace758-19e2-45f5-81d3-4d0e67cb2c4e","ios":"levelo://app?vid=43ace758-19e2-45f5-81d3-4d0e67cb2c4e"},"vehicle_type_id":"4","last_reported":1769245930,"current_range_meters":9200,"station_id":"st_d3nk18o9ro0c73en2l3g","pricing_plan_id":"cebpf4jnsgd1na2vs0mg"},{"bike_id":"19c8abb5-25aa-48c9-930f-c466f9945354","system_id":"levelo_inurba_marseille","lat":43.32461,"lon":5.36555,"is_reserved":false,"is_disabled":false,"rental_uris":{"android":"levelo://app?vid=19c8abb5-25aa-48c9-930f-c466f9945354","ios":"levelo://app?vid=19c8abb5-25aa-48c9-930f-c466f9945354"},"vehicle_type_id":"4","last_reported":1769245930,"current_range_meters":9600,"station_id":"ce4bhs12rcd13ifvqhvg","pricing_plan_id":"cebpf4jnsgd1na2vs0mg"},{"bike_id":"8d5ed014-e7fa-4984-8196-4fc3cd1a56b5","system_id":"levelo_inurba_marseille","lat":43.26951,"lon":5.38626,"is_reserved":false,"is_disabled":false,"rental_uris":{"android":"levelo://app?vid=8d5ed014-e7fa-4984-8196-4fc3cd1a56b5","ios":"levelo://app?vid=8d5ed014-e7fa-4984-8196-4fc3cd1a56b5"},"vehicle_type_id":"4","last_reported":1769245930,"current_range_meters":9600,"station_id":"ce4bhh92rcd13ifvqfh0","pricing_plan_id":"cebpf4jnsgd1na2vs0mg"},{"bike_id":"7c1e2111-63c2-4e90-b360-b8082e56570c","system_id":"levelo_inurba_marseille","lat":43.28751,"lon":5.36071,"is_reserved":false,"is_disabled":true,"rental_uris":{"android":"levelo://app?vid=7c1e2111-63c2-4e90-b360-b8082e56570c","ios":"levelo://app?vid=7c1e2111-63c2-4e90-b360-b8082e56570c"},"vehicle_type_id":"4","last_reported":1769245930,"current_range_meters":9600,"station_id":"cki0cbj6b192h4jlfktg","pricing_plan_id":"cebpf4jnsgd1na2vs0mg"},{"bike_id":"f25efc39-fce0-447d-90cb-d44925c70a67","system_id":"levelo_inurba_marseille","lat":43.30448,"lon":5.37928,"is_reserved":false,"is_disabled":false,"rental_uris":{"android":"levelo://app?vid=f25efc39-fce0-447d-90cb-d44925c70a67","ios":"levelo://app?vid=f25efc39-fce0-447d-90cb-d44925c70a67"},"vehicle_type_id":"4","last_reported":1769245930,"current_range_meters":9600,"station_id":"ce4bgup2rcd13ifvqcn0","pricing_plan_id":"cebpf4jnsgd1na2vs0mg"},{"bike_id":"090d68fd-b8f6-42aa-a688-f39ed4d39c2d","system_id":"levelo_inurba_marseille","lat":43.2256,"lon":5.41641,"is_reserved":false,"is_disabled":false,"rental_uris":{"android":"levelo://app?vid=090d68fd-b8f6-42aa-a688-f39ed4d39c2d","ios":"levelo://app?vid=090d68fd-b8f6-42aa-a688-f39ed4d39c2d"},"vehicle_type_id":"4","last_reported":1769245930,"current_range_meters":9600,"station_id":"st_d2o4gvlbi1j2169b742g","pricing_plan_id":"cebpf4jnsgd1na2vs0mg"},{"bike_id":"cd60316d-bd8c-4b06-99e5-f8333d66f817","system_id":"levelo_inurba_marseille","lat":43.28269,"lon":5.3508,"is_reserved":false,"is_disabled":false,"rental_uris":{"android":"levelo://app?vid=cd60316d-bd8c-4b06-99e5-f8333d66f817","ios":"levelo://app?vid=cd60316d-bd8c-4b06-99e5-f8333d66f817"},"vehicle_type_id":"4","last_reported":1769245930,"current_range_meters":9600,"station_id":"ce4bhbp2rcd13ifvqerg","pricing_plan_id":"cebpf4jnsgd1na2vs0mg"},{"bike_id":"d23e957b-30e5-4310-998d-191d81d5f962","system_id":"levelo_inurba_marseille","lat":43.284506,"lon":5.387968,"is_reserved":false,"is_disabled":false,"rental_uris":{"android":"levelo://app?vid=d23e957b-30e5-4310-998d-191d81d5f962","ios":"levelo://app?vid=d23e957b-30e5-4310-998d-191d81d5f962"},"vehicle_type_id":"4","last_reported":1769245930,"current_range_meters":9600,"station_id":"","pricing_plan_id":"cebpf4jnsgd1na2vs0mg"},{"bike_id":"d6ac2728-169d-4b29-9c33-f22ccca7268c","system_id":"levelo_inurba_marseille","lat":43.300972,"lon":5.39076,"is_reserved":false,"is_disabled":false,"rental_uris":{"android":"levelo://app?vid=d6ac2728-169d-4b29-9c33-f22ccca7268c","ios":"levelo://app?vid=d6ac2728-169d-4b29-9c33-f22ccca7268c"},"vehicle_type_id":"4","last_reported":1769245930,"current_range_meters":10000,"station_id":"ce4bh192rcd13ifvqdb0","pricing_plan_id":"cebpf4jnsgd1na2vs0mg"},{"bike_id":"4e8ceb26-dcda-41c9-b988-c7429cb4d9cf","system_id":"levelo_inurba_marseille","lat":43.28465,"lon":5.3848,"is_reserved":false,"is_disabled":false,"rental_uris":{"android":"levelo://app?vid=4e8ceb26-dcda-41c9-b988-c7429cb4d9cf","ios":"levelo://app?vid=4e8ceb26-dcda-41c9-b988-c7429cb4d9cf"},"vehicle_type_id":"4","last_reported":1769245930,"current_range_meters":10000,"station_id":"","pricing_plan_id":"cebpf4jnsgd1na2vs0mg"},{"bike_id":"c95e6f4f-dea5-4c8f-900f-ccf591c989cb","system_id":"levelo_inurba_marseille","lat":43.25816,"lon":5.39459,"is_reserved":false,"is_disabled":false,"rental_uris":{"android":"levelo://app?vid=c95e6f4f-dea5-4c8f-900f-ccf591c989cb","ios":"levelo://app?vid=c95e6f4f-dea5-4c8f-900f-ccf591c989cb"},"vehicle_type_id":"4","last_reported":1769245930,"current_range_meters":10000,"station_id":"ce4bhip2rcd13ifvqft0","pricing_plan_id":"cebpf4jnsgd1na2vs0mg"},{"bike_id":"7a4e3005-837e-4425-a268-ddb5f45bb9f3","system_id":"levelo_inurba_marseille","lat":43.24626,"lon":5.43157,"is_reserved":false,"is_disabled":false,"rental_uris":{"android":"levelo://app?vid=7a4e3005-837e-4425-a268-ddb5f45bb9f3","ios":"levelo://app?vid=7a4e3005-837e-4425-a268-ddb5f45bb9f3"},"vehicle_type_id":"4","last_reported":1769245930,"current_range_meters":10000,"station_id":"st_d2m6c4gdas8pm72e190g","pricing_plan_id":"cebpf4jnsgd1na2vs0mg"},{"bike_id":"f82d1a53-62c8-4ad5-9254-bbebe70e3fde","system_id":"levelo_inurba_marseille","lat":43.303253,"lon":5.36853,"is_reserved":false,"is_disabled":false,"rental_uris":{"android":"levelo://app?vid=f82d1a53-62c8-4ad5-9254-bbebe70e3fde","ios":"levelo://app?vid=f82d1a53-62c8-4ad5-9254-bbebe70e3fde"},"vehicle_type_id":"4","last_reported":1769245930,"current_range_meters":10000,"station_id":"","pricing_plan_id":"cebpf4jnsgd1na2vs0mg"},{"bike_id":"ae71a52e-3d46-4289-a470-4e64eab9ff51","system_id":"levelo_inurba_marseille","lat":43.28534,"lon":5.44104,"is_reserved":false,"is_disabled":false,"rental_uris":{"android":"levelo://app?vid=ae71a52e-3d46-4289-a470-4e64eab9ff51","ios":"levelo://app?vid=ae71a52e-3d46-4289-a470-4e64eab9ff51"},"vehicle_type_id":"4","last_reported":1769245930,"current_range_meters":10000,"station_id":"st_d3j3df2ikq2c7380ej80","pricing_plan_id":"cebpf4jnsgd1na2vs0mg"},{"bike_id":"6a58f50b-8101-40cc-9df5-4a5145e9dd52","system_id":"levelo_inurba_marseille","lat":43.29737,"lon":5.37688,"is_reserved":false,"is_disabled":false,"rental_uris":{"android":"levelo://app?vid=6a58f50b-8101-40cc-9df5-4a5145e9dd52","ios":"levelo://app?vid=6a58f50b-8101-40cc-9df5-4a5145e9dd52"},"vehicle_type_id":"4","last_reported":1769245930,"current_range_meters":10000,"station_id":"ce4bgkh2rcd13ifvqbl0","pricing_plan_id":"cebpf4jnsgd1na2vs0mg"},{"bike_id":"989595b1-ce7f-4351-bcfe-516505fd7625","system_id":"levelo_inurba_marseille","lat":43.3014,"lon":5.43124,"is_reserved":false,"is_disabled":false,"rental_uris":{"android":"levelo://app?vid=989595b1-ce7f-4351-bcfe-516505fd7625","ios":"levelo://app?vid=989595b1-ce7f-4351-bcfe-516505fd7625"},"vehicle_type_id":"4","last_reported":1769245930,"current_range_meters":10000,"station_id":"st_d3js3co5814s73ftftug","pricing_plan_id":"cebpf4jnsgd1na2vs0mg"},{"bike_id":"7d0461be-78f7-48f2-819c-69235bf9b7f1","system_id":"levelo_inurba_marseille","lat":43.29139,"lon":5.40798,"is_reserved":false,"is_disabled":false,"rental_uris":{"android":"levelo://app?vid=7d0461be-78f7-48f2-819c-69235bf9b7f1","ios":"levelo://app?vid=7d0461be-78f7-48f2-819c-69235bf9b7f1"},"vehicle_type_id":"4","last_reported":1769245930,"current_range_meters":10000,"station_id":"","pricing_plan_id":"cebpf4jnsgd1na2vs0mg"},{"bike_id":"280937a4-ef67-45c8-afb6-b2814cad7258","system_id":"levelo_inurba_marseille","lat":43.297048,"lon":5.366266,"is_reserved":false,"is_disabled":false,"rental_uris":{"android":"levelo://app?vid=280937a4-ef67-45c8-afb6-b2814cad7258","ios":"levelo://app?vid=280937a4-ef67-45c8-afb6-b2814cad7258"},"vehicle_type_id":"4","last_reported":1769245930,"current_range_meters":10000,"station_id":"ce4bgn12rcd13ifvqbt0","pricing_plan_id":"cebpf4jnsgd1na2vs0mg"},{"bike_id":"943d758d-a5d9-442d-9ffc-241d0b55ecb3","system_id":"levelo_inurba_marseille","lat":43.30726,"lon":5.42452,"is_reserved":false,"is_disabled":false,"rental_uris":{"android":"levelo://app?vid=943d758d-a5d9-442d-9ffc-241d0b55ecb3","ios":"levelo://app?vid=943d758d-a5d9-442d-9ffc-241d0b55ecb3"},"vehicle_type_id":"4","last_reported":1769245930,"current_range_meters":10000,"station_id":"st_cvj6ca6bvosntc0bfgr0","pricing_plan_id":"cebpf4jnsgd1na2vs0mg"},{"bike_id":"a0465d4f-9ced-4178-ad4c-29e5c29e87ff","system_id":"levelo_inurba_marseille","lat":43.28473,"lon":5.484,"is_reserved":false,"is_disabled":false,"rental_uris":{"android":"levelo://app?vid=a0465d4f-9ced-4178-ad4c-29e5c29e87ff","ios":"levelo://app?vid=a0465d4f-9ced-4178-ad4c-29e5c29e87ff"},"vehicle_type_id":"4","last_reported":1769245930,"current_range_meters":10000,"station_id":"","pricing_plan_id":"cebpf4jnsgd1na2vs0mg"},{"bike_id":"9f3c3c2b-e4a8-4bfd-9222-bbcb11a650e6","system_id":"levelo_inurba_marseille","lat":43.305497,"lon":5.36545,"is_reserved":false,"is_disabled":false,"rental_uris":{"android":"levelo://app?vid=9f3c3c2b-e4a8-4bfd-9222-bbcb11a650e6","ios":"levelo://app?vid=9f3c3c2b-e4a8-4bfd-9222-bbcb11a650e6"},"vehicle_type_id":"4","last_reported":1769245930,"current_range_meters":10000,"station_id":"ce4bgs12rcd13ifvqcag","pricing_plan_id":"cebpf4jnsgd1na2vs0mg"},{"bike_id":"3b781fc0-785a-46db-80a2-c41d552c10df","system_id":"levelo_inurba_marseille","lat":43.23783,"lon":5.36634,"is_reserved":false,"is_disabled":false,"rental_uris":{"android":"levelo://app?vid=3b781fc0-785a-46db-80a2-c41d552c10df","ios":"levelo://app?vid=3b781fc0-785a-46db-80a2-c41d552c10df"},"vehicle_type_id":"4","last_reported":1769245930,"current_range_meters":10000,"station_id":"st_d3nk18o9ro0c73en2l3g","pricing_plan_id":"cebpf4jnsgd1na2vs0mg"},{"bike_id":"fe5d83d6-9898-42c5-8cb8-7a1e2cfda92b","system_id":"levelo_inurba_marseille","lat":43.2781,"lon":5.40738,"is_reserved":false,"is_disabled":false,"rental_uris":{"android":"levelo://app?vid=fe5d83d6-9898-42c5-8cb8-7a1e2cfda92b","ios":"levelo://app?vid=fe5d83d6-9898-42c5-8cb8-7a1e2cfda92b"},"vehicle_type_id":"4","last_reported":1769245930,"current_range_meters":10000,"station_id":"ce4bhnh2rcd13ifvqgtg","pricing_plan_id":"cebpf4jnsgd1na2vs0mg"},{"bike_id":"b0003cf7-17fe-4ea9-8972-37ab4183e0df","system_id":"levelo_inurba_marseille","lat":43.27578,"lon":5.38382,"is_reserved":false,"is_disabled":false,"rental_uris":{"android":"levelo://app?vid=b0003cf7-17fe-4ea9-8972-37ab4183e0df","ios":"levelo://app?vid=b0003cf7-17fe-4ea9-8972-37ab4183e0df"},"vehicle_type_id":"4","last_reported":1769245930,"current_range_meters":10000,"station_id":"ce4bhh92rcd13ifvqfi0","pricing_plan_id":"cebpf4jnsgd1na2vs0mg"},{"bike_id":"de5dd849-e4b4-4886-8230-06f684e730a5","system_id":"levelo_inurba_marseille","lat":43.24175,"lon":5.39728,"is_reserved":false,"is_disabled":false,"rental_uris":{"android":"levelo://app?vid=de5dd849-e4b4-4886-8230-06f684e730a5","ios":"levelo://app?vid=de5dd849-e4b4-4886-8230-06f684e730a5"},"vehicle_type_id":"4","last_reported":1769245930,"current_range_meters":10000,"station_id":"ce4bhn12rcd13ifvqgpg","pricing_plan_id":"cebpf4jnsgd1na2vs0mg"},{"bike_id":"0554af7b-4d97-4b09-bc8a-ccbbde3b5abf","system_id":"levelo_inurba_marseille","lat":43.24062,"lon":5.37741,"is_reserved":false,"is_disabled":false,"rental_uris":{"android":"levelo://app?vid=0554af7b-4d97-4b09-bc8a-ccbbde3b5abf","ios":"levelo://app?vid=0554af7b-4d97-4b09-bc8a-ccbbde3b5abf"},"vehicle_type_id":"4","last_reported":1769245930,"current_range_meters":10000,"station_id":"ce4bhnp2rcd13ifvqgvg","pricing_plan_id":"cebpf4jnsgd1na2vs0mg"},{"bike_id":"911f0371-0df0-45e8-a323-aedfe8ac7407","system_id":"levelo_inurba_marseille","lat":43.33162,"lon":5.37706,"is_reserved":false,"is_disabled":false,"rental_uris":{"android":"levelo://app?vid=911f0371-0df0-45e8-a323-aedfe8ac7407","ios":"levelo://app?vid=911f0371-0df0-45e8-a323-aedfe8ac7407"},"vehicle_type_id":"4","last_reported":1769245930,"current_range_meters":10000,"station_id":"st_d46cu089ee8s73dldbu0","pricing_plan_id":"cebpf4jnsgd1na2vs0mg"},{"bike_id":"3c6c5d68-9c6d-4d30-9baf-2b230d90efe8","system_id":"levelo_inurba_marseille","lat":43.30144,"lon":5.38088,"is_reserved":false,"is_disabled":false,"rental_uris":{"android":"levelo://app?vid=3c6c5d68-9c6d-4d30-9baf-2b230d90efe8","ios":"levelo://app?vid=3c6c5d68-9c6d-4d30-9baf-2b230d90efe8"},"vehicle_type_id":"4","last_reported":1769245930,"current_range_meters":10000,"station_id":"","pricing_plan_id":"cebpf4jnsgd1na2vs0mg"},{"bike_id":"ed71c47e-02fc-4788-a4eb-7f8ea7ac094a","system_id":"levelo_inurba_marseille","lat":43.29222,"lon":5.3609,"is_reserved":false,"is_disabled":false,"rental_uris":{"android":"levelo://app?vid=ed71c47e-02fc-4788-a4eb-7f8ea7ac094a","ios":"levelo://app?vid=ed71c47e-02fc-4788-a4eb-7f8ea7ac094a"},"vehicle_type_id":"4","last_reported":1769245930,"current_range_meters":10000,"station_id":"ce4bhbh2rcd13ifvqeqg","pricing_plan_id":"cebpf4jnsgd1na2vs0mg"},{"bike_id":"dd369fb3-6a29-4c8b-9c32-c4dbeada70f4","system_id":"levelo_inurba_marseille","lat":43.2255,"lon":5.41648,"is_reserved":false,"is_disabled":false,"rental_uris":{"android":"levelo://app?vid=dd369fb3-6a29-4c8b-9c32-c4dbeada70f4","ios":"levelo://app?vid=dd369fb3-6a29-4c8b-9c32-c4dbeada70f4"},"vehicle_type_id":"4","last_reported":1769245930,"current_range_meters":10000,"station_id":"st_d2o4gvlbi1j2169b742g","pricing_plan_id":"cebpf4jnsgd1na2vs0mg"},{"bike_id":"b9917ecd-02a8-40e9-a0d0-4758759eb040","system_id":"levelo_inurba_marseille","lat":43.24553,"lon":5.37344,"is_reserved":false,"is_disabled":false,"rental_uris":{"android":"levelo://app?vid=b9917ecd-02a8-40e9-a0d0-4758759eb040","ios":"levelo://app?vid=b9917ecd-02a8-40e9-a0d0-4758759eb040"},"vehicle_type_id":"4","last_reported":1769245930,"current_range_meters":10000,"station_id":"","pricing_plan_id":"cebpf4jnsgd1na2vs0mg"},{"bike_id":"d0af4d20-3c48-4668-9aff-200f42b9cf6d","system_id":"levelo_inurba_marseille","lat":43.28977,"lon":5.37289,"is_reserved":false,"is_disabled":false,"rental_uris":{"android":"levelo://app?vid=d0af4d20-3c48-4668-9aff-200f42b9cf6d","ios":"levelo://app?vid=d0af4d20-3c48-4668-9aff-200f42b9cf6d"},"vehicle_type_id":"4","last_reported":1769245930,"current_range_meters":10800,"station_id":"","pricing_plan_id":"cebpf4jnsgd1na2vs0mg"},{"bike_id":"f5530bb3-b704-4528-af66-64f63f23b3e9","system_id":"levelo_inurba_marseille","lat":43.26509,"lon":5.39537,"is_reserved":false,"is_disabled":false,"rental_uris":{"android":"levelo://app?vid=f5530bb3-b704-4528-af66-64f63f23b3e9","ios":"levelo://app?vid=f5530bb3-b704-4528-af66-64f63f23b3e9"},"vehicle_type_id":"4","last_reported":1769245930,"current_range_meters":10800,"station_id":"ce4bhi12rcd13ifvqfq0","pricing_plan_id":"cebpf4jnsgd1na2vs0mg"},{"bike_id":"5d5ffbbb-74c0-43cf-b09c-4df4c0347781","system_id":"levelo_inurba_marseille","lat":43.26202,"lon":5.37926,"is_reserved":false,"is_disabled":false,"rental_uris":{"android":"levelo://app?vid=5d5ffbbb-74c0-43cf-b09c-4df4c0347781","ios":"levelo://app?vid=5d5ffbbb-74c0-43cf-b09c-4df4c0347781"},"vehicle_type_id":"4","last_reported":1769245930,"current_range_meters":10800,"station_id":"ce4bhjp2rcd13ifvqg90","pricing_plan_id":"cebpf4jnsgd1na2vs0mg"},{"bike_id":"b413f672-6f60-41b8-8f68-1814f77da456","system_id":"levelo_inurba_marseille","lat":43.241597,"lon":5.36393,"is_reserved":false,"is_disabled":false,"rental_uris":{"android":"levelo://app?vid=b413f672-6f60-41b8-8f68-1814f77da456","ios":"levelo://app?vid=b413f672-6f60-41b8-8f68-1814f77da456"},"vehicle_type_id":"4","last_reported":1769245930,"current_range_meters":10800,"station_id":"cpo36qri1sfpv3e86is0","pricing_plan_id":"cebpf4jnsgd1na2vs0mg"},{"bike_id":"b872bfac-1430-4838-bc2f-087d006514e2","system_id":"levelo_inurba_marseille","lat":43.304665,"lon":5.379144,"is_reserved":false,"is_disabled":false,"rental_uris":{"android":"levelo://app?vid=b872bfac-1430-4838-bc2f-087d006514e2","ios":"levelo://app?vid=b872bfac-1430-4838-bc2f-087d006514e2"},"vehicle_type_id":"4","last_reported":1769245930,"current_range_meters":10800,"station_id":"ce4bgup2rcd13ifvqcn0","pricing_plan_id":"cebpf4jnsgd1na2vs0mg"},{"bike_id":"ce975244-6078-4a1e-a697-1b45dc08a538","system_id":"levelo_inurba_marseille","lat":43.25573,"lon":5.3825,"is_reserved":false,"is_disabled":false,"rental_uris":{"android":"levelo://app?vid=ce975244-6078-4a1e-a697-1b45dc08a538","ios":"levelo://app?vid=ce975244-6078-4a1e-a697-1b45dc08a538"},"vehicle_type_id":"4","last_reported":1769245930,"current_range_meters":10800,"station_id":"ce4bhih2rcd13ifvqfs0","pricing_plan_id":"cebpf4jnsgd1na2vs0mg"},{"bike_id":"48f40c82-bbad-4ae0-9613-f836906f3c71","system_id":"levelo_inurba_marseille","lat":43.28104,"lon":5.43185,"is_reserved":false,"is_disabled":false,"rental_uris":{"android":"levelo://app?vid=48f40c82-bbad-4ae0-9613-f836906f3c71","ios":"levelo://app?vid=48f40c82-bbad-4ae0-9613-f836906f3c71"},"vehicle_type_id":"4","last_reported":1769245930,"current_range_meters":10800,"station_id":"","pricing_plan_id":"cebpf4jnsgd1na2vs0mg"},{"bike_id":"57b208e5-6bcb-4126-9bc9-70f0e7648f22","system_id":"levelo_inurba_marseille","lat":43.2885,"lon":5.35826,"is_reserved":false,"is_disabled":true,"rental_uris":{"android":"levelo://app?vid=57b208e5-6bcb-4126-9bc9-70f0e7648f22","ios":"levelo://app?vid=57b208e5-6bcb-4126-9bc9-70f0e7648f22"},"vehicle_type_id":"4","last_reported":1769245930,"current_range_meters":10800,"station_id":"ce4bhb12rcd13ifvqem0","pricing_plan_id":"cebpf4jnsgd1na2vs0mg"},{"bike_id":"9313abb2-b4dd-4478-8ad1-082ec047c3ed","system_id":"levelo_inurba_marseille","lat":43.26564,"lon":5.3729,"is_reserved":false,"is_disabled":false,"rental_uris":{"android":"levelo://app?vid=9313abb2-b4dd-4478-8ad1-082ec047c3ed","ios":"levelo://app?vid=9313abb2-b4dd-4478-8ad1-082ec047c3ed"},"vehicle_type_id":"4","last_reported":1769245930,"current_range_meters":10800,"station_id":"ce4bhg12rcd13ifvqf70","pricing_plan_id":"cebpf4jnsgd1na2vs0mg"},{"bike_id":"9536a92a-01ab-4017-8488-26a8fa6880af","system_id":"levelo_inurba_marseille","lat":43.25929,"lon":5.40914,"is_reserved":false,"is_disabled":false,"rental_uris":{"android":"levelo://app?vid=9536a92a-01ab-4017-8488-26a8fa6880af","ios":"levelo://app?vid=9536a92a-01ab-4017-8488-26a8fa6880af"},"vehicle_type_id":"4","last_reported":1769245930,"current_range_meters":10800,"station_id":"ce4bhm92rcd13ifvqglg","pricing_plan_id":"cebpf4jnsgd1na2vs0mg"},{"bike_id":"abc3a781-f3d6-481a-9f61-a5b4b605dfec","system_id":"levelo_inurba_marseille","lat":43.323513,"lon":5.367444,"is_reserved":false,"is_disabled":false,"rental_uris":{"android":"levelo://app?vid=abc3a781-f3d6-481a-9f61-a5b4b605dfec","ios":"levelo://app?vid=abc3a781-f3d6-481a-9f61-a5b4b605dfec"},"vehicle_type_id":"4","last_reported":1769245930,"current_range_meters":10800,"station_id":"ce4bhsh2rcd13ifvqi2g","pricing_plan_id":"cebpf4jnsgd1na2vs0mg"},{"bike_id":"34d4fa31-5460-4a46-bbae-89933410da3f","system_id":"levelo_inurba_marseille","lat":43.29295,"lon":5.37176,"is_reserved":false,"is_disabled":false,"rental_uris":{"android":"levelo://app?vid=34d4fa31-5460-4a46-bbae-89933410da3f","ios":"levelo://app?vid=34d4fa31-5460-4a46-bbae-89933410da3f"},"vehicle_type_id":"4","last_reported":1769245930,"current_range_meters":10800,"station_id":"ce4bgh92rcd13ifvqb40","pricing_plan_id":"cebpf4jnsgd1na2vs0mg"},{"bike_id":"1aa02d11-a59e-4a16-ab1c-f73f76b1c817","system_id":"levelo_inurba_marseille","lat":43.28,"lon":5.416678,"is_reserved":false,"is_disabled":false,"rental_uris":{"android":"levelo://app?vid=1aa02d11-a59e-4a16-ab1c-f73f76b1c817","ios":"levelo://app?vid=1aa02d11-a59e-4a16-ab1c-f73f76b1c817"},"vehicle_type_id":"4","last_reported":1769245930,"current_range_meters":10800,"station_id":"ce4bho12rcd13ifvqh1g","pricing_plan_id":"cebpf4jnsgd1na2vs0mg"},{"bike_id":"6aff442f-90a5-4152-9871-4c3315ced752","system_id":"levelo_inurba_marseille","lat":43.22919,"lon":5.35418,"is_reserved":false,"is_disabled":false,"rental_uris":{"android":"levelo://app?vid=6aff442f-90a5-4152-9871-4c3315ced752","ios":"levelo://app?vid=6aff442f-90a5-4152-9871-4c3315ced752"},"vehicle_type_id":"4","last_reported":1769245930,"current_range_meters":10800,"station_id":"cpo3532slgdg3j2ikp40","pricing_plan_id":"cebpf4jnsgd1na2vs0mg"},