{"last_updated":1742393386,"ttl":60,"version":"2.2","data":{"bikes":[{"bike_id":"f5c97f8a-2624-4b99-bdf9-59f10ff7cfce","system_id":"levelo_inurba_marseille","lat":43.27629,"lon":5.36088,"is_reserved":false,"is_disabled":false,"rental_uris":{"android":"levelo://app?vid=f5c97f8a-2624-4b99-bdf9-59f10ff7cfce","ios":"levelo://app?vid=f5c97f8a-2624-4b99-bdf9-59f10ff7cfce"},"vehicle_type_id":"4","last_reported":1742393386,"current_range_meters":2800,"station_id":"ce4bgj92rcd13ifvqbe0","pricing_plan_id":"cebpf4jnsgd1na2vs0mg"},{"bike_id":"44f1d460-8018-426c-955a-6260a8a143be","system_id":"levelo_inurba_marseille","lat":43.30937,"lon":5.40139,"is_reserved":false,"is_disabled":false,"rental_uris":{"android":"levelo://app?vid=44f1d460-8018-426c-955a-6260a8a143be","ios":"levelo://app?vid=44f1d460-8018-426c-955a-6260a8a143be"},"vehicle_type_id":"4","last_reported":1742393386,"current_range_meters":2800,"station_id":"ce4bgvp2rcd13ifvqct0","pricing_plan_id":"cebpf4jnsgd1na2vs0mg"},{"bike_id":"4982dbd6-8a58-4105-9362-f10ba6177b20","system_id":"levelo_inurba_marseille","lat":43.30137,"lon":5.3879,"is_reserved":false,"is_disabled":false,"rental_uris":{"android":"levelo://app?vid=4982dbd6-8a58-4105-9362-f10ba6177b20","ios":"levelo://app?vid=4982dbd6-8a58-4105-9362-f10ba6177b20"},"vehicle_type_id":"4","last_reported":1742393386,"current_range_meters":2800,"station_id":"ce4bghh2rcd13ifvqb60","pricing_plan_id":"cebpf4jnsgd1na2vs0mg"},{"bike_id":"28ed21fd-a4a7-413c-bdeb-c6afdc23e9f8","system_id":"levelo_inurba_marseille","lat":43.27912,"lon":5.39585,"is_reserved":false,"is_disabled":false,"rental_uris":{"android":"levelo://app?vid=28ed21fd-a4a7-413c-bdeb-c6afdc23e9f8","ios":"levelo://app?vid=28ed21fd-a4a7-413c-bdeb-c6afdc23e9f8"},"vehicle_type_id":"4","last_reported":1742393386,"current_range_meters":3200,"station_id":"ce4bhf92rcd13ifvqf40","pricing_plan_id":"cebpf4jnsgd1na2vs0mg"},{"bike_id":"bec640a5-0dfe-4ad3-a946-5b6c3a645de4","system_id":"levelo_inurba_marseille","lat":43.28435,"lon":5.392,"is_reserved":false,"is_disabled":false,"rental_uris":{"android":"levelo://app?vid=bec640a5-0dfe-4ad3-a946-5b6c3a645de4","ios":"levelo://app?vid=bec640a5-0dfe-4ad3-a946-5b6c3a645de4"},"vehicle_type_id":"4","last_reported":1742393386,"current_range_meters":3200,"station_id":"ce4bhoh2rcd13ifvqh5g","pricing_plan_id":"cebpf4jnsgd1na2vs0mg"},{"bike_id":"e236cfa4-9806-42f8-959f-1b78069237f1","system_id":"levelo_inurba_marseille","lat":43.28003,"lon":5.40002,"is_reserved":false,"is_disabled":false,"rental_uris":{"android":"levelo://app?vid=e236cfa4-9806-42f8-959f-1b78069237f1","ios":"levelo://app?vid=e236cfa4-9806-42f8-959f-1b78069237f1"},"vehicle_type_id":"4","last_reported":1742393386,"current_range_meters":3200,"station_id":"ce4bho92rcd13ifvqh4g","pricing_plan_id":"cebpf4jnsgd1na2vs0mg"},{"bike_id":"6368f354-6da7-4884-a394-062f1a963ed6","system_id":"levelo_inurba_marseille","lat":43.29289,"lon":5.42811,"is_reserved":false,"is_disabled":false,"rental_uris":{"android":"levelo://app?vid=6368f354-6da7-4884-a394-062f1a963ed6","ios":"levelo://app?vid=6368f354-6da7-4884-a394-062f1a963ed6"},"vehicle_type_id":"4","last_reported":1742393386,"current_range_meters":3200,"station_id":"","pricing_plan_id":"cebpf4jnsgd1na2vs0mg"},{"bike_id":"cce97a95-516f-4315-a2ec-5a1c7b9d4da1","system_id":"levelo_inurba_marseille","lat":43.25839,"lon":5.3944,"is_reserved":false,"is_disabled":false,"rental_uris":{"android":"levelo://app?vid=cce97a95-516f-4315-a2ec-5a1c7b9d4da1","ios":"levelo://app?vid=cce97a95-516f-4315-a2ec-5a1c7b9d4da1"},"vehicle_type_id":"4","last_reported":1742393386,"current_range_meters":3600,"station_id":"ce4bhip2rcd13ifvqft0","pricing_plan_id":"cebpf4jnsgd1na2vs0mg"},{"bike_id":"47418a83-6367-4723-ba3b-1aa94fd0b1e0","system_id":"levelo_inurba_marseille","lat":43.28143,"lon":5.43676,"is_reserved":false,"is_disabled":false,"rental_uris":{"android":"levelo://app?vid=47418a83-6367-4723-ba3b-1aa94fd0b1e0","ios":"levelo://app?vid=47418a83-6367-4723-ba3b-1aa94fd0b1e0"},"vehicle_type_id":"4","last_reported":1742393386,"current_range_meters":3600,"station_id":"","pricing_plan_id":"cebpf4jnsgd1na2vs0mg"},{"bike_id":"f241f6da-996c-43a3-92e7-a4863c8bd665","system_id":"levelo_inurba_marseille","lat":43.26567,"lon":5.39016,"is_reserved":false,"is_disabled":false,"rental_uris":{"android":"levelo://app?vid=f241f6da-996c-43a3-92e7-a4863c8bd665","ios":"levelo://app?vid=f241f6da-996c-43a3-92e7-a4863c8bd665"},"vehicle_type_id":"4","last_reported":1742393386,"current_range_meters":3600,"station_id":"ce4bhe12rcd13ifvqf30","pricing_plan_id":"cebpf4jnsgd1na2vs0mg"},{"bike_id":"765f0b19-c031-49b9-a015-ab0a55dbc4b4","system_id":"levelo_inurba_marseille","lat":43.28041,"lon":5.36946,"is_reserved":false,"is_disabled":false,"rental_uris":{"android":"levelo://app?vid=765f0b19-c031-49b9-a015-ab0a55dbc4b4","ios":"levelo://app?vid=765f0b19-c031-49b9-a015-ab0a55dbc4b4"},"vehicle_type_id":"4","last_reported":1742393386,"current_range_meters":4000,"station_id":"ce4bha12rcd13ifvqef0","pricing_plan_id":"cebpf4jnsgd1na2vs0mg"},{"bike_id":"e7ac7a57-bc7a-451e-be23-ef2cbf01a9ae","system_id":"levelo_inurba_marseille","lat":43.29005,"lon":5.37113,"is_reserved":false,"is_disabled":false,"rental_uris":{"android":"levelo://app?vid=e7ac7a57-bc7a-451e-be23-ef2cbf01a9ae","ios":"levelo://app?vid=e7ac7a57-bc7a-451e-be23-ef2cbf01a9ae"},"vehicle_type_id":"4","last_reported":1742393386,"current_range_meters":4000,"station_id":"","pricing_plan_id":"cebpf4jnsgd1na2vs0mg"},{"bike_id":"af2f3422-5aa4-4c72-a508-55696a113ff3","system_id":"levelo_inurba_marseille","lat":43.26065,"lon":5.39398,"is_reserved":false,"is_disabled":false,"rental_uris":{"android":"levelo://app?vid=af2f3422-5aa4-4c72-a508-55696a113ff3","ios":"levelo://app?vid=af2f3422-5aa4-4c72-a508-55696a113ff3"},"vehicle_type_id":"4","last_reported":1742393386,"current_range_meters":4000,"station_id":"ce4bhh92rcd13ifvqfj0","pricing_plan_id":"cebpf4jnsgd1na2vs0mg"},{"bike_id":"e7aef694-bffd-4e4b-b091-b4f0ad6c2746","system_id":"levelo_inurba_marseille","lat":43.26572,"lon":5.39016,"is_reserved":false,"is_disabled":false,"rental_uris":{"android":"levelo://app?vid=e7aef694-bffd-4e4b-b091-b4f0ad6c2746","ios":"levelo://app?vid=e7aef694-bffd-4e4b-b091-b4f0ad6c2746"},"vehicle_type_id":"4","last_reported":1742393386,"current_range_meters":4000,"station_id":"ce4bhe12rcd13ifvqf30","pricing_plan_id":"cebpf4jnsgd1na2vs0mg"},{"bike_id":"154606a8-39ea-4836-8df6-ad1683ddf919","system_id":"levelo_inurba_marseille","lat":43.30535,"lon":5.36546,"is_reserved":false,"is_disabled":false,"rental_uris":{"android":"levelo://app?vid=154606a8-39ea-4836-8df6-ad1683ddf919","ios":"levelo://app?vid=154606a8-39ea-4836-8df6-ad1683ddf919"},"vehicle_type_id":"4","last_reported":1742393386,"current_range_meters":4400,"station_id":"ce4bgs12rcd13ifvqcag","pricing_plan_id":"cebpf4jnsgd1na2vs0mg"},{"bike_id":"a2b55b3e-6d2a-48ab-b87d-838913aa8d96","system_id":"levelo_inurba_marseille","lat":43.25939,"lon":5.40908,"is_reserved":false,"is_disabled":false,"rental_uris":{"android":"levelo://app?vid=a2b55b3e-6d2a-48ab-b87d-838913aa8d96","ios":"levelo://app?vid=a2b55b3e-6d2a-48ab-b87d-838913aa8d96"},"vehicle_type_id":"4","last_reported":1742393386,"current_range_meters":4400,"station_id":"ce4bhm92rcd13ifvqglg","pricing_plan_id":"cebpf4jnsgd1na2vs0mg"},{"bike_id":"4f6d11f4-8d23-4e35-8c59-e818e64ce7ab","system_id":"levelo_inurba_marseille","lat":43.29528,"lon":5.43899,"is_reserved":false,"is_disabled":false,"rental_uris":{"android":"levelo://app?vid=4f6d11f4-8d23-4e35-8c59-e818e64ce7ab","ios":"levelo://app?vid=4f6d11f4-8d23-4e35-8c59-e818e64ce7ab"},"vehicle_type_id":"4","last_reported":1742393386,"current_range_meters":4400,"station_id":"","pricing_plan_id":"cebpf4jnsgd1na2vs0mg"},{"bike_id":"256ecd7e-dd05-42dd-abdc-6ee86613b294","system_id":"levelo_inurba_marseille","lat":43.30957,"lon":5.39005,"is_reserved":false,"is_disabled":true,"rental_uris":{"android":"levelo://app?vid=256ecd7e-dd05-42dd-abdc-6ee86613b294","ios":"levelo://app?vid=256ecd7e-dd05-42dd-abdc-6ee86613b294"},"vehicle_type_id":"4","last_reported":1742393386,"current_range_meters":4800,"station_id":"ce4bgup2rcd13ifvqco0","pricing_plan_id":"cebpf4jnsgd1na2vs0mg"},{"bike_id":"97820cc4-93f7-472f-a6a3-bb0b3708ecd1","system_id":"levelo_inurba_marseille","lat":43.26548,"lon":5.37304,"is_reserved":false,"is_disabled":true,"rental_uris":{"android":"levelo://app?vid=97820cc4-93f7-472f-a6a3-bb0b3708ecd1","ios":"levelo://app?vid=97820cc4-93f7-472f-a6a3-bb0b3708ecd1"},"vehicle_type_id":"4","last_reported":1742393386,"current_range_meters":4800,"station_id":"ce4bhg12rcd13ifvqf70","pricing_plan_id":"cebpf4jnsgd1na2vs0mg"},{"bike_id":"52bd4f14-775f-459f-9791-851d088e69cb","system_id":"levelo_inurba_marseille","lat":43.25013,"lon":5.38933,"is_reserved":false,"is_disabled":false,"rental_uris":{"android":"levelo://app?vid=52bd4f14-775f-459f-9791-851d088e69cb","ios":"levelo://app?vid=52bd4f14-775f-459f-9791-851d088e69cb"},"vehicle_type_id":"4","last_reported":1742393386,"current_range_meters":4800,"station_id":"ce4bhgp2rcd13ifvqfd0","pricing_plan_id":"cebpf4jnsgd1na2vs0mg"},{"bike_id":"8beacb06-191c-4078-8acc-085abaf3a4f4","system_id":"levelo_inurba_marseille","lat":43.28006,"lon":5.44185,"is_reserved":false,"is_disabled":false,"rental_uris":{"android":"levelo://app?vid=8beacb06-191c-4078-8acc-085abaf3a4f4","ios":"levelo://app?vid=8beacb06-191c-4078-8acc-085abaf3a4f4"},"vehicle_type_id":"4","last_reported":1742393386,"current_range_meters":5600,"station_id":"","pricing_plan_id":"cebpf4jnsgd1na2vs0mg"},{"bike_id":"c0531aac-9e56-48ad-b274-a413685e5906","system_id":"levelo_inurba_marseille","lat":43.27179,"lon":5.41,"is_reserved":false,"is_disabled":false,"rental_uris":{"android":"levelo://app?vid=c0531aac-9e56-48ad-b274-a413685e5906","ios":"levelo://app?vid=c0531aac-9e56-48ad-b274-a413685e5906"},"vehicle_type_id":"4","last_reported":1742393386,"current_range_meters":5600,"station_id":"ce4bhl12rcd13ifvqgf0","pricing_plan_id":"cebpf4jnsgd1na2vs0mg"},{"bike_id":"b182608f-b588-4878-9a4b-ea90fe284413","system_id":"levelo_inurba_marseille","lat":43.24164,"lon":5.36403,"is_reserved":false,"is_disabled":false,"rental_uris":{"android":"levelo://app?vid=b182608f-b588-4878-9a4b-ea90fe284413","ios":"levelo://app?vid=b182608f-b588-4878-9a4b-ea90fe284413"},"vehicle_type_id":"4","last_reported":1742393386,"current_range_meters":5600,"station_id":"cpo36qri1sfpv3e86is0","pricing_plan_id":"cebpf4jnsgd1na2vs0mg"},{"bike_id":"8528cfd6-758c-4197-aaac-800294acfea6","system_id":"levelo_inurba_marseille","lat":43.2586,"lon":5.39912,"is_reserved":false,"is_disabled":false,"rental_uris":{"android":"levelo://app?vid=8528cfd6-758c-4197-aaac-800294acfea6","ios":"levelo://app?vid=8528cfd6-758c-4197-aaac-800294acfea6"},"vehicle_type_id":"4","last_reported":1742393386,"current_range_meters":5600,"station_id":"ce4bhl92rcd13ifvqghg","pricing_plan_id":"cebpf4jnsgd1na2vs0mg"},{"bike_id":"d0ecd06f-b344-485c-8550-9fa5bf448f53","system_id":"levelo_inurba_marseille","lat":43.25834,"lon":5.39436,"is_reserved":false,"is_disabled":false,"rental_uris":{"android":"levelo://app?vid=d0ecd06f-b344-485c-8550-9fa5bf448f53","ios":"levelo://app?vid=d0ecd06f-b344-485c-8550-9fa5bf448f53"},"vehicle_type_id":"4","last_reported":1742393386,"current_range_meters":6000,"station_id":"ce4bhip2rcd13ifvqft0","pricing_plan_id":"cebpf4jnsgd1na2vs0mg"},{"bike_id":"89946c53-7112-46e6-b206-828cdeaa93f5","system_id":"levelo_inurba_marseille","lat":43.25119,"lon":5.40322,"is_reserved":false,"is_disabled":false,"rental_uris":{"android":"levelo://app?vid=89946c53-7112-46e6-b206-828cdeaa93f5","ios":"levelo://app?vid=89946c53-7112-46e6-b206-828cdeaa93f5"},"vehicle_type_id":"4","last_reported":1742393386,"current_range_meters":6000,"station_id":"ce4bhlh2rcd13ifvqgig","pricing_plan_id":"cebpf4jnsgd1na2vs0mg"},{"bike_id":"c9f465fd-2eee-4445-8bf9-e8eeeabc9968","system_id":"levelo_inurba_marseille","lat":43.2847,"lon":5.38422,"is_reserved":false,"is_disabled":false,"rental_uris":{"android":"levelo://app?vid=c9f465fd-2eee-4445-8bf9-e8eeeabc9968","ios":"levelo://app?vid=c9f465fd-2eee-4445-8bf9-e8eeeabc9968"},"vehicle_type_id":"4","last_reported":1742393386,"current_range_meters":6000,"station_id":"ce4bh512rcd13ifvqe3g","pricing_plan_id":"cebpf4jnsgd1na2vs0mg"},{"bike_id":"9c116928-041a-4c48-98f3-58a29bcb0b33","system_id":"levelo_inurba_marseille","lat":43.2743,"lon":5.39419,"is_reserved":false,"is_disabled":false,"rental_uris":{"android":"levelo://app?vid=9c116928-041a-4c48-98f3-58a29bcb0b33","ios":"levelo://app?vid=9c116928-041a-4c48-98f3-58a29bcb0b33"},"vehicle_type_id":"4","last_reported":1742393386,"current_range_meters":5600,"station_id":"ce4bhdp2rcd13ifvqf20","pricing_plan_id":"cebpf4jnsgd1na2vs0mg"},{"bike_id":"b627c9ad-3c9c-4e71-ac51-64e10127430c","system_id":"levelo_inurba_marseille","lat":43.27928,"lon":5.37976,"is_reserved":false,"is_disabled":false,"rental_uris":{"android":"levelo://app?vid=b627c9ad-3c9c-4e71-ac51-64e10127430c","ios":"levelo://app?vid=b627c9ad-3c9c-4e71-ac51-64e10127430c"},"vehicle_type_id":"4","last_reported":1742393386,"current_range_meters":6800,"station_id":"ce4bhf92rcd13ifvqf50","pricing_plan_id":"cebpf4jnsgd1na2vs0mg"},{"bike_id":"6033cbb0-f2b2-4efc-87c8-892efe55d3eb","system_id":"levelo_inurba_marseille","lat":43.30444,"lon":5.39766,"is_reserved":false,"is_disabled":false,"rental_uris":{"android":"levelo://app?vid=6033cbb0-f2b2-4efc-87c8-892efe55d3eb","ios":"levelo://app?vid=6033cbb0-f2b2-4efc-87c8-892efe55d3eb"},"vehicle_type_id":"4","last_reported":1742393386,"current_range_meters":6400,"station_id":"ce4bh092rcd13ifvqd20","pricing_plan_id":"cebpf4jnsgd1na2vs0mg"},{"bike_id":"2fc9495d-c829-4229-a4db-5c8674880d7a","system_id":"levelo_inurba_marseille","lat":43.2305,"lon":5.35503,"is_reserved":false,"is_disabled":false,"rental_uris":{"android":"levelo://app?vid=2fc9495d-c829-4229-a4db-5c8674880d7a","ios":"levelo://app?vid=2fc9495d-c829-4229-a4db-5c8674880d7a"},"vehicle_type_id":"4","last_reported":1742393386,"current_range_meters":6400,"station_id":"cpo3342slgdg3j2ifvpg","pricing_plan_id":"cebpf4jnsgd1na2vs0mg"},{"bike_id":"0b60e72b-d8b1-4266-9b63-b94b87c1ad4b","system_id":"levelo_inurba_marseille","lat":43.2319,"lon":5.3998,"is_reserved":false,"is_disabled":false,"rental_uris":{"android":"levelo://app?vid=0b60e72b-d8b1-4266-9b63-b94b87c1ad4b","ios":"levelo://app?vid=0b60e72b-d8b1-4266-9b63-b94b87c1ad4b"},"vehicle_type_id":"4","last_reported":1742393386,"current_range_meters":6800,"station_id":"ce4bhn12rcd13ifvqgqg","pricing_plan_id":"cebpf4jnsgd1na2vs0mg"},{"bike_id":"6ae6f76c-6a01-4d75-9d3f-dfa610803a78","system_id":"levelo_inurba_marseille","lat":43.23081,"lon":5.35489,"is_reserved":false,"is_disabled":false,"rental_uris":{"android":"levelo://app?vid=6ae6f76c-6a01-4d75-9d3f-dfa610803a78","ios":"levelo://app?vid=6ae6f76c-6a01-4d75-9d3f-dfa610803a78"},"vehicle_type_id":"4","last_reported":1742393386,"current_range_meters":6800,"station_id":"cpo3342slgdg3j2ifvpg","pricing_plan_id":"cebpf4jnsgd1na2vs0mg"},{"bike_id":"519efbbc-7577-4063-8eac-658ef30e98a3","system_id":"levelo_inurba_marseille","lat":43.25016,"lon":5.38933,"is_reserved":false,"is_disabled":false,"rental_uris":{"android":"levelo://app?vid=519efbbc-7577-4063-8eac-658ef30e98a3","ios":"levelo://app?vid=519efbbc-7577-4063-8eac-658ef30e98a3"},"vehicle_type_id":"4","last_reported":1742393386,"current_range_meters":6800,"station_id":"ce4bhgp2rcd13ifvqfd0","pricing_plan_id":"cebpf4jnsgd1na2vs0mg"},{"bike_id":"457c64a1-ebe0-4ecc-8403-99f559ddb946","system_id":"levelo_inurba_marseille","lat":43.30537,"lon":5.38434,"is_reserved":false,"is_disabled":false,"rental_uris":{"android":"levelo://app?vid=457c64a1-ebe0-4ecc-8403-99f559ddb946","ios":"levelo://app?vid=457c64a1-ebe0-4ecc-8403-99f559ddb946"},"vehicle_type_id":"4","last_reported":1742393386,"current_range_meters":6800,"station_id":"ce4bgg92rcd13ifvqb30","pricing_plan_id":"cebpf4jnsgd1na2vs0mg"},{"bike_id":"282a156f-4980-4ecb-b2d6-fd22222e9e36","system_id":"levelo_inurba_marseille","lat":43.24815,"lon":5.37462,"is_reserved":false,"is_disabled":false,"rental_uris":{"android":"levelo://app?vid=282a156f-4980-4ecb-b2d6-fd22222e9e36","ios":"levelo://app?vid=282a156f-4980-4ecb-b2d6-fd22222e9e36"},"vehicle_type_id":"4","last_reported":1742393386,"current_range_meters":6800,"station_id":"ce4bhgh2rcd13ifvqfb0","pricing_plan_id":"cebpf4jnsgd1na2vs0mg"},{"bike_id":"2262eebe-fc83-4248-84c4-e1d3426332cc","system_id":"levelo_inurba_marseille","lat":43.26033,"lon":5.37551,"is_reserved":false,"is_disabled":false,"rental_uris":{"android":"levelo://app?vid=2262eebe-fc83-4248-84c4-e1d3426332cc","ios":"levelo://app?vid=2262eebe-fc83-4248-84c4-e1d3426332cc"},"vehicle_type_id":"4","last_reported":1742393386,"current_range_meters":5600,"station_id":"ce4bhgh2rcd13ifvqfa0","pricing_plan_id":"cebpf4jnsgd1na2vs0mg"},{"bike_id":"67217416-f321-45a1-b5fe-819e209b511c","system_id":"levelo_inurba_marseille","lat":43.26794,"lon":5.39424,"is_reserved":false,"is_disabled":false,"rental_uris":{"android":"levelo://app?vid=67217416-f321-45a1-b5fe-819e209b511c","ios":"levelo://app?vid=67217416-f321-45a1-b5fe-819e209b511c"},"vehicle_type_id":"4","last_reported":1742393386,"current_range_meters":6800,"station_id":"ce4bhh12rcd13ifvqfg0","pricing_plan_id":"cebpf4jnsgd1na2vs0mg"},{"bike_id":"3ead765b-9785-4ec5-985b-fd9d3a8643d9","system_id":"levelo_inurba_marseille","lat":43.23152,"lon":5.43728,"is_reserved":false,"is_disabled":false,"rental_uris":{"android":"levelo://app?vid=3ead765b-9785-4ec5-985b-fd9d3a8643d9","ios":"levelo://app?vid=3ead765b-9785-4ec5-985b-fd9d3a8643d9"},"vehicle_type_id":"4","last_reported":1742393386,"current_range_meters":6800,"station_id":"ce4bhmp2rcd13ifvqgog","pricing_plan_id":"cebpf4jnsgd1na2vs0mg"},{"bike_id":"3c4f394c-0305-4c58-97e5-6826bd9d917e","system_id":"levelo_inurba_marseille","lat":43.32495,"lon":5.36534,"is_reserved":false,"is_disabled":false,"rental_uris":{"android":"levelo://app?vid=3c4f394c-0305-4c58-97e5-6826bd9d917e","ios":"levelo://app?vid=3c4f394c-0305-4c58-97e5-6826bd9d917e"},"vehicle_type_id":"4","last_reported":1742393386,"current_range_meters":7200,"station_id":"ce4bhs12rcd13ifvqhvg","pricing_plan_id":"cebpf4jnsgd1na2vs0mg"},{"bike_id":"0acde8e9-ee20-4d0f-b960-c3835cfb3c02","system_id":"levelo_inurba_marseille","lat":43.28878,"lon":5.35846,"is_reserved":false,"is_disabled":false,"rental_uris":{"android":"levelo://app?vid=0acde8e9-ee20-4d0f-b960-c3835cfb3c02","ios":"levelo://app?vid=0acde8e9-ee20-4d0f-b960-c3835cfb3c02"},"vehicle_type_id":"4","last_reported":1742393386,"current_range_meters":7200,"station_id":"ce4bhb12rcd13ifvqem0","pricing_plan_id":"cebpf4jnsgd1na2vs0mg"},{"bike_id":"c1ccf0a5-89fe-4d49-a5d7-808fb720c652","system_id":"levelo_inurba_marseille","lat":43.26029,"lon":5.41724,"is_reserved":false,"is_disabled":false,"rental_uris":{"android":"levelo://app?vid=c1ccf0a5-89fe-4d49-a5d7-808fb720c652","ios":"levelo://app?vid=c1ccf0a5-89fe-4d49-a5d7-808fb720c652"},"vehicle_type_id":"4","last_reported":1742393386,"current_range_meters":7200,"station_id":"","pricing_plan_id":"cebpf4jnsgd1na2vs0mg"},{"bike_id":"a1a7a713-b967-46bb-b146-c35e46f993ca","system_id":"levelo_inurba_marseille","lat":43.23153,"lon":5.43712,"is_reserved":false,"is_disabled":false,"rental_uris":{"android":"levelo://app?vid=a1a7a713-b967-46bb-b146-c35e46f993ca","ios":"levelo://app?vid=a1a7a713-b967-46bb-b146-c35e46f993ca"},"vehicle_type_id":"4","last_reported":1742393386,"current_range_meters":800,"station_id":"ce4bhmp2rcd13ifvqgog","pricing_plan_id":"cebpf4jnsgd1na2vs0mg"},{"bike_id":"ca1c0a28-8faf-435f-9d8b-370c3a07ff34","system_id":"levelo_inurba_marseille","lat":43.24178,"lon":5.36388,"is_reserved":false,"is_disabled":false,"rental_uris":{"android":"levelo://app?vid=ca1c0a28-8faf-435f-9d8b-370c3a07ff34","ios":"levelo://app?vid=ca1c0a28-8faf-435f-9d8b-370c3a07ff34"},"vehicle_type_id":"4","last_reported":1742393386,"current_range_meters":7200,"station_id":"cpo36qri1sfpv3e86is0","pricing_plan_id":"cebpf4jnsgd1na2vs0mg"},{"bike_id":"cd813465-9d5d-4085-8d88-a663d11595b9","system_id":"levelo_inurba_marseille","lat":43.30949,"lon":5.39035,"is_reserved":false,"is_disabled":false,"rental_uris":{"android":"levelo://app?vid=cd813465-9d5d-4085-8d88-a663d11595b9","ios":"levelo://app?vid=cd813465-9d5d-4085-8d88-a663d11595b9"},"vehicle_type_id":"4","last_reported":1742393386,"current_range_meters":8000,"station_id":"ce4bgup2rcd13ifvqco0","pricing_plan_id":"cebpf4jnsgd1na2vs0mg"},{"bike_id":"700425af-d7e2-4b81-a8f7-cd8eab740a32","system_id":"levelo_inurba_marseille","lat":43.27825,"lon":5.40721,"is_reserved":false,"is_disabled":false,"rental_uris":{"android":"levelo://app?vid=700425af-d7e2-4b81-a8f7-cd8eab740a32","ios":"levelo://app?vid=700425af-d7e2-4b81-a8f7-cd8eab740a32"},"vehicle_type_id":"4","last_reported":1742393386,"current_range_meters":7200,"station_id":"ce4bhnh2rcd13ifvqgtg","pricing_plan_id":"cebpf4jnsgd1na2vs0mg"},{"bike_id":"a342afa1-fe1b-4de5-8f98-f3f81167fac6","system_id":"levelo_inurba_marseille","lat":43.2294,"lon":5.35381,"is_reserved":false,"is_disabled":false,"rental_uris":{"android":"levelo://app?vid=a342afa1-fe1b-4de5-8f98-f3f81167fac6","ios":"levelo://app?vid=a342afa1-fe1b-4de5-8f98-f3f81167fac6"},"vehicle_type_id":"4","last_reported":1742393386,"current_range_meters":7200,"station_id":"cpo3532slgdg3j2ikp40","pricing_plan_id":"cebpf4jnsgd1na2vs0mg"},{"bike_id":"dd8a4413-8864-497c-b1c7-e4d74a21dfcf","system_id":"levelo_inurba_marseille","lat":43.2315,"lon":5.43713,"is_reserved":false,"is_disabled":false,"rental_uris":{"android":"levelo://app?vid=dd8a4413-8864-497c-b1c7-e4d74a21dfcf","ios":"levelo://app?vid=dd8a4413-8864-497c-b1c7-e4d74a21dfcf"},"vehicle_type_id":"4","last_reported":1742393386,"current_range_meters":7200,"station_id":"ce4bhmp2rcd13ifvqgog","pricing_plan_id":"cebpf4jnsgd1na2vs0mg"},{"bike_id":"3d10a724-5b32-49c1-b80a-54989ea1e865","system_id":"levelo_inurba_marseille","lat":43.28377,"lon":5.38643,"is_reserved":false,"is_disabled":false,"rental_uris":{"android":"levelo://app?vid=3d10a724-5b32-49c1-b80a-54989ea1e865","ios":"levelo://app?vid=3d10a724-5b32-49c1-b80a-54989ea1e865"},"vehicle_type_id":"4","last_reported":1742393386,"current_range_meters":7200,"station_id":"ce4bh492rcd13ifvqdvg","pricing_plan_id":"cebpf4jnsgd1na2vs0mg"},{"bike_id":"34b74241-1e6e-458b-a83f-9bda30270e74","system_id":"levelo_inurba_marseille","lat":43.27816,"lon":5.40721,"is_reserved":false,"is_disabled":false,"rental_uris":{"android":"levelo://app?vid=34b74241-1e6e-458b-a83f-9bda30270e74","ios":"levelo://app?vid=34b74241-1e6e-458b-a83f-9bda30270e74"},"vehicle_type_id":"4","last_reported":1742393386,"current_range_meters":7200,"station_id":"ce4bhnh2rcd13ifvqgtg","pricing_plan_id":"cebpf4jnsgd1na2vs0mg"},{"bike_id":"5d6a6815-9769-45f8-8b45-4ae727580b92","system_id":"levelo_inurba_marseille","lat":43.33022,"lon":5.39044,"is_reserved":false,"is_disabled":false,"rental_uris":{"android":"levelo://app?vid=5d6a6815-9769-45f8-8b45-4ae727580b92","ios":"levelo://app?vid=5d6a6815-9769-45f8-8b45-4ae727580b92"},"vehicle_type_id":"4","last_reported":1742393386,"current_range_meters":7200,"station_id":"ce4bhr92rcd13ifvqhrg","pricing_plan_id":"cebpf4jnsgd1na2vs0mg"},{"bike_id":"61c41159-7a8b-45ee-a18c-926f56b3edec","system_id":"levelo_inurba_marseille","lat":43.25821,"lon":5.39446,"is_reserved":false,"is_disabled":false,"rental_uris":{"android":"levelo://app?vid=61c41159-7a8b-45ee-a18c-926f56b3edec","ios":"levelo://app?vid=61c41159-7a8b-45ee-a18c-926f56b3edec"},"vehicle_type_id":"4","last_reported":1742393386,"current_range_meters":7200,"station_id":"ce4bhip2rcd13ifvqft0","pricing_plan_id":"cebpf4jnsgd1na2vs0mg"},{"bike_id":"e7727825-1550-4ac5-83b8-e36a5d869f96","system_id":"levelo_inurba_marseille","lat":43.26231,"lon":5.40449,"is_reserved":false,"is_disabled":false,"rental_uris":{"android":"levelo://app?vid=e7727825-1550-4ac5-83b8-e36a5d869f96","ios":"levelo://app?vid=e7727825-1550-4ac5-83b8-e36a5d869f96"},"vehicle_type_id":"4","last_reported":1742393386,"current_range_meters":7200,"station_id":"ce4bhmh2rcd13ifvqgmg","pricing_plan_id":"cebpf4jnsgd1na2vs0mg"},{"bike_id":"535c11b3-5c0a-4708-8625-843067b3241f","system_id":"levelo_inurba_marseille","lat":43.27335,"lon":5.39072,"is_reserved":false,"is_disabled":false,"rental_uris":{"android":"levelo://app?vid=535c11b3-5c0a-4708-8625-843067b3241f","ios":"levelo://app?vid=535c11b3-5c0a-4708-8625-843067b3241f"},"vehicle_type_id":"4","last_reported":1742393386,"current_range_meters":7200,"station_id":"ce4bhgp2rcd13ifvqfe0","pricing_plan_id":"cebpf4jnsgd1na2vs0mg"},{"bike_id":"88e686a5-b89f-4d0c-a271-251c80433298","system_id":"levelo_inurba_marseille","lat":43.23146,"lon":5.43712,"is_reserved":false,"is_disabled":false,"rental_uris":{"android":"levelo://app?vid=88e686a5-b89f-4d0c-a271-251c80433298","ios":"levelo://app?vid=88e686a5-b89f-4d0c-a271-251c80433298"},"vehicle_type_id":"4","last_reported":1742393386,"current_range_meters":8000,"station_id":"ce4bhmp2rcd13ifvqgog","pricing_plan_id":"cebpf4jnsgd1na2vs0mg"},{"bike_id":"c095b8ad-f5fa-46e0-bc3d-b3a0b332f1ed","system_id":"levelo_inurba_marseille","lat":43.31232,"lon":5.36858,"is_reserved":false,"is_disabled":false,"rental_uris":{"android":"levelo://app?vid=c095b8ad-f5fa-46e0-bc3d-b3a0b332f1ed","ios":"levelo://app?vid=c095b8ad-f5fa-46e0-bc3d-b3a0b332f1ed"},"vehicle_type_id":"4","last_reported":1742393386,"current_range_meters":8000,"station_id":"ce4bgl92rcd13ifvqbq0","pricing_plan_id":"cebpf4jnsgd1na2vs0mg"},{"bike_id":"29177bd9-b05a-46e3-a7c6-0bab8134bba2","system_id":"levelo_inurba_marseille","lat":43.27183,"lon":5.40991,"is_reserved":false,"is_disabled":false,"rental_uris":{"android":"levelo://app?vid=29177bd9-b05a-46e3-a7c6-0bab8134bba2","ios":"levelo://app?vid=29177bd9-b05a-46e3-a7c6-0bab8134bba2"},"vehicle_type_id":"4","last_reported":1742393386,"current_range_meters":8000,"station_id":"ce4bhl12rcd13ifvqgf0","pricing_plan_id":"cebpf4jnsgd1na2vs0mg"},{"bike_id":"8b32b85a-5da5-4fb7-9bce-2917bc92c51c","system_id":"levelo_inurba_marseille","lat":43.27818,"lon":5.40724,"is_reserved":false,"is_disabled":false,"rental_uris":{"android":"levelo://app?vid=8b32b85a-5da5-4fb7-9bce-2917bc92c51c","ios":"levelo://app?vid=8b32b85a-5da5-4fb7-9bce-2917bc92c51c"},"vehicle_type_id":"4","last_reported":1742393386,"current_range_meters":8000,"station_id":"ce4bhnh2rcd13ifvqgtg","pricing_plan_id":"cebpf4jnsgd1na2vs0mg"},{"bike_id":"69af10d3-7eb5-48d0-9f8c-46380565ec46","system_id":"levelo_inurba_marseille","lat":43.33027,"lon":5.39047,"is_reserved":false,"is_disabled":false,"rental_uris":{"android":"levelo://app?vid=69af10d3-7eb5-48d0-9f8c-46380565ec46","ios":"levelo://app?vid=69af10d3-7eb5-48d0-9f8c-46380565ec46"},"vehicle_type_id":"4","last_reported":1742393386,"current_range_meters":8000,"station_id":"ce4bhr92rcd13ifvqhrg","pricing_plan_id":"cebpf4jnsgd1na2vs0mg"},{"bike_id":"f900da6c-7e5c-4ec1-bb80-501e71312a52","system_id":"levelo_inurba_marseille","lat":43.27379,"lon":5.36259,"is_reserved":false,"is_disabled":false,"rental_uris":{"android":"levelo://app?vid=f900da6c-7e5c-4ec1-bb80-501e71312a52","ios":"levelo://app?vid=f900da6c-7e5c-4ec1-bb80-501e71312a52"},"vehicle_type_id":"4","last_reported":1742393386,"current_range_meters":8000,"station_id":"ce4bhbh2rcd13ifvqeo0","pricing_plan_id":"cebpf4jnsgd1na2vs0mg"},{"bike_id":"2b0a06f8-1bb8-4350-86c8-45178abcc3bd","system_id":"levelo_inurba_marseille","lat":43.305944,"lon":5.393716,"is_reserved":false,"is_disabled":false,"rental_uris":{"android":"levelo://app?vid=2b0a06f8-1bb8-4350-86c8-45178abcc3bd","ios":"levelo://app?vid=2b0a06f8-1bb8-4350-86c8-45178abcc3bd"},"vehicle_type_id":"4","last_reported":1742393386,"current_range_meters":8000,"station_id":"ce4bhqp2rcd13ifvqhng","pricing_plan_id":"cebpf4jnsgd1na2vs0mg"},{"bike_id":"f21279f0-26ba-40b9-a5fb-1fd6c7d6abe3","system_id":"levelo_inurba_marseille","lat":43.25818,"lon":5.39436,"is_reserved":false,"is_disabled":false,"rental_uris":{"android":"levelo://app?vid=f21279f0-26ba-40b9-a5fb-1fd6c7d6abe3","ios":"levelo://app?vid=f21279f0-26ba-40b9-a5fb-1fd6c7d6abe3"},"vehicle_type_id":"4","last_reported":1742393386,"current_range_meters":8400,"station_id":"ce4bhip2rcd13ifvqft0","pricing_plan_id":"cebpf4jnsgd1na2vs0mg"},{"bike_id":"4f70ebff-4208-422e-8c95-09d5bebf9c84","system_id":"levelo_inurba_marseille","lat":43.2792,"lon":5.39595,"is_reserved":false,"is_disabled":false,"rental_uris":{"android":"levelo://app?vid=4f70ebff-4208-422e-8c95-09d5bebf9c84","ios":"levelo://app?vid=4f70ebff-4208-422e-8c95-09d5bebf9c84"},"vehicle_type_id":"4","last_reported":1742393386,"current_range_meters":8400,"station_id":"ce4bhf92rcd13ifvqf40","pricing_plan_id":"cebpf4jnsgd1na2vs0mg"},{"bike_id":"6b162ed9-3599-4156-a34b-2df90433ae5c","system_id":"levelo_inurba_marseille","lat":43.24182,"lon":5.3975,"is_reserved":false,"is_disabled":false,"rental_uris":{"android":"levelo://app?vid=6b162ed9-3599-4156-a34b-2df90433ae5c","ios":"levelo://app?vid=6b162ed9-3599-4156-a34b-2df90433ae5c"},"vehicle_type_id":"4","last_reported":1742393386,"current_range_meters":8400,"station_id":"ce4bhn12rcd13ifvqgpg","pricing_plan_id":"cebpf4jnsgd1na2vs0mg"},{"bike_id":"1f332132-6385-4adf-be6a-5eec231ac387","system_id":"levelo_inurba_marseille","lat":43.24179,"lon":5.39726,"is_reserved":false,"is_disabled":false,"rental_uris":{"android":"levelo://app?vid=1f332132-6385-4adf-be6a-5eec231ac387","ios":"levelo://app?vid=1f332132-6385-4adf-be6a-5eec231ac387"},"vehicle_type_id":"4","last_reported":1742393386,"current_range_meters":8400,"station_id":"ce4bhn12rcd13ifvqgpg","pricing_plan_id":"cebpf4jnsgd1na2vs0mg"},{"bike_id":"bd783305-4dd3-440c-a3ec-316ee52cbc43","system_id":"levelo_inurba_marseille","lat":43.29849,"lon":5.36276,"is_reserved":false,"is_disabled":false,"rental_uris":{"android":"levelo://app?vid=bd783305-4dd3-440c-a3ec-316ee52cbc43","ios":"levelo://app?vid=bd783305-4dd3-440c-a3ec-316ee52cbc43"},"vehicle_type_id":"4","last_reported":1742393386,"current_range_meters":8400,"station_id":"ce4bgpp2rcd13ifvqc3g","pricing_plan_id":"cebpf4jnsgd1na2vs0mg"},{"bike_id":"1fe8cbb2-e61f-4748-8f3f-eff906305549","system_id":"levelo_inurba_marseille","lat":43.23074,"lon":5.35494,"is_reserved":false,"is_disabled":false,"rental_uris":{"android":"levelo://app?vid=1fe8cbb2-e61f-4748-8f3f-eff906305549","ios":"levelo://app?vid=1fe8cbb2-e61f-4748-8f3f-eff906305549"},"vehicle_type_id":"4","last_reported":1742393386,"current_range_meters":8800,"station_id":"cpo3342slgdg3j2ifvpg","pricing_plan_id":"cebpf4jnsgd1na2vs0mg"},{"bike_id":"10eed6fd-0341-4510-a4a6-4c8769f4a4be","system_id":"levelo_inurba_marseille","lat":43.26693,"lon":5.38273,"is_reserved":false,"is_disabled":false,"rental_uris":{"android":"levelo://app?vid=10eed6fd-0341-4510-a4a6-4c8769f4a4be","ios":"levelo://app?vid=10eed6fd-0341-4510-a4a6-4c8769f4a4be"},"vehicle_type_id":"4","last_reported":1742393386,"current_range_meters":8800,"station_id":"ce4bhg92rcd13ifvqf90","pricing_plan_id":"cebpf4jnsgd1na2vs0mg"},{"bike_id":"4500ed14-98a3-4941-9314-34b6fba7ba38","system_id":"levelo_inurba_marseille","lat":43.30089,"lon":5.39087,"is_reserved":false,"is_disabled":false,"rental_uris":{"android":"levelo://app?vid=4500ed14-98a3-4941-9314-34b6fba7ba38","ios":"levelo://app?vid=4500ed14-98a3-4941-9314-34b6fba7ba38"},"vehicle_type_id":"4","last_reported":1742393386,"current_range_meters":8800,"station_id":"ce4bh192rcd13ifvqdb0","pricing_plan_id":"cebpf4jnsgd1na2vs0mg"},{"bike_id":"bfd67b10-fd7c-4b25-bc6e-0830b23c1f4b","system_id":"levelo_inurba_marseille","lat":43.25831,"lon":5.39423,"is_reserved":false,"is_disabled":false,"rental_uris":{"android":"levelo://app?vid=bfd67b10-fd7c-4b25-bc6e-0830b23c1f4b","ios":"levelo://app?vid=bfd67b10-fd7c-4b25-bc6e-0830b23c1f4b"},"vehicle_type_id":"4","last_reported":1742393386,"current_range_meters":8800,"station_id":"ce4bhip2rcd13ifvqft0","pricing_plan_id":"cebpf4jnsgd1na2vs0mg"},{"bike_id":"ed32af05-a93a-40af-b3e3-3171404acc80","system_id":"levelo_inurba_marseille","lat":43.27377,"lon":5.36263,"is_reserved":false,"is_disabled":false,"rental_uris":{"android":"levelo://app?vid=ed32af05-a93a-40af-b3e3-3171404acc80","ios":"levelo://app?vid=ed32af05-a93a-40af-b3e3-3171404acc80"},"vehicle_type_id":"4","last_reported":1742393386,"current_range_meters":8800,"station_id":"ce4bhbh2rcd13ifvqeo0","pricing_plan_id":"cebpf4jnsgd1na2vs0mg"},{"bike_id":"64fb575f-82f0-4c24-885c-2f347edae2e1","system_id":"levelo_inurba_marseille","lat":43.29624,"lon":5.37153,"is_reserved":false,"is_disabled":false,"rental_uris":{"android":"levelo://app?vid=64fb575f-82f0-4c24-885c-2f347edae2e1","ios":"levelo://app?vid=64fb575f-82f0-4c24-885c-2f347edae2e1"},"vehicle_type_id":"4","last_reported":1742393386,"current_range_meters":8800,"station_id":"ce4bgnh2rcd13ifvqc0g","pricing_plan_id":"cebpf4jnsgd1na2vs0mg"},{"bike_id":"61e9fd90-e9dd-462d-a9bd-1aa2307b7287","system_id":"levelo_inurba_marseille","lat":43.23145,"lon":5.43717,"is_reserved":false,"is_disabled":false,"rental_uris":{"android":"levelo://app?vid=61e9fd90-e9dd-462d-a9bd-1aa2307b7287","ios":"levelo://app?vid=61e9fd90-e9dd-462d-a9bd-1aa2307b7287"},"vehicle_type_id":"4","last_reported":1742393386,"current_range_meters":8800,"station_id":"ce4bhmp2rcd13ifvqgog","pricing_plan_id":"cebpf4jnsgd1na2vs0mg"},{"bike_id":"a0c96000-7f22-4dce-9ba6-3a07fc369b34","system_id":"levelo_inurba_marseille","lat":43.27075,"lon":5.40257,"is_reserved":false,"is_disabled":false,"rental_uris":{"android":"levelo://app?vid=a0c96000-7f22-4dce-9ba6-3a07fc369b34","ios":"levelo://app?vid=a0c96000-7f22-4dce-9ba6-3a07fc369b34"},"vehicle_type_id":"4","last_reported":1742393386,"current_range_meters":8800,"station_id":"ce4bhk92rcd13ifvqgc0","pricing_plan_id":"cebpf4jnsgd1na2vs0mg"},{"bike_id":"73775d85-d06e-4705-b3d6-611dd3926542","system_id":"levelo_inurba_marseille","lat":43.25934,"lon":5.40914,"is_reserved":false,"is_disabled":false,"rental_uris":{"android":"levelo://app?vid=73775d85-d06e-4705-b3d6-611dd3926542","ios":"levelo://app?vid=73775d85-d06e-4705-b3d6-611dd3926542"},"vehicle_type_id":"4","last_reported":1742393386,"current_range_meters":8800,"station_id":"ce4bhm92rcd13ifvqglg","pricing_plan_id":"cebpf4jnsgd1na2vs0mg"},{"bike_id":"c88fbe28-9402-4ce3-9d2b-7ab1e41f63e4","system_id":"levelo_inurba_marseille","lat":43.27633,"lon":5.36118,"is_reserved":false,"is_disabled":false,"rental_uris":{"android":"levelo://app?vid=c88fbe28-9402-4ce3-9d2b-7ab1e41f63e4","ios":"levelo://app?vid=c88fbe28-9402-4ce3-9d2b-7ab1e41f63e4"},"vehicle_type_id":"4","last_reported":1742393386,"current_range_meters":8800,"station_id":"ce4bgj92rcd13ifvqbe0","pricing_plan_id":"cebpf4jnsgd1na2vs0mg"},{"bike_id":"0e3aa945-92d0-4db5-abc8-664d34b79485","system_id":"levelo_inurba_marseille","lat":43.29282,"lon":5.36854,"is_reserved":false,"is_disabled":false,"rental_uris":{"android":"levelo://app?vid=0e3aa945-92d0-4db5-abc8-664d34b79485","ios":"levelo://app?vid=0e3aa945-92d0-4db5-abc8-664d34b79485"},"vehicle_type_id":"4","last_reported":1742393386,"current_range_meters":8800,"station_id":"ce4bhbp2rcd13ifvqesg","pricing_plan_id":"cebpf4jnsgd1na2vs0mg"},{"bike_id":"0c6d7c82-cc52-4b2b-935b-869a5f1a52b5","system_id":"levelo_inurba_marseille","lat":43.30418,"lon":5.41287,"is_reserved":false,"is_disabled":false,"rental_uris":{"android":"levelo://app?vid=0c6d7c82-cc52-4b2b-935b-869a5f1a52b5","ios":"levelo://app?vid=0c6d7c82-cc52-4b2b-935b-869a5f1a52b5"},"vehicle_type_id":"4","last_reported":1742393386,"current_range_meters":8800,"station_id":"ce4bhop2rcd13ifvqh8g","pricing_plan_id":"cebpf4jnsgd1na2vs0mg"},{"bike_id":"4af30189-94be-48ce-a528-0780bcce0809","system_id":"levelo_inurba_marseille","lat":43.23153,"lon":5.43721,"is_reserved":false,"is_disabled":false,"rental_uris":{"android":"levelo://app?vid=4af30189-94be-48ce-a528-0780bcce0809","ios":"levelo://app?vid=4af30189-94be-48ce-a528-0780bcce0809"},"vehicle_type_id":"4","last_reported":1742393386,"current_range_meters":8800,"station_id":"ce4bhmp2rcd13ifvqgog","pricing_plan_id":"cebpf4jnsgd1na2vs0mg"},{"bike_id":"45233882-6a89-4b02-addd-28d39958200a","system_id":"levelo_inurba_marseille","lat":43.32362,"lon":5.36775,"is_reserved":false,"is_disabled":false,"rental_uris":{"android":"levelo://app?vid=45233882-6a89-4b02-addd-28d39958200a","ios":"levelo://app?vid=45233882-6a89-4b02-addd-28d39958200a"},"vehicle_type_id":"4","last_reported":1742393386,"current_range_meters":9200,"station_id":"ce4bhsh2rcd13ifvqi2g","pricing_plan_id":"cebpf4jnsgd1na2vs0mg"},{"bike_id":"0f19dc29-e735-4d34-8530-cf0e5c9a549f","system_id":"levelo_inurba_marseille","lat":43.292,"lon":5.39335,"is_reserved":false,"is_disabled":false,"rental_uris":{"android":"levelo://app?vid=0f19dc29-e735-4d34-8530-cf0e5c9a549f","ios":"levelo://app?vid=0f19dc29-e735-4d34-8530-cf0e5c9a549f"},"vehicle_type_id":"4","last_reported":1742393386,"current_range_meters":9200,"station_id":"ce4bh192rcd13ifvqdd0","pricing_plan_id":"cebpf4jnsgd1na2vs0mg"},{"bike_id":"25793b0d-d8a7-4fb7-bbd3-bb61178801a0","system_id":"levelo_inurba_marseille","lat":43.30997,"lon":5.37022,"is_reserved":false,"is_disabled":false,"rental_uris":{"android":"levelo://app?vid=25793b0d-d8a7-4fb7-bbd3-bb61178801a0","ios":"levelo://app?vid=25793b0d-d8a7-4fb7-bbd3-bb61178801a0"},"vehicle_type_id":"4","last_reported":1742393386,"current_range_meters":9200,"station_id":"","pricing_plan_id":"cebpf4jnsgd1na2vs0mg"},{"bike_id":"1902aec7-7338-4b8a-ba16-43665d61e079","system_id":"levelo_inurba_marseille","lat":43.22939,"lon":5.35372,"is_reserved":false,"is_disabled":false,"rental_uris":{"android":"levelo://app?vid=1902aec7-7338-4b8a-ba16-43665d61e079","ios":"levelo://app?vid=1902aec7-7338-4b8a-ba16-43665d61e079"},"vehicle_type_id":"4","last_reported":1742393386,"current_range_meters":9200,"station_id":"cpo3532slgdg3j2ikp40","pricing_plan_id":"cebpf4jnsgd1na2vs0mg"},{"bike_id":"deff264a-ccbf-4b5c-9709-0e3beccba827","system_id":"levelo_inurba_marseille","lat":43.30094,"lon":5.39072,"is_reserved":false,"is_disabled":false,"rental_uris":{"android":"levelo://app?vid=deff264a-ccbf-4b5c-9709-0e3beccba827","ios":"levelo://app?vid=deff264a-ccbf-4b5c-9709-0e3beccba827"},"vehicle_type_id":"4","last_reported":1742393386,"current_range_meters":9200,"station_id":"ce4bh192rcd13ifvqdb0","pricing_plan_id":"cebpf4jnsgd1na2vs0mg"},{"bike_id":"8abf66b0-4c7b-4a5b-9216-254c311cdf06","system_id":"levelo_inurba_marseille","lat":43.25592,"lon":5.38231,"is_reserved":false,"is_disabled":false,"rental_uris":{"android":"levelo://app?vid=8abf66b0-4c7b-4a5b-9216-254c311cdf06","ios":"levelo://app?vid=8abf66b0-4c7b-4a5b-9216-254c311cdf06"},"vehicle_type_id":"4","last_reported":1742393386,"current_range_meters":9200,"station_id":"ce4bhih2rcd13ifvqfs0","pricing_plan_id":"cebpf4jnsgd1na2vs0mg"},{"bike_id":"4cfeb880-dda1-4f41-bf01-d237570f0226","system_id":"levelo_inurba_marseille","lat":43.26234,"lon":5.40446,"is_reserved":false,"is_disabled":false,"rental_uris":{"android":"levelo://app?vid=4cfeb880-dda1-4f41-bf01-d237570f0226","ios":"levelo://app?vid=4cfeb880-dda1-4f41-bf01-d237570f0226"},"vehicle_type_id":"4","last_reported":1742393386,"current_range_meters":9200,"station_id":"ce4bhmh2rcd13ifvqgmg","pricing_plan_id":"cebpf4jnsgd1na2vs0mg"},{"bike_id":"5d9993dc-228b-4e98-a2f8-68003ecd6731","system_id":"levelo_inurba_marseille","lat":43.31364,"lon":5.3851,"is_reserved":false,"is_disabled":false,"rental_uris":{"android":"levelo://app?vid=5d9993dc-228b-4e98-a2f8-68003ecd6731","ios":"levelo://app?vid=5d9993dc-228b-4e98-a2f8-68003ecd6731"},"vehicle_type_id":"4","last_reported":1742393386,"current_range_meters":9200,"station_id":"ce4bgt92rcd13ifvqcf0","pricing_plan_id":"cebpf4jnsgd1na2vs0mg"},{"bike_id":"92b930a3-be4f-4bad-8f45-92b1dff65601","system_id":"levelo_inurba_marseille","lat":43.24675,"lon":5.38175,"is_reserved":false,"is_disabled":false,"rental_uris":{"android":"levelo://app?vid=92b930a3-be4f-4bad-8f45-92b1dff65601","ios":"levelo://app?vid=92b930a3-be4f-4bad-8f45-92b1dff65601"},"vehicle_type_id":"4","last_reported":1742393386,"current_range_meters":9200,"station_id":"ce4bhih2rcd13ifvqfr0","pricing_plan_id":"cebpf4jnsgd1na2vs0mg"},{"bike_id":"c2f4da44-a44d-44d2-8be6-51648ee37d7f","system_id":"levelo_inurba_marseille","lat":43.25021,"lon":5.38946,"is_reserved":false,"is_disabled":false,"rental_uris":{"android":"levelo://app?vid=c2f4da44-a44d-44d2-8be6-51648ee37d7f","ios":"levelo://app?vid=c2f4da44-a44d-44d2-8be6-51648ee37d7f"},"vehicle_type_id":"4","last_reported":1742393386,"current_range_meters":9200,"station_id":"ce4bhgp2rcd13ifvqfd0","pricing_plan_id":"cebpf4jnsgd1na2vs0mg"},{"bike_id":"ca5ec2af-d9c0-4bf6-a9d8-72576ec4b622","system_id":"levelo_inurba_marseille","lat":43.2793,"lon":5.39586,"is_reserved":false,"is_disabled":false,"rental_uris":{"android":"levelo://app?vid=ca5ec2af-d9c0-4bf6-a9d8-72576ec4b622","ios":"levelo://app?vid=ca5ec2af-d9c0-4bf6-a9d8-72576ec4b622"},"vehicle_type_id":"4","last_reported":1742393386,"current_range_meters":9600,"station_id":"ce4bhf92rcd13ifvqf40","pricing_plan_id":"cebpf4jnsgd1na2vs0mg"},{"bike_id":"e2f2ddd5-2c90-4bd5-9948-f6824751cb16","system_id":"levelo_inurba_marseille","lat":43.25582,"lon":5.3824,"is_reserved":false,"is_disabled":false,"rental_uris":{"android":"levelo://app?vid=e2f2ddd5-2c90-4bd5-9948-f6824751cb16","ios":"levelo://app?vid=e2f2ddd5-2c90-4bd5-9948-f6824751cb16"},"vehicle_type_id":"4","last_reported":1742393386,"current_range_meters":9600,"station_id":"ce4bhih2rcd13ifvqfs0","pricing_plan_id":"cebpf4jnsgd1na2vs0mg"},{"bike_id":"505c6e85-22bf-4dc4-a762-e1ff9b054e2b","system_id":"levelo_inurba_marseille","lat":43.23147,"lon":5.43729,"is_reserved":false,"is_disabled":false,"rental_uris":{"android":"levelo://app?vid=505c6e85-22bf-4dc4-a762-e1ff9b054e2b","ios":"levelo://app?vid=505c6e85-22bf-4dc4-a762-e1ff9b054e2b"},"vehicle_type_id":"4","last_reported":1742393386,"current_range_meters":9600,"station_id":"ce4bhmp2rcd13ifvqgog","pricing_plan_id":"cebpf4jnsgd1na2vs0mg"},{"bike_id":"ebd45e7b-1c45-4b94-a31a-e5fdc9535d41","system_id":"levelo_inurba_marseille","lat":43.23972,"lon":5.3663,"is_reserved":false,"is_disabled":false,"rental_uris":{"android":"levelo://app?vid=ebd45e7b-1c45-4b94-a31a-e5fdc9535d41","ios":"levelo://app?vid=ebd45e7b-1c45-4b94-a31a-e5fdc9535d41"},"vehicle_type_id":"4","last_reported":1742393386,"current_range_meters":9600,"station_id":"ce4bhi12rcd13ifvqfp0","pricing_plan_id":"cebpf4jnsgd1na2vs0mg"},{"bike_id":"f9ff2843-6a11-4e3b-9e65-9998fbe82454","system_id":"levelo_inurba_marseille","lat":43.25118,"lon":5.40324,"is_reserved":false,"is_disabled":false,"rental_uris":{"android":"levelo://app?vid=f9ff2843-6a11-4e3b-9e65-9998fbe82454","ios":"levelo://app?vid=f9ff2843-6a11-4e3b-9e65-9998fbe82454"},"vehicle_type_id":"4","last_reported":1742393386,"current_range_meters":9600,"station_id":"ce4bhlh2rcd13ifvqgig","pricing_plan_id":"cebpf4jnsgd1na2vs0mg"},{"bike_id":"fc2e2255-3f2a-4eed-b8ca-72273a9cde79","system_id":"levelo_inurba_marseille","lat":43.29914,"lon":5.3746,"is_reserved":false,"is_disabled":false,"rental_uris":{"android":"levelo://app?vid=fc2e2255-3f2a-4eed-b8ca-72273a9cde79","ios":"levelo://app?vid=fc2e2255-3f2a-4eed-b8ca-72273a9cde79"},"vehicle_type_id":"4","last_reported":1742393386,"current_range_meters":9600,"station_id":"ce4bgjh2rcd13ifvqbg0","pricing_plan_id":"cebpf4jnsgd1na2vs0mg"},{"bike_id":"510e61b2-8f20-408a-8746-b650439b8bff","system_id":"levelo_inurba_marseille","lat":43.30552,"lon":5.36533,"is_reserved":false,"is_disabled":false,"rental_uris":{"android":"levelo://app?vid=510e61b2-8f20-408a-8746-b650439b8bff","ios":"levelo://app?vid=510e61b2-8f20-408a-8746-b650439b8bff"},"vehicle_type_id":"4","last_reported":1742393386,"current_range_meters":9600,"station_id":"ce4bgs12rcd13ifvqcag","pricing_plan_id":"cebpf4jnsgd1na2vs0mg"},{"bike_id":"fbbb82e8-492a-46e1-9e76-e7e458e0605d","system_id":"levelo_inurba_marseille","lat":43.29431,"lon":5.38621,"is_reserved":false,"is_disabled":false,"rental_uris":{"android":"levelo://app?vid=fbbb82e8-492a-46e1-9e76-e7e458e0605d","ios":"levelo://app?vid=fbbb82e8-492a-46e1-9e76-e7e458e0605d"},"vehicle_type_id":"4","last_reported":1742393386,"current_range_meters":9600,"station_id":"ce4bh2h2rcd13ifvqdh0","pricing_plan_id":"cebpf4jnsgd1na2vs0mg"},{"bike_id":"5917bcc2-33b5-4e37-b8eb-c4993c652a01","system_id":"levelo_inurba_marseille","lat":43.29257,"lon":5.40901,"is_reserved":false,"is_disabled":false,"rental_uris":{"android":"levelo://app?vid=5917bcc2-33b5-4e37-b8eb-c4993c652a01","ios":"levelo://app?vid=5917bcc2-33b5-4e37-b8eb-c4993c652a01"},"vehicle_type_id":"4","last_reported":1742393386,"current_range_meters":9600,"station_id":"ce4bh192rcd13ifvqdc0","pricing_plan_id":"cebpf4jnsgd1na2vs0mg"},{"bike_id":"21070c61-b170-4ace-98c6-b715b327d75d","system_id":"levelo_inurba_marseille","lat":43.24662,"lon":5.38905,"is_reserved":false,"is_disabled":false,"rental_uris":{"android":"levelo://app?vid=21070c61-b170-4ace-98c6-b715b327d75d","ios":"levelo://app?vid=21070c61-b170-4ace-98c6-b715b327d75d"},"vehicle_type_id":"4","last_reported":1742393386,"current_range_meters":9600,"station_id":"ce4bhg12rcd13ifvqf60","pricing_plan_id":"cebpf4jnsgd1na2vs0mg"},{"bike_id":"056c9455-af36-4790-b851-b2581cd69543","system_id":"levelo_inurba_marseille","lat":43.26229,"lon":5.40443,"is_reserved":false,"is_disabled":false,"rental_uris":{"android":"levelo://app?vid=056c9455-af36-4790-b851-b2581cd69543","ios":"levelo://app?vid=056c9455-af36-4790-b851-b2581cd69543"},"vehicle_type_id":"4","last_reported":1742393386,"current_range_meters":9600,"station_id":"ce4bhmh2rcd13ifvqgmg","pricing_plan_id":"cebpf4jnsgd1na2vs0mg"},{"bike_id":"b6516885-6b2a-4c3b-b46a-6df7fec02364","system_id":"levelo_inurba_marseille","lat":43.2594,"lon":5.40912,"is_reserved":false,"is_disabled":false,"rental_uris":{"android":"levelo://app?vid=b6516885-6b2a-4c3b-b46a-6df7fec02364","ios":"levelo://app?vid=b6516885-6b2a-4c3b-b46a-6df7fec02364"},"vehicle_type_id":"4","last_reported":1742393386,"current_range_meters":9600,"station_id":"ce4bhm92rcd13ifvqglg","pricing_plan_id":"cebpf4jnsgd1na2vs0mg"},{"bike_id":"d87b4a19-2415-4712-9093-718d78061875","system_id":"levelo_inurba_marseille","lat":43.27828,"lon":5.40726,"is_reserved":false,"is_disabled":false,"rental_uris":{"android":"levelo://app?vid=d87b4a19-2415-4712-9093-718d78061875","ios":"levelo://app?vid=d87b4a19-2415-4712-9093-718d78061875"},"vehicle_type_id":"4","last_reported":1742393386,"current_range_meters":9600,"station_id":"ce4bhnh2rcd13ifvqgtg","pricing_plan_id":"cebpf4jnsgd1na2vs0mg"},{"bike_id":"6196091d-2f66-404c-944d-c1d766955131","system_id":"levelo_inurba_marseille","lat":43.30614,"lon":5.37221,"is_reserved":false,"is_disabled":false,"rental_uris":{"android":"levelo://app?vid=6196091d-2f66-404c-944d-c1d766955131","ios":"levelo://app?vid=6196091d-2f66-404c-944d-c1d766955131"},"vehicle_type_id":"4","last_reported":1742393386,"current_range_meters":9600,"station_id":"ce4bgqh2rcd13ifvqc4g","pricing_plan_id":"cebpf4jnsgd1na2vs0mg"},{"bike_id":"e3c68d4a-306a-42f5-8a6d-274d0696b9c1","system_id":"levelo_inurba_marseille","lat":43.24547,"lon":5.39523,"is_reserved":false,"is_disabled":false,"rental_uris":{"android":"levelo://app?vid=e3c68d4a-306a-42f5-8a6d-274d0696b9c1","ios":"levelo://app?vid=e3c68d4a-306a-42f5-8a6d-274d0696b9c1"},"vehicle_type_id":"4","last_reported":1742393386,"current_range_meters":9600,"station_id":"ce4bhlp2rcd13ifvqgjg","pricing_plan_id":"cebpf4jnsgd1na2vs0mg"},{"bike_id":"97f132f3-f25e-4589-ad73-9c5a087e55dd","system_id":"levelo_inurba_marseille","lat":43.30159,"lon":5.38106,"is_reserved":false,"is_disabled":false,"rental_uris":{"android":"levelo://app?vid=97f132f3-f25e-4589-ad73-9c5a087e55dd","ios":"levelo://app?vid=97f132f3-f25e-4589-ad73-9c5a087e55dd"},"vehicle_type_id":"4","last_reported":1742393386,"current_range_meters":10000,"station_id":"ce4bgjp2rcd13ifvqbh0","pricing_plan_id":"cebpf4jnsgd1na2vs0mg"},{"bike_id":"2fc59438-bcd7-4fcb-af90-ed004623bdc8","system_id":"levelo_inurba_marseille","lat":43.26228,"lon":5.40454,"is_reserved":false,"is_disabled":false,"rental_uris":{"android":"levelo://app?vid=2fc59438-bcd7-4fcb-af90-ed004623bdc8","ios":"levelo://app?vid=2fc59438-bcd7-4fcb-af90-ed004623bdc8"},"vehicle_type_id":"4","last_reported":1742393386,"current_range_meters":10000,"station_id":"ce4bhmh2rcd13ifvqgmg","pricing_plan_id":"cebpf4jnsgd1na2vs0mg"},{"bike_id":"3455258b-4135-46b9-9a26-10bf95160e40","system_id":"levelo_inurba_marseille","lat":43.23191,"lon":5.35545,"is_reserved":false,"is_disabled":false,"rental_uris":{"android":"levelo://app?vid=3455258b-4135-46b9-9a26-10bf95160e40","ios":"levelo://app?vid=3455258b-4135-46b9-9a26-10bf95160e40"},"vehicle_type_id":"4","last_reported":1742393386,"current_range_meters":10000,"station_id":"ce4bhu92rcd13ifvqi70","pricing_plan_id":"cebpf4jnsgd1na2vs0mg"},{"bike_id":"b3ab2806-f410-4cce-8b04-fb1a4b877921","system_id":"levelo_inurba_marseille","lat":43.24174,"lon":5.39741,"is_reserved":false,"is_disabled":false,"rental_uris":{"android":"levelo://app?vid=b3ab2806-f410-4cce-8b04-fb1a4b877921","ios":"levelo://app?vid=b3ab2806-f410-4cce-8b04-fb1a4b877921"},"vehicle_type_id":"4","last_reported":1742393386,"current_range_meters":10000,"station_id":"ce4bhn12rcd13ifvqgpg","pricing_plan_id":"cebpf4jnsgd1na2vs0mg"},{"bike_id":"8cf8f2d1-cd7e-4a3e-a6fe-fc7af9ab3241","system_id":"levelo_inurba_marseille","lat":43.29563,"lon":5.42286,"is_reserved":false,"is_disabled":false,"rental_uris":{"android":"levelo://app?vid=8cf8f2d1-cd7e-4a3e-a6fe-fc7af9ab3241","ios":"levelo://app?vid=8cf8f2d1-cd7e-4a3e-a6fe-fc7af9ab3241"},"vehicle_type_id":"4","last_reported":1742393386,"current_range_meters":10000,"station_id":"ce4bhph2rcd13ifvqhdg","pricing_plan_id":"cebpf4jnsgd1na2vs0mg"},{"bike_id":"e38859b9-7d5e-49c3-9fd9-7325330d234c","system_id":"levelo_inurba_marseille","lat":43.31362,"lon":5.38497,"is_reserved":false,"is_disabled":false,"rental_uris":{"android":"levelo://app?vid=e38859b9-7d5e-49c3-9fd9-7325330d234c","ios":"levelo://app?vid=e38859b9-7d5e-49c3-9fd9-7325330d234c"},"vehicle_type_id":"4","last_reported":1742393386,"current_range_meters":10000,"station_id":"ce4bgt92rcd13ifvqcf0","pricing_plan_id":"cebpf4jnsgd1na2vs0mg"},{"bike_id":"34490763-ee36-4943-b2a4-b7d3b99138d6","system_id":"levelo_inurba_marseille","lat":43.29939,"lon":5.36492,"is_reserved":false,"is_disabled":false,"rental_uris":{"android":"levelo://app?vid=34490763-ee36-4943-b2a4-b7d3b99138d6","ios":"levelo://app?vid=34490763-ee36-4943-b2a4-b7d3b99138d6"},"vehicle_type_id":"4","last_reported":1742393386,"current_range_meters":10000,"station_id":"ce4bgm92rcd13ifvqbr0","pricing_plan_id":"cebpf4jnsgd1na2vs0mg"},{"bike_id":"5c9a89ce-6c19-4ca3-9156-7fa10f16eaa9","system_id":"levelo_inurba_marseille","lat":43.32113,"lon":5.36786,"is_reserved":false,"is_disabled":false,"rental_uris":{"android":"levelo://app?vid=5c9a89ce-6c19-4ca3-9156-7fa10f16eaa9","ios":"levelo://app?vid=5c9a89ce-6c19-4ca3-9156-7fa10f16eaa9"},"vehicle_type_id":"4","last_reported":1742393386,"current_range_meters":10800,"station_id":"ce4bhrh2rcd13ifvqhug","pricing_plan_id":"cebpf4jnsgd1na2vs0mg"},{"bike_id":"ed349cec-071a-469b-b44f-b6e29de531f0","system_id":"levelo_inurba_marseille","lat":43.2418,"lon":5.39724,"is_reserved":false,"is_disabled":false,"rental_uris":{"android":"levelo://app?vid=ed349cec-071a-469b-b44f-b6e29de531f0","ios":"levelo://app?vid=ed349cec-071a-469b-b44f-b6e29de531f0"},"vehicle_type_id":"4","last_reported":1742393386,"current_range_meters":10800,"station_id":"ce4bhn12rcd13ifvqgpg","pricing_plan_id":"cebpf4jnsgd1na2vs0mg"},{"bike_id":"6fd20e8a-d75b-419b-803c-29c8df791be2","system_id":"levelo_inurba_marseille","lat":43.29043,"lon":5.37748,"is_reserved":false,"is_disabled":false,"rental_uris":{"android":"levelo://app?vid=6fd20e8a-d75b-419b-803c-29c8df791be2","ios":"levelo://app?vid=6fd20e8a-d75b-419b-803c-29c8df791be2"},"vehicle_type_id":"4","last_reported":1742393386,"current_range_meters":10800,"station_id":"ce4bh9p2rcd13ifvqed0","pricing_plan_id":"cebpf4jnsgd1na2vs0mg"},{"bike_id":"cd6f1262-06b9-4383-8718-dbf3ba4fd41e","system_id":"levelo_inurba_marseille","lat":43.26225,"lon":5.40455,"is_reserved":false,"is_disabled":false,"rental_uris":{"android":"levelo://app?vid=cd6f1262-06b9-4383-8718-dbf3ba4fd41e","ios":"levelo://app?vid=cd6f1262-06b9-4383-8718-dbf3ba4fd41e"},"vehicle_type_id":"4","last_reported":1742393386,"current_range_meters":10800,"station_id":"ce4bhmh2rcd13ifvqgmg","pricing_plan_id":"cebpf4jnsgd1na2vs0mg"},{"bike_id":"e4d45dd0-64e1-438b-960f-23bacc6e4e06","system_id":"levelo_inurba_marseille","lat":43.23152,"lon":5.43723,"is_reserved":false,"is_disabled":false,"rental_uris":{"android":"levelo://app?vid=e4d45dd0-64e1-438b-960f-23bacc6e4e06","ios":"levelo://app?vid=e4d45dd0-64e1-438b-960f-23bacc6e4e06"},"vehicle_type_id":"4","last_reported":1742393386,"current_range_meters":10800,"station_id":"ce4bhmp2rcd13ifvqgog","pricing_plan_id":"cebpf4jnsgd1na2vs0mg"},{"bike_id":"fcdee2a0-0495-44d6-8486-fb7d2c7c0353","system_id":"levelo_inurba_marseille","lat":43.28945,"lon":5.36652,"is_reserved":false,"is_disabled":false,"rental_uris":{"android":"levelo://app?vid=fcdee2a0-0495-44d6-8486-fb7d2c7c0353","ios":"levelo://app?vid=fcdee2a0-0495-44d6-8486-fb7d2c7c0353"},"vehicle_type_id":"4","last_reported":1742393386,"current_range_meters":10800,"station_id":"ce4bhap2rcd13ifvqek0","pricing_plan_id":"cebpf4jnsgd1na2vs0mg"},{"bike_id":"5fcb8309-0208-48b4-b28d-ff6e405d3efe","system_id":"levelo_inurba_marseille","lat":43.25016,"lon":5.38924,"is_reserved":false,"is_disabled":false,"rental_uris":{"android":"levelo://app?vid=5fcb8309-0208-48b4-b28d-ff6e405d3efe","ios":"levelo://app?vid=5fcb8309-0208-48b4-b28d-ff6e405d3efe"},"vehicle_type_id":"4","last_reported":1742393386,"current_range_meters":10800,"station_id":"ce4bhgp2rcd13ifvqfd0","pricing_plan_id":"cebpf4jnsgd1na2vs0mg"},{"bike_id":"6e2a22a0-887c-49e7-bfe8-1b4aa03e0e2f","system_id":"levelo_inurba_marseille","lat":43.23154,"lon":5.43721,"is_reserved":false,"is_disabled":false,"rental_uris":{"android":"levelo://app?vid=6e2a22a0-887c-49e7-bfe8-1b4aa03e0e2f","ios":"levelo://app?vid=6e2a22a0-887c-49e7-bfe8-1b4aa03e0e2f"},"vehicle_type_id":"4","last_reported":1742393386,"current_range_meters":10800,"station_id":"ce4bhmp2rcd13ifvqgog","pricing_plan_id":"cebpf4jnsgd1na2vs0mg"},{"bike_id":"ac7a98a5-fb6e-4fb0-b485-bf5d121721b9","system_id":"levelo_inurba_marseille","lat":43.32645,"lon":5.40975,"is_reserved":false,"is_disabled":false,"rental_uris":{"android":"levelo://app?vid=ac7a98a5-fb6e-4fb0-b485-bf5d121721b9","ios":"levelo://app?vid=ac7a98a5-fb6e-4fb0-b485-bf5d121721b9"},"vehicle_type_id":"4","last_reported":1742393386,"current_range_meters":10800,"station_id":"ce4bhpp2rcd13ifvqhgg","pricing_plan_id":"cebpf4jnsgd1na2vs0mg"},{"bike_id":"7b660f94-53f2-4ea2-ac2b-9a7c88505f64","system_id":"levelo_inurba_marseille","lat":43.25936,"lon":5.40906,"is_reserved":false,"is_disabled":false,"rental_uris":{"android":"levelo://app?vid=7b660f94-53f2-4ea2-ac2b-9a7c88505f64","ios":"levelo://app?vid=7b660f94-53f2-4ea2-ac2b-9a7c88505f64"},"vehicle_type_id":"4","last_reported":1742393386,"current_range_meters":10800,"station_id":"ce4bhm92rcd13ifvqglg","pricing_plan_id":"cebpf4jnsgd1na2vs0mg"},{"bike_id":"bfe7ddc3-e6c7-4501-86b1-bf4541cdf352","system_id":"levelo_inurba_marseille","lat":43.25951,"lon":5.40899,"is_reserved":false,"is_disabled":false,"rental_uris":{"android":"levelo://app?vid=bfe7ddc3-e6c7-4501-86b1-bf4541cdf352","ios":"levelo://app?vid=bfe7ddc3-e6c7-4501-86b1-bf4541cdf352"},"vehicle_type_id":"4","last_reported":1742393386,"current_range_meters":10800,"station_id":"ce4bhm92rcd13ifvqglg","pricing_plan_id":"cebpf4jnsgd1na2vs0mg"},{"bike_id":"ee6c91ae-48e5-4aa7-bc90-dbfd5be48dab","system_id":"levelo_inurba_marseille","lat":43.26557,"lon":5.37292,"is_reserved":false,"is_disabled":false,"rental_uris":{"android":"levelo://app?vid=ee6c91ae-48e5-4aa7-bc90-dbfd5be48dab","ios":"levelo://app?vid=ee6c91ae-48e5-4aa7-bc90-dbfd5be48dab"},"vehicle_type_id":"4","last_reported":1742393386,"current_range_meters":10800,"station_id":"ce4bhg12rcd13ifvqf70","pricing_plan_id":"cebpf4jnsgd1na2vs0mg"},{"bike_id":"6138b640-3a79-45fe-b651-9195792b5201","system_id":"levelo_inurba_marseille","lat":43.23961,"lon":5.36649,"is_reserved":false,"is_disabled":false,"rental_uris":{"android":"levelo://app?vid=6138b640-3a79-45fe-b651-9195792b5201","ios":"levelo://app?vid=6138b640-3a79-45fe-b651-9195792b5201"},"vehicle_type_id":"4","last_reported":1742393386,"current_range_meters":10800,"station_id":"ce4bhi12rcd13ifvqfp0","pricing_plan_id":"cebpf4jnsgd1na2vs0mg"},{"bike_id":"8f3783b1-f0b0-438f-9763-e206be4f1898","system_id":"levelo_inurba_marseille","lat":43.34148,"lon":5.40908,"is_reserved":false,"is_disabled":false,"rental_uris":{"android":"levelo://app?vid=8f3783b1-f0b0-438f-9763-e206be4f1898","ios":"levelo://app?vid=8f3783b1-f0b0-438f-9763-e206be4f1898"},"vehicle_type_id":"4","last_reported":1742393386,"current_range_meters":10800,"station_id":"ce4bhqh2rcd13ifvqhlg","pricing_plan_id":"cebpf4jnsgd1na2vs0mg"},{"bike_id":"70b78bf4-b196-48e1-af24-4ad6dcd7bba6","system_id":"levelo_inurba_marseille","lat":43.29877,"lon":5.39755,"is_reserved":false,"is_disabled":false,"rental_uris":{"android":"levelo://app?vid=70b78bf4-b196-48e1-af24-4ad6dcd7bba6","ios":"levelo://app?vid=70b78bf4-b196-48e1-af24-4ad6dcd7bba6"},"vehicle_type_id":"4","last_reported":1742393386,"current_range_meters":10800,"station_id":"ce4bh0h2rcd13ifvqd50","pricing_plan_id":"cebpf4jnsgd1na2vs0mg"},{"bike_id":"b81f5100-48cd-484a-a38f-77673abf4225","system_id":"levelo_inurba_marseille","lat":43.28617,"lon":5.35108,"is_reserved":false,"is_disabled":false,"rental_uris":{"android":"levelo://app?vid=b81f5100-48cd-484a-a38f-77673abf4225","ios":"levelo://app?vid=b81f5100-48cd-484a-a38f-77673abf4225"},"vehicle_type_id":"4","last_reported":1742393386,"current_range_meters":10800,"station_id":"ce4bhch2rcd13ifvqeug","pricing_plan_id":"cebpf4jnsgd1na2vs0mg"},{"bike_id":"963a17fa-4222-4f93-b414-09c4cce8d25a","system_id":"levelo_inurba_marseille","lat":43.28424,"lon":5.38447,"is_reserved":false,"is_disabled":false,"rental_uris":{"android":"levelo://app?vid=963a17fa-4222-4f93-b414-09c4cce8d25a","ios":"levelo://app?vid=963a17fa-4222-4f93-b414-09c4cce8d25a"},"vehicle_type_id":"4","last_reported":1742393386,"current_range_meters":10800,"station_id":"","pricing_plan_id":"cebpf4jnsgd1na2vs0mg"},{"bike_id":"cdb30c14-fbe2-4f4c-baa2-736ad1d9d810","system_id":"levelo_inurba_marseille","lat":43.27944,"lon":5.41046,"is_reserved":false,"is_disabled":false,"rental_uris":{"android":"levelo://app?vid=cdb30c14-fbe2-4f4c-baa2-736ad1d9d810","ios":"levelo://app?vid=cdb30c14-fbe2-4f4c-baa2-736ad1d9d810"},"vehicle_type_id":"4","last_reported":1742393386,"current_range_meters":10800,"station_id":"ce4bhnp2rcd13ifvqh0g","pricing_plan_id":"cebpf4jnsgd1na2vs0mg"},{"bike_id":"6d966eda-5263-4c51-a7f3-c42f1e637aaa","system_id":"levelo_inurba_marseille","lat":43.25,"lon":5.38944,"is_reserved":false,"is_disabled":false,"rental_uris":{"android":"levelo://app?vid=6d966eda-5263-4c51-a7f3-c42f1e637aaa","ios":"levelo://app?vid=6d966eda-5263-4c51-a7f3-c42f1e637aaa"},"vehicle_type_id":"4","last_reported":1742393386,"current_range_meters":11200,"station_id":"ce4bhgp2rcd13ifvqfd0","pricing_plan_id":"cebpf4jnsgd1na2vs0mg"},{"bike_id":"582c1324-d5ba-4656-846c-51e7b3df15eb","system_id":"levelo_inurba_marseille","lat":43.28939,"lon":5.36635,"is_reserved":false,"is_disabled":false,"rental_uris":{"android":"levelo://app?vid=582c1324-d5ba-4656-846c-51e7b3df15eb","ios":"levelo://app?vid=582c1324-d5ba-4656-846c-51e7b3df15eb"},"vehicle_type_id":"4","last_reported":1742393386,"current_range_meters":11200,"station_id":"ce4bhap2rcd13ifvqek0","pricing_plan_id":"cebpf4jnsgd1na2vs0mg"},{"bike_id":"725ef1c9-4489-4462-90f0-d0856b8365d5","system_id":"levelo_inurba_marseille","lat":43.29925,"lon":5.36524,"is_reserved":false,"is_disabled":false,"rental_uris":{"android":"levelo://app?vid=725ef1c9-4489-4462-90f0-d0856b8365d5","ios":"levelo://app?vid=725ef1c9-4489-4462-90f0-d0856b8365d5"},"vehicle_type_id":"4","last_reported":1742393386,"current_range_meters":11200,"station_id":"ce4bgm92rcd13ifvqbr0","pricing_plan_id":"cebpf4jnsgd1na2vs0mg"},{"bike_id":"88ccd002-5cc7-4436-b03a-a5333eda4374","system_id":"levelo_inurba_marseille","lat":43.26692,"lon":5.38276,"is_reserved":false,"is_disabled":false,"rental_uris":{"android":"levelo://app?vid=88ccd002-5cc7-4436-b03a-a5333eda4374","ios":"levelo://app?vid=88ccd002-5cc7-4436-b03a-a5333eda4374"},"vehicle_type_id":"4","last_reported":1742393386,"current_range_meters":11200,"station_id":"ce4bhg92rcd13ifvqf90","pricing_plan_id":"cebpf4jnsgd1na2vs0mg"},{"bike_id":"9ce7ab4c-3f6f-4eec-8afd-bd593cf2874d","system_id":"levelo_inurba_marseille","lat":43.30434,"lon":5.3975,"is_reserved":false,"is_disabled":false,"rental_uris":{"android":"levelo://app?vid=9ce7ab4c-3f6f-4eec-8afd-bd593cf2874d","ios":"levelo://app?vid=9ce7ab4c-3f6f-4eec-8afd-bd593cf2874d"},"vehicle_type_id":"4","last_reported":1742393386,"current_range_meters":11200,"station_id":"ce4bh092rcd13ifvqd20","pricing_plan_id":"cebpf4jnsgd1na2vs0mg"},{"bike_id":"c6892f7a-5b52-41c2-9d16-c54806d22234","system_id":"levelo_inurba_marseille","lat":43.26502,"lon":5.39549,"is_reserved":false,"is_disabled":false,"rental_uris":{"android":"levelo://app?vid=c6892f7a-5b52-41c2-9d16-c54806d22234","ios":"levelo://app?vid=c6892f7a-5b52-41c2-9d16-c54806d22234"},"vehicle_type_id":"4","last_reported":1742393386,"current_range_meters":11200,"station_id":"ce4bhi12rcd13ifvqfq0","pricing_plan_id":"cebpf4jnsgd1na2vs0mg"},{"bike_id":"eb6ad15b-5d6f-4c9e-aca2-00662fed81a8","system_id":"levelo_inurba_marseille","lat":43.30544,"lon":5.36709,"is_reserved":false,"is_disabled":false,"rental_uris":{"android":"levelo://app?vid=eb6ad15b-5d6f-4c9e-aca2-00662fed81a8","ios":"levelo://app?vid=eb6ad15b-5d6f-4c9e-aca2-00662fed81a8"},"vehicle_type_id":"4","last_reported":1742393386,"current_range_meters":11200,"station_id":"ce4bgrp2rcd13ifvqc9g","pricing_plan_id":"cebpf4jnsgd1na2vs0mg"},{"bike_id":"75e8bee3-0a10-4522-9d7e-72ece2846129","system_id":"levelo_inurba_marseille","lat":43.33045,"lon":5.39061,"is_reserved":false,"is_disabled":false,"rental_uris":{"android":"levelo://app?vid=75e8bee3-0a10-4522-9d7e-72ece2846129","ios":"levelo://app?vid=75e8bee3-0a10-4522-9d7e-72ece2846129"},"vehicle_type_id":"4","last_reported":1742393386,"current_range_meters":11200,"station_id":"ce4bhr92rcd13ifvqhrg","pricing_plan_id":"cebpf4jnsgd1na2vs0mg"},{"bike_id":"e297b05e-1622-4fff-b634-6df57be28a76","system_id":"levelo_inurba_marseille","lat":43.28483,"lon":5.38558,"is_reserved":false,"is_disabled":false,"rental_uris":{"android":"levelo://app?vid=e297b05e-1622-4fff-b634-6df57be28a76","ios":"levelo://app?vid=e297b05e-1622-4fff-b634-6df57be28a76"},"vehicle_type_id":"4","last_reported":1742393386,"current_range_meters":11600,"station_id":"ce4bh8p2rcd13ifvqeb0","pricing_plan_id":"cebpf4jnsgd1na2vs0mg"},{"bike_id":"f1df6d1e-0c03-474f-bfb1-8814c23e889e","system_id":"levelo_inurba_marseille","lat":43.31707,"lon":5.43705,"is_reserved":false,"is_disabled":false,"rental_uris":{"android":"levelo://app?vid=f1df6d1e-0c03-474f-bfb1-8814c23e889e","ios":"levelo://app?vid=f1df6d1e-0c03-474f-bfb1-8814c23e889e"},"vehicle_type_id":"4","last_reported":1742393386,"current_range_meters":11600,"station_id":"ce4bhp92rcd13ifvqhcg","pricing_plan_id":"cebpf4jnsgd1na2vs0mg"},{"bike_id":"ee0f687c-08bb-4e36-98a2-e3de6b954481","system_id":"levelo_inurba_marseille","lat":43.24178,"lon":5.39744,"is_reserved":false,"is_disabled":false,"rental_uris":{"android":"levelo://app?vid=ee0f687c-08bb-4e36-98a2-e3de6b954481","ios":"levelo://app?vid=ee0f687c-08bb-4e36-98a2-e3de6b954481"},"vehicle_type_id":"4","last_reported":1742393386,"current_range_meters":11600,"station_id":"ce4bhn12rcd13ifvqgpg","pricing_plan_id":"cebpf4jnsgd1na2vs0mg"},{"bike_id":"02f43b01-3b74-45fa-a40e-2df823c84cda","system_id":"levelo_inurba_marseille","lat":43.24174,"lon":5.39673,"is_reserved":false,"is_disabled":false,"rental_uris":{"android":"levelo://app?vid=02f43b01-3b74-45fa-a40e-2df823c84cda","ios":"levelo://app?vid=02f43b01-3b74-45fa-a40e-2df823c84cda"},"vehicle_type_id":"4","last_reported":1742393386,"current_range_meters":11600,"station_id":"ce4bhn12rcd13ifvqgpg","pricing_plan_id":"cebpf4jnsgd1na2vs0mg"},{"bike_id":"4db03cb2-9ec6-47a8-bac6-403510877f28","system_id":"levelo_inurba_marseille","lat":43.310989,"lon":5.383748,"is_reserved":false,"is_disabled":false,"rental_uris":{"android":"levelo://app?vid=4db03cb2-9ec6-47a8-bac6-403510877f28","ios":"levelo://app?vid=4db03cb2-9ec6-47a8-bac6-403510877f28"},"vehicle_type_id":"4","last_reported":1742393386,"current_range_meters":12000,"station_id":"ce4bgh92rcd13ifvqb50","pricing_plan_id":"cebpf4jnsgd1na2vs0mg"},{"bike_id":"9d26c008-8ec1-4269-9cd2-f45774f03ccb","system_id":"levelo_inurba_marseille","lat":43.27946,"lon":5.37937,"is_reserved":false,"is_disabled":false,"rental_uris":{"android":"levelo://app?vid=9d26c008-8ec1-4269-9cd2-f45774f03ccb","ios":"levelo://app?vid=9d26c008-8ec1-4269-9cd2-f45774f03ccb"},"vehicle_type_id":"4","last_reported":1742393386,"current_range_meters":12000,"station_id":"","pricing_plan_id":"cebpf4jnsgd1na2vs0mg"},{"bike_id":"60e45b4a-67d2-43b9-a3d9-bbd9f4a7b61a","system_id":"levelo_inurba_marseille","lat":43.26794,"lon":5.39415,"is_reserved":false,"is_disabled":false,"rental_uris":{"android":"levelo://app?vid=60e45b4a-67d2-43b9-a3d9-bbd9f4a7b61a","ios":"levelo://app?vid=60e45b4a-67d2-43b9-a3d9-bbd9f4a7b61a"},"vehicle_type_id":"4","last_reported":1742393386,"current_range_meters":12000,"station_id":"ce4bhh12rcd13ifvqfg0","pricing_plan_id":"cebpf4jnsgd1na2vs0mg"},{"bike_id":"f6d7ec0c-12a9-4a56-84f0-6e30b0160de8","system_id":"levelo_inurba_marseille","lat":43.29248,"lon":5.37624,"is_reserved":false,"is_disabled":false,"rental_uris":{"android":"levelo://app?vid=f6d7ec0c-12a9-4a56-84f0-6e30b0160de8","ios":"levelo://app?vid=f6d7ec0c-12a9-4a56-84f0-6e30b0160de8"},"vehicle_type_id":"4","last_reported":1742393386,"current_range_meters":12400,"station_id":"ce4bgi12rcd13ifvqb80","pricing_plan_id":"cebpf4jnsgd1na2vs0mg"},{"bike_id":"6f2df44f-fcf2-434b-b02a-a1aaa7afe7bc","system_id":"levelo_inurba_marseille","lat":43.24179,"lon":5.39725,"is_reserved":false,"is_disabled":false,"rental_uris":{"android":"levelo://app?vid=6f2df44f-fcf2-434b-b02a-a1aaa7afe7bc","ios":"levelo://app?vid=6f2df44f-fcf2-434b-b02a-a1aaa7afe7bc"},"vehicle_type_id":"4","last_reported":1742393386,"current_range_meters":12400,"station_id":"ce4bhn12rcd13ifvqgpg","pricing_plan_id":"cebpf4jnsgd1na2vs0mg"},{"bike_id":"eba3d8e8-e851-47dc-8eb9-2b562e17e402","system_id":"levelo_inurba_marseille","lat":43.30265,"lon":5.37719,"is_reserved":false,"is_disabled":false,"rental_uris":{"android":"levelo://app?vid=eba3d8e8-e851-47dc-8eb9-2b562e17e402","ios":"levelo://app?vid=eba3d8e8-e851-47dc-8eb9-2b562e17e402"},"vehicle_type_id":"4","last_reported":1742393386,"current_range_meters":12400,"station_id":"ce4bguh2rcd13ifvqcj0","pricing_plan_id":"cebpf4jnsgd1na2vs0mg"},{"bike_id":"fdc1e8fd-545f-4a20-9993-56e4c053500b","system_id":"levelo_inurba_marseille","lat":43.25117,"lon":5.40329,"is_reserved":false,"is_disabled":false,"rental_uris":{"android":"levelo://app?vid=fdc1e8fd-545f-4a20-9993-56e4c053500b","ios":"levelo://app?vid=fdc1e8fd-545f-4a20-9993-56e4c053500b"},"vehicle_type_id":"4","last_reported":1742393386,"current_range_meters":12000,"station_id":"ce4bhlh2rcd13ifvqgig","pricing_plan_id":"cebpf4jnsgd1na2vs0mg"},{"bike_id":"daec0be6-00ee-42fc-bfd6-a5ef8456b0e8","system_id":"levelo_inurba_marseille","lat":43.30312,"lon":5.36911,"is_reserved":false,"is_disabled":false,"rental_uris":{"android":"levelo://app?vid=daec0be6-00ee-42fc-bfd6-a5ef8456b0e8","ios":"levelo://app?vid=daec0be6-00ee-42fc-bfd6-a5ef8456b0e8"},"vehicle_type_id":"4","last_reported":1742393386,"current_range_meters":12400,"station_id":"ce4bgqh2rcd13ifvqc5g","pricing_plan_id":"cebpf4jnsgd1na2vs0mg"},{"bike_id":"a3ae58ef-7951-4fce-9005-aaa79f89070c","system_id":"levelo_inurba_marseille","lat":43.31225,"lon":5.36878,"is_reserved":false,"is_disabled":false,"rental_uris":{"android":"levelo://app?vid=a3ae58ef-7951-4fce-9005-aaa79f89070c","ios":"levelo://app?vid=a3ae58ef-7951-4fce-9005-aaa79f89070c"},"vehicle_type_id":"4","last_reported":1742393386,"current_range_meters":12400,"station_id":"ce4bgl92rcd13ifvqbq0","pricing_plan_id":"cebpf4jnsgd1na2vs0mg"},{"bike_id":"176d2e0b-da43-4b98-b92e-b45d4ab12b2f","system_id":"levelo_inurba_marseille","lat":43.3022,"lon":5.38452,"is_reserved":false,"is_disabled":false,"rental_uris":{"android":"levelo://app?vid=176d2e0b-da43-4b98-b92e-b45d4ab12b2f","ios":"levelo://app?vid=176d2e0b-da43-4b98-b92e-b45d4ab12b2f"},"vehicle_type_id":"4","last_reported":1742393386,"current_range_meters":12400,"station_id":"","pricing_plan_id":"cebpf4jnsgd1na2vs0mg"},{"bike_id":"1b78901a-e3ff-4d99-bb3a-5535ec6ebc0d","system_id":"levelo_inurba_marseille","lat":43.2572,"lon":5.41088,"is_reserved":false,"is_disabled":false,"rental_uris":{"android":"levelo://app?vid=1b78901a-e3ff-4d99-bb3a-5535ec6ebc0d","ios":"levelo://app?vid=1b78901a-e3ff-4d99-bb3a-5535ec6ebc0d"},"vehicle_type_id":"4","last_reported":1742393386,"current_range_meters":12800,"station_id":"ce4bhkp2rcd13ifvqgd0","pricing_plan_id":"cebpf4jnsgd1na2vs0mg"},{"bike_id":"6cc3105f-200d-4a53-b63e-23af0913f914","system_id":"levelo_inurba_marseille","lat":43.29269,"lon":5.36855,"is_reserved":false,"is_disabled":false,"rental_uris":{"android":"levelo://app?vid=6cc3105f-200d-4a53-b63e-23af0913f914","ios":"levelo://app?vid=6cc3105f-200d-4a53-b63e-23af0913f914"},"vehicle_type_id":"4","last_reported":1742393386,"current_range_meters":12800,"station_id":"ce4bhbp2rcd13ifvqesg","pricing_plan_id":"cebpf4jnsgd1na2vs0mg"},{"bike_id":"fef789e4-3777-4feb-b0b8-ee311eabaec4","system_id":"levelo_inurba_marseille","lat":43.23153,"lon":5.43717,"is_reserved":false,"is_disabled":false,"rental_uris":{"android":"levelo://app?vid=fef789e4-3777-4feb-b0b8-ee311eabaec4","ios":"levelo://app?vid=fef789e4-3777-4feb-b0b8-ee311eabaec4"},"vehicle_type_id":"4","last_reported":1742393386,"current_range_meters":12800,"station_id":"ce4bhmp2rcd13ifvqgog","pricing_plan_id":"cebpf4jnsgd1na2vs0mg"},{"bike_id":"74be95ee-9576-4aab-8474-a33eb52af625","system_id":"levelo_inurba_marseille","lat":43.29943,"lon":5.3652,"is_reserved":false,"is_disabled":false,"rental_uris":{"android":"levelo://app?vid=74be95ee-9576-4aab-8474-a33eb52af625","ios":"levelo://app?vid=74be95ee-9576-4aab-8474-a33eb52af625"},"vehicle_type_id":"4","last_reported":1742393386,"current_range_meters":12800,"station_id":"ce4bgm92rcd13ifvqbr0","pricing_plan_id":"cebpf4jnsgd1na2vs0mg"},{"bike_id":"51c53a1f-d9b2-4078-b9b4-1b4401d85a39","system_id":"levelo_inurba_marseille","lat":43.30286,"lon":5.37696,"is_reserved":false,"is_disabled":false,"rental_uris":{"android":"levelo://app?vid=51c53a1f-d9b2-4078-b9b4-1b4401d85a39","ios":"levelo://app?vid=51c53a1f-d9b2-4078-b9b4-1b4401d85a39"},"vehicle_type_id":"4","last_reported":1742393386,"current_range_meters":12800,"station_id":"ce4bguh2rcd13ifvqcj0","pricing_plan_id":"cebpf4jnsgd1na2vs0mg"},{"bike_id":"bc1594f0-f23b-46fa-bccc-f3ff1c68a71d","system_id":"levelo_inurba_marseille","lat":43.25824,"lon":5.39442,"is_reserved":false,"is_disabled":false,"rental_uris":{"android":"levelo://app?vid=bc1594f0-f23b-46fa-bccc-f3ff1c68a71d","ios":"levelo://app?vid=bc1594f0-f23b-46fa-bccc-f3ff1c68a71d"},"vehicle_type_id":"4","last_reported":1742393386,"current_range_meters":12800,"station_id":"ce4bhip2rcd13ifvqft0","pricing_plan_id":"cebpf4jnsgd1na2vs0mg"},{"bike_id":"b86d23cc-0ebb-4096-8455-1aa57635770c","system_id":"levelo_inurba_marseille","lat":43.27569,"lon":5.38427,"is_reserved":false,"is_disabled":false,"rental_uris":{"android":"levelo://app?vid=b86d23cc-0ebb-4096-8455-1aa57635770c","ios":"levelo://app?vid=b86d23cc-0ebb-4096-8455-1aa57635770c"},"vehicle_type_id":"4","last_reported":1742393386,"current_range_meters":12400,"station_id":"ce4bhh92rcd13ifvqfi0","pricing_plan_id":"cebpf4jnsgd1na2vs0mg"},{"bike_id":"78471c57-98d4-4462-917e-04b8fcb38fa2","system_id":"levelo_inurba_marseille","lat":43.29039,"lon":5.39969,"is_reserved":false,"is_disabled":false,"rental_uris":{"android":"levelo://app?vid=78471c57-98d4-4462-917e-04b8fcb38fa2","ios":"levelo://app?vid=78471c57-98d4-4462-917e-04b8fcb38fa2"},"vehicle_type_id":"4","last_reported":1742393386,"current_range_meters":18800,"station_id":"ce4bh392rcd13ifvqdm0","pricing_plan_id":"cebpf4jnsgd1na2vs0mg"},{"bike_id":"0998cf85-4c14-474d-9d92-118dcf9c73a7","system_id":"levelo_inurba_marseille","lat":43.30138,"lon":5.37406,"is_reserved":false,"is_disabled":false,"rental_uris":{"android":"levelo://app?vid=0998cf85-4c14-474d-9d92-118dcf9c73a7","ios":"levelo://app?vid=0998cf85-4c14-474d-9d92-118dcf9c73a7"},"vehicle_type_id":"4","last_reported":1742393386,"current_range_meters":12800,"station_id":"ce4bgs92rcd13ifvqcc0","pricing_plan_id":"cebpf4jnsgd1na2vs0mg"},{"bike_id":"270cc5da-5521-43c5-a898-7ea07c800e19","system_id":"levelo_inurba_marseille","lat":43.2587,"lon":5.39913,"is_reserved":false,"is_disabled":false,"rental_uris":{"android":"levelo://app?vid=270cc5da-5521-43c5-a898-7ea07c800e19","ios":"levelo://app?vid=270cc5da-5521-43c5-a898-7ea07c800e19"},"vehicle_type_id":"4","last_reported":1742393386,"current_range_meters":12400,"station_id":"ce4bhl92rcd13ifvqghg","pricing_plan_id":"cebpf4jnsgd1na2vs0mg"},{"bike_id":"e430fce9-9c98-4a88-9a0f-5912fcf33b04","system_id":"levelo_inurba_marseille","lat":43.29917,"lon":5.3747,"is_reserved":false,"is_disabled":false,"rental_uris":{"android":"levelo://app?vid=e430fce9-9c98-4a88-9a0f-5912fcf33b04","ios":"levelo://app?vid=e430fce9-9c98-4a88-9a0f-5912fcf33b04"},"vehicle_type_id":"4","last_reported":1742393386,"current_range_meters":12800,"station_id":"ce4bgjh2rcd13ifvqbg0","pricing_plan_id":"cebpf4jnsgd1na2vs0mg"},{"bike_id":"7c23dcb0-31a4-457d-8cd5-05a913c017d4","system_id":"levelo_inurba_marseille","lat":43.33046,"lon":5.39027,"is_reserved":false,"is_disabled":false,"rental_uris":{"android":"levelo://app?vid=7c23dcb0-31a4-457d-8cd5-05a913c017d4","ios":"levelo://app?vid=7c23dcb0-31a4-457d-8cd5-05a913c017d4"},"vehicle_type_id":"4","last_reported":1742393386,"current_range_meters":12800,"station_id":"ce4bhr92rcd13ifvqhrg","pricing_plan_id":"cebpf4jnsgd1na2vs0mg"},{"bike_id":"9a407e55-d314-42fc-8c32-c5b5dcba6239","system_id":"levelo_inurba_marseille","lat":43.26232,"lon":5.40464,"is_reserved":false,"is_disabled":false,"rental_uris":{"android":"levelo://app?vid=9a407e55-d314-42fc-8c32-c5b5dcba6239","ios":"levelo://app?vid=9a407e55-d314-42fc-8c32-c5b5dcba6239"},"vehicle_type_id":"4","last_reported":1742393386,"current_range_meters":13600,"station_id":"ce4bhmh2rcd13ifvqgmg","pricing_plan_id":"cebpf4jnsgd1na2vs0mg"},{"bike_id":"343d2dff-9dbc-45c7-a30b-8fd87719a708","system_id":"levelo_inurba_marseille","lat":43.28784,"lon":5.35954,"is_reserved":false,"is_disabled":false,"rental_uris":{"android":"levelo://app?vid=343d2dff-9dbc-45c7-a30b-8fd87719a708","ios":"levelo://app?vid=343d2dff-9dbc-45c7-a30b-8fd87719a708"},"vehicle_type_id":"4","last_reported":1742393386,"current_range_meters":13600,"station_id":"ce4bhb12rcd13ifvqem0","pricing_plan_id":"cebpf4jnsgd1na2vs0mg"},{"bike_id":"ee7f4835-ce05-4957-8ed7-f1f93704d544","system_id":"levelo_inurba_marseille","lat":43.29881,"lon":5.38907,"is_reserved":false,"is_disabled":false,"rental_uris":{"android":"levelo://app?vid=ee7f4835-ce05-4957-8ed7-f1f93704d544","ios":"levelo://app?vid=ee7f4835-ce05-4957-8ed7-f1f93704d544"},"vehicle_type_id":"4","last_reported":1742393386,"current_range_meters":13600,"station_id":"ce4bh392rcd13ifvqdl0","pricing_plan_id":"cebpf4jnsgd1na2vs0mg"},{"bike_id":"0d6bb2cb-1340-46f1-970f-eef0691d43d5","system_id":"levelo_inurba_marseille","lat":43.28619,"lon":5.35109,"is_reserved":false,"is_disabled":false,"rental_uris":{"android":"levelo://app?vid=0d6bb2cb-1340-46f1-970f-eef0691d43d5","ios":"levelo://app?vid=0d6bb2cb-1340-46f1-970f-eef0691d43d5"},"vehicle_type_id":"4","last_reported":1742393386,"current_range_meters":13600,"station_id":"ce4bhch2rcd13ifvqeug","pricing_plan_id":"cebpf4jnsgd1na2vs0mg"},{"bike_id":"3d6e5bb2-49a5-4ae9-ac7c-7c3250491a49","system_id":"levelo_inurba_marseille","lat":43.28863,"lon":5.35957,"is_reserved":false,"is_disabled":false,"rental_uris":{"android":"levelo://app?vid=3d6e5bb2-49a5-4ae9-ac7c-7c3250491a49","ios":"levelo://app?vid=3d6e5bb2-49a5-4ae9-ac7c-7c3250491a49"},"vehicle_type_id":"4","last_reported":1742393386,"current_range_meters":13600,"station_id":"","pricing_plan_id":"cebpf4jnsgd1na2vs0mg"},{"bike_id":"471b8c1a-1a85-4080-b533-fb41f3dbfd81","system_id":"levelo_inurba_marseille","lat":43.23206,"lon":5.35564,"is_reserved":false,"is_disabled":false,"rental_uris":{"android":"levelo://app?vid=471b8c1a-1a85-4080-b533-fb41f3dbfd81","ios":"levelo://app?vid=471b8c1a-1a85-4080-b533-fb41f3dbfd81"},"vehicle_type_id":"4","last_reported":1742393386,"current_range_meters":13600,"station_id":"ce4bhu92rcd13ifvqi70","pricing_plan_id":"cebpf4jnsgd1na2vs0mg"},{"bike_id":"671210b1-9e8f-4893-953f-985ab8b97e34","system_id":"levelo_inurba_marseille","lat":43.32102,"lon":5.36785,"is_reserved":false,"is_disabled":false,"rental_uris":{"android":"levelo://app?vid=671210b1-9e8f-4893-953f-985ab8b97e34","ios":"levelo://app?vid=671210b1-9e8f-4893-953f-985ab8b97e34"},"vehicle_type_id":"4","last_reported":1742393386,"current_range_meters":13600,"station_id":"ce4bhrh2rcd13ifvqhug","pricing_plan_id":"cebpf4jnsgd1na2vs0mg"},{"bike_id":"1e096a21-9296-4ea4-ad05-342ac819913b","system_id":"levelo_inurba_marseille","lat":43.26687,"lon":5.38273,"is_reserved":false,"is_disabled":false,"rental_uris":{"android":"levelo://app?vid=1e096a21-9296-4ea4-ad05-342ac819913b","ios":"levelo://app?vid=1e096a21-9296-4ea4-ad05-342ac819913b"},"vehicle_type_id":"4","last_reported":1742393386,"current_range_meters":13600,"station_id":"ce4bhg92rcd13ifvqf90","pricing_plan_id":"cebpf4jnsgd1na2vs0mg"},{"bike_id":"28bbdd79-d689-4851-9a20-b1f2b3680a25","system_id":"levelo_inurba_marseille","lat":43.31763,"lon":5.39016,"is_reserved":false,"is_disabled":false,"rental_uris":{"android":"levelo://app?vid=28bbdd79-d689-4851-9a20-b1f2b3680a25","ios":"levelo://app?vid=28bbdd79-d689-4851-9a20-b1f2b3680a25"},"vehicle_type_id":"4","last_reported":1742393386,"current_range_meters":14000,"station_id":"ce4bhqp2rcd13ifvqhng","pricing_plan_id":"cebpf4jnsgd1na2vs0mg"},{"bike_id":"6c7e51d2-e2f9-4032-b4ac-95afc513e72e","system_id":"levelo_inurba_marseille","lat":43.27373,"lon":5.36258,"is_reserved":false,"is_disabled":false,"rental_uris":{"android":"levelo://app?vid=6c7e51d2-e2f9-4032-b4ac-95afc513e72e","ios":"levelo://app?vid=6c7e51d2-e2f9-4032-b4ac-95afc513e72e"},"vehicle_type_id":"4","last_reported":1742393386,"current_range_meters":14000,"station_id":"ce4bhbh2rcd13ifvqeo0","pricing_plan_id":"cebpf4jnsgd1na2vs0mg"},{"bike_id":"256d0495-a89f-4577-a11d-07c4b587cd91","system_id":"levelo_inurba_marseille","lat":43.30322,"lon":5.36912,"is_reserved":false,"is_disabled":false,"rental_uris":{"android":"levelo://app?vid=256d0495-a89f-4577-a11d-07c4b587cd91","ios":"levelo://app?vid=256d0495-a89f-4577-a11d-07c4b587cd91"},"vehicle_type_id":"4","last_reported":1742393386,"current_range_meters":14000,"station_id":"ce4bgqh2rcd13ifvqc5g","pricing_plan_id":"cebpf4jnsgd1na2vs0mg"},{"bike_id":"5fd11fd2-8ac0-4c55-8dca-0ddaa7ba18d7","system_id":"levelo_inurba_marseille","lat":43.303485,"lon":5.385893,"is_reserved":false,"is_disabled":false,"rental_uris":{"android":"levelo://app?vid=5fd11fd2-8ac0-4c55-8dca-0ddaa7ba18d7","ios":"levelo://app?vid=5fd11fd2-8ac0-4c55-8dca-0ddaa7ba18d7"},"vehicle_type_id":"4","last_reported":1742393386,"current_range_meters":11200,"station_id":"ce4bgih2rcd13ifvqba0","pricing_plan_id":"cebpf4jnsgd1na2vs0mg"},{"bike_id":"f45c6f96-ea2e-451e-a4f9-aea5482dc86f","system_id":"levelo_inurba_marseille","lat":43.31763,"lon":5.39023,"is_reserved":false,"is_disabled":false,"rental_uris":{"android":"levelo://app?vid=f45c6f96-ea2e-451e-a4f9-aea5482dc86f","ios":"levelo://app?vid=f45c6f96-ea2e-451e-a4f9-aea5482dc86f"},"vehicle_type_id":"4","last_reported":1742393386,"current_range_meters":16000,"station_id":"ce4bhqp2rcd13ifvqhng","pricing_plan_id":"cebpf4jnsgd1na2vs0mg"},{"bike_id":"0af285be-0294-4c23-9728-cedd0c1ca6b2","system_id":"levelo_inurba_marseille","lat":43.23199,"lon":5.39986,"is_reserved":false,"is_disabled":false,"rental_uris":{"android":"levelo://app?vid=0af285be-0294-4c23-9728-cedd0c1ca6b2","ios":"levelo://app?vid=0af285be-0294-4c23-9728-cedd0c1ca6b2"},"vehicle_type_id":"4","last_reported":1742393386,"current_range_meters":14000,"station_id":"ce4bhn12rcd13ifvqgqg","pricing_plan_id":"cebpf4jnsgd1na2vs0mg"},{"bike_id":"c405ab68-223f-47db-99ed-c18c10d1f19e","system_id":"levelo_inurba_marseille","lat":43.28621,"lon":5.35107,"is_reserved":false,"is_disabled":false,"rental_uris":{"android":"levelo://app?vid=c405ab68-223f-47db-99ed-c18c10d1f19e","ios":"levelo://app?vid=c405ab68-223f-47db-99ed-c18c10d1f19e"},"vehicle_type_id":"4","last_reported":1742393386,"current_range_meters":14000,"station_id":"ce4bhch2rcd13ifvqeug","pricing_plan_id":"cebpf4jnsgd1na2vs0mg"},{"bike_id":"26d074f2-07a6-4463-ae1f-362662547a48","system_id":"levelo_inurba_marseille","lat":43.29282,"lon":5.36855,"is_reserved":false,"is_disabled":false,"rental_uris":{"android":"levelo://app?vid=26d074f2-07a6-4463-ae1f-362662547a48","ios":"levelo://app?vid=26d074f2-07a6-4463-ae1f-362662547a48"},"vehicle_type_id":"4","last_reported":1742393386,"current_range_meters":14400,"station_id":"ce4bhbp2rcd13ifvqesg","pricing_plan_id":"cebpf4jnsgd1na2vs0mg"},{"bike_id":"b229f66e-126c-431d-b3a9-3ca77a4d241b","system_id":"levelo_inurba_marseille","lat":43.29787,"lon":5.37104,"is_reserved":false,"is_disabled":false,"rental_uris":{"android":"levelo://app?vid=b229f66e-126c-431d-b3a9-3ca77a4d241b","ios":"levelo://app?vid=b229f66e-126c-431d-b3a9-3ca77a4d241b"},"vehicle_type_id":"4","last_reported":1742393386,"current_range_meters":14400,"station_id":"ce4bgop2rcd13ifvqc1g","pricing_plan_id":"cebpf4jnsgd1na2vs0mg"},{"bike_id":"ce7893a3-63ad-4b7d-b041-404ffa45674c","system_id":"levelo_inurba_marseille","lat":43.25589,"lon":5.38229,"is_reserved":false,"is_disabled":false,"rental_uris":{"android":"levelo://app?vid=ce7893a3-63ad-4b7d-b041-404ffa45674c","ios":"levelo://app?vid=ce7893a3-63ad-4b7d-b041-404ffa45674c"},"vehicle_type_id":"4","last_reported":1742393386,"current_range_meters":10800,"station_id":"ce4bhih2rcd13ifvqfs0","pricing_plan_id":"cebpf4jnsgd1na2vs0mg"},{"bike_id":"7360e32b-c4f0-44ee-b553-8cf73d605ece","system_id":"levelo_inurba_marseille","lat":43.29609,"lon":5.38107,"is_reserved":false,"is_disabled":false,"rental_uris":{"android":"levelo://app?vid=7360e32b-c4f0-44ee-b553-8cf73d605ece","ios":"levelo://app?vid=7360e32b-c4f0-44ee-b553-8cf73d605ece"},"vehicle_type_id":"4","last_reported":1742393386,"current_range_meters":14400,"station_id":"ce4bgl12rcd13ifvqbo0","pricing_plan_id":"cebpf4jnsgd1na2vs0mg"},{"bike_id":"0d847fbd-0f2a-468b-8e52-023c28901252","system_id":"levelo_inurba_marseille","lat":43.31406,"lon":5.37591,"is_reserved":false,"is_disabled":false,"rental_uris":{"android":"levelo://app?vid=0d847fbd-0f2a-468b-8e52-023c28901252","ios":"levelo://app?vid=0d847fbd-0f2a-468b-8e52-023c28901252"},"vehicle_type_id":"4","last_reported":1742393386,"current_range_meters":14400,"station_id":"","pricing_plan_id":"cebpf4jnsgd1na2vs0mg"},{"bike_id":"59ba4ed5-0414-4ef3-92db-b54f2b430369","system_id":"levelo_inurba_marseille","lat":43.29103,"lon":5.38081,"is_reserved":false,"is_disabled":false,"rental_uris":{"android":"levelo://app?vid=59ba4ed5-0414-4ef3-92db-b54f2b430369","ios":"levelo://app?vid=59ba4ed5-0414-4ef3-92db-b54f2b430369"},"vehicle_type_id":"4","last_reported":1742393386,"current_range_meters":13600,"station_id":"ce4bgr92rcd13ifvqc7g","pricing_plan_id":"cebpf4jnsgd1na2vs0mg"},{"bike_id":"dd13021c-03fa-4966-b723-050a717e44b1","system_id":"levelo_inurba_marseille","lat":43.28463,"lon":5.35897,"is_reserved":false,"is_disabled":false,"rental_uris":{"android":"levelo://app?vid=dd13021c-03fa-4966-b723-050a717e44b1","ios":"levelo://app?vid=dd13021c-03fa-4966-b723-050a717e44b1"},"vehicle_type_id":"4","last_reported":1742393386,"current_range_meters":14400,"station_id":"ce4bhah2rcd13ifvqei0","pricing_plan_id":"cebpf4jnsgd1na2vs0mg"},{"bike_id":"bfbf7410-42ea-4a66-9547-31447ca72a1c","system_id":"levelo_inurba_marseille","lat":43.26824,"lon":5.39471,"is_reserved":false,"is_disabled":false,"rental_uris":{"android":"levelo://app?vid=bfbf7410-42ea-4a66-9547-31447ca72a1c","ios":"levelo://app?vid=bfbf7410-42ea-4a66-9547-31447ca72a1c"},"vehicle_type_id":"4","last_reported":1742393386,"current_range_meters":14000,"station_id":"ce4bhh12rcd13ifvqfg0","pricing_plan_id":"cebpf4jnsgd1na2vs0mg"},{"bike_id":"b099ad46-a8b2-448c-ab33-b6a0fc223af1","system_id":"levelo_inurba_marseille","lat":43.2993,"lon":5.37476,"is_reserved":false,"is_disabled":false,"rental_uris":{"android":"levelo://app?vid=b099ad46-a8b2-448c-ab33-b6a0fc223af1","ios":"levelo://app?vid=b099ad46-a8b2-448c-ab33-b6a0fc223af1"},"vehicle_type_id":"4","last_reported":1742393386,"current_range_meters":14400,"station_id":"ce4bgjh2rcd13ifvqbg0","pricing_plan_id":"cebpf4jnsgd1na2vs0mg"},{"bike_id":"f64a5e81-fc66-496f-80f7-bfcbf31d5f5d","system_id":"levelo_inurba_marseille","lat":43.2867,"lon":5.38676,"is_reserved":false,"is_disabled":false,"rental_uris":{"android":"levelo://app?vid=f64a5e81-fc66-496f-80f7-bfcbf31d5f5d","ios":"levelo://app?vid=f64a5e81-fc66-496f-80f7-bfcbf31d5f5d"},"vehicle_type_id":"4","last_reported":1742393386,"current_range_meters":14400,"station_id":"ce4bh492rcd13ifvqdug","pricing_plan_id":"cebpf4jnsgd1na2vs0mg"},{"bike_id":"d7645557-54c5-44ed-8c44-41e433a350da","system_id":"levelo_inurba_marseille","lat":43.2948,"lon":5.35575,"is_reserved":false,"is_disabled":false,"rental_uris":{"android":"levelo://app?vid=d7645557-54c5-44ed-8c44-41e433a350da","ios":"levelo://app?vid=d7645557-54c5-44ed-8c44-41e433a350da"},"vehicle_type_id":"4","last_reported":1742393386,"current_range_meters":14400,"station_id":"","pricing_plan_id":"cebpf4jnsgd1na2vs0mg"},{"bike_id":"d1eb9ecf-64f0-48b5-a5e4-e220bddfaeda","system_id":"levelo_inurba_marseille","lat":43.26935,"lon":5.38913,"is_reserved":false,"is_disabled":false,"rental_uris":{"android":"levelo://app?vid=d1eb9ecf-64f0-48b5-a5e4-e220bddfaeda","ios":"levelo://app?vid=d1eb9ecf-64f0-48b5-a5e4-e220bddfaeda"},"vehicle_type_id":"4","last_reported":1742393386,"current_range_meters":14800,"station_id":"ce4bhhh2rcd13ifvqfl0","pricing_plan_id":"cebpf4jnsgd1na2vs0mg"},{"bike_id":"973c0ebb-6773-40e0-972a-ac80c64d7bd2","system_id":"levelo_inurba_marseille","lat":43.26504,"lon":5.39561,"is_reserved":false,"is_disabled":false,"rental_uris":{"android":"levelo://app?vid=973c0ebb-6773-40e0-972a-ac80c64d7bd2","ios":"levelo://app?vid=973c0ebb-6773-40e0-972a-ac80c64d7bd2"},"vehicle_type_id":"4","last_reported":1742393386,"current_range_meters":14800,"station_id":"ce4bhi12rcd13ifvqfq0","pricing_plan_id":"cebpf4jnsgd1na2vs0mg"},{"bike_id":"fd78d565-e8af-4c6e-94e3-d92db15cedac","system_id":"levelo_inurba_marseille","lat":43.23173,"lon":5.43709,"is_reserved":false,"is_disabled":false,"rental_uris":{"android":"levelo://app?vid=fd78d565-e8af-4c6e-94e3-d92db15cedac","ios":"levelo://app?vid=fd78d565-e8af-4c6e-94e3-d92db15cedac"},"vehicle_type_id":"4","last_reported":1742393386,"current_range_meters":14400,"station_id":"ce4bhmp2rcd13ifvqgog","pricing_plan_id":"cebpf4jnsgd1na2vs0mg"},{"bike_id":"ec002e24-c687-430a-8a39-27191c416b77","system_id":"levelo_inurba_marseille","lat":43.30941,"lon":5.40147,"is_reserved":false,"is_disabled":false,"rental_uris":{"android":"levelo://app?vid=ec002e24-c687-430a-8a39-27191c416b77","ios":"levelo://app?vid=ec002e24-c687-430a-8a39-27191c416b77"},"vehicle_type_id":"4","last_reported":1742393386,"current_range_meters":14800,"station_id":"ce4bgvp2rcd13ifvqct0","pricing_plan_id":"cebpf4jnsgd1na2vs0mg"},{"bike_id":"23dd9309-eae1-47dc-809c-1c06396b1120","system_id":"levelo_inurba_marseille","lat":43.28935,"lon":5.36629,"is_reserved":false,"is_disabled":false,"rental_uris":{"android":"levelo://app?vid=23dd9309-eae1-47dc-809c-1c06396b1120","ios":"levelo://app?vid=23dd9309-eae1-47dc-809c-1c06396b1120"},"vehicle_type_id":"4","last_reported":1742393386,"current_range_meters":14800,"station_id":"ce4bhap2rcd13ifvqek0","pricing_plan_id":"cebpf4jnsgd1na2vs0mg"},{"bike_id":"9b2e1cc8-10ac-4ddc-9afa-d0de3368c05b","system_id":"levelo_inurba_marseille","lat":43.29303,"lon":5.37464,"is_reserved":false,"is_disabled":false,"rental_uris":{"android":"levelo://app?vid=9b2e1cc8-10ac-4ddc-9afa-d0de3368c05b","ios":"levelo://app?vid=9b2e1cc8-10ac-4ddc-9afa-d0de3368c05b"},"vehicle_type_id":"4","last_reported":1742393386,"current_range_meters":14800,"station_id":"ce4bgi12rcd13ifvqb70","pricing_plan_id":"cebpf4jnsgd1na2vs0mg"},{"bike_id":"e0358a08-5f7e-4638-a25a-280d4cbd1eec","system_id":"levelo_inurba_marseille","lat":43.26689,"lon":5.38267,"is_reserved":false,"is_disabled":false,"rental_uris":{"android":"levelo://app?vid=e0358a08-5f7e-4638-a25a-280d4cbd1eec","ios":"levelo://app?vid=e0358a08-5f7e-4638-a25a-280d4cbd1eec"},"vehicle_type_id":"4","last_reported":1742393386,"current_range_meters":14800,"station_id":"ce4bhg92rcd13ifvqf90","pricing_plan_id":"cebpf4jnsgd1na2vs0mg"},{"bike_id":"50052a34-cd4d-455e-89a2-d030d8c6c1ad","system_id":"levelo_inurba_marseille","lat":43.24198,"lon":5.39009,"is_reserved":false,"is_disabled":false,"rental_uris":{"android":"levelo://app?vid=50052a34-cd4d-455e-89a2-d030d8c6c1ad","ios":"levelo://app?vid=50052a34-cd4d-455e-89a2-d030d8c6c1ad"},"vehicle_type_id":"4","last_reported":1742393386,"current_range_meters":15200,"station_id":"","pricing_plan_id":"cebpf4jnsgd1na2vs0mg"},{"bike_id":"185098a9-6481-4973-bed4-522f949936ed","system_id":"levelo_inurba_marseille","lat":43.27056,"lon":5.40277,"is_reserved":false,"is_disabled":false,"rental_uris":{"android":"levelo://app?vid=185098a9-6481-4973-bed4-522f949936ed","ios":"levelo://app?vid=185098a9-6481-4973-bed4-522f949936ed"},"vehicle_type_id":"4","last_reported":1742393386,"current_range_meters":15200,"station_id":"ce4bhk92rcd13ifvqgc0","pricing_plan_id":"cebpf4jnsgd1na2vs0mg"},{"bike_id":"4dd87ef8-8d15-4b6b-ad14-e05b7933df96","system_id":"levelo_inurba_marseille","lat":43.3055,"lon":5.36529,"is_reserved":false,"is_disabled":false,"rental_uris":{"android":"levelo://app?vid=4dd87ef8-8d15-4b6b-ad14-e05b7933df96","ios":"levelo://app?vid=4dd87ef8-8d15-4b6b-ad14-e05b7933df96"},"vehicle_type_id":"4","last_reported":1742393386,"current_range_meters":15200,"station_id":"ce4bgs12rcd13ifvqcag","pricing_plan_id":"cebpf4jnsgd1na2vs0mg"},{"bike_id":"ebd9b81b-9162-4d1f-a4f6-4b128df5aa44","system_id":"levelo_inurba_marseille","lat":43.28105,"lon":5.37834,"is_reserved":false,"is_disabled":false,"rental_uris":{"android":"levelo://app?vid=ebd9b81b-9162-4d1f-a4f6-4b128df5aa44","ios":"levelo://app?vid=ebd9b81b-9162-4d1f-a4f6-4b128df5aa44"},"vehicle_type_id":"4","last_reported":1742393386,"current_range_meters":15200,"station_id":"ce4bha12rcd13ifvqee0","pricing_plan_id":"cebpf4jnsgd1na2vs0mg"},{"bike_id":"d031cedf-9e75-43de-a6ba-36669d1a46bd","system_id":"levelo_inurba_marseille","lat":43.34148,"lon":5.40916,"is_reserved":false,"is_disabled":false,"rental_uris":{"android":"levelo://app?vid=d031cedf-9e75-43de-a6ba-36669d1a46bd","ios":"levelo://app?vid=d031cedf-9e75-43de-a6ba-36669d1a46bd"},"vehicle_type_id":"4","last_reported":1742393386,"current_range_meters":15200,"station_id":"ce4bhqh2rcd13ifvqhlg","pricing_plan_id":"cebpf4jnsgd1na2vs0mg"},{"bike_id":"7be2f1cd-cf31-4dbd-b37c-ffccd34d06e9","system_id":"levelo_inurba_marseille","lat":43.27061,"lon":5.40272,"is_reserved":false,"is_disabled":false,"rental_uris":{"android":"levelo://app?vid=7be2f1cd-cf31-4dbd-b37c-ffccd34d06e9","ios":"levelo://app?vid=7be2f1cd-cf31-4dbd-b37c-ffccd34d06e9"},"vehicle_type_id":"4","last_reported":1742393386,"current_range_meters":15200,"station_id":"ce4bhk92rcd13ifvqgc0","pricing_plan_id":"cebpf4jnsgd1na2vs0mg"},{"bike_id":"44087947-6618-406a-a33e-4a9c95407018","system_id":"levelo_inurba_marseille","lat":43.27967,"lon":5.387,"is_reserved":false,"is_disabled":false,"rental_uris":{"android":"levelo://app?vid=44087947-6618-406a-a33e-4a9c95407018","ios":"levelo://app?vid=44087947-6618-406a-a33e-4a9c95407018"},"vehicle_type_id":"4","last_reported":1742393386,"current_range_meters":15200,"station_id":"ce4bhg12rcd13ifvqf80","pricing_plan_id":"cebpf4jnsgd1na2vs0mg"},{"bike_id":"e5aa24d2-d64a-4879-9c13-ecb1444065ef","system_id":"levelo_inurba_marseille","lat":43.27824,"lon":5.40732,"is_reserved":false,"is_disabled":false,"rental_uris":{"android":"levelo://app?vid=e5aa24d2-d64a-4879-9c13-ecb1444065ef","ios":"levelo://app?vid=e5aa24d2-d64a-4879-9c13-ecb1444065ef"},"vehicle_type_id":"4","last_reported":1742393386,"current_range_meters":15200,"station_id":"ce4bhnh2rcd13ifvqgtg","pricing_plan_id":"cebpf4jnsgd1na2vs0mg"},{"bike_id":"fef51dd8-c6b0-4e12-8a3f-8c9eaa542a9f","system_id":"levelo_inurba_marseille","lat":43.30895,"lon":5.39651,"is_reserved":false,"is_disabled":false,"rental_uris":{"android":"levelo://app?vid=fef51dd8-c6b0-4e12-8a3f-8c9eaa542a9f","ios":"levelo://app?vid=fef51dd8-c6b0-4e12-8a3f-8c9eaa542a9f"},"vehicle_type_id":"4","last_reported":1742393386,"current_range_meters":16000,"station_id":"ce4bh012rcd13ifvqcv0","pricing_plan_id":"cebpf4jnsgd1na2vs0mg"},{"bike_id":"531ca670-f906-43d4-b103-7a1e042f1f13","system_id":"levelo_inurba_marseille","lat":43.30511,"lon":5.36461,"is_reserved":false,"is_disabled":false,"rental_uris":{"android":"levelo://app?vid=531ca670-f906-43d4-b103-7a1e042f1f13","ios":"levelo://app?vid=531ca670-f906-43d4-b103-7a1e042f1f13"},"vehicle_type_id":"4","last_reported":1742393386,"current_range_meters":16000,"station_id":"","pricing_plan_id":"cebpf4jnsgd1na2vs0mg"},{"bike_id":"510e899c-d4b8-47d5-a49c-74d653315ecc","system_id":"levelo_inurba_marseille","lat":43.29273,"lon":5.40086,"is_reserved":false,"is_disabled":false,"rental_uris":{"android":"levelo://app?vid=510e899c-d4b8-47d5-a49c-74d653315ecc","ios":"levelo://app?vid=510e899c-d4b8-47d5-a49c-74d653315ecc"},"vehicle_type_id":"4","last_reported":1742393386,"current_range_meters":16000,"station_id":"ce4bh312rcd13ifvqdk0","pricing_plan_id":"cebpf4jnsgd1na2vs0mg"},{"bike_id":"07e5f3fd-2da2-4c71-bccd-96a631bd8fbf","system_id":"levelo_inurba_marseille","lat":43.30123,"lon":5.39869,"is_reserved":false,"is_disabled":false,"rental_uris":{"android":"levelo://app?vid=07e5f3fd-2da2-4c71-bccd-96a631bd8fbf","ios":"levelo://app?vid=07e5f3fd-2da2-4c71-bccd-96a631bd8fbf"},"vehicle_type_id":"4","last_reported":1742393386,"current_range_meters":16000,"station_id":"ce4bh0h2rcd13ifvqd40","pricing_plan_id":"cebpf4jnsgd1na2vs0mg"},{"bike_id":"ab79f529-3424-4db0-a79d-477dec2b7ea2","system_id":"levelo_inurba_marseille","lat":43.32477,"lon":5.36567,"is_reserved":false,"is_disabled":false,"rental_uris":{"android":"levelo://app?vid=ab79f529-3424-4db0-a79d-477dec2b7ea2","ios":"levelo://app?vid=ab79f529-3424-4db0-a79d-477dec2b7ea2"},"vehicle_type_id":"4","last_reported":1742393386,"current_range_meters":16400,"station_id":"ce4bhs12rcd13ifvqhvg","pricing_plan_id":"cebpf4jnsgd1na2vs0mg"},{"bike_id":"024b59dc-dfef-4325-a2fe-c982e808a020","system_id":"levelo_inurba_marseille","lat":43.27045,"lon":5.40256,"is_reserved":false,"is_disabled":false,"rental_uris":{"android":"levelo://app?vid=024b59dc-dfef-4325-a2fe-c982e808a020","ios":"levelo://app?vid=024b59dc-dfef-4325-a2fe-c982e808a020"},"vehicle_type_id":"4","last_reported":1742393386,"current_range_meters":16400,"station_id":"ce4bhk92rcd13ifvqgc0","pricing_plan_id":"cebpf4jnsgd1na2vs0mg"},{"bike_id":"5d1f2ac0-6654-46ac-966f-8d8b61be6948","system_id":"levelo_inurba_marseille","lat":43.31722,"lon":5.42392,"is_reserved":false,"is_disabled":false,"rental_uris":{"android":"levelo://app?vid=5d1f2ac0-6654-46ac-966f-8d8b61be6948","ios":"levelo://app?vid=5d1f2ac0-6654-46ac-966f-8d8b61be6948"},"vehicle_type_id":"4","last_reported":1742393386,"current_range_meters":16400,"station_id":"ce4bhp92rcd13ifvqhbg","pricing_plan_id":"cebpf4jnsgd1na2vs0mg"},{"bike_id":"6981727f-ab57-4c4a-9cc6-ca9bf8a5ae82","system_id":"levelo_inurba_marseille","lat":43.26022,"lon":5.375547,"is_reserved":false,"is_disabled":false,"rental_uris":{"android":"levelo://app?vid=6981727f-ab57-4c4a-9cc6-ca9bf8a5ae82","ios":"levelo://app?vid=6981727f-ab57-4c4a-9cc6-ca9bf8a5ae82"},"vehicle_type_id":"4","last_reported":1742393386,"current_range_meters":14800,"station_id":"ce4bhgh2rcd13ifvqfa0","pricing_plan_id":"cebpf4jnsgd1na2vs0mg"},{"bike_id":"6b30a15f-72fc-430e-a636-421953672495","system_id":"levelo_inurba_marseille","lat":43.29789,"lon":5.38108,"is_reserved":false,"is_disabled":false,"rental_uris":{"android":"levelo://app?vid=6b30a15f-72fc-430e-a636-421953672495","ios":"levelo://app?vid=6b30a15f-72fc-430e-a636-421953672495"},"vehicle_type_id":"4","last_reported":1742393386,"current_range_meters":16800,"station_id":"ce4bgip2rcd13ifvqbb0","pricing_plan_id":"cebpf4jnsgd1na2vs0mg"},{"bike_id":"47cd7fb2-9a9a-45b5-ad92-2e1a981cf3e0","system_id":"levelo_inurba_marseille","lat":43.29278,"lon":5.40136,"is_reserved":false,"is_disabled":false,"rental_uris":{"android":"levelo://app?vid=47cd7fb2-9a9a-45b5-ad92-2e1a981cf3e0","ios":"levelo://app?vid=47cd7fb2-9a9a-45b5-ad92-2e1a981cf3e0"},"vehicle_type_id":"4","last_reported":1742393386,"current_range_meters":16400,"station_id":"ce4bh312rcd13ifvqdk0","pricing_plan_id":"cebpf4jnsgd1na2vs0mg"},{"bike_id":"c8245314-d611-45c3-88de-50ac532703fc","system_id":"levelo_inurba_marseille","lat":43.24184,"lon":5.39721,"is_reserved":false,"is_disabled":false,"rental_uris":{"android":"levelo://app?vid=c8245314-d611-45c3-88de-50ac532703fc","ios":"levelo://app?vid=c8245314-d611-45c3-88de-50ac532703fc"},"vehicle_type_id":"4","last_reported":1742393386,"current_range_meters":16400,"station_id":"ce4bhn12rcd13ifvqgpg","pricing_plan_id":"cebpf4jnsgd1na2vs0mg"},{"bike_id":"b9e4bdd0-024c-4547-9a94-39d0c7923642","system_id":"levelo_inurba_marseille","lat":43.24172,"lon":5.364,"is_reserved":false,"is_disabled":false,"rental_uris":{"android":"levelo://app?vid=b9e4bdd0-024c-4547-9a94-39d0c7923642","ios":"levelo://app?vid=b9e4bdd0-024c-4547-9a94-39d0c7923642"},"vehicle_type_id":"4","last_reported":1742393386,"current_range_meters":16400,"station_id":"cpo36qri1sfpv3e86is0","pricing_plan_id":"cebpf4jnsgd1na2vs0mg"},{"bike_id":"b684f31a-40c8-4403-9a6e-2d11f32364dd","system_id":"levelo_inurba_marseille","lat":43.2315,"lon":5.43722,"is_reserved":false,"is_disabled":false,"rental_uris":{"android":"levelo://app?vid=b684f31a-40c8-4403-9a6e-2d11f32364dd","ios":"levelo://app?vid=b684f31a-40c8-4403-9a6e-2d11f32364dd"},"vehicle_type_id":"4","last_reported":1742393386,"current_range_meters":16400,"station_id":"ce4bhmp2rcd13ifvqgog","pricing_plan_id":"cebpf4jnsgd1na2vs0mg"},{"bike_id":"498cb2e9-c600-43cd-84c1-d82d2956699f","system_id":"levelo_inurba_marseille","lat":43.29902,"lon":5.43665,"is_reserved":false,"is_disabled":false,"rental_uris":{"android":"levelo://app?vid=498cb2e9-c600-43cd-84c1-d82d2956699f","ios":"levelo://app?vid=498cb2e9-c600-43cd-84c1-d82d2956699f"},"vehicle_type_id":"4","last_reported":1742393386,"current_range_meters":16400,"station_id":"ce4bhpp2rcd13ifvqhfg","pricing_plan_id":"cebpf4jnsgd1na2vs0mg"},{"bike_id":"c5bb5dca-1dc9-450e-9a3d-9fa737cf345d","system_id":"levelo_inurba_marseille","lat":43.2465,"lon":5.38891,"is_reserved":false,"is_disabled":false,"rental_uris":{"android":"levelo://app?vid=c5bb5dca-1dc9-450e-9a3d-9fa737cf345d","ios":"levelo://app?vid=c5bb5dca-1dc9-450e-9a3d-9fa737cf345d"},"vehicle_type_id":"4","last_reported":1742393386,"current_range_meters":16400,"station_id":"ce4bhg12rcd13ifvqf60","pricing_plan_id":"cebpf4jnsgd1na2vs0mg"},