{"last_updated":1740820121,"ttl":60,"version":"2.2","data":{"bikes":[{"bike_id":"498c2ace-4821-4676-a9ac-9368b02a49b6","system_id":"levelo_inurba_marseille","lat":43.33799,"lon":5.37386,"is_reserved":false,"is_disabled":false,"rental_uris":{"android":"levelo://app?vid=498c2ace-4821-4676-a9ac-9368b02a49b6","ios":"levelo://app?vid=498c2ace-4821-4676-a9ac-9368b02a49b6"},"vehicle_type_id":"4","last_reported":1740820121,"current_range_meters":30800,"station_id":"","pricing_plan_id":"cebpf4jnsgd1na2vs0mg"},{"bike_id":"9a6f5796-9b87-4a64-a309-a2af3af5c676","system_id":"levelo_inurba_marseille","lat":43.30468,"lon":5.37135,"is_reserved":false,"is_disabled":true,"rental_uris":{"android":"levelo://app?vid=9a6f5796-9b87-4a64-a309-a2af3af5c676","ios":"levelo://app?vid=9a6f5796-9b87-4a64-a309-a2af3af5c676"},"vehicle_type_id":"4","last_reported":1740820121,"current_range_meters":0,"station_id":"","pricing_plan_id":"cebpf4jnsgd1na2vs0mg"},{"bike_id":"c966865d-c137-4133-a03d-a18404cd9cd2","system_id":"levelo_inurba_marseille","lat":43.27904,"lon":5.42273,"is_reserved":false,"is_disabled":true,"rental_uris":{"android":"levelo://app?vid=c966865d-c137-4133-a03d-a18404cd9cd2","ios":"levelo://app?vid=c966865d-c137-4133-a03d-a18404cd9cd2"},"vehicle_type_id":"4","last_reported":1740820121,"current_range_meters":0,"station_id":"","pricing_plan_id":"cebpf4jnsgd1na2vs0mg"},{"bike_id":"80b795ca-9fb3-478a-8f1d-a7d78e0b7a6b","system_id":"levelo_inurba_marseille","lat":43.30536,"lon":5.36555,"is_reserved":false,"is_disabled":true,"rental_uris":{"android":"levelo://app?vid=80b795ca-9fb3-478a-8f1d-a7d78e0b7a6b","ios":"levelo://app?vid=80b795ca-9fb3-478a-8f1d-a7d78e0b7a6b"},"vehicle_type_id":"4","last_reported":1740820121,"current_range_meters":0,"station_id":"ce4bgs12rcd13ifvqcag","pricing_plan_id":"cebpf4jnsgd1na2vs0mg"},{"bike_id":"98aaa892-5cbd-4ccc-851d-8bbd8e5ec012","system_id":"levelo_inurba_marseille","lat":43.3068,"lon":5.40083,"is_reserved":false,"is_disabled":true,"rental_uris":{"android":"levelo://app?vid=98aaa892-5cbd-4ccc-851d-8bbd8e5ec012","ios":"levelo://app?vid=98aaa892-5cbd-4ccc-851d-8bbd8e5ec012"},"vehicle_type_id":"4","last_reported":1740820121,"current_range_meters":0,"station_id":"ce4bh112rcd13ifvqda0","pricing_plan_id":"cebpf4jnsgd1na2vs0mg"},{"bike_id":"b12f1663-d06d-4477-8cd9-afe08f79aecd","system_id":"levelo_inurba_marseille","lat":43.30665,"lon":5.40096,"is_reserved":false,"is_disabled":true,"rental_uris":{"android":"levelo://app?vid=b12f1663-d06d-4477-8cd9-afe08f79aecd","ios":"levelo://app?vid=b12f1663-d06d-4477-8cd9-afe08f79aecd"},"vehicle_type_id":"4","last_reported":1740820121,"current_range_meters":0,"station_id":"ce4bh112rcd13ifvqda0","pricing_plan_id":"cebpf4jnsgd1na2vs0mg"},{"bike_id":"9b98390d-9557-4ffc-b739-882ea88a8381","system_id":"levelo_inurba_marseille","lat":43.30665,"lon":5.40094,"is_reserved":false,"is_disabled":true,"rental_uris":{"android":"levelo://app?vid=9b98390d-9557-4ffc-b739-882ea88a8381","ios":"levelo://app?vid=9b98390d-9557-4ffc-b739-882ea88a8381"},"vehicle_type_id":"4","last_reported":1740820121,"current_range_meters":0,"station_id":"ce4bh112rcd13ifvqda0","pricing_plan_id":"cebpf4jnsgd1na2vs0mg"},{"bike_id":"865532d8-a027-42a2-a196-87b96badc0f9","system_id":"levelo_inurba_marseille","lat":43.28263,"lon":5.35076,"is_reserved":false,"is_disabled":true,"rental_uris":{"android":"levelo://app?vid=865532d8-a027-42a2-a196-87b96badc0f9","ios":"levelo://app?vid=865532d8-a027-42a2-a196-87b96badc0f9"},"vehicle_type_id":"4","last_reported":1740820121,"current_range_meters":0,"station_id":"ce4bhbp2rcd13ifvqerg","pricing_plan_id":"cebpf4jnsgd1na2vs0mg"},{"bike_id":"883c1405-ac44-4c63-a28f-f7552aa11f1d","system_id":"levelo_inurba_marseille","lat":43.26201,"lon":5.37454,"is_reserved":false,"is_disabled":true,"rental_uris":{"android":"levelo://app?vid=883c1405-ac44-4c63-a28f-f7552aa11f1d","ios":"levelo://app?vid=883c1405-ac44-4c63-a28f-f7552aa11f1d"},"vehicle_type_id":"4","last_reported":1740820121,"current_range_meters":0,"station_id":"ce4bhgp2rcd13ifvqfc0","pricing_plan_id":"cebpf4jnsgd1na2vs0mg"},{"bike_id":"2c936d6f-c8e5-4484-b0c6-64c56d4f6c50","system_id":"levelo_inurba_marseille","lat":43.26192,"lon":5.37452,"is_reserved":false,"is_disabled":true,"rental_uris":{"android":"levelo://app?vid=2c936d6f-c8e5-4484-b0c6-64c56d4f6c50","ios":"levelo://app?vid=2c936d6f-c8e5-4484-b0c6-64c56d4f6c50"},"vehicle_type_id":"4","last_reported":1740820121,"current_range_meters":0,"station_id":"ce4bhgp2rcd13ifvqfc0","pricing_plan_id":"cebpf4jnsgd1na2vs0mg"},{"bike_id":"e9297060-9809-403f-bfb8-f087bef131d9","system_id":"levelo_inurba_marseille","lat":43.27568,"lon":5.38425,"is_reserved":false,"is_disabled":true,"rental_uris":{"android":"levelo://app?vid=e9297060-9809-403f-bfb8-f087bef131d9","ios":"levelo://app?vid=e9297060-9809-403f-bfb8-f087bef131d9"},"vehicle_type_id":"4","last_reported":1740820121,"current_range_meters":0,"station_id":"ce4bhh92rcd13ifvqfi0","pricing_plan_id":"cebpf4jnsgd1na2vs0mg"},{"bike_id":"28bbfdad-41c8-4193-8ad8-a78d7f34f87d","system_id":"levelo_inurba_marseille","lat":43.25822,"lon":5.3942,"is_reserved":false,"is_disabled":true,"rental_uris":{"android":"levelo://app?vid=28bbfdad-41c8-4193-8ad8-a78d7f34f87d","ios":"levelo://app?vid=28bbfdad-41c8-4193-8ad8-a78d7f34f87d"},"vehicle_type_id":"4","last_reported":1740820121,"current_range_meters":0,"station_id":"ce4bhip2rcd13ifvqft0","pricing_plan_id":"cebpf4jnsgd1na2vs0mg"},{"bike_id":"ebbea192-f0f2-48d0-b631-f84760d82bbf","system_id":"levelo_inurba_marseille","lat":43.25129,"lon":5.40346,"is_reserved":false,"is_disabled":true,"rental_uris":{"android":"levelo://app?vid=ebbea192-f0f2-48d0-b631-f84760d82bbf","ios":"levelo://app?vid=ebbea192-f0f2-48d0-b631-f84760d82bbf"},"vehicle_type_id":"4","last_reported":1740820121,"current_range_meters":0,"station_id":"ce4bhlh2rcd13ifvqgig","pricing_plan_id":"cebpf4jnsgd1na2vs0mg"},{"bike_id":"bd2a4693-d01f-4c5b-9f4b-8e1d46a2acb2","system_id":"levelo_inurba_marseille","lat":43.29967,"lon":5.4132,"is_reserved":false,"is_disabled":true,"rental_uris":{"android":"levelo://app?vid=bd2a4693-d01f-4c5b-9f4b-8e1d46a2acb2","ios":"levelo://app?vid=bd2a4693-d01f-4c5b-9f4b-8e1d46a2acb2"},"vehicle_type_id":"4","last_reported":1740820121,"current_range_meters":0,"station_id":"ce4bhp12rcd13ifvqh9g","pricing_plan_id":"cebpf4jnsgd1na2vs0mg"},{"bike_id":"5f42471f-7b67-48d6-adbf-c2584cbed60b","system_id":"levelo_inurba_marseille","lat":43.31722,"lon":5.43699,"is_reserved":false,"is_disabled":true,"rental_uris":{"android":"levelo://app?vid=5f42471f-7b67-48d6-adbf-c2584cbed60b","ios":"levelo://app?vid=5f42471f-7b67-48d6-adbf-c2584cbed60b"},"vehicle_type_id":"4","last_reported":1740820121,"current_range_meters":0,"station_id":"ce4bhp92rcd13ifvqhcg","pricing_plan_id":"cebpf4jnsgd1na2vs0mg"},{"bike_id":"820a6a8c-a29e-4f9f-9f00-d65058d78972","system_id":"levelo_inurba_marseille","lat":43.23071,"lon":5.35499,"is_reserved":false,"is_disabled":true,"rental_uris":{"android":"levelo://app?vid=820a6a8c-a29e-4f9f-9f00-d65058d78972","ios":"levelo://app?vid=820a6a8c-a29e-4f9f-9f00-d65058d78972"},"vehicle_type_id":"4","last_reported":1740820121,"current_range_meters":0,"station_id":"cpo3342slgdg3j2ifvpg","pricing_plan_id":"cebpf4jnsgd1na2vs0mg"},{"bike_id":"8818ce1f-beeb-45f7-be6a-0810eec356f4","system_id":"levelo_inurba_marseille","lat":43.30605,"lon":5.39341,"is_reserved":false,"is_disabled":true,"rental_uris":{"android":"levelo://app?vid=8818ce1f-beeb-45f7-be6a-0810eec356f4","ios":"levelo://app?vid=8818ce1f-beeb-45f7-be6a-0810eec356f4"},"vehicle_type_id":"4","last_reported":1740820121,"current_range_meters":400,"station_id":"ce4bh0p2rcd13ifvqd80","pricing_plan_id":"cebpf4jnsgd1na2vs0mg"},{"bike_id":"b8cfdc89-5a59-43d6-818c-cfbb79b13be3","system_id":"levelo_inurba_marseille","lat":43.3041,"lon":5.41296,"is_reserved":false,"is_disabled":true,"rental_uris":{"android":"levelo://app?vid=b8cfdc89-5a59-43d6-818c-cfbb79b13be3","ios":"levelo://app?vid=b8cfdc89-5a59-43d6-818c-cfbb79b13be3"},"vehicle_type_id":"4","last_reported":1740820121,"current_range_meters":400,"station_id":"ce4bhop2rcd13ifvqh8g","pricing_plan_id":"cebpf4jnsgd1na2vs0mg"},{"bike_id":"2ccd8dc5-43da-4f2b-bd28-3e04d1ea3598","system_id":"levelo_inurba_marseille","lat":43.30117,"lon":5.39083,"is_reserved":false,"is_disabled":true,"rental_uris":{"android":"levelo://app?vid=2ccd8dc5-43da-4f2b-bd28-3e04d1ea3598","ios":"levelo://app?vid=2ccd8dc5-43da-4f2b-bd28-3e04d1ea3598"},"vehicle_type_id":"4","last_reported":1740820121,"current_range_meters":800,"station_id":"ce4bh192rcd13ifvqdb0","pricing_plan_id":"cebpf4jnsgd1na2vs0mg"},{"bike_id":"83c25480-47c1-46eb-89f5-95728d7af2ff","system_id":"levelo_inurba_marseille","lat":43.24678,"lon":5.3817,"is_reserved":false,"is_disabled":true,"rental_uris":{"android":"levelo://app?vid=83c25480-47c1-46eb-89f5-95728d7af2ff","ios":"levelo://app?vid=83c25480-47c1-46eb-89f5-95728d7af2ff"},"vehicle_type_id":"4","last_reported":1740820121,"current_range_meters":800,"station_id":"ce4bhih2rcd13ifvqfr0","pricing_plan_id":"cebpf4jnsgd1na2vs0mg"},{"bike_id":"16a12ad2-13f7-4bed-b52f-a53ffb091498","system_id":"levelo_inurba_marseille","lat":43.24552,"lon":5.39526,"is_reserved":false,"is_disabled":true,"rental_uris":{"android":"levelo://app?vid=16a12ad2-13f7-4bed-b52f-a53ffb091498","ios":"levelo://app?vid=16a12ad2-13f7-4bed-b52f-a53ffb091498"},"vehicle_type_id":"4","last_reported":1740820121,"current_range_meters":800,"station_id":"ce4bhlp2rcd13ifvqgjg","pricing_plan_id":"cebpf4jnsgd1na2vs0mg"},{"bike_id":"c1fffaf2-9cbe-4118-8300-48615f376937","system_id":"levelo_inurba_marseille","lat":43.28709,"lon":5.39988,"is_reserved":false,"is_disabled":true,"rental_uris":{"android":"levelo://app?vid=c1fffaf2-9cbe-4118-8300-48615f376937","ios":"levelo://app?vid=c1fffaf2-9cbe-4118-8300-48615f376937"},"vehicle_type_id":"4","last_reported":1740820121,"current_range_meters":800,"station_id":"ce4bho92rcd13ifvqh3g","pricing_plan_id":"cebpf4jnsgd1na2vs0mg"},{"bike_id":"8f229ba2-ed7b-4414-8940-d30495af6642","system_id":"levelo_inurba_marseille","lat":43.25929,"lon":5.40903,"is_reserved":false,"is_disabled":true,"rental_uris":{"android":"levelo://app?vid=8f229ba2-ed7b-4414-8940-d30495af6642","ios":"levelo://app?vid=8f229ba2-ed7b-4414-8940-d30495af6642"},"vehicle_type_id":"4","last_reported":1740820121,"current_range_meters":1200,"station_id":"ce4bhm92rcd13ifvqglg","pricing_plan_id":"cebpf4jnsgd1na2vs0mg"},{"bike_id":"8208287d-0cff-4ec0-a820-c35af0cbeada","system_id":"levelo_inurba_marseille","lat":43.24079,"lon":5.37774,"is_reserved":false,"is_disabled":true,"rental_uris":{"android":"levelo://app?vid=8208287d-0cff-4ec0-a820-c35af0cbeada","ios":"levelo://app?vid=8208287d-0cff-4ec0-a820-c35af0cbeada"},"vehicle_type_id":"4","last_reported":1740820121,"current_range_meters":1200,"station_id":"ce4bhnp2rcd13ifvqgvg","pricing_plan_id":"cebpf4jnsgd1na2vs0mg"},{"bike_id":"a8328c72-27ce-4150-a953-d0b7993a21b2","system_id":"levelo_inurba_marseille","lat":43.29249,"lon":5.37609,"is_reserved":false,"is_disabled":true,"rental_uris":{"android":"levelo://app?vid=a8328c72-27ce-4150-a953-d0b7993a21b2","ios":"levelo://app?vid=a8328c72-27ce-4150-a953-d0b7993a21b2"},"vehicle_type_id":"4","last_reported":1740820121,"current_range_meters":1600,"station_id":"ce4bgi12rcd13ifvqb80","pricing_plan_id":"cebpf4jnsgd1na2vs0mg"},{"bike_id":"aeca613e-07f2-4164-9889-5884285cb8bc","system_id":"levelo_inurba_marseille","lat":43.292694,"lon":5.399729,"is_reserved":false,"is_disabled":true,"rental_uris":{"android":"levelo://app?vid=aeca613e-07f2-4164-9889-5884285cb8bc","ios":"levelo://app?vid=aeca613e-07f2-4164-9889-5884285cb8bc"},"vehicle_type_id":"4","last_reported":1740820121,"current_range_meters":1600,"station_id":"ce4bhah2rcd13ifvqej0","pricing_plan_id":"cebpf4jnsgd1na2vs0mg"},{"bike_id":"b588f600-819b-4366-ae5f-afedcc08d0a1","system_id":"levelo_inurba_marseille","lat":43.2921,"lon":5.3606,"is_reserved":false,"is_disabled":false,"rental_uris":{"android":"levelo://app?vid=b588f600-819b-4366-ae5f-afedcc08d0a1","ios":"levelo://app?vid=b588f600-819b-4366-ae5f-afedcc08d0a1"},"vehicle_type_id":"4","last_reported":1740820121,"current_range_meters":1600,"station_id":"ce4bhbh2rcd13ifvqeqg","pricing_plan_id":"cebpf4jnsgd1na2vs0mg"},{"bike_id":"ee23301c-3a3b-4146-9533-b912e08d40c5","system_id":"levelo_inurba_marseille","lat":43.26683,"lon":5.38275,"is_reserved":false,"is_disabled":true,"rental_uris":{"android":"levelo://app?vid=ee23301c-3a3b-4146-9533-b912e08d40c5","ios":"levelo://app?vid=ee23301c-3a3b-4146-9533-b912e08d40c5"},"vehicle_type_id":"4","last_reported":1740820121,"current_range_meters":1600,"station_id":"ce4bhg92rcd13ifvqf90","pricing_plan_id":"cebpf4jnsgd1na2vs0mg"},{"bike_id":"e3dc1858-1b7a-43fe-8de1-72642a354c17","system_id":"levelo_inurba_marseille","lat":43.24359,"lon":5.38462,"is_reserved":false,"is_disabled":true,"rental_uris":{"android":"levelo://app?vid=e3dc1858-1b7a-43fe-8de1-72642a354c17","ios":"levelo://app?vid=e3dc1858-1b7a-43fe-8de1-72642a354c17"},"vehicle_type_id":"4","last_reported":1740820121,"current_range_meters":2000,"station_id":"","pricing_plan_id":"cebpf4jnsgd1na2vs0mg"},{"bike_id":"4483f6df-aba7-4052-94de-bc862303057f","system_id":"levelo_inurba_marseille","lat":43.29533,"lon":5.38585,"is_reserved":false,"is_disabled":true,"rental_uris":{"android":"levelo://app?vid=4483f6df-aba7-4052-94de-bc862303057f","ios":"levelo://app?vid=4483f6df-aba7-4052-94de-bc862303057f"},"vehicle_type_id":"4","last_reported":1740820121,"current_range_meters":2000,"station_id":"ce4bgih2rcd13ifvqba0","pricing_plan_id":"cebpf4jnsgd1na2vs0mg"},{"bike_id":"06f857e8-f6df-44fd-b263-89e6c39d6cb2","system_id":"levelo_inurba_marseille","lat":43.279113,"lon":5.395863,"is_reserved":false,"is_disabled":true,"rental_uris":{"android":"levelo://app?vid=06f857e8-f6df-44fd-b263-89e6c39d6cb2","ios":"levelo://app?vid=06f857e8-f6df-44fd-b263-89e6c39d6cb2"},"vehicle_type_id":"4","last_reported":1740820121,"current_range_meters":2000,"station_id":"ce4bhf92rcd13ifvqf40","pricing_plan_id":"cebpf4jnsgd1na2vs0mg"},{"bike_id":"7ec6e557-c68b-40af-abcd-55b0098019e7","system_id":"levelo_inurba_marseille","lat":43.23161,"lon":5.4371,"is_reserved":false,"is_disabled":true,"rental_uris":{"android":"levelo://app?vid=7ec6e557-c68b-40af-abcd-55b0098019e7","ios":"levelo://app?vid=7ec6e557-c68b-40af-abcd-55b0098019e7"},"vehicle_type_id":"4","last_reported":1740820121,"current_range_meters":2000,"station_id":"ce4bhmp2rcd13ifvqgog","pricing_plan_id":"cebpf4jnsgd1na2vs0mg"},{"bike_id":"378bff99-ff4a-404c-8c57-14b68ea79212","system_id":"levelo_inurba_marseille","lat":43.290563,"lon":5.359189,"is_reserved":false,"is_disabled":true,"rental_uris":{"android":"levelo://app?vid=378bff99-ff4a-404c-8c57-14b68ea79212","ios":"levelo://app?vid=378bff99-ff4a-404c-8c57-14b68ea79212"},"vehicle_type_id":"4","last_reported":1740820121,"current_range_meters":2800,"station_id":"ce4bhb12rcd13ifvqem0","pricing_plan_id":"cebpf4jnsgd1na2vs0mg"},{"bike_id":"89a7517e-6658-46c5-a615-9e427ec79029","system_id":"levelo_inurba_marseille","lat":43.2572,"lon":5.41818,"is_reserved":false,"is_disabled":false,"rental_uris":{"android":"levelo://app?vid=89a7517e-6658-46c5-a615-9e427ec79029","ios":"levelo://app?vid=89a7517e-6658-46c5-a615-9e427ec79029"},"vehicle_type_id":"4","last_reported":1740820121,"current_range_meters":3200,"station_id":"","pricing_plan_id":"cebpf4jnsgd1na2vs0mg"},{"bike_id":"3507d3c2-5765-408f-8363-309bdd9e06bc","system_id":"levelo_inurba_marseille","lat":43.24179,"lon":5.39733,"is_reserved":false,"is_disabled":false,"rental_uris":{"android":"levelo://app?vid=3507d3c2-5765-408f-8363-309bdd9e06bc","ios":"levelo://app?vid=3507d3c2-5765-408f-8363-309bdd9e06bc"},"vehicle_type_id":"4","last_reported":1740820121,"current_range_meters":3200,"station_id":"ce4bhn12rcd13ifvqgpg","pricing_plan_id":"cebpf4jnsgd1na2vs0mg"},{"bike_id":"642aee05-92cf-4c4b-9c90-771cc2ee96b7","system_id":"levelo_inurba_marseille","lat":43.29977,"lon":5.38489,"is_reserved":false,"is_disabled":false,"rental_uris":{"android":"levelo://app?vid=642aee05-92cf-4c4b-9c90-771cc2ee96b7","ios":"levelo://app?vid=642aee05-92cf-4c4b-9c90-771cc2ee96b7"},"vehicle_type_id":"4","last_reported":1740820121,"current_range_meters":3600,"station_id":"ce4bgj92rcd13ifvqbd0","pricing_plan_id":"cebpf4jnsgd1na2vs0mg"},{"bike_id":"18a83376-852f-4c80-b931-80e4f0ebf610","system_id":"levelo_inurba_marseille","lat":43.28852,"lon":5.3932,"is_reserved":false,"is_disabled":false,"rental_uris":{"android":"levelo://app?vid=18a83376-852f-4c80-b931-80e4f0ebf610","ios":"levelo://app?vid=18a83376-852f-4c80-b931-80e4f0ebf610"},"vehicle_type_id":"4","last_reported":1740820121,"current_range_meters":3600,"station_id":"ce4bh2p2rcd13ifvqdi0","pricing_plan_id":"cebpf4jnsgd1na2vs0mg"},{"bike_id":"2a398520-3240-4d1e-8947-c64008cd4a40","system_id":"levelo_inurba_marseille","lat":43.23976,"lon":5.36646,"is_reserved":false,"is_disabled":false,"rental_uris":{"android":"levelo://app?vid=2a398520-3240-4d1e-8947-c64008cd4a40","ios":"levelo://app?vid=2a398520-3240-4d1e-8947-c64008cd4a40"},"vehicle_type_id":"4","last_reported":1740820121,"current_range_meters":3600,"station_id":"ce4bhi12rcd13ifvqfp0","pricing_plan_id":"cebpf4jnsgd1na2vs0mg"},{"bike_id":"99f066ad-cc8b-4107-a73f-79785478aaf0","system_id":"levelo_inurba_marseille","lat":43.27086,"lon":5.42273,"is_reserved":false,"is_disabled":false,"rental_uris":{"android":"levelo://app?vid=99f066ad-cc8b-4107-a73f-79785478aaf0","ios":"levelo://app?vid=99f066ad-cc8b-4107-a73f-79785478aaf0"},"vehicle_type_id":"4","last_reported":1740820121,"current_range_meters":3600,"station_id":"ce4bhk92rcd13ifvqgb0","pricing_plan_id":"cebpf4jnsgd1na2vs0mg"},{"bike_id":"43c32004-94fe-4598-87ba-734917dbcf43","system_id":"levelo_inurba_marseille","lat":43.292604,"lon":5.376298,"is_reserved":false,"is_disabled":false,"rental_uris":{"android":"levelo://app?vid=43c32004-94fe-4598-87ba-734917dbcf43","ios":"levelo://app?vid=43c32004-94fe-4598-87ba-734917dbcf43"},"vehicle_type_id":"4","last_reported":1740820121,"current_range_meters":4000,"station_id":"ce4bgi12rcd13ifvqb80","pricing_plan_id":"cebpf4jnsgd1na2vs0mg"},{"bike_id":"998d6610-5c9e-4fef-bc13-b5e8f80f0779","system_id":"levelo_inurba_marseille","lat":43.30168,"lon":5.38069,"is_reserved":false,"is_disabled":false,"rental_uris":{"android":"levelo://app?vid=998d6610-5c9e-4fef-bc13-b5e8f80f0779","ios":"levelo://app?vid=998d6610-5c9e-4fef-bc13-b5e8f80f0779"},"vehicle_type_id":"4","last_reported":1740820121,"current_range_meters":4000,"station_id":"ce4bgjp2rcd13ifvqbh0","pricing_plan_id":"cebpf4jnsgd1na2vs0mg"},{"bike_id":"3ce0759e-2098-4910-8ea7-8f696b3f2aad","system_id":"levelo_inurba_marseille","lat":43.28878,"lon":5.35857,"is_reserved":false,"is_disabled":false,"rental_uris":{"android":"levelo://app?vid=3ce0759e-2098-4910-8ea7-8f696b3f2aad","ios":"levelo://app?vid=3ce0759e-2098-4910-8ea7-8f696b3f2aad"},"vehicle_type_id":"4","last_reported":1740820121,"current_range_meters":4000,"station_id":"ce4bhb12rcd13ifvqem0","pricing_plan_id":"cebpf4jnsgd1na2vs0mg"},{"bike_id":"9b176fb7-9986-4107-a220-68239619a1d5","system_id":"levelo_inurba_marseille","lat":43.26197,"lon":5.37448,"is_reserved":false,"is_disabled":false,"rental_uris":{"android":"levelo://app?vid=9b176fb7-9986-4107-a220-68239619a1d5","ios":"levelo://app?vid=9b176fb7-9986-4107-a220-68239619a1d5"},"vehicle_type_id":"4","last_reported":1740820121,"current_range_meters":4000,"station_id":"ce4bhgp2rcd13ifvqfc0","pricing_plan_id":"cebpf4jnsgd1na2vs0mg"},{"bike_id":"dcff507d-3819-435b-8033-cab0f880c6a6","system_id":"levelo_inurba_marseille","lat":43.26496,"lon":5.39543,"is_reserved":false,"is_disabled":false,"rental_uris":{"android":"levelo://app?vid=dcff507d-3819-435b-8033-cab0f880c6a6","ios":"levelo://app?vid=dcff507d-3819-435b-8033-cab0f880c6a6"},"vehicle_type_id":"4","last_reported":1740820121,"current_range_meters":4000,"station_id":"ce4bhi12rcd13ifvqfq0","pricing_plan_id":"cebpf4jnsgd1na2vs0mg"},{"bike_id":"2953f2df-b4a0-432b-b778-4d461a15ac37","system_id":"levelo_inurba_marseille","lat":43.30961,"lon":5.39034,"is_reserved":false,"is_disabled":false,"rental_uris":{"android":"levelo://app?vid=2953f2df-b4a0-432b-b778-4d461a15ac37","ios":"levelo://app?vid=2953f2df-b4a0-432b-b778-4d461a15ac37"},"vehicle_type_id":"4","last_reported":1740820121,"current_range_meters":4400,"station_id":"ce4bgup2rcd13ifvqco0","pricing_plan_id":"cebpf4jnsgd1na2vs0mg"},{"bike_id":"f32ea091-8d65-493c-8fff-13bbf53faa68","system_id":"levelo_inurba_marseille","lat":43.31718,"lon":5.43711,"is_reserved":false,"is_disabled":false,"rental_uris":{"android":"levelo://app?vid=f32ea091-8d65-493c-8fff-13bbf53faa68","ios":"levelo://app?vid=f32ea091-8d65-493c-8fff-13bbf53faa68"},"vehicle_type_id":"4","last_reported":1740820121,"current_range_meters":4400,"station_id":"ce4bhp92rcd13ifvqhcg","pricing_plan_id":"cebpf4jnsgd1na2vs0mg"},{"bike_id":"f8b25d90-893f-43e7-b6af-489918142ddb","system_id":"levelo_inurba_marseille","lat":43.29625,"lon":5.38127,"is_reserved":false,"is_disabled":false,"rental_uris":{"android":"levelo://app?vid=f8b25d90-893f-43e7-b6af-489918142ddb","ios":"levelo://app?vid=f8b25d90-893f-43e7-b6af-489918142ddb"},"vehicle_type_id":"4","last_reported":1740820121,"current_range_meters":4800,"station_id":"ce4bgl12rcd13ifvqbo0","pricing_plan_id":"cebpf4jnsgd1na2vs0mg"},{"bike_id":"9ffbe43c-ee88-45fe-9103-84b71e3d2b6c","system_id":"levelo_inurba_marseille","lat":43.25008,"lon":5.38952,"is_reserved":false,"is_disabled":false,"rental_uris":{"android":"levelo://app?vid=9ffbe43c-ee88-45fe-9103-84b71e3d2b6c","ios":"levelo://app?vid=9ffbe43c-ee88-45fe-9103-84b71e3d2b6c"},"vehicle_type_id":"4","last_reported":1740820121,"current_range_meters":4800,"station_id":"ce4bhgp2rcd13ifvqfd0","pricing_plan_id":"cebpf4jnsgd1na2vs0mg"},{"bike_id":"17ddbbb5-11e9-4dea-8d48-8df35a23e77a","system_id":"levelo_inurba_marseille","lat":43.31759,"lon":5.39033,"is_reserved":false,"is_disabled":false,"rental_uris":{"android":"levelo://app?vid=17ddbbb5-11e9-4dea-8d48-8df35a23e77a","ios":"levelo://app?vid=17ddbbb5-11e9-4dea-8d48-8df35a23e77a"},"vehicle_type_id":"4","last_reported":1740820121,"current_range_meters":4800,"station_id":"ce4bhqp2rcd13ifvqhng","pricing_plan_id":"cebpf4jnsgd1na2vs0mg"},{"bike_id":"0e07936b-b5f4-4ce0-90ff-73c063994f1c","system_id":"levelo_inurba_marseille","lat":43.3049,"lon":5.37249,"is_reserved":false,"is_disabled":false,"rental_uris":{"android":"levelo://app?vid=0e07936b-b5f4-4ce0-90ff-73c063994f1c","ios":"levelo://app?vid=0e07936b-b5f4-4ce0-90ff-73c063994f1c"},"vehicle_type_id":"4","last_reported":1740820121,"current_range_meters":5600,"station_id":"","pricing_plan_id":"cebpf4jnsgd1na2vs0mg"},{"bike_id":"bbf1c499-6f0f-476f-917e-153d5525548b","system_id":"levelo_inurba_marseille","lat":43.28852,"lon":5.35856,"is_reserved":false,"is_disabled":false,"rental_uris":{"android":"levelo://app?vid=bbf1c499-6f0f-476f-917e-153d5525548b","ios":"levelo://app?vid=bbf1c499-6f0f-476f-917e-153d5525548b"},"vehicle_type_id":"4","last_reported":1740820121,"current_range_meters":5600,"station_id":"ce4bhb12rcd13ifvqem0","pricing_plan_id":"cebpf4jnsgd1na2vs0mg"},{"bike_id":"9753fb54-7bac-4c39-b532-b7089220649f","system_id":"levelo_inurba_marseille","lat":43.3109,"lon":5.42433,"is_reserved":false,"is_disabled":false,"rental_uris":{"android":"levelo://app?vid=9753fb54-7bac-4c39-b532-b7089220649f","ios":"levelo://app?vid=9753fb54-7bac-4c39-b532-b7089220649f"},"vehicle_type_id":"4","last_reported":1740820121,"current_range_meters":5600,"station_id":"ce4bhp92rcd13ifvqhag","pricing_plan_id":"cebpf4jnsgd1na2vs0mg"},{"bike_id":"a6f9897a-4620-48a9-84b8-2e8058aab062","system_id":"levelo_inurba_marseille","lat":43.29551,"lon":5.422813,"is_reserved":false,"is_disabled":false,"rental_uris":{"android":"levelo://app?vid=a6f9897a-4620-48a9-84b8-2e8058aab062","ios":"levelo://app?vid=a6f9897a-4620-48a9-84b8-2e8058aab062"},"vehicle_type_id":"4","last_reported":1740820121,"current_range_meters":5600,"station_id":"ce4bhph2rcd13ifvqhdg","pricing_plan_id":"cebpf4jnsgd1na2vs0mg"},{"bike_id":"121f184f-90a0-4e66-9d33-06a22d0922f3","system_id":"levelo_inurba_marseille","lat":43.24181,"lon":5.36396,"is_reserved":false,"is_disabled":false,"rental_uris":{"android":"levelo://app?vid=121f184f-90a0-4e66-9d33-06a22d0922f3","ios":"levelo://app?vid=121f184f-90a0-4e66-9d33-06a22d0922f3"},"vehicle_type_id":"4","last_reported":1740820121,"current_range_meters":5600,"station_id":"cpo36qri1sfpv3e86is0","pricing_plan_id":"cebpf4jnsgd1na2vs0mg"},{"bike_id":"19586554-7c18-40a9-b8fb-ec6921d0923c","system_id":"levelo_inurba_marseille","lat":43.30371,"lon":5.40453,"is_reserved":false,"is_disabled":false,"rental_uris":{"android":"levelo://app?vid=19586554-7c18-40a9-b8fb-ec6921d0923c","ios":"levelo://app?vid=19586554-7c18-40a9-b8fb-ec6921d0923c"},"vehicle_type_id":"4","last_reported":1740820121,"current_range_meters":6000,"station_id":"","pricing_plan_id":"cebpf4jnsgd1na2vs0mg"},{"bike_id":"67ce8cfb-6f6b-425f-bc83-c1ca88627e6b","system_id":"levelo_inurba_marseille","lat":43.29279,"lon":5.37614,"is_reserved":false,"is_disabled":false,"rental_uris":{"android":"levelo://app?vid=67ce8cfb-6f6b-425f-bc83-c1ca88627e6b","ios":"levelo://app?vid=67ce8cfb-6f6b-425f-bc83-c1ca88627e6b"},"vehicle_type_id":"4","last_reported":1740820121,"current_range_meters":6000,"station_id":"ce4bgi12rcd13ifvqb80","pricing_plan_id":"cebpf4jnsgd1na2vs0mg"},{"bike_id":"0f6049a3-e313-4e18-b127-ada3a95d1f70","system_id":"levelo_inurba_marseille","lat":43.284441,"lon":5.392015,"is_reserved":false,"is_disabled":false,"rental_uris":{"android":"levelo://app?vid=0f6049a3-e313-4e18-b127-ada3a95d1f70","ios":"levelo://app?vid=0f6049a3-e313-4e18-b127-ada3a95d1f70"},"vehicle_type_id":"4","last_reported":1740820121,"current_range_meters":6000,"station_id":"ce4bgnh2rcd13ifvqc0g","pricing_plan_id":"cebpf4jnsgd1na2vs0mg"},{"bike_id":"3947950a-716d-460f-866d-37fc4e410771","system_id":"levelo_inurba_marseille","lat":43.29038,"lon":5.39974,"is_reserved":false,"is_disabled":false,"rental_uris":{"android":"levelo://app?vid=3947950a-716d-460f-866d-37fc4e410771","ios":"levelo://app?vid=3947950a-716d-460f-866d-37fc4e410771"},"vehicle_type_id":"4","last_reported":1740820121,"current_range_meters":6000,"station_id":"ce4bh392rcd13ifvqdm0","pricing_plan_id":"cebpf4jnsgd1na2vs0mg"},{"bike_id":"66bd5900-9cf0-4e68-a2e3-563b34150a38","system_id":"levelo_inurba_marseille","lat":43.29193,"lon":5.35806,"is_reserved":false,"is_disabled":true,"rental_uris":{"android":"levelo://app?vid=66bd5900-9cf0-4e68-a2e3-563b34150a38","ios":"levelo://app?vid=66bd5900-9cf0-4e68-a2e3-563b34150a38"},"vehicle_type_id":"4","last_reported":1740820121,"current_range_meters":6000,"station_id":"ce4bhb12rcd13ifvqel0","pricing_plan_id":"cebpf4jnsgd1na2vs0mg"},{"bike_id":"f26c35c1-6d74-4839-8620-0ecaba4ac374","system_id":"levelo_inurba_marseille","lat":43.25016,"lon":5.38919,"is_reserved":false,"is_disabled":false,"rental_uris":{"android":"levelo://app?vid=f26c35c1-6d74-4839-8620-0ecaba4ac374","ios":"levelo://app?vid=f26c35c1-6d74-4839-8620-0ecaba4ac374"},"vehicle_type_id":"4","last_reported":1740820121,"current_range_meters":6000,"station_id":"ce4bhgp2rcd13ifvqfd0","pricing_plan_id":"cebpf4jnsgd1na2vs0mg"},{"bike_id":"fe1154c3-b6d2-4f1c-ac1d-93c98fc370f9","system_id":"levelo_inurba_marseille","lat":43.26054,"lon":5.39397,"is_reserved":false,"is_disabled":false,"rental_uris":{"android":"levelo://app?vid=fe1154c3-b6d2-4f1c-ac1d-93c98fc370f9","ios":"levelo://app?vid=fe1154c3-b6d2-4f1c-ac1d-93c98fc370f9"},"vehicle_type_id":"4","last_reported":1740820121,"current_range_meters":6000,"station_id":"ce4bhh92rcd13ifvqfj0","pricing_plan_id":"cebpf4jnsgd1na2vs0mg"},{"bike_id":"56bed51d-e692-4c85-bdaa-ba5c0247548c","system_id":"levelo_inurba_marseille","lat":43.256,"lon":5.38255,"is_reserved":false,"is_disabled":false,"rental_uris":{"android":"levelo://app?vid=56bed51d-e692-4c85-bdaa-ba5c0247548c","ios":"levelo://app?vid=56bed51d-e692-4c85-bdaa-ba5c0247548c"},"vehicle_type_id":"4","last_reported":1740820121,"current_range_meters":6000,"station_id":"ce4bhih2rcd13ifvqfs0","pricing_plan_id":"cebpf4jnsgd1na2vs0mg"},{"bike_id":"ddacc038-7f8e-4484-aff6-85b164db717a","system_id":"levelo_inurba_marseille","lat":43.27936,"lon":5.41045,"is_reserved":false,"is_disabled":false,"rental_uris":{"android":"levelo://app?vid=ddacc038-7f8e-4484-aff6-85b164db717a","ios":"levelo://app?vid=ddacc038-7f8e-4484-aff6-85b164db717a"},"vehicle_type_id":"4","last_reported":1740820121,"current_range_meters":6000,"station_id":"ce4bhnp2rcd13ifvqh0g","pricing_plan_id":"cebpf4jnsgd1na2vs0mg"},{"bike_id":"49e0a034-277f-4658-83cf-83e39377ef50","system_id":"levelo_inurba_marseille","lat":43.29499,"lon":5.37913,"is_reserved":false,"is_disabled":false,"rental_uris":{"android":"levelo://app?vid=49e0a034-277f-4658-83cf-83e39377ef50","ios":"levelo://app?vid=49e0a034-277f-4658-83cf-83e39377ef50"},"vehicle_type_id":"4","last_reported":1740820121,"current_range_meters":6400,"station_id":"","pricing_plan_id":"cebpf4jnsgd1na2vs0mg"},{"bike_id":"c02692a7-bb86-473d-9fa1-a9c9c2befe78","system_id":"levelo_inurba_marseille","lat":43.29612,"lon":5.38102,"is_reserved":false,"is_disabled":false,"rental_uris":{"android":"levelo://app?vid=c02692a7-bb86-473d-9fa1-a9c9c2befe78","ios":"levelo://app?vid=c02692a7-bb86-473d-9fa1-a9c9c2befe78"},"vehicle_type_id":"4","last_reported":1740820121,"current_range_meters":6400,"station_id":"ce4bgl12rcd13ifvqbo0","pricing_plan_id":"cebpf4jnsgd1na2vs0mg"},{"bike_id":"bcb3dd3d-4bbe-4a55-8cc6-0ab0579bcdbe","system_id":"levelo_inurba_marseille","lat":43.317092,"lon":5.377526,"is_reserved":false,"is_disabled":false,"rental_uris":{"android":"levelo://app?vid=bcb3dd3d-4bbe-4a55-8cc6-0ab0579bcdbe","ios":"levelo://app?vid=bcb3dd3d-4bbe-4a55-8cc6-0ab0579bcdbe"},"vehicle_type_id":"4","last_reported":1740820121,"current_range_meters":6400,"station_id":"ce4bgth2rcd13ifvqch0","pricing_plan_id":"cebpf4jnsgd1na2vs0mg"},{"bike_id":"226a8882-f9a8-4396-9381-34f5723ed2b0","system_id":"levelo_inurba_marseille","lat":43.30468,"lon":5.37908,"is_reserved":false,"is_disabled":false,"rental_uris":{"android":"levelo://app?vid=226a8882-f9a8-4396-9381-34f5723ed2b0","ios":"levelo://app?vid=226a8882-f9a8-4396-9381-34f5723ed2b0"},"vehicle_type_id":"4","last_reported":1740820121,"current_range_meters":6400,"station_id":"ce4bgup2rcd13ifvqcn0","pricing_plan_id":"cebpf4jnsgd1na2vs0mg"},{"bike_id":"6b4d045b-b996-44ae-aab5-d4fdc23f9001","system_id":"levelo_inurba_marseille","lat":43.29867,"lon":5.39738,"is_reserved":false,"is_disabled":false,"rental_uris":{"android":"levelo://app?vid=6b4d045b-b996-44ae-aab5-d4fdc23f9001","ios":"levelo://app?vid=6b4d045b-b996-44ae-aab5-d4fdc23f9001"},"vehicle_type_id":"4","last_reported":1740820121,"current_range_meters":6400,"station_id":"ce4bh0h2rcd13ifvqd50","pricing_plan_id":"cebpf4jnsgd1na2vs0mg"},{"bike_id":"d051aaac-2cdc-493d-b578-96e3f44e7c11","system_id":"levelo_inurba_marseille","lat":43.28344,"lon":5.38109,"is_reserved":false,"is_disabled":false,"rental_uris":{"android":"levelo://app?vid=d051aaac-2cdc-493d-b578-96e3f44e7c11","ios":"levelo://app?vid=d051aaac-2cdc-493d-b578-96e3f44e7c11"},"vehicle_type_id":"4","last_reported":1740820121,"current_range_meters":6400,"station_id":"ce4bh412rcd13ifvqdr0","pricing_plan_id":"cebpf4jnsgd1na2vs0mg"},{"bike_id":"7d6b2d46-7002-45ce-ba03-574510292fd0","system_id":"levelo_inurba_marseille","lat":43.26691,"lon":5.38283,"is_reserved":false,"is_disabled":false,"rental_uris":{"android":"levelo://app?vid=7d6b2d46-7002-45ce-ba03-574510292fd0","ios":"levelo://app?vid=7d6b2d46-7002-45ce-ba03-574510292fd0"},"vehicle_type_id":"4","last_reported":1740820121,"current_range_meters":6400,"station_id":"ce4bhg92rcd13ifvqf90","pricing_plan_id":"cebpf4jnsgd1na2vs0mg"},{"bike_id":"6e1f9cb9-07de-4fa0-8bc2-5513211ced82","system_id":"levelo_inurba_marseille","lat":43.27211,"lon":5.39194,"is_reserved":false,"is_disabled":false,"rental_uris":{"android":"levelo://app?vid=6e1f9cb9-07de-4fa0-8bc2-5513211ced82","ios":"levelo://app?vid=6e1f9cb9-07de-4fa0-8bc2-5513211ced82"},"vehicle_type_id":"4","last_reported":1740820121,"current_range_meters":6400,"station_id":"ce4bhhp2rcd13ifvqfm0","pricing_plan_id":"cebpf4jnsgd1na2vs0mg"},{"bike_id":"ff0c16a2-18f2-4f54-a133-ed9bc481d444","system_id":"levelo_inurba_marseille","lat":43.2572,"lon":5.41117,"is_reserved":false,"is_disabled":false,"rental_uris":{"android":"levelo://app?vid=ff0c16a2-18f2-4f54-a133-ed9bc481d444","ios":"levelo://app?vid=ff0c16a2-18f2-4f54-a133-ed9bc481d444"},"vehicle_type_id":"4","last_reported":1740820121,"current_range_meters":6400,"station_id":"ce4bhkp2rcd13ifvqgd0","pricing_plan_id":"cebpf4jnsgd1na2vs0mg"},{"bike_id":"f5527591-8017-4310-bd2a-712d9017ed61","system_id":"levelo_inurba_marseille","lat":43.29969,"lon":5.41328,"is_reserved":false,"is_disabled":false,"rental_uris":{"android":"levelo://app?vid=f5527591-8017-4310-bd2a-712d9017ed61","ios":"levelo://app?vid=f5527591-8017-4310-bd2a-712d9017ed61"},"vehicle_type_id":"4","last_reported":1740820121,"current_range_meters":6400,"station_id":"ce4bhp12rcd13ifvqh9g","pricing_plan_id":"cebpf4jnsgd1na2vs0mg"},{"bike_id":"3de9aeda-1f9a-4bbc-8b90-e02a49e56ca9","system_id":"levelo_inurba_marseille","lat":43.23198,"lon":5.35572,"is_reserved":false,"is_disabled":false,"rental_uris":{"android":"levelo://app?vid=3de9aeda-1f9a-4bbc-8b90-e02a49e56ca9","ios":"levelo://app?vid=3de9aeda-1f9a-4bbc-8b90-e02a49e56ca9"},"vehicle_type_id":"4","last_reported":1740820121,"current_range_meters":6400,"station_id":"ce4bhu92rcd13ifvqi70","pricing_plan_id":"cebpf4jnsgd1na2vs0mg"},{"bike_id":"446d45a3-fd79-446d-8d83-629477ddabe7","system_id":"levelo_inurba_marseille","lat":43.30836,"lon":5.39682,"is_reserved":false,"is_disabled":false,"rental_uris":{"android":"levelo://app?vid=446d45a3-fd79-446d-8d83-629477ddabe7","ios":"levelo://app?vid=446d45a3-fd79-446d-8d83-629477ddabe7"},"vehicle_type_id":"4","last_reported":1740820121,"current_range_meters":6800,"station_id":"","pricing_plan_id":"cebpf4jnsgd1na2vs0mg"},{"bike_id":"590cab5b-5d30-42cb-8a35-800e2a5a12ff","system_id":"levelo_inurba_marseille","lat":43.29564,"lon":5.37515,"is_reserved":false,"is_disabled":false,"rental_uris":{"android":"levelo://app?vid=590cab5b-5d30-42cb-8a35-800e2a5a12ff","ios":"levelo://app?vid=590cab5b-5d30-42cb-8a35-800e2a5a12ff"},"vehicle_type_id":"4","last_reported":1740820121,"current_range_meters":6800,"station_id":"ce4bgh92rcd13ifvqb50","pricing_plan_id":"cebpf4jnsgd1na2vs0mg"},{"bike_id":"962e47c9-feed-4c76-85f9-653db156ddb0","system_id":"levelo_inurba_marseille","lat":43.2961,"lon":5.38109,"is_reserved":false,"is_disabled":false,"rental_uris":{"android":"levelo://app?vid=962e47c9-feed-4c76-85f9-653db156ddb0","ios":"levelo://app?vid=962e47c9-feed-4c76-85f9-653db156ddb0"},"vehicle_type_id":"4","last_reported":1740820121,"current_range_meters":6800,"station_id":"ce4bgl12rcd13ifvqbo0","pricing_plan_id":"cebpf4jnsgd1na2vs0mg"},{"bike_id":"b863546c-ce0d-4edd-86e7-43296d23c10b","system_id":"levelo_inurba_marseille","lat":43.30477,"lon":5.37898,"is_reserved":false,"is_disabled":false,"rental_uris":{"android":"levelo://app?vid=b863546c-ce0d-4edd-86e7-43296d23c10b","ios":"levelo://app?vid=b863546c-ce0d-4edd-86e7-43296d23c10b"},"vehicle_type_id":"4","last_reported":1740820121,"current_range_meters":6800,"station_id":"ce4bgup2rcd13ifvqcn0","pricing_plan_id":"cebpf4jnsgd1na2vs0mg"},{"bike_id":"82b16db9-60ae-4dfa-89e6-d4d85d406e40","system_id":"levelo_inurba_marseille","lat":43.27568,"lon":5.38421,"is_reserved":false,"is_disabled":false,"rental_uris":{"android":"levelo://app?vid=82b16db9-60ae-4dfa-89e6-d4d85d406e40","ios":"levelo://app?vid=82b16db9-60ae-4dfa-89e6-d4d85d406e40"},"vehicle_type_id":"4","last_reported":1740820121,"current_range_meters":6800,"station_id":"ce4bhh92rcd13ifvqfi0","pricing_plan_id":"cebpf4jnsgd1na2vs0mg"},{"bike_id":"d7706343-603b-4a04-bbbb-af6dbb14b850","system_id":"levelo_inurba_marseille","lat":43.27208,"lon":5.39187,"is_reserved":false,"is_disabled":false,"rental_uris":{"android":"levelo://app?vid=d7706343-603b-4a04-bbbb-af6dbb14b850","ios":"levelo://app?vid=d7706343-603b-4a04-bbbb-af6dbb14b850"},"vehicle_type_id":"4","last_reported":1740820121,"current_range_meters":6800,"station_id":"ce4bhhp2rcd13ifvqfm0","pricing_plan_id":"cebpf4jnsgd1na2vs0mg"},{"bike_id":"5327f625-0311-4e62-a895-ceadc4ce1f5f","system_id":"levelo_inurba_marseille","lat":43.27061,"lon":5.42265,"is_reserved":false,"is_disabled":false,"rental_uris":{"android":"levelo://app?vid=5327f625-0311-4e62-a895-ceadc4ce1f5f","ios":"levelo://app?vid=5327f625-0311-4e62-a895-ceadc4ce1f5f"},"vehicle_type_id":"4","last_reported":1740820121,"current_range_meters":6800,"station_id":"ce4bhk92rcd13ifvqgb0","pricing_plan_id":"cebpf4jnsgd1na2vs0mg"},{"bike_id":"d653e336-1cf9-47f2-9441-15e65abb981a","system_id":"levelo_inurba_marseille","lat":43.27442,"lon":5.41492,"is_reserved":false,"is_disabled":false,"rental_uris":{"android":"levelo://app?vid=d653e336-1cf9-47f2-9441-15e65abb981a","ios":"levelo://app?vid=d653e336-1cf9-47f2-9441-15e65abb981a"},"vehicle_type_id":"4","last_reported":1740820121,"current_range_meters":7200,"station_id":"","pricing_plan_id":"cebpf4jnsgd1na2vs0mg"},{"bike_id":"33d1f0b9-c434-4b15-b175-07b1e2db9492","system_id":"levelo_inurba_marseille","lat":43.284145,"lon":5.374993,"is_reserved":false,"is_disabled":false,"rental_uris":{"android":"levelo://app?vid=33d1f0b9-c434-4b15-b175-07b1e2db9492","ios":"levelo://app?vid=33d1f0b9-c434-4b15-b175-07b1e2db9492"},"vehicle_type_id":"4","last_reported":1740820121,"current_range_meters":7200,"station_id":"ce4bh692rcd13ifvqe90","pricing_plan_id":"cebpf4jnsgd1na2vs0mg"},{"bike_id":"b8aa61af-0144-4b73-bf44-1bf8a0a7d324","system_id":"levelo_inurba_marseille","lat":43.25582,"lon":5.38254,"is_reserved":false,"is_disabled":false,"rental_uris":{"android":"levelo://app?vid=b8aa61af-0144-4b73-bf44-1bf8a0a7d324","ios":"levelo://app?vid=b8aa61af-0144-4b73-bf44-1bf8a0a7d324"},"vehicle_type_id":"4","last_reported":1740820121,"current_range_meters":7200,"station_id":"ce4bhih2rcd13ifvqfs0","pricing_plan_id":"cebpf4jnsgd1na2vs0mg"},{"bike_id":"0eb726cf-dede-4df2-bdd0-a778a2d75252","system_id":"levelo_inurba_marseille","lat":43.32344,"lon":5.40594,"is_reserved":false,"is_disabled":false,"rental_uris":{"android":"levelo://app?vid=0eb726cf-dede-4df2-bdd0-a778a2d75252","ios":"levelo://app?vid=0eb726cf-dede-4df2-bdd0-a778a2d75252"},"vehicle_type_id":"4","last_reported":1740820121,"current_range_meters":7200,"station_id":"ce4bhq92rcd13ifvqhjg","pricing_plan_id":"cebpf4jnsgd1na2vs0mg"},{"bike_id":"9eb62bd7-0fdc-491b-9eef-be0a9f73fbfb","system_id":"levelo_inurba_marseille","lat":43.24182,"lon":5.36411,"is_reserved":false,"is_disabled":false,"rental_uris":{"android":"levelo://app?vid=9eb62bd7-0fdc-491b-9eef-be0a9f73fbfb","ios":"levelo://app?vid=9eb62bd7-0fdc-491b-9eef-be0a9f73fbfb"},"vehicle_type_id":"4","last_reported":1740820121,"current_range_meters":7200,"station_id":"cpo36qri1sfpv3e86is0","pricing_plan_id":"cebpf4jnsgd1na2vs0mg"},{"bike_id":"d4918d6a-5525-4be8-b0c4-7af64b54343d","system_id":"levelo_inurba_marseille","lat":43.24177,"lon":5.3641,"is_reserved":false,"is_disabled":false,"rental_uris":{"android":"levelo://app?vid=d4918d6a-5525-4be8-b0c4-7af64b54343d","ios":"levelo://app?vid=d4918d6a-5525-4be8-b0c4-7af64b54343d"},"vehicle_type_id":"4","last_reported":1740820121,"current_range_meters":7200,"station_id":"cpo36qri1sfpv3e86is0","pricing_plan_id":"cebpf4jnsgd1na2vs0mg"},{"bike_id":"0e15b3af-18e3-47bf-b11e-f11b559cbb76","system_id":"levelo_inurba_marseille","lat":43.25313,"lon":5.3928,"is_reserved":false,"is_disabled":false,"rental_uris":{"android":"levelo://app?vid=0e15b3af-18e3-47bf-b11e-f11b559cbb76","ios":"levelo://app?vid=0e15b3af-18e3-47bf-b11e-f11b559cbb76"},"vehicle_type_id":"4","last_reported":1740820121,"current_range_meters":8000,"station_id":"","pricing_plan_id":"cebpf4jnsgd1na2vs0mg"},{"bike_id":"aeae2795-7688-4d9b-840b-c7e7ae2affd2","system_id":"levelo_inurba_marseille","lat":43.28498,"lon":5.38421,"is_reserved":false,"is_disabled":false,"rental_uris":{"android":"levelo://app?vid=aeae2795-7688-4d9b-840b-c7e7ae2affd2","ios":"levelo://app?vid=aeae2795-7688-4d9b-840b-c7e7ae2affd2"},"vehicle_type_id":"4","last_reported":1740820121,"current_range_meters":8000,"station_id":"ce4bh512rcd13ifvqe3g","pricing_plan_id":"cebpf4jnsgd1na2vs0mg"},{"bike_id":"9458a132-a20d-4812-9334-707d5e3ec62b","system_id":"levelo_inurba_marseille","lat":43.28463,"lon":5.35898,"is_reserved":false,"is_disabled":false,"rental_uris":{"android":"levelo://app?vid=9458a132-a20d-4812-9334-707d5e3ec62b","ios":"levelo://app?vid=9458a132-a20d-4812-9334-707d5e3ec62b"},"vehicle_type_id":"4","last_reported":1740820121,"current_range_meters":8000,"station_id":"ce4bhah2rcd13ifvqei0","pricing_plan_id":"cebpf4jnsgd1na2vs0mg"},{"bike_id":"9b94e473-384b-487d-bf65-7e7fb4a4a34d","system_id":"levelo_inurba_marseille","lat":43.27963,"lon":5.38728,"is_reserved":false,"is_disabled":false,"rental_uris":{"android":"levelo://app?vid=9b94e473-384b-487d-bf65-7e7fb4a4a34d","ios":"levelo://app?vid=9b94e473-384b-487d-bf65-7e7fb4a4a34d"},"vehicle_type_id":"4","last_reported":1740820121,"current_range_meters":8000,"station_id":"ce4bhg12rcd13ifvqf80","pricing_plan_id":"cebpf4jnsgd1na2vs0mg"},{"bike_id":"a1866f5d-c65f-4013-a887-862db84a5c62","system_id":"levelo_inurba_marseille","lat":43.26692,"lon":5.38266,"is_reserved":false,"is_disabled":false,"rental_uris":{"android":"levelo://app?vid=a1866f5d-c65f-4013-a887-862db84a5c62","ios":"levelo://app?vid=a1866f5d-c65f-4013-a887-862db84a5c62"},"vehicle_type_id":"4","last_reported":1740820121,"current_range_meters":8000,"station_id":"ce4bhg92rcd13ifvqf90","pricing_plan_id":"cebpf4jnsgd1na2vs0mg"},{"bike_id":"d450afcf-676c-402c-8f2f-edc15cb61862","system_id":"levelo_inurba_marseille","lat":43.24823,"lon":5.37463,"is_reserved":false,"is_disabled":false,"rental_uris":{"android":"levelo://app?vid=d450afcf-676c-402c-8f2f-edc15cb61862","ios":"levelo://app?vid=d450afcf-676c-402c-8f2f-edc15cb61862"},"vehicle_type_id":"4","last_reported":1740820121,"current_range_meters":8000,"station_id":"ce4bhgh2rcd13ifvqfb0","pricing_plan_id":"cebpf4jnsgd1na2vs0mg"},{"bike_id":"8dbd79ab-8d7e-44ba-9f11-4afd7e562df1","system_id":"levelo_inurba_marseille","lat":43.25004,"lon":5.38929,"is_reserved":false,"is_disabled":false,"rental_uris":{"android":"levelo://app?vid=8dbd79ab-8d7e-44ba-9f11-4afd7e562df1","ios":"levelo://app?vid=8dbd79ab-8d7e-44ba-9f11-4afd7e562df1"},"vehicle_type_id":"4","last_reported":1740820121,"current_range_meters":8000,"station_id":"ce4bhgp2rcd13ifvqfd0","pricing_plan_id":"cebpf4jnsgd1na2vs0mg"},{"bike_id":"2bd9cf6f-d37c-4bfb-a3bd-98b4cfd9a500","system_id":"levelo_inurba_marseille","lat":43.26224,"lon":5.39704,"is_reserved":false,"is_disabled":false,"rental_uris":{"android":"levelo://app?vid=2bd9cf6f-d37c-4bfb-a3bd-98b4cfd9a500","ios":"levelo://app?vid=2bd9cf6f-d37c-4bfb-a3bd-98b4cfd9a500"},"vehicle_type_id":"4","last_reported":1740820121,"current_range_meters":8000,"station_id":"ce4bhlh2rcd13ifvqgig","pricing_plan_id":"cebpf4jnsgd1na2vs0mg"},{"bike_id":"620ba232-2d97-4cfe-bdaf-3a50962fd2de","system_id":"levelo_inurba_marseille","lat":43.2784,"lon":5.4075,"is_reserved":false,"is_disabled":false,"rental_uris":{"android":"levelo://app?vid=620ba232-2d97-4cfe-bdaf-3a50962fd2de","ios":"levelo://app?vid=620ba232-2d97-4cfe-bdaf-3a50962fd2de"},"vehicle_type_id":"4","last_reported":1740820121,"current_range_meters":8000,"station_id":"ce4bhnh2rcd13ifvqgtg","pricing_plan_id":"cebpf4jnsgd1na2vs0mg"},{"bike_id":"468cc411-5a10-46f4-8919-d9a120794357","system_id":"levelo_inurba_marseille","lat":43.28009,"lon":5.4002,"is_reserved":false,"is_disabled":false,"rental_uris":{"android":"levelo://app?vid=468cc411-5a10-46f4-8919-d9a120794357","ios":"levelo://app?vid=468cc411-5a10-46f4-8919-d9a120794357"},"vehicle_type_id":"4","last_reported":1740820121,"current_range_meters":8000,"station_id":"ce4bho92rcd13ifvqh4g","pricing_plan_id":"cebpf4jnsgd1na2vs0mg"},{"bike_id":"5c79591b-3517-4ebe-b02b-e5c31a4f6853","system_id":"levelo_inurba_marseille","lat":43.26916,"lon":5.40249,"is_reserved":false,"is_disabled":false,"rental_uris":{"android":"levelo://app?vid=5c79591b-3517-4ebe-b02b-e5c31a4f6853","ios":"levelo://app?vid=5c79591b-3517-4ebe-b02b-e5c31a4f6853"},"vehicle_type_id":"4","last_reported":1740820121,"current_range_meters":8000,"station_id":"cjm6bp8fraef2m0cb0m0","pricing_plan_id":"cebpf4jnsgd1na2vs0mg"},{"bike_id":"be047da3-12fb-470e-9d78-68641c40dc2c","system_id":"levelo_inurba_marseille","lat":43.28666,"lon":5.41062,"is_reserved":false,"is_disabled":false,"rental_uris":{"android":"levelo://app?vid=be047da3-12fb-470e-9d78-68641c40dc2c","ios":"levelo://app?vid=be047da3-12fb-470e-9d78-68641c40dc2c"},"vehicle_type_id":"4","last_reported":1740820121,"current_range_meters":8400,"station_id":"","pricing_plan_id":"cebpf4jnsgd1na2vs0mg"},{"bike_id":"d81e3de4-23fb-4256-9352-a66135130910","system_id":"levelo_inurba_marseille","lat":43.29797,"lon":5.38109,"is_reserved":false,"is_disabled":false,"rental_uris":{"android":"levelo://app?vid=d81e3de4-23fb-4256-9352-a66135130910","ios":"levelo://app?vid=d81e3de4-23fb-4256-9352-a66135130910"},"vehicle_type_id":"4","last_reported":1740820121,"current_range_meters":8400,"station_id":"ce4bgip2rcd13ifvqbb0","pricing_plan_id":"cebpf4jnsgd1na2vs0mg"},{"bike_id":"a5841749-abe8-4b38-b48c-2deb88c2d094","system_id":"levelo_inurba_marseille","lat":43.316985,"lon":5.377631,"is_reserved":false,"is_disabled":false,"rental_uris":{"android":"levelo://app?vid=a5841749-abe8-4b38-b48c-2deb88c2d094","ios":"levelo://app?vid=a5841749-abe8-4b38-b48c-2deb88c2d094"},"vehicle_type_id":"4","last_reported":1740820121,"current_range_meters":8400,"station_id":"ce4bgth2rcd13ifvqch0","pricing_plan_id":"cebpf4jnsgd1na2vs0mg"},{"bike_id":"44a9b49b-687c-42ec-b31a-1a2a7b71f3f8","system_id":"levelo_inurba_marseille","lat":43.231854,"lon":5.399833,"is_reserved":false,"is_disabled":false,"rental_uris":{"android":"levelo://app?vid=44a9b49b-687c-42ec-b31a-1a2a7b71f3f8","ios":"levelo://app?vid=44a9b49b-687c-42ec-b31a-1a2a7b71f3f8"},"vehicle_type_id":"4","last_reported":1740820121,"current_range_meters":8400,"station_id":"ce4bhn12rcd13ifvqgqg","pricing_plan_id":"cebpf4jnsgd1na2vs0mg"},{"bike_id":"749fee80-dfaa-43de-aa58-d21bbf5e0792","system_id":"levelo_inurba_marseille","lat":43.23194,"lon":5.4002,"is_reserved":false,"is_disabled":false,"rental_uris":{"android":"levelo://app?vid=749fee80-dfaa-43de-aa58-d21bbf5e0792","ios":"levelo://app?vid=749fee80-dfaa-43de-aa58-d21bbf5e0792"},"vehicle_type_id":"4","last_reported":1740820121,"current_range_meters":8400,"station_id":"ce4bhn12rcd13ifvqgqg","pricing_plan_id":"cebpf4jnsgd1na2vs0mg"},{"bike_id":"d5481c01-2984-43f7-9ca9-876cf6aa8921","system_id":"levelo_inurba_marseille","lat":43.28004,"lon":5.40014,"is_reserved":false,"is_disabled":false,"rental_uris":{"android":"levelo://app?vid=d5481c01-2984-43f7-9ca9-876cf6aa8921","ios":"levelo://app?vid=d5481c01-2984-43f7-9ca9-876cf6aa8921"},"vehicle_type_id":"4","last_reported":1740820121,"current_range_meters":8400,"station_id":"ce4bho92rcd13ifvqh4g","pricing_plan_id":"cebpf4jnsgd1na2vs0mg"},{"bike_id":"73b59bd6-240d-4f85-92a3-b23b3e6d114c","system_id":"levelo_inurba_marseille","lat":43.31725,"lon":5.42384,"is_reserved":false,"is_disabled":false,"rental_uris":{"android":"levelo://app?vid=73b59bd6-240d-4f85-92a3-b23b3e6d114c","ios":"levelo://app?vid=73b59bd6-240d-4f85-92a3-b23b3e6d114c"},"vehicle_type_id":"4","last_reported":1740820121,"current_range_meters":8400,"station_id":"ce4bhp92rcd13ifvqhbg","pricing_plan_id":"cebpf4jnsgd1na2vs0mg"},{"bike_id":"2b4615ec-d1e9-4cda-8266-4761376aec6e","system_id":"levelo_inurba_marseille","lat":43.31715,"lon":5.43703,"is_reserved":false,"is_disabled":false,"rental_uris":{"android":"levelo://app?vid=2b4615ec-d1e9-4cda-8266-4761376aec6e","ios":"levelo://app?vid=2b4615ec-d1e9-4cda-8266-4761376aec6e"},"vehicle_type_id":"4","last_reported":1740820121,"current_range_meters":8400,"station_id":"ce4bhp92rcd13ifvqhcg","pricing_plan_id":"cebpf4jnsgd1na2vs0mg"},{"bike_id":"257c4849-dc72-4ebc-b295-ab798a49160b","system_id":"levelo_inurba_marseille","lat":43.26196,"lon":5.38132,"is_reserved":false,"is_disabled":false,"rental_uris":{"android":"levelo://app?vid=257c4849-dc72-4ebc-b295-ab798a49160b","ios":"levelo://app?vid=257c4849-dc72-4ebc-b295-ab798a49160b"},"vehicle_type_id":"4","last_reported":1740820121,"current_range_meters":8800,"station_id":"","pricing_plan_id":"cebpf4jnsgd1na2vs0mg"},{"bike_id":"6f033c2d-3761-4136-8d9a-95de6b4430d6","system_id":"levelo_inurba_marseille","lat":43.29264,"lon":5.40908,"is_reserved":false,"is_disabled":false,"rental_uris":{"android":"levelo://app?vid=6f033c2d-3761-4136-8d9a-95de6b4430d6","ios":"levelo://app?vid=6f033c2d-3761-4136-8d9a-95de6b4430d6"},"vehicle_type_id":"4","last_reported":1740820121,"current_range_meters":8800,"station_id":"ce4bh192rcd13ifvqdc0","pricing_plan_id":"cebpf4jnsgd1na2vs0mg"},{"bike_id":"bb113d46-ee53-44da-bdcc-afcf6081c369","system_id":"levelo_inurba_marseille","lat":43.27913,"lon":5.39573,"is_reserved":false,"is_disabled":false,"rental_uris":{"android":"levelo://app?vid=bb113d46-ee53-44da-bdcc-afcf6081c369","ios":"levelo://app?vid=bb113d46-ee53-44da-bdcc-afcf6081c369"},"vehicle_type_id":"4","last_reported":1740820121,"current_range_meters":8800,"station_id":"ce4bhf92rcd13ifvqf40","pricing_plan_id":"cebpf4jnsgd1na2vs0mg"},{"bike_id":"06462d8e-0f40-47c3-b9cb-b96739e97a65","system_id":"levelo_inurba_marseille","lat":43.25503,"lon":5.37658,"is_reserved":false,"is_disabled":false,"rental_uris":{"android":"levelo://app?vid=06462d8e-0f40-47c3-b9cb-b96739e97a65","ios":"levelo://app?vid=06462d8e-0f40-47c3-b9cb-b96739e97a65"},"vehicle_type_id":"4","last_reported":1740820121,"current_range_meters":8800,"station_id":"ce4bhh12rcd13ifvqff0","pricing_plan_id":"cebpf4jnsgd1na2vs0mg"},{"bike_id":"f59bd016-cc74-4c73-bc0e-4dda7c891dee","system_id":"levelo_inurba_marseille","lat":43.28156,"lon":5.42644,"is_reserved":false,"is_disabled":false,"rental_uris":{"android":"levelo://app?vid=f59bd016-cc74-4c73-bc0e-4dda7c891dee","ios":"levelo://app?vid=f59bd016-cc74-4c73-bc0e-4dda7c891dee"},"vehicle_type_id":"4","last_reported":1740820121,"current_range_meters":8800,"station_id":"ce4bhnh2rcd13ifvqgug","pricing_plan_id":"cebpf4jnsgd1na2vs0mg"},{"bike_id":"bd4d047f-c101-4bc6-bd96-59ee035f5a00","system_id":"levelo_inurba_marseille","lat":43.28724,"lon":5.38911,"is_reserved":false,"is_disabled":false,"rental_uris":{"android":"levelo://app?vid=bd4d047f-c101-4bc6-bd96-59ee035f5a00","ios":"levelo://app?vid=bd4d047f-c101-4bc6-bd96-59ee035f5a00"},"vehicle_type_id":"4","last_reported":1740820121,"current_range_meters":9200,"station_id":"","pricing_plan_id":"cebpf4jnsgd1na2vs0mg"},{"bike_id":"b3aa44fa-d281-4cdc-901e-fe96b30fb89b","system_id":"levelo_inurba_marseille","lat":43.30207,"lon":5.38098,"is_reserved":false,"is_disabled":false,"rental_uris":{"android":"levelo://app?vid=b3aa44fa-d281-4cdc-901e-fe96b30fb89b","ios":"levelo://app?vid=b3aa44fa-d281-4cdc-901e-fe96b30fb89b"},"vehicle_type_id":"4","last_reported":1740820121,"current_range_meters":9200,"station_id":"","pricing_plan_id":"cebpf4jnsgd1na2vs0mg"},{"bike_id":"c676db48-685f-457a-94dc-42d91965c973","system_id":"levelo_inurba_marseille","lat":43.30176,"lon":5.38085,"is_reserved":false,"is_disabled":false,"rental_uris":{"android":"levelo://app?vid=c676db48-685f-457a-94dc-42d91965c973","ios":"levelo://app?vid=c676db48-685f-457a-94dc-42d91965c973"},"vehicle_type_id":"4","last_reported":1740820121,"current_range_meters":9200,"station_id":"ce4bgjp2rcd13ifvqbh0","pricing_plan_id":"cebpf4jnsgd1na2vs0mg"},{"bike_id":"931f3555-3973-4f62-8fa7-a8f43d99c4d4","system_id":"levelo_inurba_marseille","lat":43.30966,"lon":5.39053,"is_reserved":false,"is_disabled":false,"rental_uris":{"android":"levelo://app?vid=931f3555-3973-4f62-8fa7-a8f43d99c4d4","ios":"levelo://app?vid=931f3555-3973-4f62-8fa7-a8f43d99c4d4"},"vehicle_type_id":"4","last_reported":1740820121,"current_range_meters":9200,"station_id":"ce4bgup2rcd13ifvqco0","pricing_plan_id":"cebpf4jnsgd1na2vs0mg"},{"bike_id":"d20a9730-b3cc-4569-9c20-389c16720bd5","system_id":"levelo_inurba_marseille","lat":43.30889,"lon":5.39665,"is_reserved":false,"is_disabled":false,"rental_uris":{"android":"levelo://app?vid=d20a9730-b3cc-4569-9c20-389c16720bd5","ios":"levelo://app?vid=d20a9730-b3cc-4569-9c20-389c16720bd5"},"vehicle_type_id":"4","last_reported":1740820121,"current_range_meters":9200,"station_id":"ce4bh012rcd13ifvqcv0","pricing_plan_id":"cebpf4jnsgd1na2vs0mg"},{"bike_id":"7182befa-9a6c-49d3-acb0-e8c44e21d25e","system_id":"levelo_inurba_marseille","lat":43.255766,"lon":5.382519,"is_reserved":false,"is_disabled":false,"rental_uris":{"android":"levelo://app?vid=7182befa-9a6c-49d3-acb0-e8c44e21d25e","ios":"levelo://app?vid=7182befa-9a6c-49d3-acb0-e8c44e21d25e"},"vehicle_type_id":"4","last_reported":1740820121,"current_range_meters":9200,"station_id":"ce4bhih2rcd13ifvqfs0","pricing_plan_id":"cebpf4jnsgd1na2vs0mg"},{"bike_id":"3f5e4c77-943b-4a46-b257-614bf13afec4","system_id":"levelo_inurba_marseille","lat":43.24173,"lon":5.36396,"is_reserved":false,"is_disabled":false,"rental_uris":{"android":"levelo://app?vid=3f5e4c77-943b-4a46-b257-614bf13afec4","ios":"levelo://app?vid=3f5e4c77-943b-4a46-b257-614bf13afec4"},"vehicle_type_id":"4","last_reported":1740820121,"current_range_meters":9200,"station_id":"cpo36qri1sfpv3e86is0","pricing_plan_id":"cebpf4jnsgd1na2vs0mg"},{"bike_id":"ddbaa90a-e783-43ce-8da1-819da025f899","system_id":"levelo_inurba_marseille","lat":43.29972,"lon":5.38495,"is_reserved":false,"is_disabled":false,"rental_uris":{"android":"levelo://app?vid=ddbaa90a-e783-43ce-8da1-819da025f899","ios":"levelo://app?vid=ddbaa90a-e783-43ce-8da1-819da025f899"},"vehicle_type_id":"4","last_reported":1740820121,"current_range_meters":9600,"station_id":"ce4bgj92rcd13ifvqbd0","pricing_plan_id":"cebpf4jnsgd1na2vs0mg"},{"bike_id":"eacf102a-a5f5-4fc0-9792-4024347503cf","system_id":"levelo_inurba_marseille","lat":43.29047,"lon":5.39957,"is_reserved":false,"is_disabled":false,"rental_uris":{"android":"levelo://app?vid=eacf102a-a5f5-4fc0-9792-4024347503cf","ios":"levelo://app?vid=eacf102a-a5f5-4fc0-9792-4024347503cf"},"vehicle_type_id":"4","last_reported":1740820121,"current_range_meters":9600,"station_id":"ce4bh392rcd13ifvqdm0","pricing_plan_id":"cebpf4jnsgd1na2vs0mg"},{"bike_id":"94d93eb2-b5f5-4f0b-ae0e-88e26f1e4d83","system_id":"levelo_inurba_marseille","lat":43.27418,"lon":5.39418,"is_reserved":false,"is_disabled":false,"rental_uris":{"android":"levelo://app?vid=94d93eb2-b5f5-4f0b-ae0e-88e26f1e4d83","ios":"levelo://app?vid=94d93eb2-b5f5-4f0b-ae0e-88e26f1e4d83"},"vehicle_type_id":"4","last_reported":1740820121,"current_range_meters":9600,"station_id":"ce4bhdp2rcd13ifvqf20","pricing_plan_id":"cebpf4jnsgd1na2vs0mg"},{"bike_id":"05cc6ffa-20dc-486a-9bd5-c3143ae1663b","system_id":"levelo_inurba_marseille","lat":43.27923,"lon":5.3958,"is_reserved":false,"is_disabled":false,"rental_uris":{"android":"levelo://app?vid=05cc6ffa-20dc-486a-9bd5-c3143ae1663b","ios":"levelo://app?vid=05cc6ffa-20dc-486a-9bd5-c3143ae1663b"},"vehicle_type_id":"4","last_reported":1740820121,"current_range_meters":9600,"station_id":"ce4bhf92rcd13ifvqf40","pricing_plan_id":"cebpf4jnsgd1na2vs0mg"},{"bike_id":"2d72afd4-b390-440f-8a0e-1bf7ab7bdfe5","system_id":"levelo_inurba_marseille","lat":43.27317,"lon":5.39088,"is_reserved":false,"is_disabled":false,"rental_uris":{"android":"levelo://app?vid=2d72afd4-b390-440f-8a0e-1bf7ab7bdfe5","ios":"levelo://app?vid=2d72afd4-b390-440f-8a0e-1bf7ab7bdfe5"},"vehicle_type_id":"4","last_reported":1740820121,"current_range_meters":9600,"station_id":"ce4bhgp2rcd13ifvqfe0","pricing_plan_id":"cebpf4jnsgd1na2vs0mg"},{"bike_id":"8f405042-bed3-494d-85ed-0b34b8de15fc","system_id":"levelo_inurba_marseille","lat":43.26934,"lon":5.389175,"is_reserved":false,"is_disabled":false,"rental_uris":{"android":"levelo://app?vid=8f405042-bed3-494d-85ed-0b34b8de15fc","ios":"levelo://app?vid=8f405042-bed3-494d-85ed-0b34b8de15fc"},"vehicle_type_id":"4","last_reported":1740820121,"current_range_meters":9600,"station_id":"ce4bhhh2rcd13ifvqfl0","pricing_plan_id":"cebpf4jnsgd1na2vs0mg"},{"bike_id":"4987fcf8-7b90-4329-86bc-2c15e872fcde","system_id":"levelo_inurba_marseille","lat":43.27072,"lon":5.40267,"is_reserved":false,"is_disabled":false,"rental_uris":{"android":"levelo://app?vid=4987fcf8-7b90-4329-86bc-2c15e872fcde","ios":"levelo://app?vid=4987fcf8-7b90-4329-86bc-2c15e872fcde"},"vehicle_type_id":"4","last_reported":1740820121,"current_range_meters":9600,"station_id":"ce4bhk92rcd13ifvqgc0","pricing_plan_id":"cebpf4jnsgd1na2vs0mg"},{"bike_id":"a25a4bca-1a72-419f-af06-cf47c412ca14","system_id":"levelo_inurba_marseille","lat":43.30815,"lon":5.43545,"is_reserved":false,"is_disabled":false,"rental_uris":{"android":"levelo://app?vid=a25a4bca-1a72-419f-af06-cf47c412ca14","ios":"levelo://app?vid=a25a4bca-1a72-419f-af06-cf47c412ca14"},"vehicle_type_id":"4","last_reported":1740820121,"current_range_meters":9600,"station_id":"ce4bhph2rcd13ifvqheg","pricing_plan_id":"cebpf4jnsgd1na2vs0mg"},{"bike_id":"87b985b0-b21a-457b-876e-995bf2ff8f5e","system_id":"levelo_inurba_marseille","lat":43.321136,"lon":5.367853,"is_reserved":false,"is_disabled":false,"rental_uris":{"android":"levelo://app?vid=87b985b0-b21a-457b-876e-995bf2ff8f5e","ios":"levelo://app?vid=87b985b0-b21a-457b-876e-995bf2ff8f5e"},"vehicle_type_id":"4","last_reported":1740820121,"current_range_meters":9600,"station_id":"ce4bhrh2rcd13ifvqhug","pricing_plan_id":"cebpf4jnsgd1na2vs0mg"},{"bike_id":"364b209e-752e-45ea-b26c-06b2552c1833","system_id":"levelo_inurba_marseille","lat":43.23211,"lon":5.35563,"is_reserved":false,"is_disabled":false,"rental_uris":{"android":"levelo://app?vid=364b209e-752e-45ea-b26c-06b2552c1833","ios":"levelo://app?vid=364b209e-752e-45ea-b26c-06b2552c1833"},"vehicle_type_id":"4","last_reported":1740820121,"current_range_meters":9600,"station_id":"ce4bhu92rcd13ifvqi70","pricing_plan_id":"cebpf4jnsgd1na2vs0mg"},{"bike_id":"593edb3c-7add-4a3d-9dbe-95cef549de0d","system_id":"levelo_inurba_marseille","lat":43.23071,"lon":5.35498,"is_reserved":false,"is_disabled":false,"rental_uris":{"android":"levelo://app?vid=593edb3c-7add-4a3d-9dbe-95cef549de0d","ios":"levelo://app?vid=593edb3c-7add-4a3d-9dbe-95cef549de0d"},"vehicle_type_id":"4","last_reported":1740820121,"current_range_meters":9600,"station_id":"cpo3342slgdg3j2ifvpg","pricing_plan_id":"cebpf4jnsgd1na2vs0mg"},{"bike_id":"49e9cdc7-76a5-4b66-ae2d-61c73beb73a8","system_id":"levelo_inurba_marseille","lat":43.24181,"lon":5.36399,"is_reserved":false,"is_disabled":false,"rental_uris":{"android":"levelo://app?vid=49e9cdc7-76a5-4b66-ae2d-61c73beb73a8","ios":"levelo://app?vid=49e9cdc7-76a5-4b66-ae2d-61c73beb73a8"},"vehicle_type_id":"4","last_reported":1740820121,"current_range_meters":9600,"station_id":"cpo36qri1sfpv3e86is0","pricing_plan_id":"cebpf4jnsgd1na2vs0mg"},{"bike_id":"ab8bd1e7-5a94-4820-b9b1-2f83a37d298a","system_id":"levelo_inurba_marseille","lat":43.29616,"lon":5.3811,"is_reserved":false,"is_disabled":false,"rental_uris":{"android":"levelo://app?vid=ab8bd1e7-5a94-4820-b9b1-2f83a37d298a","ios":"levelo://app?vid=ab8bd1e7-5a94-4820-b9b1-2f83a37d298a"},"vehicle_type_id":"4","last_reported":1740820121,"current_range_meters":10000,"station_id":"ce4bgl12rcd13ifvqbo0","pricing_plan_id":"cebpf4jnsgd1na2vs0mg"},{"bike_id":"44344a94-31eb-4715-9cad-57e31236f5ee","system_id":"levelo_inurba_marseille","lat":43.30325,"lon":5.36904,"is_reserved":false,"is_disabled":false,"rental_uris":{"android":"levelo://app?vid=44344a94-31eb-4715-9cad-57e31236f5ee","ios":"levelo://app?vid=44344a94-31eb-4715-9cad-57e31236f5ee"},"vehicle_type_id":"4","last_reported":1740820121,"current_range_meters":10000,"station_id":"ce4bgqh2rcd13ifvqc5g","pricing_plan_id":"cebpf4jnsgd1na2vs0mg"},{"bike_id":"a0413a2e-da7a-4e75-97a5-df9e4003a7ae","system_id":"levelo_inurba_marseille","lat":43.30293,"lon":5.37713,"is_reserved":false,"is_disabled":false,"rental_uris":{"android":"levelo://app?vid=a0413a2e-da7a-4e75-97a5-df9e4003a7ae","ios":"levelo://app?vid=a0413a2e-da7a-4e75-97a5-df9e4003a7ae"},"vehicle_type_id":"4","last_reported":1740820121,"current_range_meters":10000,"station_id":"ce4bguh2rcd13ifvqcj0","pricing_plan_id":"cebpf4jnsgd1na2vs0mg"},{"bike_id":"da3e6042-465d-4378-9a06-2b5cff3c2c8d","system_id":"levelo_inurba_marseille","lat":43.30459,"lon":5.3791,"is_reserved":false,"is_disabled":false,"rental_uris":{"android":"levelo://app?vid=da3e6042-465d-4378-9a06-2b5cff3c2c8d","ios":"levelo://app?vid=da3e6042-465d-4378-9a06-2b5cff3c2c8d"},"vehicle_type_id":"4","last_reported":1740820121,"current_range_meters":10000,"station_id":"ce4bgup2rcd13ifvqcn0","pricing_plan_id":"cebpf4jnsgd1na2vs0mg"},{"bike_id":"38e4208e-f256-4294-9ec9-809b58394803","system_id":"levelo_inurba_marseille","lat":43.31362,"lon":5.39717,"is_reserved":false,"is_disabled":false,"rental_uris":{"android":"levelo://app?vid=38e4208e-f256-4294-9ec9-809b58394803","ios":"levelo://app?vid=38e4208e-f256-4294-9ec9-809b58394803"},"vehicle_type_id":"4","last_reported":1740820121,"current_range_meters":10000,"station_id":"ce4bgvp2rcd13ifvqcu0","pricing_plan_id":"cebpf4jnsgd1na2vs0mg"},{"bike_id":"b08dbcf0-1e3c-421f-93f6-a17fac885ab4","system_id":"levelo_inurba_marseille","lat":43.27384,"lon":5.36259,"is_reserved":false,"is_disabled":false,"rental_uris":{"android":"levelo://app?vid=b08dbcf0-1e3c-421f-93f6-a17fac885ab4","ios":"levelo://app?vid=b08dbcf0-1e3c-421f-93f6-a17fac885ab4"},"vehicle_type_id":"4","last_reported":1740820121,"current_range_meters":10000,"station_id":"ce4bhbh2rcd13ifvqeo0","pricing_plan_id":"cebpf4jnsgd1na2vs0mg"},{"bike_id":"be10b658-6853-4344-941a-dc3e450af712","system_id":"levelo_inurba_marseille","lat":43.25088,"lon":5.39524,"is_reserved":false,"is_disabled":false,"rental_uris":{"android":"levelo://app?vid=be10b658-6853-4344-941a-dc3e450af712","ios":"levelo://app?vid=be10b658-6853-4344-941a-dc3e450af712"},"vehicle_type_id":"4","last_reported":1740820121,"current_range_meters":10000,"station_id":"ce4bhm12rcd13ifvqgkg","pricing_plan_id":"cebpf4jnsgd1na2vs0mg"},{"bike_id":"152d5173-ed9c-4346-9b22-eb5f34e49026","system_id":"levelo_inurba_marseille","lat":43.28011,"lon":5.40015,"is_reserved":false,"is_disabled":false,"rental_uris":{"android":"levelo://app?vid=152d5173-ed9c-4346-9b22-eb5f34e49026","ios":"levelo://app?vid=152d5173-ed9c-4346-9b22-eb5f34e49026"},"vehicle_type_id":"4","last_reported":1740820121,"current_range_meters":10000,"station_id":"ce4bho92rcd13ifvqh4g","pricing_plan_id":"cebpf4jnsgd1na2vs0mg"},{"bike_id":"7d9d849c-c5d6-4bc9-adff-7d7a82f1ca03","system_id":"levelo_inurba_marseille","lat":43.30362,"lon":5.41879,"is_reserved":false,"is_disabled":false,"rental_uris":{"android":"levelo://app?vid=7d9d849c-c5d6-4bc9-adff-7d7a82f1ca03","ios":"levelo://app?vid=7d9d849c-c5d6-4bc9-adff-7d7a82f1ca03"},"vehicle_type_id":"4","last_reported":1740820121,"current_range_meters":10000,"station_id":"ce4bhop2rcd13ifvqh7g","pricing_plan_id":"cebpf4jnsgd1na2vs0mg"},{"bike_id":"10e0b7b4-1f78-4c31-bd18-a1e33aa836ce","system_id":"levelo_inurba_marseille","lat":43.33607,"lon":5.41049,"is_reserved":false,"is_disabled":false,"rental_uris":{"android":"levelo://app?vid=10e0b7b4-1f78-4c31-bd18-a1e33aa836ce","ios":"levelo://app?vid=10e0b7b4-1f78-4c31-bd18-a1e33aa836ce"},"vehicle_type_id":"4","last_reported":1740820121,"current_range_meters":10000,"station_id":"ce4bhqh2rcd13ifvqhmg","pricing_plan_id":"cebpf4jnsgd1na2vs0mg"},{"bike_id":"20b99df9-03ab-4841-80fa-c0d486f288be","system_id":"levelo_inurba_marseille","lat":43.23195,"lon":5.35556,"is_reserved":false,"is_disabled":false,"rental_uris":{"android":"levelo://app?vid=20b99df9-03ab-4841-80fa-c0d486f288be","ios":"levelo://app?vid=20b99df9-03ab-4841-80fa-c0d486f288be"},"vehicle_type_id":"4","last_reported":1740820121,"current_range_meters":10000,"station_id":"ce4bhu92rcd13ifvqi70","pricing_plan_id":"cebpf4jnsgd1na2vs0mg"},{"bike_id":"597c78d8-1097-48db-b3be-fafc8754eab9","system_id":"levelo_inurba_marseille","lat":43.24169,"lon":5.36407,"is_reserved":false,"is_disabled":false,"rental_uris":{"android":"levelo://app?vid=597c78d8-1097-48db-b3be-fafc8754eab9","ios":"levelo://app?vid=597c78d8-1097-48db-b3be-fafc8754eab9"},"vehicle_type_id":"4","last_reported":1740820121,"current_range_meters":10000,"station_id":"cpo36qri1sfpv3e86is0","pricing_plan_id":"cebpf4jnsgd1na2vs0mg"},{"bike_id":"d7bd17fb-d0a5-4e44-9e97-7bacfee99920","system_id":"levelo_inurba_marseille","lat":43.30958,"lon":5.39037,"is_reserved":false,"is_disabled":false,"rental_uris":{"android":"levelo://app?vid=d7bd17fb-d0a5-4e44-9e97-7bacfee99920","ios":"levelo://app?vid=d7bd17fb-d0a5-4e44-9e97-7bacfee99920"},"vehicle_type_id":"4","last_reported":1740820121,"current_range_meters":10800,"station_id":"ce4bgup2rcd13ifvqco0","pricing_plan_id":"cebpf4jnsgd1na2vs0mg"},{"bike_id":"f7e969b9-30da-4a12-9fbc-e6e05e9966aa","system_id":"levelo_inurba_marseille","lat":43.26191,"lon":5.37445,"is_reserved":false,"is_disabled":false,"rental_uris":{"android":"levelo://app?vid=f7e969b9-30da-4a12-9fbc-e6e05e9966aa","ios":"levelo://app?vid=f7e969b9-30da-4a12-9fbc-e6e05e9966aa"},"vehicle_type_id":"4","last_reported":1740820121,"current_range_meters":10800,"station_id":"ce4bhgp2rcd13ifvqfc0","pricing_plan_id":"cebpf4jnsgd1na2vs0mg"},{"bike_id":"d1f960fc-a9ff-4a16-afec-36a3bcca7f90","system_id":"levelo_inurba_marseille","lat":43.273067,"lon":5.391207,"is_reserved":false,"is_disabled":false,"rental_uris":{"android":"levelo://app?vid=d1f960fc-a9ff-4a16-afec-36a3bcca7f90","ios":"levelo://app?vid=d1f960fc-a9ff-4a16-afec-36a3bcca7f90"},"vehicle_type_id":"4","last_reported":1740820121,"current_range_meters":10800,"station_id":"ce4bhgp2rcd13ifvqfe0","pricing_plan_id":"cebpf4jnsgd1na2vs0mg"},{"bike_id":"d6eec10b-620b-4607-843d-346ffd62a6e7","system_id":"levelo_inurba_marseille","lat":43.264999,"lon":5.395409,"is_reserved":false,"is_disabled":false,"rental_uris":{"android":"levelo://app?vid=d6eec10b-620b-4607-843d-346ffd62a6e7","ios":"levelo://app?vid=d6eec10b-620b-4607-843d-346ffd62a6e7"},"vehicle_type_id":"4","last_reported":1740820121,"current_range_meters":10800,"station_id":"ce4bhi12rcd13ifvqfq0","pricing_plan_id":"cebpf4jnsgd1na2vs0mg"},{"bike_id":"1e074596-6371-403b-bb6f-4fe434ac26ad","system_id":"levelo_inurba_marseille","lat":43.28447,"lon":5.39179,"is_reserved":false,"is_disabled":false,"rental_uris":{"android":"levelo://app?vid=1e074596-6371-403b-bb6f-4fe434ac26ad","ios":"levelo://app?vid=1e074596-6371-403b-bb6f-4fe434ac26ad"},"vehicle_type_id":"4","last_reported":1740820121,"current_range_meters":10800,"station_id":"ce4bhoh2rcd13ifvqh5g","pricing_plan_id":"cebpf4jnsgd1na2vs0mg"},{"bike_id":"668f4cf1-c279-40fa-9806-94d0501cc848","system_id":"levelo_inurba_marseille","lat":43.30131,"lon":5.38775,"is_reserved":false,"is_disabled":false,"rental_uris":{"android":"levelo://app?vid=668f4cf1-c279-40fa-9806-94d0501cc848","ios":"levelo://app?vid=668f4cf1-c279-40fa-9806-94d0501cc848"},"vehicle_type_id":"4","last_reported":1740820121,"current_range_meters":11200,"station_id":"ce4bghh2rcd13ifvqb60","pricing_plan_id":"cebpf4jnsgd1na2vs0mg"},{"bike_id":"d8dd6bb1-2163-4ff5-998f-24d46cdb3b8d","system_id":"levelo_inurba_marseille","lat":43.29793,"lon":5.38113,"is_reserved":false,"is_disabled":false,"rental_uris":{"android":"levelo://app?vid=d8dd6bb1-2163-4ff5-998f-24d46cdb3b8d","ios":"levelo://app?vid=d8dd6bb1-2163-4ff5-998f-24d46cdb3b8d"},"vehicle_type_id":"4","last_reported":1740820121,"current_range_meters":11200,"station_id":"ce4bgip2rcd13ifvqbb0","pricing_plan_id":"cebpf4jnsgd1na2vs0mg"},{"bike_id":"4cbf16cb-c446-4d43-8ac4-8d7111d30698","system_id":"levelo_inurba_marseille","lat":43.30143,"lon":5.38087,"is_reserved":false,"is_disabled":false,"rental_uris":{"android":"levelo://app?vid=4cbf16cb-c446-4d43-8ac4-8d7111d30698","ios":"levelo://app?vid=4cbf16cb-c446-4d43-8ac4-8d7111d30698"},"vehicle_type_id":"4","last_reported":1740820121,"current_range_meters":11200,"station_id":"ce4bgjp2rcd13ifvqbh0","pricing_plan_id":"cebpf4jnsgd1na2vs0mg"},{"bike_id":"65d4acf8-280d-4c53-8b2c-5259597bfa66","system_id":"levelo_inurba_marseille","lat":43.2835,"lon":5.38108,"is_reserved":false,"is_disabled":false,"rental_uris":{"android":"levelo://app?vid=65d4acf8-280d-4c53-8b2c-5259597bfa66","ios":"levelo://app?vid=65d4acf8-280d-4c53-8b2c-5259597bfa66"},"vehicle_type_id":"4","last_reported":1740820121,"current_range_meters":11200,"station_id":"ce4bh412rcd13ifvqdr0","pricing_plan_id":"cebpf4jnsgd1na2vs0mg"},{"bike_id":"b777b4cf-3a59-4bd6-bbe8-877c47f15172","system_id":"levelo_inurba_marseille","lat":43.29266,"lon":5.36857,"is_reserved":false,"is_disabled":false,"rental_uris":{"android":"levelo://app?vid=b777b4cf-3a59-4bd6-bbe8-877c47f15172","ios":"levelo://app?vid=b777b4cf-3a59-4bd6-bbe8-877c47f15172"},"vehicle_type_id":"4","last_reported":1740820121,"current_range_meters":11200,"station_id":"ce4bhbp2rcd13ifvqesg","pricing_plan_id":"cebpf4jnsgd1na2vs0mg"},{"bike_id":"ab83c181-a0ca-45fb-ab7c-ddbef920cbdb","system_id":"levelo_inurba_marseille","lat":43.2483,"lon":5.37469,"is_reserved":false,"is_disabled":false,"rental_uris":{"android":"levelo://app?vid=ab83c181-a0ca-45fb-ab7c-ddbef920cbdb","ios":"levelo://app?vid=ab83c181-a0ca-45fb-ab7c-ddbef920cbdb"},"vehicle_type_id":"4","last_reported":1740820121,"current_range_meters":11200,"station_id":"ce4bhgh2rcd13ifvqfb0","pricing_plan_id":"cebpf4jnsgd1na2vs0mg"},{"bike_id":"740e99a4-36d9-4050-a22d-1f0aeb1df1ee","system_id":"levelo_inurba_marseille","lat":43.25013,"lon":5.38938,"is_reserved":false,"is_disabled":false,"rental_uris":{"android":"levelo://app?vid=740e99a4-36d9-4050-a22d-1f0aeb1df1ee","ios":"levelo://app?vid=740e99a4-36d9-4050-a22d-1f0aeb1df1ee"},"vehicle_type_id":"4","last_reported":1740820121,"current_range_meters":11200,"station_id":"ce4bhgp2rcd13ifvqfd0","pricing_plan_id":"cebpf4jnsgd1na2vs0mg"},{"bike_id":"bb9adac3-fb5c-42e8-abc6-5d16df0fc0c4","system_id":"levelo_inurba_marseille","lat":43.292741,"lon":5.401114,"is_reserved":false,"is_disabled":false,"rental_uris":{"android":"levelo://app?vid=bb9adac3-fb5c-42e8-abc6-5d16df0fc0c4","ios":"levelo://app?vid=bb9adac3-fb5c-42e8-abc6-5d16df0fc0c4"},"vehicle_type_id":"4","last_reported":1740820121,"current_range_meters":11200,"station_id":"ce4bhoh2rcd13ifvqh5g","pricing_plan_id":"cebpf4jnsgd1na2vs0mg"},{"bike_id":"4f187929-5814-40d3-a6dd-e54e10cf117a","system_id":"levelo_inurba_marseille","lat":43.30289,"lon":5.36908,"is_reserved":false,"is_disabled":false,"rental_uris":{"android":"levelo://app?vid=4f187929-5814-40d3-a6dd-e54e10cf117a","ios":"levelo://app?vid=4f187929-5814-40d3-a6dd-e54e10cf117a"},"vehicle_type_id":"4","last_reported":1740820121,"current_range_meters":11600,"station_id":"ce4bgqh2rcd13ifvqc5g","pricing_plan_id":"cebpf4jnsgd1na2vs0mg"},{"bike_id":"d8ce033e-f3a5-430d-b70d-26539a7235b3","system_id":"levelo_inurba_marseille","lat":43.31332,"lon":5.39691,"is_reserved":false,"is_disabled":false,"rental_uris":{"android":"levelo://app?vid=d8ce033e-f3a5-430d-b70d-26539a7235b3","ios":"levelo://app?vid=d8ce033e-f3a5-430d-b70d-26539a7235b3"},"vehicle_type_id":"4","last_reported":1740820121,"current_range_meters":11600,"station_id":"ce4bgvp2rcd13ifvqcu0","pricing_plan_id":"cebpf4jnsgd1na2vs0mg"},{"bike_id":"38d84c19-f44e-4f04-bfee-3b12657438c4","system_id":"levelo_inurba_marseille","lat":43.29041,"lon":5.37563,"is_reserved":false,"is_disabled":false,"rental_uris":{"android":"levelo://app?vid=38d84c19-f44e-4f04-bfee-3b12657438c4","ios":"levelo://app?vid=38d84c19-f44e-4f04-bfee-3b12657438c4"},"vehicle_type_id":"4","last_reported":1740820121,"current_range_meters":11600,"station_id":"ce4bh692rcd13ifvqe90","pricing_plan_id":"cebpf4jnsgd1na2vs0mg"},{"bike_id":"3ae43e61-e460-4942-a7d7-9a08b7b0118e","system_id":"levelo_inurba_marseille","lat":43.248082,"lon":5.374624,"is_reserved":false,"is_disabled":false,"rental_uris":{"android":"levelo://app?vid=3ae43e61-e460-4942-a7d7-9a08b7b0118e","ios":"levelo://app?vid=3ae43e61-e460-4942-a7d7-9a08b7b0118e"},"vehicle_type_id":"4","last_reported":1740820121,"current_range_meters":11600,"station_id":"ce4bhgh2rcd13ifvqfb0","pricing_plan_id":"cebpf4jnsgd1na2vs0mg"},{"bike_id":"7f21aeb0-ef98-4381-b2b6-04811e58e43d","system_id":"levelo_inurba_marseille","lat":43.30431,"lon":5.38902,"is_reserved":false,"is_disabled":false,"rental_uris":{"android":"levelo://app?vid=7f21aeb0-ef98-4381-b2b6-04811e58e43d","ios":"levelo://app?vid=7f21aeb0-ef98-4381-b2b6-04811e58e43d"},"vehicle_type_id":"4","last_reported":1740820121,"current_range_meters":12000,"station_id":"ce4bgk12rcd13ifvqbi0","pricing_plan_id":"cebpf4jnsgd1na2vs0mg"},{"bike_id":"e1120821-d5e6-47c5-b089-6912664f3578","system_id":"levelo_inurba_marseille","lat":43.3089,"lon":5.39659,"is_reserved":false,"is_disabled":false,"rental_uris":{"android":"levelo://app?vid=e1120821-d5e6-47c5-b089-6912664f3578","ios":"levelo://app?vid=e1120821-d5e6-47c5-b089-6912664f3578"},"vehicle_type_id":"4","last_reported":1740820121,"current_range_meters":12000,"station_id":"ce4bh012rcd13ifvqcv0","pricing_plan_id":"cebpf4jnsgd1na2vs0mg"},{"bike_id":"9f7e403d-3241-4706-bd05-f661b265d93a","system_id":"levelo_inurba_marseille","lat":43.30899,"lon":5.39656,"is_reserved":false,"is_disabled":false,"rental_uris":{"android":"levelo://app?vid=9f7e403d-3241-4706-bd05-f661b265d93a","ios":"levelo://app?vid=9f7e403d-3241-4706-bd05-f661b265d93a"},"vehicle_type_id":"4","last_reported":1740820121,"current_range_meters":12000,"station_id":"ce4bh012rcd13ifvqcv0","pricing_plan_id":"cebpf4jnsgd1na2vs0mg"},{"bike_id":"0395e071-5a2b-415c-b481-2f18c2ea3427","system_id":"levelo_inurba_marseille","lat":43.248098,"lon":5.374575,"is_reserved":false,"is_disabled":false,"rental_uris":{"android":"levelo://app?vid=0395e071-5a2b-415c-b481-2f18c2ea3427","ios":"levelo://app?vid=0395e071-5a2b-415c-b481-2f18c2ea3427"},"vehicle_type_id":"4","last_reported":1740820121,"current_range_meters":12000,"station_id":"ce4bhgh2rcd13ifvqfb0","pricing_plan_id":"cebpf4jnsgd1na2vs0mg"},{"bike_id":"5844301a-8057-4431-9887-c9a53dea440e","system_id":"levelo_inurba_marseille","lat":43.26065,"lon":5.39401,"is_reserved":false,"is_disabled":false,"rental_uris":{"android":"levelo://app?vid=5844301a-8057-4431-9887-c9a53dea440e","ios":"levelo://app?vid=5844301a-8057-4431-9887-c9a53dea440e"},"vehicle_type_id":"4","last_reported":1740820121,"current_range_meters":12000,"station_id":"ce4bhh92rcd13ifvqfj0","pricing_plan_id":"cebpf4jnsgd1na2vs0mg"},{"bike_id":"ad63f7de-e082-486a-986c-5f0cb3c10b35","system_id":"levelo_inurba_marseille","lat":43.23955,"lon":5.36641,"is_reserved":false,"is_disabled":false,"rental_uris":{"android":"levelo://app?vid=ad63f7de-e082-486a-986c-5f0cb3c10b35","ios":"levelo://app?vid=ad63f7de-e082-486a-986c-5f0cb3c10b35"},"vehicle_type_id":"4","last_reported":1740820121,"current_range_meters":12000,"station_id":"ce4bhi12rcd13ifvqfp0","pricing_plan_id":"cebpf4jnsgd1na2vs0mg"},{"bike_id":"b1b57f6a-4bd7-4b0e-869b-21504e29f5ea","system_id":"levelo_inurba_marseille","lat":43.232,"lon":5.35549,"is_reserved":false,"is_disabled":false,"rental_uris":{"android":"levelo://app?vid=b1b57f6a-4bd7-4b0e-869b-21504e29f5ea","ios":"levelo://app?vid=b1b57f6a-4bd7-4b0e-869b-21504e29f5ea"},"vehicle_type_id":"4","last_reported":1740820121,"current_range_meters":12000,"station_id":"ce4bhu92rcd13ifvqi70","pricing_plan_id":"cebpf4jnsgd1na2vs0mg"},{"bike_id":"3b5bbd1a-e79b-4f24-8015-6243196169f8","system_id":"levelo_inurba_marseille","lat":43.28036,"lon":5.36941,"is_reserved":false,"is_disabled":false,"rental_uris":{"android":"levelo://app?vid=3b5bbd1a-e79b-4f24-8015-6243196169f8","ios":"levelo://app?vid=3b5bbd1a-e79b-4f24-8015-6243196169f8"},"vehicle_type_id":"4","last_reported":1740820121,"current_range_meters":12400,"station_id":"ce4bha12rcd13ifvqef0","pricing_plan_id":"cebpf4jnsgd1na2vs0mg"},{"bike_id":"43e1e04c-280b-4d54-bbb9-c3921d8e975b","system_id":"levelo_inurba_marseille","lat":43.29272,"lon":5.36851,"is_reserved":false,"is_disabled":false,"rental_uris":{"android":"levelo://app?vid=43e1e04c-280b-4d54-bbb9-c3921d8e975b","ios":"levelo://app?vid=43e1e04c-280b-4d54-bbb9-c3921d8e975b"},"vehicle_type_id":"4","last_reported":1740820121,"current_range_meters":12400,"station_id":"ce4bhbp2rcd13ifvqesg","pricing_plan_id":"cebpf4jnsgd1na2vs0mg"},{"bike_id":"00616f21-c786-4fb6-a89f-3c894151f4da","system_id":"levelo_inurba_marseille","lat":43.24447,"lon":5.37088,"is_reserved":false,"is_disabled":false,"rental_uris":{"android":"levelo://app?vid=00616f21-c786-4fb6-a89f-3c894151f4da","ios":"levelo://app?vid=00616f21-c786-4fb6-a89f-3c894151f4da"},"vehicle_type_id":"4","last_reported":1740820121,"current_range_meters":12400,"station_id":"ce4bhhh2rcd13ifvqfk0","pricing_plan_id":"cebpf4jnsgd1na2vs0mg"},{"bike_id":"31c0e24b-42d8-4837-af8d-97c389878bc1","system_id":"levelo_inurba_marseille","lat":43.30416,"lon":5.41289,"is_reserved":false,"is_disabled":false,"rental_uris":{"android":"levelo://app?vid=31c0e24b-42d8-4837-af8d-97c389878bc1","ios":"levelo://app?vid=31c0e24b-42d8-4837-af8d-97c389878bc1"},"vehicle_type_id":"4","last_reported":1740820121,"current_range_meters":12400,"station_id":"ce4bhop2rcd13ifvqh8g","pricing_plan_id":"cebpf4jnsgd1na2vs0mg"},{"bike_id":"c4ea4162-b1c6-4e0f-b38f-75d41b710ee3","system_id":"levelo_inurba_marseille","lat":43.29371,"lon":5.37861,"is_reserved":false,"is_disabled":false,"rental_uris":{"android":"levelo://app?vid=c4ea4162-b1c6-4e0f-b38f-75d41b710ee3","ios":"levelo://app?vid=c4ea4162-b1c6-4e0f-b38f-75d41b710ee3"},"vehicle_type_id":"4","last_reported":1740820121,"current_range_meters":12800,"station_id":"ce4bgjh2rcd13ifvqbf0","pricing_plan_id":"cebpf4jnsgd1na2vs0mg"},{"bike_id":"95e1a552-2d39-463a-a5ac-285fb5139662","system_id":"levelo_inurba_marseille","lat":43.28695,"lon":5.37394,"is_reserved":false,"is_disabled":false,"rental_uris":{"android":"levelo://app?vid=95e1a552-2d39-463a-a5ac-285fb5139662","ios":"levelo://app?vid=95e1a552-2d39-463a-a5ac-285fb5139662"},"vehicle_type_id":"4","last_reported":1740820121,"current_range_meters":12800,"station_id":"ce4bh3p2rcd13ifvqdq0","pricing_plan_id":"cebpf4jnsgd1na2vs0mg"},{"bike_id":"3df159be-9ceb-4410-ae3d-2f9455c69849","system_id":"levelo_inurba_marseille","lat":43.266597,"lon":5.395126,"is_reserved":false,"is_disabled":false,"rental_uris":{"android":"levelo://app?vid=3df159be-9ceb-4410-ae3d-2f9455c69849","ios":"levelo://app?vid=3df159be-9ceb-4410-ae3d-2f9455c69849"},"vehicle_type_id":"4","last_reported":1740820121,"current_range_meters":12800,"station_id":"ce4bhi12rcd13ifvqfq0","pricing_plan_id":"cebpf4jnsgd1na2vs0mg"},{"bike_id":"4015c440-7267-44b4-8be2-f4b87cb51aa9","system_id":"levelo_inurba_marseille","lat":43.25589,"lon":5.38283,"is_reserved":false,"is_disabled":false,"rental_uris":{"android":"levelo://app?vid=4015c440-7267-44b4-8be2-f4b87cb51aa9","ios":"levelo://app?vid=4015c440-7267-44b4-8be2-f4b87cb51aa9"},"vehicle_type_id":"4","last_reported":1740820121,"current_range_meters":12800,"station_id":"ce4bhih2rcd13ifvqfs0","pricing_plan_id":"cebpf4jnsgd1na2vs0mg"},{"bike_id":"b4ae1c3a-94da-42f6-b079-961c8d8c2672","system_id":"levelo_inurba_marseille","lat":43.23204,"lon":5.40017,"is_reserved":false,"is_disabled":false,"rental_uris":{"android":"levelo://app?vid=b4ae1c3a-94da-42f6-b079-961c8d8c2672","ios":"levelo://app?vid=b4ae1c3a-94da-42f6-b079-961c8d8c2672"},"vehicle_type_id":"4","last_reported":1740820121,"current_range_meters":12800,"station_id":"ce4bhn12rcd13ifvqgqg","pricing_plan_id":"cebpf4jnsgd1na2vs0mg"},{"bike_id":"50e400b5-5d9f-464b-9cce-8768000aa4c2","system_id":"levelo_inurba_marseille","lat":43.28442,"lon":5.39182,"is_reserved":false,"is_disabled":false,"rental_uris":{"android":"levelo://app?vid=50e400b5-5d9f-464b-9cce-8768000aa4c2","ios":"levelo://app?vid=50e400b5-5d9f-464b-9cce-8768000aa4c2"},"vehicle_type_id":"4","last_reported":1740820121,"current_range_meters":12800,"station_id":"ce4bhoh2rcd13ifvqh5g","pricing_plan_id":"cebpf4jnsgd1na2vs0mg"},{"bike_id":"0693b9d6-4a9d-4e38-bfa2-80f934bcc2e3","system_id":"levelo_inurba_marseille","lat":43.24175,"lon":5.36413,"is_reserved":false,"is_disabled":false,"rental_uris":{"android":"levelo://app?vid=0693b9d6-4a9d-4e38-bfa2-80f934bcc2e3","ios":"levelo://app?vid=0693b9d6-4a9d-4e38-bfa2-80f934bcc2e3"},"vehicle_type_id":"4","last_reported":1740820121,"current_range_meters":12800,"station_id":"cpo36qri1sfpv3e86is0","pricing_plan_id":"cebpf4jnsgd1na2vs0mg"},{"bike_id":"6e0af0f6-1c63-4cc5-8737-625caebe9652","system_id":"levelo_inurba_marseille","lat":43.29312,"lon":5.37186,"is_reserved":false,"is_disabled":false,"rental_uris":{"android":"levelo://app?vid=6e0af0f6-1c63-4cc5-8737-625caebe9652","ios":"levelo://app?vid=6e0af0f6-1c63-4cc5-8737-625caebe9652"},"vehicle_type_id":"4","last_reported":1740820121,"current_range_meters":13600,"station_id":"ce4bgh92rcd13ifvqb40","pricing_plan_id":"cebpf4jnsgd1na2vs0mg"},{"bike_id":"0d6a42ea-f26c-48b6-a0a0-37cfbe3d24fa","system_id":"levelo_inurba_marseille","lat":43.308842,"lon":5.396408,"is_reserved":false,"is_disabled":false,"rental_uris":{"android":"levelo://app?vid=0d6a42ea-f26c-48b6-a0a0-37cfbe3d24fa","ios":"levelo://app?vid=0d6a42ea-f26c-48b6-a0a0-37cfbe3d24fa"},"vehicle_type_id":"4","last_reported":1740820121,"current_range_meters":14000,"station_id":"ce4bh012rcd13ifvqcv0","pricing_plan_id":"cebpf4jnsgd1na2vs0mg"},{"bike_id":"654c13e1-5c26-43b8-abdc-5e901f15137a","system_id":"levelo_inurba_marseille","lat":43.28421,"lon":5.375146,"is_reserved":false,"is_disabled":false,"rental_uris":{"android":"levelo://app?vid=654c13e1-5c26-43b8-abdc-5e901f15137a","ios":"levelo://app?vid=654c13e1-5c26-43b8-abdc-5e901f15137a"},"vehicle_type_id":"4","last_reported":1740820121,"current_range_meters":14000,"station_id":"ce4bhh12rcd13ifvqfg0","pricing_plan_id":"cebpf4jnsgd1na2vs0mg"},{"bike_id":"448318b9-98db-4143-87d2-dabd1ab9c33a","system_id":"levelo_inurba_marseille","lat":43.2786,"lon":5.39215,"is_reserved":false,"is_disabled":false,"rental_uris":{"android":"levelo://app?vid=448318b9-98db-4143-87d2-dabd1ab9c33a","ios":"levelo://app?vid=448318b9-98db-4143-87d2-dabd1ab9c33a"},"vehicle_type_id":"4","last_reported":1740820121,"current_range_meters":14000,"station_id":"ce4bhjp2rcd13ifvqga0","pricing_plan_id":"cebpf4jnsgd1na2vs0mg"},{"bike_id":"86e57b19-33d8-4687-8910-6ccd94193ae0","system_id":"levelo_inurba_marseille","lat":43.25112,"lon":5.40324,"is_reserved":false,"is_disabled":false,"rental_uris":{"android":"levelo://app?vid=86e57b19-33d8-4687-8910-6ccd94193ae0","ios":"levelo://app?vid=86e57b19-33d8-4687-8910-6ccd94193ae0"},"vehicle_type_id":"4","last_reported":1740820121,"current_range_meters":14000,"station_id":"ce4bhlh2rcd13ifvqgig","pricing_plan_id":"cebpf4jnsgd1na2vs0mg"},{"bike_id":"8a94d05e-0ac9-4900-afae-8f1bbe4e36de","system_id":"levelo_inurba_marseille","lat":43.30872,"lon":5.3965,"is_reserved":false,"is_disabled":false,"rental_uris":{"android":"levelo://app?vid=8a94d05e-0ac9-4900-afae-8f1bbe4e36de","ios":"levelo://app?vid=8a94d05e-0ac9-4900-afae-8f1bbe4e36de"},"vehicle_type_id":"4","last_reported":1740820121,"current_range_meters":14400,"station_id":"ce4bh012rcd13ifvqcv0","pricing_plan_id":"cebpf4jnsgd1na2vs0mg"},{"bike_id":"b5147a26-5d2f-45b7-a3d6-7b27f3e1afad","system_id":"levelo_inurba_marseille","lat":43.295602,"lon":5.365881,"is_reserved":false,"is_disabled":false,"rental_uris":{"android":"levelo://app?vid=b5147a26-5d2f-45b7-a3d6-7b27f3e1afad","ios":"levelo://app?vid=b5147a26-5d2f-45b7-a3d6-7b27f3e1afad"},"vehicle_type_id":"4","last_reported":1740820121,"current_range_meters":14400,"station_id":"ce4bh9p2rcd13ifvqec0","pricing_plan_id":"cebpf4jnsgd1na2vs0mg"},{"bike_id":"5a9df47d-6551-4b87-9367-371612b52570","system_id":"levelo_inurba_marseille","lat":43.29299,"lon":5.36853,"is_reserved":false,"is_disabled":false,"rental_uris":{"android":"levelo://app?vid=5a9df47d-6551-4b87-9367-371612b52570","ios":"levelo://app?vid=5a9df47d-6551-4b87-9367-371612b52570"},"vehicle_type_id":"4","last_reported":1740820121,"current_range_meters":14400,"station_id":"ce4bhbp2rcd13ifvqesg","pricing_plan_id":"cebpf4jnsgd1na2vs0mg"},{"bike_id":"5d362282-658f-435c-a578-3a43f2b65d8d","system_id":"levelo_inurba_marseille","lat":43.25491,"lon":5.37652,"is_reserved":false,"is_disabled":false,"rental_uris":{"android":"levelo://app?vid=5d362282-658f-435c-a578-3a43f2b65d8d","ios":"levelo://app?vid=5d362282-658f-435c-a578-3a43f2b65d8d"},"vehicle_type_id":"4","last_reported":1740820121,"current_range_meters":14400,"station_id":"ce4bhh12rcd13ifvqff0","pricing_plan_id":"cebpf4jnsgd1na2vs0mg"},{"bike_id":"24db149f-1618-42c4-af45-9cda7f46d94c","system_id":"levelo_inurba_marseille","lat":43.27081,"lon":5.4228,"is_reserved":false,"is_disabled":false,"rental_uris":{"android":"levelo://app?vid=24db149f-1618-42c4-af45-9cda7f46d94c","ios":"levelo://app?vid=24db149f-1618-42c4-af45-9cda7f46d94c"},"vehicle_type_id":"4","last_reported":1740820121,"current_range_meters":14400,"station_id":"ce4bhk92rcd13ifvqgb0","pricing_plan_id":"cebpf4jnsgd1na2vs0mg"},{"bike_id":"761546c5-be0c-4342-b24b-2df20a5a6b56","system_id":"levelo_inurba_marseille","lat":43.31763,"lon":5.3902,"is_reserved":false,"is_disabled":false,"rental_uris":{"android":"levelo://app?vid=761546c5-be0c-4342-b24b-2df20a5a6b56","ios":"levelo://app?vid=761546c5-be0c-4342-b24b-2df20a5a6b56"},"vehicle_type_id":"4","last_reported":1740820121,"current_range_meters":14400,"station_id":"ce4bhqp2rcd13ifvqhng","pricing_plan_id":"cebpf4jnsgd1na2vs0mg"},{"bike_id":"9e70006a-cdf2-4919-93a2-3c66955a3b59","system_id":"levelo_inurba_marseille","lat":43.32366,"lon":5.36748,"is_reserved":false,"is_disabled":false,"rental_uris":{"android":"levelo://app?vid=9e70006a-cdf2-4919-93a2-3c66955a3b59","ios":"levelo://app?vid=9e70006a-cdf2-4919-93a2-3c66955a3b59"},"vehicle_type_id":"4","last_reported":1740820121,"current_range_meters":14400,"station_id":"ce4bhsh2rcd13ifvqi2g","pricing_plan_id":"cebpf4jnsgd1na2vs0mg"},{"bike_id":"b0613a5e-2ddb-47a4-bf10-91291a46869d","system_id":"levelo_inurba_marseille","lat":43.29816,"lon":5.38094,"is_reserved":false,"is_disabled":false,"rental_uris":{"android":"levelo://app?vid=b0613a5e-2ddb-47a4-bf10-91291a46869d","ios":"levelo://app?vid=b0613a5e-2ddb-47a4-bf10-91291a46869d"},"vehicle_type_id":"4","last_reported":1740820121,"current_range_meters":14800,"station_id":"ce4bgip2rcd13ifvqbb0","pricing_plan_id":"cebpf4jnsgd1na2vs0mg"},{"bike_id":"25c32c50-c063-4eec-b4e6-d2ef5866ed78","system_id":"levelo_inurba_marseille","lat":43.28036,"lon":5.36942,"is_reserved":false,"is_disabled":false,"rental_uris":{"android":"levelo://app?vid=25c32c50-c063-4eec-b4e6-d2ef5866ed78","ios":"levelo://app?vid=25c32c50-c063-4eec-b4e6-d2ef5866ed78"},"vehicle_type_id":"4","last_reported":1740820121,"current_range_meters":14800,"station_id":"ce4bha12rcd13ifvqef0","pricing_plan_id":"cebpf4jnsgd1na2vs0mg"},{"bike_id":"fdd9f725-35af-4c06-8ace-d31fe1b67469","system_id":"levelo_inurba_marseille","lat":43.27557,"lon":5.38433,"is_reserved":false,"is_disabled":false,"rental_uris":{"android":"levelo://app?vid=fdd9f725-35af-4c06-8ace-d31fe1b67469","ios":"levelo://app?vid=fdd9f725-35af-4c06-8ace-d31fe1b67469"},"vehicle_type_id":"4","last_reported":1740820121,"current_range_meters":14800,"station_id":"ce4bhh92rcd13ifvqfi0","pricing_plan_id":"cebpf4jnsgd1na2vs0mg"},{"bike_id":"606aa68a-226f-4ecc-8897-b505bdbe0913","system_id":"levelo_inurba_marseille","lat":43.23159,"lon":5.43707,"is_reserved":false,"is_disabled":false,"rental_uris":{"android":"levelo://app?vid=606aa68a-226f-4ecc-8897-b505bdbe0913","ios":"levelo://app?vid=606aa68a-226f-4ecc-8897-b505bdbe0913"},"vehicle_type_id":"4","last_reported":1740820121,"current_range_meters":14800,"station_id":"ce4bhmp2rcd13ifvqgog","pricing_plan_id":"cebpf4jnsgd1na2vs0mg"},{"bike_id":"abb4df5e-f3b6-49f0-9956-aa5abcc3ede9","system_id":"levelo_inurba_marseille","lat":43.231891,"lon":5.355513,"is_reserved":false,"is_disabled":false,"rental_uris":{"android":"levelo://app?vid=abb4df5e-f3b6-49f0-9956-aa5abcc3ede9","ios":"levelo://app?vid=abb4df5e-f3b6-49f0-9956-aa5abcc3ede9"},"vehicle_type_id":"4","last_reported":1740820121,"current_range_meters":14800,"station_id":"ce4bhu92rcd13ifvqi70","pricing_plan_id":"cebpf4jnsgd1na2vs0mg"},{"bike_id":"940d459a-9607-49a2-97ce-debcb7f5f3c4","system_id":"levelo_inurba_marseille","lat":43.27622,"lon":5.36111,"is_reserved":false,"is_disabled":false,"rental_uris":{"android":"levelo://app?vid=940d459a-9607-49a2-97ce-debcb7f5f3c4","ios":"levelo://app?vid=940d459a-9607-49a2-97ce-debcb7f5f3c4"},"vehicle_type_id":"4","last_reported":1740820121,"current_range_meters":15200,"station_id":"ce4bgj92rcd13ifvqbe0","pricing_plan_id":"cebpf4jnsgd1na2vs0mg"},{"bike_id":"539ac50f-cb77-4ec4-bd65-67eb799746fc","system_id":"levelo_inurba_marseille","lat":43.29617,"lon":5.38099,"is_reserved":false,"is_disabled":false,"rental_uris":{"android":"levelo://app?vid=539ac50f-cb77-4ec4-bd65-67eb799746fc","ios":"levelo://app?vid=539ac50f-cb77-4ec4-bd65-67eb799746fc"},"vehicle_type_id":"4","last_reported":1740820121,"current_range_meters":15200,"station_id":"ce4bgl12rcd13ifvqbo0","pricing_plan_id":"cebpf4jnsgd1na2vs0mg"},{"bike_id":"f7bc7081-0b8f-4bad-a8c7-1cfce583294a","system_id":"levelo_inurba_marseille","lat":43.31333,"lon":5.39706,"is_reserved":false,"is_disabled":false,"rental_uris":{"android":"levelo://app?vid=f7bc7081-0b8f-4bad-a8c7-1cfce583294a","ios":"levelo://app?vid=f7bc7081-0b8f-4bad-a8c7-1cfce583294a"},"vehicle_type_id":"4","last_reported":1740820121,"current_range_meters":15200,"station_id":"ce4bgvp2rcd13ifvqcu0","pricing_plan_id":"cebpf4jnsgd1na2vs0mg"},{"bike_id":"2c721456-a011-4915-9f46-bbcec8dea61c","system_id":"levelo_inurba_marseille","lat":43.30784,"lon":5.39611,"is_reserved":false,"is_disabled":false,"rental_uris":{"android":"levelo://app?vid=2c721456-a011-4915-9f46-bbcec8dea61c","ios":"levelo://app?vid=2c721456-a011-4915-9f46-bbcec8dea61c"},"vehicle_type_id":"4","last_reported":1740820121,"current_range_meters":15200,"station_id":"ce4bh012rcd13ifvqcv0","pricing_plan_id":"cebpf4jnsgd1na2vs0mg"},{"bike_id":"9e938be5-27c4-4a64-8fed-cfddf9b03f11","system_id":"levelo_inurba_marseille","lat":43.27322,"lon":5.39079,"is_reserved":false,"is_disabled":false,"rental_uris":{"android":"levelo://app?vid=9e938be5-27c4-4a64-8fed-cfddf9b03f11","ios":"levelo://app?vid=9e938be5-27c4-4a64-8fed-cfddf9b03f11"},"vehicle_type_id":"4","last_reported":1740820121,"current_range_meters":15200,"station_id":"ce4bhgp2rcd13ifvqfe0","pricing_plan_id":"cebpf4jnsgd1na2vs0mg"},{"bike_id":"8e6e81dc-e760-4004-950f-3e74fc14ab9b","system_id":"levelo_inurba_marseille","lat":43.24085,"lon":5.37776,"is_reserved":false,"is_disabled":false,"rental_uris":{"android":"levelo://app?vid=8e6e81dc-e760-4004-950f-3e74fc14ab9b","ios":"levelo://app?vid=8e6e81dc-e760-4004-950f-3e74fc14ab9b"},"vehicle_type_id":"4","last_reported":1740820121,"current_range_meters":15200,"station_id":"ce4bhnp2rcd13ifvqgvg","pricing_plan_id":"cebpf4jnsgd1na2vs0mg"},{"bike_id":"9a36d473-de5f-4373-a3f2-bad6848e170c","system_id":"levelo_inurba_marseille","lat":43.29276,"lon":5.40129,"is_reserved":false,"is_disabled":false,"rental_uris":{"android":"levelo://app?vid=9a36d473-de5f-4373-a3f2-bad6848e170c","ios":"levelo://app?vid=9a36d473-de5f-4373-a3f2-bad6848e170c"},"vehicle_type_id":"4","last_reported":1740820121,"current_range_meters":16000,"station_id":"ce4bh312rcd13ifvqdk0","pricing_plan_id":"cebpf4jnsgd1na2vs0mg"},{"bike_id":"e0a413a7-bc6b-4647-8e86-c0926ac098ec","system_id":"levelo_inurba_marseille","lat":43.29266,"lon":5.36851,"is_reserved":false,"is_disabled":false,"rental_uris":{"android":"levelo://app?vid=e0a413a7-bc6b-4647-8e86-c0926ac098ec","ios":"levelo://app?vid=e0a413a7-bc6b-4647-8e86-c0926ac098ec"},"vehicle_type_id":"4","last_reported":1740820121,"current_range_meters":16000,"station_id":"ce4bhbp2rcd13ifvqesg","pricing_plan_id":"cebpf4jnsgd1na2vs0mg"},{"bike_id":"f2dbb5c1-85bd-4932-a486-f12d2a4aba79","system_id":"levelo_inurba_marseille","lat":43.27929,"lon":5.396,"is_reserved":false,"is_disabled":false,"rental_uris":{"android":"levelo://app?vid=f2dbb5c1-85bd-4932-a486-f12d2a4aba79","ios":"levelo://app?vid=f2dbb5c1-85bd-4932-a486-f12d2a4aba79"},"vehicle_type_id":"4","last_reported":1740820121,"current_range_meters":16000,"station_id":"ce4bhf92rcd13ifvqf40","pricing_plan_id":"cebpf4jnsgd1na2vs0mg"},{"bike_id":"a9596dd8-7507-46cd-814a-c8a1e3731c0e","system_id":"levelo_inurba_marseille","lat":43.27962,"lon":5.38711,"is_reserved":false,"is_disabled":false,"rental_uris":{"android":"levelo://app?vid=a9596dd8-7507-46cd-814a-c8a1e3731c0e","ios":"levelo://app?vid=a9596dd8-7507-46cd-814a-c8a1e3731c0e"},"vehicle_type_id":"4","last_reported":1740820121,"current_range_meters":16000,"station_id":"ce4bhg12rcd13ifvqf80","pricing_plan_id":"cebpf4jnsgd1na2vs0mg"},{"bike_id":"d030ad53-1917-4d13-aa82-552c71175b92","system_id":"levelo_inurba_marseille","lat":43.25005,"lon":5.38932,"is_reserved":false,"is_disabled":false,"rental_uris":{"android":"levelo://app?vid=d030ad53-1917-4d13-aa82-552c71175b92","ios":"levelo://app?vid=d030ad53-1917-4d13-aa82-552c71175b92"},"vehicle_type_id":"4","last_reported":1740820121,"current_range_meters":16000,"station_id":"ce4bhgp2rcd13ifvqfd0","pricing_plan_id":"cebpf4jnsgd1na2vs0mg"},{"bike_id":"66f7a3d1-7af8-4789-82f7-e1f7f7cce212","system_id":"levelo_inurba_marseille","lat":43.23154,"lon":5.43711,"is_reserved":false,"is_disabled":false,"rental_uris":{"android":"levelo://app?vid=66f7a3d1-7af8-4789-82f7-e1f7f7cce212","ios":"levelo://app?vid=66f7a3d1-7af8-4789-82f7-e1f7f7cce212"},"vehicle_type_id":"4","last_reported":1740820121,"current_range_meters":16000,"station_id":"ce4bhmp2rcd13ifvqgog","pricing_plan_id":"cebpf4jnsgd1na2vs0mg"},{"bike_id":"fb80a5c5-0aa4-4536-98fd-90a1fc55d738","system_id":"levelo_inurba_marseille","lat":43.31087,"lon":5.42447,"is_reserved":false,"is_disabled":false,"rental_uris":{"android":"levelo://app?vid=fb80a5c5-0aa4-4536-98fd-90a1fc55d738","ios":"levelo://app?vid=fb80a5c5-0aa4-4536-98fd-90a1fc55d738"},"vehicle_type_id":"4","last_reported":1740820121,"current_range_meters":16000,"station_id":"ce4bhp92rcd13ifvqhag","pricing_plan_id":"cebpf4jnsgd1na2vs0mg"},{"bike_id":"922879e2-d5c1-4e33-9200-89123eb4fac1","system_id":"levelo_inurba_marseille","lat":43.34158,"lon":5.40956,"is_reserved":false,"is_disabled":false,"rental_uris":{"android":"levelo://app?vid=922879e2-d5c1-4e33-9200-89123eb4fac1","ios":"levelo://app?vid=922879e2-d5c1-4e33-9200-89123eb4fac1"},"vehicle_type_id":"4","last_reported":1740820121,"current_range_meters":16000,"station_id":"ce4bhqh2rcd13ifvqhlg","pricing_plan_id":"cebpf4jnsgd1na2vs0mg"},{"bike_id":"f4982309-5f3b-4415-94b1-3c0c89a0d672","system_id":"levelo_inurba_marseille","lat":43.26797,"lon":5.40669,"is_reserved":false,"is_disabled":false,"rental_uris":{"android":"levelo://app?vid=f4982309-5f3b-4415-94b1-3c0c89a0d672","ios":"levelo://app?vid=f4982309-5f3b-4415-94b1-3c0c89a0d672"},"vehicle_type_id":"4","last_reported":1740820121,"current_range_meters":16400,"station_id":"","pricing_plan_id":"cebpf4jnsgd1na2vs0mg"},{"bike_id":"c158e538-5365-4424-9942-1c3cdf8bc734","system_id":"levelo_inurba_marseille","lat":43.29806,"lon":5.38107,"is_reserved":false,"is_disabled":false,"rental_uris":{"android":"levelo://app?vid=c158e538-5365-4424-9942-1c3cdf8bc734","ios":"levelo://app?vid=c158e538-5365-4424-9942-1c3cdf8bc734"},"vehicle_type_id":"4","last_reported":1740820121,"current_range_meters":16400,"station_id":"ce4bgip2rcd13ifvqbb0","pricing_plan_id":"cebpf4jnsgd1na2vs0mg"},{"bike_id":"0a26826d-5c5b-4e44-a5a3-d09b544d5fda","system_id":"levelo_inurba_marseille","lat":43.3097,"lon":5.39041,"is_reserved":false,"is_disabled":false,"rental_uris":{"android":"levelo://app?vid=0a26826d-5c5b-4e44-a5a3-d09b544d5fda","ios":"levelo://app?vid=0a26826d-5c5b-4e44-a5a3-d09b544d5fda"},"vehicle_type_id":"4","last_reported":1740820121,"current_range_meters":16400,"station_id":"ce4bgup2rcd13ifvqco0","pricing_plan_id":"cebpf4jnsgd1na2vs0mg"},{"bike_id":"55167e5f-b078-472a-aec6-3628371c6d5c","system_id":"levelo_inurba_marseille","lat":43.30261,"lon":5.40076,"is_reserved":false,"is_disabled":false,"rental_uris":{"android":"levelo://app?vid=55167e5f-b078-472a-aec6-3628371c6d5c","ios":"levelo://app?vid=55167e5f-b078-472a-aec6-3628371c6d5c"},"vehicle_type_id":"4","last_reported":1740820121,"current_range_meters":16400,"station_id":"ce4bgvh2rcd13ifvqcs0","pricing_plan_id":"cebpf4jnsgd1na2vs0mg"},{"bike_id":"60066898-ce78-45fb-aab0-05673a4ebee3","system_id":"levelo_inurba_marseille","lat":43.29042,"lon":5.39966,"is_reserved":false,"is_disabled":false,"rental_uris":{"android":"levelo://app?vid=60066898-ce78-45fb-aab0-05673a4ebee3","ios":"levelo://app?vid=60066898-ce78-45fb-aab0-05673a4ebee3"},"vehicle_type_id":"4","last_reported":1740820121,"current_range_meters":16400,"station_id":"ce4bh392rcd13ifvqdm0","pricing_plan_id":"cebpf4jnsgd1na2vs0mg"},{"bike_id":"d51810e2-afaa-46c1-a725-883c3d39661b","system_id":"levelo_inurba_marseille","lat":43.2501,"lon":5.38936,"is_reserved":false,"is_disabled":false,"rental_uris":{"android":"levelo://app?vid=d51810e2-afaa-46c1-a725-883c3d39661b","ios":"levelo://app?vid=d51810e2-afaa-46c1-a725-883c3d39661b"},"vehicle_type_id":"4","last_reported":1740820121,"current_range_meters":16400,"station_id":"ce4bhgp2rcd13ifvqfd0","pricing_plan_id":"cebpf4jnsgd1na2vs0mg"},{"bike_id":"0217712e-5017-4ef4-84e0-eaedbfc62796","system_id":"levelo_inurba_marseille","lat":43.25724,"lon":5.41118,"is_reserved":false,"is_disabled":false,"rental_uris":{"android":"levelo://app?vid=0217712e-5017-4ef4-84e0-eaedbfc62796","ios":"levelo://app?vid=0217712e-5017-4ef4-84e0-eaedbfc62796"},"vehicle_type_id":"4","last_reported":1740820121,"current_range_meters":16400,"station_id":"ce4bhkp2rcd13ifvqgd0","pricing_plan_id":"cebpf4jnsgd1na2vs0mg"},{"bike_id":"0b59b9c1-ba87-4c20-8d7f-cddd7ccc8fa2","system_id":"levelo_inurba_marseille","lat":43.32389,"lon":5.38914,"is_reserved":false,"is_disabled":false,"rental_uris":{"android":"levelo://app?vid=0b59b9c1-ba87-4c20-8d7f-cddd7ccc8fa2","ios":"levelo://app?vid=0b59b9c1-ba87-4c20-8d7f-cddd7ccc8fa2"},"vehicle_type_id":"4","last_reported":1740820121,"current_range_meters":16400,"station_id":"ce4bhqp2rcd13ifvqhog","pricing_plan_id":"cebpf4jnsgd1na2vs0mg"},{"bike_id":"c0b2be86-3e65-4eb9-8e4b-defc64f0ec47","system_id":"levelo_inurba_marseille","lat":43.312,"lon":5.41637,"is_reserved":false,"is_disabled":false,"rental_uris":{"android":"levelo://app?vid=c0b2be86-3e65-4eb9-8e4b-defc64f0ec47","ios":"levelo://app?vid=c0b2be86-3e65-4eb9-8e4b-defc64f0ec47"},"vehicle_type_id":"4","last_reported":1740820121,"current_range_meters":16800,"station_id":"","pricing_plan_id":"cebpf4jnsgd1na2vs0mg"},{"bike_id":"cfb78254-0f82-46b0-9a2c-ac71fa0123cd","system_id":"levelo_inurba_marseille","lat":43.29307,"lon":5.37461,"is_reserved":false,"is_disabled":false,"rental_uris":{"android":"levelo://app?vid=cfb78254-0f82-46b0-9a2c-ac71fa0123cd","ios":"levelo://app?vid=cfb78254-0f82-46b0-9a2c-ac71fa0123cd"},"vehicle_type_id":"4","last_reported":1740820121,"current_range_meters":16800,"station_id":"ce4bgi12rcd13ifvqb70","pricing_plan_id":"cebpf4jnsgd1na2vs0mg"},{"bike_id":"105c4f34-5909-4423-9159-4ec3d994bcee","system_id":"levelo_inurba_marseille","lat":43.26569,"lon":5.3901,"is_reserved":false,"is_disabled":false,"rental_uris":{"android":"levelo://app?vid=105c4f34-5909-4423-9159-4ec3d994bcee","ios":"levelo://app?vid=105c4f34-5909-4423-9159-4ec3d994bcee"},"vehicle_type_id":"4","last_reported":1740820121,"current_range_meters":16800,"station_id":"ce4bhe12rcd13ifvqf30","pricing_plan_id":"cebpf4jnsgd1na2vs0mg"},{"bike_id":"8e04f5ca-b838-4e04-ac63-d363e0bc10f9","system_id":"levelo_inurba_marseille","lat":43.27073,"lon":5.4228,"is_reserved":false,"is_disabled":false,"rental_uris":{"android":"levelo://app?vid=8e04f5ca-b838-4e04-ac63-d363e0bc10f9","ios":"levelo://app?vid=8e04f5ca-b838-4e04-ac63-d363e0bc10f9"},