{"last_updated":1738239470,"ttl":60,"version":"2.2","data":{"bikes":[{"bike_id":"6e836124-0925-419b-83a6-3c9dac54bd2f","system_id":"levelo_inurba_marseille","lat":43.28614,"lon":5.3511,"is_reserved":false,"is_disabled":false,"rental_uris":{"android":"levelo://app?vid=6e836124-0925-419b-83a6-3c9dac54bd2f","ios":"levelo://app?vid=6e836124-0925-419b-83a6-3c9dac54bd2f"},"vehicle_type_id":"4","last_reported":1738239470,"current_range_meters":29600,"station_id":"ce4bhch2rcd13ifvqeug","pricing_plan_id":"cebpf4jnsgd1na2vs0mg"},{"bike_id":"0d72069c-12f4-4000-a8ca-84be6d2ccbcd","system_id":"levelo_inurba_marseille","lat":43.298405,"lon":5.362708,"is_reserved":false,"is_disabled":false,"rental_uris":{"android":"levelo://app?vid=0d72069c-12f4-4000-a8ca-84be6d2ccbcd","ios":"levelo://app?vid=0d72069c-12f4-4000-a8ca-84be6d2ccbcd"},"vehicle_type_id":"4","last_reported":1738239470,"current_range_meters":38400,"station_id":"ce4bgpp2rcd13ifvqc3g","pricing_plan_id":"cebpf4jnsgd1na2vs0mg"},{"bike_id":"2a814825-5d2f-4409-83f7-0bfed0cb49c1","system_id":"levelo_inurba_marseille","lat":43.28424,"lon":5.34994,"is_reserved":false,"is_disabled":false,"rental_uris":{"android":"levelo://app?vid=2a814825-5d2f-4409-83f7-0bfed0cb49c1","ios":"levelo://app?vid=2a814825-5d2f-4409-83f7-0bfed0cb49c1"},"vehicle_type_id":"4","last_reported":1738239470,"current_range_meters":24800,"station_id":"ce4bhbh2rcd13ifvqepg","pricing_plan_id":"cebpf4jnsgd1na2vs0mg"},{"bike_id":"3cda397d-8701-45d8-a98c-154e352bab34","system_id":"levelo_inurba_marseille","lat":43.30153,"lon":5.38092,"is_reserved":false,"is_disabled":false,"rental_uris":{"android":"levelo://app?vid=3cda397d-8701-45d8-a98c-154e352bab34","ios":"levelo://app?vid=3cda397d-8701-45d8-a98c-154e352bab34"},"vehicle_type_id":"4","last_reported":1738239470,"current_range_meters":36400,"station_id":"ce4bgjp2rcd13ifvqbh0","pricing_plan_id":"cebpf4jnsgd1na2vs0mg"},{"bike_id":"f7f8117f-03ef-415e-85c6-2eeaf165e4f2","system_id":"levelo_inurba_marseille","lat":43.262133,"lon":5.404484,"is_reserved":false,"is_disabled":true,"rental_uris":{"android":"levelo://app?vid=f7f8117f-03ef-415e-85c6-2eeaf165e4f2","ios":"levelo://app?vid=f7f8117f-03ef-415e-85c6-2eeaf165e4f2"},"vehicle_type_id":"4","last_reported":1738239470,"current_range_meters":25600,"station_id":"ce4bhmh2rcd13ifvqgmg","pricing_plan_id":"cebpf4jnsgd1na2vs0mg"},{"bike_id":"c638a1eb-b4d3-4a47-88f5-4ffd2e894e36","system_id":"levelo_inurba_marseille","lat":43.28108,"lon":5.37836,"is_reserved":false,"is_disabled":false,"rental_uris":{"android":"levelo://app?vid=c638a1eb-b4d3-4a47-88f5-4ffd2e894e36","ios":"levelo://app?vid=c638a1eb-b4d3-4a47-88f5-4ffd2e894e36"},"vehicle_type_id":"4","last_reported":1738239470,"current_range_meters":37600,"station_id":"ce4bha12rcd13ifvqee0","pricing_plan_id":"cebpf4jnsgd1na2vs0mg"},{"bike_id":"2da04e03-3c1a-4fc0-b454-ee332fd6af5e","system_id":"levelo_inurba_marseille","lat":43.29593,"lon":5.36732,"is_reserved":false,"is_disabled":false,"rental_uris":{"android":"levelo://app?vid=2da04e03-3c1a-4fc0-b454-ee332fd6af5e","ios":"levelo://app?vid=2da04e03-3c1a-4fc0-b454-ee332fd6af5e"},"vehicle_type_id":"4","last_reported":1738239470,"current_range_meters":22400,"station_id":"ce4bgph2rcd13ifvqc2g","pricing_plan_id":"cebpf4jnsgd1na2vs0mg"},{"bike_id":"3c65803e-44da-4ff4-b24e-f04b06eddea5","system_id":"levelo_inurba_marseille","lat":43.29246,"lon":5.40914,"is_reserved":false,"is_disabled":false,"rental_uris":{"android":"levelo://app?vid=3c65803e-44da-4ff4-b24e-f04b06eddea5","ios":"levelo://app?vid=3c65803e-44da-4ff4-b24e-f04b06eddea5"},"vehicle_type_id":"4","last_reported":1738239470,"current_range_meters":26800,"station_id":"ce4bh192rcd13ifvqdc0","pricing_plan_id":"cebpf4jnsgd1na2vs0mg"},{"bike_id":"9ebdc35e-1568-45ff-aa52-2363402d7b82","system_id":"levelo_inurba_marseille","lat":43.29313,"lon":5.37185,"is_reserved":false,"is_disabled":false,"rental_uris":{"android":"levelo://app?vid=9ebdc35e-1568-45ff-aa52-2363402d7b82","ios":"levelo://app?vid=9ebdc35e-1568-45ff-aa52-2363402d7b82"},"vehicle_type_id":"4","last_reported":1738239470,"current_range_meters":33200,"station_id":"ce4bgh92rcd13ifvqb40","pricing_plan_id":"cebpf4jnsgd1na2vs0mg"},{"bike_id":"42f94e8e-5705-4e60-b41a-33529ea101d4","system_id":"levelo_inurba_marseille","lat":43.26952,"lon":5.38635,"is_reserved":false,"is_disabled":false,"rental_uris":{"android":"levelo://app?vid=42f94e8e-5705-4e60-b41a-33529ea101d4","ios":"levelo://app?vid=42f94e8e-5705-4e60-b41a-33529ea101d4"},"vehicle_type_id":"4","last_reported":1738239470,"current_range_meters":22800,"station_id":"ce4bhh92rcd13ifvqfh0","pricing_plan_id":"cebpf4jnsgd1na2vs0mg"},{"bike_id":"5359ea51-feea-4a58-ad0c-a785460a4b53","system_id":"levelo_inurba_marseille","lat":43.25118,"lon":5.40319,"is_reserved":false,"is_disabled":false,"rental_uris":{"android":"levelo://app?vid=5359ea51-feea-4a58-ad0c-a785460a4b53","ios":"levelo://app?vid=5359ea51-feea-4a58-ad0c-a785460a4b53"},"vehicle_type_id":"4","last_reported":1738239470,"current_range_meters":29600,"station_id":"ce4bhlh2rcd13ifvqgig","pricing_plan_id":"cebpf4jnsgd1na2vs0mg"},{"bike_id":"bbf5cc05-253b-474e-91e3-9d2d5200c1ec","system_id":"levelo_inurba_marseille","lat":43.3028,"lon":5.37696,"is_reserved":false,"is_disabled":false,"rental_uris":{"android":"levelo://app?vid=bbf5cc05-253b-474e-91e3-9d2d5200c1ec","ios":"levelo://app?vid=bbf5cc05-253b-474e-91e3-9d2d5200c1ec"},"vehicle_type_id":"4","last_reported":1738239470,"current_range_meters":38800,"station_id":"ce4bguh2rcd13ifvqcj0","pricing_plan_id":"cebpf4jnsgd1na2vs0mg"},{"bike_id":"8af94119-2421-4ba4-8919-501ab8454054","system_id":"levelo_inurba_marseille","lat":43.27227,"lon":5.39196,"is_reserved":false,"is_disabled":false,"rental_uris":{"android":"levelo://app?vid=8af94119-2421-4ba4-8919-501ab8454054","ios":"levelo://app?vid=8af94119-2421-4ba4-8919-501ab8454054"},"vehicle_type_id":"4","last_reported":1738239470,"current_range_meters":39200,"station_id":"ce4bhhp2rcd13ifvqfm0","pricing_plan_id":"cebpf4jnsgd1na2vs0mg"},{"bike_id":"3017896a-4408-4a67-9a1a-979da38e10ea","system_id":"levelo_inurba_marseille","lat":43.30427,"lon":5.38895,"is_reserved":false,"is_disabled":false,"rental_uris":{"android":"levelo://app?vid=3017896a-4408-4a67-9a1a-979da38e10ea","ios":"levelo://app?vid=3017896a-4408-4a67-9a1a-979da38e10ea"},"vehicle_type_id":"4","last_reported":1738239470,"current_range_meters":31200,"station_id":"ce4bgk12rcd13ifvqbi0","pricing_plan_id":"cebpf4jnsgd1na2vs0mg"},{"bike_id":"dc71ee2b-bb7e-4248-aad2-5a4617bf84fd","system_id":"levelo_inurba_marseille","lat":43.28559,"lon":5.39505,"is_reserved":false,"is_disabled":false,"rental_uris":{"android":"levelo://app?vid=dc71ee2b-bb7e-4248-aad2-5a4617bf84fd","ios":"levelo://app?vid=dc71ee2b-bb7e-4248-aad2-5a4617bf84fd"},"vehicle_type_id":"4","last_reported":1738239470,"current_range_meters":37600,"station_id":"ce4bh292rcd13ifvqdg0","pricing_plan_id":"cebpf4jnsgd1na2vs0mg"},{"bike_id":"a9a12b57-7eb7-49fb-ba95-6c00f1b23d00","system_id":"levelo_inurba_marseille","lat":43.28103,"lon":5.37863,"is_reserved":false,"is_disabled":false,"rental_uris":{"android":"levelo://app?vid=a9a12b57-7eb7-49fb-ba95-6c00f1b23d00","ios":"levelo://app?vid=a9a12b57-7eb7-49fb-ba95-6c00f1b23d00"},"vehicle_type_id":"4","last_reported":1738239470,"current_range_meters":21600,"station_id":"ce4bha12rcd13ifvqee0","pricing_plan_id":"cebpf4jnsgd1na2vs0mg"},{"bike_id":"79b7a714-6899-43f0-a0e6-1e9b5234e282","system_id":"levelo_inurba_marseille","lat":43.29564,"lon":5.42283,"is_reserved":false,"is_disabled":false,"rental_uris":{"android":"levelo://app?vid=79b7a714-6899-43f0-a0e6-1e9b5234e282","ios":"levelo://app?vid=79b7a714-6899-43f0-a0e6-1e9b5234e282"},"vehicle_type_id":"4","last_reported":1738239470,"current_range_meters":36800,"station_id":"ce4bhph2rcd13ifvqhdg","pricing_plan_id":"cebpf4jnsgd1na2vs0mg"},{"bike_id":"4e16f070-add1-43ca-9432-670e6b986696","system_id":"levelo_inurba_marseille","lat":43.29809,"lon":5.38081,"is_reserved":false,"is_disabled":false,"rental_uris":{"android":"levelo://app?vid=4e16f070-add1-43ca-9432-670e6b986696","ios":"levelo://app?vid=4e16f070-add1-43ca-9432-670e6b986696"},"vehicle_type_id":"4","last_reported":1738239470,"current_range_meters":38400,"station_id":"ce4bgip2rcd13ifvqbb0","pricing_plan_id":"cebpf4jnsgd1na2vs0mg"},{"bike_id":"de289e16-4738-4bbc-892a-6fb55ade8656","system_id":"levelo_inurba_marseille","lat":43.27829,"lon":5.40723,"is_reserved":false,"is_disabled":false,"rental_uris":{"android":"levelo://app?vid=de289e16-4738-4bbc-892a-6fb55ade8656","ios":"levelo://app?vid=de289e16-4738-4bbc-892a-6fb55ade8656"},"vehicle_type_id":"4","last_reported":1738239470,"current_range_meters":30000,"station_id":"ce4bhnh2rcd13ifvqgtg","pricing_plan_id":"cebpf4jnsgd1na2vs0mg"},{"bike_id":"c51e5869-a7ce-430c-b522-05a2e7050eb4","system_id":"levelo_inurba_marseille","lat":43.2928,"lon":5.40123,"is_reserved":false,"is_disabled":false,"rental_uris":{"android":"levelo://app?vid=c51e5869-a7ce-430c-b522-05a2e7050eb4","ios":"levelo://app?vid=c51e5869-a7ce-430c-b522-05a2e7050eb4"},"vehicle_type_id":"4","last_reported":1738239470,"current_range_meters":23200,"station_id":"ce4bh312rcd13ifvqdk0","pricing_plan_id":"cebpf4jnsgd1na2vs0mg"},{"bike_id":"9bd21267-26f6-4122-9567-2f0b5d4f790f","system_id":"levelo_inurba_marseille","lat":43.32378,"lon":5.38923,"is_reserved":false,"is_disabled":false,"rental_uris":{"android":"levelo://app?vid=9bd21267-26f6-4122-9567-2f0b5d4f790f","ios":"levelo://app?vid=9bd21267-26f6-4122-9567-2f0b5d4f790f"},"vehicle_type_id":"4","last_reported":1738239470,"current_range_meters":38800,"station_id":"ce4bhqp2rcd13ifvqhog","pricing_plan_id":"cebpf4jnsgd1na2vs0mg"},{"bike_id":"73b535f6-ba92-428f-b5f0-2504d4764de7","system_id":"levelo_inurba_marseille","lat":43.29428,"lon":5.38618,"is_reserved":false,"is_disabled":false,"rental_uris":{"android":"levelo://app?vid=73b535f6-ba92-428f-b5f0-2504d4764de7","ios":"levelo://app?vid=73b535f6-ba92-428f-b5f0-2504d4764de7"},"vehicle_type_id":"4","last_reported":1738239470,"current_range_meters":28800,"station_id":"ce4bh2h2rcd13ifvqdh0","pricing_plan_id":"cebpf4jnsgd1na2vs0mg"},{"bike_id":"ad388a42-a046-45cd-9b93-b21c13ac7bb7","system_id":"levelo_inurba_marseille","lat":43.27329,"lon":5.39117,"is_reserved":false,"is_disabled":false,"rental_uris":{"android":"levelo://app?vid=ad388a42-a046-45cd-9b93-b21c13ac7bb7","ios":"levelo://app?vid=ad388a42-a046-45cd-9b93-b21c13ac7bb7"},"vehicle_type_id":"4","last_reported":1738239470,"current_range_meters":30000,"station_id":"ce4bhgp2rcd13ifvqfe0","pricing_plan_id":"cebpf4jnsgd1na2vs0mg"},{"bike_id":"13aac8d8-c33e-4de4-9b52-23227c3b4f10","system_id":"levelo_inurba_marseille","lat":43.31327,"lon":5.39695,"is_reserved":false,"is_disabled":true,"rental_uris":{"android":"levelo://app?vid=13aac8d8-c33e-4de4-9b52-23227c3b4f10","ios":"levelo://app?vid=13aac8d8-c33e-4de4-9b52-23227c3b4f10"},"vehicle_type_id":"4","last_reported":1738239470,"current_range_meters":24400,"station_id":"ce4bgvp2rcd13ifvqcu0","pricing_plan_id":"cebpf4jnsgd1na2vs0mg"},{"bike_id":"76c2febc-0eb9-4f83-8334-5c6af9958ba0","system_id":"levelo_inurba_marseille","lat":43.29049,"lon":5.3998,"is_reserved":false,"is_disabled":false,"rental_uris":{"android":"levelo://app?vid=76c2febc-0eb9-4f83-8334-5c6af9958ba0","ios":"levelo://app?vid=76c2febc-0eb9-4f83-8334-5c6af9958ba0"},"vehicle_type_id":"4","last_reported":1738239470,"current_range_meters":34000,"station_id":"ce4bh392rcd13ifvqdm0","pricing_plan_id":"cebpf4jnsgd1na2vs0mg"},{"bike_id":"a4996102-f702-4d1e-923d-c8b14152160a","system_id":"levelo_inurba_marseille","lat":43.26944,"lon":5.38655,"is_reserved":false,"is_disabled":false,"rental_uris":{"android":"levelo://app?vid=a4996102-f702-4d1e-923d-c8b14152160a","ios":"levelo://app?vid=a4996102-f702-4d1e-923d-c8b14152160a"},"vehicle_type_id":"4","last_reported":1738239470,"current_range_meters":38000,"station_id":"ce4bhh92rcd13ifvqfh0","pricing_plan_id":"cebpf4jnsgd1na2vs0mg"},{"bike_id":"1c63fa7b-8bb3-4da5-8267-9c40ab75cc0b","system_id":"levelo_inurba_marseille","lat":43.33734,"lon":5.39199,"is_reserved":false,"is_disabled":false,"rental_uris":{"android":"levelo://app?vid=1c63fa7b-8bb3-4da5-8267-9c40ab75cc0b","ios":"levelo://app?vid=1c63fa7b-8bb3-4da5-8267-9c40ab75cc0b"},"vehicle_type_id":"4","last_reported":1738239470,"current_range_meters":39200,"station_id":"ce4bhr92rcd13ifvqhsg","pricing_plan_id":"cebpf4jnsgd1na2vs0mg"},{"bike_id":"9c8a8ec1-4403-4fc5-a467-c5d82c1e7d03","system_id":"levelo_inurba_marseille","lat":43.2619,"lon":5.37447,"is_reserved":false,"is_disabled":false,"rental_uris":{"android":"levelo://app?vid=9c8a8ec1-4403-4fc5-a467-c5d82c1e7d03","ios":"levelo://app?vid=9c8a8ec1-4403-4fc5-a467-c5d82c1e7d03"},"vehicle_type_id":"4","last_reported":1738239470,"current_range_meters":36000,"station_id":"ce4bhgp2rcd13ifvqfc0","pricing_plan_id":"cebpf4jnsgd1na2vs0mg"},{"bike_id":"66fc4ca4-fccd-4ebb-8671-e3d85586ffc6","system_id":"levelo_inurba_marseille","lat":43.30942,"lon":5.39036,"is_reserved":false,"is_disabled":false,"rental_uris":{"android":"levelo://app?vid=66fc4ca4-fccd-4ebb-8671-e3d85586ffc6","ios":"levelo://app?vid=66fc4ca4-fccd-4ebb-8671-e3d85586ffc6"},"vehicle_type_id":"4","last_reported":1738239470,"current_range_meters":22800,"station_id":"ce4bgup2rcd13ifvqco0","pricing_plan_id":"cebpf4jnsgd1na2vs0mg"},{"bike_id":"cc47836a-b908-432f-8e0e-2f793407f141","system_id":"levelo_inurba_marseille","lat":43.2292,"lon":5.35375,"is_reserved":false,"is_disabled":false,"rental_uris":{"android":"levelo://app?vid=cc47836a-b908-432f-8e0e-2f793407f141","ios":"levelo://app?vid=cc47836a-b908-432f-8e0e-2f793407f141"},"vehicle_type_id":"4","last_reported":1738239470,"current_range_meters":16400,"station_id":"cpo3532slgdg3j2ikp40","pricing_plan_id":"cebpf4jnsgd1na2vs0mg"},{"bike_id":"c4298800-f4ac-40db-9f8d-2fc32a07a0c2","system_id":"levelo_inurba_marseille","lat":43.27969,"lon":5.38735,"is_reserved":false,"is_disabled":false,"rental_uris":{"android":"levelo://app?vid=c4298800-f4ac-40db-9f8d-2fc32a07a0c2","ios":"levelo://app?vid=c4298800-f4ac-40db-9f8d-2fc32a07a0c2"},"vehicle_type_id":"4","last_reported":1738239470,"current_range_meters":38800,"station_id":"ce4bhg12rcd13ifvqf80","pricing_plan_id":"cebpf4jnsgd1na2vs0mg"},{"bike_id":"7c3bf8f7-ea08-4399-9011-4efb98054e18","system_id":"levelo_inurba_marseille","lat":43.30486,"lon":5.37906,"is_reserved":false,"is_disabled":false,"rental_uris":{"android":"levelo://app?vid=7c3bf8f7-ea08-4399-9011-4efb98054e18","ios":"levelo://app?vid=7c3bf8f7-ea08-4399-9011-4efb98054e18"},"vehicle_type_id":"4","last_reported":1738239470,"current_range_meters":20800,"station_id":"ce4bgup2rcd13ifvqcn0","pricing_plan_id":"cebpf4jnsgd1na2vs0mg"},{"bike_id":"72e3f5db-3724-48cd-9368-0a99fb62d116","system_id":"levelo_inurba_marseille","lat":43.28662,"lon":5.36354,"is_reserved":false,"is_disabled":false,"rental_uris":{"android":"levelo://app?vid=72e3f5db-3724-48cd-9368-0a99fb62d116","ios":"levelo://app?vid=72e3f5db-3724-48cd-9368-0a99fb62d116"},"vehicle_type_id":"4","last_reported":1738239470,"current_range_meters":36800,"station_id":"ce4bhah2rcd13ifvqej0","pricing_plan_id":"cebpf4jnsgd1na2vs0mg"},{"bike_id":"ddb32047-44a3-4f83-8011-904b3cd64d9e","system_id":"levelo_inurba_marseille","lat":43.32108,"lon":5.36769,"is_reserved":false,"is_disabled":false,"rental_uris":{"android":"levelo://app?vid=ddb32047-44a3-4f83-8011-904b3cd64d9e","ios":"levelo://app?vid=ddb32047-44a3-4f83-8011-904b3cd64d9e"},"vehicle_type_id":"4","last_reported":1738239470,"current_range_meters":25600,"station_id":"ce4bhrh2rcd13ifvqhug","pricing_plan_id":"cebpf4jnsgd1na2vs0mg"},{"bike_id":"3c0b38bd-3465-4451-b1fe-d1fac80a0678","system_id":"levelo_inurba_marseille","lat":43.30082,"lon":5.391,"is_reserved":false,"is_disabled":false,"rental_uris":{"android":"levelo://app?vid=3c0b38bd-3465-4451-b1fe-d1fac80a0678","ios":"levelo://app?vid=3c0b38bd-3465-4451-b1fe-d1fac80a0678"},"vehicle_type_id":"4","last_reported":1738239470,"current_range_meters":35200,"station_id":"ce4bh192rcd13ifvqdb0","pricing_plan_id":"cebpf4jnsgd1na2vs0mg"},{"bike_id":"7fbc607b-e12b-47bd-a53f-1c18ac62adfd","system_id":"levelo_inurba_marseille","lat":43.27812,"lon":5.40713,"is_reserved":false,"is_disabled":false,"rental_uris":{"android":"levelo://app?vid=7fbc607b-e12b-47bd-a53f-1c18ac62adfd","ios":"levelo://app?vid=7fbc607b-e12b-47bd-a53f-1c18ac62adfd"},"vehicle_type_id":"4","last_reported":1738239470,"current_range_meters":24400,"station_id":"ce4bhnh2rcd13ifvqgtg","pricing_plan_id":"cebpf4jnsgd1na2vs0mg"},{"bike_id":"21b52f6a-4d72-4210-8710-c5cde09123c4","system_id":"levelo_inurba_marseille","lat":43.27307,"lon":5.39104,"is_reserved":false,"is_disabled":false,"rental_uris":{"android":"levelo://app?vid=21b52f6a-4d72-4210-8710-c5cde09123c4","ios":"levelo://app?vid=21b52f6a-4d72-4210-8710-c5cde09123c4"},"vehicle_type_id":"4","last_reported":1738239470,"current_range_meters":39200,"station_id":"ce4bhgp2rcd13ifvqfe0","pricing_plan_id":"cebpf4jnsgd1na2vs0mg"},{"bike_id":"f34fcd93-0f66-400a-8f07-aa08bfa23861","system_id":"levelo_inurba_marseille","lat":43.25922,"lon":5.40891,"is_reserved":false,"is_disabled":false,"rental_uris":{"android":"levelo://app?vid=f34fcd93-0f66-400a-8f07-aa08bfa23861","ios":"levelo://app?vid=f34fcd93-0f66-400a-8f07-aa08bfa23861"},"vehicle_type_id":"4","last_reported":1738239470,"current_range_meters":2800,"station_id":"ce4bhm92rcd13ifvqglg","pricing_plan_id":"cebpf4jnsgd1na2vs0mg"},{"bike_id":"65cdd011-d653-4c63-838a-82bce7c6f2bb","system_id":"levelo_inurba_marseille","lat":43.2836,"lon":5.38095,"is_reserved":false,"is_disabled":false,"rental_uris":{"android":"levelo://app?vid=65cdd011-d653-4c63-838a-82bce7c6f2bb","ios":"levelo://app?vid=65cdd011-d653-4c63-838a-82bce7c6f2bb"},"vehicle_type_id":"4","last_reported":1738239470,"current_range_meters":16800,"station_id":"ce4bh412rcd13ifvqdr0","pricing_plan_id":"cebpf4jnsgd1na2vs0mg"},{"bike_id":"606053f9-3da2-4594-b4df-8e24b5fa812c","system_id":"levelo_inurba_marseille","lat":43.269343,"lon":5.402557,"is_reserved":false,"is_disabled":false,"rental_uris":{"android":"levelo://app?vid=606053f9-3da2-4594-b4df-8e24b5fa812c","ios":"levelo://app?vid=606053f9-3da2-4594-b4df-8e24b5fa812c"},"vehicle_type_id":"4","last_reported":1738239470,"current_range_meters":39200,"station_id":"cjm6bp8fraef2m0cb0m0","pricing_plan_id":"cebpf4jnsgd1na2vs0mg"},{"bike_id":"61872b99-0830-49d1-aef2-12edfe77ba4a","system_id":"levelo_inurba_marseille","lat":43.28352,"lon":5.38102,"is_reserved":false,"is_disabled":false,"rental_uris":{"android":"levelo://app?vid=61872b99-0830-49d1-aef2-12edfe77ba4a","ios":"levelo://app?vid=61872b99-0830-49d1-aef2-12edfe77ba4a"},"vehicle_type_id":"4","last_reported":1738239470,"current_range_meters":24800,"station_id":"ce4bh412rcd13ifvqdr0","pricing_plan_id":"cebpf4jnsgd1na2vs0mg"},{"bike_id":"ecffb2a6-94ba-4ce3-a2fb-090fc61757a9","system_id":"levelo_inurba_marseille","lat":43.31509,"lon":5.3729,"is_reserved":false,"is_disabled":false,"rental_uris":{"android":"levelo://app?vid=ecffb2a6-94ba-4ce3-a2fb-090fc61757a9","ios":"levelo://app?vid=ecffb2a6-94ba-4ce3-a2fb-090fc61757a9"},"vehicle_type_id":"4","last_reported":1738239470,"current_range_meters":21600,"station_id":"ce4bgt12rcd13ifvqcd0","pricing_plan_id":"cebpf4jnsgd1na2vs0mg"},{"bike_id":"35f34185-e7f5-4236-ac0d-78d9ee8441e3","system_id":"levelo_inurba_marseille","lat":43.26059,"lon":5.39399,"is_reserved":false,"is_disabled":false,"rental_uris":{"android":"levelo://app?vid=35f34185-e7f5-4236-ac0d-78d9ee8441e3","ios":"levelo://app?vid=35f34185-e7f5-4236-ac0d-78d9ee8441e3"},"vehicle_type_id":"4","last_reported":1738239470,"current_range_meters":30400,"station_id":"ce4bhh92rcd13ifvqfj0","pricing_plan_id":"cebpf4jnsgd1na2vs0mg"},{"bike_id":"c52ee0d8-fc14-4a91-ad24-eeec1e8e0625","system_id":"levelo_inurba_marseille","lat":43.26197,"lon":5.37449,"is_reserved":false,"is_disabled":false,"rental_uris":{"android":"levelo://app?vid=c52ee0d8-fc14-4a91-ad24-eeec1e8e0625","ios":"levelo://app?vid=c52ee0d8-fc14-4a91-ad24-eeec1e8e0625"},"vehicle_type_id":"4","last_reported":1738239470,"current_range_meters":39200,"station_id":"ce4bhgp2rcd13ifvqfc0","pricing_plan_id":"cebpf4jnsgd1na2vs0mg"},{"bike_id":"970ebb06-ca9e-4f28-b8ba-dc0f942d608c","system_id":"levelo_inurba_marseille","lat":43.29743,"lon":5.37696,"is_reserved":false,"is_disabled":false,"rental_uris":{"android":"levelo://app?vid=970ebb06-ca9e-4f28-b8ba-dc0f942d608c","ios":"levelo://app?vid=970ebb06-ca9e-4f28-b8ba-dc0f942d608c"},"vehicle_type_id":"4","last_reported":1738239470,"current_range_meters":39200,"station_id":"ce4bgkh2rcd13ifvqbl0","pricing_plan_id":"cebpf4jnsgd1na2vs0mg"},{"bike_id":"720742d2-419d-457a-ab4d-f4f9f5327356","system_id":"levelo_inurba_marseille","lat":43.27921,"lon":5.39609,"is_reserved":false,"is_disabled":false,"rental_uris":{"android":"levelo://app?vid=720742d2-419d-457a-ab4d-f4f9f5327356","ios":"levelo://app?vid=720742d2-419d-457a-ab4d-f4f9f5327356"},"vehicle_type_id":"4","last_reported":1738239470,"current_range_meters":38400,"station_id":"ce4bhf92rcd13ifvqf40","pricing_plan_id":"cebpf4jnsgd1na2vs0mg"},{"bike_id":"ec1ca40e-791f-4792-befe-7898ee1de422","system_id":"levelo_inurba_marseille","lat":43.27483,"lon":5.42444,"is_reserved":false,"is_disabled":false,"rental_uris":{"android":"levelo://app?vid=ec1ca40e-791f-4792-befe-7898ee1de422","ios":"levelo://app?vid=ec1ca40e-791f-4792-befe-7898ee1de422"},"vehicle_type_id":"4","last_reported":1738239470,"current_range_meters":4800,"station_id":"ce4bhn92rcd13ifvqgrg","pricing_plan_id":"cebpf4jnsgd1na2vs0mg"},{"bike_id":"9c8f7b33-8de5-41a5-b18e-df4b85c0baa0","system_id":"levelo_inurba_marseille","lat":43.32485,"lon":5.36558,"is_reserved":false,"is_disabled":false,"rental_uris":{"android":"levelo://app?vid=9c8f7b33-8de5-41a5-b18e-df4b85c0baa0","ios":"levelo://app?vid=9c8f7b33-8de5-41a5-b18e-df4b85c0baa0"},"vehicle_type_id":"4","last_reported":1738239470,"current_range_meters":35600,"station_id":"ce4bhs12rcd13ifvqhvg","pricing_plan_id":"cebpf4jnsgd1na2vs0mg"},{"bike_id":"9f7cbc3c-6e0b-4442-8c70-64c0b2a1452e","system_id":"levelo_inurba_marseille","lat":43.23073,"lon":5.35508,"is_reserved":false,"is_disabled":false,"rental_uris":{"android":"levelo://app?vid=9f7cbc3c-6e0b-4442-8c70-64c0b2a1452e","ios":"levelo://app?vid=9f7cbc3c-6e0b-4442-8c70-64c0b2a1452e"},"vehicle_type_id":"4","last_reported":1738239470,"current_range_meters":12000,"station_id":"cpo3342slgdg3j2ifvpg","pricing_plan_id":"cebpf4jnsgd1na2vs0mg"},{"bike_id":"c8a3a0ed-dff2-4f3c-87dc-2e6b47b1ad28","system_id":"levelo_inurba_marseille","lat":43.337444,"lon":5.374475,"is_reserved":false,"is_disabled":true,"rental_uris":{"android":"levelo://app?vid=c8a3a0ed-dff2-4f3c-87dc-2e6b47b1ad28","ios":"levelo://app?vid=c8a3a0ed-dff2-4f3c-87dc-2e6b47b1ad28"},"vehicle_type_id":"4","last_reported":1738239470,"current_range_meters":0,"station_id":"","pricing_plan_id":"cebpf4jnsgd1na2vs0mg"},{"bike_id":"02ad5e65-8e2d-4089-98e9-5d190adb7054","system_id":"levelo_inurba_marseille","lat":43.2836,"lon":5.38129,"is_reserved":false,"is_disabled":false,"rental_uris":{"android":"levelo://app?vid=02ad5e65-8e2d-4089-98e9-5d190adb7054","ios":"levelo://app?vid=02ad5e65-8e2d-4089-98e9-5d190adb7054"},"vehicle_type_id":"4","last_reported":1738239470,"current_range_meters":30400,"station_id":"ce4bh412rcd13ifvqdr0","pricing_plan_id":"cebpf4jnsgd1na2vs0mg"},{"bike_id":"7247902a-635d-4f06-9cf7-f11e089c2d38","system_id":"levelo_inurba_marseille","lat":43.26933,"lon":5.40259,"is_reserved":false,"is_disabled":false,"rental_uris":{"android":"levelo://app?vid=7247902a-635d-4f06-9cf7-f11e089c2d38","ios":"levelo://app?vid=7247902a-635d-4f06-9cf7-f11e089c2d38"},"vehicle_type_id":"4","last_reported":1738239470,"current_range_meters":38800,"station_id":"cjm6bp8fraef2m0cb0m0","pricing_plan_id":"cebpf4jnsgd1na2vs0mg"},{"bike_id":"9ee34e81-9c2c-4044-8c45-7a4ec30a22d1","system_id":"levelo_inurba_marseille","lat":43.28918,"lon":5.38414,"is_reserved":false,"is_disabled":false,"rental_uris":{"android":"levelo://app?vid=9ee34e81-9c2c-4044-8c45-7a4ec30a22d1","ios":"levelo://app?vid=9ee34e81-9c2c-4044-8c45-7a4ec30a22d1"},"vehicle_type_id":"4","last_reported":1738239470,"current_range_meters":39200,"station_id":"ce4bh612rcd13ifvqe6g","pricing_plan_id":"cebpf4jnsgd1na2vs0mg"},{"bike_id":"d6b02c53-f0cf-4b2a-a86f-01340b4cf04e","system_id":"levelo_inurba_marseille","lat":43.3136,"lon":5.38503,"is_reserved":false,"is_disabled":false,"rental_uris":{"android":"levelo://app?vid=d6b02c53-f0cf-4b2a-a86f-01340b4cf04e","ios":"levelo://app?vid=d6b02c53-f0cf-4b2a-a86f-01340b4cf04e"},"vehicle_type_id":"4","last_reported":1738239470,"current_range_meters":11200,"station_id":"ce4bgt92rcd13ifvqcf0","pricing_plan_id":"cebpf4jnsgd1na2vs0mg"},{"bike_id":"ecc7d736-8dcc-4521-8ca5-10a9af95cf48","system_id":"levelo_inurba_marseille","lat":43.25937,"lon":5.40908,"is_reserved":false,"is_disabled":false,"rental_uris":{"android":"levelo://app?vid=ecc7d736-8dcc-4521-8ca5-10a9af95cf48","ios":"levelo://app?vid=ecc7d736-8dcc-4521-8ca5-10a9af95cf48"},"vehicle_type_id":"4","last_reported":1738239470,"current_range_meters":26800,"station_id":"ce4bhm92rcd13ifvqglg","pricing_plan_id":"cebpf4jnsgd1na2vs0mg"},{"bike_id":"05e57a95-2c98-4ceb-9388-74d754669e55","system_id":"levelo_inurba_marseille","lat":43.25865,"lon":5.39904,"is_reserved":false,"is_disabled":false,"rental_uris":{"android":"levelo://app?vid=05e57a95-2c98-4ceb-9388-74d754669e55","ios":"levelo://app?vid=05e57a95-2c98-4ceb-9388-74d754669e55"},"vehicle_type_id":"4","last_reported":1738239470,"current_range_meters":22400,"station_id":"ce4bhl92rcd13ifvqghg","pricing_plan_id":"cebpf4jnsgd1na2vs0mg"},{"bike_id":"32802d31-82e5-49aa-928e-45336ddb5e58","system_id":"levelo_inurba_marseille","lat":43.24997,"lon":5.38932,"is_reserved":false,"is_disabled":false,"rental_uris":{"android":"levelo://app?vid=32802d31-82e5-49aa-928e-45336ddb5e58","ios":"levelo://app?vid=32802d31-82e5-49aa-928e-45336ddb5e58"},"vehicle_type_id":"4","last_reported":1738239470,"current_range_meters":38400,"station_id":"ce4bhgp2rcd13ifvqfd0","pricing_plan_id":"cebpf4jnsgd1na2vs0mg"},{"bike_id":"d06240a3-8895-42e8-9212-5c068d44e9d2","system_id":"levelo_inurba_marseille","lat":43.28623,"lon":5.35101,"is_reserved":false,"is_disabled":false,"rental_uris":{"android":"levelo://app?vid=d06240a3-8895-42e8-9212-5c068d44e9d2","ios":"levelo://app?vid=d06240a3-8895-42e8-9212-5c068d44e9d2"},"vehicle_type_id":"4","last_reported":1738239470,"current_range_meters":30000,"station_id":"ce4bhch2rcd13ifvqeug","pricing_plan_id":"cebpf4jnsgd1na2vs0mg"},{"bike_id":"119a0ace-2413-496b-84f3-db8a6a6c260c","system_id":"levelo_inurba_marseille","lat":43.29843,"lon":5.36276,"is_reserved":false,"is_disabled":false,"rental_uris":{"android":"levelo://app?vid=119a0ace-2413-496b-84f3-db8a6a6c260c","ios":"levelo://app?vid=119a0ace-2413-496b-84f3-db8a6a6c260c"},"vehicle_type_id":"4","last_reported":1738239470,"current_range_meters":35600,"station_id":"ce4bgpp2rcd13ifvqc3g","pricing_plan_id":"cebpf4jnsgd1na2vs0mg"},{"bike_id":"ab82d8aa-253d-4958-9348-5279da82b25d","system_id":"levelo_inurba_marseille","lat":43.296,"lon":5.3773,"is_reserved":false,"is_disabled":false,"rental_uris":{"android":"levelo://app?vid=ab82d8aa-253d-4958-9348-5279da82b25d","ios":"levelo://app?vid=ab82d8aa-253d-4958-9348-5279da82b25d"},"vehicle_type_id":"4","last_reported":1738239470,"current_range_meters":37600,"station_id":"ce4bgi92rcd13ifvqb90","pricing_plan_id":"cebpf4jnsgd1na2vs0mg"},{"bike_id":"b732fc12-6f55-4b85-a4de-6da9edd179c9","system_id":"levelo_inurba_marseille","lat":43.30769,"lon":5.37653,"is_reserved":false,"is_disabled":false,"rental_uris":{"android":"levelo://app?vid=b732fc12-6f55-4b85-a4de-6da9edd179c9","ios":"levelo://app?vid=b732fc12-6f55-4b85-a4de-6da9edd179c9"},"vehicle_type_id":"4","last_reported":1738239470,"current_range_meters":20400,"station_id":"ce4bgv92rcd13ifvqcq0","pricing_plan_id":"cebpf4jnsgd1na2vs0mg"},{"bike_id":"21c696e0-c5f2-4276-9699-40ae57d8aaab","system_id":"levelo_inurba_marseille","lat":43.2848,"lon":5.384147,"is_reserved":false,"is_disabled":false,"rental_uris":{"android":"levelo://app?vid=21c696e0-c5f2-4276-9699-40ae57d8aaab","ios":"levelo://app?vid=21c696e0-c5f2-4276-9699-40ae57d8aaab"},"vehicle_type_id":"4","last_reported":1738239470,"current_range_meters":27600,"station_id":"ce4bh512rcd13ifvqe3g","pricing_plan_id":"cebpf4jnsgd1na2vs0mg"},{"bike_id":"a36de8bd-2e3e-4fb2-8780-295adcb078f0","system_id":"levelo_inurba_marseille","lat":43.26557,"lon":5.37283,"is_reserved":false,"is_disabled":false,"rental_uris":{"android":"levelo://app?vid=a36de8bd-2e3e-4fb2-8780-295adcb078f0","ios":"levelo://app?vid=a36de8bd-2e3e-4fb2-8780-295adcb078f0"},"vehicle_type_id":"4","last_reported":1738239470,"current_range_meters":35600,"station_id":"ce4bhg12rcd13ifvqf70","pricing_plan_id":"cebpf4jnsgd1na2vs0mg"},{"bike_id":"9838cc78-2b53-49d3-ae13-82df62c4fd64","system_id":"levelo_inurba_marseille","lat":43.28412,"lon":5.40934,"is_reserved":false,"is_disabled":true,"rental_uris":{"android":"levelo://app?vid=9838cc78-2b53-49d3-ae13-82df62c4fd64","ios":"levelo://app?vid=9838cc78-2b53-49d3-ae13-82df62c4fd64"},"vehicle_type_id":"4","last_reported":1738239470,"current_range_meters":0,"station_id":"","pricing_plan_id":"cebpf4jnsgd1na2vs0mg"},{"bike_id":"21b482eb-4adf-4238-87c2-2a40584763b3","system_id":"levelo_inurba_marseille","lat":43.283506,"lon":5.381188,"is_reserved":false,"is_disabled":false,"rental_uris":{"android":"levelo://app?vid=21b482eb-4adf-4238-87c2-2a40584763b3","ios":"levelo://app?vid=21b482eb-4adf-4238-87c2-2a40584763b3"},"vehicle_type_id":"4","last_reported":1738239470,"current_range_meters":16800,"station_id":"ce4bh412rcd13ifvqdr0","pricing_plan_id":"cebpf4jnsgd1na2vs0mg"},{"bike_id":"0b1f4817-4c30-44b7-9201-5f8be66aeb19","system_id":"levelo_inurba_marseille","lat":43.28036,"lon":5.3695,"is_reserved":false,"is_disabled":false,"rental_uris":{"android":"levelo://app?vid=0b1f4817-4c30-44b7-9201-5f8be66aeb19","ios":"levelo://app?vid=0b1f4817-4c30-44b7-9201-5f8be66aeb19"},"vehicle_type_id":"4","last_reported":1738239470,"current_range_meters":38800,"station_id":"ce4bha12rcd13ifvqef0","pricing_plan_id":"cebpf4jnsgd1na2vs0mg"},{"bike_id":"a6b336c6-34d6-4b26-bccf-abefa3771ff1","system_id":"levelo_inurba_marseille","lat":43.23155,"lon":5.43716,"is_reserved":false,"is_disabled":false,"rental_uris":{"android":"levelo://app?vid=a6b336c6-34d6-4b26-bccf-abefa3771ff1","ios":"levelo://app?vid=a6b336c6-34d6-4b26-bccf-abefa3771ff1"},"vehicle_type_id":"4","last_reported":1738239470,"current_range_meters":38800,"station_id":"ce4bhmp2rcd13ifvqgog","pricing_plan_id":"cebpf4jnsgd1na2vs0mg"},{"bike_id":"f47ff0fa-aee8-462d-a4f4-9fdc1dbfa294","system_id":"levelo_inurba_marseille","lat":43.27907,"lon":5.38013,"is_reserved":false,"is_disabled":false,"rental_uris":{"android":"levelo://app?vid=f47ff0fa-aee8-462d-a4f4-9fdc1dbfa294","ios":"levelo://app?vid=f47ff0fa-aee8-462d-a4f4-9fdc1dbfa294"},"vehicle_type_id":"4","last_reported":1738239470,"current_range_meters":32000,"station_id":"ce4bhf92rcd13ifvqf50","pricing_plan_id":"cebpf4jnsgd1na2vs0mg"},{"bike_id":"4487981e-35de-45fa-89dc-c9471979b027","system_id":"levelo_inurba_marseille","lat":43.24648,"lon":5.389,"is_reserved":false,"is_disabled":false,"rental_uris":{"android":"levelo://app?vid=4487981e-35de-45fa-89dc-c9471979b027","ios":"levelo://app?vid=4487981e-35de-45fa-89dc-c9471979b027"},"vehicle_type_id":"4","last_reported":1738239470,"current_range_meters":38800,"station_id":"ce4bhg12rcd13ifvqf60","pricing_plan_id":"cebpf4jnsgd1na2vs0mg"},{"bike_id":"8316cb10-023d-4bec-a7d1-c688e60191c8","system_id":"levelo_inurba_marseille","lat":43.28135,"lon":5.42678,"is_reserved":false,"is_disabled":false,"rental_uris":{"android":"levelo://app?vid=8316cb10-023d-4bec-a7d1-c688e60191c8","ios":"levelo://app?vid=8316cb10-023d-4bec-a7d1-c688e60191c8"},"vehicle_type_id":"4","last_reported":1738239470,"current_range_meters":10000,"station_id":"ce4bhnh2rcd13ifvqgug","pricing_plan_id":"cebpf4jnsgd1na2vs0mg"},{"bike_id":"33e6fd4a-27d7-4212-babb-f1fdc13abd7e","system_id":"levelo_inurba_marseille","lat":43.24383,"lon":5.37058,"is_reserved":false,"is_disabled":false,"rental_uris":{"android":"levelo://app?vid=33e6fd4a-27d7-4212-babb-f1fdc13abd7e","ios":"levelo://app?vid=33e6fd4a-27d7-4212-babb-f1fdc13abd7e"},"vehicle_type_id":"4","last_reported":1738239470,"current_range_meters":34800,"station_id":"ce4bhhh2rcd13ifvqfk0","pricing_plan_id":"cebpf4jnsgd1na2vs0mg"},{"bike_id":"43cda217-14ed-4801-819f-f1965303a677","system_id":"levelo_inurba_marseille","lat":43.29548,"lon":5.42291,"is_reserved":false,"is_disabled":false,"rental_uris":{"android":"levelo://app?vid=43cda217-14ed-4801-819f-f1965303a677","ios":"levelo://app?vid=43cda217-14ed-4801-819f-f1965303a677"},"vehicle_type_id":"4","last_reported":1738239470,"current_range_meters":15200,"station_id":"ce4bhph2rcd13ifvqhdg","pricing_plan_id":"cebpf4jnsgd1na2vs0mg"},{"bike_id":"8afca465-1ed3-4f9a-a42a-b3359e45ec69","system_id":"levelo_inurba_marseille","lat":43.30517,"lon":5.36539,"is_reserved":false,"is_disabled":false,"rental_uris":{"android":"levelo://app?vid=8afca465-1ed3-4f9a-a42a-b3359e45ec69","ios":"levelo://app?vid=8afca465-1ed3-4f9a-a42a-b3359e45ec69"},"vehicle_type_id":"4","last_reported":1738239470,"current_range_meters":38800,"station_id":"ce4bgs12rcd13ifvqcag","pricing_plan_id":"cebpf4jnsgd1na2vs0mg"},{"bike_id":"a0e9467e-a6ce-485e-a39f-0e7292f7d41f","system_id":"levelo_inurba_marseille","lat":43.3171,"lon":5.43707,"is_reserved":false,"is_disabled":false,"rental_uris":{"android":"levelo://app?vid=a0e9467e-a6ce-485e-a39f-0e7292f7d41f","ios":"levelo://app?vid=a0e9467e-a6ce-485e-a39f-0e7292f7d41f"},"vehicle_type_id":"4","last_reported":1738239470,"current_range_meters":14800,"station_id":"ce4bhp92rcd13ifvqhcg","pricing_plan_id":"cebpf4jnsgd1na2vs0mg"},{"bike_id":"d979d8d2-ec65-47af-9229-e4270aab279a","system_id":"levelo_inurba_marseille","lat":43.23066,"lon":5.3552,"is_reserved":false,"is_disabled":false,"rental_uris":{"android":"levelo://app?vid=d979d8d2-ec65-47af-9229-e4270aab279a","ios":"levelo://app?vid=d979d8d2-ec65-47af-9229-e4270aab279a"},"vehicle_type_id":"4","last_reported":1738239470,"current_range_meters":14400,"station_id":"cpo3342slgdg3j2ifvpg","pricing_plan_id":"cebpf4jnsgd1na2vs0mg"},{"bike_id":"6d794ab4-8a41-420e-9684-1f49d9f4dedb","system_id":"levelo_inurba_marseille","lat":43.26223,"lon":5.37453,"is_reserved":false,"is_disabled":false,"rental_uris":{"android":"levelo://app?vid=6d794ab4-8a41-420e-9684-1f49d9f4dedb","ios":"levelo://app?vid=6d794ab4-8a41-420e-9684-1f49d9f4dedb"},"vehicle_type_id":"4","last_reported":1738239470,"current_range_meters":38800,"station_id":"ce4bhgp2rcd13ifvqfc0","pricing_plan_id":"cebpf4jnsgd1na2vs0mg"},{"bike_id":"f10d9b40-8520-41ee-b039-cd6e7d066065","system_id":"levelo_inurba_marseille","lat":43.2621,"lon":5.37444,"is_reserved":false,"is_disabled":false,"rental_uris":{"android":"levelo://app?vid=f10d9b40-8520-41ee-b039-cd6e7d066065","ios":"levelo://app?vid=f10d9b40-8520-41ee-b039-cd6e7d066065"},"vehicle_type_id":"4","last_reported":1738239470,"current_range_meters":37600,"station_id":"ce4bhgp2rcd13ifvqfc0","pricing_plan_id":"cebpf4jnsgd1na2vs0mg"},{"bike_id":"93d7fdf5-cb50-4164-beb5-da7a6acb0c47","system_id":"levelo_inurba_marseille","lat":43.32368,"lon":5.38886,"is_reserved":false,"is_disabled":false,"rental_uris":{"android":"levelo://app?vid=93d7fdf5-cb50-4164-beb5-da7a6acb0c47","ios":"levelo://app?vid=93d7fdf5-cb50-4164-beb5-da7a6acb0c47"},"vehicle_type_id":"4","last_reported":1738239470,"current_range_meters":29600,"station_id":"ce4bhqp2rcd13ifvqhog","pricing_plan_id":"cebpf4jnsgd1na2vs0mg"},{"bike_id":"efa3b269-1ce7-4216-a455-a1a22b13d3d5","system_id":"levelo_inurba_marseille","lat":43.31486,"lon":5.37277,"is_reserved":false,"is_disabled":false,"rental_uris":{"android":"levelo://app?vid=efa3b269-1ce7-4216-a455-a1a22b13d3d5","ios":"levelo://app?vid=efa3b269-1ce7-4216-a455-a1a22b13d3d5"},"vehicle_type_id":"4","last_reported":1738239470,"current_range_meters":38000,"station_id":"ce4bgt12rcd13ifvqcd0","pricing_plan_id":"cebpf4jnsgd1na2vs0mg"},{"bike_id":"4103f9ea-dc49-40ff-a855-96e33d24e922","system_id":"levelo_inurba_marseille","lat":43.26945,"lon":5.40254,"is_reserved":false,"is_disabled":false,"rental_uris":{"android":"levelo://app?vid=4103f9ea-dc49-40ff-a855-96e33d24e922","ios":"levelo://app?vid=4103f9ea-dc49-40ff-a855-96e33d24e922"},"vehicle_type_id":"4","last_reported":1738239470,"current_range_meters":36400,"station_id":"cjm6bp8fraef2m0cb0m0","pricing_plan_id":"cebpf4jnsgd1na2vs0mg"},{"bike_id":"28fe63c8-8f1f-4ef0-b5b6-e46078c21448","system_id":"levelo_inurba_marseille","lat":43.25816,"lon":5.39419,"is_reserved":false,"is_disabled":false,"rental_uris":{"android":"levelo://app?vid=28fe63c8-8f1f-4ef0-b5b6-e46078c21448","ios":"levelo://app?vid=28fe63c8-8f1f-4ef0-b5b6-e46078c21448"},"vehicle_type_id":"4","last_reported":1738239470,"current_range_meters":38800,"station_id":"ce4bhip2rcd13ifvqft0","pricing_plan_id":"cebpf4jnsgd1na2vs0mg"},{"bike_id":"7d6260ec-6d8c-4d5b-8950-1a493871014c","system_id":"levelo_inurba_marseille","lat":43.29901,"lon":5.43688,"is_reserved":false,"is_disabled":false,"rental_uris":{"android":"levelo://app?vid=7d6260ec-6d8c-4d5b-8950-1a493871014c","ios":"levelo://app?vid=7d6260ec-6d8c-4d5b-8950-1a493871014c"},"vehicle_type_id":"4","last_reported":1738239470,"current_range_meters":34000,"station_id":"ce4bhpp2rcd13ifvqhfg","pricing_plan_id":"cebpf4jnsgd1na2vs0mg"},{"bike_id":"5eb06255-5d4c-4389-a01b-4a2ca84cbab4","system_id":"levelo_inurba_marseille","lat":43.27355,"lon":5.39127,"is_reserved":false,"is_disabled":false,"rental_uris":{"android":"levelo://app?vid=5eb06255-5d4c-4389-a01b-4a2ca84cbab4","ios":"levelo://app?vid=5eb06255-5d4c-4389-a01b-4a2ca84cbab4"},"vehicle_type_id":"4","last_reported":1738239470,"current_range_meters":25200,"station_id":"ce4bhgp2rcd13ifvqfe0","pricing_plan_id":"cebpf4jnsgd1na2vs0mg"},{"bike_id":"10bad993-1632-492b-9fa0-56b1e562c7eb","system_id":"levelo_inurba_marseille","lat":43.25728,"lon":5.41112,"is_reserved":false,"is_disabled":false,"rental_uris":{"android":"levelo://app?vid=10bad993-1632-492b-9fa0-56b1e562c7eb","ios":"levelo://app?vid=10bad993-1632-492b-9fa0-56b1e562c7eb"},"vehicle_type_id":"4","last_reported":1738239470,"current_range_meters":38000,"station_id":"ce4bhkp2rcd13ifvqgd0","pricing_plan_id":"cebpf4jnsgd1na2vs0mg"},{"bike_id":"eefc525c-9394-472c-9a07-edfaa88e8928","system_id":"levelo_inurba_marseille","lat":43.25037,"lon":5.38931,"is_reserved":false,"is_disabled":false,"rental_uris":{"android":"levelo://app?vid=eefc525c-9394-472c-9a07-edfaa88e8928","ios":"levelo://app?vid=eefc525c-9394-472c-9a07-edfaa88e8928"},"vehicle_type_id":"4","last_reported":1738239470,"current_range_meters":27600,"station_id":"ce4bhgp2rcd13ifvqfd0","pricing_plan_id":"cebpf4jnsgd1na2vs0mg"},{"bike_id":"5bc25ea2-600a-4187-9cf2-907bb6ba728a","system_id":"levelo_inurba_marseille","lat":43.26809,"lon":5.39436,"is_reserved":false,"is_disabled":true,"rental_uris":{"android":"levelo://app?vid=5bc25ea2-600a-4187-9cf2-907bb6ba728a","ios":"levelo://app?vid=5bc25ea2-600a-4187-9cf2-907bb6ba728a"},"vehicle_type_id":"4","last_reported":1738239470,"current_range_meters":400,"station_id":"ce4bhh12rcd13ifvqfg0","pricing_plan_id":"cebpf4jnsgd1na2vs0mg"},{"bike_id":"d8b1c3f9-ff6e-4179-8423-4ba0d2a2af0e","system_id":"levelo_inurba_marseille","lat":43.33721,"lon":5.39195,"is_reserved":false,"is_disabled":false,"rental_uris":{"android":"levelo://app?vid=d8b1c3f9-ff6e-4179-8423-4ba0d2a2af0e","ios":"levelo://app?vid=d8b1c3f9-ff6e-4179-8423-4ba0d2a2af0e"},"vehicle_type_id":"4","last_reported":1738239470,"current_range_meters":38800,"station_id":"ce4bhr92rcd13ifvqhsg","pricing_plan_id":"cebpf4jnsgd1na2vs0mg"},{"bike_id":"8fbfaa87-4997-43f3-8d71-b30fc64a490f","system_id":"levelo_inurba_marseille","lat":43.33714,"lon":5.39174,"is_reserved":false,"is_disabled":false,"rental_uris":{"android":"levelo://app?vid=8fbfaa87-4997-43f3-8d71-b30fc64a490f","ios":"levelo://app?vid=8fbfaa87-4997-43f3-8d71-b30fc64a490f"},"vehicle_type_id":"4","last_reported":1738239470,"current_range_meters":39200,"station_id":"ce4bhr92rcd13ifvqhsg","pricing_plan_id":"cebpf4jnsgd1na2vs0mg"},{"bike_id":"7cd6617d-ef37-4b9a-9114-490e143ce3ab","system_id":"levelo_inurba_marseille","lat":43.3189,"lon":5.40731,"is_reserved":false,"is_disabled":false,"rental_uris":{"android":"levelo://app?vid=7cd6617d-ef37-4b9a-9114-490e143ce3ab","ios":"levelo://app?vid=7cd6617d-ef37-4b9a-9114-490e143ce3ab"},"vehicle_type_id":"4","last_reported":1738239470,"current_range_meters":38400,"station_id":"ce4bhq12rcd13ifvqhig","pricing_plan_id":"cebpf4jnsgd1na2vs0mg"},{"bike_id":"ccb6318c-6994-46f1-b382-d420e97e4a87","system_id":"levelo_inurba_marseille","lat":43.27212,"lon":5.39194,"is_reserved":false,"is_disabled":false,"rental_uris":{"android":"levelo://app?vid=ccb6318c-6994-46f1-b382-d420e97e4a87","ios":"levelo://app?vid=ccb6318c-6994-46f1-b382-d420e97e4a87"},"vehicle_type_id":"4","last_reported":1738239470,"current_range_meters":34000,"station_id":"ce4bhhp2rcd13ifvqfm0","pricing_plan_id":"cebpf4jnsgd1na2vs0mg"},{"bike_id":"96b5e6b9-a95d-4079-8341-e0cf58ac7815","system_id":"levelo_inurba_marseille","lat":43.3087,"lon":5.3965,"is_reserved":false,"is_disabled":false,"rental_uris":{"android":"levelo://app?vid=96b5e6b9-a95d-4079-8341-e0cf58ac7815","ios":"levelo://app?vid=96b5e6b9-a95d-4079-8341-e0cf58ac7815"},"vehicle_type_id":"4","last_reported":1738239470,"current_range_meters":38800,"station_id":"ce4bh012rcd13ifvqcv0","pricing_plan_id":"cebpf4jnsgd1na2vs0mg"},{"bike_id":"632800ea-d1b0-4d85-8a5f-3c0a63a777b9","system_id":"levelo_inurba_marseille","lat":43.30461,"lon":5.37913,"is_reserved":false,"is_disabled":false,"rental_uris":{"android":"levelo://app?vid=632800ea-d1b0-4d85-8a5f-3c0a63a777b9","ios":"levelo://app?vid=632800ea-d1b0-4d85-8a5f-3c0a63a777b9"},"vehicle_type_id":"4","last_reported":1738239470,"current_range_meters":36800,"station_id":"ce4bgup2rcd13ifvqcn0","pricing_plan_id":"cebpf4jnsgd1na2vs0mg"},{"bike_id":"b56534f8-577f-4250-914f-e0db70a64414","system_id":"levelo_inurba_marseille","lat":43.32473,"lon":5.36553,"is_reserved":false,"is_disabled":false,"rental_uris":{"android":"levelo://app?vid=b56534f8-577f-4250-914f-e0db70a64414","ios":"levelo://app?vid=b56534f8-577f-4250-914f-e0db70a64414"},"vehicle_type_id":"4","last_reported":1738239470,"current_range_meters":8800,"station_id":"ce4bhs12rcd13ifvqhvg","pricing_plan_id":"cebpf4jnsgd1na2vs0mg"},{"bike_id":"5b9dcc5d-6c59-495e-b2f6-f8d55d55a751","system_id":"levelo_inurba_marseille","lat":43.28076,"lon":5.39658,"is_reserved":false,"is_disabled":false,"rental_uris":{"android":"levelo://app?vid=5b9dcc5d-6c59-495e-b2f6-f8d55d55a751","ios":"levelo://app?vid=5b9dcc5d-6c59-495e-b2f6-f8d55d55a751"},"vehicle_type_id":"4","last_reported":1738239470,"current_range_meters":38800,"station_id":"ce4bho12rcd13ifvqh2g","pricing_plan_id":"cebpf4jnsgd1na2vs0mg"},{"bike_id":"3c9c9088-9c27-4609-bc62-8218c0dc2be8","system_id":"levelo_inurba_marseille","lat":43.23188,"lon":5.35537,"is_reserved":false,"is_disabled":false,"rental_uris":{"android":"levelo://app?vid=3c9c9088-9c27-4609-bc62-8218c0dc2be8","ios":"levelo://app?vid=3c9c9088-9c27-4609-bc62-8218c0dc2be8"},"vehicle_type_id":"4","last_reported":1738239470,"current_range_meters":38800,"station_id":"ce4bhu92rcd13ifvqi70","pricing_plan_id":"cebpf4jnsgd1na2vs0mg"},{"bike_id":"9a6334c1-2529-46f5-9be3-482365ba227d","system_id":"levelo_inurba_marseille","lat":43.30155,"lon":5.38081,"is_reserved":false,"is_disabled":false,"rental_uris":{"android":"levelo://app?vid=9a6334c1-2529-46f5-9be3-482365ba227d","ios":"levelo://app?vid=9a6334c1-2529-46f5-9be3-482365ba227d"},"vehicle_type_id":"4","last_reported":1738239470,"current_range_meters":30000,"station_id":"ce4bgjp2rcd13ifvqbh0","pricing_plan_id":"cebpf4jnsgd1na2vs0mg"},{"bike_id":"fa2f1c21-3bfc-46ef-bcba-588774df180a","system_id":"levelo_inurba_marseille","lat":43.25875,"lon":5.399025,"is_reserved":false,"is_disabled":false,"rental_uris":{"android":"levelo://app?vid=fa2f1c21-3bfc-46ef-bcba-588774df180a","ios":"levelo://app?vid=fa2f1c21-3bfc-46ef-bcba-588774df180a"},"vehicle_type_id":"4","last_reported":1738239470,"current_range_meters":39200,"station_id":"ce4bhl92rcd13ifvqghg","pricing_plan_id":"cebpf4jnsgd1na2vs0mg"},{"bike_id":"f0f16a0a-9ada-4b40-8b05-8689a3b127be","system_id":"levelo_inurba_marseille","lat":43.30155,"lon":5.37428,"is_reserved":false,"is_disabled":false,"rental_uris":{"android":"levelo://app?vid=f0f16a0a-9ada-4b40-8b05-8689a3b127be","ios":"levelo://app?vid=f0f16a0a-9ada-4b40-8b05-8689a3b127be"},"vehicle_type_id":"4","last_reported":1738239470,"current_range_meters":4800,"station_id":"ce4bgs92rcd13ifvqcc0","pricing_plan_id":"cebpf4jnsgd1na2vs0mg"},{"bike_id":"bb6390c0-60fb-42b3-a544-cdbf1d86734d","system_id":"levelo_inurba_marseille","lat":43.267993,"lon":5.402693,"is_reserved":false,"is_disabled":true,"rental_uris":{"android":"levelo://app?vid=bb6390c0-60fb-42b3-a544-cdbf1d86734d","ios":"levelo://app?vid=bb6390c0-60fb-42b3-a544-cdbf1d86734d"},"vehicle_type_id":"4","last_reported":1738239470,"current_range_meters":38800,"station_id":"ce501612rcd8frsf0b60","pricing_plan_id":"cebpf4jnsgd1na2vs0mg"},{"bike_id":"2782808b-b55f-4413-bf65-ac26ddd93213","system_id":"levelo_inurba_marseille","lat":43.30466,"lon":5.37915,"is_reserved":false,"is_disabled":false,"rental_uris":{"android":"levelo://app?vid=2782808b-b55f-4413-bf65-ac26ddd93213","ios":"levelo://app?vid=2782808b-b55f-4413-bf65-ac26ddd93213"},"vehicle_type_id":"4","last_reported":1738239470,"current_range_meters":8000,"station_id":"ce4bgup2rcd13ifvqcn0","pricing_plan_id":"cebpf4jnsgd1na2vs0mg"},{"bike_id":"e74f24e1-add2-4635-a51d-5692fff267ad","system_id":"levelo_inurba_marseille","lat":43.30291,"lon":5.37707,"is_reserved":false,"is_disabled":false,"rental_uris":{"android":"levelo://app?vid=e74f24e1-add2-4635-a51d-5692fff267ad","ios":"levelo://app?vid=e74f24e1-add2-4635-a51d-5692fff267ad"},"vehicle_type_id":"4","last_reported":1738239470,"current_range_meters":32400,"station_id":"ce4bguh2rcd13ifvqcj0","pricing_plan_id":"cebpf4jnsgd1na2vs0mg"},{"bike_id":"a36650ef-6780-42f0-bd0f-0583f5ddc8ad","system_id":"levelo_inurba_marseille","lat":43.30012,"lon":5.37207,"is_reserved":false,"is_disabled":false,"rental_uris":{"android":"levelo://app?vid=a36650ef-6780-42f0-bd0f-0583f5ddc8ad","ios":"levelo://app?vid=a36650ef-6780-42f0-bd0f-0583f5ddc8ad"},"vehicle_type_id":"4","last_reported":1738239470,"current_range_meters":37600,"station_id":"ce4bgr92rcd13ifvqc7g","pricing_plan_id":"cebpf4jnsgd1na2vs0mg"},{"bike_id":"48e84fda-87e8-4bfd-8e51-60aadd772dc3","system_id":"levelo_inurba_marseille","lat":43.29613,"lon":5.3773,"is_reserved":false,"is_disabled":false,"rental_uris":{"android":"levelo://app?vid=48e84fda-87e8-4bfd-8e51-60aadd772dc3","ios":"levelo://app?vid=48e84fda-87e8-4bfd-8e51-60aadd772dc3"},"vehicle_type_id":"4","last_reported":1738239470,"current_range_meters":11200,"station_id":"ce4bgi92rcd13ifvqb90","pricing_plan_id":"cebpf4jnsgd1na2vs0mg"},{"bike_id":"4bda7966-69c2-47cb-977b-16fd1a71e330","system_id":"levelo_inurba_marseille","lat":43.26208,"lon":5.37447,"is_reserved":false,"is_disabled":false,"rental_uris":{"android":"levelo://app?vid=4bda7966-69c2-47cb-977b-16fd1a71e330","ios":"levelo://app?vid=4bda7966-69c2-47cb-977b-16fd1a71e330"},"vehicle_type_id":"4","last_reported":1738239470,"current_range_meters":16000,"station_id":"ce4bhgp2rcd13ifvqfc0","pricing_plan_id":"cebpf4jnsgd1na2vs0mg"},{"bike_id":"51d58551-39e2-4bf3-b766-fadadd579f0b","system_id":"levelo_inurba_marseille","lat":43.28079,"lon":5.3964,"is_reserved":false,"is_disabled":false,"rental_uris":{"android":"levelo://app?vid=51d58551-39e2-4bf3-b766-fadadd579f0b","ios":"levelo://app?vid=51d58551-39e2-4bf3-b766-fadadd579f0b"},"vehicle_type_id":"4","last_reported":1738239470,"current_range_meters":7200,"station_id":"ce4bho12rcd13ifvqh2g","pricing_plan_id":"cebpf4jnsgd1na2vs0mg"},{"bike_id":"ed2de8b2-bceb-4115-9fd4-6f4cd5bdef1c","system_id":"levelo_inurba_marseille","lat":43.29275,"lon":5.36852,"is_reserved":false,"is_disabled":false,"rental_uris":{"android":"levelo://app?vid=ed2de8b2-bceb-4115-9fd4-6f4cd5bdef1c","ios":"levelo://app?vid=ed2de8b2-bceb-4115-9fd4-6f4cd5bdef1c"},"vehicle_type_id":"4","last_reported":1738239470,"current_range_meters":38800,"station_id":"ce4bhbp2rcd13ifvqesg","pricing_plan_id":"cebpf4jnsgd1na2vs0mg"},{"bike_id":"146e1d2a-a85d-41e8-b665-fe6ede9dc7fc","system_id":"levelo_inurba_marseille","lat":43.30149,"lon":5.38097,"is_reserved":false,"is_disabled":false,"rental_uris":{"android":"levelo://app?vid=146e1d2a-a85d-41e8-b665-fe6ede9dc7fc","ios":"levelo://app?vid=146e1d2a-a85d-41e8-b665-fe6ede9dc7fc"},"vehicle_type_id":"4","last_reported":1738239470,"current_range_meters":38800,"station_id":"ce4bgjp2rcd13ifvqbh0","pricing_plan_id":"cebpf4jnsgd1na2vs0mg"},{"bike_id":"5e995bf7-c9ed-4dac-99cc-dd1f81921bd9","system_id":"levelo_inurba_marseille","lat":43.26909,"lon":5.40228,"is_reserved":false,"is_disabled":false,"rental_uris":{"android":"levelo://app?vid=5e995bf7-c9ed-4dac-99cc-dd1f81921bd9","ios":"levelo://app?vid=5e995bf7-c9ed-4dac-99cc-dd1f81921bd9"},"vehicle_type_id":"4","last_reported":1738239470,"current_range_meters":38800,"station_id":"cjm6bp8fraef2m0cb0m0","pricing_plan_id":"cebpf4jnsgd1na2vs0mg"},{"bike_id":"cd6b353a-d9ae-47b8-9eb1-cf960e9a39fe","system_id":"levelo_inurba_marseille","lat":43.29273,"lon":5.36843,"is_reserved":false,"is_disabled":false,"rental_uris":{"android":"levelo://app?vid=cd6b353a-d9ae-47b8-9eb1-cf960e9a39fe","ios":"levelo://app?vid=cd6b353a-d9ae-47b8-9eb1-cf960e9a39fe"},"vehicle_type_id":"4","last_reported":1738239470,"current_range_meters":15200,"station_id":"ce4bhbp2rcd13ifvqesg","pricing_plan_id":"cebpf4jnsgd1na2vs0mg"},{"bike_id":"9061c30b-f0f7-46e3-8477-d3c2c36b1f53","system_id":"levelo_inurba_marseille","lat":43.2803,"lon":5.36959,"is_reserved":false,"is_disabled":true,"rental_uris":{"android":"levelo://app?vid=9061c30b-f0f7-46e3-8477-d3c2c36b1f53","ios":"levelo://app?vid=9061c30b-f0f7-46e3-8477-d3c2c36b1f53"},"vehicle_type_id":"4","last_reported":1738239470,"current_range_meters":36800,"station_id":"ce4bha12rcd13ifvqef0","pricing_plan_id":"cebpf4jnsgd1na2vs0mg"},{"bike_id":"8d00a803-b832-472d-a641-b371de7aebc8","system_id":"levelo_inurba_marseille","lat":43.24072,"lon":5.37762,"is_reserved":false,"is_disabled":false,"rental_uris":{"android":"levelo://app?vid=8d00a803-b832-472d-a641-b371de7aebc8","ios":"levelo://app?vid=8d00a803-b832-472d-a641-b371de7aebc8"},"vehicle_type_id":"4","last_reported":1738239470,"current_range_meters":8800,"station_id":"ce4bhnp2rcd13ifvqgvg","pricing_plan_id":"cebpf4jnsgd1na2vs0mg"},{"bike_id":"fba05ad0-85c5-4e7a-a917-4b9c8e256fa2","system_id":"levelo_inurba_marseille","lat":43.312306,"lon":5.368686,"is_reserved":false,"is_disabled":false,"rental_uris":{"android":"levelo://app?vid=fba05ad0-85c5-4e7a-a917-4b9c8e256fa2","ios":"levelo://app?vid=fba05ad0-85c5-4e7a-a917-4b9c8e256fa2"},"vehicle_type_id":"4","last_reported":1738239470,"current_range_meters":38000,"station_id":"ce4bgl92rcd13ifvqbq0","pricing_plan_id":"cebpf4jnsgd1na2vs0mg"},{"bike_id":"fb33688a-5a97-4fea-8144-a4bf6b0cf308","system_id":"levelo_inurba_marseille","lat":43.30132,"lon":5.37407,"is_reserved":false,"is_disabled":false,"rental_uris":{"android":"levelo://app?vid=fb33688a-5a97-4fea-8144-a4bf6b0cf308","ios":"levelo://app?vid=fb33688a-5a97-4fea-8144-a4bf6b0cf308"},"vehicle_type_id":"4","last_reported":1738239470,"current_range_meters":38000,"station_id":"ce4bgs92rcd13ifvqcc0","pricing_plan_id":"cebpf4jnsgd1na2vs0mg"},{"bike_id":"ab2c796a-c23b-4a3a-9534-777b873d6a05","system_id":"levelo_inurba_marseille","lat":43.24164,"lon":5.36416,"is_reserved":false,"is_disabled":false,"rental_uris":{"android":"levelo://app?vid=ab2c796a-c23b-4a3a-9534-777b873d6a05","ios":"levelo://app?vid=ab2c796a-c23b-4a3a-9534-777b873d6a05"},"vehicle_type_id":"4","last_reported":1738239470,"current_range_meters":38800,"station_id":"cpo36qri1sfpv3e86is0","pricing_plan_id":"cebpf4jnsgd1na2vs0mg"},{"bike_id":"052e71f8-8a18-4745-b108-b864fdb89cd2","system_id":"levelo_inurba_marseille","lat":43.32001,"lon":5.38154,"is_reserved":false,"is_disabled":false,"rental_uris":{"android":"levelo://app?vid=052e71f8-8a18-4745-b108-b864fdb89cd2","ios":"levelo://app?vid=052e71f8-8a18-4745-b108-b864fdb89cd2"},"vehicle_type_id":"4","last_reported":1738239470,"current_range_meters":38000,"station_id":"ce4bhr12rcd13ifvqhpg","pricing_plan_id":"cebpf4jnsgd1na2vs0mg"},{"bike_id":"7c8c1958-cb52-4d71-8e09-0431a5d07dd8","system_id":"levelo_inurba_marseille","lat":43.28718,"lon":5.37934,"is_reserved":false,"is_disabled":false,"rental_uris":{"android":"levelo://app?vid=7c8c1958-cb52-4d71-8e09-0431a5d07dd8","ios":"levelo://app?vid=7c8c1958-cb52-4d71-8e09-0431a5d07dd8"},"vehicle_type_id":"4","last_reported":1738239470,"current_range_meters":27600,"station_id":"ce4bh9p2rcd13ifvqec0","pricing_plan_id":"cebpf4jnsgd1na2vs0mg"},{"bike_id":"3441e8db-3853-4f3e-baf2-d7fc68ee345c","system_id":"levelo_inurba_marseille","lat":43.30151,"lon":5.38085,"is_reserved":false,"is_disabled":false,"rental_uris":{"android":"levelo://app?vid=3441e8db-3853-4f3e-baf2-d7fc68ee345c","ios":"levelo://app?vid=3441e8db-3853-4f3e-baf2-d7fc68ee345c"},"vehicle_type_id":"4","last_reported":1738239470,"current_range_meters":12000,"station_id":"ce4bgjp2rcd13ifvqbh0","pricing_plan_id":"cebpf4jnsgd1na2vs0mg"},{"bike_id":"d641d60f-a90b-4a04-a59a-490177d733f1","system_id":"levelo_inurba_marseille","lat":43.30292,"lon":5.37714,"is_reserved":false,"is_disabled":true,"rental_uris":{"android":"levelo://app?vid=d641d60f-a90b-4a04-a59a-490177d733f1","ios":"levelo://app?vid=d641d60f-a90b-4a04-a59a-490177d733f1"},"vehicle_type_id":"4","last_reported":1738239470,"current_range_meters":0,"station_id":"ce4bguh2rcd13ifvqcj0","pricing_plan_id":"cebpf4jnsgd1na2vs0mg"},{"bike_id":"3f3de0e8-ee30-4340-ad16-97c288bf4a8f","system_id":"levelo_inurba_marseille","lat":43.31116,"lon":5.37764,"is_reserved":false,"is_disabled":false,"rental_uris":{"android":"levelo://app?vid=3f3de0e8-ee30-4340-ad16-97c288bf4a8f","ios":"levelo://app?vid=3f3de0e8-ee30-4340-ad16-97c288bf4a8f"},"vehicle_type_id":"4","last_reported":1738239470,"current_range_meters":34800,"station_id":"ce4bgt92rcd13ifvqcg0","pricing_plan_id":"cebpf4jnsgd1na2vs0mg"},{"bike_id":"aad83dc2-3a03-4ef7-b489-f122ae6550a8","system_id":"levelo_inurba_marseille","lat":43.26057,"lon":5.39398,"is_reserved":false,"is_disabled":false,"rental_uris":{"android":"levelo://app?vid=aad83dc2-3a03-4ef7-b489-f122ae6550a8","ios":"levelo://app?vid=aad83dc2-3a03-4ef7-b489-f122ae6550a8"},"vehicle_type_id":"4","last_reported":1738239470,"current_range_meters":28000,"station_id":"ce4bhh92rcd13ifvqfj0","pricing_plan_id":"cebpf4jnsgd1na2vs0mg"},{"bike_id":"c2620451-2c1b-472a-9552-5b9bdbe7edf0","system_id":"levelo_inurba_marseille","lat":43.29004,"lon":5.3561,"is_reserved":false,"is_disabled":false,"rental_uris":{"android":"levelo://app?vid=c2620451-2c1b-472a-9552-5b9bdbe7edf0","ios":"levelo://app?vid=c2620451-2c1b-472a-9552-5b9bdbe7edf0"},"vehicle_type_id":"4","last_reported":1738239470,"current_range_meters":30000,"station_id":"ce4bhb92rcd13ifvqen0","pricing_plan_id":"cebpf4jnsgd1na2vs0mg"},{"bike_id":"2905951f-1918-4871-90a5-dcc614426736","system_id":"levelo_inurba_marseille","lat":43.309509,"lon":5.390329,"is_reserved":false,"is_disabled":false,"rental_uris":{"android":"levelo://app?vid=2905951f-1918-4871-90a5-dcc614426736","ios":"levelo://app?vid=2905951f-1918-4871-90a5-dcc614426736"},"vehicle_type_id":"4","last_reported":1738239470,"current_range_meters":11600,"station_id":"","pricing_plan_id":"cebpf4jnsgd1na2vs0mg"},{"bike_id":"c2cf120a-c6eb-4fdd-a373-943473eea38d","system_id":"levelo_inurba_marseille","lat":43.24542,"lon":5.39528,"is_reserved":false,"is_disabled":false,"rental_uris":{"android":"levelo://app?vid=c2cf120a-c6eb-4fdd-a373-943473eea38d","ios":"levelo://app?vid=c2cf120a-c6eb-4fdd-a373-943473eea38d"},"vehicle_type_id":"4","last_reported":1738239470,"current_range_meters":39200,"station_id":"ce4bhlp2rcd13ifvqgjg","pricing_plan_id":"cebpf4jnsgd1na2vs0mg"},{"bike_id":"fc2dee61-6a5e-41ce-a75c-e2029dcb39bc","system_id":"levelo_inurba_marseille","lat":43.26566,"lon":5.37298,"is_reserved":false,"is_disabled":false,"rental_uris":{"android":"levelo://app?vid=fc2dee61-6a5e-41ce-a75c-e2029dcb39bc","ios":"levelo://app?vid=fc2dee61-6a5e-41ce-a75c-e2029dcb39bc"},"vehicle_type_id":"4","last_reported":1738239470,"current_range_meters":19200,"station_id":"ce4bhg12rcd13ifvqf70","pricing_plan_id":"cebpf4jnsgd1na2vs0mg"},{"bike_id":"615a0747-8d06-4fbf-b735-2ce44cc12594","system_id":"levelo_inurba_marseille","lat":43.32356,"lon":5.38918,"is_reserved":false,"is_disabled":false,"rental_uris":{"android":"levelo://app?vid=615a0747-8d06-4fbf-b735-2ce44cc12594","ios":"levelo://app?vid=615a0747-8d06-4fbf-b735-2ce44cc12594"},"vehicle_type_id":"4","last_reported":1738239470,"current_range_meters":16400,"station_id":"ce4bhqp2rcd13ifvqhog","pricing_plan_id":"cebpf4jnsgd1na2vs0mg"},{"bike_id":"940d189d-6721-4f82-bae1-5a9e9e8ab03b","system_id":"levelo_inurba_marseille","lat":43.3094,"lon":5.37526,"is_reserved":false,"is_disabled":false,"rental_uris":{"android":"levelo://app?vid=940d189d-6721-4f82-bae1-5a9e9e8ab03b","ios":"levelo://app?vid=940d189d-6721-4f82-bae1-5a9e9e8ab03b"},"vehicle_type_id":"4","last_reported":1738239470,"current_range_meters":19200,"station_id":"","pricing_plan_id":"cebpf4jnsgd1na2vs0mg"},{"bike_id":"3afe2907-14fe-40b0-8ce8-247215ed16c8","system_id":"levelo_inurba_marseille","lat":43.26922,"lon":5.38899,"is_reserved":false,"is_disabled":true,"rental_uris":{"android":"levelo://app?vid=3afe2907-14fe-40b0-8ce8-247215ed16c8","ios":"levelo://app?vid=3afe2907-14fe-40b0-8ce8-247215ed16c8"},"vehicle_type_id":"4","last_reported":1738239470,"current_range_meters":0,"station_id":"ce4bhhh2rcd13ifvqfl0","pricing_plan_id":"cebpf4jnsgd1na2vs0mg"},{"bike_id":"e8e1f7c6-d773-4c38-bfcc-4a6d773355ce","system_id":"levelo_inurba_marseille","lat":43.22934,"lon":5.35391,"is_reserved":false,"is_disabled":false,"rental_uris":{"android":"levelo://app?vid=e8e1f7c6-d773-4c38-bfcc-4a6d773355ce","ios":"levelo://app?vid=e8e1f7c6-d773-4c38-bfcc-4a6d773355ce"},"vehicle_type_id":"4","last_reported":1738239470,"current_range_meters":38800,"station_id":"cpo3532slgdg3j2ikp40","pricing_plan_id":"cebpf4jnsgd1na2vs0mg"},{"bike_id":"bfc7dd4f-4579-4845-8ff4-f290c5d5779b","system_id":"levelo_inurba_marseille","lat":43.32287,"lon":5.38269,"is_reserved":false,"is_disabled":false,"rental_uris":{"android":"levelo://app?vid=bfc7dd4f-4579-4845-8ff4-f290c5d5779b","ios":"levelo://app?vid=bfc7dd4f-4579-4845-8ff4-f290c5d5779b"},"vehicle_type_id":"4","last_reported":1738239470,"current_range_meters":34000,"station_id":"ce4bhr12rcd13ifvqhqg","pricing_plan_id":"cebpf4jnsgd1na2vs0mg"},{"bike_id":"53437eb2-94d6-4366-99aa-c458a391e6a5","system_id":"levelo_inurba_marseille","lat":43.29578,"lon":5.36754,"is_reserved":false,"is_disabled":false,"rental_uris":{"android":"levelo://app?vid=53437eb2-94d6-4366-99aa-c458a391e6a5","ios":"levelo://app?vid=53437eb2-94d6-4366-99aa-c458a391e6a5"},"vehicle_type_id":"4","last_reported":1738239470,"current_range_meters":34000,"station_id":"ce4bgph2rcd13ifvqc2g","pricing_plan_id":"cebpf4jnsgd1na2vs0mg"},{"bike_id":"1d1bc79e-5a7a-435e-91f3-73234fa7b584","system_id":"levelo_inurba_marseille","lat":43.29272,"lon":5.37434,"is_reserved":false,"is_disabled":false,"rental_uris":{"android":"levelo://app?vid=1d1bc79e-5a7a-435e-91f3-73234fa7b584","ios":"levelo://app?vid=1d1bc79e-5a7a-435e-91f3-73234fa7b584"},"vehicle_type_id":"4","last_reported":1738239470,"current_range_meters":31200,"station_id":"ce4bgi12rcd13ifvqb70","pricing_plan_id":"cebpf4jnsgd1na2vs0mg"},{"bike_id":"7b6d01c3-b9c6-4cae-b2e7-64fcc0baeeaa","system_id":"levelo_inurba_marseille","lat":43.25577,"lon":5.38239,"is_reserved":false,"is_disabled":false,"rental_uris":{"android":"levelo://app?vid=7b6d01c3-b9c6-4cae-b2e7-64fcc0baeeaa","ios":"levelo://app?vid=7b6d01c3-b9c6-4cae-b2e7-64fcc0baeeaa"},"vehicle_type_id":"4","last_reported":1738239470,"current_range_meters":16800,"station_id":"ce4bhih2rcd13ifvqfs0","pricing_plan_id":"cebpf4jnsgd1na2vs0mg"},{"bike_id":"260c3224-c3e5-4a9a-a5e4-8a6ee28f69e2","system_id":"levelo_inurba_marseille","lat":43.28104,"lon":5.37868,"is_reserved":false,"is_disabled":false,"rental_uris":{"android":"levelo://app?vid=260c3224-c3e5-4a9a-a5e4-8a6ee28f69e2","ios":"levelo://app?vid=260c3224-c3e5-4a9a-a5e4-8a6ee28f69e2"},"vehicle_type_id":"4","last_reported":1738239470,"current_range_meters":30000,"station_id":"ce4bha12rcd13ifvqee0","pricing_plan_id":"cebpf4jnsgd1na2vs0mg"},{"bike_id":"56bc0d53-42f7-43f0-947b-78b397d1687c","system_id":"levelo_inurba_marseille","lat":43.29282,"lon":5.37452,"is_reserved":false,"is_disabled":false,"rental_uris":{"android":"levelo://app?vid=56bc0d53-42f7-43f0-947b-78b397d1687c","ios":"levelo://app?vid=56bc0d53-42f7-43f0-947b-78b397d1687c"},"vehicle_type_id":"4","last_reported":1738239470,"current_range_meters":20800,"station_id":"ce4bgi12rcd13ifvqb70","pricing_plan_id":"cebpf4jnsgd1na2vs0mg"},{"bike_id":"dcc09b49-a81a-42a9-a8e6-ed8eb579a833","system_id":"levelo_inurba_marseille","lat":43.310862,"lon":5.424423,"is_reserved":false,"is_disabled":false,"rental_uris":{"android":"levelo://app?vid=dcc09b49-a81a-42a9-a8e6-ed8eb579a833","ios":"levelo://app?vid=dcc09b49-a81a-42a9-a8e6-ed8eb579a833"},"vehicle_type_id":"4","last_reported":1738239470,"current_range_meters":4400,"station_id":"ce4bhp92rcd13ifvqhag","pricing_plan_id":"cebpf4jnsgd1na2vs0mg"},{"bike_id":"ad872279-fd22-44ec-8d52-80184c65bc1d","system_id":"levelo_inurba_marseille","lat":43.29038,"lon":5.37567,"is_reserved":false,"is_disabled":false,"rental_uris":{"android":"levelo://app?vid=ad872279-fd22-44ec-8d52-80184c65bc1d","ios":"levelo://app?vid=ad872279-fd22-44ec-8d52-80184c65bc1d"},"vehicle_type_id":"4","last_reported":1738239470,"current_range_meters":32800,"station_id":"ce4bh692rcd13ifvqe90","pricing_plan_id":"cebpf4jnsgd1na2vs0mg"},{"bike_id":"df2e51ba-ac74-44ad-8909-a4c4017d9529","system_id":"levelo_inurba_marseille","lat":43.29981,"lon":5.37183,"is_reserved":false,"is_disabled":false,"rental_uris":{"android":"levelo://app?vid=df2e51ba-ac74-44ad-8909-a4c4017d9529","ios":"levelo://app?vid=df2e51ba-ac74-44ad-8909-a4c4017d9529"},"vehicle_type_id":"4","last_reported":1738239470,"current_range_meters":38800,"station_id":"ce4bgr92rcd13ifvqc7g","pricing_plan_id":"cebpf4jnsgd1na2vs0mg"},{"bike_id":"e9ec24da-025a-4dfc-8c71-776f8271cad7","system_id":"levelo_inurba_marseille","lat":43.29578,"lon":5.36754,"is_reserved":false,"is_disabled":false,"rental_uris":{"android":"levelo://app?vid=e9ec24da-025a-4dfc-8c71-776f8271cad7","ios":"levelo://app?vid=e9ec24da-025a-4dfc-8c71-776f8271cad7"},"vehicle_type_id":"4","last_reported":1738239470,"current_range_meters":2800,"station_id":"ce4bgph2rcd13ifvqc2g","pricing_plan_id":"cebpf4jnsgd1na2vs0mg"},{"bike_id":"1c7a384f-10e8-4fbc-9897-df5823efdac1","system_id":"levelo_inurba_marseille","lat":43.26949,"lon":5.3864,"is_reserved":false,"is_disabled":false,"rental_uris":{"android":"levelo://app?vid=1c7a384f-10e8-4fbc-9897-df5823efdac1","ios":"levelo://app?vid=1c7a384f-10e8-4fbc-9897-df5823efdac1"},"vehicle_type_id":"4","last_reported":1738239470,"current_range_meters":22400,"station_id":"ce4bhh92rcd13ifvqfh0","pricing_plan_id":"cebpf4jnsgd1na2vs0mg"},{"bike_id":"c1d1ce73-8f8f-42c4-8303-66858ad4f592","system_id":"levelo_inurba_marseille","lat":43.27486,"lon":5.42462,"is_reserved":false,"is_disabled":true,"rental_uris":{"android":"levelo://app?vid=c1d1ce73-8f8f-42c4-8303-66858ad4f592","ios":"levelo://app?vid=c1d1ce73-8f8f-42c4-8303-66858ad4f592"},"vehicle_type_id":"4","last_reported":1738239470,"current_range_meters":24400,"station_id":"ce4bhn92rcd13ifvqgrg","pricing_plan_id":"cebpf4jnsgd1na2vs0mg"},{"bike_id":"43be6554-feb6-4825-b3f4-6a5d2a2b4ee5","system_id":"levelo_inurba_marseille","lat":43.23151,"lon":5.43703,"is_reserved":false,"is_disabled":false,"rental_uris":{"android":"levelo://app?vid=43be6554-feb6-4825-b3f4-6a5d2a2b4ee5","ios":"levelo://app?vid=43be6554-feb6-4825-b3f4-6a5d2a2b4ee5"},"vehicle_type_id":"4","last_reported":1738239470,"current_range_meters":13600,"station_id":"ce4bhmp2rcd13ifvqgog","pricing_plan_id":"cebpf4jnsgd1na2vs0mg"},{"bike_id":"71f34f72-d3b7-46a5-9bd4-1fe057b3152f","system_id":"levelo_inurba_marseille","lat":43.22941,"lon":5.35377,"is_reserved":false,"is_disabled":false,"rental_uris":{"android":"levelo://app?vid=71f34f72-d3b7-46a5-9bd4-1fe057b3152f","ios":"levelo://app?vid=71f34f72-d3b7-46a5-9bd4-1fe057b3152f"},"vehicle_type_id":"4","last_reported":1738239470,"current_range_meters":39200,"station_id":"cpo3532slgdg3j2ikp40","pricing_plan_id":"cebpf4jnsgd1na2vs0mg"},{"bike_id":"66c12baa-9477-443c-ad62-ceeda86c1e58","system_id":"levelo_inurba_marseille","lat":43.25867,"lon":5.39923,"is_reserved":false,"is_disabled":false,"rental_uris":{"android":"levelo://app?vid=66c12baa-9477-443c-ad62-ceeda86c1e58","ios":"levelo://app?vid=66c12baa-9477-443c-ad62-ceeda86c1e58"},"vehicle_type_id":"4","last_reported":1738239470,"current_range_meters":38800,"station_id":"ce4bhl92rcd13ifvqghg","pricing_plan_id":"cebpf4jnsgd1na2vs0mg"},{"bike_id":"20029bdd-9f9c-4ff9-86e4-5ba6ed30f46a","system_id":"levelo_inurba_marseille","lat":43.23148,"lon":5.43705,"is_reserved":false,"is_disabled":true,"rental_uris":{"android":"levelo://app?vid=20029bdd-9f9c-4ff9-86e4-5ba6ed30f46a","ios":"levelo://app?vid=20029bdd-9f9c-4ff9-86e4-5ba6ed30f46a"},"vehicle_type_id":"4","last_reported":1738239470,"current_range_meters":0,"station_id":"ce4bhmp2rcd13ifvqgog","pricing_plan_id":"cebpf4jnsgd1na2vs0mg"},{"bike_id":"7d562fc0-aa12-4db5-baa3-1ce2daba24c9","system_id":"levelo_inurba_marseille","lat":43.23179,"lon":5.39991,"is_reserved":false,"is_disabled":false,"rental_uris":{"android":"levelo://app?vid=7d562fc0-aa12-4db5-baa3-1ce2daba24c9","ios":"levelo://app?vid=7d562fc0-aa12-4db5-baa3-1ce2daba24c9"},"vehicle_type_id":"4","last_reported":1738239470,"current_range_meters":38400,"station_id":"ce4bhn12rcd13ifvqgqg","pricing_plan_id":"cebpf4jnsgd1na2vs0mg"},{"bike_id":"a335131c-b12c-433f-9f2c-1edb5549eb18","system_id":"levelo_inurba_marseille","lat":43.30159,"lon":5.38081,"is_reserved":false,"is_disabled":false,"rental_uris":{"android":"levelo://app?vid=a335131c-b12c-433f-9f2c-1edb5549eb18","ios":"levelo://app?vid=a335131c-b12c-433f-9f2c-1edb5549eb18"},"vehicle_type_id":"4","last_reported":1738239470,"current_range_meters":22800,"station_id":"ce4bgjp2rcd13ifvqbh0","pricing_plan_id":"cebpf4jnsgd1na2vs0mg"},{"bike_id":"f0199cc2-db2a-453a-ba37-2db6920c4b43","system_id":"levelo_inurba_marseille","lat":43.30941,"lon":5.39048,"is_reserved":false,"is_disabled":false,"rental_uris":{"android":"levelo://app?vid=f0199cc2-db2a-453a-ba37-2db6920c4b43","ios":"levelo://app?vid=f0199cc2-db2a-453a-ba37-2db6920c4b43"},"vehicle_type_id":"4","last_reported":1738239470,"current_range_meters":14800,"station_id":"ce4bgup2rcd13ifvqco0","pricing_plan_id":"cebpf4jnsgd1na2vs0mg"},{"bike_id":"2c940db5-5c47-45b9-898c-9da743c42b89","system_id":"levelo_inurba_marseille","lat":43.29195,"lon":5.38421,"is_reserved":false,"is_disabled":false,"rental_uris":{"android":"levelo://app?vid=2c940db5-5c47-45b9-898c-9da743c42b89","ios":"levelo://app?vid=2c940db5-5c47-45b9-898c-9da743c42b89"},"vehicle_type_id":"4","last_reported":1738239470,"current_range_meters":8400,"station_id":"ce4bh692rcd13ifvqea0","pricing_plan_id":"cebpf4jnsgd1na2vs0mg"},{"bike_id":"6ffe832b-4d45-4473-886f-a1ec755e50d3","system_id":"levelo_inurba_marseille","lat":43.23186,"lon":5.39982,"is_reserved":false,"is_disabled":false,"rental_uris":{"android":"levelo://app?vid=6ffe832b-4d45-4473-886f-a1ec755e50d3","ios":"levelo://app?vid=6ffe832b-4d45-4473-886f-a1ec755e50d3"},"vehicle_type_id":"4","last_reported":1738239470,"current_range_meters":26800,"station_id":"ce4bhn12rcd13ifvqgqg","pricing_plan_id":"cebpf4jnsgd1na2vs0mg"},{"bike_id":"ef3c631a-fddc-4c6d-af9c-7d11a71d5d7f","system_id":"levelo_inurba_marseille","lat":43.27667,"lon":5.38897,"is_reserved":false,"is_disabled":false,"rental_uris":{"android":"levelo://app?vid=ef3c631a-fddc-4c6d-af9c-7d11a71d5d7f","ios":"levelo://app?vid=ef3c631a-fddc-4c6d-af9c-7d11a71d5d7f"},"vehicle_type_id":"4","last_reported":1738239470,"current_range_meters":39200,"station_id":"ce4bhi12rcd13ifvqfo0","pricing_plan_id":"cebpf4jnsgd1na2vs0mg"},{"bike_id":"45fd4a2a-a5dc-4b7e-962f-4641aedb60dd","system_id":"levelo_inurba_marseille","lat":43.27985,"lon":5.41679,"is_reserved":false,"is_disabled":false,"rental_uris":{"android":"levelo://app?vid=45fd4a2a-a5dc-4b7e-962f-4641aedb60dd","ios":"levelo://app?vid=45fd4a2a-a5dc-4b7e-962f-4641aedb60dd"},"vehicle_type_id":"4","last_reported":1738239470,"current_range_meters":34800,"station_id":"ce4bho12rcd13ifvqh1g","pricing_plan_id":"cebpf4jnsgd1na2vs0mg"},{"bike_id":"bbd37f25-b511-4ba3-9ad8-9c3bb19bb776","system_id":"levelo_inurba_marseille","lat":43.30297,"lon":5.36899,"is_reserved":false,"is_disabled":false,"rental_uris":{"android":"levelo://app?vid=bbd37f25-b511-4ba3-9ad8-9c3bb19bb776","ios":"levelo://app?vid=bbd37f25-b511-4ba3-9ad8-9c3bb19bb776"},"vehicle_type_id":"4","last_reported":1738239470,"current_range_meters":24000,"station_id":"ce4bgqh2rcd13ifvqc5g","pricing_plan_id":"cebpf4jnsgd1na2vs0mg"},{"bike_id":"493cef04-4852-489b-93f2-6ca72a133d72","system_id":"levelo_inurba_marseille","lat":43.302587,"lon":5.400877,"is_reserved":false,"is_disabled":false,"rental_uris":{"android":"levelo://app?vid=493cef04-4852-489b-93f2-6ca72a133d72","ios":"levelo://app?vid=493cef04-4852-489b-93f2-6ca72a133d72"},"vehicle_type_id":"4","last_reported":1738239470,"current_range_meters":20000,"station_id":"ce4bgvh2rcd13ifvqcs0","pricing_plan_id":"cebpf4jnsgd1na2vs0mg"},{"bike_id":"6ad1b9cb-53f6-4b4e-abc2-e4ac91bb2469","system_id":"levelo_inurba_marseille","lat":43.29695,"lon":5.37286,"is_reserved":false,"is_disabled":false,"rental_uris":{"android":"levelo://app?vid=6ad1b9cb-53f6-4b4e-abc2-e4ac91bb2469","ios":"levelo://app?vid=6ad1b9cb-53f6-4b4e-abc2-e4ac91bb2469"},"vehicle_type_id":"4","last_reported":1738239470,"current_range_meters":39200,"station_id":"ce4bgk12rcd13ifvqbj0","pricing_plan_id":"cebpf4jnsgd1na2vs0mg"},{"bike_id":"595cf55f-af34-4fbb-bd2d-b511b20cb2ef","system_id":"levelo_inurba_marseille","lat":43.27634,"lon":5.36133,"is_reserved":false,"is_disabled":false,"rental_uris":{"android":"levelo://app?vid=595cf55f-af34-4fbb-bd2d-b511b20cb2ef","ios":"levelo://app?vid=595cf55f-af34-4fbb-bd2d-b511b20cb2ef"},"vehicle_type_id":"4","last_reported":1738239470,"current_range_meters":8000,"station_id":"ce4bgj92rcd13ifvqbe0","pricing_plan_id":"cebpf4jnsgd1na2vs0mg"},{"bike_id":"adb048e1-7944-4d05-8172-9dbd546ba412","system_id":"levelo_inurba_marseille","lat":43.28524,"lon":5.38576,"is_reserved":false,"is_disabled":false,"rental_uris":{"android":"levelo://app?vid=adb048e1-7944-4d05-8172-9dbd546ba412","ios":"levelo://app?vid=adb048e1-7944-4d05-8172-9dbd546ba412"},"vehicle_type_id":"4","last_reported":1738239470,"current_range_meters":38800,"station_id":"ce4bh8p2rcd13ifvqeb0","pricing_plan_id":"cebpf4jnsgd1na2vs0mg"},{"bike_id":"ec184c8f-729e-40bc-b163-773aef833942","system_id":"levelo_inurba_marseille","lat":43.30524,"lon":5.36538,"is_reserved":false,"is_disabled":false,"rental_uris":{"android":"levelo://app?vid=ec184c8f-729e-40bc-b163-773aef833942","ios":"levelo://app?vid=ec184c8f-729e-40bc-b163-773aef833942"},"vehicle_type_id":"4","last_reported":1738239470,"current_range_meters":39200,"station_id":"ce4bgs12rcd13ifvqcag","pricing_plan_id":"cebpf4jnsgd1na2vs0mg"},{"bike_id":"01ec46d8-93d3-4495-8c47-385093de8227","system_id":"levelo_inurba_marseille","lat":43.29293,"lon":5.37464,"is_reserved":false,"is_disabled":false,"rental_uris":{"android":"levelo://app?vid=01ec46d8-93d3-4495-8c47-385093de8227","ios":"levelo://app?vid=01ec46d8-93d3-4495-8c47-385093de8227"},"vehicle_type_id":"4","last_reported":1738239470,"current_range_meters":38800,"station_id":"ce4bgi12rcd13ifvqb70","pricing_plan_id":"cebpf4jnsgd1na2vs0mg"},{"bike_id":"69311afe-3d11-4d33-bd7f-5a46e643a98b","system_id":"levelo_inurba_marseille","lat":43.27068,"lon":5.40288,"is_reserved":false,"is_disabled":false,"rental_uris":{"android":"levelo://app?vid=69311afe-3d11-4d33-bd7f-5a46e643a98b","ios":"levelo://app?vid=69311afe-3d11-4d33-bd7f-5a46e643a98b"},"vehicle_type_id":"4","last_reported":1738239470,"current_range_meters":16400,"station_id":"ce4bhk92rcd13ifvqgc0","pricing_plan_id":"cebpf4jnsgd1na2vs0mg"},{"bike_id":"ddd46040-8311-4f5c-89c2-37543ac9c47d","system_id":"levelo_inurba_marseille","lat":43.30354,"lon":5.418788,"is_reserved":false,"is_disabled":false,"rental_uris":{"android":"levelo://app?vid=ddd46040-8311-4f5c-89c2-37543ac9c47d","ios":"levelo://app?vid=ddd46040-8311-4f5c-89c2-37543ac9c47d"},"vehicle_type_id":"4","last_reported":1738239470,"current_range_meters":28000,"station_id":"ce4bhop2rcd13ifvqh7g","pricing_plan_id":"cebpf4jnsgd1na2vs0mg"},{"bike_id":"7ae8fa48-c46e-4a2e-8f8c-2c89813a6de0","system_id":"levelo_inurba_marseille","lat":43.24547,"lon":5.39521,"is_reserved":false,"is_disabled":false,"rental_uris":{"android":"levelo://app?vid=7ae8fa48-c46e-4a2e-8f8c-2c89813a6de0","ios":"levelo://app?vid=7ae8fa48-c46e-4a2e-8f8c-2c89813a6de0"},"vehicle_type_id":"4","last_reported":1738239470,"current_range_meters":35200,"station_id":"ce4bhlp2rcd13ifvqgjg","pricing_plan_id":"cebpf4jnsgd1na2vs0mg"},{"bike_id":"1af203ab-771e-4433-8937-d15f0f9964af","system_id":"levelo_inurba_marseille","lat":43.28711,"lon":5.39984,"is_reserved":false,"is_disabled":true,"rental_uris":{"android":"levelo://app?vid=1af203ab-771e-4433-8937-d15f0f9964af","ios":"levelo://app?vid=1af203ab-771e-4433-8937-d15f0f9964af"},"vehicle_type_id":"4","last_reported":1738239470,"current_range_meters":0,"station_id":"ce4bho92rcd13ifvqh3g","pricing_plan_id":"cebpf4jnsgd1na2vs0mg"},{"bike_id":"b58c4b65-5d1f-4fe4-ba0c-e81285099efa","system_id":"levelo_inurba_marseille","lat":43.28354,"lon":5.38107,"is_reserved":false,"is_disabled":false,"rental_uris":{"android":"levelo://app?vid=b58c4b65-5d1f-4fe4-ba0c-e81285099efa","ios":"levelo://app?vid=b58c4b65-5d1f-4fe4-ba0c-e81285099efa"},"vehicle_type_id":"4","last_reported":1738239470,"current_range_meters":28000,"station_id":"ce4bh412rcd13ifvqdr0","pricing_plan_id":"cebpf4jnsgd1na2vs0mg"},{"bike_id":"213e7cf3-34ce-48ae-82dc-54b9cd36cadf","system_id":"levelo_inurba_marseille","lat":43.3059,"lon":5.37222,"is_reserved":false,"is_disabled":false,"rental_uris":{"android":"levelo://app?vid=213e7cf3-34ce-48ae-82dc-54b9cd36cadf","ios":"levelo://app?vid=213e7cf3-34ce-48ae-82dc-54b9cd36cadf"},"vehicle_type_id":"4","last_reported":1738239470,"current_range_meters":33600,"station_id":"ce4bgqh2rcd13ifvqc4g","pricing_plan_id":"cebpf4jnsgd1na2vs0mg"},{"bike_id":"b85acd52-7afe-42a6-a0c7-8f8819191a5a","system_id":"levelo_inurba_marseille","lat":43.25854,"lon":5.39921,"is_reserved":false,"is_disabled":false,"rental_uris":{"android":"levelo://app?vid=b85acd52-7afe-42a6-a0c7-8f8819191a5a","ios":"levelo://app?vid=b85acd52-7afe-42a6-a0c7-8f8819191a5a"},"vehicle_type_id":"4","last_reported":1738239470,"current_range_meters":36000,"station_id":"ce4bhl92rcd13ifvqghg","pricing_plan_id":"cebpf4jnsgd1na2vs0mg"},{"bike_id":"52819258-21da-4689-8bb9-f8055bea0c1d","system_id":"levelo_inurba_marseille","lat":43.25722,"lon":5.41106,"is_reserved":false,"is_disabled":false,"rental_uris":{"android":"levelo://app?vid=52819258-21da-4689-8bb9-f8055bea0c1d","ios":"levelo://app?vid=52819258-21da-4689-8bb9-f8055bea0c1d"},"vehicle_type_id":"4","last_reported":1738239470,"current_range_meters":36000,"station_id":"ce4bhkp2rcd13ifvqgd0","pricing_plan_id":"cebpf4jnsgd1na2vs0mg"},{"bike_id":"f9d35a32-65b2-4842-bd83-8cbe10324274","system_id":"levelo_inurba_marseille","lat":43.28625,"lon":5.35124,"is_reserved":false,"is_disabled":false,"rental_uris":{"android":"levelo://app?vid=f9d35a32-65b2-4842-bd83-8cbe10324274","ios":"levelo://app?vid=f9d35a32-65b2-4842-bd83-8cbe10324274"},"vehicle_type_id":"4","last_reported":1738239470,"current_range_meters":17600,"station_id":"ce4bhch2rcd13ifvqeug","pricing_plan_id":"cebpf4jnsgd1na2vs0mg"},{"bike_id":"258c223c-46d6-47bb-80c4-3b4c4df01fd5","system_id":"levelo_inurba_marseille","lat":43.29262,"lon":5.38447,"is_reserved":false,"is_disabled":true,"rental_uris":{"android":"levelo://app?vid=258c223c-46d6-47bb-80c4-3b4c4df01fd5","ios":"levelo://app?vid=258c223c-46d6-47bb-80c4-3b4c4df01fd5"},"vehicle_type_id":"4","last_reported":1738239470,"current_range_meters":0,"station_id":"ce4bh692rcd13ifvqea0","pricing_plan_id":"cebpf4jnsgd1na2vs0mg"},{"bike_id":"57ea5f77-abf9-41ff-8ffe-e281a2630bfe","system_id":"levelo_inurba_marseille","lat":43.2809,"lon":5.39676,"is_reserved":false,"is_disabled":true,"rental_uris":{"android":"levelo://app?vid=57ea5f77-abf9-41ff-8ffe-e281a2630bfe","ios":"levelo://app?vid=57ea5f77-abf9-41ff-8ffe-e281a2630bfe"},"vehicle_type_id":"4","last_reported":1738239470,"current_range_meters":38800,"station_id":"ce4bho12rcd13ifvqh2g","pricing_plan_id":"cebpf4jnsgd1na2vs0mg"},{"bike_id":"12f6f2ec-de6d-4991-9e0d-7a327a75d377","system_id":"levelo_inurba_marseille","lat":43.2953,"lon":5.39406,"is_reserved":false,"is_disabled":false,"rental_uris":{"android":"levelo://app?vid=12f6f2ec-de6d-4991-9e0d-7a327a75d377","ios":"levelo://app?vid=12f6f2ec-de6d-4991-9e0d-7a327a75d377"},"vehicle_type_id":"4","last_reported":1738239470,"current_range_meters":39200,"station_id":"ce4bh292rcd13ifvqdf0","pricing_plan_id":"cebpf4jnsgd1na2vs0mg"},{"bike_id":"e526cf57-283f-4156-ac37-21078135e89c","system_id":"levelo_inurba_marseille","lat":43.3132,"lon":5.39699,"is_reserved":false,"is_disabled":false,"rental_uris":{"android":"levelo://app?vid=e526cf57-283f-4156-ac37-21078135e89c","ios":"levelo://app?vid=e526cf57-283f-4156-ac37-21078135e89c"},"vehicle_type_id":"4","last_reported":1738239470,"current_range_meters":39200,"station_id":"ce4bgvp2rcd13ifvqcu0","pricing_plan_id":"cebpf4jnsgd1na2vs0mg"},{"bike_id":"56d6b97f-30a2-4c2a-8be6-a12a9fc19507","system_id":"levelo_inurba_marseille","lat":43.31755,"lon":5.39023,"is_reserved":false,"is_disabled":false,"rental_uris":{"android":"levelo://app?vid=56d6b97f-30a2-4c2a-8be6-a12a9fc19507","ios":"levelo://app?vid=56d6b97f-30a2-4c2a-8be6-a12a9fc19507"},"vehicle_type_id":"4","last_reported":1738239470,"current_range_meters":18800,"station_id":"ce4bhqp2rcd13ifvqhng","pricing_plan_id":"cebpf4jnsgd1na2vs0mg"},{"bike_id":"0e0962ee-7812-4531-95b1-a570d1eb1eb8","system_id":"levelo_inurba_marseille","lat":43.29979,"lon":5.38489,"is_reserved":false,"is_disabled":true,"rental_uris":{"android":"levelo://app?vid=0e0962ee-7812-4531-95b1-a570d1eb1eb8","ios":"levelo://app?vid=0e0962ee-7812-4531-95b1-a570d1eb1eb8"},"vehicle_type_id":"4","last_reported":1738239470,"current_range_meters":1600,"station_id":"ce4bgj92rcd13ifvqbd0","pricing_plan_id":"cebpf4jnsgd1na2vs0mg"},{"bike_id":"9607a805-ec1f-40d0-bc0d-56e526d9afc5","system_id":"levelo_inurba_marseille","lat":43.24991,"lon":5.38951,"is_reserved":false,"is_disabled":false,"rental_uris":{"android":"levelo://app?vid=9607a805-ec1f-40d0-bc0d-56e526d9afc5","ios":"levelo://app?vid=9607a805-ec1f-40d0-bc0d-56e526d9afc5"},"vehicle_type_id":"4","last_reported":1738239470,"current_range_meters":23200,"station_id":"ce4bhgp2rcd13ifvqfd0","pricing_plan_id":"cebpf4jnsgd1na2vs0mg"},{"bike_id":"88e6f0ef-88ea-4713-9523-b839cdc40d4f","system_id":"levelo_inurba_marseille","lat":43.29734,"lon":5.37692,"is_reserved":false,"is_disabled":false,"rental_uris":{"android":"levelo://app?vid=88e6f0ef-88ea-4713-9523-b839cdc40d4f","ios":"levelo://app?vid=88e6f0ef-88ea-4713-9523-b839cdc40d4f"},"vehicle_type_id":"4","last_reported":1738239470,"current_range_meters":30800,"station_id":"ce4bgkh2rcd13ifvqbl0","pricing_plan_id":"cebpf4jnsgd1na2vs0mg"},{"bike_id":"15e97165-f47e-4b30-8760-f3bbb71ea63a","system_id":"levelo_inurba_marseille","lat":43.30589,"lon":5.37203,"is_reserved":false,"is_disabled":false,"rental_uris":{"android":"levelo://app?vid=15e97165-f47e-4b30-8760-f3bbb71ea63a","ios":"levelo://app?vid=15e97165-f47e-4b30-8760-f3bbb71ea63a"},"vehicle_type_id":"4","last_reported":1738239470,"current_range_meters":38000,"station_id":"ce4bgqh2rcd13ifvqc4g","pricing_plan_id":"cebpf4jnsgd1na2vs0mg"},{"bike_id":"0e203b51-79e5-4572-98e9-903e63feafc3","system_id":"levelo_inurba_marseille","lat":43.27989,"lon":5.41664,"is_reserved":false,"is_disabled":true,"rental_uris":{"android":"levelo://app?vid=0e203b51-79e5-4572-98e9-903e63feafc3","ios":"levelo://app?vid=0e203b51-79e5-4572-98e9-903e63feafc3"},"vehicle_type_id":"4","last_reported":1738239470,"current_range_meters":7200,"station_id":"ce4bho12rcd13ifvqh1g","pricing_plan_id":"cebpf4jnsgd1na2vs0mg"},{"bike_id":"cc19cfa8-8b91-478f-af8f-b17a06befd05","system_id":"levelo_inurba_marseille","lat":43.30094,"lon":5.39072,"is_reserved":false,"is_disabled":false,"rental_uris":{"android":"levelo://app?vid=cc19cfa8-8b91-478f-af8f-b17a06befd05","ios":"levelo://app?vid=cc19cfa8-8b91-478f-af8f-b17a06befd05"},"vehicle_type_id":"4","last_reported":1738239470,"current_range_meters":37600,"station_id":"ce4bh192rcd13ifvqdb0","pricing_plan_id":"cebpf4jnsgd1na2vs0mg"},{"bike_id":"8382186f-0d25-40e6-beca-2632cc8590f2","system_id":"levelo_inurba_marseille","lat":43.29561,"lon":5.42289,"is_reserved":false,"is_disabled":true,"rental_uris":{"android":"levelo://app?vid=8382186f-0d25-40e6-beca-2632cc8590f2","ios":"levelo://app?vid=8382186f-0d25-40e6-beca-2632cc8590f2"},"vehicle_type_id":"4","last_reported":1738239470,"current_range_meters":8800,"station_id":"ce4bhph2rcd13ifvqhdg","pricing_plan_id":"cebpf4jnsgd1na2vs0mg"},{"bike_id":"04d7e846-6aac-46af-914c-4cfaa87ab477","system_id":"levelo_inurba_marseille","lat":43.29093,"lon":5.38142,"is_reserved":false,"is_disabled":false,"rental_uris":{"android":"levelo://app?vid=04d7e846-6aac-46af-914c-4cfaa87ab477","ios":"levelo://app?vid=04d7e846-6aac-46af-914c-4cfaa87ab477"},"vehicle_type_id":"4","last_reported":1738239470,"current_range_meters":27600,"station_id":"ce4bh512rcd13ifvqe2g","pricing_plan_id":"cebpf4jnsgd1na2vs0mg"},{"bike_id":"748210c8-b014-4bb9-bf28-ece938344327","system_id":"levelo_inurba_marseille","lat":43.33029,"lon":5.39026,"is_reserved":false,"is_disabled":false,"rental_uris":{"android":"levelo://app?vid=748210c8-b014-4bb9-bf28-ece938344327","ios":"levelo://app?vid=748210c8-b014-4bb9-bf28-ece938344327"},"vehicle_type_id":"4","last_reported":1738239470,"current_range_meters":24800,"station_id":"ce4bhr92rcd13ifvqhrg","pricing_plan_id":"cebpf4jnsgd1na2vs0mg"},{"bike_id":"1a4e7c11-29ea-40ea-ab90-fd51d9349639","system_id":"levelo_inurba_marseille","lat":43.29279,"lon":5.4012,"is_reserved":false,"is_disabled":false,"rental_uris":{"android":"levelo://app?vid=1a4e7c11-29ea-40ea-ab90-fd51d9349639","ios":"levelo://app?vid=1a4e7c11-29ea-40ea-ab90-fd51d9349639"},"vehicle_type_id":"4","last_reported":1738239470,"current_range_meters":32400,"station_id":"ce4bh312rcd13ifvqdk0","pricing_plan_id":"cebpf4jnsgd1na2vs0mg"},{"bike_id":"36c48a9d-c951-4834-a99e-3a233885d648","system_id":"levelo_inurba_marseille","lat":43.30852,"lon":5.39634,"is_reserved":false,"is_disabled":false,"rental_uris":{"android":"levelo://app?vid=36c48a9d-c951-4834-a99e-3a233885d648","ios":"levelo://app?vid=36c48a9d-c951-4834-a99e-3a233885d648"},"vehicle_type_id":"4","last_reported":1738239470,"current_range_meters":38800,"station_id":"","pricing_plan_id":"cebpf4jnsgd1na2vs0mg"},{"bike_id":"f22d23b1-4810-4f27-bd38-7f5d3fa00a52","system_id":"levelo_inurba_marseille","lat":43.301277,"lon":5.398514,"is_reserved":false,"is_disabled":false,"rental_uris":{"android":"levelo://app?vid=f22d23b1-4810-4f27-bd38-7f5d3fa00a52","ios":"levelo://app?vid=f22d23b1-4810-4f27-bd38-7f5d3fa00a52"},"vehicle_type_id":"4","last_reported":1738239470,"current_range_meters":17200,"station_id":"ce4bh0h2rcd13ifvqd40","pricing_plan_id":"cebpf4jnsgd1na2vs0mg"},{"bike_id":"ccfbd024-ae69-4c2e-848c-a8428e5be0c6","system_id":"levelo_inurba_marseille","lat":43.29311,"lon":5.37171,"is_reserved":false,"is_disabled":false,"rental_uris":{"android":"levelo://app?vid=ccfbd024-ae69-4c2e-848c-a8428e5be0c6","ios":"levelo://app?vid=ccfbd024-ae69-4c2e-848c-a8428e5be0c6"},"vehicle_type_id":"4","last_reported":1738239470,"current_range_meters":38800,"station_id":"ce4bgh92rcd13ifvqb40","pricing_plan_id":"cebpf4jnsgd1na2vs0mg"},{"bike_id":"c4804f52-68b7-4a7f-b819-d50d9b5d1ef9","system_id":"levelo_inurba_marseille","lat":43.27211,"lon":5.39183,"is_reserved":false,"is_disabled":true,"rental_uris":{"android":"levelo://app?vid=c4804f52-68b7-4a7f-b819-d50d9b5d1ef9","ios":"levelo://app?vid=c4804f52-68b7-4a7f-b819-d50d9b5d1ef9"},"vehicle_type_id":"4","last_reported":1738239470,"current_range_meters":1600,"station_id":"ce4bhhp2rcd13ifvqfm0","pricing_plan_id":"cebpf4jnsgd1na2vs0mg"},{"bike_id":"bda855eb-f306-4766-b531-a26a641533cf","system_id":"levelo_inurba_marseille","lat":43.23967,"lon":5.36632,"is_reserved":false,"is_disabled":false,"rental_uris":{"android":"levelo://app?vid=bda855eb-f306-4766-b531-a26a641533cf","ios":"levelo://app?vid=bda855eb-f306-4766-b531-a26a641533cf"},"vehicle_type_id":"4","last_reported":1738239470,"current_range_meters":12000,"station_id":"ce4bhi12rcd13ifvqfp0","pricing_plan_id":"cebpf4jnsgd1na2vs0mg"},{"bike_id":"32d9a329-7366-4eb8-8d55-73b5c99c70c3","system_id":"levelo_inurba_marseille","lat":43.23199,"lon":5.35552,"is_reserved":false,"is_disabled":false,"rental_uris":{"android":"levelo://app?vid=32d9a329-7366-4eb8-8d55-73b5c99c70c3","ios":"levelo://app?vid=32d9a329-7366-4eb8-8d55-73b5c99c70c3"},"vehicle_type_id":"4","last_reported":1738239470,"current_range_meters":39200,"station_id":"ce4bhu92rcd13ifvqi70","pricing_plan_id":"cebpf4jnsgd1na2vs0mg"},{"bike_id":"e9e12897-6b7d-4c9d-b500-907d28471123","system_id":"levelo_inurba_marseille","lat":43.30528,"lon":5.36706,"is_reserved":false,"is_disabled":false,"rental_uris":{"android":"levelo://app?vid=e9e12897-6b7d-4c9d-b500-907d28471123","ios":"levelo://app?vid=e9e12897-6b7d-4c9d-b500-907d28471123"},"vehicle_type_id":"4","last_reported":1738239470,"current_range_meters":11600,"station_id":"ce4bgrp2rcd13ifvqc9g","pricing_plan_id":"cebpf4jnsgd1na2vs0mg"},{"bike_id":"f2cd1694-cbcf-4b6f-9463-8b28ee8d6f4b","system_id":"levelo_inurba_marseille","lat":43.23064,"lon":5.35498,"is_reserved":false,"is_disabled":false,"rental_uris":{"android":"levelo://app?vid=f2cd1694-cbcf-4b6f-9463-8b28ee8d6f4b","ios":"levelo://app?vid=f2cd1694-cbcf-4b6f-9463-8b28ee8d6f4b"},"vehicle_type_id":"4","last_reported":1738239470,"current_range_meters":18000,"station_id":"cpo3342slgdg3j2ifvpg","pricing_plan_id":"cebpf4jnsgd1na2vs0mg"},{"bike_id":"0a2fd205-d616-4064-aa75-d4d529957d90","system_id":"levelo_inurba_marseille","lat":43.23059,"lon":5.35488,"is_reserved":false,"is_disabled":false,"rental_uris":{"android":"levelo://app?vid=0a2fd205-d616-4064-aa75-d4d529957d90","ios":"levelo://app?vid=0a2fd205-d616-4064-aa75-d4d529957d90"},"vehicle_type_id":"4","last_reported":1738239470,"current_range_meters":24800,"station_id":"cpo3342slgdg3j2ifvpg","pricing_plan_id":"cebpf4jnsgd1na2vs0mg"},{"bike_id":"30976a8a-f14a-4b2b-8a2e-cadbb95e94e1","system_id":"levelo_inurba_marseille","lat":43.287,"lon":5.39989,"is_reserved":false,"is_disabled":false,"rental_uris":{"android":"levelo://app?vid=30976a8a-f14a-4b2b-8a2e-cadbb95e94e1","ios":"levelo://app?vid=30976a8a-f14a-4b2b-8a2e-cadbb95e94e1"},"vehicle_type_id":"4","last_reported":1738239470,"current_range_meters":18800,"station_id":"ce4bho92rcd13ifvqh3g","pricing_plan_id":"cebpf4jnsgd1na2vs0mg"},{"bike_id":"cdc2a678-4903-4402-a2ac-d185c88b6b9d","system_id":"levelo_inurba_marseille","lat":43.30143,"lon":5.38773,"is_reserved":false,"is_disabled":false,"rental_uris":{"android":"levelo://app?vid=cdc2a678-4903-4402-a2ac-d185c88b6b9d","ios":"levelo://app?vid=cdc2a678-4903-4402-a2ac-d185c88b6b9d"},"vehicle_type_id":"4","last_reported":1738239470,"current_range_meters":19200,"station_id":"ce4bghh2rcd13ifvqb60","pricing_plan_id":"cebpf4jnsgd1na2vs0mg"},{"bike_id":"851692c4-6ece-4a71-ba19-f442921d2278","system_id":"levelo_inurba_marseille","lat":43.29891,"lon":5.4366,"is_reserved":false,"is_disabled":false,"rental_uris":{"android":"levelo://app?vid=851692c4-6ece-4a71-ba19-f442921d2278","ios":"levelo://app?vid=851692c4-6ece-4a71-ba19-f442921d2278"},"vehicle_type_id":"4","last_reported":1738239470,"current_range_meters":39200,"station_id":"ce4bhpp2rcd13ifvqhfg","pricing_plan_id":"cebpf4jnsgd1na2vs0mg"},{"bike_id":"478bb8c8-b920-41b2-9b13-22266349dac7","system_id":"levelo_inurba_marseille","lat":43.27065,"lon":5.40286,"is_reserved":false,"is_disabled":false,"rental_uris":{"android":"levelo://app?vid=478bb8c8-b920-41b2-9b13-22266349dac7","ios":"levelo://app?vid=478bb8c8-b920-41b2-9b13-22266349dac7"},"vehicle_type_id":"4","last_reported":1738239470,"current_range_meters":32800,"station_id":"ce4bhk92rcd13ifvqgc0","pricing_plan_id":"cebpf4jnsgd1na2vs0mg"},{"bike_id":"5d85446d-a1e3-4da3-9e1b-711954a91272","system_id":"levelo_inurba_marseille","lat":43.3248,"lon":5.36563,"is_reserved":false,"is_disabled":true,"rental_uris":{"android":"levelo://app?vid=5d85446d-a1e3-4da3-9e1b-711954a91272","ios":"levelo://app?vid=5d85446d-a1e3-4da3-9e1b-711954a91272"},"vehicle_type_id":"4","last_reported":1738239470,"current_range_meters":38800,"station_id":"ce4bhs12rcd13ifvqhvg","pricing_plan_id":"cebpf4jnsgd1na2vs0mg"},{"bike_id":"e5f3ff7c-37f7-4994-9de9-70e4101a66f2","system_id":"levelo_inurba_marseille","lat":43.28094,"lon":5.37841,"is_reserved":false,"is_disabled":false,"rental_uris":{"android":"levelo://app?vid=e5f3ff7c-37f7-4994-9de9-70e4101a66f2","ios":"levelo://app?vid=e5f3ff7c-37f7-4994-9de9-70e4101a66f2"},"vehicle_type_id":"4","last_reported":1738239470,"current_range_meters":36400,"station_id":"ce4bha12rcd13ifvqee0","pricing_plan_id":"cebpf4jnsgd1na2vs0mg"},{"bike_id":"da356978-beb5-48b9-8dff-1c9f1529e01a","system_id":"levelo_inurba_marseille","lat":43.25729,"lon":5.41113,"is_reserved":false,"is_disabled":false,"rental_uris":{"android":"levelo://app?vid=da356978-beb5-48b9-8dff-1c9f1529e01a","ios":"levelo://app?vid=da356978-beb5-48b9-8dff-1c9f1529e01a"},"vehicle_type_id":"4","last_reported":1738239470,"current_range_meters":15200,"station_id":"ce4bhkp2rcd13ifvqgd0","pricing_plan_id":"cebpf4jnsgd1na2vs0mg"},{"bike_id":"803e03d8-7d2e-4feb-ac46-774902d16dee","system_id":"levelo_inurba_marseille","lat":43.33731,"lon":5.37442,"is_reserved":false,"is_disabled":true,"rental_uris":{"android":"levelo://app?vid=803e03d8-7d2e-4feb-ac46-774902d16dee","ios":"levelo://app?vid=803e03d8-7d2e-4feb-ac46-774902d16dee"},"vehicle_type_id":"4","last_reported":1738239470,"current_range_meters":28800,"station_id":"","pricing_plan_id":"cebpf4jnsgd1na2vs0mg"},{"bike_id":"baa29b07-c929-4791-93f4-403cf3c9ae74","system_id":"levelo_inurba_marseille","lat":43.29907,"lon":5.37475,"is_reserved":false,"is_disabled":false,"rental_uris":{"android":"levelo://app?vid=baa29b07-c929-4791-93f4-403cf3c9ae74","ios":"levelo://app?vid=baa29b07-c929-4791-93f4-403cf3c9ae74"},"vehicle_type_id":"4","last_reported":1738239470,"current_range_meters":20000,"station_id":"ce4bgjh2rcd13ifvqbg0","pricing_plan_id":"cebpf4jnsgd1na2vs0mg"},{"bike_id":"f751521e-9fd1-4c68-b0aa-b71b2190168b","system_id":"levelo_inurba_marseille","lat":43.317,"lon":5.37762,"is_reserved":false,"is_disabled":false,"rental_uris":{"android":"levelo://app?vid=f751521e-9fd1-4c68-b0aa-b71b2190168b","ios":"levelo://app?vid=f751521e-9fd1-4c68-b0aa-b71b2190168b"},"vehicle_type_id":"4","last_reported":1738239470,"current_range_meters":32400,"station_id":"ce4bgth2rcd13ifvqch0","pricing_plan_id":"cebpf4jnsgd1na2vs0mg"},{"bike_id":"bc6caab0-381b-4cff-85cc-4b280eaeec74","system_id":"levelo_inurba_marseille","lat":43.28087,"lon":5.37873,"is_reserved":false,"is_disabled":false,"rental_uris":{"android":"levelo://app?vid=bc6caab0-381b-4cff-85cc-4b280eaeec74","ios":"levelo://app?vid=bc6caab0-381b-4cff-85cc-4b280eaeec74"},"vehicle_type_id":"4","last_reported":1738239470,"current_range_meters":29600,"station_id":"ce4bha12rcd13ifvqee0","pricing_plan_id":"cebpf4jnsgd1na2vs0mg"},{"bike_id":"a02b1216-8017-4258-b10f-55f20603084c","system_id":"levelo_inurba_marseille","lat":43.302971,"lon":5.392228,"is_reserved":false,"is_disabled":false,"rental_uris":{"android":"levelo://app?vid=a02b1216-8017-4258-b10f-55f20603084c","ios":"levelo://app?vid=a02b1216-8017-4258-b10f-55f20603084c"},"vehicle_type_id":"4","last_reported":1738239470,"current_range_meters":19600,"station_id":"ce4bgkh2rcd13ifvqbk0","pricing_plan_id":"cebpf4jnsgd1na2vs0mg"},{"bike_id":"4d7b2321-a8a5-44b5-935c-f312bb8e5e6b","system_id":"levelo_inurba_marseille","lat":43.30949,"lon":5.39061,"is_reserved":false,"is_disabled":false,"rental_uris":{"android":"levelo://app?vid=4d7b2321-a8a5-44b5-935c-f312bb8e5e6b","ios":"levelo://app?vid=4d7b2321-a8a5-44b5-935c-f312bb8e5e6b"},"vehicle_type_id":"4","last_reported":1738239470,"current_range_meters":24800,"station_id":"ce4bgup2rcd13ifvqco0","pricing_plan_id":"cebpf4jnsgd1na2vs0mg"},{"bike_id":"51b90e30-3574-43f5-863a-c38191edfa11","system_id":"levelo_inurba_marseille","lat":43.3293,"lon":5.39029,"is_reserved":false,"is_disabled":false,"rental_uris":{"android":"levelo://app?vid=51b90e30-3574-43f5-863a-c38191edfa11","ios":"levelo://app?vid=51b90e30-3574-43f5-863a-c38191edfa11"},"vehicle_type_id":"4","last_reported":1738239470,"current_range_meters":38800,"station_id":"","pricing_plan_id":"cebpf4jnsgd1na2vs0mg"},{"bike_id":"0114f0e2-9547-4175-b347-44d967567321","system_id":"levelo_inurba_marseille","lat":43.29713,"lon":5.3661,"is_reserved":false,"is_disabled":false,"rental_uris":{"android":"levelo://app?vid=0114f0e2-9547-4175-b347-44d967567321","ios":"levelo://app?vid=0114f0e2-9547-4175-b347-44d967567321"},"vehicle_type_id":"4","last_reported":1738239470,"current_range_meters":38000,"station_id":"ce4bgn12rcd13ifvqbt0","pricing_plan_id":"cebpf4jnsgd1na2vs0mg"},{"bike_id":"97edbf9b-1b6a-4e24-86bd-683bae20044e","system_id":"levelo_inurba_marseille","lat":43.29596,"lon":5.38097,"is_reserved":false,"is_disabled":false,"rental_uris":{"android":"levelo://app?vid=97edbf9b-1b6a-4e24-86bd-683bae20044e","ios":"levelo://app?vid=97edbf9b-1b6a-4e24-86bd-683bae20044e"},"vehicle_type_id":"4","last_reported":1738239470,"current_range_meters":10800,"station_id":"ce4bgl12rcd13ifvqbo0","pricing_plan_id":"cebpf4jnsgd1na2vs0mg"},{"bike_id":"e877d4be-075c-4c6c-8336-b5b76f2502cd","system_id":"levelo_inurba_marseille","lat":43.24139,"lon":5.37249,"is_reserved":false,"is_disabled":false,"rental_uris":{"android":"levelo://app?vid=e877d4be-075c-4c6c-8336-b5b76f2502cd","ios":"levelo://app?vid=e877d4be-075c-4c6c-8336-b5b76f2502cd"},"vehicle_type_id":"4","last_reported":1738239470,"current_range_meters":15200,"station_id":"ce4bhnp2rcd13ifvqgvg","pricing_plan_id":"cebpf4jnsgd1na2vs0mg"},{"bike_id":"1eedbc56-d358-4051-bf2a-244cd8cf52d4","system_id":"levelo_inurba_marseille","lat":43.28151,"lon":5.42662,"is_reserved":false,"is_disabled":false,"rental_uris":{"android":"levelo://app?vid=1eedbc56-d358-4051-bf2a-244cd8cf52d4","ios":"levelo://app?vid=1eedbc56-d358-4051-bf2a-244cd8cf52d4"},"vehicle_type_id":"4","last_reported":1738239470,"current_range_meters":6000,"station_id":"ce4bhnh2rcd13ifvqgug","pricing_plan_id":"cebpf4jnsgd1na2vs0mg"},{"bike_id":"3cab5ce9-fa36-4f37-a4fd-aa59591df4d1","system_id":"levelo_inurba_marseille","lat":43.28425,"lon":5.35001,"is_reserved":false,"is_disabled":true,"rental_uris":{"android":"levelo://app?vid=3cab5ce9-fa36-4f37-a4fd-aa59591df4d1","ios":"levelo://app?vid=3cab5ce9-fa36-4f37-a4fd-aa59591df4d1"},"vehicle_type_id":"4","last_reported":1738239470,"current_range_meters":27200,"station_id":"ce4bhbh2rcd13ifvqepg","pricing_plan_id":"cebpf4jnsgd1na2vs0mg"},{"bike_id":"d994d4a0-0318-4f4e-9986-d94426f50c25","system_id":"levelo_inurba_marseille","lat":43.26204,"lon":5.37432,"is_reserved":false,"is_disabled":false,"rental_uris":{"android":"levelo://app?vid=d994d4a0-0318-4f4e-9986-d94426f50c25","ios":"levelo://app?vid=d994d4a0-0318-4f4e-9986-d94426f50c25"},"vehicle_type_id":"4","last_reported":1738239470,"current_range_meters":38800,"station_id":"ce4bhgp2rcd13ifvqfc0","pricing_plan_id":"cebpf4jnsgd1na2vs0mg"},{"bike_id":"85af6c92-372c-4cd2-84da-c4ec61fa470d","system_id":"levelo_inurba_marseille","lat":43.25647,"lon":5.41314,"is_reserved":false,"is_disabled":true,"rental_uris":{"android":"levelo://app?vid=85af6c92-372c-4cd2-84da-c4ec61fa470d","ios":"levelo://app?vid=85af6c92-372c-4cd2-84da-c4ec61fa470d"},"vehicle_type_id":"4","last_reported":1738239470,"current_range_meters":36000,"station_id":"","pricing_plan_id":"cebpf4jnsgd1na2vs0mg"},{"bike_id":"37a661ef-f39a-4f49-853d-0534c5874695","system_id":"levelo_inurba_marseille","lat":43.29567,"lon":5.37539,"is_reserved":false,"is_disabled":false,"rental_uris":{"android":"levelo://app?vid=37a661ef-f39a-4f49-853d-0534c5874695","ios":"levelo://app?vid=37a661ef-f39a-4f49-853d-0534c5874695"},"vehicle_type_id":"4","last_reported":1738239470,"current_range_meters":38400,"station_id":"ce4bgh92rcd13ifvqb50","pricing_plan_id":"cebpf4jnsgd1na2vs0mg"},{"bike_id":"285535cc-273c-4f32-ad7c-624554572969","system_id":"levelo_inurba_marseille","lat":43.28372,"lon":5.38635,"is_reserved":false,"is_disabled":false,"rental_uris":{"android":"levelo://app?vid=285535cc-273c-4f32-ad7c-624554572969","ios":"levelo://app?vid=285535cc-273c-4f32-ad7c-624554572969"},"vehicle_type_id":"4","last_reported":1738239470,"current_range_meters":38800,"station_id":"ce4bh492rcd13ifvqdvg","pricing_plan_id":"cebpf4jnsgd1na2vs0mg"},{"bike_id":"6630ca91-ca35-4e81-9c54-578b49e543d0","system_id":"levelo_inurba_marseille","lat":43.27808,"lon":5.40717,"is_reserved":false,"is_disabled":false,"rental_uris":{"android":"levelo://app?vid=6630ca91-ca35-4e81-9c54-578b49e543d0","ios":"levelo://app?vid=6630ca91-ca35-4e81-9c54-578b49e543d0"},"vehicle_type_id":"4","last_reported":1738239470,"current_range_meters":30800,"station_id":"ce4bhnh2rcd13ifvqgtg","pricing_plan_id":"cebpf4jnsgd1na2vs0mg"},{"bike_id":"2c03adb6-a474-42c2-b922-a59913154522","system_id":"levelo_inurba_marseille","lat":43.27499,"lon":5.42456,"is_reserved":false,"is_disabled":true,"rental_uris":{"android":"levelo://app?vid=2c03adb6-a474-42c2-b922-a59913154522","ios":"levelo://app?vid=2c03adb6-a474-42c2-b922-a59913154522"},"vehicle_type_id":"4","last_reported":1738239470,"current_range_meters":24800,"station_id":"ce4bhn92rcd13ifvqgrg","pricing_plan_id":"cebpf4jnsgd1na2vs0mg"},{"bike_id":"ff0b922d-3380-49e4-bbeb-3adfa486e523","system_id":"levelo_inurba_marseille","lat":43.25939,"lon":5.40907,"is_reserved":false,"is_disabled":false,"rental_uris":{"android":"levelo://app?vid=ff0b922d-3380-49e4-bbeb-3adfa486e523","ios":"levelo://app?vid=ff0b922d-3380-49e4-bbeb-3adfa486e523"},"vehicle_type_id":"4","last_reported":1738239470,"current_range_meters":17200,"station_id":"ce4bhm92rcd13ifvqglg","pricing_plan_id":"cebpf4jnsgd1na2vs0mg"},{"bike_id":"ae8472a9-7abb-4263-a72b-f107c08a7acc","system_id":"levelo_inurba_marseille","lat":43.25009,"lon":5.38941,"is_reserved":false,"is_disabled":false,"rental_uris":{"android":"levelo://app?vid=ae8472a9-7abb-4263-a72b-f107c08a7acc","ios":"levelo://app?vid=ae8472a9-7abb-4263-a72b-f107c08a7acc"},"vehicle_type_id":"4","last_reported":1738239470,"current_range_meters":27600,"station_id":"ce4bhgp2rcd13ifvqfd0","pricing_plan_id":"cebpf4jnsgd1na2vs0mg"},{"bike_id":"32eb613b-b1d9-43ce-ba43-6576daf47a1e","system_id":"levelo_inurba_marseille","lat":43.23148,"lon":5.43734,"is_reserved":false,"is_disabled":false,"rental_uris":{"android":"levelo://app?vid=32eb613b-b1d9-43ce-ba43-6576daf47a1e","ios":"levelo://app?vid=32eb613b-b1d9-43ce-ba43-6576daf47a1e"},"vehicle_type_id":"4","last_reported":1738239470,"current_range_meters":39200,"station_id":"ce4bhmp2rcd13ifvqgog","pricing_plan_id":"cebpf4jnsgd1na2vs0mg"},