{"last_updated":1745168951,"ttl":60,"version":"2.2","data":{"bikes":[{"bike_id":"6d8c5e39-c0ed-4d6c-af1d-35ca1f81eb08","system_id":"levelo_inurba_marseille","lat":43.3013,"lon":5.38783,"is_reserved":false,"is_disabled":false,"rental_uris":{"android":"levelo://app?vid=6d8c5e39-c0ed-4d6c-af1d-35ca1f81eb08","ios":"levelo://app?vid=6d8c5e39-c0ed-4d6c-af1d-35ca1f81eb08"},"vehicle_type_id":"4","last_reported":1745168951,"current_range_meters":2000,"station_id":"ce4bghh2rcd13ifvqb60","pricing_plan_id":"cebpf4jnsgd1na2vs0mg"},{"bike_id":"6709d80f-d480-4382-ba27-78b49b22f902","system_id":"levelo_inurba_marseille","lat":43.29277,"lon":5.38437,"is_reserved":false,"is_disabled":false,"rental_uris":{"android":"levelo://app?vid=6709d80f-d480-4382-ba27-78b49b22f902","ios":"levelo://app?vid=6709d80f-d480-4382-ba27-78b49b22f902"},"vehicle_type_id":"4","last_reported":1745168951,"current_range_meters":2800,"station_id":"ce4bh692rcd13ifvqea0","pricing_plan_id":"cebpf4jnsgd1na2vs0mg"},{"bike_id":"4cdb0a0f-6366-43af-85c7-3c43d75a4386","system_id":"levelo_inurba_marseille","lat":43.317965,"lon":5.367949,"is_reserved":false,"is_disabled":false,"rental_uris":{"android":"levelo://app?vid=4cdb0a0f-6366-43af-85c7-3c43d75a4386","ios":"levelo://app?vid=4cdb0a0f-6366-43af-85c7-3c43d75a4386"},"vehicle_type_id":"4","last_reported":1745168951,"current_range_meters":2800,"station_id":"","pricing_plan_id":"cebpf4jnsgd1na2vs0mg"},{"bike_id":"0ede2bc6-8909-46f0-b952-894e3963a0e4","system_id":"levelo_inurba_marseille","lat":43.29197,"lon":5.35809,"is_reserved":false,"is_disabled":false,"rental_uris":{"android":"levelo://app?vid=0ede2bc6-8909-46f0-b952-894e3963a0e4","ios":"levelo://app?vid=0ede2bc6-8909-46f0-b952-894e3963a0e4"},"vehicle_type_id":"4","last_reported":1745168951,"current_range_meters":2800,"station_id":"ce4bhb12rcd13ifvqel0","pricing_plan_id":"cebpf4jnsgd1na2vs0mg"},{"bike_id":"1b9cfbb8-2e44-4f94-a93b-95a6781c3904","system_id":"levelo_inurba_marseille","lat":43.292639,"lon":5.384344,"is_reserved":false,"is_disabled":false,"rental_uris":{"android":"levelo://app?vid=1b9cfbb8-2e44-4f94-a93b-95a6781c3904","ios":"levelo://app?vid=1b9cfbb8-2e44-4f94-a93b-95a6781c3904"},"vehicle_type_id":"4","last_reported":1745168951,"current_range_meters":3200,"station_id":"ce4bgk12rcd13ifvqbi0","pricing_plan_id":"cebpf4jnsgd1na2vs0mg"},{"bike_id":"b2a77660-e364-46cd-aea9-e464c1d20630","system_id":"levelo_inurba_marseille","lat":43.26191,"lon":5.37451,"is_reserved":false,"is_disabled":false,"rental_uris":{"android":"levelo://app?vid=b2a77660-e364-46cd-aea9-e464c1d20630","ios":"levelo://app?vid=b2a77660-e364-46cd-aea9-e464c1d20630"},"vehicle_type_id":"4","last_reported":1745168951,"current_range_meters":3200,"station_id":"ce4bhgp2rcd13ifvqfc0","pricing_plan_id":"cebpf4jnsgd1na2vs0mg"},{"bike_id":"297ff296-75bf-44cd-87cc-18e1e9537c17","system_id":"levelo_inurba_marseille","lat":43.29278,"lon":5.40124,"is_reserved":false,"is_disabled":false,"rental_uris":{"android":"levelo://app?vid=297ff296-75bf-44cd-87cc-18e1e9537c17","ios":"levelo://app?vid=297ff296-75bf-44cd-87cc-18e1e9537c17"},"vehicle_type_id":"4","last_reported":1745168951,"current_range_meters":3200,"station_id":"ce4bh312rcd13ifvqdk0","pricing_plan_id":"cebpf4jnsgd1na2vs0mg"},{"bike_id":"066f1a3f-2f55-42ac-aa57-b561bb82f13e","system_id":"levelo_inurba_marseille","lat":43.30855,"lon":5.37301,"is_reserved":false,"is_disabled":false,"rental_uris":{"android":"levelo://app?vid=066f1a3f-2f55-42ac-aa57-b561bb82f13e","ios":"levelo://app?vid=066f1a3f-2f55-42ac-aa57-b561bb82f13e"},"vehicle_type_id":"4","last_reported":1745168951,"current_range_meters":3200,"station_id":"","pricing_plan_id":"cebpf4jnsgd1na2vs0mg"},{"bike_id":"e3224750-ec92-4cd9-8d8b-c70fc45f9081","system_id":"levelo_inurba_marseille","lat":43.25575,"lon":5.3831,"is_reserved":false,"is_disabled":false,"rental_uris":{"android":"levelo://app?vid=e3224750-ec92-4cd9-8d8b-c70fc45f9081","ios":"levelo://app?vid=e3224750-ec92-4cd9-8d8b-c70fc45f9081"},"vehicle_type_id":"4","last_reported":1745168951,"current_range_meters":3200,"station_id":"","pricing_plan_id":"cebpf4jnsgd1na2vs0mg"},{"bike_id":"81bf24f1-81f8-4b04-8244-c2939f7052e3","system_id":"levelo_inurba_marseille","lat":43.2847,"lon":5.35894,"is_reserved":false,"is_disabled":false,"rental_uris":{"android":"levelo://app?vid=81bf24f1-81f8-4b04-8244-c2939f7052e3","ios":"levelo://app?vid=81bf24f1-81f8-4b04-8244-c2939f7052e3"},"vehicle_type_id":"4","last_reported":1745168951,"current_range_meters":2800,"station_id":"ce4bhah2rcd13ifvqei0","pricing_plan_id":"cebpf4jnsgd1na2vs0mg"},{"bike_id":"a0ddb0a5-f7f0-4281-aa27-9e82747cc573","system_id":"levelo_inurba_marseille","lat":43.33754,"lon":5.37491,"is_reserved":false,"is_disabled":false,"rental_uris":{"android":"levelo://app?vid=a0ddb0a5-f7f0-4281-aa27-9e82747cc573","ios":"levelo://app?vid=a0ddb0a5-f7f0-4281-aa27-9e82747cc573"},"vehicle_type_id":"4","last_reported":1745168951,"current_range_meters":3200,"station_id":"","pricing_plan_id":"cebpf4jnsgd1na2vs0mg"},{"bike_id":"527bf01d-a7a9-4a02-a922-63e7e0d2d3b5","system_id":"levelo_inurba_marseille","lat":43.24763,"lon":5.41236,"is_reserved":false,"is_disabled":false,"rental_uris":{"android":"levelo://app?vid=527bf01d-a7a9-4a02-a922-63e7e0d2d3b5","ios":"levelo://app?vid=527bf01d-a7a9-4a02-a922-63e7e0d2d3b5"},"vehicle_type_id":"4","last_reported":1745168951,"current_range_meters":3200,"station_id":"","pricing_plan_id":"cebpf4jnsgd1na2vs0mg"},{"bike_id":"9fe8c14c-2d24-41b2-9662-956cdf9f075c","system_id":"levelo_inurba_marseille","lat":43.24483,"lon":5.36918,"is_reserved":false,"is_disabled":false,"rental_uris":{"android":"levelo://app?vid=9fe8c14c-2d24-41b2-9662-956cdf9f075c","ios":"levelo://app?vid=9fe8c14c-2d24-41b2-9662-956cdf9f075c"},"vehicle_type_id":"4","last_reported":1745168951,"current_range_meters":3600,"station_id":"","pricing_plan_id":"cebpf4jnsgd1na2vs0mg"},{"bike_id":"f237185f-7849-46ac-947c-ffdce077d2c1","system_id":"levelo_inurba_marseille","lat":43.2931,"lon":5.3745,"is_reserved":false,"is_disabled":false,"rental_uris":{"android":"levelo://app?vid=f237185f-7849-46ac-947c-ffdce077d2c1","ios":"levelo://app?vid=f237185f-7849-46ac-947c-ffdce077d2c1"},"vehicle_type_id":"4","last_reported":1745168951,"current_range_meters":3600,"station_id":"ce4bgi12rcd13ifvqb70","pricing_plan_id":"cebpf4jnsgd1na2vs0mg"},{"bike_id":"35f0a6e1-f9a9-47ee-bab6-2641cdd8ae57","system_id":"levelo_inurba_marseille","lat":43.27328,"lon":5.39109,"is_reserved":false,"is_disabled":true,"rental_uris":{"android":"levelo://app?vid=35f0a6e1-f9a9-47ee-bab6-2641cdd8ae57","ios":"levelo://app?vid=35f0a6e1-f9a9-47ee-bab6-2641cdd8ae57"},"vehicle_type_id":"4","last_reported":1745168951,"current_range_meters":3600,"station_id":"ce4bhgp2rcd13ifvqfe0","pricing_plan_id":"cebpf4jnsgd1na2vs0mg"},{"bike_id":"7b876d00-9349-4027-9a64-26c5e2666ce1","system_id":"levelo_inurba_marseille","lat":43.29543,"lon":5.3857,"is_reserved":false,"is_disabled":true,"rental_uris":{"android":"levelo://app?vid=7b876d00-9349-4027-9a64-26c5e2666ce1","ios":"levelo://app?vid=7b876d00-9349-4027-9a64-26c5e2666ce1"},"vehicle_type_id":"4","last_reported":1745168951,"current_range_meters":3600,"station_id":"ce4bgih2rcd13ifvqba0","pricing_plan_id":"cebpf4jnsgd1na2vs0mg"},{"bike_id":"ab42e793-35c0-4a52-a3f6-ac07eb6ffa88","system_id":"levelo_inurba_marseille","lat":43.23187,"lon":5.35551,"is_reserved":false,"is_disabled":true,"rental_uris":{"android":"levelo://app?vid=ab42e793-35c0-4a52-a3f6-ac07eb6ffa88","ios":"levelo://app?vid=ab42e793-35c0-4a52-a3f6-ac07eb6ffa88"},"vehicle_type_id":"4","last_reported":1745168951,"current_range_meters":3600,"station_id":"ce4bhu92rcd13ifvqi70","pricing_plan_id":"cebpf4jnsgd1na2vs0mg"},{"bike_id":"0e5b7039-6361-4804-81c5-894cd809a76e","system_id":"levelo_inurba_marseille","lat":43.30406,"lon":5.3887,"is_reserved":false,"is_disabled":false,"rental_uris":{"android":"levelo://app?vid=0e5b7039-6361-4804-81c5-894cd809a76e","ios":"levelo://app?vid=0e5b7039-6361-4804-81c5-894cd809a76e"},"vehicle_type_id":"4","last_reported":1745168951,"current_range_meters":3600,"station_id":"ce4bgk12rcd13ifvqbi0","pricing_plan_id":"cebpf4jnsgd1na2vs0mg"},{"bike_id":"a0842d28-0b0f-4a5e-990d-3bac712c14c6","system_id":"levelo_inurba_marseille","lat":43.30598,"lon":5.37239,"is_reserved":false,"is_disabled":false,"rental_uris":{"android":"levelo://app?vid=a0842d28-0b0f-4a5e-990d-3bac712c14c6","ios":"levelo://app?vid=a0842d28-0b0f-4a5e-990d-3bac712c14c6"},"vehicle_type_id":"4","last_reported":1745168951,"current_range_meters":3600,"station_id":"ce4bgqh2rcd13ifvqc4g","pricing_plan_id":"cebpf4jnsgd1na2vs0mg"},{"bike_id":"7bb30ede-fd03-4dcd-9bbb-e237fab34a75","system_id":"levelo_inurba_marseille","lat":43.29618,"lon":5.37162,"is_reserved":false,"is_disabled":false,"rental_uris":{"android":"levelo://app?vid=7bb30ede-fd03-4dcd-9bbb-e237fab34a75","ios":"levelo://app?vid=7bb30ede-fd03-4dcd-9bbb-e237fab34a75"},"vehicle_type_id":"4","last_reported":1745168951,"current_range_meters":4000,"station_id":"ce4bgnh2rcd13ifvqc0g","pricing_plan_id":"cebpf4jnsgd1na2vs0mg"},{"bike_id":"30f3e231-5777-425a-95f1-3a7d96b5371c","system_id":"levelo_inurba_marseille","lat":43.28436,"lon":5.37518,"is_reserved":false,"is_disabled":false,"rental_uris":{"android":"levelo://app?vid=30f3e231-5777-425a-95f1-3a7d96b5371c","ios":"levelo://app?vid=30f3e231-5777-425a-95f1-3a7d96b5371c"},"vehicle_type_id":"4","last_reported":1745168951,"current_range_meters":3600,"station_id":"ce4bh412rcd13ifvqds0","pricing_plan_id":"cebpf4jnsgd1na2vs0mg"},{"bike_id":"91686a69-0a5a-4c2d-9cf5-910db3f2ced4","system_id":"levelo_inurba_marseille","lat":43.28418,"lon":5.37521,"is_reserved":false,"is_disabled":false,"rental_uris":{"android":"levelo://app?vid=91686a69-0a5a-4c2d-9cf5-910db3f2ced4","ios":"levelo://app?vid=91686a69-0a5a-4c2d-9cf5-910db3f2ced4"},"vehicle_type_id":"4","last_reported":1745168951,"current_range_meters":4000,"station_id":"ce4bh412rcd13ifvqds0","pricing_plan_id":"cebpf4jnsgd1na2vs0mg"},{"bike_id":"608caa31-fe6b-4659-bca1-9d8d0fed7dbf","system_id":"levelo_inurba_marseille","lat":43.21193,"lon":5.35071,"is_reserved":false,"is_disabled":false,"rental_uris":{"android":"levelo://app?vid=608caa31-fe6b-4659-bca1-9d8d0fed7dbf","ios":"levelo://app?vid=608caa31-fe6b-4659-bca1-9d8d0fed7dbf"},"vehicle_type_id":"4","last_reported":1745168951,"current_range_meters":4000,"station_id":"st_cvj6sg6p6f1abm77japg","pricing_plan_id":"cebpf4jnsgd1na2vs0mg"},{"bike_id":"7dcdef15-1980-4995-904f-86bb708bb2e7","system_id":"levelo_inurba_marseille","lat":43.25118,"lon":5.40345,"is_reserved":false,"is_disabled":false,"rental_uris":{"android":"levelo://app?vid=7dcdef15-1980-4995-904f-86bb708bb2e7","ios":"levelo://app?vid=7dcdef15-1980-4995-904f-86bb708bb2e7"},"vehicle_type_id":"4","last_reported":1745168951,"current_range_meters":4400,"station_id":"ce4bhlh2rcd13ifvqgig","pricing_plan_id":"cebpf4jnsgd1na2vs0mg"},{"bike_id":"cecd7c84-becb-41c3-9869-71d934006a59","system_id":"levelo_inurba_marseille","lat":43.27384,"lon":5.36254,"is_reserved":false,"is_disabled":false,"rental_uris":{"android":"levelo://app?vid=cecd7c84-becb-41c3-9869-71d934006a59","ios":"levelo://app?vid=cecd7c84-becb-41c3-9869-71d934006a59"},"vehicle_type_id":"4","last_reported":1745168951,"current_range_meters":4400,"station_id":"ce4bhbh2rcd13ifvqeo0","pricing_plan_id":"cebpf4jnsgd1na2vs0mg"},{"bike_id":"b52a1751-28c1-4412-9819-bb1cff38059d","system_id":"levelo_inurba_marseille","lat":43.25535,"lon":5.40644,"is_reserved":false,"is_disabled":false,"rental_uris":{"android":"levelo://app?vid=b52a1751-28c1-4412-9819-bb1cff38059d","ios":"levelo://app?vid=b52a1751-28c1-4412-9819-bb1cff38059d"},"vehicle_type_id":"4","last_reported":1745168951,"current_range_meters":4800,"station_id":"","pricing_plan_id":"cebpf4jnsgd1na2vs0mg"},{"bike_id":"dca25e7c-18c8-4294-8253-279fbe150a63","system_id":"levelo_inurba_marseille","lat":43.27813,"lon":5.4071,"is_reserved":false,"is_disabled":false,"rental_uris":{"android":"levelo://app?vid=dca25e7c-18c8-4294-8253-279fbe150a63","ios":"levelo://app?vid=dca25e7c-18c8-4294-8253-279fbe150a63"},"vehicle_type_id":"4","last_reported":1745168951,"current_range_meters":4000,"station_id":"ce4bhnh2rcd13ifvqgtg","pricing_plan_id":"cebpf4jnsgd1na2vs0mg"},{"bike_id":"33fb87e2-caed-4676-825c-da2670c687fe","system_id":"levelo_inurba_marseille","lat":43.28274,"lon":5.35073,"is_reserved":false,"is_disabled":false,"rental_uris":{"android":"levelo://app?vid=33fb87e2-caed-4676-825c-da2670c687fe","ios":"levelo://app?vid=33fb87e2-caed-4676-825c-da2670c687fe"},"vehicle_type_id":"4","last_reported":1745168951,"current_range_meters":4000,"station_id":"ce4bhbp2rcd13ifvqerg","pricing_plan_id":"cebpf4jnsgd1na2vs0mg"},{"bike_id":"f7f99840-d8dd-411f-a6b6-740a221d9432","system_id":"levelo_inurba_marseille","lat":43.26059,"lon":5.39402,"is_reserved":false,"is_disabled":false,"rental_uris":{"android":"levelo://app?vid=f7f99840-d8dd-411f-a6b6-740a221d9432","ios":"levelo://app?vid=f7f99840-d8dd-411f-a6b6-740a221d9432"},"vehicle_type_id":"4","last_reported":1745168951,"current_range_meters":4000,"station_id":"ce4bhh92rcd13ifvqfj0","pricing_plan_id":"cebpf4jnsgd1na2vs0mg"},{"bike_id":"8945ca94-215d-4cc8-8d7b-b0d0df13b28c","system_id":"levelo_inurba_marseille","lat":43.26777,"lon":5.39418,"is_reserved":false,"is_disabled":false,"rental_uris":{"android":"levelo://app?vid=8945ca94-215d-4cc8-8d7b-b0d0df13b28c","ios":"levelo://app?vid=8945ca94-215d-4cc8-8d7b-b0d0df13b28c"},"vehicle_type_id":"4","last_reported":1745168951,"current_range_meters":4000,"station_id":"ce4bhh12rcd13ifvqfg0","pricing_plan_id":"cebpf4jnsgd1na2vs0mg"},{"bike_id":"d0afabed-9a1c-4aca-b189-4b6878aaa911","system_id":"levelo_inurba_marseille","lat":43.27379,"lon":5.36263,"is_reserved":false,"is_disabled":false,"rental_uris":{"android":"levelo://app?vid=d0afabed-9a1c-4aca-b189-4b6878aaa911","ios":"levelo://app?vid=d0afabed-9a1c-4aca-b189-4b6878aaa911"},"vehicle_type_id":"4","last_reported":1745168951,"current_range_meters":4800,"station_id":"ce4bhbh2rcd13ifvqeo0","pricing_plan_id":"cebpf4jnsgd1na2vs0mg"},{"bike_id":"2651b407-4f40-4ba1-9a03-bfad2f338d9d","system_id":"levelo_inurba_marseille","lat":43.29421,"lon":5.38623,"is_reserved":false,"is_disabled":false,"rental_uris":{"android":"levelo://app?vid=2651b407-4f40-4ba1-9a03-bfad2f338d9d","ios":"levelo://app?vid=2651b407-4f40-4ba1-9a03-bfad2f338d9d"},"vehicle_type_id":"4","last_reported":1745168951,"current_range_meters":5600,"station_id":"ce4bh2h2rcd13ifvqdh0","pricing_plan_id":"cebpf4jnsgd1na2vs0mg"},{"bike_id":"9336df25-69b5-492c-b1b5-fcc8ee403099","system_id":"levelo_inurba_marseille","lat":43.24386,"lon":5.37058,"is_reserved":false,"is_disabled":false,"rental_uris":{"android":"levelo://app?vid=9336df25-69b5-492c-b1b5-fcc8ee403099","ios":"levelo://app?vid=9336df25-69b5-492c-b1b5-fcc8ee403099"},"vehicle_type_id":"4","last_reported":1745168951,"current_range_meters":4800,"station_id":"ce4bhhh2rcd13ifvqfk0","pricing_plan_id":"cebpf4jnsgd1na2vs0mg"},{"bike_id":"a4f53f83-a203-4112-88cd-432220291605","system_id":"levelo_inurba_marseille","lat":43.28427,"lon":5.34988,"is_reserved":false,"is_disabled":true,"rental_uris":{"android":"levelo://app?vid=a4f53f83-a203-4112-88cd-432220291605","ios":"levelo://app?vid=a4f53f83-a203-4112-88cd-432220291605"},"vehicle_type_id":"4","last_reported":1745168951,"current_range_meters":5600,"station_id":"ce4bhbh2rcd13ifvqepg","pricing_plan_id":"cebpf4jnsgd1na2vs0mg"},{"bike_id":"69ad8e3c-2b7b-4a69-9e26-a107c2e16335","system_id":"levelo_inurba_marseille","lat":43.32369,"lon":5.38886,"is_reserved":false,"is_disabled":false,"rental_uris":{"android":"levelo://app?vid=69ad8e3c-2b7b-4a69-9e26-a107c2e16335","ios":"levelo://app?vid=69ad8e3c-2b7b-4a69-9e26-a107c2e16335"},"vehicle_type_id":"4","last_reported":1745168951,"current_range_meters":5600,"station_id":"ce4bhqp2rcd13ifvqhog","pricing_plan_id":"cebpf4jnsgd1na2vs0mg"},{"bike_id":"656ac081-c121-4824-81a4-fa92b7720ed4","system_id":"levelo_inurba_marseille","lat":43.23199,"lon":5.35668,"is_reserved":false,"is_disabled":false,"rental_uris":{"android":"levelo://app?vid=656ac081-c121-4824-81a4-fa92b7720ed4","ios":"levelo://app?vid=656ac081-c121-4824-81a4-fa92b7720ed4"},"vehicle_type_id":"4","last_reported":1745168951,"current_range_meters":6000,"station_id":"","pricing_plan_id":"cebpf4jnsgd1na2vs0mg"},{"bike_id":"9f6fcd99-9dcb-4d5d-91e0-f4d8750658e0","system_id":"levelo_inurba_marseille","lat":43.29263,"lon":5.38445,"is_reserved":false,"is_disabled":false,"rental_uris":{"android":"levelo://app?vid=9f6fcd99-9dcb-4d5d-91e0-f4d8750658e0","ios":"levelo://app?vid=9f6fcd99-9dcb-4d5d-91e0-f4d8750658e0"},"vehicle_type_id":"4","last_reported":1745168951,"current_range_meters":6000,"station_id":"ce4bh692rcd13ifvqea0","pricing_plan_id":"cebpf4jnsgd1na2vs0mg"},{"bike_id":"0d8ed5a5-03d9-42f1-b6a4-43da58b5537d","system_id":"levelo_inurba_marseille","lat":43.302472,"lon":5.400723,"is_reserved":false,"is_disabled":false,"rental_uris":{"android":"levelo://app?vid=0d8ed5a5-03d9-42f1-b6a4-43da58b5537d","ios":"levelo://app?vid=0d8ed5a5-03d9-42f1-b6a4-43da58b5537d"},"vehicle_type_id":"4","last_reported":1745168951,"current_range_meters":5600,"station_id":"ce4bgvp2rcd13ifvqct0","pricing_plan_id":"cebpf4jnsgd1na2vs0mg"},{"bike_id":"e8531600-25f7-4cc8-855b-4e04574cacde","system_id":"levelo_inurba_marseille","lat":43.29438,"lon":5.39758,"is_reserved":false,"is_disabled":false,"rental_uris":{"android":"levelo://app?vid=e8531600-25f7-4cc8-855b-4e04574cacde","ios":"levelo://app?vid=e8531600-25f7-4cc8-855b-4e04574cacde"},"vehicle_type_id":"4","last_reported":1745168951,"current_range_meters":5600,"station_id":"ce4bh3h2rcd13ifvqdo0","pricing_plan_id":"cebpf4jnsgd1na2vs0mg"},{"bike_id":"a9be31df-7ae1-4323-9473-08a6b9526b7d","system_id":"levelo_inurba_marseille","lat":43.29912,"lon":5.37466,"is_reserved":false,"is_disabled":false,"rental_uris":{"android":"levelo://app?vid=a9be31df-7ae1-4323-9473-08a6b9526b7d","ios":"levelo://app?vid=a9be31df-7ae1-4323-9473-08a6b9526b7d"},"vehicle_type_id":"4","last_reported":1745168951,"current_range_meters":5600,"station_id":"ce4bgjh2rcd13ifvqbg0","pricing_plan_id":"cebpf4jnsgd1na2vs0mg"},{"bike_id":"186380b9-3dab-457b-b648-71d123fa0368","system_id":"levelo_inurba_marseille","lat":43.25112,"lon":5.403402,"is_reserved":false,"is_disabled":true,"rental_uris":{"android":"levelo://app?vid=186380b9-3dab-457b-b648-71d123fa0368","ios":"levelo://app?vid=186380b9-3dab-457b-b648-71d123fa0368"},"vehicle_type_id":"4","last_reported":1745168951,"current_range_meters":6400,"station_id":"ce4bhlh2rcd13ifvqgig","pricing_plan_id":"cebpf4jnsgd1na2vs0mg"},{"bike_id":"d2ba4413-c35f-41b1-8baf-f83e6001a359","system_id":"levelo_inurba_marseille","lat":43.29045,"lon":5.38659,"is_reserved":false,"is_disabled":true,"rental_uris":{"android":"levelo://app?vid=d2ba4413-c35f-41b1-8baf-f83e6001a359","ios":"levelo://app?vid=d2ba4413-c35f-41b1-8baf-f83e6001a359"},"vehicle_type_id":"4","last_reported":1745168951,"current_range_meters":6000,"station_id":"ce4bh4p2rcd13ifvqe0g","pricing_plan_id":"cebpf4jnsgd1na2vs0mg"},{"bike_id":"501b1c56-b5c3-4cfb-932f-a774c7db70f2","system_id":"levelo_inurba_marseille","lat":43.265472,"lon":5.372858,"is_reserved":false,"is_disabled":true,"rental_uris":{"android":"levelo://app?vid=501b1c56-b5c3-4cfb-932f-a774c7db70f2","ios":"levelo://app?vid=501b1c56-b5c3-4cfb-932f-a774c7db70f2"},"vehicle_type_id":"4","last_reported":1745168951,"current_range_meters":6000,"station_id":"ce4bhap2rcd13ifvqek0","pricing_plan_id":"cebpf4jnsgd1na2vs0mg"},{"bike_id":"fb709684-2e6a-4780-b0cb-84ab04234a36","system_id":"levelo_inurba_marseille","lat":43.279,"lon":5.38025,"is_reserved":false,"is_disabled":false,"rental_uris":{"android":"levelo://app?vid=fb709684-2e6a-4780-b0cb-84ab04234a36","ios":"levelo://app?vid=fb709684-2e6a-4780-b0cb-84ab04234a36"},"vehicle_type_id":"4","last_reported":1745168951,"current_range_meters":6000,"station_id":"ce4bhf92rcd13ifvqf50","pricing_plan_id":"cebpf4jnsgd1na2vs0mg"},{"bike_id":"1eaca8f5-0017-418a-9bfc-52185bf67513","system_id":"levelo_inurba_marseille","lat":43.3374,"lon":5.39139,"is_reserved":false,"is_disabled":false,"rental_uris":{"android":"levelo://app?vid=1eaca8f5-0017-418a-9bfc-52185bf67513","ios":"levelo://app?vid=1eaca8f5-0017-418a-9bfc-52185bf67513"},"vehicle_type_id":"4","last_reported":1745168951,"current_range_meters":6400,"station_id":"ce4bhr92rcd13ifvqhsg","pricing_plan_id":"cebpf4jnsgd1na2vs0mg"},{"bike_id":"760b2fb9-52ba-4cff-b933-38b67e854a7c","system_id":"levelo_inurba_marseille","lat":43.29622,"lon":5.37159,"is_reserved":false,"is_disabled":false,"rental_uris":{"android":"levelo://app?vid=760b2fb9-52ba-4cff-b933-38b67e854a7c","ios":"levelo://app?vid=760b2fb9-52ba-4cff-b933-38b67e854a7c"},"vehicle_type_id":"4","last_reported":1745168951,"current_range_meters":6400,"station_id":"ce4bgnh2rcd13ifvqc0g","pricing_plan_id":"cebpf4jnsgd1na2vs0mg"},{"bike_id":"e5a2fc30-1e43-475e-b9f7-17aa6252bd04","system_id":"levelo_inurba_marseille","lat":43.29872,"lon":5.39734,"is_reserved":false,"is_disabled":false,"rental_uris":{"android":"levelo://app?vid=e5a2fc30-1e43-475e-b9f7-17aa6252bd04","ios":"levelo://app?vid=e5a2fc30-1e43-475e-b9f7-17aa6252bd04"},"vehicle_type_id":"4","last_reported":1745168951,"current_range_meters":6400,"station_id":"ce4bgqh2rcd13ifvqc4g","pricing_plan_id":"cebpf4jnsgd1na2vs0mg"},{"bike_id":"f8266a8e-1bd9-4182-b247-939bdafbb72c","system_id":"levelo_inurba_marseille","lat":43.30465,"lon":5.37898,"is_reserved":false,"is_disabled":true,"rental_uris":{"android":"levelo://app?vid=f8266a8e-1bd9-4182-b247-939bdafbb72c","ios":"levelo://app?vid=f8266a8e-1bd9-4182-b247-939bdafbb72c"},"vehicle_type_id":"4","last_reported":1745168951,"current_range_meters":6400,"station_id":"ce4bgup2rcd13ifvqcn0","pricing_plan_id":"cebpf4jnsgd1na2vs0mg"},{"bike_id":"05784f23-4d50-4263-987a-f8feea46a12a","system_id":"levelo_inurba_marseille","lat":43.30141,"lon":5.38064,"is_reserved":false,"is_disabled":false,"rental_uris":{"android":"levelo://app?vid=05784f23-4d50-4263-987a-f8feea46a12a","ios":"levelo://app?vid=05784f23-4d50-4263-987a-f8feea46a12a"},"vehicle_type_id":"4","last_reported":1745168951,"current_range_meters":6400,"station_id":"ce4bgjp2rcd13ifvqbh0","pricing_plan_id":"cebpf4jnsgd1na2vs0mg"},{"bike_id":"3d519b31-0802-4f2d-bd12-c39ce281211a","system_id":"levelo_inurba_marseille","lat":43.30138,"lon":5.37425,"is_reserved":false,"is_disabled":false,"rental_uris":{"android":"levelo://app?vid=3d519b31-0802-4f2d-bd12-c39ce281211a","ios":"levelo://app?vid=3d519b31-0802-4f2d-bd12-c39ce281211a"},"vehicle_type_id":"4","last_reported":1745168951,"current_range_meters":6400,"station_id":"ce4bgs92rcd13ifvqcc0","pricing_plan_id":"cebpf4jnsgd1na2vs0mg"},{"bike_id":"9cc50f6b-f375-47a8-822f-265c9a12c5e6","system_id":"levelo_inurba_marseille","lat":43.2439,"lon":5.37062,"is_reserved":false,"is_disabled":false,"rental_uris":{"android":"levelo://app?vid=9cc50f6b-f375-47a8-822f-265c9a12c5e6","ios":"levelo://app?vid=9cc50f6b-f375-47a8-822f-265c9a12c5e6"},"vehicle_type_id":"4","last_reported":1745168951,"current_range_meters":6400,"station_id":"ce4bhhh2rcd13ifvqfk0","pricing_plan_id":"cebpf4jnsgd1na2vs0mg"},{"bike_id":"ed31bf60-28a9-4aa9-b1aa-0dafeec55598","system_id":"levelo_inurba_marseille","lat":43.27372,"lon":5.3627,"is_reserved":false,"is_disabled":false,"rental_uris":{"android":"levelo://app?vid=ed31bf60-28a9-4aa9-b1aa-0dafeec55598","ios":"levelo://app?vid=ed31bf60-28a9-4aa9-b1aa-0dafeec55598"},"vehicle_type_id":"4","last_reported":1745168951,"current_range_meters":6800,"station_id":"ce4bhbh2rcd13ifvqeo0","pricing_plan_id":"cebpf4jnsgd1na2vs0mg"},{"bike_id":"94c39d95-7e96-46ab-835f-61023b3119ae","system_id":"levelo_inurba_marseille","lat":43.28262,"lon":5.35069,"is_reserved":false,"is_disabled":false,"rental_uris":{"android":"levelo://app?vid=94c39d95-7e96-46ab-835f-61023b3119ae","ios":"levelo://app?vid=94c39d95-7e96-46ab-835f-61023b3119ae"},"vehicle_type_id":"4","last_reported":1745168951,"current_range_meters":6800,"station_id":"ce4bhbp2rcd13ifvqerg","pricing_plan_id":"cebpf4jnsgd1na2vs0mg"},{"bike_id":"1965f819-3778-4654-96e5-aaaf9c36cc08","system_id":"levelo_inurba_marseille","lat":43.30376,"lon":5.42485,"is_reserved":false,"is_disabled":true,"rental_uris":{"android":"levelo://app?vid=1965f819-3778-4654-96e5-aaaf9c36cc08","ios":"levelo://app?vid=1965f819-3778-4654-96e5-aaaf9c36cc08"},"vehicle_type_id":"4","last_reported":1745168951,"current_range_meters":6800,"station_id":"ce4bhoh2rcd13ifvqh6g","pricing_plan_id":"cebpf4jnsgd1na2vs0mg"},{"bike_id":"358e1f20-d875-48ca-9d8c-02d4bc4fc797","system_id":"levelo_inurba_marseille","lat":43.33728,"lon":5.39147,"is_reserved":false,"is_disabled":false,"rental_uris":{"android":"levelo://app?vid=358e1f20-d875-48ca-9d8c-02d4bc4fc797","ios":"levelo://app?vid=358e1f20-d875-48ca-9d8c-02d4bc4fc797"},"vehicle_type_id":"4","last_reported":1745168951,"current_range_meters":6800,"station_id":"ce4bhr92rcd13ifvqhsg","pricing_plan_id":"cebpf4jnsgd1na2vs0mg"},{"bike_id":"2ba8c5c4-f0af-4f23-add7-feee032d7669","system_id":"levelo_inurba_marseille","lat":43.28279,"lon":5.35062,"is_reserved":false,"is_disabled":false,"rental_uris":{"android":"levelo://app?vid=2ba8c5c4-f0af-4f23-add7-feee032d7669","ios":"levelo://app?vid=2ba8c5c4-f0af-4f23-add7-feee032d7669"},"vehicle_type_id":"4","last_reported":1745168951,"current_range_meters":6800,"station_id":"ce4bhbp2rcd13ifvqerg","pricing_plan_id":"cebpf4jnsgd1na2vs0mg"},{"bike_id":"ab5351ec-6bff-49ef-9704-f3b2d8740e3e","system_id":"levelo_inurba_marseille","lat":43.2621,"lon":5.37443,"is_reserved":false,"is_disabled":false,"rental_uris":{"android":"levelo://app?vid=ab5351ec-6bff-49ef-9704-f3b2d8740e3e","ios":"levelo://app?vid=ab5351ec-6bff-49ef-9704-f3b2d8740e3e"},"vehicle_type_id":"4","last_reported":1745168951,"current_range_meters":6800,"station_id":"ce4bhgp2rcd13ifvqfc0","pricing_plan_id":"cebpf4jnsgd1na2vs0mg"},{"bike_id":"6559a3a5-761f-4b5a-8a3d-756a64e4e351","system_id":"levelo_inurba_marseille","lat":43.296199,"lon":5.371684,"is_reserved":false,"is_disabled":false,"rental_uris":{"android":"levelo://app?vid=6559a3a5-761f-4b5a-8a3d-756a64e4e351","ios":"levelo://app?vid=6559a3a5-761f-4b5a-8a3d-756a64e4e351"},"vehicle_type_id":"4","last_reported":1745168951,"current_range_meters":7200,"station_id":"ce4bgnh2rcd13ifvqc0g","pricing_plan_id":"cebpf4jnsgd1na2vs0mg"},{"bike_id":"c99d6d0a-da60-4c6c-9d5c-47e7703f034d","system_id":"levelo_inurba_marseille","lat":43.24801,"lon":5.374543,"is_reserved":false,"is_disabled":false,"rental_uris":{"android":"levelo://app?vid=c99d6d0a-da60-4c6c-9d5c-47e7703f034d","ios":"levelo://app?vid=c99d6d0a-da60-4c6c-9d5c-47e7703f034d"},"vehicle_type_id":"4","last_reported":1745168951,"current_range_meters":6800,"station_id":"ce4bhgh2rcd13ifvqfb0","pricing_plan_id":"cebpf4jnsgd1na2vs0mg"},{"bike_id":"bdb0af5e-f1a4-4b4a-831e-019f5c36e387","system_id":"levelo_inurba_marseille","lat":43.29029,"lon":5.35617,"is_reserved":false,"is_disabled":true,"rental_uris":{"android":"levelo://app?vid=bdb0af5e-f1a4-4b4a-831e-019f5c36e387","ios":"levelo://app?vid=bdb0af5e-f1a4-4b4a-831e-019f5c36e387"},"vehicle_type_id":"4","last_reported":1745168951,"current_range_meters":7200,"station_id":"ce4bhb92rcd13ifvqen0","pricing_plan_id":"cebpf4jnsgd1na2vs0mg"},{"bike_id":"6b2a2f68-fd74-4a24-a495-23dd8d3467f4","system_id":"levelo_inurba_marseille","lat":43.21191,"lon":5.35071,"is_reserved":false,"is_disabled":false,"rental_uris":{"android":"levelo://app?vid=6b2a2f68-fd74-4a24-a495-23dd8d3467f4","ios":"levelo://app?vid=6b2a2f68-fd74-4a24-a495-23dd8d3467f4"},"vehicle_type_id":"4","last_reported":1745168951,"current_range_meters":7200,"station_id":"st_cvj6sg6p6f1abm77japg","pricing_plan_id":"cebpf4jnsgd1na2vs0mg"},{"bike_id":"e73f0ff8-cc5a-4d1e-9b7a-eb3703588523","system_id":"levelo_inurba_marseille","lat":43.22928,"lon":5.3538,"is_reserved":false,"is_disabled":false,"rental_uris":{"android":"levelo://app?vid=e73f0ff8-cc5a-4d1e-9b7a-eb3703588523","ios":"levelo://app?vid=e73f0ff8-cc5a-4d1e-9b7a-eb3703588523"},"vehicle_type_id":"4","last_reported":1745168951,"current_range_meters":7200,"station_id":"cpo3532slgdg3j2ikp40","pricing_plan_id":"cebpf4jnsgd1na2vs0mg"},{"bike_id":"967fc5c2-2d8c-40dc-b0d8-39b0debd9469","system_id":"levelo_inurba_marseille","lat":43.230655,"lon":5.35489,"is_reserved":false,"is_disabled":false,"rental_uris":{"android":"levelo://app?vid=967fc5c2-2d8c-40dc-b0d8-39b0debd9469","ios":"levelo://app?vid=967fc5c2-2d8c-40dc-b0d8-39b0debd9469"},"vehicle_type_id":"4","last_reported":1745168951,"current_range_meters":7200,"station_id":"","pricing_plan_id":"cebpf4jnsgd1na2vs0mg"},{"bike_id":"12208f03-26c8-4bfd-ad9d-247900e123e8","system_id":"levelo_inurba_marseille","lat":43.31484,"lon":5.37311,"is_reserved":false,"is_disabled":false,"rental_uris":{"android":"levelo://app?vid=12208f03-26c8-4bfd-ad9d-247900e123e8","ios":"levelo://app?vid=12208f03-26c8-4bfd-ad9d-247900e123e8"},"vehicle_type_id":"4","last_reported":1745168951,"current_range_meters":7200,"station_id":"ce4bgt12rcd13ifvqcd0","pricing_plan_id":"cebpf4jnsgd1na2vs0mg"},{"bike_id":"7a8c5646-bd66-4cf7-abf9-1df2cd7c7beb","system_id":"levelo_inurba_marseille","lat":43.295013,"lon":5.400707,"is_reserved":false,"is_disabled":false,"rental_uris":{"android":"levelo://app?vid=7a8c5646-bd66-4cf7-abf9-1df2cd7c7beb","ios":"levelo://app?vid=7a8c5646-bd66-4cf7-abf9-1df2cd7c7beb"},"vehicle_type_id":"4","last_reported":1745168951,"current_range_meters":7200,"station_id":"cjm6bp8fraef2m0cb0m0","pricing_plan_id":"cebpf4jnsgd1na2vs0mg"},{"bike_id":"8dcdbddf-c32e-4b31-8e8c-b20dbb5dcd33","system_id":"levelo_inurba_marseille","lat":43.2794,"lon":5.41055,"is_reserved":false,"is_disabled":false,"rental_uris":{"android":"levelo://app?vid=8dcdbddf-c32e-4b31-8e8c-b20dbb5dcd33","ios":"levelo://app?vid=8dcdbddf-c32e-4b31-8e8c-b20dbb5dcd33"},"vehicle_type_id":"4","last_reported":1745168951,"current_range_meters":7200,"station_id":"ce4bhnp2rcd13ifvqh0g","pricing_plan_id":"cebpf4jnsgd1na2vs0mg"},{"bike_id":"0d21f9f9-922e-4003-8dc4-8224af9ef712","system_id":"levelo_inurba_marseille","lat":43.32623,"lon":5.35888,"is_reserved":false,"is_disabled":true,"rental_uris":{"android":"levelo://app?vid=0d21f9f9-922e-4003-8dc4-8224af9ef712","ios":"levelo://app?vid=0d21f9f9-922e-4003-8dc4-8224af9ef712"},"vehicle_type_id":"4","last_reported":1745168951,"current_range_meters":7200,"station_id":"","pricing_plan_id":"cebpf4jnsgd1na2vs0mg"},{"bike_id":"a969d1ed-77d3-4189-b5a7-0bf8cf90d349","system_id":"levelo_inurba_marseille","lat":43.23196,"lon":5.35558,"is_reserved":false,"is_disabled":false,"rental_uris":{"android":"levelo://app?vid=a969d1ed-77d3-4189-b5a7-0bf8cf90d349","ios":"levelo://app?vid=a969d1ed-77d3-4189-b5a7-0bf8cf90d349"},"vehicle_type_id":"4","last_reported":1745168951,"current_range_meters":7200,"station_id":"ce4bhu92rcd13ifvqi70","pricing_plan_id":"cebpf4jnsgd1na2vs0mg"},{"bike_id":"931800f0-f5ae-42dc-9401-5ef75e1edc12","system_id":"levelo_inurba_marseille","lat":43.2739,"lon":5.41394,"is_reserved":false,"is_disabled":false,"rental_uris":{"android":"levelo://app?vid=931800f0-f5ae-42dc-9401-5ef75e1edc12","ios":"levelo://app?vid=931800f0-f5ae-42dc-9401-5ef75e1edc12"},"vehicle_type_id":"4","last_reported":1745168951,"current_range_meters":7200,"station_id":"","pricing_plan_id":"cebpf4jnsgd1na2vs0mg"},{"bike_id":"c8ea7734-1cbc-4169-93c3-ceac446c4b0b","system_id":"levelo_inurba_marseille","lat":43.29931,"lon":5.36562,"is_reserved":false,"is_disabled":false,"rental_uris":{"android":"levelo://app?vid=c8ea7734-1cbc-4169-93c3-ceac446c4b0b","ios":"levelo://app?vid=c8ea7734-1cbc-4169-93c3-ceac446c4b0b"},"vehicle_type_id":"4","last_reported":1745168951,"current_range_meters":7200,"station_id":"ce4bgm92rcd13ifvqbr0","pricing_plan_id":"cebpf4jnsgd1na2vs0mg"},{"bike_id":"8add90be-7694-4829-ba13-0c5919aef581","system_id":"levelo_inurba_marseille","lat":43.29577,"lon":5.37319,"is_reserved":false,"is_disabled":false,"rental_uris":{"android":"levelo://app?vid=8add90be-7694-4829-ba13-0c5919aef581","ios":"levelo://app?vid=8add90be-7694-4829-ba13-0c5919aef581"},"vehicle_type_id":"4","last_reported":1745168951,"current_range_meters":8000,"station_id":"","pricing_plan_id":"cebpf4jnsgd1na2vs0mg"},{"bike_id":"8316f6f2-e0a6-4d9a-99ea-972a83d13ee5","system_id":"levelo_inurba_marseille","lat":43.31221,"lon":5.36861,"is_reserved":false,"is_disabled":false,"rental_uris":{"android":"levelo://app?vid=8316f6f2-e0a6-4d9a-99ea-972a83d13ee5","ios":"levelo://app?vid=8316f6f2-e0a6-4d9a-99ea-972a83d13ee5"},"vehicle_type_id":"4","last_reported":1745168951,"current_range_meters":7200,"station_id":"ce4bgl92rcd13ifvqbq0","pricing_plan_id":"cebpf4jnsgd1na2vs0mg"},{"bike_id":"e615da78-9952-4477-8177-8ab98ea5d34f","system_id":"levelo_inurba_marseille","lat":43.27498,"lon":5.42448,"is_reserved":false,"is_disabled":false,"rental_uris":{"android":"levelo://app?vid=e615da78-9952-4477-8177-8ab98ea5d34f","ios":"levelo://app?vid=e615da78-9952-4477-8177-8ab98ea5d34f"},"vehicle_type_id":"4","last_reported":1745168951,"current_range_meters":8000,"station_id":"ce4bhn92rcd13ifvqgrg","pricing_plan_id":"cebpf4jnsgd1na2vs0mg"},{"bike_id":"7d3113bb-ad0f-4c07-89e6-dd8585f5c0ef","system_id":"levelo_inurba_marseille","lat":43.27847,"lon":5.39218,"is_reserved":false,"is_disabled":false,"rental_uris":{"android":"levelo://app?vid=7d3113bb-ad0f-4c07-89e6-dd8585f5c0ef","ios":"levelo://app?vid=7d3113bb-ad0f-4c07-89e6-dd8585f5c0ef"},"vehicle_type_id":"4","last_reported":1745168951,"current_range_meters":7200,"station_id":"ce4bhjp2rcd13ifvqga0","pricing_plan_id":"cebpf4jnsgd1na2vs0mg"},{"bike_id":"97e50bb0-9a70-481b-b370-e509345e710a","system_id":"levelo_inurba_marseille","lat":43.28075,"lon":5.3696,"is_reserved":false,"is_disabled":true,"rental_uris":{"android":"levelo://app?vid=97e50bb0-9a70-481b-b370-e509345e710a","ios":"levelo://app?vid=97e50bb0-9a70-481b-b370-e509345e710a"},"vehicle_type_id":"4","last_reported":1745168951,"current_range_meters":8400,"station_id":"ce4bha12rcd13ifvqef0","pricing_plan_id":"cebpf4jnsgd1na2vs0mg"},{"bike_id":"e1f73e8b-98fe-43c0-9684-e0c282e2d57e","system_id":"levelo_inurba_marseille","lat":43.26806,"lon":5.40246,"is_reserved":false,"is_disabled":false,"rental_uris":{"android":"levelo://app?vid=e1f73e8b-98fe-43c0-9684-e0c282e2d57e","ios":"levelo://app?vid=e1f73e8b-98fe-43c0-9684-e0c282e2d57e"},"vehicle_type_id":"4","last_reported":1745168951,"current_range_meters":8400,"station_id":"ce501612rcd8frsf0b60","pricing_plan_id":"cebpf4jnsgd1na2vs0mg"},{"bike_id":"ab9be9a2-b412-4e12-b774-0ac14e1c75f2","system_id":"levelo_inurba_marseille","lat":43.232,"lon":5.35566,"is_reserved":false,"is_disabled":false,"rental_uris":{"android":"levelo://app?vid=ab9be9a2-b412-4e12-b774-0ac14e1c75f2","ios":"levelo://app?vid=ab9be9a2-b412-4e12-b774-0ac14e1c75f2"},"vehicle_type_id":"4","last_reported":1745168951,"current_range_meters":8400,"station_id":"ce4bhu92rcd13ifvqi70","pricing_plan_id":"cebpf4jnsgd1na2vs0mg"},{"bike_id":"da293ca4-8418-4e34-8364-ccd5e8981abf","system_id":"levelo_inurba_marseille","lat":43.30588,"lon":5.39359,"is_reserved":false,"is_disabled":false,"rental_uris":{"android":"levelo://app?vid=da293ca4-8418-4e34-8364-ccd5e8981abf","ios":"levelo://app?vid=da293ca4-8418-4e34-8364-ccd5e8981abf"},"vehicle_type_id":"4","last_reported":1745168951,"current_range_meters":8400,"station_id":"ce4bh0p2rcd13ifvqd80","pricing_plan_id":"cebpf4jnsgd1na2vs0mg"},{"bike_id":"bcf4f6f1-bb31-4808-9377-51e336cf2c27","system_id":"levelo_inurba_marseille","lat":43.31537,"lon":5.38021,"is_reserved":false,"is_disabled":false,"rental_uris":{"android":"levelo://app?vid=bcf4f6f1-bb31-4808-9377-51e336cf2c27","ios":"levelo://app?vid=bcf4f6f1-bb31-4808-9377-51e336cf2c27"},"vehicle_type_id":"4","last_reported":1745168951,"current_range_meters":8400,"station_id":"ce4bhsp2rcd13ifvqi50","pricing_plan_id":"cebpf4jnsgd1na2vs0mg"},{"bike_id":"24213b37-b766-4d9c-a174-f6bf34920497","system_id":"levelo_inurba_marseille","lat":43.28469,"lon":5.384178,"is_reserved":false,"is_disabled":false,"rental_uris":{"android":"levelo://app?vid=24213b37-b766-4d9c-a174-f6bf34920497","ios":"levelo://app?vid=24213b37-b766-4d9c-a174-f6bf34920497"},"vehicle_type_id":"4","last_reported":1745168951,"current_range_meters":8400,"station_id":"ce4bh512rcd13ifvqe3g","pricing_plan_id":"cebpf4jnsgd1na2vs0mg"},{"bike_id":"71c1fe07-bf11-4bd6-b7b7-0f4c1b1bb328","system_id":"levelo_inurba_marseille","lat":43.30125,"lon":5.3742,"is_reserved":false,"is_disabled":false,"rental_uris":{"android":"levelo://app?vid=71c1fe07-bf11-4bd6-b7b7-0f4c1b1bb328","ios":"levelo://app?vid=71c1fe07-bf11-4bd6-b7b7-0f4c1b1bb328"},"vehicle_type_id":"4","last_reported":1745168951,"current_range_meters":8000,"station_id":"ce4bgs92rcd13ifvqcc0","pricing_plan_id":"cebpf4jnsgd1na2vs0mg"},{"bike_id":"f0b6af0d-1cbf-47a3-af07-dab09fabbbf0","system_id":"levelo_inurba_marseille","lat":43.23211,"lon":5.35592,"is_reserved":false,"is_disabled":false,"rental_uris":{"android":"levelo://app?vid=f0b6af0d-1cbf-47a3-af07-dab09fabbbf0","ios":"levelo://app?vid=f0b6af0d-1cbf-47a3-af07-dab09fabbbf0"},"vehicle_type_id":"4","last_reported":1745168951,"current_range_meters":8400,"station_id":"ce4bhu92rcd13ifvqi70","pricing_plan_id":"cebpf4jnsgd1na2vs0mg"},{"bike_id":"aed4e185-4d0a-44f3-84c6-4171273a9f02","system_id":"levelo_inurba_marseille","lat":43.27444,"lon":5.39418,"is_reserved":false,"is_disabled":false,"rental_uris":{"android":"levelo://app?vid=aed4e185-4d0a-44f3-84c6-4171273a9f02","ios":"levelo://app?vid=aed4e185-4d0a-44f3-84c6-4171273a9f02"},"vehicle_type_id":"4","last_reported":1745168951,"current_range_meters":8000,"station_id":"ce4bhdp2rcd13ifvqf20","pricing_plan_id":"cebpf4jnsgd1na2vs0mg"},{"bike_id":"03e70e4e-a61b-479b-acae-6bc6e873e6f3","system_id":"levelo_inurba_marseille","lat":43.282717,"lon":5.35071,"is_reserved":false,"is_disabled":false,"rental_uris":{"android":"levelo://app?vid=03e70e4e-a61b-479b-acae-6bc6e873e6f3","ios":"levelo://app?vid=03e70e4e-a61b-479b-acae-6bc6e873e6f3"},"vehicle_type_id":"4","last_reported":1745168951,"current_range_meters":8400,"station_id":"ce4bhbp2rcd13ifvqerg","pricing_plan_id":"cebpf4jnsgd1na2vs0mg"},{"bike_id":"6565ca44-2e63-4f42-a847-09fa2bdb37f3","system_id":"levelo_inurba_marseille","lat":43.32006,"lon":5.38159,"is_reserved":false,"is_disabled":true,"rental_uris":{"android":"levelo://app?vid=6565ca44-2e63-4f42-a847-09fa2bdb37f3","ios":"levelo://app?vid=6565ca44-2e63-4f42-a847-09fa2bdb37f3"},"vehicle_type_id":"4","last_reported":1745168951,"current_range_meters":8400,"station_id":"ce4bhr12rcd13ifvqhpg","pricing_plan_id":"cebpf4jnsgd1na2vs0mg"},{"bike_id":"5701a54a-9200-4718-b54f-d20905005f5c","system_id":"levelo_inurba_marseille","lat":43.27064,"lon":5.42238,"is_reserved":false,"is_disabled":false,"rental_uris":{"android":"levelo://app?vid=5701a54a-9200-4718-b54f-d20905005f5c","ios":"levelo://app?vid=5701a54a-9200-4718-b54f-d20905005f5c"},"vehicle_type_id":"4","last_reported":1745168951,"current_range_meters":8400,"station_id":"ce4bhk92rcd13ifvqgb0","pricing_plan_id":"cebpf4jnsgd1na2vs0mg"},{"bike_id":"138d6608-886e-4863-a664-7df6e5cc9a47","system_id":"levelo_inurba_marseille","lat":43.32632,"lon":5.42209,"is_reserved":false,"is_disabled":false,"rental_uris":{"android":"levelo://app?vid=138d6608-886e-4863-a664-7df6e5cc9a47","ios":"levelo://app?vid=138d6608-886e-4863-a664-7df6e5cc9a47"},"vehicle_type_id":"4","last_reported":1745168951,"current_range_meters":8400,"station_id":"","pricing_plan_id":"cebpf4jnsgd1na2vs0mg"},{"bike_id":"36ac02ba-2835-48d7-9d54-047188b88f77","system_id":"levelo_inurba_marseille","lat":43.24155,"lon":5.39571,"is_reserved":false,"is_disabled":false,"rental_uris":{"android":"levelo://app?vid=36ac02ba-2835-48d7-9d54-047188b88f77","ios":"levelo://app?vid=36ac02ba-2835-48d7-9d54-047188b88f77"},"vehicle_type_id":"4","last_reported":1745168951,"current_range_meters":8800,"station_id":"","pricing_plan_id":"cebpf4jnsgd1na2vs0mg"},{"bike_id":"4ea5e1c8-0a6e-4e71-9f52-72b456ca9dd8","system_id":"levelo_inurba_marseille","lat":43.31165,"lon":5.38732,"is_reserved":false,"is_disabled":false,"rental_uris":{"android":"levelo://app?vid=4ea5e1c8-0a6e-4e71-9f52-72b456ca9dd8","ios":"levelo://app?vid=4ea5e1c8-0a6e-4e71-9f52-72b456ca9dd8"},"vehicle_type_id":"4","last_reported":1745168951,"current_range_meters":8800,"station_id":"ce4bgv12rcd13ifvqcp0","pricing_plan_id":"cebpf4jnsgd1na2vs0mg"},{"bike_id":"c4936e90-9940-44fc-83e1-6d26e800fcfe","system_id":"levelo_inurba_marseille","lat":43.24389,"lon":5.37064,"is_reserved":false,"is_disabled":false,"rental_uris":{"android":"levelo://app?vid=c4936e90-9940-44fc-83e1-6d26e800fcfe","ios":"levelo://app?vid=c4936e90-9940-44fc-83e1-6d26e800fcfe"},"vehicle_type_id":"4","last_reported":1745168951,"current_range_meters":8800,"station_id":"ce4bhhh2rcd13ifvqfk0","pricing_plan_id":"cebpf4jnsgd1na2vs0mg"},{"bike_id":"a1ff0eef-9aaa-4e1b-8b19-241778e780ca","system_id":"levelo_inurba_marseille","lat":43.30279,"lon":5.37719,"is_reserved":false,"is_disabled":false,"rental_uris":{"android":"levelo://app?vid=a1ff0eef-9aaa-4e1b-8b19-241778e780ca","ios":"levelo://app?vid=a1ff0eef-9aaa-4e1b-8b19-241778e780ca"},"vehicle_type_id":"4","last_reported":1745168951,"current_range_meters":8400,"station_id":"ce4bguh2rcd13ifvqcj0","pricing_plan_id":"cebpf4jnsgd1na2vs0mg"},{"bike_id":"5cd50da7-6df8-4ffd-ae8d-3e50804f5cfe","system_id":"levelo_inurba_marseille","lat":43.25143,"lon":5.40379,"is_reserved":false,"is_disabled":false,"rental_uris":{"android":"levelo://app?vid=5cd50da7-6df8-4ffd-ae8d-3e50804f5cfe","ios":"levelo://app?vid=5cd50da7-6df8-4ffd-ae8d-3e50804f5cfe"},"vehicle_type_id":"4","last_reported":1745168951,"current_range_meters":8800,"station_id":"ce4bhlh2rcd13ifvqgig","pricing_plan_id":"cebpf4jnsgd1na2vs0mg"},{"bike_id":"83737fdd-005d-403e-8fa2-1644fc83261a","system_id":"levelo_inurba_marseille","lat":43.30996,"lon":5.3901,"is_reserved":false,"is_disabled":false,"rental_uris":{"android":"levelo://app?vid=83737fdd-005d-403e-8fa2-1644fc83261a","ios":"levelo://app?vid=83737fdd-005d-403e-8fa2-1644fc83261a"},"vehicle_type_id":"4","last_reported":1745168951,"current_range_meters":8800,"station_id":"ce4bgup2rcd13ifvqco0","pricing_plan_id":"cebpf4jnsgd1na2vs0mg"},{"bike_id":"492f6549-4a64-41e2-9787-0f249692802a","system_id":"levelo_inurba_marseille","lat":43.24175,"lon":5.36395,"is_reserved":false,"is_disabled":false,"rental_uris":{"android":"levelo://app?vid=492f6549-4a64-41e2-9787-0f249692802a","ios":"levelo://app?vid=492f6549-4a64-41e2-9787-0f249692802a"},"vehicle_type_id":"4","last_reported":1745168951,"current_range_meters":8800,"station_id":"cpo36qri1sfpv3e86is0","pricing_plan_id":"cebpf4jnsgd1na2vs0mg"},{"bike_id":"70b6b29a-6d83-460b-bd27-e86a3209e93e","system_id":"levelo_inurba_marseille","lat":43.26551,"lon":5.37306,"is_reserved":false,"is_disabled":false,"rental_uris":{"android":"levelo://app?vid=70b6b29a-6d83-460b-bd27-e86a3209e93e","ios":"levelo://app?vid=70b6b29a-6d83-460b-bd27-e86a3209e93e"},"vehicle_type_id":"4","last_reported":1745168951,"current_range_meters":8800,"station_id":"ce4bhg12rcd13ifvqf70","pricing_plan_id":"cebpf4jnsgd1na2vs0mg"},{"bike_id":"31442925-6984-4a2d-aea5-6222013aa0eb","system_id":"levelo_inurba_marseille","lat":43.29221,"lon":5.36075,"is_reserved":false,"is_disabled":false,"rental_uris":{"android":"levelo://app?vid=31442925-6984-4a2d-aea5-6222013aa0eb","ios":"levelo://app?vid=31442925-6984-4a2d-aea5-6222013aa0eb"},"vehicle_type_id":"4","last_reported":1745168951,"current_range_meters":8800,"station_id":"ce4bhbh2rcd13ifvqeqg","pricing_plan_id":"cebpf4jnsgd1na2vs0mg"},{"bike_id":"0b3aa338-9ba6-4ebe-865a-ffd56c4145a7","system_id":"levelo_inurba_marseille","lat":43.30298,"lon":5.36936,"is_reserved":false,"is_disabled":false,"rental_uris":{"android":"levelo://app?vid=0b3aa338-9ba6-4ebe-865a-ffd56c4145a7","ios":"levelo://app?vid=0b3aa338-9ba6-4ebe-865a-ffd56c4145a7"},"vehicle_type_id":"4","last_reported":1745168951,"current_range_meters":8800,"station_id":"ce4bgqh2rcd13ifvqc5g","pricing_plan_id":"cebpf4jnsgd1na2vs0mg"},{"bike_id":"41c4635a-e85c-480e-b810-5614f9a0343d","system_id":"levelo_inurba_marseille","lat":43.21193,"lon":5.35073,"is_reserved":false,"is_disabled":false,"rental_uris":{"android":"levelo://app?vid=41c4635a-e85c-480e-b810-5614f9a0343d","ios":"levelo://app?vid=41c4635a-e85c-480e-b810-5614f9a0343d"},"vehicle_type_id":"4","last_reported":1745168951,"current_range_meters":8800,"station_id":"st_cvj6sg6p6f1abm77japg","pricing_plan_id":"cebpf4jnsgd1na2vs0mg"},{"bike_id":"d0395819-ea40-46d3-acfe-3a01d6c396c0","system_id":"levelo_inurba_marseille","lat":43.23185,"lon":5.40012,"is_reserved":false,"is_disabled":true,"rental_uris":{"android":"levelo://app?vid=d0395819-ea40-46d3-acfe-3a01d6c396c0","ios":"levelo://app?vid=d0395819-ea40-46d3-acfe-3a01d6c396c0"},"vehicle_type_id":"4","last_reported":1745168951,"current_range_meters":8800,"station_id":"ce4bhn12rcd13ifvqgqg","pricing_plan_id":"cebpf4jnsgd1na2vs0mg"},{"bike_id":"c5926f61-4f60-4410-ae2f-14f451e82fab","system_id":"levelo_inurba_marseille","lat":43.31207,"lon":5.36855,"is_reserved":false,"is_disabled":false,"rental_uris":{"android":"levelo://app?vid=c5926f61-4f60-4410-ae2f-14f451e82fab","ios":"levelo://app?vid=c5926f61-4f60-4410-ae2f-14f451e82fab"},"vehicle_type_id":"4","last_reported":1745168951,"current_range_meters":9200,"station_id":"ce4bgl92rcd13ifvqbq0","pricing_plan_id":"cebpf4jnsgd1na2vs0mg"},{"bike_id":"37b2cb7d-a6cb-427e-8346-dfc7edd45186","system_id":"levelo_inurba_marseille","lat":43.25112,"lon":5.40335,"is_reserved":false,"is_disabled":false,"rental_uris":{"android":"levelo://app?vid=37b2cb7d-a6cb-427e-8346-dfc7edd45186","ios":"levelo://app?vid=37b2cb7d-a6cb-427e-8346-dfc7edd45186"},"vehicle_type_id":"4","last_reported":1745168951,"current_range_meters":8800,"station_id":"ce4bhlh2rcd13ifvqgig","pricing_plan_id":"cebpf4jnsgd1na2vs0mg"},{"bike_id":"a68b344d-750f-41ec-9fa5-a59d40c33f04","system_id":"levelo_inurba_marseille","lat":43.29633,"lon":5.40605,"is_reserved":false,"is_disabled":false,"rental_uris":{"android":"levelo://app?vid=a68b344d-750f-41ec-9fa5-a59d40c33f04","ios":"levelo://app?vid=a68b344d-750f-41ec-9fa5-a59d40c33f04"},"vehicle_type_id":"4","last_reported":1745168951,"current_range_meters":9200,"station_id":"ce4bh0h2rcd13ifvqd60","pricing_plan_id":"cebpf4jnsgd1na2vs0mg"},{"bike_id":"527fac75-0783-4b2c-bd4e-07f2f2fee902","system_id":"levelo_inurba_marseille","lat":43.31184,"lon":5.37813,"is_reserved":false,"is_disabled":true,"rental_uris":{"android":"levelo://app?vid=527fac75-0783-4b2c-bd4e-07f2f2fee902","ios":"levelo://app?vid=527fac75-0783-4b2c-bd4e-07f2f2fee902"},"vehicle_type_id":"4","last_reported":1745168951,"current_range_meters":9200,"station_id":"","pricing_plan_id":"cebpf4jnsgd1na2vs0mg"},{"bike_id":"0f53fbd5-ec04-4f6e-b636-f4f22df31ee1","system_id":"levelo_inurba_marseille","lat":43.28423,"lon":5.37519,"is_reserved":false,"is_disabled":false,"rental_uris":{"android":"levelo://app?vid=0f53fbd5-ec04-4f6e-b636-f4f22df31ee1","ios":"levelo://app?vid=0f53fbd5-ec04-4f6e-b636-f4f22df31ee1"},"vehicle_type_id":"4","last_reported":1745168951,"current_range_meters":9200,"station_id":"ce4bh412rcd13ifvqds0","pricing_plan_id":"cebpf4jnsgd1na2vs0mg"},{"bike_id":"1b64a06c-8c3f-4044-b435-0c5447524fd5","system_id":"levelo_inurba_marseille","lat":43.28697,"lon":5.37356,"is_reserved":false,"is_disabled":true,"rental_uris":{"android":"levelo://app?vid=1b64a06c-8c3f-4044-b435-0c5447524fd5","ios":"levelo://app?vid=1b64a06c-8c3f-4044-b435-0c5447524fd5"},"vehicle_type_id":"4","last_reported":1745168951,"current_range_meters":9200,"station_id":"ce4bh3p2rcd13ifvqdq0","pricing_plan_id":"cebpf4jnsgd1na2vs0mg"},{"bike_id":"1e32cf39-844e-498d-aa7b-56f551b6ebd6","system_id":"levelo_inurba_marseille","lat":43.24806,"lon":5.37462,"is_reserved":false,"is_disabled":false,"rental_uris":{"android":"levelo://app?vid=1e32cf39-844e-498d-aa7b-56f551b6ebd6","ios":"levelo://app?vid=1e32cf39-844e-498d-aa7b-56f551b6ebd6"},"vehicle_type_id":"4","last_reported":1745168951,"current_range_meters":8800,"station_id":"ce4bhgh2rcd13ifvqfb0","pricing_plan_id":"cebpf4jnsgd1na2vs0mg"},{"bike_id":"59920627-0555-4363-821e-b8afe90101c5","system_id":"levelo_inurba_marseille","lat":43.30197,"lon":5.36622,"is_reserved":false,"is_disabled":false,"rental_uris":{"android":"levelo://app?vid=59920627-0555-4363-821e-b8afe90101c5","ios":"levelo://app?vid=59920627-0555-4363-821e-b8afe90101c5"},"vehicle_type_id":"4","last_reported":1745168951,"current_range_meters":9200,"station_id":"ce4bgrh2rcd13ifvqc8g","pricing_plan_id":"cebpf4jnsgd1na2vs0mg"},{"bike_id":"4e6892ef-dbe3-43e4-bc69-b2da5d802c90","system_id":"levelo_inurba_marseille","lat":43.2743,"lon":5.36239,"is_reserved":false,"is_disabled":true,"rental_uris":{"android":"levelo://app?vid=4e6892ef-dbe3-43e4-bc69-b2da5d802c90","ios":"levelo://app?vid=4e6892ef-dbe3-43e4-bc69-b2da5d802c90"},"vehicle_type_id":"4","last_reported":1745168951,"current_range_meters":9600,"station_id":"","pricing_plan_id":"cebpf4jnsgd1na2vs0mg"},{"bike_id":"c6eb518d-f8e2-4c5c-8098-b5d751548fcd","system_id":"levelo_inurba_marseille","lat":43.25927,"lon":5.40858,"is_reserved":false,"is_disabled":false,"rental_uris":{"android":"levelo://app?vid=c6eb518d-f8e2-4c5c-8098-b5d751548fcd","ios":"levelo://app?vid=c6eb518d-f8e2-4c5c-8098-b5d751548fcd"},"vehicle_type_id":"4","last_reported":1745168951,"current_range_meters":9600,"station_id":"ce4bhm92rcd13ifvqglg","pricing_plan_id":"cebpf4jnsgd1na2vs0mg"},{"bike_id":"c4ee0169-e29e-458f-9897-363ed784ce5a","system_id":"levelo_inurba_marseille","lat":43.29227,"lon":5.36065,"is_reserved":false,"is_disabled":false,"rental_uris":{"android":"levelo://app?vid=c4ee0169-e29e-458f-9897-363ed784ce5a","ios":"levelo://app?vid=c4ee0169-e29e-458f-9897-363ed784ce5a"},"vehicle_type_id":"4","last_reported":1745168951,"current_range_meters":9600,"station_id":"ce4bhbh2rcd13ifvqeqg","pricing_plan_id":"cebpf4jnsgd1na2vs0mg"},{"bike_id":"8287ca28-f979-4495-a26e-7f6364d95015","system_id":"levelo_inurba_marseille","lat":43.2905,"lon":5.35923,"is_reserved":false,"is_disabled":false,"rental_uris":{"android":"levelo://app?vid=8287ca28-f979-4495-a26e-7f6364d95015","ios":"levelo://app?vid=8287ca28-f979-4495-a26e-7f6364d95015"},"vehicle_type_id":"4","last_reported":1745168951,"current_range_meters":9200,"station_id":"ce4bha92rcd13ifvqeg0","pricing_plan_id":"cebpf4jnsgd1na2vs0mg"},{"bike_id":"5e291437-1e27-4911-91b5-49043de1898b","system_id":"levelo_inurba_marseille","lat":43.29288,"lon":5.38215,"is_reserved":false,"is_disabled":false,"rental_uris":{"android":"levelo://app?vid=5e291437-1e27-4911-91b5-49043de1898b","ios":"levelo://app?vid=5e291437-1e27-4911-91b5-49043de1898b"},"vehicle_type_id":"4","last_reported":1745168951,"current_range_meters":9600,"station_id":"","pricing_plan_id":"cebpf4jnsgd1na2vs0mg"},{"bike_id":"e98b2de9-4b5e-4146-966d-0a544277eee9","system_id":"levelo_inurba_marseille","lat":43.27377,"lon":5.362582,"is_reserved":false,"is_disabled":false,"rental_uris":{"android":"levelo://app?vid=e98b2de9-4b5e-4146-966d-0a544277eee9","ios":"levelo://app?vid=e98b2de9-4b5e-4146-966d-0a544277eee9"},"vehicle_type_id":"4","last_reported":1745168951,"current_range_meters":9600,"station_id":"ce4bhbh2rcd13ifvqeo0","pricing_plan_id":"cebpf4jnsgd1na2vs0mg"},{"bike_id":"1886fb80-2895-40f7-844d-7933f5d904dc","system_id":"levelo_inurba_marseille","lat":43.27899,"lon":5.39303,"is_reserved":false,"is_disabled":false,"rental_uris":{"android":"levelo://app?vid=1886fb80-2895-40f7-844d-7933f5d904dc","ios":"levelo://app?vid=1886fb80-2895-40f7-844d-7933f5d904dc"},"vehicle_type_id":"4","last_reported":1745168951,"current_range_meters":9600,"station_id":"","pricing_plan_id":"cebpf4jnsgd1na2vs0mg"},{"bike_id":"b071a2bd-30fa-41be-88b6-3915d5e28825","system_id":"levelo_inurba_marseille","lat":43.25577,"lon":5.38228,"is_reserved":false,"is_disabled":false,"rental_uris":{"android":"levelo://app?vid=b071a2bd-30fa-41be-88b6-3915d5e28825","ios":"levelo://app?vid=b071a2bd-30fa-41be-88b6-3915d5e28825"},"vehicle_type_id":"4","last_reported":1745168951,"current_range_meters":9600,"station_id":"ce4bhih2rcd13ifvqfs0","pricing_plan_id":"cebpf4jnsgd1na2vs0mg"},{"bike_id":"6276c712-dc71-4137-9a44-e63299fa20b2","system_id":"levelo_inurba_marseille","lat":43.32707,"lon":5.35918,"is_reserved":false,"is_disabled":false,"rental_uris":{"android":"levelo://app?vid=6276c712-dc71-4137-9a44-e63299fa20b2","ios":"levelo://app?vid=6276c712-dc71-4137-9a44-e63299fa20b2"},"vehicle_type_id":"4","last_reported":1745168951,"current_range_meters":10000,"station_id":"","pricing_plan_id":"cebpf4jnsgd1na2vs0mg"},{"bike_id":"2e1d883a-8a08-4818-9408-790a0c154ec0","system_id":"levelo_inurba_marseille","lat":43.29574,"lon":5.39964,"is_reserved":false,"is_disabled":false,"rental_uris":{"android":"levelo://app?vid=2e1d883a-8a08-4818-9408-790a0c154ec0","ios":"levelo://app?vid=2e1d883a-8a08-4818-9408-790a0c154ec0"},"vehicle_type_id":"4","last_reported":1745168951,"current_range_meters":10000,"station_id":"ce4bh312rcd13ifvqdj0","pricing_plan_id":"cebpf4jnsgd1na2vs0mg"},{"bike_id":"d8754dce-3ce6-4f68-ba47-f64cfc8b26ab","system_id":"levelo_inurba_marseille","lat":43.23181,"lon":5.35564,"is_reserved":false,"is_disabled":false,"rental_uris":{"android":"levelo://app?vid=d8754dce-3ce6-4f68-ba47-f64cfc8b26ab","ios":"levelo://app?vid=d8754dce-3ce6-4f68-ba47-f64cfc8b26ab"},"vehicle_type_id":"4","last_reported":1745168951,"current_range_meters":10000,"station_id":"ce4bhu92rcd13ifvqi70","pricing_plan_id":"cebpf4jnsgd1na2vs0mg"},{"bike_id":"33399c5a-7b71-4ae2-a964-55b2f2e618d0","system_id":"levelo_inurba_marseille","lat":43.3023,"lon":5.36569,"is_reserved":false,"is_disabled":true,"rental_uris":{"android":"levelo://app?vid=33399c5a-7b71-4ae2-a964-55b2f2e618d0","ios":"levelo://app?vid=33399c5a-7b71-4ae2-a964-55b2f2e618d0"},"vehicle_type_id":"4","last_reported":1745168951,"current_range_meters":10000,"station_id":"","pricing_plan_id":"cebpf4jnsgd1na2vs0mg"},{"bike_id":"3c1efcd4-6809-4eb5-9141-23137bcde7b5","system_id":"levelo_inurba_marseille","lat":43.25491,"lon":5.37651,"is_reserved":false,"is_disabled":false,"rental_uris":{"android":"levelo://app?vid=3c1efcd4-6809-4eb5-9141-23137bcde7b5","ios":"levelo://app?vid=3c1efcd4-6809-4eb5-9141-23137bcde7b5"},"vehicle_type_id":"4","last_reported":1745168951,"current_range_meters":10000,"station_id":"ce4bhh12rcd13ifvqff0","pricing_plan_id":"cebpf4jnsgd1na2vs0mg"},{"bike_id":"6019b3a9-be6c-4063-92bb-dfdce576086f","system_id":"levelo_inurba_marseille","lat":43.23075,"lon":5.3547,"is_reserved":false,"is_disabled":false,"rental_uris":{"android":"levelo://app?vid=6019b3a9-be6c-4063-92bb-dfdce576086f","ios":"levelo://app?vid=6019b3a9-be6c-4063-92bb-dfdce576086f"},"vehicle_type_id":"4","last_reported":1745168951,"current_range_meters":10000,"station_id":"cpo3342slgdg3j2ifvpg","pricing_plan_id":"cebpf4jnsgd1na2vs0mg"},{"bike_id":"f2ae5317-11b2-4667-9640-53d247540052","system_id":"levelo_inurba_marseille","lat":43.29958,"lon":5.36553,"is_reserved":false,"is_disabled":false,"rental_uris":{"android":"levelo://app?vid=f2ae5317-11b2-4667-9640-53d247540052","ios":"levelo://app?vid=f2ae5317-11b2-4667-9640-53d247540052"},"vehicle_type_id":"4","last_reported":1745168951,"current_range_meters":10800,"station_id":"ce4bgm92rcd13ifvqbr0","pricing_plan_id":"cebpf4jnsgd1na2vs0mg"},{"bike_id":"09cd3403-18db-4b98-ae70-ec85a6682f80","system_id":"levelo_inurba_marseille","lat":43.32457,"lon":5.36617,"is_reserved":false,"is_disabled":false,"rental_uris":{"android":"levelo://app?vid=09cd3403-18db-4b98-ae70-ec85a6682f80","ios":"levelo://app?vid=09cd3403-18db-4b98-ae70-ec85a6682f80"},"vehicle_type_id":"4","last_reported":1745168951,"current_range_meters":10800,"station_id":"ce4bhs12rcd13ifvqhvg","pricing_plan_id":"cebpf4jnsgd1na2vs0mg"},{"bike_id":"d177bdcb-ba4d-4c2e-8899-f6b0f9af395c","system_id":"levelo_inurba_marseille","lat":43.25933,"lon":5.40863,"is_reserved":false,"is_disabled":false,"rental_uris":{"android":"levelo://app?vid=d177bdcb-ba4d-4c2e-8899-f6b0f9af395c","ios":"levelo://app?vid=d177bdcb-ba4d-4c2e-8899-f6b0f9af395c"},"vehicle_type_id":"4","last_reported":1745168951,"current_range_meters":10800,"station_id":"ce4bhm92rcd13ifvqglg","pricing_plan_id":"cebpf4jnsgd1na2vs0mg"},{"bike_id":"a221bee6-edd2-4ae7-82d6-3eb4d1bada6b","system_id":"levelo_inurba_marseille","lat":43.29969,"lon":5.38493,"is_reserved":false,"is_disabled":false,"rental_uris":{"android":"levelo://app?vid=a221bee6-edd2-4ae7-82d6-3eb4d1bada6b","ios":"levelo://app?vid=a221bee6-edd2-4ae7-82d6-3eb4d1bada6b"},"vehicle_type_id":"4","last_reported":1745168951,"current_range_meters":10800,"station_id":"ce4bgj92rcd13ifvqbd0","pricing_plan_id":"cebpf4jnsgd1na2vs0mg"},{"bike_id":"c26905d0-e3e7-4d03-ae5f-7dcb57c4b1d3","system_id":"levelo_inurba_marseille","lat":43.28724,"lon":5.37942,"is_reserved":false,"is_disabled":false,"rental_uris":{"android":"levelo://app?vid=c26905d0-e3e7-4d03-ae5f-7dcb57c4b1d3","ios":"levelo://app?vid=c26905d0-e3e7-4d03-ae5f-7dcb57c4b1d3"},"vehicle_type_id":"4","last_reported":1745168951,"current_range_meters":10000,"station_id":"ce4bh9p2rcd13ifvqec0","pricing_plan_id":"cebpf4jnsgd1na2vs0mg"},{"bike_id":"cc4e8daf-8846-4035-942b-a36b9137d061","system_id":"levelo_inurba_marseille","lat":43.25497,"lon":5.3766,"is_reserved":false,"is_disabled":true,"rental_uris":{"android":"levelo://app?vid=cc4e8daf-8846-4035-942b-a36b9137d061","ios":"levelo://app?vid=cc4e8daf-8846-4035-942b-a36b9137d061"},"vehicle_type_id":"4","last_reported":1745168951,"current_range_meters":10800,"station_id":"ce4bhh12rcd13ifvqff0","pricing_plan_id":"cebpf4jnsgd1na2vs0mg"},{"bike_id":"d5ef647d-00ca-43ce-8de2-a9826ded3f15","system_id":"levelo_inurba_marseille","lat":43.21197,"lon":5.35082,"is_reserved":false,"is_disabled":false,"rental_uris":{"android":"levelo://app?vid=d5ef647d-00ca-43ce-8de2-a9826ded3f15","ios":"levelo://app?vid=d5ef647d-00ca-43ce-8de2-a9826ded3f15"},"vehicle_type_id":"4","last_reported":1745168951,"current_range_meters":10800,"station_id":"st_cvj6sg6p6f1abm77japg","pricing_plan_id":"cebpf4jnsgd1na2vs0mg"},{"bike_id":"42f521f0-9d21-4bd3-8bd5-1eed49c40adb","system_id":"levelo_inurba_marseille","lat":43.27374,"lon":5.36247,"is_reserved":false,"is_disabled":false,"rental_uris":{"android":"levelo://app?vid=42f521f0-9d21-4bd3-8bd5-1eed49c40adb","ios":"levelo://app?vid=42f521f0-9d21-4bd3-8bd5-1eed49c40adb"},"vehicle_type_id":"4","last_reported":1745168951,"current_range_meters":18800,"station_id":"ce4bhbh2rcd13ifvqeo0","pricing_plan_id":"cebpf4jnsgd1na2vs0mg"},{"bike_id":"9d3ad93b-bc10-4cce-99a5-42053953bee4","system_id":"levelo_inurba_marseille","lat":43.28758,"lon":5.36108,"is_reserved":false,"is_disabled":false,"rental_uris":{"android":"levelo://app?vid=9d3ad93b-bc10-4cce-99a5-42053953bee4","ios":"levelo://app?vid=9d3ad93b-bc10-4cce-99a5-42053953bee4"},"vehicle_type_id":"4","last_reported":1745168951,"current_range_meters":10800,"station_id":"cki0cbj6b192h4jlfktg","pricing_plan_id":"cebpf4jnsgd1na2vs0mg"},{"bike_id":"4b931398-d05d-4fa7-bc5b-47b48064291a","system_id":"levelo_inurba_marseille","lat":43.277667,"lon":5.3566,"is_reserved":false,"is_disabled":false,"rental_uris":{"android":"levelo://app?vid=4b931398-d05d-4fa7-bc5b-47b48064291a","ios":"levelo://app?vid=4b931398-d05d-4fa7-bc5b-47b48064291a"},"vehicle_type_id":"4","last_reported":1745168951,"current_range_meters":10800,"station_id":"ce4bhah2rcd13ifvqej0","pricing_plan_id":"cebpf4jnsgd1na2vs0mg"},{"bike_id":"abaa6c02-33cf-42a6-a08c-13221a146fdf","system_id":"levelo_inurba_marseille","lat":43.3093,"lon":5.40141,"is_reserved":false,"is_disabled":false,"rental_uris":{"android":"levelo://app?vid=abaa6c02-33cf-42a6-a08c-13221a146fdf","ios":"levelo://app?vid=abaa6c02-33cf-42a6-a08c-13221a146fdf"},"vehicle_type_id":"4","last_reported":1745168951,"current_range_meters":10800,"station_id":"ce4bgvp2rcd13ifvqct0","pricing_plan_id":"cebpf4jnsgd1na2vs0mg"},{"bike_id":"54606581-36e1-4404-abae-cb9d5e3b4da3","system_id":"levelo_inurba_marseille","lat":43.25121,"lon":5.40317,"is_reserved":false,"is_disabled":false,"rental_uris":{"android":"levelo://app?vid=54606581-36e1-4404-abae-cb9d5e3b4da3","ios":"levelo://app?vid=54606581-36e1-4404-abae-cb9d5e3b4da3"},"vehicle_type_id":"4","last_reported":1745168951,"current_range_meters":11200,"station_id":"ce4bhlh2rcd13ifvqgig","pricing_plan_id":"cebpf4jnsgd1na2vs0mg"},{"bike_id":"3c68d4af-f244-4d5b-a673-170645748e37","system_id":"levelo_inurba_marseille","lat":43.27694,"lon":5.39791,"is_reserved":false,"is_disabled":false,"rental_uris":{"android":"levelo://app?vid=3c68d4af-f244-4d5b-a673-170645748e37","ios":"levelo://app?vid=3c68d4af-f244-4d5b-a673-170645748e37"},"vehicle_type_id":"4","last_reported":1745168951,"current_range_meters":11600,"station_id":"","pricing_plan_id":"cebpf4jnsgd1na2vs0mg"},{"bike_id":"37b5c873-ea0c-4b09-8cbb-10b313dd8324","system_id":"levelo_inurba_marseille","lat":43.23199,"lon":5.35551,"is_reserved":false,"is_disabled":false,"rental_uris":{"android":"levelo://app?vid=37b5c873-ea0c-4b09-8cbb-10b313dd8324","ios":"levelo://app?vid=37b5c873-ea0c-4b09-8cbb-10b313dd8324"},"vehicle_type_id":"4","last_reported":1745168951,"current_range_meters":11600,"station_id":"ce4bhu92rcd13ifvqi70","pricing_plan_id":"cebpf4jnsgd1na2vs0mg"},{"bike_id":"f6b06603-46d7-458b-9dc9-fbc0bce785af","system_id":"levelo_inurba_marseille","lat":43.2512,"lon":5.40338,"is_reserved":false,"is_disabled":false,"rental_uris":{"android":"levelo://app?vid=f6b06603-46d7-458b-9dc9-fbc0bce785af","ios":"levelo://app?vid=f6b06603-46d7-458b-9dc9-fbc0bce785af"},"vehicle_type_id":"4","last_reported":1745168951,"current_range_meters":11600,"station_id":"ce4bhlh2rcd13ifvqgig","pricing_plan_id":"cebpf4jnsgd1na2vs0mg"},{"bike_id":"84d244df-6a62-44d8-9cbd-16fcf9044eb7","system_id":"levelo_inurba_marseille","lat":43.28267,"lon":5.35065,"is_reserved":false,"is_disabled":false,"rental_uris":{"android":"levelo://app?vid=84d244df-6a62-44d8-9cbd-16fcf9044eb7","ios":"levelo://app?vid=84d244df-6a62-44d8-9cbd-16fcf9044eb7"},"vehicle_type_id":"4","last_reported":1745168951,"current_range_meters":12000,"station_id":"ce4bhbp2rcd13ifvqerg","pricing_plan_id":"cebpf4jnsgd1na2vs0mg"},{"bike_id":"1dd91935-0b4d-4f34-b1eb-a78d23daa2ff","system_id":"levelo_inurba_marseille","lat":43.27363,"lon":5.36243,"is_reserved":false,"is_disabled":false,"rental_uris":{"android":"levelo://app?vid=1dd91935-0b4d-4f34-b1eb-a78d23daa2ff","ios":"levelo://app?vid=1dd91935-0b4d-4f34-b1eb-a78d23daa2ff"},"vehicle_type_id":"4","last_reported":1745168951,"current_range_meters":11600,"station_id":"ce4bhbh2rcd13ifvqeo0","pricing_plan_id":"cebpf4jnsgd1na2vs0mg"},{"bike_id":"76678597-c23c-47ef-be2d-dc8ee6c4aa59","system_id":"levelo_inurba_marseille","lat":43.27503,"lon":5.4248,"is_reserved":false,"is_disabled":false,"rental_uris":{"android":"levelo://app?vid=76678597-c23c-47ef-be2d-dc8ee6c4aa59","ios":"levelo://app?vid=76678597-c23c-47ef-be2d-dc8ee6c4aa59"},"vehicle_type_id":"4","last_reported":1745168951,"current_range_meters":12000,"station_id":"ce4bhn92rcd13ifvqgrg","pricing_plan_id":"cebpf4jnsgd1na2vs0mg"},{"bike_id":"59216526-d01c-4d77-b6e3-a6c766976571","system_id":"levelo_inurba_marseille","lat":43.22499,"lon":5.34769,"is_reserved":false,"is_disabled":false,"rental_uris":{"android":"levelo://app?vid=59216526-d01c-4d77-b6e3-a6c766976571","ios":"levelo://app?vid=59216526-d01c-4d77-b6e3-a6c766976571"},"vehicle_type_id":"4","last_reported":1745168951,"current_range_meters":12000,"station_id":"st_cvj5dfep6f1abm77gieg","pricing_plan_id":"cebpf4jnsgd1na2vs0mg"},{"bike_id":"c2880de4-fcd0-4aac-8e7f-254585307388","system_id":"levelo_inurba_marseille","lat":43.279296,"lon":5.368307,"is_reserved":false,"is_disabled":false,"rental_uris":{"android":"levelo://app?vid=c2880de4-fcd0-4aac-8e7f-254585307388","ios":"levelo://app?vid=c2880de4-fcd0-4aac-8e7f-254585307388"},"vehicle_type_id":"4","last_reported":1745168951,"current_range_meters":11600,"station_id":"ce4bha12rcd13ifvqef0","pricing_plan_id":"cebpf4jnsgd1na2vs0mg"},{"bike_id":"294cf967-5e9c-4c04-9e2a-df0720b5c1a4","system_id":"levelo_inurba_marseille","lat":43.29036,"lon":5.3756,"is_reserved":false,"is_disabled":false,"rental_uris":{"android":"levelo://app?vid=294cf967-5e9c-4c04-9e2a-df0720b5c1a4","ios":"levelo://app?vid=294cf967-5e9c-4c04-9e2a-df0720b5c1a4"},"vehicle_type_id":"4","last_reported":1745168951,"current_range_meters":10000,"station_id":"ce4bh692rcd13ifvqe90","pricing_plan_id":"cebpf4jnsgd1na2vs0mg"},{"bike_id":"cab64969-2640-47ee-abb9-f11afb1f3a59","system_id":"levelo_inurba_marseille","lat":43.28619,"lon":5.35094,"is_reserved":false,"is_disabled":true,"rental_uris":{"android":"levelo://app?vid=cab64969-2640-47ee-abb9-f11afb1f3a59","ios":"levelo://app?vid=cab64969-2640-47ee-abb9-f11afb1f3a59"},"vehicle_type_id":"4","last_reported":1745168951,"current_range_meters":12400,"station_id":"ce4bhch2rcd13ifvqeug","pricing_plan_id":"cebpf4jnsgd1na2vs0mg"},{"bike_id":"5801a3ca-80c0-4f04-85da-122046aa79e1","system_id":"levelo_inurba_marseille","lat":43.289993,"lon":5.438318,"is_reserved":false,"is_disabled":false,"rental_uris":{"android":"levelo://app?vid=5801a3ca-80c0-4f04-85da-122046aa79e1","ios":"levelo://app?vid=5801a3ca-80c0-4f04-85da-122046aa79e1"},"vehicle_type_id":"4","last_reported":1745168951,"current_range_meters":12400,"station_id":"","pricing_plan_id":"cebpf4jnsgd1na2vs0mg"},{"bike_id":"f856f58b-cf6b-4d0e-8d80-a3e2366bb5b9","system_id":"levelo_inurba_marseille","lat":43.295159,"lon":5.374794,"is_reserved":false,"is_disabled":false,"rental_uris":{"android":"levelo://app?vid=f856f58b-cf6b-4d0e-8d80-a3e2366bb5b9","ios":"levelo://app?vid=f856f58b-cf6b-4d0e-8d80-a3e2366bb5b9"},"vehicle_type_id":"4","last_reported":1745168951,"current_range_meters":12400,"station_id":"ce4bgkp2rcd13ifvqbmg","pricing_plan_id":"cebpf4jnsgd1na2vs0mg"},{"bike_id":"1ace1b61-e2c8-4a41-a3cf-5c94b36f34ae","system_id":"levelo_inurba_marseille","lat":43.21194,"lon":5.35035,"is_reserved":false,"is_disabled":false,"rental_uris":{"android":"levelo://app?vid=1ace1b61-e2c8-4a41-a3cf-5c94b36f34ae","ios":"levelo://app?vid=1ace1b61-e2c8-4a41-a3cf-5c94b36f34ae"},"vehicle_type_id":"4","last_reported":1745168951,"current_range_meters":12400,"station_id":"st_cvj6sg6p6f1abm77japg","pricing_plan_id":"cebpf4jnsgd1na2vs0mg"},{"bike_id":"4e0feb4b-9af5-4c5c-a215-eabded87c4f9","system_id":"levelo_inurba_marseille","lat":43.23209,"lon":5.35571,"is_reserved":false,"is_disabled":false,"rental_uris":{"android":"levelo://app?vid=4e0feb4b-9af5-4c5c-a215-eabded87c4f9","ios":"levelo://app?vid=4e0feb4b-9af5-4c5c-a215-eabded87c4f9"},"vehicle_type_id":"4","last_reported":1745168951,"current_range_meters":12400,"station_id":"ce4bhu92rcd13ifvqi70","pricing_plan_id":"cebpf4jnsgd1na2vs0mg"},{"bike_id":"f01fc261-033f-49c7-b09e-b9967362bd76","system_id":"levelo_inurba_marseille","lat":43.28866,"lon":5.35822,"is_reserved":false,"is_disabled":true,"rental_uris":{"android":"levelo://app?vid=f01fc261-033f-49c7-b09e-b9967362bd76","ios":"levelo://app?vid=f01fc261-033f-49c7-b09e-b9967362bd76"},"vehicle_type_id":"4","last_reported":1745168951,"current_range_meters":12400,"station_id":"ce4bhb12rcd13ifvqem0","pricing_plan_id":"cebpf4jnsgd1na2vs0mg"},{"bike_id":"b2495245-616e-4202-a9ad-3912e6ae684f","system_id":"levelo_inurba_marseille","lat":43.25503,"lon":5.37653,"is_reserved":false,"is_disabled":false,"rental_uris":{"android":"levelo://app?vid=b2495245-616e-4202-a9ad-3912e6ae684f","ios":"levelo://app?vid=b2495245-616e-4202-a9ad-3912e6ae684f"},"vehicle_type_id":"4","last_reported":1745168951,"current_range_meters":12400,"station_id":"ce4bhh12rcd13ifvqff0","pricing_plan_id":"cebpf4jnsgd1na2vs0mg"},{"bike_id":"a3dd9a0b-1e95-49bd-9b52-a761b312f104","system_id":"levelo_inurba_marseille","lat":43.25572,"lon":5.38188,"is_reserved":false,"is_disabled":false,"rental_uris":{"android":"levelo://app?vid=a3dd9a0b-1e95-49bd-9b52-a761b312f104","ios":"levelo://app?vid=a3dd9a0b-1e95-49bd-9b52-a761b312f104"},"vehicle_type_id":"4","last_reported":1745168951,"current_range_meters":12800,"station_id":"ce4bhih2rcd13ifvqfs0","pricing_plan_id":"cebpf4jnsgd1na2vs0mg"},{"bike_id":"37c17f19-6efc-4ebe-8afc-af7a2b17a7b2","system_id":"levelo_inurba_marseille","lat":43.27568,"lon":5.38421,"is_reserved":false,"is_disabled":false,"rental_uris":{"android":"levelo://app?vid=37c17f19-6efc-4ebe-8afc-af7a2b17a7b2","ios":"levelo://app?vid=37c17f19-6efc-4ebe-8afc-af7a2b17a7b2"},"vehicle_type_id":"4","last_reported":1745168951,"current_range_meters":12400,"station_id":"ce4bhh92rcd13ifvqfi0","pricing_plan_id":"cebpf4jnsgd1na2vs0mg"},{"bike_id":"6019390b-7088-4c04-b80b-2acf1cb29041","system_id":"levelo_inurba_marseille","lat":43.29412,"lon":5.41226,"is_reserved":false,"is_disabled":false,"rental_uris":{"android":"levelo://app?vid=6019390b-7088-4c04-b80b-2acf1cb29041","ios":"levelo://app?vid=6019390b-7088-4c04-b80b-2acf1cb29041"},"vehicle_type_id":"4","last_reported":1745168951,"current_range_meters":12800,"station_id":"","pricing_plan_id":"cebpf4jnsgd1na2vs0mg"},{"bike_id":"ce034b4a-bb67-4c72-856c-a0c7ed4c8b8f","system_id":"levelo_inurba_marseille","lat":43.234451,"lon":5.359279,"is_reserved":false,"is_disabled":false,"rental_uris":{"android":"levelo://app?vid=ce034b4a-bb67-4c72-856c-a0c7ed4c8b8f","ios":"levelo://app?vid=ce034b4a-bb67-4c72-856c-a0c7ed4c8b8f"},"vehicle_type_id":"4","last_reported":1745168951,"current_range_meters":12800,"station_id":"","pricing_plan_id":"cebpf4jnsgd1na2vs0mg"},{"bike_id":"50720bbe-5512-41d7-86e0-3df313b565c6","system_id":"levelo_inurba_marseille","lat":43.32325,"lon":5.39013,"is_reserved":false,"is_disabled":true,"rental_uris":{"android":"levelo://app?vid=50720bbe-5512-41d7-86e0-3df313b565c6","ios":"levelo://app?vid=50720bbe-5512-41d7-86e0-3df313b565c6"},"vehicle_type_id":"4","last_reported":1745168951,"current_range_meters":12800,"station_id":"ce4bhqp2rcd13ifvqhog","pricing_plan_id":"cebpf4jnsgd1na2vs0mg"},{"bike_id":"5fd8ff23-5005-4693-a9db-471eff4c1202","system_id":"levelo_inurba_marseille","lat":43.24828,"lon":5.37449,"is_reserved":false,"is_disabled":false,"rental_uris":{"android":"levelo://app?vid=5fd8ff23-5005-4693-a9db-471eff4c1202","ios":"levelo://app?vid=5fd8ff23-5005-4693-a9db-471eff4c1202"},"vehicle_type_id":"4","last_reported":1745168951,"current_range_meters":12800,"station_id":"ce4bhgh2rcd13ifvqfb0","pricing_plan_id":"cebpf4jnsgd1na2vs0mg"},{"bike_id":"23d18269-0e6d-4c64-9d70-8c7467b2e9e2","system_id":"levelo_inurba_marseille","lat":43.2319,"lon":5.35549,"is_reserved":false,"is_disabled":false,"rental_uris":{"android":"levelo://app?vid=23d18269-0e6d-4c64-9d70-8c7467b2e9e2","ios":"levelo://app?vid=23d18269-0e6d-4c64-9d70-8c7467b2e9e2"},"vehicle_type_id":"4","last_reported":1745168951,"current_range_meters":12800,"station_id":"ce4bhu92rcd13ifvqi70","pricing_plan_id":"cebpf4jnsgd1na2vs0mg"},{"bike_id":"5070bb1b-99eb-42d9-8600-267cae2c373d","system_id":"levelo_inurba_marseille","lat":43.29007,"lon":5.35616,"is_reserved":false,"is_disabled":false,"rental_uris":{"android":"levelo://app?vid=5070bb1b-99eb-42d9-8600-267cae2c373d","ios":"levelo://app?vid=5070bb1b-99eb-42d9-8600-267cae2c373d"},"vehicle_type_id":"4","last_reported":1745168951,"current_range_meters":12400,"station_id":"ce4bhb92rcd13ifvqen0","pricing_plan_id":"cebpf4jnsgd1na2vs0mg"},{"bike_id":"0439c547-71a8-4077-9adb-a5ea4afbebad","system_id":"levelo_inurba_marseille","lat":43.28162,"lon":5.42648,"is_reserved":false,"is_disabled":false,"rental_uris":{"android":"levelo://app?vid=0439c547-71a8-4077-9adb-a5ea4afbebad","ios":"levelo://app?vid=0439c547-71a8-4077-9adb-a5ea4afbebad"},"vehicle_type_id":"4","last_reported":1745168951,"current_range_meters":13600,"station_id":"ce4bhnh2rcd13ifvqgug","pricing_plan_id":"cebpf4jnsgd1na2vs0mg"},{"bike_id":"aa4956c6-6845-4783-8776-ee4b88f920ec","system_id":"levelo_inurba_marseille","lat":43.286423,"lon":5.370772,"is_reserved":false,"is_disabled":true,"rental_uris":{"android":"levelo://app?vid=aa4956c6-6845-4783-8776-ee4b88f920ec","ios":"levelo://app?vid=aa4956c6-6845-4783-8776-ee4b88f920ec"},"vehicle_type_id":"4","last_reported":1745168951,"current_range_meters":13600,"station_id":"","pricing_plan_id":"cebpf4jnsgd1na2vs0mg"},{"bike_id":"80b55b8f-4b91-4662-b23c-f0419d420337","system_id":"levelo_inurba_marseille","lat":43.23086,"lon":5.35498,"is_reserved":false,"is_disabled":false,"rental_uris":{"android":"levelo://app?vid=80b55b8f-4b91-4662-b23c-f0419d420337","ios":"levelo://app?vid=80b55b8f-4b91-4662-b23c-f0419d420337"},"vehicle_type_id":"4","last_reported":1745168951,"current_range_meters":13600,"station_id":"cpo3342slgdg3j2ifvpg","pricing_plan_id":"cebpf4jnsgd1na2vs0mg"},{"bike_id":"e5d3eb31-cf2f-483a-94b0-6b5d4d584454","system_id":"levelo_inurba_marseille","lat":43.290131,"lon":5.356216,"is_reserved":false,"is_disabled":false,"rental_uris":{"android":"levelo://app?vid=e5d3eb31-cf2f-483a-94b0-6b5d4d584454","ios":"levelo://app?vid=e5d3eb31-cf2f-483a-94b0-6b5d4d584454"},"vehicle_type_id":"4","last_reported":1745168951,"current_range_meters":13600,"station_id":"ce4bhb92rcd13ifvqen0","pricing_plan_id":"cebpf4jnsgd1na2vs0mg"},{"bike_id":"1737dea4-541f-4bc8-9731-1ab03c2deae6","system_id":"levelo_inurba_marseille","lat":43.23962,"lon":5.3664,"is_reserved":false,"is_disabled":true,"rental_uris":{"android":"levelo://app?vid=1737dea4-541f-4bc8-9731-1ab03c2deae6","ios":"levelo://app?vid=1737dea4-541f-4bc8-9731-1ab03c2deae6"},"vehicle_type_id":"4","last_reported":1745168951,"current_range_meters":13600,"station_id":"ce4bhi12rcd13ifvqfp0","pricing_plan_id":"cebpf4jnsgd1na2vs0mg"},{"bike_id":"d53e964c-f934-484c-a259-3e8f23cdd819","system_id":"levelo_inurba_marseille","lat":43.337324,"lon":5.391938,"is_reserved":false,"is_disabled":false,"rental_uris":{"android":"levelo://app?vid=d53e964c-f934-484c-a259-3e8f23cdd819","ios":"levelo://app?vid=d53e964c-f934-484c-a259-3e8f23cdd819"},"vehicle_type_id":"4","last_reported":1745168951,"current_range_meters":14000,"station_id":"ce4bhr92rcd13ifvqhsg","pricing_plan_id":"cebpf4jnsgd1na2vs0mg"},{"bike_id":"e47b7b81-3038-4ffc-b46c-0c4a56ad1589","system_id":"levelo_inurba_marseille","lat":43.29938,"lon":5.36535,"is_reserved":false,"is_disabled":false,"rental_uris":{"android":"levelo://app?vid=e47b7b81-3038-4ffc-b46c-0c4a56ad1589","ios":"levelo://app?vid=e47b7b81-3038-4ffc-b46c-0c4a56ad1589"},"vehicle_type_id":"4","last_reported":1745168951,"current_range_meters":14000,"station_id":"ce4bgm92rcd13ifvqbr0","pricing_plan_id":"cebpf4jnsgd1na2vs0mg"},{"bike_id":"9fc1dd27-12bb-4c7c-855d-f82b71b82bf7","system_id":"levelo_inurba_marseille","lat":43.23198,"lon":5.3555,"is_reserved":false,"is_disabled":false,"rental_uris":{"android":"levelo://app?vid=9fc1dd27-12bb-4c7c-855d-f82b71b82bf7","ios":"levelo://app?vid=9fc1dd27-12bb-4c7c-855d-f82b71b82bf7"},"vehicle_type_id":"4","last_reported":1745168951,"current_range_meters":14000,"station_id":"ce4bhu92rcd13ifvqi70","pricing_plan_id":"cebpf4jnsgd1na2vs0mg"},{"bike_id":"54333f71-3852-4e7b-b374-b14e492e4962","system_id":"levelo_inurba_marseille","lat":43.30437,"lon":5.41271,"is_reserved":false,"is_disabled":true,"rental_uris":{"android":"levelo://app?vid=54333f71-3852-4e7b-b374-b14e492e4962","ios":"levelo://app?vid=54333f71-3852-4e7b-b374-b14e492e4962"},"vehicle_type_id":"4","last_reported":1745168951,"current_range_meters":14800,"station_id":"ce4bhop2rcd13ifvqh8g","pricing_plan_id":"cebpf4jnsgd1na2vs0mg"},{"bike_id":"0023d947-89c6-4d16-a683-9fa9b359ba42","system_id":"levelo_inurba_marseille","lat":43.29771,"lon":5.39336,"is_reserved":false,"is_disabled":false,"rental_uris":{"android":"levelo://app?vid=0023d947-89c6-4d16-a683-9fa9b359ba42","ios":"levelo://app?vid=0023d947-89c6-4d16-a683-9fa9b359ba42"},"vehicle_type_id":"4","last_reported":1745168951,"current_range_meters":14800,"station_id":"chh1huq6cuj3fo74tm60","pricing_plan_id":"cebpf4jnsgd1na2vs0mg"},{"bike_id":"aa15dbf9-7ea9-440d-93c7-3a84fe6d240f","system_id":"levelo_inurba_marseille","lat":43.3373,"lon":5.39193,"is_reserved":false,"is_disabled":false,"rental_uris":{"android":"levelo://app?vid=aa15dbf9-7ea9-440d-93c7-3a84fe6d240f","ios":"levelo://app?vid=aa15dbf9-7ea9-440d-93c7-3a84fe6d240f"},"vehicle_type_id":"4","last_reported":1745168951,"current_range_meters":14800,"station_id":"ce4bhr92rcd13ifvqhsg","pricing_plan_id":"cebpf4jnsgd1na2vs0mg"},{"bike_id":"b25b6470-ff43-4d6b-b299-0f21ec070f27","system_id":"levelo_inurba_marseille","lat":43.29904,"lon":5.38123,"is_reserved":false,"is_disabled":true,"rental_uris":{"android":"levelo://app?vid=b25b6470-ff43-4d6b-b299-0f21ec070f27","ios":"levelo://app?vid=b25b6470-ff43-4d6b-b299-0f21ec070f27"},"vehicle_type_id":"4","last_reported":1745168951,"current_range_meters":14800,"station_id":"ce4bgj12rcd13ifvqbc0","pricing_plan_id":"cebpf4jnsgd1na2vs0mg"},{"bike_id":"2d3b9acf-ccc1-4fee-a218-9d451f2cf729","system_id":"levelo_inurba_marseille","lat":43.23968,"lon":5.36633,"is_reserved":false,"is_disabled":false,"rental_uris":{"android":"levelo://app?vid=2d3b9acf-ccc1-4fee-a218-9d451f2cf729","ios":"levelo://app?vid=2d3b9acf-ccc1-4fee-a218-9d451f2cf729"},"vehicle_type_id":"4","last_reported":1745168951,"current_range_meters":14800,"station_id":"ce4bhi12rcd13ifvqfp0","pricing_plan_id":"cebpf4jnsgd1na2vs0mg"},{"bike_id":"d66f2fbf-84c1-4006-a003-d92ef3aa9479","system_id":"levelo_inurba_marseille","lat":43.23194,"lon":5.35546,"is_reserved":false,"is_disabled":false,"rental_uris":{"android":"levelo://app?vid=d66f2fbf-84c1-4006-a003-d92ef3aa9479","ios":"levelo://app?vid=d66f2fbf-84c1-4006-a003-d92ef3aa9479"},"vehicle_type_id":"4","last_reported":1745168951,"current_range_meters":14800,"station_id":"ce4bhu92rcd13ifvqi70","pricing_plan_id":"cebpf4jnsgd1na2vs0mg"},{"bike_id":"42682319-03cb-4881-b538-9337b85646a5","system_id":"levelo_inurba_marseille","lat":43.30535,"lon":5.3672,"is_reserved":false,"is_disabled":false,"rental_uris":{"android":"levelo://app?vid=42682319-03cb-4881-b538-9337b85646a5","ios":"levelo://app?vid=42682319-03cb-4881-b538-9337b85646a5"},"vehicle_type_id":"4","last_reported":1745168951,"current_range_meters":14400,"station_id":"ce4bgrp2rcd13ifvqc9g","pricing_plan_id":"cebpf4jnsgd1na2vs0mg"},{"bike_id":"aa3f8489-89e3-4c19-8bf5-53bd5567f859","system_id":"levelo_inurba_marseille","lat":43.292259,"lon":5.360815,"is_reserved":false,"is_disabled":false,"rental_uris":{"android":"levelo://app?vid=aa3f8489-89e3-4c19-8bf5-53bd5567f859","ios":"levelo://app?vid=aa3f8489-89e3-4c19-8bf5-53bd5567f859"},"vehicle_type_id":"4","last_reported":1745168951,"current_range_meters":18800,"station_id":"ce4bhbh2rcd13ifvqeqg","pricing_plan_id":"cebpf4jnsgd1na2vs0mg"},{"bike_id":"cb04d036-524e-497d-b1e8-d53251979b05","system_id":"levelo_inurba_marseille","lat":43.29914,"lon":5.39769,"is_reserved":false,"is_disabled":true,"rental_uris":{"android":"levelo://app?vid=cb04d036-524e-497d-b1e8-d53251979b05","ios":"levelo://app?vid=cb04d036-524e-497d-b1e8-d53251979b05"},"vehicle_type_id":"4","last_reported":1745168951,"current_range_meters":15200,"station_id":"ce4bh0h2rcd13ifvqd50","pricing_plan_id":"cebpf4jnsgd1na2vs0mg"},{"bike_id":"b157dc81-51c5-45f3-a677-9e9c3cf6283b","system_id":"levelo_inurba_marseille","lat":43.306056,"lon":5.371532,"is_reserved":false,"is_disabled":false,"rental_uris":{"android":"levelo://app?vid=b157dc81-51c5-45f3-a677-9e9c3cf6283b","ios":"levelo://app?vid=b157dc81-51c5-45f3-a677-9e9c3cf6283b"},"vehicle_type_id":"4","last_reported":1745168951,"current_range_meters":15200,"station_id":"ce4bgqh2rcd13ifvqc4g","pricing_plan_id":"cebpf4jnsgd1na2vs0mg"},{"bike_id":"de3f7b3e-a165-4809-ab54-f61ce9767893","system_id":"levelo_inurba_marseille","lat":43.25497,"lon":5.37645,"is_reserved":false,"is_disabled":false,"rental_uris":{"android":"levelo://app?vid=de3f7b3e-a165-4809-ab54-f61ce9767893","ios":"levelo://app?vid=de3f7b3e-a165-4809-ab54-f61ce9767893"},"vehicle_type_id":"4","last_reported":1745168951,"current_range_meters":15200,"station_id":"ce4bhh12rcd13ifvqff0","pricing_plan_id":"cebpf4jnsgd1na2vs0mg"},{"bike_id":"f201b95f-1ea3-46bf-9c99-13ee9ffae269","system_id":"levelo_inurba_marseille","lat":43.29279,"lon":5.40115,"is_reserved":false,"is_disabled":false,"rental_uris":{"android":"levelo://app?vid=f201b95f-1ea3-46bf-9c99-13ee9ffae269","ios":"levelo://app?vid=f201b95f-1ea3-46bf-9c99-13ee9ffae269"},"vehicle_type_id":"4","last_reported":1745168951,"current_range_meters":15200,"station_id":"ce4bh312rcd13ifvqdk0","pricing_plan_id":"cebpf4jnsgd1na2vs0mg"},{"bike_id":"2d2e4840-713e-4771-ae07-2155d13a6672","system_id":"levelo_inurba_marseille","lat":43.29945,"lon":5.36562,"is_reserved":false,"is_disabled":true,"rental_uris":{"android":"levelo://app?vid=2d2e4840-713e-4771-ae07-2155d13a6672","ios":"levelo://app?vid=2d2e4840-713e-4771-ae07-2155d13a6672"},"vehicle_type_id":"4","last_reported":1745168951,"current_range_meters":16000,"station_id":"ce4bgm92rcd13ifvqbr0","pricing_plan_id":"cebpf4jnsgd1na2vs0mg"},{"bike_id":"9cd66f20-0974-44a3-a00c-3af08e74ebf2","system_id":"levelo_inurba_marseille","lat":43.2605,"lon":5.4178,"is_reserved":false,"is_disabled":false,"rental_uris":{"android":"levelo://app?vid=9cd66f20-0974-44a3-a00c-3af08e74ebf2","ios":"levelo://app?vid=9cd66f20-0974-44a3-a00c-3af08e74ebf2"},"vehicle_type_id":"4","last_reported":1745168951,"current_range_meters":16000,"station_id":"","pricing_plan_id":"cebpf4jnsgd1na2vs0mg"},{"bike_id":"0e2e8779-af4f-4852-a926-b99cc959c0ab","system_id":"levelo_inurba_marseille","lat":43.30135,"lon":5.38788,"is_reserved":false,"is_disabled":false,"rental_uris":{"android":"levelo://app?vid=0e2e8779-af4f-4852-a926-b99cc959c0ab","ios":"levelo://app?vid=0e2e8779-af4f-4852-a926-b99cc959c0ab"},"vehicle_type_id":"4","last_reported":1745168951,"current_range_meters":15200,"station_id":"ce4bghh2rcd13ifvqb60","pricing_plan_id":"cebpf4jnsgd1na2vs0mg"},{"bike_id":"1b7609b5-618a-4850-b77b-8639cf121e2a","system_id":"levelo_inurba_marseille","lat":43.28709,"lon":5.39994,"is_reserved":false,"is_disabled":false,"rental_uris":{"android":"levelo://app?vid=1b7609b5-618a-4850-b77b-8639cf121e2a","ios":"levelo://app?vid=1b7609b5-618a-4850-b77b-8639cf121e2a"},"vehicle_type_id":"4","last_reported":1745168951,"current_range_meters":16000,"station_id":"ce4bho92rcd13ifvqh3g","pricing_plan_id":"cebpf4jnsgd1na2vs0mg"},{"bike_id":"13f72e1d-387b-480f-b045-b2007099ede8","system_id":"levelo_inurba_marseille","lat":43.27176,"lon":5.40987,"is_reserved":false,"is_disabled":false,"rental_uris":{"android":"levelo://app?vid=13f72e1d-387b-480f-b045-b2007099ede8","ios":"levelo://app?vid=13f72e1d-387b-480f-b045-b2007099ede8"},"vehicle_type_id":"4","last_reported":1745168951,"current_range_meters":16000,"station_id":"ce4bhl12rcd13ifvqgf0","pricing_plan_id":"cebpf4jnsgd1na2vs0mg"},{"bike_id":"5069dd58-c0a4-4a82-89c4-361b75ac07f9","system_id":"levelo_inurba_marseille","lat":43.25593,"lon":5.38256,"is_reserved":false,"is_disabled":false,"rental_uris":{"android":"levelo://app?vid=5069dd58-c0a4-4a82-89c4-361b75ac07f9","ios":"levelo://app?vid=5069dd58-c0a4-4a82-89c4-361b75ac07f9"},"vehicle_type_id":"4","last_reported":1745168951,"current_range_meters":16400,"station_id":"ce4bhih2rcd13ifvqfs0","pricing_plan_id":"cebpf4jnsgd1na2vs0mg"},{"bike_id":"1a381c69-8db7-4c2e-b584-6a332fca0dc2","system_id":"levelo_inurba_marseille","lat":43.28688,"lon":5.3636,"is_reserved":false,"is_disabled":false,"rental_uris":{"android":"levelo://app?vid=1a381c69-8db7-4c2e-b584-6a332fca0dc2","ios":"levelo://app?vid=1a381c69-8db7-4c2e-b584-6a332fca0dc2"},"vehicle_type_id":"4","last_reported":1745168951,"current_range_meters":16400,"station_id":"ce4bhah2rcd13ifvqej0","pricing_plan_id":"cebpf4jnsgd1na2vs0mg"},{"bike_id":"fa0e2da6-a784-405b-a63a-e123918df129","system_id":"levelo_inurba_marseille","lat":43.27388,"lon":5.36232,"is_reserved":false,"is_disabled":false,"rental_uris":{"android":"levelo://app?vid=fa0e2da6-a784-405b-a63a-e123918df129","ios":"levelo://app?vid=fa0e2da6-a784-405b-a63a-e123918df129"},"vehicle_type_id":"4","last_reported":1745168951,"current_range_meters":16400,"station_id":"ce4bhbh2rcd13ifvqeo0","pricing_plan_id":"cebpf4jnsgd1na2vs0mg"},{"bike_id":"c4fc050b-7c58-4380-8033-ffe242748317","system_id":"levelo_inurba_marseille","lat":43.29507,"lon":5.39417,"is_reserved":false,"is_disabled":true,"rental_uris":{"android":"levelo://app?vid=c4fc050b-7c58-4380-8033-ffe242748317","ios":"levelo://app?vid=c4fc050b-7c58-4380-8033-ffe242748317"},"vehicle_type_id":"4","last_reported":1745168951,"current_range_meters":16800,"station_id":"ce4bh292rcd13ifvqdf0","pricing_plan_id":"cebpf4jnsgd1na2vs0mg"},{"bike_id":"ee910e3a-4ec1-4a75-b39a-8a2ef121fc79","system_id":"levelo_inurba_marseille","lat":43.25492,"lon":5.37645,"is_reserved":false,"is_disabled":false,"rental_uris":{"android":"levelo://app?vid=ee910e3a-4ec1-4a75-b39a-8a2ef121fc79","ios":"levelo://app?vid=ee910e3a-4ec1-4a75-b39a-8a2ef121fc79"},"vehicle_type_id":"4","last_reported":1745168951,"current_range_meters":16800,"station_id":"ce4bhh12rcd13ifvqff0","pricing_plan_id":"cebpf4jnsgd1na2vs0mg"},{"bike_id":"18e3b8e3-4921-4d42-8ca8-50d09a9007c8","system_id":"levelo_inurba_marseille","lat":43.29651,"lon":5.39774,"is_reserved":false,"is_disabled":false,"rental_uris":{"android":"levelo://app?vid=18e3b8e3-4921-4d42-8ca8-50d09a9007c8","ios":"levelo://app?vid=18e3b8e3-4921-4d42-8ca8-50d09a9007c8"},"vehicle_type_id":"4","last_reported":1745168951,"current_range_meters":16800,"station_id":"","pricing_plan_id":"cebpf4jnsgd1na2vs0mg"},{"bike_id":"824b9a63-bb9e-44a2-8e3d-d7991f1fc355","system_id":"levelo_inurba_marseille","lat":43.29267,"lon":5.40926,"is_reserved":false,"is_disabled":false,"rental_uris":{"android":"levelo://app?vid=824b9a63-bb9e-44a2-8e3d-d7991f1fc355","ios":"levelo://app?vid=824b9a63-bb9e-44a2-8e3d-d7991f1fc355"},"vehicle_type_id":"4","last_reported":1745168951,"current_range_meters":16800,"station_id":"ce4bh192rcd13ifvqdc0","pricing_plan_id":"cebpf4jnsgd1na2vs0mg"},{"bike_id":"412c86cd-f603-4e90-b126-40d51a4e7ee6","system_id":"levelo_inurba_marseille","lat":43.29753,"lon":5.37647,"is_reserved":false,"is_disabled":false,"rental_uris":{"android":"levelo://app?vid=412c86cd-f603-4e90-b126-40d51a4e7ee6","ios":"levelo://app?vid=412c86cd-f603-4e90-b126-40d51a4e7ee6"},"vehicle_type_id":"4","last_reported":1745168951,"current_range_meters":16800,"station_id":"ce4bgkh2rcd13ifvqbl0","pricing_plan_id":"cebpf4jnsgd1na2vs0mg"},{"bike_id":"e73d4967-6342-4e68-8e2c-6c9eec8eb214","system_id":"levelo_inurba_marseille","lat":43.27492,"lon":5.42483,"is_reserved":false,"is_disabled":false,"rental_uris":{"android":"levelo://app?vid=e73d4967-6342-4e68-8e2c-6c9eec8eb214","ios":"levelo://app?vid=e73d4967-6342-4e68-8e2c-6c9eec8eb214"},"vehicle_type_id":"4","last_reported":1745168951,"current_range_meters":16800,"station_id":"ce4bhn92rcd13ifvqgrg","pricing_plan_id":"cebpf4jnsgd1na2vs0mg"},{"bike_id":"b63b7a5e-a38c-41b2-b8ca-03dcb2ce1a70","system_id":"levelo_inurba_marseille","lat":43.250869,"lon":5.395159,"is_reserved":false,"is_disabled":true,"rental_uris":{"android":"levelo://app?vid=b63b7a5e-a38c-41b2-b8ca-03dcb2ce1a70","ios":"levelo://app?vid=b63b7a5e-a38c-41b2-b8ca-03dcb2ce1a70"},"vehicle_type_id":"4","last_reported":1745168951,"current_range_meters":17200,"station_id":"ce4bhm12rcd13ifvqgkg","pricing_plan_id":"cebpf4jnsgd1na2vs0mg"},{"bike_id":"4b5bec5c-7436-4ee2-91be-83415c136d43","system_id":"levelo_inurba_marseille","lat":43.30537,"lon":5.36564,"is_reserved":false,"is_disabled":false,"rental_uris":{"android":"levelo://app?vid=4b5bec5c-7436-4ee2-91be-83415c136d43","ios":"levelo://app?vid=4b5bec5c-7436-4ee2-91be-83415c136d43"},"vehicle_type_id":"4","last_reported":1745168951,"current_range_meters":17200,"station_id":"ce4bgs12rcd13ifvqcag","pricing_plan_id":"cebpf4jnsgd1na2vs0mg"},{"bike_id":"b50ac1ac-8112-49a9-9684-58c93de8a551","system_id":"levelo_inurba_marseille","lat":43.25496,"lon":5.37655,"is_reserved":false,"is_disabled":false,"rental_uris":{"android":"levelo://app?vid=b50ac1ac-8112-49a9-9684-58c93de8a551","ios":"levelo://app?vid=b50ac1ac-8112-49a9-9684-58c93de8a551"},"vehicle_type_id":"4","last_reported":1745168951,"current_range_meters":17200,"station_id":"ce4bhh12rcd13ifvqff0","pricing_plan_id":"cebpf4jnsgd1na2vs0mg"},{"bike_id":"362ab733-563b-4de0-a450-2ff9f61d67f4","system_id":"levelo_inurba_marseille","lat":43.29943,"lon":5.36554,"is_reserved":false,"is_disabled":false,"rental_uris":{"android":"levelo://app?vid=362ab733-563b-4de0-a450-2ff9f61d67f4","ios":"levelo://app?vid=362ab733-563b-4de0-a450-2ff9f61d67f4"},"vehicle_type_id":"4","last_reported":1745168951,"current_range_meters":17200,"station_id":"ce4bgm92rcd13ifvqbr0","pricing_plan_id":"cebpf4jnsgd1na2vs0mg"},{"bike_id":"acb337f8-9a02-4c16-ad32-3a6e67af21e4","system_id":"levelo_inurba_marseille","lat":43.28456,"lon":5.35895,"is_reserved":false,"is_disabled":true,"rental_uris":{"android":"levelo://app?vid=acb337f8-9a02-4c16-ad32-3a6e67af21e4","ios":"levelo://app?vid=acb337f8-9a02-4c16-ad32-3a6e67af21e4"},"vehicle_type_id":"4","last_reported":1745168951,"current_range_meters":17600,"station_id":"ce4bhah2rcd13ifvqei0","pricing_plan_id":"cebpf4jnsgd1na2vs0mg"},{"bike_id":"e70f8179-4a16-4eb1-9a34-224bb694c889","system_id":"levelo_inurba_marseille","lat":43.24171,"lon":5.36406,"is_reserved":false,"is_disabled":false,"rental_uris":{"android":"levelo://app?vid=e70f8179-4a16-4eb1-9a34-224bb694c889","ios":"levelo://app?vid=e70f8179-4a16-4eb1-9a34-224bb694c889"},"vehicle_type_id":"4","last_reported":1745168951,"current_range_meters":17600,"station_id":"cpo36qri1sfpv3e86is0","pricing_plan_id":"cebpf4jnsgd1na2vs0mg"},{"bike_id":"e483d102-bd01-4f18-af16-cae660f3320b","system_id":"levelo_inurba_marseille","lat":43.299684,"lon":5.384936,"is_reserved":false,"is_disabled":false,"rental_uris":{"android":"levelo://app?vid=e483d102-bd01-4f18-af16-cae660f3320b","ios":"levelo://app?vid=e483d102-bd01-4f18-af16-cae660f3320b"},"vehicle_type_id":"4","last_reported":1745168951,"current_range_meters":17600,"station_id":"ce4bhh12rcd13ifvqfg0","pricing_plan_id":"cebpf4jnsgd1na2vs0mg"},{"bike_id":"5421f91f-c5b9-4312-b8b1-ba44221bb5c0","system_id":"levelo_inurba_marseille","lat":43.26205,"lon":5.37929,"is_reserved":false,"is_disabled":true,"rental_uris":{"android":"levelo://app?vid=5421f91f-c5b9-4312-b8b1-ba44221bb5c0","ios":"levelo://app?vid=5421f91f-c5b9-4312-b8b1-ba44221bb5c0"},"vehicle_type_id":"4","last_reported":1745168951,"current_range_meters":17600,"station_id":"ce4bhjp2rcd13ifvqg90","pricing_plan_id":"cebpf4jnsgd1na2vs0mg"},{"bike_id":"f1b544c2-7043-4219-81c7-a814678c455f","system_id":"levelo_inurba_marseille","lat":43.30338,"lon":5.40455,"is_reserved":false,"is_disabled":false,"rental_uris":{"android":"levelo://app?vid=f1b544c2-7043-4219-81c7-a814678c455f","ios":"levelo://app?vid=f1b544c2-7043-4219-81c7-a814678c455f"},"vehicle_type_id":"4","last_reported":1745168951,"current_range_meters":17200,"station_id":"ce4bh012rcd13ifvqd10","pricing_plan_id":"cebpf4jnsgd1na2vs0mg"},{"bike_id":"a7f91fb8-2846-493f-a68f-69867197cfa1","system_id":"levelo_inurba_marseille","lat":43.33643,"lon":5.39761,"is_reserved":false,"is_disabled":false,"rental_uris":{"android":"levelo://app?vid=a7f91fb8-2846-493f-a68f-69867197cfa1","ios":"levelo://app?vid=a7f91fb8-2846-493f-a68f-69867197cfa1"},"vehicle_type_id":"4","last_reported":1745168951,"current_range_meters":18000,"station_id":"","pricing_plan_id":"cebpf4jnsgd1na2vs0mg"},{"bike_id":"076d7bfc-7e4b-449c-9bd2-6bab4b0d0c70","system_id":"levelo_inurba_marseille","lat":43.292603,"lon":5.384355,"is_reserved":false,"is_disabled":false,"rental_uris":{"android":"levelo://app?vid=076d7bfc-7e4b-449c-9bd2-6bab4b0d0c70","ios":"levelo://app?vid=076d7bfc-7e4b-449c-9bd2-6bab4b0d0c70"},"vehicle_type_id":"4","last_reported":1745168951,"current_range_meters":18000,"station_id":"ce4bh692rcd13ifvqea0","pricing_plan_id":"cebpf4jnsgd1na2vs0mg"},{"bike_id":"c0f16fe7-49a3-43d6-9474-02a7c8f47cb7","system_id":"levelo_inurba_marseille","lat":43.32036,"lon":5.41539,"is_reserved":false,"is_disabled":false,"rental_uris":{"android":"levelo://app?vid=c0f16fe7-49a3-43d6-9474-02a7c8f47cb7","ios":"levelo://app?vid=c0f16fe7-49a3-43d6-9474-02a7c8f47cb7"},"vehicle_type_id":"4","last_reported":1745168951,"current_range_meters":18000,"station_id":"ce4bhq92rcd13ifvqhkg","pricing_plan_id":"cebpf4jnsgd1na2vs0mg"},{"bike_id":"b9c7a078-7edf-461f-8ecd-c598dda55386","system_id":"levelo_inurba_marseille","lat":43.28487,"lon":5.3857,"is_reserved":false,"is_disabled":false,"rental_uris":{"android":"levelo://app?vid=b9c7a078-7edf-461f-8ecd-c598dda55386","ios":"levelo://app?vid=b9c7a078-7edf-461f-8ecd-c598dda55386"},"vehicle_type_id":"4","last_reported":1745168951,"current_range_meters":17600,"station_id":"ce4bh8p2rcd13ifvqeb0","pricing_plan_id":"cebpf4jnsgd1na2vs0mg"},{"bike_id":"b8b65b83-38a3-4e5f-83f7-bcdcfcb454b1","system_id":"levelo_inurba_marseille","lat":43.21196,"lon":5.35116,"is_reserved":false,"is_disabled":false,"rental_uris":{"android":"levelo://app?vid=b8b65b83-38a3-4e5f-83f7-bcdcfcb454b1","ios":"levelo://app?vid=b8b65b83-38a3-4e5f-83f7-bcdcfcb454b1"},"vehicle_type_id":"4","last_reported":1745168951,"current_range_meters":18000,"station_id":"st_cvj6sg6p6f1abm77japg","pricing_plan_id":"cebpf4jnsgd1na2vs0mg"},{"bike_id":"7f85cb0c-933e-490b-a0c3-bfacab605268","system_id":"levelo_inurba_marseille","lat":43.28882,"lon":5.35981,"is_reserved":false,"is_disabled":true,"rental_uris":{"android":"levelo://app?vid=7f85cb0c-933e-490b-a0c3-bfacab605268","ios":"levelo://app?vid=7f85cb0c-933e-490b-a0c3-bfacab605268"},"vehicle_type_id":"4","last_reported":1745168951,"current_range_meters":18800,"station_id":"","pricing_plan_id":"cebpf4jnsgd1na2vs0mg"},{"bike_id":"54547122-c9e3-44aa-92d3-ee29b2aa8445","system_id":"levelo_inurba_marseille","lat":43.28415,"lon":5.35002,"is_reserved":false,"is_disabled":true,"rental_uris":{"android":"levelo://app?vid=54547122-c9e3-44aa-92d3-ee29b2aa8445","ios":"levelo://app?vid=54547122-c9e3-44aa-92d3-ee29b2aa8445"},"vehicle_type_id":"4","last_reported":1745168951,"current_range_meters":18000,"station_id":"ce4bhbh2rcd13ifvqepg","pricing_plan_id":"cebpf4jnsgd1na2vs0mg"},{"bike_id":"dbaaf1ea-ade8-4f5f-b915-d93153091b62","system_id":"levelo_inurba_marseille","lat":43.25573,"lon":5.38236,"is_reserved":false,"is_disabled":false,"rental_uris":{"android":"levelo://app?vid=dbaaf1ea-ade8-4f5f-b915-d93153091b62","ios":"levelo://app?vid=dbaaf1ea-ade8-4f5f-b915-d93153091b62"},"vehicle_type_id":"4","last_reported":1745168951,"current_range_meters":18000,"station_id":"ce4bhih2rcd13ifvqfs0","pricing_plan_id":"cebpf4jnsgd1na2vs0mg"},{"bike_id":"b8cd5422-1e24-48d1-bc5d-5f973732c00b","system_id":"levelo_inurba_marseille","lat":43.23203,"lon":5.35584,"is_reserved":false,"is_disabled":false,"rental_uris":{"android":"levelo://app?vid=b8cd5422-1e24-48d1-bc5d-5f973732c00b","ios":"levelo://app?vid=b8cd5422-1e24-48d1-bc5d-5f973732c00b"},"vehicle_type_id":"4","last_reported":1745168951,"current_range_meters":18000,"station_id":"ce4bhu92rcd13ifvqi70","pricing_plan_id":"cebpf4jnsgd1na2vs0mg"},{"bike_id":"2b9dc3a3-9ca1-4379-9bb7-4b8dbd4e17cf","system_id":"levelo_inurba_marseille","lat":43.23959,"lon":5.36642,"is_reserved":false,"is_disabled":true,"rental_uris":{"android":"levelo://app?vid=2b9dc3a3-9ca1-4379-9bb7-4b8dbd4e17cf","ios":"levelo://app?vid=2b9dc3a3-9ca1-4379-9bb7-4b8dbd4e17cf"},"vehicle_type_id":"4","last_reported":1745168951,"current_range_meters":18800,"station_id":"ce4bhi12rcd13ifvqfp0","pricing_plan_id":"cebpf4jnsgd1na2vs0mg"},{"bike_id":"784d943e-a3fb-44eb-80aa-7b3023e12409","system_id":"levelo_inurba_marseille","lat":43.2958,"lon":5.36738,"is_reserved":false,"is_disabled":false,"rental_uris":{"android":"levelo://app?vid=784d943e-a3fb-44eb-80aa-7b3023e12409","ios":"levelo://app?vid=784d943e-a3fb-44eb-80aa-7b3023e12409"},"vehicle_type_id":"4","last_reported":1745168951,"current_range_meters":18800,"station_id":"ce4bgph2rcd13ifvqc2g","pricing_plan_id":"cebpf4jnsgd1na2vs0mg"},{"bike_id":"af5ba08c-0730-4dda-a43c-3e08ff505b3c","system_id":"levelo_inurba_marseille","lat":43.232,"lon":5.35565,"is_reserved":false,"is_disabled":false,"rental_uris":{"android":"levelo://app?vid=af5ba08c-0730-4dda-a43c-3e08ff505b3c","ios":"levelo://app?vid=af5ba08c-0730-4dda-a43c-3e08ff505b3c"},"vehicle_type_id":"4","last_reported":1745168951,"current_range_meters":18800,"station_id":"ce4bhu92rcd13ifvqi70","pricing_plan_id":"cebpf4jnsgd1na2vs0mg"},{"bike_id":"0197bfed-f0e8-4e17-a8c8-964039662bdc","system_id":"levelo_inurba_marseille","lat":43.275779,"lon":5.384055,"is_reserved":false,"is_disabled":false,"rental_uris":{"android":"levelo://app?vid=0197bfed-f0e8-4e17-a8c8-964039662bdc","ios":"levelo://app?vid=0197bfed-f0e8-4e17-a8c8-964039662bdc"},"vehicle_type_id":"4","last_reported":1745168951,"current_range_meters":18800,"station_id":"ce4bhh92rcd13ifvqfi0","pricing_plan_id":"cebpf4jnsgd1na2vs0mg"},{"bike_id":"271456e2-7177-4ceb-8cff-784e2db81f75","system_id":"levelo_inurba_marseille","lat":43.30597,"lon":5.37218,"is_reserved":false,"is_disabled":false,"rental_uris":{"android":"levelo://app?vid=271456e2-7177-4ceb-8cff-784e2db81f75","ios":"levelo://app?vid=271456e2-7177-4ceb-8cff-784e2db81f75"},"vehicle_type_id":"4","last_reported":1745168951,"current_range_meters":19200,"station_id":"ce4bgqh2rcd13ifvqc4g","pricing_plan_id":"cebpf4jnsgd1na2vs0mg"},{"bike_id":"68501225-8cea-4f95-ae47-484785f78e68","system_id":"levelo_inurba_marseille","lat":43.32368,"lon":5.38894,"is_reserved":false,"is_disabled":true,"rental_uris":{"android":"levelo://app?vid=68501225-8cea-4f95-ae47-484785f78e68","ios":"levelo://app?vid=68501225-8cea-4f95-ae47-484785f78e68"},"vehicle_type_id":"4","last_reported":1745168951,"current_range_meters":18800,"station_id":"ce4bhqp2rcd13ifvqhog","pricing_plan_id":"cebpf4jnsgd1na2vs0mg"},{"bike_id":"948d5a35-9c81-459d-880f-1bf6fdb9262c","system_id":"levelo_inurba_marseille","lat":43.33762,"lon":5.37382,"is_reserved":false,"is_disabled":false,"rental_uris":{"android":"levelo://app?vid=948d5a35-9c81-459d-880f-1bf6fdb9262c","ios":"levelo://app?vid=948d5a35-9c81-459d-880f-1bf6fdb9262c"},"vehicle_type_id":"4","last_reported":1745168951,"current_range_meters":18800,"station_id":"","pricing_plan_id":"cebpf4jnsgd1na2vs0mg"},{"bike_id":"f5082407-ad9f-416d-b3f3-a40cd04bfde3","system_id":"levelo_inurba_marseille","lat":43.2307,"lon":5.35501,"is_reserved":false,"is_disabled":false,"rental_uris":{"android":"levelo://app?vid=f5082407-ad9f-416d-b3f3-a40cd04bfde3","ios":"levelo://app?vid=f5082407-ad9f-416d-b3f3-a40cd04bfde3"},"vehicle_type_id":"4","last_reported":1745168951,"current_range_meters":18800,"station_id":"cpo3342slgdg3j2ifvpg","pricing_plan_id":"cebpf4jnsgd1na2vs0mg"},{"bike_id":"0df66e0a-9fc8-4b65-8ac4-cdbc9cef329a","system_id":"levelo_inurba_marseille","lat":43.31013,"lon":5.38308,"is_reserved":false,"is_disabled":true,"rental_uris":{"android":"levelo://app?vid=0df66e0a-9fc8-4b65-8ac4-cdbc9cef329a","ios":"levelo://app?vid=0df66e0a-9fc8-4b65-8ac4-cdbc9cef329a"},"vehicle_type_id":"4","last_reported":1745168951,"current_range_meters":18800,"station_id":"","pricing_plan_id":"cebpf4jnsgd1na2vs0mg"},{"bike_id":"708a791d-3040-4b21-8706-33329d812143","system_id":"levelo_inurba_marseille","lat":43.30702,"lon":5.39241,"is_reserved":false,"is_disabled":true,"rental_uris":{"android":"levelo://app?vid=708a791d-3040-4b21-8706-33329d812143","ios":"levelo://app?vid=708a791d-3040-4b21-8706-33329d812143"},"vehicle_type_id":"4","last_reported":1745168951,"current_range_meters":18800,"station_id":"","pricing_plan_id":"cebpf4jnsgd1na2vs0mg"},{"bike_id":"b27a9d1c-abb4-43c8-8463-09cd46049d42","system_id":"levelo_inurba_marseille","lat":43.26201,"lon":5.37443,"is_reserved":false,"is_disabled":true,"rental_uris":{"android":"levelo://app?vid=b27a9d1c-abb4-43c8-8463-09cd46049d42","ios":"levelo://app?vid=b27a9d1c-abb4-43c8-8463-09cd46049d42"},"vehicle_type_id":"4","last_reported":1745168951,"current_range_meters":18800,"station_id":"ce4bhgp2rcd13ifvqfc0","pricing_plan_id":"cebpf4jnsgd1na2vs0mg"},