{"last_updated":1710799631,"ttl":30,"version":"2.2","data":{"bikes":[{"bike_id":"b7926872-7008-4368-b40b-c80ffc8a2856","system_id":"levelo_inurba_marseille","lat":43.313391,"lon":5.36706,"is_reserved":false,"is_disabled":false,"rental_uris":{"android":"levelo://app?vid=b7926872-7008-4368-b40b-c80ffc8a2856","ios":"levelo://app?vid=b7926872-7008-4368-b40b-c80ffc8a2856"},"vehicle_type_id":"4","last_reported":1710799631,"current_range_meters":23600,"station_id":"ce4bgr92rcd13ifvqc6g","pricing_plan_id":"cebpf4jnsgd1na2vs0mg"},{"bike_id":"1ad43c00-d2bc-40cb-9aae-be409219d15a","system_id":"levelo_inurba_marseille","lat":43.31215,"lon":5.368593,"is_reserved":false,"is_disabled":false,"rental_uris":{"android":"levelo://app?vid=1ad43c00-d2bc-40cb-9aae-be409219d15a","ios":"levelo://app?vid=1ad43c00-d2bc-40cb-9aae-be409219d15a"},"vehicle_type_id":"4","last_reported":1710799631,"current_range_meters":12400,"station_id":"ce4bgl92rcd13ifvqbq0","pricing_plan_id":"cebpf4jnsgd1na2vs0mg"},{"bike_id":"f77352b4-7a5e-4a1f-8f51-6529ee7a4ccd","system_id":"levelo_inurba_marseille","lat":43.31215,"lon":5.3687,"is_reserved":false,"is_disabled":false,"rental_uris":{"android":"levelo://app?vid=f77352b4-7a5e-4a1f-8f51-6529ee7a4ccd","ios":"levelo://app?vid=f77352b4-7a5e-4a1f-8f51-6529ee7a4ccd"},"vehicle_type_id":"4","last_reported":1710799631,"current_range_meters":0,"station_id":"ce4bgl92rcd13ifvqbq0","pricing_plan_id":"cebpf4jnsgd1na2vs0mg"},{"bike_id":"e6ef5c21-1cf9-4276-bff2-ba04c7c9ba91","system_id":"levelo_inurba_marseille","lat":43.31385,"lon":5.37093,"is_reserved":false,"is_disabled":false,"rental_uris":{"android":"levelo://app?vid=e6ef5c21-1cf9-4276-bff2-ba04c7c9ba91","ios":"levelo://app?vid=e6ef5c21-1cf9-4276-bff2-ba04c7c9ba91"},"vehicle_type_id":"4","last_reported":1710799631,"current_range_meters":0,"station_id":"ce4bhlh2rcd13ifvqgig","pricing_plan_id":"cebpf4jnsgd1na2vs0mg"},{"bike_id":"9edcf5f2-d9fe-4b2d-afee-49dd8cf678f6","system_id":"levelo_inurba_marseille","lat":43.309076,"lon":5.368465,"is_reserved":false,"is_disabled":false,"rental_uris":{"android":"levelo://app?vid=9edcf5f2-d9fe-4b2d-afee-49dd8cf678f6","ios":"levelo://app?vid=9edcf5f2-d9fe-4b2d-afee-49dd8cf678f6"},"vehicle_type_id":"4","last_reported":1710799631,"current_range_meters":6800,"station_id":"ce4bgn92rcd13ifvqbvg","pricing_plan_id":"cebpf4jnsgd1na2vs0mg"},{"bike_id":"7decb084-e44b-48ba-a392-aba23921a623","system_id":"levelo_inurba_marseille","lat":43.314811,"lon":5.373103,"is_reserved":false,"is_disabled":false,"rental_uris":{"android":"levelo://app?vid=7decb084-e44b-48ba-a392-aba23921a623","ios":"levelo://app?vid=7decb084-e44b-48ba-a392-aba23921a623"},"vehicle_type_id":"4","last_reported":1710799631,"current_range_meters":400,"station_id":"ce4bgt12rcd13ifvqcd0","pricing_plan_id":"cebpf4jnsgd1na2vs0mg"},{"bike_id":"cc7baa7a-8afc-461d-8f70-047dc6c2d13c","system_id":"levelo_inurba_marseille","lat":43.314811,"lon":5.373104,"is_reserved":false,"is_disabled":false,"rental_uris":{"android":"levelo://app?vid=cc7baa7a-8afc-461d-8f70-047dc6c2d13c","ios":"levelo://app?vid=cc7baa7a-8afc-461d-8f70-047dc6c2d13c"},"vehicle_type_id":"4","last_reported":1710799631,"current_range_meters":5200,"station_id":"ce4bgt12rcd13ifvqcd0","pricing_plan_id":"cebpf4jnsgd1na2vs0mg"},{"bike_id":"37660324-323a-4a0c-a14c-cd6e22214ad3","system_id":"levelo_inurba_marseille","lat":43.314811,"lon":5.373103,"is_reserved":false,"is_disabled":false,"rental_uris":{"android":"levelo://app?vid=37660324-323a-4a0c-a14c-cd6e22214ad3","ios":"levelo://app?vid=37660324-323a-4a0c-a14c-cd6e22214ad3"},"vehicle_type_id":"4","last_reported":1710799631,"current_range_meters":24000,"station_id":"ce4bgt12rcd13ifvqcd0","pricing_plan_id":"cebpf4jnsgd1na2vs0mg"},{"bike_id":"ee356d9c-3e70-43d3-bd6a-c62e97611712","system_id":"levelo_inurba_marseille","lat":43.30894,"lon":5.37195,"is_reserved":false,"is_disabled":false,"rental_uris":{"android":"levelo://app?vid=ee356d9c-3e70-43d3-bd6a-c62e97611712","ios":"levelo://app?vid=ee356d9c-3e70-43d3-bd6a-c62e97611712"},"vehicle_type_id":"4","last_reported":1710799631,"current_range_meters":1200,"station_id":"ce4bguh2rcd13ifvqckg","pricing_plan_id":"cebpf4jnsgd1na2vs0mg"},{"bike_id":"e445d5dd-3907-468d-aa12-50449a5a01d9","system_id":"levelo_inurba_marseille","lat":43.309034,"lon":5.371783,"is_reserved":false,"is_disabled":false,"rental_uris":{"android":"levelo://app?vid=e445d5dd-3907-468d-aa12-50449a5a01d9","ios":"levelo://app?vid=e445d5dd-3907-468d-aa12-50449a5a01d9"},"vehicle_type_id":"4","last_reported":1710799631,"current_range_meters":30800,"station_id":"ce4bguh2rcd13ifvqckg","pricing_plan_id":"cebpf4jnsgd1na2vs0mg"},{"bike_id":"259714eb-1cf7-4945-ad72-e2a82fc62e47","system_id":"levelo_inurba_marseille","lat":43.30884,"lon":5.37195,"is_reserved":false,"is_disabled":false,"rental_uris":{"android":"levelo://app?vid=259714eb-1cf7-4945-ad72-e2a82fc62e47","ios":"levelo://app?vid=259714eb-1cf7-4945-ad72-e2a82fc62e47"},"vehicle_type_id":"4","last_reported":1710799631,"current_range_meters":6800,"station_id":"ce4bguh2rcd13ifvqckg","pricing_plan_id":"cebpf4jnsgd1na2vs0mg"},{"bike_id":"61cd0db7-8da8-4be9-9f54-c274dd161e11","system_id":"levelo_inurba_marseille","lat":43.309034,"lon":5.371783,"is_reserved":false,"is_disabled":false,"rental_uris":{"android":"levelo://app?vid=61cd0db7-8da8-4be9-9f54-c274dd161e11","ios":"levelo://app?vid=61cd0db7-8da8-4be9-9f54-c274dd161e11"},"vehicle_type_id":"4","last_reported":1710799631,"current_range_meters":20400,"station_id":"ce4bguh2rcd13ifvqckg","pricing_plan_id":"cebpf4jnsgd1na2vs0mg"},{"bike_id":"6b6d26f6-79c7-470d-8521-139f89c9b80b","system_id":"levelo_inurba_marseille","lat":43.30878,"lon":5.37195,"is_reserved":false,"is_disabled":false,"rental_uris":{"android":"levelo://app?vid=6b6d26f6-79c7-470d-8521-139f89c9b80b","ios":"levelo://app?vid=6b6d26f6-79c7-470d-8521-139f89c9b80b"},"vehicle_type_id":"4","last_reported":1710799631,"current_range_meters":9600,"station_id":"ce4bguh2rcd13ifvqckg","pricing_plan_id":"cebpf4jnsgd1na2vs0mg"},{"bike_id":"f332ae54-6f47-4cc0-a732-69a8a874adc6","system_id":"levelo_inurba_marseille","lat":43.30874,"lon":5.37192,"is_reserved":false,"is_disabled":false,"rental_uris":{"android":"levelo://app?vid=f332ae54-6f47-4cc0-a732-69a8a874adc6","ios":"levelo://app?vid=f332ae54-6f47-4cc0-a732-69a8a874adc6"},"vehicle_type_id":"4","last_reported":1710799631,"current_range_meters":2000,"station_id":"ce4bguh2rcd13ifvqckg","pricing_plan_id":"cebpf4jnsgd1na2vs0mg"},{"bike_id":"d11dc842-df4d-45f4-9785-84b64151d8d2","system_id":"levelo_inurba_marseille","lat":43.30864,"lon":5.37181,"is_reserved":false,"is_disabled":false,"rental_uris":{"android":"levelo://app?vid=d11dc842-df4d-45f4-9785-84b64151d8d2","ios":"levelo://app?vid=d11dc842-df4d-45f4-9785-84b64151d8d2"},"vehicle_type_id":"4","last_reported":1710799631,"current_range_meters":1600,"station_id":"ce4bguh2rcd13ifvqckg","pricing_plan_id":"cebpf4jnsgd1na2vs0mg"},{"bike_id":"6d1e82b2-38a9-4375-a41a-07b4c66a2520","system_id":"levelo_inurba_marseille","lat":43.309034,"lon":5.371783,"is_reserved":false,"is_disabled":false,"rental_uris":{"android":"levelo://app?vid=6d1e82b2-38a9-4375-a41a-07b4c66a2520","ios":"levelo://app?vid=6d1e82b2-38a9-4375-a41a-07b4c66a2520"},"vehicle_type_id":"4","last_reported":1710799631,"current_range_meters":11600,"station_id":"ce4bguh2rcd13ifvqckg","pricing_plan_id":"cebpf4jnsgd1na2vs0mg"},{"bike_id":"7939e73c-62e4-48b8-bb92-3872e47628b2","system_id":"levelo_inurba_marseille","lat":43.305368,"lon":5.367343,"is_reserved":false,"is_disabled":false,"rental_uris":{"android":"levelo://app?vid=7939e73c-62e4-48b8-bb92-3872e47628b2","ios":"levelo://app?vid=7939e73c-62e4-48b8-bb92-3872e47628b2"},"vehicle_type_id":"4","last_reported":1710799631,"current_range_meters":18800,"station_id":"ce4bgrp2rcd13ifvqc9g","pricing_plan_id":"cebpf4jnsgd1na2vs0mg"},{"bike_id":"9eca312e-76fb-4ab3-a6a0-46fdf794e63a","system_id":"levelo_inurba_marseille","lat":43.305368,"lon":5.367343,"is_reserved":false,"is_disabled":false,"rental_uris":{"android":"levelo://app?vid=9eca312e-76fb-4ab3-a6a0-46fdf794e63a","ios":"levelo://app?vid=9eca312e-76fb-4ab3-a6a0-46fdf794e63a"},"vehicle_type_id":"4","last_reported":1710799631,"current_range_meters":24000,"station_id":"ce4bgrp2rcd13ifvqc9g","pricing_plan_id":"cebpf4jnsgd1na2vs0mg"},{"bike_id":"91a00877-19b7-49cc-b761-595c606029d8","system_id":"levelo_inurba_marseille","lat":43.305368,"lon":5.367343,"is_reserved":false,"is_disabled":false,"rental_uris":{"android":"levelo://app?vid=91a00877-19b7-49cc-b761-595c606029d8","ios":"levelo://app?vid=91a00877-19b7-49cc-b761-595c606029d8"},"vehicle_type_id":"4","last_reported":1710799631,"current_range_meters":23600,"station_id":"ce4bgrp2rcd13ifvqc9g","pricing_plan_id":"cebpf4jnsgd1na2vs0mg"},{"bike_id":"c5e9a4ba-62d3-4904-abfe-8fe96f89a4c2","system_id":"levelo_inurba_marseille","lat":43.305368,"lon":5.367343,"is_reserved":false,"is_disabled":false,"rental_uris":{"android":"levelo://app?vid=c5e9a4ba-62d3-4904-abfe-8fe96f89a4c2","ios":"levelo://app?vid=c5e9a4ba-62d3-4904-abfe-8fe96f89a4c2"},"vehicle_type_id":"4","last_reported":1710799631,"current_range_meters":20000,"station_id":"ce4bgrp2rcd13ifvqc9g","pricing_plan_id":"cebpf4jnsgd1na2vs0mg"},{"bike_id":"8a919797-f788-4e70-aa73-685ab4f53a2a","system_id":"levelo_inurba_marseille","lat":43.305368,"lon":5.367343,"is_reserved":false,"is_disabled":false,"rental_uris":{"android":"levelo://app?vid=8a919797-f788-4e70-aa73-685ab4f53a2a","ios":"levelo://app?vid=8a919797-f788-4e70-aa73-685ab4f53a2a"},"vehicle_type_id":"4","last_reported":1710799631,"current_range_meters":24000,"station_id":"ce4bgrp2rcd13ifvqc9g","pricing_plan_id":"cebpf4jnsgd1na2vs0mg"},{"bike_id":"928c9ccc-0292-48c1-aa2a-9b544be66595","system_id":"levelo_inurba_marseille","lat":43.305368,"lon":5.367343,"is_reserved":false,"is_disabled":false,"rental_uris":{"android":"levelo://app?vid=928c9ccc-0292-48c1-aa2a-9b544be66595","ios":"levelo://app?vid=928c9ccc-0292-48c1-aa2a-9b544be66595"},"vehicle_type_id":"4","last_reported":1710799631,"current_range_meters":23600,"station_id":"ce4bgrp2rcd13ifvqc9g","pricing_plan_id":"cebpf4jnsgd1na2vs0mg"},{"bike_id":"8a493350-dea5-453f-a91e-61d425b64355","system_id":"levelo_inurba_marseille","lat":43.305368,"lon":5.367343,"is_reserved":false,"is_disabled":false,"rental_uris":{"android":"levelo://app?vid=8a493350-dea5-453f-a91e-61d425b64355","ios":"levelo://app?vid=8a493350-dea5-453f-a91e-61d425b64355"},"vehicle_type_id":"4","last_reported":1710799631,"current_range_meters":13200,"station_id":"ce4bgrp2rcd13ifvqc9g","pricing_plan_id":"cebpf4jnsgd1na2vs0mg"},{"bike_id":"bf89e605-bbf4-4cad-8f90-ab4434774faa","system_id":"levelo_inurba_marseille","lat":43.305989,"lon":5.37225,"is_reserved":false,"is_disabled":false,"rental_uris":{"android":"levelo://app?vid=bf89e605-bbf4-4cad-8f90-ab4434774faa","ios":"levelo://app?vid=bf89e605-bbf4-4cad-8f90-ab4434774faa"},"vehicle_type_id":"4","last_reported":1710799631,"current_range_meters":28400,"station_id":"ce4bgqh2rcd13ifvqc4g","pricing_plan_id":"cebpf4jnsgd1na2vs0mg"},{"bike_id":"e55ddab7-c2e7-4c67-a0d3-2acd53acdfcf","system_id":"levelo_inurba_marseille","lat":43.30593,"lon":5.37222,"is_reserved":false,"is_disabled":false,"rental_uris":{"android":"levelo://app?vid=e55ddab7-c2e7-4c67-a0d3-2acd53acdfcf","ios":"levelo://app?vid=e55ddab7-c2e7-4c67-a0d3-2acd53acdfcf"},"vehicle_type_id":"4","last_reported":1710799631,"current_range_meters":22800,"station_id":"ce4bgqh2rcd13ifvqc4g","pricing_plan_id":"cebpf4jnsgd1na2vs0mg"},{"bike_id":"37f0200e-5623-456a-a450-2f3cf94899ae","system_id":"levelo_inurba_marseille","lat":43.311131,"lon":5.377651,"is_reserved":false,"is_disabled":false,"rental_uris":{"android":"levelo://app?vid=37f0200e-5623-456a-a450-2f3cf94899ae","ios":"levelo://app?vid=37f0200e-5623-456a-a450-2f3cf94899ae"},"vehicle_type_id":"4","last_reported":1710799631,"current_range_meters":0,"station_id":"ce4bgt92rcd13ifvqcg0","pricing_plan_id":"cebpf4jnsgd1na2vs0mg"},{"bike_id":"cc592264-a021-412f-8564-f49ef52805dc","system_id":"levelo_inurba_marseille","lat":43.311125,"lon":5.377624,"is_reserved":false,"is_disabled":false,"rental_uris":{"android":"levelo://app?vid=cc592264-a021-412f-8564-f49ef52805dc","ios":"levelo://app?vid=cc592264-a021-412f-8564-f49ef52805dc"},"vehicle_type_id":"4","last_reported":1710799631,"current_range_meters":2800,"station_id":"ce4bgt92rcd13ifvqcg0","pricing_plan_id":"cebpf4jnsgd1na2vs0mg"},{"bike_id":"a6fa6a5c-ecc8-4aa3-af74-41cef5e31c9c","system_id":"levelo_inurba_marseille","lat":43.311131,"lon":5.377651,"is_reserved":false,"is_disabled":false,"rental_uris":{"android":"levelo://app?vid=a6fa6a5c-ecc8-4aa3-af74-41cef5e31c9c","ios":"levelo://app?vid=a6fa6a5c-ecc8-4aa3-af74-41cef5e31c9c"},"vehicle_type_id":"4","last_reported":1710799631,"current_range_meters":0,"station_id":"ce4bgt92rcd13ifvqcg0","pricing_plan_id":"cebpf4jnsgd1na2vs0mg"},{"bike_id":"7e3e7b1a-145e-4525-beed-d50f7abefd56","system_id":"levelo_inurba_marseille","lat":43.311131,"lon":5.377651,"is_reserved":false,"is_disabled":false,"rental_uris":{"android":"levelo://app?vid=7e3e7b1a-145e-4525-beed-d50f7abefd56","ios":"levelo://app?vid=7e3e7b1a-145e-4525-beed-d50f7abefd56"},"vehicle_type_id":"4","last_reported":1710799631,"current_range_meters":4000,"station_id":"ce4bgt92rcd13ifvqcg0","pricing_plan_id":"cebpf4jnsgd1na2vs0mg"},{"bike_id":"2f1be5c5-6773-4fa6-b358-3dc4e7f929ca","system_id":"levelo_inurba_marseille","lat":43.30788,"lon":5.37656,"is_reserved":false,"is_disabled":false,"rental_uris":{"android":"levelo://app?vid=2f1be5c5-6773-4fa6-b358-3dc4e7f929ca","ios":"levelo://app?vid=2f1be5c5-6773-4fa6-b358-3dc4e7f929ca"},"vehicle_type_id":"4","last_reported":1710799631,"current_range_meters":2400,"station_id":"ce4bgv92rcd13ifvqcq0","pricing_plan_id":"cebpf4jnsgd1na2vs0mg"},{"bike_id":"34a663e1-639c-4527-bea3-66c0912ac09e","system_id":"levelo_inurba_marseille","lat":43.30771,"lon":5.37658,"is_reserved":false,"is_disabled":false,"rental_uris":{"android":"levelo://app?vid=34a663e1-639c-4527-bea3-66c0912ac09e","ios":"levelo://app?vid=34a663e1-639c-4527-bea3-66c0912ac09e"},"vehicle_type_id":"4","last_reported":1710799631,"current_range_meters":22000,"station_id":"ce4bgv92rcd13ifvqcq0","pricing_plan_id":"cebpf4jnsgd1na2vs0mg"},{"bike_id":"11788530-fa07-4ccf-b305-165c1370928e","system_id":"levelo_inurba_marseille","lat":43.305368,"lon":5.367343,"is_reserved":false,"is_disabled":false,"rental_uris":{"android":"levelo://app?vid=11788530-fa07-4ccf-b305-165c1370928e","ios":"levelo://app?vid=11788530-fa07-4ccf-b305-165c1370928e"},"vehicle_type_id":"4","last_reported":1710799631,"current_range_meters":2800,"station_id":"ce4bgrp2rcd13ifvqc9g","pricing_plan_id":"cebpf4jnsgd1na2vs0mg"},{"bike_id":"2d6190ea-8b8d-4b2c-a985-f29112fc8fe3","system_id":"levelo_inurba_marseille","lat":43.317075,"lon":5.377367,"is_reserved":false,"is_disabled":false,"rental_uris":{"android":"levelo://app?vid=2d6190ea-8b8d-4b2c-a985-f29112fc8fe3","ios":"levelo://app?vid=2d6190ea-8b8d-4b2c-a985-f29112fc8fe3"},"vehicle_type_id":"4","last_reported":1710799631,"current_range_meters":0,"station_id":"ce4bgth2rcd13ifvqch0","pricing_plan_id":"cebpf4jnsgd1na2vs0mg"},{"bike_id":"3dade923-d49a-498b-a84a-7ecb87699f07","system_id":"levelo_inurba_marseille","lat":43.320623,"lon":5.372887,"is_reserved":false,"is_disabled":false,"rental_uris":{"android":"levelo://app?vid=3dade923-d49a-498b-a84a-7ecb87699f07","ios":"levelo://app?vid=3dade923-d49a-498b-a84a-7ecb87699f07"},"vehicle_type_id":"4","last_reported":1710799631,"current_range_meters":14800,"station_id":"","pricing_plan_id":"cebpf4jnsgd1na2vs0mg"},{"bike_id":"53b6b800-8c85-4de3-a80e-b3c45eb2bf63","system_id":"levelo_inurba_marseille","lat":43.30304,"lon":5.368987,"is_reserved":false,"is_disabled":false,"rental_uris":{"android":"levelo://app?vid=53b6b800-8c85-4de3-a80e-b3c45eb2bf63","ios":"levelo://app?vid=53b6b800-8c85-4de3-a80e-b3c45eb2bf63"},"vehicle_type_id":"4","last_reported":1710799631,"current_range_meters":16000,"station_id":"ce4bgqh2rcd13ifvqc5g","pricing_plan_id":"cebpf4jnsgd1na2vs0mg"},{"bike_id":"a5755d2e-536f-4cd6-870b-5dc413b48a8a","system_id":"levelo_inurba_marseille","lat":43.30304,"lon":5.368987,"is_reserved":false,"is_disabled":false,"rental_uris":{"android":"levelo://app?vid=a5755d2e-536f-4cd6-870b-5dc413b48a8a","ios":"levelo://app?vid=a5755d2e-536f-4cd6-870b-5dc413b48a8a"},"vehicle_type_id":"4","last_reported":1710799631,"current_range_meters":30800,"station_id":"ce4bgqh2rcd13ifvqc5g","pricing_plan_id":"cebpf4jnsgd1na2vs0mg"},{"bike_id":"d9bfbf9e-0c8e-4fa7-b7da-2493407971e3","system_id":"levelo_inurba_marseille","lat":43.303046,"lon":5.368981,"is_reserved":false,"is_disabled":false,"rental_uris":{"android":"levelo://app?vid=d9bfbf9e-0c8e-4fa7-b7da-2493407971e3","ios":"levelo://app?vid=d9bfbf9e-0c8e-4fa7-b7da-2493407971e3"},"vehicle_type_id":"4","last_reported":1710799631,"current_range_meters":16400,"station_id":"ce4bgqh2rcd13ifvqc5g","pricing_plan_id":"cebpf4jnsgd1na2vs0mg"},{"bike_id":"a3d0ccad-da3f-4c45-a728-d202667abaf6","system_id":"levelo_inurba_marseille","lat":43.303046,"lon":5.368981,"is_reserved":false,"is_disabled":false,"rental_uris":{"android":"levelo://app?vid=a3d0ccad-da3f-4c45-a728-d202667abaf6","ios":"levelo://app?vid=a3d0ccad-da3f-4c45-a728-d202667abaf6"},"vehicle_type_id":"4","last_reported":1710799631,"current_range_meters":8800,"station_id":"ce4bgqh2rcd13ifvqc5g","pricing_plan_id":"cebpf4jnsgd1na2vs0mg"},{"bike_id":"8521c052-35c3-42e7-97b8-e1991f924853","system_id":"levelo_inurba_marseille","lat":43.30567,"lon":5.37644,"is_reserved":false,"is_disabled":false,"rental_uris":{"android":"levelo://app?vid=8521c052-35c3-42e7-97b8-e1991f924853","ios":"levelo://app?vid=8521c052-35c3-42e7-97b8-e1991f924853"},"vehicle_type_id":"4","last_reported":1710799631,"current_range_meters":11600,"station_id":"","pricing_plan_id":"cebpf4jnsgd1na2vs0mg"},{"bike_id":"c7ddc5e7-5888-46a5-977b-b52c6c7ce114","system_id":"levelo_inurba_marseille","lat":43.315289,"lon":5.380349,"is_reserved":false,"is_disabled":false,"rental_uris":{"android":"levelo://app?vid=c7ddc5e7-5888-46a5-977b-b52c6c7ce114","ios":"levelo://app?vid=c7ddc5e7-5888-46a5-977b-b52c6c7ce114"},"vehicle_type_id":"4","last_reported":1710799631,"current_range_meters":16400,"station_id":"ce4bhsp2rcd13ifvqi50","pricing_plan_id":"cebpf4jnsgd1na2vs0mg"},{"bike_id":"8e255f8b-0d64-4b4e-b89e-d86810bd0165","system_id":"levelo_inurba_marseille","lat":43.315289,"lon":5.380349,"is_reserved":false,"is_disabled":false,"rental_uris":{"android":"levelo://app?vid=8e255f8b-0d64-4b4e-b89e-d86810bd0165","ios":"levelo://app?vid=8e255f8b-0d64-4b4e-b89e-d86810bd0165"},"vehicle_type_id":"4","last_reported":1710799631,"current_range_meters":1600,"station_id":"ce4bhsp2rcd13ifvqi50","pricing_plan_id":"cebpf4jnsgd1na2vs0mg"},{"bike_id":"850ed1c8-4739-4861-82e5-201f476f008d","system_id":"levelo_inurba_marseille","lat":43.315289,"lon":5.380349,"is_reserved":false,"is_disabled":false,"rental_uris":{"android":"levelo://app?vid=850ed1c8-4739-4861-82e5-201f476f008d","ios":"levelo://app?vid=850ed1c8-4739-4861-82e5-201f476f008d"},"vehicle_type_id":"4","last_reported":1710799631,"current_range_meters":0,"station_id":"ce4bhsp2rcd13ifvqi50","pricing_plan_id":"cebpf4jnsgd1na2vs0mg"},{"bike_id":"0f7cc778-bbe3-44ce-85c1-ef41fc360de7","system_id":"levelo_inurba_marseille","lat":43.315293,"lon":5.380349,"is_reserved":false,"is_disabled":false,"rental_uris":{"android":"levelo://app?vid=0f7cc778-bbe3-44ce-85c1-ef41fc360de7","ios":"levelo://app?vid=0f7cc778-bbe3-44ce-85c1-ef41fc360de7"},"vehicle_type_id":"4","last_reported":1710799631,"current_range_meters":25600,"station_id":"ce4bhsp2rcd13ifvqi50","pricing_plan_id":"cebpf4jnsgd1na2vs0mg"},{"bike_id":"fd036502-95fa-41ac-aaf5-af2583dcb30a","system_id":"levelo_inurba_marseille","lat":43.301939,"lon":5.366286,"is_reserved":false,"is_disabled":false,"rental_uris":{"android":"levelo://app?vid=fd036502-95fa-41ac-aaf5-af2583dcb30a","ios":"levelo://app?vid=fd036502-95fa-41ac-aaf5-af2583dcb30a"},"vehicle_type_id":"4","last_reported":1710799631,"current_range_meters":9600,"station_id":"ce4bgrh2rcd13ifvqc8g","pricing_plan_id":"cebpf4jnsgd1na2vs0mg"},{"bike_id":"74e5bac9-8bb3-4d73-962a-5ab714ef6be7","system_id":"levelo_inurba_marseille","lat":43.301939,"lon":5.366286,"is_reserved":false,"is_disabled":false,"rental_uris":{"android":"levelo://app?vid=74e5bac9-8bb3-4d73-962a-5ab714ef6be7","ios":"levelo://app?vid=74e5bac9-8bb3-4d73-962a-5ab714ef6be7"},"vehicle_type_id":"4","last_reported":1710799631,"current_range_meters":28800,"station_id":"ce4bgrh2rcd13ifvqc8g","pricing_plan_id":"cebpf4jnsgd1na2vs0mg"},{"bike_id":"7753904b-accb-4660-b01f-35c7cb746bfb","system_id":"levelo_inurba_marseille","lat":43.301939,"lon":5.366286,"is_reserved":false,"is_disabled":false,"rental_uris":{"android":"levelo://app?vid=7753904b-accb-4660-b01f-35c7cb746bfb","ios":"levelo://app?vid=7753904b-accb-4660-b01f-35c7cb746bfb"},"vehicle_type_id":"4","last_reported":1710799631,"current_range_meters":30000,"station_id":"ce4bgrh2rcd13ifvqc8g","pricing_plan_id":"cebpf4jnsgd1na2vs0mg"},{"bike_id":"16d784bd-22bf-440d-8ab4-5291260b5972","system_id":"levelo_inurba_marseille","lat":43.301939,"lon":5.366286,"is_reserved":false,"is_disabled":false,"rental_uris":{"android":"levelo://app?vid=16d784bd-22bf-440d-8ab4-5291260b5972","ios":"levelo://app?vid=16d784bd-22bf-440d-8ab4-5291260b5972"},"vehicle_type_id":"4","last_reported":1710799631,"current_range_meters":27200,"station_id":"ce4bgrh2rcd13ifvqc8g","pricing_plan_id":"cebpf4jnsgd1na2vs0mg"},{"bike_id":"ee94c9e6-5137-4885-a2ab-e236a5233766","system_id":"levelo_inurba_marseille","lat":43.308012,"lon":5.381511,"is_reserved":false,"is_disabled":false,"rental_uris":{"android":"levelo://app?vid=ee94c9e6-5137-4885-a2ab-e236a5233766","ios":"levelo://app?vid=ee94c9e6-5137-4885-a2ab-e236a5233766"},"vehicle_type_id":"4","last_reported":1710799631,"current_range_meters":25600,"station_id":"ce4bgt12rcd13ifvqce0","pricing_plan_id":"cebpf4jnsgd1na2vs0mg"},{"bike_id":"5b749c70-1a83-4edd-808d-fa9a4a5d67ee","system_id":"levelo_inurba_marseille","lat":43.308012,"lon":5.381511,"is_reserved":false,"is_disabled":false,"rental_uris":{"android":"levelo://app?vid=5b749c70-1a83-4edd-808d-fa9a4a5d67ee","ios":"levelo://app?vid=5b749c70-1a83-4edd-808d-fa9a4a5d67ee"},"vehicle_type_id":"4","last_reported":1710799631,"current_range_meters":12400,"station_id":"ce4bgt12rcd13ifvqce0","pricing_plan_id":"cebpf4jnsgd1na2vs0mg"},{"bike_id":"75323989-6cf7-4fbd-a532-30a66cd4400b","system_id":"levelo_inurba_marseille","lat":43.308012,"lon":5.381511,"is_reserved":false,"is_disabled":false,"rental_uris":{"android":"levelo://app?vid=75323989-6cf7-4fbd-a532-30a66cd4400b","ios":"levelo://app?vid=75323989-6cf7-4fbd-a532-30a66cd4400b"},"vehicle_type_id":"4","last_reported":1710799631,"current_range_meters":15200,"station_id":"ce4bgt12rcd13ifvqce0","pricing_plan_id":"cebpf4jnsgd1na2vs0mg"},{"bike_id":"a8fa818c-0d35-4eaa-b51f-64f283778fb8","system_id":"levelo_inurba_marseille","lat":43.308012,"lon":5.381511,"is_reserved":false,"is_disabled":false,"rental_uris":{"android":"levelo://app?vid=a8fa818c-0d35-4eaa-b51f-64f283778fb8","ios":"levelo://app?vid=a8fa818c-0d35-4eaa-b51f-64f283778fb8"},"vehicle_type_id":"4","last_reported":1710799631,"current_range_meters":19200,"station_id":"ce4bgt12rcd13ifvqce0","pricing_plan_id":"cebpf4jnsgd1na2vs0mg"},{"bike_id":"ef44b413-51a1-4585-ad91-bccabd0cac9a","system_id":"levelo_inurba_marseille","lat":43.308012,"lon":5.381511,"is_reserved":false,"is_disabled":false,"rental_uris":{"android":"levelo://app?vid=ef44b413-51a1-4585-ad91-bccabd0cac9a","ios":"levelo://app?vid=ef44b413-51a1-4585-ad91-bccabd0cac9a"},"vehicle_type_id":"4","last_reported":1710799631,"current_range_meters":31200,"station_id":"ce4bgt12rcd13ifvqce0","pricing_plan_id":"cebpf4jnsgd1na2vs0mg"},{"bike_id":"b2c5a640-3a19-496a-943f-5a07aacd2e64","system_id":"levelo_inurba_marseille","lat":43.308012,"lon":5.381511,"is_reserved":false,"is_disabled":false,"rental_uris":{"android":"levelo://app?vid=b2c5a640-3a19-496a-943f-5a07aacd2e64","ios":"levelo://app?vid=b2c5a640-3a19-496a-943f-5a07aacd2e64"},"vehicle_type_id":"4","last_reported":1710799631,"current_range_meters":9600,"station_id":"ce4bgt12rcd13ifvqce0","pricing_plan_id":"cebpf4jnsgd1na2vs0mg"},{"bike_id":"cfb73d21-6fc5-491f-833d-c718beb221da","system_id":"levelo_inurba_marseille","lat":43.308012,"lon":5.381511,"is_reserved":false,"is_disabled":false,"rental_uris":{"android":"levelo://app?vid=cfb73d21-6fc5-491f-833d-c718beb221da","ios":"levelo://app?vid=cfb73d21-6fc5-491f-833d-c718beb221da"},"vehicle_type_id":"4","last_reported":1710799631,"current_range_meters":5600,"station_id":"ce4bgt12rcd13ifvqce0","pricing_plan_id":"cebpf4jnsgd1na2vs0mg"},{"bike_id":"7289da1e-ef86-4ecd-bbd4-11a50e4be109","system_id":"levelo_inurba_marseille","lat":43.308012,"lon":5.381511,"is_reserved":false,"is_disabled":false,"rental_uris":{"android":"levelo://app?vid=7289da1e-ef86-4ecd-bbd4-11a50e4be109","ios":"levelo://app?vid=7289da1e-ef86-4ecd-bbd4-11a50e4be109"},"vehicle_type_id":"4","last_reported":1710799631,"current_range_meters":16400,"station_id":"ce4bgt12rcd13ifvqce0","pricing_plan_id":"cebpf4jnsgd1na2vs0mg"},{"bike_id":"4f1a6c07-6e69-4d90-ad57-8c659e405549","system_id":"levelo_inurba_marseille","lat":43.308012,"lon":5.381511,"is_reserved":false,"is_disabled":false,"rental_uris":{"android":"levelo://app?vid=4f1a6c07-6e69-4d90-ad57-8c659e405549","ios":"levelo://app?vid=4f1a6c07-6e69-4d90-ad57-8c659e405549"},"vehicle_type_id":"4","last_reported":1710799631,"current_range_meters":21200,"station_id":"ce4bgt12rcd13ifvqce0","pricing_plan_id":"cebpf4jnsgd1na2vs0mg"},{"bike_id":"2326aaef-aa0e-4a93-888f-ffd4f5d035a5","system_id":"levelo_inurba_marseille","lat":43.308012,"lon":5.381511,"is_reserved":false,"is_disabled":false,"rental_uris":{"android":"levelo://app?vid=2326aaef-aa0e-4a93-888f-ffd4f5d035a5","ios":"levelo://app?vid=2326aaef-aa0e-4a93-888f-ffd4f5d035a5"},"vehicle_type_id":"4","last_reported":1710799631,"current_range_meters":18400,"station_id":"ce4bgt12rcd13ifvqce0","pricing_plan_id":"cebpf4jnsgd1na2vs0mg"},{"bike_id":"efabe2d7-0eb6-46b5-8b3e-493077afb07e","system_id":"levelo_inurba_marseille","lat":43.308012,"lon":5.381511,"is_reserved":false,"is_disabled":false,"rental_uris":{"android":"levelo://app?vid=efabe2d7-0eb6-46b5-8b3e-493077afb07e","ios":"levelo://app?vid=efabe2d7-0eb6-46b5-8b3e-493077afb07e"},"vehicle_type_id":"4","last_reported":1710799631,"current_range_meters":18000,"station_id":"ce4bgt12rcd13ifvqce0","pricing_plan_id":"cebpf4jnsgd1na2vs0mg"},{"bike_id":"aef154ad-e5fc-4665-bcd8-96dd5a173c4d","system_id":"levelo_inurba_marseille","lat":43.304606,"lon":5.379026,"is_reserved":false,"is_disabled":false,"rental_uris":{"android":"levelo://app?vid=aef154ad-e5fc-4665-bcd8-96dd5a173c4d","ios":"levelo://app?vid=aef154ad-e5fc-4665-bcd8-96dd5a173c4d"},"vehicle_type_id":"4","last_reported":1710799631,"current_range_meters":12400,"station_id":"ce4bgup2rcd13ifvqcn0","pricing_plan_id":"cebpf4jnsgd1na2vs0mg"},{"bike_id":"e20e5118-3e8b-4949-9ddf-07e7b83ce94d","system_id":"levelo_inurba_marseille","lat":43.30459,"lon":5.37889,"is_reserved":false,"is_disabled":false,"rental_uris":{"android":"levelo://app?vid=e20e5118-3e8b-4949-9ddf-07e7b83ce94d","ios":"levelo://app?vid=e20e5118-3e8b-4949-9ddf-07e7b83ce94d"},"vehicle_type_id":"4","last_reported":1710799631,"current_range_meters":22800,"station_id":"ce4bgup2rcd13ifvqcn0","pricing_plan_id":"cebpf4jnsgd1na2vs0mg"},{"bike_id":"d91a0f49-f44a-40d1-9451-433d992a1fba","system_id":"levelo_inurba_marseille","lat":43.304606,"lon":5.379026,"is_reserved":false,"is_disabled":false,"rental_uris":{"android":"levelo://app?vid=d91a0f49-f44a-40d1-9451-433d992a1fba","ios":"levelo://app?vid=d91a0f49-f44a-40d1-9451-433d992a1fba"},"vehicle_type_id":"4","last_reported":1710799631,"current_range_meters":11200,"station_id":"ce4bgup2rcd13ifvqcn0","pricing_plan_id":"cebpf4jnsgd1na2vs0mg"},{"bike_id":"aaa7d91b-9ab0-4547-8d5d-85efb61c16a8","system_id":"levelo_inurba_marseille","lat":43.30458,"lon":5.37903,"is_reserved":false,"is_disabled":false,"rental_uris":{"android":"levelo://app?vid=aaa7d91b-9ab0-4547-8d5d-85efb61c16a8","ios":"levelo://app?vid=aaa7d91b-9ab0-4547-8d5d-85efb61c16a8"},"vehicle_type_id":"4","last_reported":1710799631,"current_range_meters":18400,"station_id":"ce4bgup2rcd13ifvqcn0","pricing_plan_id":"cebpf4jnsgd1na2vs0mg"},{"bike_id":"c69ae619-ff3a-4b02-a9d9-4fe1177389bd","system_id":"levelo_inurba_marseille","lat":43.324771,"lon":5.36557,"is_reserved":false,"is_disabled":false,"rental_uris":{"android":"levelo://app?vid=c69ae619-ff3a-4b02-a9d9-4fe1177389bd","ios":"levelo://app?vid=c69ae619-ff3a-4b02-a9d9-4fe1177389bd"},"vehicle_type_id":"4","last_reported":1710799631,"current_range_meters":21200,"station_id":"ce4bhs12rcd13ifvqhvg","pricing_plan_id":"cebpf4jnsgd1na2vs0mg"},{"bike_id":"50414698-59d1-4dd1-95e9-1c1e788af058","system_id":"levelo_inurba_marseille","lat":43.324771,"lon":5.36557,"is_reserved":false,"is_disabled":false,"rental_uris":{"android":"levelo://app?vid=50414698-59d1-4dd1-95e9-1c1e788af058","ios":"levelo://app?vid=50414698-59d1-4dd1-95e9-1c1e788af058"},"vehicle_type_id":"4","last_reported":1710799631,"current_range_meters":13600,"station_id":"ce4bhs12rcd13ifvqhvg","pricing_plan_id":"cebpf4jnsgd1na2vs0mg"},{"bike_id":"79a9f218-61ec-4a13-ae01-39c83265df8b","system_id":"levelo_inurba_marseille","lat":43.324771,"lon":5.36557,"is_reserved":false,"is_disabled":false,"rental_uris":{"android":"levelo://app?vid=79a9f218-61ec-4a13-ae01-39c83265df8b","ios":"levelo://app?vid=79a9f218-61ec-4a13-ae01-39c83265df8b"},"vehicle_type_id":"4","last_reported":1710799631,"current_range_meters":16400,"station_id":"ce4bhs12rcd13ifvqhvg","pricing_plan_id":"cebpf4jnsgd1na2vs0mg"},{"bike_id":"c59bee61-0974-4e45-8386-bda8425ea8fd","system_id":"levelo_inurba_marseille","lat":43.324771,"lon":5.36557,"is_reserved":false,"is_disabled":false,"rental_uris":{"android":"levelo://app?vid=c59bee61-0974-4e45-8386-bda8425ea8fd","ios":"levelo://app?vid=c59bee61-0974-4e45-8386-bda8425ea8fd"},"vehicle_type_id":"4","last_reported":1710799631,"current_range_meters":29200,"station_id":"ce4bhs12rcd13ifvqhvg","pricing_plan_id":"cebpf4jnsgd1na2vs0mg"},{"bike_id":"0816793d-1fca-4134-92d4-90b3bf1313d5","system_id":"levelo_inurba_marseille","lat":43.324771,"lon":5.36557,"is_reserved":false,"is_disabled":false,"rental_uris":{"android":"levelo://app?vid=0816793d-1fca-4134-92d4-90b3bf1313d5","ios":"levelo://app?vid=0816793d-1fca-4134-92d4-90b3bf1313d5"},"vehicle_type_id":"4","last_reported":1710799631,"current_range_meters":12000,"station_id":"ce4bhs12rcd13ifvqhvg","pricing_plan_id":"cebpf4jnsgd1na2vs0mg"},{"bike_id":"8b9099eb-80b1-464a-aa4b-fa9039557ba2","system_id":"levelo_inurba_marseille","lat":43.310615,"lon":5.383438,"is_reserved":false,"is_disabled":false,"rental_uris":{"android":"levelo://app?vid=8b9099eb-80b1-464a-aa4b-fa9039557ba2","ios":"levelo://app?vid=8b9099eb-80b1-464a-aa4b-fa9039557ba2"},"vehicle_type_id":"4","last_reported":1710799631,"current_range_meters":14800,"station_id":"","pricing_plan_id":"cebpf4jnsgd1na2vs0mg"},{"bike_id":"9f6389b9-17f0-41c9-97ea-863240e971ec","system_id":"levelo_inurba_marseille","lat":43.31076,"lon":5.383525,"is_reserved":false,"is_disabled":false,"rental_uris":{"android":"levelo://app?vid=9f6389b9-17f0-41c9-97ea-863240e971ec","ios":"levelo://app?vid=9f6389b9-17f0-41c9-97ea-863240e971ec"},"vehicle_type_id":"4","last_reported":1710799631,"current_range_meters":4800,"station_id":"ce4bgv92rcd13ifvqcr0","pricing_plan_id":"cebpf4jnsgd1na2vs0mg"},{"bike_id":"551147e1-df48-452b-8b5a-970917f2119d","system_id":"levelo_inurba_marseille","lat":43.310804,"lon":5.38359,"is_reserved":false,"is_disabled":false,"rental_uris":{"android":"levelo://app?vid=551147e1-df48-452b-8b5a-970917f2119d","ios":"levelo://app?vid=551147e1-df48-452b-8b5a-970917f2119d"},"vehicle_type_id":"4","last_reported":1710799631,"current_range_meters":14800,"station_id":"ce4bgv92rcd13ifvqcr0","pricing_plan_id":"cebpf4jnsgd1na2vs0mg"},{"bike_id":"7394b97a-92b5-4266-a59b-24743581ae01","system_id":"levelo_inurba_marseille","lat":43.31072,"lon":5.38356,"is_reserved":false,"is_disabled":false,"rental_uris":{"android":"levelo://app?vid=7394b97a-92b5-4266-a59b-24743581ae01","ios":"levelo://app?vid=7394b97a-92b5-4266-a59b-24743581ae01"},"vehicle_type_id":"4","last_reported":1710799631,"current_range_meters":20800,"station_id":"ce4bgv92rcd13ifvqcr0","pricing_plan_id":"cebpf4jnsgd1na2vs0mg"},{"bike_id":"0501ebc3-5c7b-4cb6-a5d5-642bbda27349","system_id":"levelo_inurba_marseille","lat":43.310804,"lon":5.38359,"is_reserved":false,"is_disabled":false,"rental_uris":{"android":"levelo://app?vid=0501ebc3-5c7b-4cb6-a5d5-642bbda27349","ios":"levelo://app?vid=0501ebc3-5c7b-4cb6-a5d5-642bbda27349"},"vehicle_type_id":"4","last_reported":1710799631,"current_range_meters":21200,"station_id":"ce4bgv92rcd13ifvqcr0","pricing_plan_id":"cebpf4jnsgd1na2vs0mg"},{"bike_id":"c5fe65a5-edcc-498e-985d-2f129d1f389e","system_id":"levelo_inurba_marseille","lat":43.302784,"lon":5.377158,"is_reserved":false,"is_disabled":false,"rental_uris":{"android":"levelo://app?vid=c5fe65a5-edcc-498e-985d-2f129d1f389e","ios":"levelo://app?vid=c5fe65a5-edcc-498e-985d-2f129d1f389e"},"vehicle_type_id":"4","last_reported":1710799631,"current_range_meters":30800,"station_id":"ce4bguh2rcd13ifvqcj0","pricing_plan_id":"cebpf4jnsgd1na2vs0mg"},{"bike_id":"be83824f-cd7e-44ed-bda3-89905b40ab1f","system_id":"levelo_inurba_marseille","lat":43.319955,"lon":5.381453,"is_reserved":false,"is_disabled":false,"rental_uris":{"android":"levelo://app?vid=be83824f-cd7e-44ed-bda3-89905b40ab1f","ios":"levelo://app?vid=be83824f-cd7e-44ed-bda3-89905b40ab1f"},"vehicle_type_id":"4","last_reported":1710799631,"current_range_meters":10400,"station_id":"ce4bhr12rcd13ifvqhpg","pricing_plan_id":"cebpf4jnsgd1na2vs0mg"},{"bike_id":"4bc451a1-3314-4300-994e-f9fd16ea23b7","system_id":"levelo_inurba_marseille","lat":43.31994,"lon":5.38148,"is_reserved":false,"is_disabled":false,"rental_uris":{"android":"levelo://app?vid=4bc451a1-3314-4300-994e-f9fd16ea23b7","ios":"levelo://app?vid=4bc451a1-3314-4300-994e-f9fd16ea23b7"},"vehicle_type_id":"4","last_reported":1710799631,"current_range_meters":14800,"station_id":"ce4bhr12rcd13ifvqhpg","pricing_plan_id":"cebpf4jnsgd1na2vs0mg"},{"bike_id":"8ddb6b54-97ee-4d1a-946b-e497e8042188","system_id":"levelo_inurba_marseille","lat":43.319878,"lon":5.381565,"is_reserved":false,"is_disabled":false,"rental_uris":{"android":"levelo://app?vid=8ddb6b54-97ee-4d1a-946b-e497e8042188","ios":"levelo://app?vid=8ddb6b54-97ee-4d1a-946b-e497e8042188"},"vehicle_type_id":"4","last_reported":1710799631,"current_range_meters":14800,"station_id":"ce4bhr12rcd13ifvqhpg","pricing_plan_id":"cebpf4jnsgd1na2vs0mg"},{"bike_id":"bf310d92-9fb8-4e92-9e5c-7371b2a2f5f5","system_id":"levelo_inurba_marseille","lat":43.319935,"lon":5.381699,"is_reserved":false,"is_disabled":false,"rental_uris":{"android":"levelo://app?vid=bf310d92-9fb8-4e92-9e5c-7371b2a2f5f5","ios":"levelo://app?vid=bf310d92-9fb8-4e92-9e5c-7371b2a2f5f5"},"vehicle_type_id":"4","last_reported":1710799631,"current_range_meters":7200,"station_id":"ce4bhr12rcd13ifvqhpg","pricing_plan_id":"cebpf4jnsgd1na2vs0mg"},{"bike_id":"a461544d-4cbe-4c75-9346-a4eb45e1e67c","system_id":"levelo_inurba_marseille","lat":43.319935,"lon":5.381699,"is_reserved":false,"is_disabled":false,"rental_uris":{"android":"levelo://app?vid=a461544d-4cbe-4c75-9346-a4eb45e1e67c","ios":"levelo://app?vid=a461544d-4cbe-4c75-9346-a4eb45e1e67c"},"vehicle_type_id":"4","last_reported":1710799631,"current_range_meters":12400,"station_id":"ce4bhr12rcd13ifvqhpg","pricing_plan_id":"cebpf4jnsgd1na2vs0mg"},{"bike_id":"99b6d252-0b8b-4d81-bda6-bfc67dc33b41","system_id":"levelo_inurba_marseille","lat":43.319973,"lon":5.381553,"is_reserved":false,"is_disabled":false,"rental_uris":{"android":"levelo://app?vid=99b6d252-0b8b-4d81-bda6-bfc67dc33b41","ios":"levelo://app?vid=99b6d252-0b8b-4d81-bda6-bfc67dc33b41"},"vehicle_type_id":"4","last_reported":1710799631,"current_range_meters":14400,"station_id":"ce4bhr12rcd13ifvqhpg","pricing_plan_id":"cebpf4jnsgd1na2vs0mg"},{"bike_id":"b3015aab-550e-45d6-9e44-61aef91bf99b","system_id":"levelo_inurba_marseille","lat":43.31997,"lon":5.381595,"is_reserved":false,"is_disabled":false,"rental_uris":{"android":"levelo://app?vid=b3015aab-550e-45d6-9e44-61aef91bf99b","ios":"levelo://app?vid=b3015aab-550e-45d6-9e44-61aef91bf99b"},"vehicle_type_id":"4","last_reported":1710799631,"current_range_meters":15600,"station_id":"ce4bhr12rcd13ifvqhpg","pricing_plan_id":"cebpf4jnsgd1na2vs0mg"},{"bike_id":"32f4d226-b8f1-44f0-8277-cfd05f9842a8","system_id":"levelo_inurba_marseille","lat":43.320016,"lon":5.381552,"is_reserved":false,"is_disabled":false,"rental_uris":{"android":"levelo://app?vid=32f4d226-b8f1-44f0-8277-cfd05f9842a8","ios":"levelo://app?vid=32f4d226-b8f1-44f0-8277-cfd05f9842a8"},"vehicle_type_id":"4","last_reported":1710799631,"current_range_meters":17200,"station_id":"ce4bhr12rcd13ifvqhpg","pricing_plan_id":"cebpf4jnsgd1na2vs0mg"},{"bike_id":"b3092b21-6521-46f7-b880-ab3307c7c93b","system_id":"levelo_inurba_marseille","lat":43.313571,"lon":5.384829,"is_reserved":false,"is_disabled":false,"rental_uris":{"android":"levelo://app?vid=b3092b21-6521-46f7-b880-ab3307c7c93b","ios":"levelo://app?vid=b3092b21-6521-46f7-b880-ab3307c7c93b"},"vehicle_type_id":"4","last_reported":1710799631,"current_range_meters":12000,"station_id":"ce4bgt92rcd13ifvqcf0","pricing_plan_id":"cebpf4jnsgd1na2vs0mg"},{"bike_id":"2fe9ffda-6f88-4bfb-9973-94c478b9ba71","system_id":"levelo_inurba_marseille","lat":43.313571,"lon":5.384829,"is_reserved":false,"is_disabled":false,"rental_uris":{"android":"levelo://app?vid=2fe9ffda-6f88-4bfb-9973-94c478b9ba71","ios":"levelo://app?vid=2fe9ffda-6f88-4bfb-9973-94c478b9ba71"},"vehicle_type_id":"4","last_reported":1710799631,"current_range_meters":6400,"station_id":"ce4bgt92rcd13ifvqcf0","pricing_plan_id":"cebpf4jnsgd1na2vs0mg"},{"bike_id":"19160eea-23dd-4a59-8f9a-b2c332406e56","system_id":"levelo_inurba_marseille","lat":43.313515,"lon":5.384905,"is_reserved":false,"is_disabled":false,"rental_uris":{"android":"levelo://app?vid=19160eea-23dd-4a59-8f9a-b2c332406e56","ios":"levelo://app?vid=19160eea-23dd-4a59-8f9a-b2c332406e56"},"vehicle_type_id":"4","last_reported":1710799631,"current_range_meters":23200,"station_id":"ce4bgt92rcd13ifvqcf0","pricing_plan_id":"cebpf4jnsgd1na2vs0mg"},{"bike_id":"52e63f99-e49a-4e61-a2ff-1a3bbf761d32","system_id":"levelo_inurba_marseille","lat":43.313571,"lon":5.384829,"is_reserved":false,"is_disabled":false,"rental_uris":{"android":"levelo://app?vid=52e63f99-e49a-4e61-a2ff-1a3bbf761d32","ios":"levelo://app?vid=52e63f99-e49a-4e61-a2ff-1a3bbf761d32"},"vehicle_type_id":"4","last_reported":1710799631,"current_range_meters":24000,"station_id":"ce4bgt92rcd13ifvqcf0","pricing_plan_id":"cebpf4jnsgd1na2vs0mg"},{"bike_id":"68a3186b-6ab5-467c-b9f2-27c41ea01920","system_id":"levelo_inurba_marseille","lat":43.313571,"lon":5.384829,"is_reserved":false,"is_disabled":false,"rental_uris":{"android":"levelo://app?vid=68a3186b-6ab5-467c-b9f2-27c41ea01920","ios":"levelo://app?vid=68a3186b-6ab5-467c-b9f2-27c41ea01920"},"vehicle_type_id":"4","last_reported":1710799631,"current_range_meters":24800,"station_id":"ce4bgt92rcd13ifvqcf0","pricing_plan_id":"cebpf4jnsgd1na2vs0mg"},{"bike_id":"7d91f364-93e1-47ec-89c4-5d1a6bb95d50","system_id":"levelo_inurba_marseille","lat":43.299222,"lon":5.365554,"is_reserved":false,"is_disabled":false,"rental_uris":{"android":"levelo://app?vid=7d91f364-93e1-47ec-89c4-5d1a6bb95d50","ios":"levelo://app?vid=7d91f364-93e1-47ec-89c4-5d1a6bb95d50"},"vehicle_type_id":"4","last_reported":1710799631,"current_range_meters":23600,"station_id":"ce4bgm92rcd13ifvqbr0","pricing_plan_id":"cebpf4jnsgd1na2vs0mg"},{"bike_id":"2fda513d-3237-4936-823b-2bd248ba4122","system_id":"levelo_inurba_marseille","lat":43.299222,"lon":5.365554,"is_reserved":false,"is_disabled":false,"rental_uris":{"android":"levelo://app?vid=2fda513d-3237-4936-823b-2bd248ba4122","ios":"levelo://app?vid=2fda513d-3237-4936-823b-2bd248ba4122"},"vehicle_type_id":"4","last_reported":1710799631,"current_range_meters":22400,"station_id":"ce4bgm92rcd13ifvqbr0","pricing_plan_id":"cebpf4jnsgd1na2vs0mg"},{"bike_id":"5b0382a0-7823-4dd2-9397-1eb81b12adae","system_id":"levelo_inurba_marseille","lat":43.29939,"lon":5.3653,"is_reserved":false,"is_disabled":false,"rental_uris":{"android":"levelo://app?vid=5b0382a0-7823-4dd2-9397-1eb81b12adae","ios":"levelo://app?vid=5b0382a0-7823-4dd2-9397-1eb81b12adae"},"vehicle_type_id":"4","last_reported":1710799631,"current_range_meters":8800,"station_id":"ce4bgm92rcd13ifvqbr0","pricing_plan_id":"cebpf4jnsgd1na2vs0mg"},{"bike_id":"086bf030-9913-40b8-882a-841eab007876","system_id":"levelo_inurba_marseille","lat":43.29974,"lon":5.3718,"is_reserved":false,"is_disabled":false,"rental_uris":{"android":"levelo://app?vid=086bf030-9913-40b8-882a-841eab007876","ios":"levelo://app?vid=086bf030-9913-40b8-882a-841eab007876"},"vehicle_type_id":"4","last_reported":1710799631,"current_range_meters":0,"station_id":"ce4bgr92rcd13ifvqc7g","pricing_plan_id":"cebpf4jnsgd1na2vs0mg"},{"bike_id":"87606346-82ec-4ea1-8c4a-7628eb90a6db","system_id":"levelo_inurba_marseille","lat":43.299724,"lon":5.371829,"is_reserved":false,"is_disabled":false,"rental_uris":{"android":"levelo://app?vid=87606346-82ec-4ea1-8c4a-7628eb90a6db","ios":"levelo://app?vid=87606346-82ec-4ea1-8c4a-7628eb90a6db"},"vehicle_type_id":"4","last_reported":1710799631,"current_range_meters":30000,"station_id":"ce4bgr92rcd13ifvqc7g","pricing_plan_id":"cebpf4jnsgd1na2vs0mg"},{"bike_id":"4bf728c9-9d6f-4468-b9d6-0613eca64002","system_id":"levelo_inurba_marseille","lat":43.298433,"lon":5.362774,"is_reserved":false,"is_disabled":false,"rental_uris":{"android":"levelo://app?vid=4bf728c9-9d6f-4468-b9d6-0613eca64002","ios":"levelo://app?vid=4bf728c9-9d6f-4468-b9d6-0613eca64002"},"vehicle_type_id":"4","last_reported":1710799631,"current_range_meters":12800,"station_id":"ce4bgpp2rcd13ifvqc3g","pricing_plan_id":"cebpf4jnsgd1na2vs0mg"},{"bike_id":"17116104-ce1a-4b8a-8101-cc71cb4fc583","system_id":"levelo_inurba_marseille","lat":43.298433,"lon":5.362774,"is_reserved":false,"is_disabled":false,"rental_uris":{"android":"levelo://app?vid=17116104-ce1a-4b8a-8101-cc71cb4fc583","ios":"levelo://app?vid=17116104-ce1a-4b8a-8101-cc71cb4fc583"},"vehicle_type_id":"4","last_reported":1710799631,"current_range_meters":20000,"station_id":"ce4bgpp2rcd13ifvqc3g","pricing_plan_id":"cebpf4jnsgd1na2vs0mg"},{"bike_id":"40b09d18-4c97-4e55-be7f-a6fcf0025a71","system_id":"levelo_inurba_marseille","lat":43.298433,"lon":5.362774,"is_reserved":false,"is_disabled":false,"rental_uris":{"android":"levelo://app?vid=40b09d18-4c97-4e55-be7f-a6fcf0025a71","ios":"levelo://app?vid=40b09d18-4c97-4e55-be7f-a6fcf0025a71"},"vehicle_type_id":"4","last_reported":1710799631,"current_range_meters":25600,"station_id":"ce4bgpp2rcd13ifvqc3g","pricing_plan_id":"cebpf4jnsgd1na2vs0mg"},{"bike_id":"c722e251-6270-4ba1-b1e7-5147dafd4073","system_id":"levelo_inurba_marseille","lat":43.298433,"lon":5.362774,"is_reserved":false,"is_disabled":false,"rental_uris":{"android":"levelo://app?vid=c722e251-6270-4ba1-b1e7-5147dafd4073","ios":"levelo://app?vid=c722e251-6270-4ba1-b1e7-5147dafd4073"},"vehicle_type_id":"4","last_reported":1710799631,"current_range_meters":6000,"station_id":"ce4bgpp2rcd13ifvqc3g","pricing_plan_id":"cebpf4jnsgd1na2vs0mg"},{"bike_id":"e15ddd60-fd62-413d-a269-91fc7076647c","system_id":"levelo_inurba_marseille","lat":43.299243,"lon":5.37481,"is_reserved":false,"is_disabled":false,"rental_uris":{"android":"levelo://app?vid=e15ddd60-fd62-413d-a269-91fc7076647c","ios":"levelo://app?vid=e15ddd60-fd62-413d-a269-91fc7076647c"},"vehicle_type_id":"4","last_reported":1710799631,"current_range_meters":14400,"station_id":"ce4bgjh2rcd13ifvqbg0","pricing_plan_id":"cebpf4jnsgd1na2vs0mg"},{"bike_id":"c7ceec1c-4e89-4bb5-9419-787965fc6aa5","system_id":"levelo_inurba_marseille","lat":43.311722,"lon":5.387247,"is_reserved":false,"is_disabled":false,"rental_uris":{"android":"levelo://app?vid=c7ceec1c-4e89-4bb5-9419-787965fc6aa5","ios":"levelo://app?vid=c7ceec1c-4e89-4bb5-9419-787965fc6aa5"},"vehicle_type_id":"4","last_reported":1710799631,"current_range_meters":17200,"station_id":"ce4bgv12rcd13ifvqcp0","pricing_plan_id":"cebpf4jnsgd1na2vs0mg"},{"bike_id":"6faea768-b9e6-489f-8c9a-dc7436af7d78","system_id":"levelo_inurba_marseille","lat":43.311722,"lon":5.387247,"is_reserved":false,"is_disabled":false,"rental_uris":{"android":"levelo://app?vid=6faea768-b9e6-489f-8c9a-dc7436af7d78","ios":"levelo://app?vid=6faea768-b9e6-489f-8c9a-dc7436af7d78"},"vehicle_type_id":"4","last_reported":1710799631,"current_range_meters":3200,"station_id":"ce4bgv12rcd13ifvqcp0","pricing_plan_id":"cebpf4jnsgd1na2vs0mg"},{"bike_id":"47fb2947-dcb4-48ba-a1d8-cc171be91e84","system_id":"levelo_inurba_marseille","lat":43.299243,"lon":5.37481,"is_reserved":false,"is_disabled":false,"rental_uris":{"android":"levelo://app?vid=47fb2947-dcb4-48ba-a1d8-cc171be91e84","ios":"levelo://app?vid=47fb2947-dcb4-48ba-a1d8-cc171be91e84"},"vehicle_type_id":"4","last_reported":1710799631,"current_range_meters":18000,"station_id":"ce4bgjh2rcd13ifvqbg0","pricing_plan_id":"cebpf4jnsgd1na2vs0mg"},{"bike_id":"1af29635-2b3e-44cf-b63c-38f4f5cbc392","system_id":"levelo_inurba_marseille","lat":43.311722,"lon":5.387247,"is_reserved":false,"is_disabled":false,"rental_uris":{"android":"levelo://app?vid=1af29635-2b3e-44cf-b63c-38f4f5cbc392","ios":"levelo://app?vid=1af29635-2b3e-44cf-b63c-38f4f5cbc392"},"vehicle_type_id":"4","last_reported":1710799631,"current_range_meters":25200,"station_id":"ce4bgv12rcd13ifvqcp0","pricing_plan_id":"cebpf4jnsgd1na2vs0mg"},{"bike_id":"66614f01-4484-45bd-93dc-6f407675c75d","system_id":"levelo_inurba_marseille","lat":43.299243,"lon":5.374807,"is_reserved":false,"is_disabled":false,"rental_uris":{"android":"levelo://app?vid=66614f01-4484-45bd-93dc-6f407675c75d","ios":"levelo://app?vid=66614f01-4484-45bd-93dc-6f407675c75d"},"vehicle_type_id":"4","last_reported":1710799631,"current_range_meters":2800,"station_id":"ce4bgjh2rcd13ifvqbg0","pricing_plan_id":"cebpf4jnsgd1na2vs0mg"},{"bike_id":"16d30a9b-940e-4cd4-b5fb-619ac7b4c034","system_id":"levelo_inurba_marseille","lat":43.29783,"lon":5.37097,"is_reserved":false,"is_disabled":false,"rental_uris":{"android":"levelo://app?vid=16d30a9b-940e-4cd4-b5fb-619ac7b4c034","ios":"levelo://app?vid=16d30a9b-940e-4cd4-b5fb-619ac7b4c034"},"vehicle_type_id":"4","last_reported":1710799631,"current_range_meters":0,"station_id":"ce4bgop2rcd13ifvqc1g","pricing_plan_id":"cebpf4jnsgd1na2vs0mg"},{"bike_id":"e1bdf2aa-c7b7-4825-b924-1ba0b937805e","system_id":"levelo_inurba_marseille","lat":43.297774,"lon":5.370875,"is_reserved":false,"is_disabled":false,"rental_uris":{"android":"levelo://app?vid=e1bdf2aa-c7b7-4825-b924-1ba0b937805e","ios":"levelo://app?vid=e1bdf2aa-c7b7-4825-b924-1ba0b937805e"},"vehicle_type_id":"4","last_reported":1710799631,"current_range_meters":10000,"station_id":"ce4bgop2rcd13ifvqc1g","pricing_plan_id":"cebpf4jnsgd1na2vs0mg"},{"bike_id":"cf1be58c-288b-4371-b532-3349cde7bcd4","system_id":"levelo_inurba_marseille","lat":43.29777,"lon":5.37086,"is_reserved":false,"is_disabled":false,"rental_uris":{"android":"levelo://app?vid=cf1be58c-288b-4371-b532-3349cde7bcd4","ios":"levelo://app?vid=cf1be58c-288b-4371-b532-3349cde7bcd4"},"vehicle_type_id":"4","last_reported":1710799631,"current_range_meters":20800,"station_id":"ce4bgop2rcd13ifvqc1g","pricing_plan_id":"cebpf4jnsgd1na2vs0mg"},{"bike_id":"feead7e7-9cee-4c57-94a6-da647512767c","system_id":"levelo_inurba_marseille","lat":43.32277,"lon":5.38271,"is_reserved":false,"is_disabled":false,"rental_uris":{"android":"levelo://app?vid=feead7e7-9cee-4c57-94a6-da647512767c","ios":"levelo://app?vid=feead7e7-9cee-4c57-94a6-da647512767c"},"vehicle_type_id":"4","last_reported":1710799631,"current_range_meters":22400,"station_id":"ce4bhr12rcd13ifvqhqg","pricing_plan_id":"cebpf4jnsgd1na2vs0mg"},{"bike_id":"2cee7f84-3c6f-4a6b-8a16-ad9ac9638800","system_id":"levelo_inurba_marseille","lat":43.32287,"lon":5.38263,"is_reserved":false,"is_disabled":false,"rental_uris":{"android":"levelo://app?vid=2cee7f84-3c6f-4a6b-8a16-ad9ac9638800","ios":"levelo://app?vid=2cee7f84-3c6f-4a6b-8a16-ad9ac9638800"},"vehicle_type_id":"4","last_reported":1710799631,"current_range_meters":7200,"station_id":"ce4bhr12rcd13ifvqhqg","pricing_plan_id":"cebpf4jnsgd1na2vs0mg"},{"bike_id":"accb2f69-ca20-4b2f-9b54-89cf5f810bdd","system_id":"levelo_inurba_marseille","lat":43.322909,"lon":5.382586,"is_reserved":false,"is_disabled":false,"rental_uris":{"android":"levelo://app?vid=accb2f69-ca20-4b2f-9b54-89cf5f810bdd","ios":"levelo://app?vid=accb2f69-ca20-4b2f-9b54-89cf5f810bdd"},"vehicle_type_id":"4","last_reported":1710799631,"current_range_meters":28000,"station_id":"ce4bhr12rcd13ifvqhqg","pricing_plan_id":"cebpf4jnsgd1na2vs0mg"},{"bike_id":"36727d06-0af4-4c64-88de-4193d3d2494b","system_id":"levelo_inurba_marseille","lat":43.32286,"lon":5.38267,"is_reserved":false,"is_disabled":false,"rental_uris":{"android":"levelo://app?vid=36727d06-0af4-4c64-88de-4193d3d2494b","ios":"levelo://app?vid=36727d06-0af4-4c64-88de-4193d3d2494b"},"vehicle_type_id":"4","last_reported":1710799631,"current_range_meters":20000,"station_id":"ce4bhr12rcd13ifvqhqg","pricing_plan_id":"cebpf4jnsgd1na2vs0mg"},{"bike_id":"4cf42698-8541-4e54-bbd6-e3a1a402777a","system_id":"levelo_inurba_marseille","lat":43.29775,"lon":5.37106,"is_reserved":false,"is_disabled":false,"rental_uris":{"android":"levelo://app?vid=4cf42698-8541-4e54-bbd6-e3a1a402777a","ios":"levelo://app?vid=4cf42698-8541-4e54-bbd6-e3a1a402777a"},"vehicle_type_id":"4","last_reported":1710799631,"current_range_meters":12000,"station_id":"ce4bgop2rcd13ifvqc1g","pricing_plan_id":"cebpf4jnsgd1na2vs0mg"},{"bike_id":"3ff125a5-dff1-4591-b6cc-449dc2424878","system_id":"levelo_inurba_marseille","lat":43.32289,"lon":5.38265,"is_reserved":false,"is_disabled":false,"rental_uris":{"android":"levelo://app?vid=3ff125a5-dff1-4591-b6cc-449dc2424878","ios":"levelo://app?vid=3ff125a5-dff1-4591-b6cc-449dc2424878"},"vehicle_type_id":"4","last_reported":1710799631,"current_range_meters":22000,"station_id":"ce4bhr12rcd13ifvqhqg","pricing_plan_id":"cebpf4jnsgd1na2vs0mg"},{"bike_id":"2a9146f5-559c-464c-8ede-4996d3f2e7eb","system_id":"levelo_inurba_marseille","lat":43.322947,"lon":5.382595,"is_reserved":false,"is_disabled":false,"rental_uris":{"android":"levelo://app?vid=2a9146f5-559c-464c-8ede-4996d3f2e7eb","ios":"levelo://app?vid=2a9146f5-559c-464c-8ede-4996d3f2e7eb"},"vehicle_type_id":"4","last_reported":1710799631,"current_range_meters":0,"station_id":"ce4bhr12rcd13ifvqhqg","pricing_plan_id":"cebpf4jnsgd1na2vs0mg"},{"bike_id":"5f8b4803-e4ba-4452-a9f1-55c7a87b5d2b","system_id":"levelo_inurba_marseille","lat":43.32291,"lon":5.38268,"is_reserved":false,"is_disabled":false,"rental_uris":{"android":"levelo://app?vid=5f8b4803-e4ba-4452-a9f1-55c7a87b5d2b","ios":"levelo://app?vid=5f8b4803-e4ba-4452-a9f1-55c7a87b5d2b"},"vehicle_type_id":"4","last_reported":1710799631,"current_range_meters":20400,"station_id":"ce4bhr12rcd13ifvqhqg","pricing_plan_id":"cebpf4jnsgd1na2vs0mg"},{"bike_id":"afe16415-33ac-431e-870b-2861db01db02","system_id":"levelo_inurba_marseille","lat":43.322872,"lon":5.382756,"is_reserved":false,"is_disabled":false,"rental_uris":{"android":"levelo://app?vid=afe16415-33ac-431e-870b-2861db01db02","ios":"levelo://app?vid=afe16415-33ac-431e-870b-2861db01db02"},"vehicle_type_id":"4","last_reported":1710799631,"current_range_meters":4400,"station_id":"ce4bhr12rcd13ifvqhqg","pricing_plan_id":"cebpf4jnsgd1na2vs0mg"},{"bike_id":"16decc57-ed9a-40d4-8633-e2f1ee463781","system_id":"levelo_inurba_marseille","lat":43.322872,"lon":5.382756,"is_reserved":false,"is_disabled":false,"rental_uris":{"android":"levelo://app?vid=16decc57-ed9a-40d4-8633-e2f1ee463781","ios":"levelo://app?vid=16decc57-ed9a-40d4-8633-e2f1ee463781"},"vehicle_type_id":"4","last_reported":1710799631,"current_range_meters":28400,"station_id":"ce4bhr12rcd13ifvqhqg","pricing_plan_id":"cebpf4jnsgd1na2vs0mg"},{"bike_id":"cbb0eed5-86c1-485e-8bd6-cdb31ec6922d","system_id":"levelo_inurba_marseille","lat":43.322872,"lon":5.382756,"is_reserved":false,"is_disabled":false,"rental_uris":{"android":"levelo://app?vid=cbb0eed5-86c1-485e-8bd6-cdb31ec6922d","ios":"levelo://app?vid=cbb0eed5-86c1-485e-8bd6-cdb31ec6922d"},"vehicle_type_id":"4","last_reported":1710799631,"current_range_meters":31200,"station_id":"ce4bhr12rcd13ifvqhqg","pricing_plan_id":"cebpf4jnsgd1na2vs0mg"},{"bike_id":"bd6b6545-b45a-4dc0-b743-d330ab6c2563","system_id":"levelo_inurba_marseille","lat":43.32294,"lon":5.38267,"is_reserved":false,"is_disabled":false,"rental_uris":{"android":"levelo://app?vid=bd6b6545-b45a-4dc0-b743-d330ab6c2563","ios":"levelo://app?vid=bd6b6545-b45a-4dc0-b743-d330ab6c2563"},"vehicle_type_id":"4","last_reported":1710799631,"current_range_meters":31200,"station_id":"ce4bhr12rcd13ifvqhqg","pricing_plan_id":"cebpf4jnsgd1na2vs0mg"},{"bike_id":"4f4a75fa-11e1-4b9c-9fc5-7e2938322638","system_id":"levelo_inurba_marseille","lat":43.32292,"lon":5.3827,"is_reserved":false,"is_disabled":false,"rental_uris":{"android":"levelo://app?vid=4f4a75fa-11e1-4b9c-9fc5-7e2938322638","ios":"levelo://app?vid=4f4a75fa-11e1-4b9c-9fc5-7e2938322638"},"vehicle_type_id":"4","last_reported":1710799631,"current_range_meters":30400,"station_id":"ce4bhr12rcd13ifvqhqg","pricing_plan_id":"cebpf4jnsgd1na2vs0mg"},{"bike_id":"7c0a9723-acda-4d21-b56d-c73ec9565946","system_id":"levelo_inurba_marseille","lat":43.32292,"lon":5.38276,"is_reserved":false,"is_disabled":false,"rental_uris":{"android":"levelo://app?vid=7c0a9723-acda-4d21-b56d-c73ec9565946","ios":"levelo://app?vid=7c0a9723-acda-4d21-b56d-c73ec9565946"},"vehicle_type_id":"4","last_reported":1710799631,"current_range_meters":8400,"station_id":"ce4bhr12rcd13ifvqhqg","pricing_plan_id":"cebpf4jnsgd1na2vs0mg"},{"bike_id":"eddeac31-d118-4f00-9fae-66dd1f398919","system_id":"levelo_inurba_marseille","lat":43.32304,"lon":5.38277,"is_reserved":false,"is_disabled":false,"rental_uris":{"android":"levelo://app?vid=eddeac31-d118-4f00-9fae-66dd1f398919","ios":"levelo://app?vid=eddeac31-d118-4f00-9fae-66dd1f398919"},"vehicle_type_id":"4","last_reported":1710799631,"current_range_meters":11200,"station_id":"ce4bhr12rcd13ifvqhqg","pricing_plan_id":"cebpf4jnsgd1na2vs0mg"},{"bike_id":"82bb1f92-9910-4409-96d6-983dfab326d1","system_id":"levelo_inurba_marseille","lat":43.297163,"lon":5.365866,"is_reserved":false,"is_disabled":false,"rental_uris":{"android":"levelo://app?vid=82bb1f92-9910-4409-96d6-983dfab326d1","ios":"levelo://app?vid=82bb1f92-9910-4409-96d6-983dfab326d1"},"vehicle_type_id":"4","last_reported":1710799631,"current_range_meters":20400,"station_id":"ce4bgn12rcd13ifvqbt0","pricing_plan_id":"cebpf4jnsgd1na2vs0mg"},{"bike_id":"f2471fba-85a4-4792-a214-b094b5b6bf9f","system_id":"levelo_inurba_marseille","lat":43.297163,"lon":5.365866,"is_reserved":false,"is_disabled":false,"rental_uris":{"android":"levelo://app?vid=f2471fba-85a4-4792-a214-b094b5b6bf9f","ios":"levelo://app?vid=f2471fba-85a4-4792-a214-b094b5b6bf9f"},"vehicle_type_id":"4","last_reported":1710799631,"current_range_meters":26800,"station_id":"ce4bgn12rcd13ifvqbt0","pricing_plan_id":"cebpf4jnsgd1na2vs0mg"},{"bike_id":"c48428eb-367d-41f2-bdcb-80f23e5bb0e3","system_id":"levelo_inurba_marseille","lat":43.297163,"lon":5.365866,"is_reserved":false,"is_disabled":false,"rental_uris":{"android":"levelo://app?vid=c48428eb-367d-41f2-bdcb-80f23e5bb0e3","ios":"levelo://app?vid=c48428eb-367d-41f2-bdcb-80f23e5bb0e3"},"vehicle_type_id":"4","last_reported":1710799631,"current_range_meters":14400,"station_id":"ce4bgn12rcd13ifvqbt0","pricing_plan_id":"cebpf4jnsgd1na2vs0mg"},{"bike_id":"5a994801-cefe-4a30-91f9-e8af2bb1a1d4","system_id":"levelo_inurba_marseille","lat":43.297163,"lon":5.365866,"is_reserved":false,"is_disabled":false,"rental_uris":{"android":"levelo://app?vid=5a994801-cefe-4a30-91f9-e8af2bb1a1d4","ios":"levelo://app?vid=5a994801-cefe-4a30-91f9-e8af2bb1a1d4"},"vehicle_type_id":"4","last_reported":1710799631,"current_range_meters":14400,"station_id":"ce4bgn12rcd13ifvqbt0","pricing_plan_id":"cebpf4jnsgd1na2vs0mg"},{"bike_id":"fa954f8b-f0da-4dd1-a55a-533622d77caa","system_id":"levelo_inurba_marseille","lat":43.296843,"lon":5.372883,"is_reserved":false,"is_disabled":false,"rental_uris":{"android":"levelo://app?vid=fa954f8b-f0da-4dd1-a55a-533622d77caa","ios":"levelo://app?vid=fa954f8b-f0da-4dd1-a55a-533622d77caa"},"vehicle_type_id":"4","last_reported":1710799631,"current_range_meters":23600,"station_id":"ce4bgk12rcd13ifvqbj0","pricing_plan_id":"cebpf4jnsgd1na2vs0mg"},{"bike_id":"1f261923-6b55-44f7-ac93-b2312dbeef42","system_id":"levelo_inurba_marseille","lat":43.296746,"lon":5.372898,"is_reserved":false,"is_disabled":false,"rental_uris":{"android":"levelo://app?vid=1f261923-6b55-44f7-ac93-b2312dbeef42","ios":"levelo://app?vid=1f261923-6b55-44f7-ac93-b2312dbeef42"},"vehicle_type_id":"4","last_reported":1710799631,"current_range_meters":23600,"station_id":"ce4bgk12rcd13ifvqbj0","pricing_plan_id":"cebpf4jnsgd1na2vs0mg"},{"bike_id":"1c0ed0e2-7acc-4100-8162-8fa01d070a8e","system_id":"levelo_inurba_marseille","lat":43.299028,"lon":5.381509,"is_reserved":false,"is_disabled":false,"rental_uris":{"android":"levelo://app?vid=1c0ed0e2-7acc-4100-8162-8fa01d070a8e","ios":"levelo://app?vid=1c0ed0e2-7acc-4100-8162-8fa01d070a8e"},"vehicle_type_id":"4","last_reported":1710799631,"current_range_meters":26800,"station_id":"ce4bgj12rcd13ifvqbc0","pricing_plan_id":"cebpf4jnsgd1na2vs0mg"},{"bike_id":"a5cfe4c5-fd6c-4350-b4fe-554a61ff8cf6","system_id":"levelo_inurba_marseille","lat":43.296131,"lon":5.370791,"is_reserved":false,"is_disabled":false,"rental_uris":{"android":"levelo://app?vid=a5cfe4c5-fd6c-4350-b4fe-554a61ff8cf6","ios":"levelo://app?vid=a5cfe4c5-fd6c-4350-b4fe-554a61ff8cf6"},"vehicle_type_id":"4","last_reported":1710799631,"current_range_meters":2000,"station_id":"ce4bgnh2rcd13ifvqc0g","pricing_plan_id":"cebpf4jnsgd1na2vs0mg"},{"bike_id":"924867d9-81f3-4629-b956-546e1ef8dc92","system_id":"levelo_inurba_marseille","lat":43.304278,"lon":5.388868,"is_reserved":false,"is_disabled":false,"rental_uris":{"android":"levelo://app?vid=924867d9-81f3-4629-b956-546e1ef8dc92","ios":"levelo://app?vid=924867d9-81f3-4629-b956-546e1ef8dc92"},"vehicle_type_id":"4","last_reported":1710799631,"current_range_meters":17600,"station_id":"ce4bgk12rcd13ifvqbi0","pricing_plan_id":"cebpf4jnsgd1na2vs0mg"},{"bike_id":"46f4aa3f-1a16-4601-b78f-2e4635cc6765","system_id":"levelo_inurba_marseille","lat":43.299028,"lon":5.381509,"is_reserved":false,"is_disabled":false,"rental_uris":{"android":"levelo://app?vid=46f4aa3f-1a16-4601-b78f-2e4635cc6765","ios":"levelo://app?vid=46f4aa3f-1a16-4601-b78f-2e4635cc6765"},"vehicle_type_id":"4","last_reported":1710799631,"current_range_meters":18000,"station_id":"ce4bgj12rcd13ifvqbc0","pricing_plan_id":"cebpf4jnsgd1na2vs0mg"},{"bike_id":"0a51c1fe-7353-4902-b0ee-c290a916da18","system_id":"levelo_inurba_marseille","lat":43.299028,"lon":5.381509,"is_reserved":false,"is_disabled":false,"rental_uris":{"android":"levelo://app?vid=0a51c1fe-7353-4902-b0ee-c290a916da18","ios":"levelo://app?vid=0a51c1fe-7353-4902-b0ee-c290a916da18"},"vehicle_type_id":"4","last_reported":1710799631,"current_range_meters":19600,"station_id":"ce4bgj12rcd13ifvqbc0","pricing_plan_id":"cebpf4jnsgd1na2vs0mg"},{"bike_id":"ef0f0020-e02d-4ae9-b0f4-cd36ef8b5477","system_id":"levelo_inurba_marseille","lat":43.299028,"lon":5.381509,"is_reserved":false,"is_disabled":false,"rental_uris":{"android":"levelo://app?vid=ef0f0020-e02d-4ae9-b0f4-cd36ef8b5477","ios":"levelo://app?vid=ef0f0020-e02d-4ae9-b0f4-cd36ef8b5477"},"vehicle_type_id":"4","last_reported":1710799631,"current_range_meters":21600,"station_id":"ce4bgj12rcd13ifvqbc0","pricing_plan_id":"cebpf4jnsgd1na2vs0mg"},{"bike_id":"f9a833ae-667b-4edf-8e62-02d3eeaf2355","system_id":"levelo_inurba_marseille","lat":43.309589,"lon":5.390258,"is_reserved":false,"is_disabled":false,"rental_uris":{"android":"levelo://app?vid=f9a833ae-667b-4edf-8e62-02d3eeaf2355","ios":"levelo://app?vid=f9a833ae-667b-4edf-8e62-02d3eeaf2355"},"vehicle_type_id":"4","last_reported":1710799631,"current_range_meters":24000,"station_id":"ce4bgup2rcd13ifvqco0","pricing_plan_id":"cebpf4jnsgd1na2vs0mg"},{"bike_id":"b2978985-633a-4371-b8ce-4c2433b64fd3","system_id":"levelo_inurba_marseille","lat":43.317557,"lon":5.390173,"is_reserved":false,"is_disabled":false,"rental_uris":{"android":"levelo://app?vid=b2978985-633a-4371-b8ce-4c2433b64fd3","ios":"levelo://app?vid=b2978985-633a-4371-b8ce-4c2433b64fd3"},"vehicle_type_id":"4","last_reported":1710799631,"current_range_meters":8800,"station_id":"ce4bhqp2rcd13ifvqhng","pricing_plan_id":"cebpf4jnsgd1na2vs0mg"},{"bike_id":"97dc5621-0125-4f99-9fc3-7b824027f68c","system_id":"levelo_inurba_marseille","lat":43.317557,"lon":5.390173,"is_reserved":false,"is_disabled":false,"rental_uris":{"android":"levelo://app?vid=97dc5621-0125-4f99-9fc3-7b824027f68c","ios":"levelo://app?vid=97dc5621-0125-4f99-9fc3-7b824027f68c"},"vehicle_type_id":"4","last_reported":1710799631,"current_range_meters":20800,"station_id":"ce4bhqp2rcd13ifvqhng","pricing_plan_id":"cebpf4jnsgd1na2vs0mg"},{"bike_id":"b56d380a-de9f-4222-babe-409e4f8622a3","system_id":"levelo_inurba_marseille","lat":43.31751,"lon":5.39017,"is_reserved":false,"is_disabled":false,"rental_uris":{"android":"levelo://app?vid=b56d380a-de9f-4222-babe-409e4f8622a3","ios":"levelo://app?vid=b56d380a-de9f-4222-babe-409e4f8622a3"},"vehicle_type_id":"4","last_reported":1710799631,"current_range_meters":0,"station_id":"ce4bhqp2rcd13ifvqhng","pricing_plan_id":"cebpf4jnsgd1na2vs0mg"},{"bike_id":"d2eed6b0-de73-4d7e-b709-ada308cde675","system_id":"levelo_inurba_marseille","lat":43.317603,"lon":5.390156,"is_reserved":false,"is_disabled":false,"rental_uris":{"android":"levelo://app?vid=d2eed6b0-de73-4d7e-b709-ada308cde675","ios":"levelo://app?vid=d2eed6b0-de73-4d7e-b709-ada308cde675"},"vehicle_type_id":"4","last_reported":1710799631,"current_range_meters":15600,"station_id":"ce4bhqp2rcd13ifvqhng","pricing_plan_id":"cebpf4jnsgd1na2vs0mg"},{"bike_id":"4c1c4806-ceb3-4412-a3b1-42cda738f23e","system_id":"levelo_inurba_marseille","lat":43.317569,"lon":5.390174,"is_reserved":false,"is_disabled":false,"rental_uris":{"android":"levelo://app?vid=4c1c4806-ceb3-4412-a3b1-42cda738f23e","ios":"levelo://app?vid=4c1c4806-ceb3-4412-a3b1-42cda738f23e"},"vehicle_type_id":"4","last_reported":1710799631,"current_range_meters":15200,"station_id":"ce4bhqp2rcd13ifvqhng","pricing_plan_id":"cebpf4jnsgd1na2vs0mg"},{"bike_id":"9d6ea058-7954-4b7c-a75c-b902c99ac182","system_id":"levelo_inurba_marseille","lat":43.317533,"lon":5.390238,"is_reserved":false,"is_disabled":false,"rental_uris":{"android":"levelo://app?vid=9d6ea058-7954-4b7c-a75c-b902c99ac182","ios":"levelo://app?vid=9d6ea058-7954-4b7c-a75c-b902c99ac182"},"vehicle_type_id":"4","last_reported":1710799631,"current_range_meters":18000,"station_id":"ce4bhqp2rcd13ifvqhng","pricing_plan_id":"cebpf4jnsgd1na2vs0mg"},{"bike_id":"b9585748-59ed-4215-a39d-36ba1614c135","system_id":"levelo_inurba_marseille","lat":43.31759,"lon":5.39022,"is_reserved":false,"is_disabled":false,"rental_uris":{"android":"levelo://app?vid=b9585748-59ed-4215-a39d-36ba1614c135","ios":"levelo://app?vid=b9585748-59ed-4215-a39d-36ba1614c135"},"vehicle_type_id":"4","last_reported":1710799631,"current_range_meters":14000,"station_id":"ce4bhqp2rcd13ifvqhng","pricing_plan_id":"cebpf4jnsgd1na2vs0mg"},{"bike_id":"d9bf7767-42df-4f07-8c9e-4ff35698ce28","system_id":"levelo_inurba_marseille","lat":43.317557,"lon":5.390173,"is_reserved":false,"is_disabled":false,"rental_uris":{"android":"levelo://app?vid=d9bf7767-42df-4f07-8c9e-4ff35698ce28","ios":"levelo://app?vid=d9bf7767-42df-4f07-8c9e-4ff35698ce28"},"vehicle_type_id":"4","last_reported":1710799631,"current_range_meters":19600,"station_id":"ce4bhqp2rcd13ifvqhng","pricing_plan_id":"cebpf4jnsgd1na2vs0mg"},{"bike_id":"8fc9f1f8-27d0-42a8-9a64-3202f06ad7cb","system_id":"levelo_inurba_marseille","lat":43.317557,"lon":5.390173,"is_reserved":false,"is_disabled":false,"rental_uris":{"android":"levelo://app?vid=8fc9f1f8-27d0-42a8-9a64-3202f06ad7cb","ios":"levelo://app?vid=8fc9f1f8-27d0-42a8-9a64-3202f06ad7cb"},"vehicle_type_id":"4","last_reported":1710799631,"current_range_meters":800,"station_id":"ce4bhqp2rcd13ifvqhng","pricing_plan_id":"cebpf4jnsgd1na2vs0mg"},{"bike_id":"f69b0fb1-822f-474f-a2ba-b12e62644654","system_id":"levelo_inurba_marseille","lat":43.317557,"lon":5.390173,"is_reserved":false,"is_disabled":false,"rental_uris":{"android":"levelo://app?vid=f69b0fb1-822f-474f-a2ba-b12e62644654","ios":"levelo://app?vid=f69b0fb1-822f-474f-a2ba-b12e62644654"},"vehicle_type_id":"4","last_reported":1710799631,"current_range_meters":24800,"station_id":"ce4bhqp2rcd13ifvqhng","pricing_plan_id":"cebpf4jnsgd1na2vs0mg"},{"bike_id":"8bc16360-48ad-4396-9911-432d808c77c6","system_id":"levelo_inurba_marseille","lat":43.29661,"lon":5.37776,"is_reserved":false,"is_disabled":false,"rental_uris":{"android":"levelo://app?vid=8bc16360-48ad-4396-9911-432d808c77c6","ios":"levelo://app?vid=8bc16360-48ad-4396-9911-432d808c77c6"},"vehicle_type_id":"4","last_reported":1710799631,"current_range_meters":17600,"station_id":"","pricing_plan_id":"cebpf4jnsgd1na2vs0mg"},{"bike_id":"67d4a668-a011-479f-a0fb-ebf1cde42ac9","system_id":"levelo_inurba_marseille","lat":43.304278,"lon":5.388868,"is_reserved":false,"is_disabled":false,"rental_uris":{"android":"levelo://app?vid=67d4a668-a011-479f-a0fb-ebf1cde42ac9","ios":"levelo://app?vid=67d4a668-a011-479f-a0fb-ebf1cde42ac9"},"vehicle_type_id":"4","last_reported":1710799631,"current_range_meters":4000,"station_id":"ce4bgk12rcd13ifvqbi0","pricing_plan_id":"cebpf4jnsgd1na2vs0mg"},{"bike_id":"9c71bda9-7b70-4548-bcf8-402184db6c68","system_id":"levelo_inurba_marseille","lat":43.304278,"lon":5.388868,"is_reserved":false,"is_disabled":false,"rental_uris":{"android":"levelo://app?vid=9c71bda9-7b70-4548-bcf8-402184db6c68","ios":"levelo://app?vid=9c71bda9-7b70-4548-bcf8-402184db6c68"},"vehicle_type_id":"4","last_reported":1710799631,"current_range_meters":21600,"station_id":"ce4bgk12rcd13ifvqbi0","pricing_plan_id":"cebpf4jnsgd1na2vs0mg"},{"bike_id":"f61ef235-dd05-4d6f-b579-265a6d27c32c","system_id":"levelo_inurba_marseille","lat":43.304274,"lon":5.388873,"is_reserved":false,"is_disabled":false,"rental_uris":{"android":"levelo://app?vid=f61ef235-dd05-4d6f-b579-265a6d27c32c","ios":"levelo://app?vid=f61ef235-dd05-4d6f-b579-265a6d27c32c"},"vehicle_type_id":"4","last_reported":1710799631,"current_range_meters":18000,"station_id":"ce4bgk12rcd13ifvqbi0","pricing_plan_id":"cebpf4jnsgd1na2vs0mg"},{"bike_id":"01ffc152-3da0-44c0-8ed5-4231e2523480","system_id":"levelo_inurba_marseille","lat":43.304274,"lon":5.388873,"is_reserved":false,"is_disabled":false,"rental_uris":{"android":"levelo://app?vid=01ffc152-3da0-44c0-8ed5-4231e2523480","ios":"levelo://app?vid=01ffc152-3da0-44c0-8ed5-4231e2523480"},"vehicle_type_id":"4","last_reported":1710799631,"current_range_meters":0,"station_id":"ce4bgk12rcd13ifvqbi0","pricing_plan_id":"cebpf4jnsgd1na2vs0mg"},{"bike_id":"91710689-2d3a-4d62-bf6b-4ca7208f2f1b","system_id":"levelo_inurba_marseille","lat":43.29566,"lon":5.37503,"is_reserved":false,"is_disabled":false,"rental_uris":{"android":"levelo://app?vid=91710689-2d3a-4d62-bf6b-4ca7208f2f1b","ios":"levelo://app?vid=91710689-2d3a-4d62-bf6b-4ca7208f2f1b"},"vehicle_type_id":"4","last_reported":1710799631,"current_range_meters":0,"station_id":"ce4bgh92rcd13ifvqb50","pricing_plan_id":"cebpf4jnsgd1na2vs0mg"},{"bike_id":"ec6e4ee8-25f2-41d3-b74e-ea53e1e9dabc","system_id":"levelo_inurba_marseille","lat":43.304278,"lon":5.388868,"is_reserved":false,"is_disabled":false,"rental_uris":{"android":"levelo://app?vid=ec6e4ee8-25f2-41d3-b74e-ea53e1e9dabc","ios":"levelo://app?vid=ec6e4ee8-25f2-41d3-b74e-ea53e1e9dabc"},"vehicle_type_id":"4","last_reported":1710799631,"current_range_meters":22400,"station_id":"ce4bgk12rcd13ifvqbi0","pricing_plan_id":"cebpf4jnsgd1na2vs0mg"},{"bike_id":"e802df1c-971d-4265-9584-f01a0fcab218","system_id":"levelo_inurba_marseille","lat":43.304278,"lon":5.388868,"is_reserved":false,"is_disabled":false,"rental_uris":{"android":"levelo://app?vid=e802df1c-971d-4265-9584-f01a0fcab218","ios":"levelo://app?vid=e802df1c-971d-4265-9584-f01a0fcab218"},"vehicle_type_id":"4","last_reported":1710799631,"current_range_meters":9200,"station_id":"ce4bgk12rcd13ifvqbi0","pricing_plan_id":"cebpf4jnsgd1na2vs0mg"},{"bike_id":"543959ba-2f22-4183-b3f7-0a1cbeda860b","system_id":"levelo_inurba_marseille","lat":43.30428,"lon":5.38889,"is_reserved":false,"is_disabled":false,"rental_uris":{"android":"levelo://app?vid=543959ba-2f22-4183-b3f7-0a1cbeda860b","ios":"levelo://app?vid=543959ba-2f22-4183-b3f7-0a1cbeda860b"},"vehicle_type_id":"4","last_reported":1710799631,"current_range_meters":0,"station_id":"ce4bgk12rcd13ifvqbi0","pricing_plan_id":"cebpf4jnsgd1na2vs0mg"},{"bike_id":"9dd940c9-093f-4967-ace9-6ebd1dae695c","system_id":"levelo_inurba_marseille","lat":43.304278,"lon":5.388868,"is_reserved":false,"is_disabled":false,"rental_uris":{"android":"levelo://app?vid=9dd940c9-093f-4967-ace9-6ebd1dae695c","ios":"levelo://app?vid=9dd940c9-093f-4967-ace9-6ebd1dae695c"},"vehicle_type_id":"4","last_reported":1710799631,"current_range_meters":0,"station_id":"ce4bgk12rcd13ifvqbi0","pricing_plan_id":"cebpf4jnsgd1na2vs0mg"},{"bike_id":"00b85525-897d-40b6-b45e-0adbaf38b33a","system_id":"levelo_inurba_marseille","lat":43.304278,"lon":5.388868,"is_reserved":false,"is_disabled":false,"rental_uris":{"android":"levelo://app?vid=00b85525-897d-40b6-b45e-0adbaf38b33a","ios":"levelo://app?vid=00b85525-897d-40b6-b45e-0adbaf38b33a"},"vehicle_type_id":"4","last_reported":1710799631,"current_range_meters":11600,"station_id":"ce4bgk12rcd13ifvqbi0","pricing_plan_id":"cebpf4jnsgd1na2vs0mg"},{"bike_id":"bd2cff49-7a2f-45d4-92c4-dad529b7e6a4","system_id":"levelo_inurba_marseille","lat":43.297803,"lon":5.381077,"is_reserved":false,"is_disabled":false,"rental_uris":{"android":"levelo://app?vid=bd2cff49-7a2f-45d4-92c4-dad529b7e6a4","ios":"levelo://app?vid=bd2cff49-7a2f-45d4-92c4-dad529b7e6a4"},"vehicle_type_id":"4","last_reported":1710799631,"current_range_meters":0,"station_id":"ce4bgip2rcd13ifvqbb0","pricing_plan_id":"cebpf4jnsgd1na2vs0mg"},{"bike_id":"0249e50f-2919-4ee9-965b-cf468cf45fd9","system_id":"levelo_inurba_marseille","lat":43.304278,"lon":5.388868,"is_reserved":false,"is_disabled":false,"rental_uris":{"android":"levelo://app?vid=0249e50f-2919-4ee9-965b-cf468cf45fd9","ios":"levelo://app?vid=0249e50f-2919-4ee9-965b-cf468cf45fd9"},"vehicle_type_id":"4","last_reported":1710799631,"current_range_meters":10400,"station_id":"ce4bgk12rcd13ifvqbi0","pricing_plan_id":"cebpf4jnsgd1na2vs0mg"},{"bike_id":"f92e8be0-084c-4ca7-bec5-48d641bb7fa4","system_id":"levelo_inurba_marseille","lat":43.296263,"lon":5.377094,"is_reserved":false,"is_disabled":false,"rental_uris":{"android":"levelo://app?vid=f92e8be0-084c-4ca7-bec5-48d641bb7fa4","ios":"levelo://app?vid=f92e8be0-084c-4ca7-bec5-48d641bb7fa4"},"vehicle_type_id":"4","last_reported":1710799631,"current_range_meters":23200,"station_id":"ce4bgi92rcd13ifvqb90","pricing_plan_id":"cebpf4jnsgd1na2vs0mg"},{"bike_id":"8532e9f2-f6ee-480f-a426-25b71619b17b","system_id":"levelo_inurba_marseille","lat":43.296277,"lon":5.377108,"is_reserved":false,"is_disabled":false,"rental_uris":{"android":"levelo://app?vid=8532e9f2-f6ee-480f-a426-25b71619b17b","ios":"levelo://app?vid=8532e9f2-f6ee-480f-a426-25b71619b17b"},"vehicle_type_id":"4","last_reported":1710799631,"current_range_meters":7600,"station_id":"ce4bgi92rcd13ifvqb90","pricing_plan_id":"cebpf4jnsgd1na2vs0mg"},{"bike_id":"1702edda-8e14-472c-8d9e-1bda157bfaca","system_id":"levelo_inurba_marseille","lat":43.299707,"lon":5.384859,"is_reserved":false,"is_disabled":false,"rental_uris":{"android":"levelo://app?vid=1702edda-8e14-472c-8d9e-1bda157bfaca","ios":"levelo://app?vid=1702edda-8e14-472c-8d9e-1bda157bfaca"},"vehicle_type_id":"4","last_reported":1710799631,"current_range_meters":6400,"station_id":"ce4bgj92rcd13ifvqbd0","pricing_plan_id":"cebpf4jnsgd1na2vs0mg"},{"bike_id":"cf958d25-178a-476e-88f6-df3a7a2aa68d","system_id":"levelo_inurba_marseille","lat":43.299733,"lon":5.38482,"is_reserved":false,"is_disabled":false,"rental_uris":{"android":"levelo://app?vid=cf958d25-178a-476e-88f6-df3a7a2aa68d","ios":"levelo://app?vid=cf958d25-178a-476e-88f6-df3a7a2aa68d"},"vehicle_type_id":"4","last_reported":1710799631,"current_range_meters":0,"station_id":"ce4bgj92rcd13ifvqbd0","pricing_plan_id":"cebpf4jnsgd1na2vs0mg"},{"bike_id":"d10bffba-8ddb-46bc-b46f-610e97a7d4cc","system_id":"levelo_inurba_marseille","lat":43.29978,"lon":5.38491,"is_reserved":false,"is_disabled":false,"rental_uris":{"android":"levelo://app?vid=d10bffba-8ddb-46bc-b46f-610e97a7d4cc","ios":"levelo://app?vid=d10bffba-8ddb-46bc-b46f-610e97a7d4cc"},"vehicle_type_id":"4","last_reported":1710799631,"current_range_meters":29200,"station_id":"ce4bgj92rcd13ifvqbd0","pricing_plan_id":"cebpf4jnsgd1na2vs0mg"},{"bike_id":"d35a57f1-4dc3-448c-9ed2-d35a4b8e96a7","system_id":"levelo_inurba_marseille","lat":43.299707,"lon":5.384859,"is_reserved":false,"is_disabled":false,"rental_uris":{"android":"levelo://app?vid=d35a57f1-4dc3-448c-9ed2-d35a4b8e96a7","ios":"levelo://app?vid=d35a57f1-4dc3-448c-9ed2-d35a4b8e96a7"},"vehicle_type_id":"4","last_reported":1710799631,"current_range_meters":11600,"station_id":"ce4bgj92rcd13ifvqbd0","pricing_plan_id":"cebpf4jnsgd1na2vs0mg"},{"bike_id":"26f5899f-7008-4b41-b853-b81faa3c1528","system_id":"levelo_inurba_marseille","lat":43.299717,"lon":5.384845,"is_reserved":false,"is_disabled":false,"rental_uris":{"android":"levelo://app?vid=26f5899f-7008-4b41-b853-b81faa3c1528","ios":"levelo://app?vid=26f5899f-7008-4b41-b853-b81faa3c1528"},"vehicle_type_id":"4","last_reported":1710799631,"current_range_meters":21200,"station_id":"ce4bgj92rcd13ifvqbd0","pricing_plan_id":"cebpf4jnsgd1na2vs0mg"},{"bike_id":"d3eb2917-9540-4bbc-9609-6472cc9b13a9","system_id":"levelo_inurba_marseille","lat":43.299717,"lon":5.384845,"is_reserved":false,"is_disabled":false,"rental_uris":{"android":"levelo://app?vid=d3eb2917-9540-4bbc-9609-6472cc9b13a9","ios":"levelo://app?vid=d3eb2917-9540-4bbc-9609-6472cc9b13a9"},"vehicle_type_id":"4","last_reported":1710799631,"current_range_meters":6800,"station_id":"ce4bgj92rcd13ifvqbd0","pricing_plan_id":"cebpf4jnsgd1na2vs0mg"},{"bike_id":"117b08a7-ab36-4d2a-ba25-8ee6d68deebd","system_id":"levelo_inurba_marseille","lat":43.299724,"lon":5.384848,"is_reserved":false,"is_disabled":false,"rental_uris":{"android":"levelo://app?vid=117b08a7-ab36-4d2a-ba25-8ee6d68deebd","ios":"levelo://app?vid=117b08a7-ab36-4d2a-ba25-8ee6d68deebd"},"vehicle_type_id":"4","last_reported":1710799631,"current_range_meters":12400,"station_id":"ce4bgj92rcd13ifvqbd0","pricing_plan_id":"cebpf4jnsgd1na2vs0mg"},{"bike_id":"dd91e73d-c135-4bed-92d4-bbb6465e1949","system_id":"levelo_inurba_marseille","lat":43.3236,"lon":5.38881,"is_reserved":false,"is_disabled":false,"rental_uris":{"android":"levelo://app?vid=dd91e73d-c135-4bed-92d4-bbb6465e1949","ios":"levelo://app?vid=dd91e73d-c135-4bed-92d4-bbb6465e1949"},"vehicle_type_id":"4","last_reported":1710799631,"current_range_meters":26000,"station_id":"ce4bhqp2rcd13ifvqhog","pricing_plan_id":"cebpf4jnsgd1na2vs0mg"},{"bike_id":"9e2c8f75-58c9-4f50-bc00-d96ab4313960","system_id":"levelo_inurba_marseille","lat":43.323664,"lon":5.388836,"is_reserved":false,"is_disabled":false,"rental_uris":{"android":"levelo://app?vid=9e2c8f75-58c9-4f50-bc00-d96ab4313960","ios":"levelo://app?vid=9e2c8f75-58c9-4f50-bc00-d96ab4313960"},"vehicle_type_id":"4","last_reported":1710799631,"current_range_meters":1600,"station_id":"ce4bhqp2rcd13ifvqhog","pricing_plan_id":"cebpf4jnsgd1na2vs0mg"},{"bike_id":"41128f1f-2f01-4d9d-b223-5480079df37b","system_id":"levelo_inurba_marseille","lat":43.32368,"lon":5.38885,"is_reserved":false,"is_disabled":false,"rental_uris":{"android":"levelo://app?vid=41128f1f-2f01-4d9d-b223-5480079df37b","ios":"levelo://app?vid=41128f1f-2f01-4d9d-b223-5480079df37b"},"vehicle_type_id":"4","last_reported":1710799631,"current_range_meters":7600,"station_id":"ce4bhqp2rcd13ifvqhog","pricing_plan_id":"cebpf4jnsgd1na2vs0mg"},{"bike_id":"88c09819-0132-49e1-a848-b83c3e55111a","system_id":"levelo_inurba_marseille","lat":43.32367,"lon":5.388836,"is_reserved":false,"is_disabled":false,"rental_uris":{"android":"levelo://app?vid=88c09819-0132-49e1-a848-b83c3e55111a","ios":"levelo://app?vid=88c09819-0132-49e1-a848-b83c3e55111a"},"vehicle_type_id":"4","last_reported":1710799631,"current_range_meters":24000,"station_id":"ce4bhqp2rcd13ifvqhog","pricing_plan_id":"cebpf4jnsgd1na2vs0mg"},{"bike_id":"d1c473ef-8f57-4a45-a518-f2821a73640e","system_id":"levelo_inurba_marseille","lat":43.32368,"lon":5.38887,"is_reserved":false,"is_disabled":false,"rental_uris":{"android":"levelo://app?vid=d1c473ef-8f57-4a45-a518-f2821a73640e","ios":"levelo://app?vid=d1c473ef-8f57-4a45-a518-f2821a73640e"},"vehicle_type_id":"4","last_reported":1710799631,"current_range_meters":18400,"station_id":"ce4bhqp2rcd13ifvqhog","pricing_plan_id":"cebpf4jnsgd1na2vs0mg"},{"bike_id":"b2e38440-d9ce-4f95-9da7-79ff5c2c1ed5","system_id":"levelo_inurba_marseille","lat":43.32366,"lon":5.38889,"is_reserved":false,"is_disabled":false,"rental_uris":{"android":"levelo://app?vid=b2e38440-d9ce-4f95-9da7-79ff5c2c1ed5","ios":"levelo://app?vid=b2e38440-d9ce-4f95-9da7-79ff5c2c1ed5"},"vehicle_type_id":"4","last_reported":1710799631,"current_range_meters":14800,"station_id":"ce4bhqp2rcd13ifvqhog","pricing_plan_id":"cebpf4jnsgd1na2vs0mg"},{"bike_id":"9b43ae9f-97c3-4da0-938b-50afec46d2a5","system_id":"levelo_inurba_marseille","lat":43.32367,"lon":5.388836,"is_reserved":false,"is_disabled":false,"rental_uris":{"android":"levelo://app?vid=9b43ae9f-97c3-4da0-938b-50afec46d2a5","ios":"levelo://app?vid=9b43ae9f-97c3-4da0-938b-50afec46d2a5"},"vehicle_type_id":"4","last_reported":1710799631,"current_range_meters":20800,"station_id":"ce4bhqp2rcd13ifvqhog","pricing_plan_id":"cebpf4jnsgd1na2vs0mg"},{"bike_id":"bc149946-4553-424d-a87c-7dea59884772","system_id":"levelo_inurba_marseille","lat":43.323731,"lon":5.388851,"is_reserved":false,"is_disabled":false,"rental_uris":{"android":"levelo://app?vid=bc149946-4553-424d-a87c-7dea59884772","ios":"levelo://app?vid=bc149946-4553-424d-a87c-7dea59884772"},"vehicle_type_id":"4","last_reported":1710799631,"current_range_meters":7600,"station_id":"ce4bhqp2rcd13ifvqhog","pricing_plan_id":"cebpf4jnsgd1na2vs0mg"},{"bike_id":"b5c816fa-5add-4bb1-8e52-ea6086870fde","system_id":"levelo_inurba_marseille","lat":43.293259,"lon":5.371586,"is_reserved":false,"is_disabled":false,"rental_uris":{"android":"levelo://app?vid=b5c816fa-5add-4bb1-8e52-ea6086870fde","ios":"levelo://app?vid=b5c816fa-5add-4bb1-8e52-ea6086870fde"},"vehicle_type_id":"4","last_reported":1710799631,"current_range_meters":3200,"station_id":"ce4bgh92rcd13ifvqb40","pricing_plan_id":"cebpf4jnsgd1na2vs0mg"},{"bike_id":"f4e4fc57-2068-4df7-a209-2630abe1ba89","system_id":"levelo_inurba_marseille","lat":43.293259,"lon":5.371586,"is_reserved":false,"is_disabled":false,"rental_uris":{"android":"levelo://app?vid=f4e4fc57-2068-4df7-a209-2630abe1ba89","ios":"levelo://app?vid=f4e4fc57-2068-4df7-a209-2630abe1ba89"},"vehicle_type_id":"4","last_reported":1710799631,"current_range_meters":400,"station_id":"ce4bgh92rcd13ifvqb40","pricing_plan_id":"cebpf4jnsgd1na2vs0mg"},{"bike_id":"67868aad-b64e-481a-98c1-ec5f416e56bf","system_id":"levelo_inurba_marseille","lat":43.293259,"lon":5.371586,"is_reserved":false,"is_disabled":false,"rental_uris":{"android":"levelo://app?vid=67868aad-b64e-481a-98c1-ec5f416e56bf","ios":"levelo://app?vid=67868aad-b64e-481a-98c1-ec5f416e56bf"},"vehicle_type_id":"4","last_reported":1710799631,"current_range_meters":23600,"station_id":"ce4bgh92rcd13ifvqb40","pricing_plan_id":"cebpf4jnsgd1na2vs0mg"},{"bike_id":"5ec4ebd5-e1cc-4cf5-8524-2363c60d2c76","system_id":"levelo_inurba_marseille","lat":43.292749,"lon":5.368402,"is_reserved":false,"is_disabled":false,"rental_uris":{"android":"levelo://app?vid=5ec4ebd5-e1cc-4cf5-8524-2363c60d2c76","ios":"levelo://app?vid=5ec4ebd5-e1cc-4cf5-8524-2363c60d2c76"},"vehicle_type_id":"4","last_reported":1710799631,"current_range_meters":24000,"station_id":"ce4bhbp2rcd13ifvqesg","pricing_plan_id":"cebpf4jnsgd1na2vs0mg"},{"bike_id":"686c6bb7-58e1-416d-9297-14b194b312f8","system_id":"levelo_inurba_marseille","lat":43.293009,"lon":5.374584,"is_reserved":false,"is_disabled":false,"rental_uris":{"android":"levelo://app?vid=686c6bb7-58e1-416d-9297-14b194b312f8","ios":"levelo://app?vid=686c6bb7-58e1-416d-9297-14b194b312f8"},"vehicle_type_id":"4","last_reported":1710799631,"current_range_meters":1200,"station_id":"ce4bgi12rcd13ifvqb70","pricing_plan_id":"cebpf4jnsgd1na2vs0mg"},{"bike_id":"abd2346d-6121-430b-939e-3e7435356d65","system_id":"levelo_inurba_marseille","lat":43.293009,"lon":5.374584,"is_reserved":false,"is_disabled":false,"rental_uris":{"android":"levelo://app?vid=abd2346d-6121-430b-939e-3e7435356d65","ios":"levelo://app?vid=abd2346d-6121-430b-939e-3e7435356d65"},"vehicle_type_id":"4","last_reported":1710799631,"current_range_meters":29200,"station_id":"ce4bgi12rcd13ifvqb70","pricing_plan_id":"cebpf4jnsgd1na2vs0mg"},{"bike_id":"572d6502-8ea2-45c5-a2da-c4f333442305","system_id":"levelo_inurba_marseille","lat":43.293009,"lon":5.374584,"is_reserved":false,"is_disabled":false,"rental_uris":{"android":"levelo://app?vid=572d6502-8ea2-45c5-a2da-c4f333442305","ios":"levelo://app?vid=572d6502-8ea2-45c5-a2da-c4f333442305"},"vehicle_type_id":"4","last_reported":1710799631,"current_range_meters":1200,"station_id":"ce4bgi12rcd13ifvqb70","pricing_plan_id":"cebpf4jnsgd1na2vs0mg"},{"bike_id":"5ed41897-3a19-4d4d-9814-cb8f2cbd3fdc","system_id":"levelo_inurba_marseille","lat":43.305994,"lon":5.393687,"is_reserved":false,"is_disabled":false,"rental_uris":{"android":"levelo://app?vid=5ed41897-3a19-4d4d-9814-cb8f2cbd3fdc","ios":"levelo://app?vid=5ed41897-3a19-4d4d-9814-cb8f2cbd3fdc"},"vehicle_type_id":"4","last_reported":1710799631,"current_range_meters":4800,"station_id":"ce4bh0p2rcd13ifvqd80","pricing_plan_id":"cebpf4jnsgd1na2vs0mg"},{"bike_id":"b344123e-6612-46f7-9ed7-12c7ce8d5ebe","system_id":"levelo_inurba_marseille","lat":43.293009,"lon":5.374584,"is_reserved":false,"is_disabled":false,"rental_uris":{"android":"levelo://app?vid=b344123e-6612-46f7-9ed7-12c7ce8d5ebe","ios":"levelo://app?vid=b344123e-6612-46f7-9ed7-12c7ce8d5ebe"},"vehicle_type_id":"4","last_reported":1710799631,"current_range_meters":30000,"station_id":"ce4bgi12rcd13ifvqb70","pricing_plan_id":"cebpf4jnsgd1na2vs0mg"},{"bike_id":"1b7d39f2-f8da-4f94-9596-31656cceaf6f","system_id":"levelo_inurba_marseille","lat":43.293009,"lon":5.374584,"is_reserved":false,"is_disabled":false,"rental_uris":{"android":"levelo://app?vid=1b7d39f2-f8da-4f94-9596-31656cceaf6f","ios":"levelo://app?vid=1b7d39f2-f8da-4f94-9596-31656cceaf6f"},"vehicle_type_id":"4","last_reported":1710799631,"current_range_meters":30800,"station_id":"ce4bgi12rcd13ifvqb70","pricing_plan_id":"cebpf4jnsgd1na2vs0mg"},{"bike_id":"daf4ee2d-74a2-4534-984c-c1997278a53b","system_id":"levelo_inurba_marseille","lat":43.303002,"lon":5.392142,"is_reserved":false,"is_disabled":false,"rental_uris":{"android":"levelo://app?vid=daf4ee2d-74a2-4534-984c-c1997278a53b","ios":"levelo://app?vid=daf4ee2d-74a2-4534-984c-c1997278a53b"},"vehicle_type_id":"4","last_reported":1710799631,"current_range_meters":25600,"station_id":"ce4bgkh2rcd13ifvqbk0","pricing_plan_id":"cebpf4jnsgd1na2vs0mg"},{"bike_id":"0a772704-0b55-450e-8ac6-8e31a85b036e","system_id":"levelo_inurba_marseille","lat":43.303002,"lon":5.392142,"is_reserved":false,"is_disabled":false,"rental_uris":{"android":"levelo://app?vid=0a772704-0b55-450e-8ac6-8e31a85b036e","ios":"levelo://app?vid=0a772704-0b55-450e-8ac6-8e31a85b036e"},"vehicle_type_id":"4","last_reported":1710799631,"current_range_meters":22800,"station_id":"ce4bgkh2rcd13ifvqbk0","pricing_plan_id":"cebpf4jnsgd1na2vs0mg"},{"bike_id":"e53de477-ae5b-4eba-88fb-d0c03fcb4bd0","system_id":"levelo_inurba_marseille","lat":43.30294,"lon":5.39197,"is_reserved":false,"is_disabled":false,"rental_uris":{"android":"levelo://app?vid=e53de477-ae5b-4eba-88fb-d0c03fcb4bd0","ios":"levelo://app?vid=e53de477-ae5b-4eba-88fb-d0c03fcb4bd0"},"vehicle_type_id":"4","last_reported":1710799631,"current_range_meters":5600,"station_id":"ce4bgkh2rcd13ifvqbk0","pricing_plan_id":"cebpf4jnsgd1na2vs0mg"},{"bike_id":"2fc46dfd-6553-477d-b90e-82e464954edb","system_id":"levelo_inurba_marseille","lat":43.30296,"lon":5.39209,"is_reserved":false,"is_disabled":false,"rental_uris":{"android":"levelo://app?vid=2fc46dfd-6553-477d-b90e-82e464954edb","ios":"levelo://app?vid=2fc46dfd-6553-477d-b90e-82e464954edb"},"vehicle_type_id":"4","last_reported":1710799631,"current_range_meters":0,"station_id":"ce4bgkh2rcd13ifvqbk0","pricing_plan_id":"cebpf4jnsgd1na2vs0mg"},{"bike_id":"4a87e373-ff80-446e-b465-62c8c654442f","system_id":"levelo_inurba_marseille","lat":43.302992,"lon":5.392136,"is_reserved":false,"is_disabled":false,"rental_uris":{"android":"levelo://app?vid=4a87e373-ff80-446e-b465-62c8c654442f","ios":"levelo://app?vid=4a87e373-ff80-446e-b465-62c8c654442f"},"vehicle_type_id":"4","last_reported":1710799631,"current_range_meters":30000,"station_id":"ce4bgkh2rcd13ifvqbk0","pricing_plan_id":"cebpf4jnsgd1na2vs0mg"},{"bike_id":"cdc1ef6e-879b-4729-9539-b43e10876b15","system_id":"levelo_inurba_marseille","lat":43.2936,"lon":5.37835,"is_reserved":false,"is_disabled":false,"rental_uris":{"android":"levelo://app?vid=cdc1ef6e-879b-4729-9539-b43e10876b15","ios":"levelo://app?vid=cdc1ef6e-879b-4729-9539-b43e10876b15"},"vehicle_type_id":"4","last_reported":1710799631,"current_range_meters":27600,"station_id":"ce4bgjh2rcd13ifvqbf0","pricing_plan_id":"cebpf4jnsgd1na2vs0mg"},{"bike_id":"85a7a3b9-62e2-482a-b49a-63d51b69aaf4","system_id":"levelo_inurba_marseille","lat":43.2936,"lon":5.37835,"is_reserved":false,"is_disabled":false,"rental_uris":{"android":"levelo://app?vid=85a7a3b9-62e2-482a-b49a-63d51b69aaf4","ios":"levelo://app?vid=85a7a3b9-62e2-482a-b49a-63d51b69aaf4"},"vehicle_type_id":"4","last_reported":1710799631,"current_range_meters":0,"station_id":"ce4bgjh2rcd13ifvqbf0","pricing_plan_id":"cebpf4jnsgd1na2vs0mg"},{"bike_id":"e095626a-be9a-464e-846b-84dbf4164094","system_id":"levelo_inurba_marseille","lat":43.30086,"lon":5.39074,"is_reserved":false,"is_disabled":false,"rental_uris":{"android":"levelo://app?vid=e095626a-be9a-464e-846b-84dbf4164094","ios":"levelo://app?vid=e095626a-be9a-464e-846b-84dbf4164094"},"vehicle_type_id":"4","last_reported":1710799631,"current_range_meters":10000,"station_id":"ce4bh192rcd13ifvqdb0","pricing_plan_id":"cebpf4jnsgd1na2vs0mg"},{"bike_id":"8467dd30-3ad4-4d0e-835e-714764f492a1","system_id":"levelo_inurba_marseille","lat":43.292648,"lon":5.3762,"is_reserved":false,"is_disabled":false,"rental_uris":{"android":"levelo://app?vid=8467dd30-3ad4-4d0e-835e-714764f492a1","ios":"levelo://app?vid=8467dd30-3ad4-4d0e-835e-714764f492a1"},"vehicle_type_id":"4","last_reported":1710799631,"current_range_meters":7200,"station_id":"","pricing_plan_id":"cebpf4jnsgd1na2vs0mg"},{"bike_id":"03a34097-2d60-460d-b4e1-bec74c94302e","system_id":"levelo_inurba_marseille","lat":43.292665,"lon":5.376295,"is_reserved":false,"is_disabled":false,"rental_uris":{"android":"levelo://app?vid=03a34097-2d60-460d-b4e1-bec74c94302e","ios":"levelo://app?vid=03a34097-2d60-460d-b4e1-bec74c94302e"},"vehicle_type_id":"4","last_reported":1710799631,"current_range_meters":14400,"station_id":"","pricing_plan_id":"cebpf4jnsgd1na2vs0mg"},{"bike_id":"239c7627-aa87-4c87-8885-5c68290a72d1","system_id":"levelo_inurba_marseille","lat":43.291675,"lon":5.371583,"is_reserved":false,"is_disabled":false,"rental_uris":{"android":"levelo://app?vid=239c7627-aa87-4c87-8885-5c68290a72d1","ios":"levelo://app?vid=239c7627-aa87-4c87-8885-5c68290a72d1"},"vehicle_type_id":"4","last_reported":1710799631,"current_range_meters":24800,"station_id":"ce4bha92rcd13ifvqeh0","pricing_plan_id":"cebpf4jnsgd1na2vs0mg"},{"bike_id":"50a5267b-3e65-43a6-8c2a-e4d188f70fe8","system_id":"levelo_inurba_marseille","lat":43.309038,"lon":5.396546,"is_reserved":false,"is_disabled":false,"rental_uris":{"android":"levelo://app?vid=50a5267b-3e65-43a6-8c2a-e4d188f70fe8","ios":"levelo://app?vid=50a5267b-3e65-43a6-8c2a-e4d188f70fe8"},"vehicle_type_id":"4","last_reported":1710799631,"current_range_meters":27200,"station_id":"ce4bh012rcd13ifvqcv0","pricing_plan_id":"cebpf4jnsgd1na2vs0mg"},{"bike_id":"7cc1d042-4f28-4062-a8f9-6372809f45e8","system_id":"levelo_inurba_marseille","lat":43.309038,"lon":5.396546,"is_reserved":false,"is_disabled":false,"rental_uris":{"android":"levelo://app?vid=7cc1d042-4f28-4062-a8f9-6372809f45e8","ios":"levelo://app?vid=7cc1d042-4f28-4062-a8f9-6372809f45e8"},"vehicle_type_id":"4","last_reported":1710799631,"current_range_meters":0,"station_id":"ce4bh012rcd13ifvqcv0","pricing_plan_id":"cebpf4jnsgd1na2vs0mg"},{"bike_id":"f928fa6e-d96c-4593-b797-a0483919138f","system_id":"levelo_inurba_marseille","lat":43.30881,"lon":5.39638,"is_reserved":false,"is_disabled":false,"rental_uris":{"android":"levelo://app?vid=f928fa6e-d96c-4593-b797-a0483919138f","ios":"levelo://app?vid=f928fa6e-d96c-4593-b797-a0483919138f"},"vehicle_type_id":"4","last_reported":1710799631,"current_range_meters":2000,"station_id":"ce4bh012rcd13ifvqcv0","pricing_plan_id":"cebpf4jnsgd1na2vs0mg"},{"bike_id":"cca2a2dc-7502-4d2b-b0d8-7d022a8d823b","system_id":"levelo_inurba_marseille","lat":43.31327,"lon":5.39687,"is_reserved":false,"is_disabled":false,"rental_uris":{"android":"levelo://app?vid=cca2a2dc-7502-4d2b-b0d8-7d022a8d823b","ios":"levelo://app?vid=cca2a2dc-7502-4d2b-b0d8-7d022a8d823b"},"vehicle_type_id":"4","last_reported":1710799631,"current_range_meters":9200,"station_id":"ce4bgvp2rcd13ifvqcu0","pricing_plan_id":"cebpf4jnsgd1na2vs0mg"},{"bike_id":"b0fd7457-162a-4f59-bc93-7818c2aa5c43","system_id":"levelo_inurba_marseille","lat":43.31326,"lon":5.3969,"is_reserved":false,"is_disabled":false,"rental_uris":{"android":"levelo://app?vid=b0fd7457-162a-4f59-bc93-7818c2aa5c43","ios":"levelo://app?vid=b0fd7457-162a-4f59-bc93-7818c2aa5c43"},"vehicle_type_id":"4","last_reported":1710799631,"current_range_meters":18400,"station_id":"ce4bgvp2rcd13ifvqcu0","pricing_plan_id":"cebpf4jnsgd1na2vs0mg"},{"bike_id":"2da54622-6b7c-45e0-a91e-9cfcd6efcd91","system_id":"levelo_inurba_marseille","lat":43.313273,"lon":5.3969,"is_reserved":false,"is_disabled":false,"rental_uris":{"android":"levelo://app?vid=2da54622-6b7c-45e0-a91e-9cfcd6efcd91","ios":"levelo://app?vid=2da54622-6b7c-45e0-a91e-9cfcd6efcd91"},"vehicle_type_id":"4","last_reported":1710799631,"current_range_meters":0,"station_id":"ce4bgvp2rcd13ifvqcu0","pricing_plan_id":"cebpf4jnsgd1na2vs0mg"},{"bike_id":"aadf9756-2172-4fa9-b5f9-044cad6fc6e1","system_id":"levelo_inurba_marseille","lat":43.31332,"lon":5.3969,"is_reserved":false,"is_disabled":false,"rental_uris":{"android":"levelo://app?vid=aadf9756-2172-4fa9-b5f9-044cad6fc6e1","ios":"levelo://app?vid=aadf9756-2172-4fa9-b5f9-044cad6fc6e1"},"vehicle_type_id":"4","last_reported":1710799631,"current_range_meters":0,"station_id":"ce4bgvp2rcd13ifvqcu0","pricing_plan_id":"cebpf4jnsgd1na2vs0mg"},{"bike_id":"6d33c51a-be9e-44ce-9c31-11f37f6d5e46","system_id":"levelo_inurba_marseille","lat":43.308946,"lon":5.396456,"is_reserved":false,"is_disabled":false,"rental_uris":{"android":"levelo://app?vid=6d33c51a-be9e-44ce-9c31-11f37f6d5e46","ios":"levelo://app?vid=6d33c51a-be9e-44ce-9c31-11f37f6d5e46"},"vehicle_type_id":"4","last_reported":1710799631,"current_range_meters":11600,"station_id":"ce4bh012rcd13ifvqcv0","pricing_plan_id":"cebpf4jnsgd1na2vs0mg"},{"bike_id":"417db0d3-fe5f-4d51-a936-22851f2a247b","system_id":"levelo_inurba_marseille","lat":43.31327,"lon":5.39691,"is_reserved":false,"is_disabled":false,"rental_uris":{"android":"levelo://app?vid=417db0d3-fe5f-4d51-a936-22851f2a247b","ios":"levelo://app?vid=417db0d3-fe5f-4d51-a936-22851f2a247b"},"vehicle_type_id":"4","last_reported":1710799631,"current_range_meters":13600,"station_id":"ce4bgvp2rcd13ifvqcu0","pricing_plan_id":"cebpf4jnsgd1na2vs0mg"},{"bike_id":"4112e78b-a83b-4144-bf4b-846372bc7b46","system_id":"levelo_inurba_marseille","lat":43.291994,"lon":5.357886,"is_reserved":false,"is_disabled":false,"rental_uris":{"android":"levelo://app?vid=4112e78b-a83b-4144-bf4b-846372bc7b46","ios":"levelo://app?vid=4112e78b-a83b-4144-bf4b-846372bc7b46"},"vehicle_type_id":"4","last_reported":1710799631,"current_range_meters":27600,"station_id":"ce4bhb12rcd13ifvqel0","pricing_plan_id":"cebpf4jnsgd1na2vs0mg"},{"bike_id":"7e71418c-916c-496b-b1b9-73fd03f2dc6f","system_id":"levelo_inurba_marseille","lat":43.30885,"lon":5.396447,"is_reserved":false,"is_disabled":false,"rental_uris":{"android":"levelo://app?vid=7e71418c-916c-496b-b1b9-73fd03f2dc6f","ios":"levelo://app?vid=7e71418c-916c-496b-b1b9-73fd03f2dc6f"},"vehicle_type_id":"4","last_reported":1710799631,"current_range_meters":14800,"station_id":"ce4bh012rcd13ifvqcv0","pricing_plan_id":"cebpf4jnsgd1na2vs0mg"},{"bike_id":"abb11673-b40c-40c4-b8f4-1baa48a2e387","system_id":"levelo_inurba_marseille","lat":43.31328,"lon":5.39692,"is_reserved":false,"is_disabled":false,"rental_uris":{"android":"levelo://app?vid=abb11673-b40c-40c4-b8f4-1baa48a2e387","ios":"levelo://app?vid=abb11673-b40c-40c4-b8f4-1baa48a2e387"},"vehicle_type_id":"4","last_reported":1710799631,"current_range_meters":22400,"station_id":"ce4bgvp2rcd13ifvqcu0","pricing_plan_id":"cebpf4jnsgd1na2vs0mg"},{"bike_id":"5e8668ca-9cf0-4ecc-9cbd-f26cb38a4010","system_id":"levelo_inurba_marseille","lat":43.308824,"lon":5.396444,"is_reserved":false,"is_disabled":false,"rental_uris":{"android":"levelo://app?vid=5e8668ca-9cf0-4ecc-9cbd-f26cb38a4010","ios":"levelo://app?vid=5e8668ca-9cf0-4ecc-9cbd-f26cb38a4010"},"vehicle_type_id":"4","last_reported":1710799631,"current_range_meters":2400,"station_id":"ce4bh012rcd13ifvqcv0","pricing_plan_id":"cebpf4jnsgd1na2vs0mg"},{"bike_id":"b5bcac87-7631-4270-9206-ca8781416e02","system_id":"levelo_inurba_marseille","lat":43.308854,"lon":5.396458,"is_reserved":false,"is_disabled":false,"rental_uris":{"android":"levelo://app?vid=b5bcac87-7631-4270-9206-ca8781416e02","ios":"levelo://app?vid=b5bcac87-7631-4270-9206-ca8781416e02"},"vehicle_type_id":"4","last_reported":1710799631,"current_range_meters":0,"station_id":"ce4bh012rcd13ifvqcv0","pricing_plan_id":"cebpf4jnsgd1na2vs0mg"},{"bike_id":"fd327592-bcf3-43bf-9594-86c819354f99","system_id":"levelo_inurba_marseille","lat":43.31326,"lon":5.39693,"is_reserved":false,"is_disabled":false,"rental_uris":{"android":"levelo://app?vid=fd327592-bcf3-43bf-9594-86c819354f99","ios":"levelo://app?vid=fd327592-bcf3-43bf-9594-86c819354f99"},"vehicle_type_id":"4","last_reported":1710799631,"current_range_meters":30000,"station_id":"ce4bgvp2rcd13ifvqcu0","pricing_plan_id":"cebpf4jnsgd1na2vs0mg"},{"bike_id":"88f8c006-3663-43ee-a7c3-5ec8a5d44b37","system_id":"levelo_inurba_marseille","lat":43.31329,"lon":5.39693,"is_reserved":false,"is_disabled":false,"rental_uris":{"android":"levelo://app?vid=88f8c006-3663-43ee-a7c3-5ec8a5d44b37","ios":"levelo://app?vid=88f8c006-3663-43ee-a7c3-5ec8a5d44b37"},"vehicle_type_id":"4","last_reported":1710799631,"current_range_meters":30800,"station_id":"ce4bgvp2rcd13ifvqcu0","pricing_plan_id":"cebpf4jnsgd1na2vs0mg"},{"bike_id":"baf70c3a-b47d-4608-b1b1-50ad62d22bff","system_id":"levelo_inurba_marseille","lat":43.3133,"lon":5.39693,"is_reserved":false,"is_disabled":false,"rental_uris":{"android":"levelo://app?vid=baf70c3a-b47d-4608-b1b1-50ad62d22bff","ios":"levelo://app?vid=baf70c3a-b47d-4608-b1b1-50ad62d22bff"},"vehicle_type_id":"4","last_reported":1710799631,"current_range_meters":31200,"station_id":"ce4bgvp2rcd13ifvqcu0","pricing_plan_id":"cebpf4jnsgd1na2vs0mg"},{"bike_id":"617b0e6f-676e-40f0-bbaf-c9395e5b4dcd","system_id":"levelo_inurba_marseille","lat":43.313295,"lon":5.396939,"is_reserved":false,"is_disabled":false,"rental_uris":{"android":"levelo://app?vid=617b0e6f-676e-40f0-bbaf-c9395e5b4dcd","ios":"levelo://app?vid=617b0e6f-676e-40f0-bbaf-c9395e5b4dcd"},"vehicle_type_id":"4","last_reported":1710799631,"current_range_meters":28400,"station_id":"ce4bgvp2rcd13ifvqcu0","pricing_plan_id":"cebpf4jnsgd1na2vs0mg"},{"bike_id":"0baa70e1-9094-414f-8b32-5184a27f827b","system_id":"levelo_inurba_marseille","lat":43.31325,"lon":5.39695,"is_reserved":false,"is_disabled":false,"rental_uris":{"android":"levelo://app?vid=0baa70e1-9094-414f-8b32-5184a27f827b","ios":"levelo://app?vid=0baa70e1-9094-414f-8b32-5184a27f827b"},"vehicle_type_id":"4","last_reported":1710799631,"current_range_meters":0,"station_id":"ce4bgvp2rcd13ifvqcu0","pricing_plan_id":"cebpf4jnsgd1na2vs0mg"},{"bike_id":"5e84aace-d6e2-4b8e-a64a-6d2f2b35a36c","system_id":"levelo_inurba_marseille","lat":43.31331,"lon":5.39695,"is_reserved":false,"is_disabled":false,"rental_uris":{"android":"levelo://app?vid=5e84aace-d6e2-4b8e-a64a-6d2f2b35a36c","ios":"levelo://app?vid=5e84aace-d6e2-4b8e-a64a-6d2f2b35a36c"},"vehicle_type_id":"4","last_reported":1710799631,"current_range_meters":20800,"station_id":"ce4bgvp2rcd13ifvqcu0","pricing_plan_id":"cebpf4jnsgd1na2vs0mg"},{"bike_id":"68f4ec78-6cea-485c-a7f0-f742113abab5","system_id":"levelo_inurba_marseille","lat":43.31332,"lon":5.39695,"is_reserved":false,"is_disabled":false,"rental_uris":{"android":"levelo://app?vid=68f4ec78-6cea-485c-a7f0-f742113abab5","ios":"levelo://app?vid=68f4ec78-6cea-485c-a7f0-f742113abab5"},"vehicle_type_id":"4","last_reported":1710799631,"current_range_meters":31200,"station_id":"ce4bgvp2rcd13ifvqcu0","pricing_plan_id":"cebpf4jnsgd1na2vs0mg"},{"bike_id":"3b4b38b4-c272-4d38-b9cf-5cdfa5a789b4","system_id":"levelo_inurba_marseille","lat":43.309038,"lon":5.396546,"is_reserved":false,"is_disabled":false,"rental_uris":{"android":"levelo://app?vid=3b4b38b4-c272-4d38-b9cf-5cdfa5a789b4","ios":"levelo://app?vid=3b4b38b4-c272-4d38-b9cf-5cdfa5a789b4"},"vehicle_type_id":"4","last_reported":1710799631,"current_range_meters":2000,"station_id":"ce4bh012rcd13ifvqcv0","pricing_plan_id":"cebpf4jnsgd1na2vs0mg"},{"bike_id":"d7a16576-1360-4b20-8b52-cc610b91bc0b","system_id":"levelo_inurba_marseille","lat":43.31321,"lon":5.39696,"is_reserved":false,"is_disabled":false,"rental_uris":{"android":"levelo://app?vid=d7a16576-1360-4b20-8b52-cc610b91bc0b","ios":"levelo://app?vid=d7a16576-1360-4b20-8b52-cc610b91bc0b"},"vehicle_type_id":"4","last_reported":1710799631,"current_range_meters":11200,"station_id":"ce4bgvp2rcd13ifvqcu0","pricing_plan_id":"cebpf4jnsgd1na2vs0mg"},{"bike_id":"47d20761-d881-4f8f-8a47-ff786e168f50","system_id":"levelo_inurba_marseille","lat":43.31334,"lon":5.39698,"is_reserved":false,"is_disabled":false,"rental_uris":{"android":"levelo://app?vid=47d20761-d881-4f8f-8a47-ff786e168f50","ios":"levelo://app?vid=47d20761-d881-4f8f-8a47-ff786e168f50"},"vehicle_type_id":"4","last_reported":1710799631,"current_range_meters":0,"station_id":"ce4bgvp2rcd13ifvqcu0","pricing_plan_id":"cebpf4jnsgd1na2vs0mg"},{"bike_id":"4e82e8b3-e400-45e2-9bff-fe38ba01a722","system_id":"levelo_inurba_marseille","lat":43.31331,"lon":5.39701,"is_reserved":false,"is_disabled":false,"rental_uris":{"android":"levelo://app?vid=4e82e8b3-e400-45e2-9bff-fe38ba01a722","ios":"levelo://app?vid=4e82e8b3-e400-45e2-9bff-fe38ba01a722"},"vehicle_type_id":"4","last_reported":1710799631,"current_range_meters":24400,"station_id":"ce4bgvp2rcd13ifvqcu0","pricing_plan_id":"cebpf4jnsgd1na2vs0mg"},