{"last_updated":1725113232,"ttl":30,"version":"2.2","data":{"bikes":[{"bike_id":"914ee60c-ad46-4c6a-9a9e-e9edba0cd223","system_id":"levelo_inurba_marseille","lat":43.309034,"lon":5.371783,"is_reserved":false,"is_disabled":false,"rental_uris":{"android":"levelo://app?vid=914ee60c-ad46-4c6a-9a9e-e9edba0cd223","ios":"levelo://app?vid=914ee60c-ad46-4c6a-9a9e-e9edba0cd223"},"vehicle_type_id":"4","last_reported":1725113232,"current_range_meters":27200,"station_id":"ce4bguh2rcd13ifvqckg","pricing_plan_id":"cebpf4jnsgd1na2vs0mg"},{"bike_id":"99217982-2aa7-4352-8887-3228cc74852e","system_id":"levelo_inurba_marseille","lat":43.305714,"lon":5.365633,"is_reserved":false,"is_disabled":false,"rental_uris":{"android":"levelo://app?vid=99217982-2aa7-4352-8887-3228cc74852e","ios":"levelo://app?vid=99217982-2aa7-4352-8887-3228cc74852e"},"vehicle_type_id":"4","last_reported":1725113232,"current_range_meters":14800,"station_id":"ce4bgs12rcd13ifvqcag","pricing_plan_id":"cebpf4jnsgd1na2vs0mg"},{"bike_id":"489e8ec0-002c-4e87-a346-aed2bca9632c","system_id":"levelo_inurba_marseille","lat":43.30545,"lon":5.36555,"is_reserved":false,"is_disabled":false,"rental_uris":{"android":"levelo://app?vid=489e8ec0-002c-4e87-a346-aed2bca9632c","ios":"levelo://app?vid=489e8ec0-002c-4e87-a346-aed2bca9632c"},"vehicle_type_id":"4","last_reported":1725113232,"current_range_meters":9200,"station_id":"ce4bgs12rcd13ifvqcag","pricing_plan_id":"cebpf4jnsgd1na2vs0mg"},{"bike_id":"04fdb0c6-9bfc-4d6f-a289-3e4f6be68aa9","system_id":"levelo_inurba_marseille","lat":43.305714,"lon":5.365633,"is_reserved":false,"is_disabled":false,"rental_uris":{"android":"levelo://app?vid=04fdb0c6-9bfc-4d6f-a289-3e4f6be68aa9","ios":"levelo://app?vid=04fdb0c6-9bfc-4d6f-a289-3e4f6be68aa9"},"vehicle_type_id":"4","last_reported":1725113232,"current_range_meters":30400,"station_id":"ce4bgs12rcd13ifvqcag","pricing_plan_id":"cebpf4jnsgd1na2vs0mg"},{"bike_id":"acbdae5f-b77b-4966-9d9a-a498bbf3195e","system_id":"levelo_inurba_marseille","lat":43.30541,"lon":5.36516,"is_reserved":false,"is_disabled":false,"rental_uris":{"android":"levelo://app?vid=acbdae5f-b77b-4966-9d9a-a498bbf3195e","ios":"levelo://app?vid=acbdae5f-b77b-4966-9d9a-a498bbf3195e"},"vehicle_type_id":"4","last_reported":1725113232,"current_range_meters":18800,"station_id":"ce4bgs12rcd13ifvqcag","pricing_plan_id":"cebpf4jnsgd1na2vs0mg"},{"bike_id":"497e7e42-b784-4a3c-af2a-edf54f3e3d06","system_id":"levelo_inurba_marseille","lat":43.30537,"lon":5.36547,"is_reserved":false,"is_disabled":false,"rental_uris":{"android":"levelo://app?vid=497e7e42-b784-4a3c-af2a-edf54f3e3d06","ios":"levelo://app?vid=497e7e42-b784-4a3c-af2a-edf54f3e3d06"},"vehicle_type_id":"4","last_reported":1725113232,"current_range_meters":12400,"station_id":"ce4bgs12rcd13ifvqcag","pricing_plan_id":"cebpf4jnsgd1na2vs0mg"},{"bike_id":"71eef8d6-3df1-41a9-9f28-c5473bd76ccd","system_id":"levelo_inurba_marseille","lat":43.305714,"lon":5.365633,"is_reserved":false,"is_disabled":false,"rental_uris":{"android":"levelo://app?vid=71eef8d6-3df1-41a9-9f28-c5473bd76ccd","ios":"levelo://app?vid=71eef8d6-3df1-41a9-9f28-c5473bd76ccd"},"vehicle_type_id":"4","last_reported":1725113232,"current_range_meters":31600,"station_id":"ce4bgs12rcd13ifvqcag","pricing_plan_id":"cebpf4jnsgd1na2vs0mg"},{"bike_id":"52576c41-96be-41f9-baf6-b2fcab02fbcb","system_id":"levelo_inurba_marseille","lat":43.305714,"lon":5.365633,"is_reserved":false,"is_disabled":false,"rental_uris":{"android":"levelo://app?vid=52576c41-96be-41f9-baf6-b2fcab02fbcb","ios":"levelo://app?vid=52576c41-96be-41f9-baf6-b2fcab02fbcb"},"vehicle_type_id":"4","last_reported":1725113232,"current_range_meters":3600,"station_id":"ce4bgs12rcd13ifvqcag","pricing_plan_id":"cebpf4jnsgd1na2vs0mg"},{"bike_id":"ea3264cc-dbdb-4756-90ae-f75396e73972","system_id":"levelo_inurba_marseille","lat":43.30537,"lon":5.36541,"is_reserved":false,"is_disabled":false,"rental_uris":{"android":"levelo://app?vid=ea3264cc-dbdb-4756-90ae-f75396e73972","ios":"levelo://app?vid=ea3264cc-dbdb-4756-90ae-f75396e73972"},"vehicle_type_id":"4","last_reported":1725113232,"current_range_meters":29200,"station_id":"ce4bgs12rcd13ifvqcag","pricing_plan_id":"cebpf4jnsgd1na2vs0mg"},{"bike_id":"e83048d9-c083-4d44-b878-7c647735d614","system_id":"levelo_inurba_marseille","lat":43.305714,"lon":5.365633,"is_reserved":false,"is_disabled":false,"rental_uris":{"android":"levelo://app?vid=e83048d9-c083-4d44-b878-7c647735d614","ios":"levelo://app?vid=e83048d9-c083-4d44-b878-7c647735d614"},"vehicle_type_id":"4","last_reported":1725113232,"current_range_meters":15200,"station_id":"ce4bgs12rcd13ifvqcag","pricing_plan_id":"cebpf4jnsgd1na2vs0mg"},{"bike_id":"5e4b426b-df98-4eeb-b299-93e36e1ae718","system_id":"levelo_inurba_marseille","lat":43.30534,"lon":5.36531,"is_reserved":false,"is_disabled":false,"rental_uris":{"android":"levelo://app?vid=5e4b426b-df98-4eeb-b299-93e36e1ae718","ios":"levelo://app?vid=5e4b426b-df98-4eeb-b299-93e36e1ae718"},"vehicle_type_id":"4","last_reported":1725113232,"current_range_meters":18800,"station_id":"ce4bgs12rcd13ifvqcag","pricing_plan_id":"cebpf4jnsgd1na2vs0mg"},{"bike_id":"1e90120e-23e9-48e7-90b3-e8db6ca53805","system_id":"levelo_inurba_marseille","lat":43.305706,"lon":5.365654,"is_reserved":false,"is_disabled":false,"rental_uris":{"android":"levelo://app?vid=1e90120e-23e9-48e7-90b3-e8db6ca53805","ios":"levelo://app?vid=1e90120e-23e9-48e7-90b3-e8db6ca53805"},"vehicle_type_id":"4","last_reported":1725113232,"current_range_meters":25200,"station_id":"ce4bgs12rcd13ifvqcag","pricing_plan_id":"cebpf4jnsgd1na2vs0mg"},{"bike_id":"aa038c47-f36e-4e1c-9dcb-cd3e2085bfe1","system_id":"levelo_inurba_marseille","lat":43.31183,"lon":5.37722,"is_reserved":false,"is_disabled":false,"rental_uris":{"android":"levelo://app?vid=aa038c47-f36e-4e1c-9dcb-cd3e2085bfe1","ios":"levelo://app?vid=aa038c47-f36e-4e1c-9dcb-cd3e2085bfe1"},"vehicle_type_id":"4","last_reported":1725113232,"current_range_meters":400,"station_id":"","pricing_plan_id":"cebpf4jnsgd1na2vs0mg"},{"bike_id":"a04b766d-af52-44c9-8854-348e52099991","system_id":"levelo_inurba_marseille","lat":43.305368,"lon":5.367343,"is_reserved":false,"is_disabled":false,"rental_uris":{"android":"levelo://app?vid=a04b766d-af52-44c9-8854-348e52099991","ios":"levelo://app?vid=a04b766d-af52-44c9-8854-348e52099991"},"vehicle_type_id":"4","last_reported":1725113232,"current_range_meters":22800,"station_id":"ce4bgrp2rcd13ifvqc9g","pricing_plan_id":"cebpf4jnsgd1na2vs0mg"},{"bike_id":"d40d999f-8f81-45b5-9a52-2ea0c7a4797c","system_id":"levelo_inurba_marseille","lat":43.311131,"lon":5.377651,"is_reserved":false,"is_disabled":false,"rental_uris":{"android":"levelo://app?vid=d40d999f-8f81-45b5-9a52-2ea0c7a4797c","ios":"levelo://app?vid=d40d999f-8f81-45b5-9a52-2ea0c7a4797c"},"vehicle_type_id":"4","last_reported":1725113232,"current_range_meters":14000,"station_id":"ce4bgt92rcd13ifvqcg0","pricing_plan_id":"cebpf4jnsgd1na2vs0mg"},{"bike_id":"a5c72b1e-bc41-46b2-9510-16ea60e0a0b4","system_id":"levelo_inurba_marseille","lat":43.307886,"lon":5.376395,"is_reserved":false,"is_disabled":false,"rental_uris":{"android":"levelo://app?vid=a5c72b1e-bc41-46b2-9510-16ea60e0a0b4","ios":"levelo://app?vid=a5c72b1e-bc41-46b2-9510-16ea60e0a0b4"},"vehicle_type_id":"4","last_reported":1725113232,"current_range_meters":9600,"station_id":"ce4bgv92rcd13ifvqcq0","pricing_plan_id":"cebpf4jnsgd1na2vs0mg"},{"bike_id":"400ff4fe-59ef-4ef7-b25d-a94573cae39b","system_id":"levelo_inurba_marseille","lat":43.30786,"lon":5.37649,"is_reserved":false,"is_disabled":false,"rental_uris":{"android":"levelo://app?vid=400ff4fe-59ef-4ef7-b25d-a94573cae39b","ios":"levelo://app?vid=400ff4fe-59ef-4ef7-b25d-a94573cae39b"},"vehicle_type_id":"4","last_reported":1725113232,"current_range_meters":22800,"station_id":"ce4bgv92rcd13ifvqcq0","pricing_plan_id":"cebpf4jnsgd1na2vs0mg"},{"bike_id":"d1f9101b-2bf6-47df-9c4f-3407c68385a5","system_id":"levelo_inurba_marseille","lat":43.31703,"lon":5.3774,"is_reserved":false,"is_disabled":false,"rental_uris":{"android":"levelo://app?vid=d1f9101b-2bf6-47df-9c4f-3407c68385a5","ios":"levelo://app?vid=d1f9101b-2bf6-47df-9c4f-3407c68385a5"},"vehicle_type_id":"4","last_reported":1725113232,"current_range_meters":6800,"station_id":"ce4bgth2rcd13ifvqch0","pricing_plan_id":"cebpf4jnsgd1na2vs0mg"},{"bike_id":"c69bc046-8f1b-4246-a75a-c6af7c55a651","system_id":"levelo_inurba_marseille","lat":43.317075,"lon":5.377367,"is_reserved":false,"is_disabled":false,"rental_uris":{"android":"levelo://app?vid=c69bc046-8f1b-4246-a75a-c6af7c55a651","ios":"levelo://app?vid=c69bc046-8f1b-4246-a75a-c6af7c55a651"},"vehicle_type_id":"4","last_reported":1725113232,"current_range_meters":28800,"station_id":"ce4bgth2rcd13ifvqch0","pricing_plan_id":"cebpf4jnsgd1na2vs0mg"},{"bike_id":"fb20be89-4a9e-4a74-a9e0-9963bd71768e","system_id":"levelo_inurba_marseille","lat":43.317075,"lon":5.377367,"is_reserved":false,"is_disabled":false,"rental_uris":{"android":"levelo://app?vid=fb20be89-4a9e-4a74-a9e0-9963bd71768e","ios":"levelo://app?vid=fb20be89-4a9e-4a74-a9e0-9963bd71768e"},"vehicle_type_id":"4","last_reported":1725113232,"current_range_meters":26400,"station_id":"ce4bgth2rcd13ifvqch0","pricing_plan_id":"cebpf4jnsgd1na2vs0mg"},{"bike_id":"4ef70d9b-81fe-4889-a27e-ddc36bfa934e","system_id":"levelo_inurba_marseille","lat":43.303046,"lon":5.368981,"is_reserved":false,"is_disabled":false,"rental_uris":{"android":"levelo://app?vid=4ef70d9b-81fe-4889-a27e-ddc36bfa934e","ios":"levelo://app?vid=4ef70d9b-81fe-4889-a27e-ddc36bfa934e"},"vehicle_type_id":"4","last_reported":1725113232,"current_range_meters":17200,"station_id":"ce4bgqh2rcd13ifvqc5g","pricing_plan_id":"cebpf4jnsgd1na2vs0mg"},{"bike_id":"731a2f59-8886-4ac0-a34b-8c7429b6d6be","system_id":"levelo_inurba_marseille","lat":43.303407,"lon":5.370817,"is_reserved":false,"is_disabled":false,"rental_uris":{"android":"levelo://app?vid=731a2f59-8886-4ac0-a34b-8c7429b6d6be","ios":"levelo://app?vid=731a2f59-8886-4ac0-a34b-8c7429b6d6be"},"vehicle_type_id":"4","last_reported":1725113232,"current_range_meters":800,"station_id":"","pricing_plan_id":"cebpf4jnsgd1na2vs0mg"},{"bike_id":"d7067e4c-db75-43a5-a823-b22ae18f0ea8","system_id":"levelo_inurba_marseille","lat":43.31409,"lon":5.38068,"is_reserved":false,"is_disabled":false,"rental_uris":{"android":"levelo://app?vid=d7067e4c-db75-43a5-a823-b22ae18f0ea8","ios":"levelo://app?vid=d7067e4c-db75-43a5-a823-b22ae18f0ea8"},"vehicle_type_id":"4","last_reported":1725113232,"current_range_meters":7600,"station_id":"","pricing_plan_id":"cebpf4jnsgd1na2vs0mg"},{"bike_id":"87cd8628-a383-43f1-9444-39e4e8595b79","system_id":"levelo_inurba_marseille","lat":43.302354,"lon":5.365677,"is_reserved":false,"is_disabled":false,"rental_uris":{"android":"levelo://app?vid=87cd8628-a383-43f1-9444-39e4e8595b79","ios":"levelo://app?vid=87cd8628-a383-43f1-9444-39e4e8595b79"},"vehicle_type_id":"4","last_reported":1725113232,"current_range_meters":7200,"station_id":"","pricing_plan_id":"cebpf4jnsgd1na2vs0mg"},{"bike_id":"042440de-af88-48da-8a71-75d9e2a66673","system_id":"levelo_inurba_marseille","lat":43.301939,"lon":5.366286,"is_reserved":false,"is_disabled":false,"rental_uris":{"android":"levelo://app?vid=042440de-af88-48da-8a71-75d9e2a66673","ios":"levelo://app?vid=042440de-af88-48da-8a71-75d9e2a66673"},"vehicle_type_id":"4","last_reported":1725113232,"current_range_meters":25600,"station_id":"ce4bgrh2rcd13ifvqc8g","pricing_plan_id":"cebpf4jnsgd1na2vs0mg"},{"bike_id":"29f1f0c3-7fcc-486a-bdef-556d1c013b58","system_id":"levelo_inurba_marseille","lat":43.301939,"lon":5.366286,"is_reserved":false,"is_disabled":false,"rental_uris":{"android":"levelo://app?vid=29f1f0c3-7fcc-486a-bdef-556d1c013b58","ios":"levelo://app?vid=29f1f0c3-7fcc-486a-bdef-556d1c013b58"},"vehicle_type_id":"4","last_reported":1725113232,"current_range_meters":2000,"station_id":"ce4bgrh2rcd13ifvqc8g","pricing_plan_id":"cebpf4jnsgd1na2vs0mg"},{"bike_id":"236633c6-985e-499c-8154-d60c22110a27","system_id":"levelo_inurba_marseille","lat":43.308012,"lon":5.381511,"is_reserved":false,"is_disabled":false,"rental_uris":{"android":"levelo://app?vid=236633c6-985e-499c-8154-d60c22110a27","ios":"levelo://app?vid=236633c6-985e-499c-8154-d60c22110a27"},"vehicle_type_id":"4","last_reported":1725113232,"current_range_meters":30800,"station_id":"ce4bgt12rcd13ifvqce0","pricing_plan_id":"cebpf4jnsgd1na2vs0mg"},{"bike_id":"9f381a6c-b845-4c63-9618-3483f17d54ee","system_id":"levelo_inurba_marseille","lat":43.308012,"lon":5.381511,"is_reserved":false,"is_disabled":false,"rental_uris":{"android":"levelo://app?vid=9f381a6c-b845-4c63-9618-3483f17d54ee","ios":"levelo://app?vid=9f381a6c-b845-4c63-9618-3483f17d54ee"},"vehicle_type_id":"4","last_reported":1725113232,"current_range_meters":4000,"station_id":"ce4bgt12rcd13ifvqce0","pricing_plan_id":"cebpf4jnsgd1na2vs0mg"},{"bike_id":"80612c42-8d6b-475e-96bb-1c7703a6e58c","system_id":"levelo_inurba_marseille","lat":43.304606,"lon":5.379026,"is_reserved":false,"is_disabled":false,"rental_uris":{"android":"levelo://app?vid=80612c42-8d6b-475e-96bb-1c7703a6e58c","ios":"levelo://app?vid=80612c42-8d6b-475e-96bb-1c7703a6e58c"},"vehicle_type_id":"4","last_reported":1725113232,"current_range_meters":9200,"station_id":"ce4bgup2rcd13ifvqcn0","pricing_plan_id":"cebpf4jnsgd1na2vs0mg"},{"bike_id":"87be3e6e-0fe3-4ddd-b074-74f865552210","system_id":"levelo_inurba_marseille","lat":43.324771,"lon":5.36557,"is_reserved":false,"is_disabled":false,"rental_uris":{"android":"levelo://app?vid=87be3e6e-0fe3-4ddd-b074-74f865552210","ios":"levelo://app?vid=87be3e6e-0fe3-4ddd-b074-74f865552210"},"vehicle_type_id":"4","last_reported":1725113232,"current_range_meters":20400,"station_id":"ce4bhs12rcd13ifvqhvg","pricing_plan_id":"cebpf4jnsgd1na2vs0mg"},{"bike_id":"8dcbdef2-7c38-444f-a4d7-d401e5d95ee5","system_id":"levelo_inurba_marseille","lat":43.324771,"lon":5.36557,"is_reserved":false,"is_disabled":false,"rental_uris":{"android":"levelo://app?vid=8dcbdef2-7c38-444f-a4d7-d401e5d95ee5","ios":"levelo://app?vid=8dcbdef2-7c38-444f-a4d7-d401e5d95ee5"},"vehicle_type_id":"4","last_reported":1725113232,"current_range_meters":8000,"station_id":"ce4bhs12rcd13ifvqhvg","pricing_plan_id":"cebpf4jnsgd1na2vs0mg"},{"bike_id":"9a43a344-bb80-4314-91fc-7409c31a7820","system_id":"levelo_inurba_marseille","lat":43.324771,"lon":5.36557,"is_reserved":false,"is_disabled":false,"rental_uris":{"android":"levelo://app?vid=9a43a344-bb80-4314-91fc-7409c31a7820","ios":"levelo://app?vid=9a43a344-bb80-4314-91fc-7409c31a7820"},"vehicle_type_id":"4","last_reported":1725113232,"current_range_meters":13600,"station_id":"ce4bhs12rcd13ifvqhvg","pricing_plan_id":"cebpf4jnsgd1na2vs0mg"},{"bike_id":"7316d8aa-3560-46c9-aa52-4736756a88ae","system_id":"levelo_inurba_marseille","lat":43.32482,"lon":5.36575,"is_reserved":false,"is_disabled":false,"rental_uris":{"android":"levelo://app?vid=7316d8aa-3560-46c9-aa52-4736756a88ae","ios":"levelo://app?vid=7316d8aa-3560-46c9-aa52-4736756a88ae"},"vehicle_type_id":"4","last_reported":1725113232,"current_range_meters":17200,"station_id":"ce4bhs12rcd13ifvqhvg","pricing_plan_id":"cebpf4jnsgd1na2vs0mg"},{"bike_id":"d0de59c2-395e-4064-a9eb-ae9d49ff8698","system_id":"levelo_inurba_marseille","lat":43.324771,"lon":5.36557,"is_reserved":false,"is_disabled":false,"rental_uris":{"android":"levelo://app?vid=d0de59c2-395e-4064-a9eb-ae9d49ff8698","ios":"levelo://app?vid=d0de59c2-395e-4064-a9eb-ae9d49ff8698"},"vehicle_type_id":"4","last_reported":1725113232,"current_range_meters":800,"station_id":"ce4bhs12rcd13ifvqhvg","pricing_plan_id":"cebpf4jnsgd1na2vs0mg"},{"bike_id":"e67c7c0f-96ad-4bea-9b57-22d0697fcc18","system_id":"levelo_inurba_marseille","lat":43.324771,"lon":5.36557,"is_reserved":false,"is_disabled":false,"rental_uris":{"android":"levelo://app?vid=e67c7c0f-96ad-4bea-9b57-22d0697fcc18","ios":"levelo://app?vid=e67c7c0f-96ad-4bea-9b57-22d0697fcc18"},"vehicle_type_id":"4","last_reported":1725113232,"current_range_meters":0,"station_id":"ce4bhs12rcd13ifvqhvg","pricing_plan_id":"cebpf4jnsgd1na2vs0mg"},{"bike_id":"d21bc836-f56d-4258-b042-a1ad302300e1","system_id":"levelo_inurba_marseille","lat":43.324771,"lon":5.36557,"is_reserved":false,"is_disabled":false,"rental_uris":{"android":"levelo://app?vid=d21bc836-f56d-4258-b042-a1ad302300e1","ios":"levelo://app?vid=d21bc836-f56d-4258-b042-a1ad302300e1"},"vehicle_type_id":"4","last_reported":1725113232,"current_range_meters":31200,"station_id":"ce4bhs12rcd13ifvqhvg","pricing_plan_id":"cebpf4jnsgd1na2vs0mg"},{"bike_id":"1376746f-c92f-436c-9136-5f8acb7e2103","system_id":"levelo_inurba_marseille","lat":43.324771,"lon":5.36557,"is_reserved":false,"is_disabled":false,"rental_uris":{"android":"levelo://app?vid=1376746f-c92f-436c-9136-5f8acb7e2103","ios":"levelo://app?vid=1376746f-c92f-436c-9136-5f8acb7e2103"},"vehicle_type_id":"4","last_reported":1725113232,"current_range_meters":12800,"station_id":"ce4bhs12rcd13ifvqhvg","pricing_plan_id":"cebpf4jnsgd1na2vs0mg"},{"bike_id":"dd46d1e5-582f-488a-9513-d53b116e856a","system_id":"levelo_inurba_marseille","lat":43.324771,"lon":5.36557,"is_reserved":false,"is_disabled":false,"rental_uris":{"android":"levelo://app?vid=dd46d1e5-582f-488a-9513-d53b116e856a","ios":"levelo://app?vid=dd46d1e5-582f-488a-9513-d53b116e856a"},"vehicle_type_id":"4","last_reported":1725113232,"current_range_meters":31200,"station_id":"ce4bhs12rcd13ifvqhvg","pricing_plan_id":"cebpf4jnsgd1na2vs0mg"},{"bike_id":"93db8097-b52f-4f16-923e-3a95f2ead2a1","system_id":"levelo_inurba_marseille","lat":43.324771,"lon":5.36557,"is_reserved":false,"is_disabled":false,"rental_uris":{"android":"levelo://app?vid=93db8097-b52f-4f16-923e-3a95f2ead2a1","ios":"levelo://app?vid=93db8097-b52f-4f16-923e-3a95f2ead2a1"},"vehicle_type_id":"4","last_reported":1725113232,"current_range_meters":31200,"station_id":"ce4bhs12rcd13ifvqhvg","pricing_plan_id":"cebpf4jnsgd1na2vs0mg"},{"bike_id":"d2326745-8fe2-4751-acc5-990396d8de2b","system_id":"levelo_inurba_marseille","lat":43.324771,"lon":5.36557,"is_reserved":false,"is_disabled":false,"rental_uris":{"android":"levelo://app?vid=d2326745-8fe2-4751-acc5-990396d8de2b","ios":"levelo://app?vid=d2326745-8fe2-4751-acc5-990396d8de2b"},"vehicle_type_id":"4","last_reported":1725113232,"current_range_meters":2800,"station_id":"ce4bhs12rcd13ifvqhvg","pricing_plan_id":"cebpf4jnsgd1na2vs0mg"},{"bike_id":"a1c58454-9bb5-4e0b-b3e3-b59b77547386","system_id":"levelo_inurba_marseille","lat":43.324771,"lon":5.36557,"is_reserved":false,"is_disabled":false,"rental_uris":{"android":"levelo://app?vid=a1c58454-9bb5-4e0b-b3e3-b59b77547386","ios":"levelo://app?vid=a1c58454-9bb5-4e0b-b3e3-b59b77547386"},"vehicle_type_id":"4","last_reported":1725113232,"current_range_meters":12800,"station_id":"ce4bhs12rcd13ifvqhvg","pricing_plan_id":"cebpf4jnsgd1na2vs0mg"},{"bike_id":"a6ebd879-f195-4a75-a787-c1416e15a6af","system_id":"levelo_inurba_marseille","lat":43.302784,"lon":5.377158,"is_reserved":false,"is_disabled":false,"rental_uris":{"android":"levelo://app?vid=a6ebd879-f195-4a75-a787-c1416e15a6af","ios":"levelo://app?vid=a6ebd879-f195-4a75-a787-c1416e15a6af"},"vehicle_type_id":"4","last_reported":1725113232,"current_range_meters":27600,"station_id":"ce4bguh2rcd13ifvqcj0","pricing_plan_id":"cebpf4jnsgd1na2vs0mg"},{"bike_id":"2970b954-99da-48d5-ae83-cb39616877ec","system_id":"levelo_inurba_marseille","lat":43.302784,"lon":5.377158,"is_reserved":false,"is_disabled":false,"rental_uris":{"android":"levelo://app?vid=2970b954-99da-48d5-ae83-cb39616877ec","ios":"levelo://app?vid=2970b954-99da-48d5-ae83-cb39616877ec"},"vehicle_type_id":"4","last_reported":1725113232,"current_range_meters":13600,"station_id":"ce4bguh2rcd13ifvqcj0","pricing_plan_id":"cebpf4jnsgd1na2vs0mg"},{"bike_id":"1fb118c1-0606-464d-9cb3-f5d088ca6500","system_id":"levelo_inurba_marseille","lat":43.319935,"lon":5.381699,"is_reserved":false,"is_disabled":false,"rental_uris":{"android":"levelo://app?vid=1fb118c1-0606-464d-9cb3-f5d088ca6500","ios":"levelo://app?vid=1fb118c1-0606-464d-9cb3-f5d088ca6500"},"vehicle_type_id":"4","last_reported":1725113232,"current_range_meters":18800,"station_id":"ce4bhr12rcd13ifvqhpg","pricing_plan_id":"cebpf4jnsgd1na2vs0mg"},{"bike_id":"d6b6340e-aa85-4cf8-998d-01adbf5d77cc","system_id":"levelo_inurba_marseille","lat":43.299222,"lon":5.365554,"is_reserved":false,"is_disabled":false,"rental_uris":{"android":"levelo://app?vid=d6b6340e-aa85-4cf8-998d-01adbf5d77cc","ios":"levelo://app?vid=d6b6340e-aa85-4cf8-998d-01adbf5d77cc"},"vehicle_type_id":"4","last_reported":1725113232,"current_range_meters":0,"station_id":"ce4bgm92rcd13ifvqbr0","pricing_plan_id":"cebpf4jnsgd1na2vs0mg"},{"bike_id":"d2ddb0e3-5241-4c8c-be07-2196256a025f","system_id":"levelo_inurba_marseille","lat":43.299724,"lon":5.371829,"is_reserved":false,"is_disabled":false,"rental_uris":{"android":"levelo://app?vid=d2ddb0e3-5241-4c8c-be07-2196256a025f","ios":"levelo://app?vid=d2ddb0e3-5241-4c8c-be07-2196256a025f"},"vehicle_type_id":"4","last_reported":1725113232,"current_range_meters":30400,"station_id":"ce4bgr92rcd13ifvqc7g","pricing_plan_id":"cebpf4jnsgd1na2vs0mg"},{"bike_id":"83f80221-ac4f-4e6e-bcd0-f5b7d4770377","system_id":"levelo_inurba_marseille","lat":43.299222,"lon":5.365554,"is_reserved":false,"is_disabled":false,"rental_uris":{"android":"levelo://app?vid=83f80221-ac4f-4e6e-bcd0-f5b7d4770377","ios":"levelo://app?vid=83f80221-ac4f-4e6e-bcd0-f5b7d4770377"},"vehicle_type_id":"4","last_reported":1725113232,"current_range_meters":8000,"station_id":"ce4bgm92rcd13ifvqbr0","pricing_plan_id":"cebpf4jnsgd1na2vs0mg"},{"bike_id":"64b01bb6-9e58-450c-b9e9-e5a9687c8f0d","system_id":"levelo_inurba_marseille","lat":43.29849,"lon":5.3628,"is_reserved":false,"is_disabled":false,"rental_uris":{"android":"levelo://app?vid=64b01bb6-9e58-450c-b9e9-e5a9687c8f0d","ios":"levelo://app?vid=64b01bb6-9e58-450c-b9e9-e5a9687c8f0d"},"vehicle_type_id":"4","last_reported":1725113232,"current_range_meters":31200,"station_id":"ce4bgpp2rcd13ifvqc3g","pricing_plan_id":"cebpf4jnsgd1na2vs0mg"},{"bike_id":"5b2cbbf9-dfe3-401c-aa0a-8c424cfa2854","system_id":"levelo_inurba_marseille","lat":43.311722,"lon":5.387247,"is_reserved":false,"is_disabled":false,"rental_uris":{"android":"levelo://app?vid=5b2cbbf9-dfe3-401c-aa0a-8c424cfa2854","ios":"levelo://app?vid=5b2cbbf9-dfe3-401c-aa0a-8c424cfa2854"},"vehicle_type_id":"4","last_reported":1725113232,"current_range_meters":11200,"station_id":"ce4bgv12rcd13ifvqcp0","pricing_plan_id":"cebpf4jnsgd1na2vs0mg"},{"bike_id":"b5830a24-2a22-49cb-868a-a9327e2807f6","system_id":"levelo_inurba_marseille","lat":43.299243,"lon":5.37481,"is_reserved":false,"is_disabled":false,"rental_uris":{"android":"levelo://app?vid=b5830a24-2a22-49cb-868a-a9327e2807f6","ios":"levelo://app?vid=b5830a24-2a22-49cb-868a-a9327e2807f6"},"vehicle_type_id":"4","last_reported":1725113232,"current_range_meters":26800,"station_id":"ce4bgjh2rcd13ifvqbg0","pricing_plan_id":"cebpf4jnsgd1na2vs0mg"},{"bike_id":"64283a5f-cf72-4460-82e8-8ff80706c47d","system_id":"levelo_inurba_marseille","lat":43.301417,"lon":5.3809,"is_reserved":false,"is_disabled":false,"rental_uris":{"android":"levelo://app?vid=64283a5f-cf72-4460-82e8-8ff80706c47d","ios":"levelo://app?vid=64283a5f-cf72-4460-82e8-8ff80706c47d"},"vehicle_type_id":"4","last_reported":1725113232,"current_range_meters":15200,"station_id":"ce4bgjp2rcd13ifvqbh0","pricing_plan_id":"cebpf4jnsgd1na2vs0mg"},{"bike_id":"b969a35c-eed4-49b7-b671-af75e0fd1a43","system_id":"levelo_inurba_marseille","lat":43.301417,"lon":5.3809,"is_reserved":false,"is_disabled":false,"rental_uris":{"android":"levelo://app?vid=b969a35c-eed4-49b7-b671-af75e0fd1a43","ios":"levelo://app?vid=b969a35c-eed4-49b7-b671-af75e0fd1a43"},"vehicle_type_id":"4","last_reported":1725113232,"current_range_meters":27600,"station_id":"ce4bgjp2rcd13ifvqbh0","pricing_plan_id":"cebpf4jnsgd1na2vs0mg"},{"bike_id":"82662693-3716-4d83-a840-be8babc001b3","system_id":"levelo_inurba_marseille","lat":43.301417,"lon":5.3809,"is_reserved":false,"is_disabled":false,"rental_uris":{"android":"levelo://app?vid=82662693-3716-4d83-a840-be8babc001b3","ios":"levelo://app?vid=82662693-3716-4d83-a840-be8babc001b3"},"vehicle_type_id":"4","last_reported":1725113232,"current_range_meters":14000,"station_id":"ce4bgjp2rcd13ifvqbh0","pricing_plan_id":"cebpf4jnsgd1na2vs0mg"},{"bike_id":"60ff3900-1cd1-4527-ae10-64555afa6b11","system_id":"levelo_inurba_marseille","lat":43.32294,"lon":5.3825,"is_reserved":false,"is_disabled":false,"rental_uris":{"android":"levelo://app?vid=60ff3900-1cd1-4527-ae10-64555afa6b11","ios":"levelo://app?vid=60ff3900-1cd1-4527-ae10-64555afa6b11"},"vehicle_type_id":"4","last_reported":1725113232,"current_range_meters":20000,"station_id":"ce4bhr12rcd13ifvqhqg","pricing_plan_id":"cebpf4jnsgd1na2vs0mg"},{"bike_id":"54a9014f-04a9-4908-a676-919667abeadc","system_id":"levelo_inurba_marseille","lat":43.322872,"lon":5.382756,"is_reserved":false,"is_disabled":false,"rental_uris":{"android":"levelo://app?vid=54a9014f-04a9-4908-a676-919667abeadc","ios":"levelo://app?vid=54a9014f-04a9-4908-a676-919667abeadc"},"vehicle_type_id":"4","last_reported":1725113232,"current_range_meters":24800,"station_id":"ce4bhr12rcd13ifvqhqg","pricing_plan_id":"cebpf4jnsgd1na2vs0mg"},{"bike_id":"34c664bd-ceab-4525-a3ac-3195768b5894","system_id":"levelo_inurba_marseille","lat":43.322872,"lon":5.382756,"is_reserved":false,"is_disabled":false,"rental_uris":{"android":"levelo://app?vid=34c664bd-ceab-4525-a3ac-3195768b5894","ios":"levelo://app?vid=34c664bd-ceab-4525-a3ac-3195768b5894"},"vehicle_type_id":"4","last_reported":1725113232,"current_range_meters":27600,"station_id":"ce4bhr12rcd13ifvqhqg","pricing_plan_id":"cebpf4jnsgd1na2vs0mg"},{"bike_id":"578b3a1c-4791-4fb6-be5a-2cc82900ffb8","system_id":"levelo_inurba_marseille","lat":43.297163,"lon":5.365866,"is_reserved":false,"is_disabled":false,"rental_uris":{"android":"levelo://app?vid=578b3a1c-4791-4fb6-be5a-2cc82900ffb8","ios":"levelo://app?vid=578b3a1c-4791-4fb6-be5a-2cc82900ffb8"},"vehicle_type_id":"4","last_reported":1725113232,"current_range_meters":0,"station_id":"ce4bgn12rcd13ifvqbt0","pricing_plan_id":"cebpf4jnsgd1na2vs0mg"},{"bike_id":"18b3d03d-81ee-4602-8318-bd9d3451c6b0","system_id":"levelo_inurba_marseille","lat":43.297163,"lon":5.365866,"is_reserved":false,"is_disabled":false,"rental_uris":{"android":"levelo://app?vid=18b3d03d-81ee-4602-8318-bd9d3451c6b0","ios":"levelo://app?vid=18b3d03d-81ee-4602-8318-bd9d3451c6b0"},"vehicle_type_id":"4","last_reported":1725113232,"current_range_meters":22800,"station_id":"ce4bgn12rcd13ifvqbt0","pricing_plan_id":"cebpf4jnsgd1na2vs0mg"},{"bike_id":"796b4150-4f85-493a-8e48-36cba07cce59","system_id":"levelo_inurba_marseille","lat":43.29846,"lon":5.37664,"is_reserved":false,"is_disabled":false,"rental_uris":{"android":"levelo://app?vid=796b4150-4f85-493a-8e48-36cba07cce59","ios":"levelo://app?vid=796b4150-4f85-493a-8e48-36cba07cce59"},"vehicle_type_id":"4","last_reported":1725113232,"current_range_meters":24000,"station_id":"","pricing_plan_id":"cebpf4jnsgd1na2vs0mg"},{"bike_id":"f80cfea7-0989-463e-af6c-8edcb451d63a","system_id":"levelo_inurba_marseille","lat":43.296744,"lon":5.368714,"is_reserved":false,"is_disabled":false,"rental_uris":{"android":"levelo://app?vid=f80cfea7-0989-463e-af6c-8edcb451d63a","ios":"levelo://app?vid=f80cfea7-0989-463e-af6c-8edcb451d63a"},"vehicle_type_id":"4","last_reported":1725113232,"current_range_meters":10800,"station_id":"","pricing_plan_id":"cebpf4jnsgd1na2vs0mg"},{"bike_id":"affe9a07-c79c-4218-a73e-e990c361a62a","system_id":"levelo_inurba_marseille","lat":43.29666,"lon":5.3687,"is_reserved":false,"is_disabled":false,"rental_uris":{"android":"levelo://app?vid=affe9a07-c79c-4218-a73e-e990c361a62a","ios":"levelo://app?vid=affe9a07-c79c-4218-a73e-e990c361a62a"},"vehicle_type_id":"4","last_reported":1725113232,"current_range_meters":12800,"station_id":"","pricing_plan_id":"cebpf4jnsgd1na2vs0mg"},{"bike_id":"8a8887de-5c7d-4b1c-91b2-78e9c920b48d","system_id":"levelo_inurba_marseille","lat":43.29682,"lon":5.37286,"is_reserved":false,"is_disabled":false,"rental_uris":{"android":"levelo://app?vid=8a8887de-5c7d-4b1c-91b2-78e9c920b48d","ios":"levelo://app?vid=8a8887de-5c7d-4b1c-91b2-78e9c920b48d"},"vehicle_type_id":"4","last_reported":1725113232,"current_range_meters":31200,"station_id":"ce4bgk12rcd13ifvqbj0","pricing_plan_id":"cebpf4jnsgd1na2vs0mg"},{"bike_id":"3cc564da-76e8-4fda-92bb-4f3ba040ca94","system_id":"levelo_inurba_marseille","lat":43.296137,"lon":5.368945,"is_reserved":false,"is_disabled":false,"rental_uris":{"android":"levelo://app?vid=3cc564da-76e8-4fda-92bb-4f3ba040ca94","ios":"levelo://app?vid=3cc564da-76e8-4fda-92bb-4f3ba040ca94"},"vehicle_type_id":"4","last_reported":1725113232,"current_range_meters":16400,"station_id":"","pricing_plan_id":"cebpf4jnsgd1na2vs0mg"},{"bike_id":"1b487ce9-837a-4fb4-be11-0616a409a0e4","system_id":"levelo_inurba_marseille","lat":43.295748,"lon":5.37522,"is_reserved":false,"is_disabled":false,"rental_uris":{"android":"levelo://app?vid=1b487ce9-837a-4fb4-be11-0616a409a0e4","ios":"levelo://app?vid=1b487ce9-837a-4fb4-be11-0616a409a0e4"},"vehicle_type_id":"4","last_reported":1725113232,"current_range_meters":0,"station_id":"ce4bgh92rcd13ifvqb50","pricing_plan_id":"cebpf4jnsgd1na2vs0mg"},{"bike_id":"96beaac4-d58c-4902-9a9f-df68a56e3819","system_id":"levelo_inurba_marseille","lat":43.30949,"lon":5.39018,"is_reserved":false,"is_disabled":false,"rental_uris":{"android":"levelo://app?vid=96beaac4-d58c-4902-9a9f-df68a56e3819","ios":"levelo://app?vid=96beaac4-d58c-4902-9a9f-df68a56e3819"},"vehicle_type_id":"4","last_reported":1725113232,"current_range_meters":12800,"station_id":"ce4bgup2rcd13ifvqco0","pricing_plan_id":"cebpf4jnsgd1na2vs0mg"},{"bike_id":"cd4f1d6f-d175-4ea4-8f4d-997e0e1ef3bb","system_id":"levelo_inurba_marseille","lat":43.30954,"lon":5.39023,"is_reserved":false,"is_disabled":false,"rental_uris":{"android":"levelo://app?vid=cd4f1d6f-d175-4ea4-8f4d-997e0e1ef3bb","ios":"levelo://app?vid=cd4f1d6f-d175-4ea4-8f4d-997e0e1ef3bb"},"vehicle_type_id":"4","last_reported":1725113232,"current_range_meters":27200,"station_id":"ce4bgup2rcd13ifvqco0","pricing_plan_id":"cebpf4jnsgd1na2vs0mg"},{"bike_id":"63cc0baa-4949-42f0-a137-dd1f94dc1ca7","system_id":"levelo_inurba_marseille","lat":43.309589,"lon":5.390258,"is_reserved":false,"is_disabled":false,"rental_uris":{"android":"levelo://app?vid=63cc0baa-4949-42f0-a137-dd1f94dc1ca7","ios":"levelo://app?vid=63cc0baa-4949-42f0-a137-dd1f94dc1ca7"},"vehicle_type_id":"4","last_reported":1725113232,"current_range_meters":26400,"station_id":"ce4bgup2rcd13ifvqco0","pricing_plan_id":"cebpf4jnsgd1na2vs0mg"},{"bike_id":"7d5ef362-b590-4d1a-94a2-afe265f4fae3","system_id":"levelo_inurba_marseille","lat":43.309547,"lon":5.390253,"is_reserved":false,"is_disabled":false,"rental_uris":{"android":"levelo://app?vid=7d5ef362-b590-4d1a-94a2-afe265f4fae3","ios":"levelo://app?vid=7d5ef362-b590-4d1a-94a2-afe265f4fae3"},"vehicle_type_id":"4","last_reported":1725113232,"current_range_meters":15200,"station_id":"ce4bgup2rcd13ifvqco0","pricing_plan_id":"cebpf4jnsgd1na2vs0mg"},{"bike_id":"fafa0188-e26c-4d2e-a8d2-d8bed3358df2","system_id":"levelo_inurba_marseille","lat":43.309589,"lon":5.390258,"is_reserved":false,"is_disabled":false,"rental_uris":{"android":"levelo://app?vid=fafa0188-e26c-4d2e-a8d2-d8bed3358df2","ios":"levelo://app?vid=fafa0188-e26c-4d2e-a8d2-d8bed3358df2"},"vehicle_type_id":"4","last_reported":1725113232,"current_range_meters":29600,"station_id":"ce4bgup2rcd13ifvqco0","pricing_plan_id":"cebpf4jnsgd1na2vs0mg"},{"bike_id":"bfc928c2-e6fe-4c84-a6a0-5277d10ff8a4","system_id":"levelo_inurba_marseille","lat":43.309589,"lon":5.390258,"is_reserved":false,"is_disabled":false,"rental_uris":{"android":"levelo://app?vid=bfc928c2-e6fe-4c84-a6a0-5277d10ff8a4","ios":"levelo://app?vid=bfc928c2-e6fe-4c84-a6a0-5277d10ff8a4"},"vehicle_type_id":"4","last_reported":1725113232,"current_range_meters":17200,"station_id":"ce4bgup2rcd13ifvqco0","pricing_plan_id":"cebpf4jnsgd1na2vs0mg"},{"bike_id":"87a37a05-0525-4ff5-97d7-403cac37b5c1","system_id":"levelo_inurba_marseille","lat":43.309589,"lon":5.390258,"is_reserved":false,"is_disabled":false,"rental_uris":{"android":"levelo://app?vid=87a37a05-0525-4ff5-97d7-403cac37b5c1","ios":"levelo://app?vid=87a37a05-0525-4ff5-97d7-403cac37b5c1"},"vehicle_type_id":"4","last_reported":1725113232,"current_range_meters":11200,"station_id":"ce4bgup2rcd13ifvqco0","pricing_plan_id":"cebpf4jnsgd1na2vs0mg"},{"bike_id":"be5d9251-8071-4e1e-b4d9-4bfdce86d490","system_id":"levelo_inurba_marseille","lat":43.30954,"lon":5.39033,"is_reserved":false,"is_disabled":false,"rental_uris":{"android":"levelo://app?vid=be5d9251-8071-4e1e-b4d9-4bfdce86d490","ios":"levelo://app?vid=be5d9251-8071-4e1e-b4d9-4bfdce86d490"},"vehicle_type_id":"4","last_reported":1725113232,"current_range_meters":31200,"station_id":"ce4bgup2rcd13ifvqco0","pricing_plan_id":"cebpf4jnsgd1na2vs0mg"},{"bike_id":"f4872e58-5495-4eef-9f22-2dfeb5cf27d4","system_id":"levelo_inurba_marseille","lat":43.30951,"lon":5.39034,"is_reserved":false,"is_disabled":false,"rental_uris":{"android":"levelo://app?vid=f4872e58-5495-4eef-9f22-2dfeb5cf27d4","ios":"levelo://app?vid=f4872e58-5495-4eef-9f22-2dfeb5cf27d4"},"vehicle_type_id":"4","last_reported":1725113232,"current_range_meters":31200,"station_id":"ce4bgup2rcd13ifvqco0","pricing_plan_id":"cebpf4jnsgd1na2vs0mg"},{"bike_id":"d99f16a5-ccc5-416d-946f-58aec192e5e7","system_id":"levelo_inurba_marseille","lat":43.30955,"lon":5.39036,"is_reserved":false,"is_disabled":false,"rental_uris":{"android":"levelo://app?vid=d99f16a5-ccc5-416d-946f-58aec192e5e7","ios":"levelo://app?vid=d99f16a5-ccc5-416d-946f-58aec192e5e7"},"vehicle_type_id":"4","last_reported":1725113232,"current_range_meters":25600,"station_id":"ce4bgup2rcd13ifvqco0","pricing_plan_id":"cebpf4jnsgd1na2vs0mg"},{"bike_id":"911461a2-a40c-463a-b733-5b302867146e","system_id":"levelo_inurba_marseille","lat":43.309547,"lon":5.390363,"is_reserved":false,"is_disabled":false,"rental_uris":{"android":"levelo://app?vid=911461a2-a40c-463a-b733-5b302867146e","ios":"levelo://app?vid=911461a2-a40c-463a-b733-5b302867146e"},"vehicle_type_id":"4","last_reported":1725113232,"current_range_meters":7600,"station_id":"ce4bgup2rcd13ifvqco0","pricing_plan_id":"cebpf4jnsgd1na2vs0mg"},{"bike_id":"84d2f034-d6eb-420c-b380-ffb3cd415867","system_id":"levelo_inurba_marseille","lat":43.30953,"lon":5.39036,"is_reserved":false,"is_disabled":false,"rental_uris":{"android":"levelo://app?vid=84d2f034-d6eb-420c-b380-ffb3cd415867","ios":"levelo://app?vid=84d2f034-d6eb-420c-b380-ffb3cd415867"},"vehicle_type_id":"4","last_reported":1725113232,"current_range_meters":6000,"station_id":"ce4bgup2rcd13ifvqco0","pricing_plan_id":"cebpf4jnsgd1na2vs0mg"},{"bike_id":"4705377f-8bc9-48d5-bb04-aae931205486","system_id":"levelo_inurba_marseille","lat":43.30953,"lon":5.39039,"is_reserved":false,"is_disabled":false,"rental_uris":{"android":"levelo://app?vid=4705377f-8bc9-48d5-bb04-aae931205486","ios":"levelo://app?vid=4705377f-8bc9-48d5-bb04-aae931205486"},"vehicle_type_id":"4","last_reported":1725113232,"current_range_meters":15200,"station_id":"ce4bgup2rcd13ifvqco0","pricing_plan_id":"cebpf4jnsgd1na2vs0mg"},{"bike_id":"11b17ee0-2f86-492b-bc0b-1c7316d5f8cc","system_id":"levelo_inurba_marseille","lat":43.296921,"lon":5.376579,"is_reserved":false,"is_disabled":false,"rental_uris":{"android":"levelo://app?vid=11b17ee0-2f86-492b-bc0b-1c7316d5f8cc","ios":"levelo://app?vid=11b17ee0-2f86-492b-bc0b-1c7316d5f8cc"},"vehicle_type_id":"4","last_reported":1725113232,"current_range_meters":0,"station_id":"ce4bgkh2rcd13ifvqbl0","pricing_plan_id":"cebpf4jnsgd1na2vs0mg"},{"bike_id":"b383da7c-e193-4390-a812-ef915e80851e","system_id":"levelo_inurba_marseille","lat":43.30944,"lon":5.39038,"is_reserved":false,"is_disabled":false,"rental_uris":{"android":"levelo://app?vid=b383da7c-e193-4390-a812-ef915e80851e","ios":"levelo://app?vid=b383da7c-e193-4390-a812-ef915e80851e"},"vehicle_type_id":"4","last_reported":1725113232,"current_range_meters":6000,"station_id":"ce4bgup2rcd13ifvqco0","pricing_plan_id":"cebpf4jnsgd1na2vs0mg"},{"bike_id":"5850c763-0d56-4c06-bcfa-544367d9e6f6","system_id":"levelo_inurba_marseille","lat":43.30959,"lon":5.39044,"is_reserved":false,"is_disabled":false,"rental_uris":{"android":"levelo://app?vid=5850c763-0d56-4c06-bcfa-544367d9e6f6","ios":"levelo://app?vid=5850c763-0d56-4c06-bcfa-544367d9e6f6"},"vehicle_type_id":"4","last_reported":1725113232,"current_range_meters":2800,"station_id":"ce4bgup2rcd13ifvqco0","pricing_plan_id":"cebpf4jnsgd1na2vs0mg"},{"bike_id":"ad418684-4c7c-4708-ba53-91078f05e06e","system_id":"levelo_inurba_marseille","lat":43.317557,"lon":5.390173,"is_reserved":false,"is_disabled":false,"rental_uris":{"android":"levelo://app?vid=ad418684-4c7c-4708-ba53-91078f05e06e","ios":"levelo://app?vid=ad418684-4c7c-4708-ba53-91078f05e06e"},"vehicle_type_id":"4","last_reported":1725113232,"current_range_meters":23600,"station_id":"ce4bhqp2rcd13ifvqhng","pricing_plan_id":"cebpf4jnsgd1na2vs0mg"},{"bike_id":"7fc79889-d220-482e-87e1-3224195fc51e","system_id":"levelo_inurba_marseille","lat":43.317557,"lon":5.390173,"is_reserved":false,"is_disabled":false,"rental_uris":{"android":"levelo://app?vid=7fc79889-d220-482e-87e1-3224195fc51e","ios":"levelo://app?vid=7fc79889-d220-482e-87e1-3224195fc51e"},"vehicle_type_id":"4","last_reported":1725113232,"current_range_meters":13200,"station_id":"ce4bhqp2rcd13ifvqhng","pricing_plan_id":"cebpf4jnsgd1na2vs0mg"},{"bike_id":"ba1b0cf9-ffd5-49a5-a167-6c0d777d5b5c","system_id":"levelo_inurba_marseille","lat":43.295748,"lon":5.37522,"is_reserved":false,"is_disabled":false,"rental_uris":{"android":"levelo://app?vid=ba1b0cf9-ffd5-49a5-a167-6c0d777d5b5c","ios":"levelo://app?vid=ba1b0cf9-ffd5-49a5-a167-6c0d777d5b5c"},"vehicle_type_id":"4","last_reported":1725113232,"current_range_meters":20800,"station_id":"ce4bgh92rcd13ifvqb50","pricing_plan_id":"cebpf4jnsgd1na2vs0mg"},{"bike_id":"d99c1392-9b22-4760-bad6-05ad15322568","system_id":"levelo_inurba_marseille","lat":43.284217,"lon":5.349697,"is_reserved":false,"is_disabled":false,"rental_uris":{"android":"levelo://app?vid=d99c1392-9b22-4760-bad6-05ad15322568","ios":"levelo://app?vid=d99c1392-9b22-4760-bad6-05ad15322568"},"vehicle_type_id":"4","last_reported":1725113232,"current_range_meters":28400,"station_id":"ce4bhbh2rcd13ifvqepg","pricing_plan_id":"cebpf4jnsgd1na2vs0mg"},{"bike_id":"cfbf8a2a-3d52-4937-8679-660cff0dc4f9","system_id":"levelo_inurba_marseille","lat":43.295748,"lon":5.37522,"is_reserved":false,"is_disabled":false,"rental_uris":{"android":"levelo://app?vid=cfbf8a2a-3d52-4937-8679-660cff0dc4f9","ios":"levelo://app?vid=cfbf8a2a-3d52-4937-8679-660cff0dc4f9"},"vehicle_type_id":"4","last_reported":1725113232,"current_range_meters":0,"station_id":"ce4bgh92rcd13ifvqb50","pricing_plan_id":"cebpf4jnsgd1na2vs0mg"},{"bike_id":"4fde7e7b-9cf9-4d08-a6ad-39c14b859031","system_id":"levelo_inurba_marseille","lat":43.295279,"lon":5.375048,"is_reserved":false,"is_disabled":false,"rental_uris":{"android":"levelo://app?vid=4fde7e7b-9cf9-4d08-a6ad-39c14b859031","ios":"levelo://app?vid=4fde7e7b-9cf9-4d08-a6ad-39c14b859031"},"vehicle_type_id":"4","last_reported":1725113232,"current_range_meters":800,"station_id":"ce4bgkp2rcd13ifvqbmg","pricing_plan_id":"cebpf4jnsgd1na2vs0mg"},{"bike_id":"0abe9e4f-1f06-44e2-aa4d-45485da716a4","system_id":"levelo_inurba_marseille","lat":43.311735,"lon":5.393433,"is_reserved":false,"is_disabled":false,"rental_uris":{"android":"levelo://app?vid=0abe9e4f-1f06-44e2-aa4d-45485da716a4","ios":"levelo://app?vid=0abe9e4f-1f06-44e2-aa4d-45485da716a4"},"vehicle_type_id":"4","last_reported":1725113232,"current_range_meters":14400,"station_id":"","pricing_plan_id":"cebpf4jnsgd1na2vs0mg"},{"bike_id":"cd3e3ccf-0661-4c61-be53-0005ef3547dd","system_id":"levelo_inurba_marseille","lat":43.32367,"lon":5.388836,"is_reserved":false,"is_disabled":false,"rental_uris":{"android":"levelo://app?vid=cd3e3ccf-0661-4c61-be53-0005ef3547dd","ios":"levelo://app?vid=cd3e3ccf-0661-4c61-be53-0005ef3547dd"},"vehicle_type_id":"4","last_reported":1725113232,"current_range_meters":26800,"station_id":"ce4bhqp2rcd13ifvqhog","pricing_plan_id":"cebpf4jnsgd1na2vs0mg"},{"bike_id":"da66101e-0e6e-463a-8aef-2e29a20afd14","system_id":"levelo_inurba_marseille","lat":43.32367,"lon":5.388836,"is_reserved":false,"is_disabled":false,"rental_uris":{"android":"levelo://app?vid=da66101e-0e6e-463a-8aef-2e29a20afd14","ios":"levelo://app?vid=da66101e-0e6e-463a-8aef-2e29a20afd14"},"vehicle_type_id":"4","last_reported":1725113232,"current_range_meters":28000,"station_id":"ce4bhqp2rcd13ifvqhog","pricing_plan_id":"cebpf4jnsgd1na2vs0mg"},{"bike_id":"66d4bda6-e8d6-43f1-8584-fb8bfa972c2e","system_id":"levelo_inurba_marseille","lat":43.32367,"lon":5.388836,"is_reserved":false,"is_disabled":false,"rental_uris":{"android":"levelo://app?vid=66d4bda6-e8d6-43f1-8584-fb8bfa972c2e","ios":"levelo://app?vid=66d4bda6-e8d6-43f1-8584-fb8bfa972c2e"},"vehicle_type_id":"4","last_reported":1725113232,"current_range_meters":19200,"station_id":"ce4bhqp2rcd13ifvqhog","pricing_plan_id":"cebpf4jnsgd1na2vs0mg"},{"bike_id":"ca3b3597-9499-4ada-a7d5-55c2e77c0310","system_id":"levelo_inurba_marseille","lat":43.29602,"lon":5.381084,"is_reserved":false,"is_disabled":false,"rental_uris":{"android":"levelo://app?vid=ca3b3597-9499-4ada-a7d5-55c2e77c0310","ios":"levelo://app?vid=ca3b3597-9499-4ada-a7d5-55c2e77c0310"},"vehicle_type_id":"4","last_reported":1725113232,"current_range_meters":28800,"station_id":"ce4bgl12rcd13ifvqbo0","pricing_plan_id":"cebpf4jnsgd1na2vs0mg"},{"bike_id":"77846a02-7a36-4957-b745-8142b6fcbd1c","system_id":"levelo_inurba_marseille","lat":43.29294,"lon":5.36893,"is_reserved":false,"is_disabled":false,"rental_uris":{"android":"levelo://app?vid=77846a02-7a36-4957-b745-8142b6fcbd1c","ios":"levelo://app?vid=77846a02-7a36-4957-b745-8142b6fcbd1c"},"vehicle_type_id":"4","last_reported":1725113232,"current_range_meters":20400,"station_id":"","pricing_plan_id":"cebpf4jnsgd1na2vs0mg"},{"bike_id":"082a50de-8a05-4983-a342-086fab7ce7b8","system_id":"levelo_inurba_marseille","lat":43.2931,"lon":5.37165,"is_reserved":false,"is_disabled":false,"rental_uris":{"android":"levelo://app?vid=082a50de-8a05-4983-a342-086fab7ce7b8","ios":"levelo://app?vid=082a50de-8a05-4983-a342-086fab7ce7b8"},"vehicle_type_id":"4","last_reported":1725113232,"current_range_meters":26000,"station_id":"ce4bgh92rcd13ifvqb40","pricing_plan_id":"cebpf4jnsgd1na2vs0mg"},{"bike_id":"35995573-a982-45ac-b6e9-28c40bdd0fa3","system_id":"levelo_inurba_marseille","lat":43.29311,"lon":5.37179,"is_reserved":false,"is_disabled":false,"rental_uris":{"android":"levelo://app?vid=35995573-a982-45ac-b6e9-28c40bdd0fa3","ios":"levelo://app?vid=35995573-a982-45ac-b6e9-28c40bdd0fa3"},"vehicle_type_id":"4","last_reported":1725113232,"current_range_meters":17600,"station_id":"ce4bgh92rcd13ifvqb40","pricing_plan_id":"cebpf4jnsgd1na2vs0mg"},{"bike_id":"6e082959-88f6-4b14-9e82-a36d1192261b","system_id":"levelo_inurba_marseille","lat":43.2931,"lon":5.37177,"is_reserved":false,"is_disabled":false,"rental_uris":{"android":"levelo://app?vid=6e082959-88f6-4b14-9e82-a36d1192261b","ios":"levelo://app?vid=6e082959-88f6-4b14-9e82-a36d1192261b"},"vehicle_type_id":"4","last_reported":1725113232,"current_range_meters":30000,"station_id":"ce4bgh92rcd13ifvqb40","pricing_plan_id":"cebpf4jnsgd1na2vs0mg"},{"bike_id":"9e9d6bdb-27c5-42e2-8f20-3700c5009b26","system_id":"levelo_inurba_marseille","lat":43.29309,"lon":5.37175,"is_reserved":false,"is_disabled":false,"rental_uris":{"android":"levelo://app?vid=9e9d6bdb-27c5-42e2-8f20-3700c5009b26","ios":"levelo://app?vid=9e9d6bdb-27c5-42e2-8f20-3700c5009b26"},"vehicle_type_id":"4","last_reported":1725113232,"current_range_meters":20800,"station_id":"ce4bgh92rcd13ifvqb40","pricing_plan_id":"cebpf4jnsgd1na2vs0mg"},{"bike_id":"d6987784-ca74-44e7-80db-80eb5c73dce5","system_id":"levelo_inurba_marseille","lat":43.29267,"lon":5.36836,"is_reserved":false,"is_disabled":false,"rental_uris":{"android":"levelo://app?vid=d6987784-ca74-44e7-80db-80eb5c73dce5","ios":"levelo://app?vid=d6987784-ca74-44e7-80db-80eb5c73dce5"},"vehicle_type_id":"4","last_reported":1725113232,"current_range_meters":30000,"station_id":"ce4bgh92rcd13ifvqb40","pricing_plan_id":"cebpf4jnsgd1na2vs0mg"},{"bike_id":"2c2906f1-2377-4e9a-aae9-bc33211d95ef","system_id":"levelo_inurba_marseille","lat":43.2936,"lon":5.37835,"is_reserved":false,"is_disabled":false,"rental_uris":{"android":"levelo://app?vid=2c2906f1-2377-4e9a-aae9-bc33211d95ef","ios":"levelo://app?vid=2c2906f1-2377-4e9a-aae9-bc33211d95ef"},"vehicle_type_id":"4","last_reported":1725113232,"current_range_meters":0,"station_id":"ce4bgjh2rcd13ifvqbf0","pricing_plan_id":"cebpf4jnsgd1na2vs0mg"},{"bike_id":"7fddbf2a-5777-4502-b2c1-e4c2a058c84f","system_id":"levelo_inurba_marseille","lat":43.29225,"lon":5.36069,"is_reserved":false,"is_disabled":false,"rental_uris":{"android":"levelo://app?vid=7fddbf2a-5777-4502-b2c1-e4c2a058c84f","ios":"levelo://app?vid=7fddbf2a-5777-4502-b2c1-e4c2a058c84f"},"vehicle_type_id":"4","last_reported":1725113232,"current_range_meters":0,"station_id":"ce4bhbh2rcd13ifvqeqg","pricing_plan_id":"cebpf4jnsgd1na2vs0mg"},{"bike_id":"b5bf78c8-38a5-4993-94db-f2891fefd9d3","system_id":"levelo_inurba_marseille","lat":43.29222,"lon":5.36076,"is_reserved":false,"is_disabled":false,"rental_uris":{"android":"levelo://app?vid=b5bf78c8-38a5-4993-94db-f2891fefd9d3","ios":"levelo://app?vid=b5bf78c8-38a5-4993-94db-f2891fefd9d3"},"vehicle_type_id":"4","last_reported":1725113232,"current_range_meters":800,"station_id":"ce4bhbh2rcd13ifvqeqg","pricing_plan_id":"cebpf4jnsgd1na2vs0mg"},{"bike_id":"cefcedeb-a7ca-4288-afc2-320635d79362","system_id":"levelo_inurba_marseille","lat":43.292005,"lon":5.357875,"is_reserved":false,"is_disabled":false,"rental_uris":{"android":"levelo://app?vid=cefcedeb-a7ca-4288-afc2-320635d79362","ios":"levelo://app?vid=cefcedeb-a7ca-4288-afc2-320635d79362"},"vehicle_type_id":"4","last_reported":1725113232,"current_range_meters":26000,"station_id":"ce4bhb12rcd13ifvqel0","pricing_plan_id":"cebpf4jnsgd1na2vs0mg"},{"bike_id":"f18925cd-2e5a-4380-89cd-b7ccf6409846","system_id":"levelo_inurba_marseille","lat":43.292005,"lon":5.357875,"is_reserved":false,"is_disabled":false,"rental_uris":{"android":"levelo://app?vid=f18925cd-2e5a-4380-89cd-b7ccf6409846","ios":"levelo://app?vid=f18925cd-2e5a-4380-89cd-b7ccf6409846"},"vehicle_type_id":"4","last_reported":1725113232,"current_range_meters":8800,"station_id":"ce4bhb12rcd13ifvqel0","pricing_plan_id":"cebpf4jnsgd1na2vs0mg"},{"bike_id":"ab6090a0-bfa9-4932-8606-0c802e7f8ec7","system_id":"levelo_inurba_marseille","lat":43.309047,"lon":5.396551,"is_reserved":false,"is_disabled":false,"rental_uris":{"android":"levelo://app?vid=ab6090a0-bfa9-4932-8606-0c802e7f8ec7","ios":"levelo://app?vid=ab6090a0-bfa9-4932-8606-0c802e7f8ec7"},"vehicle_type_id":"4","last_reported":1725113232,"current_range_meters":25600,"station_id":"ce4bh012rcd13ifvqcv0","pricing_plan_id":"cebpf4jnsgd1na2vs0mg"},{"bike_id":"5a730ee2-7be2-429f-8677-f21687d1f6f2","system_id":"levelo_inurba_marseille","lat":43.309038,"lon":5.396546,"is_reserved":false,"is_disabled":false,"rental_uris":{"android":"levelo://app?vid=5a730ee2-7be2-429f-8677-f21687d1f6f2","ios":"levelo://app?vid=5a730ee2-7be2-429f-8677-f21687d1f6f2"},"vehicle_type_id":"4","last_reported":1725113232,"current_range_meters":30400,"station_id":"ce4bh012rcd13ifvqcv0","pricing_plan_id":"cebpf4jnsgd1na2vs0mg"},{"bike_id":"1a6df855-0ea9-4c67-8818-5c6a9a6b44d7","system_id":"levelo_inurba_marseille","lat":43.309047,"lon":5.396551,"is_reserved":false,"is_disabled":false,"rental_uris":{"android":"levelo://app?vid=1a6df855-0ea9-4c67-8818-5c6a9a6b44d7","ios":"levelo://app?vid=1a6df855-0ea9-4c67-8818-5c6a9a6b44d7"},"vehicle_type_id":"4","last_reported":1725113232,"current_range_meters":22000,"station_id":"ce4bh012rcd13ifvqcv0","pricing_plan_id":"cebpf4jnsgd1na2vs0mg"},{"bike_id":"a9bdf7bf-4a3f-4a2e-b7b4-f9e1d9383a8e","system_id":"levelo_inurba_marseille","lat":43.309038,"lon":5.396546,"is_reserved":false,"is_disabled":false,"rental_uris":{"android":"levelo://app?vid=a9bdf7bf-4a3f-4a2e-b7b4-f9e1d9383a8e","ios":"levelo://app?vid=a9bdf7bf-4a3f-4a2e-b7b4-f9e1d9383a8e"},"vehicle_type_id":"4","last_reported":1725113232,"current_range_meters":8400,"station_id":"ce4bh012rcd13ifvqcv0","pricing_plan_id":"cebpf4jnsgd1na2vs0mg"},{"bike_id":"b37e07e0-4695-4d1c-bc1e-a4568414cab7","system_id":"levelo_inurba_marseille","lat":43.29199,"lon":5.35745,"is_reserved":false,"is_disabled":false,"rental_uris":{"android":"levelo://app?vid=b37e07e0-4695-4d1c-bc1e-a4568414cab7","ios":"levelo://app?vid=b37e07e0-4695-4d1c-bc1e-a4568414cab7"},"vehicle_type_id":"4","last_reported":1725113232,"current_range_meters":23600,"station_id":"ce4bhb12rcd13ifvqel0","pricing_plan_id":"cebpf4jnsgd1na2vs0mg"},{"bike_id":"38d8b0f9-0fc2-4548-88a3-36a1a942f6bd","system_id":"levelo_inurba_marseille","lat":43.309038,"lon":5.396546,"is_reserved":false,"is_disabled":false,"rental_uris":{"android":"levelo://app?vid=38d8b0f9-0fc2-4548-88a3-36a1a942f6bd","ios":"levelo://app?vid=38d8b0f9-0fc2-4548-88a3-36a1a942f6bd"},"vehicle_type_id":"4","last_reported":1725113232,"current_range_meters":27200,"station_id":"ce4bh012rcd13ifvqcv0","pricing_plan_id":"cebpf4jnsgd1na2vs0mg"},{"bike_id":"bd46951e-04f7-4487-8c69-b249e43c3d09","system_id":"levelo_inurba_marseille","lat":43.309038,"lon":5.396546,"is_reserved":false,"is_disabled":false,"rental_uris":{"android":"levelo://app?vid=bd46951e-04f7-4487-8c69-b249e43c3d09","ios":"levelo://app?vid=bd46951e-04f7-4487-8c69-b249e43c3d09"},"vehicle_type_id":"4","last_reported":1725113232,"current_range_meters":13200,"station_id":"ce4bh012rcd13ifvqcv0","pricing_plan_id":"cebpf4jnsgd1na2vs0mg"},{"bike_id":"26a17c80-1e6b-424f-8cb2-8dc09515daf6","system_id":"levelo_inurba_marseille","lat":43.29529,"lon":5.385581,"is_reserved":false,"is_disabled":false,"rental_uris":{"android":"levelo://app?vid=26a17c80-1e6b-424f-8cb2-8dc09515daf6","ios":"levelo://app?vid=26a17c80-1e6b-424f-8cb2-8dc09515daf6"},"vehicle_type_id":"4","last_reported":1725113232,"current_range_meters":28000,"station_id":"ce4bgih2rcd13ifvqba0","pricing_plan_id":"cebpf4jnsgd1na2vs0mg"},{"bike_id":"a5f96bb2-be51-4425-b7c2-262a3ad5cff9","system_id":"levelo_inurba_marseille","lat":43.290779,"lon":5.371482,"is_reserved":false,"is_disabled":false,"rental_uris":{"android":"levelo://app?vid=a5f96bb2-be51-4425-b7c2-262a3ad5cff9","ios":"levelo://app?vid=a5f96bb2-be51-4425-b7c2-262a3ad5cff9"},"vehicle_type_id":"4","last_reported":1725113232,"current_range_meters":20800,"station_id":"ce4bh5p2rcd13ifvqe4g","pricing_plan_id":"cebpf4jnsgd1na2vs0mg"},{"bike_id":"c9a14551-8403-4397-9b00-479c3e20fbc5","system_id":"levelo_inurba_marseille","lat":43.290779,"lon":5.371482,"is_reserved":false,"is_disabled":false,"rental_uris":{"android":"levelo://app?vid=c9a14551-8403-4397-9b00-479c3e20fbc5","ios":"levelo://app?vid=c9a14551-8403-4397-9b00-479c3e20fbc5"},"vehicle_type_id":"4","last_reported":1725113232,"current_range_meters":0,"station_id":"ce4bh5p2rcd13ifvqe4g","pricing_plan_id":"cebpf4jnsgd1na2vs0mg"},{"bike_id":"3e2c19b1-6075-4dd8-bf19-06559b719cde","system_id":"levelo_inurba_marseille","lat":43.302008,"lon":5.394694,"is_reserved":false,"is_disabled":false,"rental_uris":{"android":"levelo://app?vid=3e2c19b1-6075-4dd8-bf19-06559b719cde","ios":"levelo://app?vid=3e2c19b1-6075-4dd8-bf19-06559b719cde"},"vehicle_type_id":"4","last_reported":1725113232,"current_range_meters":15200,"station_id":"ce4bh0p2rcd13ifvqd70","pricing_plan_id":"cebpf4jnsgd1na2vs0mg"},{"bike_id":"991be911-e2b5-4684-b661-bab63be6a744","system_id":"levelo_inurba_marseille","lat":43.302008,"lon":5.394694,"is_reserved":false,"is_disabled":false,"rental_uris":{"android":"levelo://app?vid=991be911-e2b5-4684-b661-bab63be6a744","ios":"levelo://app?vid=991be911-e2b5-4684-b661-bab63be6a744"},"vehicle_type_id":"4","last_reported":1725113232,"current_range_meters":31600,"station_id":"ce4bh0p2rcd13ifvqd70","pricing_plan_id":"cebpf4jnsgd1na2vs0mg"},{"bike_id":"e69cd1a3-41f7-458c-8d97-6c5519fef989","system_id":"levelo_inurba_marseille","lat":43.302008,"lon":5.394694,"is_reserved":false,"is_disabled":false,"rental_uris":{"android":"levelo://app?vid=e69cd1a3-41f7-458c-8d97-6c5519fef989","ios":"levelo://app?vid=e69cd1a3-41f7-458c-8d97-6c5519fef989"},"vehicle_type_id":"4","last_reported":1725113232,"current_range_meters":30000,"station_id":"ce4bh0p2rcd13ifvqd70","pricing_plan_id":"cebpf4jnsgd1na2vs0mg"},{"bike_id":"ecc72115-371c-4718-bc84-7b27d9d4004a","system_id":"levelo_inurba_marseille","lat":43.290631,"lon":5.359244,"is_reserved":false,"is_disabled":false,"rental_uris":{"android":"levelo://app?vid=ecc72115-371c-4718-bc84-7b27d9d4004a","ios":"levelo://app?vid=ecc72115-371c-4718-bc84-7b27d9d4004a"},"vehicle_type_id":"4","last_reported":1725113232,"current_range_meters":14000,"station_id":"ce4bha92rcd13ifvqeg0","pricing_plan_id":"cebpf4jnsgd1na2vs0mg"},{"bike_id":"2cfad3b3-4006-4fde-a39d-3447da6f1f7b","system_id":"levelo_inurba_marseille","lat":43.290631,"lon":5.359244,"is_reserved":false,"is_disabled":false,"rental_uris":{"android":"levelo://app?vid=2cfad3b3-4006-4fde-a39d-3447da6f1f7b","ios":"levelo://app?vid=2cfad3b3-4006-4fde-a39d-3447da6f1f7b"},"vehicle_type_id":"4","last_reported":1725113232,"current_range_meters":4800,"station_id":"ce4bha92rcd13ifvqeg0","pricing_plan_id":"cebpf4jnsgd1na2vs0mg"},{"bike_id":"0b44f99a-2e28-4e1d-aafe-81b8aa99272f","system_id":"levelo_inurba_marseille","lat":43.290631,"lon":5.359244,"is_reserved":false,"is_disabled":false,"rental_uris":{"android":"levelo://app?vid=0b44f99a-2e28-4e1d-aafe-81b8aa99272f","ios":"levelo://app?vid=0b44f99a-2e28-4e1d-aafe-81b8aa99272f"},"vehicle_type_id":"4","last_reported":1725113232,"current_range_meters":0,"station_id":"ce4bha92rcd13ifvqeg0","pricing_plan_id":"cebpf4jnsgd1na2vs0mg"},{"bike_id":"cf1f2699-d287-4cb5-90dc-d52c85b94f5b","system_id":"levelo_inurba_marseille","lat":43.294162,"lon":5.386292,"is_reserved":false,"is_disabled":false,"rental_uris":{"android":"levelo://app?vid=cf1f2699-d287-4cb5-90dc-d52c85b94f5b","ios":"levelo://app?vid=cf1f2699-d287-4cb5-90dc-d52c85b94f5b"},"vehicle_type_id":"4","last_reported":1725113232,"current_range_meters":18800,"station_id":"ce4bh2h2rcd13ifvqdh0","pricing_plan_id":"cebpf4jnsgd1na2vs0mg"},{"bike_id":"4befc802-284f-414f-9fd4-ba80f7dd3d30","system_id":"levelo_inurba_marseille","lat":43.294162,"lon":5.386292,"is_reserved":false,"is_disabled":false,"rental_uris":{"android":"levelo://app?vid=4befc802-284f-414f-9fd4-ba80f7dd3d30","ios":"levelo://app?vid=4befc802-284f-414f-9fd4-ba80f7dd3d30"},"vehicle_type_id":"4","last_reported":1725113232,"current_range_meters":16800,"station_id":"ce4bh2h2rcd13ifvqdh0","pricing_plan_id":"cebpf4jnsgd1na2vs0mg"},{"bike_id":"e4d6226e-895b-4458-ae08-886f99935f71","system_id":"levelo_inurba_marseille","lat":43.2894,"lon":5.36633,"is_reserved":false,"is_disabled":false,"rental_uris":{"android":"levelo://app?vid=e4d6226e-895b-4458-ae08-886f99935f71","ios":"levelo://app?vid=e4d6226e-895b-4458-ae08-886f99935f71"},"vehicle_type_id":"4","last_reported":1725113232,"current_range_meters":0,"station_id":"ce4bhap2rcd13ifvqek0","pricing_plan_id":"cebpf4jnsgd1na2vs0mg"},{"bike_id":"a1d75b69-5da5-411d-964d-233ac65c7ea2","system_id":"levelo_inurba_marseille","lat":43.289468,"lon":5.363719,"is_reserved":false,"is_disabled":false,"rental_uris":{"android":"levelo://app?vid=a1d75b69-5da5-411d-964d-233ac65c7ea2","ios":"levelo://app?vid=a1d75b69-5da5-411d-964d-233ac65c7ea2"},"vehicle_type_id":"4","last_reported":1725113232,"current_range_meters":4400,"station_id":"ce4bhc92rcd13ifvqetg","pricing_plan_id":"cebpf4jnsgd1na2vs0mg"},{"bike_id":"50613570-f383-47f7-a0fb-527697ce889d","system_id":"levelo_inurba_marseille","lat":43.289468,"lon":5.363719,"is_reserved":false,"is_disabled":false,"rental_uris":{"android":"levelo://app?vid=50613570-f383-47f7-a0fb-527697ce889d","ios":"levelo://app?vid=50613570-f383-47f7-a0fb-527697ce889d"},"vehicle_type_id":"4","last_reported":1725113232,"current_range_meters":2400,"station_id":"ce4bhc92rcd13ifvqetg","pricing_plan_id":"cebpf4jnsgd1na2vs0mg"},{"bike_id":"e7e9bc8a-69d2-4a31-998b-f4727e867269","system_id":"levelo_inurba_marseille","lat":43.292644,"lon":5.384257,"is_reserved":false,"is_disabled":false,"rental_uris":{"android":"levelo://app?vid=e7e9bc8a-69d2-4a31-998b-f4727e867269","ios":"levelo://app?vid=e7e9bc8a-69d2-4a31-998b-f4727e867269"},"vehicle_type_id":"4","last_reported":1725113232,"current_range_meters":14000,"station_id":"ce4bh692rcd13ifvqea0","pricing_plan_id":"cebpf4jnsgd1na2vs0mg"},{"bike_id":"aaef8026-090d-49b1-b2f8-ae3931de7bbb","system_id":"levelo_inurba_marseille","lat":43.304296,"lon":5.397513,"is_reserved":false,"is_disabled":false,"rental_uris":{"android":"levelo://app?vid=aaef8026-090d-49b1-b2f8-ae3931de7bbb","ios":"levelo://app?vid=aaef8026-090d-49b1-b2f8-ae3931de7bbb"},"vehicle_type_id":"4","last_reported":1725113232,"current_range_meters":21200,"station_id":"ce4bh092rcd13ifvqd20","pricing_plan_id":"cebpf4jnsgd1na2vs0mg"},{"bike_id":"cc91370c-ce43-4204-9a5c-476b33504756","system_id":"levelo_inurba_marseille","lat":43.292644,"lon":5.384257,"is_reserved":false,"is_disabled":false,"rental_uris":{"android":"levelo://app?vid=cc91370c-ce43-4204-9a5c-476b33504756","ios":"levelo://app?vid=cc91370c-ce43-4204-9a5c-476b33504756"},"vehicle_type_id":"4","last_reported":1725113232,"current_range_meters":19600,"station_id":"ce4bh692rcd13ifvqea0","pricing_plan_id":"cebpf4jnsgd1na2vs0mg"},{"bike_id":"f1456bcc-07a6-420b-9b41-efe6e712ac74","system_id":"levelo_inurba_marseille","lat":43.292642,"lon":5.384254,"is_reserved":false,"is_disabled":false,"rental_uris":{"android":"levelo://app?vid=f1456bcc-07a6-420b-9b41-efe6e712ac74","ios":"levelo://app?vid=f1456bcc-07a6-420b-9b41-efe6e712ac74"},"vehicle_type_id":"4","last_reported":1725113232,"current_range_meters":2400,"station_id":"ce4bh692rcd13ifvqea0","pricing_plan_id":"cebpf4jnsgd1na2vs0mg"},{"bike_id":"39a9ad6a-6496-4f62-a1bd-609de79e7282","system_id":"levelo_inurba_marseille","lat":43.290103,"lon":5.356114,"is_reserved":false,"is_disabled":false,"rental_uris":{"android":"levelo://app?vid=39a9ad6a-6496-4f62-a1bd-609de79e7282","ios":"levelo://app?vid=39a9ad6a-6496-4f62-a1bd-609de79e7282"},"vehicle_type_id":"4","last_reported":1725113232,"current_range_meters":29600,"station_id":"ce4bhb92rcd13ifvqen0","pricing_plan_id":"cebpf4jnsgd1na2vs0mg"},{"bike_id":"e42ef99f-d65d-4ba2-8471-4ebe9835e436","system_id":"levelo_inurba_marseille","lat":43.290104,"lon":5.356111,"is_reserved":false,"is_disabled":false,"rental_uris":{"android":"levelo://app?vid=e42ef99f-d65d-4ba2-8471-4ebe9835e436","ios":"levelo://app?vid=e42ef99f-d65d-4ba2-8471-4ebe9835e436"},"vehicle_type_id":"4","last_reported":1725113232,"current_range_meters":0,"station_id":"ce4bhb92rcd13ifvqen0","pricing_plan_id":"cebpf4jnsgd1na2vs0mg"},{"bike_id":"b5d078e4-c156-4bc3-bcf9-126e3aac46bd","system_id":"levelo_inurba_marseille","lat":43.290103,"lon":5.356114,"is_reserved":false,"is_disabled":false,"rental_uris":{"android":"levelo://app?vid=b5d078e4-c156-4bc3-bcf9-126e3aac46bd","ios":"levelo://app?vid=b5d078e4-c156-4bc3-bcf9-126e3aac46bd"},"vehicle_type_id":"4","last_reported":1725113232,"current_range_meters":13200,"station_id":"ce4bhb92rcd13ifvqen0","pricing_plan_id":"cebpf4jnsgd1na2vs0mg"},{"bike_id":"e2e291cd-3b71-4640-82a1-f019729d0ab6","system_id":"levelo_inurba_marseille","lat":43.290104,"lon":5.356111,"is_reserved":false,"is_disabled":false,"rental_uris":{"android":"levelo://app?vid=e2e291cd-3b71-4640-82a1-f019729d0ab6","ios":"levelo://app?vid=e2e291cd-3b71-4640-82a1-f019729d0ab6"},"vehicle_type_id":"4","last_reported":1725113232,"current_range_meters":24800,"station_id":"ce4bhb92rcd13ifvqen0","pricing_plan_id":"cebpf4jnsgd1na2vs0mg"},{"bike_id":"adce468c-791c-4b2d-b02e-a205b3dd9162","system_id":"levelo_inurba_marseille","lat":43.29005,"lon":5.35608,"is_reserved":false,"is_disabled":false,"rental_uris":{"android":"levelo://app?vid=adce468c-791c-4b2d-b02e-a205b3dd9162","ios":"levelo://app?vid=adce468c-791c-4b2d-b02e-a205b3dd9162"},"vehicle_type_id":"4","last_reported":1725113232,"current_range_meters":0,"station_id":"ce4bhb92rcd13ifvqen0","pricing_plan_id":"cebpf4jnsgd1na2vs0mg"},{"bike_id":"c2512aa8-e1da-4628-9bb3-943661d3df4a","system_id":"levelo_inurba_marseille","lat":43.32974,"lon":5.39052,"is_reserved":false,"is_disabled":false,"rental_uris":{"android":"levelo://app?vid=c2512aa8-e1da-4628-9bb3-943661d3df4a","ios":"levelo://app?vid=c2512aa8-e1da-4628-9bb3-943661d3df4a"},"vehicle_type_id":"4","last_reported":1725113232,"current_range_meters":20800,"station_id":"","pricing_plan_id":"cebpf4jnsgd1na2vs0mg"},{"bike_id":"980e55c3-845b-4626-8591-8ac4fbef96a6","system_id":"levelo_inurba_marseille","lat":43.297807,"lon":5.393533,"is_reserved":false,"is_disabled":false,"rental_uris":{"android":"levelo://app?vid=980e55c3-845b-4626-8591-8ac4fbef96a6","ios":"levelo://app?vid=980e55c3-845b-4626-8591-8ac4fbef96a6"},"vehicle_type_id":"4","last_reported":1725113232,"current_range_meters":24000,"station_id":"chh1huq6cuj3fo74tm60","pricing_plan_id":"cebpf4jnsgd1na2vs0mg"},{"bike_id":"b5c3918b-9981-43ad-b1e3-631aec98047b","system_id":"levelo_inurba_marseille","lat":43.330442,"lon":5.389148,"is_reserved":false,"is_disabled":false,"rental_uris":{"android":"levelo://app?vid=b5c3918b-9981-43ad-b1e3-631aec98047b","ios":"levelo://app?vid=b5c3918b-9981-43ad-b1e3-631aec98047b"},"vehicle_type_id":"4","last_reported":1725113232,"current_range_meters":31600,"station_id":"ce4bhr92rcd13ifvqhrg","pricing_plan_id":"cebpf4jnsgd1na2vs0mg"},{"bike_id":"666483eb-f44c-429a-9b82-29a26389e14c","system_id":"levelo_inurba_marseille","lat":43.330442,"lon":5.389148,"is_reserved":false,"is_disabled":false,"rental_uris":{"android":"levelo://app?vid=666483eb-f44c-429a-9b82-29a26389e14c","ios":"levelo://app?vid=666483eb-f44c-429a-9b82-29a26389e14c"},"vehicle_type_id":"4","last_reported":1725113232,"current_range_meters":31200,"station_id":"ce4bhr92rcd13ifvqhrg","pricing_plan_id":"cebpf4jnsgd1na2vs0mg"},{"bike_id":"5bdd79e0-fe0a-462e-afd7-54f5dbf791a3","system_id":"levelo_inurba_marseille","lat":43.289741,"lon":5.378306,"is_reserved":false,"is_disabled":false,"rental_uris":{"android":"levelo://app?vid=5bdd79e0-fe0a-462e-afd7-54f5dbf791a3","ios":"levelo://app?vid=5bdd79e0-fe0a-462e-afd7-54f5dbf791a3"},"vehicle_type_id":"4","last_reported":1725113232,"current_range_meters":16800,"station_id":"ce4bh9p2rcd13ifvqed0","pricing_plan_id":"cebpf4jnsgd1na2vs0mg"},{"bike_id":"0a644a4f-3b74-4437-b23d-13d1c4b78ccf","system_id":"levelo_inurba_marseille","lat":43.330442,"lon":5.389148,"is_reserved":false,"is_disabled":false,"rental_uris":{"android":"levelo://app?vid=0a644a4f-3b74-4437-b23d-13d1c4b78ccf","ios":"levelo://app?vid=0a644a4f-3b74-4437-b23d-13d1c4b78ccf"},"vehicle_type_id":"4","last_reported":1725113232,"current_range_meters":31200,"station_id":"ce4bhr92rcd13ifvqhrg","pricing_plan_id":"cebpf4jnsgd1na2vs0mg"},{"bike_id":"07031541-da7d-418b-bce8-caf35d3c22e5","system_id":"levelo_inurba_marseille","lat":43.330442,"lon":5.389148,"is_reserved":false,"is_disabled":false,"rental_uris":{"android":"levelo://app?vid=07031541-da7d-418b-bce8-caf35d3c22e5","ios":"levelo://app?vid=07031541-da7d-418b-bce8-caf35d3c22e5"},"vehicle_type_id":"4","last_reported":1725113232,"current_range_meters":26000,"station_id":"ce4bhr92rcd13ifvqhrg","pricing_plan_id":"cebpf4jnsgd1na2vs0mg"},{"bike_id":"c9af964e-c4a5-4da9-a097-9fa170ffc096","system_id":"levelo_inurba_marseille","lat":43.330442,"lon":5.389148,"is_reserved":false,"is_disabled":false,"rental_uris":{"android":"levelo://app?vid=c9af964e-c4a5-4da9-a097-9fa170ffc096","ios":"levelo://app?vid=c9af964e-c4a5-4da9-a097-9fa170ffc096"},"vehicle_type_id":"4","last_reported":1725113232,"current_range_meters":31200,"station_id":"ce4bhr92rcd13ifvqhrg","pricing_plan_id":"cebpf4jnsgd1na2vs0mg"},{"bike_id":"ab589d60-ae13-4971-8611-104cbcc168be","system_id":"levelo_inurba_marseille","lat":43.330442,"lon":5.389148,"is_reserved":false,"is_disabled":false,"rental_uris":{"android":"levelo://app?vid=ab589d60-ae13-4971-8611-104cbcc168be","ios":"levelo://app?vid=ab589d60-ae13-4971-8611-104cbcc168be"},"vehicle_type_id":"4","last_reported":1725113232,"current_range_meters":4400,"station_id":"ce4bhr92rcd13ifvqhrg","pricing_plan_id":"cebpf4jnsgd1na2vs0mg"},{"bike_id":"dcdee03f-6e7f-46d0-a8b2-bca9a7186a15","system_id":"levelo_inurba_marseille","lat":43.330442,"lon":5.389148,"is_reserved":false,"is_disabled":false,"rental_uris":{"android":"levelo://app?vid=dcdee03f-6e7f-46d0-a8b2-bca9a7186a15","ios":"levelo://app?vid=dcdee03f-6e7f-46d0-a8b2-bca9a7186a15"},"vehicle_type_id":"4","last_reported":1725113232,"current_range_meters":29600,"station_id":"ce4bhr92rcd13ifvqhrg","pricing_plan_id":"cebpf4jnsgd1na2vs0mg"},{"bike_id":"398e729e-fdb9-4229-b12b-0caa80a52fa5","system_id":"levelo_inurba_marseille","lat":43.330442,"lon":5.389148,"is_reserved":false,"is_disabled":false,"rental_uris":{"android":"levelo://app?vid=398e729e-fdb9-4229-b12b-0caa80a52fa5","ios":"levelo://app?vid=398e729e-fdb9-4229-b12b-0caa80a52fa5"},"vehicle_type_id":"4","last_reported":1725113232,"current_range_meters":26800,"station_id":"ce4bhr92rcd13ifvqhrg","pricing_plan_id":"cebpf4jnsgd1na2vs0mg"},{"bike_id":"48dd92c8-a26d-4d0b-b205-cd32ae09269f","system_id":"levelo_inurba_marseille","lat":43.330442,"lon":5.389148,"is_reserved":false,"is_disabled":false,"rental_uris":{"android":"levelo://app?vid=48dd92c8-a26d-4d0b-b205-cd32ae09269f","ios":"levelo://app?vid=48dd92c8-a26d-4d0b-b205-cd32ae09269f"},"vehicle_type_id":"4","last_reported":1725113232,"current_range_meters":26800,"station_id":"ce4bhr92rcd13ifvqhrg","pricing_plan_id":"cebpf4jnsgd1na2vs0mg"},{"bike_id":"ffddef65-d25f-46f7-9f23-6d96677333bc","system_id":"levelo_inurba_marseille","lat":43.28856,"lon":5.358371,"is_reserved":false,"is_disabled":false,"rental_uris":{"android":"levelo://app?vid=ffddef65-d25f-46f7-9f23-6d96677333bc","ios":"levelo://app?vid=ffddef65-d25f-46f7-9f23-6d96677333bc"},"vehicle_type_id":"4","last_reported":1725113232,"current_range_meters":2800,"station_id":"ce4bhb12rcd13ifvqem0","pricing_plan_id":"cebpf4jnsgd1na2vs0mg"},{"bike_id":"b5cb05e7-07ae-4909-b80a-f35f65eca7bf","system_id":"levelo_inurba_marseille","lat":43.28856,"lon":5.358371,"is_reserved":false,"is_disabled":false,"rental_uris":{"android":"levelo://app?vid=b5cb05e7-07ae-4909-b80a-f35f65eca7bf","ios":"levelo://app?vid=b5cb05e7-07ae-4909-b80a-f35f65eca7bf"},"vehicle_type_id":"4","last_reported":1725113232,"current_range_meters":28800,"station_id":"ce4bhb12rcd13ifvqem0","pricing_plan_id":"cebpf4jnsgd1na2vs0mg"},{"bike_id":"2cf757ba-6687-4498-9085-10d09452f568","system_id":"levelo_inurba_marseille","lat":43.33748,"lon":5.37446,"is_reserved":false,"is_disabled":false,"rental_uris":{"android":"levelo://app?vid=2cf757ba-6687-4498-9085-10d09452f568","ios":"levelo://app?vid=2cf757ba-6687-4498-9085-10d09452f568"},"vehicle_type_id":"4","last_reported":1725113232,"current_range_meters":27600,"station_id":"","pricing_plan_id":"cebpf4jnsgd1na2vs0mg"},{"bike_id":"95f1b886-4cc1-48a2-9738-15eb0f8a66d3","system_id":"levelo_inurba_marseille","lat":43.3375,"lon":5.37447,"is_reserved":false,"is_disabled":false,"rental_uris":{"android":"levelo://app?vid=95f1b886-4cc1-48a2-9738-15eb0f8a66d3","ios":"levelo://app?vid=95f1b886-4cc1-48a2-9738-15eb0f8a66d3"},"vehicle_type_id":"4","last_reported":1725113232,"current_range_meters":26800,"station_id":"","pricing_plan_id":"cebpf4jnsgd1na2vs0mg"},{"bike_id":"8cac9b46-db8b-4978-9ee4-b0375bb93662","system_id":"levelo_inurba_marseille","lat":43.337551,"lon":5.374546,"is_reserved":false,"is_disabled":false,"rental_uris":{"android":"levelo://app?vid=8cac9b46-db8b-4978-9ee4-b0375bb93662","ios":"levelo://app?vid=8cac9b46-db8b-4978-9ee4-b0375bb93662"},"vehicle_type_id":"4","last_reported":1725113232,"current_range_meters":24800,"station_id":"","pricing_plan_id":"cebpf4jnsgd1na2vs0mg"},{"bike_id":"a8227e9b-bd18-4fc0-b815-b7e484f2391f","system_id":"levelo_inurba_marseille","lat":43.33756,"lon":5.37449,"is_reserved":false,"is_disabled":false,"rental_uris":{"android":"levelo://app?vid=a8227e9b-bd18-4fc0-b815-b7e484f2391f","ios":"levelo://app?vid=a8227e9b-bd18-4fc0-b815-b7e484f2391f"},"vehicle_type_id":"4","last_reported":1725113232,"current_range_meters":29600,"station_id":"","pricing_plan_id":"cebpf4jnsgd1na2vs0mg"},{"bike_id":"e5bb0107-f279-47b5-aaca-eadcf4962ae3","system_id":"levelo_inurba_marseille","lat":43.33757,"lon":5.37487,"is_reserved":false,"is_disabled":false,"rental_uris":{"android":"levelo://app?vid=e5bb0107-f279-47b5-aaca-eadcf4962ae3","ios":"levelo://app?vid=e5bb0107-f279-47b5-aaca-eadcf4962ae3"},"vehicle_type_id":"4","last_reported":1725113232,"current_range_meters":30000,"station_id":"","pricing_plan_id":"cebpf4jnsgd1na2vs0mg"},{"bike_id":"ecb8cdb7-1dbf-46b5-a38c-ecc1eede3fdc","system_id":"levelo_inurba_marseille","lat":43.33765,"lon":5.3747,"is_reserved":false,"is_disabled":false,"rental_uris":{"android":"levelo://app?vid=ecb8cdb7-1dbf-46b5-a38c-ecc1eede3fdc","ios":"levelo://app?vid=ecb8cdb7-1dbf-46b5-a38c-ecc1eede3fdc"},"vehicle_type_id":"4","last_reported":1725113232,"current_range_meters":12400,"station_id":"","pricing_plan_id":"cebpf4jnsgd1na2vs0mg"},{"bike_id":"997da210-9fe9-4955-a138-56b9b350c83d","system_id":"levelo_inurba_marseille","lat":43.289184,"lon":5.366408,"is_reserved":false,"is_disabled":false,"rental_uris":{"android":"levelo://app?vid=997da210-9fe9-4955-a138-56b9b350c83d","ios":"levelo://app?vid=997da210-9fe9-4955-a138-56b9b350c83d"},"vehicle_type_id":"4","last_reported":1725113232,"current_range_meters":2800,"station_id":"ce4bhap2rcd13ifvqek0","pricing_plan_id":"cebpf4jnsgd1na2vs0mg"},{"bike_id":"7b0202ac-6d99-4824-a45e-f379b5404a25","system_id":"levelo_inurba_marseille","lat":43.301117,"lon":5.398795,"is_reserved":false,"is_disabled":false,"rental_uris":{"android":"levelo://app?vid=7b0202ac-6d99-4824-a45e-f379b5404a25","ios":"levelo://app?vid=7b0202ac-6d99-4824-a45e-f379b5404a25"},"vehicle_type_id":"4","last_reported":1725113232,"current_range_meters":31200,"station_id":"ce4bh0h2rcd13ifvqd40","pricing_plan_id":"cebpf4jnsgd1na2vs0mg"},{"bike_id":"53cf2928-268c-4af5-a2d1-85f4bb2b78d9","system_id":"levelo_inurba_marseille","lat":43.298681,"lon":5.397225,"is_reserved":false,"is_disabled":false,"rental_uris":{"android":"levelo://app?vid=53cf2928-268c-4af5-a2d1-85f4bb2b78d9","ios":"levelo://app?vid=53cf2928-268c-4af5-a2d1-85f4bb2b78d9"},"vehicle_type_id":"4","last_reported":1725113232,"current_range_meters":31200,"station_id":"ce4bh0h2rcd13ifvqd50","pricing_plan_id":"cebpf4jnsgd1na2vs0mg"},{"bike_id":"81ac0557-0db7-4676-add2-c535fd729fc7","system_id":"levelo_inurba_marseille","lat":43.286593,"lon":5.363346,"is_reserved":false,"is_disabled":false,"rental_uris":{"android":"levelo://app?vid=81ac0557-0db7-4676-add2-c535fd729fc7","ios":"levelo://app?vid=81ac0557-0db7-4676-add2-c535fd729fc7"},"vehicle_type_id":"4","last_reported":1725113232,"current_range_meters":3600,"station_id":"ce4bhah2rcd13ifvqej0","pricing_plan_id":"cebpf4jnsgd1na2vs0mg"},{"bike_id":"5dbb01ff-a95e-4a17-b775-98c8d5c6b95b","system_id":"levelo_inurba_marseille","lat":43.286961,"lon":5.373785,"is_reserved":false,"is_disabled":false,"rental_uris":{"android":"levelo://app?vid=5dbb01ff-a95e-4a17-b775-98c8d5c6b95b","ios":"levelo://app?vid=5dbb01ff-a95e-4a17-b775-98c8d5c6b95b"},"vehicle_type_id":"4","last_reported":1725113232,"current_range_meters":28800,"station_id":"ce4bh3p2rcd13ifvqdq0","pricing_plan_id":"cebpf4jnsgd1na2vs0mg"},{"bike_id":"5873ede5-07b2-4ba6-ad6a-37e81866998a","system_id":"levelo_inurba_marseille","lat":43.30248,"lon":5.40045,"is_reserved":false,"is_disabled":false,"rental_uris":{"android":"levelo://app?vid=5873ede5-07b2-4ba6-ad6a-37e81866998a","ios":"levelo://app?vid=5873ede5-07b2-4ba6-ad6a-37e81866998a"},"vehicle_type_id":"4","last_reported":1725113232,"current_range_meters":19600,"station_id":"ce4bgvh2rcd13ifvqcs0","pricing_plan_id":"cebpf4jnsgd1na2vs0mg"},{"bike_id":"cd64922c-2018-461c-b66a-664ffdfd2594","system_id":"levelo_inurba_marseille","lat":43.287185,"lon":5.379373,"is_reserved":false,"is_disabled":false,"rental_uris":{"android":"levelo://app?vid=cd64922c-2018-461c-b66a-664ffdfd2594","ios":"levelo://app?vid=cd64922c-2018-461c-b66a-664ffdfd2594"},"vehicle_type_id":"4","last_reported":1725113232,"current_range_meters":29200,"station_id":"ce4bh9p2rcd13ifvqec0","pricing_plan_id":"cebpf4jnsgd1na2vs0mg"},{"bike_id":"ad60c601-8456-48e6-878b-d2c18a401cda","system_id":"levelo_inurba_marseille","lat":43.31706,"lon":5.4047,"is_reserved":false,"is_disabled":false,"rental_uris":{"android":"levelo://app?vid=ad60c601-8456-48e6-878b-d2c18a401cda","ios":"levelo://app?vid=ad60c601-8456-48e6-878b-d2c18a401cda"},"vehicle_type_id":"4","last_reported":1725113232,"current_range_meters":2400,"station_id":"ce4bh012rcd13ifvqd00","pricing_plan_id":"cebpf4jnsgd1na2vs0mg"},{"bike_id":"15f569d9-1fdb-4303-b685-a7fcc181a7c1","system_id":"levelo_inurba_marseille","lat":43.291994,"lon":5.392907,"is_reserved":false,"is_disabled":false,"rental_uris":{"android":"levelo://app?vid=15f569d9-1fdb-4303-b685-a7fcc181a7c1","ios":"levelo://app?vid=15f569d9-1fdb-4303-b685-a7fcc181a7c1"},"vehicle_type_id":"4","last_reported":1725113232,"current_range_meters":18400,"station_id":"ce4bh192rcd13ifvqdd0","pricing_plan_id":"cebpf4jnsgd1na2vs0mg"},{"bike_id":"6e095e54-996d-4640-82dd-ea37a2b01c77","system_id":"levelo_inurba_marseille","lat":43.291994,"lon":5.392907,"is_reserved":false,"is_disabled":false,"rental_uris":{"android":"levelo://app?vid=6e095e54-996d-4640-82dd-ea37a2b01c77","ios":"levelo://app?vid=6e095e54-996d-4640-82dd-ea37a2b01c77"},"vehicle_type_id":"4","last_reported":1725113232,"current_range_meters":0,"station_id":"ce4bh192rcd13ifvqdd0","pricing_plan_id":"cebpf4jnsgd1na2vs0mg"},{"bike_id":"2a30c64a-4a5c-4309-880a-ad3cdc474e86","system_id":"levelo_inurba_marseille","lat":43.284538,"lon":5.358657,"is_reserved":false,"is_disabled":false,"rental_uris":{"android":"levelo://app?vid=2a30c64a-4a5c-4309-880a-ad3cdc474e86","ios":"levelo://app?vid=2a30c64a-4a5c-4309-880a-ad3cdc474e86"},"vehicle_type_id":"4","last_reported":1725113232,"current_range_meters":18400,"station_id":"ce4bhah2rcd13ifvqei0","pricing_plan_id":"cebpf4jnsgd1na2vs0mg"},{"bike_id":"99d65f34-654a-4f9f-949a-38a0c4da44d5","system_id":"levelo_inurba_marseille","lat":43.284538,"lon":5.358657,"is_reserved":false,"is_disabled":false,"rental_uris":{"android":"levelo://app?vid=99d65f34-654a-4f9f-949a-38a0c4da44d5","ios":"levelo://app?vid=99d65f34-654a-4f9f-949a-38a0c4da44d5"},"vehicle_type_id":"4","last_reported":1725113232,"current_range_meters":3200,"station_id":"ce4bhah2rcd13ifvqei0","pricing_plan_id":"cebpf4jnsgd1na2vs0mg"},{"bike_id":"979f7e10-ba72-45c6-a067-e78b3997807c","system_id":"levelo_inurba_marseille","lat":43.284538,"lon":5.358657,"is_reserved":false,"is_disabled":false,"rental_uris":{"android":"levelo://app?vid=979f7e10-ba72-45c6-a067-e78b3997807c","ios":"levelo://app?vid=979f7e10-ba72-45c6-a067-e78b3997807c"},"vehicle_type_id":"4","last_reported":1725113232,"current_range_meters":18800,"station_id":"ce4bhah2rcd13ifvqei0","pricing_plan_id":"cebpf4jnsgd1na2vs0mg"},{"bike_id":"e330df43-8d21-4da3-a18b-e6f87189aa88","system_id":"levelo_inurba_marseille","lat":43.284534,"lon":5.358662,"is_reserved":false,"is_disabled":false,"rental_uris":{"android":"levelo://app?vid=e330df43-8d21-4da3-a18b-e6f87189aa88","ios":"levelo://app?vid=e330df43-8d21-4da3-a18b-e6f87189aa88"},"vehicle_type_id":"4","last_reported":1725113232,"current_range_meters":15200,"station_id":"ce4bhah2rcd13ifvqei0","pricing_plan_id":"cebpf4jnsgd1na2vs0mg"},{"bike_id":"1b314fdb-b5b1-4467-af63-22fed994ac0a","system_id":"levelo_inurba_marseille","lat":43.284534,"lon":5.358662,"is_reserved":false,"is_disabled":false,"rental_uris":{"android":"levelo://app?vid=1b314fdb-b5b1-4467-af63-22fed994ac0a","ios":"levelo://app?vid=1b314fdb-b5b1-4467-af63-22fed994ac0a"},"vehicle_type_id":"4","last_reported":1725113232,"current_range_meters":13600,"station_id":"ce4bhah2rcd13ifvqei0","pricing_plan_id":"cebpf4jnsgd1na2vs0mg"},{"bike_id":"02a6d3dc-10eb-4c50-b03c-5ecc340985b9","system_id":"levelo_inurba_marseille","lat":43.284534,"lon":5.358662,"is_reserved":false,"is_disabled":false,"rental_uris":{"android":"levelo://app?vid=02a6d3dc-10eb-4c50-b03c-5ecc340985b9","ios":"levelo://app?vid=02a6d3dc-10eb-4c50-b03c-5ecc340985b9"},"vehicle_type_id":"4","last_reported":1725113232,"current_range_meters":16400,"station_id":"ce4bhah2rcd13ifvqei0","pricing_plan_id":"cebpf4jnsgd1na2vs0mg"},{"bike_id":"059cf254-19b6-4eef-a457-0943b55f3163","system_id":"levelo_inurba_marseille","lat":43.284534,"lon":5.358662,"is_reserved":false,"is_disabled":false,"rental_uris":{"android":"levelo://app?vid=059cf254-19b6-4eef-a457-0943b55f3163","ios":"levelo://app?vid=059cf254-19b6-4eef-a457-0943b55f3163"},"vehicle_type_id":"4","last_reported":1725113232,"current_range_meters":8000,"station_id":"ce4bhah2rcd13ifvqei0","pricing_plan_id":"cebpf4jnsgd1na2vs0mg"},{"bike_id":"d09fc99b-2dfe-4a6b-addc-bff272e9632f","system_id":"levelo_inurba_marseille","lat":43.2862,"lon":5.35114,"is_reserved":false,"is_disabled":false,"rental_uris":{"android":"levelo://app?vid=d09fc99b-2dfe-4a6b-addc-bff272e9632f","ios":"levelo://app?vid=d09fc99b-2dfe-4a6b-addc-bff272e9632f"},"vehicle_type_id":"4","last_reported":1725113232,"current_range_meters":8000,"station_id":"ce4bhch2rcd13ifvqeug","pricing_plan_id":"cebpf4jnsgd1na2vs0mg"},{"bike_id":"3374ae36-602b-4d51-99e5-ae6fe281e784","system_id":"levelo_inurba_marseille","lat":43.2862,"lon":5.35107,"is_reserved":false,"is_disabled":false,"rental_uris":{"android":"levelo://app?vid=3374ae36-602b-4d51-99e5-ae6fe281e784","ios":"levelo://app?vid=3374ae36-602b-4d51-99e5-ae6fe281e784"},"vehicle_type_id":"4","last_reported":1725113232,"current_range_meters":30000,"station_id":"ce4bhch2rcd13ifvqeug","pricing_plan_id":"cebpf4jnsgd1na2vs0mg"},{"bike_id":"d0dd64b7-76e8-4345-8782-f7cf156188cc","system_id":"levelo_inurba_marseille","lat":43.2862,"lon":5.35102,"is_reserved":false,"is_disabled":false,"rental_uris":{"android":"levelo://app?vid=d0dd64b7-76e8-4345-8782-f7cf156188cc","ios":"levelo://app?vid=d0dd64b7-76e8-4345-8782-f7cf156188cc"},"vehicle_type_id":"4","last_reported":1725113232,"current_range_meters":30000,"station_id":"ce4bhch2rcd13ifvqeug","pricing_plan_id":"cebpf4jnsgd1na2vs0mg"},{"bike_id":"cf4ba1e9-0561-4b7d-bc0e-3414f3a7e6e1","system_id":"levelo_inurba_marseille","lat":43.286194,"lon":5.351038,"is_reserved":false,"is_disabled":false,"rental_uris":{"android":"levelo://app?vid=cf4ba1e9-0561-4b7d-bc0e-3414f3a7e6e1","ios":"levelo://app?vid=cf4ba1e9-0561-4b7d-bc0e-3414f3a7e6e1"},"vehicle_type_id":"4","last_reported":1725113232,"current_range_meters":9600,"station_id":"ce4bhch2rcd13ifvqeug","pricing_plan_id":"cebpf4jnsgd1na2vs0mg"},{"bike_id":"87eb313a-1645-40f9-a69a-450dd67c9698","system_id":"levelo_inurba_marseille","lat":43.28616,"lon":5.35112,"is_reserved":false,"is_disabled":false,"rental_uris":{"android":"levelo://app?vid=87eb313a-1645-40f9-a69a-450dd67c9698","ios":"levelo://app?vid=87eb313a-1645-40f9-a69a-450dd67c9698"},"vehicle_type_id":"4","last_reported":1725113232,"current_range_meters":0,"station_id":"ce4bhch2rcd13ifvqeug","pricing_plan_id":"cebpf4jnsgd1na2vs0mg"},{"bike_id":"23c1998f-c722-4e77-b25c-33afe801d5fe","system_id":"levelo_inurba_marseille","lat":43.28616,"lon":5.3511,"is_reserved":false,"is_disabled":false,"rental_uris":{"android":"levelo://app?vid=23c1998f-c722-4e77-b25c-33afe801d5fe","ios":"levelo://app?vid=23c1998f-c722-4e77-b25c-33afe801d5fe"},"vehicle_type_id":"4","last_reported":1725113232,"current_range_meters":22000,"station_id":"ce4bhch2rcd13ifvqeug","pricing_plan_id":"cebpf4jnsgd1na2vs0mg"},{"bike_id":"80839559-a286-4ed2-817b-b78d76c6d197","system_id":"levelo_inurba_marseille","lat":43.28615,"lon":5.35111,"is_reserved":false,"is_disabled":false,"rental_uris":{"android":"levelo://app?vid=80839559-a286-4ed2-817b-b78d76c6d197","ios":"levelo://app?vid=80839559-a286-4ed2-817b-b78d76c6d197"},"vehicle_type_id":"4","last_reported":1725113232,"current_range_meters":22000,"station_id":"ce4bhch2rcd13ifvqeug","pricing_plan_id":"cebpf4jnsgd1na2vs0mg"},{"bike_id":"118cd296-1ece-4b81-84da-d84bdbcd46d8","system_id":"levelo_inurba_marseille","lat":43.28617,"lon":5.35103,"is_reserved":false,"is_disabled":false,"rental_uris":{"android":"levelo://app?vid=118cd296-1ece-4b81-84da-d84bdbcd46d8","ios":"levelo://app?vid=118cd296-1ece-4b81-84da-d84bdbcd46d8"},"vehicle_type_id":"4","last_reported":1725113232,"current_range_meters":18800,"station_id":"ce4bhch2rcd13ifvqeug","pricing_plan_id":"cebpf4jnsgd1na2vs0mg"},{"bike_id":"43ca89cf-0836-4fe2-85cf-7e57bb574dad","system_id":"levelo_inurba_marseille","lat":43.28618,"lon":5.35099,"is_reserved":false,"is_disabled":false,"rental_uris":{"android":"levelo://app?vid=43ca89cf-0836-4fe2-85cf-7e57bb574dad","ios":"levelo://app?vid=43ca89cf-0836-4fe2-85cf-7e57bb574dad"},"vehicle_type_id":"4","last_reported":1725113232,"current_range_meters":21200,"station_id":"ce4bhch2rcd13ifvqeug","pricing_plan_id":"cebpf4jnsgd1na2vs0mg"},{"bike_id":"a12063f2-b003-4885-bd6d-2bfe8f566220","system_id":"levelo_inurba_marseille","lat":43.28615,"lon":5.35108,"is_reserved":false,"is_disabled":false,"rental_uris":{"android":"levelo://app?vid=a12063f2-b003-4885-bd6d-2bfe8f566220","ios":"levelo://app?vid=a12063f2-b003-4885-bd6d-2bfe8f566220"},"vehicle_type_id":"4","last_reported":1725113232,"current_range_meters":9600,"station_id":"ce4bhch2rcd13ifvqeug","pricing_plan_id":"cebpf4jnsgd1na2vs0mg"},{"bike_id":"81c260e1-32e6-43b7-bbc2-51093327d6b6","system_id":"levelo_inurba_marseille","lat":43.28615,"lon":5.35105,"is_reserved":false,"is_disabled":false,"rental_uris":{"android":"levelo://app?vid=81c260e1-32e6-43b7-bbc2-51093327d6b6","ios":"levelo://app?vid=81c260e1-32e6-43b7-bbc2-51093327d6b6"},"vehicle_type_id":"4","last_reported":1725113232,"current_range_meters":10400,"station_id":"ce4bhch2rcd13ifvqeug","pricing_plan_id":"cebpf4jnsgd1na2vs0mg"},{"bike_id":"96af7cfd-afbb-4deb-a960-52b0a3c12b49","system_id":"levelo_inurba_marseille","lat":43.28615,"lon":5.35105,"is_reserved":false,"is_disabled":false,"rental_uris":{"android":"levelo://app?vid=96af7cfd-afbb-4deb-a960-52b0a3c12b49","ios":"levelo://app?vid=96af7cfd-afbb-4deb-a960-52b0a3c12b49"},"vehicle_type_id":"4","last_reported":1725113232,"current_range_meters":22400,"station_id":"ce4bhch2rcd13ifvqeug","pricing_plan_id":"cebpf4jnsgd1na2vs0mg"},{"bike_id":"2b4bdfab-0b92-4838-a280-737a12a6233e","system_id":"levelo_inurba_marseille","lat":43.28614,"lon":5.35102,"is_reserved":false,"is_disabled":false,"rental_uris":{"android":"levelo://app?vid=2b4bdfab-0b92-4838-a280-737a12a6233e","ios":"levelo://app?vid=2b4bdfab-0b92-4838-a280-737a12a6233e"},"vehicle_type_id":"4","last_reported":1725113232,"current_range_meters":15200,"station_id":"ce4bhch2rcd13ifvqeug","pricing_plan_id":"cebpf4jnsgd1na2vs0mg"},{"bike_id":"dd79b056-fa03-4a99-b7da-4a03b57d741d","system_id":"levelo_inurba_marseille","lat":43.28615,"lon":5.35098,"is_reserved":false,"is_disabled":false,"rental_uris":{"android":"levelo://app?vid=dd79b056-fa03-4a99-b7da-4a03b57d741d","ios":"levelo://app?vid=dd79b056-fa03-4a99-b7da-4a03b57d741d"},"vehicle_type_id":"4","last_reported":1725113232,"current_range_meters":23600,"station_id":"ce4bhch2rcd13ifvqeug","pricing_plan_id":"cebpf4jnsgd1na2vs0mg"},{"bike_id":"5b72941e-45e7-46d7-baa6-df1a73a1010d","system_id":"levelo_inurba_marseille","lat":43.28614,"lon":5.351,"is_reserved":false,"is_disabled":false,"rental_uris":{"android":"levelo://app?vid=5b72941e-45e7-46d7-baa6-df1a73a1010d","ios":"levelo://app?vid=5b72941e-45e7-46d7-baa6-df1a73a1010d"},"vehicle_type_id":"4","last_reported":1725113232,"current_range_meters":6400,"station_id":"ce4bhch2rcd13ifvqeug","pricing_plan_id":"cebpf4jnsgd1na2vs0mg"},{"bike_id":"02bd5218-baa2-4271-8120-8b11eade4697","system_id":"levelo_inurba_marseille","lat":43.286124,"lon":5.351048,"is_reserved":false,"is_disabled":false,"rental_uris":{"android":"levelo://app?vid=02bd5218-baa2-4271-8120-8b11eade4697","ios":"levelo://app?vid=02bd5218-baa2-4271-8120-8b11eade4697"},"vehicle_type_id":"4","last_reported":1725113232,"current_range_meters":30800,"station_id":"ce4bhch2rcd13ifvqeug","pricing_plan_id":"cebpf4jnsgd1na2vs0mg"},{"bike_id":"68588ea4-4e0e-4cf2-b84d-7fcb220c541c","system_id":"levelo_inurba_marseille","lat":43.34177,"lon":5.36016,"is_reserved":false,"is_disabled":false,"rental_uris":{"android":"levelo://app?vid=68588ea4-4e0e-4cf2-b84d-7fcb220c541c","ios":"levelo://app?vid=68588ea4-4e0e-4cf2-b84d-7fcb220c541c"},"vehicle_type_id":"4","last_reported":1725113232,"current_range_meters":0,"station_id":"","pricing_plan_id":"cebpf4jnsgd1na2vs0mg"},{"bike_id":"e900ee9d-f7b9-4a49-9f91-7da53ce318cd","system_id":"levelo_inurba_marseille","lat":43.286595,"lon":5.386795,"is_reserved":false,"is_disabled":false,"rental_uris":{"android":"levelo://app?vid=e900ee9d-f7b9-4a49-9f91-7da53ce318cd","ios":"levelo://app?vid=e900ee9d-f7b9-4a49-9f91-7da53ce318cd"},"vehicle_type_id":"4","last_reported":1725113232,"current_range_meters":0,"station_id":"ce4bh492rcd13ifvqdug","pricing_plan_id":"cebpf4jnsgd1na2vs0mg"},{"bike_id":"4614a221-d328-468e-9d2d-fc1fa41a0e97","system_id":"levelo_inurba_marseille","lat":43.286595,"lon":5.386795,"is_reserved":false,"is_disabled":false,"rental_uris":{"android":"levelo://app?vid=4614a221-d328-468e-9d2d-fc1fa41a0e97","ios":"levelo://app?vid=4614a221-d328-468e-9d2d-fc1fa41a0e97"},"vehicle_type_id":"4","last_reported":1725113232,"current_range_meters":8400,"station_id":"ce4bh492rcd13ifvqdug","pricing_plan_id":"cebpf4jnsgd1na2vs0mg"},{"bike_id":"09863c7d-f893-4b8d-8739-a56d0ee94a91","system_id":"levelo_inurba_marseille","lat":43.323464,"lon":5.406297,"is_reserved":false,"is_disabled":false,"rental_uris":{"android":"levelo://app?vid=09863c7d-f893-4b8d-8739-a56d0ee94a91","ios":"levelo://app?vid=09863c7d-f893-4b8d-8739-a56d0ee94a91"},"vehicle_type_id":"4","last_reported":1725113232,"current_range_meters":2400,"station_id":"ce4bhq92rcd13ifvqhjg","pricing_plan_id":"cebpf4jnsgd1na2vs0mg"},{"bike_id":"83877072-591e-4439-97d1-bbd2c2ebaf3d","system_id":"levelo_inurba_marseille","lat":43.323464,"lon":5.406297,"is_reserved":false,"is_disabled":false,"rental_uris":{"android":"levelo://app?vid=83877072-591e-4439-97d1-bbd2c2ebaf3d","ios":"levelo://app?vid=83877072-591e-4439-97d1-bbd2c2ebaf3d"},"vehicle_type_id":"4","last_reported":1725113232,"current_range_meters":12800,"station_id":"ce4bhq92rcd13ifvqhjg","pricing_plan_id":"cebpf4jnsgd1na2vs0mg"},{"bike_id":"87477edc-0816-4132-b18a-74072bf0e46c","system_id":"levelo_inurba_marseille","lat":43.323464,"lon":5.406297,"is_reserved":false,"is_disabled":false,"rental_uris":{"android":"levelo://app?vid=87477edc-0816-4132-b18a-74072bf0e46c","ios":"levelo://app?vid=87477edc-0816-4132-b18a-74072bf0e46c"},"vehicle_type_id":"4","last_reported":1725113232,"current_range_meters":13600,"station_id":"ce4bhq92rcd13ifvqhjg","pricing_plan_id":"cebpf4jnsgd1na2vs0mg"},{"bike_id":"e25e4389-6cb6-4475-8df7-61451c80c4f8","system_id":"levelo_inurba_marseille","lat":43.323464,"lon":5.406297,"is_reserved":false,"is_disabled":false,"rental_uris":{"android":"levelo://app?vid=e25e4389-6cb6-4475-8df7-61451c80c4f8","ios":"levelo://app?vid=e25e4389-6cb6-4475-8df7-61451c80c4f8"},"vehicle_type_id":"4","last_reported":1725113232,"current_range_meters":31600,"station_id":"ce4bhq92rcd13ifvqhjg","pricing_plan_id":"cebpf4jnsgd1na2vs0mg"},{"bike_id":"632c2b12-e28c-4d68-b311-3786e9c6047d","system_id":"levelo_inurba_marseille","lat":43.323464,"lon":5.406297,"is_reserved":false,"is_disabled":false,"rental_uris":{"android":"levelo://app?vid=632c2b12-e28c-4d68-b311-3786e9c6047d","ios":"levelo://app?vid=632c2b12-e28c-4d68-b311-3786e9c6047d"},"vehicle_type_id":"4","last_reported":1725113232,"current_range_meters":24000,"station_id":"ce4bhq92rcd13ifvqhjg","pricing_plan_id":"cebpf4jnsgd1na2vs0mg"},{"bike_id":"71e3e59d-ea95-4001-9629-b982c99e18fe","system_id":"levelo_inurba_marseille","lat":43.32335,"lon":5.40622,"is_reserved":false,"is_disabled":false,"rental_uris":{"android":"levelo://app?vid=71e3e59d-ea95-4001-9629-b982c99e18fe","ios":"levelo://app?vid=71e3e59d-ea95-4001-9629-b982c99e18fe"},"vehicle_type_id":"4","last_reported":1725113232,"current_range_meters":27200,"station_id":"ce4bhq92rcd13ifvqhjg","pricing_plan_id":"cebpf4jnsgd1na2vs0mg"},{"bike_id":"e79def78-ef91-4671-ab3c-6b7906172f10","system_id":"levelo_inurba_marseille","lat":43.323464,"lon":5.406297,"is_reserved":false,"is_disabled":false,"rental_uris":{"android":"levelo://app?vid=e79def78-ef91-4671-ab3c-6b7906172f10","ios":"levelo://app?vid=e79def78-ef91-4671-ab3c-6b7906172f10"},"vehicle_type_id":"4","last_reported":1725113232,"current_range_meters":16800,"station_id":"ce4bhq92rcd13ifvqhjg","pricing_plan_id":"cebpf4jnsgd1na2vs0mg"},{"bike_id":"a0d7a529-b867-4630-ad19-018018ea5d48","system_id":"levelo_inurba_marseille","lat":43.32342,"lon":5.40625,"is_reserved":false,"is_disabled":false,"rental_uris":{"android":"levelo://app?vid=a0d7a529-b867-4630-ad19-018018ea5d48","ios":"levelo://app?vid=a0d7a529-b867-4630-ad19-018018ea5d48"},"vehicle_type_id":"4","last_reported":1725113232,"current_range_meters":9600,"station_id":"ce4bhq92rcd13ifvqhjg","pricing_plan_id":"cebpf4jnsgd1na2vs0mg"},{"bike_id":"8f662f2f-67be-4190-849d-bfd5d4f8f7e4","system_id":"levelo_inurba_marseille","lat":43.32345,"lon":5.40625,"is_reserved":false,"is_disabled":false,"rental_uris":{"android":"levelo://app?vid=8f662f2f-67be-4190-849d-bfd5d4f8f7e4","ios":"levelo://app?vid=8f662f2f-67be-4190-849d-bfd5d4f8f7e4"},"vehicle_type_id":"4","last_reported":1725113232,"current_range_meters":16000,"station_id":"ce4bhq92rcd13ifvqhjg","pricing_plan_id":"cebpf4jnsgd1na2vs0mg"},{"bike_id":"409ee3f0-8ebb-4ca8-b76f-afd1598cb0f7","system_id":"levelo_inurba_marseille","lat":43.323464,"lon":5.406297,"is_reserved":false,"is_disabled":false,"rental_uris":{"android":"levelo://app?vid=409ee3f0-8ebb-4ca8-b76f-afd1598cb0f7","ios":"levelo://app?vid=409ee3f0-8ebb-4ca8-b76f-afd1598cb0f7"},"vehicle_type_id":"4","last_reported":1725113232,"current_range_meters":31200,"station_id":"ce4bhq92rcd13ifvqhjg","pricing_plan_id":"cebpf4jnsgd1na2vs0mg"},{"bike_id":"41069587-9860-4704-a084-cb322eb4ca90","system_id":"levelo_inurba_marseille","lat":43.284793,"lon":5.384113,"is_reserved":false,"is_disabled":false,"rental_uris":{"android":"levelo://app?vid=41069587-9860-4704-a084-cb322eb4ca90","ios":"levelo://app?vid=41069587-9860-4704-a084-cb322eb4ca90"},"vehicle_type_id":"4","last_reported":1725113232,"current_range_meters":0,"station_id":"ce4bh512rcd13ifvqe3g","pricing_plan_id":"cebpf4jnsgd1na2vs0mg"},{"bike_id":"1bf8b45e-7078-4fc5-9a12-55c7bcd24282","system_id":"levelo_inurba_marseille","lat":43.297946,"lon":5.404063,"is_reserved":false,"is_disabled":false,"rental_uris":{"android":"levelo://app?vid=1bf8b45e-7078-4fc5-9a12-55c7bcd24282","ios":"levelo://app?vid=1bf8b45e-7078-4fc5-9a12-55c7bcd24282"},"vehicle_type_id":"4","last_reported":1725113232,"current_range_meters":31200,"station_id":"ce4bh112rcd13ifvqd90","pricing_plan_id":"cebpf4jnsgd1na2vs0mg"},{"bike_id":"26c1240a-0be6-4600-9752-7ef927eb9346","system_id":"levelo_inurba_marseille","lat":43.288497,"lon":5.393089,"is_reserved":false,"is_disabled":false,"rental_uris":{"android":"levelo://app?vid=26c1240a-0be6-4600-9752-7ef927eb9346","ios":"levelo://app?vid=26c1240a-0be6-4600-9752-7ef927eb9346"},"vehicle_type_id":"4","last_reported":1725113232,"current_range_meters":7200,"station_id":"ce4bh2p2rcd13ifvqdi0","pricing_plan_id":"cebpf4jnsgd1na2vs0mg"},{"bike_id":"06b3f623-dbb9-478a-805b-0b906857ade1","system_id":"levelo_inurba_marseille","lat":43.284219,"lon":5.3497,"is_reserved":false,"is_disabled":false,"rental_uris":{"android":"levelo://app?vid=06b3f623-dbb9-478a-805b-0b906857ade1","ios":"levelo://app?vid=06b3f623-dbb9-478a-805b-0b906857ade1"},"vehicle_type_id":"4","last_reported":1725113232,"current_range_meters":31600,"station_id":"ce4bhbh2rcd13ifvqepg","pricing_plan_id":"cebpf4jnsgd1na2vs0mg"},{"bike_id":"a8a4b086-7cd6-4c65-8dcf-5be311bf90a9","system_id":"levelo_inurba_marseille","lat":43.284277,"lon":5.349783,"is_reserved":false,"is_disabled":false,"rental_uris":{"android":"levelo://app?vid=a8a4b086-7cd6-4c65-8dcf-5be311bf90a9","ios":"levelo://app?vid=a8a4b086-7cd6-4c65-8dcf-5be311bf90a9"},"vehicle_type_id":"4","last_reported":1725113232,"current_range_meters":28400,"station_id":"ce4bhbh2rcd13ifvqepg","pricing_plan_id":"cebpf4jnsgd1na2vs0mg"},{"bike_id":"4ba7c19e-01a0-4df5-bda2-0ee04318f978","system_id":"levelo_inurba_marseille","lat":43.28423,"lon":5.34987,"is_reserved":false,"is_disabled":false,"rental_uris":{"android":"levelo://app?vid=4ba7c19e-01a0-4df5-bda2-0ee04318f978","ios":"levelo://app?vid=4ba7c19e-01a0-4df5-bda2-0ee04318f978"},"vehicle_type_id":"4","last_reported":1725113232,"current_range_meters":25600,"station_id":"ce4bhbh2rcd13ifvqepg","pricing_plan_id":"cebpf4jnsgd1na2vs0mg"},{"bike_id":"b940e89b-798a-492e-b77c-322c52898fe7","system_id":"levelo_inurba_marseille","lat":43.284219,"lon":5.3497,"is_reserved":false,"is_disabled":false,"rental_uris":{"android":"levelo://app?vid=b940e89b-798a-492e-b77c-322c52898fe7","ios":"levelo://app?vid=b940e89b-798a-492e-b77c-322c52898fe7"},"vehicle_type_id":"4","last_reported":1725113232,"current_range_meters":31600,"station_id":"ce4bhbh2rcd13ifvqepg","pricing_plan_id":"cebpf4jnsgd1na2vs0mg"},{"bike_id":"e3ad6551-ffd9-40f9-8deb-96c86606dd63","system_id":"levelo_inurba_marseille","lat":43.284219,"lon":5.3497,"is_reserved":false,"is_disabled":false,"rental_uris":{"android":"levelo://app?vid=e3ad6551-ffd9-40f9-8deb-96c86606dd63","ios":"levelo://app?vid=e3ad6551-ffd9-40f9-8deb-96c86606dd63"},"vehicle_type_id":"4","last_reported":1725113232,"current_range_meters":30800,"station_id":"ce4bhbh2rcd13ifvqepg","pricing_plan_id":"cebpf4jnsgd1na2vs0mg"},{"bike_id":"41271aca-4876-4c42-b6b0-c3366a7f8881","system_id":"levelo_inurba_marseille","lat":43.284217,"lon":5.349697,"is_reserved":false,"is_disabled":false,"rental_uris":{"android":"levelo://app?vid=41271aca-4876-4c42-b6b0-c3366a7f8881","ios":"levelo://app?vid=41271aca-4876-4c42-b6b0-c3366a7f8881"},"vehicle_type_id":"4","last_reported":1725113232,"current_range_meters":28800,"station_id":"ce4bhbh2rcd13ifvqepg","pricing_plan_id":"cebpf4jnsgd1na2vs0mg"},{"bike_id":"976a8195-aa87-4c74-9b18-fa0664294ed3","system_id":"levelo_inurba_marseille","lat":43.284219,"lon":5.3497,"is_reserved":false,"is_disabled":false,"rental_uris":{"android":"levelo://app?vid=976a8195-aa87-4c74-9b18-fa0664294ed3","ios":"levelo://app?vid=976a8195-aa87-4c74-9b18-fa0664294ed3"},"vehicle_type_id":"4","last_reported":1725113232,"current_range_meters":30800,"station_id":"ce4bhbh2rcd13ifvqepg","pricing_plan_id":"cebpf4jnsgd1na2vs0mg"},{"bike_id":"73a31cea-bdb3-493f-89f8-828079edc152","system_id":"levelo_inurba_marseille","lat":43.284219,"lon":5.3497,"is_reserved":false,"is_disabled":false,"rental_uris":{"android":"levelo://app?vid=73a31cea-bdb3-493f-89f8-828079edc152","ios":"levelo://app?vid=73a31cea-bdb3-493f-89f8-828079edc152"},"vehicle_type_id":"4","last_reported":1725113232,"current_range_meters":24800,"station_id":"ce4bhbh2rcd13ifvqepg","pricing_plan_id":"cebpf4jnsgd1na2vs0mg"},{"bike_id":"2c58ba5c-45e4-41c6-b960-d6ec07248e62","system_id":"levelo_inurba_marseille","lat":43.28421,"lon":5.34984,"is_reserved":false,"is_disabled":false,"rental_uris":{"android":"levelo://app?vid=2c58ba5c-45e4-41c6-b960-d6ec07248e62","ios":"levelo://app?vid=2c58ba5c-45e4-41c6-b960-d6ec07248e62"},"vehicle_type_id":"4","last_reported":1725113232,"current_range_meters":30400,"station_id":"ce4bhbh2rcd13ifvqepg","pricing_plan_id":"cebpf4jnsgd1na2vs0mg"},{"bike_id":"827f0b92-af30-47c6-8347-c224b632b897","system_id":"levelo_inurba_marseille","lat":43.284219,"lon":5.3497,"is_reserved":false,"is_disabled":false,"rental_uris":{"android":"levelo://app?vid=827f0b92-af30-47c6-8347-c224b632b897","ios":"levelo://app?vid=827f0b92-af30-47c6-8347-c224b632b897"},"vehicle_type_id":"4","last_reported":1725113232,"current_range_meters":31600,"station_id":"ce4bhbh2rcd13ifvqepg","pricing_plan_id":"cebpf4jnsgd1na2vs0mg"},{"bike_id":"c45e9ed9-00b0-4b98-802c-7e68f4215f19","system_id":"levelo_inurba_marseille","lat":43.2842,"lon":5.34986,"is_reserved":false,"is_disabled":false,"rental_uris":{"android":"levelo://app?vid=c45e9ed9-00b0-4b98-802c-7e68f4215f19","ios":"levelo://app?vid=c45e9ed9-00b0-4b98-802c-7e68f4215f19"},"vehicle_type_id":"4","last_reported":1725113232,"current_range_meters":21200,"station_id":"ce4bhbh2rcd13ifvqepg","pricing_plan_id":"cebpf4jnsgd1na2vs0mg"},{"bike_id":"d1ab431b-c9c9-44d8-a10a-21a6e392eef7","system_id":"levelo_inurba_marseille","lat":43.28419,"lon":5.34989,"is_reserved":false,"is_disabled":false,"rental_uris":{"android":"levelo://app?vid=d1ab431b-c9c9-44d8-a10a-21a6e392eef7","ios":"levelo://app?vid=d1ab431b-c9c9-44d8-a10a-21a6e392eef7"},"vehicle_type_id":"4","last_reported":1725113232,"current_range_meters":18800,"station_id":"ce4bhbh2rcd13ifvqepg","pricing_plan_id":"cebpf4jnsgd1na2vs0mg"},{"bike_id":"c12a6d4f-f89b-4979-8e6b-9778e411bcef","system_id":"levelo_inurba_marseille","lat":43.284217,"lon":5.349697,"is_reserved":false,"is_disabled":false,"rental_uris":{"android":"levelo://app?vid=c12a6d4f-f89b-4979-8e6b-9778e411bcef","ios":"levelo://app?vid=c12a6d4f-f89b-4979-8e6b-9778e411bcef"},"vehicle_type_id":"4","last_reported":1725113232,"current_range_meters":32000,"station_id":"ce4bhbh2rcd13ifvqepg","pricing_plan_id":"cebpf4jnsgd1na2vs0mg"},{"bike_id":"2e407ea6-930e-4fa5-8de7-0741160684a9","system_id":"levelo_inurba_marseille","lat":43.284217,"lon":5.349697,"is_reserved":false,"is_disabled":false,"rental_uris":{"android":"levelo://app?vid=2e407ea6-930e-4fa5-8de7-0741160684a9","ios":"levelo://app?vid=2e407ea6-930e-4fa5-8de7-0741160684a9"},"vehicle_type_id":"4","last_reported":1725113232,"current_range_meters":31200,"station_id":"ce4bhbh2rcd13ifvqepg","pricing_plan_id":"cebpf4jnsgd1na2vs0mg"},{"bike_id":"fb56ddc6-5343-43e6-a3a8-488a2e317738","system_id":"levelo_inurba_marseille","lat":43.284219,"lon":5.3497,"is_reserved":false,"is_disabled":false,"rental_uris":{"android":"levelo://app?vid=fb56ddc6-5343-43e6-a3a8-488a2e317738","ios":"levelo://app?vid=fb56ddc6-5343-43e6-a3a8-488a2e317738"},"vehicle_type_id":"4","last_reported":1725113232,"current_range_meters":17200,"station_id":"ce4bhbh2rcd13ifvqepg","pricing_plan_id":"cebpf4jnsgd1na2vs0mg"},{"bike_id":"4206d7a1-fa26-423c-b9dc-f005268e0a40","system_id":"levelo_inurba_marseille","lat":43.284214,"lon":5.349706,"is_reserved":false,"is_disabled":false,"rental_uris":{"android":"levelo://app?vid=4206d7a1-fa26-423c-b9dc-f005268e0a40","ios":"levelo://app?vid=4206d7a1-fa26-423c-b9dc-f005268e0a40"},"vehicle_type_id":"4","last_reported":1725113232,"current_range_meters":30800,"station_id":"ce4bhbh2rcd13ifvqepg","pricing_plan_id":"cebpf4jnsgd1na2vs0mg"},{"bike_id":"640d3d0a-db0f-4565-9a2d-367a59dfc5f4","system_id":"levelo_inurba_marseille","lat":43.284217,"lon":5.349697,"is_reserved":false,"is_disabled":false,"rental_uris":{"android":"levelo://app?vid=640d3d0a-db0f-4565-9a2d-367a59dfc5f4","ios":"levelo://app?vid=640d3d0a-db0f-4565-9a2d-367a59dfc5f4"},"vehicle_type_id":"4","last_reported":1725113232,"current_range_meters":20400,"station_id":"ce4bhbh2rcd13ifvqepg","pricing_plan_id":"cebpf4jnsgd1na2vs0mg"},{"bike_id":"dd6d5586-ec3b-4e10-923c-3c2ff1e33fde","system_id":"levelo_inurba_marseille","lat":43.28419,"lon":5.34978,"is_reserved":false,"is_disabled":false,"rental_uris":{"android":"levelo://app?vid=dd6d5586-ec3b-4e10-923c-3c2ff1e33fde","ios":"levelo://app?vid=dd6d5586-ec3b-4e10-923c-3c2ff1e33fde"},"vehicle_type_id":"4","last_reported":1725113232,"current_range_meters":18800,"station_id":"ce4bhbh2rcd13ifvqepg","pricing_plan_id":"cebpf4jnsgd1na2vs0mg"},