{"last_updated":1718975404,"ttl":30,"version":"2.2","data":{"bikes":[{"bike_id":"3b1ed7fb-1a3e-4780-b61b-c8674b75ce64","system_id":"levelo_inurba_marseille","lat":43.31224,"lon":5.36846,"is_reserved":false,"is_disabled":false,"rental_uris":{"android":"levelo://app?vid=3b1ed7fb-1a3e-4780-b61b-c8674b75ce64","ios":"levelo://app?vid=3b1ed7fb-1a3e-4780-b61b-c8674b75ce64"},"vehicle_type_id":"4","last_reported":1718975405,"current_range_meters":800,"station_id":"ce4bgl92rcd13ifvqbq0","pricing_plan_id":"cebpf4jnsgd1na2vs0mg"},{"bike_id":"91499640-e149-498c-88b7-fff998500dad","system_id":"levelo_inurba_marseille","lat":43.312239,"lon":5.368562,"is_reserved":false,"is_disabled":false,"rental_uris":{"android":"levelo://app?vid=91499640-e149-498c-88b7-fff998500dad","ios":"levelo://app?vid=91499640-e149-498c-88b7-fff998500dad"},"vehicle_type_id":"4","last_reported":1718975405,"current_range_meters":6400,"station_id":"ce4bgl92rcd13ifvqbq0","pricing_plan_id":"cebpf4jnsgd1na2vs0mg"},{"bike_id":"74c12638-d9d0-4520-81ef-6bb945e9cf3d","system_id":"levelo_inurba_marseille","lat":43.314811,"lon":5.373103,"is_reserved":false,"is_disabled":false,"rental_uris":{"android":"levelo://app?vid=74c12638-d9d0-4520-81ef-6bb945e9cf3d","ios":"levelo://app?vid=74c12638-d9d0-4520-81ef-6bb945e9cf3d"},"vehicle_type_id":"4","last_reported":1718975405,"current_range_meters":26000,"station_id":"ce4bgt12rcd13ifvqcd0","pricing_plan_id":"cebpf4jnsgd1na2vs0mg"},{"bike_id":"09e69628-ef33-492a-ae0c-322147eac92a","system_id":"levelo_inurba_marseille","lat":43.314811,"lon":5.373103,"is_reserved":false,"is_disabled":false,"rental_uris":{"android":"levelo://app?vid=09e69628-ef33-492a-ae0c-322147eac92a","ios":"levelo://app?vid=09e69628-ef33-492a-ae0c-322147eac92a"},"vehicle_type_id":"4","last_reported":1718975405,"current_range_meters":27200,"station_id":"ce4bgt12rcd13ifvqcd0","pricing_plan_id":"cebpf4jnsgd1na2vs0mg"},{"bike_id":"428c95af-af3d-487e-8536-0f778167f517","system_id":"levelo_inurba_marseille","lat":43.314811,"lon":5.373103,"is_reserved":false,"is_disabled":false,"rental_uris":{"android":"levelo://app?vid=428c95af-af3d-487e-8536-0f778167f517","ios":"levelo://app?vid=428c95af-af3d-487e-8536-0f778167f517"},"vehicle_type_id":"4","last_reported":1718975405,"current_range_meters":8800,"station_id":"ce4bgt12rcd13ifvqcd0","pricing_plan_id":"cebpf4jnsgd1na2vs0mg"},{"bike_id":"2bae4290-0965-41b5-bb7a-48dfaa19de63","system_id":"levelo_inurba_marseille","lat":43.314811,"lon":5.373104,"is_reserved":false,"is_disabled":false,"rental_uris":{"android":"levelo://app?vid=2bae4290-0965-41b5-bb7a-48dfaa19de63","ios":"levelo://app?vid=2bae4290-0965-41b5-bb7a-48dfaa19de63"},"vehicle_type_id":"4","last_reported":1718975405,"current_range_meters":11200,"station_id":"ce4bgt12rcd13ifvqcd0","pricing_plan_id":"cebpf4jnsgd1na2vs0mg"},{"bike_id":"04ad6851-d920-4498-bf6e-26f433337761","system_id":"levelo_inurba_marseille","lat":43.314811,"lon":5.373103,"is_reserved":false,"is_disabled":false,"rental_uris":{"android":"levelo://app?vid=04ad6851-d920-4498-bf6e-26f433337761","ios":"levelo://app?vid=04ad6851-d920-4498-bf6e-26f433337761"},"vehicle_type_id":"4","last_reported":1718975405,"current_range_meters":9600,"station_id":"ce4bgt12rcd13ifvqcd0","pricing_plan_id":"cebpf4jnsgd1na2vs0mg"},{"bike_id":"20f31c62-307b-4c16-93b6-6fcc5accd677","system_id":"levelo_inurba_marseille","lat":43.31467,"lon":5.37349,"is_reserved":false,"is_disabled":false,"rental_uris":{"android":"levelo://app?vid=20f31c62-307b-4c16-93b6-6fcc5accd677","ios":"levelo://app?vid=20f31c62-307b-4c16-93b6-6fcc5accd677"},"vehicle_type_id":"4","last_reported":1718975405,"current_range_meters":16400,"station_id":"","pricing_plan_id":"cebpf4jnsgd1na2vs0mg"},{"bike_id":"cdfbf88b-cd5c-4bbc-96fb-82adeb90a31c","system_id":"levelo_inurba_marseille","lat":43.309034,"lon":5.371783,"is_reserved":false,"is_disabled":false,"rental_uris":{"android":"levelo://app?vid=cdfbf88b-cd5c-4bbc-96fb-82adeb90a31c","ios":"levelo://app?vid=cdfbf88b-cd5c-4bbc-96fb-82adeb90a31c"},"vehicle_type_id":"4","last_reported":1718975405,"current_range_meters":14800,"station_id":"ce4bguh2rcd13ifvqckg","pricing_plan_id":"cebpf4jnsgd1na2vs0mg"},{"bike_id":"722a58b3-6709-4afb-8503-c27fc3c1b74d","system_id":"levelo_inurba_marseille","lat":43.309039,"lon":5.371797,"is_reserved":false,"is_disabled":false,"rental_uris":{"android":"levelo://app?vid=722a58b3-6709-4afb-8503-c27fc3c1b74d","ios":"levelo://app?vid=722a58b3-6709-4afb-8503-c27fc3c1b74d"},"vehicle_type_id":"4","last_reported":1718975405,"current_range_meters":24400,"station_id":"ce4bguh2rcd13ifvqckg","pricing_plan_id":"cebpf4jnsgd1na2vs0mg"},{"bike_id":"7c401a16-3105-469f-8218-7a50c47e3eda","system_id":"levelo_inurba_marseille","lat":43.305706,"lon":5.365654,"is_reserved":false,"is_disabled":false,"rental_uris":{"android":"levelo://app?vid=7c401a16-3105-469f-8218-7a50c47e3eda","ios":"levelo://app?vid=7c401a16-3105-469f-8218-7a50c47e3eda"},"vehicle_type_id":"4","last_reported":1718975405,"current_range_meters":28400,"station_id":"ce4bgs12rcd13ifvqcag","pricing_plan_id":"cebpf4jnsgd1na2vs0mg"},{"bike_id":"81cf6dde-1856-4796-8b62-804a54166f27","system_id":"levelo_inurba_marseille","lat":43.305989,"lon":5.37225,"is_reserved":false,"is_disabled":false,"rental_uris":{"android":"levelo://app?vid=81cf6dde-1856-4796-8b62-804a54166f27","ios":"levelo://app?vid=81cf6dde-1856-4796-8b62-804a54166f27"},"vehicle_type_id":"4","last_reported":1718975405,"current_range_meters":5200,"station_id":"ce4bgqh2rcd13ifvqc4g","pricing_plan_id":"cebpf4jnsgd1na2vs0mg"},{"bike_id":"3614a24a-ae47-42ea-b523-4dea4ad7efff","system_id":"levelo_inurba_marseille","lat":43.305989,"lon":5.37225,"is_reserved":false,"is_disabled":false,"rental_uris":{"android":"levelo://app?vid=3614a24a-ae47-42ea-b523-4dea4ad7efff","ios":"levelo://app?vid=3614a24a-ae47-42ea-b523-4dea4ad7efff"},"vehicle_type_id":"4","last_reported":1718975405,"current_range_meters":11600,"station_id":"ce4bgqh2rcd13ifvqc4g","pricing_plan_id":"cebpf4jnsgd1na2vs0mg"},{"bike_id":"a2276f12-5bef-456f-bfdd-df2019db7f23","system_id":"levelo_inurba_marseille","lat":43.305989,"lon":5.37225,"is_reserved":false,"is_disabled":false,"rental_uris":{"android":"levelo://app?vid=a2276f12-5bef-456f-bfdd-df2019db7f23","ios":"levelo://app?vid=a2276f12-5bef-456f-bfdd-df2019db7f23"},"vehicle_type_id":"4","last_reported":1718975405,"current_range_meters":30400,"station_id":"ce4bgqh2rcd13ifvqc4g","pricing_plan_id":"cebpf4jnsgd1na2vs0mg"},{"bike_id":"8c74b90d-2c42-4623-afc5-97192e94e567","system_id":"levelo_inurba_marseille","lat":43.311125,"lon":5.377624,"is_reserved":false,"is_disabled":false,"rental_uris":{"android":"levelo://app?vid=8c74b90d-2c42-4623-afc5-97192e94e567","ios":"levelo://app?vid=8c74b90d-2c42-4623-afc5-97192e94e567"},"vehicle_type_id":"4","last_reported":1718975405,"current_range_meters":7600,"station_id":"ce4bgt92rcd13ifvqcg0","pricing_plan_id":"cebpf4jnsgd1na2vs0mg"},{"bike_id":"b3500198-7a83-48cf-867b-167d182debd1","system_id":"levelo_inurba_marseille","lat":43.305989,"lon":5.37225,"is_reserved":false,"is_disabled":false,"rental_uris":{"android":"levelo://app?vid=b3500198-7a83-48cf-867b-167d182debd1","ios":"levelo://app?vid=b3500198-7a83-48cf-867b-167d182debd1"},"vehicle_type_id":"4","last_reported":1718975405,"current_range_meters":24800,"station_id":"ce4bgqh2rcd13ifvqc4g","pricing_plan_id":"cebpf4jnsgd1na2vs0mg"},{"bike_id":"d9bed178-c3d4-4666-a317-a33df8c09eb7","system_id":"levelo_inurba_marseille","lat":43.317075,"lon":5.377367,"is_reserved":false,"is_disabled":false,"rental_uris":{"android":"levelo://app?vid=d9bed178-c3d4-4666-a317-a33df8c09eb7","ios":"levelo://app?vid=d9bed178-c3d4-4666-a317-a33df8c09eb7"},"vehicle_type_id":"4","last_reported":1718975405,"current_range_meters":8000,"station_id":"ce4bgth2rcd13ifvqch0","pricing_plan_id":"cebpf4jnsgd1na2vs0mg"},{"bike_id":"a66afbfa-772b-4db4-bbc6-2c015b119cc6","system_id":"levelo_inurba_marseille","lat":43.317075,"lon":5.377367,"is_reserved":false,"is_disabled":false,"rental_uris":{"android":"levelo://app?vid=a66afbfa-772b-4db4-bbc6-2c015b119cc6","ios":"levelo://app?vid=a66afbfa-772b-4db4-bbc6-2c015b119cc6"},"vehicle_type_id":"4","last_reported":1718975405,"current_range_meters":22000,"station_id":"ce4bgth2rcd13ifvqch0","pricing_plan_id":"cebpf4jnsgd1na2vs0mg"},{"bike_id":"b2769161-ab87-4d37-908e-d9a689f3faa3","system_id":"levelo_inurba_marseille","lat":43.317075,"lon":5.377367,"is_reserved":false,"is_disabled":false,"rental_uris":{"android":"levelo://app?vid=b2769161-ab87-4d37-908e-d9a689f3faa3","ios":"levelo://app?vid=b2769161-ab87-4d37-908e-d9a689f3faa3"},"vehicle_type_id":"4","last_reported":1718975405,"current_range_meters":400,"station_id":"ce4bgth2rcd13ifvqch0","pricing_plan_id":"cebpf4jnsgd1na2vs0mg"},{"bike_id":"d3d198f2-5da1-45cd-9428-63c2fbabb694","system_id":"levelo_inurba_marseille","lat":43.31709,"lon":5.37752,"is_reserved":false,"is_disabled":false,"rental_uris":{"android":"levelo://app?vid=d3d198f2-5da1-45cd-9428-63c2fbabb694","ios":"levelo://app?vid=d3d198f2-5da1-45cd-9428-63c2fbabb694"},"vehicle_type_id":"4","last_reported":1718975405,"current_range_meters":22800,"station_id":"ce4bgth2rcd13ifvqch0","pricing_plan_id":"cebpf4jnsgd1na2vs0mg"},{"bike_id":"81f415d6-c49e-44b0-907d-2674ca6c4065","system_id":"levelo_inurba_marseille","lat":43.31708,"lon":5.37756,"is_reserved":false,"is_disabled":false,"rental_uris":{"android":"levelo://app?vid=81f415d6-c49e-44b0-907d-2674ca6c4065","ios":"levelo://app?vid=81f415d6-c49e-44b0-907d-2674ca6c4065"},"vehicle_type_id":"4","last_reported":1718975405,"current_range_meters":21600,"station_id":"ce4bgth2rcd13ifvqch0","pricing_plan_id":"cebpf4jnsgd1na2vs0mg"},{"bike_id":"1aa9382d-bd55-4aff-8971-b23615fccdae","system_id":"levelo_inurba_marseille","lat":43.31051,"lon":5.37878,"is_reserved":false,"is_disabled":false,"rental_uris":{"android":"levelo://app?vid=1aa9382d-bd55-4aff-8971-b23615fccdae","ios":"levelo://app?vid=1aa9382d-bd55-4aff-8971-b23615fccdae"},"vehicle_type_id":"4","last_reported":1718975405,"current_range_meters":5200,"station_id":"","pricing_plan_id":"cebpf4jnsgd1na2vs0mg"},{"bike_id":"303d38a4-98f6-48fa-8bd4-54fabe4e78dd","system_id":"levelo_inurba_marseille","lat":43.31724,"lon":5.3775,"is_reserved":false,"is_disabled":false,"rental_uris":{"android":"levelo://app?vid=303d38a4-98f6-48fa-8bd4-54fabe4e78dd","ios":"levelo://app?vid=303d38a4-98f6-48fa-8bd4-54fabe4e78dd"},"vehicle_type_id":"4","last_reported":1718975405,"current_range_meters":14000,"station_id":"ce4bgth2rcd13ifvqch0","pricing_plan_id":"cebpf4jnsgd1na2vs0mg"},{"bike_id":"30acfc05-f4e4-4335-8091-536478e13075","system_id":"levelo_inurba_marseille","lat":43.303046,"lon":5.368981,"is_reserved":false,"is_disabled":false,"rental_uris":{"android":"levelo://app?vid=30acfc05-f4e4-4335-8091-536478e13075","ios":"levelo://app?vid=30acfc05-f4e4-4335-8091-536478e13075"},"vehicle_type_id":"4","last_reported":1718975405,"current_range_meters":27200,"station_id":"ce4bgqh2rcd13ifvqc5g","pricing_plan_id":"cebpf4jnsgd1na2vs0mg"},{"bike_id":"ae8556f1-b659-47a8-86ac-b8dd8b51b99a","system_id":"levelo_inurba_marseille","lat":43.303046,"lon":5.368981,"is_reserved":false,"is_disabled":false,"rental_uris":{"android":"levelo://app?vid=ae8556f1-b659-47a8-86ac-b8dd8b51b99a","ios":"levelo://app?vid=ae8556f1-b659-47a8-86ac-b8dd8b51b99a"},"vehicle_type_id":"4","last_reported":1718975405,"current_range_meters":31200,"station_id":"ce4bgqh2rcd13ifvqc5g","pricing_plan_id":"cebpf4jnsgd1na2vs0mg"},{"bike_id":"d05a2401-1fc1-4bf1-8245-d9d9f699b5bb","system_id":"levelo_inurba_marseille","lat":43.30304,"lon":5.368987,"is_reserved":false,"is_disabled":false,"rental_uris":{"android":"levelo://app?vid=d05a2401-1fc1-4bf1-8245-d9d9f699b5bb","ios":"levelo://app?vid=d05a2401-1fc1-4bf1-8245-d9d9f699b5bb"},"vehicle_type_id":"4","last_reported":1718975405,"current_range_meters":0,"station_id":"ce4bgqh2rcd13ifvqc5g","pricing_plan_id":"cebpf4jnsgd1na2vs0mg"},{"bike_id":"9371636b-0442-4df7-9e5c-0c41cbdd81b8","system_id":"levelo_inurba_marseille","lat":43.315289,"lon":5.380349,"is_reserved":false,"is_disabled":false,"rental_uris":{"android":"levelo://app?vid=9371636b-0442-4df7-9e5c-0c41cbdd81b8","ios":"levelo://app?vid=9371636b-0442-4df7-9e5c-0c41cbdd81b8"},"vehicle_type_id":"4","last_reported":1718975405,"current_range_meters":28400,"station_id":"ce4bhsp2rcd13ifvqi50","pricing_plan_id":"cebpf4jnsgd1na2vs0mg"},{"bike_id":"0b936d4d-580a-4d35-8f8b-33f0a04d3352","system_id":"levelo_inurba_marseille","lat":43.315289,"lon":5.380349,"is_reserved":false,"is_disabled":false,"rental_uris":{"android":"levelo://app?vid=0b936d4d-580a-4d35-8f8b-33f0a04d3352","ios":"levelo://app?vid=0b936d4d-580a-4d35-8f8b-33f0a04d3352"},"vehicle_type_id":"4","last_reported":1718975405,"current_range_meters":32000,"station_id":"ce4bhsp2rcd13ifvqi50","pricing_plan_id":"cebpf4jnsgd1na2vs0mg"},{"bike_id":"3f6ebfce-715f-4adb-b249-8f772ad08407","system_id":"levelo_inurba_marseille","lat":43.315293,"lon":5.380349,"is_reserved":false,"is_disabled":false,"rental_uris":{"android":"levelo://app?vid=3f6ebfce-715f-4adb-b249-8f772ad08407","ios":"levelo://app?vid=3f6ebfce-715f-4adb-b249-8f772ad08407"},"vehicle_type_id":"4","last_reported":1718975405,"current_range_meters":19200,"station_id":"ce4bhsp2rcd13ifvqi50","pricing_plan_id":"cebpf4jnsgd1na2vs0mg"},{"bike_id":"93209d2f-4f93-49cb-a619-db532a18f5c5","system_id":"levelo_inurba_marseille","lat":43.30799,"lon":5.38143,"is_reserved":false,"is_disabled":false,"rental_uris":{"android":"levelo://app?vid=93209d2f-4f93-49cb-a619-db532a18f5c5","ios":"levelo://app?vid=93209d2f-4f93-49cb-a619-db532a18f5c5"},"vehicle_type_id":"4","last_reported":1718975405,"current_range_meters":0,"station_id":"ce4bgt12rcd13ifvqce0","pricing_plan_id":"cebpf4jnsgd1na2vs0mg"},{"bike_id":"1e37087b-ac87-49e2-bb62-bed3d7bc6bc2","system_id":"levelo_inurba_marseille","lat":43.308012,"lon":5.381511,"is_reserved":false,"is_disabled":false,"rental_uris":{"android":"levelo://app?vid=1e37087b-ac87-49e2-bb62-bed3d7bc6bc2","ios":"levelo://app?vid=1e37087b-ac87-49e2-bb62-bed3d7bc6bc2"},"vehicle_type_id":"4","last_reported":1718975405,"current_range_meters":16800,"station_id":"ce4bgt12rcd13ifvqce0","pricing_plan_id":"cebpf4jnsgd1na2vs0mg"},{"bike_id":"de8ade04-4d83-4906-81b4-1829fb778acf","system_id":"levelo_inurba_marseille","lat":43.304606,"lon":5.379026,"is_reserved":false,"is_disabled":false,"rental_uris":{"android":"levelo://app?vid=de8ade04-4d83-4906-81b4-1829fb778acf","ios":"levelo://app?vid=de8ade04-4d83-4906-81b4-1829fb778acf"},"vehicle_type_id":"4","last_reported":1718975405,"current_range_meters":31200,"station_id":"ce4bgup2rcd13ifvqcn0","pricing_plan_id":"cebpf4jnsgd1na2vs0mg"},{"bike_id":"2e4eedb6-9f53-4953-9163-a76b1ba2d868","system_id":"levelo_inurba_marseille","lat":43.324771,"lon":5.36557,"is_reserved":false,"is_disabled":false,"rental_uris":{"android":"levelo://app?vid=2e4eedb6-9f53-4953-9163-a76b1ba2d868","ios":"levelo://app?vid=2e4eedb6-9f53-4953-9163-a76b1ba2d868"},"vehicle_type_id":"4","last_reported":1718975405,"current_range_meters":14400,"station_id":"ce4bhs12rcd13ifvqhvg","pricing_plan_id":"cebpf4jnsgd1na2vs0mg"},{"bike_id":"8e468b9c-4943-4a7f-b300-b6c619812eea","system_id":"levelo_inurba_marseille","lat":43.28856,"lon":5.358371,"is_reserved":false,"is_disabled":false,"rental_uris":{"android":"levelo://app?vid=8e468b9c-4943-4a7f-b300-b6c619812eea","ios":"levelo://app?vid=8e468b9c-4943-4a7f-b300-b6c619812eea"},"vehicle_type_id":"4","last_reported":1718975405,"current_range_meters":7200,"station_id":"ce4bhb12rcd13ifvqem0","pricing_plan_id":"cebpf4jnsgd1na2vs0mg"},{"bike_id":"0cf4f2e2-150e-4567-bd04-06c956a4df89","system_id":"levelo_inurba_marseille","lat":43.32485,"lon":5.36565,"is_reserved":false,"is_disabled":false,"rental_uris":{"android":"levelo://app?vid=0cf4f2e2-150e-4567-bd04-06c956a4df89","ios":"levelo://app?vid=0cf4f2e2-150e-4567-bd04-06c956a4df89"},"vehicle_type_id":"4","last_reported":1718975405,"current_range_meters":0,"station_id":"ce4bhs12rcd13ifvqhvg","pricing_plan_id":"cebpf4jnsgd1na2vs0mg"},{"bike_id":"dc65d2e3-d19d-4648-93ab-94cbe1de5fd5","system_id":"levelo_inurba_marseille","lat":43.310768,"lon":5.383537,"is_reserved":false,"is_disabled":false,"rental_uris":{"android":"levelo://app?vid=dc65d2e3-d19d-4648-93ab-94cbe1de5fd5","ios":"levelo://app?vid=dc65d2e3-d19d-4648-93ab-94cbe1de5fd5"},"vehicle_type_id":"4","last_reported":1718975405,"current_range_meters":0,"station_id":"ce4bgv92rcd13ifvqcr0","pricing_plan_id":"cebpf4jnsgd1na2vs0mg"},{"bike_id":"1d3833c5-6812-4c4e-a723-b827ba6e8d65","system_id":"levelo_inurba_marseille","lat":43.31074,"lon":5.383611,"is_reserved":false,"is_disabled":false,"rental_uris":{"android":"levelo://app?vid=1d3833c5-6812-4c4e-a723-b827ba6e8d65","ios":"levelo://app?vid=1d3833c5-6812-4c4e-a723-b827ba6e8d65"},"vehicle_type_id":"4","last_reported":1718975405,"current_range_meters":0,"station_id":"ce4bgv92rcd13ifvqcr0","pricing_plan_id":"cebpf4jnsgd1na2vs0mg"},{"bike_id":"9af2e8ee-ff9b-43bc-a082-c8ec76cad69c","system_id":"levelo_inurba_marseille","lat":43.319935,"lon":5.381699,"is_reserved":false,"is_disabled":false,"rental_uris":{"android":"levelo://app?vid=9af2e8ee-ff9b-43bc-a082-c8ec76cad69c","ios":"levelo://app?vid=9af2e8ee-ff9b-43bc-a082-c8ec76cad69c"},"vehicle_type_id":"4","last_reported":1718975405,"current_range_meters":20400,"station_id":"ce4bhr12rcd13ifvqhpg","pricing_plan_id":"cebpf4jnsgd1na2vs0mg"},{"bike_id":"4f17b089-79cb-4f2e-a7e1-b736df93b457","system_id":"levelo_inurba_marseille","lat":43.319935,"lon":5.381699,"is_reserved":false,"is_disabled":false,"rental_uris":{"android":"levelo://app?vid=4f17b089-79cb-4f2e-a7e1-b736df93b457","ios":"levelo://app?vid=4f17b089-79cb-4f2e-a7e1-b736df93b457"},"vehicle_type_id":"4","last_reported":1718975405,"current_range_meters":400,"station_id":"ce4bhr12rcd13ifvqhpg","pricing_plan_id":"cebpf4jnsgd1na2vs0mg"},{"bike_id":"de80451a-e95b-4d67-85f7-351b6a87d9f3","system_id":"levelo_inurba_marseille","lat":43.313571,"lon":5.384829,"is_reserved":false,"is_disabled":false,"rental_uris":{"android":"levelo://app?vid=de80451a-e95b-4d67-85f7-351b6a87d9f3","ios":"levelo://app?vid=de80451a-e95b-4d67-85f7-351b6a87d9f3"},"vehicle_type_id":"4","last_reported":1718975405,"current_range_meters":12400,"station_id":"ce4bgt92rcd13ifvqcf0","pricing_plan_id":"cebpf4jnsgd1na2vs0mg"},{"bike_id":"ed6dd32c-b572-4209-93f5-25473d064bee","system_id":"levelo_inurba_marseille","lat":43.313571,"lon":5.384829,"is_reserved":false,"is_disabled":false,"rental_uris":{"android":"levelo://app?vid=ed6dd32c-b572-4209-93f5-25473d064bee","ios":"levelo://app?vid=ed6dd32c-b572-4209-93f5-25473d064bee"},"vehicle_type_id":"4","last_reported":1718975405,"current_range_meters":28400,"station_id":"ce4bgt92rcd13ifvqcf0","pricing_plan_id":"cebpf4jnsgd1na2vs0mg"},{"bike_id":"38467b22-1fb4-456f-869b-425e40282c2c","system_id":"levelo_inurba_marseille","lat":43.3136,"lon":5.385,"is_reserved":false,"is_disabled":false,"rental_uris":{"android":"levelo://app?vid=38467b22-1fb4-456f-869b-425e40282c2c","ios":"levelo://app?vid=38467b22-1fb4-456f-869b-425e40282c2c"},"vehicle_type_id":"4","last_reported":1718975405,"current_range_meters":0,"station_id":"ce4bgt92rcd13ifvqcf0","pricing_plan_id":"cebpf4jnsgd1na2vs0mg"},{"bike_id":"61b7f469-9c9e-4189-8fa9-3ac23d54fe58","system_id":"levelo_inurba_marseille","lat":43.313571,"lon":5.384829,"is_reserved":false,"is_disabled":false,"rental_uris":{"android":"levelo://app?vid=61b7f469-9c9e-4189-8fa9-3ac23d54fe58","ios":"levelo://app?vid=61b7f469-9c9e-4189-8fa9-3ac23d54fe58"},"vehicle_type_id":"4","last_reported":1718975405,"current_range_meters":22400,"station_id":"ce4bgt92rcd13ifvqcf0","pricing_plan_id":"cebpf4jnsgd1na2vs0mg"},{"bike_id":"277a28b4-c6fa-4b20-919a-c5deadf83041","system_id":"levelo_inurba_marseille","lat":43.299724,"lon":5.371829,"is_reserved":false,"is_disabled":false,"rental_uris":{"android":"levelo://app?vid=277a28b4-c6fa-4b20-919a-c5deadf83041","ios":"levelo://app?vid=277a28b4-c6fa-4b20-919a-c5deadf83041"},"vehicle_type_id":"4","last_reported":1718975405,"current_range_meters":23200,"station_id":"ce4bgr92rcd13ifvqc7g","pricing_plan_id":"cebpf4jnsgd1na2vs0mg"},{"bike_id":"6570b278-3d0f-4f6f-94ae-c503cad84b54","system_id":"levelo_inurba_marseille","lat":43.29938,"lon":5.36546,"is_reserved":false,"is_disabled":false,"rental_uris":{"android":"levelo://app?vid=6570b278-3d0f-4f6f-94ae-c503cad84b54","ios":"levelo://app?vid=6570b278-3d0f-4f6f-94ae-c503cad84b54"},"vehicle_type_id":"4","last_reported":1718975405,"current_range_meters":10000,"station_id":"ce4bgm92rcd13ifvqbr0","pricing_plan_id":"cebpf4jnsgd1na2vs0mg"},{"bike_id":"bf3f457a-f96a-419f-833a-4bd4003b3e72","system_id":"levelo_inurba_marseille","lat":43.299222,"lon":5.365554,"is_reserved":false,"is_disabled":false,"rental_uris":{"android":"levelo://app?vid=bf3f457a-f96a-419f-833a-4bd4003b3e72","ios":"levelo://app?vid=bf3f457a-f96a-419f-833a-4bd4003b3e72"},"vehicle_type_id":"4","last_reported":1718975405,"current_range_meters":21200,"station_id":"ce4bgm92rcd13ifvqbr0","pricing_plan_id":"cebpf4jnsgd1na2vs0mg"},{"bike_id":"dfceb115-aed8-4adf-925f-a8276409b3d7","system_id":"levelo_inurba_marseille","lat":43.299209,"lon":5.365547,"is_reserved":false,"is_disabled":false,"rental_uris":{"android":"levelo://app?vid=dfceb115-aed8-4adf-925f-a8276409b3d7","ios":"levelo://app?vid=dfceb115-aed8-4adf-925f-a8276409b3d7"},"vehicle_type_id":"4","last_reported":1718975405,"current_range_meters":22400,"station_id":"ce4bgm92rcd13ifvqbr0","pricing_plan_id":"cebpf4jnsgd1na2vs0mg"},{"bike_id":"97096b86-275a-4f72-9304-cf5f6cb65ec4","system_id":"levelo_inurba_marseille","lat":43.299724,"lon":5.371829,"is_reserved":false,"is_disabled":false,"rental_uris":{"android":"levelo://app?vid=97096b86-275a-4f72-9304-cf5f6cb65ec4","ios":"levelo://app?vid=97096b86-275a-4f72-9304-cf5f6cb65ec4"},"vehicle_type_id":"4","last_reported":1718975405,"current_range_meters":15600,"station_id":"ce4bgr92rcd13ifvqc7g","pricing_plan_id":"cebpf4jnsgd1na2vs0mg"},{"bike_id":"f2469fc5-52c5-464c-91ee-28efa0906b89","system_id":"levelo_inurba_marseille","lat":43.299724,"lon":5.371829,"is_reserved":false,"is_disabled":false,"rental_uris":{"android":"levelo://app?vid=f2469fc5-52c5-464c-91ee-28efa0906b89","ios":"levelo://app?vid=f2469fc5-52c5-464c-91ee-28efa0906b89"},"vehicle_type_id":"4","last_reported":1718975405,"current_range_meters":22800,"station_id":"ce4bgr92rcd13ifvqc7g","pricing_plan_id":"cebpf4jnsgd1na2vs0mg"},{"bike_id":"c8d74784-cfa3-4dc0-a55e-c53d6b6b7590","system_id":"levelo_inurba_marseille","lat":43.298562,"lon":5.363035,"is_reserved":false,"is_disabled":false,"rental_uris":{"android":"levelo://app?vid=c8d74784-cfa3-4dc0-a55e-c53d6b6b7590","ios":"levelo://app?vid=c8d74784-cfa3-4dc0-a55e-c53d6b6b7590"},"vehicle_type_id":"4","last_reported":1718975405,"current_range_meters":18800,"station_id":"ce4bgpp2rcd13ifvqc3g","pricing_plan_id":"cebpf4jnsgd1na2vs0mg"},{"bike_id":"4a179cdd-dae5-4002-81b7-2a46387b388e","system_id":"levelo_inurba_marseille","lat":43.298433,"lon":5.362774,"is_reserved":false,"is_disabled":false,"rental_uris":{"android":"levelo://app?vid=4a179cdd-dae5-4002-81b7-2a46387b388e","ios":"levelo://app?vid=4a179cdd-dae5-4002-81b7-2a46387b388e"},"vehicle_type_id":"4","last_reported":1718975405,"current_range_meters":16000,"station_id":"ce4bgpp2rcd13ifvqc3g","pricing_plan_id":"cebpf4jnsgd1na2vs0mg"},{"bike_id":"7a4f956c-54c1-4c9e-bf06-181f7b11231d","system_id":"levelo_inurba_marseille","lat":43.298433,"lon":5.362774,"is_reserved":false,"is_disabled":false,"rental_uris":{"android":"levelo://app?vid=7a4f956c-54c1-4c9e-bf06-181f7b11231d","ios":"levelo://app?vid=7a4f956c-54c1-4c9e-bf06-181f7b11231d"},"vehicle_type_id":"4","last_reported":1718975405,"current_range_meters":20800,"station_id":"ce4bgpp2rcd13ifvqc3g","pricing_plan_id":"cebpf4jnsgd1na2vs0mg"},{"bike_id":"d976d50d-adf0-4210-bfa0-a02f02cddbcd","system_id":"levelo_inurba_marseille","lat":43.298433,"lon":5.362774,"is_reserved":false,"is_disabled":false,"rental_uris":{"android":"levelo://app?vid=d976d50d-adf0-4210-bfa0-a02f02cddbcd","ios":"levelo://app?vid=d976d50d-adf0-4210-bfa0-a02f02cddbcd"},"vehicle_type_id":"4","last_reported":1718975405,"current_range_meters":14400,"station_id":"ce4bgpp2rcd13ifvqc3g","pricing_plan_id":"cebpf4jnsgd1na2vs0mg"},{"bike_id":"7c75d185-c653-42ea-85fd-68fd032a9560","system_id":"levelo_inurba_marseille","lat":43.31168,"lon":5.38719,"is_reserved":false,"is_disabled":false,"rental_uris":{"android":"levelo://app?vid=7c75d185-c653-42ea-85fd-68fd032a9560","ios":"levelo://app?vid=7c75d185-c653-42ea-85fd-68fd032a9560"},"vehicle_type_id":"4","last_reported":1718975405,"current_range_meters":19600,"station_id":"ce4bgv12rcd13ifvqcp0","pricing_plan_id":"cebpf4jnsgd1na2vs0mg"},{"bike_id":"3ae12918-7860-47be-aac5-d54ae234676a","system_id":"levelo_inurba_marseille","lat":43.322872,"lon":5.382756,"is_reserved":false,"is_disabled":false,"rental_uris":{"android":"levelo://app?vid=3ae12918-7860-47be-aac5-d54ae234676a","ios":"levelo://app?vid=3ae12918-7860-47be-aac5-d54ae234676a"},"vehicle_type_id":"4","last_reported":1718975405,"current_range_meters":16400,"station_id":"ce4bhr12rcd13ifvqhqg","pricing_plan_id":"cebpf4jnsgd1na2vs0mg"},{"bike_id":"b77ca0e9-ff7c-4e54-9766-3c23255dce9d","system_id":"levelo_inurba_marseille","lat":43.29632,"lon":5.37163,"is_reserved":false,"is_disabled":false,"rental_uris":{"android":"levelo://app?vid=b77ca0e9-ff7c-4e54-9766-3c23255dce9d","ios":"levelo://app?vid=b77ca0e9-ff7c-4e54-9766-3c23255dce9d"},"vehicle_type_id":"4","last_reported":1718975405,"current_range_meters":21600,"station_id":"ce4bgnh2rcd13ifvqc0g","pricing_plan_id":"cebpf4jnsgd1na2vs0mg"},{"bike_id":"eacb1c77-3f70-4f91-9ea0-10c80713eeef","system_id":"levelo_inurba_marseille","lat":43.29623,"lon":5.37171,"is_reserved":false,"is_disabled":false,"rental_uris":{"android":"levelo://app?vid=eacb1c77-3f70-4f91-9ea0-10c80713eeef","ios":"levelo://app?vid=eacb1c77-3f70-4f91-9ea0-10c80713eeef"},"vehicle_type_id":"4","last_reported":1718975405,"current_range_meters":31600,"station_id":"ce4bgnh2rcd13ifvqc0g","pricing_plan_id":"cebpf4jnsgd1na2vs0mg"},{"bike_id":"93e0633e-3199-4a1a-aaf8-1494540a9417","system_id":"levelo_inurba_marseille","lat":43.299028,"lon":5.381509,"is_reserved":false,"is_disabled":false,"rental_uris":{"android":"levelo://app?vid=93e0633e-3199-4a1a-aaf8-1494540a9417","ios":"levelo://app?vid=93e0633e-3199-4a1a-aaf8-1494540a9417"},"vehicle_type_id":"4","last_reported":1718975405,"current_range_meters":800,"station_id":"ce4bgj12rcd13ifvqbc0","pricing_plan_id":"cebpf4jnsgd1na2vs0mg"},{"bike_id":"5c343c5b-9e18-4f81-a17f-54bc4e383613","system_id":"levelo_inurba_marseille","lat":43.296921,"lon":5.376579,"is_reserved":false,"is_disabled":false,"rental_uris":{"android":"levelo://app?vid=5c343c5b-9e18-4f81-a17f-54bc4e383613","ios":"levelo://app?vid=5c343c5b-9e18-4f81-a17f-54bc4e383613"},"vehicle_type_id":"4","last_reported":1718975405,"current_range_meters":18400,"station_id":"ce4bgkh2rcd13ifvqbl0","pricing_plan_id":"cebpf4jnsgd1na2vs0mg"},{"bike_id":"0b2915df-e2c8-47f1-b660-f91f90c4fca2","system_id":"levelo_inurba_marseille","lat":43.296921,"lon":5.376579,"is_reserved":false,"is_disabled":false,"rental_uris":{"android":"levelo://app?vid=0b2915df-e2c8-47f1-b660-f91f90c4fca2","ios":"levelo://app?vid=0b2915df-e2c8-47f1-b660-f91f90c4fca2"},"vehicle_type_id":"4","last_reported":1718975405,"current_range_meters":29200,"station_id":"ce4bgkh2rcd13ifvqbl0","pricing_plan_id":"cebpf4jnsgd1na2vs0mg"},{"bike_id":"8e7d95be-ad1f-4ac3-9d2f-6eea985dd436","system_id":"levelo_inurba_marseille","lat":43.296921,"lon":5.376579,"is_reserved":false,"is_disabled":false,"rental_uris":{"android":"levelo://app?vid=8e7d95be-ad1f-4ac3-9d2f-6eea985dd436","ios":"levelo://app?vid=8e7d95be-ad1f-4ac3-9d2f-6eea985dd436"},"vehicle_type_id":"4","last_reported":1718975405,"current_range_meters":2000,"station_id":"ce4bgkh2rcd13ifvqbl0","pricing_plan_id":"cebpf4jnsgd1na2vs0mg"},{"bike_id":"49af6de6-0415-42cc-808d-ebcfb00a46bd","system_id":"levelo_inurba_marseille","lat":43.317557,"lon":5.390173,"is_reserved":false,"is_disabled":false,"rental_uris":{"android":"levelo://app?vid=49af6de6-0415-42cc-808d-ebcfb00a46bd","ios":"levelo://app?vid=49af6de6-0415-42cc-808d-ebcfb00a46bd"},"vehicle_type_id":"4","last_reported":1718975405,"current_range_meters":6400,"station_id":"ce4bhqp2rcd13ifvqhng","pricing_plan_id":"cebpf4jnsgd1na2vs0mg"},{"bike_id":"97cb19b7-26dd-4a4e-ba62-4a15570c3e5f","system_id":"levelo_inurba_marseille","lat":43.31758,"lon":5.390185,"is_reserved":false,"is_disabled":false,"rental_uris":{"android":"levelo://app?vid=97cb19b7-26dd-4a4e-ba62-4a15570c3e5f","ios":"levelo://app?vid=97cb19b7-26dd-4a4e-ba62-4a15570c3e5f"},"vehicle_type_id":"4","last_reported":1718975405,"current_range_meters":12800,"station_id":"ce4bhqp2rcd13ifvqhng","pricing_plan_id":"cebpf4jnsgd1na2vs0mg"},{"bike_id":"b522b4ab-189a-498e-ab7e-78d0c4cc9e23","system_id":"levelo_inurba_marseille","lat":43.317557,"lon":5.390173,"is_reserved":false,"is_disabled":false,"rental_uris":{"android":"levelo://app?vid=b522b4ab-189a-498e-ab7e-78d0c4cc9e23","ios":"levelo://app?vid=b522b4ab-189a-498e-ab7e-78d0c4cc9e23"},"vehicle_type_id":"4","last_reported":1718975405,"current_range_meters":17200,"station_id":"ce4bhqp2rcd13ifvqhng","pricing_plan_id":"cebpf4jnsgd1na2vs0mg"},{"bike_id":"c8281a94-0237-4191-b25d-fe33102367a8","system_id":"levelo_inurba_marseille","lat":43.298037,"lon":5.381066,"is_reserved":false,"is_disabled":false,"rental_uris":{"android":"levelo://app?vid=c8281a94-0237-4191-b25d-fe33102367a8","ios":"levelo://app?vid=c8281a94-0237-4191-b25d-fe33102367a8"},"vehicle_type_id":"4","last_reported":1718975405,"current_range_meters":14800,"station_id":"ce4bgip2rcd13ifvqbb0","pricing_plan_id":"cebpf4jnsgd1na2vs0mg"},{"bike_id":"c9443ceb-e8c0-496b-b949-84ebd05e2555","system_id":"levelo_inurba_marseille","lat":43.303435,"lon":5.387995,"is_reserved":false,"is_disabled":false,"rental_uris":{"android":"levelo://app?vid=c9443ceb-e8c0-496b-b949-84ebd05e2555","ios":"levelo://app?vid=c9443ceb-e8c0-496b-b949-84ebd05e2555"},"vehicle_type_id":"4","last_reported":1718975405,"current_range_meters":0,"station_id":"","pricing_plan_id":"cebpf4jnsgd1na2vs0mg"},{"bike_id":"af06caca-c178-461b-895a-2aaf33b17f90","system_id":"levelo_inurba_marseille","lat":43.295748,"lon":5.37522,"is_reserved":false,"is_disabled":false,"rental_uris":{"android":"levelo://app?vid=af06caca-c178-461b-895a-2aaf33b17f90","ios":"levelo://app?vid=af06caca-c178-461b-895a-2aaf33b17f90"},"vehicle_type_id":"4","last_reported":1718975405,"current_range_meters":29200,"station_id":"ce4bgh92rcd13ifvqb50","pricing_plan_id":"cebpf4jnsgd1na2vs0mg"},{"bike_id":"e6373c59-135d-4bcb-a705-80c459905df5","system_id":"levelo_inurba_marseille","lat":43.298037,"lon":5.381066,"is_reserved":false,"is_disabled":false,"rental_uris":{"android":"levelo://app?vid=e6373c59-135d-4bcb-a705-80c459905df5","ios":"levelo://app?vid=e6373c59-135d-4bcb-a705-80c459905df5"},"vehicle_type_id":"4","last_reported":1718975405,"current_range_meters":14800,"station_id":"ce4bgip2rcd13ifvqbb0","pricing_plan_id":"cebpf4jnsgd1na2vs0mg"},{"bike_id":"1c80d15d-ead0-42c2-9124-d7409a9914da","system_id":"levelo_inurba_marseille","lat":43.304274,"lon":5.388873,"is_reserved":false,"is_disabled":false,"rental_uris":{"android":"levelo://app?vid=1c80d15d-ead0-42c2-9124-d7409a9914da","ios":"levelo://app?vid=1c80d15d-ead0-42c2-9124-d7409a9914da"},"vehicle_type_id":"4","last_reported":1718975405,"current_range_meters":0,"station_id":"ce4bgk12rcd13ifvqbi0","pricing_plan_id":"cebpf4jnsgd1na2vs0mg"},{"bike_id":"4e480ea9-161f-4d4e-9dcc-ce7255128cd7","system_id":"levelo_inurba_marseille","lat":43.304274,"lon":5.388873,"is_reserved":false,"is_disabled":false,"rental_uris":{"android":"levelo://app?vid=4e480ea9-161f-4d4e-9dcc-ce7255128cd7","ios":"levelo://app?vid=4e480ea9-161f-4d4e-9dcc-ce7255128cd7"},"vehicle_type_id":"4","last_reported":1718975405,"current_range_meters":31200,"station_id":"ce4bgk12rcd13ifvqbi0","pricing_plan_id":"cebpf4jnsgd1na2vs0mg"},{"bike_id":"62229924-2427-4e61-a8ed-2906532e2161","system_id":"levelo_inurba_marseille","lat":43.298037,"lon":5.381066,"is_reserved":false,"is_disabled":false,"rental_uris":{"android":"levelo://app?vid=62229924-2427-4e61-a8ed-2906532e2161","ios":"levelo://app?vid=62229924-2427-4e61-a8ed-2906532e2161"},"vehicle_type_id":"4","last_reported":1718975405,"current_range_meters":12800,"station_id":"ce4bgip2rcd13ifvqbb0","pricing_plan_id":"cebpf4jnsgd1na2vs0mg"},{"bike_id":"d3340d6c-6646-4bdc-9300-93e44fa02a4f","system_id":"levelo_inurba_marseille","lat":43.296263,"lon":5.377094,"is_reserved":false,"is_disabled":false,"rental_uris":{"android":"levelo://app?vid=d3340d6c-6646-4bdc-9300-93e44fa02a4f","ios":"levelo://app?vid=d3340d6c-6646-4bdc-9300-93e44fa02a4f"},"vehicle_type_id":"4","last_reported":1718975405,"current_range_meters":24400,"station_id":"ce4bgi92rcd13ifvqb90","pricing_plan_id":"cebpf4jnsgd1na2vs0mg"},{"bike_id":"be621c3a-9c3c-4c9f-925c-6f920abb3674","system_id":"levelo_inurba_marseille","lat":43.296263,"lon":5.377094,"is_reserved":false,"is_disabled":false,"rental_uris":{"android":"levelo://app?vid=be621c3a-9c3c-4c9f-925c-6f920abb3674","ios":"levelo://app?vid=be621c3a-9c3c-4c9f-925c-6f920abb3674"},"vehicle_type_id":"4","last_reported":1718975405,"current_range_meters":27600,"station_id":"ce4bgi92rcd13ifvqb90","pricing_plan_id":"cebpf4jnsgd1na2vs0mg"},{"bike_id":"5579f12b-f8b7-4db2-97de-90ab504cb0f4","system_id":"levelo_inurba_marseille","lat":43.296263,"lon":5.377094,"is_reserved":false,"is_disabled":false,"rental_uris":{"android":"levelo://app?vid=5579f12b-f8b7-4db2-97de-90ab504cb0f4","ios":"levelo://app?vid=5579f12b-f8b7-4db2-97de-90ab504cb0f4"},"vehicle_type_id":"4","last_reported":1718975405,"current_range_meters":2400,"station_id":"ce4bgi92rcd13ifvqb90","pricing_plan_id":"cebpf4jnsgd1na2vs0mg"},{"bike_id":"5f8095d7-e29f-461e-b1e8-88ace98009f9","system_id":"levelo_inurba_marseille","lat":43.295279,"lon":5.375048,"is_reserved":false,"is_disabled":false,"rental_uris":{"android":"levelo://app?vid=5f8095d7-e29f-461e-b1e8-88ace98009f9","ios":"levelo://app?vid=5f8095d7-e29f-461e-b1e8-88ace98009f9"},"vehicle_type_id":"4","last_reported":1718975405,"current_range_meters":3600,"station_id":"ce4bgkp2rcd13ifvqbmg","pricing_plan_id":"cebpf4jnsgd1na2vs0mg"},{"bike_id":"e22de35d-1a55-4654-8e61-3315f3c96a1b","system_id":"levelo_inurba_marseille","lat":43.295279,"lon":5.375048,"is_reserved":false,"is_disabled":false,"rental_uris":{"android":"levelo://app?vid=e22de35d-1a55-4654-8e61-3315f3c96a1b","ios":"levelo://app?vid=e22de35d-1a55-4654-8e61-3315f3c96a1b"},"vehicle_type_id":"4","last_reported":1718975405,"current_range_meters":18400,"station_id":"ce4bgkp2rcd13ifvqbmg","pricing_plan_id":"cebpf4jnsgd1na2vs0mg"},{"bike_id":"08676b65-db34-46f7-abed-e0d96dbae199","system_id":"levelo_inurba_marseille","lat":43.32367,"lon":5.388836,"is_reserved":false,"is_disabled":false,"rental_uris":{"android":"levelo://app?vid=08676b65-db34-46f7-abed-e0d96dbae199","ios":"levelo://app?vid=08676b65-db34-46f7-abed-e0d96dbae199"},"vehicle_type_id":"4","last_reported":1718975405,"current_range_meters":28800,"station_id":"ce4bhqp2rcd13ifvqhog","pricing_plan_id":"cebpf4jnsgd1na2vs0mg"},{"bike_id":"f69f4f56-c75d-46b0-b47b-37a2504a43ad","system_id":"levelo_inurba_marseille","lat":43.29602,"lon":5.381084,"is_reserved":false,"is_disabled":false,"rental_uris":{"android":"levelo://app?vid=f69f4f56-c75d-46b0-b47b-37a2504a43ad","ios":"levelo://app?vid=f69f4f56-c75d-46b0-b47b-37a2504a43ad"},"vehicle_type_id":"4","last_reported":1718975405,"current_range_meters":14800,"station_id":"ce4bgl12rcd13ifvqbo0","pricing_plan_id":"cebpf4jnsgd1na2vs0mg"},{"bike_id":"f0789f0f-2d80-4c90-8ee3-bdf58e92540e","system_id":"levelo_inurba_marseille","lat":43.29602,"lon":5.381084,"is_reserved":false,"is_disabled":false,"rental_uris":{"android":"levelo://app?vid=f0789f0f-2d80-4c90-8ee3-bdf58e92540e","ios":"levelo://app?vid=f0789f0f-2d80-4c90-8ee3-bdf58e92540e"},"vehicle_type_id":"4","last_reported":1718975405,"current_range_meters":31200,"station_id":"ce4bgl12rcd13ifvqbo0","pricing_plan_id":"cebpf4jnsgd1na2vs0mg"},{"bike_id":"f0a06ee6-894e-4207-b787-3dfa28909862","system_id":"levelo_inurba_marseille","lat":43.292749,"lon":5.368398,"is_reserved":false,"is_disabled":false,"rental_uris":{"android":"levelo://app?vid=f0a06ee6-894e-4207-b787-3dfa28909862","ios":"levelo://app?vid=f0a06ee6-894e-4207-b787-3dfa28909862"},"vehicle_type_id":"4","last_reported":1718975405,"current_range_meters":23200,"station_id":"ce4bhbp2rcd13ifvqesg","pricing_plan_id":"cebpf4jnsgd1na2vs0mg"},{"bike_id":"68a84c48-c34e-4c1c-bdb1-a6e90e92adf9","system_id":"levelo_inurba_marseille","lat":43.293259,"lon":5.371586,"is_reserved":false,"is_disabled":false,"rental_uris":{"android":"levelo://app?vid=68a84c48-c34e-4c1c-bdb1-a6e90e92adf9","ios":"levelo://app?vid=68a84c48-c34e-4c1c-bdb1-a6e90e92adf9"},"vehicle_type_id":"4","last_reported":1718975405,"current_range_meters":5600,"station_id":"ce4bgh92rcd13ifvqb40","pricing_plan_id":"cebpf4jnsgd1na2vs0mg"},{"bike_id":"3ec3cdee-9265-421f-aedd-2f37860e3a93","system_id":"levelo_inurba_marseille","lat":43.292749,"lon":5.368402,"is_reserved":false,"is_disabled":false,"rental_uris":{"android":"levelo://app?vid=3ec3cdee-9265-421f-aedd-2f37860e3a93","ios":"levelo://app?vid=3ec3cdee-9265-421f-aedd-2f37860e3a93"},"vehicle_type_id":"4","last_reported":1718975405,"current_range_meters":24400,"station_id":"ce4bhbp2rcd13ifvqesg","pricing_plan_id":"cebpf4jnsgd1na2vs0mg"},{"bike_id":"23a96444-4031-4dfb-a14c-e401e86f0138","system_id":"levelo_inurba_marseille","lat":43.293009,"lon":5.374584,"is_reserved":false,"is_disabled":false,"rental_uris":{"android":"levelo://app?vid=23a96444-4031-4dfb-a14c-e401e86f0138","ios":"levelo://app?vid=23a96444-4031-4dfb-a14c-e401e86f0138"},"vehicle_type_id":"4","last_reported":1718975405,"current_range_meters":0,"station_id":"ce4bgi12rcd13ifvqb70","pricing_plan_id":"cebpf4jnsgd1na2vs0mg"},{"bike_id":"7d29f86e-8cd6-4cd2-8a92-1259c7e31de0","system_id":"levelo_inurba_marseille","lat":43.2936,"lon":5.37835,"is_reserved":false,"is_disabled":false,"rental_uris":{"android":"levelo://app?vid=7d29f86e-8cd6-4cd2-8a92-1259c7e31de0","ios":"levelo://app?vid=7d29f86e-8cd6-4cd2-8a92-1259c7e31de0"},"vehicle_type_id":"4","last_reported":1718975405,"current_range_meters":26000,"station_id":"ce4bgjh2rcd13ifvqbf0","pricing_plan_id":"cebpf4jnsgd1na2vs0mg"},{"bike_id":"f144b417-0b5f-48ff-af92-dbada4fbff5c","system_id":"levelo_inurba_marseille","lat":43.29382,"lon":5.378457,"is_reserved":false,"is_disabled":false,"rental_uris":{"android":"levelo://app?vid=f144b417-0b5f-48ff-af92-dbada4fbff5c","ios":"levelo://app?vid=f144b417-0b5f-48ff-af92-dbada4fbff5c"},"vehicle_type_id":"4","last_reported":1718975405,"current_range_meters":0,"station_id":"ce4bgjh2rcd13ifvqbf0","pricing_plan_id":"cebpf4jnsgd1na2vs0mg"},{"bike_id":"5688e59f-979d-4e56-aa38-5316b51873af","system_id":"levelo_inurba_marseille","lat":43.302992,"lon":5.392136,"is_reserved":false,"is_disabled":false,"rental_uris":{"android":"levelo://app?vid=5688e59f-979d-4e56-aa38-5316b51873af","ios":"levelo://app?vid=5688e59f-979d-4e56-aa38-5316b51873af"},"vehicle_type_id":"4","last_reported":1718975405,"current_range_meters":0,"station_id":"ce4bgkh2rcd13ifvqbk0","pricing_plan_id":"cebpf4jnsgd1na2vs0mg"},{"bike_id":"a523a96d-cc17-4dc1-84bd-425ca0d923e8","system_id":"levelo_inurba_marseille","lat":43.29379,"lon":5.37847,"is_reserved":false,"is_disabled":false,"rental_uris":{"android":"levelo://app?vid=a523a96d-cc17-4dc1-84bd-425ca0d923e8","ios":"levelo://app?vid=a523a96d-cc17-4dc1-84bd-425ca0d923e8"},"vehicle_type_id":"4","last_reported":1718975405,"current_range_meters":28400,"station_id":"ce4bgjh2rcd13ifvqbf0","pricing_plan_id":"cebpf4jnsgd1na2vs0mg"},{"bike_id":"a0a60d6b-9dbe-49d6-a929-251071753362","system_id":"levelo_inurba_marseille","lat":43.302992,"lon":5.392136,"is_reserved":false,"is_disabled":false,"rental_uris":{"android":"levelo://app?vid=a0a60d6b-9dbe-49d6-a929-251071753362","ios":"levelo://app?vid=a0a60d6b-9dbe-49d6-a929-251071753362"},"vehicle_type_id":"4","last_reported":1718975405,"current_range_meters":11200,"station_id":"ce4bgkh2rcd13ifvqbk0","pricing_plan_id":"cebpf4jnsgd1na2vs0mg"},{"bike_id":"750d1e3f-57d7-4570-a54c-5fb156d5bd0f","system_id":"levelo_inurba_marseille","lat":43.2936,"lon":5.37835,"is_reserved":false,"is_disabled":false,"rental_uris":{"android":"levelo://app?vid=750d1e3f-57d7-4570-a54c-5fb156d5bd0f","ios":"levelo://app?vid=750d1e3f-57d7-4570-a54c-5fb156d5bd0f"},"vehicle_type_id":"4","last_reported":1718975405,"current_range_meters":5200,"station_id":"ce4bgjh2rcd13ifvqbf0","pricing_plan_id":"cebpf4jnsgd1na2vs0mg"},{"bike_id":"7e514b48-c045-4faa-b6ea-afce786e4ead","system_id":"levelo_inurba_marseille","lat":43.292311,"lon":5.360731,"is_reserved":false,"is_disabled":false,"rental_uris":{"android":"levelo://app?vid=7e514b48-c045-4faa-b6ea-afce786e4ead","ios":"levelo://app?vid=7e514b48-c045-4faa-b6ea-afce786e4ead"},"vehicle_type_id":"4","last_reported":1718975405,"current_range_meters":800,"station_id":"ce4bhbh2rcd13ifvqeqg","pricing_plan_id":"cebpf4jnsgd1na2vs0mg"},{"bike_id":"687c2d5b-ef98-4e08-8e56-6b137caf87b4","system_id":"levelo_inurba_marseille","lat":43.29464,"lon":5.381367,"is_reserved":false,"is_disabled":false,"rental_uris":{"android":"levelo://app?vid=687c2d5b-ef98-4e08-8e56-6b137caf87b4","ios":"levelo://app?vid=687c2d5b-ef98-4e08-8e56-6b137caf87b4"},"vehicle_type_id":"4","last_reported":1718975405,"current_range_meters":18400,"station_id":"","pricing_plan_id":"cebpf4jnsgd1na2vs0mg"},{"bike_id":"5888793a-ff25-4cfd-8280-022ef464ce78","system_id":"levelo_inurba_marseille","lat":43.29229,"lon":5.36069,"is_reserved":false,"is_disabled":false,"rental_uris":{"android":"levelo://app?vid=5888793a-ff25-4cfd-8280-022ef464ce78","ios":"levelo://app?vid=5888793a-ff25-4cfd-8280-022ef464ce78"},"vehicle_type_id":"4","last_reported":1718975405,"current_range_meters":20000,"station_id":"","pricing_plan_id":"cebpf4jnsgd1na2vs0mg"},{"bike_id":"aada5cb4-4898-4d8e-b501-854e3075b98f","system_id":"levelo_inurba_marseille","lat":43.30085,"lon":5.390856,"is_reserved":false,"is_disabled":false,"rental_uris":{"android":"levelo://app?vid=aada5cb4-4898-4d8e-b501-854e3075b98f","ios":"levelo://app?vid=aada5cb4-4898-4d8e-b501-854e3075b98f"},"vehicle_type_id":"4","last_reported":1718975405,"current_range_meters":24800,"station_id":"ce4bh192rcd13ifvqdb0","pricing_plan_id":"cebpf4jnsgd1na2vs0mg"},{"bike_id":"6600cfec-b8b8-4862-b3cb-9f17fbb490ee","system_id":"levelo_inurba_marseille","lat":43.292311,"lon":5.360731,"is_reserved":false,"is_disabled":false,"rental_uris":{"android":"levelo://app?vid=6600cfec-b8b8-4862-b3cb-9f17fbb490ee","ios":"levelo://app?vid=6600cfec-b8b8-4862-b3cb-9f17fbb490ee"},"vehicle_type_id":"4","last_reported":1718975405,"current_range_meters":28400,"station_id":"ce4bhbh2rcd13ifvqeqg","pricing_plan_id":"cebpf4jnsgd1na2vs0mg"},{"bike_id":"0500c175-de00-4b43-862c-4d8739591887","system_id":"levelo_inurba_marseille","lat":43.292311,"lon":5.360731,"is_reserved":false,"is_disabled":false,"rental_uris":{"android":"levelo://app?vid=0500c175-de00-4b43-862c-4d8739591887","ios":"levelo://app?vid=0500c175-de00-4b43-862c-4d8739591887"},"vehicle_type_id":"4","last_reported":1718975405,"current_range_meters":21600,"station_id":"ce4bhbh2rcd13ifvqeqg","pricing_plan_id":"cebpf4jnsgd1na2vs0mg"},{"bike_id":"9b8c5f9c-907e-4625-93da-5d6cda8827d0","system_id":"levelo_inurba_marseille","lat":43.298764,"lon":5.388973,"is_reserved":false,"is_disabled":false,"rental_uris":{"android":"levelo://app?vid=9b8c5f9c-907e-4625-93da-5d6cda8827d0","ios":"levelo://app?vid=9b8c5f9c-907e-4625-93da-5d6cda8827d0"},"vehicle_type_id":"4","last_reported":1718975405,"current_range_meters":4000,"station_id":"ce4bh392rcd13ifvqdl0","pricing_plan_id":"cebpf4jnsgd1na2vs0mg"},{"bike_id":"e6d777b0-917c-45c1-a4f9-7dad0a472612","system_id":"levelo_inurba_marseille","lat":43.291675,"lon":5.371583,"is_reserved":false,"is_disabled":false,"rental_uris":{"android":"levelo://app?vid=e6d777b0-917c-45c1-a4f9-7dad0a472612","ios":"levelo://app?vid=e6d777b0-917c-45c1-a4f9-7dad0a472612"},"vehicle_type_id":"4","last_reported":1718975405,"current_range_meters":28800,"station_id":"ce4bha92rcd13ifvqeh0","pricing_plan_id":"cebpf4jnsgd1na2vs0mg"},{"bike_id":"df132aa6-554a-4ef1-a9dc-cc564145eab1","system_id":"levelo_inurba_marseille","lat":43.298764,"lon":5.388973,"is_reserved":false,"is_disabled":false,"rental_uris":{"android":"levelo://app?vid=df132aa6-554a-4ef1-a9dc-cc564145eab1","ios":"levelo://app?vid=df132aa6-554a-4ef1-a9dc-cc564145eab1"},"vehicle_type_id":"4","last_reported":1718975405,"current_range_meters":15200,"station_id":"ce4bh392rcd13ifvqdl0","pricing_plan_id":"cebpf4jnsgd1na2vs0mg"},{"bike_id":"99c55085-0491-43b8-ad03-73b288ac364c","system_id":"levelo_inurba_marseille","lat":43.292005,"lon":5.357875,"is_reserved":false,"is_disabled":false,"rental_uris":{"android":"levelo://app?vid=99c55085-0491-43b8-ad03-73b288ac364c","ios":"levelo://app?vid=99c55085-0491-43b8-ad03-73b288ac364c"},"vehicle_type_id":"4","last_reported":1718975405,"current_range_meters":14400,"station_id":"ce4bhb12rcd13ifvqel0","pricing_plan_id":"cebpf4jnsgd1na2vs0mg"},{"bike_id":"63efe98a-3411-42b0-8234-ec25a7b47708","system_id":"levelo_inurba_marseille","lat":43.309038,"lon":5.396546,"is_reserved":false,"is_disabled":false,"rental_uris":{"android":"levelo://app?vid=63efe98a-3411-42b0-8234-ec25a7b47708","ios":"levelo://app?vid=63efe98a-3411-42b0-8234-ec25a7b47708"},"vehicle_type_id":"4","last_reported":1718975405,"current_range_meters":31600,"station_id":"ce4bh012rcd13ifvqcv0","pricing_plan_id":"cebpf4jnsgd1na2vs0mg"},{"bike_id":"75e0f372-b8f7-43a9-8d62-32107a884e84","system_id":"levelo_inurba_marseille","lat":43.309038,"lon":5.396546,"is_reserved":false,"is_disabled":false,"rental_uris":{"android":"levelo://app?vid=75e0f372-b8f7-43a9-8d62-32107a884e84","ios":"levelo://app?vid=75e0f372-b8f7-43a9-8d62-32107a884e84"},"vehicle_type_id":"4","last_reported":1718975405,"current_range_meters":12800,"station_id":"ce4bh012rcd13ifvqcv0","pricing_plan_id":"cebpf4jnsgd1na2vs0mg"},{"bike_id":"07300a32-164a-42ad-86df-8f019aa571d9","system_id":"levelo_inurba_marseille","lat":43.309047,"lon":5.396551,"is_reserved":false,"is_disabled":false,"rental_uris":{"android":"levelo://app?vid=07300a32-164a-42ad-86df-8f019aa571d9","ios":"levelo://app?vid=07300a32-164a-42ad-86df-8f019aa571d9"},"vehicle_type_id":"4","last_reported":1718975405,"current_range_meters":2800,"station_id":"ce4bh012rcd13ifvqcv0","pricing_plan_id":"cebpf4jnsgd1na2vs0mg"},{"bike_id":"0676ddd9-220b-42c3-a9a8-9ed88c8bc05d","system_id":"levelo_inurba_marseille","lat":43.29529,"lon":5.385581,"is_reserved":false,"is_disabled":false,"rental_uris":{"android":"levelo://app?vid=0676ddd9-220b-42c3-a9a8-9ed88c8bc05d","ios":"levelo://app?vid=0676ddd9-220b-42c3-a9a8-9ed88c8bc05d"},"vehicle_type_id":"4","last_reported":1718975405,"current_range_meters":14800,"station_id":"ce4bgih2rcd13ifvqba0","pricing_plan_id":"cebpf4jnsgd1na2vs0mg"},{"bike_id":"75f5610b-ea4b-4944-856c-a7ed4bcd1f8f","system_id":"levelo_inurba_marseille","lat":43.292005,"lon":5.357875,"is_reserved":false,"is_disabled":false,"rental_uris":{"android":"levelo://app?vid=75f5610b-ea4b-4944-856c-a7ed4bcd1f8f","ios":"levelo://app?vid=75f5610b-ea4b-4944-856c-a7ed4bcd1f8f"},"vehicle_type_id":"4","last_reported":1718975405,"current_range_meters":5200,"station_id":"ce4bhb12rcd13ifvqel0","pricing_plan_id":"cebpf4jnsgd1na2vs0mg"},{"bike_id":"89c37443-62c1-4208-a4be-eb15caf81720","system_id":"levelo_inurba_marseille","lat":43.302008,"lon":5.394694,"is_reserved":false,"is_disabled":false,"rental_uris":{"android":"levelo://app?vid=89c37443-62c1-4208-a4be-eb15caf81720","ios":"levelo://app?vid=89c37443-62c1-4208-a4be-eb15caf81720"},"vehicle_type_id":"4","last_reported":1718975405,"current_range_meters":21200,"station_id":"ce4bh0p2rcd13ifvqd70","pricing_plan_id":"cebpf4jnsgd1na2vs0mg"},{"bike_id":"e13aa952-8914-4a5a-b0f2-1878a207ce9e","system_id":"levelo_inurba_marseille","lat":43.302008,"lon":5.394694,"is_reserved":false,"is_disabled":false,"rental_uris":{"android":"levelo://app?vid=e13aa952-8914-4a5a-b0f2-1878a207ce9e","ios":"levelo://app?vid=e13aa952-8914-4a5a-b0f2-1878a207ce9e"},"vehicle_type_id":"4","last_reported":1718975405,"current_range_meters":22400,"station_id":"ce4bh0p2rcd13ifvqd70","pricing_plan_id":"cebpf4jnsgd1na2vs0mg"},{"bike_id":"c1424065-d7cc-44a0-85f3-4ad6c7febb4e","system_id":"levelo_inurba_marseille","lat":43.290631,"lon":5.359244,"is_reserved":false,"is_disabled":false,"rental_uris":{"android":"levelo://app?vid=c1424065-d7cc-44a0-85f3-4ad6c7febb4e","ios":"levelo://app?vid=c1424065-d7cc-44a0-85f3-4ad6c7febb4e"},"vehicle_type_id":"4","last_reported":1718975405,"current_range_meters":4400,"station_id":"ce4bha92rcd13ifvqeg0","pricing_plan_id":"cebpf4jnsgd1na2vs0mg"},{"bike_id":"d07aabbe-b8fd-47af-aba6-e23c276da270","system_id":"levelo_inurba_marseille","lat":43.289623,"lon":5.364724,"is_reserved":false,"is_disabled":false,"rental_uris":{"android":"levelo://app?vid=d07aabbe-b8fd-47af-aba6-e23c276da270","ios":"levelo://app?vid=d07aabbe-b8fd-47af-aba6-e23c276da270"},"vehicle_type_id":"4","last_reported":1718975405,"current_range_meters":7200,"station_id":"","pricing_plan_id":"cebpf4jnsgd1na2vs0mg"},{"bike_id":"19d03d0b-6467-4627-b6be-1ea143e20603","system_id":"levelo_inurba_marseille","lat":43.294153,"lon":5.386305,"is_reserved":false,"is_disabled":false,"rental_uris":{"android":"levelo://app?vid=19d03d0b-6467-4627-b6be-1ea143e20603","ios":"levelo://app?vid=19d03d0b-6467-4627-b6be-1ea143e20603"},"vehicle_type_id":"4","last_reported":1718975405,"current_range_meters":29600,"station_id":"ce4bh2h2rcd13ifvqdh0","pricing_plan_id":"cebpf4jnsgd1na2vs0mg"},{"bike_id":"0fbe9038-c509-4856-a941-1bf15eb78b04","system_id":"levelo_inurba_marseille","lat":43.289184,"lon":5.366408,"is_reserved":false,"is_disabled":false,"rental_uris":{"android":"levelo://app?vid=0fbe9038-c509-4856-a941-1bf15eb78b04","ios":"levelo://app?vid=0fbe9038-c509-4856-a941-1bf15eb78b04"},"vehicle_type_id":"4","last_reported":1718975405,"current_range_meters":4000,"station_id":"ce4bhap2rcd13ifvqek0","pricing_plan_id":"cebpf4jnsgd1na2vs0mg"},{"bike_id":"70b941ed-bf0f-4b75-8000-92d1d57374f3","system_id":"levelo_inurba_marseille","lat":43.289468,"lon":5.363719,"is_reserved":false,"is_disabled":false,"rental_uris":{"android":"levelo://app?vid=70b941ed-bf0f-4b75-8000-92d1d57374f3","ios":"levelo://app?vid=70b941ed-bf0f-4b75-8000-92d1d57374f3"},"vehicle_type_id":"4","last_reported":1718975405,"current_range_meters":15200,"station_id":"ce4bhc92rcd13ifvqetg","pricing_plan_id":"cebpf4jnsgd1na2vs0mg"},{"bike_id":"c253b8fc-27ca-42a7-add8-a9434f429559","system_id":"levelo_inurba_marseille","lat":43.289468,"lon":5.363719,"is_reserved":false,"is_disabled":false,"rental_uris":{"android":"levelo://app?vid=c253b8fc-27ca-42a7-add8-a9434f429559","ios":"levelo://app?vid=c253b8fc-27ca-42a7-add8-a9434f429559"},"vehicle_type_id":"4","last_reported":1718975405,"current_range_meters":7600,"station_id":"ce4bhc92rcd13ifvqetg","pricing_plan_id":"cebpf4jnsgd1na2vs0mg"},{"bike_id":"7aa363cf-303b-4825-a1b0-1e0f4042d4a8","system_id":"levelo_inurba_marseille","lat":43.289468,"lon":5.363719,"is_reserved":false,"is_disabled":false,"rental_uris":{"android":"levelo://app?vid=7aa363cf-303b-4825-a1b0-1e0f4042d4a8","ios":"levelo://app?vid=7aa363cf-303b-4825-a1b0-1e0f4042d4a8"},"vehicle_type_id":"4","last_reported":1718975405,"current_range_meters":16400,"station_id":"ce4bhc92rcd13ifvqetg","pricing_plan_id":"cebpf4jnsgd1na2vs0mg"},{"bike_id":"2a71843a-63bb-432d-a7df-0f37e8c42286","system_id":"levelo_inurba_marseille","lat":43.289184,"lon":5.366408,"is_reserved":false,"is_disabled":false,"rental_uris":{"android":"levelo://app?vid=2a71843a-63bb-432d-a7df-0f37e8c42286","ios":"levelo://app?vid=2a71843a-63bb-432d-a7df-0f37e8c42286"},"vehicle_type_id":"4","last_reported":1718975405,"current_range_meters":22000,"station_id":"ce4bhap2rcd13ifvqek0","pricing_plan_id":"cebpf4jnsgd1na2vs0mg"},{"bike_id":"f74102c3-8383-4da3-aa39-290a32ae9f48","system_id":"levelo_inurba_marseille","lat":43.292642,"lon":5.384254,"is_reserved":false,"is_disabled":false,"rental_uris":{"android":"levelo://app?vid=f74102c3-8383-4da3-aa39-290a32ae9f48","ios":"levelo://app?vid=f74102c3-8383-4da3-aa39-290a32ae9f48"},"vehicle_type_id":"4","last_reported":1718975405,"current_range_meters":0,"station_id":"ce4bh692rcd13ifvqea0","pricing_plan_id":"cebpf4jnsgd1na2vs0mg"},{"bike_id":"e9b56888-bb83-4032-832d-ed8430811b8f","system_id":"levelo_inurba_marseille","lat":43.292642,"lon":5.384254,"is_reserved":false,"is_disabled":false,"rental_uris":{"android":"levelo://app?vid=e9b56888-bb83-4032-832d-ed8430811b8f","ios":"levelo://app?vid=e9b56888-bb83-4032-832d-ed8430811b8f"},"vehicle_type_id":"4","last_reported":1718975405,"current_range_meters":0,"station_id":"ce4bh692rcd13ifvqea0","pricing_plan_id":"cebpf4jnsgd1na2vs0mg"},{"bike_id":"58a8eff8-c346-4950-8336-46fe60839e98","system_id":"levelo_inurba_marseille","lat":43.29258,"lon":5.38426,"is_reserved":false,"is_disabled":false,"rental_uris":{"android":"levelo://app?vid=58a8eff8-c346-4950-8336-46fe60839e98","ios":"levelo://app?vid=58a8eff8-c346-4950-8336-46fe60839e98"},"vehicle_type_id":"4","last_reported":1718975405,"current_range_meters":2800,"station_id":"","pricing_plan_id":"cebpf4jnsgd1na2vs0mg"},{"bike_id":"230553dd-4e19-4978-96d3-7c710189335a","system_id":"levelo_inurba_marseille","lat":43.290103,"lon":5.356114,"is_reserved":false,"is_disabled":false,"rental_uris":{"android":"levelo://app?vid=230553dd-4e19-4978-96d3-7c710189335a","ios":"levelo://app?vid=230553dd-4e19-4978-96d3-7c710189335a"},"vehicle_type_id":"4","last_reported":1718975405,"current_range_meters":27600,"station_id":"ce4bhb92rcd13ifvqen0","pricing_plan_id":"cebpf4jnsgd1na2vs0mg"},{"bike_id":"e6df6068-3ed7-4057-b5d5-508dfcfdbc2f","system_id":"levelo_inurba_marseille","lat":43.290104,"lon":5.356111,"is_reserved":false,"is_disabled":false,"rental_uris":{"android":"levelo://app?vid=e6df6068-3ed7-4057-b5d5-508dfcfdbc2f","ios":"levelo://app?vid=e6df6068-3ed7-4057-b5d5-508dfcfdbc2f"},"vehicle_type_id":"4","last_reported":1718975405,"current_range_meters":18000,"station_id":"ce4bhb92rcd13ifvqen0","pricing_plan_id":"cebpf4jnsgd1na2vs0mg"},{"bike_id":"0d5c6987-0136-4ffb-90bb-6b0a065e75de","system_id":"levelo_inurba_marseille","lat":43.29007,"lon":5.35614,"is_reserved":false,"is_disabled":false,"rental_uris":{"android":"levelo://app?vid=0d5c6987-0136-4ffb-90bb-6b0a065e75de","ios":"levelo://app?vid=0d5c6987-0136-4ffb-90bb-6b0a065e75de"},"vehicle_type_id":"4","last_reported":1718975405,"current_range_meters":8000,"station_id":"ce4bhb92rcd13ifvqen0","pricing_plan_id":"cebpf4jnsgd1na2vs0mg"},{"bike_id":"be46278a-e336-424d-ba87-6d9ef8b597ba","system_id":"levelo_inurba_marseille","lat":43.290104,"lon":5.356111,"is_reserved":false,"is_disabled":false,"rental_uris":{"android":"levelo://app?vid=be46278a-e336-424d-ba87-6d9ef8b597ba","ios":"levelo://app?vid=be46278a-e336-424d-ba87-6d9ef8b597ba"},"vehicle_type_id":"4","last_reported":1718975405,"current_range_meters":10800,"station_id":"ce4bhb92rcd13ifvqen0","pricing_plan_id":"cebpf4jnsgd1na2vs0mg"},{"bike_id":"9039fe9a-bcc2-41b9-bf4e-8b34abf13d32","system_id":"levelo_inurba_marseille","lat":43.290103,"lon":5.356114,"is_reserved":false,"is_disabled":false,"rental_uris":{"android":"levelo://app?vid=9039fe9a-bcc2-41b9-bf4e-8b34abf13d32","ios":"levelo://app?vid=9039fe9a-bcc2-41b9-bf4e-8b34abf13d32"},"vehicle_type_id":"4","last_reported":1718975405,"current_range_meters":17200,"station_id":"ce4bhb92rcd13ifvqen0","pricing_plan_id":"cebpf4jnsgd1na2vs0mg"},{"bike_id":"c196d9f4-2088-421d-9084-aea4a25e453b","system_id":"levelo_inurba_marseille","lat":43.290104,"lon":5.356111,"is_reserved":false,"is_disabled":false,"rental_uris":{"android":"levelo://app?vid=c196d9f4-2088-421d-9084-aea4a25e453b","ios":"levelo://app?vid=c196d9f4-2088-421d-9084-aea4a25e453b"},"vehicle_type_id":"4","last_reported":1718975405,"current_range_meters":10400,"station_id":"ce4bhb92rcd13ifvqen0","pricing_plan_id":"cebpf4jnsgd1na2vs0mg"},{"bike_id":"3857a50e-c847-4039-8edb-e066908bd1d9","system_id":"levelo_inurba_marseille","lat":43.29005,"lon":5.35612,"is_reserved":false,"is_disabled":false,"rental_uris":{"android":"levelo://app?vid=3857a50e-c847-4039-8edb-e066908bd1d9","ios":"levelo://app?vid=3857a50e-c847-4039-8edb-e066908bd1d9"},"vehicle_type_id":"4","last_reported":1718975405,"current_range_meters":14400,"station_id":"ce4bhb92rcd13ifvqen0","pricing_plan_id":"cebpf4jnsgd1na2vs0mg"},{"bike_id":"05471d63-d3c1-4f84-9a05-d32526f75739","system_id":"levelo_inurba_marseille","lat":43.290103,"lon":5.356114,"is_reserved":false,"is_disabled":false,"rental_uris":{"android":"levelo://app?vid=05471d63-d3c1-4f84-9a05-d32526f75739","ios":"levelo://app?vid=05471d63-d3c1-4f84-9a05-d32526f75739"},"vehicle_type_id":"4","last_reported":1718975405,"current_range_meters":23200,"station_id":"ce4bhb92rcd13ifvqen0","pricing_plan_id":"cebpf4jnsgd1na2vs0mg"},{"bike_id":"b62418dd-6a45-4b43-bbae-b57ea1f21f0d","system_id":"levelo_inurba_marseille","lat":43.291045,"lon":5.38132,"is_reserved":false,"is_disabled":false,"rental_uris":{"android":"levelo://app?vid=b62418dd-6a45-4b43-bbae-b57ea1f21f0d","ios":"levelo://app?vid=b62418dd-6a45-4b43-bbae-b57ea1f21f0d"},"vehicle_type_id":"4","last_reported":1718975405,"current_range_meters":31200,"station_id":"ce4bh512rcd13ifvqe2g","pricing_plan_id":"cebpf4jnsgd1na2vs0mg"},{"bike_id":"1f7946dc-1353-430e-802d-beeb3a679874","system_id":"levelo_inurba_marseille","lat":43.291,"lon":5.3815,"is_reserved":false,"is_disabled":false,"rental_uris":{"android":"levelo://app?vid=1f7946dc-1353-430e-802d-beeb3a679874","ios":"levelo://app?vid=1f7946dc-1353-430e-802d-beeb3a679874"},"vehicle_type_id":"4","last_reported":1718975405,"current_range_meters":3200,"station_id":"ce4bh512rcd13ifvqe2g","pricing_plan_id":"cebpf4jnsgd1na2vs0mg"},{"bike_id":"5c7612a3-8666-4388-9a44-9a91d0a80ad1","system_id":"levelo_inurba_marseille","lat":43.290995,"lon":5.381361,"is_reserved":false,"is_disabled":false,"rental_uris":{"android":"levelo://app?vid=5c7612a3-8666-4388-9a44-9a91d0a80ad1","ios":"levelo://app?vid=5c7612a3-8666-4388-9a44-9a91d0a80ad1"},"vehicle_type_id":"4","last_reported":1718975405,"current_range_meters":8400,"station_id":"ce4bh512rcd13ifvqe2g","pricing_plan_id":"cebpf4jnsgd1na2vs0mg"},{"bike_id":"155f0f7e-7dd7-455b-befd-7d165ca413fb","system_id":"levelo_inurba_marseille","lat":43.297815,"lon":5.393548,"is_reserved":false,"is_disabled":false,"rental_uris":{"android":"levelo://app?vid=155f0f7e-7dd7-455b-befd-7d165ca413fb","ios":"levelo://app?vid=155f0f7e-7dd7-455b-befd-7d165ca413fb"},"vehicle_type_id":"4","last_reported":1718975405,"current_range_meters":30000,"station_id":"chh1huq6cuj3fo74tm60","pricing_plan_id":"cebpf4jnsgd1na2vs0mg"},{"bike_id":"ed833066-c963-46bb-b72e-2dbc33fbf24e","system_id":"levelo_inurba_marseille","lat":43.330442,"lon":5.389148,"is_reserved":false,"is_disabled":false,"rental_uris":{"android":"levelo://app?vid=ed833066-c963-46bb-b72e-2dbc33fbf24e","ios":"levelo://app?vid=ed833066-c963-46bb-b72e-2dbc33fbf24e"},"vehicle_type_id":"4","last_reported":1718975405,"current_range_meters":18000,"station_id":"ce4bhr92rcd13ifvqhrg","pricing_plan_id":"cebpf4jnsgd1na2vs0mg"},{"bike_id":"badb2abe-fffd-4c3e-804b-b639a8686ec5","system_id":"levelo_inurba_marseille","lat":43.295169,"lon":5.390426,"is_reserved":false,"is_disabled":false,"rental_uris":{"android":"levelo://app?vid=badb2abe-fffd-4c3e-804b-b639a8686ec5","ios":"levelo://app?vid=badb2abe-fffd-4c3e-804b-b639a8686ec5"},"vehicle_type_id":"4","last_reported":1718975405,"current_range_meters":23200,"station_id":"ce4bh3p2rcd13ifvqdp0","pricing_plan_id":"cebpf4jnsgd1na2vs0mg"},{"bike_id":"ccd01259-323d-4e40-8fe6-3b0f454e9d8a","system_id":"levelo_inurba_marseille","lat":43.2901,"lon":5.381269,"is_reserved":false,"is_disabled":false,"rental_uris":{"android":"levelo://app?vid=ccd01259-323d-4e40-8fe6-3b0f454e9d8a","ios":"levelo://app?vid=ccd01259-323d-4e40-8fe6-3b0f454e9d8a"},"vehicle_type_id":"4","last_reported":1718975405,"current_range_meters":4800,"station_id":"ce4bh4p2rcd13ifvqe1g","pricing_plan_id":"cebpf4jnsgd1na2vs0mg"},{"bike_id":"df5d5e1f-930b-4d11-bfee-758ae31b63d8","system_id":"levelo_inurba_marseille","lat":43.28856,"lon":5.358371,"is_reserved":false,"is_disabled":false,"rental_uris":{"android":"levelo://app?vid=df5d5e1f-930b-4d11-bfee-758ae31b63d8","ios":"levelo://app?vid=df5d5e1f-930b-4d11-bfee-758ae31b63d8"},"vehicle_type_id":"4","last_reported":1718975405,"current_range_meters":0,"station_id":"ce4bhb12rcd13ifvqem0","pricing_plan_id":"cebpf4jnsgd1na2vs0mg"},{"bike_id":"b968e08f-3983-43d6-9b22-a8c7a6b56bf7","system_id":"levelo_inurba_marseille","lat":43.28856,"lon":5.358371,"is_reserved":false,"is_disabled":false,"rental_uris":{"android":"levelo://app?vid=b968e08f-3983-43d6-9b22-a8c7a6b56bf7","ios":"levelo://app?vid=b968e08f-3983-43d6-9b22-a8c7a6b56bf7"},"vehicle_type_id":"4","last_reported":1718975405,"current_range_meters":0,"station_id":"ce4bhb12rcd13ifvqem0","pricing_plan_id":"cebpf4jnsgd1na2vs0mg"},{"bike_id":"7f210ad8-6a76-4e5a-a800-a43c09fee687","system_id":"levelo_inurba_marseille","lat":43.28856,"lon":5.358371,"is_reserved":false,"is_disabled":false,"rental_uris":{"android":"levelo://app?vid=7f210ad8-6a76-4e5a-a800-a43c09fee687","ios":"levelo://app?vid=7f210ad8-6a76-4e5a-a800-a43c09fee687"},"vehicle_type_id":"4","last_reported":1718975405,"current_range_meters":17600,"station_id":"ce4bhb12rcd13ifvqem0","pricing_plan_id":"cebpf4jnsgd1na2vs0mg"},{"bike_id":"8761adc9-1154-495f-ae62-289d234d5829","system_id":"levelo_inurba_marseille","lat":43.28854,"lon":5.35835,"is_reserved":false,"is_disabled":false,"rental_uris":{"android":"levelo://app?vid=8761adc9-1154-495f-ae62-289d234d5829","ios":"levelo://app?vid=8761adc9-1154-495f-ae62-289d234d5829"},"vehicle_type_id":"4","last_reported":1718975405,"current_range_meters":16400,"station_id":"ce4bhb12rcd13ifvqem0","pricing_plan_id":"cebpf4jnsgd1na2vs0mg"},{"bike_id":"47ec2846-85c8-499e-87c3-cd6e79557ecd","system_id":"levelo_inurba_marseille","lat":43.337258,"lon":5.374518,"is_reserved":false,"is_disabled":false,"rental_uris":{"android":"levelo://app?vid=47ec2846-85c8-499e-87c3-cd6e79557ecd","ios":"levelo://app?vid=47ec2846-85c8-499e-87c3-cd6e79557ecd"},"vehicle_type_id":"0","last_reported":1718975405,"current_range_meters":19600,"station_id":"","pricing_plan_id":"cebpf4jnsgd1na2vs0mg"},{"bike_id":"94371a9d-2e6b-47fa-9f7c-59ecde550c4a","system_id":"levelo_inurba_marseille","lat":43.337257,"lon":5.374553,"is_reserved":false,"is_disabled":false,"rental_uris":{"android":"levelo://app?vid=94371a9d-2e6b-47fa-9f7c-59ecde550c4a","ios":"levelo://app?vid=94371a9d-2e6b-47fa-9f7c-59ecde550c4a"},"vehicle_type_id":"0","last_reported":1718975405,"current_range_meters":21600,"station_id":"","pricing_plan_id":"cebpf4jnsgd1na2vs0mg"},{"bike_id":"890b8069-a312-4c26-b53a-f15a2127ab23","system_id":"levelo_inurba_marseille","lat":43.3129,"lon":5.40152,"is_reserved":false,"is_disabled":false,"rental_uris":{"android":"levelo://app?vid=890b8069-a312-4c26-b53a-f15a2127ab23","ios":"levelo://app?vid=890b8069-a312-4c26-b53a-f15a2127ab23"},"vehicle_type_id":"4","last_reported":1718975405,"current_range_meters":0,"station_id":"ce4bh092rcd13ifvqd30","pricing_plan_id":"cebpf4jnsgd1na2vs0mg"},{"bike_id":"0d22a285-135e-45f6-90b5-8d4d5e5e910d","system_id":"levelo_inurba_marseille","lat":43.33736,"lon":5.3746,"is_reserved":false,"is_disabled":false,"rental_uris":{"android":"levelo://app?vid=0d22a285-135e-45f6-90b5-8d4d5e5e910d","ios":"levelo://app?vid=0d22a285-135e-45f6-90b5-8d4d5e5e910d"},"vehicle_type_id":"0","last_reported":1718975405,"current_range_meters":20800,"station_id":"","pricing_plan_id":"cebpf4jnsgd1na2vs0mg"},{"bike_id":"35a6c7cc-7f0b-4683-84f4-e59f32e9618b","system_id":"levelo_inurba_marseille","lat":43.33741,"lon":5.3745,"is_reserved":false,"is_disabled":false,"rental_uris":{"android":"levelo://app?vid=35a6c7cc-7f0b-4683-84f4-e59f32e9618b","ios":"levelo://app?vid=35a6c7cc-7f0b-4683-84f4-e59f32e9618b"},"vehicle_type_id":"0","last_reported":1718975405,"current_range_meters":21600,"station_id":"","pricing_plan_id":"cebpf4jnsgd1na2vs0mg"},{"bike_id":"db534928-e6a2-47cc-a852-558fe66ed50c","system_id":"levelo_inurba_marseille","lat":43.337473,"lon":5.374668,"is_reserved":false,"is_disabled":false,"rental_uris":{"android":"levelo://app?vid=db534928-e6a2-47cc-a852-558fe66ed50c","ios":"levelo://app?vid=db534928-e6a2-47cc-a852-558fe66ed50c"},"vehicle_type_id":"4","last_reported":1718975405,"current_range_meters":22000,"station_id":"","pricing_plan_id":"cebpf4jnsgd1na2vs0mg"},{"bike_id":"05092e03-5cef-41c3-9575-df5db7507ebd","system_id":"levelo_inurba_marseille","lat":43.33751,"lon":5.3746,"is_reserved":false,"is_disabled":false,"rental_uris":{"android":"levelo://app?vid=05092e03-5cef-41c3-9575-df5db7507ebd","ios":"levelo://app?vid=05092e03-5cef-41c3-9575-df5db7507ebd"},"vehicle_type_id":"4","last_reported":1718975405,"current_range_meters":22800,"station_id":"","pricing_plan_id":"cebpf4jnsgd1na2vs0mg"},{"bike_id":"0ec88cc7-235f-4c57-827b-de9fa1851633","system_id":"levelo_inurba_marseille","lat":43.309371,"lon":5.401449,"is_reserved":false,"is_disabled":false,"rental_uris":{"android":"levelo://app?vid=0ec88cc7-235f-4c57-827b-de9fa1851633","ios":"levelo://app?vid=0ec88cc7-235f-4c57-827b-de9fa1851633"},"vehicle_type_id":"4","last_reported":1718975405,"current_range_meters":28800,"station_id":"ce4bgvp2rcd13ifvqct0","pricing_plan_id":"cebpf4jnsgd1na2vs0mg"},{"bike_id":"30550b42-5b7c-4cb0-a373-c9572ebcfe6f","system_id":"levelo_inurba_marseille","lat":43.33755,"lon":5.37446,"is_reserved":false,"is_disabled":false,"rental_uris":{"android":"levelo://app?vid=30550b42-5b7c-4cb0-a373-c9572ebcfe6f","ios":"levelo://app?vid=30550b42-5b7c-4cb0-a373-c9572ebcfe6f"},"vehicle_type_id":"4","last_reported":1718975405,"current_range_meters":24800,"station_id":"","pricing_plan_id":"cebpf4jnsgd1na2vs0mg"},{"bike_id":"0e11bbab-a5d9-4098-a6f1-624d89f27c59","system_id":"levelo_inurba_marseille","lat":43.337572,"lon":5.374546,"is_reserved":false,"is_disabled":false,"rental_uris":{"android":"levelo://app?vid=0e11bbab-a5d9-4098-a6f1-624d89f27c59","ios":"levelo://app?vid=0e11bbab-a5d9-4098-a6f1-624d89f27c59"},"vehicle_type_id":"4","last_reported":1718975405,"current_range_meters":28000,"station_id":"","pricing_plan_id":"cebpf4jnsgd1na2vs0mg"},{"bike_id":"c9b66a2b-0639-4d7a-b560-2bf673d8bd00","system_id":"levelo_inurba_marseille","lat":43.33033,"lon":5.39233,"is_reserved":false,"is_disabled":false,"rental_uris":{"android":"levelo://app?vid=c9b66a2b-0639-4d7a-b560-2bf673d8bd00","ios":"levelo://app?vid=c9b66a2b-0639-4d7a-b560-2bf673d8bd00"},"vehicle_type_id":"4","last_reported":1718975405,"current_range_meters":0,"station_id":"","pricing_plan_id":"cebpf4jnsgd1na2vs0mg"},{"bike_id":"a77bf3f1-dc55-4e35-8fe0-6292cee970ef","system_id":"levelo_inurba_marseille","lat":43.33035,"lon":5.39239,"is_reserved":false,"is_disabled":false,"rental_uris":{"android":"levelo://app?vid=a77bf3f1-dc55-4e35-8fe0-6292cee970ef","ios":"levelo://app?vid=a77bf3f1-dc55-4e35-8fe0-6292cee970ef"},"vehicle_type_id":"4","last_reported":1718975405,"current_range_meters":24800,"station_id":"","pricing_plan_id":"cebpf4jnsgd1na2vs0mg"},{"bike_id":"9f56fa28-1597-44b6-8272-80af6b891e68","system_id":"levelo_inurba_marseille","lat":43.306412,"lon":5.401035,"is_reserved":false,"is_disabled":false,"rental_uris":{"android":"levelo://app?vid=9f56fa28-1597-44b6-8272-80af6b891e68","ios":"levelo://app?vid=9f56fa28-1597-44b6-8272-80af6b891e68"},"vehicle_type_id":"4","last_reported":1718975405,"current_range_meters":0,"station_id":"ce4bh112rcd13ifvqda0","pricing_plan_id":"cebpf4jnsgd1na2vs0mg"},{"bike_id":"db70f108-117d-454f-bbd0-6abecca0bb8e","system_id":"levelo_inurba_marseille","lat":43.301117,"lon":5.398795,"is_reserved":false,"is_disabled":false,"rental_uris":{"android":"levelo://app?vid=db70f108-117d-454f-bbd0-6abecca0bb8e","ios":"levelo://app?vid=db70f108-117d-454f-bbd0-6abecca0bb8e"},"vehicle_type_id":"4","last_reported":1718975405,"current_range_meters":25600,"station_id":"ce4bh0h2rcd13ifvqd40","pricing_plan_id":"cebpf4jnsgd1na2vs0mg"},{"bike_id":"1529575d-3c24-4053-9dc4-3fc753c20a3e","system_id":"levelo_inurba_marseille","lat":43.3304,"lon":5.39281,"is_reserved":false,"is_disabled":false,"rental_uris":{"android":"levelo://app?vid=1529575d-3c24-4053-9dc4-3fc753c20a3e","ios":"levelo://app?vid=1529575d-3c24-4053-9dc4-3fc753c20a3e"},"vehicle_type_id":"4","last_reported":1718975405,"current_range_meters":5600,"station_id":"","pricing_plan_id":"cebpf4jnsgd1na2vs0mg"},{"bike_id":"6f1844ce-dc17-441d-95e2-703c51fb31f0","system_id":"levelo_inurba_marseille","lat":43.28896,"lon":5.35281,"is_reserved":false,"is_disabled":false,"rental_uris":{"android":"levelo://app?vid=6f1844ce-dc17-441d-95e2-703c51fb31f0","ios":"levelo://app?vid=6f1844ce-dc17-441d-95e2-703c51fb31f0"},"vehicle_type_id":"4","last_reported":1718975405,"current_range_meters":16000,"station_id":"","pricing_plan_id":"cebpf4jnsgd1na2vs0mg"},{"bike_id":"68b9b298-18ca-46ec-bc0d-edd4086f8528","system_id":"levelo_inurba_marseille","lat":43.28727,"lon":5.36078,"is_reserved":false,"is_disabled":false,"rental_uris":{"android":"levelo://app?vid=68b9b298-18ca-46ec-bc0d-edd4086f8528","ios":"levelo://app?vid=68b9b298-18ca-46ec-bc0d-edd4086f8528"},"vehicle_type_id":"4","last_reported":1718975405,"current_range_meters":17200,"station_id":"cki0cbj6b192h4jlfktg","pricing_plan_id":"cebpf4jnsgd1na2vs0mg"},{"bike_id":"23b3733a-407d-481d-bf81-b037b22c732a","system_id":"levelo_inurba_marseille","lat":43.286591,"lon":5.363346,"is_reserved":false,"is_disabled":false,"rental_uris":{"android":"levelo://app?vid=23b3733a-407d-481d-bf81-b037b22c732a","ios":"levelo://app?vid=23b3733a-407d-481d-bf81-b037b22c732a"},"vehicle_type_id":"4","last_reported":1718975405,"current_range_meters":14800,"station_id":"ce4bhah2rcd13ifvqej0","pricing_plan_id":"cebpf4jnsgd1na2vs0mg"},{"bike_id":"2250089a-f6ca-4b03-88e5-f0ff289bfbf1","system_id":"levelo_inurba_marseille","lat":43.286961,"lon":5.373785,"is_reserved":false,"is_disabled":false,"rental_uris":{"android":"levelo://app?vid=2250089a-f6ca-4b03-88e5-f0ff289bfbf1","ios":"levelo://app?vid=2250089a-f6ca-4b03-88e5-f0ff289bfbf1"},"vehicle_type_id":"4","last_reported":1718975405,"current_range_meters":0,"station_id":"ce4bh3p2rcd13ifvqdq0","pricing_plan_id":"cebpf4jnsgd1na2vs0mg"},{"bike_id":"184a3361-4040-42a2-aef5-bf8a1b22c095","system_id":"levelo_inurba_marseille","lat":43.286591,"lon":5.363346,"is_reserved":false,"is_disabled":false,"rental_uris":{"android":"levelo://app?vid=184a3361-4040-42a2-aef5-bf8a1b22c095","ios":"levelo://app?vid=184a3361-4040-42a2-aef5-bf8a1b22c095"},"vehicle_type_id":"4","last_reported":1718975405,"current_range_meters":28000,"station_id":"ce4bhah2rcd13ifvqej0","pricing_plan_id":"cebpf4jnsgd1na2vs0mg"},{"bike_id":"213f3c41-9d1c-4e7f-adf4-6a0315985488","system_id":"levelo_inurba_marseille","lat":43.286591,"lon":5.363346,"is_reserved":false,"is_disabled":false,"rental_uris":{"android":"levelo://app?vid=213f3c41-9d1c-4e7f-adf4-6a0315985488","ios":"levelo://app?vid=213f3c41-9d1c-4e7f-adf4-6a0315985488"},"vehicle_type_id":"4","last_reported":1718975405,"current_range_meters":16800,"station_id":"ce4bhah2rcd13ifvqej0","pricing_plan_id":"cebpf4jnsgd1na2vs0mg"},{"bike_id":"4d116ead-7904-4735-80d8-ed70502d7753","system_id":"levelo_inurba_marseille","lat":43.286593,"lon":5.363346,"is_reserved":false,"is_disabled":false,"rental_uris":{"android":"levelo://app?vid=4d116ead-7904-4735-80d8-ed70502d7753","ios":"levelo://app?vid=4d116ead-7904-4735-80d8-ed70502d7753"},"vehicle_type_id":"4","last_reported":1718975405,"current_range_meters":12000,"station_id":"ce4bhah2rcd13ifvqej0","pricing_plan_id":"cebpf4jnsgd1na2vs0mg"},{"bike_id":"fadbc896-5808-461e-bc63-9e1e95267198","system_id":"levelo_inurba_marseille","lat":43.286961,"lon":5.373785,"is_reserved":false,"is_disabled":false,"rental_uris":{"android":"levelo://app?vid=fadbc896-5808-461e-bc63-9e1e95267198","ios":"levelo://app?vid=fadbc896-5808-461e-bc63-9e1e95267198"},"vehicle_type_id":"4","last_reported":1718975405,"current_range_meters":27200,"station_id":"ce4bh3p2rcd13ifvqdq0","pricing_plan_id":"cebpf4jnsgd1na2vs0mg"},{"bike_id":"e02393b1-8712-42db-bd83-5c29a17e8571","system_id":"levelo_inurba_marseille","lat":43.286961,"lon":5.373785,"is_reserved":false,"is_disabled":false,"rental_uris":{"android":"levelo://app?vid=e02393b1-8712-42db-bd83-5c29a17e8571","ios":"levelo://app?vid=e02393b1-8712-42db-bd83-5c29a17e8571"},"vehicle_type_id":"4","last_reported":1718975405,"current_range_meters":11200,"station_id":"ce4bh3p2rcd13ifvqdq0","pricing_plan_id":"cebpf4jnsgd1na2vs0mg"},{"bike_id":"fb1a78df-5eea-4f78-a8e7-3ae4febbb010","system_id":"levelo_inurba_marseille","lat":43.316828,"lon":5.404723,"is_reserved":false,"is_disabled":false,"rental_uris":{"android":"levelo://app?vid=fb1a78df-5eea-4f78-a8e7-3ae4febbb010","ios":"levelo://app?vid=fb1a78df-5eea-4f78-a8e7-3ae4febbb010"},"vehicle_type_id":"4","last_reported":1718975405,"current_range_meters":400,"station_id":"ce4bh012rcd13ifvqd00","pricing_plan_id":"cebpf4jnsgd1na2vs0mg"},{"bike_id":"e92df1cf-f51a-42e9-9d86-6886a299f238","system_id":"levelo_inurba_marseille","lat":43.31689,"lon":5.40482,"is_reserved":false,"is_disabled":false,"rental_uris":{"android":"levelo://app?vid=e92df1cf-f51a-42e9-9d86-6886a299f238","ios":"levelo://app?vid=e92df1cf-f51a-42e9-9d86-6886a299f238"},"vehicle_type_id":"4","last_reported":1718975405,"current_range_meters":4400,"station_id":"ce4bh012rcd13ifvqd00","pricing_plan_id":"cebpf4jnsgd1na2vs0mg"},{"bike_id":"b93cf0f1-b6d1-4d08-8d22-c06bcef8f7a9","system_id":"levelo_inurba_marseille","lat":43.291994,"lon":5.392907,"is_reserved":false,"is_disabled":false,"rental_uris":{"android":"levelo://app?vid=b93cf0f1-b6d1-4d08-8d22-c06bcef8f7a9","ios":"levelo://app?vid=b93cf0f1-b6d1-4d08-8d22-c06bcef8f7a9"},"vehicle_type_id":"4","last_reported":1718975405,"current_range_meters":4800,"station_id":"ce4bh192rcd13ifvqdd0","pricing_plan_id":"cebpf4jnsgd1na2vs0mg"},{"bike_id":"e2a97a3d-d7cb-4384-abb3-faba03f60c30","system_id":"levelo_inurba_marseille","lat":43.291994,"lon":5.392907,"is_reserved":false,"is_disabled":false,"rental_uris":{"android":"levelo://app?vid=e2a97a3d-d7cb-4384-abb3-faba03f60c30","ios":"levelo://app?vid=e2a97a3d-d7cb-4384-abb3-faba03f60c30"},"vehicle_type_id":"4","last_reported":1718975405,"current_range_meters":18800,"station_id":"ce4bh192rcd13ifvqdd0","pricing_plan_id":"cebpf4jnsgd1na2vs0mg"},{"bike_id":"bc956cb7-a470-4b84-9039-0022e6c8e1fc","system_id":"levelo_inurba_marseille","lat":43.28672,"lon":5.38318,"is_reserved":false,"is_disabled":false,"rental_uris":{"android":"levelo://app?vid=bc956cb7-a470-4b84-9039-0022e6c8e1fc","ios":"levelo://app?vid=bc956cb7-a470-4b84-9039-0022e6c8e1fc"},"vehicle_type_id":"4","last_reported":1718975405,"current_range_meters":28800,"station_id":"","pricing_plan_id":"cebpf4jnsgd1na2vs0mg"},{"bike_id":"e2eb94da-08c3-44f0-8abc-3aed95b0f1d1","system_id":"levelo_inurba_marseille","lat":43.284534,"lon":5.358662,"is_reserved":false,"is_disabled":false,"rental_uris":{"android":"levelo://app?vid=e2eb94da-08c3-44f0-8abc-3aed95b0f1d1","ios":"levelo://app?vid=e2eb94da-08c3-44f0-8abc-3aed95b0f1d1"},"vehicle_type_id":"4","last_reported":1718975405,"current_range_meters":17200,"station_id":"ce4bhah2rcd13ifvqei0","pricing_plan_id":"cebpf4jnsgd1na2vs0mg"},{"bike_id":"04e0df10-ae13-4caa-beb7-df4824c98c52","system_id":"levelo_inurba_marseille","lat":43.284534,"lon":5.358662,"is_reserved":false,"is_disabled":false,"rental_uris":{"android":"levelo://app?vid=04e0df10-ae13-4caa-beb7-df4824c98c52","ios":"levelo://app?vid=04e0df10-ae13-4caa-beb7-df4824c98c52"},"vehicle_type_id":"4","last_reported":1718975405,"current_range_meters":28000,"station_id":"ce4bhah2rcd13ifvqei0","pricing_plan_id":"cebpf4jnsgd1na2vs0mg"},{"bike_id":"bc365083-7266-4c54-aaa4-034b4bb190c4","system_id":"levelo_inurba_marseille","lat":43.285856,"lon":5.350771,"is_reserved":false,"is_disabled":false,"rental_uris":{"android":"levelo://app?vid=bc365083-7266-4c54-aaa4-034b4bb190c4","ios":"levelo://app?vid=bc365083-7266-4c54-aaa4-034b4bb190c4"},"vehicle_type_id":"4","last_reported":1718975405,"current_range_meters":31600,"station_id":"ce4bhch2rcd13ifvqeug","pricing_plan_id":"cebpf4jnsgd1na2vs0mg"},{"bike_id":"077bb202-0b81-408d-88a2-fc4470bdbf32","system_id":"levelo_inurba_marseille","lat":43.285856,"lon":5.350771,"is_reserved":false,"is_disabled":false,"rental_uris":{"android":"levelo://app?vid=077bb202-0b81-408d-88a2-fc4470bdbf32","ios":"levelo://app?vid=077bb202-0b81-408d-88a2-fc4470bdbf32"},"vehicle_type_id":"4","last_reported":1718975405,"current_range_meters":13200,"station_id":"ce4bhch2rcd13ifvqeug","pricing_plan_id":"cebpf4jnsgd1na2vs0mg"},{"bike_id":"6335e14c-7691-48d9-9ae8-6367278a8ab2","system_id":"levelo_inurba_marseille","lat":43.285856,"lon":5.350771,"is_reserved":false,"is_disabled":false,"rental_uris":{"android":"levelo://app?vid=6335e14c-7691-48d9-9ae8-6367278a8ab2","ios":"levelo://app?vid=6335e14c-7691-48d9-9ae8-6367278a8ab2"},"vehicle_type_id":"4","last_reported":1718975405,"current_range_meters":16400,"station_id":"ce4bhch2rcd13ifvqeug","pricing_plan_id":"cebpf4jnsgd1na2vs0mg"},{"bike_id":"70f94f05-335f-48b3-848c-c3de81ab617f","system_id":"levelo_inurba_marseille","lat":43.285856,"lon":5.350771,"is_reserved":false,"is_disabled":false,"rental_uris":{"android":"levelo://app?vid=70f94f05-335f-48b3-848c-c3de81ab617f","ios":"levelo://app?vid=70f94f05-335f-48b3-848c-c3de81ab617f"},"vehicle_type_id":"4","last_reported":1718975405,"current_range_meters":12000,"station_id":"ce4bhch2rcd13ifvqeug","pricing_plan_id":"cebpf4jnsgd1na2vs0mg"},{"bike_id":"cf4d68a3-a5d3-44b6-b0f3-ced79016fd55","system_id":"levelo_inurba_marseille","lat":43.28617,"lon":5.35105,"is_reserved":false,"is_disabled":false,"rental_uris":{"android":"levelo://app?vid=cf4d68a3-a5d3-44b6-b0f3-ced79016fd55","ios":"levelo://app?vid=cf4d68a3-a5d3-44b6-b0f3-ced79016fd55"},"vehicle_type_id":"4","last_reported":1718975405,"current_range_meters":31200,"station_id":"ce4bhch2rcd13ifvqeug","pricing_plan_id":"cebpf4jnsgd1na2vs0mg"},{"bike_id":"130fcb20-168e-4e3c-a324-76f0546d9354","system_id":"levelo_inurba_marseille","lat":43.285856,"lon":5.350771,"is_reserved":false,"is_disabled":false,"rental_uris":{"android":"levelo://app?vid=130fcb20-168e-4e3c-a324-76f0546d9354","ios":"levelo://app?vid=130fcb20-168e-4e3c-a324-76f0546d9354"},"vehicle_type_id":"4","last_reported":1718975405,"current_range_meters":7200,"station_id":"ce4bhch2rcd13ifvqeug","pricing_plan_id":"cebpf4jnsgd1na2vs0mg"},{"bike_id":"a6078aa0-ade9-440e-96e2-9621cef76ec9","system_id":"levelo_inurba_marseille","lat":43.285856,"lon":5.350771,"is_reserved":false,"is_disabled":false,"rental_uris":{"android":"levelo://app?vid=a6078aa0-ade9-440e-96e2-9621cef76ec9","ios":"levelo://app?vid=a6078aa0-ade9-440e-96e2-9621cef76ec9"},"vehicle_type_id":"4","last_reported":1718975405,"current_range_meters":24000,"station_id":"ce4bhch2rcd13ifvqeug","pricing_plan_id":"cebpf4jnsgd1na2vs0mg"},{"bike_id":"a0ab25b7-3853-4764-98db-e6aebd7d058f","system_id":"levelo_inurba_marseille","lat":43.285856,"lon":5.350771,"is_reserved":false,"is_disabled":false,"rental_uris":{"android":"levelo://app?vid=a0ab25b7-3853-4764-98db-e6aebd7d058f","ios":"levelo://app?vid=a0ab25b7-3853-4764-98db-e6aebd7d058f"},"vehicle_type_id":"4","last_reported":1718975405,"current_range_meters":31200,"station_id":"ce4bhch2rcd13ifvqeug","pricing_plan_id":"cebpf4jnsgd1na2vs0mg"},{"bike_id":"07d95970-4932-4c6a-b77f-b40fbf764a94","system_id":"levelo_inurba_marseille","lat":43.285856,"lon":5.350771,"is_reserved":false,"is_disabled":false,"rental_uris":{"android":"levelo://app?vid=07d95970-4932-4c6a-b77f-b40fbf764a94","ios":"levelo://app?vid=07d95970-4932-4c6a-b77f-b40fbf764a94"},"vehicle_type_id":"4","last_reported":1718975405,"current_range_meters":2800,"station_id":"ce4bhch2rcd13ifvqeug","pricing_plan_id":"cebpf4jnsgd1na2vs0mg"},{"bike_id":"d9f3d9c4-307c-4830-95ea-2bc00c348015","system_id":"levelo_inurba_marseille","lat":43.285856,"lon":5.350771,"is_reserved":false,"is_disabled":false,"rental_uris":{"android":"levelo://app?vid=d9f3d9c4-307c-4830-95ea-2bc00c348015","ios":"levelo://app?vid=d9f3d9c4-307c-4830-95ea-2bc00c348015"},"vehicle_type_id":"4","last_reported":1718975405,"current_range_meters":20400,"station_id":"ce4bhch2rcd13ifvqeug","pricing_plan_id":"cebpf4jnsgd1na2vs0mg"},{"bike_id":"a407081c-7a0f-4862-b7bf-59e4b01d8798","system_id":"levelo_inurba_marseille","lat":43.285856,"lon":5.350771,"is_reserved":false,"is_disabled":false,"rental_uris":{"android":"levelo://app?vid=a407081c-7a0f-4862-b7bf-59e4b01d8798","ios":"levelo://app?vid=a407081c-7a0f-4862-b7bf-59e4b01d8798"},"vehicle_type_id":"4","last_reported":1718975405,"current_range_meters":16000,"station_id":"ce4bhch2rcd13ifvqeug","pricing_plan_id":"cebpf4jnsgd1na2vs0mg"},{"bike_id":"f1e16af7-2f63-4ce4-813e-c227201f2345","system_id":"levelo_inurba_marseille","lat":43.285856,"lon":5.350771,"is_reserved":false,"is_disabled":false,"rental_uris":{"android":"levelo://app?vid=f1e16af7-2f63-4ce4-813e-c227201f2345","ios":"levelo://app?vid=f1e16af7-2f63-4ce4-813e-c227201f2345"},"vehicle_type_id":"4","last_reported":1718975405,"current_range_meters":30800,"station_id":"ce4bhch2rcd13ifvqeug","pricing_plan_id":"cebpf4jnsgd1na2vs0mg"},{"bike_id":"670d7bcc-19cd-44eb-be26-5af8cb29d08e","system_id":"levelo_inurba_marseille","lat":43.285856,"lon":5.350771,"is_reserved":false,"is_disabled":false,"rental_uris":{"android":"levelo://app?vid=670d7bcc-19cd-44eb-be26-5af8cb29d08e","ios":"levelo://app?vid=670d7bcc-19cd-44eb-be26-5af8cb29d08e"},"vehicle_type_id":"4","last_reported":1718975405,"current_range_meters":14800,"station_id":"ce4bhch2rcd13ifvqeug","pricing_plan_id":"cebpf4jnsgd1na2vs0mg"},{"bike_id":"a65203d1-2537-4369-a301-5f76af68e907","system_id":"levelo_inurba_marseille","lat":43.285856,"lon":5.350771,"is_reserved":false,"is_disabled":false,"rental_uris":{"android":"levelo://app?vid=a65203d1-2537-4369-a301-5f76af68e907","ios":"levelo://app?vid=a65203d1-2537-4369-a301-5f76af68e907"},"vehicle_type_id":"4","last_reported":1718975405,"current_range_meters":31200,"station_id":"ce4bhch2rcd13ifvqeug","pricing_plan_id":"cebpf4jnsgd1na2vs0mg"},{"bike_id":"42644d06-fddc-4a74-af6e-48c95b2e8b53","system_id":"levelo_inurba_marseille","lat":43.285856,"lon":5.350771,"is_reserved":false,"is_disabled":false,"rental_uris":{"android":"levelo://app?vid=42644d06-fddc-4a74-af6e-48c95b2e8b53","ios":"levelo://app?vid=42644d06-fddc-4a74-af6e-48c95b2e8b53"},"vehicle_type_id":"4","last_reported":1718975405,"current_range_meters":30000,"station_id":"ce4bhch2rcd13ifvqeug","pricing_plan_id":"cebpf4jnsgd1na2vs0mg"},{"bike_id":"d7717c98-0084-4bfb-be06-55d123011226","system_id":"levelo_inurba_marseille","lat":43.282744,"lon":5.350533,"is_reserved":false,"is_disabled":false,"rental_uris":{"android":"levelo://app?vid=d7717c98-0084-4bfb-be06-55d123011226","ios":"levelo://app?vid=d7717c98-0084-4bfb-be06-55d123011226"},"vehicle_type_id":"4","last_reported":1718975405,"current_range_meters":11200,"station_id":"ce4bhbp2rcd13ifvqerg","pricing_plan_id":"cebpf4jnsgd1na2vs0mg"},{"bike_id":"d3c482e1-72b8-4583-a67e-caf4a26aa066","system_id":"levelo_inurba_marseille","lat":43.285856,"lon":5.350771,"is_reserved":false,"is_disabled":false,"rental_uris":{"android":"levelo://app?vid=d3c482e1-72b8-4583-a67e-caf4a26aa066","ios":"levelo://app?vid=d3c482e1-72b8-4583-a67e-caf4a26aa066"},"vehicle_type_id":"4","last_reported":1718975405,"current_range_meters":15600,"station_id":"ce4bhch2rcd13ifvqeug","pricing_plan_id":"cebpf4jnsgd1na2vs0mg"},{"bike_id":"f7a07b7e-7768-476a-a30b-c89676193252","system_id":"levelo_inurba_marseille","lat":43.285856,"lon":5.350771,"is_reserved":false,"is_disabled":false,"rental_uris":{"android":"levelo://app?vid=f7a07b7e-7768-476a-a30b-c89676193252","ios":"levelo://app?vid=f7a07b7e-7768-476a-a30b-c89676193252"},"vehicle_type_id":"4","last_reported":1718975405,"current_range_meters":31200,"station_id":"ce4bhch2rcd13ifvqeug","pricing_plan_id":"cebpf4jnsgd1na2vs0mg"},{"bike_id":"5532452b-2b7e-4b8a-816a-be6d72a3657a","system_id":"levelo_inurba_marseille","lat":43.283998,"lon":5.375062,"is_reserved":false,"is_disabled":false,"rental_uris":{"android":"levelo://app?vid=5532452b-2b7e-4b8a-816a-be6d72a3657a","ios":"levelo://app?vid=5532452b-2b7e-4b8a-816a-be6d72a3657a"},"vehicle_type_id":"4","last_reported":1718975405,"current_range_meters":0,"station_id":"ce4bh412rcd13ifvqds0","pricing_plan_id":"cebpf4jnsgd1na2vs0mg"},{"bike_id":"06456707-e40e-4d10-badd-42a2799648e1","system_id":"levelo_inurba_marseille","lat":43.295713,"lon":5.399639,"is_reserved":false,"is_disabled":false,"rental_uris":{"android":"levelo://app?vid=06456707-e40e-4d10-badd-42a2799648e1","ios":"levelo://app?vid=06456707-e40e-4d10-badd-42a2799648e1"},"vehicle_type_id":"4","last_reported":1718975405,"current_range_meters":21200,"station_id":"ce4bh312rcd13ifvqdj0","pricing_plan_id":"cebpf4jnsgd1na2vs0mg"},{"bike_id":"21bec8ff-cf3b-423b-aba4-7bd3dcdf5867","system_id":"levelo_inurba_marseille","lat":43.283998,"lon":5.375062,"is_reserved":false,"is_disabled":false,"rental_uris":{"android":"levelo://app?vid=21bec8ff-cf3b-423b-aba4-7bd3dcdf5867","ios":"levelo://app?vid=21bec8ff-cf3b-423b-aba4-7bd3dcdf5867"},"vehicle_type_id":"4","last_reported":1718975405,"current_range_meters":15200,"station_id":"ce4bh412rcd13ifvqds0","pricing_plan_id":"cebpf4jnsgd1na2vs0mg"},{"bike_id":"c4e8f4e8-6937-4965-aafa-481b5f0d7bd3","system_id":"levelo_inurba_marseille","lat":43.319179,"lon":5.407725,"is_reserved":false,"is_disabled":false,"rental_uris":{"android":"levelo://app?vid=c4e8f4e8-6937-4965-aafa-481b5f0d7bd3","ios":"levelo://app?vid=c4e8f4e8-6937-4965-aafa-481b5f0d7bd3"},"vehicle_type_id":"4","last_reported":1718975405,"current_range_meters":25200,"station_id":"ce4bhq12rcd13ifvqhig","pricing_plan_id":"cebpf4jnsgd1na2vs0mg"},{"bike_id":"69f2b5a2-af51-43fa-b601-8c814ceedfa0","system_id":"levelo_inurba_marseille","lat":43.31889,"lon":5.4073,"is_reserved":false,"is_disabled":false,"rental_uris":{"android":"levelo://app?vid=69f2b5a2-af51-43fa-b601-8c814ceedfa0","ios":"levelo://app?vid=69f2b5a2-af51-43fa-b601-8c814ceedfa0"},"vehicle_type_id":"4","last_reported":1718975405,"current_range_meters":5200,"station_id":"ce4bhq12rcd13ifvqhig","pricing_plan_id":"cebpf4jnsgd1na2vs0mg"},{"bike_id":"8b715652-734b-43bd-8612-afc1050920dd","system_id":"levelo_inurba_marseille","lat":43.31879,"lon":5.40776,"is_reserved":false,"is_disabled":false,"rental_uris":{"android":"levelo://app?vid=8b715652-734b-43bd-8612-afc1050920dd","ios":"levelo://app?vid=8b715652-734b-43bd-8612-afc1050920dd"},"vehicle_type_id":"4","last_reported":1718975405,"current_range_meters":0,"station_id":"ce4bhq12rcd13ifvqhig","pricing_plan_id":"cebpf4jnsgd1na2vs0mg"},{"bike_id":"5394714c-29bb-47ae-b103-9216d2456bcb","system_id":"levelo_inurba_marseille","lat":43.337198,"lon":5.391676,"is_reserved":false,"is_disabled":false,"rental_uris":{"android":"levelo://app?vid=5394714c-29bb-47ae-b103-9216d2456bcb","ios":"levelo://app?vid=5394714c-29bb-47ae-b103-9216d2456bcb"},"vehicle_type_id":"4","last_reported":1718975405,"current_range_meters":2800,"station_id":"ce4bhr92rcd13ifvqhsg","pricing_plan_id":"cebpf4jnsgd1na2vs0mg"},{"bike_id":"6548e4c8-a652-4b42-947b-3bd17464115f","system_id":"levelo_inurba_marseille","lat":43.3372,"lon":5.39189,"is_reserved":false,"is_disabled":false,"rental_uris":{"android":"levelo://app?vid=6548e4c8-a652-4b42-947b-3bd17464115f","ios":"levelo://app?vid=6548e4c8-a652-4b42-947b-3bd17464115f"},"vehicle_type_id":"4","last_reported":1718975405,"current_range_meters":24000,"station_id":"ce4bhr92rcd13ifvqhsg","pricing_plan_id":"cebpf4jnsgd1na2vs0mg"},{"bike_id":"f476d628-1740-4739-bb0c-93219bfe931e","system_id":"levelo_inurba_marseille","lat":43.33727,"lon":5.39182,"is_reserved":false,"is_disabled":false,"rental_uris":{"android":"levelo://app?vid=f476d628-1740-4739-bb0c-93219bfe931e","ios":"levelo://app?vid=f476d628-1740-4739-bb0c-93219bfe931e"},"vehicle_type_id":"4","last_reported":1718975405,"current_range_meters":1200,"station_id":"ce4bhr92rcd13ifvqhsg","pricing_plan_id":"cebpf4jnsgd1na2vs0mg"},{"bike_id":"3ed689f0-7c8d-4263-b2e5-eb7c84d21ef6","system_id":"levelo_inurba_marseille","lat":43.323464,"lon":5.406297,"is_reserved":false,"is_disabled":false,"rental_uris":{"android":"levelo://app?vid=3ed689f0-7c8d-4263-b2e5-eb7c84d21ef6","ios":"levelo://app?vid=3ed689f0-7c8d-4263-b2e5-eb7c84d21ef6"},"vehicle_type_id":"4","last_reported":1718975405,"current_range_meters":31200,"station_id":"ce4bhq92rcd13ifvqhjg","pricing_plan_id":"cebpf4jnsgd1na2vs0mg"},{"bike_id":"c8ffbc8b-f9a6-4296-8206-614c11107a81","system_id":"levelo_inurba_marseille","lat":43.323464,"lon":5.406297,"is_reserved":false,"is_disabled":false,"rental_uris":{"android":"levelo://app?vid=c8ffbc8b-f9a6-4296-8206-614c11107a81","ios":"levelo://app?vid=c8ffbc8b-f9a6-4296-8206-614c11107a81"},"vehicle_type_id":"4","last_reported":1718975405,"current_range_meters":27200,"station_id":"ce4bhq92rcd13ifvqhjg","pricing_plan_id":"cebpf4jnsgd1na2vs0mg"},{"bike_id":"905d0491-ad91-4bee-8163-df211e0f0a99","system_id":"levelo_inurba_marseille","lat":43.3234,"lon":5.40623,"is_reserved":false,"is_disabled":false,"rental_uris":{"android":"levelo://app?vid=905d0491-ad91-4bee-8163-df211e0f0a99","ios":"levelo://app?vid=905d0491-ad91-4bee-8163-df211e0f0a99"},"vehicle_type_id":"4","last_reported":1718975405,"current_range_meters":22800,"station_id":"ce4bhq92rcd13ifvqhjg","pricing_plan_id":"cebpf4jnsgd1na2vs0mg"},{"bike_id":"6f1c6770-2851-46de-ba73-f92d03e6bf93","system_id":"levelo_inurba_marseille","lat":43.297946,"lon":5.404063,"is_reserved":false,"is_disabled":false,"rental_uris":{"android":"levelo://app?vid=6f1c6770-2851-46de-ba73-f92d03e6bf93","ios":"levelo://app?vid=6f1c6770-2851-46de-ba73-f92d03e6bf93"},"vehicle_type_id":"4","last_reported":1718975405,"current_range_meters":26800,"station_id":"ce4bh112rcd13ifvqd90","pricing_plan_id":"cebpf4jnsgd1na2vs0mg"},{"bike_id":"46324fdd-95ce-4bd8-a606-8d0a6e19499f","system_id":"levelo_inurba_marseille","lat":43.297946,"lon":5.404063,"is_reserved":false,"is_disabled":false,"rental_uris":{"android":"levelo://app?vid=46324fdd-95ce-4bd8-a606-8d0a6e19499f","ios":"levelo://app?vid=46324fdd-95ce-4bd8-a606-8d0a6e19499f"},"vehicle_type_id":"4","last_reported":1718975405,"current_range_meters":10000,"station_id":"ce4bh112rcd13ifvqd90","pricing_plan_id":"cebpf4jnsgd1na2vs0mg"},{"bike_id":"c2137afc-fcf1-4f9c-bc6f-833bb22d41d5","system_id":"levelo_inurba_marseille","lat":43.288501,"lon":5.393087,"is_reserved":false,"is_disabled":false,"rental_uris":{"android":"levelo://app?vid=c2137afc-fcf1-4f9c-bc6f-833bb22d41d5","ios":"levelo://app?vid=c2137afc-fcf1-4f9c-bc6f-833bb22d41d5"},"vehicle_type_id":"4","last_reported":1718975405,"current_range_meters":17600,"station_id":"ce4bh2p2rcd13ifvqdi0","pricing_plan_id":"cebpf4jnsgd1na2vs0mg"},{"bike_id":"420f2376-cf12-4924-b7a1-ed1b6f0d4b1d","system_id":"levelo_inurba_marseille","lat":43.288501,"lon":5.393087,"is_reserved":false,"is_disabled":false,"rental_uris":{"android":"levelo://app?vid=420f2376-cf12-4924-b7a1-ed1b6f0d4b1d","ios":"levelo://app?vid=420f2376-cf12-4924-b7a1-ed1b6f0d4b1d"},"vehicle_type_id":"4","last_reported":1718975405,"current_range_meters":4800,"station_id":"ce4bh2p2rcd13ifvqdi0","pricing_plan_id":"cebpf4jnsgd1na2vs0mg"},{"bike_id":"362057cb-fd3d-4e76-a7b2-277fa618be26","system_id":"levelo_inurba_marseille","lat":43.284219,"lon":5.3497,"is_reserved":false,"is_disabled":false,"rental_uris":{"android":"levelo://app?vid=362057cb-fd3d-4e76-a7b2-277fa618be26","ios":"levelo://app?vid=362057cb-fd3d-4e76-a7b2-277fa618be26"},"vehicle_type_id":"4","last_reported":1718975405,"current_range_meters":29600,"station_id":"ce4bhbh2rcd13ifvqepg","pricing_plan_id":"cebpf4jnsgd1na2vs0mg"},{"bike_id":"d88045bc-07d6-47c4-a624-af47bf74c148","system_id":"levelo_inurba_marseille","lat":43.284217,"lon":5.349697,"is_reserved":false,"is_disabled":false,"rental_uris":{"android":"levelo://app?vid=d88045bc-07d6-47c4-a624-af47bf74c148","ios":"levelo://app?vid=d88045bc-07d6-47c4-a624-af47bf74c148"},"vehicle_type_id":"4","last_reported":1718975405,"current_range_meters":17200,"station_id":"ce4bhbh2rcd13ifvqepg","pricing_plan_id":"cebpf4jnsgd1na2vs0mg"},{"bike_id":"c8b11a4d-df1b-4c35-b605-fb21001686f2","system_id":"levelo_inurba_marseille","lat":43.284217,"lon":5.349697,"is_reserved":false,"is_disabled":false,"rental_uris":{"android":"levelo://app?vid=c8b11a4d-df1b-4c35-b605-fb21001686f2","ios":"levelo://app?vid=c8b11a4d-df1b-4c35-b605-fb21001686f2"},"vehicle_type_id":"4","last_reported":1718975405,"current_range_meters":8400,"station_id":"ce4bhbh2rcd13ifvqepg","pricing_plan_id":"cebpf4jnsgd1na2vs0mg"},{"bike_id":"cd97de13-bbcd-4da8-bab0-1bb1d3195d69","system_id":"levelo_inurba_marseille","lat":43.284217,"lon":5.349697,"is_reserved":false,"is_disabled":false,"rental_uris":{"android":"levelo://app?vid=cd97de13-bbcd-4da8-bab0-1bb1d3195d69","ios":"levelo://app?vid=cd97de13-bbcd-4da8-bab0-1bb1d3195d69"},"vehicle_type_id":"4","last_reported":1718975405,"current_range_meters":14800,"station_id":"ce4bhbh2rcd13ifvqepg","pricing_plan_id":"cebpf4jnsgd1na2vs0mg"},{"bike_id":"5fd5291b-8cc7-4cae-9119-3d8570ec666b","system_id":"levelo_inurba_marseille","lat":43.284219,"lon":5.3497,"is_reserved":false,"is_disabled":false,"rental_uris":{"android":"levelo://app?vid=5fd5291b-8cc7-4cae-9119-3d8570ec666b","ios":"levelo://app?vid=5fd5291b-8cc7-4cae-9119-3d8570ec666b"},"vehicle_type_id":"4","last_reported":1718975405,"current_range_meters":31200,"station_id":"ce4bhbh2rcd13ifvqepg","pricing_plan_id":"cebpf4jnsgd1na2vs0mg"},{"bike_id":"b8aa8296-5ba6-40af-9a67-34eadf21f695","system_id":"levelo_inurba_marseille","lat":43.284214,"lon":5.349706,"is_reserved":false,"is_disabled":false,"rental_uris":{"android":"levelo://app?vid=b8aa8296-5ba6-40af-9a67-34eadf21f695","ios":"levelo://app?vid=b8aa8296-5ba6-40af-9a67-34eadf21f695"},"vehicle_type_id":"4","last_reported":1718975405,"current_range_meters":23600,"station_id":"ce4bhbh2rcd13ifvqepg","pricing_plan_id":"cebpf4jnsgd1na2vs0mg"},{"bike_id":"592ed8da-5954-4a98-9bc2-213ef8a8d4f2","system_id":"levelo_inurba_marseille","lat":43.284219,"lon":5.3497,"is_reserved":false,"is_disabled":false,"rental_uris":{"android":"levelo://app?vid=592ed8da-5954-4a98-9bc2-213ef8a8d4f2","ios":"levelo://app?vid=592ed8da-5954-4a98-9bc2-213ef8a8d4f2"},"vehicle_type_id":"4","last_reported":1718975405,"current_range_meters":15200,"station_id":"ce4bhbh2rcd13ifvqepg","pricing_plan_id":"cebpf4jnsgd1na2vs0mg"},{"bike_id":"95f5641c-5cea-4aa3-a080-9f639e166cdb","system_id":"levelo_inurba_marseille","lat":43.284219,"lon":5.3497,"is_reserved":false,"is_disabled":false,"rental_uris":{"android":"levelo://app?vid=95f5641c-5cea-4aa3-a080-9f639e166cdb","ios":"levelo://app?vid=95f5641c-5cea-4aa3-a080-9f639e166cdb"},"vehicle_type_id":"4","last_reported":1718975405,"current_range_meters":24800,"station_id":"ce4bhbh2rcd13ifvqepg","pricing_plan_id":"cebpf4jnsgd1na2vs0mg"},{"bike_id":"3abd61d8-e8d6-4622-962a-c11e9c282544","system_id":"levelo_inurba_marseille","lat":43.284219,"lon":5.3497,"is_reserved":false,"is_disabled":false,"rental_uris":{"android":"levelo://app?vid=3abd61d8-e8d6-4622-962a-c11e9c282544","ios":"levelo://app?vid=3abd61d8-e8d6-4622-962a-c11e9c282544"},"vehicle_type_id":"4","last_reported":1718975405,"current_range_meters":9200,"station_id":"ce4bhbh2rcd13ifvqepg","pricing_plan_id":"cebpf4jnsgd1na2vs0mg"},{"bike_id":"4089728f-cf48-4fbf-b929-3b3968ef2cb7","system_id":"levelo_inurba_marseille","lat":43.284219,"lon":5.3497,"is_reserved":false,"is_disabled":false,"rental_uris":{"android":"levelo://app?vid=4089728f-cf48-4fbf-b929-3b3968ef2cb7","ios":"levelo://app?vid=4089728f-cf48-4fbf-b929-3b3968ef2cb7"},"vehicle_type_id":"4","last_reported":1718975405,"current_range_meters":29600,"station_id":"ce4bhbh2rcd13ifvqepg","pricing_plan_id":"cebpf4jnsgd1na2vs0mg"},{"bike_id":"16b68037-8836-4ef5-ad9c-97aa2704703e","system_id":"levelo_inurba_marseille","lat":43.284217,"lon":5.349697,"is_reserved":false,"is_disabled":false,"rental_uris":{"android":"levelo://app?vid=16b68037-8836-4ef5-ad9c-97aa2704703e","ios":"levelo://app?vid=16b68037-8836-4ef5-ad9c-97aa2704703e"},"vehicle_type_id":"4","last_reported":1718975405,"current_range_meters":26000,"station_id":"ce4bhbh2rcd13ifvqepg","pricing_plan_id":"cebpf4jnsgd1na2vs0mg"},{"bike_id":"e5109a09-bb0c-4e36-884e-6b97656e780b","system_id":"levelo_inurba_marseille","lat":43.284219,"lon":5.3497,"is_reserved":false,"is_disabled":false,"rental_uris":{"android":"levelo://app?vid=e5109a09-bb0c-4e36-884e-6b97656e780b","ios":"levelo://app?vid=e5109a09-bb0c-4e36-884e-6b97656e780b"},"vehicle_type_id":"4","last_reported":1718975405,"current_range_meters":12000,"station_id":"ce4bhbh2rcd13ifvqepg","pricing_plan_id":"cebpf4jnsgd1na2vs0mg"},{"bike_id":"8b53132a-00d8-4581-a9b6-0143d6ce54c9","system_id":"levelo_inurba_marseille","lat":43.323464,"lon":5.406297,"is_reserved":false,"is_disabled":false,"rental_uris":{"android":"levelo://app?vid=8b53132a-00d8-4581-a9b6-0143d6ce54c9","ios":"levelo://app?vid=8b53132a-00d8-4581-a9b6-0143d6ce54c9"},"vehicle_type_id":"4","last_reported":1718975405,"current_range_meters":17200,"station_id":"ce4bhq92rcd13ifvqhjg","pricing_plan_id":"cebpf4jnsgd1na2vs0mg"},{"bike_id":"7481fd73-f961-47d9-824b-b803dbe5a2b1","system_id":"levelo_inurba_marseille","lat":43.284219,"lon":5.3497,"is_reserved":false,"is_disabled":false,"rental_uris":{"android":"levelo://app?vid=7481fd73-f961-47d9-824b-b803dbe5a2b1","ios":"levelo://app?vid=7481fd73-f961-47d9-824b-b803dbe5a2b1"},"vehicle_type_id":"4","last_reported":1718975405,"current_range_meters":15600,"station_id":"ce4bhbh2rcd13ifvqepg","pricing_plan_id":"cebpf4jnsgd1na2vs0mg"},{"bike_id":"3a35e996-d9e0-47b9-8c70-302b0e9f2441","system_id":"levelo_inurba_marseille","lat":43.284217,"lon":5.349697,"is_reserved":false,"is_disabled":false,"rental_uris":{"android":"levelo://app?vid=3a35e996-d9e0-47b9-8c70-302b0e9f2441","ios":"levelo://app?vid=3a35e996-d9e0-47b9-8c70-302b0e9f2441"},"vehicle_type_id":"4","last_reported":1718975405,"current_range_meters":12400,"station_id":"ce4bhbh2rcd13ifvqepg","pricing_plan_id":"cebpf4jnsgd1na2vs0mg"},{"bike_id":"3fe53f44-f60f-462b-bdb1-a80e957bd25c","system_id":"levelo_inurba_marseille","lat":43.284219,"lon":5.3497,"is_reserved":false,"is_disabled":false,"rental_uris":{"android":"levelo://app?vid=3fe53f44-f60f-462b-bdb1-a80e957bd25c","ios":"levelo://app?vid=3fe53f44-f60f-462b-bdb1-a80e957bd25c"},"vehicle_type_id":"4","last_reported":1718975405,"current_range_meters":26800,"station_id":"ce4bhbh2rcd13ifvqepg","pricing_plan_id":"cebpf4jnsgd1na2vs0mg"},{"bike_id":"085b2db5-15f0-40e4-90ae-7fd1ece522cf","system_id":"levelo_inurba_marseille","lat":43.284217,"lon":5.349697,"is_reserved":false,"is_disabled":false,"rental_uris":{"android":"levelo://app?vid=085b2db5-15f0-40e4-90ae-7fd1ece522cf","ios":"levelo://app?vid=085b2db5-15f0-40e4-90ae-7fd1ece522cf"},"vehicle_type_id":"4","last_reported":1718975405,"current_range_meters":30000,"station_id":"ce4bhbh2rcd13ifvqepg","pricing_plan_id":"cebpf4jnsgd1na2vs0mg"},{"bike_id":"2858b20e-f837-4ea8-b1c2-301f35d659c6","system_id":"levelo_inurba_marseille","lat":43.284214,"lon":5.349706,"is_reserved":false,"is_disabled":false,"rental_uris":{"android":"levelo://app?vid=2858b20e-f837-4ea8-b1c2-301f35d659c6","ios":"levelo://app?vid=2858b20e-f837-4ea8-b1c2-301f35d659c6"},"vehicle_type_id":"4","last_reported":1718975405,"current_range_meters":19200,"station_id":"ce4bhbh2rcd13ifvqepg","pricing_plan_id":"cebpf4jnsgd1na2vs0mg"},