{"last_updated":1734530946,"ttl":60,"version":"2.2","data":{"bikes":[{"bike_id":"e6104320-5417-49d8-9b38-1c75866a7d01","system_id":"levelo_inurba_marseille","lat":43.298505,"lon":5.362857,"is_reserved":false,"is_disabled":false,"rental_uris":{"android":"levelo://app?vid=e6104320-5417-49d8-9b38-1c75866a7d01","ios":"levelo://app?vid=e6104320-5417-49d8-9b38-1c75866a7d01"},"vehicle_type_id":"4","last_reported":1734530947,"current_range_meters":37600,"station_id":"ce4bgpp2rcd13ifvqc3g","pricing_plan_id":"cebpf4jnsgd1na2vs0mg"},{"bike_id":"68ae3e89-ff54-490d-ad4d-2a307476a24a","system_id":"levelo_inurba_marseille","lat":43.27697,"lon":5.3888,"is_reserved":false,"is_disabled":false,"rental_uris":{"android":"levelo://app?vid=68ae3e89-ff54-490d-ad4d-2a307476a24a","ios":"levelo://app?vid=68ae3e89-ff54-490d-ad4d-2a307476a24a"},"vehicle_type_id":"4","last_reported":1734530947,"current_range_meters":36800,"station_id":"ce4bhi12rcd13ifvqfo0","pricing_plan_id":"cebpf4jnsgd1na2vs0mg"},{"bike_id":"c691a868-9faf-4a6e-b174-52b8f08a124c","system_id":"levelo_inurba_marseille","lat":43.30548,"lon":5.36549,"is_reserved":false,"is_disabled":false,"rental_uris":{"android":"levelo://app?vid=c691a868-9faf-4a6e-b174-52b8f08a124c","ios":"levelo://app?vid=c691a868-9faf-4a6e-b174-52b8f08a124c"},"vehicle_type_id":"4","last_reported":1734530947,"current_range_meters":38800,"station_id":"ce4bgs12rcd13ifvqcag","pricing_plan_id":"cebpf4jnsgd1na2vs0mg"},{"bike_id":"5c5b62aa-5ec6-4ef9-8f5c-348906209378","system_id":"levelo_inurba_marseille","lat":43.29983,"lon":5.38483,"is_reserved":false,"is_disabled":false,"rental_uris":{"android":"levelo://app?vid=5c5b62aa-5ec6-4ef9-8f5c-348906209378","ios":"levelo://app?vid=5c5b62aa-5ec6-4ef9-8f5c-348906209378"},"vehicle_type_id":"4","last_reported":1734530947,"current_range_meters":38400,"station_id":"ce4bgj92rcd13ifvqbd0","pricing_plan_id":"cebpf4jnsgd1na2vs0mg"},{"bike_id":"51096d9e-fb87-4248-9f4b-fd2d6ccff809","system_id":"levelo_inurba_marseille","lat":43.30202,"lon":5.39467,"is_reserved":false,"is_disabled":false,"rental_uris":{"android":"levelo://app?vid=51096d9e-fb87-4248-9f4b-fd2d6ccff809","ios":"levelo://app?vid=51096d9e-fb87-4248-9f4b-fd2d6ccff809"},"vehicle_type_id":"4","last_reported":1734530947,"current_range_meters":36800,"station_id":"ce4bh0p2rcd13ifvqd70","pricing_plan_id":"cebpf4jnsgd1na2vs0mg"},{"bike_id":"81d3e597-3bce-470f-a24f-c70eb8e49aa7","system_id":"levelo_inurba_marseille","lat":43.28268,"lon":5.35073,"is_reserved":false,"is_disabled":false,"rental_uris":{"android":"levelo://app?vid=81d3e597-3bce-470f-a24f-c70eb8e49aa7","ios":"levelo://app?vid=81d3e597-3bce-470f-a24f-c70eb8e49aa7"},"vehicle_type_id":"4","last_reported":1734530947,"current_range_meters":12800,"station_id":"ce4bhbp2rcd13ifvqerg","pricing_plan_id":"cebpf4jnsgd1na2vs0mg"},{"bike_id":"b1b1f756-c1a0-4e66-8530-9c85602c1813","system_id":"levelo_inurba_marseille","lat":43.32352,"lon":5.36786,"is_reserved":false,"is_disabled":false,"rental_uris":{"android":"levelo://app?vid=b1b1f756-c1a0-4e66-8530-9c85602c1813","ios":"levelo://app?vid=b1b1f756-c1a0-4e66-8530-9c85602c1813"},"vehicle_type_id":"4","last_reported":1734530947,"current_range_meters":18000,"station_id":"ce4bhsh2rcd13ifvqi2g","pricing_plan_id":"cebpf4jnsgd1na2vs0mg"},{"bike_id":"64ff5b0b-103b-402e-8007-73ab97fd567c","system_id":"levelo_inurba_marseille","lat":43.28422,"lon":5.34971,"is_reserved":false,"is_disabled":false,"rental_uris":{"android":"levelo://app?vid=64ff5b0b-103b-402e-8007-73ab97fd567c","ios":"levelo://app?vid=64ff5b0b-103b-402e-8007-73ab97fd567c"},"vehicle_type_id":"4","last_reported":1734530947,"current_range_meters":28000,"station_id":"ce4bhbh2rcd13ifvqepg","pricing_plan_id":"cebpf4jnsgd1na2vs0mg"},{"bike_id":"bca2340a-8004-4c0f-8043-686a667e19f3","system_id":"levelo_inurba_marseille","lat":43.26558,"lon":5.3728,"is_reserved":false,"is_disabled":false,"rental_uris":{"android":"levelo://app?vid=bca2340a-8004-4c0f-8043-686a667e19f3","ios":"levelo://app?vid=bca2340a-8004-4c0f-8043-686a667e19f3"},"vehicle_type_id":"4","last_reported":1734530947,"current_range_meters":30800,"station_id":"ce4bhg12rcd13ifvqf70","pricing_plan_id":"cebpf4jnsgd1na2vs0mg"},{"bike_id":"1ea39a5a-f978-4bb0-845c-7aea80f4d8ff","system_id":"levelo_inurba_marseille","lat":43.29566,"lon":5.3751,"is_reserved":false,"is_disabled":false,"rental_uris":{"android":"levelo://app?vid=1ea39a5a-f978-4bb0-845c-7aea80f4d8ff","ios":"levelo://app?vid=1ea39a5a-f978-4bb0-845c-7aea80f4d8ff"},"vehicle_type_id":"4","last_reported":1734530947,"current_range_meters":35200,"station_id":"ce4bgh92rcd13ifvqb50","pricing_plan_id":"cebpf4jnsgd1na2vs0mg"},{"bike_id":"9b9caeab-a244-4574-925e-961a887d2c08","system_id":"levelo_inurba_marseille","lat":43.29683,"lon":5.37294,"is_reserved":false,"is_disabled":false,"rental_uris":{"android":"levelo://app?vid=9b9caeab-a244-4574-925e-961a887d2c08","ios":"levelo://app?vid=9b9caeab-a244-4574-925e-961a887d2c08"},"vehicle_type_id":"4","last_reported":1734530947,"current_range_meters":25600,"station_id":"ce4bgk12rcd13ifvqbj0","pricing_plan_id":"cebpf4jnsgd1na2vs0mg"},{"bike_id":"a5bab296-af15-45a1-81e9-5b6f00bc7788","system_id":"levelo_inurba_marseille","lat":43.26958,"lon":5.40228,"is_reserved":false,"is_disabled":false,"rental_uris":{"android":"levelo://app?vid=a5bab296-af15-45a1-81e9-5b6f00bc7788","ios":"levelo://app?vid=a5bab296-af15-45a1-81e9-5b6f00bc7788"},"vehicle_type_id":"4","last_reported":1734530947,"current_range_meters":34800,"station_id":"cjm6bp8fraef2m0cb0m0","pricing_plan_id":"cebpf4jnsgd1na2vs0mg"},{"bike_id":"53a3ee4c-334e-44fb-9305-7e0a83fff0e2","system_id":"levelo_inurba_marseille","lat":43.30901,"lon":5.37196,"is_reserved":false,"is_disabled":false,"rental_uris":{"android":"levelo://app?vid=53a3ee4c-334e-44fb-9305-7e0a83fff0e2","ios":"levelo://app?vid=53a3ee4c-334e-44fb-9305-7e0a83fff0e2"},"vehicle_type_id":"4","last_reported":1734530947,"current_range_meters":10800,"station_id":"ce4bguh2rcd13ifvqckg","pricing_plan_id":"cebpf4jnsgd1na2vs0mg"},{"bike_id":"58be73d0-d5d6-49d5-a5d7-8c143188158e","system_id":"levelo_inurba_marseille","lat":43.29862,"lon":5.36317,"is_reserved":false,"is_disabled":false,"rental_uris":{"android":"levelo://app?vid=58be73d0-d5d6-49d5-a5d7-8c143188158e","ios":"levelo://app?vid=58be73d0-d5d6-49d5-a5d7-8c143188158e"},"vehicle_type_id":"4","last_reported":1734530947,"current_range_meters":33200,"station_id":"ce4bgpp2rcd13ifvqc3g","pricing_plan_id":"cebpf4jnsgd1na2vs0mg"},{"bike_id":"ebcb42c2-803c-4df4-a9a9-2fadbd5c60e9","system_id":"levelo_inurba_marseille","lat":43.29791,"lon":5.371,"is_reserved":false,"is_disabled":false,"rental_uris":{"android":"levelo://app?vid=ebcb42c2-803c-4df4-a9a9-2fadbd5c60e9","ios":"levelo://app?vid=ebcb42c2-803c-4df4-a9a9-2fadbd5c60e9"},"vehicle_type_id":"4","last_reported":1734530947,"current_range_meters":17600,"station_id":"ce4bgop2rcd13ifvqc1g","pricing_plan_id":"cebpf4jnsgd1na2vs0mg"},{"bike_id":"f8db0ec7-58f2-4440-818e-2bdb9b98e012","system_id":"levelo_inurba_marseille","lat":43.27217,"lon":5.39185,"is_reserved":false,"is_disabled":false,"rental_uris":{"android":"levelo://app?vid=f8db0ec7-58f2-4440-818e-2bdb9b98e012","ios":"levelo://app?vid=f8db0ec7-58f2-4440-818e-2bdb9b98e012"},"vehicle_type_id":"4","last_reported":1734530947,"current_range_meters":38400,"station_id":"ce4bhhp2rcd13ifvqfm0","pricing_plan_id":"cebpf4jnsgd1na2vs0mg"},{"bike_id":"a2104b26-4a01-4dc6-b355-fbab2d119e02","system_id":"levelo_inurba_marseille","lat":43.32481,"lon":5.36566,"is_reserved":false,"is_disabled":false,"rental_uris":{"android":"levelo://app?vid=a2104b26-4a01-4dc6-b355-fbab2d119e02","ios":"levelo://app?vid=a2104b26-4a01-4dc6-b355-fbab2d119e02"},"vehicle_type_id":"4","last_reported":1734530947,"current_range_meters":35200,"station_id":"ce4bhs12rcd13ifvqhvg","pricing_plan_id":"cebpf4jnsgd1na2vs0mg"},{"bike_id":"639aa096-db12-4673-8290-6ad4301e1d86","system_id":"levelo_inurba_marseille","lat":43.26218,"lon":5.37442,"is_reserved":false,"is_disabled":false,"rental_uris":{"android":"levelo://app?vid=639aa096-db12-4673-8290-6ad4301e1d86","ios":"levelo://app?vid=639aa096-db12-4673-8290-6ad4301e1d86"},"vehicle_type_id":"4","last_reported":1734530947,"current_range_meters":6000,"station_id":"ce4bhgp2rcd13ifvqfc0","pricing_plan_id":"cebpf4jnsgd1na2vs0mg"},{"bike_id":"1c9bcd07-7f6b-4398-b02b-d3f91ead597e","system_id":"levelo_inurba_marseille","lat":43.32542,"lon":5.41437,"is_reserved":false,"is_disabled":false,"rental_uris":{"android":"levelo://app?vid=1c9bcd07-7f6b-4398-b02b-d3f91ead597e","ios":"levelo://app?vid=1c9bcd07-7f6b-4398-b02b-d3f91ead597e"},"vehicle_type_id":"4","last_reported":1734530947,"current_range_meters":36000,"station_id":"ce4bhq12rcd13ifvqhhg","pricing_plan_id":"cebpf4jnsgd1na2vs0mg"},{"bike_id":"f67d6542-dcd7-4cab-bf0b-31ec1c6f581d","system_id":"levelo_inurba_marseille","lat":43.29052,"lon":5.35951,"is_reserved":false,"is_disabled":false,"rental_uris":{"android":"levelo://app?vid=f67d6542-dcd7-4cab-bf0b-31ec1c6f581d","ios":"levelo://app?vid=f67d6542-dcd7-4cab-bf0b-31ec1c6f581d"},"vehicle_type_id":"4","last_reported":1734530947,"current_range_meters":39200,"station_id":"ce4bha92rcd13ifvqeg0","pricing_plan_id":"cebpf4jnsgd1na2vs0mg"},{"bike_id":"b0e66975-68ec-4955-b92f-4558213b48d0","system_id":"levelo_inurba_marseille","lat":43.29533,"lon":5.38542,"is_reserved":false,"is_disabled":false,"rental_uris":{"android":"levelo://app?vid=b0e66975-68ec-4955-b92f-4558213b48d0","ios":"levelo://app?vid=b0e66975-68ec-4955-b92f-4558213b48d0"},"vehicle_type_id":"4","last_reported":1734530947,"current_range_meters":36000,"station_id":"ce4bgih2rcd13ifvqba0","pricing_plan_id":"cebpf4jnsgd1na2vs0mg"},{"bike_id":"d204b727-3e16-4e0f-996f-6e1274980739","system_id":"levelo_inurba_marseille","lat":43.29617,"lon":5.37156,"is_reserved":false,"is_disabled":false,"rental_uris":{"android":"levelo://app?vid=d204b727-3e16-4e0f-996f-6e1274980739","ios":"levelo://app?vid=d204b727-3e16-4e0f-996f-6e1274980739"},"vehicle_type_id":"4","last_reported":1734530947,"current_range_meters":32000,"station_id":"ce4bgnh2rcd13ifvqc0g","pricing_plan_id":"cebpf4jnsgd1na2vs0mg"},{"bike_id":"124e6c05-4926-4207-84f5-da69a7334d60","system_id":"levelo_inurba_marseille","lat":43.29044,"lon":5.38173,"is_reserved":false,"is_disabled":true,"rental_uris":{"android":"levelo://app?vid=124e6c05-4926-4207-84f5-da69a7334d60","ios":"levelo://app?vid=124e6c05-4926-4207-84f5-da69a7334d60"},"vehicle_type_id":"4","last_reported":1734530947,"current_range_meters":34000,"station_id":"","pricing_plan_id":"cebpf4jnsgd1na2vs0mg"},{"bike_id":"e997f56f-26a9-4ad1-9feb-f0c0c9894c03","system_id":"levelo_inurba_marseille","lat":43.30524,"lon":5.36702,"is_reserved":false,"is_disabled":false,"rental_uris":{"android":"levelo://app?vid=e997f56f-26a9-4ad1-9feb-f0c0c9894c03","ios":"levelo://app?vid=e997f56f-26a9-4ad1-9feb-f0c0c9894c03"},"vehicle_type_id":"4","last_reported":1734530947,"current_range_meters":10800,"station_id":"ce4bgrp2rcd13ifvqc9g","pricing_plan_id":"cebpf4jnsgd1na2vs0mg"},{"bike_id":"658b0806-2222-4755-8b2c-883c2c8d7d78","system_id":"levelo_inurba_marseille","lat":43.31119,"lon":5.37762,"is_reserved":false,"is_disabled":false,"rental_uris":{"android":"levelo://app?vid=658b0806-2222-4755-8b2c-883c2c8d7d78","ios":"levelo://app?vid=658b0806-2222-4755-8b2c-883c2c8d7d78"},"vehicle_type_id":"4","last_reported":1734530947,"current_range_meters":22800,"station_id":"ce4bgt92rcd13ifvqcg0","pricing_plan_id":"cebpf4jnsgd1na2vs0mg"},{"bike_id":"12825fc7-c4d4-4652-92c7-b1bbcf86503b","system_id":"levelo_inurba_marseille","lat":43.30521,"lon":5.36547,"is_reserved":false,"is_disabled":false,"rental_uris":{"android":"levelo://app?vid=12825fc7-c4d4-4652-92c7-b1bbcf86503b","ios":"levelo://app?vid=12825fc7-c4d4-4652-92c7-b1bbcf86503b"},"vehicle_type_id":"4","last_reported":1734530947,"current_range_meters":38800,"station_id":"ce4bgs12rcd13ifvqcag","pricing_plan_id":"cebpf4jnsgd1na2vs0mg"},{"bike_id":"2ae7fc52-11d1-4607-ba57-fc1895cfc982","system_id":"levelo_inurba_marseille","lat":43.26675,"lon":5.3826,"is_reserved":false,"is_disabled":false,"rental_uris":{"android":"levelo://app?vid=2ae7fc52-11d1-4607-ba57-fc1895cfc982","ios":"levelo://app?vid=2ae7fc52-11d1-4607-ba57-fc1895cfc982"},"vehicle_type_id":"4","last_reported":1734530947,"current_range_meters":38800,"station_id":"ce4bhg92rcd13ifvqf90","pricing_plan_id":"cebpf4jnsgd1na2vs0mg"},{"bike_id":"2491c714-f3f7-493b-9790-9992e16c8fb6","system_id":"levelo_inurba_marseille","lat":43.3414,"lon":5.40957,"is_reserved":false,"is_disabled":true,"rental_uris":{"android":"levelo://app?vid=2491c714-f3f7-493b-9790-9992e16c8fb6","ios":"levelo://app?vid=2491c714-f3f7-493b-9790-9992e16c8fb6"},"vehicle_type_id":"4","last_reported":1734530947,"current_range_meters":38800,"station_id":"ce4bhqh2rcd13ifvqhlg","pricing_plan_id":"cebpf4jnsgd1na2vs0mg"},{"bike_id":"03dcc4cf-7478-40f3-9bc7-5aceae97b56a","system_id":"levelo_inurba_marseille","lat":43.30155,"lon":5.37426,"is_reserved":false,"is_disabled":false,"rental_uris":{"android":"levelo://app?vid=03dcc4cf-7478-40f3-9bc7-5aceae97b56a","ios":"levelo://app?vid=03dcc4cf-7478-40f3-9bc7-5aceae97b56a"},"vehicle_type_id":"4","last_reported":1734530947,"current_range_meters":26000,"station_id":"ce4bgs92rcd13ifvqcc0","pricing_plan_id":"cebpf4jnsgd1na2vs0mg"},{"bike_id":"ea1ee0a0-f240-4d25-84d9-e6fb6fc7a18c","system_id":"levelo_inurba_marseille","lat":43.33805,"lon":5.42104,"is_reserved":false,"is_disabled":true,"rental_uris":{"android":"levelo://app?vid=ea1ee0a0-f240-4d25-84d9-e6fb6fc7a18c","ios":"levelo://app?vid=ea1ee0a0-f240-4d25-84d9-e6fb6fc7a18c"},"vehicle_type_id":"4","last_reported":1734530947,"current_range_meters":0,"station_id":"","pricing_plan_id":"cebpf4jnsgd1na2vs0mg"},{"bike_id":"9b2f4ce3-4d40-4539-9fa8-a723d76c434b","system_id":"levelo_inurba_marseille","lat":43.29794,"lon":5.37098,"is_reserved":false,"is_disabled":false,"rental_uris":{"android":"levelo://app?vid=9b2f4ce3-4d40-4539-9fa8-a723d76c434b","ios":"levelo://app?vid=9b2f4ce3-4d40-4539-9fa8-a723d76c434b"},"vehicle_type_id":"4","last_reported":1734530947,"current_range_meters":23200,"station_id":"ce4bgop2rcd13ifvqc1g","pricing_plan_id":"cebpf4jnsgd1na2vs0mg"},{"bike_id":"591a3165-8b96-47bf-bcab-7168d49394fb","system_id":"levelo_inurba_marseille","lat":43.27903,"lon":5.37996,"is_reserved":false,"is_disabled":false,"rental_uris":{"android":"levelo://app?vid=591a3165-8b96-47bf-bcab-7168d49394fb","ios":"levelo://app?vid=591a3165-8b96-47bf-bcab-7168d49394fb"},"vehicle_type_id":"4","last_reported":1734530947,"current_range_meters":38000,"station_id":"ce4bhf92rcd13ifvqf50","pricing_plan_id":"cebpf4jnsgd1na2vs0mg"},{"bike_id":"a9fccbb6-c45f-4362-a72b-4ba2aefd4ca0","system_id":"levelo_inurba_marseille","lat":43.2894,"lon":5.36641,"is_reserved":false,"is_disabled":false,"rental_uris":{"android":"levelo://app?vid=a9fccbb6-c45f-4362-a72b-4ba2aefd4ca0","ios":"levelo://app?vid=a9fccbb6-c45f-4362-a72b-4ba2aefd4ca0"},"vehicle_type_id":"4","last_reported":1734530947,"current_range_meters":27600,"station_id":"ce4bhap2rcd13ifvqek0","pricing_plan_id":"cebpf4jnsgd1na2vs0mg"},{"bike_id":"f500c588-6feb-4b09-aaa0-56bd71506c9c","system_id":"levelo_inurba_marseille","lat":43.30143,"lon":5.3745,"is_reserved":false,"is_disabled":false,"rental_uris":{"android":"levelo://app?vid=f500c588-6feb-4b09-aaa0-56bd71506c9c","ios":"levelo://app?vid=f500c588-6feb-4b09-aaa0-56bd71506c9c"},"vehicle_type_id":"4","last_reported":1734530947,"current_range_meters":38800,"station_id":"ce4bgs92rcd13ifvqcc0","pricing_plan_id":"cebpf4jnsgd1na2vs0mg"},{"bike_id":"b13c842e-6474-4fad-95ae-96310e731743","system_id":"levelo_inurba_marseille","lat":43.28974,"lon":5.37838,"is_reserved":false,"is_disabled":false,"rental_uris":{"android":"levelo://app?vid=b13c842e-6474-4fad-95ae-96310e731743","ios":"levelo://app?vid=b13c842e-6474-4fad-95ae-96310e731743"},"vehicle_type_id":"4","last_reported":1734530947,"current_range_meters":8000,"station_id":"ce4bh9p2rcd13ifvqed0","pricing_plan_id":"cebpf4jnsgd1na2vs0mg"},{"bike_id":"de0be449-3f8e-42f7-9155-1bf2e68e9a58","system_id":"levelo_inurba_marseille","lat":43.25128,"lon":5.40322,"is_reserved":false,"is_disabled":false,"rental_uris":{"android":"levelo://app?vid=de0be449-3f8e-42f7-9155-1bf2e68e9a58","ios":"levelo://app?vid=de0be449-3f8e-42f7-9155-1bf2e68e9a58"},"vehicle_type_id":"4","last_reported":1734530947,"current_range_meters":16800,"station_id":"ce4bhlh2rcd13ifvqgig","pricing_plan_id":"cebpf4jnsgd1na2vs0mg"},{"bike_id":"6e1552d0-1513-45ba-9b69-be267a8fe61c","system_id":"levelo_inurba_marseille","lat":43.28568,"lon":5.39491,"is_reserved":false,"is_disabled":false,"rental_uris":{"android":"levelo://app?vid=6e1552d0-1513-45ba-9b69-be267a8fe61c","ios":"levelo://app?vid=6e1552d0-1513-45ba-9b69-be267a8fe61c"},"vehicle_type_id":"4","last_reported":1734530947,"current_range_meters":24800,"station_id":"ce4bh292rcd13ifvqdg0","pricing_plan_id":"cebpf4jnsgd1na2vs0mg"},{"bike_id":"5814ac63-9946-4732-bdf9-471784a9cd83","system_id":"levelo_inurba_marseille","lat":43.30586,"lon":5.37223,"is_reserved":false,"is_disabled":false,"rental_uris":{"android":"levelo://app?vid=5814ac63-9946-4732-bdf9-471784a9cd83","ios":"levelo://app?vid=5814ac63-9946-4732-bdf9-471784a9cd83"},"vehicle_type_id":"4","last_reported":1734530947,"current_range_meters":35200,"station_id":"ce4bgqh2rcd13ifvqc4g","pricing_plan_id":"cebpf4jnsgd1na2vs0mg"},{"bike_id":"eb5d0173-d65f-4eb5-9b1d-c4fb2786d380","system_id":"levelo_inurba_marseille","lat":43.29008,"lon":5.35605,"is_reserved":false,"is_disabled":false,"rental_uris":{"android":"levelo://app?vid=eb5d0173-d65f-4eb5-9b1d-c4fb2786d380","ios":"levelo://app?vid=eb5d0173-d65f-4eb5-9b1d-c4fb2786d380"},"vehicle_type_id":"4","last_reported":1734530947,"current_range_meters":16400,"station_id":"ce4bhb92rcd13ifvqen0","pricing_plan_id":"cebpf4jnsgd1na2vs0mg"},{"bike_id":"91d693bd-a59d-4a9a-811e-948e8dec3c93","system_id":"levelo_inurba_marseille","lat":43.2923,"lon":5.36063,"is_reserved":false,"is_disabled":false,"rental_uris":{"android":"levelo://app?vid=91d693bd-a59d-4a9a-811e-948e8dec3c93","ios":"levelo://app?vid=91d693bd-a59d-4a9a-811e-948e8dec3c93"},"vehicle_type_id":"4","last_reported":1734530947,"current_range_meters":34000,"station_id":"ce4bhbh2rcd13ifvqeqg","pricing_plan_id":"cebpf4jnsgd1na2vs0mg"},{"bike_id":"4d36d78c-14c3-4a59-bdb8-cd94cff6345d","system_id":"levelo_inurba_marseille","lat":43.30797,"lon":5.43518,"is_reserved":false,"is_disabled":false,"rental_uris":{"android":"levelo://app?vid=4d36d78c-14c3-4a59-bdb8-cd94cff6345d","ios":"levelo://app?vid=4d36d78c-14c3-4a59-bdb8-cd94cff6345d"},"vehicle_type_id":"4","last_reported":1734530947,"current_range_meters":38800,"station_id":"ce4bhph2rcd13ifvqheg","pricing_plan_id":"cebpf4jnsgd1na2vs0mg"},{"bike_id":"329bfd3b-40f5-4dd4-bb30-a87d8a8fead3","system_id":"levelo_inurba_marseille","lat":43.28439,"lon":5.39196,"is_reserved":false,"is_disabled":false,"rental_uris":{"android":"levelo://app?vid=329bfd3b-40f5-4dd4-bb30-a87d8a8fead3","ios":"levelo://app?vid=329bfd3b-40f5-4dd4-bb30-a87d8a8fead3"},"vehicle_type_id":"4","last_reported":1734530947,"current_range_meters":19600,"station_id":"ce4bhoh2rcd13ifvqh5g","pricing_plan_id":"cebpf4jnsgd1na2vs0mg"},{"bike_id":"d95550e9-7388-4315-9e27-934b58e4f59a","system_id":"levelo_inurba_marseille","lat":43.29706,"lon":5.37689,"is_reserved":false,"is_disabled":false,"rental_uris":{"android":"levelo://app?vid=d95550e9-7388-4315-9e27-934b58e4f59a","ios":"levelo://app?vid=d95550e9-7388-4315-9e27-934b58e4f59a"},"vehicle_type_id":"4","last_reported":1734530947,"current_range_meters":38800,"station_id":"ce4bgkh2rcd13ifvqbl0","pricing_plan_id":"cebpf4jnsgd1na2vs0mg"},{"bike_id":"560d7426-fd60-4e3b-ada0-c5d9de37b345","system_id":"levelo_inurba_marseille","lat":43.309121,"lon":5.389484,"is_reserved":false,"is_disabled":false,"rental_uris":{"android":"levelo://app?vid=560d7426-fd60-4e3b-ada0-c5d9de37b345","ios":"levelo://app?vid=560d7426-fd60-4e3b-ada0-c5d9de37b345"},"vehicle_type_id":"4","last_reported":1734530947,"current_range_meters":38800,"station_id":"ce4bgup2rcd13ifvqco0","pricing_plan_id":"cebpf4jnsgd1na2vs0mg"},{"bike_id":"4cd8f22a-82ae-4985-b778-378a4fb404d0","system_id":"levelo_inurba_marseille","lat":43.29852,"lon":5.3629,"is_reserved":false,"is_disabled":false,"rental_uris":{"android":"levelo://app?vid=4cd8f22a-82ae-4985-b778-378a4fb404d0","ios":"levelo://app?vid=4cd8f22a-82ae-4985-b778-378a4fb404d0"},"vehicle_type_id":"4","last_reported":1734530947,"current_range_meters":10000,"station_id":"ce4bgpp2rcd13ifvqc3g","pricing_plan_id":"cebpf4jnsgd1na2vs0mg"},{"bike_id":"3498dd8d-73e4-481b-adb1-2cda39a6ad58","system_id":"levelo_inurba_marseille","lat":43.29232,"lon":5.36052,"is_reserved":false,"is_disabled":false,"rental_uris":{"android":"levelo://app?vid=3498dd8d-73e4-481b-adb1-2cda39a6ad58","ios":"levelo://app?vid=3498dd8d-73e4-481b-adb1-2cda39a6ad58"},"vehicle_type_id":"4","last_reported":1734530947,"current_range_meters":27600,"station_id":"ce4bhbh2rcd13ifvqeqg","pricing_plan_id":"cebpf4jnsgd1na2vs0mg"},{"bike_id":"86c83bcb-399d-43cb-a4b5-54e53dfd94eb","system_id":"levelo_inurba_marseille","lat":43.305348,"lon":5.367041,"is_reserved":false,"is_disabled":false,"rental_uris":{"android":"levelo://app?vid=86c83bcb-399d-43cb-a4b5-54e53dfd94eb","ios":"levelo://app?vid=86c83bcb-399d-43cb-a4b5-54e53dfd94eb"},"vehicle_type_id":"4","last_reported":1734530947,"current_range_meters":39200,"station_id":"ce4bgrp2rcd13ifvqc9g","pricing_plan_id":"cebpf4jnsgd1na2vs0mg"},{"bike_id":"88951085-31ef-4c56-8915-fb1111927bb8","system_id":"levelo_inurba_marseille","lat":43.29624,"lon":5.37713,"is_reserved":false,"is_disabled":false,"rental_uris":{"android":"levelo://app?vid=88951085-31ef-4c56-8915-fb1111927bb8","ios":"levelo://app?vid=88951085-31ef-4c56-8915-fb1111927bb8"},"vehicle_type_id":"4","last_reported":1734530947,"current_range_meters":30000,"station_id":"ce4bgi92rcd13ifvqb90","pricing_plan_id":"cebpf4jnsgd1na2vs0mg"},{"bike_id":"3dbad254-41b1-416c-8699-2da83d290437","system_id":"levelo_inurba_marseille","lat":43.31684,"lon":5.40467,"is_reserved":false,"is_disabled":false,"rental_uris":{"android":"levelo://app?vid=3dbad254-41b1-416c-8699-2da83d290437","ios":"levelo://app?vid=3dbad254-41b1-416c-8699-2da83d290437"},"vehicle_type_id":"4","last_reported":1734530947,"current_range_meters":22800,"station_id":"ce4bh012rcd13ifvqd00","pricing_plan_id":"cebpf4jnsgd1na2vs0mg"},{"bike_id":"9839f639-e588-41d4-adab-b47d21259ded","system_id":"levelo_inurba_marseille","lat":43.29271,"lon":5.36853,"is_reserved":false,"is_disabled":false,"rental_uris":{"android":"levelo://app?vid=9839f639-e588-41d4-adab-b47d21259ded","ios":"levelo://app?vid=9839f639-e588-41d4-adab-b47d21259ded"},"vehicle_type_id":"4","last_reported":1734530947,"current_range_meters":12400,"station_id":"ce4bhbp2rcd13ifvqesg","pricing_plan_id":"cebpf4jnsgd1na2vs0mg"},{"bike_id":"0eed62b7-45a5-48e3-8d49-aba14d10c5ef","system_id":"levelo_inurba_marseille","lat":43.2971,"lon":5.36613,"is_reserved":false,"is_disabled":false,"rental_uris":{"android":"levelo://app?vid=0eed62b7-45a5-48e3-8d49-aba14d10c5ef","ios":"levelo://app?vid=0eed62b7-45a5-48e3-8d49-aba14d10c5ef"},"vehicle_type_id":"4","last_reported":1734530947,"current_range_meters":10800,"station_id":"ce4bgn12rcd13ifvqbt0","pricing_plan_id":"cebpf4jnsgd1na2vs0mg"},{"bike_id":"a9002301-2815-4da8-b708-209cae3ff729","system_id":"levelo_inurba_marseille","lat":43.27994,"lon":5.41662,"is_reserved":false,"is_disabled":false,"rental_uris":{"android":"levelo://app?vid=a9002301-2815-4da8-b708-209cae3ff729","ios":"levelo://app?vid=a9002301-2815-4da8-b708-209cae3ff729"},"vehicle_type_id":"4","last_reported":1734530947,"current_range_meters":29600,"station_id":"ce4bho12rcd13ifvqh1g","pricing_plan_id":"cebpf4jnsgd1na2vs0mg"},{"bike_id":"13b89d28-be59-4841-b3b3-1a97c3f8e494","system_id":"levelo_inurba_marseille","lat":43.23147,"lon":5.43725,"is_reserved":false,"is_disabled":false,"rental_uris":{"android":"levelo://app?vid=13b89d28-be59-4841-b3b3-1a97c3f8e494","ios":"levelo://app?vid=13b89d28-be59-4841-b3b3-1a97c3f8e494"},"vehicle_type_id":"4","last_reported":1734530947,"current_range_meters":38800,"station_id":"ce4bhmp2rcd13ifvqgog","pricing_plan_id":"cebpf4jnsgd1na2vs0mg"},{"bike_id":"72492ff3-d3e5-4b81-822b-1d3357339451","system_id":"levelo_inurba_marseille","lat":43.291223,"lon":5.39886,"is_reserved":false,"is_disabled":true,"rental_uris":{"android":"levelo://app?vid=72492ff3-d3e5-4b81-822b-1d3357339451","ios":"levelo://app?vid=72492ff3-d3e5-4b81-822b-1d3357339451"},"vehicle_type_id":"4","last_reported":1734530947,"current_range_meters":38800,"station_id":"","pricing_plan_id":"cebpf4jnsgd1na2vs0mg"},{"bike_id":"c9aecb48-1552-47ad-af23-8b6bab0d2fdf","system_id":"levelo_inurba_marseille","lat":43.25082,"lon":5.39492,"is_reserved":false,"is_disabled":true,"rental_uris":{"android":"levelo://app?vid=c9aecb48-1552-47ad-af23-8b6bab0d2fdf","ios":"levelo://app?vid=c9aecb48-1552-47ad-af23-8b6bab0d2fdf"},"vehicle_type_id":"4","last_reported":1734530947,"current_range_meters":0,"station_id":"ce4bhm12rcd13ifvqgkg","pricing_plan_id":"cebpf4jnsgd1na2vs0mg"},{"bike_id":"4e903476-26ee-4c32-806f-26a87ba3a549","system_id":"levelo_inurba_marseille","lat":43.29417,"lon":5.38613,"is_reserved":false,"is_disabled":true,"rental_uris":{"android":"levelo://app?vid=4e903476-26ee-4c32-806f-26a87ba3a549","ios":"levelo://app?vid=4e903476-26ee-4c32-806f-26a87ba3a549"},"vehicle_type_id":"4","last_reported":1734530947,"current_range_meters":0,"station_id":"ce4bh2h2rcd13ifvqdh0","pricing_plan_id":"cebpf4jnsgd1na2vs0mg"},{"bike_id":"20ce049d-9d00-4dff-9417-e04a6e42b12c","system_id":"levelo_inurba_marseille","lat":43.27989,"lon":5.41662,"is_reserved":false,"is_disabled":false,"rental_uris":{"android":"levelo://app?vid=20ce049d-9d00-4dff-9417-e04a6e42b12c","ios":"levelo://app?vid=20ce049d-9d00-4dff-9417-e04a6e42b12c"},"vehicle_type_id":"4","last_reported":1734530947,"current_range_meters":29600,"station_id":"ce4bho12rcd13ifvqh1g","pricing_plan_id":"cebpf4jnsgd1na2vs0mg"},{"bike_id":"b28f9753-28e1-431d-914b-59d1f0cf26b3","system_id":"levelo_inurba_marseille","lat":43.26558,"lon":5.37292,"is_reserved":false,"is_disabled":false,"rental_uris":{"android":"levelo://app?vid=b28f9753-28e1-431d-914b-59d1f0cf26b3","ios":"levelo://app?vid=b28f9753-28e1-431d-914b-59d1f0cf26b3"},"vehicle_type_id":"4","last_reported":1734530947,"current_range_meters":11600,"station_id":"ce4bhg12rcd13ifvqf70","pricing_plan_id":"cebpf4jnsgd1na2vs0mg"},{"bike_id":"9dc602f1-a01c-4a08-8757-d4e4d234b8a2","system_id":"levelo_inurba_marseille","lat":43.29857,"lon":5.36278,"is_reserved":false,"is_disabled":false,"rental_uris":{"android":"levelo://app?vid=9dc602f1-a01c-4a08-8757-d4e4d234b8a2","ios":"levelo://app?vid=9dc602f1-a01c-4a08-8757-d4e4d234b8a2"},"vehicle_type_id":"4","last_reported":1734530947,"current_range_meters":18800,"station_id":"ce4bgpp2rcd13ifvqc3g","pricing_plan_id":"cebpf4jnsgd1na2vs0mg"},{"bike_id":"a544d5dc-f943-4b67-9833-cb3ee49fe43a","system_id":"levelo_inurba_marseille","lat":43.30207,"lon":5.39464,"is_reserved":false,"is_disabled":false,"rental_uris":{"android":"levelo://app?vid=a544d5dc-f943-4b67-9833-cb3ee49fe43a","ios":"levelo://app?vid=a544d5dc-f943-4b67-9833-cb3ee49fe43a"},"vehicle_type_id":"4","last_reported":1734530947,"current_range_meters":38800,"station_id":"ce4bh0p2rcd13ifvqd70","pricing_plan_id":"cebpf4jnsgd1na2vs0mg"},{"bike_id":"a47a812b-8479-4dbf-a984-c261870d3f1a","system_id":"levelo_inurba_marseille","lat":43.31344,"lon":5.36683,"is_reserved":false,"is_disabled":false,"rental_uris":{"android":"levelo://app?vid=a47a812b-8479-4dbf-a984-c261870d3f1a","ios":"levelo://app?vid=a47a812b-8479-4dbf-a984-c261870d3f1a"},"vehicle_type_id":"4","last_reported":1734530947,"current_range_meters":37600,"station_id":"ce4bgr92rcd13ifvqc6g","pricing_plan_id":"cebpf4jnsgd1na2vs0mg"},{"bike_id":"3f980636-0b7d-4b03-b921-a059235450b6","system_id":"levelo_inurba_marseille","lat":43.30602,"lon":5.37226,"is_reserved":false,"is_disabled":false,"rental_uris":{"android":"levelo://app?vid=3f980636-0b7d-4b03-b921-a059235450b6","ios":"levelo://app?vid=3f980636-0b7d-4b03-b921-a059235450b6"},"vehicle_type_id":"4","last_reported":1734530947,"current_range_meters":33600,"station_id":"ce4bgqh2rcd13ifvqc4g","pricing_plan_id":"cebpf4jnsgd1na2vs0mg"},{"bike_id":"d943c758-086f-4a7c-b718-b103076aef5c","system_id":"levelo_inurba_marseille","lat":43.24386,"lon":5.37058,"is_reserved":false,"is_disabled":false,"rental_uris":{"android":"levelo://app?vid=d943c758-086f-4a7c-b718-b103076aef5c","ios":"levelo://app?vid=d943c758-086f-4a7c-b718-b103076aef5c"},"vehicle_type_id":"4","last_reported":1734530947,"current_range_meters":16000,"station_id":"ce4bhhh2rcd13ifvqfk0","pricing_plan_id":"cebpf4jnsgd1na2vs0mg"},{"bike_id":"08fb40c6-6744-4a17-bfee-69921657d8e4","system_id":"levelo_inurba_marseille","lat":43.25826,"lon":5.39437,"is_reserved":false,"is_disabled":false,"rental_uris":{"android":"levelo://app?vid=08fb40c6-6744-4a17-bfee-69921657d8e4","ios":"levelo://app?vid=08fb40c6-6744-4a17-bfee-69921657d8e4"},"vehicle_type_id":"4","last_reported":1734530947,"current_range_meters":23200,"station_id":"ce4bhip2rcd13ifvqft0","pricing_plan_id":"cebpf4jnsgd1na2vs0mg"},{"bike_id":"a755b577-eccf-4159-b824-2c915d5ee264","system_id":"levelo_inurba_marseille","lat":43.29174,"lon":5.35802,"is_reserved":false,"is_disabled":false,"rental_uris":{"android":"levelo://app?vid=a755b577-eccf-4159-b824-2c915d5ee264","ios":"levelo://app?vid=a755b577-eccf-4159-b824-2c915d5ee264"},"vehicle_type_id":"4","last_reported":1734530947,"current_range_meters":38800,"station_id":"ce4bhb12rcd13ifvqel0","pricing_plan_id":"cebpf4jnsgd1na2vs0mg"},{"bike_id":"782bcbf2-b7de-4b04-bebc-aaa0329dd90c","system_id":"levelo_inurba_marseille","lat":43.23195,"lon":5.35559,"is_reserved":false,"is_disabled":false,"rental_uris":{"android":"levelo://app?vid=782bcbf2-b7de-4b04-bebc-aaa0329dd90c","ios":"levelo://app?vid=782bcbf2-b7de-4b04-bebc-aaa0329dd90c"},"vehicle_type_id":"4","last_reported":1734530947,"current_range_meters":39200,"station_id":"ce4bhu92rcd13ifvqi70","pricing_plan_id":"cebpf4jnsgd1na2vs0mg"},{"bike_id":"295c08c0-2dcf-43ad-b743-1d7797c40f1d","system_id":"levelo_inurba_marseille","lat":43.29172,"lon":5.37151,"is_reserved":false,"is_disabled":false,"rental_uris":{"android":"levelo://app?vid=295c08c0-2dcf-43ad-b743-1d7797c40f1d","ios":"levelo://app?vid=295c08c0-2dcf-43ad-b743-1d7797c40f1d"},"vehicle_type_id":"4","last_reported":1734530947,"current_range_meters":14800,"station_id":"ce4bha92rcd13ifvqeh0","pricing_plan_id":"cebpf4jnsgd1na2vs0mg"},{"bike_id":"289faeb9-a11a-47c1-978b-f5d918e76896","system_id":"levelo_inurba_marseille","lat":43.33756,"lon":5.37449,"is_reserved":false,"is_disabled":false,"rental_uris":{"android":"levelo://app?vid=289faeb9-a11a-47c1-978b-f5d918e76896","ios":"levelo://app?vid=289faeb9-a11a-47c1-978b-f5d918e76896"},"vehicle_type_id":"4","last_reported":1734530947,"current_range_meters":38000,"station_id":"","pricing_plan_id":"cebpf4jnsgd1na2vs0mg"},{"bike_id":"96ff88dc-8cf7-4b0f-a345-fa00220da932","system_id":"levelo_inurba_marseille","lat":43.27413,"lon":5.42395,"is_reserved":false,"is_disabled":true,"rental_uris":{"android":"levelo://app?vid=96ff88dc-8cf7-4b0f-a345-fa00220da932","ios":"levelo://app?vid=96ff88dc-8cf7-4b0f-a345-fa00220da932"},"vehicle_type_id":"4","last_reported":1734530947,"current_range_meters":0,"station_id":"","pricing_plan_id":"cebpf4jnsgd1na2vs0mg"},{"bike_id":"023ad918-2b66-4a95-ad7c-612d705e976c","system_id":"levelo_inurba_marseille","lat":43.2439,"lon":5.37062,"is_reserved":false,"is_disabled":false,"rental_uris":{"android":"levelo://app?vid=023ad918-2b66-4a95-ad7c-612d705e976c","ios":"levelo://app?vid=023ad918-2b66-4a95-ad7c-612d705e976c"},"vehicle_type_id":"4","last_reported":1734530947,"current_range_meters":19200,"station_id":"ce4bhhh2rcd13ifvqfk0","pricing_plan_id":"cebpf4jnsgd1na2vs0mg"},{"bike_id":"7df7fcf4-ff75-48a8-8b6b-6b78a8aff1de","system_id":"levelo_inurba_marseille","lat":43.29779,"lon":5.37122,"is_reserved":false,"is_disabled":false,"rental_uris":{"android":"levelo://app?vid=7df7fcf4-ff75-48a8-8b6b-6b78a8aff1de","ios":"levelo://app?vid=7df7fcf4-ff75-48a8-8b6b-6b78a8aff1de"},"vehicle_type_id":"4","last_reported":1734530947,"current_range_meters":14000,"station_id":"ce4bgop2rcd13ifvqc1g","pricing_plan_id":"cebpf4jnsgd1na2vs0mg"},{"bike_id":"822408b5-93b6-4b7e-a2e4-a91cfb6d79ad","system_id":"levelo_inurba_marseille","lat":43.2418,"lon":5.39721,"is_reserved":false,"is_disabled":false,"rental_uris":{"android":"levelo://app?vid=822408b5-93b6-4b7e-a2e4-a91cfb6d79ad","ios":"levelo://app?vid=822408b5-93b6-4b7e-a2e4-a91cfb6d79ad"},"vehicle_type_id":"4","last_reported":1734530947,"current_range_meters":38800,"station_id":"ce4bhn12rcd13ifvqgpg","pricing_plan_id":"cebpf4jnsgd1na2vs0mg"},{"bike_id":"4c214852-20a3-4b60-b1d8-1760fd9da800","system_id":"levelo_inurba_marseille","lat":43.28709,"lon":5.37942,"is_reserved":false,"is_disabled":false,"rental_uris":{"android":"levelo://app?vid=4c214852-20a3-4b60-b1d8-1760fd9da800","ios":"levelo://app?vid=4c214852-20a3-4b60-b1d8-1760fd9da800"},"vehicle_type_id":"4","last_reported":1734530947,"current_range_meters":24800,"station_id":"ce4bh9p2rcd13ifvqec0","pricing_plan_id":"cebpf4jnsgd1na2vs0mg"},{"bike_id":"1f37d89e-2487-435a-b1da-1c4b063404a7","system_id":"levelo_inurba_marseille","lat":43.30545,"lon":5.36528,"is_reserved":false,"is_disabled":false,"rental_uris":{"android":"levelo://app?vid=1f37d89e-2487-435a-b1da-1c4b063404a7","ios":"levelo://app?vid=1f37d89e-2487-435a-b1da-1c4b063404a7"},"vehicle_type_id":"4","last_reported":1734530947,"current_range_meters":6800,"station_id":"ce4bgs12rcd13ifvqcag","pricing_plan_id":"cebpf4jnsgd1na2vs0mg"},{"bike_id":"c915f53d-e149-407b-9cbc-319144892dfe","system_id":"levelo_inurba_marseille","lat":43.25933,"lon":5.40904,"is_reserved":false,"is_disabled":false,"rental_uris":{"android":"levelo://app?vid=c915f53d-e149-407b-9cbc-319144892dfe","ios":"levelo://app?vid=c915f53d-e149-407b-9cbc-319144892dfe"},"vehicle_type_id":"4","last_reported":1734530947,"current_range_meters":19200,"station_id":"ce4bhm92rcd13ifvqglg","pricing_plan_id":"cebpf4jnsgd1na2vs0mg"},{"bike_id":"37a3e5bf-6f53-427b-9a89-d96d119f0635","system_id":"levelo_inurba_marseille","lat":43.28417,"lon":5.34985,"is_reserved":false,"is_disabled":false,"rental_uris":{"android":"levelo://app?vid=37a3e5bf-6f53-427b-9a89-d96d119f0635","ios":"levelo://app?vid=37a3e5bf-6f53-427b-9a89-d96d119f0635"},"vehicle_type_id":"4","last_reported":1734530947,"current_range_meters":6000,"station_id":"ce4bhbh2rcd13ifvqepg","pricing_plan_id":"cebpf4jnsgd1na2vs0mg"},{"bike_id":"e5e195d4-401f-47b5-ba3c-a395c7187273","system_id":"levelo_inurba_marseille","lat":43.28001,"lon":5.40002,"is_reserved":false,"is_disabled":false,"rental_uris":{"android":"levelo://app?vid=e5e195d4-401f-47b5-ba3c-a395c7187273","ios":"levelo://app?vid=e5e195d4-401f-47b5-ba3c-a395c7187273"},"vehicle_type_id":"4","last_reported":1734530947,"current_range_meters":22400,"station_id":"ce4bho92rcd13ifvqh4g","pricing_plan_id":"cebpf4jnsgd1na2vs0mg"},{"bike_id":"43c79950-99b6-48d7-b4a0-acc516bb02b9","system_id":"levelo_inurba_marseille","lat":43.28615,"lon":5.35111,"is_reserved":false,"is_disabled":false,"rental_uris":{"android":"levelo://app?vid=43c79950-99b6-48d7-b4a0-acc516bb02b9","ios":"levelo://app?vid=43c79950-99b6-48d7-b4a0-acc516bb02b9"},"vehicle_type_id":"4","last_reported":1734530947,"current_range_meters":24800,"station_id":"ce4bhch2rcd13ifvqeug","pricing_plan_id":"cebpf4jnsgd1na2vs0mg"},{"bike_id":"ca9ceabb-4da9-4ab2-8aa8-751038806a66","system_id":"levelo_inurba_marseille","lat":43.29614,"lon":5.3772,"is_reserved":false,"is_disabled":false,"rental_uris":{"android":"levelo://app?vid=ca9ceabb-4da9-4ab2-8aa8-751038806a66","ios":"levelo://app?vid=ca9ceabb-4da9-4ab2-8aa8-751038806a66"},"vehicle_type_id":"4","last_reported":1734530947,"current_range_meters":38800,"station_id":"ce4bgi92rcd13ifvqb90","pricing_plan_id":"cebpf4jnsgd1na2vs0mg"},{"bike_id":"42737d0c-0e46-4b13-8648-18b857f9bfcb","system_id":"levelo_inurba_marseille","lat":43.26058,"lon":5.39404,"is_reserved":false,"is_disabled":false,"rental_uris":{"android":"levelo://app?vid=42737d0c-0e46-4b13-8648-18b857f9bfcb","ios":"levelo://app?vid=42737d0c-0e46-4b13-8648-18b857f9bfcb"},"vehicle_type_id":"4","last_reported":1734530947,"current_range_meters":30800,"station_id":"ce4bhh92rcd13ifvqfj0","pricing_plan_id":"cebpf4jnsgd1na2vs0mg"},{"bike_id":"c8c30a77-bead-4d12-9d5b-1a5dd988de2a","system_id":"levelo_inurba_marseille","lat":43.27666,"lon":5.38877,"is_reserved":false,"is_disabled":true,"rental_uris":{"android":"levelo://app?vid=c8c30a77-bead-4d12-9d5b-1a5dd988de2a","ios":"levelo://app?vid=c8c30a77-bead-4d12-9d5b-1a5dd988de2a"},"vehicle_type_id":"4","last_reported":1734530947,"current_range_meters":1600,"station_id":"ce4bhi12rcd13ifvqfo0","pricing_plan_id":"cebpf4jnsgd1na2vs0mg"},{"bike_id":"1f088edd-e254-4389-aab0-8bb3edc2dc9e","system_id":"levelo_inurba_marseille","lat":43.3246,"lon":5.36555,"is_reserved":false,"is_disabled":false,"rental_uris":{"android":"levelo://app?vid=1f088edd-e254-4389-aab0-8bb3edc2dc9e","ios":"levelo://app?vid=1f088edd-e254-4389-aab0-8bb3edc2dc9e"},"vehicle_type_id":"4","last_reported":1734530947,"current_range_meters":38800,"station_id":"ce4bhs12rcd13ifvqhvg","pricing_plan_id":"cebpf4jnsgd1na2vs0mg"},{"bike_id":"7eba5650-919d-4742-a1ec-5a9b429580ae","system_id":"levelo_inurba_marseille","lat":43.28412,"lon":5.34989,"is_reserved":false,"is_disabled":false,"rental_uris":{"android":"levelo://app?vid=7eba5650-919d-4742-a1ec-5a9b429580ae","ios":"levelo://app?vid=7eba5650-919d-4742-a1ec-5a9b429580ae"},"vehicle_type_id":"4","last_reported":1734530947,"current_range_meters":27600,"station_id":"ce4bhbh2rcd13ifvqepg","pricing_plan_id":"cebpf4jnsgd1na2vs0mg"},{"bike_id":"333aa382-91bd-401e-8a2d-c42eb56f0e06","system_id":"levelo_inurba_marseille","lat":43.27815,"lon":5.40701,"is_reserved":false,"is_disabled":false,"rental_uris":{"android":"levelo://app?vid=333aa382-91bd-401e-8a2d-c42eb56f0e06","ios":"levelo://app?vid=333aa382-91bd-401e-8a2d-c42eb56f0e06"},"vehicle_type_id":"4","last_reported":1734530947,"current_range_meters":39200,"station_id":"ce4bhnh2rcd13ifvqgtg","pricing_plan_id":"cebpf4jnsgd1na2vs0mg"},{"bike_id":"f10d2a98-ac50-40b6-bb90-af00a5b4e582","system_id":"levelo_inurba_marseille","lat":43.25864,"lon":5.39899,"is_reserved":false,"is_disabled":false,"rental_uris":{"android":"levelo://app?vid=f10d2a98-ac50-40b6-bb90-af00a5b4e582","ios":"levelo://app?vid=f10d2a98-ac50-40b6-bb90-af00a5b4e582"},"vehicle_type_id":"4","last_reported":1734530947,"current_range_meters":27600,"station_id":"ce4bhl92rcd13ifvqghg","pricing_plan_id":"cebpf4jnsgd1na2vs0mg"},{"bike_id":"c7b69568-7a78-440f-b70f-d8bf1dc5a75e","system_id":"levelo_inurba_marseille","lat":43.29851,"lon":5.36258,"is_reserved":false,"is_disabled":false,"rental_uris":{"android":"levelo://app?vid=c7b69568-7a78-440f-b70f-d8bf1dc5a75e","ios":"levelo://app?vid=c7b69568-7a78-440f-b70f-d8bf1dc5a75e"},"vehicle_type_id":"4","last_reported":1734530947,"current_range_meters":38800,"station_id":"ce4bgpp2rcd13ifvqc3g","pricing_plan_id":"cebpf4jnsgd1na2vs0mg"},{"bike_id":"193aabb3-71ad-4907-a9ee-129083832518","system_id":"levelo_inurba_marseille","lat":43.3035,"lon":5.41873,"is_reserved":false,"is_disabled":false,"rental_uris":{"android":"levelo://app?vid=193aabb3-71ad-4907-a9ee-129083832518","ios":"levelo://app?vid=193aabb3-71ad-4907-a9ee-129083832518"},"vehicle_type_id":"4","last_reported":1734530947,"current_range_meters":3600,"station_id":"ce4bhop2rcd13ifvqh7g","pricing_plan_id":"cebpf4jnsgd1na2vs0mg"},{"bike_id":"ab457c1f-84b5-434f-a024-b249631e9247","system_id":"levelo_inurba_marseille","lat":43.28717,"lon":5.37932,"is_reserved":false,"is_disabled":false,"rental_uris":{"android":"levelo://app?vid=ab457c1f-84b5-434f-a024-b249631e9247","ios":"levelo://app?vid=ab457c1f-84b5-434f-a024-b249631e9247"},"vehicle_type_id":"4","last_reported":1734530947,"current_range_meters":27200,"station_id":"ce4bh9p2rcd13ifvqec0","pricing_plan_id":"cebpf4jnsgd1na2vs0mg"},{"bike_id":"986b9323-8bca-4bf7-9ba5-cc9b84440a85","system_id":"levelo_inurba_marseille","lat":43.27917,"lon":5.3957,"is_reserved":false,"is_disabled":false,"rental_uris":{"android":"levelo://app?vid=986b9323-8bca-4bf7-9ba5-cc9b84440a85","ios":"levelo://app?vid=986b9323-8bca-4bf7-9ba5-cc9b84440a85"},"vehicle_type_id":"4","last_reported":1734530947,"current_range_meters":37600,"station_id":"ce4bhf92rcd13ifvqf40","pricing_plan_id":"cebpf4jnsgd1na2vs0mg"},{"bike_id":"4c8b14c1-a279-4e3d-b684-d6545dbf4d61","system_id":"levelo_inurba_marseille","lat":43.31068,"lon":5.3757,"is_reserved":false,"is_disabled":false,"rental_uris":{"android":"levelo://app?vid=4c8b14c1-a279-4e3d-b684-d6545dbf4d61","ios":"levelo://app?vid=4c8b14c1-a279-4e3d-b684-d6545dbf4d61"},"vehicle_type_id":"4","last_reported":1734530947,"current_range_meters":33600,"station_id":"","pricing_plan_id":"cebpf4jnsgd1na2vs0mg"},{"bike_id":"e0c2eddf-4ba9-4754-b0b5-efd80badee74","system_id":"levelo_inurba_marseille","lat":43.25829,"lon":5.39429,"is_reserved":false,"is_disabled":true,"rental_uris":{"android":"levelo://app?vid=e0c2eddf-4ba9-4754-b0b5-efd80badee74","ios":"levelo://app?vid=e0c2eddf-4ba9-4754-b0b5-efd80badee74"},"vehicle_type_id":"4","last_reported":1734530947,"current_range_meters":400,"station_id":"ce4bhip2rcd13ifvqft0","pricing_plan_id":"cebpf4jnsgd1na2vs0mg"},{"bike_id":"fc2c3daa-143d-41d7-8998-f7412d24e8e3","system_id":"levelo_inurba_marseille","lat":43.27989,"lon":5.41671,"is_reserved":false,"is_disabled":false,"rental_uris":{"android":"levelo://app?vid=fc2c3daa-143d-41d7-8998-f7412d24e8e3","ios":"levelo://app?vid=fc2c3daa-143d-41d7-8998-f7412d24e8e3"},"vehicle_type_id":"4","last_reported":1734530947,"current_range_meters":38400,"station_id":"ce4bho12rcd13ifvqh1g","pricing_plan_id":"cebpf4jnsgd1na2vs0mg"},{"bike_id":"ff6c6cb2-193d-4cda-989d-8ff0aca58427","system_id":"levelo_inurba_marseille","lat":43.30778,"lon":5.37653,"is_reserved":false,"is_disabled":false,"rental_uris":{"android":"levelo://app?vid=ff6c6cb2-193d-4cda-989d-8ff0aca58427","ios":"levelo://app?vid=ff6c6cb2-193d-4cda-989d-8ff0aca58427"},"vehicle_type_id":"4","last_reported":1734530947,"current_range_meters":9600,"station_id":"ce4bgv92rcd13ifvqcq0","pricing_plan_id":"cebpf4jnsgd1na2vs0mg"},{"bike_id":"68907ca0-038a-4705-886b-af6c122ac485","system_id":"levelo_inurba_marseille","lat":43.23181,"lon":5.39991,"is_reserved":false,"is_disabled":false,"rental_uris":{"android":"levelo://app?vid=68907ca0-038a-4705-886b-af6c122ac485","ios":"levelo://app?vid=68907ca0-038a-4705-886b-af6c122ac485"},"vehicle_type_id":"4","last_reported":1734530947,"current_range_meters":38800,"station_id":"ce4bhn12rcd13ifvqgqg","pricing_plan_id":"cebpf4jnsgd1na2vs0mg"},{"bike_id":"5be8cabd-d236-4566-a1ee-f54a70bf770a","system_id":"levelo_inurba_marseille","lat":43.23961,"lon":5.36642,"is_reserved":false,"is_disabled":false,"rental_uris":{"android":"levelo://app?vid=5be8cabd-d236-4566-a1ee-f54a70bf770a","ios":"levelo://app?vid=5be8cabd-d236-4566-a1ee-f54a70bf770a"},"vehicle_type_id":"4","last_reported":1734530947,"current_range_meters":34000,"station_id":"ce4bhi12rcd13ifvqfp0","pricing_plan_id":"cebpf4jnsgd1na2vs0mg"},{"bike_id":"340f006d-82bb-40b7-aa81-c62b37c90dc2","system_id":"levelo_inurba_marseille","lat":43.26922,"lon":5.40261,"is_reserved":false,"is_disabled":false,"rental_uris":{"android":"levelo://app?vid=340f006d-82bb-40b7-aa81-c62b37c90dc2","ios":"levelo://app?vid=340f006d-82bb-40b7-aa81-c62b37c90dc2"},"vehicle_type_id":"4","last_reported":1734530947,"current_range_meters":33600,"station_id":"cjm6bp8fraef2m0cb0m0","pricing_plan_id":"cebpf4jnsgd1na2vs0mg"},{"bike_id":"ad86d943-e1f0-4d28-ab35-8230a59109e5","system_id":"levelo_inurba_marseille","lat":43.255,"lon":5.37655,"is_reserved":false,"is_disabled":false,"rental_uris":{"android":"levelo://app?vid=ad86d943-e1f0-4d28-ab35-8230a59109e5","ios":"levelo://app?vid=ad86d943-e1f0-4d28-ab35-8230a59109e5"},"vehicle_type_id":"4","last_reported":1734530947,"current_range_meters":35200,"station_id":"ce4bhh12rcd13ifvqff0","pricing_plan_id":"cebpf4jnsgd1na2vs0mg"},{"bike_id":"5d5d6398-1536-408f-a77e-f95a6f0f09ea","system_id":"levelo_inurba_marseille","lat":43.30412,"lon":5.41285,"is_reserved":false,"is_disabled":false,"rental_uris":{"android":"levelo://app?vid=5d5d6398-1536-408f-a77e-f95a6f0f09ea","ios":"levelo://app?vid=5d5d6398-1536-408f-a77e-f95a6f0f09ea"},"vehicle_type_id":"4","last_reported":1734530947,"current_range_meters":38800,"station_id":"ce4bhop2rcd13ifvqh8g","pricing_plan_id":"cebpf4jnsgd1na2vs0mg"},{"bike_id":"bb337245-7c41-4671-900b-a4d92ae562c6","system_id":"levelo_inurba_marseille","lat":43.29512,"lon":5.3905,"is_reserved":false,"is_disabled":true,"rental_uris":{"android":"levelo://app?vid=bb337245-7c41-4671-900b-a4d92ae562c6","ios":"levelo://app?vid=bb337245-7c41-4671-900b-a4d92ae562c6"},"vehicle_type_id":"4","last_reported":1734530947,"current_range_meters":400,"station_id":"ce4bh3p2rcd13ifvqdp0","pricing_plan_id":"cebpf4jnsgd1na2vs0mg"},{"bike_id":"0922cbda-1a7f-4eca-9662-ee2368dcb332","system_id":"levelo_inurba_marseille","lat":43.26212,"lon":5.37443,"is_reserved":false,"is_disabled":false,"rental_uris":{"android":"levelo://app?vid=0922cbda-1a7f-4eca-9662-ee2368dcb332","ios":"levelo://app?vid=0922cbda-1a7f-4eca-9662-ee2368dcb332"},"vehicle_type_id":"4","last_reported":1734530947,"current_range_meters":27200,"station_id":"ce4bhgp2rcd13ifvqfc0","pricing_plan_id":"cebpf4jnsgd1na2vs0mg"},{"bike_id":"0bb38e31-35dc-40e4-be63-f0718dbfc29e","system_id":"levelo_inurba_marseille","lat":43.28859,"lon":5.35842,"is_reserved":false,"is_disabled":false,"rental_uris":{"android":"levelo://app?vid=0bb38e31-35dc-40e4-be63-f0718dbfc29e","ios":"levelo://app?vid=0bb38e31-35dc-40e4-be63-f0718dbfc29e"},"vehicle_type_id":"4","last_reported":1734530947,"current_range_meters":30800,"station_id":"ce4bhb12rcd13ifvqem0","pricing_plan_id":"cebpf4jnsgd1na2vs0mg"},{"bike_id":"6f7acd99-77cb-462a-9f2d-c4e504bcc16a","system_id":"levelo_inurba_marseille","lat":43.23196,"lon":5.39998,"is_reserved":false,"is_disabled":false,"rental_uris":{"android":"levelo://app?vid=6f7acd99-77cb-462a-9f2d-c4e504bcc16a","ios":"levelo://app?vid=6f7acd99-77cb-462a-9f2d-c4e504bcc16a"},"vehicle_type_id":"4","last_reported":1734530947,"current_range_meters":39200,"station_id":"ce4bhn12rcd13ifvqgqg","pricing_plan_id":"cebpf4jnsgd1na2vs0mg"},{"bike_id":"ac86af18-ecc8-477e-a5b7-a72fd8c8d5b7","system_id":"levelo_inurba_marseille","lat":43.30609,"lon":5.37222,"is_reserved":false,"is_disabled":false,"rental_uris":{"android":"levelo://app?vid=ac86af18-ecc8-477e-a5b7-a72fd8c8d5b7","ios":"levelo://app?vid=ac86af18-ecc8-477e-a5b7-a72fd8c8d5b7"},"vehicle_type_id":"4","last_reported":1734530947,"current_range_meters":13600,"station_id":"ce4bgqh2rcd13ifvqc4g","pricing_plan_id":"cebpf4jnsgd1na2vs0mg"},{"bike_id":"c5bd26fa-32ee-49d7-8f2e-aae30ab2547f","system_id":"levelo_inurba_marseille","lat":43.29233,"lon":5.36079,"is_reserved":false,"is_disabled":false,"rental_uris":{"android":"levelo://app?vid=c5bd26fa-32ee-49d7-8f2e-aae30ab2547f","ios":"levelo://app?vid=c5bd26fa-32ee-49d7-8f2e-aae30ab2547f"},"vehicle_type_id":"4","last_reported":1734530947,"current_range_meters":31200,"station_id":"ce4bhbh2rcd13ifvqeqg","pricing_plan_id":"cebpf4jnsgd1na2vs0mg"},{"bike_id":"0a8edccf-7906-4338-88be-023a61a1b045","system_id":"levelo_inurba_marseille","lat":43.30206,"lon":5.39464,"is_reserved":false,"is_disabled":false,"rental_uris":{"android":"levelo://app?vid=0a8edccf-7906-4338-88be-023a61a1b045","ios":"levelo://app?vid=0a8edccf-7906-4338-88be-023a61a1b045"},"vehicle_type_id":"4","last_reported":1734530947,"current_range_meters":25600,"station_id":"ce4bh0p2rcd13ifvqd70","pricing_plan_id":"cebpf4jnsgd1na2vs0mg"},{"bike_id":"718c9f14-9215-4ed1-9c03-b172b6d8ceb4","system_id":"levelo_inurba_marseille","lat":43.30781,"lon":5.37336,"is_reserved":false,"is_disabled":false,"rental_uris":{"android":"levelo://app?vid=718c9f14-9215-4ed1-9c03-b172b6d8ceb4","ios":"levelo://app?vid=718c9f14-9215-4ed1-9c03-b172b6d8ceb4"},"vehicle_type_id":"4","last_reported":1734530947,"current_range_meters":17200,"station_id":"","pricing_plan_id":"cebpf4jnsgd1na2vs0mg"},{"bike_id":"6bb009aa-1483-4b95-89ff-16059a9007e0","system_id":"levelo_inurba_marseille","lat":43.292733,"lon":5.368445,"is_reserved":false,"is_disabled":false,"rental_uris":{"android":"levelo://app?vid=6bb009aa-1483-4b95-89ff-16059a9007e0","ios":"levelo://app?vid=6bb009aa-1483-4b95-89ff-16059a9007e0"},"vehicle_type_id":"4","last_reported":1734530947,"current_range_meters":36400,"station_id":"ce4bhbp2rcd13ifvqesg","pricing_plan_id":"cebpf4jnsgd1na2vs0mg"},{"bike_id":"29d1dc69-a1d5-42fb-954e-f34cbf911606","system_id":"levelo_inurba_marseille","lat":43.307963,"lon":5.38157,"is_reserved":false,"is_disabled":false,"rental_uris":{"android":"levelo://app?vid=29d1dc69-a1d5-42fb-954e-f34cbf911606","ios":"levelo://app?vid=29d1dc69-a1d5-42fb-954e-f34cbf911606"},"vehicle_type_id":"4","last_reported":1734530947,"current_range_meters":24400,"station_id":"ce4bgt12rcd13ifvqce0","pricing_plan_id":"cebpf4jnsgd1na2vs0mg"},{"bike_id":"17b2d2b0-9855-46b4-a478-0bd9c7277056","system_id":"levelo_inurba_marseille","lat":43.30804,"lon":5.3766,"is_reserved":false,"is_disabled":false,"rental_uris":{"android":"levelo://app?vid=17b2d2b0-9855-46b4-a478-0bd9c7277056","ios":"levelo://app?vid=17b2d2b0-9855-46b4-a478-0bd9c7277056"},"vehicle_type_id":"4","last_reported":1734530947,"current_range_meters":26800,"station_id":"ce4bgv92rcd13ifvqcq0","pricing_plan_id":"cebpf4jnsgd1na2vs0mg"},{"bike_id":"3adf4377-ebd6-4934-90c6-cbbabf9a6e47","system_id":"levelo_inurba_marseille","lat":43.301402,"lon":5.374153,"is_reserved":false,"is_disabled":false,"rental_uris":{"android":"levelo://app?vid=3adf4377-ebd6-4934-90c6-cbbabf9a6e47","ios":"levelo://app?vid=3adf4377-ebd6-4934-90c6-cbbabf9a6e47"},"vehicle_type_id":"4","last_reported":1734530947,"current_range_meters":26000,"station_id":"ce4bgs92rcd13ifvqcc0","pricing_plan_id":"cebpf4jnsgd1na2vs0mg"},{"bike_id":"0a4736fa-938a-4dd8-8fd9-9ecf7bbf9522","system_id":"levelo_inurba_marseille","lat":43.30902,"lon":5.36847,"is_reserved":false,"is_disabled":false,"rental_uris":{"android":"levelo://app?vid=0a4736fa-938a-4dd8-8fd9-9ecf7bbf9522","ios":"levelo://app?vid=0a4736fa-938a-4dd8-8fd9-9ecf7bbf9522"},"vehicle_type_id":"4","last_reported":1734530947,"current_range_meters":9600,"station_id":"ce4bgn92rcd13ifvqbvg","pricing_plan_id":"cebpf4jnsgd1na2vs0mg"},{"bike_id":"4c984b0e-2e22-451a-b04e-1aa3ea5c99cc","system_id":"levelo_inurba_marseille","lat":43.28854,"lon":5.35845,"is_reserved":false,"is_disabled":false,"rental_uris":{"android":"levelo://app?vid=4c984b0e-2e22-451a-b04e-1aa3ea5c99cc","ios":"levelo://app?vid=4c984b0e-2e22-451a-b04e-1aa3ea5c99cc"},"vehicle_type_id":"4","last_reported":1734530947,"current_range_meters":33200,"station_id":"ce4bhb12rcd13ifvqem0","pricing_plan_id":"cebpf4jnsgd1na2vs0mg"},{"bike_id":"9f97f512-1b19-443a-b67f-86de027e5577","system_id":"levelo_inurba_marseille","lat":43.33748,"lon":5.39067,"is_reserved":false,"is_disabled":false,"rental_uris":{"android":"levelo://app?vid=9f97f512-1b19-443a-b67f-86de027e5577","ios":"levelo://app?vid=9f97f512-1b19-443a-b67f-86de027e5577"},"vehicle_type_id":"4","last_reported":1734530947,"current_range_meters":26800,"station_id":"","pricing_plan_id":"cebpf4jnsgd1na2vs0mg"},{"bike_id":"4b1287ea-b137-4649-aa07-b6ececfe9347","system_id":"levelo_inurba_marseille","lat":43.26557,"lon":5.37283,"is_reserved":false,"is_disabled":false,"rental_uris":{"android":"levelo://app?vid=4b1287ea-b137-4649-aa07-b6ececfe9347","ios":"levelo://app?vid=4b1287ea-b137-4649-aa07-b6ececfe9347"},"vehicle_type_id":"4","last_reported":1734530947,"current_range_meters":14800,"station_id":"ce4bhg12rcd13ifvqf70","pricing_plan_id":"cebpf4jnsgd1na2vs0mg"},{"bike_id":"27fb8d27-d207-4944-922f-ef21125b4454","system_id":"levelo_inurba_marseille","lat":43.26802,"lon":5.40276,"is_reserved":false,"is_disabled":false,"rental_uris":{"android":"levelo://app?vid=27fb8d27-d207-4944-922f-ef21125b4454","ios":"levelo://app?vid=27fb8d27-d207-4944-922f-ef21125b4454"},"vehicle_type_id":"4","last_reported":1734530947,"current_range_meters":27200,"station_id":"ce501612rcd8frsf0b60","pricing_plan_id":"cebpf4jnsgd1na2vs0mg"},{"bike_id":"e76713dd-0332-4434-8c79-2688e85d546a","system_id":"levelo_inurba_marseille","lat":43.30553,"lon":5.36537,"is_reserved":false,"is_disabled":false,"rental_uris":{"android":"levelo://app?vid=e76713dd-0332-4434-8c79-2688e85d546a","ios":"levelo://app?vid=e76713dd-0332-4434-8c79-2688e85d546a"},"vehicle_type_id":"4","last_reported":1734530947,"current_range_meters":22400,"station_id":"ce4bgs12rcd13ifvqcag","pricing_plan_id":"cebpf4jnsgd1na2vs0mg"},{"bike_id":"a3cf41a4-697d-4bf7-a14d-7b5478677bb7","system_id":"levelo_inurba_marseille","lat":43.30782,"lon":5.37648,"is_reserved":false,"is_disabled":false,"rental_uris":{"android":"levelo://app?vid=a3cf41a4-697d-4bf7-a14d-7b5478677bb7","ios":"levelo://app?vid=a3cf41a4-697d-4bf7-a14d-7b5478677bb7"},"vehicle_type_id":"4","last_reported":1734530947,"current_range_meters":35200,"station_id":"ce4bgv92rcd13ifvqcq0","pricing_plan_id":"cebpf4jnsgd1na2vs0mg"},{"bike_id":"3f684ade-8ff8-412b-8c78-ba957e925730","system_id":"levelo_inurba_marseille","lat":43.305416,"lon":5.367055,"is_reserved":false,"is_disabled":false,"rental_uris":{"android":"levelo://app?vid=3f684ade-8ff8-412b-8c78-ba957e925730","ios":"levelo://app?vid=3f684ade-8ff8-412b-8c78-ba957e925730"},"vehicle_type_id":"4","last_reported":1734530947,"current_range_meters":28000,"station_id":"ce4bgrp2rcd13ifvqc9g","pricing_plan_id":"cebpf4jnsgd1na2vs0mg"},{"bike_id":"1c50754a-b301-46b3-bb46-221b69c1982f","system_id":"levelo_inurba_marseille","lat":43.26556,"lon":5.37283,"is_reserved":false,"is_disabled":false,"rental_uris":{"android":"levelo://app?vid=1c50754a-b301-46b3-bb46-221b69c1982f","ios":"levelo://app?vid=1c50754a-b301-46b3-bb46-221b69c1982f"},"vehicle_type_id":"4","last_reported":1734530947,"current_range_meters":28400,"station_id":"ce4bhg12rcd13ifvqf70","pricing_plan_id":"cebpf4jnsgd1na2vs0mg"},{"bike_id":"466a39d9-4513-4f2c-9bdf-d6c9ee74acfa","system_id":"levelo_inurba_marseille","lat":43.27987,"lon":5.41661,"is_reserved":false,"is_disabled":false,"rental_uris":{"android":"levelo://app?vid=466a39d9-4513-4f2c-9bdf-d6c9ee74acfa","ios":"levelo://app?vid=466a39d9-4513-4f2c-9bdf-d6c9ee74acfa"},"vehicle_type_id":"4","last_reported":1734530947,"current_range_meters":28400,"station_id":"ce4bho12rcd13ifvqh1g","pricing_plan_id":"cebpf4jnsgd1na2vs0mg"},{"bike_id":"60a6eafc-b727-48c6-a937-a911320791f9","system_id":"levelo_inurba_marseille","lat":43.25493,"lon":5.37648,"is_reserved":false,"is_disabled":false,"rental_uris":{"android":"levelo://app?vid=60a6eafc-b727-48c6-a937-a911320791f9","ios":"levelo://app?vid=60a6eafc-b727-48c6-a937-a911320791f9"},"vehicle_type_id":"4","last_reported":1734530947,"current_range_meters":31200,"station_id":"ce4bhh12rcd13ifvqff0","pricing_plan_id":"cebpf4jnsgd1na2vs0mg"},{"bike_id":"70a23328-6629-4f07-b203-ef843751eafc","system_id":"levelo_inurba_marseille","lat":43.27189,"lon":5.40979,"is_reserved":false,"is_disabled":false,"rental_uris":{"android":"levelo://app?vid=70a23328-6629-4f07-b203-ef843751eafc","ios":"levelo://app?vid=70a23328-6629-4f07-b203-ef843751eafc"},"vehicle_type_id":"4","last_reported":1734530947,"current_range_meters":24800,"station_id":"ce4bhl12rcd13ifvqgf0","pricing_plan_id":"cebpf4jnsgd1na2vs0mg"},{"bike_id":"f02d4a77-888f-4694-aa21-72d580df3c6f","system_id":"levelo_inurba_marseille","lat":43.25005,"lon":5.3893,"is_reserved":false,"is_disabled":false,"rental_uris":{"android":"levelo://app?vid=f02d4a77-888f-4694-aa21-72d580df3c6f","ios":"levelo://app?vid=f02d4a77-888f-4694-aa21-72d580df3c6f"},"vehicle_type_id":"4","last_reported":1734530947,"current_range_meters":7200,"station_id":"ce4bhgp2rcd13ifvqfd0","pricing_plan_id":"cebpf4jnsgd1na2vs0mg"},{"bike_id":"b3fafb4b-a78c-49f3-a0ff-e5ded4e125df","system_id":"levelo_inurba_marseille","lat":43.30097,"lon":5.39081,"is_reserved":false,"is_disabled":false,"rental_uris":{"android":"levelo://app?vid=b3fafb4b-a78c-49f3-a0ff-e5ded4e125df","ios":"levelo://app?vid=b3fafb4b-a78c-49f3-a0ff-e5ded4e125df"},"vehicle_type_id":"4","last_reported":1734530947,"current_range_meters":36400,"station_id":"ce4bh192rcd13ifvqdb0","pricing_plan_id":"cebpf4jnsgd1na2vs0mg"},{"bike_id":"882de910-9b3d-43e3-b04c-ac39dcd38f96","system_id":"levelo_inurba_marseille","lat":43.30557,"lon":5.36695,"is_reserved":false,"is_disabled":false,"rental_uris":{"android":"levelo://app?vid=882de910-9b3d-43e3-b04c-ac39dcd38f96","ios":"levelo://app?vid=882de910-9b3d-43e3-b04c-ac39dcd38f96"},"vehicle_type_id":"4","last_reported":1734530947,"current_range_meters":38800,"station_id":"ce4bgrp2rcd13ifvqc9g","pricing_plan_id":"cebpf4jnsgd1na2vs0mg"},{"bike_id":"7e876e85-730f-4bb1-8e78-bc65c4d6fe75","system_id":"levelo_inurba_marseille","lat":43.29048,"lon":5.35923,"is_reserved":false,"is_disabled":false,"rental_uris":{"android":"levelo://app?vid=7e876e85-730f-4bb1-8e78-bc65c4d6fe75","ios":"levelo://app?vid=7e876e85-730f-4bb1-8e78-bc65c4d6fe75"},"vehicle_type_id":"4","last_reported":1734530947,"current_range_meters":26800,"station_id":"ce4bha92rcd13ifvqeg0","pricing_plan_id":"cebpf4jnsgd1na2vs0mg"},{"bike_id":"e8c208e9-7bb7-400b-8b5e-996d1d10b8ff","system_id":"levelo_inurba_marseille","lat":43.29423,"lon":5.38622,"is_reserved":false,"is_disabled":false,"rental_uris":{"android":"levelo://app?vid=e8c208e9-7bb7-400b-8b5e-996d1d10b8ff","ios":"levelo://app?vid=e8c208e9-7bb7-400b-8b5e-996d1d10b8ff"},"vehicle_type_id":"4","last_reported":1734530947,"current_range_meters":28800,"station_id":"ce4bh2h2rcd13ifvqdh0","pricing_plan_id":"cebpf4jnsgd1na2vs0mg"},{"bike_id":"9e380089-e529-4d61-873d-819e7adc3efa","system_id":"levelo_inurba_marseille","lat":43.29844,"lon":5.36272,"is_reserved":false,"is_disabled":false,"rental_uris":{"android":"levelo://app?vid=9e380089-e529-4d61-873d-819e7adc3efa","ios":"levelo://app?vid=9e380089-e529-4d61-873d-819e7adc3efa"},"vehicle_type_id":"4","last_reported":1734530947,"current_range_meters":28400,"station_id":"ce4bgpp2rcd13ifvqc3g","pricing_plan_id":"cebpf4jnsgd1na2vs0mg"},{"bike_id":"2abce814-b6e4-40d8-8077-09aa4b09a867","system_id":"levelo_inurba_marseille","lat":43.29573,"lon":5.37522,"is_reserved":false,"is_disabled":false,"rental_uris":{"android":"levelo://app?vid=2abce814-b6e4-40d8-8077-09aa4b09a867","ios":"levelo://app?vid=2abce814-b6e4-40d8-8077-09aa4b09a867"},"vehicle_type_id":"4","last_reported":1734530947,"current_range_meters":18000,"station_id":"ce4bgh92rcd13ifvqb50","pricing_plan_id":"cebpf4jnsgd1na2vs0mg"},{"bike_id":"95ef7589-e038-48f7-8034-525d70bf1e2e","system_id":"levelo_inurba_marseille","lat":43.27691,"lon":5.38881,"is_reserved":false,"is_disabled":false,"rental_uris":{"android":"levelo://app?vid=95ef7589-e038-48f7-8034-525d70bf1e2e","ios":"levelo://app?vid=95ef7589-e038-48f7-8034-525d70bf1e2e"},"vehicle_type_id":"4","last_reported":1734530947,"current_range_meters":35200,"station_id":"ce4bhi12rcd13ifvqfo0","pricing_plan_id":"cebpf4jnsgd1na2vs0mg"},{"bike_id":"eaa6f726-df36-471a-a3f3-dc7dfc4c1913","system_id":"levelo_inurba_marseille","lat":43.27912,"lon":5.38012,"is_reserved":false,"is_disabled":false,"rental_uris":{"android":"levelo://app?vid=eaa6f726-df36-471a-a3f3-dc7dfc4c1913","ios":"levelo://app?vid=eaa6f726-df36-471a-a3f3-dc7dfc4c1913"},"vehicle_type_id":"4","last_reported":1734530947,"current_range_meters":38400,"station_id":"ce4bhf92rcd13ifvqf50","pricing_plan_id":"cebpf4jnsgd1na2vs0mg"},{"bike_id":"18fc6485-f9f2-437a-9e5f-fbc6b761d46b","system_id":"levelo_inurba_marseille","lat":43.31308,"lon":5.3678,"is_reserved":false,"is_disabled":false,"rental_uris":{"android":"levelo://app?vid=18fc6485-f9f2-437a-9e5f-fbc6b761d46b","ios":"levelo://app?vid=18fc6485-f9f2-437a-9e5f-fbc6b761d46b"},"vehicle_type_id":"4","last_reported":1734530947,"current_range_meters":38800,"station_id":"","pricing_plan_id":"cebpf4jnsgd1na2vs0mg"},{"bike_id":"e78cf0ef-a444-4a79-9395-16a479b1c4d9","system_id":"levelo_inurba_marseille","lat":43.29229,"lon":5.40109,"is_reserved":false,"is_disabled":true,"rental_uris":{"android":"levelo://app?vid=e78cf0ef-a444-4a79-9395-16a479b1c4d9","ios":"levelo://app?vid=e78cf0ef-a444-4a79-9395-16a479b1c4d9"},"vehicle_type_id":"4","last_reported":1734530947,"current_range_meters":400,"station_id":"ce4bh312rcd13ifvqdk0","pricing_plan_id":"cebpf4jnsgd1na2vs0mg"},{"bike_id":"4566ec66-9fef-4c13-86b7-64d95eed7333","system_id":"levelo_inurba_marseille","lat":43.31117,"lon":5.37766,"is_reserved":false,"is_disabled":false,"rental_uris":{"android":"levelo://app?vid=4566ec66-9fef-4c13-86b7-64d95eed7333","ios":"levelo://app?vid=4566ec66-9fef-4c13-86b7-64d95eed7333"},"vehicle_type_id":"4","last_reported":1734530947,"current_range_meters":24400,"station_id":"ce4bgt92rcd13ifvqcg0","pricing_plan_id":"cebpf4jnsgd1na2vs0mg"},{"bike_id":"3366bd04-b01f-422f-ae3f-5c53109fb8e2","system_id":"levelo_inurba_marseille","lat":43.2957,"lon":5.37539,"is_reserved":false,"is_disabled":false,"rental_uris":{"android":"levelo://app?vid=3366bd04-b01f-422f-ae3f-5c53109fb8e2","ios":"levelo://app?vid=3366bd04-b01f-422f-ae3f-5c53109fb8e2"},"vehicle_type_id":"4","last_reported":1734530947,"current_range_meters":38800,"station_id":"ce4bgh92rcd13ifvqb50","pricing_plan_id":"cebpf4jnsgd1na2vs0mg"},{"bike_id":"5cc3c06b-e93a-48ae-8763-70f021f35811","system_id":"levelo_inurba_marseille","lat":43.29007,"lon":5.35613,"is_reserved":false,"is_disabled":false,"rental_uris":{"android":"levelo://app?vid=5cc3c06b-e93a-48ae-8763-70f021f35811","ios":"levelo://app?vid=5cc3c06b-e93a-48ae-8763-70f021f35811"},"vehicle_type_id":"4","last_reported":1734530947,"current_range_meters":6800,"station_id":"ce4bhb92rcd13ifvqen0","pricing_plan_id":"cebpf4jnsgd1na2vs0mg"},{"bike_id":"ada1f474-7a65-44b0-b9d1-f87dc55a46c7","system_id":"levelo_inurba_marseille","lat":43.29738,"lon":5.37687,"is_reserved":false,"is_disabled":false,"rental_uris":{"android":"levelo://app?vid=ada1f474-7a65-44b0-b9d1-f87dc55a46c7","ios":"levelo://app?vid=ada1f474-7a65-44b0-b9d1-f87dc55a46c7"},"vehicle_type_id":"4","last_reported":1734530947,"current_range_meters":22800,"station_id":"ce4bgkh2rcd13ifvqbl0","pricing_plan_id":"cebpf4jnsgd1na2vs0mg"},{"bike_id":"b7fe7f41-693b-452e-b2af-3f64f02e91d4","system_id":"levelo_inurba_marseille","lat":43.31369,"lon":5.36688,"is_reserved":false,"is_disabled":false,"rental_uris":{"android":"levelo://app?vid=b7fe7f41-693b-452e-b2af-3f64f02e91d4","ios":"levelo://app?vid=b7fe7f41-693b-452e-b2af-3f64f02e91d4"},"vehicle_type_id":"4","last_reported":1734530947,"current_range_meters":27600,"station_id":"ce4bgr92rcd13ifvqc6g","pricing_plan_id":"cebpf4jnsgd1na2vs0mg"},{"bike_id":"8b21dd7d-3e2f-4cbd-9749-7f883f4710f1","system_id":"levelo_inurba_marseille","lat":43.31221,"lon":5.36845,"is_reserved":false,"is_disabled":false,"rental_uris":{"android":"levelo://app?vid=8b21dd7d-3e2f-4cbd-9749-7f883f4710f1","ios":"levelo://app?vid=8b21dd7d-3e2f-4cbd-9749-7f883f4710f1"},"vehicle_type_id":"4","last_reported":1734530947,"current_range_meters":27600,"station_id":"ce4bgl92rcd13ifvqbq0","pricing_plan_id":"cebpf4jnsgd1na2vs0mg"},{"bike_id":"bba85a74-2c52-4269-a2b5-9bc2de67d67d","system_id":"levelo_inurba_marseille","lat":43.30554,"lon":5.36541,"is_reserved":false,"is_disabled":false,"rental_uris":{"android":"levelo://app?vid=bba85a74-2c52-4269-a2b5-9bc2de67d67d","ios":"levelo://app?vid=bba85a74-2c52-4269-a2b5-9bc2de67d67d"},"vehicle_type_id":"4","last_reported":1734530947,"current_range_meters":38800,"station_id":"ce4bgs12rcd13ifvqcag","pricing_plan_id":"cebpf4jnsgd1na2vs0mg"},{"bike_id":"4b8e41a3-c092-40b0-a609-8b5ec88e85a4","system_id":"levelo_inurba_marseille","lat":43.27969,"lon":5.38741,"is_reserved":false,"is_disabled":false,"rental_uris":{"android":"levelo://app?vid=4b8e41a3-c092-40b0-a609-8b5ec88e85a4","ios":"levelo://app?vid=4b8e41a3-c092-40b0-a609-8b5ec88e85a4"},"vehicle_type_id":"4","last_reported":1734530947,"current_range_meters":16800,"station_id":"ce4bhg12rcd13ifvqf80","pricing_plan_id":"cebpf4jnsgd1na2vs0mg"},{"bike_id":"cab5cb01-b33a-421c-bfaf-c7630f90de8b","system_id":"levelo_inurba_marseille","lat":43.29043,"lon":5.39951,"is_reserved":false,"is_disabled":true,"rental_uris":{"android":"levelo://app?vid=cab5cb01-b33a-421c-bfaf-c7630f90de8b","ios":"levelo://app?vid=cab5cb01-b33a-421c-bfaf-c7630f90de8b"},"vehicle_type_id":"4","last_reported":1734530947,"current_range_meters":0,"station_id":"ce4bh392rcd13ifvqdm0","pricing_plan_id":"cebpf4jnsgd1na2vs0mg"},{"bike_id":"78f5dcee-b6ca-4cfa-ae6f-ebcf64be1236","system_id":"levelo_inurba_marseille","lat":43.32349,"lon":5.40626,"is_reserved":false,"is_disabled":false,"rental_uris":{"android":"levelo://app?vid=78f5dcee-b6ca-4cfa-ae6f-ebcf64be1236","ios":"levelo://app?vid=78f5dcee-b6ca-4cfa-ae6f-ebcf64be1236"},"vehicle_type_id":"4","last_reported":1734530947,"current_range_meters":38800,"station_id":"ce4bhq92rcd13ifvqhjg","pricing_plan_id":"cebpf4jnsgd1na2vs0mg"},{"bike_id":"80b05b51-71c4-43eb-ae94-7b6820fddb65","system_id":"levelo_inurba_marseille","lat":43.28281,"lon":5.35083,"is_reserved":false,"is_disabled":false,"rental_uris":{"android":"levelo://app?vid=80b05b51-71c4-43eb-ae94-7b6820fddb65","ios":"levelo://app?vid=80b05b51-71c4-43eb-ae94-7b6820fddb65"},"vehicle_type_id":"4","last_reported":1734530947,"current_range_meters":25200,"station_id":"ce4bhbp2rcd13ifvqerg","pricing_plan_id":"cebpf4jnsgd1na2vs0mg"},{"bike_id":"a33b825e-c779-4129-842f-aeba22c7390a","system_id":"levelo_inurba_marseille","lat":43.31687,"lon":5.40464,"is_reserved":false,"is_disabled":false,"rental_uris":{"android":"levelo://app?vid=a33b825e-c779-4129-842f-aeba22c7390a","ios":"levelo://app?vid=a33b825e-c779-4129-842f-aeba22c7390a"},"vehicle_type_id":"4","last_reported":1734530947,"current_range_meters":36800,"station_id":"ce4bh012rcd13ifvqd00","pricing_plan_id":"cebpf4jnsgd1na2vs0mg"},{"bike_id":"680358db-eb64-4f35-bba9-4d9ebd5f23e1","system_id":"levelo_inurba_marseille","lat":43.28416,"lon":5.34985,"is_reserved":false,"is_disabled":false,"rental_uris":{"android":"levelo://app?vid=680358db-eb64-4f35-bba9-4d9ebd5f23e1","ios":"levelo://app?vid=680358db-eb64-4f35-bba9-4d9ebd5f23e1"},"vehicle_type_id":"4","last_reported":1734530947,"current_range_meters":8800,"station_id":"ce4bhbh2rcd13ifvqepg","pricing_plan_id":"cebpf4jnsgd1na2vs0mg"},{"bike_id":"1fe1d71b-9ceb-49b1-805d-fc928142083f","system_id":"levelo_inurba_marseille","lat":43.29621,"lon":5.37732,"is_reserved":false,"is_disabled":false,"rental_uris":{"android":"levelo://app?vid=1fe1d71b-9ceb-49b1-805d-fc928142083f","ios":"levelo://app?vid=1fe1d71b-9ceb-49b1-805d-fc928142083f"},"vehicle_type_id":"4","last_reported":1734530947,"current_range_meters":38800,"station_id":"ce4bgi92rcd13ifvqb90","pricing_plan_id":"cebpf4jnsgd1na2vs0mg"},{"bike_id":"0bd5d813-d89e-42f3-8ce9-c06fb9ffedaa","system_id":"levelo_inurba_marseille","lat":43.28942,"lon":5.39652,"is_reserved":false,"is_disabled":true,"rental_uris":{"android":"levelo://app?vid=0bd5d813-d89e-42f3-8ce9-c06fb9ffedaa","ios":"levelo://app?vid=0bd5d813-d89e-42f3-8ce9-c06fb9ffedaa"},"vehicle_type_id":"4","last_reported":1734530947,"current_range_meters":34000,"station_id":"ce4bh3h2rcd13ifvqdn0","pricing_plan_id":"cebpf4jnsgd1na2vs0mg"},{"bike_id":"3f37807f-d28e-422d-981f-3b66e1fb21df","system_id":"levelo_inurba_marseille","lat":43.29845,"lon":5.36267,"is_reserved":false,"is_disabled":false,"rental_uris":{"android":"levelo://app?vid=3f37807f-d28e-422d-981f-3b66e1fb21df","ios":"levelo://app?vid=3f37807f-d28e-422d-981f-3b66e1fb21df"},"vehicle_type_id":"4","last_reported":1734530947,"current_range_meters":38800,"station_id":"ce4bgpp2rcd13ifvqc3g","pricing_plan_id":"cebpf4jnsgd1na2vs0mg"},{"bike_id":"48eca84b-3b6e-406c-a6a3-66b232db0023","system_id":"levelo_inurba_marseille","lat":43.23185,"lon":5.39994,"is_reserved":false,"is_disabled":false,"rental_uris":{"android":"levelo://app?vid=48eca84b-3b6e-406c-a6a3-66b232db0023","ios":"levelo://app?vid=48eca84b-3b6e-406c-a6a3-66b232db0023"},"vehicle_type_id":"4","last_reported":1734530947,"current_range_meters":26800,"station_id":"ce4bhn12rcd13ifvqgqg","pricing_plan_id":"cebpf4jnsgd1na2vs0mg"},{"bike_id":"e06e5437-0ec2-4fc8-8eea-3b1bd1eae0c0","system_id":"levelo_inurba_marseille","lat":43.28267,"lon":5.3506,"is_reserved":false,"is_disabled":false,"rental_uris":{"android":"levelo://app?vid=e06e5437-0ec2-4fc8-8eea-3b1bd1eae0c0","ios":"levelo://app?vid=e06e5437-0ec2-4fc8-8eea-3b1bd1eae0c0"},"vehicle_type_id":"4","last_reported":1734530947,"current_range_meters":39200,"station_id":"ce4bhbp2rcd13ifvqerg","pricing_plan_id":"cebpf4jnsgd1na2vs0mg"},{"bike_id":"9a9ca54f-8f83-4db0-b780-a7eb0fa7f88d","system_id":"levelo_inurba_marseille","lat":43.26018,"lon":5.37554,"is_reserved":false,"is_disabled":false,"rental_uris":{"android":"levelo://app?vid=9a9ca54f-8f83-4db0-b780-a7eb0fa7f88d","ios":"levelo://app?vid=9a9ca54f-8f83-4db0-b780-a7eb0fa7f88d"},"vehicle_type_id":"4","last_reported":1734530947,"current_range_meters":33600,"station_id":"ce4bhgh2rcd13ifvqfa0","pricing_plan_id":"cebpf4jnsgd1na2vs0mg"},{"bike_id":"a3232108-6d4d-45f4-ac66-cd85d6391bc7","system_id":"levelo_inurba_marseille","lat":43.23074,"lon":5.35482,"is_reserved":false,"is_disabled":false,"rental_uris":{"android":"levelo://app?vid=a3232108-6d4d-45f4-ac66-cd85d6391bc7","ios":"levelo://app?vid=a3232108-6d4d-45f4-ac66-cd85d6391bc7"},"vehicle_type_id":"4","last_reported":1734530947,"current_range_meters":37600,"station_id":"cpo3342slgdg3j2ifvpg","pricing_plan_id":"cebpf4jnsgd1na2vs0mg"},{"bike_id":"e83644c1-43ca-4b15-ba38-3a50408b1edd","system_id":"levelo_inurba_marseille","lat":43.31652,"lon":5.40492,"is_reserved":false,"is_disabled":false,"rental_uris":{"android":"levelo://app?vid=e83644c1-43ca-4b15-ba38-3a50408b1edd","ios":"levelo://app?vid=e83644c1-43ca-4b15-ba38-3a50408b1edd"},"vehicle_type_id":"4","last_reported":1734530947,"current_range_meters":32400,"station_id":"ce4bh012rcd13ifvqd00","pricing_plan_id":"cebpf4jnsgd1na2vs0mg"},{"bike_id":"89f002df-2766-4c6a-b5d2-5008d593ed20","system_id":"levelo_inurba_marseille","lat":43.28108,"lon":5.37821,"is_reserved":false,"is_disabled":false,"rental_uris":{"android":"levelo://app?vid=89f002df-2766-4c6a-b5d2-5008d593ed20","ios":"levelo://app?vid=89f002df-2766-4c6a-b5d2-5008d593ed20"},"vehicle_type_id":"4","last_reported":1734530947,"current_range_meters":33600,"station_id":"ce4bha12rcd13ifvqee0","pricing_plan_id":"cebpf4jnsgd1na2vs0mg"},{"bike_id":"36bdf915-8b4b-40b9-875b-7ee4225a8b65","system_id":"levelo_inurba_marseille","lat":43.26067,"lon":5.39391,"is_reserved":false,"is_disabled":false,"rental_uris":{"android":"levelo://app?vid=36bdf915-8b4b-40b9-875b-7ee4225a8b65","ios":"levelo://app?vid=36bdf915-8b4b-40b9-875b-7ee4225a8b65"},"vehicle_type_id":"4","last_reported":1734530947,"current_range_meters":29600,"station_id":"ce4bhh92rcd13ifvqfj0","pricing_plan_id":"cebpf4jnsgd1na2vs0mg"},{"bike_id":"700167d2-8aa4-4d3c-a6a9-24eb398ed348","system_id":"levelo_inurba_marseille","lat":43.28269,"lon":5.35068,"is_reserved":false,"is_disabled":false,"rental_uris":{"android":"levelo://app?vid=700167d2-8aa4-4d3c-a6a9-24eb398ed348","ios":"levelo://app?vid=700167d2-8aa4-4d3c-a6a9-24eb398ed348"},"vehicle_type_id":"4","last_reported":1734530947,"current_range_meters":26000,"station_id":"ce4bhbp2rcd13ifvqerg","pricing_plan_id":"cebpf4jnsgd1na2vs0mg"},{"bike_id":"f627f910-e548-4a34-867a-73c53cee7b54","system_id":"levelo_inurba_marseille","lat":43.30472,"lon":5.37908,"is_reserved":false,"is_disabled":false,"rental_uris":{"android":"levelo://app?vid=f627f910-e548-4a34-867a-73c53cee7b54","ios":"levelo://app?vid=f627f910-e548-4a34-867a-73c53cee7b54"},"vehicle_type_id":"4","last_reported":1734530947,"current_range_meters":20000,"station_id":"ce4bgup2rcd13ifvqcn0","pricing_plan_id":"cebpf4jnsgd1na2vs0mg"},{"bike_id":"52ae8737-5137-4571-b02e-4baf0a6c7515","system_id":"levelo_inurba_marseille","lat":43.3112,"lon":5.37766,"is_reserved":false,"is_disabled":false,"rental_uris":{"android":"levelo://app?vid=52ae8737-5137-4571-b02e-4baf0a6c7515","ios":"levelo://app?vid=52ae8737-5137-4571-b02e-4baf0a6c7515"},"vehicle_type_id":"4","last_reported":1734530947,"current_range_meters":27600,"station_id":"ce4bgt92rcd13ifvqcg0","pricing_plan_id":"cebpf4jnsgd1na2vs0mg"},{"bike_id":"f65fc50c-1ed9-4e6e-9871-4862e95ec14b","system_id":"levelo_inurba_marseille","lat":43.25086,"lon":5.39541,"is_reserved":false,"is_disabled":false,"rental_uris":{"android":"levelo://app?vid=f65fc50c-1ed9-4e6e-9871-4862e95ec14b","ios":"levelo://app?vid=f65fc50c-1ed9-4e6e-9871-4862e95ec14b"},"vehicle_type_id":"4","last_reported":1734530947,"current_range_meters":36800,"station_id":"ce4bhm12rcd13ifvqgkg","pricing_plan_id":"cebpf4jnsgd1na2vs0mg"},{"bike_id":"94920b07-c7e3-4bf9-8036-143bc93c6beb","system_id":"levelo_inurba_marseille","lat":43.25668,"lon":5.41007,"is_reserved":false,"is_disabled":false,"rental_uris":{"android":"levelo://app?vid=94920b07-c7e3-4bf9-8036-143bc93c6beb","ios":"levelo://app?vid=94920b07-c7e3-4bf9-8036-143bc93c6beb"},"vehicle_type_id":"4","last_reported":1734530947,"current_range_meters":39200,"station_id":"ce4bhkp2rcd13ifvqgd0","pricing_plan_id":"cebpf4jnsgd1na2vs0mg"},{"bike_id":"c76cbf8a-8f16-429a-9413-bfb595fe5ba9","system_id":"levelo_inurba_marseille","lat":43.281,"lon":5.37818,"is_reserved":false,"is_disabled":true,"rental_uris":{"android":"levelo://app?vid=c76cbf8a-8f16-429a-9413-bfb595fe5ba9","ios":"levelo://app?vid=c76cbf8a-8f16-429a-9413-bfb595fe5ba9"},"vehicle_type_id":"4","last_reported":1734530947,"current_range_meters":1200,"station_id":"ce4bha12rcd13ifvqee0","pricing_plan_id":"cebpf4jnsgd1na2vs0mg"},{"bike_id":"1f755a75-a51a-47ab-8fe5-948c5d6456a0","system_id":"levelo_inurba_marseille","lat":43.29597,"lon":5.37726,"is_reserved":false,"is_disabled":false,"rental_uris":{"android":"levelo://app?vid=1f755a75-a51a-47ab-8fe5-948c5d6456a0","ios":"levelo://app?vid=1f755a75-a51a-47ab-8fe5-948c5d6456a0"},"vehicle_type_id":"4","last_reported":1734530947,"current_range_meters":10000,"station_id":"ce4bgi92rcd13ifvqb90","pricing_plan_id":"cebpf4jnsgd1na2vs0mg"},{"bike_id":"cf7aba31-b6d5-4386-beb5-488132a6fa7f","system_id":"levelo_inurba_marseille","lat":43.23155,"lon":5.43705,"is_reserved":false,"is_disabled":false,"rental_uris":{"android":"levelo://app?vid=cf7aba31-b6d5-4386-beb5-488132a6fa7f","ios":"levelo://app?vid=cf7aba31-b6d5-4386-beb5-488132a6fa7f"},"vehicle_type_id":"4","last_reported":1734530947,"current_range_meters":31200,"station_id":"ce4bhmp2rcd13ifvqgog","pricing_plan_id":"cebpf4jnsgd1na2vs0mg"},{"bike_id":"c8399855-72d4-4f25-aa5a-52a18924a7b8","system_id":"levelo_inurba_marseille","lat":43.24167,"lon":5.3639,"is_reserved":false,"is_disabled":false,"rental_uris":{"android":"levelo://app?vid=c8399855-72d4-4f25-aa5a-52a18924a7b8","ios":"levelo://app?vid=c8399855-72d4-4f25-aa5a-52a18924a7b8"},"vehicle_type_id":"4","last_reported":1734530947,"current_range_meters":6800,"station_id":"cpo36qri1sfpv3e86is0","pricing_plan_id":"cebpf4jnsgd1na2vs0mg"},{"bike_id":"f8b9f595-57de-4f40-884a-1ccbe4ed31e9","system_id":"levelo_inurba_marseille","lat":43.316876,"lon":5.404833,"is_reserved":false,"is_disabled":false,"rental_uris":{"android":"levelo://app?vid=f8b9f595-57de-4f40-884a-1ccbe4ed31e9","ios":"levelo://app?vid=f8b9f595-57de-4f40-884a-1ccbe4ed31e9"},"vehicle_type_id":"4","last_reported":1734530947,"current_range_meters":38800,"station_id":"ce4bh012rcd13ifvqd00","pricing_plan_id":"cebpf4jnsgd1na2vs0mg"},{"bike_id":"4445b7b8-a637-4564-9692-76939df6a3f4","system_id":"levelo_inurba_marseille","lat":43.27058,"lon":5.40261,"is_reserved":false,"is_disabled":false,"rental_uris":{"android":"levelo://app?vid=4445b7b8-a637-4564-9692-76939df6a3f4","ios":"levelo://app?vid=4445b7b8-a637-4564-9692-76939df6a3f4"},"vehicle_type_id":"4","last_reported":1734530947,"current_range_meters":31200,"station_id":"ce4bhk92rcd13ifvqgc0","pricing_plan_id":"cebpf4jnsgd1na2vs0mg"},{"bike_id":"6d2e7ae9-3772-4447-a539-b32bfe66b29f","system_id":"levelo_inurba_marseille","lat":43.29298,"lon":5.37451,"is_reserved":false,"is_disabled":false,"rental_uris":{"android":"levelo://app?vid=6d2e7ae9-3772-4447-a539-b32bfe66b29f","ios":"levelo://app?vid=6d2e7ae9-3772-4447-a539-b32bfe66b29f"},"vehicle_type_id":"4","last_reported":1734530947,"current_range_meters":38800,"station_id":"ce4bgi12rcd13ifvqb70","pricing_plan_id":"cebpf4jnsgd1na2vs0mg"},{"bike_id":"9b0a500a-36c1-4e42-ba72-729d9bde8a01","system_id":"levelo_inurba_marseille","lat":43.23194,"lon":5.3555,"is_reserved":false,"is_disabled":false,"rental_uris":{"android":"levelo://app?vid=9b0a500a-36c1-4e42-ba72-729d9bde8a01","ios":"levelo://app?vid=9b0a500a-36c1-4e42-ba72-729d9bde8a01"},"vehicle_type_id":"4","last_reported":1734530947,"current_range_meters":34000,"station_id":"ce4bhu92rcd13ifvqi70","pricing_plan_id":"cebpf4jnsgd1na2vs0mg"},{"bike_id":"3dc132c6-7863-4f89-ac1e-bd7fa7a59925","system_id":"levelo_inurba_marseille","lat":43.27679,"lon":5.38868,"is_reserved":false,"is_disabled":false,"rental_uris":{"android":"levelo://app?vid=3dc132c6-7863-4f89-ac1e-bd7fa7a59925","ios":"levelo://app?vid=3dc132c6-7863-4f89-ac1e-bd7fa7a59925"},"vehicle_type_id":"4","last_reported":1734530947,"current_range_meters":38800,"station_id":"ce4bhi12rcd13ifvqfo0","pricing_plan_id":"cebpf4jnsgd1na2vs0mg"},{"bike_id":"5a0b8173-0159-4031-b6e8-cf65e6901cc7","system_id":"levelo_inurba_marseille","lat":43.28,"lon":5.41669,"is_reserved":false,"is_disabled":false,"rental_uris":{"android":"levelo://app?vid=5a0b8173-0159-4031-b6e8-cf65e6901cc7","ios":"levelo://app?vid=5a0b8173-0159-4031-b6e8-cf65e6901cc7"},"vehicle_type_id":"4","last_reported":1734530947,"current_range_meters":37600,"station_id":"ce4bho12rcd13ifvqh1g","pricing_plan_id":"cebpf4jnsgd1na2vs0mg"},{"bike_id":"96f6c28f-4b43-4b88-ba3a-5c5a3fc06c6e","system_id":"levelo_inurba_marseille","lat":43.27063,"lon":5.40283,"is_reserved":false,"is_disabled":false,"rental_uris":{"android":"levelo://app?vid=96f6c28f-4b43-4b88-ba3a-5c5a3fc06c6e","ios":"levelo://app?vid=96f6c28f-4b43-4b88-ba3a-5c5a3fc06c6e"},"vehicle_type_id":"4","last_reported":1734530947,"current_range_meters":35200,"station_id":"ce4bhk92rcd13ifvqgc0","pricing_plan_id":"cebpf4jnsgd1na2vs0mg"},{"bike_id":"0964a333-009c-43df-a369-e7b7f1f82c22","system_id":"levelo_inurba_marseille","lat":43.30545,"lon":5.36693,"is_reserved":false,"is_disabled":true,"rental_uris":{"android":"levelo://app?vid=0964a333-009c-43df-a369-e7b7f1f82c22","ios":"levelo://app?vid=0964a333-009c-43df-a369-e7b7f1f82c22"},"vehicle_type_id":"4","last_reported":1734530947,"current_range_meters":28000,"station_id":"","pricing_plan_id":"cebpf4jnsgd1na2vs0mg"},{"bike_id":"6b99e6f3-6fd4-4ed8-9207-9ae6099ee00e","system_id":"levelo_inurba_marseille","lat":43.26495,"lon":5.39548,"is_reserved":false,"is_disabled":false,"rental_uris":{"android":"levelo://app?vid=6b99e6f3-6fd4-4ed8-9207-9ae6099ee00e","ios":"levelo://app?vid=6b99e6f3-6fd4-4ed8-9207-9ae6099ee00e"},"vehicle_type_id":"4","last_reported":1734530947,"current_range_meters":38400,"station_id":"ce4bhi12rcd13ifvqfq0","pricing_plan_id":"cebpf4jnsgd1na2vs0mg"},{"bike_id":"48ade94a-d0ab-4624-adfd-64271143df05","system_id":"levelo_inurba_marseille","lat":43.31069,"lon":5.38358,"is_reserved":false,"is_disabled":false,"rental_uris":{"android":"levelo://app?vid=48ade94a-d0ab-4624-adfd-64271143df05","ios":"levelo://app?vid=48ade94a-d0ab-4624-adfd-64271143df05"},"vehicle_type_id":"4","last_reported":1734530947,"current_range_meters":16400,"station_id":"ce4bgv92rcd13ifvqcr0","pricing_plan_id":"cebpf4jnsgd1na2vs0mg"},{"bike_id":"af55aa35-e6f5-4652-891c-a52bcdfc25bf","system_id":"levelo_inurba_marseille","lat":43.29034,"lon":5.37561,"is_reserved":false,"is_disabled":false,"rental_uris":{"android":"levelo://app?vid=af55aa35-e6f5-4652-891c-a52bcdfc25bf","ios":"levelo://app?vid=af55aa35-e6f5-4652-891c-a52bcdfc25bf"},"vehicle_type_id":"4","last_reported":1734530947,"current_range_meters":38400,"station_id":"ce4bh692rcd13ifvqe90","pricing_plan_id":"cebpf4jnsgd1na2vs0mg"},{"bike_id":"9d2aefec-f4a3-4a23-a13a-c09b46ffe2e4","system_id":"levelo_inurba_marseille","lat":43.31197,"lon":5.367303,"is_reserved":false,"is_disabled":false,"rental_uris":{"android":"levelo://app?vid=9d2aefec-f4a3-4a23-a13a-c09b46ffe2e4","ios":"levelo://app?vid=9d2aefec-f4a3-4a23-a13a-c09b46ffe2e4"},"vehicle_type_id":"4","last_reported":1734530947,"current_range_meters":37600,"station_id":"","pricing_plan_id":"cebpf4jnsgd1na2vs0mg"},{"bike_id":"9b39c128-89c6-4764-891c-0a652083830f","system_id":"levelo_inurba_marseille","lat":43.295227,"lon":5.385108,"is_reserved":false,"is_disabled":false,"rental_uris":{"android":"levelo://app?vid=9b39c128-89c6-4764-891c-0a652083830f","ios":"levelo://app?vid=9b39c128-89c6-4764-891c-0a652083830f"},"vehicle_type_id":"4","last_reported":1734530947,"current_range_meters":35200,"station_id":"ce4bgih2rcd13ifvqba0","pricing_plan_id":"cebpf4jnsgd1na2vs0mg"},{"bike_id":"53f4ad25-935a-4c4a-a538-7283e0f43637","system_id":"levelo_inurba_marseille","lat":43.29583,"lon":5.36747,"is_reserved":false,"is_disabled":false,"rental_uris":{"android":"levelo://app?vid=53f4ad25-935a-4c4a-a538-7283e0f43637","ios":"levelo://app?vid=53f4ad25-935a-4c4a-a538-7283e0f43637"},"vehicle_type_id":"4","last_reported":1734530947,"current_range_meters":38800,"station_id":"ce4bgph2rcd13ifvqc2g","pricing_plan_id":"cebpf4jnsgd1na2vs0mg"},{"bike_id":"bad8f74f-3cb3-4d9a-8174-a1b6b60e1361","system_id":"levelo_inurba_marseille","lat":43.30547,"lon":5.36522,"is_reserved":false,"is_disabled":false,"rental_uris":{"android":"levelo://app?vid=bad8f74f-3cb3-4d9a-8174-a1b6b60e1361","ios":"levelo://app?vid=bad8f74f-3cb3-4d9a-8174-a1b6b60e1361"},"vehicle_type_id":"4","last_reported":1734530947,"current_range_meters":32000,"station_id":"ce4bgs12rcd13ifvqcag","pricing_plan_id":"cebpf4jnsgd1na2vs0mg"},{"bike_id":"ab4cf047-2518-4238-a07c-ebc316cfc0cc","system_id":"levelo_inurba_marseille","lat":43.31691,"lon":5.40474,"is_reserved":false,"is_disabled":false,"rental_uris":{"android":"levelo://app?vid=ab4cf047-2518-4238-a07c-ebc316cfc0cc","ios":"levelo://app?vid=ab4cf047-2518-4238-a07c-ebc316cfc0cc"},"vehicle_type_id":"4","last_reported":1734530947,"current_range_meters":30800,"station_id":"ce4bh012rcd13ifvqd00","pricing_plan_id":"cebpf4jnsgd1na2vs0mg"},{"bike_id":"0207f8a4-516c-46ff-9895-b226d519d4c1","system_id":"levelo_inurba_marseille","lat":43.231964,"lon":5.355462,"is_reserved":false,"is_disabled":false,"rental_uris":{"android":"levelo://app?vid=0207f8a4-516c-46ff-9895-b226d519d4c1","ios":"levelo://app?vid=0207f8a4-516c-46ff-9895-b226d519d4c1"},"vehicle_type_id":"4","last_reported":1734530947,"current_range_meters":36400,"station_id":"ce4bhu92rcd13ifvqi70","pricing_plan_id":"cebpf4jnsgd1na2vs0mg"},{"bike_id":"f2f07f68-d217-4b41-90fe-09e08be3fa63","system_id":"levelo_inurba_marseille","lat":43.26565,"lon":5.38994,"is_reserved":false,"is_disabled":false,"rental_uris":{"android":"levelo://app?vid=f2f07f68-d217-4b41-90fe-09e08be3fa63","ios":"levelo://app?vid=f2f07f68-d217-4b41-90fe-09e08be3fa63"},"vehicle_type_id":"4","last_reported":1734530947,"current_range_meters":20400,"station_id":"ce4bhe12rcd13ifvqf30","pricing_plan_id":"cebpf4jnsgd1na2vs0mg"},{"bike_id":"82f7f145-591c-4ce0-8f76-660882a2845e","system_id":"levelo_inurba_marseille","lat":43.33597,"lon":5.40982,"is_reserved":false,"is_disabled":true,"rental_uris":{"android":"levelo://app?vid=82f7f145-591c-4ce0-8f76-660882a2845e","ios":"levelo://app?vid=82f7f145-591c-4ce0-8f76-660882a2845e"},"vehicle_type_id":"4","last_reported":1734530947,"current_range_meters":29600,"station_id":"ce4bhqh2rcd13ifvqhmg","pricing_plan_id":"cebpf4jnsgd1na2vs0mg"},{"bike_id":"c38045ec-4727-4dba-8baa-cc18e3beafa8","system_id":"levelo_inurba_marseille","lat":43.307961,"lon":5.435088,"is_reserved":false,"is_disabled":false,"rental_uris":{"android":"levelo://app?vid=c38045ec-4727-4dba-8baa-cc18e3beafa8","ios":"levelo://app?vid=c38045ec-4727-4dba-8baa-cc18e3beafa8"},"vehicle_type_id":"4","last_reported":1734530947,"current_range_meters":6000,"station_id":"ce4bhph2rcd13ifvqheg","pricing_plan_id":"cebpf4jnsgd1na2vs0mg"},{"bike_id":"1c519836-f340-47a7-b84c-6bc42f0b2387","system_id":"levelo_inurba_marseille","lat":43.31719,"lon":5.37746,"is_reserved":false,"is_disabled":false,"rental_uris":{"android":"levelo://app?vid=1c519836-f340-47a7-b84c-6bc42f0b2387","ios":"levelo://app?vid=1c519836-f340-47a7-b84c-6bc42f0b2387"},"vehicle_type_id":"4","last_reported":1734530947,"current_range_meters":38800,"station_id":"ce4bgth2rcd13ifvqch0","pricing_plan_id":"cebpf4jnsgd1na2vs0mg"},{"bike_id":"ac7c5f56-daad-496c-965f-9103737000e8","system_id":"levelo_inurba_marseille","lat":43.23968,"lon":5.36647,"is_reserved":false,"is_disabled":false,"rental_uris":{"android":"levelo://app?vid=ac7c5f56-daad-496c-965f-9103737000e8","ios":"levelo://app?vid=ac7c5f56-daad-496c-965f-9103737000e8"},"vehicle_type_id":"4","last_reported":1734530947,"current_range_meters":38400,"station_id":"ce4bhi12rcd13ifvqfp0","pricing_plan_id":"cebpf4jnsgd1na2vs0mg"},{"bike_id":"2cfd643a-c674-46a9-9d29-5f3a8b06261a","system_id":"levelo_inurba_marseille","lat":43.32457,"lon":5.36588,"is_reserved":false,"is_disabled":false,"rental_uris":{"android":"levelo://app?vid=2cfd643a-c674-46a9-9d29-5f3a8b06261a","ios":"levelo://app?vid=2cfd643a-c674-46a9-9d29-5f3a8b06261a"},"vehicle_type_id":"4","last_reported":1734530947,"current_range_meters":24800,"station_id":"ce4bhs12rcd13ifvqhvg","pricing_plan_id":"cebpf4jnsgd1na2vs0mg"},{"bike_id":"55eb3b8d-2227-470b-b9a8-f7520629c64b","system_id":"levelo_inurba_marseille","lat":43.30548,"lon":5.36531,"is_reserved":false,"is_disabled":false,"rental_uris":{"android":"levelo://app?vid=55eb3b8d-2227-470b-b9a8-f7520629c64b","ios":"levelo://app?vid=55eb3b8d-2227-470b-b9a8-f7520629c64b"},"vehicle_type_id":"4","last_reported":1734530947,"current_range_meters":18000,"station_id":"ce4bgs12rcd13ifvqcag","pricing_plan_id":"cebpf4jnsgd1na2vs0mg"},{"bike_id":"5f71f7f1-4578-4644-a530-7793ca75cb66","system_id":"levelo_inurba_marseille","lat":43.291982,"lon":5.358011,"is_reserved":false,"is_disabled":false,"rental_uris":{"android":"levelo://app?vid=5f71f7f1-4578-4644-a530-7793ca75cb66","ios":"levelo://app?vid=5f71f7f1-4578-4644-a530-7793ca75cb66"},"vehicle_type_id":"4","last_reported":1734530947,"current_range_meters":32400,"station_id":"ce4bhb12rcd13ifvqel0","pricing_plan_id":"cebpf4jnsgd1na2vs0mg"},{"bike_id":"c573e8c0-4326-474f-99df-316d45fdfe60","system_id":"levelo_inurba_marseille","lat":43.27058,"lon":5.40271,"is_reserved":false,"is_disabled":false,"rental_uris":{"android":"levelo://app?vid=c573e8c0-4326-474f-99df-316d45fdfe60","ios":"levelo://app?vid=c573e8c0-4326-474f-99df-316d45fdfe60"},"vehicle_type_id":"4","last_reported":1734530947,"current_range_meters":28400,"station_id":"ce4bhk92rcd13ifvqgc0","pricing_plan_id":"cebpf4jnsgd1na2vs0mg"},{"bike_id":"ac819833-beca-4261-9800-c0ebd73640da","system_id":"levelo_inurba_marseille","lat":43.25002,"lon":5.38925,"is_reserved":false,"is_disabled":false,"rental_uris":{"android":"levelo://app?vid=ac819833-beca-4261-9800-c0ebd73640da","ios":"levelo://app?vid=ac819833-beca-4261-9800-c0ebd73640da"},"vehicle_type_id":"4","last_reported":1734530947,"current_range_meters":29600,"station_id":"ce4bhgp2rcd13ifvqfd0","pricing_plan_id":"cebpf4jnsgd1na2vs0mg"},{"bike_id":"8acf798a-377b-4d20-b9d0-16179c5a08b1","system_id":"levelo_inurba_marseille","lat":43.3021,"lon":5.39462,"is_reserved":false,"is_disabled":false,"rental_uris":{"android":"levelo://app?vid=8acf798a-377b-4d20-b9d0-16179c5a08b1","ios":"levelo://app?vid=8acf798a-377b-4d20-b9d0-16179c5a08b1"},"vehicle_type_id":"4","last_reported":1734530947,"current_range_meters":28400,"station_id":"ce4bh0p2rcd13ifvqd70","pricing_plan_id":"cebpf4jnsgd1na2vs0mg"},{"bike_id":"0904662f-904b-42f8-b521-159611f89ceb","system_id":"levelo_inurba_marseille","lat":43.28673,"lon":5.38675,"is_reserved":false,"is_disabled":false,"rental_uris":{"android":"levelo://app?vid=0904662f-904b-42f8-b521-159611f89ceb","ios":"levelo://app?vid=0904662f-904b-42f8-b521-159611f89ceb"},"vehicle_type_id":"4","last_reported":1734530947,"current_range_meters":38400,"station_id":"ce4bh492rcd13ifvqdug","pricing_plan_id":"cebpf4jnsgd1na2vs0mg"},{"bike_id":"ce0c54c2-8af8-4550-bc39-3fc8ad33035d","system_id":"levelo_inurba_marseille","lat":43.29152,"lon":5.40124,"is_reserved":false,"is_disabled":true,"rental_uris":{"android":"levelo://app?vid=ce0c54c2-8af8-4550-bc39-3fc8ad33035d","ios":"levelo://app?vid=ce0c54c2-8af8-4550-bc39-3fc8ad33035d"},"vehicle_type_id":"4","last_reported":1734530947,"current_range_meters":14800,"station_id":"","pricing_plan_id":"cebpf4jnsgd1na2vs0mg"},{"bike_id":"94dbe6ce-ba1d-41dd-b0cf-1f05a50be5b3","system_id":"levelo_inurba_marseille","lat":43.23191,"lon":5.35581,"is_reserved":false,"is_disabled":false,"rental_uris":{"android":"levelo://app?vid=94dbe6ce-ba1d-41dd-b0cf-1f05a50be5b3","ios":"levelo://app?vid=94dbe6ce-ba1d-41dd-b0cf-1f05a50be5b3"},"vehicle_type_id":"4","last_reported":1734530947,"current_range_meters":30000,"station_id":"ce4bhu92rcd13ifvqi70","pricing_plan_id":"cebpf4jnsgd1na2vs0mg"},{"bike_id":"7b305c6f-361b-46c6-bcc8-6b2d9fd084fa","system_id":"levelo_inurba_marseille","lat":43.28119,"lon":5.4422,"is_reserved":false,"is_disabled":true,"rental_uris":{"android":"levelo://app?vid=7b305c6f-361b-46c6-bcc8-6b2d9fd084fa","ios":"levelo://app?vid=7b305c6f-361b-46c6-bcc8-6b2d9fd084fa"},"vehicle_type_id":"4","last_reported":1734530947,"current_range_meters":0,"station_id":"","pricing_plan_id":"cebpf4jnsgd1na2vs0mg"},{"bike_id":"096a7850-aaf4-4da2-8608-845011c432b5","system_id":"levelo_inurba_marseille","lat":43.33736,"lon":5.39185,"is_reserved":false,"is_disabled":false,"rental_uris":{"android":"levelo://app?vid=096a7850-aaf4-4da2-8608-845011c432b5","ios":"levelo://app?vid=096a7850-aaf4-4da2-8608-845011c432b5"},"vehicle_type_id":"4","last_reported":1734530947,"current_range_meters":38800,"station_id":"ce4bhr92rcd13ifvqhsg","pricing_plan_id":"cebpf4jnsgd1na2vs0mg"},{"bike_id":"e193505e-10a8-4b4b-8af5-b42f326d9e04","system_id":"levelo_inurba_marseille","lat":43.27058,"lon":5.40243,"is_reserved":false,"is_disabled":false,"rental_uris":{"android":"levelo://app?vid=e193505e-10a8-4b4b-8af5-b42f326d9e04","ios":"levelo://app?vid=e193505e-10a8-4b4b-8af5-b42f326d9e04"},"vehicle_type_id":"4","last_reported":1734530947,"current_range_meters":24800,"station_id":"ce4bhk92rcd13ifvqgc0","pricing_plan_id":"cebpf4jnsgd1na2vs0mg"},{"bike_id":"3edc45b8-586e-4ff3-98ae-bc0e92dab254","system_id":"levelo_inurba_marseille","lat":43.23183,"lon":5.39977,"is_reserved":false,"is_disabled":false,"rental_uris":{"android":"levelo://app?vid=3edc45b8-586e-4ff3-98ae-bc0e92dab254","ios":"levelo://app?vid=3edc45b8-586e-4ff3-98ae-bc0e92dab254"},"vehicle_type_id":"4","last_reported":1734530947,"current_range_meters":38800,"station_id":"ce4bhn12rcd13ifvqgqg","pricing_plan_id":"cebpf4jnsgd1na2vs0mg"},{"bike_id":"c81d12c0-b3b4-4b91-a004-bb72046d4aaa","system_id":"levelo_inurba_marseille","lat":43.3014,"lon":5.37431,"is_reserved":false,"is_disabled":false,"rental_uris":{"android":"levelo://app?vid=c81d12c0-b3b4-4b91-a004-bb72046d4aaa","ios":"levelo://app?vid=c81d12c0-b3b4-4b91-a004-bb72046d4aaa"},"vehicle_type_id":"4","last_reported":1734530947,"current_range_meters":26000,"station_id":"ce4bgs92rcd13ifvqcc0","pricing_plan_id":"cebpf4jnsgd1na2vs0mg"},{"bike_id":"8d1c4201-2a72-4c4e-a53e-78bc816e5adf","system_id":"levelo_inurba_marseille","lat":43.26689,"lon":5.38276,"is_reserved":false,"is_disabled":false,"rental_uris":{"android":"levelo://app?vid=8d1c4201-2a72-4c4e-a53e-78bc816e5adf","ios":"levelo://app?vid=8d1c4201-2a72-4c4e-a53e-78bc816e5adf"},"vehicle_type_id":"4","last_reported":1734530947,"current_range_meters":36000,"station_id":"ce4bhg92rcd13ifvqf90","pricing_plan_id":"cebpf4jnsgd1na2vs0mg"},{"bike_id":"ae0e7118-6f59-4232-bfe0-1e559ebff2c0","system_id":"levelo_inurba_marseille","lat":43.30277,"lon":5.377,"is_reserved":false,"is_disabled":false,"rental_uris":{"android":"levelo://app?vid=ae0e7118-6f59-4232-bfe0-1e559ebff2c0","ios":"levelo://app?vid=ae0e7118-6f59-4232-bfe0-1e559ebff2c0"},"vehicle_type_id":"4","last_reported":1734530947,"current_range_meters":37600,"station_id":"ce4bguh2rcd13ifvqcj0","pricing_plan_id":"cebpf4jnsgd1na2vs0mg"},{"bike_id":"db096120-123f-4da5-ad64-583f4719ba51","system_id":"levelo_inurba_marseille","lat":43.30883,"lon":5.37625,"is_reserved":false,"is_disabled":false,"rental_uris":{"android":"levelo://app?vid=db096120-123f-4da5-ad64-583f4719ba51","ios":"levelo://app?vid=db096120-123f-4da5-ad64-583f4719ba51"},"vehicle_type_id":"4","last_reported":1734530947,"current_range_meters":14000,"station_id":"","pricing_plan_id":"cebpf4jnsgd1na2vs0mg"},{"bike_id":"571f2c91-c998-46dc-b43e-fb4d37560c52","system_id":"levelo_inurba_marseille","lat":43.25819,"lon":5.39428,"is_reserved":false,"is_disabled":false,"rental_uris":{"android":"levelo://app?vid=571f2c91-c998-46dc-b43e-fb4d37560c52","ios":"levelo://app?vid=571f2c91-c998-46dc-b43e-fb4d37560c52"},"vehicle_type_id":"4","last_reported":1734530947,"current_range_meters":38800,"station_id":"ce4bhip2rcd13ifvqft0","pricing_plan_id":"cebpf4jnsgd1na2vs0mg"},{"bike_id":"4ba3c271-8664-4d2d-bc52-e9bc05d98e16","system_id":"levelo_inurba_marseille","lat":43.34136,"lon":5.40911,"is_reserved":false,"is_disabled":false,"rental_uris":{"android":"levelo://app?vid=4ba3c271-8664-4d2d-bc52-e9bc05d98e16","ios":"levelo://app?vid=4ba3c271-8664-4d2d-bc52-e9bc05d98e16"},"vehicle_type_id":"4","last_reported":1734530947,"current_range_meters":8400,"station_id":"ce4bhqh2rcd13ifvqhlg","pricing_plan_id":"cebpf4jnsgd1na2vs0mg"},{"bike_id":"d51b49fa-b8ee-45fb-ae69-b5c3f9283df6","system_id":"levelo_inurba_marseille","lat":43.30289,"lon":5.37694,"is_reserved":false,"is_disabled":false,"rental_uris":{"android":"levelo://app?vid=d51b49fa-b8ee-45fb-ae69-b5c3f9283df6","ios":"levelo://app?vid=d51b49fa-b8ee-45fb-ae69-b5c3f9283df6"},"vehicle_type_id":"4","last_reported":1734530947,"current_range_meters":36800,"station_id":"ce4bguh2rcd13ifvqcj0","pricing_plan_id":"cebpf4jnsgd1na2vs0mg"},{"bike_id":"ed29f22f-4957-4da2-bc3c-fe2d49dbf5d3","system_id":"levelo_inurba_marseille","lat":43.30469,"lon":5.37913,"is_reserved":false,"is_disabled":false,"rental_uris":{"android":"levelo://app?vid=ed29f22f-4957-4da2-bc3c-fe2d49dbf5d3","ios":"levelo://app?vid=ed29f22f-4957-4da2-bc3c-fe2d49dbf5d3"},"vehicle_type_id":"4","last_reported":1734530947,"current_range_meters":38800,"station_id":"ce4bgup2rcd13ifvqcn0","pricing_plan_id":"cebpf4jnsgd1na2vs0mg"},{"bike_id":"15b06ab3-5941-43b5-a9a5-ceb90aabbb54","system_id":"levelo_inurba_marseille","lat":43.22939,"lon":5.35381,"is_reserved":false,"is_disabled":false,"rental_uris":{"android":"levelo://app?vid=15b06ab3-5941-43b5-a9a5-ceb90aabbb54","ios":"levelo://app?vid=15b06ab3-5941-43b5-a9a5-ceb90aabbb54"},"vehicle_type_id":"4","last_reported":1734530947,"current_range_meters":38800,"station_id":"cpo3532slgdg3j2ikp40","pricing_plan_id":"cebpf4jnsgd1na2vs0mg"},{"bike_id":"1e8163a0-a7f4-4309-bedb-6ff019b4d470","system_id":"levelo_inurba_marseille","lat":43.28937,"lon":5.36634,"is_reserved":false,"is_disabled":false,"rental_uris":{"android":"levelo://app?vid=1e8163a0-a7f4-4309-bedb-6ff019b4d470","ios":"levelo://app?vid=1e8163a0-a7f4-4309-bedb-6ff019b4d470"},"vehicle_type_id":"4","last_reported":1734530947,"current_range_meters":38400,"station_id":"ce4bhap2rcd13ifvqek0","pricing_plan_id":"cebpf4jnsgd1na2vs0mg"},{"bike_id":"15014e05-dfa4-44a9-ae6b-fd0ce973cc17","system_id":"levelo_inurba_marseille","lat":43.24399,"lon":5.37063,"is_reserved":false,"is_disabled":false,"rental_uris":{"android":"levelo://app?vid=15014e05-dfa4-44a9-ae6b-fd0ce973cc17","ios":"levelo://app?vid=15014e05-dfa4-44a9-ae6b-fd0ce973cc17"},"vehicle_type_id":"4","last_reported":1734530947,"current_range_meters":37600,"station_id":"ce4bhhh2rcd13ifvqfk0","pricing_plan_id":"cebpf4jnsgd1na2vs0mg"},{"bike_id":"6a0ae4c9-6ed4-4a44-b5f0-9a425887e29c","system_id":"levelo_inurba_marseille","lat":43.30353,"lon":5.41887,"is_reserved":false,"is_disabled":true,"rental_uris":{"android":"levelo://app?vid=6a0ae4c9-6ed4-4a44-b5f0-9a425887e29c","ios":"levelo://app?vid=6a0ae4c9-6ed4-4a44-b5f0-9a425887e29c"},"vehicle_type_id":"4","last_reported":1734530947,"current_range_meters":0,"station_id":"ce4bhop2rcd13ifvqh7g","pricing_plan_id":"cebpf4jnsgd1na2vs0mg"},{"bike_id":"1b636e69-355f-42ec-a8dd-0e177ddb1933","system_id":"levelo_inurba_marseille","lat":43.25493,"lon":5.37654,"is_reserved":false,"is_disabled":false,"rental_uris":{"android":"levelo://app?vid=1b636e69-355f-42ec-a8dd-0e177ddb1933","ios":"levelo://app?vid=1b636e69-355f-42ec-a8dd-0e177ddb1933"},"vehicle_type_id":"4","last_reported":1734530947,"current_range_meters":39200,"station_id":"ce4bhh12rcd13ifvqff0","pricing_plan_id":"cebpf4jnsgd1na2vs0mg"},{"bike_id":"e3423766-ff70-4b7b-a941-b3f451968318","system_id":"levelo_inurba_marseille","lat":43.29551,"lon":5.42284,"is_reserved":false,"is_disabled":true,"rental_uris":{"android":"levelo://app?vid=e3423766-ff70-4b7b-a941-b3f451968318","ios":"levelo://app?vid=e3423766-ff70-4b7b-a941-b3f451968318"},"vehicle_type_id":"4","last_reported":1734530947,"current_range_meters":38800,"station_id":"ce4bhph2rcd13ifvqhdg","pricing_plan_id":"cebpf4jnsgd1na2vs0mg"},{"bike_id":"7761074d-0bde-4e63-828e-f822e106ba8a","system_id":"levelo_inurba_marseille","lat":43.23184,"lon":5.3999,"is_reserved":false,"is_disabled":false,"rental_uris":{"android":"levelo://app?vid=7761074d-0bde-4e63-828e-f822e106ba8a","ios":"levelo://app?vid=7761074d-0bde-4e63-828e-f822e106ba8a"},"vehicle_type_id":"4","last_reported":1734530947,"current_range_meters":38400,"station_id":"ce4bhn12rcd13ifvqgqg","pricing_plan_id":"cebpf4jnsgd1na2vs0mg"},{"bike_id":"c96e487f-aedd-4b12-9ec9-6f304f1dd3a7","system_id":"levelo_inurba_marseille","lat":43.29256,"lon":5.40905,"is_reserved":false,"is_disabled":false,"rental_uris":{"android":"levelo://app?vid=c96e487f-aedd-4b12-9ec9-6f304f1dd3a7","ios":"levelo://app?vid=c96e487f-aedd-4b12-9ec9-6f304f1dd3a7"},"vehicle_type_id":"4","last_reported":1734530947,"current_range_meters":24800,"station_id":"ce4bh192rcd13ifvqdc0","pricing_plan_id":"cebpf4jnsgd1na2vs0mg"},{"bike_id":"ed9211a5-8a9b-4791-9676-40d5da4ce6f1","system_id":"levelo_inurba_marseille","lat":43.31708,"lon":5.4371,"is_reserved":false,"is_disabled":false,"rental_uris":{"android":"levelo://app?vid=ed9211a5-8a9b-4791-9676-40d5da4ce6f1","ios":"levelo://app?vid=ed9211a5-8a9b-4791-9676-40d5da4ce6f1"},"vehicle_type_id":"4","last_reported":1734530947,"current_range_meters":38800,"station_id":"ce4bhp92rcd13ifvqhcg","pricing_plan_id":"cebpf4jnsgd1na2vs0mg"},{"bike_id":"21395083-60c7-40e6-95cd-1140f647345e","system_id":"levelo_inurba_marseille","lat":43.26552,"lon":5.37285,"is_reserved":false,"is_disabled":false,"rental_uris":{"android":"levelo://app?vid=21395083-60c7-40e6-95cd-1140f647345e","ios":"levelo://app?vid=21395083-60c7-40e6-95cd-1140f647345e"},"vehicle_type_id":"4","last_reported":1734530947,"current_range_meters":38400,"station_id":"ce4bhg12rcd13ifvqf70","pricing_plan_id":"cebpf4jnsgd1na2vs0mg"},{"bike_id":"dda38de9-f2fc-4b22-ab17-c69940e2958f","system_id":"levelo_inurba_marseille","lat":43.23671,"lon":5.36261,"is_reserved":false,"is_disabled":false,"rental_uris":{"android":"levelo://app?vid=dda38de9-f2fc-4b22-ab17-c69940e2958f","ios":"levelo://app?vid=dda38de9-f2fc-4b22-ab17-c69940e2958f"},"vehicle_type_id":"4","last_reported":1734530947,"current_range_meters":23200,"station_id":"ce4bhu92rcd13ifvqi70","pricing_plan_id":"cebpf4jnsgd1na2vs0mg"},