{"last_updated":1683867982,"ttl":30,"version":"2.2","data":{"bikes":[{"bike_id":"0ae934da-8e6e-4e8c-b64d-8647b24ab0d9","system_id":"levelo_inurba_marseille","lat":43.312239,"lon":5.368562,"is_reserved":false,"is_disabled":false,"rental_uris":{"android":"levelo://app?vid=0ae934da-8e6e-4e8c-b64d-8647b24ab0d9","ios":"levelo://app?vid=0ae934da-8e6e-4e8c-b64d-8647b24ab0d9"},"vehicle_type_id":"4","last_reported":1683867982,"current_range_meters":28000,"station_id":"ce4bgl92rcd13ifvqbq0","pricing_plan_id":"free"},{"bike_id":"2f20d674-e7e2-4726-a967-43c0ac2af978","system_id":"levelo_inurba_marseille","lat":43.312239,"lon":5.368562,"is_reserved":false,"is_disabled":false,"rental_uris":{"android":"levelo://app?vid=2f20d674-e7e2-4726-a967-43c0ac2af978","ios":"levelo://app?vid=2f20d674-e7e2-4726-a967-43c0ac2af978"},"vehicle_type_id":"4","last_reported":1683867982,"current_range_meters":23200,"station_id":"ce4bgl92rcd13ifvqbq0","pricing_plan_id":"free"},{"bike_id":"9e73ac15-2ec6-438a-8b2a-1c76cf0698bb","system_id":"levelo_inurba_marseille","lat":43.312239,"lon":5.368562,"is_reserved":false,"is_disabled":false,"rental_uris":{"android":"levelo://app?vid=9e73ac15-2ec6-438a-8b2a-1c76cf0698bb","ios":"levelo://app?vid=9e73ac15-2ec6-438a-8b2a-1c76cf0698bb"},"vehicle_type_id":"4","last_reported":1683867982,"current_range_meters":31600,"station_id":"ce4bgl92rcd13ifvqbq0","pricing_plan_id":"free"},{"bike_id":"7b877790-cfac-4d39-a912-5047a88d26cc","system_id":"levelo_inurba_marseille","lat":43.309076,"lon":5.368465,"is_reserved":false,"is_disabled":false,"rental_uris":{"android":"levelo://app?vid=7b877790-cfac-4d39-a912-5047a88d26cc","ios":"levelo://app?vid=7b877790-cfac-4d39-a912-5047a88d26cc"},"vehicle_type_id":"4","last_reported":1683867982,"current_range_meters":27200,"station_id":"ce4bgn92rcd13ifvqbvg","pricing_plan_id":"free"},{"bike_id":"b69695d7-1f27-436f-9042-37149339c135","system_id":"levelo_inurba_marseille","lat":43.314811,"lon":5.373103,"is_reserved":false,"is_disabled":false,"rental_uris":{"android":"levelo://app?vid=b69695d7-1f27-436f-9042-37149339c135","ios":"levelo://app?vid=b69695d7-1f27-436f-9042-37149339c135"},"vehicle_type_id":"4","last_reported":1683867982,"current_range_meters":28000,"station_id":"ce4bgt12rcd13ifvqcd0","pricing_plan_id":"free"},{"bike_id":"311deb71-5b40-4653-9384-440dee91bb60","system_id":"levelo_inurba_marseille","lat":43.314811,"lon":5.373103,"is_reserved":false,"is_disabled":false,"rental_uris":{"android":"levelo://app?vid=311deb71-5b40-4653-9384-440dee91bb60","ios":"levelo://app?vid=311deb71-5b40-4653-9384-440dee91bb60"},"vehicle_type_id":"4","last_reported":1683867982,"current_range_meters":28000,"station_id":"ce4bgt12rcd13ifvqcd0","pricing_plan_id":"free"},{"bike_id":"8857a7bd-9846-40f7-8ed0-18cb1c2e0b6e","system_id":"levelo_inurba_marseille","lat":43.314811,"lon":5.373103,"is_reserved":false,"is_disabled":false,"rental_uris":{"android":"levelo://app?vid=8857a7bd-9846-40f7-8ed0-18cb1c2e0b6e","ios":"levelo://app?vid=8857a7bd-9846-40f7-8ed0-18cb1c2e0b6e"},"vehicle_type_id":"4","last_reported":1683867982,"current_range_meters":28000,"station_id":"ce4bgt12rcd13ifvqcd0","pricing_plan_id":"free"},{"bike_id":"d78da7ab-01f6-4b11-b1ad-5efa32f1fa94","system_id":"levelo_inurba_marseille","lat":43.314811,"lon":5.373103,"is_reserved":false,"is_disabled":false,"rental_uris":{"android":"levelo://app?vid=d78da7ab-01f6-4b11-b1ad-5efa32f1fa94","ios":"levelo://app?vid=d78da7ab-01f6-4b11-b1ad-5efa32f1fa94"},"vehicle_type_id":"4","last_reported":1683867982,"current_range_meters":23600,"station_id":"ce4bgt12rcd13ifvqcd0","pricing_plan_id":"free"},{"bike_id":"9f6d2cc6-a5d6-4ab7-805f-6f6527a5f2b8","system_id":"levelo_inurba_marseille","lat":43.314811,"lon":5.373103,"is_reserved":false,"is_disabled":false,"rental_uris":{"android":"levelo://app?vid=9f6d2cc6-a5d6-4ab7-805f-6f6527a5f2b8","ios":"levelo://app?vid=9f6d2cc6-a5d6-4ab7-805f-6f6527a5f2b8"},"vehicle_type_id":"4","last_reported":1683867982,"current_range_meters":28400,"station_id":"ce4bgt12rcd13ifvqcd0","pricing_plan_id":"free"},{"bike_id":"63898fd6-e168-40af-b647-f250636dda3d","system_id":"levelo_inurba_marseille","lat":43.314811,"lon":5.373103,"is_reserved":false,"is_disabled":false,"rental_uris":{"android":"levelo://app?vid=63898fd6-e168-40af-b647-f250636dda3d","ios":"levelo://app?vid=63898fd6-e168-40af-b647-f250636dda3d"},"vehicle_type_id":"4","last_reported":1683867982,"current_range_meters":30000,"station_id":"ce4bgt12rcd13ifvqcd0","pricing_plan_id":"free"},{"bike_id":"28c9961e-7d39-4a4a-8933-92eb0213da24","system_id":"levelo_inurba_marseille","lat":43.314811,"lon":5.373103,"is_reserved":false,"is_disabled":false,"rental_uris":{"android":"levelo://app?vid=28c9961e-7d39-4a4a-8933-92eb0213da24","ios":"levelo://app?vid=28c9961e-7d39-4a4a-8933-92eb0213da24"},"vehicle_type_id":"4","last_reported":1683867982,"current_range_meters":31200,"station_id":"ce4bgt12rcd13ifvqcd0","pricing_plan_id":"free"},{"bike_id":"cd2416c2-1185-458c-9b4f-20205e4f694a","system_id":"levelo_inurba_marseille","lat":43.314811,"lon":5.373103,"is_reserved":false,"is_disabled":false,"rental_uris":{"android":"levelo://app?vid=cd2416c2-1185-458c-9b4f-20205e4f694a","ios":"levelo://app?vid=cd2416c2-1185-458c-9b4f-20205e4f694a"},"vehicle_type_id":"4","last_reported":1683867982,"current_range_meters":31200,"station_id":"ce4bgt12rcd13ifvqcd0","pricing_plan_id":"free"},{"bike_id":"c89bdc92-624d-45f5-9b79-66c9c4a03677","system_id":"levelo_inurba_marseille","lat":43.308614,"lon":5.372098,"is_reserved":false,"is_disabled":false,"rental_uris":{"android":"levelo://app?vid=c89bdc92-624d-45f5-9b79-66c9c4a03677","ios":"levelo://app?vid=c89bdc92-624d-45f5-9b79-66c9c4a03677"},"vehicle_type_id":"4","last_reported":1683867982,"current_range_meters":18800,"station_id":"ce4bguh2rcd13ifvqckg","pricing_plan_id":"free"},{"bike_id":"1184d4db-db44-49fc-bc4d-d87b4d0f7f83","system_id":"levelo_inurba_marseille","lat":43.308614,"lon":5.372098,"is_reserved":false,"is_disabled":false,"rental_uris":{"android":"levelo://app?vid=1184d4db-db44-49fc-bc4d-d87b4d0f7f83","ios":"levelo://app?vid=1184d4db-db44-49fc-bc4d-d87b4d0f7f83"},"vehicle_type_id":"4","last_reported":1683867982,"current_range_meters":20400,"station_id":"ce4bguh2rcd13ifvqckg","pricing_plan_id":"free"},{"bike_id":"0295535f-713c-421e-bf9d-4ebff31b2775","system_id":"levelo_inurba_marseille","lat":43.30547,"lon":5.36698,"is_reserved":false,"is_disabled":false,"rental_uris":{"android":"levelo://app?vid=0295535f-713c-421e-bf9d-4ebff31b2775","ios":"levelo://app?vid=0295535f-713c-421e-bf9d-4ebff31b2775"},"vehicle_type_id":"4","last_reported":1683867982,"current_range_meters":0,"station_id":"ce4bgrp2rcd13ifvqc9g","pricing_plan_id":"free"},{"bike_id":"7ef141d5-b5f9-4483-b785-16c9ea734a5b","system_id":"levelo_inurba_marseille","lat":43.30541,"lon":5.36553,"is_reserved":false,"is_disabled":false,"rental_uris":{"android":"levelo://app?vid=7ef141d5-b5f9-4483-b785-16c9ea734a5b","ios":"levelo://app?vid=7ef141d5-b5f9-4483-b785-16c9ea734a5b"},"vehicle_type_id":"4","last_reported":1683867982,"current_range_meters":23200,"station_id":"","pricing_plan_id":"free"},{"bike_id":"94104d67-a2d9-40bc-a856-55131fcda35e","system_id":"levelo_inurba_marseille","lat":43.305368,"lon":5.367343,"is_reserved":false,"is_disabled":false,"rental_uris":{"android":"levelo://app?vid=94104d67-a2d9-40bc-a856-55131fcda35e","ios":"levelo://app?vid=94104d67-a2d9-40bc-a856-55131fcda35e"},"vehicle_type_id":"4","last_reported":1683867982,"current_range_meters":25600,"station_id":"ce4bgrp2rcd13ifvqc9g","pricing_plan_id":"free"},{"bike_id":"2fc152af-7e88-4ec1-aa12-1ed53406930b","system_id":"levelo_inurba_marseille","lat":43.305706,"lon":5.365654,"is_reserved":false,"is_disabled":false,"rental_uris":{"android":"levelo://app?vid=2fc152af-7e88-4ec1-aa12-1ed53406930b","ios":"levelo://app?vid=2fc152af-7e88-4ec1-aa12-1ed53406930b"},"vehicle_type_id":"4","last_reported":1683867982,"current_range_meters":24400,"station_id":"ce4bgs12rcd13ifvqcag","pricing_plan_id":"free"},{"bike_id":"84c36f07-68bb-4c8a-8448-111070fe8b6a","system_id":"levelo_inurba_marseille","lat":43.305989,"lon":5.37225,"is_reserved":false,"is_disabled":false,"rental_uris":{"android":"levelo://app?vid=84c36f07-68bb-4c8a-8448-111070fe8b6a","ios":"levelo://app?vid=84c36f07-68bb-4c8a-8448-111070fe8b6a"},"vehicle_type_id":"4","last_reported":1683867982,"current_range_meters":31200,"station_id":"ce4bgqh2rcd13ifvqc4g","pricing_plan_id":"free"},{"bike_id":"b1778549-7840-4602-ad53-d5b83221b3bc","system_id":"levelo_inurba_marseille","lat":43.317075,"lon":5.377367,"is_reserved":false,"is_disabled":false,"rental_uris":{"android":"levelo://app?vid=b1778549-7840-4602-ad53-d5b83221b3bc","ios":"levelo://app?vid=b1778549-7840-4602-ad53-d5b83221b3bc"},"vehicle_type_id":"4","last_reported":1683867982,"current_range_meters":26400,"station_id":"ce4bgth2rcd13ifvqch0","pricing_plan_id":"free"},{"bike_id":"4f4916ec-e9e1-4df5-808e-fbe788c8c10d","system_id":"levelo_inurba_marseille","lat":43.315289,"lon":5.380349,"is_reserved":false,"is_disabled":false,"rental_uris":{"android":"levelo://app?vid=4f4916ec-e9e1-4df5-808e-fbe788c8c10d","ios":"levelo://app?vid=4f4916ec-e9e1-4df5-808e-fbe788c8c10d"},"vehicle_type_id":"4","last_reported":1683867982,"current_range_meters":31200,"station_id":"ce4bhsp2rcd13ifvqi50","pricing_plan_id":"free"},{"bike_id":"7aed2eff-a9b8-4455-933b-5fbc3a8d5e2c","system_id":"levelo_inurba_marseille","lat":43.315289,"lon":5.380349,"is_reserved":false,"is_disabled":false,"rental_uris":{"android":"levelo://app?vid=7aed2eff-a9b8-4455-933b-5fbc3a8d5e2c","ios":"levelo://app?vid=7aed2eff-a9b8-4455-933b-5fbc3a8d5e2c"},"vehicle_type_id":"4","last_reported":1683867982,"current_range_meters":31200,"station_id":"ce4bhsp2rcd13ifvqi50","pricing_plan_id":"free"},{"bike_id":"2daf3e52-3c33-4591-80c6-11afb47fbdcb","system_id":"levelo_inurba_marseille","lat":43.315293,"lon":5.380349,"is_reserved":false,"is_disabled":false,"rental_uris":{"android":"levelo://app?vid=2daf3e52-3c33-4591-80c6-11afb47fbdcb","ios":"levelo://app?vid=2daf3e52-3c33-4591-80c6-11afb47fbdcb"},"vehicle_type_id":"4","last_reported":1683867982,"current_range_meters":30000,"station_id":"ce4bhsp2rcd13ifvqi50","pricing_plan_id":"free"},{"bike_id":"09800373-eca1-447f-8e43-dc5d1834a922","system_id":"levelo_inurba_marseille","lat":43.315293,"lon":5.380349,"is_reserved":false,"is_disabled":false,"rental_uris":{"android":"levelo://app?vid=09800373-eca1-447f-8e43-dc5d1834a922","ios":"levelo://app?vid=09800373-eca1-447f-8e43-dc5d1834a922"},"vehicle_type_id":"4","last_reported":1683867982,"current_range_meters":31200,"station_id":"ce4bhsp2rcd13ifvqi50","pricing_plan_id":"free"},{"bike_id":"54b6ca1d-6a80-43aa-b243-38ddd317876f","system_id":"levelo_inurba_marseille","lat":43.308012,"lon":5.381511,"is_reserved":false,"is_disabled":false,"rental_uris":{"android":"levelo://app?vid=54b6ca1d-6a80-43aa-b243-38ddd317876f","ios":"levelo://app?vid=54b6ca1d-6a80-43aa-b243-38ddd317876f"},"vehicle_type_id":"4","last_reported":1683867982,"current_range_meters":2400,"station_id":"ce4bgt12rcd13ifvqce0","pricing_plan_id":"free"},{"bike_id":"aff37824-3291-4800-b41b-a713b7e819b7","system_id":"levelo_inurba_marseille","lat":43.30807,"lon":5.38157,"is_reserved":false,"is_disabled":false,"rental_uris":{"android":"levelo://app?vid=aff37824-3291-4800-b41b-a713b7e819b7","ios":"levelo://app?vid=aff37824-3291-4800-b41b-a713b7e819b7"},"vehicle_type_id":"4","last_reported":1683867982,"current_range_meters":21200,"station_id":"ce4bgt12rcd13ifvqce0","pricing_plan_id":"free"},{"bike_id":"e8b94755-193a-4017-a3f3-88ff5b477941","system_id":"levelo_inurba_marseille","lat":43.30806,"lon":5.38159,"is_reserved":false,"is_disabled":false,"rental_uris":{"android":"levelo://app?vid=e8b94755-193a-4017-a3f3-88ff5b477941","ios":"levelo://app?vid=e8b94755-193a-4017-a3f3-88ff5b477941"},"vehicle_type_id":"4","last_reported":1683867982,"current_range_meters":17200,"station_id":"ce4bgt12rcd13ifvqce0","pricing_plan_id":"free"},{"bike_id":"c2ba9b29-8335-4765-8b1a-bcdaaf6c66e9","system_id":"levelo_inurba_marseille","lat":43.30803,"lon":5.3816,"is_reserved":false,"is_disabled":false,"rental_uris":{"android":"levelo://app?vid=c2ba9b29-8335-4765-8b1a-bcdaaf6c66e9","ios":"levelo://app?vid=c2ba9b29-8335-4765-8b1a-bcdaaf6c66e9"},"vehicle_type_id":"4","last_reported":1683867982,"current_range_meters":30800,"station_id":"ce4bgt12rcd13ifvqce0","pricing_plan_id":"free"},{"bike_id":"1b6e1c6a-3ea9-4a48-95c1-fb29c850bc1d","system_id":"levelo_inurba_marseille","lat":43.308012,"lon":5.381511,"is_reserved":false,"is_disabled":false,"rental_uris":{"android":"levelo://app?vid=1b6e1c6a-3ea9-4a48-95c1-fb29c850bc1d","ios":"levelo://app?vid=1b6e1c6a-3ea9-4a48-95c1-fb29c850bc1d"},"vehicle_type_id":"4","last_reported":1683867982,"current_range_meters":21600,"station_id":"ce4bgt12rcd13ifvqce0","pricing_plan_id":"free"},{"bike_id":"fbdd87e6-0cee-4860-9188-74fc2c93f1cd","system_id":"levelo_inurba_marseille","lat":43.30803,"lon":5.38163,"is_reserved":false,"is_disabled":false,"rental_uris":{"android":"levelo://app?vid=fbdd87e6-0cee-4860-9188-74fc2c93f1cd","ios":"levelo://app?vid=fbdd87e6-0cee-4860-9188-74fc2c93f1cd"},"vehicle_type_id":"4","last_reported":1683867982,"current_range_meters":31200,"station_id":"ce4bgt12rcd13ifvqce0","pricing_plan_id":"free"},{"bike_id":"3c190bd5-7cb8-4d9c-aeae-84698f7d824b","system_id":"levelo_inurba_marseille","lat":43.30806,"lon":5.38165,"is_reserved":false,"is_disabled":false,"rental_uris":{"android":"levelo://app?vid=3c190bd5-7cb8-4d9c-aeae-84698f7d824b","ios":"levelo://app?vid=3c190bd5-7cb8-4d9c-aeae-84698f7d824b"},"vehicle_type_id":"4","last_reported":1683867982,"current_range_meters":31200,"station_id":"ce4bgt12rcd13ifvqce0","pricing_plan_id":"free"},{"bike_id":"2fb5f716-d63e-4440-9e61-3c2ed03b7523","system_id":"levelo_inurba_marseille","lat":43.30797,"lon":5.3816,"is_reserved":false,"is_disabled":false,"rental_uris":{"android":"levelo://app?vid=2fb5f716-d63e-4440-9e61-3c2ed03b7523","ios":"levelo://app?vid=2fb5f716-d63e-4440-9e61-3c2ed03b7523"},"vehicle_type_id":"4","last_reported":1683867982,"current_range_meters":12800,"station_id":"ce4bgt12rcd13ifvqce0","pricing_plan_id":"free"},{"bike_id":"8a4e5eeb-ef3d-416d-851a-d250550c6e0d","system_id":"levelo_inurba_marseille","lat":43.308012,"lon":5.381511,"is_reserved":false,"is_disabled":false,"rental_uris":{"android":"levelo://app?vid=8a4e5eeb-ef3d-416d-851a-d250550c6e0d","ios":"levelo://app?vid=8a4e5eeb-ef3d-416d-851a-d250550c6e0d"},"vehicle_type_id":"4","last_reported":1683867982,"current_range_meters":24000,"station_id":"ce4bgt12rcd13ifvqce0","pricing_plan_id":"free"},{"bike_id":"26b557d2-829e-4d0b-8cbb-4432b5989879","system_id":"levelo_inurba_marseille","lat":43.308012,"lon":5.381511,"is_reserved":false,"is_disabled":false,"rental_uris":{"android":"levelo://app?vid=26b557d2-829e-4d0b-8cbb-4432b5989879","ios":"levelo://app?vid=26b557d2-829e-4d0b-8cbb-4432b5989879"},"vehicle_type_id":"4","last_reported":1683867982,"current_range_meters":31200,"station_id":"ce4bgt12rcd13ifvqce0","pricing_plan_id":"free"},{"bike_id":"73b79b40-e907-4ec7-856a-094c9e21e2a0","system_id":"levelo_inurba_marseille","lat":43.308012,"lon":5.381511,"is_reserved":false,"is_disabled":false,"rental_uris":{"android":"levelo://app?vid=73b79b40-e907-4ec7-856a-094c9e21e2a0","ios":"levelo://app?vid=73b79b40-e907-4ec7-856a-094c9e21e2a0"},"vehicle_type_id":"4","last_reported":1683867982,"current_range_meters":18800,"station_id":"ce4bgt12rcd13ifvqce0","pricing_plan_id":"free"},{"bike_id":"e08a91fd-1903-4aeb-9e28-dbb5bf9e47f9","system_id":"levelo_inurba_marseille","lat":43.30802,"lon":5.3817,"is_reserved":false,"is_disabled":false,"rental_uris":{"android":"levelo://app?vid=e08a91fd-1903-4aeb-9e28-dbb5bf9e47f9","ios":"levelo://app?vid=e08a91fd-1903-4aeb-9e28-dbb5bf9e47f9"},"vehicle_type_id":"4","last_reported":1683867982,"current_range_meters":22800,"station_id":"ce4bgt12rcd13ifvqce0","pricing_plan_id":"free"},{"bike_id":"29e3710e-1914-4bd8-9852-1ff6a28c037a","system_id":"levelo_inurba_marseille","lat":43.308,"lon":5.38169,"is_reserved":false,"is_disabled":false,"rental_uris":{"android":"levelo://app?vid=29e3710e-1914-4bd8-9852-1ff6a28c037a","ios":"levelo://app?vid=29e3710e-1914-4bd8-9852-1ff6a28c037a"},"vehicle_type_id":"4","last_reported":1683867982,"current_range_meters":13600,"station_id":"ce4bgt12rcd13ifvqce0","pricing_plan_id":"free"},{"bike_id":"2e6ad5df-538a-4aff-8f86-9794bbeda9f9","system_id":"levelo_inurba_marseille","lat":43.304606,"lon":5.379026,"is_reserved":false,"is_disabled":false,"rental_uris":{"android":"levelo://app?vid=2e6ad5df-538a-4aff-8f86-9794bbeda9f9","ios":"levelo://app?vid=2e6ad5df-538a-4aff-8f86-9794bbeda9f9"},"vehicle_type_id":"4","last_reported":1683867982,"current_range_meters":19200,"station_id":"ce4bgup2rcd13ifvqcn0","pricing_plan_id":"free"},{"bike_id":"807a9625-7f7d-4978-aa5a-318ab5ba3fa3","system_id":"levelo_inurba_marseille","lat":43.304606,"lon":5.379026,"is_reserved":false,"is_disabled":false,"rental_uris":{"android":"levelo://app?vid=807a9625-7f7d-4978-aa5a-318ab5ba3fa3","ios":"levelo://app?vid=807a9625-7f7d-4978-aa5a-318ab5ba3fa3"},"vehicle_type_id":"4","last_reported":1683867982,"current_range_meters":26400,"station_id":"ce4bgup2rcd13ifvqcn0","pricing_plan_id":"free"},{"bike_id":"7645638e-83d7-48fb-9a2a-162da236d0a1","system_id":"levelo_inurba_marseille","lat":43.304606,"lon":5.379026,"is_reserved":false,"is_disabled":false,"rental_uris":{"android":"levelo://app?vid=7645638e-83d7-48fb-9a2a-162da236d0a1","ios":"levelo://app?vid=7645638e-83d7-48fb-9a2a-162da236d0a1"},"vehicle_type_id":"4","last_reported":1683867982,"current_range_meters":31600,"station_id":"ce4bgup2rcd13ifvqcn0","pricing_plan_id":"free"},{"bike_id":"b22c6ef5-5f69-4eb8-908f-6565c154672f","system_id":"levelo_inurba_marseille","lat":43.30463,"lon":5.37896,"is_reserved":false,"is_disabled":false,"rental_uris":{"android":"levelo://app?vid=b22c6ef5-5f69-4eb8-908f-6565c154672f","ios":"levelo://app?vid=b22c6ef5-5f69-4eb8-908f-6565c154672f"},"vehicle_type_id":"4","last_reported":1683867982,"current_range_meters":25600,"station_id":"ce4bgup2rcd13ifvqcn0","pricing_plan_id":"free"},{"bike_id":"6a0fa6b8-9768-4a8e-8a66-7350161e4434","system_id":"levelo_inurba_marseille","lat":43.304606,"lon":5.379026,"is_reserved":false,"is_disabled":false,"rental_uris":{"android":"levelo://app?vid=6a0fa6b8-9768-4a8e-8a66-7350161e4434","ios":"levelo://app?vid=6a0fa6b8-9768-4a8e-8a66-7350161e4434"},"vehicle_type_id":"4","last_reported":1683867982,"current_range_meters":12000,"station_id":"ce4bgup2rcd13ifvqcn0","pricing_plan_id":"free"},{"bike_id":"36016e24-c284-4484-9a1b-dc1db935585a","system_id":"levelo_inurba_marseille","lat":43.304606,"lon":5.379026,"is_reserved":false,"is_disabled":false,"rental_uris":{"android":"levelo://app?vid=36016e24-c284-4484-9a1b-dc1db935585a","ios":"levelo://app?vid=36016e24-c284-4484-9a1b-dc1db935585a"},"vehicle_type_id":"4","last_reported":1683867982,"current_range_meters":30800,"station_id":"ce4bgup2rcd13ifvqcn0","pricing_plan_id":"free"},{"bike_id":"f081b992-a475-4852-94c5-65142eea978f","system_id":"levelo_inurba_marseille","lat":43.304606,"lon":5.379026,"is_reserved":false,"is_disabled":false,"rental_uris":{"android":"levelo://app?vid=f081b992-a475-4852-94c5-65142eea978f","ios":"levelo://app?vid=f081b992-a475-4852-94c5-65142eea978f"},"vehicle_type_id":"4","last_reported":1683867982,"current_range_meters":30400,"station_id":"ce4bgup2rcd13ifvqcn0","pricing_plan_id":"free"},{"bike_id":"299f851b-eba3-4c23-9dfc-965e007c1cae","system_id":"levelo_inurba_marseille","lat":43.304606,"lon":5.379026,"is_reserved":false,"is_disabled":false,"rental_uris":{"android":"levelo://app?vid=299f851b-eba3-4c23-9dfc-965e007c1cae","ios":"levelo://app?vid=299f851b-eba3-4c23-9dfc-965e007c1cae"},"vehicle_type_id":"4","last_reported":1683867982,"current_range_meters":31600,"station_id":"ce4bgup2rcd13ifvqcn0","pricing_plan_id":"free"},{"bike_id":"8113b2c1-8c27-4259-a503-5b2f7d603092","system_id":"levelo_inurba_marseille","lat":43.304606,"lon":5.379026,"is_reserved":false,"is_disabled":false,"rental_uris":{"android":"levelo://app?vid=8113b2c1-8c27-4259-a503-5b2f7d603092","ios":"levelo://app?vid=8113b2c1-8c27-4259-a503-5b2f7d603092"},"vehicle_type_id":"4","last_reported":1683867982,"current_range_meters":16000,"station_id":"ce4bgup2rcd13ifvqcn0","pricing_plan_id":"free"},{"bike_id":"54976a46-a61d-4865-a81f-95502594e1a2","system_id":"levelo_inurba_marseille","lat":43.3046,"lon":5.379,"is_reserved":false,"is_disabled":false,"rental_uris":{"android":"levelo://app?vid=54976a46-a61d-4865-a81f-95502594e1a2","ios":"levelo://app?vid=54976a46-a61d-4865-a81f-95502594e1a2"},"vehicle_type_id":"4","last_reported":1683867982,"current_range_meters":22400,"station_id":"ce4bgup2rcd13ifvqcn0","pricing_plan_id":"free"},{"bike_id":"b62225a4-8722-4d7f-8fbc-f9d7da95446f","system_id":"levelo_inurba_marseille","lat":43.304606,"lon":5.379026,"is_reserved":false,"is_disabled":false,"rental_uris":{"android":"levelo://app?vid=b62225a4-8722-4d7f-8fbc-f9d7da95446f","ios":"levelo://app?vid=b62225a4-8722-4d7f-8fbc-f9d7da95446f"},"vehicle_type_id":"4","last_reported":1683867982,"current_range_meters":16400,"station_id":"ce4bgup2rcd13ifvqcn0","pricing_plan_id":"free"},{"bike_id":"1aab55ac-6b70-4119-a71b-2eebc9c5ea18","system_id":"levelo_inurba_marseille","lat":43.304606,"lon":5.379026,"is_reserved":false,"is_disabled":false,"rental_uris":{"android":"levelo://app?vid=1aab55ac-6b70-4119-a71b-2eebc9c5ea18","ios":"levelo://app?vid=1aab55ac-6b70-4119-a71b-2eebc9c5ea18"},"vehicle_type_id":"4","last_reported":1683867982,"current_range_meters":22400,"station_id":"ce4bgup2rcd13ifvqcn0","pricing_plan_id":"free"},{"bike_id":"4cec8b6a-aad3-4104-a8c7-91514b3bb2c8","system_id":"levelo_inurba_marseille","lat":43.304606,"lon":5.379026,"is_reserved":false,"is_disabled":false,"rental_uris":{"android":"levelo://app?vid=4cec8b6a-aad3-4104-a8c7-91514b3bb2c8","ios":"levelo://app?vid=4cec8b6a-aad3-4104-a8c7-91514b3bb2c8"},"vehicle_type_id":"4","last_reported":1683867982,"current_range_meters":28000,"station_id":"ce4bgup2rcd13ifvqcn0","pricing_plan_id":"free"},{"bike_id":"cafc1ec5-027d-4ed3-9cd4-b646615fc548","system_id":"levelo_inurba_marseille","lat":43.304606,"lon":5.379026,"is_reserved":false,"is_disabled":false,"rental_uris":{"android":"levelo://app?vid=cafc1ec5-027d-4ed3-9cd4-b646615fc548","ios":"levelo://app?vid=cafc1ec5-027d-4ed3-9cd4-b646615fc548"},"vehicle_type_id":"4","last_reported":1683867982,"current_range_meters":8400,"station_id":"ce4bgup2rcd13ifvqcn0","pricing_plan_id":"free"},{"bike_id":"e2735650-063a-4b55-90a4-1b98c2158385","system_id":"levelo_inurba_marseille","lat":43.304606,"lon":5.379026,"is_reserved":false,"is_disabled":false,"rental_uris":{"android":"levelo://app?vid=e2735650-063a-4b55-90a4-1b98c2158385","ios":"levelo://app?vid=e2735650-063a-4b55-90a4-1b98c2158385"},"vehicle_type_id":"4","last_reported":1683867982,"current_range_meters":27200,"station_id":"ce4bgup2rcd13ifvqcn0","pricing_plan_id":"free"},{"bike_id":"1e886504-aaa0-4932-b577-e61e4aa4c178","system_id":"levelo_inurba_marseille","lat":43.304606,"lon":5.379026,"is_reserved":false,"is_disabled":false,"rental_uris":{"android":"levelo://app?vid=1e886504-aaa0-4932-b577-e61e4aa4c178","ios":"levelo://app?vid=1e886504-aaa0-4932-b577-e61e4aa4c178"},"vehicle_type_id":"4","last_reported":1683867982,"current_range_meters":30400,"station_id":"ce4bgup2rcd13ifvqcn0","pricing_plan_id":"free"},{"bike_id":"c207354e-5649-4b5f-858d-c4d9bd059545","system_id":"levelo_inurba_marseille","lat":43.304606,"lon":5.379026,"is_reserved":false,"is_disabled":false,"rental_uris":{"android":"levelo://app?vid=c207354e-5649-4b5f-858d-c4d9bd059545","ios":"levelo://app?vid=c207354e-5649-4b5f-858d-c4d9bd059545"},"vehicle_type_id":"4","last_reported":1683867982,"current_range_meters":19200,"station_id":"ce4bgup2rcd13ifvqcn0","pricing_plan_id":"free"},{"bike_id":"73474423-0666-4116-a6a9-e8507f5d322e","system_id":"levelo_inurba_marseille","lat":43.304606,"lon":5.379026,"is_reserved":false,"is_disabled":false,"rental_uris":{"android":"levelo://app?vid=73474423-0666-4116-a6a9-e8507f5d322e","ios":"levelo://app?vid=73474423-0666-4116-a6a9-e8507f5d322e"},"vehicle_type_id":"4","last_reported":1683867982,"current_range_meters":29200,"station_id":"ce4bgup2rcd13ifvqcn0","pricing_plan_id":"free"},{"bike_id":"39bbc7d0-5f9a-46cf-9dac-0bd0bff5d9af","system_id":"levelo_inurba_marseille","lat":43.3014,"lon":5.37404,"is_reserved":false,"is_disabled":false,"rental_uris":{"android":"levelo://app?vid=39bbc7d0-5f9a-46cf-9dac-0bd0bff5d9af","ios":"levelo://app?vid=39bbc7d0-5f9a-46cf-9dac-0bd0bff5d9af"},"vehicle_type_id":"4","last_reported":1683867982,"current_range_meters":17600,"station_id":"","pricing_plan_id":"free"},{"bike_id":"89e3cde6-5563-4ff7-ae74-87dba6afd1a7","system_id":"levelo_inurba_marseille","lat":43.3014,"lon":5.37408,"is_reserved":false,"is_disabled":false,"rental_uris":{"android":"levelo://app?vid=89e3cde6-5563-4ff7-ae74-87dba6afd1a7","ios":"levelo://app?vid=89e3cde6-5563-4ff7-ae74-87dba6afd1a7"},"vehicle_type_id":"4","last_reported":1683867982,"current_range_meters":0,"station_id":"ce4bgs92rcd13ifvqcc0","pricing_plan_id":"free"},{"bike_id":"a01ff6e5-1b34-40d1-a208-aa5bdcc0a718","system_id":"levelo_inurba_marseille","lat":43.30135,"lon":5.3742,"is_reserved":false,"is_disabled":false,"rental_uris":{"android":"levelo://app?vid=a01ff6e5-1b34-40d1-a208-aa5bdcc0a718","ios":"levelo://app?vid=a01ff6e5-1b34-40d1-a208-aa5bdcc0a718"},"vehicle_type_id":"4","last_reported":1683867982,"current_range_meters":6800,"station_id":"ce4bgs92rcd13ifvqcc0","pricing_plan_id":"free"},{"bike_id":"901a6eed-497a-48bc-b7ba-a4d6530383e2","system_id":"levelo_inurba_marseille","lat":43.305989,"lon":5.37225,"is_reserved":false,"is_disabled":false,"rental_uris":{"android":"levelo://app?vid=901a6eed-497a-48bc-b7ba-a4d6530383e2","ios":"levelo://app?vid=901a6eed-497a-48bc-b7ba-a4d6530383e2"},"vehicle_type_id":"4","last_reported":1683867982,"current_range_meters":9200,"station_id":"ce4bgqh2rcd13ifvqc4g","pricing_plan_id":"free"},{"bike_id":"31607a47-c348-4122-8b4e-f77a759d0157","system_id":"levelo_inurba_marseille","lat":43.313571,"lon":5.384829,"is_reserved":false,"is_disabled":false,"rental_uris":{"android":"levelo://app?vid=31607a47-c348-4122-8b4e-f77a759d0157","ios":"levelo://app?vid=31607a47-c348-4122-8b4e-f77a759d0157"},"vehicle_type_id":"4","last_reported":1683867982,"current_range_meters":26400,"station_id":"ce4bgt92rcd13ifvqcf0","pricing_plan_id":"free"},{"bike_id":"815ab3c0-8833-45e6-b891-75bed23f8af3","system_id":"levelo_inurba_marseille","lat":43.313571,"lon":5.384829,"is_reserved":false,"is_disabled":false,"rental_uris":{"android":"levelo://app?vid=815ab3c0-8833-45e6-b891-75bed23f8af3","ios":"levelo://app?vid=815ab3c0-8833-45e6-b891-75bed23f8af3"},"vehicle_type_id":"4","last_reported":1683867982,"current_range_meters":11200,"station_id":"ce4bgt92rcd13ifvqcf0","pricing_plan_id":"free"},{"bike_id":"89d979b4-a190-4dcd-a37c-c63cce8e2278","system_id":"levelo_inurba_marseille","lat":43.313571,"lon":5.384829,"is_reserved":false,"is_disabled":false,"rental_uris":{"android":"levelo://app?vid=89d979b4-a190-4dcd-a37c-c63cce8e2278","ios":"levelo://app?vid=89d979b4-a190-4dcd-a37c-c63cce8e2278"},"vehicle_type_id":"4","last_reported":1683867982,"current_range_meters":28000,"station_id":"ce4bgt92rcd13ifvqcf0","pricing_plan_id":"free"},{"bike_id":"11355a26-ce04-4637-b186-e63c722271b4","system_id":"levelo_inurba_marseille","lat":43.31354,"lon":5.38524,"is_reserved":false,"is_disabled":false,"rental_uris":{"android":"levelo://app?vid=11355a26-ce04-4637-b186-e63c722271b4","ios":"levelo://app?vid=11355a26-ce04-4637-b186-e63c722271b4"},"vehicle_type_id":"4","last_reported":1683867982,"current_range_meters":12000,"station_id":"","pricing_plan_id":"free"},{"bike_id":"07429c05-d479-4749-8507-e2ed8425ad08","system_id":"levelo_inurba_marseille","lat":43.31816,"lon":5.38489,"is_reserved":false,"is_disabled":false,"rental_uris":{"android":"levelo://app?vid=07429c05-d479-4749-8507-e2ed8425ad08","ios":"levelo://app?vid=07429c05-d479-4749-8507-e2ed8425ad08"},"vehicle_type_id":"4","last_reported":1683867982,"current_range_meters":2400,"station_id":"","pricing_plan_id":"free"},{"bike_id":"1ab91df1-90a6-431e-b703-d45337578460","system_id":"levelo_inurba_marseille","lat":43.305364,"lon":5.384119,"is_reserved":false,"is_disabled":false,"rental_uris":{"android":"levelo://app?vid=1ab91df1-90a6-431e-b703-d45337578460","ios":"levelo://app?vid=1ab91df1-90a6-431e-b703-d45337578460"},"vehicle_type_id":"4","last_reported":1683867982,"current_range_meters":5200,"station_id":"ce4bgg92rcd13ifvqb30","pricing_plan_id":"free"},{"bike_id":"f3d1871a-eadb-45ef-9715-c6ba359f9dec","system_id":"levelo_inurba_marseille","lat":43.305364,"lon":5.384119,"is_reserved":false,"is_disabled":false,"rental_uris":{"android":"levelo://app?vid=f3d1871a-eadb-45ef-9715-c6ba359f9dec","ios":"levelo://app?vid=f3d1871a-eadb-45ef-9715-c6ba359f9dec"},"vehicle_type_id":"4","last_reported":1683867982,"current_range_meters":25600,"station_id":"ce4bgg92rcd13ifvqb30","pricing_plan_id":"free"},{"bike_id":"d5db51f7-4ef1-4e16-abf8-cc1322b083c7","system_id":"levelo_inurba_marseille","lat":43.305364,"lon":5.384119,"is_reserved":false,"is_disabled":false,"rental_uris":{"android":"levelo://app?vid=d5db51f7-4ef1-4e16-abf8-cc1322b083c7","ios":"levelo://app?vid=d5db51f7-4ef1-4e16-abf8-cc1322b083c7"},"vehicle_type_id":"4","last_reported":1683867982,"current_range_meters":31200,"station_id":"ce4bgg92rcd13ifvqb30","pricing_plan_id":"free"},{"bike_id":"91a75584-aecd-425e-bf96-0a347a73dc3d","system_id":"levelo_inurba_marseille","lat":43.305364,"lon":5.384119,"is_reserved":false,"is_disabled":false,"rental_uris":{"android":"levelo://app?vid=91a75584-aecd-425e-bf96-0a347a73dc3d","ios":"levelo://app?vid=91a75584-aecd-425e-bf96-0a347a73dc3d"},"vehicle_type_id":"4","last_reported":1683867982,"current_range_meters":0,"station_id":"ce4bgg92rcd13ifvqb30","pricing_plan_id":"free"},{"bike_id":"768fe84a-8ee9-4f02-a8c7-ca1f20b274cb","system_id":"levelo_inurba_marseille","lat":43.305364,"lon":5.384119,"is_reserved":false,"is_disabled":false,"rental_uris":{"android":"levelo://app?vid=768fe84a-8ee9-4f02-a8c7-ca1f20b274cb","ios":"levelo://app?vid=768fe84a-8ee9-4f02-a8c7-ca1f20b274cb"},"vehicle_type_id":"4","last_reported":1683867982,"current_range_meters":11600,"station_id":"ce4bgg92rcd13ifvqb30","pricing_plan_id":"free"},{"bike_id":"7f471efd-2d0e-483e-bc7e-54aae73195bb","system_id":"levelo_inurba_marseille","lat":43.305364,"lon":5.384119,"is_reserved":false,"is_disabled":false,"rental_uris":{"android":"levelo://app?vid=7f471efd-2d0e-483e-bc7e-54aae73195bb","ios":"levelo://app?vid=7f471efd-2d0e-483e-bc7e-54aae73195bb"},"vehicle_type_id":"4","last_reported":1683867982,"current_range_meters":18800,"station_id":"ce4bgg92rcd13ifvqb30","pricing_plan_id":"free"},{"bike_id":"ef79fdd8-da51-4d9a-9bc2-026691a545a7","system_id":"levelo_inurba_marseille","lat":43.305364,"lon":5.384119,"is_reserved":false,"is_disabled":false,"rental_uris":{"android":"levelo://app?vid=ef79fdd8-da51-4d9a-9bc2-026691a545a7","ios":"levelo://app?vid=ef79fdd8-da51-4d9a-9bc2-026691a545a7"},"vehicle_type_id":"4","last_reported":1683867982,"current_range_meters":23600,"station_id":"ce4bgg92rcd13ifvqb30","pricing_plan_id":"free"},{"bike_id":"f9e4d1c5-0241-4965-a5bf-5134c15e2231","system_id":"levelo_inurba_marseille","lat":43.305364,"lon":5.384119,"is_reserved":false,"is_disabled":false,"rental_uris":{"android":"levelo://app?vid=f9e4d1c5-0241-4965-a5bf-5134c15e2231","ios":"levelo://app?vid=f9e4d1c5-0241-4965-a5bf-5134c15e2231"},"vehicle_type_id":"4","last_reported":1683867982,"current_range_meters":17600,"station_id":"ce4bgg92rcd13ifvqb30","pricing_plan_id":"free"},{"bike_id":"c0b2ba08-a350-4580-9181-33f23c3fbb45","system_id":"levelo_inurba_marseille","lat":43.305364,"lon":5.384119,"is_reserved":false,"is_disabled":false,"rental_uris":{"android":"levelo://app?vid=c0b2ba08-a350-4580-9181-33f23c3fbb45","ios":"levelo://app?vid=c0b2ba08-a350-4580-9181-33f23c3fbb45"},"vehicle_type_id":"4","last_reported":1683867982,"current_range_meters":27200,"station_id":"ce4bgg92rcd13ifvqb30","pricing_plan_id":"free"},{"bike_id":"ff09d781-ef6d-4001-8384-7b3d68b47b6b","system_id":"levelo_inurba_marseille","lat":43.305364,"lon":5.384119,"is_reserved":false,"is_disabled":false,"rental_uris":{"android":"levelo://app?vid=ff09d781-ef6d-4001-8384-7b3d68b47b6b","ios":"levelo://app?vid=ff09d781-ef6d-4001-8384-7b3d68b47b6b"},"vehicle_type_id":"4","last_reported":1683867982,"current_range_meters":8400,"station_id":"ce4bgg92rcd13ifvqb30","pricing_plan_id":"free"},{"bike_id":"2fc45cff-25c4-4b52-8d7b-2ed9e490fc30","system_id":"levelo_inurba_marseille","lat":43.305364,"lon":5.384119,"is_reserved":false,"is_disabled":false,"rental_uris":{"android":"levelo://app?vid=2fc45cff-25c4-4b52-8d7b-2ed9e490fc30","ios":"levelo://app?vid=2fc45cff-25c4-4b52-8d7b-2ed9e490fc30"},"vehicle_type_id":"4","last_reported":1683867982,"current_range_meters":20800,"station_id":"ce4bgg92rcd13ifvqb30","pricing_plan_id":"free"},{"bike_id":"04620021-3bbb-43d0-8891-9af55328d45f","system_id":"levelo_inurba_marseille","lat":43.305364,"lon":5.384119,"is_reserved":false,"is_disabled":false,"rental_uris":{"android":"levelo://app?vid=04620021-3bbb-43d0-8891-9af55328d45f","ios":"levelo://app?vid=04620021-3bbb-43d0-8891-9af55328d45f"},"vehicle_type_id":"4","last_reported":1683867982,"current_range_meters":26800,"station_id":"ce4bgg92rcd13ifvqb30","pricing_plan_id":"free"},{"bike_id":"4764fbe4-5995-47c4-9f07-0bb229f55351","system_id":"levelo_inurba_marseille","lat":43.311722,"lon":5.387247,"is_reserved":false,"is_disabled":false,"rental_uris":{"android":"levelo://app?vid=4764fbe4-5995-47c4-9f07-0bb229f55351","ios":"levelo://app?vid=4764fbe4-5995-47c4-9f07-0bb229f55351"},"vehicle_type_id":"4","last_reported":1683867982,"current_range_meters":31200,"station_id":"ce4bgv12rcd13ifvqcp0","pricing_plan_id":"free"},{"bike_id":"d6cf0a65-fda7-4df5-8018-f0cbbd4b36d8","system_id":"levelo_inurba_marseille","lat":43.311722,"lon":5.387247,"is_reserved":false,"is_disabled":false,"rental_uris":{"android":"levelo://app?vid=d6cf0a65-fda7-4df5-8018-f0cbbd4b36d8","ios":"levelo://app?vid=d6cf0a65-fda7-4df5-8018-f0cbbd4b36d8"},"vehicle_type_id":"4","last_reported":1683867982,"current_range_meters":31200,"station_id":"ce4bgv12rcd13ifvqcp0","pricing_plan_id":"free"},{"bike_id":"c5a9b399-9bed-47d3-85c4-26f40047c8ea","system_id":"levelo_inurba_marseille","lat":43.31166,"lon":5.38723,"is_reserved":false,"is_disabled":false,"rental_uris":{"android":"levelo://app?vid=c5a9b399-9bed-47d3-85c4-26f40047c8ea","ios":"levelo://app?vid=c5a9b399-9bed-47d3-85c4-26f40047c8ea"},"vehicle_type_id":"4","last_reported":1683867982,"current_range_meters":27600,"station_id":"ce4bgv12rcd13ifvqcp0","pricing_plan_id":"free"},{"bike_id":"69d1baac-6aab-4694-8183-765eeaf69ea5","system_id":"levelo_inurba_marseille","lat":43.31172,"lon":5.38724,"is_reserved":false,"is_disabled":false,"rental_uris":{"android":"levelo://app?vid=69d1baac-6aab-4694-8183-765eeaf69ea5","ios":"levelo://app?vid=69d1baac-6aab-4694-8183-765eeaf69ea5"},"vehicle_type_id":"4","last_reported":1683867982,"current_range_meters":28800,"station_id":"ce4bgv12rcd13ifvqcp0","pricing_plan_id":"free"},{"bike_id":"c976f627-a348-4ecf-a2ec-7c793c53c100","system_id":"levelo_inurba_marseille","lat":43.311722,"lon":5.387247,"is_reserved":false,"is_disabled":false,"rental_uris":{"android":"levelo://app?vid=c976f627-a348-4ecf-a2ec-7c793c53c100","ios":"levelo://app?vid=c976f627-a348-4ecf-a2ec-7c793c53c100"},"vehicle_type_id":"4","last_reported":1683867982,"current_range_meters":29200,"station_id":"ce4bgv12rcd13ifvqcp0","pricing_plan_id":"free"},{"bike_id":"357ec0a0-c228-4e01-9067-25c5c408eb9f","system_id":"levelo_inurba_marseille","lat":43.311722,"lon":5.387247,"is_reserved":false,"is_disabled":false,"rental_uris":{"android":"levelo://app?vid=357ec0a0-c228-4e01-9067-25c5c408eb9f","ios":"levelo://app?vid=357ec0a0-c228-4e01-9067-25c5c408eb9f"},"vehicle_type_id":"4","last_reported":1683867982,"current_range_meters":27600,"station_id":"ce4bgv12rcd13ifvqcp0","pricing_plan_id":"free"},{"bike_id":"30b8c90d-c0cf-4dd2-bd06-d636fe6e2453","system_id":"levelo_inurba_marseille","lat":43.31178,"lon":5.3873,"is_reserved":false,"is_disabled":false,"rental_uris":{"android":"levelo://app?vid=30b8c90d-c0cf-4dd2-bd06-d636fe6e2453","ios":"levelo://app?vid=30b8c90d-c0cf-4dd2-bd06-d636fe6e2453"},"vehicle_type_id":"4","last_reported":1683867982,"current_range_meters":28000,"station_id":"ce4bgv12rcd13ifvqcp0","pricing_plan_id":"free"},{"bike_id":"2f96f4b7-d3f1-4b87-b98f-caf50ba6d13d","system_id":"levelo_inurba_marseille","lat":43.32773,"lon":5.36704,"is_reserved":false,"is_disabled":false,"rental_uris":{"android":"levelo://app?vid=2f96f4b7-d3f1-4b87-b98f-caf50ba6d13d","ios":"levelo://app?vid=2f96f4b7-d3f1-4b87-b98f-caf50ba6d13d"},"vehicle_type_id":"4","last_reported":1683867982,"current_range_meters":17600,"station_id":"","pricing_plan_id":"free"},{"bike_id":"090680a3-82db-48ab-915c-d072a829903f","system_id":"levelo_inurba_marseille","lat":43.297794,"lon":5.370888,"is_reserved":false,"is_disabled":false,"rental_uris":{"android":"levelo://app?vid=090680a3-82db-48ab-915c-d072a829903f","ios":"levelo://app?vid=090680a3-82db-48ab-915c-d072a829903f"},"vehicle_type_id":"4","last_reported":1683867982,"current_range_meters":28000,"station_id":"ce4bgop2rcd13ifvqc1g","pricing_plan_id":"free"},{"bike_id":"86719306-0ddc-4576-a656-570a4d550f46","system_id":"levelo_inurba_marseille","lat":43.328371,"lon":5.366912,"is_reserved":false,"is_disabled":false,"rental_uris":{"android":"levelo://app?vid=86719306-0ddc-4576-a656-570a4d550f46","ios":"levelo://app?vid=86719306-0ddc-4576-a656-570a4d550f46"},"vehicle_type_id":"4","last_reported":1683867982,"current_range_meters":1200,"station_id":"ce4bhs92rcd13ifvqi0g","pricing_plan_id":"free"},{"bike_id":"9466398a-ab63-492b-a983-e43b41d0acd9","system_id":"levelo_inurba_marseille","lat":43.32827,"lon":5.36691,"is_reserved":false,"is_disabled":false,"rental_uris":{"android":"levelo://app?vid=9466398a-ab63-492b-a983-e43b41d0acd9","ios":"levelo://app?vid=9466398a-ab63-492b-a983-e43b41d0acd9"},"vehicle_type_id":"4","last_reported":1683867982,"current_range_meters":6800,"station_id":"ce4bhs92rcd13ifvqi0g","pricing_plan_id":"free"},{"bike_id":"660183bf-b478-467e-94ff-5a97dfa24684","system_id":"levelo_inurba_marseille","lat":43.328371,"lon":5.366912,"is_reserved":false,"is_disabled":false,"rental_uris":{"android":"levelo://app?vid=660183bf-b478-467e-94ff-5a97dfa24684","ios":"levelo://app?vid=660183bf-b478-467e-94ff-5a97dfa24684"},"vehicle_type_id":"4","last_reported":1683867982,"current_range_meters":16000,"station_id":"ce4bhs92rcd13ifvqi0g","pricing_plan_id":"free"},{"bike_id":"afcb6986-356b-4859-8c29-ac34da7debef","system_id":"levelo_inurba_marseille","lat":43.32829,"lon":5.36688,"is_reserved":false,"is_disabled":false,"rental_uris":{"android":"levelo://app?vid=afcb6986-356b-4859-8c29-ac34da7debef","ios":"levelo://app?vid=afcb6986-356b-4859-8c29-ac34da7debef"},"vehicle_type_id":"4","last_reported":1683867982,"current_range_meters":21200,"station_id":"ce4bhs92rcd13ifvqi0g","pricing_plan_id":"free"},{"bike_id":"2be82f79-e3a2-4567-8fca-bd9d15afdecb","system_id":"levelo_inurba_marseille","lat":43.3283,"lon":5.36692,"is_reserved":false,"is_disabled":false,"rental_uris":{"android":"levelo://app?vid=2be82f79-e3a2-4567-8fca-bd9d15afdecb","ios":"levelo://app?vid=2be82f79-e3a2-4567-8fca-bd9d15afdecb"},"vehicle_type_id":"4","last_reported":1683867982,"current_range_meters":22400,"station_id":"ce4bhs92rcd13ifvqi0g","pricing_plan_id":"free"},{"bike_id":"12c42f81-89aa-48d1-acf1-20e0b985e3c8","system_id":"levelo_inurba_marseille","lat":43.328371,"lon":5.366912,"is_reserved":false,"is_disabled":false,"rental_uris":{"android":"levelo://app?vid=12c42f81-89aa-48d1-acf1-20e0b985e3c8","ios":"levelo://app?vid=12c42f81-89aa-48d1-acf1-20e0b985e3c8"},"vehicle_type_id":"4","last_reported":1683867982,"current_range_meters":18000,"station_id":"ce4bhs92rcd13ifvqi0g","pricing_plan_id":"free"},{"bike_id":"6448c133-4cd4-412c-ab72-14f60d954e8f","system_id":"levelo_inurba_marseille","lat":43.31523,"lon":5.38941,"is_reserved":false,"is_disabled":false,"rental_uris":{"android":"levelo://app?vid=6448c133-4cd4-412c-ab72-14f60d954e8f","ios":"levelo://app?vid=6448c133-4cd4-412c-ab72-14f60d954e8f"},"vehicle_type_id":"4","last_reported":1683867982,"current_range_meters":30800,"station_id":"","pricing_plan_id":"free"},{"bike_id":"1039fa9a-8cf0-41a5-8c88-81c77d7a8655","system_id":"levelo_inurba_marseille","lat":43.29672,"lon":5.37299,"is_reserved":false,"is_disabled":false,"rental_uris":{"android":"levelo://app?vid=1039fa9a-8cf0-41a5-8c88-81c77d7a8655","ios":"levelo://app?vid=1039fa9a-8cf0-41a5-8c88-81c77d7a8655"},"vehicle_type_id":"4","last_reported":1683867982,"current_range_meters":3600,"station_id":"ce4bgk12rcd13ifvqbj0","pricing_plan_id":"free"},{"bike_id":"fd3ddef2-2ef8-4d8c-bea1-d07179f82018","system_id":"levelo_inurba_marseille","lat":43.29596,"lon":5.36956,"is_reserved":false,"is_disabled":false,"rental_uris":{"android":"levelo://app?vid=fd3ddef2-2ef8-4d8c-bea1-d07179f82018","ios":"levelo://app?vid=fd3ddef2-2ef8-4d8c-bea1-d07179f82018"},"vehicle_type_id":"4","last_reported":1683867982,"current_range_meters":10800,"station_id":"","pricing_plan_id":"free"},{"bike_id":"77a760ec-0044-4a84-99b1-6a1b325aa34c","system_id":"levelo_inurba_marseille","lat":43.296921,"lon":5.376579,"is_reserved":false,"is_disabled":false,"rental_uris":{"android":"levelo://app?vid=77a760ec-0044-4a84-99b1-6a1b325aa34c","ios":"levelo://app?vid=77a760ec-0044-4a84-99b1-6a1b325aa34c"},"vehicle_type_id":"4","last_reported":1683867982,"current_range_meters":22800,"station_id":"ce4bgkh2rcd13ifvqbl0","pricing_plan_id":"free"},{"bike_id":"748054de-83eb-478a-b8d0-0830be8074b3","system_id":"levelo_inurba_marseille","lat":43.309589,"lon":5.390258,"is_reserved":false,"is_disabled":false,"rental_uris":{"android":"levelo://app?vid=748054de-83eb-478a-b8d0-0830be8074b3","ios":"levelo://app?vid=748054de-83eb-478a-b8d0-0830be8074b3"},"vehicle_type_id":"4","last_reported":1683867982,"current_range_meters":3600,"station_id":"ce4bgup2rcd13ifvqco0","pricing_plan_id":"free"},{"bike_id":"9db086e2-c5f4-4246-bfe3-5cd54baed79f","system_id":"levelo_inurba_marseille","lat":43.31753,"lon":5.39017,"is_reserved":false,"is_disabled":false,"rental_uris":{"android":"levelo://app?vid=9db086e2-c5f4-4246-bfe3-5cd54baed79f","ios":"levelo://app?vid=9db086e2-c5f4-4246-bfe3-5cd54baed79f"},"vehicle_type_id":"4","last_reported":1683867982,"current_range_meters":23600,"station_id":"ce4bhqp2rcd13ifvqhng","pricing_plan_id":"free"},{"bike_id":"2d7ddae0-75c5-4f27-bb77-758cf5ca3c9f","system_id":"levelo_inurba_marseille","lat":43.317557,"lon":5.390173,"is_reserved":false,"is_disabled":false,"rental_uris":{"android":"levelo://app?vid=2d7ddae0-75c5-4f27-bb77-758cf5ca3c9f","ios":"levelo://app?vid=2d7ddae0-75c5-4f27-bb77-758cf5ca3c9f"},"vehicle_type_id":"4","last_reported":1683867982,"current_range_meters":13200,"station_id":"ce4bhqp2rcd13ifvqhng","pricing_plan_id":"free"},{"bike_id":"c52157db-38b9-4052-8281-b7f835d73599","system_id":"levelo_inurba_marseille","lat":43.31759,"lon":5.39021,"is_reserved":false,"is_disabled":false,"rental_uris":{"android":"levelo://app?vid=c52157db-38b9-4052-8281-b7f835d73599","ios":"levelo://app?vid=c52157db-38b9-4052-8281-b7f835d73599"},"vehicle_type_id":"4","last_reported":1683867982,"current_range_meters":0,"station_id":"ce4bhqp2rcd13ifvqhng","pricing_plan_id":"free"},{"bike_id":"8128bf0a-e817-4f56-a609-37c577f5d054","system_id":"levelo_inurba_marseille","lat":43.317557,"lon":5.390173,"is_reserved":false,"is_disabled":false,"rental_uris":{"android":"levelo://app?vid=8128bf0a-e817-4f56-a609-37c577f5d054","ios":"levelo://app?vid=8128bf0a-e817-4f56-a609-37c577f5d054"},"vehicle_type_id":"4","last_reported":1683867982,"current_range_meters":5600,"station_id":"ce4bhqp2rcd13ifvqhng","pricing_plan_id":"free"},{"bike_id":"bca77fc8-62c5-444b-b385-8cffda8f98e0","system_id":"levelo_inurba_marseille","lat":43.31755,"lon":5.39027,"is_reserved":false,"is_disabled":false,"rental_uris":{"android":"levelo://app?vid=bca77fc8-62c5-444b-b385-8cffda8f98e0","ios":"levelo://app?vid=bca77fc8-62c5-444b-b385-8cffda8f98e0"},"vehicle_type_id":"4","last_reported":1683867982,"current_range_meters":14800,"station_id":"ce4bhqp2rcd13ifvqhng","pricing_plan_id":"free"},{"bike_id":"9c9b4f86-328b-4fef-94f2-ef1f33238aa5","system_id":"levelo_inurba_marseille","lat":43.29585,"lon":5.37508,"is_reserved":false,"is_disabled":false,"rental_uris":{"android":"levelo://app?vid=9c9b4f86-328b-4fef-94f2-ef1f33238aa5","ios":"levelo://app?vid=9c9b4f86-328b-4fef-94f2-ef1f33238aa5"},"vehicle_type_id":"4","last_reported":1683867982,"current_range_meters":0,"station_id":"ce4bgh92rcd13ifvqb50","pricing_plan_id":"free"},{"bike_id":"9507e07a-28e0-4445-b6e4-ca51df337ceb","system_id":"levelo_inurba_marseille","lat":43.295748,"lon":5.37522,"is_reserved":false,"is_disabled":false,"rental_uris":{"android":"levelo://app?vid=9507e07a-28e0-4445-b6e4-ca51df337ceb","ios":"levelo://app?vid=9507e07a-28e0-4445-b6e4-ca51df337ceb"},"vehicle_type_id":"4","last_reported":1683867982,"current_range_meters":25600,"station_id":"ce4bgh92rcd13ifvqb50","pricing_plan_id":"free"},{"bike_id":"aab06053-a721-4146-8744-f595295c08ec","system_id":"levelo_inurba_marseille","lat":43.298037,"lon":5.381066,"is_reserved":false,"is_disabled":false,"rental_uris":{"android":"levelo://app?vid=aab06053-a721-4146-8744-f595295c08ec","ios":"levelo://app?vid=aab06053-a721-4146-8744-f595295c08ec"},"vehicle_type_id":"4","last_reported":1683867982,"current_range_meters":25600,"station_id":"ce4bgip2rcd13ifvqbb0","pricing_plan_id":"free"},{"bike_id":"e6eea5be-c060-499a-9d06-a989b93c5b77","system_id":"levelo_inurba_marseille","lat":43.298037,"lon":5.381066,"is_reserved":false,"is_disabled":false,"rental_uris":{"android":"levelo://app?vid=e6eea5be-c060-499a-9d06-a989b93c5b77","ios":"levelo://app?vid=e6eea5be-c060-499a-9d06-a989b93c5b77"},"vehicle_type_id":"4","last_reported":1683867982,"current_range_meters":28400,"station_id":"ce4bgip2rcd13ifvqbb0","pricing_plan_id":"free"},{"bike_id":"eec57fff-5a41-4b48-baf2-7342dc9ac627","system_id":"levelo_inurba_marseille","lat":43.29578,"lon":5.37501,"is_reserved":false,"is_disabled":false,"rental_uris":{"android":"levelo://app?vid=eec57fff-5a41-4b48-baf2-7342dc9ac627","ios":"levelo://app?vid=eec57fff-5a41-4b48-baf2-7342dc9ac627"},"vehicle_type_id":"4","last_reported":1683867982,"current_range_meters":0,"station_id":"ce4bgh92rcd13ifvqb50","pricing_plan_id":"free"},{"bike_id":"c37314a5-7f8d-4e42-99f7-2fdd7e4ea2da","system_id":"levelo_inurba_marseille","lat":43.304278,"lon":5.388868,"is_reserved":false,"is_disabled":false,"rental_uris":{"android":"levelo://app?vid=c37314a5-7f8d-4e42-99f7-2fdd7e4ea2da","ios":"levelo://app?vid=c37314a5-7f8d-4e42-99f7-2fdd7e4ea2da"},"vehicle_type_id":"4","last_reported":1683867982,"current_range_meters":31200,"station_id":"ce4bgk12rcd13ifvqbi0","pricing_plan_id":"free"},{"bike_id":"db1be2a1-3e28-4064-aa2d-09ada2c67f91","system_id":"levelo_inurba_marseille","lat":43.304278,"lon":5.388868,"is_reserved":false,"is_disabled":false,"rental_uris":{"android":"levelo://app?vid=db1be2a1-3e28-4064-aa2d-09ada2c67f91","ios":"levelo://app?vid=db1be2a1-3e28-4064-aa2d-09ada2c67f91"},"vehicle_type_id":"4","last_reported":1683867982,"current_range_meters":20800,"station_id":"ce4bgk12rcd13ifvqbi0","pricing_plan_id":"free"},{"bike_id":"a62f1568-8d13-4916-a438-2cd006c75a1f","system_id":"levelo_inurba_marseille","lat":43.30435,"lon":5.38895,"is_reserved":false,"is_disabled":false,"rental_uris":{"android":"levelo://app?vid=a62f1568-8d13-4916-a438-2cd006c75a1f","ios":"levelo://app?vid=a62f1568-8d13-4916-a438-2cd006c75a1f"},"vehicle_type_id":"4","last_reported":1683867982,"current_range_meters":24400,"station_id":"ce4bgk12rcd13ifvqbi0","pricing_plan_id":"free"},{"bike_id":"89f542f1-53e0-4e10-970b-5d8bdfaabea7","system_id":"levelo_inurba_marseille","lat":43.304278,"lon":5.388868,"is_reserved":false,"is_disabled":false,"rental_uris":{"android":"levelo://app?vid=89f542f1-53e0-4e10-970b-5d8bdfaabea7","ios":"levelo://app?vid=89f542f1-53e0-4e10-970b-5d8bdfaabea7"},"vehicle_type_id":"4","last_reported":1683867982,"current_range_meters":27600,"station_id":"ce4bgk12rcd13ifvqbi0","pricing_plan_id":"free"},{"bike_id":"f92ad3ff-06af-4761-9e59-83d491674f4c","system_id":"levelo_inurba_marseille","lat":43.296263,"lon":5.377094,"is_reserved":false,"is_disabled":false,"rental_uris":{"android":"levelo://app?vid=f92ad3ff-06af-4761-9e59-83d491674f4c","ios":"levelo://app?vid=f92ad3ff-06af-4761-9e59-83d491674f4c"},"vehicle_type_id":"4","last_reported":1683867982,"current_range_meters":26800,"station_id":"ce4bgi92rcd13ifvqb90","pricing_plan_id":"free"},{"bike_id":"6a5a5c80-8238-4ed6-b6ca-e535b1c3c643","system_id":"levelo_inurba_marseille","lat":43.295748,"lon":5.37522,"is_reserved":false,"is_disabled":false,"rental_uris":{"android":"levelo://app?vid=6a5a5c80-8238-4ed6-b6ca-e535b1c3c643","ios":"levelo://app?vid=6a5a5c80-8238-4ed6-b6ca-e535b1c3c643"},"vehicle_type_id":"4","last_reported":1683867982,"current_range_meters":22000,"station_id":"ce4bgh92rcd13ifvqb50","pricing_plan_id":"free"},{"bike_id":"85691b05-80cc-4f57-a59b-ad72872f545f","system_id":"levelo_inurba_marseille","lat":43.3237,"lon":5.38879,"is_reserved":false,"is_disabled":false,"rental_uris":{"android":"levelo://app?vid=85691b05-80cc-4f57-a59b-ad72872f545f","ios":"levelo://app?vid=85691b05-80cc-4f57-a59b-ad72872f545f"},"vehicle_type_id":"4","last_reported":1683867982,"current_range_meters":4000,"station_id":"ce4bhqp2rcd13ifvqhog","pricing_plan_id":"free"},{"bike_id":"83de09e5-5ceb-42a7-abd0-00cb055c9138","system_id":"levelo_inurba_marseille","lat":43.32368,"lon":5.38891,"is_reserved":false,"is_disabled":false,"rental_uris":{"android":"levelo://app?vid=83de09e5-5ceb-42a7-abd0-00cb055c9138","ios":"levelo://app?vid=83de09e5-5ceb-42a7-abd0-00cb055c9138"},"vehicle_type_id":"4","last_reported":1683867982,"current_range_meters":400,"station_id":"ce4bhqp2rcd13ifvqhog","pricing_plan_id":"free"},{"bike_id":"3a2bdd6c-f460-4488-a99e-2238fcd112fa","system_id":"levelo_inurba_marseille","lat":43.29312,"lon":5.37191,"is_reserved":false,"is_disabled":false,"rental_uris":{"android":"levelo://app?vid=3a2bdd6c-f460-4488-a99e-2238fcd112fa","ios":"levelo://app?vid=3a2bdd6c-f460-4488-a99e-2238fcd112fa"},"vehicle_type_id":"4","last_reported":1683867982,"current_range_meters":0,"station_id":"ce4bgh92rcd13ifvqb40","pricing_plan_id":"free"},{"bike_id":"e87220ac-37bf-43dc-a608-3f45d033ceb8","system_id":"levelo_inurba_marseille","lat":43.30302,"lon":5.39207,"is_reserved":false,"is_disabled":false,"rental_uris":{"android":"levelo://app?vid=e87220ac-37bf-43dc-a608-3f45d033ceb8","ios":"levelo://app?vid=e87220ac-37bf-43dc-a608-3f45d033ceb8"},"vehicle_type_id":"4","last_reported":1683867982,"current_range_meters":30800,"station_id":"ce4bgkh2rcd13ifvqbk0","pricing_plan_id":"free"},{"bike_id":"265c74a6-5656-436a-a595-d81afe7926c3","system_id":"levelo_inurba_marseille","lat":43.2936,"lon":5.37835,"is_reserved":false,"is_disabled":false,"rental_uris":{"android":"levelo://app?vid=265c74a6-5656-436a-a595-d81afe7926c3","ios":"levelo://app?vid=265c74a6-5656-436a-a595-d81afe7926c3"},"vehicle_type_id":"4","last_reported":1683867982,"current_range_meters":30400,"station_id":"ce4bgjh2rcd13ifvqbf0","pricing_plan_id":"free"},{"bike_id":"55ba3828-106f-4b66-b28a-e2c0622e4f49","system_id":"levelo_inurba_marseille","lat":43.30085,"lon":5.390856,"is_reserved":false,"is_disabled":false,"rental_uris":{"android":"levelo://app?vid=55ba3828-106f-4b66-b28a-e2c0622e4f49","ios":"levelo://app?vid=55ba3828-106f-4b66-b28a-e2c0622e4f49"},"vehicle_type_id":"4","last_reported":1683867982,"current_range_meters":15200,"station_id":"ce4bh192rcd13ifvqdb0","pricing_plan_id":"free"},{"bike_id":"c1f74104-2ce8-4d34-832d-2fafe157a137","system_id":"levelo_inurba_marseille","lat":43.292135,"lon":5.358241,"is_reserved":false,"is_disabled":false,"rental_uris":{"android":"levelo://app?vid=c1f74104-2ce8-4d34-832d-2fafe157a137","ios":"levelo://app?vid=c1f74104-2ce8-4d34-832d-2fafe157a137"},"vehicle_type_id":"4","last_reported":1683867982,"current_range_meters":25200,"station_id":"","pricing_plan_id":"free"},{"bike_id":"b5fe510c-6df3-47c7-b1a4-b887a08664e9","system_id":"levelo_inurba_marseille","lat":43.309038,"lon":5.396546,"is_reserved":false,"is_disabled":false,"rental_uris":{"android":"levelo://app?vid=b5fe510c-6df3-47c7-b1a4-b887a08664e9","ios":"levelo://app?vid=b5fe510c-6df3-47c7-b1a4-b887a08664e9"},"vehicle_type_id":"4","last_reported":1683867982,"current_range_meters":24000,"station_id":"ce4bh012rcd13ifvqcv0","pricing_plan_id":"free"},{"bike_id":"b1688492-1a62-4d1e-a0f8-928de1a5ce80","system_id":"levelo_inurba_marseille","lat":43.309038,"lon":5.396546,"is_reserved":false,"is_disabled":false,"rental_uris":{"android":"levelo://app?vid=b1688492-1a62-4d1e-a0f8-928de1a5ce80","ios":"levelo://app?vid=b1688492-1a62-4d1e-a0f8-928de1a5ce80"},"vehicle_type_id":"4","last_reported":1683867982,"current_range_meters":24800,"station_id":"ce4bh012rcd13ifvqcv0","pricing_plan_id":"free"},{"bike_id":"4c783eda-cd43-448d-bf43-e0f1fd45404f","system_id":"levelo_inurba_marseille","lat":43.309038,"lon":5.396546,"is_reserved":false,"is_disabled":false,"rental_uris":{"android":"levelo://app?vid=4c783eda-cd43-448d-bf43-e0f1fd45404f","ios":"levelo://app?vid=4c783eda-cd43-448d-bf43-e0f1fd45404f"},"vehicle_type_id":"4","last_reported":1683867982,"current_range_meters":22000,"station_id":"ce4bh012rcd13ifvqcv0","pricing_plan_id":"free"},{"bike_id":"4f9350fc-4b13-4992-84b3-2a3efeccacae","system_id":"levelo_inurba_marseille","lat":43.309038,"lon":5.396546,"is_reserved":false,"is_disabled":false,"rental_uris":{"android":"levelo://app?vid=4f9350fc-4b13-4992-84b3-2a3efeccacae","ios":"levelo://app?vid=4f9350fc-4b13-4992-84b3-2a3efeccacae"},"vehicle_type_id":"4","last_reported":1683867982,"current_range_meters":19600,"station_id":"ce4bh012rcd13ifvqcv0","pricing_plan_id":"free"},{"bike_id":"0c4f7cc1-f3a5-4523-998b-6fff3bec46ac","system_id":"levelo_inurba_marseille","lat":43.309038,"lon":5.396546,"is_reserved":false,"is_disabled":false,"rental_uris":{"android":"levelo://app?vid=0c4f7cc1-f3a5-4523-998b-6fff3bec46ac","ios":"levelo://app?vid=0c4f7cc1-f3a5-4523-998b-6fff3bec46ac"},"vehicle_type_id":"4","last_reported":1683867982,"current_range_meters":0,"station_id":"ce4bh012rcd13ifvqcv0","pricing_plan_id":"free"},{"bike_id":"8cff9d44-c78f-4cd2-b6f4-f78b5b90e1b4","system_id":"levelo_inurba_marseille","lat":43.309038,"lon":5.396546,"is_reserved":false,"is_disabled":false,"rental_uris":{"android":"levelo://app?vid=8cff9d44-c78f-4cd2-b6f4-f78b5b90e1b4","ios":"levelo://app?vid=8cff9d44-c78f-4cd2-b6f4-f78b5b90e1b4"},"vehicle_type_id":"4","last_reported":1683867982,"current_range_meters":29200,"station_id":"ce4bh012rcd13ifvqcv0","pricing_plan_id":"free"},{"bike_id":"388da447-f25e-47b7-b591-7f7385e97113","system_id":"levelo_inurba_marseille","lat":43.309038,"lon":5.396546,"is_reserved":false,"is_disabled":false,"rental_uris":{"android":"levelo://app?vid=388da447-f25e-47b7-b591-7f7385e97113","ios":"levelo://app?vid=388da447-f25e-47b7-b591-7f7385e97113"},"vehicle_type_id":"4","last_reported":1683867982,"current_range_meters":23600,"station_id":"ce4bh012rcd13ifvqcv0","pricing_plan_id":"free"},{"bike_id":"bbdb49f9-a9d2-4746-8164-05438f82bf6c","system_id":"levelo_inurba_marseille","lat":43.309038,"lon":5.396546,"is_reserved":false,"is_disabled":false,"rental_uris":{"android":"levelo://app?vid=bbdb49f9-a9d2-4746-8164-05438f82bf6c","ios":"levelo://app?vid=bbdb49f9-a9d2-4746-8164-05438f82bf6c"},"vehicle_type_id":"4","last_reported":1683867982,"current_range_meters":28000,"station_id":"ce4bh012rcd13ifvqcv0","pricing_plan_id":"free"},{"bike_id":"c5502675-ab47-4e62-a028-46959985eff1","system_id":"levelo_inurba_marseille","lat":43.29191,"lon":5.35808,"is_reserved":false,"is_disabled":false,"rental_uris":{"android":"levelo://app?vid=c5502675-ab47-4e62-a028-46959985eff1","ios":"levelo://app?vid=c5502675-ab47-4e62-a028-46959985eff1"},"vehicle_type_id":"4","last_reported":1683867982,"current_range_meters":0,"station_id":"","pricing_plan_id":"free"},{"bike_id":"ceb35c05-c725-4c2e-a231-25513c92ed1c","system_id":"levelo_inurba_marseille","lat":43.30884,"lon":5.39641,"is_reserved":false,"is_disabled":false,"rental_uris":{"android":"levelo://app?vid=ceb35c05-c725-4c2e-a231-25513c92ed1c","ios":"levelo://app?vid=ceb35c05-c725-4c2e-a231-25513c92ed1c"},"vehicle_type_id":"4","last_reported":1683867982,"current_range_meters":9200,"station_id":"ce4bh012rcd13ifvqcv0","pricing_plan_id":"free"},{"bike_id":"ed5f4c17-22cf-4a6e-a2bb-bf52d0c09ecd","system_id":"levelo_inurba_marseille","lat":43.309038,"lon":5.396546,"is_reserved":false,"is_disabled":false,"rental_uris":{"android":"levelo://app?vid=ed5f4c17-22cf-4a6e-a2bb-bf52d0c09ecd","ios":"levelo://app?vid=ed5f4c17-22cf-4a6e-a2bb-bf52d0c09ecd"},"vehicle_type_id":"4","last_reported":1683867982,"current_range_meters":12800,"station_id":"ce4bh012rcd13ifvqcv0","pricing_plan_id":"free"},{"bike_id":"75e7be73-c2d6-4f07-befc-ea864acbf624","system_id":"levelo_inurba_marseille","lat":43.309038,"lon":5.396546,"is_reserved":false,"is_disabled":false,"rental_uris":{"android":"levelo://app?vid=75e7be73-c2d6-4f07-befc-ea864acbf624","ios":"levelo://app?vid=75e7be73-c2d6-4f07-befc-ea864acbf624"},"vehicle_type_id":"4","last_reported":1683867982,"current_range_meters":8800,"station_id":"ce4bh012rcd13ifvqcv0","pricing_plan_id":"free"},{"bike_id":"b126e2a7-b553-466f-8a1c-72be379b30c0","system_id":"levelo_inurba_marseille","lat":43.313291,"lon":5.396838,"is_reserved":false,"is_disabled":false,"rental_uris":{"android":"levelo://app?vid=b126e2a7-b553-466f-8a1c-72be379b30c0","ios":"levelo://app?vid=b126e2a7-b553-466f-8a1c-72be379b30c0"},"vehicle_type_id":"4","last_reported":1683867982,"current_range_meters":22400,"station_id":"ce4bgvp2rcd13ifvqcu0","pricing_plan_id":"free"},{"bike_id":"e256656f-5e04-4644-b260-95ca7e825d95","system_id":"levelo_inurba_marseille","lat":43.2919,"lon":5.35802,"is_reserved":false,"is_disabled":false,"rental_uris":{"android":"levelo://app?vid=e256656f-5e04-4644-b260-95ca7e825d95","ios":"levelo://app?vid=e256656f-5e04-4644-b260-95ca7e825d95"},"vehicle_type_id":"4","last_reported":1683867982,"current_range_meters":22000,"station_id":"","pricing_plan_id":"free"},{"bike_id":"33c3dea9-4c1f-452f-89ed-554afd0b40fc","system_id":"levelo_inurba_marseille","lat":43.309038,"lon":5.396546,"is_reserved":false,"is_disabled":false,"rental_uris":{"android":"levelo://app?vid=33c3dea9-4c1f-452f-89ed-554afd0b40fc","ios":"levelo://app?vid=33c3dea9-4c1f-452f-89ed-554afd0b40fc"},"vehicle_type_id":"4","last_reported":1683867982,"current_range_meters":15600,"station_id":"ce4bh012rcd13ifvqcv0","pricing_plan_id":"free"},{"bike_id":"89194808-5c37-4adc-8194-0c75e8d3c734","system_id":"levelo_inurba_marseille","lat":43.313291,"lon":5.396838,"is_reserved":false,"is_disabled":false,"rental_uris":{"android":"levelo://app?vid=89194808-5c37-4adc-8194-0c75e8d3c734","ios":"levelo://app?vid=89194808-5c37-4adc-8194-0c75e8d3c734"},"vehicle_type_id":"4","last_reported":1683867982,"current_range_meters":31200,"station_id":"ce4bgvp2rcd13ifvqcu0","pricing_plan_id":"free"},{"bike_id":"f0bacf1e-5ca7-4e49-99b4-d044c3fbdea0","system_id":"levelo_inurba_marseille","lat":43.31321,"lon":5.39694,"is_reserved":false,"is_disabled":false,"rental_uris":{"android":"levelo://app?vid=f0bacf1e-5ca7-4e49-99b4-d044c3fbdea0","ios":"levelo://app?vid=f0bacf1e-5ca7-4e49-99b4-d044c3fbdea0"},"vehicle_type_id":"4","last_reported":1683867982,"current_range_meters":28800,"station_id":"ce4bgvp2rcd13ifvqcu0","pricing_plan_id":"free"},{"bike_id":"867a0806-578c-4311-aec3-987ab4749fe5","system_id":"levelo_inurba_marseille","lat":43.313291,"lon":5.396838,"is_reserved":false,"is_disabled":false,"rental_uris":{"android":"levelo://app?vid=867a0806-578c-4311-aec3-987ab4749fe5","ios":"levelo://app?vid=867a0806-578c-4311-aec3-987ab4749fe5"},"vehicle_type_id":"4","last_reported":1683867982,"current_range_meters":25600,"station_id":"ce4bgvp2rcd13ifvqcu0","pricing_plan_id":"free"},{"bike_id":"b95c60c6-66e5-426e-8cdb-2728632759a7","system_id":"levelo_inurba_marseille","lat":43.313291,"lon":5.396838,"is_reserved":false,"is_disabled":false,"rental_uris":{"android":"levelo://app?vid=b95c60c6-66e5-426e-8cdb-2728632759a7","ios":"levelo://app?vid=b95c60c6-66e5-426e-8cdb-2728632759a7"},"vehicle_type_id":"4","last_reported":1683867982,"current_range_meters":22400,"station_id":"ce4bgvp2rcd13ifvqcu0","pricing_plan_id":"free"},{"bike_id":"a8dfed8a-56df-4e30-9215-2620076dd475","system_id":"levelo_inurba_marseille","lat":43.31323,"lon":5.39698,"is_reserved":false,"is_disabled":false,"rental_uris":{"android":"levelo://app?vid=a8dfed8a-56df-4e30-9215-2620076dd475","ios":"levelo://app?vid=a8dfed8a-56df-4e30-9215-2620076dd475"},"vehicle_type_id":"4","last_reported":1683867982,"current_range_meters":20800,"station_id":"ce4bgvp2rcd13ifvqcu0","pricing_plan_id":"free"},{"bike_id":"078958e5-fe21-452d-95f2-8a464d5f0959","system_id":"levelo_inurba_marseille","lat":43.31328,"lon":5.39699,"is_reserved":false,"is_disabled":false,"rental_uris":{"android":"levelo://app?vid=078958e5-fe21-452d-95f2-8a464d5f0959","ios":"levelo://app?vid=078958e5-fe21-452d-95f2-8a464d5f0959"},"vehicle_type_id":"4","last_reported":1683867982,"current_range_meters":24400,"station_id":"ce4bgvp2rcd13ifvqcu0","pricing_plan_id":"free"},{"bike_id":"b46cd140-66d1-41d1-ac37-ced7fe69b54b","system_id":"levelo_inurba_marseille","lat":43.31332,"lon":5.39703,"is_reserved":false,"is_disabled":false,"rental_uris":{"android":"levelo://app?vid=b46cd140-66d1-41d1-ac37-ced7fe69b54b","ios":"levelo://app?vid=b46cd140-66d1-41d1-ac37-ced7fe69b54b"},"vehicle_type_id":"4","last_reported":1683867982,"current_range_meters":14000,"station_id":"ce4bgvp2rcd13ifvqcu0","pricing_plan_id":"free"},{"bike_id":"147ce13f-78d6-4904-b3f6-8e05be7696ec","system_id":"levelo_inurba_marseille","lat":43.29529,"lon":5.385581,"is_reserved":false,"is_disabled":false,"rental_uris":{"android":"levelo://app?vid=147ce13f-78d6-4904-b3f6-8e05be7696ec","ios":"levelo://app?vid=147ce13f-78d6-4904-b3f6-8e05be7696ec"},"vehicle_type_id":"4","last_reported":1683867982,"current_range_meters":0,"station_id":"ce4bgih2rcd13ifvqba0","pricing_plan_id":"free"},{"bike_id":"e2c4ebd5-50d1-474e-bece-4a2d24cb868a","system_id":"levelo_inurba_marseille","lat":43.302008,"lon":5.394694,"is_reserved":false,"is_disabled":false,"rental_uris":{"android":"levelo://app?vid=e2c4ebd5-50d1-474e-bece-4a2d24cb868a","ios":"levelo://app?vid=e2c4ebd5-50d1-474e-bece-4a2d24cb868a"},"vehicle_type_id":"4","last_reported":1683867982,"current_range_meters":27600,"station_id":"ce4bh0p2rcd13ifvqd70","pricing_plan_id":"free"},{"bike_id":"097a50be-925c-45cd-8f6a-2b6e4b65832e","system_id":"levelo_inurba_marseille","lat":43.302008,"lon":5.394694,"is_reserved":false,"is_disabled":false,"rental_uris":{"android":"levelo://app?vid=097a50be-925c-45cd-8f6a-2b6e4b65832e","ios":"levelo://app?vid=097a50be-925c-45cd-8f6a-2b6e4b65832e"},"vehicle_type_id":"4","last_reported":1683867982,"current_range_meters":23200,"station_id":"ce4bh0p2rcd13ifvqd70","pricing_plan_id":"free"},{"bike_id":"8fd59925-2532-4933-901f-d182675a0daa","system_id":"levelo_inurba_marseille","lat":43.290631,"lon":5.359244,"is_reserved":false,"is_disabled":false,"rental_uris":{"android":"levelo://app?vid=8fd59925-2532-4933-901f-d182675a0daa","ios":"levelo://app?vid=8fd59925-2532-4933-901f-d182675a0daa"},"vehicle_type_id":"4","last_reported":1683867982,"current_range_meters":1600,"station_id":"ce4bha92rcd13ifvqeg0","pricing_plan_id":"free"},{"bike_id":"07877418-add4-417d-be02-efb7e5e2f746","system_id":"levelo_inurba_marseille","lat":43.29034,"lon":5.37559,"is_reserved":false,"is_disabled":false,"rental_uris":{"android":"levelo://app?vid=07877418-add4-417d-be02-efb7e5e2f746","ios":"levelo://app?vid=07877418-add4-417d-be02-efb7e5e2f746"},"vehicle_type_id":"4","last_reported":1683867982,"current_range_meters":0,"station_id":"ce4bh692rcd13ifvqe90","pricing_plan_id":"free"},{"bike_id":"d5cb2010-4523-4aea-aa8d-ce74e13203e5","system_id":"levelo_inurba_marseille","lat":43.289184,"lon":5.366408,"is_reserved":false,"is_disabled":false,"rental_uris":{"android":"levelo://app?vid=d5cb2010-4523-4aea-aa8d-ce74e13203e5","ios":"levelo://app?vid=d5cb2010-4523-4aea-aa8d-ce74e13203e5"},"vehicle_type_id":"4","last_reported":1683867982,"current_range_meters":28800,"station_id":"ce4bhap2rcd13ifvqek0","pricing_plan_id":"free"},{"bike_id":"801c18de-162f-497f-98a1-b2434cbe067b","system_id":"levelo_inurba_marseille","lat":43.30572,"lon":5.39803,"is_reserved":false,"is_disabled":false,"rental_uris":{"android":"levelo://app?vid=801c18de-162f-497f-98a1-b2434cbe067b","ios":"levelo://app?vid=801c18de-162f-497f-98a1-b2434cbe067b"},"vehicle_type_id":"4","last_reported":1683867982,"current_range_meters":0,"station_id":"","pricing_plan_id":"free"},{"bike_id":"1e466ef3-c9a7-4559-9654-caed19c00eeb","system_id":"levelo_inurba_marseille","lat":43.304296,"lon":5.397513,"is_reserved":false,"is_disabled":false,"rental_uris":{"android":"levelo://app?vid=1e466ef3-c9a7-4559-9654-caed19c00eeb","ios":"levelo://app?vid=1e466ef3-c9a7-4559-9654-caed19c00eeb"},"vehicle_type_id":"4","last_reported":1683867982,"current_range_meters":8800,"station_id":"ce4bh092rcd13ifvqd20","pricing_plan_id":"free"},{"bike_id":"7abc87b9-df45-479b-8717-9dce1d4bd654","system_id":"levelo_inurba_marseille","lat":43.292642,"lon":5.384254,"is_reserved":false,"is_disabled":false,"rental_uris":{"android":"levelo://app?vid=7abc87b9-df45-479b-8717-9dce1d4bd654","ios":"levelo://app?vid=7abc87b9-df45-479b-8717-9dce1d4bd654"},"vehicle_type_id":"4","last_reported":1683867982,"current_range_meters":21200,"station_id":"ce4bh692rcd13ifvqea0","pricing_plan_id":"free"},{"bike_id":"73c152b9-0c90-411f-abd3-7a69214ed628","system_id":"levelo_inurba_marseille","lat":43.292642,"lon":5.384254,"is_reserved":false,"is_disabled":false,"rental_uris":{"android":"levelo://app?vid=73c152b9-0c90-411f-abd3-7a69214ed628","ios":"levelo://app?vid=73c152b9-0c90-411f-abd3-7a69214ed628"},"vehicle_type_id":"4","last_reported":1683867982,"current_range_meters":31200,"station_id":"ce4bh692rcd13ifvqea0","pricing_plan_id":"free"},{"bike_id":"b5b8edf2-31d8-480e-905f-fa358c867405","system_id":"levelo_inurba_marseille","lat":43.292644,"lon":5.384257,"is_reserved":false,"is_disabled":false,"rental_uris":{"android":"levelo://app?vid=b5b8edf2-31d8-480e-905f-fa358c867405","ios":"levelo://app?vid=b5b8edf2-31d8-480e-905f-fa358c867405"},"vehicle_type_id":"4","last_reported":1683867982,"current_range_meters":29600,"station_id":"ce4bh692rcd13ifvqea0","pricing_plan_id":"free"},{"bike_id":"e3c3b616-516c-4f5c-a3f9-d9f4036ef43e","system_id":"levelo_inurba_marseille","lat":43.292642,"lon":5.384254,"is_reserved":false,"is_disabled":false,"rental_uris":{"android":"levelo://app?vid=e3c3b616-516c-4f5c-a3f9-d9f4036ef43e","ios":"levelo://app?vid=e3c3b616-516c-4f5c-a3f9-d9f4036ef43e"},"vehicle_type_id":"4","last_reported":1683867982,"current_range_meters":31200,"station_id":"ce4bh692rcd13ifvqea0","pricing_plan_id":"free"},{"bike_id":"203b2f11-a3b5-475b-8f41-939e1d33a596","system_id":"levelo_inurba_marseille","lat":43.33039,"lon":5.38915,"is_reserved":false,"is_disabled":false,"rental_uris":{"android":"levelo://app?vid=203b2f11-a3b5-475b-8f41-939e1d33a596","ios":"levelo://app?vid=203b2f11-a3b5-475b-8f41-939e1d33a596"},"vehicle_type_id":"4","last_reported":1683867982,"current_range_meters":25200,"station_id":"ce4bhr92rcd13ifvqhrg","pricing_plan_id":"free"},{"bike_id":"211b7316-10de-4bc7-a044-db2211126bbf","system_id":"levelo_inurba_marseille","lat":43.33037,"lon":5.38918,"is_reserved":false,"is_disabled":false,"rental_uris":{"android":"levelo://app?vid=211b7316-10de-4bc7-a044-db2211126bbf","ios":"levelo://app?vid=211b7316-10de-4bc7-a044-db2211126bbf"},"vehicle_type_id":"4","last_reported":1683867982,"current_range_meters":16400,"station_id":"ce4bhr92rcd13ifvqhrg","pricing_plan_id":"free"},{"bike_id":"96efe07e-8e96-4cf8-802c-f6d1fa050eb0","system_id":"levelo_inurba_marseille","lat":43.33041,"lon":5.38916,"is_reserved":false,"is_disabled":false,"rental_uris":{"android":"levelo://app?vid=96efe07e-8e96-4cf8-802c-f6d1fa050eb0","ios":"levelo://app?vid=96efe07e-8e96-4cf8-802c-f6d1fa050eb0"},"vehicle_type_id":"4","last_reported":1683867982,"current_range_meters":7600,"station_id":"ce4bhr92rcd13ifvqhrg","pricing_plan_id":"free"},{"bike_id":"0d5975c0-4e17-448c-aab7-0c4f12a4fc13","system_id":"levelo_inurba_marseille","lat":43.33044,"lon":5.38912,"is_reserved":false,"is_disabled":false,"rental_uris":{"android":"levelo://app?vid=0d5975c0-4e17-448c-aab7-0c4f12a4fc13","ios":"levelo://app?vid=0d5975c0-4e17-448c-aab7-0c4f12a4fc13"},"vehicle_type_id":"4","last_reported":1683867982,"current_range_meters":0,"station_id":"ce4bhr92rcd13ifvqhrg","pricing_plan_id":"free"},{"bike_id":"eb9c1069-6fcc-4052-90a5-6b75bbaeaa66","system_id":"levelo_inurba_marseille","lat":43.33043,"lon":5.38915,"is_reserved":false,"is_disabled":false,"rental_uris":{"android":"levelo://app?vid=eb9c1069-6fcc-4052-90a5-6b75bbaeaa66","ios":"levelo://app?vid=eb9c1069-6fcc-4052-90a5-6b75bbaeaa66"},"vehicle_type_id":"4","last_reported":1683867982,"current_range_meters":5600,"station_id":"ce4bhr92rcd13ifvqhrg","pricing_plan_id":"free"},{"bike_id":"f55f9613-885a-4d9f-b9d0-876dd874452b","system_id":"levelo_inurba_marseille","lat":43.33042,"lon":5.38917,"is_reserved":false,"is_disabled":false,"rental_uris":{"android":"levelo://app?vid=f55f9613-885a-4d9f-b9d0-876dd874452b","ios":"levelo://app?vid=f55f9613-885a-4d9f-b9d0-876dd874452b"},"vehicle_type_id":"4","last_reported":1683867982,"current_range_meters":21200,"station_id":"ce4bhr92rcd13ifvqhrg","pricing_plan_id":"free"},{"bike_id":"5c7ae945-7687-4b1e-ad1d-e0842d0ded22","system_id":"levelo_inurba_marseille","lat":43.33041,"lon":5.38919,"is_reserved":false,"is_disabled":false,"rental_uris":{"android":"levelo://app?vid=5c7ae945-7687-4b1e-ad1d-e0842d0ded22","ios":"levelo://app?vid=5c7ae945-7687-4b1e-ad1d-e0842d0ded22"},"vehicle_type_id":"4","last_reported":1683867982,"current_range_meters":17600,"station_id":"ce4bhr92rcd13ifvqhrg","pricing_plan_id":"free"},{"bike_id":"0942e249-8769-4e37-86ec-dec57500c4df","system_id":"levelo_inurba_marseille","lat":43.33043,"lon":5.38916,"is_reserved":false,"is_disabled":false,"rental_uris":{"android":"levelo://app?vid=0942e249-8769-4e37-86ec-dec57500c4df","ios":"levelo://app?vid=0942e249-8769-4e37-86ec-dec57500c4df"},"vehicle_type_id":"4","last_reported":1683867982,"current_range_meters":8800,"station_id":"ce4bhr92rcd13ifvqhrg","pricing_plan_id":"free"},{"bike_id":"f6227f8a-ad7f-4e58-9ebb-41713ba8dff5","system_id":"levelo_inurba_marseille","lat":43.33046,"lon":5.38913,"is_reserved":false,"is_disabled":false,"rental_uris":{"android":"levelo://app?vid=f6227f8a-ad7f-4e58-9ebb-41713ba8dff5","ios":"levelo://app?vid=f6227f8a-ad7f-4e58-9ebb-41713ba8dff5"},"vehicle_type_id":"4","last_reported":1683867982,"current_range_meters":26800,"station_id":"ce4bhr92rcd13ifvqhrg","pricing_plan_id":"free"},{"bike_id":"ea053720-efd1-4c74-9419-f2e59cbbf203","system_id":"levelo_inurba_marseille","lat":43.33044,"lon":5.38917,"is_reserved":false,"is_disabled":false,"rental_uris":{"android":"levelo://app?vid=ea053720-efd1-4c74-9419-f2e59cbbf203","ios":"levelo://app?vid=ea053720-efd1-4c74-9419-f2e59cbbf203"},"vehicle_type_id":"4","last_reported":1683867982,"current_range_meters":8000,"station_id":"ce4bhr92rcd13ifvqhrg","pricing_plan_id":"free"},{"bike_id":"140e1a3f-a828-4524-8ed7-1fc0cdd5323a","system_id":"levelo_inurba_marseille","lat":43.33044,"lon":5.38917,"is_reserved":false,"is_disabled":false,"rental_uris":{"android":"levelo://app?vid=140e1a3f-a828-4524-8ed7-1fc0cdd5323a","ios":"levelo://app?vid=140e1a3f-a828-4524-8ed7-1fc0cdd5323a"},"vehicle_type_id":"4","last_reported":1683867982,"current_range_meters":21200,"station_id":"ce4bhr92rcd13ifvqhrg","pricing_plan_id":"free"},{"bike_id":"291e92dd-c2ab-4c58-b1dd-0973f1c413d5","system_id":"levelo_inurba_marseille","lat":43.33041,"lon":5.38922,"is_reserved":false,"is_disabled":false,"rental_uris":{"android":"levelo://app?vid=291e92dd-c2ab-4c58-b1dd-0973f1c413d5","ios":"levelo://app?vid=291e92dd-c2ab-4c58-b1dd-0973f1c413d5"},"vehicle_type_id":"4","last_reported":1683867982,"current_range_meters":23200,"station_id":"ce4bhr92rcd13ifvqhrg","pricing_plan_id":"free"},{"bike_id":"154bd7a0-b17c-47e4-a248-4f695cb75ec6","system_id":"levelo_inurba_marseille","lat":43.33047,"lon":5.38917,"is_reserved":false,"is_disabled":false,"rental_uris":{"android":"levelo://app?vid=154bd7a0-b17c-47e4-a248-4f695cb75ec6","ios":"levelo://app?vid=154bd7a0-b17c-47e4-a248-4f695cb75ec6"},"vehicle_type_id":"4","last_reported":1683867982,"current_range_meters":21200,"station_id":"ce4bhr92rcd13ifvqhrg","pricing_plan_id":"free"},{"bike_id":"7b92cdd8-6933-4adc-acc6-ec8241895fd7","system_id":"levelo_inurba_marseille","lat":43.292644,"lon":5.384257,"is_reserved":false,"is_disabled":false,"rental_uris":{"android":"levelo://app?vid=7b92cdd8-6933-4adc-acc6-ec8241895fd7","ios":"levelo://app?vid=7b92cdd8-6933-4adc-acc6-ec8241895fd7"},"vehicle_type_id":"4","last_reported":1683867982,"current_range_meters":7600,"station_id":"ce4bh692rcd13ifvqea0","pricing_plan_id":"free"},{"bike_id":"7fc05405-7f4a-4c95-90fa-3a4f57686196","system_id":"levelo_inurba_marseille","lat":43.28996,"lon":5.35608,"is_reserved":false,"is_disabled":false,"rental_uris":{"android":"levelo://app?vid=7fc05405-7f4a-4c95-90fa-3a4f57686196","ios":"levelo://app?vid=7fc05405-7f4a-4c95-90fa-3a4f57686196"},"vehicle_type_id":"4","last_reported":1683867982,"current_range_meters":14400,"station_id":"","pricing_plan_id":"free"},{"bike_id":"07c09652-a375-4e07-b544-478aed47fcbb","system_id":"levelo_inurba_marseille","lat":43.28856,"lon":5.358371,"is_reserved":false,"is_disabled":false,"rental_uris":{"android":"levelo://app?vid=07c09652-a375-4e07-b544-478aed47fcbb","ios":"levelo://app?vid=07c09652-a375-4e07-b544-478aed47fcbb"},"vehicle_type_id":"4","last_reported":1683867982,"current_range_meters":31200,"station_id":"ce4bhb12rcd13ifvqem0","pricing_plan_id":"free"},{"bike_id":"0693a76e-00d0-4673-ad0e-13d8a14367c2","system_id":"levelo_inurba_marseille","lat":43.28856,"lon":5.358371,"is_reserved":false,"is_disabled":false,"rental_uris":{"android":"levelo://app?vid=0693a76e-00d0-4673-ad0e-13d8a14367c2","ios":"levelo://app?vid=0693a76e-00d0-4673-ad0e-13d8a14367c2"},"vehicle_type_id":"4","last_reported":1683867982,"current_range_meters":30800,"station_id":"ce4bhb12rcd13ifvqem0","pricing_plan_id":"free"},{"bike_id":"1ae28bd7-c220-4767-bb54-a194de2d1ca9","system_id":"levelo_inurba_marseille","lat":43.28856,"lon":5.358371,"is_reserved":false,"is_disabled":false,"rental_uris":{"android":"levelo://app?vid=1ae28bd7-c220-4767-bb54-a194de2d1ca9","ios":"levelo://app?vid=1ae28bd7-c220-4767-bb54-a194de2d1ca9"},"vehicle_type_id":"4","last_reported":1683867982,"current_range_meters":31200,"station_id":"ce4bhb12rcd13ifvqem0","pricing_plan_id":"free"},{"bike_id":"b915105b-500b-46f3-b101-50a018fbc645","system_id":"levelo_inurba_marseille","lat":43.28856,"lon":5.358371,"is_reserved":false,"is_disabled":false,"rental_uris":{"android":"levelo://app?vid=b915105b-500b-46f3-b101-50a018fbc645","ios":"levelo://app?vid=b915105b-500b-46f3-b101-50a018fbc645"},"vehicle_type_id":"4","last_reported":1683867982,"current_range_meters":31200,"station_id":"ce4bhb12rcd13ifvqem0","pricing_plan_id":"free"},{"bike_id":"542f67ff-b962-4f43-ad16-62426bb802af","system_id":"levelo_inurba_marseille","lat":43.28856,"lon":5.358371,"is_reserved":false,"is_disabled":false,"rental_uris":{"android":"levelo://app?vid=542f67ff-b962-4f43-ad16-62426bb802af","ios":"levelo://app?vid=542f67ff-b962-4f43-ad16-62426bb802af"},"vehicle_type_id":"4","last_reported":1683867982,"current_range_meters":2000,"station_id":"ce4bhb12rcd13ifvqem0","pricing_plan_id":"free"},{"bike_id":"4f252e65-e480-4a8f-9278-ab1dfd67121e","system_id":"levelo_inurba_marseille","lat":43.28856,"lon":5.358371,"is_reserved":false,"is_disabled":false,"rental_uris":{"android":"levelo://app?vid=4f252e65-e480-4a8f-9278-ab1dfd67121e","ios":"levelo://app?vid=4f252e65-e480-4a8f-9278-ab1dfd67121e"},"vehicle_type_id":"4","last_reported":1683867982,"current_range_meters":31200,"station_id":"ce4bhb12rcd13ifvqem0","pricing_plan_id":"free"},{"bike_id":"bd8a5d8f-fcf9-4c0b-beea-fbf07004b732","system_id":"levelo_inurba_marseille","lat":43.28856,"lon":5.358371,"is_reserved":false,"is_disabled":false,"rental_uris":{"android":"levelo://app?vid=bd8a5d8f-fcf9-4c0b-beea-fbf07004b732","ios":"levelo://app?vid=bd8a5d8f-fcf9-4c0b-beea-fbf07004b732"},"vehicle_type_id":"4","last_reported":1683867982,"current_range_meters":11600,"station_id":"ce4bhb12rcd13ifvqem0","pricing_plan_id":"free"},{"bike_id":"b812c44a-a09b-4c74-b7fb-55422a491016","system_id":"levelo_inurba_marseille","lat":43.28856,"lon":5.358371,"is_reserved":false,"is_disabled":false,"rental_uris":{"android":"levelo://app?vid=b812c44a-a09b-4c74-b7fb-55422a491016","ios":"levelo://app?vid=b812c44a-a09b-4c74-b7fb-55422a491016"},"vehicle_type_id":"4","last_reported":1683867982,"current_range_meters":13200,"station_id":"ce4bhb12rcd13ifvqem0","pricing_plan_id":"free"},{"bike_id":"b4b39268-3abf-4f4a-a0e4-52244da9a53a","system_id":"levelo_inurba_marseille","lat":43.28843,"lon":5.35845,"is_reserved":false,"is_disabled":false,"rental_uris":{"android":"levelo://app?vid=b4b39268-3abf-4f4a-a0e4-52244da9a53a","ios":"levelo://app?vid=b4b39268-3abf-4f4a-a0e4-52244da9a53a"},"vehicle_type_id":"4","last_reported":1683867982,"current_range_meters":24000,"station_id":"ce4bhb12rcd13ifvqem0","pricing_plan_id":"free"},{"bike_id":"cbb0021f-c4d0-4435-9a41-c22932864d90","system_id":"levelo_inurba_marseille","lat":43.30642,"lon":5.401031,"is_reserved":false,"is_disabled":false,"rental_uris":{"android":"levelo://app?vid=cbb0021f-c4d0-4435-9a41-c22932864d90","ios":"levelo://app?vid=cbb0021f-c4d0-4435-9a41-c22932864d90"},"vehicle_type_id":"4","last_reported":1683867982,"current_range_meters":31200,"station_id":"ce4bh112rcd13ifvqda0","pricing_plan_id":"free"},{"bike_id":"b580e0e2-2f8d-4df7-94bc-e067ad6ab0cb","system_id":"levelo_inurba_marseille","lat":43.32674,"lon":5.39602,"is_reserved":false,"is_disabled":false,"rental_uris":{"android":"levelo://app?vid=b580e0e2-2f8d-4df7-94bc-e067ad6ab0cb","ios":"levelo://app?vid=b580e0e2-2f8d-4df7-94bc-e067ad6ab0cb"},"vehicle_type_id":"4","last_reported":1683867982,"current_range_meters":12800,"station_id":"","pricing_plan_id":"free"},{"bike_id":"84b20eb2-196f-45d8-a651-43a28c5f9049","system_id":"levelo_inurba_marseille","lat":43.30639,"lon":5.40071,"is_reserved":false,"is_disabled":false,"rental_uris":{"android":"levelo://app?vid=84b20eb2-196f-45d8-a651-43a28c5f9049","ios":"levelo://app?vid=84b20eb2-196f-45d8-a651-43a28c5f9049"},"vehicle_type_id":"4","last_reported":1683867982,"current_range_meters":30400,"station_id":"ce4bh112rcd13ifvqda0","pricing_plan_id":"free"},{"bike_id":"4e96cab5-8946-4e29-bc6e-fbe240a0e7fc","system_id":"levelo_inurba_marseille","lat":43.30642,"lon":5.401031,"is_reserved":false,"is_disabled":false,"rental_uris":{"android":"levelo://app?vid=4e96cab5-8946-4e29-bc6e-fbe240a0e7fc","ios":"levelo://app?vid=4e96cab5-8946-4e29-bc6e-fbe240a0e7fc"},"vehicle_type_id":"4","last_reported":1683867982,"current_range_meters":30800,"station_id":"ce4bh112rcd13ifvqda0","pricing_plan_id":"free"},{"bike_id":"3437dc83-798a-4e60-a597-53d33f74be3b","system_id":"levelo_inurba_marseille","lat":43.30641,"lon":5.40075,"is_reserved":false,"is_disabled":false,"rental_uris":{"android":"levelo://app?vid=3437dc83-798a-4e60-a597-53d33f74be3b","ios":"levelo://app?vid=3437dc83-798a-4e60-a597-53d33f74be3b"},"vehicle_type_id":"4","last_reported":1683867982,"current_range_meters":14400,"station_id":"ce4bh112rcd13ifvqda0","pricing_plan_id":"free"},{"bike_id":"986ea138-6806-4047-be93-3db3b572d0db","system_id":"levelo_inurba_marseille","lat":43.30642,"lon":5.401031,"is_reserved":false,"is_disabled":false,"rental_uris":{"android":"levelo://app?vid=986ea138-6806-4047-be93-3db3b572d0db","ios":"levelo://app?vid=986ea138-6806-4047-be93-3db3b572d0db"},"vehicle_type_id":"4","last_reported":1683867982,"current_range_meters":16000,"station_id":"ce4bh112rcd13ifvqda0","pricing_plan_id":"free"},{"bike_id":"7579c875-e52a-4bd1-b37b-8767c41d3fe8","system_id":"levelo_inurba_marseille","lat":43.30642,"lon":5.401031,"is_reserved":false,"is_disabled":false,"rental_uris":{"android":"levelo://app?vid=7579c875-e52a-4bd1-b37b-8767c41d3fe8","ios":"levelo://app?vid=7579c875-e52a-4bd1-b37b-8767c41d3fe8"},"vehicle_type_id":"4","last_reported":1683867982,"current_range_meters":20400,"station_id":"ce4bh112rcd13ifvqda0","pricing_plan_id":"free"},{"bike_id":"59063888-64d0-4490-b755-7afd1afcd308","system_id":"levelo_inurba_marseille","lat":43.30638,"lon":5.40078,"is_reserved":false,"is_disabled":false,"rental_uris":{"android":"levelo://app?vid=59063888-64d0-4490-b755-7afd1afcd308","ios":"levelo://app?vid=59063888-64d0-4490-b755-7afd1afcd308"},"vehicle_type_id":"4","last_reported":1683867982,"current_range_meters":25200,"station_id":"ce4bh112rcd13ifvqda0","pricing_plan_id":"free"},{"bike_id":"6cbea0a2-4f67-4933-b132-597776ec8271","system_id":"levelo_inurba_marseille","lat":43.30642,"lon":5.401031,"is_reserved":false,"is_disabled":false,"rental_uris":{"android":"levelo://app?vid=6cbea0a2-4f67-4933-b132-597776ec8271","ios":"levelo://app?vid=6cbea0a2-4f67-4933-b132-597776ec8271"},"vehicle_type_id":"4","last_reported":1683867982,"current_range_meters":16000,"station_id":"ce4bh112rcd13ifvqda0","pricing_plan_id":"free"},{"bike_id":"7c56c76c-733e-4eb1-9830-931e734057aa","system_id":"levelo_inurba_marseille","lat":43.33756,"lon":5.37467,"is_reserved":false,"is_disabled":false,"rental_uris":{"android":"levelo://app?vid=7c56c76c-733e-4eb1-9830-931e734057aa","ios":"levelo://app?vid=7c56c76c-733e-4eb1-9830-931e734057aa"},"vehicle_type_id":"4","last_reported":1683867982,"current_range_meters":26400,"station_id":"","pricing_plan_id":"free"},{"bike_id":"80b5d26d-9f34-44b8-a0ca-d698b1997862","system_id":"levelo_inurba_marseille","lat":43.30642,"lon":5.401031,"is_reserved":false,"is_disabled":false,"rental_uris":{"android":"levelo://app?vid=80b5d26d-9f34-44b8-a0ca-d698b1997862","ios":"levelo://app?vid=80b5d26d-9f34-44b8-a0ca-d698b1997862"},"vehicle_type_id":"4","last_reported":1683867982,"current_range_meters":14800,"station_id":"ce4bh112rcd13ifvqda0","pricing_plan_id":"free"},{"bike_id":"ef38c5ae-8310-421c-8175-6fc4e9e20913","system_id":"levelo_inurba_marseille","lat":43.30639,"lon":5.40088,"is_reserved":false,"is_disabled":false,"rental_uris":{"android":"levelo://app?vid=ef38c5ae-8310-421c-8175-6fc4e9e20913","ios":"levelo://app?vid=ef38c5ae-8310-421c-8175-6fc4e9e20913"},"vehicle_type_id":"4","last_reported":1683867982,"current_range_meters":17200,"station_id":"ce4bh112rcd13ifvqda0","pricing_plan_id":"free"},{"bike_id":"96f55cdc-9bad-4365-832c-856c474c51e3","system_id":"levelo_inurba_marseille","lat":43.30642,"lon":5.401031,"is_reserved":false,"is_disabled":false,"rental_uris":{"android":"levelo://app?vid=96f55cdc-9bad-4365-832c-856c474c51e3","ios":"levelo://app?vid=96f55cdc-9bad-4365-832c-856c474c51e3"},"vehicle_type_id":"4","last_reported":1683867982,"current_range_meters":0,"station_id":"ce4bh112rcd13ifvqda0","pricing_plan_id":"free"},{"bike_id":"9126ff24-82e9-41aa-bf3f-a6bbf3245282","system_id":"levelo_inurba_marseille","lat":43.30642,"lon":5.40106,"is_reserved":false,"is_disabled":false,"rental_uris":{"android":"levelo://app?vid=9126ff24-82e9-41aa-bf3f-a6bbf3245282","ios":"levelo://app?vid=9126ff24-82e9-41aa-bf3f-a6bbf3245282"},"vehicle_type_id":"4","last_reported":1683867982,"current_range_meters":27200,"station_id":"ce4bh112rcd13ifvqda0","pricing_plan_id":"free"},{"bike_id":"4ba922c5-2f98-4693-8f92-a43d05cde276","system_id":"levelo_inurba_marseille","lat":43.301117,"lon":5.398795,"is_reserved":false,"is_disabled":false,"rental_uris":{"android":"levelo://app?vid=4ba922c5-2f98-4693-8f92-a43d05cde276","ios":"levelo://app?vid=4ba922c5-2f98-4693-8f92-a43d05cde276"},"vehicle_type_id":"4","last_reported":1683867982,"current_range_meters":14800,"station_id":"ce4bh0h2rcd13ifvqd40","pricing_plan_id":"free"},{"bike_id":"e3dec264-588d-4d35-95ca-6c879ecd9e85","system_id":"levelo_inurba_marseille","lat":43.298681,"lon":5.397225,"is_reserved":false,"is_disabled":false,"rental_uris":{"android":"levelo://app?vid=e3dec264-588d-4d35-95ca-6c879ecd9e85","ios":"levelo://app?vid=e3dec264-588d-4d35-95ca-6c879ecd9e85"},"vehicle_type_id":"4","last_reported":1683867982,"current_range_meters":31200,"station_id":"ce4bh0h2rcd13ifvqd50","pricing_plan_id":"free"},{"bike_id":"dde08a80-06cc-47ec-95c2-d5f0d88341ff","system_id":"levelo_inurba_marseille","lat":43.286593,"lon":5.363346,"is_reserved":false,"is_disabled":false,"rental_uris":{"android":"levelo://app?vid=dde08a80-06cc-47ec-95c2-d5f0d88341ff","ios":"levelo://app?vid=dde08a80-06cc-47ec-95c2-d5f0d88341ff"},"vehicle_type_id":"4","last_reported":1683867982,"current_range_meters":31200,"station_id":"ce4bhah2rcd13ifvqej0","pricing_plan_id":"free"},{"bike_id":"9e3cc95c-d365-4d30-95a7-0e048152d637","system_id":"levelo_inurba_marseille","lat":43.28666,"lon":5.36347,"is_reserved":false,"is_disabled":false,"rental_uris":{"android":"levelo://app?vid=9e3cc95c-d365-4d30-95a7-0e048152d637","ios":"levelo://app?vid=9e3cc95c-d365-4d30-95a7-0e048152d637"},"vehicle_type_id":"4","last_reported":1683867982,"current_range_meters":20400,"station_id":"ce4bhah2rcd13ifvqej0","pricing_plan_id":"free"},{"bike_id":"872f930c-9330-4cdf-8767-6967c8211f19","system_id":"levelo_inurba_marseille","lat":43.298681,"lon":5.397225,"is_reserved":false,"is_disabled":false,"rental_uris":{"android":"levelo://app?vid=872f930c-9330-4cdf-8767-6967c8211f19","ios":"levelo://app?vid=872f930c-9330-4cdf-8767-6967c8211f19"},"vehicle_type_id":"4","last_reported":1683867982,"current_range_meters":31200,"station_id":"ce4bh0h2rcd13ifvqd50","pricing_plan_id":"free"},{"bike_id":"ca4b949b-00ff-4833-8963-64eb2d4342b4","system_id":"levelo_inurba_marseille","lat":43.286593,"lon":5.363346,"is_reserved":false,"is_disabled":false,"rental_uris":{"android":"levelo://app?vid=ca4b949b-00ff-4833-8963-64eb2d4342b4","ios":"levelo://app?vid=ca4b949b-00ff-4833-8963-64eb2d4342b4"},"vehicle_type_id":"4","last_reported":1683867982,"current_range_meters":30400,"station_id":"ce4bhah2rcd13ifvqej0","pricing_plan_id":"free"},{"bike_id":"21be45b9-6b80-42cd-97a1-1746d075faa3","system_id":"levelo_inurba_marseille","lat":43.298681,"lon":5.397225,"is_reserved":false,"is_disabled":false,"rental_uris":{"android":"levelo://app?vid=21be45b9-6b80-42cd-97a1-1746d075faa3","ios":"levelo://app?vid=21be45b9-6b80-42cd-97a1-1746d075faa3"},"vehicle_type_id":"4","last_reported":1683867982,"current_range_meters":22400,"station_id":"ce4bh0h2rcd13ifvqd50","pricing_plan_id":"free"},{"bike_id":"55d7f355-01ea-420b-baba-6b64695bb301","system_id":"levelo_inurba_marseille","lat":43.298681,"lon":5.397225,"is_reserved":false,"is_disabled":false,"rental_uris":{"android":"levelo://app?vid=55d7f355-01ea-420b-baba-6b64695bb301","ios":"levelo://app?vid=55d7f355-01ea-420b-baba-6b64695bb301"},"vehicle_type_id":"4","last_reported":1683867982,"current_range_meters":31200,"station_id":"ce4bh0h2rcd13ifvqd50","pricing_plan_id":"free"},{"bike_id":"47cbb5c8-4490-44d5-850f-82139616c211","system_id":"levelo_inurba_marseille","lat":43.29512,"lon":5.39407,"is_reserved":false,"is_disabled":false,"rental_uris":{"android":"levelo://app?vid=47cbb5c8-4490-44d5-850f-82139616c211","ios":"levelo://app?vid=47cbb5c8-4490-44d5-850f-82139616c211"},"vehicle_type_id":"4","last_reported":1683867982,"current_range_meters":16000,"station_id":"ce4bh292rcd13ifvqdf0","pricing_plan_id":"free"},{"bike_id":"934968fe-dc42-4507-8d4e-67e3a39bc87b","system_id":"levelo_inurba_marseille","lat":43.302759,"lon":5.400793,"is_reserved":false,"is_disabled":false,"rental_uris":{"android":"levelo://app?vid=934968fe-dc42-4507-8d4e-67e3a39bc87b","ios":"levelo://app?vid=934968fe-dc42-4507-8d4e-67e3a39bc87b"},"vehicle_type_id":"4","last_reported":1683867982,"current_range_meters":29200,"station_id":"ce4bgvh2rcd13ifvqcs0","pricing_plan_id":"free"},{"bike_id":"4f6607dc-7c87-4145-9e63-4ba2184782af","system_id":"levelo_inurba_marseille","lat":43.302759,"lon":5.400793,"is_reserved":false,"is_disabled":false,"rental_uris":{"android":"levelo://app?vid=4f6607dc-7c87-4145-9e63-4ba2184782af","ios":"levelo://app?vid=4f6607dc-7c87-4145-9e63-4ba2184782af"},"vehicle_type_id":"4","last_reported":1683867982,"current_range_meters":15200,"station_id":"ce4bgvh2rcd13ifvqcs0","pricing_plan_id":"free"},{"bike_id":"3d66eff7-2911-4776-9050-3c091612bf78","system_id":"levelo_inurba_marseille","lat":43.302759,"lon":5.400793,"is_reserved":false,"is_disabled":false,"rental_uris":{"android":"levelo://app?vid=3d66eff7-2911-4776-9050-3c091612bf78","ios":"levelo://app?vid=3d66eff7-2911-4776-9050-3c091612bf78"},"vehicle_type_id":"4","last_reported":1683867982,"current_range_meters":31200,"station_id":"ce4bgvh2rcd13ifvqcs0","pricing_plan_id":"free"},{"bike_id":"82acfc73-d62d-46ae-9b6c-7fd7f16b5144","system_id":"levelo_inurba_marseille","lat":43.302759,"lon":5.400793,"is_reserved":false,"is_disabled":false,"rental_uris":{"android":"levelo://app?vid=82acfc73-d62d-46ae-9b6c-7fd7f16b5144","ios":"levelo://app?vid=82acfc73-d62d-46ae-9b6c-7fd7f16b5144"},"vehicle_type_id":"4","last_reported":1683867982,"current_range_meters":4000,"station_id":"ce4bgvh2rcd13ifvqcs0","pricing_plan_id":"free"},{"bike_id":"8c8202d9-ea3b-4182-a2ff-912af7ac5e2f","system_id":"levelo_inurba_marseille","lat":43.302759,"lon":5.400793,"is_reserved":false,"is_disabled":false,"rental_uris":{"android":"levelo://app?vid=8c8202d9-ea3b-4182-a2ff-912af7ac5e2f","ios":"levelo://app?vid=8c8202d9-ea3b-4182-a2ff-912af7ac5e2f"},"vehicle_type_id":"4","last_reported":1683867982,"current_range_meters":31200,"station_id":"ce4bgvh2rcd13ifvqcs0","pricing_plan_id":"free"},{"bike_id":"d5857664-8919-4a36-95c4-705863ad0ffc","system_id":"levelo_inurba_marseille","lat":43.302759,"lon":5.400793,"is_reserved":false,"is_disabled":false,"rental_uris":{"android":"levelo://app?vid=d5857664-8919-4a36-95c4-705863ad0ffc","ios":"levelo://app?vid=d5857664-8919-4a36-95c4-705863ad0ffc"},"vehicle_type_id":"4","last_reported":1683867982,"current_range_meters":30000,"station_id":"ce4bgvh2rcd13ifvqcs0","pricing_plan_id":"free"},{"bike_id":"742fc298-88d3-40c0-8b42-a3eae1a7061e","system_id":"levelo_inurba_marseille","lat":43.28611,"lon":5.37071,"is_reserved":false,"is_disabled":false,"rental_uris":{"android":"levelo://app?vid=742fc298-88d3-40c0-8b42-a3eae1a7061e","ios":"levelo://app?vid=742fc298-88d3-40c0-8b42-a3eae1a7061e"},"vehicle_type_id":"4","last_reported":1683867982,"current_range_meters":28800,"station_id":"ce4bht12rcd13ifvqi60","pricing_plan_id":"free"},{"bike_id":"b9e5bc60-7a17-4e6b-8450-94055db69bb2","system_id":"levelo_inurba_marseille","lat":43.286039,"lon":5.370679,"is_reserved":false,"is_disabled":false,"rental_uris":{"android":"levelo://app?vid=b9e5bc60-7a17-4e6b-8450-94055db69bb2","ios":"levelo://app?vid=b9e5bc60-7a17-4e6b-8450-94055db69bb2"},"vehicle_type_id":"4","last_reported":1683867982,"current_range_meters":28000,"station_id":"ce4bht12rcd13ifvqi60","pricing_plan_id":"free"},{"bike_id":"b3345545-3256-4e30-9a35-4c79ece76446","system_id":"levelo_inurba_marseille","lat":43.28606,"lon":5.37062,"is_reserved":false,"is_disabled":false,"rental_uris":{"android":"levelo://app?vid=b3345545-3256-4e30-9a35-4c79ece76446","ios":"levelo://app?vid=b3345545-3256-4e30-9a35-4c79ece76446"},"vehicle_type_id":"4","last_reported":1683867982,"current_range_meters":20400,"station_id":"ce4bht12rcd13ifvqi60","pricing_plan_id":"free"},{"bike_id":"be158b11-5f4b-43f3-886f-be628a17165e","system_id":"levelo_inurba_marseille","lat":43.287185,"lon":5.379373,"is_reserved":false,"is_disabled":false,"rental_uris":{"android":"levelo://app?vid=be158b11-5f4b-43f3-886f-be628a17165e","ios":"levelo://app?vid=be158b11-5f4b-43f3-886f-be628a17165e"},"vehicle_type_id":"4","last_reported":1683867982,"current_range_meters":21200,"station_id":"ce4bh9p2rcd13ifvqec0","pricing_plan_id":"free"},{"bike_id":"e515d082-b630-45a5-8415-1a214d2a93f9","system_id":"levelo_inurba_marseille","lat":43.33878,"lon":5.35497,"is_reserved":false,"is_disabled":false,"rental_uris":{"android":"levelo://app?vid=e515d082-b630-45a5-8415-1a214d2a93f9","ios":"levelo://app?vid=e515d082-b630-45a5-8415-1a214d2a93f9"},"vehicle_type_id":"4","last_reported":1683867982,"current_range_meters":0,"station_id":"","pricing_plan_id":"free"},{"bike_id":"4c083c05-1a7c-4799-b927-d0ad3549861f","system_id":"levelo_inurba_marseille","lat":43.316517,"lon":5.404375,"is_reserved":false,"is_disabled":false,"rental_uris":{"android":"levelo://app?vid=4c083c05-1a7c-4799-b927-d0ad3549861f","ios":"levelo://app?vid=4c083c05-1a7c-4799-b927-d0ad3549861f"},"vehicle_type_id":"4","last_reported":1683867982,"current_range_meters":4800,"station_id":"ce4bh012rcd13ifvqd00","pricing_plan_id":"free"},{"bike_id":"8ff63c74-154f-4b98-a89c-ac80fdef26c4","system_id":"levelo_inurba_marseille","lat":43.316517,"lon":5.404375,"is_reserved":false,"is_disabled":false,"rental_uris":{"android":"levelo://app?vid=8ff63c74-154f-4b98-a89c-ac80fdef26c4","ios":"levelo://app?vid=8ff63c74-154f-4b98-a89c-ac80fdef26c4"},"vehicle_type_id":"4","last_reported":1683867982,"current_range_meters":17200,"station_id":"ce4bh012rcd13ifvqd00","pricing_plan_id":"free"},{"bike_id":"7e896694-ae81-43b9-93cf-58527cbfa352","system_id":"levelo_inurba_marseille","lat":43.316517,"lon":5.404375,"is_reserved":false,"is_disabled":false,"rental_uris":{"android":"levelo://app?vid=7e896694-ae81-43b9-93cf-58527cbfa352","ios":"levelo://app?vid=7e896694-ae81-43b9-93cf-58527cbfa352"},"vehicle_type_id":"4","last_reported":1683867982,"current_range_meters":2000,"station_id":"ce4bh012rcd13ifvqd00","pricing_plan_id":"free"},{"bike_id":"b46308d4-7426-4de3-a11a-0fe17dbe26a9","system_id":"levelo_inurba_marseille","lat":43.291994,"lon":5.392907,"is_reserved":false,"is_disabled":false,"rental_uris":{"android":"levelo://app?vid=b46308d4-7426-4de3-a11a-0fe17dbe26a9","ios":"levelo://app?vid=b46308d4-7426-4de3-a11a-0fe17dbe26a9"},"vehicle_type_id":"4","last_reported":1683867982,"current_range_meters":27200,"station_id":"ce4bh192rcd13ifvqdd0","pricing_plan_id":"free"},{"bike_id":"e903bd0c-48ef-4211-9a65-5c1e01b8ee9f","system_id":"levelo_inurba_marseille","lat":43.291994,"lon":5.392907,"is_reserved":false,"is_disabled":false,"rental_uris":{"android":"levelo://app?vid=e903bd0c-48ef-4211-9a65-5c1e01b8ee9f","ios":"levelo://app?vid=e903bd0c-48ef-4211-9a65-5c1e01b8ee9f"},"vehicle_type_id":"4","last_reported":1683867982,"current_range_meters":26000,"station_id":"ce4bh192rcd13ifvqdd0","pricing_plan_id":"free"},{"bike_id":"7821bc06-0fc4-4cc2-bee6-2898ada6815d","system_id":"levelo_inurba_marseille","lat":43.291994,"lon":5.392907,"is_reserved":false,"is_disabled":false,"rental_uris":{"android":"levelo://app?vid=7821bc06-0fc4-4cc2-bee6-2898ada6815d","ios":"levelo://app?vid=7821bc06-0fc4-4cc2-bee6-2898ada6815d"},"vehicle_type_id":"4","last_reported":1683867982,"current_range_meters":29200,"station_id":"ce4bh192rcd13ifvqdd0","pricing_plan_id":"free"},{"bike_id":"97ea867f-b868-4dde-8c69-89040b6e8877","system_id":"levelo_inurba_marseille","lat":43.291994,"lon":5.392907,"is_reserved":false,"is_disabled":false,"rental_uris":{"android":"levelo://app?vid=97ea867f-b868-4dde-8c69-89040b6e8877","ios":"levelo://app?vid=97ea867f-b868-4dde-8c69-89040b6e8877"},"vehicle_type_id":"4","last_reported":1683867982,"current_range_meters":31200,"station_id":"ce4bh192rcd13ifvqdd0","pricing_plan_id":"free"},{"bike_id":"de1101d3-fd10-45e6-bbcf-e74584ec6813","system_id":"levelo_inurba_marseille","lat":43.291994,"lon":5.392907,"is_reserved":false,"is_disabled":false,"rental_uris":{"android":"levelo://app?vid=de1101d3-fd10-45e6-bbcf-e74584ec6813","ios":"levelo://app?vid=de1101d3-fd10-45e6-bbcf-e74584ec6813"},"vehicle_type_id":"4","last_reported":1683867982,"current_range_meters":30000,"station_id":"ce4bh192rcd13ifvqdd0","pricing_plan_id":"free"},{"bike_id":"dbde4400-39f7-4ae0-a12a-7062e515dd86","system_id":"levelo_inurba_marseille","lat":43.291994,"lon":5.392907,"is_reserved":false,"is_disabled":false,"rental_uris":{"android":"levelo://app?vid=dbde4400-39f7-4ae0-a12a-7062e515dd86","ios":"levelo://app?vid=dbde4400-39f7-4ae0-a12a-7062e515dd86"},"vehicle_type_id":"4","last_reported":1683867982,"current_range_meters":31200,"station_id":"ce4bh192rcd13ifvqdd0","pricing_plan_id":"free"},{"bike_id":"6c1fb9a3-cc4f-4244-88df-e3fb38fef4b8","system_id":"levelo_inurba_marseille","lat":43.291994,"lon":5.392907,"is_reserved":false,"is_disabled":false,"rental_uris":{"android":"levelo://app?vid=6c1fb9a3-cc4f-4244-88df-e3fb38fef4b8","ios":"levelo://app?vid=6c1fb9a3-cc4f-4244-88df-e3fb38fef4b8"},"vehicle_type_id":"4","last_reported":1683867982,"current_range_meters":28400,"station_id":"ce4bh192rcd13ifvqdd0","pricing_plan_id":"free"},{"bike_id":"4174f332-8e96-4b54-858d-1450ff73436e","system_id":"levelo_inurba_marseille","lat":43.291994,"lon":5.392907,"is_reserved":false,"is_disabled":false,"rental_uris":{"android":"levelo://app?vid=4174f332-8e96-4b54-858d-1450ff73436e","ios":"levelo://app?vid=4174f332-8e96-4b54-858d-1450ff73436e"},"vehicle_type_id":"4","last_reported":1683867982,"current_range_meters":27600,"station_id":"ce4bh192rcd13ifvqdd0","pricing_plan_id":"free"},{"bike_id":"b1262093-6340-4ea8-b5dd-a5236523aa86","system_id":"levelo_inurba_marseille","lat":43.284664,"lon":5.358922,"is_reserved":false,"is_disabled":false,"rental_uris":{"android":"levelo://app?vid=b1262093-6340-4ea8-b5dd-a5236523aa86","ios":"levelo://app?vid=b1262093-6340-4ea8-b5dd-a5236523aa86"},"vehicle_type_id":"4","last_reported":1683867982,"current_range_meters":9600,"station_id":"","pricing_plan_id":"free"},{"bike_id":"6ea8c959-e578-4d1f-8e09-2e54585a3d69","system_id":"levelo_inurba_marseille","lat":43.28464,"lon":5.35893,"is_reserved":false,"is_disabled":false,"rental_uris":{"android":"levelo://app?vid=6ea8c959-e578-4d1f-8e09-2e54585a3d69","ios":"levelo://app?vid=6ea8c959-e578-4d1f-8e09-2e54585a3d69"},"vehicle_type_id":"4","last_reported":1683867982,"current_range_meters":31200,"station_id":"ce4bhah2rcd13ifvqei0","pricing_plan_id":"free"},{"bike_id":"05c88aa4-2137-4669-afc4-5b2eac840005","system_id":"levelo_inurba_marseille","lat":43.28465,"lon":5.3588,"is_reserved":false,"is_disabled":false,"rental_uris":{"android":"levelo://app?vid=05c88aa4-2137-4669-afc4-5b2eac840005","ios":"levelo://app?vid=05c88aa4-2137-4669-afc4-5b2eac840005"},"vehicle_type_id":"4","last_reported":1683867982,"current_range_meters":29200,"station_id":"ce4bhah2rcd13ifvqei0","pricing_plan_id":"free"},{"bike_id":"04b0399f-6b5d-45e0-b2e1-c557222e4aa5","system_id":"levelo_inurba_marseille","lat":43.284534,"lon":5.358662,"is_reserved":false,"is_disabled":false,"rental_uris":{"android":"levelo://app?vid=04b0399f-6b5d-45e0-b2e1-c557222e4aa5","ios":"levelo://app?vid=04b0399f-6b5d-45e0-b2e1-c557222e4aa5"},"vehicle_type_id":"4","last_reported":1683867982,"current_range_meters":31200,"station_id":"ce4bhah2rcd13ifvqei0","pricing_plan_id":"free"},{"bike_id":"33619deb-eaf4-4ae1-9bfa-f6db5c33012a","system_id":"levelo_inurba_marseille","lat":43.28461,"lon":5.35886,"is_reserved":false,"is_disabled":false,"rental_uris":{"android":"levelo://app?vid=33619deb-eaf4-4ae1-9bfa-f6db5c33012a","ios":"levelo://app?vid=33619deb-eaf4-4ae1-9bfa-f6db5c33012a"},