{"last_updated":1704319587,"ttl":30,"version":"2.2","data":{"bikes":[{"bike_id":"0a2639ec-8c69-4cd0-b8a0-fd0295dc2b9e","system_id":"levelo_inurba_marseille","lat":43.312239,"lon":5.368562,"is_reserved":false,"is_disabled":false,"rental_uris":{"android":"levelo://app?vid=0a2639ec-8c69-4cd0-b8a0-fd0295dc2b9e","ios":"levelo://app?vid=0a2639ec-8c69-4cd0-b8a0-fd0295dc2b9e"},"vehicle_type_id":"4","last_reported":1704319587,"current_range_meters":8000,"station_id":"ce4bgl92rcd13ifvqbq0","pricing_plan_id":"free"},{"bike_id":"153cfced-da78-4fe4-8efb-59d7aec8d95e","system_id":"levelo_inurba_marseille","lat":43.30912,"lon":5.36842,"is_reserved":false,"is_disabled":false,"rental_uris":{"android":"levelo://app?vid=153cfced-da78-4fe4-8efb-59d7aec8d95e","ios":"levelo://app?vid=153cfced-da78-4fe4-8efb-59d7aec8d95e"},"vehicle_type_id":"4","last_reported":1704319587,"current_range_meters":19200,"station_id":"ce4bgn92rcd13ifvqbvg","pricing_plan_id":"free"},{"bike_id":"23bc4cdb-02f3-40ba-a9ef-564d86cd1561","system_id":"levelo_inurba_marseille","lat":43.314811,"lon":5.373104,"is_reserved":false,"is_disabled":false,"rental_uris":{"android":"levelo://app?vid=23bc4cdb-02f3-40ba-a9ef-564d86cd1561","ios":"levelo://app?vid=23bc4cdb-02f3-40ba-a9ef-564d86cd1561"},"vehicle_type_id":"4","last_reported":1704319587,"current_range_meters":20800,"station_id":"ce4bgt12rcd13ifvqcd0","pricing_plan_id":"free"},{"bike_id":"c4a6f38e-4282-4743-a8ef-b6d8a6ed371f","system_id":"levelo_inurba_marseille","lat":43.314811,"lon":5.373103,"is_reserved":false,"is_disabled":false,"rental_uris":{"android":"levelo://app?vid=c4a6f38e-4282-4743-a8ef-b6d8a6ed371f","ios":"levelo://app?vid=c4a6f38e-4282-4743-a8ef-b6d8a6ed371f"},"vehicle_type_id":"4","last_reported":1704319587,"current_range_meters":17200,"station_id":"ce4bgt12rcd13ifvqcd0","pricing_plan_id":"free"},{"bike_id":"0a24da57-c811-4dea-9bc7-12f91992b54d","system_id":"levelo_inurba_marseille","lat":43.314811,"lon":5.373103,"is_reserved":false,"is_disabled":false,"rental_uris":{"android":"levelo://app?vid=0a24da57-c811-4dea-9bc7-12f91992b54d","ios":"levelo://app?vid=0a24da57-c811-4dea-9bc7-12f91992b54d"},"vehicle_type_id":"4","last_reported":1704319587,"current_range_meters":15600,"station_id":"ce4bgt12rcd13ifvqcd0","pricing_plan_id":"free"},{"bike_id":"f39af422-b66f-40df-905d-211a51d2db7d","system_id":"levelo_inurba_marseille","lat":43.314811,"lon":5.373104,"is_reserved":false,"is_disabled":false,"rental_uris":{"android":"levelo://app?vid=f39af422-b66f-40df-905d-211a51d2db7d","ios":"levelo://app?vid=f39af422-b66f-40df-905d-211a51d2db7d"},"vehicle_type_id":"4","last_reported":1704319587,"current_range_meters":30800,"station_id":"ce4bgt12rcd13ifvqcd0","pricing_plan_id":"free"},{"bike_id":"d5473b7a-0a89-4a27-934b-61f957cbc11d","system_id":"levelo_inurba_marseille","lat":43.309039,"lon":5.371797,"is_reserved":false,"is_disabled":false,"rental_uris":{"android":"levelo://app?vid=d5473b7a-0a89-4a27-934b-61f957cbc11d","ios":"levelo://app?vid=d5473b7a-0a89-4a27-934b-61f957cbc11d"},"vehicle_type_id":"4","last_reported":1704319587,"current_range_meters":22800,"station_id":"ce4bguh2rcd13ifvqckg","pricing_plan_id":"free"},{"bike_id":"de2d62fc-c4ac-4f9d-addc-3c268404097a","system_id":"levelo_inurba_marseille","lat":43.30894,"lon":5.371945,"is_reserved":false,"is_disabled":false,"rental_uris":{"android":"levelo://app?vid=de2d62fc-c4ac-4f9d-addc-3c268404097a","ios":"levelo://app?vid=de2d62fc-c4ac-4f9d-addc-3c268404097a"},"vehicle_type_id":"4","last_reported":1704319587,"current_range_meters":4000,"station_id":"ce4bguh2rcd13ifvqckg","pricing_plan_id":"free"},{"bike_id":"f72bdd9a-3e91-4d57-b03b-8ebf21ed4a57","system_id":"levelo_inurba_marseille","lat":43.305714,"lon":5.365633,"is_reserved":false,"is_disabled":false,"rental_uris":{"android":"levelo://app?vid=f72bdd9a-3e91-4d57-b03b-8ebf21ed4a57","ios":"levelo://app?vid=f72bdd9a-3e91-4d57-b03b-8ebf21ed4a57"},"vehicle_type_id":"4","last_reported":1704319587,"current_range_meters":26800,"station_id":"ce4bgs12rcd13ifvqcag","pricing_plan_id":"free"},{"bike_id":"ea0ed30b-dcd6-4d0a-b654-45baa2c5c7a0","system_id":"levelo_inurba_marseille","lat":43.305989,"lon":5.37225,"is_reserved":false,"is_disabled":false,"rental_uris":{"android":"levelo://app?vid=ea0ed30b-dcd6-4d0a-b654-45baa2c5c7a0","ios":"levelo://app?vid=ea0ed30b-dcd6-4d0a-b654-45baa2c5c7a0"},"vehicle_type_id":"4","last_reported":1704319587,"current_range_meters":22000,"station_id":"ce4bgqh2rcd13ifvqc4g","pricing_plan_id":"free"},{"bike_id":"029150ca-9c0a-41c0-94e4-b569af2fd908","system_id":"levelo_inurba_marseille","lat":43.305989,"lon":5.37225,"is_reserved":false,"is_disabled":false,"rental_uris":{"android":"levelo://app?vid=029150ca-9c0a-41c0-94e4-b569af2fd908","ios":"levelo://app?vid=029150ca-9c0a-41c0-94e4-b569af2fd908"},"vehicle_type_id":"4","last_reported":1704319587,"current_range_meters":4800,"station_id":"ce4bgqh2rcd13ifvqc4g","pricing_plan_id":"free"},{"bike_id":"821cd0b3-d44b-4686-8f87-f7ed2a01460f","system_id":"levelo_inurba_marseille","lat":43.311131,"lon":5.377651,"is_reserved":false,"is_disabled":false,"rental_uris":{"android":"levelo://app?vid=821cd0b3-d44b-4686-8f87-f7ed2a01460f","ios":"levelo://app?vid=821cd0b3-d44b-4686-8f87-f7ed2a01460f"},"vehicle_type_id":"4","last_reported":1704319587,"current_range_meters":13600,"station_id":"ce4bgt92rcd13ifvqcg0","pricing_plan_id":"free"},{"bike_id":"0f2f2c91-6148-408a-bda8-40612a84cfa3","system_id":"levelo_inurba_marseille","lat":43.311131,"lon":5.377651,"is_reserved":false,"is_disabled":false,"rental_uris":{"android":"levelo://app?vid=0f2f2c91-6148-408a-bda8-40612a84cfa3","ios":"levelo://app?vid=0f2f2c91-6148-408a-bda8-40612a84cfa3"},"vehicle_type_id":"4","last_reported":1704319587,"current_range_meters":16000,"station_id":"ce4bgt92rcd13ifvqcg0","pricing_plan_id":"free"},{"bike_id":"f70207fd-ad12-4592-a218-61226c8efc14","system_id":"levelo_inurba_marseille","lat":43.311131,"lon":5.377651,"is_reserved":false,"is_disabled":false,"rental_uris":{"android":"levelo://app?vid=f70207fd-ad12-4592-a218-61226c8efc14","ios":"levelo://app?vid=f70207fd-ad12-4592-a218-61226c8efc14"},"vehicle_type_id":"4","last_reported":1704319587,"current_range_meters":24000,"station_id":"ce4bgt92rcd13ifvqcg0","pricing_plan_id":"free"},{"bike_id":"d31f1c9b-861c-4020-a0f2-2565f25a5bea","system_id":"levelo_inurba_marseille","lat":43.311131,"lon":5.377651,"is_reserved":false,"is_disabled":false,"rental_uris":{"android":"levelo://app?vid=d31f1c9b-861c-4020-a0f2-2565f25a5bea","ios":"levelo://app?vid=d31f1c9b-861c-4020-a0f2-2565f25a5bea"},"vehicle_type_id":"4","last_reported":1704319587,"current_range_meters":11200,"station_id":"ce4bgt92rcd13ifvqcg0","pricing_plan_id":"free"},{"bike_id":"35dcad53-0f03-4c82-a9b3-601c41a595fa","system_id":"levelo_inurba_marseille","lat":43.311131,"lon":5.377651,"is_reserved":false,"is_disabled":false,"rental_uris":{"android":"levelo://app?vid=35dcad53-0f03-4c82-a9b3-601c41a595fa","ios":"levelo://app?vid=35dcad53-0f03-4c82-a9b3-601c41a595fa"},"vehicle_type_id":"4","last_reported":1704319587,"current_range_meters":800,"station_id":"ce4bgt92rcd13ifvqcg0","pricing_plan_id":"free"},{"bike_id":"5a5f6380-591d-4db3-97a4-c1697f7ea939","system_id":"levelo_inurba_marseille","lat":43.30839,"lon":5.376525,"is_reserved":false,"is_disabled":false,"rental_uris":{"android":"levelo://app?vid=5a5f6380-591d-4db3-97a4-c1697f7ea939","ios":"levelo://app?vid=5a5f6380-591d-4db3-97a4-c1697f7ea939"},"vehicle_type_id":"4","last_reported":1704319587,"current_range_meters":11200,"station_id":"","pricing_plan_id":"free"},{"bike_id":"691c4f64-dea0-4d21-8c30-5e479cb21b79","system_id":"levelo_inurba_marseille","lat":43.307945,"lon":5.376487,"is_reserved":false,"is_disabled":false,"rental_uris":{"android":"levelo://app?vid=691c4f64-dea0-4d21-8c30-5e479cb21b79","ios":"levelo://app?vid=691c4f64-dea0-4d21-8c30-5e479cb21b79"},"vehicle_type_id":"4","last_reported":1704319587,"current_range_meters":11200,"station_id":"ce4bgv92rcd13ifvqcq0","pricing_plan_id":"free"},{"bike_id":"f8f04d9a-5e4f-4390-96ab-e6a180f7e1bf","system_id":"levelo_inurba_marseille","lat":43.307945,"lon":5.376487,"is_reserved":false,"is_disabled":false,"rental_uris":{"android":"levelo://app?vid=f8f04d9a-5e4f-4390-96ab-e6a180f7e1bf","ios":"levelo://app?vid=f8f04d9a-5e4f-4390-96ab-e6a180f7e1bf"},"vehicle_type_id":"4","last_reported":1704319587,"current_range_meters":30400,"station_id":"ce4bgv92rcd13ifvqcq0","pricing_plan_id":"free"},{"bike_id":"6b3ee353-2a5c-4fe9-806c-5a9dda5028ab","system_id":"levelo_inurba_marseille","lat":43.307945,"lon":5.376487,"is_reserved":false,"is_disabled":false,"rental_uris":{"android":"levelo://app?vid=6b3ee353-2a5c-4fe9-806c-5a9dda5028ab","ios":"levelo://app?vid=6b3ee353-2a5c-4fe9-806c-5a9dda5028ab"},"vehicle_type_id":"4","last_reported":1704319587,"current_range_meters":20400,"station_id":"ce4bgv92rcd13ifvqcq0","pricing_plan_id":"free"},{"bike_id":"058bdd97-c16f-4848-aacc-95a7a29e30e6","system_id":"levelo_inurba_marseille","lat":43.317075,"lon":5.377367,"is_reserved":false,"is_disabled":false,"rental_uris":{"android":"levelo://app?vid=058bdd97-c16f-4848-aacc-95a7a29e30e6","ios":"levelo://app?vid=058bdd97-c16f-4848-aacc-95a7a29e30e6"},"vehicle_type_id":"4","last_reported":1704319587,"current_range_meters":30000,"station_id":"ce4bgth2rcd13ifvqch0","pricing_plan_id":"free"},{"bike_id":"c4e90871-bb94-4085-82dc-ccbd997a22ca","system_id":"levelo_inurba_marseille","lat":43.31529,"lon":5.379065,"is_reserved":false,"is_disabled":false,"rental_uris":{"android":"levelo://app?vid=c4e90871-bb94-4085-82dc-ccbd997a22ca","ios":"levelo://app?vid=c4e90871-bb94-4085-82dc-ccbd997a22ca"},"vehicle_type_id":"4","last_reported":1704319587,"current_range_meters":21600,"station_id":"","pricing_plan_id":"free"},{"bike_id":"4810d17d-15f2-4699-980f-89ebf8877f7a","system_id":"levelo_inurba_marseille","lat":43.315278,"lon":5.380243,"is_reserved":false,"is_disabled":false,"rental_uris":{"android":"levelo://app?vid=4810d17d-15f2-4699-980f-89ebf8877f7a","ios":"levelo://app?vid=4810d17d-15f2-4699-980f-89ebf8877f7a"},"vehicle_type_id":"4","last_reported":1704319587,"current_range_meters":29200,"station_id":"ce4bhsp2rcd13ifvqi50","pricing_plan_id":"free"},{"bike_id":"0a111548-7837-4ee0-bc25-59ffa623ba57","system_id":"levelo_inurba_marseille","lat":43.301939,"lon":5.366286,"is_reserved":false,"is_disabled":false,"rental_uris":{"android":"levelo://app?vid=0a111548-7837-4ee0-bc25-59ffa623ba57","ios":"levelo://app?vid=0a111548-7837-4ee0-bc25-59ffa623ba57"},"vehicle_type_id":"4","last_reported":1704319587,"current_range_meters":29600,"station_id":"ce4bgrh2rcd13ifvqc8g","pricing_plan_id":"free"},{"bike_id":"f00ec391-2e9c-4b93-bbc5-c2f5c07f0df2","system_id":"levelo_inurba_marseille","lat":43.308012,"lon":5.381511,"is_reserved":false,"is_disabled":false,"rental_uris":{"android":"levelo://app?vid=f00ec391-2e9c-4b93-bbc5-c2f5c07f0df2","ios":"levelo://app?vid=f00ec391-2e9c-4b93-bbc5-c2f5c07f0df2"},"vehicle_type_id":"4","last_reported":1704319587,"current_range_meters":1200,"station_id":"ce4bgt12rcd13ifvqce0","pricing_plan_id":"free"},{"bike_id":"def18616-1003-48a1-be5e-2c4ea9d3a400","system_id":"levelo_inurba_marseille","lat":43.308012,"lon":5.381511,"is_reserved":false,"is_disabled":false,"rental_uris":{"android":"levelo://app?vid=def18616-1003-48a1-be5e-2c4ea9d3a400","ios":"levelo://app?vid=def18616-1003-48a1-be5e-2c4ea9d3a400"},"vehicle_type_id":"4","last_reported":1704319587,"current_range_meters":26000,"station_id":"ce4bgt12rcd13ifvqce0","pricing_plan_id":"free"},{"bike_id":"bce4acce-0ea4-4d62-a6ea-bf84ee441876","system_id":"levelo_inurba_marseille","lat":43.308012,"lon":5.381511,"is_reserved":false,"is_disabled":false,"rental_uris":{"android":"levelo://app?vid=bce4acce-0ea4-4d62-a6ea-bf84ee441876","ios":"levelo://app?vid=bce4acce-0ea4-4d62-a6ea-bf84ee441876"},"vehicle_type_id":"4","last_reported":1704319587,"current_range_meters":9600,"station_id":"ce4bgt12rcd13ifvqce0","pricing_plan_id":"free"},{"bike_id":"bdc5cbf5-91b3-4deb-8c7b-88216ee49a0e","system_id":"levelo_inurba_marseille","lat":43.308012,"lon":5.381511,"is_reserved":false,"is_disabled":false,"rental_uris":{"android":"levelo://app?vid=bdc5cbf5-91b3-4deb-8c7b-88216ee49a0e","ios":"levelo://app?vid=bdc5cbf5-91b3-4deb-8c7b-88216ee49a0e"},"vehicle_type_id":"4","last_reported":1704319587,"current_range_meters":9600,"station_id":"ce4bgt12rcd13ifvqce0","pricing_plan_id":"free"},{"bike_id":"39f6ae80-8fb6-46e9-8bcc-cdcc5734c67a","system_id":"levelo_inurba_marseille","lat":43.308012,"lon":5.381511,"is_reserved":false,"is_disabled":false,"rental_uris":{"android":"levelo://app?vid=39f6ae80-8fb6-46e9-8bcc-cdcc5734c67a","ios":"levelo://app?vid=39f6ae80-8fb6-46e9-8bcc-cdcc5734c67a"},"vehicle_type_id":"4","last_reported":1704319587,"current_range_meters":25200,"station_id":"ce4bgt12rcd13ifvqce0","pricing_plan_id":"free"},{"bike_id":"5377074b-30e2-4d67-825b-9deb3b1dbed3","system_id":"levelo_inurba_marseille","lat":43.304708,"lon":5.379039,"is_reserved":false,"is_disabled":false,"rental_uris":{"android":"levelo://app?vid=5377074b-30e2-4d67-825b-9deb3b1dbed3","ios":"levelo://app?vid=5377074b-30e2-4d67-825b-9deb3b1dbed3"},"vehicle_type_id":"4","last_reported":1704319587,"current_range_meters":5600,"station_id":"","pricing_plan_id":"free"},{"bike_id":"a4535830-2f3b-479e-a939-f97547203e35","system_id":"levelo_inurba_marseille","lat":43.313619,"lon":5.383321,"is_reserved":false,"is_disabled":false,"rental_uris":{"android":"levelo://app?vid=a4535830-2f3b-479e-a939-f97547203e35","ios":"levelo://app?vid=a4535830-2f3b-479e-a939-f97547203e35"},"vehicle_type_id":"4","last_reported":1704319587,"current_range_meters":4000,"station_id":"","pricing_plan_id":"free"},{"bike_id":"46860f54-e377-43be-9a00-4a59e724fcce","system_id":"levelo_inurba_marseille","lat":43.324771,"lon":5.36557,"is_reserved":false,"is_disabled":false,"rental_uris":{"android":"levelo://app?vid=46860f54-e377-43be-9a00-4a59e724fcce","ios":"levelo://app?vid=46860f54-e377-43be-9a00-4a59e724fcce"},"vehicle_type_id":"4","last_reported":1704319587,"current_range_meters":20400,"station_id":"ce4bhs12rcd13ifvqhvg","pricing_plan_id":"free"},{"bike_id":"a9ec24e9-bba6-40c5-9fa6-b3c57d576f31","system_id":"levelo_inurba_marseille","lat":43.319935,"lon":5.381699,"is_reserved":false,"is_disabled":false,"rental_uris":{"android":"levelo://app?vid=a9ec24e9-bba6-40c5-9fa6-b3c57d576f31","ios":"levelo://app?vid=a9ec24e9-bba6-40c5-9fa6-b3c57d576f31"},"vehicle_type_id":"4","last_reported":1704319587,"current_range_meters":6800,"station_id":"ce4bhr12rcd13ifvqhpg","pricing_plan_id":"free"},{"bike_id":"442c1b48-0c9d-41d7-80ff-51493b8682d0","system_id":"levelo_inurba_marseille","lat":43.319935,"lon":5.381699,"is_reserved":false,"is_disabled":false,"rental_uris":{"android":"levelo://app?vid=442c1b48-0c9d-41d7-80ff-51493b8682d0","ios":"levelo://app?vid=442c1b48-0c9d-41d7-80ff-51493b8682d0"},"vehicle_type_id":"4","last_reported":1704319587,"current_range_meters":15600,"station_id":"ce4bhr12rcd13ifvqhpg","pricing_plan_id":"free"},{"bike_id":"2a6911e4-99f7-4853-9039-ac05cf0c6d2a","system_id":"levelo_inurba_marseille","lat":43.319935,"lon":5.381699,"is_reserved":false,"is_disabled":false,"rental_uris":{"android":"levelo://app?vid=2a6911e4-99f7-4853-9039-ac05cf0c6d2a","ios":"levelo://app?vid=2a6911e4-99f7-4853-9039-ac05cf0c6d2a"},"vehicle_type_id":"4","last_reported":1704319587,"current_range_meters":29600,"station_id":"ce4bhr12rcd13ifvqhpg","pricing_plan_id":"free"},{"bike_id":"1c6e55bf-6b0c-4848-96ae-9e712df180c6","system_id":"levelo_inurba_marseille","lat":43.319935,"lon":5.381699,"is_reserved":false,"is_disabled":false,"rental_uris":{"android":"levelo://app?vid=1c6e55bf-6b0c-4848-96ae-9e712df180c6","ios":"levelo://app?vid=1c6e55bf-6b0c-4848-96ae-9e712df180c6"},"vehicle_type_id":"4","last_reported":1704319587,"current_range_meters":30800,"station_id":"ce4bhr12rcd13ifvqhpg","pricing_plan_id":"free"},{"bike_id":"17504bde-947a-4cd6-98b3-9a4c66aca99b","system_id":"levelo_inurba_marseille","lat":43.313827,"lon":5.385007,"is_reserved":false,"is_disabled":false,"rental_uris":{"android":"levelo://app?vid=17504bde-947a-4cd6-98b3-9a4c66aca99b","ios":"levelo://app?vid=17504bde-947a-4cd6-98b3-9a4c66aca99b"},"vehicle_type_id":"4","last_reported":1704319587,"current_range_meters":15600,"station_id":"ce4bgt92rcd13ifvqcf0","pricing_plan_id":"free"},{"bike_id":"4528b37e-02ae-444f-bb8a-a6b8b91062d0","system_id":"levelo_inurba_marseille","lat":43.299724,"lon":5.371829,"is_reserved":false,"is_disabled":false,"rental_uris":{"android":"levelo://app?vid=4528b37e-02ae-444f-bb8a-a6b8b91062d0","ios":"levelo://app?vid=4528b37e-02ae-444f-bb8a-a6b8b91062d0"},"vehicle_type_id":"4","last_reported":1704319587,"current_range_meters":6400,"station_id":"ce4bgr92rcd13ifvqc7g","pricing_plan_id":"free"},{"bike_id":"b22604ec-0c4b-41b4-a20e-38add68f7682","system_id":"levelo_inurba_marseille","lat":43.32565,"lon":5.37491,"is_reserved":false,"is_disabled":false,"rental_uris":{"android":"levelo://app?vid=b22604ec-0c4b-41b4-a20e-38add68f7682","ios":"levelo://app?vid=b22604ec-0c4b-41b4-a20e-38add68f7682"},"vehicle_type_id":"4","last_reported":1704319587,"current_range_meters":26000,"station_id":"","pricing_plan_id":"free"},{"bike_id":"cf0fa726-16ff-4657-8720-7f9164059eb7","system_id":"levelo_inurba_marseille","lat":43.301429,"lon":5.37413,"is_reserved":false,"is_disabled":false,"rental_uris":{"android":"levelo://app?vid=cf0fa726-16ff-4657-8720-7f9164059eb7","ios":"levelo://app?vid=cf0fa726-16ff-4657-8720-7f9164059eb7"},"vehicle_type_id":"4","last_reported":1704319587,"current_range_meters":11600,"station_id":"ce4bgs92rcd13ifvqcc0","pricing_plan_id":"free"},{"bike_id":"5ffca899-5674-4083-8d58-12da181c48fc","system_id":"levelo_inurba_marseille","lat":43.298433,"lon":5.362774,"is_reserved":false,"is_disabled":false,"rental_uris":{"android":"levelo://app?vid=5ffca899-5674-4083-8d58-12da181c48fc","ios":"levelo://app?vid=5ffca899-5674-4083-8d58-12da181c48fc"},"vehicle_type_id":"4","last_reported":1704319587,"current_range_meters":4000,"station_id":"ce4bgpp2rcd13ifvqc3g","pricing_plan_id":"free"},{"bike_id":"ab6853a7-f04a-48cf-a788-ef955283a752","system_id":"levelo_inurba_marseille","lat":43.299243,"lon":5.374807,"is_reserved":false,"is_disabled":false,"rental_uris":{"android":"levelo://app?vid=ab6853a7-f04a-48cf-a788-ef955283a752","ios":"levelo://app?vid=ab6853a7-f04a-48cf-a788-ef955283a752"},"vehicle_type_id":"4","last_reported":1704319587,"current_range_meters":22800,"station_id":"ce4bgjh2rcd13ifvqbg0","pricing_plan_id":"free"},{"bike_id":"726066eb-7f00-41f3-838f-2a00b3ef939c","system_id":"levelo_inurba_marseille","lat":43.299243,"lon":5.37481,"is_reserved":false,"is_disabled":false,"rental_uris":{"android":"levelo://app?vid=726066eb-7f00-41f3-838f-2a00b3ef939c","ios":"levelo://app?vid=726066eb-7f00-41f3-838f-2a00b3ef939c"},"vehicle_type_id":"4","last_reported":1704319587,"current_range_meters":4400,"station_id":"ce4bgjh2rcd13ifvqbg0","pricing_plan_id":"free"},{"bike_id":"bd8ebd5d-cef2-436f-b5a1-1c6e47ac6fef","system_id":"levelo_inurba_marseille","lat":43.299243,"lon":5.374807,"is_reserved":false,"is_disabled":false,"rental_uris":{"android":"levelo://app?vid=bd8ebd5d-cef2-436f-b5a1-1c6e47ac6fef","ios":"levelo://app?vid=bd8ebd5d-cef2-436f-b5a1-1c6e47ac6fef"},"vehicle_type_id":"4","last_reported":1704319587,"current_range_meters":12400,"station_id":"ce4bgjh2rcd13ifvqbg0","pricing_plan_id":"free"},{"bike_id":"5b3857c6-4577-43e4-8a50-82608903cc98","system_id":"levelo_inurba_marseille","lat":43.299243,"lon":5.37481,"is_reserved":false,"is_disabled":false,"rental_uris":{"android":"levelo://app?vid=5b3857c6-4577-43e4-8a50-82608903cc98","ios":"levelo://app?vid=5b3857c6-4577-43e4-8a50-82608903cc98"},"vehicle_type_id":"4","last_reported":1704319587,"current_range_meters":15600,"station_id":"ce4bgjh2rcd13ifvqbg0","pricing_plan_id":"free"},{"bike_id":"e1bbe910-db4c-4702-a80c-ef915abf4b00","system_id":"levelo_inurba_marseille","lat":43.311722,"lon":5.387247,"is_reserved":false,"is_disabled":false,"rental_uris":{"android":"levelo://app?vid=e1bbe910-db4c-4702-a80c-ef915abf4b00","ios":"levelo://app?vid=e1bbe910-db4c-4702-a80c-ef915abf4b00"},"vehicle_type_id":"4","last_reported":1704319587,"current_range_meters":25600,"station_id":"ce4bgv12rcd13ifvqcp0","pricing_plan_id":"free"},{"bike_id":"29a4dd14-81e6-4bce-8294-474698949222","system_id":"levelo_inurba_marseille","lat":43.299243,"lon":5.37481,"is_reserved":false,"is_disabled":false,"rental_uris":{"android":"levelo://app?vid=29a4dd14-81e6-4bce-8294-474698949222","ios":"levelo://app?vid=29a4dd14-81e6-4bce-8294-474698949222"},"vehicle_type_id":"4","last_reported":1704319587,"current_range_meters":21600,"station_id":"ce4bgjh2rcd13ifvqbg0","pricing_plan_id":"free"},{"bike_id":"0233118d-6be7-4240-a1a5-35a788f46e67","system_id":"levelo_inurba_marseille","lat":43.31177,"lon":5.38721,"is_reserved":false,"is_disabled":false,"rental_uris":{"android":"levelo://app?vid=0233118d-6be7-4240-a1a5-35a788f46e67","ios":"levelo://app?vid=0233118d-6be7-4240-a1a5-35a788f46e67"},"vehicle_type_id":"4","last_reported":1704319587,"current_range_meters":4000,"station_id":"ce4bgv12rcd13ifvqcp0","pricing_plan_id":"free"},{"bike_id":"7c3f43a3-7000-4ef9-80b8-019a75d80b23","system_id":"levelo_inurba_marseille","lat":43.299243,"lon":5.374807,"is_reserved":false,"is_disabled":false,"rental_uris":{"android":"levelo://app?vid=7c3f43a3-7000-4ef9-80b8-019a75d80b23","ios":"levelo://app?vid=7c3f43a3-7000-4ef9-80b8-019a75d80b23"},"vehicle_type_id":"4","last_reported":1704319587,"current_range_meters":14000,"station_id":"ce4bgjh2rcd13ifvqbg0","pricing_plan_id":"free"},{"bike_id":"f53e7a9d-7ee6-4428-85bd-3db5d7cc3975","system_id":"levelo_inurba_marseille","lat":43.322872,"lon":5.382756,"is_reserved":false,"is_disabled":false,"rental_uris":{"android":"levelo://app?vid=f53e7a9d-7ee6-4428-85bd-3db5d7cc3975","ios":"levelo://app?vid=f53e7a9d-7ee6-4428-85bd-3db5d7cc3975"},"vehicle_type_id":"4","last_reported":1704319587,"current_range_meters":23200,"station_id":"ce4bhr12rcd13ifvqhqg","pricing_plan_id":"free"},{"bike_id":"0fd1a754-34d0-4db5-92ef-c7d51180155b","system_id":"levelo_inurba_marseille","lat":43.322872,"lon":5.382756,"is_reserved":false,"is_disabled":false,"rental_uris":{"android":"levelo://app?vid=0fd1a754-34d0-4db5-92ef-c7d51180155b","ios":"levelo://app?vid=0fd1a754-34d0-4db5-92ef-c7d51180155b"},"vehicle_type_id":"4","last_reported":1704319587,"current_range_meters":20000,"station_id":"ce4bhr12rcd13ifvqhqg","pricing_plan_id":"free"},{"bike_id":"b3dc36b5-78bd-4891-ba38-a66f92777aa9","system_id":"levelo_inurba_marseille","lat":43.322872,"lon":5.382756,"is_reserved":false,"is_disabled":false,"rental_uris":{"android":"levelo://app?vid=b3dc36b5-78bd-4891-ba38-a66f92777aa9","ios":"levelo://app?vid=b3dc36b5-78bd-4891-ba38-a66f92777aa9"},"vehicle_type_id":"4","last_reported":1704319587,"current_range_meters":7600,"station_id":"ce4bhr12rcd13ifvqhqg","pricing_plan_id":"free"},{"bike_id":"b1b531a6-b271-457f-a47c-b5f17d57c6b0","system_id":"levelo_inurba_marseille","lat":43.322872,"lon":5.382756,"is_reserved":false,"is_disabled":false,"rental_uris":{"android":"levelo://app?vid=b1b531a6-b271-457f-a47c-b5f17d57c6b0","ios":"levelo://app?vid=b1b531a6-b271-457f-a47c-b5f17d57c6b0"},"vehicle_type_id":"4","last_reported":1704319587,"current_range_meters":24000,"station_id":"ce4bhr12rcd13ifvqhqg","pricing_plan_id":"free"},{"bike_id":"e344a4f8-37b0-4824-b7de-a9d0470bf846","system_id":"levelo_inurba_marseille","lat":43.322872,"lon":5.382756,"is_reserved":false,"is_disabled":false,"rental_uris":{"android":"levelo://app?vid=e344a4f8-37b0-4824-b7de-a9d0470bf846","ios":"levelo://app?vid=e344a4f8-37b0-4824-b7de-a9d0470bf846"},"vehicle_type_id":"4","last_reported":1704319587,"current_range_meters":31200,"station_id":"ce4bhr12rcd13ifvqhqg","pricing_plan_id":"free"},{"bike_id":"470e2208-51bc-40cd-9cdd-562198123e02","system_id":"levelo_inurba_marseille","lat":43.328371,"lon":5.366909,"is_reserved":false,"is_disabled":false,"rental_uris":{"android":"levelo://app?vid=470e2208-51bc-40cd-9cdd-562198123e02","ios":"levelo://app?vid=470e2208-51bc-40cd-9cdd-562198123e02"},"vehicle_type_id":"4","last_reported":1704319587,"current_range_meters":17200,"station_id":"ce4bhs92rcd13ifvqi0g","pricing_plan_id":"free"},{"bike_id":"95e60a05-c3f6-42d6-b8d8-8e09a3364abf","system_id":"levelo_inurba_marseille","lat":43.328371,"lon":5.366909,"is_reserved":false,"is_disabled":false,"rental_uris":{"android":"levelo://app?vid=95e60a05-c3f6-42d6-b8d8-8e09a3364abf","ios":"levelo://app?vid=95e60a05-c3f6-42d6-b8d8-8e09a3364abf"},"vehicle_type_id":"4","last_reported":1704319587,"current_range_meters":15600,"station_id":"ce4bhs92rcd13ifvqi0g","pricing_plan_id":"free"},{"bike_id":"4dc0bb4e-bf1e-47bf-906b-7819b872055e","system_id":"levelo_inurba_marseille","lat":43.297163,"lon":5.365866,"is_reserved":false,"is_disabled":false,"rental_uris":{"android":"levelo://app?vid=4dc0bb4e-bf1e-47bf-906b-7819b872055e","ios":"levelo://app?vid=4dc0bb4e-bf1e-47bf-906b-7819b872055e"},"vehicle_type_id":"4","last_reported":1704319587,"current_range_meters":24000,"station_id":"ce4bgn12rcd13ifvqbt0","pricing_plan_id":"free"},{"bike_id":"370cccf7-c9ba-46c2-819b-c8e8cacc4c21","system_id":"levelo_inurba_marseille","lat":43.3277,"lon":5.37458,"is_reserved":false,"is_disabled":false,"rental_uris":{"android":"levelo://app?vid=370cccf7-c9ba-46c2-819b-c8e8cacc4c21","ios":"levelo://app?vid=370cccf7-c9ba-46c2-819b-c8e8cacc4c21"},"vehicle_type_id":"4","last_reported":1704319587,"current_range_meters":3600,"station_id":"","pricing_plan_id":"free"},{"bike_id":"f1908e61-5202-43e3-bf16-d91f711a0b5b","system_id":"levelo_inurba_marseille","lat":43.2968,"lon":5.37291,"is_reserved":false,"is_disabled":false,"rental_uris":{"android":"levelo://app?vid=f1908e61-5202-43e3-bf16-d91f711a0b5b","ios":"levelo://app?vid=f1908e61-5202-43e3-bf16-d91f711a0b5b"},"vehicle_type_id":"4","last_reported":1704319587,"current_range_meters":24800,"station_id":"ce4bgk12rcd13ifvqbj0","pricing_plan_id":"free"},{"bike_id":"521dbfac-c7ac-4c75-bcb7-4888ae1ce07d","system_id":"levelo_inurba_marseille","lat":43.299028,"lon":5.381509,"is_reserved":false,"is_disabled":false,"rental_uris":{"android":"levelo://app?vid=521dbfac-c7ac-4c75-bcb7-4888ae1ce07d","ios":"levelo://app?vid=521dbfac-c7ac-4c75-bcb7-4888ae1ce07d"},"vehicle_type_id":"4","last_reported":1704319587,"current_range_meters":12400,"station_id":"ce4bgj12rcd13ifvqbc0","pricing_plan_id":"free"},{"bike_id":"5c6d9a89-76eb-4b80-95a7-3b41cc1d8ea9","system_id":"levelo_inurba_marseille","lat":43.3095,"lon":5.39017,"is_reserved":false,"is_disabled":false,"rental_uris":{"android":"levelo://app?vid=5c6d9a89-76eb-4b80-95a7-3b41cc1d8ea9","ios":"levelo://app?vid=5c6d9a89-76eb-4b80-95a7-3b41cc1d8ea9"},"vehicle_type_id":"4","last_reported":1704319587,"current_range_meters":11600,"station_id":"ce4bgup2rcd13ifvqco0","pricing_plan_id":"free"},{"bike_id":"51187f35-094b-4e78-be1f-b582fecb2f2f","system_id":"levelo_inurba_marseille","lat":43.30953,"lon":5.39018,"is_reserved":false,"is_disabled":false,"rental_uris":{"android":"levelo://app?vid=51187f35-094b-4e78-be1f-b582fecb2f2f","ios":"levelo://app?vid=51187f35-094b-4e78-be1f-b582fecb2f2f"},"vehicle_type_id":"4","last_reported":1704319587,"current_range_meters":24800,"station_id":"ce4bgup2rcd13ifvqco0","pricing_plan_id":"free"},{"bike_id":"2a44d833-8ea0-4593-90e6-37854019817a","system_id":"levelo_inurba_marseille","lat":43.30957,"lon":5.39036,"is_reserved":false,"is_disabled":false,"rental_uris":{"android":"levelo://app?vid=2a44d833-8ea0-4593-90e6-37854019817a","ios":"levelo://app?vid=2a44d833-8ea0-4593-90e6-37854019817a"},"vehicle_type_id":"4","last_reported":1704319587,"current_range_meters":24000,"station_id":"ce4bgup2rcd13ifvqco0","pricing_plan_id":"free"},{"bike_id":"4b57a785-c2d7-4cf0-8023-6c96ec591992","system_id":"levelo_inurba_marseille","lat":43.296921,"lon":5.376579,"is_reserved":false,"is_disabled":false,"rental_uris":{"android":"levelo://app?vid=4b57a785-c2d7-4cf0-8023-6c96ec591992","ios":"levelo://app?vid=4b57a785-c2d7-4cf0-8023-6c96ec591992"},"vehicle_type_id":"4","last_reported":1704319587,"current_range_meters":7200,"station_id":"ce4bgkh2rcd13ifvqbl0","pricing_plan_id":"free"},{"bike_id":"7c015a84-e1e2-4743-825b-1f2d28680ca0","system_id":"levelo_inurba_marseille","lat":43.317557,"lon":5.390173,"is_reserved":false,"is_disabled":false,"rental_uris":{"android":"levelo://app?vid=7c015a84-e1e2-4743-825b-1f2d28680ca0","ios":"levelo://app?vid=7c015a84-e1e2-4743-825b-1f2d28680ca0"},"vehicle_type_id":"4","last_reported":1704319587,"current_range_meters":20400,"station_id":"ce4bhqp2rcd13ifvqhng","pricing_plan_id":"free"},{"bike_id":"3d4ee389-4467-4d7e-989a-c42b22d51f73","system_id":"levelo_inurba_marseille","lat":43.317557,"lon":5.390173,"is_reserved":false,"is_disabled":false,"rental_uris":{"android":"levelo://app?vid=3d4ee389-4467-4d7e-989a-c42b22d51f73","ios":"levelo://app?vid=3d4ee389-4467-4d7e-989a-c42b22d51f73"},"vehicle_type_id":"4","last_reported":1704319587,"current_range_meters":30000,"station_id":"ce4bhqp2rcd13ifvqhng","pricing_plan_id":"free"},{"bike_id":"c45955cd-c08a-44c9-a8aa-d6757945c061","system_id":"levelo_inurba_marseille","lat":43.317557,"lon":5.390173,"is_reserved":false,"is_disabled":false,"rental_uris":{"android":"levelo://app?vid=c45955cd-c08a-44c9-a8aa-d6757945c061","ios":"levelo://app?vid=c45955cd-c08a-44c9-a8aa-d6757945c061"},"vehicle_type_id":"4","last_reported":1704319587,"current_range_meters":31200,"station_id":"ce4bhqp2rcd13ifvqhng","pricing_plan_id":"free"},{"bike_id":"d60802d6-4f47-444a-b234-883690eec05b","system_id":"levelo_inurba_marseille","lat":43.33062,"lon":5.3627,"is_reserved":false,"is_disabled":false,"rental_uris":{"android":"levelo://app?vid=d60802d6-4f47-444a-b234-883690eec05b","ios":"levelo://app?vid=d60802d6-4f47-444a-b234-883690eec05b"},"vehicle_type_id":"4","last_reported":1704319587,"current_range_meters":10400,"station_id":"","pricing_plan_id":"free"},{"bike_id":"7119845d-00aa-4d9f-be8c-fc97d41f1380","system_id":"levelo_inurba_marseille","lat":43.297594,"lon":5.381134,"is_reserved":false,"is_disabled":false,"rental_uris":{"android":"levelo://app?vid=7119845d-00aa-4d9f-be8c-fc97d41f1380","ios":"levelo://app?vid=7119845d-00aa-4d9f-be8c-fc97d41f1380"},"vehicle_type_id":"4","last_reported":1704319587,"current_range_meters":0,"station_id":"ce4bgip2rcd13ifvqbb0","pricing_plan_id":"free"},{"bike_id":"cd9309fd-aa0d-4486-bd62-12d1b3c32799","system_id":"levelo_inurba_marseille","lat":43.32367,"lon":5.388836,"is_reserved":false,"is_disabled":false,"rental_uris":{"android":"levelo://app?vid=cd9309fd-aa0d-4486-bd62-12d1b3c32799","ios":"levelo://app?vid=cd9309fd-aa0d-4486-bd62-12d1b3c32799"},"vehicle_type_id":"4","last_reported":1704319587,"current_range_meters":24400,"station_id":"ce4bhqp2rcd13ifvqhog","pricing_plan_id":"free"},{"bike_id":"663c0a7e-890f-4ec8-b5d3-9a51bf6b0cb2","system_id":"levelo_inurba_marseille","lat":43.32367,"lon":5.388836,"is_reserved":false,"is_disabled":false,"rental_uris":{"android":"levelo://app?vid=663c0a7e-890f-4ec8-b5d3-9a51bf6b0cb2","ios":"levelo://app?vid=663c0a7e-890f-4ec8-b5d3-9a51bf6b0cb2"},"vehicle_type_id":"4","last_reported":1704319587,"current_range_meters":16000,"station_id":"ce4bhqp2rcd13ifvqhog","pricing_plan_id":"free"},{"bike_id":"75aa7902-170b-47de-96d7-289c5c90a773","system_id":"levelo_inurba_marseille","lat":43.305824,"lon":5.393376,"is_reserved":false,"is_disabled":false,"rental_uris":{"android":"levelo://app?vid=75aa7902-170b-47de-96d7-289c5c90a773","ios":"levelo://app?vid=75aa7902-170b-47de-96d7-289c5c90a773"},"vehicle_type_id":"4","last_reported":1704319587,"current_range_meters":27200,"station_id":"ce4bgk12rcd13ifvqbi0","pricing_plan_id":"free"},{"bike_id":"841d87f1-853c-4cc4-a6ab-5ce12ca07038","system_id":"levelo_inurba_marseille","lat":43.301783,"lon":5.390909,"is_reserved":false,"is_disabled":false,"rental_uris":{"android":"levelo://app?vid=841d87f1-853c-4cc4-a6ab-5ce12ca07038","ios":"levelo://app?vid=841d87f1-853c-4cc4-a6ab-5ce12ca07038"},"vehicle_type_id":"4","last_reported":1704319587,"current_range_meters":20400,"station_id":"","pricing_plan_id":"free"},{"bike_id":"e3bcbf85-daf9-4b63-9e7e-1d3e8f721fa1","system_id":"levelo_inurba_marseille","lat":43.289184,"lon":5.366408,"is_reserved":false,"is_disabled":false,"rental_uris":{"android":"levelo://app?vid=e3bcbf85-daf9-4b63-9e7e-1d3e8f721fa1","ios":"levelo://app?vid=e3bcbf85-daf9-4b63-9e7e-1d3e8f721fa1"},"vehicle_type_id":"4","last_reported":1704319587,"current_range_meters":8400,"station_id":"ce4bhap2rcd13ifvqek0","pricing_plan_id":"free"},{"bike_id":"a7e96f6f-9a9d-4536-af13-981f7da163d1","system_id":"levelo_inurba_marseille","lat":43.303002,"lon":5.392142,"is_reserved":false,"is_disabled":false,"rental_uris":{"android":"levelo://app?vid=a7e96f6f-9a9d-4536-af13-981f7da163d1","ios":"levelo://app?vid=a7e96f6f-9a9d-4536-af13-981f7da163d1"},"vehicle_type_id":"4","last_reported":1704319587,"current_range_meters":5600,"station_id":"ce4bgkh2rcd13ifvqbk0","pricing_plan_id":"free"},{"bike_id":"0335ee4d-b8d1-4700-8dff-e1974ac16b11","system_id":"levelo_inurba_marseille","lat":43.292742,"lon":5.376196,"is_reserved":false,"is_disabled":false,"rental_uris":{"android":"levelo://app?vid=0335ee4d-b8d1-4700-8dff-e1974ac16b11","ios":"levelo://app?vid=0335ee4d-b8d1-4700-8dff-e1974ac16b11"},"vehicle_type_id":"4","last_reported":1704319587,"current_range_meters":7600,"station_id":"","pricing_plan_id":"free"},{"bike_id":"bee0d25e-5928-4166-a427-6e32ca8691d8","system_id":"levelo_inurba_marseille","lat":43.292606,"lon":5.376194,"is_reserved":false,"is_disabled":false,"rental_uris":{"android":"levelo://app?vid=bee0d25e-5928-4166-a427-6e32ca8691d8","ios":"levelo://app?vid=bee0d25e-5928-4166-a427-6e32ca8691d8"},"vehicle_type_id":"4","last_reported":1704319587,"current_range_meters":14400,"station_id":"","pricing_plan_id":"free"},{"bike_id":"8f86e043-0dac-4467-b8ef-615961dba736","system_id":"levelo_inurba_marseille","lat":43.298693,"lon":5.389009,"is_reserved":false,"is_disabled":false,"rental_uris":{"android":"levelo://app?vid=8f86e043-0dac-4467-b8ef-615961dba736","ios":"levelo://app?vid=8f86e043-0dac-4467-b8ef-615961dba736"},"vehicle_type_id":"4","last_reported":1704319587,"current_range_meters":24000,"station_id":"","pricing_plan_id":"free"},{"bike_id":"76e78457-a751-4163-aea9-e54bca4365e3","system_id":"levelo_inurba_marseille","lat":43.29874,"lon":5.38921,"is_reserved":false,"is_disabled":false,"rental_uris":{"android":"levelo://app?vid=76e78457-a751-4163-aea9-e54bca4365e3","ios":"levelo://app?vid=76e78457-a751-4163-aea9-e54bca4365e3"},"vehicle_type_id":"4","last_reported":1704319587,"current_range_meters":4800,"station_id":"","pricing_plan_id":"free"},{"bike_id":"8c75c840-5d05-4083-8415-273f5a4aeaf3","system_id":"levelo_inurba_marseille","lat":43.29868,"lon":5.38914,"is_reserved":false,"is_disabled":false,"rental_uris":{"android":"levelo://app?vid=8c75c840-5d05-4083-8415-273f5a4aeaf3","ios":"levelo://app?vid=8c75c840-5d05-4083-8415-273f5a4aeaf3"},"vehicle_type_id":"4","last_reported":1704319587,"current_range_meters":1200,"station_id":"","pricing_plan_id":"free"},{"bike_id":"4a9311c4-4db5-4367-b1f7-d435bd185033","system_id":"levelo_inurba_marseille","lat":43.331819,"lon":5.380759,"is_reserved":false,"is_disabled":false,"rental_uris":{"android":"levelo://app?vid=4a9311c4-4db5-4367-b1f7-d435bd185033","ios":"levelo://app?vid=4a9311c4-4db5-4367-b1f7-d435bd185033"},"vehicle_type_id":"4","last_reported":1704319587,"current_range_meters":8800,"station_id":"","pricing_plan_id":"free"},{"bike_id":"fc6aeee5-cfee-4a7d-9ecd-8c8389c849f7","system_id":"levelo_inurba_marseille","lat":43.291994,"lon":5.357886,"is_reserved":false,"is_disabled":false,"rental_uris":{"android":"levelo://app?vid=fc6aeee5-cfee-4a7d-9ecd-8c8389c849f7","ios":"levelo://app?vid=fc6aeee5-cfee-4a7d-9ecd-8c8389c849f7"},"vehicle_type_id":"4","last_reported":1704319587,"current_range_meters":10400,"station_id":"ce4bhb12rcd13ifvqel0","pricing_plan_id":"free"},{"bike_id":"bc0ae4ea-7437-405f-be7b-07420699e803","system_id":"levelo_inurba_marseille","lat":43.309038,"lon":5.396546,"is_reserved":false,"is_disabled":false,"rental_uris":{"android":"levelo://app?vid=bc0ae4ea-7437-405f-be7b-07420699e803","ios":"levelo://app?vid=bc0ae4ea-7437-405f-be7b-07420699e803"},"vehicle_type_id":"4","last_reported":1704319587,"current_range_meters":15200,"station_id":"ce4bh012rcd13ifvqcv0","pricing_plan_id":"free"},{"bike_id":"4e6e447a-17f6-4981-ac18-91ec05c1f791","system_id":"levelo_inurba_marseille","lat":43.313291,"lon":5.396838,"is_reserved":false,"is_disabled":false,"rental_uris":{"android":"levelo://app?vid=4e6e447a-17f6-4981-ac18-91ec05c1f791","ios":"levelo://app?vid=4e6e447a-17f6-4981-ac18-91ec05c1f791"},"vehicle_type_id":"4","last_reported":1704319587,"current_range_meters":31600,"station_id":"ce4bgvp2rcd13ifvqcu0","pricing_plan_id":"free"},{"bike_id":"3811f1c0-5c6d-4342-b7bc-0851a0b06702","system_id":"levelo_inurba_marseille","lat":43.313291,"lon":5.396838,"is_reserved":false,"is_disabled":false,"rental_uris":{"android":"levelo://app?vid=3811f1c0-5c6d-4342-b7bc-0851a0b06702","ios":"levelo://app?vid=3811f1c0-5c6d-4342-b7bc-0851a0b06702"},"vehicle_type_id":"4","last_reported":1704319587,"current_range_meters":18800,"station_id":"ce4bgvp2rcd13ifvqcu0","pricing_plan_id":"free"},{"bike_id":"bbaa65b3-f133-4877-b49f-27299792c8f5","system_id":"levelo_inurba_marseille","lat":43.313291,"lon":5.396838,"is_reserved":false,"is_disabled":false,"rental_uris":{"android":"levelo://app?vid=bbaa65b3-f133-4877-b49f-27299792c8f5","ios":"levelo://app?vid=bbaa65b3-f133-4877-b49f-27299792c8f5"},"vehicle_type_id":"4","last_reported":1704319587,"current_range_meters":10400,"station_id":"ce4bgvp2rcd13ifvqcu0","pricing_plan_id":"free"},{"bike_id":"4632b70d-b9bd-4373-84dd-9a7c8befe5cf","system_id":"levelo_inurba_marseille","lat":43.313291,"lon":5.396838,"is_reserved":false,"is_disabled":false,"rental_uris":{"android":"levelo://app?vid=4632b70d-b9bd-4373-84dd-9a7c8befe5cf","ios":"levelo://app?vid=4632b70d-b9bd-4373-84dd-9a7c8befe5cf"},"vehicle_type_id":"4","last_reported":1704319587,"current_range_meters":0,"station_id":"ce4bgvp2rcd13ifvqcu0","pricing_plan_id":"free"},{"bike_id":"bcfa8101-8549-4290-95ee-c9ef9f526b61","system_id":"levelo_inurba_marseille","lat":43.309038,"lon":5.396546,"is_reserved":false,"is_disabled":false,"rental_uris":{"android":"levelo://app?vid=bcfa8101-8549-4290-95ee-c9ef9f526b61","ios":"levelo://app?vid=bcfa8101-8549-4290-95ee-c9ef9f526b61"},"vehicle_type_id":"4","last_reported":1704319587,"current_range_meters":12000,"station_id":"ce4bh012rcd13ifvqcv0","pricing_plan_id":"free"},{"bike_id":"8205d084-c47b-4fd2-ab65-c1ed9e2ca6ac","system_id":"levelo_inurba_marseille","lat":43.313291,"lon":5.396838,"is_reserved":false,"is_disabled":false,"rental_uris":{"android":"levelo://app?vid=8205d084-c47b-4fd2-ab65-c1ed9e2ca6ac","ios":"levelo://app?vid=8205d084-c47b-4fd2-ab65-c1ed9e2ca6ac"},"vehicle_type_id":"4","last_reported":1704319587,"current_range_meters":17200,"station_id":"ce4bgvp2rcd13ifvqcu0","pricing_plan_id":"free"},{"bike_id":"82d1f46b-b236-4828-a9e7-962a314b4a66","system_id":"levelo_inurba_marseille","lat":43.313291,"lon":5.396838,"is_reserved":false,"is_disabled":false,"rental_uris":{"android":"levelo://app?vid=82d1f46b-b236-4828-a9e7-962a314b4a66","ios":"levelo://app?vid=82d1f46b-b236-4828-a9e7-962a314b4a66"},"vehicle_type_id":"4","last_reported":1704319587,"current_range_meters":27600,"station_id":"ce4bgvp2rcd13ifvqcu0","pricing_plan_id":"free"},{"bike_id":"daa50d62-dc2d-4c36-9b6c-5d18fcad323c","system_id":"levelo_inurba_marseille","lat":43.309038,"lon":5.396546,"is_reserved":false,"is_disabled":false,"rental_uris":{"android":"levelo://app?vid=daa50d62-dc2d-4c36-9b6c-5d18fcad323c","ios":"levelo://app?vid=daa50d62-dc2d-4c36-9b6c-5d18fcad323c"},"vehicle_type_id":"4","last_reported":1704319587,"current_range_meters":9600,"station_id":"ce4bh012rcd13ifvqcv0","pricing_plan_id":"free"},{"bike_id":"52cb9422-bdda-444e-acf8-53ea52ac4c8d","system_id":"levelo_inurba_marseille","lat":43.309047,"lon":5.396551,"is_reserved":false,"is_disabled":false,"rental_uris":{"android":"levelo://app?vid=52cb9422-bdda-444e-acf8-53ea52ac4c8d","ios":"levelo://app?vid=52cb9422-bdda-444e-acf8-53ea52ac4c8d"},"vehicle_type_id":"4","last_reported":1704319587,"current_range_meters":24000,"station_id":"ce4bh012rcd13ifvqcv0","pricing_plan_id":"free"},{"bike_id":"b9d5d6bb-b122-457b-bf67-61aeee7a48e7","system_id":"levelo_inurba_marseille","lat":43.313291,"lon":5.396838,"is_reserved":false,"is_disabled":false,"rental_uris":{"android":"levelo://app?vid=b9d5d6bb-b122-457b-bf67-61aeee7a48e7","ios":"levelo://app?vid=b9d5d6bb-b122-457b-bf67-61aeee7a48e7"},"vehicle_type_id":"4","last_reported":1704319587,"current_range_meters":2000,"station_id":"ce4bgvp2rcd13ifvqcu0","pricing_plan_id":"free"},{"bike_id":"ac200040-1a82-4963-b4a5-725d0db99592","system_id":"levelo_inurba_marseille","lat":43.309038,"lon":5.396546,"is_reserved":false,"is_disabled":false,"rental_uris":{"android":"levelo://app?vid=ac200040-1a82-4963-b4a5-725d0db99592","ios":"levelo://app?vid=ac200040-1a82-4963-b4a5-725d0db99592"},"vehicle_type_id":"4","last_reported":1704319587,"current_range_meters":4400,"station_id":"ce4bh012rcd13ifvqcv0","pricing_plan_id":"free"},{"bike_id":"4618c8c4-91b4-4c5b-9667-4b1388c43278","system_id":"levelo_inurba_marseille","lat":43.313291,"lon":5.396838,"is_reserved":false,"is_disabled":false,"rental_uris":{"android":"levelo://app?vid=4618c8c4-91b4-4c5b-9667-4b1388c43278","ios":"levelo://app?vid=4618c8c4-91b4-4c5b-9667-4b1388c43278"},"vehicle_type_id":"4","last_reported":1704319587,"current_range_meters":20800,"station_id":"ce4bgvp2rcd13ifvqcu0","pricing_plan_id":"free"},{"bike_id":"66972551-0bf5-4cd8-b102-ef9ac86488e4","system_id":"levelo_inurba_marseille","lat":43.309038,"lon":5.396546,"is_reserved":false,"is_disabled":false,"rental_uris":{"android":"levelo://app?vid=66972551-0bf5-4cd8-b102-ef9ac86488e4","ios":"levelo://app?vid=66972551-0bf5-4cd8-b102-ef9ac86488e4"},"vehicle_type_id":"4","last_reported":1704319587,"current_range_meters":0,"station_id":"ce4bh012rcd13ifvqcv0","pricing_plan_id":"free"},{"bike_id":"8d368af0-3de7-4857-9748-b51fbbf65cde","system_id":"levelo_inurba_marseille","lat":43.309038,"lon":5.396546,"is_reserved":false,"is_disabled":false,"rental_uris":{"android":"levelo://app?vid=8d368af0-3de7-4857-9748-b51fbbf65cde","ios":"levelo://app?vid=8d368af0-3de7-4857-9748-b51fbbf65cde"},"vehicle_type_id":"4","last_reported":1704319587,"current_range_meters":2000,"station_id":"ce4bh012rcd13ifvqcv0","pricing_plan_id":"free"},{"bike_id":"db0b473c-b957-4b85-92d4-070515c92a07","system_id":"levelo_inurba_marseille","lat":43.309038,"lon":5.396546,"is_reserved":false,"is_disabled":false,"rental_uris":{"android":"levelo://app?vid=db0b473c-b957-4b85-92d4-070515c92a07","ios":"levelo://app?vid=db0b473c-b957-4b85-92d4-070515c92a07"},"vehicle_type_id":"4","last_reported":1704319587,"current_range_meters":30400,"station_id":"ce4bh012rcd13ifvqcv0","pricing_plan_id":"free"},{"bike_id":"c294d8b8-f2b9-4aee-baa9-010d2fbff09e","system_id":"levelo_inurba_marseille","lat":43.29529,"lon":5.385581,"is_reserved":false,"is_disabled":false,"rental_uris":{"android":"levelo://app?vid=c294d8b8-f2b9-4aee-baa9-010d2fbff09e","ios":"levelo://app?vid=c294d8b8-f2b9-4aee-baa9-010d2fbff09e"},"vehicle_type_id":"4","last_reported":1704319587,"current_range_meters":24400,"station_id":"ce4bgih2rcd13ifvqba0","pricing_plan_id":"free"},{"bike_id":"2b564386-0ea8-43b8-b809-42529dc6a7c0","system_id":"levelo_inurba_marseille","lat":43.302008,"lon":5.394694,"is_reserved":false,"is_disabled":false,"rental_uris":{"android":"levelo://app?vid=2b564386-0ea8-43b8-b809-42529dc6a7c0","ios":"levelo://app?vid=2b564386-0ea8-43b8-b809-42529dc6a7c0"},"vehicle_type_id":"4","last_reported":1704319587,"current_range_meters":23200,"station_id":"ce4bh0p2rcd13ifvqd70","pricing_plan_id":"free"},{"bike_id":"fd72e394-d9a3-4447-97d1-0c6f10a41ec4","system_id":"levelo_inurba_marseille","lat":43.290624,"lon":5.359245,"is_reserved":false,"is_disabled":false,"rental_uris":{"android":"levelo://app?vid=fd72e394-d9a3-4447-97d1-0c6f10a41ec4","ios":"levelo://app?vid=fd72e394-d9a3-4447-97d1-0c6f10a41ec4"},"vehicle_type_id":"4","last_reported":1704319587,"current_range_meters":28800,"station_id":"ce4bha92rcd13ifvqeg0","pricing_plan_id":"free"},{"bike_id":"ae43fb9a-9cb8-41c1-bbf1-9a142e37adf8","system_id":"levelo_inurba_marseille","lat":43.284538,"lon":5.358657,"is_reserved":false,"is_disabled":false,"rental_uris":{"android":"levelo://app?vid=ae43fb9a-9cb8-41c1-bbf1-9a142e37adf8","ios":"levelo://app?vid=ae43fb9a-9cb8-41c1-bbf1-9a142e37adf8"},"vehicle_type_id":"4","last_reported":1704319587,"current_range_meters":21200,"station_id":"ce4bhah2rcd13ifvqei0","pricing_plan_id":"free"},{"bike_id":"dc00d68b-30af-4314-8354-50c68ce0fe32","system_id":"levelo_inurba_marseille","lat":43.290327,"lon":5.375711,"is_reserved":false,"is_disabled":false,"rental_uris":{"android":"levelo://app?vid=dc00d68b-30af-4314-8354-50c68ce0fe32","ios":"levelo://app?vid=dc00d68b-30af-4314-8354-50c68ce0fe32"},"vehicle_type_id":"4","last_reported":1704319587,"current_range_meters":6400,"station_id":"ce4bh692rcd13ifvqe90","pricing_plan_id":"free"},{"bike_id":"2bde23ad-5008-4794-a86f-bc938dcdef3f","system_id":"levelo_inurba_marseille","lat":43.289184,"lon":5.366408,"is_reserved":false,"is_disabled":false,"rental_uris":{"android":"levelo://app?vid=2bde23ad-5008-4794-a86f-bc938dcdef3f","ios":"levelo://app?vid=2bde23ad-5008-4794-a86f-bc938dcdef3f"},"vehicle_type_id":"4","last_reported":1704319587,"current_range_meters":20400,"station_id":"ce4bhap2rcd13ifvqek0","pricing_plan_id":"free"},{"bike_id":"0c437dcb-5577-4cd3-8d8c-ab3cd599e1f1","system_id":"levelo_inurba_marseille","lat":43.292577,"lon":5.383213,"is_reserved":false,"is_disabled":false,"rental_uris":{"android":"levelo://app?vid=0c437dcb-5577-4cd3-8d8c-ab3cd599e1f1","ios":"levelo://app?vid=0c437dcb-5577-4cd3-8d8c-ab3cd599e1f1"},"vehicle_type_id":"4","last_reported":1704319587,"current_range_meters":20800,"station_id":"","pricing_plan_id":"free"},{"bike_id":"e70ff0b2-0c39-42a6-be6f-eb26215d1184","system_id":"levelo_inurba_marseille","lat":43.289468,"lon":5.363719,"is_reserved":false,"is_disabled":false,"rental_uris":{"android":"levelo://app?vid=e70ff0b2-0c39-42a6-be6f-eb26215d1184","ios":"levelo://app?vid=e70ff0b2-0c39-42a6-be6f-eb26215d1184"},"vehicle_type_id":"4","last_reported":1704319587,"current_range_meters":0,"station_id":"ce4bhc92rcd13ifvqetg","pricing_plan_id":"free"},{"bike_id":"ee8c94e8-672a-42a0-b044-4f4df57b8d92","system_id":"levelo_inurba_marseille","lat":43.304274,"lon":5.397513,"is_reserved":false,"is_disabled":false,"rental_uris":{"android":"levelo://app?vid=ee8c94e8-672a-42a0-b044-4f4df57b8d92","ios":"levelo://app?vid=ee8c94e8-672a-42a0-b044-4f4df57b8d92"},"vehicle_type_id":"4","last_reported":1704319587,"current_range_meters":27200,"station_id":"ce4bh092rcd13ifvqd20","pricing_plan_id":"free"},{"bike_id":"3214b76d-0390-44a9-8091-e02429372c31","system_id":"levelo_inurba_marseille","lat":43.292674,"lon":5.384464,"is_reserved":false,"is_disabled":false,"rental_uris":{"android":"levelo://app?vid=3214b76d-0390-44a9-8091-e02429372c31","ios":"levelo://app?vid=3214b76d-0390-44a9-8091-e02429372c31"},"vehicle_type_id":"4","last_reported":1704319587,"current_range_meters":0,"station_id":"ce4bh692rcd13ifvqea0","pricing_plan_id":"free"},{"bike_id":"f3343b7a-7227-4208-807c-b346423a1bc2","system_id":"levelo_inurba_marseille","lat":43.30423,"lon":5.39754,"is_reserved":false,"is_disabled":false,"rental_uris":{"android":"levelo://app?vid=f3343b7a-7227-4208-807c-b346423a1bc2","ios":"levelo://app?vid=f3343b7a-7227-4208-807c-b346423a1bc2"},"vehicle_type_id":"4","last_reported":1704319587,"current_range_meters":1200,"station_id":"ce4bh092rcd13ifvqd20","pricing_plan_id":"free"},{"bike_id":"aba8ad64-7f46-4b15-bbe5-432a1730db4d","system_id":"levelo_inurba_marseille","lat":43.304818,"lon":5.397987,"is_reserved":false,"is_disabled":false,"rental_uris":{"android":"levelo://app?vid=aba8ad64-7f46-4b15-bbe5-432a1730db4d","ios":"levelo://app?vid=aba8ad64-7f46-4b15-bbe5-432a1730db4d"},"vehicle_type_id":"4","last_reported":1704319587,"current_range_meters":29600,"station_id":"","pricing_plan_id":"free"},{"bike_id":"82ce0d43-ad11-4749-bb57-cfdb8f28374d","system_id":"levelo_inurba_marseille","lat":43.290104,"lon":5.356111,"is_reserved":false,"is_disabled":false,"rental_uris":{"android":"levelo://app?vid=82ce0d43-ad11-4749-bb57-cfdb8f28374d","ios":"levelo://app?vid=82ce0d43-ad11-4749-bb57-cfdb8f28374d"},"vehicle_type_id":"4","last_reported":1704319587,"current_range_meters":19600,"station_id":"ce4bhb92rcd13ifvqen0","pricing_plan_id":"free"},{"bike_id":"4bb06369-461a-4bbf-a66a-8c371d92863c","system_id":"levelo_inurba_marseille","lat":43.297903,"lon":5.393363,"is_reserved":false,"is_disabled":false,"rental_uris":{"android":"levelo://app?vid=4bb06369-461a-4bbf-a66a-8c371d92863c","ios":"levelo://app?vid=4bb06369-461a-4bbf-a66a-8c371d92863c"},"vehicle_type_id":"4","last_reported":1704319587,"current_range_meters":30000,"station_id":"chh1huq6cuj3fo74tm60","pricing_plan_id":"free"},{"bike_id":"437fda1a-75a8-4281-8e17-87c545b925fe","system_id":"levelo_inurba_marseille","lat":43.297889,"lon":5.393399,"is_reserved":false,"is_disabled":false,"rental_uris":{"android":"levelo://app?vid=437fda1a-75a8-4281-8e17-87c545b925fe","ios":"levelo://app?vid=437fda1a-75a8-4281-8e17-87c545b925fe"},"vehicle_type_id":"4","last_reported":1704319587,"current_range_meters":11600,"station_id":"chh1huq6cuj3fo74tm60","pricing_plan_id":"free"},{"bike_id":"7a95e6bc-35c5-447e-af6d-12db5479cb7d","system_id":"levelo_inurba_marseille","lat":43.29793,"lon":5.39347,"is_reserved":false,"is_disabled":false,"rental_uris":{"android":"levelo://app?vid=7a95e6bc-35c5-447e-af6d-12db5479cb7d","ios":"levelo://app?vid=7a95e6bc-35c5-447e-af6d-12db5479cb7d"},"vehicle_type_id":"4","last_reported":1704319587,"current_range_meters":18400,"station_id":"chh1huq6cuj3fo74tm60","pricing_plan_id":"free"},{"bike_id":"02737363-38f8-4dbb-831d-ce7f85fba48b","system_id":"levelo_inurba_marseille","lat":43.29784,"lon":5.39339,"is_reserved":false,"is_disabled":false,"rental_uris":{"android":"levelo://app?vid=02737363-38f8-4dbb-831d-ce7f85fba48b","ios":"levelo://app?vid=02737363-38f8-4dbb-831d-ce7f85fba48b"},"vehicle_type_id":"4","last_reported":1704319587,"current_range_meters":1200,"station_id":"chh1huq6cuj3fo74tm60","pricing_plan_id":"free"},{"bike_id":"b9f1870d-91b7-4991-8da2-fb88515c5d8e","system_id":"levelo_inurba_marseille","lat":43.330442,"lon":5.389148,"is_reserved":false,"is_disabled":false,"rental_uris":{"android":"levelo://app?vid=b9f1870d-91b7-4991-8da2-fb88515c5d8e","ios":"levelo://app?vid=b9f1870d-91b7-4991-8da2-fb88515c5d8e"},"vehicle_type_id":"4","last_reported":1704319587,"current_range_meters":17200,"station_id":"ce4bhr92rcd13ifvqhrg","pricing_plan_id":"free"},{"bike_id":"3537c72e-affb-4603-a0d4-44c57db301e5","system_id":"levelo_inurba_marseille","lat":43.330442,"lon":5.389148,"is_reserved":false,"is_disabled":false,"rental_uris":{"android":"levelo://app?vid=3537c72e-affb-4603-a0d4-44c57db301e5","ios":"levelo://app?vid=3537c72e-affb-4603-a0d4-44c57db301e5"},"vehicle_type_id":"4","last_reported":1704319587,"current_range_meters":8400,"station_id":"ce4bhr92rcd13ifvqhrg","pricing_plan_id":"free"},{"bike_id":"b4dc5f58-d698-47e4-9d04-a65a1aac924a","system_id":"levelo_inurba_marseille","lat":43.330442,"lon":5.389148,"is_reserved":false,"is_disabled":false,"rental_uris":{"android":"levelo://app?vid=b4dc5f58-d698-47e4-9d04-a65a1aac924a","ios":"levelo://app?vid=b4dc5f58-d698-47e4-9d04-a65a1aac924a"},"vehicle_type_id":"4","last_reported":1704319587,"current_range_meters":12000,"station_id":"ce4bhr92rcd13ifvqhrg","pricing_plan_id":"free"},{"bike_id":"a4544299-4117-4ba4-98ad-2dcd1cebe1e8","system_id":"levelo_inurba_marseille","lat":43.330442,"lon":5.389148,"is_reserved":false,"is_disabled":false,"rental_uris":{"android":"levelo://app?vid=a4544299-4117-4ba4-98ad-2dcd1cebe1e8","ios":"levelo://app?vid=a4544299-4117-4ba4-98ad-2dcd1cebe1e8"},"vehicle_type_id":"4","last_reported":1704319587,"current_range_meters":23200,"station_id":"ce4bhr92rcd13ifvqhrg","pricing_plan_id":"free"},{"bike_id":"a45508dc-3e20-4dc2-a3f2-c48092cac22d","system_id":"levelo_inurba_marseille","lat":43.330442,"lon":5.389148,"is_reserved":false,"is_disabled":false,"rental_uris":{"android":"levelo://app?vid=a45508dc-3e20-4dc2-a3f2-c48092cac22d","ios":"levelo://app?vid=a45508dc-3e20-4dc2-a3f2-c48092cac22d"},"vehicle_type_id":"4","last_reported":1704319587,"current_range_meters":6000,"station_id":"ce4bhr92rcd13ifvqhrg","pricing_plan_id":"free"},{"bike_id":"9d33631d-72f0-4b91-8d12-28876b9b0803","system_id":"levelo_inurba_marseille","lat":43.296131,"lon":5.370773,"is_reserved":false,"is_disabled":false,"rental_uris":{"android":"levelo://app?vid=9d33631d-72f0-4b91-8d12-28876b9b0803","ios":"levelo://app?vid=9d33631d-72f0-4b91-8d12-28876b9b0803"},"vehicle_type_id":"4","last_reported":1704319587,"current_range_meters":5600,"station_id":"ce4bgnh2rcd13ifvqc0g","pricing_plan_id":"free"},{"bike_id":"1e16a714-6cd7-4cab-a8bf-3d460d19a2a2","system_id":"levelo_inurba_marseille","lat":43.28856,"lon":5.358371,"is_reserved":false,"is_disabled":false,"rental_uris":{"android":"levelo://app?vid=1e16a714-6cd7-4cab-a8bf-3d460d19a2a2","ios":"levelo://app?vid=1e16a714-6cd7-4cab-a8bf-3d460d19a2a2"},"vehicle_type_id":"4","last_reported":1704319587,"current_range_meters":8000,"station_id":"ce4bhb12rcd13ifvqem0","pricing_plan_id":"free"},{"bike_id":"08968a33-7295-4ecc-a651-1914cee3d3bd","system_id":"levelo_inurba_marseille","lat":43.28856,"lon":5.358371,"is_reserved":false,"is_disabled":false,"rental_uris":{"android":"levelo://app?vid=08968a33-7295-4ecc-a651-1914cee3d3bd","ios":"levelo://app?vid=08968a33-7295-4ecc-a651-1914cee3d3bd"},"vehicle_type_id":"4","last_reported":1704319587,"current_range_meters":11200,"station_id":"ce4bhb12rcd13ifvqem0","pricing_plan_id":"free"},{"bike_id":"3e2f2edd-b93e-4bf2-be71-a5f91a327f6f","system_id":"levelo_inurba_marseille","lat":43.28856,"lon":5.358371,"is_reserved":false,"is_disabled":false,"rental_uris":{"android":"levelo://app?vid=3e2f2edd-b93e-4bf2-be71-a5f91a327f6f","ios":"levelo://app?vid=3e2f2edd-b93e-4bf2-be71-a5f91a327f6f"},"vehicle_type_id":"4","last_reported":1704319587,"current_range_meters":26000,"station_id":"ce4bhb12rcd13ifvqem0","pricing_plan_id":"free"},{"bike_id":"a1a6f130-5112-4b6f-add1-d0cd079559c3","system_id":"levelo_inurba_marseille","lat":43.28856,"lon":5.358371,"is_reserved":false,"is_disabled":false,"rental_uris":{"android":"levelo://app?vid=a1a6f130-5112-4b6f-add1-d0cd079559c3","ios":"levelo://app?vid=a1a6f130-5112-4b6f-add1-d0cd079559c3"},"vehicle_type_id":"4","last_reported":1704319587,"current_range_meters":6400,"station_id":"ce4bhb12rcd13ifvqem0","pricing_plan_id":"free"},{"bike_id":"56eea705-8312-497c-a7a5-2d086e47098a","system_id":"levelo_inurba_marseille","lat":43.312609,"lon":5.401662,"is_reserved":false,"is_disabled":false,"rental_uris":{"android":"levelo://app?vid=56eea705-8312-497c-a7a5-2d086e47098a","ios":"levelo://app?vid=56eea705-8312-497c-a7a5-2d086e47098a"},"vehicle_type_id":"4","last_reported":1704319587,"current_range_meters":20400,"station_id":"ce4bh092rcd13ifvqd30","pricing_plan_id":"free"},{"bike_id":"57ed76f0-7a5c-4de1-bd74-1460e9e1c4f0","system_id":"levelo_inurba_marseille","lat":43.312609,"lon":5.401662,"is_reserved":false,"is_disabled":false,"rental_uris":{"android":"levelo://app?vid=57ed76f0-7a5c-4de1-bd74-1460e9e1c4f0","ios":"levelo://app?vid=57ed76f0-7a5c-4de1-bd74-1460e9e1c4f0"},"vehicle_type_id":"4","last_reported":1704319587,"current_range_meters":20800,"station_id":"ce4bh092rcd13ifvqd30","pricing_plan_id":"free"},{"bike_id":"b7180edd-d7ed-4d04-934c-e87155df52c2","system_id":"levelo_inurba_marseille","lat":43.312609,"lon":5.401662,"is_reserved":false,"is_disabled":false,"rental_uris":{"android":"levelo://app?vid=b7180edd-d7ed-4d04-934c-e87155df52c2","ios":"levelo://app?vid=b7180edd-d7ed-4d04-934c-e87155df52c2"},"vehicle_type_id":"4","last_reported":1704319587,"current_range_meters":13600,"station_id":"ce4bh092rcd13ifvqd30","pricing_plan_id":"free"},{"bike_id":"c5caf7f9-c216-44e5-986a-2c63510276b1","system_id":"levelo_inurba_marseille","lat":43.30924,"lon":5.40139,"is_reserved":false,"is_disabled":false,"rental_uris":{"android":"levelo://app?vid=c5caf7f9-c216-44e5-986a-2c63510276b1","ios":"levelo://app?vid=c5caf7f9-c216-44e5-986a-2c63510276b1"},"vehicle_type_id":"4","last_reported":1704319587,"current_range_meters":1600,"station_id":"ce4bgvp2rcd13ifvqct0","pricing_plan_id":"free"},{"bike_id":"c473dc02-8994-4174-a9e4-3a30dad995ff","system_id":"levelo_inurba_marseille","lat":43.337463,"lon":5.374455,"is_reserved":false,"is_disabled":false,"rental_uris":{"android":"levelo://app?vid=c473dc02-8994-4174-a9e4-3a30dad995ff","ios":"levelo://app?vid=c473dc02-8994-4174-a9e4-3a30dad995ff"},"vehicle_type_id":"4","last_reported":1704319587,"current_range_meters":28800,"station_id":"","pricing_plan_id":"free"},{"bike_id":"2c0d1c7a-52d6-45c8-b950-66774576aada","system_id":"levelo_inurba_marseille","lat":43.33751,"lon":5.3744,"is_reserved":false,"is_disabled":false,"rental_uris":{"android":"levelo://app?vid=2c0d1c7a-52d6-45c8-b950-66774576aada","ios":"levelo://app?vid=2c0d1c7a-52d6-45c8-b950-66774576aada"},"vehicle_type_id":"4","last_reported":1704319587,"current_range_meters":26400,"station_id":"","pricing_plan_id":"free"},{"bike_id":"9ad3dbe8-4071-48c0-8270-46da6f555f3d","system_id":"levelo_inurba_marseille","lat":43.30927,"lon":5.40148,"is_reserved":false,"is_disabled":false,"rental_uris":{"android":"levelo://app?vid=9ad3dbe8-4071-48c0-8270-46da6f555f3d","ios":"levelo://app?vid=9ad3dbe8-4071-48c0-8270-46da6f555f3d"},"vehicle_type_id":"4","last_reported":1704319587,"current_range_meters":0,"station_id":"ce4bgvp2rcd13ifvqct0","pricing_plan_id":"free"},{"bike_id":"e0179918-445e-4cbe-b3fa-576a3d6075b5","system_id":"levelo_inurba_marseille","lat":43.33761,"lon":5.374363,"is_reserved":false,"is_disabled":false,"rental_uris":{"android":"levelo://app?vid=e0179918-445e-4cbe-b3fa-576a3d6075b5","ios":"levelo://app?vid=e0179918-445e-4cbe-b3fa-576a3d6075b5"},"vehicle_type_id":"4","last_reported":1704319587,"current_range_meters":30000,"station_id":"","pricing_plan_id":"free"},{"bike_id":"4638b56e-a45a-4226-add7-99c10e4fd17c","system_id":"levelo_inurba_marseille","lat":43.306412,"lon":5.401035,"is_reserved":false,"is_disabled":false,"rental_uris":{"android":"levelo://app?vid=4638b56e-a45a-4226-add7-99c10e4fd17c","ios":"levelo://app?vid=4638b56e-a45a-4226-add7-99c10e4fd17c"},"vehicle_type_id":"4","last_reported":1704319587,"current_range_meters":17600,"station_id":"ce4bh112rcd13ifvqda0","pricing_plan_id":"free"},{"bike_id":"52871362-c090-4071-8ce3-d836699413cc","system_id":"levelo_inurba_marseille","lat":43.30642,"lon":5.401031,"is_reserved":false,"is_disabled":false,"rental_uris":{"android":"levelo://app?vid=52871362-c090-4071-8ce3-d836699413cc","ios":"levelo://app?vid=52871362-c090-4071-8ce3-d836699413cc"},"vehicle_type_id":"4","last_reported":1704319587,"current_range_meters":21600,"station_id":"ce4bh112rcd13ifvqda0","pricing_plan_id":"free"},{"bike_id":"7501d9c7-cbea-4591-b7c4-0798b9a51d9e","system_id":"levelo_inurba_marseille","lat":43.301117,"lon":5.398795,"is_reserved":false,"is_disabled":false,"rental_uris":{"android":"levelo://app?vid=7501d9c7-cbea-4591-b7c4-0798b9a51d9e","ios":"levelo://app?vid=7501d9c7-cbea-4591-b7c4-0798b9a51d9e"},"vehicle_type_id":"4","last_reported":1704319587,"current_range_meters":17600,"station_id":"ce4bh0h2rcd13ifvqd40","pricing_plan_id":"free"},{"bike_id":"e1ac0197-6dd4-4076-855c-c73057a2eb75","system_id":"levelo_inurba_marseille","lat":43.28727,"lon":5.36078,"is_reserved":false,"is_disabled":false,"rental_uris":{"android":"levelo://app?vid=e1ac0197-6dd4-4076-855c-c73057a2eb75","ios":"levelo://app?vid=e1ac0197-6dd4-4076-855c-c73057a2eb75"},"vehicle_type_id":"4","last_reported":1704319587,"current_range_meters":24800,"station_id":"cki0cbj6b192h4jlfktg","pricing_plan_id":"free"},{"bike_id":"ee747d99-7ab0-4558-8ea7-76fae17e5a54","system_id":"levelo_inurba_marseille","lat":43.28727,"lon":5.36078,"is_reserved":false,"is_disabled":false,"rental_uris":{"android":"levelo://app?vid=ee747d99-7ab0-4558-8ea7-76fae17e5a54","ios":"levelo://app?vid=ee747d99-7ab0-4558-8ea7-76fae17e5a54"},"vehicle_type_id":"4","last_reported":1704319587,"current_range_meters":18000,"station_id":"cki0cbj6b192h4jlfktg","pricing_plan_id":"free"},{"bike_id":"1fae5872-4781-4be3-a7e3-08510609eb2a","system_id":"levelo_inurba_marseille","lat":43.28727,"lon":5.36078,"is_reserved":false,"is_disabled":false,"rental_uris":{"android":"levelo://app?vid=1fae5872-4781-4be3-a7e3-08510609eb2a","ios":"levelo://app?vid=1fae5872-4781-4be3-a7e3-08510609eb2a"},"vehicle_type_id":"4","last_reported":1704319587,"current_range_meters":27200,"station_id":"cki0cbj6b192h4jlfktg","pricing_plan_id":"free"},{"bike_id":"f963ecae-ccdf-4b8b-8e48-49346eba778a","system_id":"levelo_inurba_marseille","lat":43.28727,"lon":5.36078,"is_reserved":false,"is_disabled":false,"rental_uris":{"android":"levelo://app?vid=f963ecae-ccdf-4b8b-8e48-49346eba778a","ios":"levelo://app?vid=f963ecae-ccdf-4b8b-8e48-49346eba778a"},"vehicle_type_id":"4","last_reported":1704319587,"current_range_meters":28800,"station_id":"cki0cbj6b192h4jlfktg","pricing_plan_id":"free"},{"bike_id":"1f0dcbee-eb1b-4e7d-9660-30633d5155a8","system_id":"levelo_inurba_marseille","lat":43.295194,"lon":5.39397,"is_reserved":false,"is_disabled":false,"rental_uris":{"android":"levelo://app?vid=1f0dcbee-eb1b-4e7d-9660-30633d5155a8","ios":"levelo://app?vid=1f0dcbee-eb1b-4e7d-9660-30633d5155a8"},"vehicle_type_id":"4","last_reported":1704319587,"current_range_meters":0,"station_id":"ce4bh292rcd13ifvqdf0","pricing_plan_id":"free"},{"bike_id":"bd589349-f934-487d-b977-56ae9ba872a0","system_id":"levelo_inurba_marseille","lat":43.30237,"lon":5.4006,"is_reserved":false,"is_disabled":false,"rental_uris":{"android":"levelo://app?vid=bd589349-f934-487d-b977-56ae9ba872a0","ios":"levelo://app?vid=bd589349-f934-487d-b977-56ae9ba872a0"},"vehicle_type_id":"4","last_reported":1704319587,"current_range_meters":28000,"station_id":"ce4bgvh2rcd13ifvqcs0","pricing_plan_id":"free"},{"bike_id":"cdb06be7-c0af-42a1-bc4d-e55e9f42e758","system_id":"levelo_inurba_marseille","lat":43.302759,"lon":5.400793,"is_reserved":false,"is_disabled":false,"rental_uris":{"android":"levelo://app?vid=cdb06be7-c0af-42a1-bc4d-e55e9f42e758","ios":"levelo://app?vid=cdb06be7-c0af-42a1-bc4d-e55e9f42e758"},"vehicle_type_id":"4","last_reported":1704319587,"current_range_meters":13200,"station_id":"ce4bgvh2rcd13ifvqcs0","pricing_plan_id":"free"},{"bike_id":"e2139c56-bed7-4f11-be18-0b4e121aa7b2","system_id":"levelo_inurba_marseille","lat":43.302759,"lon":5.400793,"is_reserved":false,"is_disabled":false,"rental_uris":{"android":"levelo://app?vid=e2139c56-bed7-4f11-be18-0b4e121aa7b2","ios":"levelo://app?vid=e2139c56-bed7-4f11-be18-0b4e121aa7b2"},"vehicle_type_id":"4","last_reported":1704319587,"current_range_meters":3600,"station_id":"ce4bgvh2rcd13ifvqcs0","pricing_plan_id":"free"},{"bike_id":"aa5bb3f1-bcce-4e74-9c9e-464524cf44e0","system_id":"levelo_inurba_marseille","lat":43.286039,"lon":5.370679,"is_reserved":false,"is_disabled":false,"rental_uris":{"android":"levelo://app?vid=aa5bb3f1-bcce-4e74-9c9e-464524cf44e0","ios":"levelo://app?vid=aa5bb3f1-bcce-4e74-9c9e-464524cf44e0"},"vehicle_type_id":"4","last_reported":1704319587,"current_range_meters":30400,"station_id":"ce4bht12rcd13ifvqi60","pricing_plan_id":"free"},{"bike_id":"d9b38e0d-2caa-46a3-9c01-8676640e9f06","system_id":"levelo_inurba_marseille","lat":43.286039,"lon":5.370679,"is_reserved":false,"is_disabled":false,"rental_uris":{"android":"levelo://app?vid=d9b38e0d-2caa-46a3-9c01-8676640e9f06","ios":"levelo://app?vid=d9b38e0d-2caa-46a3-9c01-8676640e9f06"},"vehicle_type_id":"4","last_reported":1704319587,"current_range_meters":29600,"station_id":"ce4bht12rcd13ifvqi60","pricing_plan_id":"free"},{"bike_id":"b38d273d-471b-40a9-bbb8-6bec5eb8d6a6","system_id":"levelo_inurba_marseille","lat":43.283998,"lon":5.375062,"is_reserved":false,"is_disabled":false,"rental_uris":{"android":"levelo://app?vid=b38d273d-471b-40a9-bbb8-6bec5eb8d6a6","ios":"levelo://app?vid=b38d273d-471b-40a9-bbb8-6bec5eb8d6a6"},"vehicle_type_id":"4","last_reported":1704319587,"current_range_meters":8800,"station_id":"ce4bh412rcd13ifvqds0","pricing_plan_id":"free"},{"bike_id":"4fbd45c9-7045-4421-a97b-bf0c706479e3","system_id":"levelo_inurba_marseille","lat":43.291994,"lon":5.392907,"is_reserved":false,"is_disabled":false,"rental_uris":{"android":"levelo://app?vid=4fbd45c9-7045-4421-a97b-bf0c706479e3","ios":"levelo://app?vid=4fbd45c9-7045-4421-a97b-bf0c706479e3"},"vehicle_type_id":"4","last_reported":1704319587,"current_range_meters":20800,"station_id":"ce4bh192rcd13ifvqdd0","pricing_plan_id":"free"},{"bike_id":"34ec17a6-d185-4369-bfe4-bf05322ff164","system_id":"levelo_inurba_marseille","lat":43.284538,"lon":5.358657,"is_reserved":false,"is_disabled":false,"rental_uris":{"android":"levelo://app?vid=34ec17a6-d185-4369-bfe4-bf05322ff164","ios":"levelo://app?vid=34ec17a6-d185-4369-bfe4-bf05322ff164"},"vehicle_type_id":"4","last_reported":1704319587,"current_range_meters":1600,"station_id":"ce4bhah2rcd13ifvqei0","pricing_plan_id":"free"},{"bike_id":"88afa295-32a3-4b25-89ad-670682989bfd","system_id":"levelo_inurba_marseille","lat":43.284538,"lon":5.358657,"is_reserved":false,"is_disabled":false,"rental_uris":{"android":"levelo://app?vid=88afa295-32a3-4b25-89ad-670682989bfd","ios":"levelo://app?vid=88afa295-32a3-4b25-89ad-670682989bfd"},"vehicle_type_id":"4","last_reported":1704319587,"current_range_meters":30800,"station_id":"ce4bhah2rcd13ifvqei0","pricing_plan_id":"free"},{"bike_id":"2e6e1b10-2a59-439b-b09f-1bec5be7d09b","system_id":"levelo_inurba_marseille","lat":43.284538,"lon":5.358657,"is_reserved":false,"is_disabled":false,"rental_uris":{"android":"levelo://app?vid=2e6e1b10-2a59-439b-b09f-1bec5be7d09b","ios":"levelo://app?vid=2e6e1b10-2a59-439b-b09f-1bec5be7d09b"},"vehicle_type_id":"4","last_reported":1704319587,"current_range_meters":2000,"station_id":"ce4bhah2rcd13ifvqei0","pricing_plan_id":"free"},{"bike_id":"6c8119c2-1ef3-4b9b-b519-f9b051faeebf","system_id":"levelo_inurba_marseille","lat":43.284538,"lon":5.358657,"is_reserved":false,"is_disabled":false,"rental_uris":{"android":"levelo://app?vid=6c8119c2-1ef3-4b9b-b519-f9b051faeebf","ios":"levelo://app?vid=6c8119c2-1ef3-4b9b-b519-f9b051faeebf"},"vehicle_type_id":"4","last_reported":1704319587,"current_range_meters":15200,"station_id":"ce4bhah2rcd13ifvqei0","pricing_plan_id":"free"},{"bike_id":"882bd401-922a-4184-a88e-edbe8ae0adc3","system_id":"levelo_inurba_marseille","lat":43.284534,"lon":5.358662,"is_reserved":false,"is_disabled":false,"rental_uris":{"android":"levelo://app?vid=882bd401-922a-4184-a88e-edbe8ae0adc3","ios":"levelo://app?vid=882bd401-922a-4184-a88e-edbe8ae0adc3"},"vehicle_type_id":"4","last_reported":1704319587,"current_range_meters":14800,"station_id":"ce4bhah2rcd13ifvqei0","pricing_plan_id":"free"},{"bike_id":"3f2d67b5-1b70-4dca-a662-d18b710194fe","system_id":"levelo_inurba_marseille","lat":43.29842,"lon":5.4015,"is_reserved":false,"is_disabled":false,"rental_uris":{"android":"levelo://app?vid=3f2d67b5-1b70-4dca-a662-d18b710194fe","ios":"levelo://app?vid=3f2d67b5-1b70-4dca-a662-d18b710194fe"},"vehicle_type_id":"4","last_reported":1704319587,"current_range_meters":15600,"station_id":"","pricing_plan_id":"free"},{"bike_id":"fca0bf88-899f-4725-97f5-5bfaf2f057ae","system_id":"levelo_inurba_marseille","lat":43.283998,"lon":5.375062,"is_reserved":false,"is_disabled":false,"rental_uris":{"android":"levelo://app?vid=fca0bf88-899f-4725-97f5-5bfaf2f057ae","ios":"levelo://app?vid=fca0bf88-899f-4725-97f5-5bfaf2f057ae"},"vehicle_type_id":"4","last_reported":1704319587,"current_range_meters":12000,"station_id":"ce4bh412rcd13ifvqds0","pricing_plan_id":"free"},{"bike_id":"f99006df-0376-429f-ab2e-144629f2fc8b","system_id":"levelo_inurba_marseille","lat":43.283998,"lon":5.375062,"is_reserved":false,"is_disabled":false,"rental_uris":{"android":"levelo://app?vid=f99006df-0376-429f-ab2e-144629f2fc8b","ios":"levelo://app?vid=f99006df-0376-429f-ab2e-144629f2fc8b"},"vehicle_type_id":"4","last_reported":1704319587,"current_range_meters":0,"station_id":"ce4bh412rcd13ifvqds0","pricing_plan_id":"free"},{"bike_id":"b1bef3c5-048e-429b-b10c-8728ac9f777d","system_id":"levelo_inurba_marseille","lat":43.284066,"lon":5.375244,"is_reserved":false,"is_disabled":false,"rental_uris":{"android":"levelo://app?vid=b1bef3c5-048e-429b-b10c-8728ac9f777d","ios":"levelo://app?vid=b1bef3c5-048e-429b-b10c-8728ac9f777d"},"vehicle_type_id":"4","last_reported":1704319587,"current_range_meters":28800,"station_id":"ce4bh412rcd13ifvqds0","pricing_plan_id":"free"},{"bike_id":"43ec9d4c-b344-4bbb-8c44-6cd9b856d382","system_id":"levelo_inurba_marseille","lat":43.33717,"lon":5.391857,"is_reserved":false,"is_disabled":false,"rental_uris":{"android":"levelo://app?vid=43ec9d4c-b344-4bbb-8c44-6cd9b856d382","ios":"levelo://app?vid=43ec9d4c-b344-4bbb-8c44-6cd9b856d382"},"vehicle_type_id":"4","last_reported":1704319587,"current_range_meters":23200,"station_id":"ce4bhr92rcd13ifvqhsg","pricing_plan_id":"free"},{"bike_id":"082792e7-54cb-43b3-95ca-69faa85d1d94","system_id":"levelo_inurba_marseille","lat":43.323464,"lon":5.406297,"is_reserved":false,"is_disabled":false,"rental_uris":{"android":"levelo://app?vid=082792e7-54cb-43b3-95ca-69faa85d1d94","ios":"levelo://app?vid=082792e7-54cb-43b3-95ca-69faa85d1d94"},"vehicle_type_id":"4","last_reported":1704319587,"current_range_meters":0,"station_id":"ce4bhq92rcd13ifvqhjg","pricing_plan_id":"free"},{"bike_id":"5e57c7c1-bfc5-49c6-9e57-613a538e8d1e","system_id":"levelo_inurba_marseille","lat":43.323464,"lon":5.406297,"is_reserved":false,"is_disabled":false,"rental_uris":{"android":"levelo://app?vid=5e57c7c1-bfc5-49c6-9e57-613a538e8d1e","ios":"levelo://app?vid=5e57c7c1-bfc5-49c6-9e57-613a538e8d1e"},"vehicle_type_id":"4","last_reported":1704319587,"current_range_meters":8400,"station_id":"ce4bhq92rcd13ifvqhjg","pricing_plan_id":"free"},{"bike_id":"2556f8a3-f1f0-4cdc-9edd-a7f3cfcea9a9","system_id":"levelo_inurba_marseille","lat":43.323464,"lon":5.406297,"is_reserved":false,"is_disabled":false,"rental_uris":{"android":"levelo://app?vid=2556f8a3-f1f0-4cdc-9edd-a7f3cfcea9a9","ios":"levelo://app?vid=2556f8a3-f1f0-4cdc-9edd-a7f3cfcea9a9"},"vehicle_type_id":"4","last_reported":1704319587,"current_range_meters":25200,"station_id":"ce4bhq92rcd13ifvqhjg","pricing_plan_id":"free"},{"bike_id":"65db4aa8-5732-4715-953c-0158f0555c99","system_id":"levelo_inurba_marseille","lat":43.297946,"lon":5.404063,"is_reserved":false,"is_disabled":false,"rental_uris":{"android":"levelo://app?vid=65db4aa8-5732-4715-953c-0158f0555c99","ios":"levelo://app?vid=65db4aa8-5732-4715-953c-0158f0555c99"},"vehicle_type_id":"4","last_reported":1704319587,"current_range_meters":28000,"station_id":"ce4bh112rcd13ifvqd90","pricing_plan_id":"free"},{"bike_id":"48478032-24ff-4a62-b7b9-f8dc3f685e26","system_id":"levelo_inurba_marseille","lat":43.288501,"lon":5.393087,"is_reserved":false,"is_disabled":false,"rental_uris":{"android":"levelo://app?vid=48478032-24ff-4a62-b7b9-f8dc3f685e26","ios":"levelo://app?vid=48478032-24ff-4a62-b7b9-f8dc3f685e26"},"vehicle_type_id":"4","last_reported":1704319587,"current_range_meters":18000,"station_id":"ce4bh2p2rcd13ifvqdi0","pricing_plan_id":"free"},{"bike_id":"4cc32faf-c266-4535-bdff-c42098dbefc9","system_id":"levelo_inurba_marseille","lat":43.321581,"lon":5.407889,"is_reserved":false,"is_disabled":false,"rental_uris":{"android":"levelo://app?vid=4cc32faf-c266-4535-bdff-c42098dbefc9","ios":"levelo://app?vid=4cc32faf-c266-4535-bdff-c42098dbefc9"},"vehicle_type_id":"4","last_reported":1704319587,"current_range_meters":18000,"station_id":"","pricing_plan_id":"free"},{"bike_id":"5607b82e-c24d-48bb-b8c0-72ad09f5173b","system_id":"levelo_inurba_marseille","lat":43.287154,"lon":5.399979,"is_reserved":false,"is_disabled":false,"rental_uris":{"android":"levelo://app?vid=5607b82e-c24d-48bb-b8c0-72ad09f5173b","ios":"levelo://app?vid=5607b82e-c24d-48bb-b8c0-72ad09f5173b"},"vehicle_type_id":"4","last_reported":1704319587,"current_range_meters":12000,"station_id":"ce4bho92rcd13ifvqh3g","pricing_plan_id":"free"},{"bike_id":"b4304143-a21f-4cfe-b2a2-5c2bb5bb69d2","system_id":"levelo_inurba_marseille","lat":43.282744,"lon":5.350533,"is_reserved":false,"is_disabled":false,"rental_uris":{"android":"levelo://app?vid=b4304143-a21f-4cfe-b2a2-5c2bb5bb69d2","ios":"levelo://app?vid=b4304143-a21f-4cfe-b2a2-5c2bb5bb69d2"},"vehicle_type_id":"4","last_reported":1704319587,"current_range_meters":28000,"station_id":"ce4bhbp2rcd13ifvqerg","pricing_plan_id":"free"},{"bike_id":"79837741-56a5-43d5-82bd-fc00e6332b2a","system_id":"levelo_inurba_marseille","lat":43.282703,"lon":5.350623,"is_reserved":false,"is_disabled":false,"rental_uris":{"android":"levelo://app?vid=79837741-56a5-43d5-82bd-fc00e6332b2a","ios":"levelo://app?vid=79837741-56a5-43d5-82bd-fc00e6332b2a"},"vehicle_type_id":"4","last_reported":1704319587,"current_range_meters":12000,"station_id":"ce4bhbp2rcd13ifvqerg","pricing_plan_id":"free"},{"bike_id":"d3ac3657-04c4-4aaf-a57b-f670a94b258d","system_id":"levelo_inurba_marseille","lat":43.282754,"lon":5.350519,"is_reserved":false,"is_disabled":false,"rental_uris":{"android":"levelo://app?vid=d3ac3657-04c4-4aaf-a57b-f670a94b258d","ios":"levelo://app?vid=d3ac3657-04c4-4aaf-a57b-f670a94b258d"},"vehicle_type_id":"4","last_reported":1704319587,"current_range_meters":19200,"station_id":"ce4bhbp2rcd13ifvqerg","pricing_plan_id":"free"},{"bike_id":"20004556-0887-4fdf-9eae-029b2009dac5","system_id":"levelo_inurba_marseille","lat":43.282744,"lon":5.350533,"is_reserved":false,"is_disabled":false,"rental_uris":{"android":"levelo://app?vid=20004556-0887-4fdf-9eae-029b2009dac5","ios":"levelo://app?vid=20004556-0887-4fdf-9eae-029b2009dac5"},"vehicle_type_id":"4","last_reported":1704319587,"current_range_meters":27200,"station_id":"ce4bhbp2rcd13ifvqerg","pricing_plan_id":"free"},{"bike_id":"59e9c861-4538-413b-b990-baf404440911","system_id":"levelo_inurba_marseille","lat":43.282754,"lon":5.350519,"is_reserved":false,"is_disabled":false,"rental_uris":{"android":"levelo://app?vid=59e9c861-4538-413b-b990-baf404440911","ios":"levelo://app?vid=59e9c861-4538-413b-b990-baf404440911"},"vehicle_type_id":"4","last_reported":1704319587,"current_range_meters":25200,"station_id":"ce4bhbp2rcd13ifvqerg","pricing_plan_id":"free"},{"bike_id":"fe934f54-0c59-486f-9cb5-6169b78b7007","system_id":"levelo_inurba_marseille","lat":43.28039,"lon":5.369297,"is_reserved":false,"is_disabled":false,"rental_uris":{"android":"levelo://app?vid=fe934f54-0c59-486f-9cb5-6169b78b7007","ios":"levelo://app?vid=fe934f54-0c59-486f-9cb5-6169b78b7007"},"vehicle_type_id":"4","last_reported":1704319587,"current_range_meters":18400,"station_id":"ce4bha12rcd13ifvqef0","pricing_plan_id":"free"},{"bike_id":"35ff1647-a820-4cae-b68f-04ab6aa16600","system_id":"levelo_inurba_marseille","lat":43.282744,"lon":5.350533,"is_reserved":false,"is_disabled":false,"rental_uris":{"android":"levelo://app?vid=35ff1647-a820-4cae-b68f-04ab6aa16600","ios":"levelo://app?vid=35ff1647-a820-4cae-b68f-04ab6aa16600"},"vehicle_type_id":"4","last_reported":1704319587,"current_range_meters":25200,"station_id":"ce4bhbp2rcd13ifvqerg","pricing_plan_id":"free"},{"bike_id":"4261d6ff-4f16-44d7-8f0f-aaefc83d2c9b","system_id":"levelo_inurba_marseille","lat":43.282754,"lon":5.350519,"is_reserved":false,"is_disabled":false,"rental_uris":{"android":"levelo://app?vid=4261d6ff-4f16-44d7-8f0f-aaefc83d2c9b","ios":"levelo://app?vid=4261d6ff-4f16-44d7-8f0f-aaefc83d2c9b"},"vehicle_type_id":"4","last_reported":1704319587,"current_range_meters":0,"station_id":"ce4bhbp2rcd13ifvqerg","pricing_plan_id":"free"},{"bike_id":"3b207d8c-7d10-4ce3-8bb1-5bcc943e7018","system_id":"levelo_inurba_marseille","lat":43.280382,"lon":5.369291,"is_reserved":false,"is_disabled":false,"rental_uris":{"android":"levelo://app?vid=3b207d8c-7d10-4ce3-8bb1-5bcc943e7018","ios":"levelo://app?vid=3b207d8c-7d10-4ce3-8bb1-5bcc943e7018"},"vehicle_type_id":"4","last_reported":1704319587,"current_range_meters":27600,"station_id":"ce4bha12rcd13ifvqef0","pricing_plan_id":"free"},{"bike_id":"075ec188-24e0-48c7-bf1c-350c61527bb3","system_id":"levelo_inurba_marseille","lat":43.280382,"lon":5.369291,"is_reserved":false,"is_disabled":false,"rental_uris":{"android":"levelo://app?vid=075ec188-24e0-48c7-bf1c-350c61527bb3","ios":"levelo://app?vid=075ec188-24e0-48c7-bf1c-350c61527bb3"},"vehicle_type_id":"4","last_reported":1704319587,"current_range_meters":10000,"station_id":"ce4bha12rcd13ifvqef0","pricing_plan_id":"free"},{"bike_id":"b0d71ed9-2e4a-4896-80b1-f614c14a0d2d","system_id":"levelo_inurba_marseille","lat":43.28039,"lon":5.369297,"is_reserved":false,"is_disabled":false,"rental_uris":{"android":"levelo://app?vid=b0d71ed9-2e4a-4896-80b1-f614c14a0d2d","ios":"levelo://app?vid=b0d71ed9-2e4a-4896-80b1-f614c14a0d2d"},"vehicle_type_id":"4","last_reported":1704319587,"current_range_meters":27600,"station_id":"ce4bha12rcd13ifvqef0","pricing_plan_id":"free"},{"bike_id":"6254bdab-07b9-439b-8746-e31872d56418","system_id":"levelo_inurba_marseille","lat":43.280382,"lon":5.369291,"is_reserved":false,"is_disabled":false,"rental_uris":{"android":"levelo://app?vid=6254bdab-07b9-439b-8746-e31872d56418","ios":"levelo://app?vid=6254bdab-07b9-439b-8746-e31872d56418"},"vehicle_type_id":"4","last_reported":1704319587,"current_range_meters":0,"station_id":"ce4bha12rcd13ifvqef0","pricing_plan_id":"free"},{"bike_id":"ca8910e0-3d77-4389-b3d6-e271926a2518","system_id":"levelo_inurba_marseille","lat":43.28039,"lon":5.369297,"is_reserved":false,"is_disabled":false,"rental_uris":{"android":"levelo://app?vid=ca8910e0-3d77-4389-b3d6-e271926a2518","ios":"levelo://app?vid=ca8910e0-3d77-4389-b3d6-e271926a2518"},"vehicle_type_id":"4","last_reported":1704319587,"current_range_meters":24400,"station_id":"ce4bha12rcd13ifvqef0","pricing_plan_id":"free"},{"bike_id":"982059e8-6b3a-416b-83e7-21a0811799d8","system_id":"levelo_inurba_marseille","lat":43.296263,"lon":5.40601,"is_reserved":false,"is_disabled":false,"rental_uris":{"android":"levelo://app?vid=982059e8-6b3a-416b-83e7-21a0811799d8","ios":"levelo://app?vid=982059e8-6b3a-416b-83e7-21a0811799d8"},"vehicle_type_id":"4","last_reported":1704319587,"current_range_meters":14000,"station_id":"ce4bh0h2rcd13ifvqd60","pricing_plan_id":"free"},{"bike_id":"18632d31-3e4c-4088-ab2e-8444973ca7f0","system_id":"levelo_inurba_marseille","lat":43.281044,"lon":5.378308,"is_reserved":false,"is_disabled":false,"rental_uris":{"android":"levelo://app?vid=18632d31-3e4c-4088-ab2e-8444973ca7f0","ios":"levelo://app?vid=18632d31-3e4c-4088-ab2e-8444973ca7f0"},"vehicle_type_id":"4","last_reported":1704319587,"current_range_meters":26400,"station_id":"ce4bha12rcd13ifvqee0","pricing_plan_id":"free"},{"bike_id":"4d52a8d5-ba44-4cfb-a922-dd31ec5fdc50","system_id":"levelo_inurba_marseille","lat":43.296263,"lon":5.40601,"is_reserved":false,"is_disabled":false,"rental_uris":{"android":"levelo://app?vid=4d52a8d5-ba44-4cfb-a922-dd31ec5fdc50","ios":"levelo://app?vid=4d52a8d5-ba44-4cfb-a922-dd31ec5fdc50"},"vehicle_type_id":"4","last_reported":1704319587,"current_range_meters":18400,"station_id":"ce4bh0h2rcd13ifvqd60","pricing_plan_id":"free"},{"bike_id":"507cc011-b0f1-407e-a4ca-21f10d36b9b3","system_id":"levelo_inurba_marseille","lat":43.281044,"lon":5.378308,"is_reserved":false,"is_disabled":false,"rental_uris":{"android":"levelo://app?vid=507cc011-b0f1-407e-a4ca-21f10d36b9b3","ios":"levelo://app?vid=507cc011-b0f1-407e-a4ca-21f10d36b9b3"},"vehicle_type_id":"4","last_reported":1704319587,"current_range_meters":24400,"station_id":"ce4bha12rcd13ifvqee0","pricing_plan_id":"free"},{"bike_id":"a7c83247-f085-42c0-9a46-a48991a33818","system_id":"levelo_inurba_marseille","lat":43.3042,"lon":5.41278,"is_reserved":false,"is_disabled":false,"rental_uris":{"android":"levelo://app?vid=a7c83247-f085-42c0-9a46-a48991a33818","ios":"levelo://app?vid=a7c83247-f085-42c0-9a46-a48991a33818"},"vehicle_type_id":"4","last_reported":1704319587,"current_range_meters":14400,"station_id":"ce4bhop2rcd13ifvqh8g","pricing_plan_id":"free"},{"bike_id":"90460afc-a2a8-4672-b9b9-f55cb56990a6","system_id":"levelo_inurba_marseille","lat":43.287154,"lon":5.399979,"is_reserved":false,"is_disabled":false,"rental_uris":{"android":"levelo://app?vid=90460afc-a2a8-4672-b9b9-f55cb56990a6","ios":"levelo://app?vid=90460afc-a2a8-4672-b9b9-f55cb56990a6"},"vehicle_type_id":"4","last_reported":1704319587,"current_range_meters":14800,"station_id":"ce4bho92rcd13ifvqh3g","pricing_plan_id":"free"},{"bike_id":"f5f5ddfa-53b7-4474-8b50-2ffc41634d8f","system_id":"levelo_inurba_marseille","lat":43.287154,"lon":5.399979,"is_reserved":false,"is_disabled":false,"rental_uris":{"android":"levelo://app?vid=f5f5ddfa-53b7-4474-8b50-2ffc41634d8f","ios":"levelo://app?vid=f5f5ddfa-53b7-4474-8b50-2ffc41634d8f"},"vehicle_type_id":"4","last_reported":1704319587,"current_range_meters":23200,"station_id":"ce4bho92rcd13ifvqh3g","pricing_plan_id":"free"},{"bike_id":"ba05efc3-a9d2-4cf4-947a-92d723818626","system_id":"levelo_inurba_marseille","lat":43.287154,"lon":5.399979,"is_reserved":false,"is_disabled":false,"rental_uris":{"android":"levelo://app?vid=ba05efc3-a9d2-4cf4-947a-92d723818626","ios":"levelo://app?vid=ba05efc3-a9d2-4cf4-947a-92d723818626"},"vehicle_type_id":"4","last_reported":1704319587,"current_range_meters":22800,"station_id":"ce4bho92rcd13ifvqh3g","pricing_plan_id":"free"},{"bike_id":"1d7d0b44-395f-4e21-af9d-8af1ed86a5aa","system_id":"levelo_inurba_marseille","lat":43.299579,"lon":5.413255,"is_reserved":false,"is_disabled":false,"rental_uris":{"android":"levelo://app?vid=1d7d0b44-395f-4e21-af9d-8af1ed86a5aa","ios":"levelo://app?vid=1d7d0b44-395f-4e21-af9d-8af1ed86a5aa"},"vehicle_type_id":"4","last_reported":1704319587,"current_range_meters":26400,"station_id":"ce4bhp12rcd13ifvqh9g","pricing_plan_id":"free"},{"bike_id":"02dc6bf8-b86b-45d2-ab19-c826c5a07329","system_id":"levelo_inurba_marseille","lat":43.292569,"lon":5.409107,"is_reserved":false,"is_disabled":false,"rental_uris":{"android":"levelo://app?vid=02dc6bf8-b86b-45d2-ab19-c826c5a07329","ios":"levelo://app?vid=02dc6bf8-b86b-45d2-ab19-c826c5a07329"},"vehicle_type_id":"4","last_reported":1704319587,"current_range_meters":6800,"station_id":"ce4bh192rcd13ifvqdc0","pricing_plan_id":"free"},{"bike_id":"a6acb381-8335-4168-b2a7-2a29f6b40d67","system_id":"levelo_inurba_marseille","lat":43.292569,"lon":5.409107,"is_reserved":false,"is_disabled":false,"rental_uris":{"android":"levelo://app?vid=a6acb381-8335-4168-b2a7-2a29f6b40d67","ios":"levelo://app?vid=a6acb381-8335-4168-b2a7-2a29f6b40d67"},"vehicle_type_id":"4","last_reported":1704319587,"current_range_meters":28400,"station_id":"ce4bh192rcd13ifvqdc0","pricing_plan_id":"free"},{"bike_id":"daed1a10-5684-4e7b-ac05-a38a9363c91a","system_id":"levelo_inurba_marseille","lat":43.27618,"lon":5.361009,"is_reserved":false,"is_disabled":false,"rental_uris":{"android":"levelo://app?vid=daed1a10-5684-4e7b-ac05-a38a9363c91a","ios":"levelo://app?vid=daed1a10-5684-4e7b-ac05-a38a9363c91a"},"vehicle_type_id":"4","last_reported":1704319587,"current_range_meters":11600,"station_id":"ce4bgj92rcd13ifvqbe0","pricing_plan_id":"free"},{"bike_id":"4f3c4b35-1a8a-4753-883a-ffb2abf7b491","system_id":"levelo_inurba_marseille","lat":43.278401,"lon":5.392152,"is_reserved":false,"is_disabled":false,"rental_uris":{"android":"levelo://app?vid=4f3c4b35-1a8a-4753-883a-ffb2abf7b491","ios":"levelo://app?vid=4f3c4b35-1a8a-4753-883a-ffb2abf7b491"},"vehicle_type_id":"4","last_reported":1704319587,"current_range_meters":12400,"station_id":"ce4bhjp2rcd13ifvqga0","pricing_plan_id":"free"},{"bike_id":"d3f25bcc-da64-44bb-8495-bf854b2f447f","system_id":"levelo_inurba_marseille","lat":43.3244,"lon":5.4165,"is_reserved":false,"is_disabled":false,"rental_uris":{"android":"levelo://app?vid=d3f25bcc-da64-44bb-8495-bf854b2f447f","ios":"levelo://app?vid=d3f25bcc-da64-44bb-8495-bf854b2f447f"},"vehicle_type_id":"4","last_reported":1704319587,"current_range_meters":20400,"station_id":"","pricing_plan_id":"free"},{"bike_id":"878989f4-64e5-45eb-97fd-e2c865789826","system_id":"levelo_inurba_marseille","lat":43.280784,"lon":5.396622,"is_reserved":false,"is_disabled":false,"rental_uris":{"android":"levelo://app?vid=878989f4-64e5-45eb-97fd-e2c865789826","ios":"levelo://app?vid=878989f4-64e5-45eb-97fd-e2c865789826"},"vehicle_type_id":"4","last_reported":1704319587,"current_range_meters":29200,"station_id":"ce4bho12rcd13ifvqh2g","pricing_plan_id":"free"},{"bike_id":"cce89fc2-8980-4e8a-91b4-3d474529ae07","system_id":"levelo_inurba_marseille","lat":43.280784,"lon":5.396622,"is_reserved":false,"is_disabled":false,"rental_uris":{"android":"levelo://app?vid=cce89fc2-8980-4e8a-91b4-3d474529ae07","ios":"levelo://app?vid=cce89fc2-8980-4e8a-91b4-3d474529ae07"},"vehicle_type_id":"4","last_reported":1704319587,"current_range_meters":16800,"station_id":"ce4bho12rcd13ifvqh2g","pricing_plan_id":"free"},{"bike_id":"b9a1018b-98c0-40cc-b70b-a44718d2ac32","system_id":"levelo_inurba_marseille","lat":43.303837,"lon":5.418724,"is_reserved":false,"is_disabled":false,"rental_uris":{"android":"levelo://app?vid=b9a1018b-98c0-40cc-b70b-a44718d2ac32","ios":"levelo://app?vid=b9a1018b-98c0-40cc-b70b-a44718d2ac32"},"vehicle_type_id":"4","last_reported":1704319587,"current_range_meters":24400,"station_id":"ce4bhop2rcd13ifvqh7g","pricing_plan_id":"free"},{"bike_id":"a19da322-8f75-4d36-906d-e15866d82b2a","system_id":"levelo_inurba_marseille","lat":43.303837,"lon":5.418724,"is_reserved":false,"is_disabled":false,"rental_uris":{"android":"levelo://app?vid=a19da322-8f75-4d36-906d-e15866d82b2a","ios":"levelo://app?vid=a19da322-8f75-4d36-906d-e15866d82b2a"},"vehicle_type_id":"4","last_reported":1704319587,"current_range_meters":30800,"station_id":"ce4bhop2rcd13ifvqh7g","pricing_plan_id":"free"},{"bike_id":"597fdc60-d067-454d-ba56-9fca8506c19e","system_id":"levelo_inurba_marseille","lat":43.278399,"lon":5.392139,"is_reserved":false,"is_disabled":false,"rental_uris":{"android":"levelo://app?vid=597fdc60-d067-454d-ba56-9fca8506c19e","ios":"levelo://app?vid=597fdc60-d067-454d-ba56-9fca8506c19e"},"vehicle_type_id":"4","last_reported":1704319587,"current_range_meters":12000,"station_id":"ce4bhjp2rcd13ifvqga0","pricing_plan_id":"free"},{"bike_id":"d5f5a5fb-c938-4060-bf78-ced0700a3796","system_id":"levelo_inurba_marseille","lat":43.273613,"lon":5.362705,"is_reserved":false,"is_disabled":false,"rental_uris":{"android":"levelo://app?vid=d5f5a5fb-c938-4060-bf78-ced0700a3796","ios":"levelo://app?vid=d5f5a5fb-c938-4060-bf78-ced0700a3796"},"vehicle_type_id":"4","last_reported":1704319587,"current_range_meters":18800,"station_id":"ce4bhbh2rcd13ifvqeo0","pricing_plan_id":"free"},{"bike_id":"f45cfe6c-a41e-433b-bf03-cc60508fd616","system_id":"levelo_inurba_marseille","lat":43.33601,"lon":5.4103,"is_reserved":false,"is_disabled":false,"rental_uris":{"android":"levelo://app?vid=f45cfe6c-a41e-433b-bf03-cc60508fd616","ios":"levelo://app?vid=f45cfe6c-a41e-433b-bf03-cc60508fd616"},"vehicle_type_id":"4","last_reported":1704319587,"current_range_meters":10400,"station_id":"ce4bhqh2rcd13ifvqhmg","pricing_plan_id":"free"},{"bike_id":"d682dc1a-c124-4647-b348-bd2d055b569e","system_id":"levelo_inurba_marseille","lat":43.336134,"lon":5.410341,"is_reserved":false,"is_disabled":false,"rental_uris":{"android":"levelo://app?vid=d682dc1a-c124-4647-b348-bd2d055b569e","ios":"levelo://app?vid=d682dc1a-c124-4647-b348-bd2d055b569e"},"vehicle_type_id":"4","last_reported":1704319587,"current_range_meters":15200,"station_id":"ce4bhqh2rcd13ifvqhmg","pricing_plan_id":"free"},{"bike_id":"20832136-1247-4fb2-a6b1-acf0507e0287","system_id":"levelo_inurba_marseille","lat":43.336148,"lon":5.410349,"is_reserved":false,"is_disabled":false,"rental_uris":{"android":"levelo://app?vid=20832136-1247-4fb2-a6b1-acf0507e0287","ios":"levelo://app?vid=20832136-1247-4fb2-a6b1-acf0507e0287"},"vehicle_type_id":"4","last_reported":1704319587,"current_range_meters":30000,"station_id":"ce4bhqh2rcd13ifvqhmg","pricing_plan_id":"free"},{"bike_id":"2adc39e4-adca-4267-9b58-11106d541d95","system_id":"levelo_inurba_marseille","lat":43.336134,"lon":5.410341,"is_reserved":false,"is_disabled":false,"rental_uris":{"android":"levelo://app?vid=2adc39e4-adca-4267-9b58-11106d541d95","ios":"levelo://app?vid=2adc39e4-adca-4267-9b58-11106d541d95"},"vehicle_type_id":"4","last_reported":1704319587,"current_range_meters":26800,"station_id":"ce4bhqh2rcd13ifvqhmg","pricing_plan_id":"free"},{"bike_id":"8b7f6744-3004-4de7-b660-f47fcfea96b7","system_id":"levelo_inurba_marseille","lat":43.275625,"lon":5.384392,"is_reserved":false,"is_disabled":false,"rental_uris":{"android":"levelo://app?vid=8b7f6744-3004-4de7-b660-f47fcfea96b7","ios":"levelo://app?vid=8b7f6744-3004-4de7-b660-f47fcfea96b7"},"vehicle_type_id":"4","last_reported":1704319587,"current_range_meters":2000,"station_id":"ce4bhh92rcd13ifvqfi0","pricing_plan_id":"free"},{"bike_id":"1406b64b-39e6-4303-a601-9ae6fc9b5612","system_id":"levelo_inurba_marseille","lat":43.279952,"lon":5.400085,"is_reserved":false,"is_disabled":false,"rental_uris":{"android":"levelo://app?vid=1406b64b-39e6-4303-a601-9ae6fc9b5612","ios":"levelo://app?vid=1406b64b-39e6-4303-a601-9ae6fc9b5612"},"vehicle_type_id":"4","last_reported":1704319587,"current_range_meters":12800,"station_id":"ce4bho92rcd13ifvqh4g","pricing_plan_id":"free"},{"bike_id":"e88859ff-db38-4545-a37f-18a07549cba3","system_id":"levelo_inurba_marseille","lat":43.317121,"lon":5.423936,"is_reserved":false,"is_disabled":false,"rental_uris":{"android":"levelo://app?vid=e88859ff-db38-4545-a37f-18a07549cba3","ios":"levelo://app?vid=e88859ff-db38-4545-a37f-18a07549cba3"},"vehicle_type_id":"4","last_reported":1704319587,"current_range_meters":25200,"station_id":"ce4bhp92rcd13ifvqhbg","pricing_plan_id":"free"},{"bike_id":"1f916b87-738b-4fd1-b28f-f51e1b86e62d","system_id":"levelo_inurba_marseille","lat":43.310785,"lon":5.424305,"is_reserved":false,"is_disabled":false,"rental_uris":{"android":"levelo://app?vid=1f916b87-738b-4fd1-b28f-f51e1b86e62d","ios":"levelo://app?vid=1f916b87-738b-4fd1-b28f-f51e1b86e62d"},"vehicle_type_id":"4","last_reported":1704319587,"current_range_meters":12400,"station_id":"ce4bhp92rcd13ifvqhag","pricing_plan_id":"free"},{"bike_id":"2ab753f2-632a-42dd-bd7e-ba07115e8c19","system_id":"levelo_inurba_marseille","lat":43.340804,"lon":5.410219,"is_reserved":false,"is_disabled":false,"rental_uris":{"android":"levelo://app?vid=2ab753f2-632a-42dd-bd7e-ba07115e8c19","ios":"levelo://app?vid=2ab753f2-632a-42dd-bd7e-ba07115e8c19"},"vehicle_type_id":"4","last_reported":1704319587,"current_range_meters":26000,"station_id":"ce4bhqh2rcd13ifvqhlg","pricing_plan_id":"free"},{"bike_id":"51541372-c214-4c59-ac9e-f9119ee250f0","system_id":"levelo_inurba_marseille","lat":43.340804,"lon":5.410219,"is_reserved":false,"is_disabled":false,"rental_uris":{"android":"levelo://app?vid=51541372-c214-4c59-ac9e-f9119ee250f0","ios":"levelo://app?vid=51541372-c214-4c59-ac9e-f9119ee250f0"},"vehicle_type_id":"4","last_reported":1704319587,"current_range_meters":15600,"station_id":"ce4bhqh2rcd13ifvqhlg","pricing_plan_id":"free"},{"bike_id":"e89d1555-b57a-44e9-9a60-b79ea725af64","system_id":"levelo_inurba_marseille","lat":43.278128,"lon":5.407195,"is_reserved":false,"is_disabled":false,"rental_uris":{"android":"levelo://app?vid=e89d1555-b57a-44e9-9a60-b79ea725af64","ios":"levelo://app?vid=e89d1555-b57a-44e9-9a60-b79ea725af64"},"vehicle_type_id":"4","last_reported":1704319587,"current_range_meters":800,"station_id":"ce4bhnh2rcd13ifvqgtg","pricing_plan_id":"free"},{"bike_id":"d6c8a0e9-7468-400f-b7cd-5ed6e9b0ecb7","system_id":"levelo_inurba_marseille","lat":43.278128,"lon":5.407195,"is_reserved":false,"is_disabled":false,"rental_uris":{"android":"levelo://app?vid=d6c8a0e9-7468-400f-b7cd-5ed6e9b0ecb7","ios":"levelo://app?vid=d6c8a0e9-7468-400f-b7cd-5ed6e9b0ecb7"},"vehicle_type_id":"4","last_reported":1704319587,"current_range_meters":8400,"station_id":"ce4bhnh2rcd13ifvqgtg","pricing_plan_id":"free"},{"bike_id":"5f1de015-53a8-48b6-bfee-be00f696d103","system_id":"levelo_inurba_marseille","lat":43.278128,"lon":5.407195,"is_reserved":false,"is_disabled":false,"rental_uris":{"android":"levelo://app?vid=5f1de015-53a8-48b6-bfee-be00f696d103","ios":"levelo://app?vid=5f1de015-53a8-48b6-bfee-be00f696d103"},"vehicle_type_id":"4","last_reported":1704319587,"current_range_meters":31200,"station_id":"ce4bhnh2rcd13ifvqgtg","pricing_plan_id":"free"},{"bike_id":"855cbc76-5027-41d5-8990-351d65ce0ace","system_id":"levelo_inurba_marseille","lat":43.278128,"lon":5.407195,"is_reserved":false,"is_disabled":false,"rental_uris":{"android":"levelo://app?vid=855cbc76-5027-41d5-8990-351d65ce0ace","ios":"levelo://app?vid=855cbc76-5027-41d5-8990-351d65ce0ace"},"vehicle_type_id":"4","last_reported":1704319587,"current_range_meters":22400,"station_id":"ce4bhnh2rcd13ifvqgtg","pricing_plan_id":"free"},{"bike_id":"6348ed36-f802-4357-8171-61e58d677782","system_id":"levelo_inurba_marseille","lat":43.278128,"lon":5.407195,"is_reserved":false,"is_disabled":false,"rental_uris":{"android":"levelo://app?vid=6348ed36-f802-4357-8171-61e58d677782","ios":"levelo://app?vid=6348ed36-f802-4357-8171-61e58d677782"},"vehicle_type_id":"4","last_reported":1704319587,"current_range_meters":8400,"station_id":"ce4bhnh2rcd13ifvqgtg","pricing_plan_id":"free"},{"bike_id":"2a6c14ff-a84b-4588-a107-5fb0582375fd","system_id":"levelo_inurba_marseille","lat":43.278128,"lon":5.407195,"is_reserved":false,"is_disabled":false,"rental_uris":{"android":"levelo://app?vid=2a6c14ff-a84b-4588-a107-5fb0582375fd","ios":"levelo://app?vid=2a6c14ff-a84b-4588-a107-5fb0582375fd"},"vehicle_type_id":"4","last_reported":1704319587,"current_range_meters":16800,"station_id":"ce4bhnh2rcd13ifvqgtg","pricing_plan_id":"free"},{"bike_id":"61e04b2d-bbbb-46b8-ba9f-8ba98544af7f","system_id":"levelo_inurba_marseille","lat":43.278128,"lon":5.407195,"is_reserved":false,"is_disabled":false,"rental_uris":{"android":"levelo://app?vid=61e04b2d-bbbb-46b8-ba9f-8ba98544af7f","ios":"levelo://app?vid=61e04b2d-bbbb-46b8-ba9f-8ba98544af7f"},"vehicle_type_id":"4","last_reported":1704319587,"current_range_meters":14400,"station_id":"ce4bhnh2rcd13ifvqgtg","pricing_plan_id":"free"},{"bike_id":"37adf14d-cd86-4653-9a94-c4783c422d19","system_id":"levelo_inurba_marseille","lat":43.278128,"lon":5.407195,"is_reserved":false,"is_disabled":false,"rental_uris":{"android":"levelo://app?vid=37adf14d-cd86-4653-9a94-c4783c422d19","ios":"levelo://app?vid=37adf14d-cd86-4653-9a94-c4783c422d19"},"vehicle_type_id":"4","last_reported":1704319587,"current_range_meters":12800,"station_id":"ce4bhnh2rcd13ifvqgtg","pricing_plan_id":"free"},{"bike_id":"941565ec-3eed-4b9e-82c7-6daefa309912","system_id":"levelo_inurba_marseille","lat":43.278128,"lon":5.407195,"is_reserved":false,"is_disabled":false,"rental_uris":{"android":"levelo://app?vid=941565ec-3eed-4b9e-82c7-6daefa309912","ios":"levelo://app?vid=941565ec-3eed-4b9e-82c7-6daefa309912"},"vehicle_type_id":"4","last_reported":1704319587,"current_range_meters":18800,"station_id":"ce4bhnh2rcd13ifvqgtg","pricing_plan_id":"free"},{"bike_id":"20654629-b5ee-4e98-8864-50d0d2be908b","system_id":"levelo_inurba_marseille","lat":43.278128,"lon":5.407195,"is_reserved":false,"is_disabled":false,"rental_uris":{"android":"levelo://app?vid=20654629-b5ee-4e98-8864-50d0d2be908b","ios":"levelo://app?vid=20654629-b5ee-4e98-8864-50d0d2be908b"},"vehicle_type_id":"4","last_reported":1704319587,"current_range_meters":27600,"station_id":"ce4bhnh2rcd13ifvqgtg","pricing_plan_id":"free"},{"bike_id":"aeb15dff-f914-4330-9911-348dc54f1496","system_id":"levelo_inurba_marseille","lat":43.26958,"lon":5.38624,"is_reserved":false,"is_disabled":false,"rental_uris":{"android":"levelo://app?vid=aeb15dff-f914-4330-9911-348dc54f1496","ios":"levelo://app?vid=aeb15dff-f914-4330-9911-348dc54f1496"},"vehicle_type_id":"4","last_reported":1704319587,"current_range_meters":0,"station_id":"ce4bhh92rcd13ifvqfh0","pricing_plan_id":"free"},{"bike_id":"8f72d482-beea-4789-8f1d-d59c7289e3e6","system_id":"levelo_inurba_marseille","lat":43.26911,"lon":5.38556,"is_reserved":false,"is_disabled":false,"rental_uris":{"android":"levelo://app?vid=8f72d482-beea-4789-8f1d-d59c7289e3e6","ios":"levelo://app?vid=8f72d482-beea-4789-8f1d-d59c7289e3e6"},"vehicle_type_id":"4","last_reported":1704319587,"current_range_meters":26400,"station_id":"","pricing_plan_id":"free"},{"bike_id":"9020eb81-0cfa-496e-997b-828e12c88940","system_id":"levelo_inurba_marseille","lat":43.279465,"lon":5.410561,"is_reserved":false,"is_disabled":false,"rental_uris":{"android":"levelo://app?vid=9020eb81-0cfa-496e-997b-828e12c88940","ios":"levelo://app?vid=9020eb81-0cfa-496e-997b-828e12c88940"},"vehicle_type_id":"4","last_reported":1704319587,"current_range_meters":11200,"station_id":"ce4bhnp2rcd13ifvqh0g","pricing_plan_id":"free"},{"bike_id":"8cb32843-d93e-4feb-aa17-d861eb2f5b11","system_id":"levelo_inurba_marseille","lat":43.279465,"lon":5.410561,"is_reserved":false,"is_disabled":false,"rental_uris":{"android":"levelo://app?vid=8cb32843-d93e-4feb-aa17-d861eb2f5b11","ios":"levelo://app?vid=8cb32843-d93e-4feb-aa17-d861eb2f5b11"},"vehicle_type_id":"4","last_reported":1704319587,"current_range_meters":14000,"station_id":"ce4bhnp2rcd13ifvqh0g","pricing_plan_id":"free"},{"bike_id":"f7655d05-a37a-4bf1-a7c7-0fcfd1e8693a","system_id":"levelo_inurba_marseille","lat":43.279465,"lon":5.410561,"is_reserved":false,"is_disabled":false,"rental_uris":{"android":"levelo://app?vid=f7655d05-a37a-4bf1-a7c7-0fcfd1e8693a","ios":"levelo://app?vid=f7655d05-a37a-4bf1-a7c7-0fcfd1e8693a"},"vehicle_type_id":"4","last_reported":1704319587,"current_range_meters":26000,"station_id":"ce4bhnp2rcd13ifvqh0g","pricing_plan_id":"free"},{"bike_id":"277c861e-339e-41c6-ac6b-7c555734cc58","system_id":"levelo_inurba_marseille","lat":43.279465,"lon":5.410561,"is_reserved":false,"is_disabled":false,"rental_uris":{"android":"levelo://app?vid=277c861e-339e-41c6-ac6b-7c555734cc58","ios":"levelo://app?vid=277c861e-339e-41c6-ac6b-7c555734cc58"},"vehicle_type_id":"4","last_reported":1704319587,"current_range_meters":26800,"station_id":"ce4bhnp2rcd13ifvqh0g","pricing_plan_id":"free"},{"bike_id":"5ac226cd-f756-4889-9f26-bf741bd3b0c7","system_id":"levelo_inurba_marseille","lat":43.265714,"lon":5.372891,"is_reserved":false,"is_disabled":false,"rental_uris":{"android":"levelo://app?vid=5ac226cd-f756-4889-9f26-bf741bd3b0c7","ios":"levelo://app?vid=5ac226cd-f756-4889-9f26-bf741bd3b0c7"},"vehicle_type_id":"4","last_reported":1704319587,"current_range_meters":0,"station_id":"ce4bhg12rcd13ifvqf70","pricing_plan_id":"free"},{"bike_id":"197c9b57-a251-45ce-b397-ff83de81de07","system_id":"levelo_inurba_marseille","lat":43.27996,"lon":5.416624,"is_reserved":false,"is_disabled":false,"rental_uris":{"android":"levelo://app?vid=197c9b57-a251-45ce-b397-ff83de81de07","ios":"levelo://app?vid=197c9b57-a251-45ce-b397-ff83de81de07"},"vehicle_type_id":"4","last_reported":1704319587,"current_range_meters":23200,"station_id":"ce4bho12rcd13ifvqh1g","pricing_plan_id":"free"},{"bike_id":"58dd5ab8-e1b7-4c3a-af2f-653f142fe5c8","system_id":"levelo_inurba_marseille","lat":43.27996,"lon":5.416624,"is_reserved":false,"is_disabled":false,"rental_uris":{"android":"levelo://app?vid=58dd5ab8-e1b7-4c3a-af2f-653f142fe5c8","ios":"levelo://app?vid=58dd5ab8-e1b7-4c3a-af2f-653f142fe5c8"},"vehicle_type_id":"4","last_reported":1704319587,"current_range_meters":2800,"station_id":"ce4bho12rcd13ifvqh1g","pricing_plan_id":"free"},