{"last_updated":1746123252,"ttl":60,"version":"2.2","data":{"bikes":[{"bike_id":"807f3d85-a8fc-4de7-9499-7583a2bd8cb9","system_id":"levelo_inurba_marseille","lat":43.320634,"lon":5.415356,"is_reserved":false,"is_disabled":false,"rental_uris":{"android":"levelo://app?vid=807f3d85-a8fc-4de7-9499-7583a2bd8cb9","ios":"levelo://app?vid=807f3d85-a8fc-4de7-9499-7583a2bd8cb9"},"vehicle_type_id":"4","last_reported":1746123252,"current_range_meters":2800,"station_id":"ce4bhq92rcd13ifvqhkg","pricing_plan_id":"cebpf4jnsgd1na2vs0mg"},{"bike_id":"831ca7dc-0c2c-4989-be18-b5a9e4030762","system_id":"levelo_inurba_marseille","lat":43.29965,"lon":5.38498,"is_reserved":false,"is_disabled":false,"rental_uris":{"android":"levelo://app?vid=831ca7dc-0c2c-4989-be18-b5a9e4030762","ios":"levelo://app?vid=831ca7dc-0c2c-4989-be18-b5a9e4030762"},"vehicle_type_id":"4","last_reported":1746123252,"current_range_meters":2800,"station_id":"ce4bgj92rcd13ifvqbd0","pricing_plan_id":"cebpf4jnsgd1na2vs0mg"},{"bike_id":"e463e3a6-b717-4b05-b648-5c18e4accc07","system_id":"levelo_inurba_marseille","lat":43.28269,"lon":5.35062,"is_reserved":false,"is_disabled":false,"rental_uris":{"android":"levelo://app?vid=e463e3a6-b717-4b05-b648-5c18e4accc07","ios":"levelo://app?vid=e463e3a6-b717-4b05-b648-5c18e4accc07"},"vehicle_type_id":"4","last_reported":1746123252,"current_range_meters":2800,"station_id":"ce4bhbp2rcd13ifvqerg","pricing_plan_id":"cebpf4jnsgd1na2vs0mg"},{"bike_id":"954ab0b2-4b26-46c5-b4fe-3919814938ae","system_id":"levelo_inurba_marseille","lat":43.30547,"lon":5.36734,"is_reserved":false,"is_disabled":false,"rental_uris":{"android":"levelo://app?vid=954ab0b2-4b26-46c5-b4fe-3919814938ae","ios":"levelo://app?vid=954ab0b2-4b26-46c5-b4fe-3919814938ae"},"vehicle_type_id":"4","last_reported":1746123252,"current_range_meters":2000,"station_id":"ce4bgrp2rcd13ifvqc9g","pricing_plan_id":"cebpf4jnsgd1na2vs0mg"},{"bike_id":"da50cf96-88d5-4a5b-9b68-eb169373c949","system_id":"levelo_inurba_marseille","lat":43.29002,"lon":5.35617,"is_reserved":false,"is_disabled":false,"rental_uris":{"android":"levelo://app?vid=da50cf96-88d5-4a5b-9b68-eb169373c949","ios":"levelo://app?vid=da50cf96-88d5-4a5b-9b68-eb169373c949"},"vehicle_type_id":"4","last_reported":1746123252,"current_range_meters":2800,"station_id":"ce4bhb92rcd13ifvqen0","pricing_plan_id":"cebpf4jnsgd1na2vs0mg"},{"bike_id":"e25dcfb4-d82f-4973-9ffd-c1121c7f91c9","system_id":"levelo_inurba_marseille","lat":43.25495,"lon":5.37648,"is_reserved":false,"is_disabled":false,"rental_uris":{"android":"levelo://app?vid=e25dcfb4-d82f-4973-9ffd-c1121c7f91c9","ios":"levelo://app?vid=e25dcfb4-d82f-4973-9ffd-c1121c7f91c9"},"vehicle_type_id":"4","last_reported":1746123252,"current_range_meters":2800,"station_id":"ce4bhh12rcd13ifvqff0","pricing_plan_id":"cebpf4jnsgd1na2vs0mg"},{"bike_id":"4d90167a-9118-4169-9e0c-be9ce72f68b1","system_id":"levelo_inurba_marseille","lat":43.303062,"lon":5.392105,"is_reserved":false,"is_disabled":false,"rental_uris":{"android":"levelo://app?vid=4d90167a-9118-4169-9e0c-be9ce72f68b1","ios":"levelo://app?vid=4d90167a-9118-4169-9e0c-be9ce72f68b1"},"vehicle_type_id":"4","last_reported":1746123252,"current_range_meters":2800,"station_id":"ce4bgkh2rcd13ifvqbk0","pricing_plan_id":"cebpf4jnsgd1na2vs0mg"},{"bike_id":"2a2dc1f7-547d-442a-b82c-5fbde6dc38b3","system_id":"levelo_inurba_marseille","lat":43.30606,"lon":5.40093,"is_reserved":false,"is_disabled":false,"rental_uris":{"android":"levelo://app?vid=2a2dc1f7-547d-442a-b82c-5fbde6dc38b3","ios":"levelo://app?vid=2a2dc1f7-547d-442a-b82c-5fbde6dc38b3"},"vehicle_type_id":"4","last_reported":1746123252,"current_range_meters":2800,"station_id":"ce4bh112rcd13ifvqda0","pricing_plan_id":"cebpf4jnsgd1na2vs0mg"},{"bike_id":"481910e5-60fa-485f-af7e-60ea993df377","system_id":"levelo_inurba_marseille","lat":43.32535,"lon":5.41432,"is_reserved":false,"is_disabled":false,"rental_uris":{"android":"levelo://app?vid=481910e5-60fa-485f-af7e-60ea993df377","ios":"levelo://app?vid=481910e5-60fa-485f-af7e-60ea993df377"},"vehicle_type_id":"4","last_reported":1746123252,"current_range_meters":2800,"station_id":"ce4bhq12rcd13ifvqhhg","pricing_plan_id":"cebpf4jnsgd1na2vs0mg"},{"bike_id":"c3b3fff0-1389-42e1-a8b2-318d17419fba","system_id":"levelo_inurba_marseille","lat":43.3107,"lon":5.38354,"is_reserved":false,"is_disabled":false,"rental_uris":{"android":"levelo://app?vid=c3b3fff0-1389-42e1-a8b2-318d17419fba","ios":"levelo://app?vid=c3b3fff0-1389-42e1-a8b2-318d17419fba"},"vehicle_type_id":"4","last_reported":1746123252,"current_range_meters":2800,"station_id":"ce4bgv92rcd13ifvqcr0","pricing_plan_id":"cebpf4jnsgd1na2vs0mg"},{"bike_id":"9c7a9923-eee2-461d-b5f2-46a5340bbf60","system_id":"levelo_inurba_marseille","lat":43.29853,"lon":5.3629,"is_reserved":false,"is_disabled":true,"rental_uris":{"android":"levelo://app?vid=9c7a9923-eee2-461d-b5f2-46a5340bbf60","ios":"levelo://app?vid=9c7a9923-eee2-461d-b5f2-46a5340bbf60"},"vehicle_type_id":"4","last_reported":1746123252,"current_range_meters":2800,"station_id":"ce4bgpp2rcd13ifvqc3g","pricing_plan_id":"cebpf4jnsgd1na2vs0mg"},{"bike_id":"868456b1-944f-400f-9051-7e1839f9bddf","system_id":"levelo_inurba_marseille","lat":43.28078,"lon":5.39655,"is_reserved":false,"is_disabled":false,"rental_uris":{"android":"levelo://app?vid=868456b1-944f-400f-9051-7e1839f9bddf","ios":"levelo://app?vid=868456b1-944f-400f-9051-7e1839f9bddf"},"vehicle_type_id":"4","last_reported":1746123252,"current_range_meters":2800,"station_id":"ce4bho12rcd13ifvqh2g","pricing_plan_id":"cebpf4jnsgd1na2vs0mg"},{"bike_id":"581aa16c-830c-46fb-8b92-293991cab33c","system_id":"levelo_inurba_marseille","lat":43.23153,"lon":5.4371,"is_reserved":false,"is_disabled":false,"rental_uris":{"android":"levelo://app?vid=581aa16c-830c-46fb-8b92-293991cab33c","ios":"levelo://app?vid=581aa16c-830c-46fb-8b92-293991cab33c"},"vehicle_type_id":"4","last_reported":1746123252,"current_range_meters":3200,"station_id":"ce4bhmp2rcd13ifvqgog","pricing_plan_id":"cebpf4jnsgd1na2vs0mg"},{"bike_id":"9f1b9c6b-054b-48f5-bdcd-0b3ea8a0df0e","system_id":"levelo_inurba_marseille","lat":43.29851,"lon":5.36287,"is_reserved":false,"is_disabled":true,"rental_uris":{"android":"levelo://app?vid=9f1b9c6b-054b-48f5-bdcd-0b3ea8a0df0e","ios":"levelo://app?vid=9f1b9c6b-054b-48f5-bdcd-0b3ea8a0df0e"},"vehicle_type_id":"4","last_reported":1746123252,"current_range_meters":3200,"station_id":"ce4bgpp2rcd13ifvqc3g","pricing_plan_id":"cebpf4jnsgd1na2vs0mg"},{"bike_id":"65e52277-23a3-4b45-b8de-a50147425f15","system_id":"levelo_inurba_marseille","lat":43.31896,"lon":5.40734,"is_reserved":false,"is_disabled":false,"rental_uris":{"android":"levelo://app?vid=65e52277-23a3-4b45-b8de-a50147425f15","ios":"levelo://app?vid=65e52277-23a3-4b45-b8de-a50147425f15"},"vehicle_type_id":"4","last_reported":1746123252,"current_range_meters":3200,"station_id":"ce4bhq12rcd13ifvqhig","pricing_plan_id":"cebpf4jnsgd1na2vs0mg"},{"bike_id":"05815ce7-102b-4735-9b54-bb17a0d19358","system_id":"levelo_inurba_marseille","lat":43.31275,"lon":5.40168,"is_reserved":false,"is_disabled":false,"rental_uris":{"android":"levelo://app?vid=05815ce7-102b-4735-9b54-bb17a0d19358","ios":"levelo://app?vid=05815ce7-102b-4735-9b54-bb17a0d19358"},"vehicle_type_id":"4","last_reported":1746123252,"current_range_meters":3600,"station_id":"ce4bh092rcd13ifvqd30","pricing_plan_id":"cebpf4jnsgd1na2vs0mg"},{"bike_id":"1324574e-9b18-4b91-8988-105ba702dfcf","system_id":"levelo_inurba_marseille","lat":43.26794,"lon":5.39407,"is_reserved":false,"is_disabled":false,"rental_uris":{"android":"levelo://app?vid=1324574e-9b18-4b91-8988-105ba702dfcf","ios":"levelo://app?vid=1324574e-9b18-4b91-8988-105ba702dfcf"},"vehicle_type_id":"4","last_reported":1746123252,"current_range_meters":3600,"station_id":"ce4bhh12rcd13ifvqfg0","pricing_plan_id":"cebpf4jnsgd1na2vs0mg"},{"bike_id":"93e7f04a-0286-4b84-9511-6e13db608ea6","system_id":"levelo_inurba_marseille","lat":43.29039,"lon":5.39964,"is_reserved":false,"is_disabled":false,"rental_uris":{"android":"levelo://app?vid=93e7f04a-0286-4b84-9511-6e13db608ea6","ios":"levelo://app?vid=93e7f04a-0286-4b84-9511-6e13db608ea6"},"vehicle_type_id":"4","last_reported":1746123252,"current_range_meters":3200,"station_id":"ce4bh392rcd13ifvqdm0","pricing_plan_id":"cebpf4jnsgd1na2vs0mg"},{"bike_id":"daf1703a-4c9d-4681-b334-6d4a1f7f53bf","system_id":"levelo_inurba_marseille","lat":43.23182,"lon":5.39981,"is_reserved":false,"is_disabled":false,"rental_uris":{"android":"levelo://app?vid=daf1703a-4c9d-4681-b334-6d4a1f7f53bf","ios":"levelo://app?vid=daf1703a-4c9d-4681-b334-6d4a1f7f53bf"},"vehicle_type_id":"4","last_reported":1746123252,"current_range_meters":3600,"station_id":"ce4bhn12rcd13ifvqgqg","pricing_plan_id":"cebpf4jnsgd1na2vs0mg"},{"bike_id":"f63cd02a-2fc7-42ab-a5e2-c188d0cf579b","system_id":"levelo_inurba_marseille","lat":43.29927,"lon":5.37478,"is_reserved":false,"is_disabled":false,"rental_uris":{"android":"levelo://app?vid=f63cd02a-2fc7-42ab-a5e2-c188d0cf579b","ios":"levelo://app?vid=f63cd02a-2fc7-42ab-a5e2-c188d0cf579b"},"vehicle_type_id":"4","last_reported":1746123252,"current_range_meters":3600,"station_id":"ce4bgjh2rcd13ifvqbg0","pricing_plan_id":"cebpf4jnsgd1na2vs0mg"},{"bike_id":"7846c356-ca5c-4585-be73-803acc8e6130","system_id":"levelo_inurba_marseille","lat":43.27203,"lon":5.39182,"is_reserved":false,"is_disabled":false,"rental_uris":{"android":"levelo://app?vid=7846c356-ca5c-4585-be73-803acc8e6130","ios":"levelo://app?vid=7846c356-ca5c-4585-be73-803acc8e6130"},"vehicle_type_id":"4","last_reported":1746123252,"current_range_meters":4000,"station_id":"ce4bhhp2rcd13ifvqfm0","pricing_plan_id":"cebpf4jnsgd1na2vs0mg"},{"bike_id":"a3b5c673-d9d9-4d0c-bf0f-abb7e416dae2","system_id":"levelo_inurba_marseille","lat":43.30152,"lon":5.38095,"is_reserved":false,"is_disabled":false,"rental_uris":{"android":"levelo://app?vid=a3b5c673-d9d9-4d0c-bf0f-abb7e416dae2","ios":"levelo://app?vid=a3b5c673-d9d9-4d0c-bf0f-abb7e416dae2"},"vehicle_type_id":"4","last_reported":1746123252,"current_range_meters":1600,"station_id":"ce4bgjp2rcd13ifvqbh0","pricing_plan_id":"cebpf4jnsgd1na2vs0mg"},{"bike_id":"83a47989-b7bf-4b23-9cb1-6220c387fd4c","system_id":"levelo_inurba_marseille","lat":43.33029,"lon":5.39035,"is_reserved":false,"is_disabled":false,"rental_uris":{"android":"levelo://app?vid=83a47989-b7bf-4b23-9cb1-6220c387fd4c","ios":"levelo://app?vid=83a47989-b7bf-4b23-9cb1-6220c387fd4c"},"vehicle_type_id":"4","last_reported":1746123252,"current_range_meters":4800,"station_id":"ce4bhr92rcd13ifvqhrg","pricing_plan_id":"cebpf4jnsgd1na2vs0mg"},{"bike_id":"568db860-8fad-4538-b4ba-0e0b91529c3c","system_id":"levelo_inurba_marseille","lat":43.23156,"lon":5.43709,"is_reserved":false,"is_disabled":false,"rental_uris":{"android":"levelo://app?vid=568db860-8fad-4538-b4ba-0e0b91529c3c","ios":"levelo://app?vid=568db860-8fad-4538-b4ba-0e0b91529c3c"},"vehicle_type_id":"4","last_reported":1746123252,"current_range_meters":4800,"station_id":"ce4bhmp2rcd13ifvqgog","pricing_plan_id":"cebpf4jnsgd1na2vs0mg"},{"bike_id":"96c77ee9-6bc8-4291-b9df-6f7023ca137d","system_id":"levelo_inurba_marseille","lat":43.3171,"lon":5.4371,"is_reserved":false,"is_disabled":false,"rental_uris":{"android":"levelo://app?vid=96c77ee9-6bc8-4291-b9df-6f7023ca137d","ios":"levelo://app?vid=96c77ee9-6bc8-4291-b9df-6f7023ca137d"},"vehicle_type_id":"4","last_reported":1746123252,"current_range_meters":4800,"station_id":"ce4bhp92rcd13ifvqhcg","pricing_plan_id":"cebpf4jnsgd1na2vs0mg"},{"bike_id":"2b04ecee-0995-4986-a4fc-6c6408a740e8","system_id":"levelo_inurba_marseille","lat":43.27585,"lon":5.38395,"is_reserved":false,"is_disabled":false,"rental_uris":{"android":"levelo://app?vid=2b04ecee-0995-4986-a4fc-6c6408a740e8","ios":"levelo://app?vid=2b04ecee-0995-4986-a4fc-6c6408a740e8"},"vehicle_type_id":"4","last_reported":1746123252,"current_range_meters":4400,"station_id":"ce4bhh92rcd13ifvqfi0","pricing_plan_id":"cebpf4jnsgd1na2vs0mg"},{"bike_id":"0bf1d22a-ae60-4cc2-ab70-4ec21ba6df67","system_id":"levelo_inurba_marseille","lat":43.231915,"lon":5.355506,"is_reserved":false,"is_disabled":false,"rental_uris":{"android":"levelo://app?vid=0bf1d22a-ae60-4cc2-ab70-4ec21ba6df67","ios":"levelo://app?vid=0bf1d22a-ae60-4cc2-ab70-4ec21ba6df67"},"vehicle_type_id":"4","last_reported":1746123252,"current_range_meters":4800,"station_id":"ce4bhu92rcd13ifvqi70","pricing_plan_id":"cebpf4jnsgd1na2vs0mg"},{"bike_id":"b187bca0-3f23-473e-8d56-c0755c287bd0","system_id":"levelo_inurba_marseille","lat":43.298478,"lon":5.362856,"is_reserved":false,"is_disabled":false,"rental_uris":{"android":"levelo://app?vid=b187bca0-3f23-473e-8d56-c0755c287bd0","ios":"levelo://app?vid=b187bca0-3f23-473e-8d56-c0755c287bd0"},"vehicle_type_id":"4","last_reported":1746123252,"current_range_meters":4400,"station_id":"ce4bgpp2rcd13ifvqc3g","pricing_plan_id":"cebpf4jnsgd1na2vs0mg"},{"bike_id":"026def5a-ca12-4892-a91d-7155cf32c318","system_id":"levelo_inurba_marseille","lat":43.30213,"lon":5.39466,"is_reserved":false,"is_disabled":false,"rental_uris":{"android":"levelo://app?vid=026def5a-ca12-4892-a91d-7155cf32c318","ios":"levelo://app?vid=026def5a-ca12-4892-a91d-7155cf32c318"},"vehicle_type_id":"4","last_reported":1746123252,"current_range_meters":4800,"station_id":"ce4bh0p2rcd13ifvqd70","pricing_plan_id":"cebpf4jnsgd1na2vs0mg"},{"bike_id":"e665d810-7233-4c7a-8841-b31cddb84282","system_id":"levelo_inurba_marseille","lat":43.28441,"lon":5.39203,"is_reserved":false,"is_disabled":false,"rental_uris":{"android":"levelo://app?vid=e665d810-7233-4c7a-8841-b31cddb84282","ios":"levelo://app?vid=e665d810-7233-4c7a-8841-b31cddb84282"},"vehicle_type_id":"4","last_reported":1746123252,"current_range_meters":5600,"station_id":"ce4bhoh2rcd13ifvqh5g","pricing_plan_id":"cebpf4jnsgd1na2vs0mg"},{"bike_id":"fee7396b-8d6a-4ad5-8af7-947693171efd","system_id":"levelo_inurba_marseille","lat":43.27073,"lon":5.42283,"is_reserved":false,"is_disabled":false,"rental_uris":{"android":"levelo://app?vid=fee7396b-8d6a-4ad5-8af7-947693171efd","ios":"levelo://app?vid=fee7396b-8d6a-4ad5-8af7-947693171efd"},"vehicle_type_id":"4","last_reported":1746123252,"current_range_meters":5600,"station_id":"ce4bhk92rcd13ifvqgb0","pricing_plan_id":"cebpf4jnsgd1na2vs0mg"},{"bike_id":"ea9fa166-b93b-4145-9394-aca404f06487","system_id":"levelo_inurba_marseille","lat":43.30123,"lon":5.398507,"is_reserved":false,"is_disabled":false,"rental_uris":{"android":"levelo://app?vid=ea9fa166-b93b-4145-9394-aca404f06487","ios":"levelo://app?vid=ea9fa166-b93b-4145-9394-aca404f06487"},"vehicle_type_id":"4","last_reported":1746123252,"current_range_meters":5600,"station_id":"ce4bh0h2rcd13ifvqd40","pricing_plan_id":"cebpf4jnsgd1na2vs0mg"},{"bike_id":"b6a05f5f-5014-4270-a280-95522a773bb9","system_id":"levelo_inurba_marseille","lat":43.29031,"lon":5.38652,"is_reserved":false,"is_disabled":false,"rental_uris":{"android":"levelo://app?vid=b6a05f5f-5014-4270-a280-95522a773bb9","ios":"levelo://app?vid=b6a05f5f-5014-4270-a280-95522a773bb9"},"vehicle_type_id":"4","last_reported":1746123252,"current_range_meters":5600,"station_id":"ce4bh4p2rcd13ifvqe0g","pricing_plan_id":"cebpf4jnsgd1na2vs0mg"},{"bike_id":"5da4e6fa-ffb6-490d-a746-174d4c2dc6bc","system_id":"levelo_inurba_marseille","lat":43.29519,"lon":5.39043,"is_reserved":false,"is_disabled":false,"rental_uris":{"android":"levelo://app?vid=5da4e6fa-ffb6-490d-a746-174d4c2dc6bc","ios":"levelo://app?vid=5da4e6fa-ffb6-490d-a746-174d4c2dc6bc"},"vehicle_type_id":"4","last_reported":1746123252,"current_range_meters":6000,"station_id":"ce4bh3p2rcd13ifvqdp0","pricing_plan_id":"cebpf4jnsgd1na2vs0mg"},{"bike_id":"39ccc3a0-baae-41ad-bd60-2cf8edcfd4fa","system_id":"levelo_inurba_marseille","lat":43.26047,"lon":5.3752,"is_reserved":false,"is_disabled":true,"rental_uris":{"android":"levelo://app?vid=39ccc3a0-baae-41ad-bd60-2cf8edcfd4fa","ios":"levelo://app?vid=39ccc3a0-baae-41ad-bd60-2cf8edcfd4fa"},"vehicle_type_id":"4","last_reported":1746123252,"current_range_meters":6000,"station_id":"ce4bhgh2rcd13ifvqfa0","pricing_plan_id":"cebpf4jnsgd1na2vs0mg"},{"bike_id":"32c8642c-b46d-43d3-88a8-cbe3f6479f56","system_id":"levelo_inurba_marseille","lat":43.294198,"lon":5.386703,"is_reserved":false,"is_disabled":false,"rental_uris":{"android":"levelo://app?vid=32c8642c-b46d-43d3-88a8-cbe3f6479f56","ios":"levelo://app?vid=32c8642c-b46d-43d3-88a8-cbe3f6479f56"},"vehicle_type_id":"4","last_reported":1746123252,"current_range_meters":6000,"station_id":"ce4bh2h2rcd13ifvqdh0","pricing_plan_id":"cebpf4jnsgd1na2vs0mg"},{"bike_id":"1d98e400-dda8-46b8-9aaf-dc75f584494e","system_id":"levelo_inurba_marseille","lat":43.28946,"lon":5.36634,"is_reserved":false,"is_disabled":false,"rental_uris":{"android":"levelo://app?vid=1d98e400-dda8-46b8-9aaf-dc75f584494e","ios":"levelo://app?vid=1d98e400-dda8-46b8-9aaf-dc75f584494e"},"vehicle_type_id":"4","last_reported":1746123252,"current_range_meters":6000,"station_id":"ce4bhap2rcd13ifvqek0","pricing_plan_id":"cebpf4jnsgd1na2vs0mg"},{"bike_id":"7073569b-d780-4315-bb0a-f723d636daf0","system_id":"levelo_inurba_marseille","lat":43.28676,"lon":5.38668,"is_reserved":false,"is_disabled":false,"rental_uris":{"android":"levelo://app?vid=7073569b-d780-4315-bb0a-f723d636daf0","ios":"levelo://app?vid=7073569b-d780-4315-bb0a-f723d636daf0"},"vehicle_type_id":"4","last_reported":1746123252,"current_range_meters":6000,"station_id":"ce4bh492rcd13ifvqdug","pricing_plan_id":"cebpf4jnsgd1na2vs0mg"},{"bike_id":"c776906b-c4cd-4f78-b3ac-0611765514d4","system_id":"levelo_inurba_marseille","lat":43.28366,"lon":5.3811,"is_reserved":false,"is_disabled":false,"rental_uris":{"android":"levelo://app?vid=c776906b-c4cd-4f78-b3ac-0611765514d4","ios":"levelo://app?vid=c776906b-c4cd-4f78-b3ac-0611765514d4"},"vehicle_type_id":"4","last_reported":1746123252,"current_range_meters":6400,"station_id":"ce4bh412rcd13ifvqdr0","pricing_plan_id":"cebpf4jnsgd1na2vs0mg"},{"bike_id":"9993632a-4b57-4af1-b3f7-ae52baf8c31d","system_id":"levelo_inurba_marseille","lat":43.29409,"lon":5.3861,"is_reserved":false,"is_disabled":true,"rental_uris":{"android":"levelo://app?vid=9993632a-4b57-4af1-b3f7-ae52baf8c31d","ios":"levelo://app?vid=9993632a-4b57-4af1-b3f7-ae52baf8c31d"},"vehicle_type_id":"4","last_reported":1746123252,"current_range_meters":6400,"station_id":"ce4bh2h2rcd13ifvqdh0","pricing_plan_id":"cebpf4jnsgd1na2vs0mg"},{"bike_id":"8aee0203-10e1-4b76-9643-4c63f267b4c8","system_id":"levelo_inurba_marseille","lat":43.29797,"lon":5.37085,"is_reserved":false,"is_disabled":false,"rental_uris":{"android":"levelo://app?vid=8aee0203-10e1-4b76-9643-4c63f267b4c8","ios":"levelo://app?vid=8aee0203-10e1-4b76-9643-4c63f267b4c8"},"vehicle_type_id":"4","last_reported":1746123252,"current_range_meters":6400,"station_id":"ce4bgop2rcd13ifvqc1g","pricing_plan_id":"cebpf4jnsgd1na2vs0mg"},{"bike_id":"334af588-c878-4933-881f-0dab2169beb2","system_id":"levelo_inurba_marseille","lat":43.29545,"lon":5.39395,"is_reserved":false,"is_disabled":false,"rental_uris":{"android":"levelo://app?vid=334af588-c878-4933-881f-0dab2169beb2","ios":"levelo://app?vid=334af588-c878-4933-881f-0dab2169beb2"},"vehicle_type_id":"4","last_reported":1746123252,"current_range_meters":6800,"station_id":"ce4bh292rcd13ifvqdf0","pricing_plan_id":"cebpf4jnsgd1na2vs0mg"},{"bike_id":"f7a6d5ae-10f8-4d20-9f4c-8274ed0d045c","system_id":"levelo_inurba_marseille","lat":43.25118,"lon":5.40318,"is_reserved":false,"is_disabled":false,"rental_uris":{"android":"levelo://app?vid=f7a6d5ae-10f8-4d20-9f4c-8274ed0d045c","ios":"levelo://app?vid=f7a6d5ae-10f8-4d20-9f4c-8274ed0d045c"},"vehicle_type_id":"4","last_reported":1746123252,"current_range_meters":6400,"station_id":"ce4bhlh2rcd13ifvqgig","pricing_plan_id":"cebpf4jnsgd1na2vs0mg"},{"bike_id":"1b5bb0e9-fb94-4c32-a295-59b9614d84bd","system_id":"levelo_inurba_marseille","lat":43.3033,"lon":5.4043,"is_reserved":false,"is_disabled":false,"rental_uris":{"android":"levelo://app?vid=1b5bb0e9-fb94-4c32-a295-59b9614d84bd","ios":"levelo://app?vid=1b5bb0e9-fb94-4c32-a295-59b9614d84bd"},"vehicle_type_id":"4","last_reported":1746123252,"current_range_meters":6800,"station_id":"ce4bh012rcd13ifvqd10","pricing_plan_id":"cebpf4jnsgd1na2vs0mg"},{"bike_id":"fd9a4832-7310-4a2d-b55c-eb7e681369f4","system_id":"levelo_inurba_marseille","lat":43.28016,"lon":5.44211,"is_reserved":false,"is_disabled":false,"rental_uris":{"android":"levelo://app?vid=fd9a4832-7310-4a2d-b55c-eb7e681369f4","ios":"levelo://app?vid=fd9a4832-7310-4a2d-b55c-eb7e681369f4"},"vehicle_type_id":"4","last_reported":1746123252,"current_range_meters":6800,"station_id":"","pricing_plan_id":"cebpf4jnsgd1na2vs0mg"},{"bike_id":"fbb4df50-c501-4aed-8cf0-3a36d0ef6cf4","system_id":"levelo_inurba_marseille","lat":43.29679,"lon":5.37186,"is_reserved":false,"is_disabled":false,"rental_uris":{"android":"levelo://app?vid=fbb4df50-c501-4aed-8cf0-3a36d0ef6cf4","ios":"levelo://app?vid=fbb4df50-c501-4aed-8cf0-3a36d0ef6cf4"},"vehicle_type_id":"4","last_reported":1746123252,"current_range_meters":6400,"station_id":"ce4bgnh2rcd13ifvqc0g","pricing_plan_id":"cebpf4jnsgd1na2vs0mg"},{"bike_id":"7f770ba9-2e48-47c9-8bb4-942855273bad","system_id":"levelo_inurba_marseille","lat":43.253,"lon":5.4241,"is_reserved":false,"is_disabled":false,"rental_uris":{"android":"levelo://app?vid=7f770ba9-2e48-47c9-8bb4-942855273bad","ios":"levelo://app?vid=7f770ba9-2e48-47c9-8bb4-942855273bad"},"vehicle_type_id":"4","last_reported":1746123252,"current_range_meters":6800,"station_id":"","pricing_plan_id":"cebpf4jnsgd1na2vs0mg"},{"bike_id":"37f622c1-04d4-423f-bba1-e1a82646bc5b","system_id":"levelo_inurba_marseille","lat":43.31882,"lon":5.40738,"is_reserved":false,"is_disabled":false,"rental_uris":{"android":"levelo://app?vid=37f622c1-04d4-423f-bba1-e1a82646bc5b","ios":"levelo://app?vid=37f622c1-04d4-423f-bba1-e1a82646bc5b"},"vehicle_type_id":"4","last_reported":1746123252,"current_range_meters":8000,"station_id":"ce4bhq12rcd13ifvqhig","pricing_plan_id":"cebpf4jnsgd1na2vs0mg"},{"bike_id":"84ab9bdf-f062-4160-8d86-4eaa0b45b083","system_id":"levelo_inurba_marseille","lat":43.32569,"lon":5.39184,"is_reserved":false,"is_disabled":false,"rental_uris":{"android":"levelo://app?vid=84ab9bdf-f062-4160-8d86-4eaa0b45b083","ios":"levelo://app?vid=84ab9bdf-f062-4160-8d86-4eaa0b45b083"},"vehicle_type_id":"4","last_reported":1746123252,"current_range_meters":6800,"station_id":"","pricing_plan_id":"cebpf4jnsgd1na2vs0mg"},{"bike_id":"ce34639f-1a69-4d71-a32c-20f21e122e53","system_id":"levelo_inurba_marseille","lat":43.3093,"lon":5.4014,"is_reserved":false,"is_disabled":false,"rental_uris":{"android":"levelo://app?vid=ce34639f-1a69-4d71-a32c-20f21e122e53","ios":"levelo://app?vid=ce34639f-1a69-4d71-a32c-20f21e122e53"},"vehicle_type_id":"4","last_reported":1746123252,"current_range_meters":6800,"station_id":"ce4bgvp2rcd13ifvqct0","pricing_plan_id":"cebpf4jnsgd1na2vs0mg"},{"bike_id":"727a9e79-9eef-4d0d-8364-8cc93b121718","system_id":"levelo_inurba_marseille","lat":43.25474,"lon":5.37658,"is_reserved":false,"is_disabled":true,"rental_uris":{"android":"levelo://app?vid=727a9e79-9eef-4d0d-8364-8cc93b121718","ios":"levelo://app?vid=727a9e79-9eef-4d0d-8364-8cc93b121718"},"vehicle_type_id":"4","last_reported":1746123252,"current_range_meters":6800,"station_id":"ce4bhh12rcd13ifvqff0","pricing_plan_id":"cebpf4jnsgd1na2vs0mg"},{"bike_id":"55921513-3da1-478d-80de-f1f20cba0fb4","system_id":"levelo_inurba_marseille","lat":43.3124,"lon":5.36878,"is_reserved":false,"is_disabled":false,"rental_uris":{"android":"levelo://app?vid=55921513-3da1-478d-80de-f1f20cba0fb4","ios":"levelo://app?vid=55921513-3da1-478d-80de-f1f20cba0fb4"},"vehicle_type_id":"4","last_reported":1746123252,"current_range_meters":7200,"station_id":"ce4bgl92rcd13ifvqbq0","pricing_plan_id":"cebpf4jnsgd1na2vs0mg"},{"bike_id":"fe4c261d-ab3f-48f5-a1fb-427bed2905b5","system_id":"levelo_inurba_marseille","lat":43.2893,"lon":5.38393,"is_reserved":false,"is_disabled":false,"rental_uris":{"android":"levelo://app?vid=fe4c261d-ab3f-48f5-a1fb-427bed2905b5","ios":"levelo://app?vid=fe4c261d-ab3f-48f5-a1fb-427bed2905b5"},"vehicle_type_id":"4","last_reported":1746123252,"current_range_meters":8000,"station_id":"ce4bh612rcd13ifvqe6g","pricing_plan_id":"cebpf4jnsgd1na2vs0mg"},{"bike_id":"0840f843-3a67-4e05-a048-29d3d9d53dba","system_id":"levelo_inurba_marseille","lat":43.2572,"lon":5.41123,"is_reserved":false,"is_disabled":false,"rental_uris":{"android":"levelo://app?vid=0840f843-3a67-4e05-a048-29d3d9d53dba","ios":"levelo://app?vid=0840f843-3a67-4e05-a048-29d3d9d53dba"},"vehicle_type_id":"4","last_reported":1746123252,"current_range_meters":7200,"station_id":"ce4bhkp2rcd13ifvqgd0","pricing_plan_id":"cebpf4jnsgd1na2vs0mg"},{"bike_id":"77029cbd-082f-4d58-a638-49d51b79776a","system_id":"levelo_inurba_marseille","lat":43.29096,"lon":5.37563,"is_reserved":false,"is_disabled":false,"rental_uris":{"android":"levelo://app?vid=77029cbd-082f-4d58-a638-49d51b79776a","ios":"levelo://app?vid=77029cbd-082f-4d58-a638-49d51b79776a"},"vehicle_type_id":"4","last_reported":1746123252,"current_range_meters":7200,"station_id":"","pricing_plan_id":"cebpf4jnsgd1na2vs0mg"},{"bike_id":"838a0dab-f192-4f26-83f4-f166eddb976a","system_id":"levelo_inurba_marseille","lat":43.30542,"lon":5.367137,"is_reserved":false,"is_disabled":false,"rental_uris":{"android":"levelo://app?vid=838a0dab-f192-4f26-83f4-f166eddb976a","ios":"levelo://app?vid=838a0dab-f192-4f26-83f4-f166eddb976a"},"vehicle_type_id":"4","last_reported":1746123252,"current_range_meters":6800,"station_id":"ce4bgrp2rcd13ifvqc9g","pricing_plan_id":"cebpf4jnsgd1na2vs0mg"},{"bike_id":"d901647f-aef6-4e5f-b7ba-7cb0dfd0a264","system_id":"levelo_inurba_marseille","lat":43.307937,"lon":5.376398,"is_reserved":false,"is_disabled":true,"rental_uris":{"android":"levelo://app?vid=d901647f-aef6-4e5f-b7ba-7cb0dfd0a264","ios":"levelo://app?vid=d901647f-aef6-4e5f-b7ba-7cb0dfd0a264"},"vehicle_type_id":"4","last_reported":1746123252,"current_range_meters":7200,"station_id":"","pricing_plan_id":"cebpf4jnsgd1na2vs0mg"},{"bike_id":"0eadd088-dc1d-4379-9d76-dee8f03f7ab3","system_id":"levelo_inurba_marseille","lat":43.30146,"lon":5.38781,"is_reserved":false,"is_disabled":false,"rental_uris":{"android":"levelo://app?vid=0eadd088-dc1d-4379-9d76-dee8f03f7ab3","ios":"levelo://app?vid=0eadd088-dc1d-4379-9d76-dee8f03f7ab3"},"vehicle_type_id":"4","last_reported":1746123252,"current_range_meters":6800,"station_id":"ce4bghh2rcd13ifvqb60","pricing_plan_id":"cebpf4jnsgd1na2vs0mg"},{"bike_id":"df980261-9164-4726-a53e-d4c4d75d0b4f","system_id":"levelo_inurba_marseille","lat":43.28245,"lon":5.35116,"is_reserved":false,"is_disabled":false,"rental_uris":{"android":"levelo://app?vid=df980261-9164-4726-a53e-d4c4d75d0b4f","ios":"levelo://app?vid=df980261-9164-4726-a53e-d4c4d75d0b4f"},"vehicle_type_id":"4","last_reported":1746123252,"current_range_meters":7200,"station_id":"","pricing_plan_id":"cebpf4jnsgd1na2vs0mg"},{"bike_id":"e0a6ff03-210b-445b-8539-fe2da8a226fa","system_id":"levelo_inurba_marseille","lat":43.28676,"lon":5.38668,"is_reserved":false,"is_disabled":false,"rental_uris":{"android":"levelo://app?vid=e0a6ff03-210b-445b-8539-fe2da8a226fa","ios":"levelo://app?vid=e0a6ff03-210b-445b-8539-fe2da8a226fa"},"vehicle_type_id":"4","last_reported":1746123252,"current_range_meters":7200,"station_id":"ce4bh492rcd13ifvqdug","pricing_plan_id":"cebpf4jnsgd1na2vs0mg"},{"bike_id":"ed71e750-e511-4551-92bf-7bb1c28587b3","system_id":"levelo_inurba_marseille","lat":43.26804,"lon":5.40277,"is_reserved":false,"is_disabled":false,"rental_uris":{"android":"levelo://app?vid=ed71e750-e511-4551-92bf-7bb1c28587b3","ios":"levelo://app?vid=ed71e750-e511-4551-92bf-7bb1c28587b3"},"vehicle_type_id":"4","last_reported":1746123252,"current_range_meters":8000,"station_id":"ce501612rcd8frsf0b60","pricing_plan_id":"cebpf4jnsgd1na2vs0mg"},{"bike_id":"e21d3659-ef78-4d1b-b9f5-452b0dbee24a","system_id":"levelo_inurba_marseille","lat":43.30915,"lon":5.36854,"is_reserved":false,"is_disabled":false,"rental_uris":{"android":"levelo://app?vid=e21d3659-ef78-4d1b-b9f5-452b0dbee24a","ios":"levelo://app?vid=e21d3659-ef78-4d1b-b9f5-452b0dbee24a"},"vehicle_type_id":"4","last_reported":1746123252,"current_range_meters":8000,"station_id":"ce4bgn92rcd13ifvqbvg","pricing_plan_id":"cebpf4jnsgd1na2vs0mg"},{"bike_id":"fc02847a-ac1c-49ce-874c-be31f5faa39a","system_id":"levelo_inurba_marseille","lat":43.33613,"lon":5.41034,"is_reserved":false,"is_disabled":false,"rental_uris":{"android":"levelo://app?vid=fc02847a-ac1c-49ce-874c-be31f5faa39a","ios":"levelo://app?vid=fc02847a-ac1c-49ce-874c-be31f5faa39a"},"vehicle_type_id":"4","last_reported":1746123252,"current_range_meters":7200,"station_id":"ce4bhqh2rcd13ifvqhmg","pricing_plan_id":"cebpf4jnsgd1na2vs0mg"},{"bike_id":"8ab65aea-43d8-4ac0-ad96-be8c0d78a374","system_id":"levelo_inurba_marseille","lat":43.29972,"lon":5.3718,"is_reserved":false,"is_disabled":false,"rental_uris":{"android":"levelo://app?vid=8ab65aea-43d8-4ac0-ad96-be8c0d78a374","ios":"levelo://app?vid=8ab65aea-43d8-4ac0-ad96-be8c0d78a374"},"vehicle_type_id":"4","last_reported":1746123252,"current_range_meters":7200,"station_id":"ce4bgr92rcd13ifvqc7g","pricing_plan_id":"cebpf4jnsgd1na2vs0mg"},{"bike_id":"c47d0e0e-c695-4de2-b9a0-9b9f0ce37732","system_id":"levelo_inurba_marseille","lat":43.29919,"lon":5.37476,"is_reserved":false,"is_disabled":false,"rental_uris":{"android":"levelo://app?vid=c47d0e0e-c695-4de2-b9a0-9b9f0ce37732","ios":"levelo://app?vid=c47d0e0e-c695-4de2-b9a0-9b9f0ce37732"},"vehicle_type_id":"4","last_reported":1746123252,"current_range_meters":8000,"station_id":"ce4bgjh2rcd13ifvqbg0","pricing_plan_id":"cebpf4jnsgd1na2vs0mg"},{"bike_id":"5d4823ea-5a56-446b-95e3-95ba735e3bbf","system_id":"levelo_inurba_marseille","lat":43.29809,"lon":5.38085,"is_reserved":false,"is_disabled":false,"rental_uris":{"android":"levelo://app?vid=5d4823ea-5a56-446b-95e3-95ba735e3bbf","ios":"levelo://app?vid=5d4823ea-5a56-446b-95e3-95ba735e3bbf"},"vehicle_type_id":"4","last_reported":1746123252,"current_range_meters":8400,"station_id":"ce4bgip2rcd13ifvqbb0","pricing_plan_id":"cebpf4jnsgd1na2vs0mg"},{"bike_id":"16209dd0-65b5-445f-9d99-e1fca74735e0","system_id":"levelo_inurba_marseille","lat":43.32336,"lon":5.40624,"is_reserved":false,"is_disabled":false,"rental_uris":{"android":"levelo://app?vid=16209dd0-65b5-445f-9d99-e1fca74735e0","ios":"levelo://app?vid=16209dd0-65b5-445f-9d99-e1fca74735e0"},"vehicle_type_id":"4","last_reported":1746123252,"current_range_meters":8400,"station_id":"ce4bhq92rcd13ifvqhjg","pricing_plan_id":"cebpf4jnsgd1na2vs0mg"},{"bike_id":"e6d8449b-57b3-4011-ae86-7573444faf9e","system_id":"levelo_inurba_marseille","lat":43.29979,"lon":5.38502,"is_reserved":false,"is_disabled":false,"rental_uris":{"android":"levelo://app?vid=e6d8449b-57b3-4011-ae86-7573444faf9e","ios":"levelo://app?vid=e6d8449b-57b3-4011-ae86-7573444faf9e"},"vehicle_type_id":"4","last_reported":1746123252,"current_range_meters":8000,"station_id":"ce4bgj92rcd13ifvqbd0","pricing_plan_id":"cebpf4jnsgd1na2vs0mg"},{"bike_id":"45a897a0-8804-4925-8a62-c0e8fec569a8","system_id":"levelo_inurba_marseille","lat":43.23962,"lon":5.3663,"is_reserved":false,"is_disabled":true,"rental_uris":{"android":"levelo://app?vid=45a897a0-8804-4925-8a62-c0e8fec569a8","ios":"levelo://app?vid=45a897a0-8804-4925-8a62-c0e8fec569a8"},"vehicle_type_id":"4","last_reported":1746123252,"current_range_meters":8400,"station_id":"ce4bhi12rcd13ifvqfp0","pricing_plan_id":"cebpf4jnsgd1na2vs0mg"},{"bike_id":"d87ca868-8db7-42a4-ac92-1a373b079ed4","system_id":"levelo_inurba_marseille","lat":43.28717,"lon":5.39985,"is_reserved":false,"is_disabled":false,"rental_uris":{"android":"levelo://app?vid=d87ca868-8db7-42a4-ac92-1a373b079ed4","ios":"levelo://app?vid=d87ca868-8db7-42a4-ac92-1a373b079ed4"},"vehicle_type_id":"4","last_reported":1746123252,"current_range_meters":8400,"station_id":"ce4bho92rcd13ifvqh3g","pricing_plan_id":"cebpf4jnsgd1na2vs0mg"},{"bike_id":"866288a7-3f9d-4035-90db-bd172723c606","system_id":"levelo_inurba_marseille","lat":43.29555,"lon":5.42293,"is_reserved":false,"is_disabled":false,"rental_uris":{"android":"levelo://app?vid=866288a7-3f9d-4035-90db-bd172723c606","ios":"levelo://app?vid=866288a7-3f9d-4035-90db-bd172723c606"},"vehicle_type_id":"4","last_reported":1746123252,"current_range_meters":8400,"station_id":"ce4bhph2rcd13ifvqhdg","pricing_plan_id":"cebpf4jnsgd1na2vs0mg"},{"bike_id":"5787444e-2a17-43d2-a016-b63b0fc6e7fd","system_id":"levelo_inurba_marseille","lat":43.311754,"lon":5.387221,"is_reserved":false,"is_disabled":false,"rental_uris":{"android":"levelo://app?vid=5787444e-2a17-43d2-a016-b63b0fc6e7fd","ios":"levelo://app?vid=5787444e-2a17-43d2-a016-b63b0fc6e7fd"},"vehicle_type_id":"4","last_reported":1746123252,"current_range_meters":8400,"station_id":"ce4bgv12rcd13ifvqcp0","pricing_plan_id":"cebpf4jnsgd1na2vs0mg"},{"bike_id":"6ec79724-695f-4466-b4f4-7a3dea399050","system_id":"levelo_inurba_marseille","lat":43.27071,"lon":5.42279,"is_reserved":false,"is_disabled":false,"rental_uris":{"android":"levelo://app?vid=6ec79724-695f-4466-b4f4-7a3dea399050","ios":"levelo://app?vid=6ec79724-695f-4466-b4f4-7a3dea399050"},"vehicle_type_id":"4","last_reported":1746123252,"current_range_meters":8400,"station_id":"ce4bhk92rcd13ifvqgb0","pricing_plan_id":"cebpf4jnsgd1na2vs0mg"},{"bike_id":"7fa0b7e3-5d58-472e-8ec8-3acf5489e3b0","system_id":"levelo_inurba_marseille","lat":43.25729,"lon":5.41108,"is_reserved":false,"is_disabled":false,"rental_uris":{"android":"levelo://app?vid=7fa0b7e3-5d58-472e-8ec8-3acf5489e3b0","ios":"levelo://app?vid=7fa0b7e3-5d58-472e-8ec8-3acf5489e3b0"},"vehicle_type_id":"4","last_reported":1746123252,"current_range_meters":8800,"station_id":"ce4bhkp2rcd13ifvqgd0","pricing_plan_id":"cebpf4jnsgd1na2vs0mg"},{"bike_id":"c5a9b372-6a41-4ee0-89ee-bfa89193af75","system_id":"levelo_inurba_marseille","lat":43.25819,"lon":5.39438,"is_reserved":false,"is_disabled":false,"rental_uris":{"android":"levelo://app?vid=c5a9b372-6a41-4ee0-89ee-bfa89193af75","ios":"levelo://app?vid=c5a9b372-6a41-4ee0-89ee-bfa89193af75"},"vehicle_type_id":"4","last_reported":1746123252,"current_range_meters":8800,"station_id":"ce4bhip2rcd13ifvqft0","pricing_plan_id":"cebpf4jnsgd1na2vs0mg"},{"bike_id":"d0575c2f-0b55-4904-b30f-7fa2165aecdb","system_id":"levelo_inurba_marseille","lat":43.26929,"lon":5.40266,"is_reserved":false,"is_disabled":false,"rental_uris":{"android":"levelo://app?vid=d0575c2f-0b55-4904-b30f-7fa2165aecdb","ios":"levelo://app?vid=d0575c2f-0b55-4904-b30f-7fa2165aecdb"},"vehicle_type_id":"4","last_reported":1746123252,"current_range_meters":8800,"station_id":"cjm6bp8fraef2m0cb0m0","pricing_plan_id":"cebpf4jnsgd1na2vs0mg"},{"bike_id":"f2fd36e9-85af-47cf-aef6-73ffbb835566","system_id":"levelo_inurba_marseille","lat":43.24085,"lon":5.37759,"is_reserved":false,"is_disabled":false,"rental_uris":{"android":"levelo://app?vid=f2fd36e9-85af-47cf-aef6-73ffbb835566","ios":"levelo://app?vid=f2fd36e9-85af-47cf-aef6-73ffbb835566"},"vehicle_type_id":"4","last_reported":1746123252,"current_range_meters":8800,"station_id":"ce4bhnp2rcd13ifvqgvg","pricing_plan_id":"cebpf4jnsgd1na2vs0mg"},{"bike_id":"9e134577-a8ce-4908-ad5f-c4fa48a5d9a6","system_id":"levelo_inurba_marseille","lat":43.33612,"lon":5.41032,"is_reserved":false,"is_disabled":false,"rental_uris":{"android":"levelo://app?vid=9e134577-a8ce-4908-ad5f-c4fa48a5d9a6","ios":"levelo://app?vid=9e134577-a8ce-4908-ad5f-c4fa48a5d9a6"},"vehicle_type_id":"4","last_reported":1746123252,"current_range_meters":8800,"station_id":"ce4bhqh2rcd13ifvqhmg","pricing_plan_id":"cebpf4jnsgd1na2vs0mg"},{"bike_id":"b09af1a0-b205-48bc-a0ba-c4647cae39ef","system_id":"levelo_inurba_marseille","lat":43.31532,"lon":5.38035,"is_reserved":false,"is_disabled":false,"rental_uris":{"android":"levelo://app?vid=b09af1a0-b205-48bc-a0ba-c4647cae39ef","ios":"levelo://app?vid=b09af1a0-b205-48bc-a0ba-c4647cae39ef"},"vehicle_type_id":"4","last_reported":1746123252,"current_range_meters":9200,"station_id":"ce4bhsp2rcd13ifvqi50","pricing_plan_id":"cebpf4jnsgd1na2vs0mg"},{"bike_id":"92c9c34a-2661-40c7-b42b-42a1687057dd","system_id":"levelo_inurba_marseille","lat":43.21199,"lon":5.35076,"is_reserved":false,"is_disabled":true,"rental_uris":{"android":"levelo://app?vid=92c9c34a-2661-40c7-b42b-42a1687057dd","ios":"levelo://app?vid=92c9c34a-2661-40c7-b42b-42a1687057dd"},"vehicle_type_id":"4","last_reported":1746123252,"current_range_meters":9200,"station_id":"st_cvj6sg6p6f1abm77japg","pricing_plan_id":"cebpf4jnsgd1na2vs0mg"},{"bike_id":"3d3c4d21-1074-459d-aba8-678125fd3c85","system_id":"levelo_inurba_marseille","lat":43.269459,"lon":5.402525,"is_reserved":false,"is_disabled":false,"rental_uris":{"android":"levelo://app?vid=3d3c4d21-1074-459d-aba8-678125fd3c85","ios":"levelo://app?vid=3d3c4d21-1074-459d-aba8-678125fd3c85"},"vehicle_type_id":"4","last_reported":1746123252,"current_range_meters":9200,"station_id":"ce4bh8p2rcd13ifvqeb0","pricing_plan_id":"cebpf4jnsgd1na2vs0mg"},{"bike_id":"3f4a58f6-bbe3-4bfc-abfd-2ab69cc62f0b","system_id":"levelo_inurba_marseille","lat":43.32653,"lon":5.4102,"is_reserved":false,"is_disabled":false,"rental_uris":{"android":"levelo://app?vid=3f4a58f6-bbe3-4bfc-abfd-2ab69cc62f0b","ios":"levelo://app?vid=3f4a58f6-bbe3-4bfc-abfd-2ab69cc62f0b"},"vehicle_type_id":"4","last_reported":1746123252,"current_range_meters":9200,"station_id":"ce4bhpp2rcd13ifvqhgg","pricing_plan_id":"cebpf4jnsgd1na2vs0mg"},{"bike_id":"08ae6229-5a47-4c4c-99ac-4ba6243e9cfe","system_id":"levelo_inurba_marseille","lat":43.23057,"lon":5.35505,"is_reserved":false,"is_disabled":true,"rental_uris":{"android":"levelo://app?vid=08ae6229-5a47-4c4c-99ac-4ba6243e9cfe","ios":"levelo://app?vid=08ae6229-5a47-4c4c-99ac-4ba6243e9cfe"},"vehicle_type_id":"4","last_reported":1746123252,"current_range_meters":9200,"station_id":"cpo3342slgdg3j2ifvpg","pricing_plan_id":"cebpf4jnsgd1na2vs0mg"},{"bike_id":"51ef9827-05d4-4f72-abc3-c6fec8c5a095","system_id":"levelo_inurba_marseille","lat":43.23159,"lon":5.43716,"is_reserved":false,"is_disabled":false,"rental_uris":{"android":"levelo://app?vid=51ef9827-05d4-4f72-abc3-c6fec8c5a095","ios":"levelo://app?vid=51ef9827-05d4-4f72-abc3-c6fec8c5a095"},"vehicle_type_id":"4","last_reported":1746123252,"current_range_meters":9600,"station_id":"ce4bhmp2rcd13ifvqgog","pricing_plan_id":"cebpf4jnsgd1na2vs0mg"},{"bike_id":"d90a9f6a-dcc7-4188-90fd-9982aa485cbb","system_id":"levelo_inurba_marseille","lat":43.24396,"lon":5.37054,"is_reserved":false,"is_disabled":true,"rental_uris":{"android":"levelo://app?vid=d90a9f6a-dcc7-4188-90fd-9982aa485cbb","ios":"levelo://app?vid=d90a9f6a-dcc7-4188-90fd-9982aa485cbb"},"vehicle_type_id":"4","last_reported":1746123252,"current_range_meters":9600,"station_id":"ce4bhhh2rcd13ifvqfk0","pricing_plan_id":"cebpf4jnsgd1na2vs0mg"},{"bike_id":"8c14a9dd-9596-4c54-9b10-cae5d57b4d1b","system_id":"levelo_inurba_marseille","lat":43.32406,"lon":5.39036,"is_reserved":false,"is_disabled":false,"rental_uris":{"android":"levelo://app?vid=8c14a9dd-9596-4c54-9b10-cae5d57b4d1b","ios":"levelo://app?vid=8c14a9dd-9596-4c54-9b10-cae5d57b4d1b"},"vehicle_type_id":"4","last_reported":1746123252,"current_range_meters":9600,"station_id":"","pricing_plan_id":"cebpf4jnsgd1na2vs0mg"},{"bike_id":"1a0e9be5-bd4f-4026-be47-4bf333aa540c","system_id":"levelo_inurba_marseille","lat":43.28443,"lon":5.39181,"is_reserved":false,"is_disabled":true,"rental_uris":{"android":"levelo://app?vid=1a0e9be5-bd4f-4026-be47-4bf333aa540c","ios":"levelo://app?vid=1a0e9be5-bd4f-4026-be47-4bf333aa540c"},"vehicle_type_id":"4","last_reported":1746123252,"current_range_meters":9600,"station_id":"ce4bhoh2rcd13ifvqh5g","pricing_plan_id":"cebpf4jnsgd1na2vs0mg"},{"bike_id":"22da4027-4f6f-45d1-9334-006a58311cd1","system_id":"levelo_inurba_marseille","lat":43.24053,"lon":5.36783,"is_reserved":false,"is_disabled":false,"rental_uris":{"android":"levelo://app?vid=22da4027-4f6f-45d1-9334-006a58311cd1","ios":"levelo://app?vid=22da4027-4f6f-45d1-9334-006a58311cd1"},"vehicle_type_id":"4","last_reported":1746123252,"current_range_meters":10000,"station_id":"","pricing_plan_id":"cebpf4jnsgd1na2vs0mg"},{"bike_id":"9171477c-6b5e-43b2-b194-a16f5156a81f","system_id":"levelo_inurba_marseille","lat":43.290881,"lon":5.371546,"is_reserved":false,"is_disabled":false,"rental_uris":{"android":"levelo://app?vid=9171477c-6b5e-43b2-b194-a16f5156a81f","ios":"levelo://app?vid=9171477c-6b5e-43b2-b194-a16f5156a81f"},"vehicle_type_id":"4","last_reported":1746123252,"current_range_meters":9600,"station_id":"ce4bh5p2rcd13ifvqe4g","pricing_plan_id":"cebpf4jnsgd1na2vs0mg"},{"bike_id":"b9e739ab-487b-4ec2-b0dd-f0c55fd5e42b","system_id":"levelo_inurba_marseille","lat":43.29438,"lon":5.39759,"is_reserved":false,"is_disabled":false,"rental_uris":{"android":"levelo://app?vid=b9e739ab-487b-4ec2-b0dd-f0c55fd5e42b","ios":"levelo://app?vid=b9e739ab-487b-4ec2-b0dd-f0c55fd5e42b"},"vehicle_type_id":"4","last_reported":1746123252,"current_range_meters":10000,"station_id":"ce4bh3h2rcd13ifvqdo0","pricing_plan_id":"cebpf4jnsgd1na2vs0mg"},{"bike_id":"015c51c2-7e45-4233-9e8f-b2f2d10e5e5d","system_id":"levelo_inurba_marseille","lat":43.31355,"lon":5.38493,"is_reserved":false,"is_disabled":false,"rental_uris":{"android":"levelo://app?vid=015c51c2-7e45-4233-9e8f-b2f2d10e5e5d","ios":"levelo://app?vid=015c51c2-7e45-4233-9e8f-b2f2d10e5e5d"},"vehicle_type_id":"4","last_reported":1746123252,"current_range_meters":10000,"station_id":"ce4bgt92rcd13ifvqcf0","pricing_plan_id":"cebpf4jnsgd1na2vs0mg"},{"bike_id":"2df3c7e7-6f24-4b35-8876-4ea421331109","system_id":"levelo_inurba_marseille","lat":43.25099,"lon":5.40315,"is_reserved":false,"is_disabled":true,"rental_uris":{"android":"levelo://app?vid=2df3c7e7-6f24-4b35-8876-4ea421331109","ios":"levelo://app?vid=2df3c7e7-6f24-4b35-8876-4ea421331109"},"vehicle_type_id":"4","last_reported":1746123252,"current_range_meters":10800,"station_id":"ce4bhlh2rcd13ifvqgig","pricing_plan_id":"cebpf4jnsgd1na2vs0mg"},{"bike_id":"54caf1f7-795a-4b6a-a776-5d7a5f0a9948","system_id":"levelo_inurba_marseille","lat":43.29275,"lon":5.36842,"is_reserved":false,"is_disabled":false,"rental_uris":{"android":"levelo://app?vid=54caf1f7-795a-4b6a-a776-5d7a5f0a9948","ios":"levelo://app?vid=54caf1f7-795a-4b6a-a776-5d7a5f0a9948"},"vehicle_type_id":"4","last_reported":1746123252,"current_range_meters":10800,"station_id":"ce4bhbp2rcd13ifvqesg","pricing_plan_id":"cebpf4jnsgd1na2vs0mg"},{"bike_id":"d3f1acd2-97c5-462a-b9d5-ca942a9c207d","system_id":"levelo_inurba_marseille","lat":43.34142,"lon":5.40908,"is_reserved":false,"is_disabled":false,"rental_uris":{"android":"levelo://app?vid=d3f1acd2-97c5-462a-b9d5-ca942a9c207d","ios":"levelo://app?vid=d3f1acd2-97c5-462a-b9d5-ca942a9c207d"},"vehicle_type_id":"4","last_reported":1746123252,"current_range_meters":10800,"station_id":"ce4bhqh2rcd13ifvqhlg","pricing_plan_id":"cebpf4jnsgd1na2vs0mg"},{"bike_id":"ec853579-da32-4aa7-b370-d4c64fe3c1c9","system_id":"levelo_inurba_marseille","lat":43.29002,"lon":5.35608,"is_reserved":false,"is_disabled":true,"rental_uris":{"android":"levelo://app?vid=ec853579-da32-4aa7-b370-d4c64fe3c1c9","ios":"levelo://app?vid=ec853579-da32-4aa7-b370-d4c64fe3c1c9"},"vehicle_type_id":"4","last_reported":1746123252,"current_range_meters":11200,"station_id":"ce4bhb92rcd13ifvqen0","pricing_plan_id":"cebpf4jnsgd1na2vs0mg"},{"bike_id":"569129b7-d1d1-4b0f-bb83-61f78652a2b4","system_id":"levelo_inurba_marseille","lat":43.30361,"lon":5.4187,"is_reserved":false,"is_disabled":false,"rental_uris":{"android":"levelo://app?vid=569129b7-d1d1-4b0f-bb83-61f78652a2b4","ios":"levelo://app?vid=569129b7-d1d1-4b0f-bb83-61f78652a2b4"},"vehicle_type_id":"4","last_reported":1746123252,"current_range_meters":11600,"station_id":"ce4bhop2rcd13ifvqh7g","pricing_plan_id":"cebpf4jnsgd1na2vs0mg"},{"bike_id":"ed1b4abf-f2c4-466c-9b27-f617b37e5d0f","system_id":"levelo_inurba_marseille","lat":43.31364,"lon":5.38494,"is_reserved":false,"is_disabled":false,"rental_uris":{"android":"levelo://app?vid=ed1b4abf-f2c4-466c-9b27-f617b37e5d0f","ios":"levelo://app?vid=ed1b4abf-f2c4-466c-9b27-f617b37e5d0f"},"vehicle_type_id":"4","last_reported":1746123252,"current_range_meters":11600,"station_id":"ce4bgt92rcd13ifvqcf0","pricing_plan_id":"cebpf4jnsgd1na2vs0mg"},{"bike_id":"3b247ca8-0635-4a3f-b21d-d14591725c8a","system_id":"levelo_inurba_marseille","lat":43.30145,"lon":5.38789,"is_reserved":false,"is_disabled":false,"rental_uris":{"android":"levelo://app?vid=3b247ca8-0635-4a3f-b21d-d14591725c8a","ios":"levelo://app?vid=3b247ca8-0635-4a3f-b21d-d14591725c8a"},"vehicle_type_id":"4","last_reported":1746123252,"current_range_meters":11200,"station_id":"ce4bghh2rcd13ifvqb60","pricing_plan_id":"cebpf4jnsgd1na2vs0mg"},{"bike_id":"5ed91576-c434-4233-8993-f3d9afc6d707","system_id":"levelo_inurba_marseille","lat":43.27973,"lon":5.38743,"is_reserved":false,"is_disabled":false,"rental_uris":{"android":"levelo://app?vid=5ed91576-c434-4233-8993-f3d9afc6d707","ios":"levelo://app?vid=5ed91576-c434-4233-8993-f3d9afc6d707"},"vehicle_type_id":"4","last_reported":1746123252,"current_range_meters":12000,"station_id":"ce4bhg12rcd13ifvqf80","pricing_plan_id":"cebpf4jnsgd1na2vs0mg"},{"bike_id":"56f543c3-cb38-4272-a4e5-cab053dcc3e0","system_id":"levelo_inurba_marseille","lat":43.291966,"lon":5.392961,"is_reserved":false,"is_disabled":true,"rental_uris":{"android":"levelo://app?vid=56f543c3-cb38-4272-a4e5-cab053dcc3e0","ios":"levelo://app?vid=56f543c3-cb38-4272-a4e5-cab053dcc3e0"},"vehicle_type_id":"4","last_reported":1746123252,"current_range_meters":12000,"station_id":"ce4bhbh2rcd13ifvqeo0","pricing_plan_id":"cebpf4jnsgd1na2vs0mg"},{"bike_id":"46401919-08f5-4a0a-8a66-b14306b99ac5","system_id":"levelo_inurba_marseille","lat":43.29871,"lon":5.38904,"is_reserved":false,"is_disabled":false,"rental_uris":{"android":"levelo://app?vid=46401919-08f5-4a0a-8a66-b14306b99ac5","ios":"levelo://app?vid=46401919-08f5-4a0a-8a66-b14306b99ac5"},"vehicle_type_id":"4","last_reported":1746123252,"current_range_meters":12000,"station_id":"ce4bh392rcd13ifvqdl0","pricing_plan_id":"cebpf4jnsgd1na2vs0mg"},{"bike_id":"15248f7c-7bed-43d6-a816-9188a74a5ea9","system_id":"levelo_inurba_marseille","lat":43.31278,"lon":5.40167,"is_reserved":false,"is_disabled":false,"rental_uris":{"android":"levelo://app?vid=15248f7c-7bed-43d6-a816-9188a74a5ea9","ios":"levelo://app?vid=15248f7c-7bed-43d6-a816-9188a74a5ea9"},"vehicle_type_id":"4","last_reported":1746123252,"current_range_meters":12000,"station_id":"ce4bh092rcd13ifvqd30","pricing_plan_id":"cebpf4jnsgd1na2vs0mg"},{"bike_id":"73de5af1-bf79-433a-a20c-6899488a09e7","system_id":"levelo_inurba_marseille","lat":43.29319,"lon":5.37163,"is_reserved":false,"is_disabled":true,"rental_uris":{"android":"levelo://app?vid=73de5af1-bf79-433a-a20c-6899488a09e7","ios":"levelo://app?vid=73de5af1-bf79-433a-a20c-6899488a09e7"},"vehicle_type_id":"4","last_reported":1746123252,"current_range_meters":12000,"station_id":"ce4bgh92rcd13ifvqb40","pricing_plan_id":"cebpf4jnsgd1na2vs0mg"},{"bike_id":"428915ea-2fe8-4e67-873c-0e21c9f30f5c","system_id":"levelo_inurba_marseille","lat":43.31758,"lon":5.39005,"is_reserved":false,"is_disabled":false,"rental_uris":{"android":"levelo://app?vid=428915ea-2fe8-4e67-873c-0e21c9f30f5c","ios":"levelo://app?vid=428915ea-2fe8-4e67-873c-0e21c9f30f5c"},"vehicle_type_id":"4","last_reported":1746123252,"current_range_meters":12000,"station_id":"ce4bhqp2rcd13ifvqhng","pricing_plan_id":"cebpf4jnsgd1na2vs0mg"},{"bike_id":"e83c18d2-588e-494a-a5d9-24e62b0ff9e5","system_id":"levelo_inurba_marseille","lat":43.30552,"lon":5.36702,"is_reserved":false,"is_disabled":false,"rental_uris":{"android":"levelo://app?vid=e83c18d2-588e-494a-a5d9-24e62b0ff9e5","ios":"levelo://app?vid=e83c18d2-588e-494a-a5d9-24e62b0ff9e5"},"vehicle_type_id":"4","last_reported":1746123252,"current_range_meters":12800,"station_id":"ce4bgrp2rcd13ifvqc9g","pricing_plan_id":"cebpf4jnsgd1na2vs0mg"},{"bike_id":"3f8bea75-f1b7-42a9-9ff5-4986c0552272","system_id":"levelo_inurba_marseille","lat":43.21745,"lon":5.34601,"is_reserved":false,"is_disabled":true,"rental_uris":{"android":"levelo://app?vid=3f8bea75-f1b7-42a9-9ff5-4986c0552272","ios":"levelo://app?vid=3f8bea75-f1b7-42a9-9ff5-4986c0552272"},"vehicle_type_id":"4","last_reported":1746123252,"current_range_meters":12800,"station_id":"st_cvj6r9ubvosntc0bgbag","pricing_plan_id":"cebpf4jnsgd1na2vs0mg"},{"bike_id":"c7c7a92b-c148-41bb-b985-b3d124e5c071","system_id":"levelo_inurba_marseille","lat":43.24818,"lon":5.37459,"is_reserved":false,"is_disabled":true,"rental_uris":{"android":"levelo://app?vid=c7c7a92b-c148-41bb-b985-b3d124e5c071","ios":"levelo://app?vid=c7c7a92b-c148-41bb-b985-b3d124e5c071"},"vehicle_type_id":"4","last_reported":1746123252,"current_range_meters":13600,"station_id":"ce4bhgh2rcd13ifvqfb0","pricing_plan_id":"cebpf4jnsgd1na2vs0mg"},{"bike_id":"6aacf51f-8558-4efa-97d7-2bae510e7be8","system_id":"levelo_inurba_marseille","lat":43.27066,"lon":5.42272,"is_reserved":false,"is_disabled":false,"rental_uris":{"android":"levelo://app?vid=6aacf51f-8558-4efa-97d7-2bae510e7be8","ios":"levelo://app?vid=6aacf51f-8558-4efa-97d7-2bae510e7be8"},"vehicle_type_id":"4","last_reported":1746123252,"current_range_meters":13600,"station_id":"ce4bhk92rcd13ifvqgb0","pricing_plan_id":"cebpf4jnsgd1na2vs0mg"},{"bike_id":"0b9ac188-19a7-4ad4-8279-34f1318ce56d","system_id":"levelo_inurba_marseille","lat":43.312811,"lon":5.377574,"is_reserved":false,"is_disabled":false,"rental_uris":{"android":"levelo://app?vid=0b9ac188-19a7-4ad4-8279-34f1318ce56d","ios":"levelo://app?vid=0b9ac188-19a7-4ad4-8279-34f1318ce56d"},"vehicle_type_id":"4","last_reported":1746123252,"current_range_meters":14000,"station_id":"","pricing_plan_id":"cebpf4jnsgd1na2vs0mg"},{"bike_id":"fb20a471-1d98-44dd-8128-9a5cd651ad59","system_id":"levelo_inurba_marseille","lat":43.31494,"lon":5.37314,"is_reserved":false,"is_disabled":false,"rental_uris":{"android":"levelo://app?vid=fb20a471-1d98-44dd-8128-9a5cd651ad59","ios":"levelo://app?vid=fb20a471-1d98-44dd-8128-9a5cd651ad59"},"vehicle_type_id":"4","last_reported":1746123252,"current_range_meters":14400,"station_id":"ce4bgt12rcd13ifvqcd0","pricing_plan_id":"cebpf4jnsgd1na2vs0mg"},{"bike_id":"beb1794b-cab2-4f9a-aa06-23d1289cec5e","system_id":"levelo_inurba_marseille","lat":43.28157,"lon":5.42643,"is_reserved":false,"is_disabled":false,"rental_uris":{"android":"levelo://app?vid=beb1794b-cab2-4f9a-aa06-23d1289cec5e","ios":"levelo://app?vid=beb1794b-cab2-4f9a-aa06-23d1289cec5e"},"vehicle_type_id":"4","last_reported":1746123252,"current_range_meters":14400,"station_id":"ce4bhnh2rcd13ifvqgug","pricing_plan_id":"cebpf4jnsgd1na2vs0mg"},{"bike_id":"6d5b62c4-b070-430c-880e-8515136a74b8","system_id":"levelo_inurba_marseille","lat":43.29263,"lon":5.37617,"is_reserved":false,"is_disabled":false,"rental_uris":{"android":"levelo://app?vid=6d5b62c4-b070-430c-880e-8515136a74b8","ios":"levelo://app?vid=6d5b62c4-b070-430c-880e-8515136a74b8"},"vehicle_type_id":"4","last_reported":1746123252,"current_range_meters":14400,"station_id":"ce4bgi12rcd13ifvqb80","pricing_plan_id":"cebpf4jnsgd1na2vs0mg"},{"bike_id":"7d05cf41-e77f-4972-ae9e-b052a298f29f","system_id":"levelo_inurba_marseille","lat":43.29538,"lon":5.38538,"is_reserved":false,"is_disabled":false,"rental_uris":{"android":"levelo://app?vid=7d05cf41-e77f-4972-ae9e-b052a298f29f","ios":"levelo://app?vid=7d05cf41-e77f-4972-ae9e-b052a298f29f"},"vehicle_type_id":"4","last_reported":1746123252,"current_range_meters":14400,"station_id":"ce4bgih2rcd13ifvqba0","pricing_plan_id":"cebpf4jnsgd1na2vs0mg"},{"bike_id":"aeb779e5-0c22-44ca-8d0f-d36230caa31a","system_id":"levelo_inurba_marseille","lat":43.29025,"lon":5.38142,"is_reserved":false,"is_disabled":false,"rental_uris":{"android":"levelo://app?vid=aeb779e5-0c22-44ca-8d0f-d36230caa31a","ios":"levelo://app?vid=aeb779e5-0c22-44ca-8d0f-d36230caa31a"},"vehicle_type_id":"4","last_reported":1746123252,"current_range_meters":14800,"station_id":"ce4bh4p2rcd13ifvqe1g","pricing_plan_id":"cebpf4jnsgd1na2vs0mg"},{"bike_id":"6ae34b5e-bcb8-445c-b08c-dfe307444296","system_id":"levelo_inurba_marseille","lat":43.31328,"lon":5.39706,"is_reserved":false,"is_disabled":false,"rental_uris":{"android":"levelo://app?vid=6ae34b5e-bcb8-445c-b08c-dfe307444296","ios":"levelo://app?vid=6ae34b5e-bcb8-445c-b08c-dfe307444296"},"vehicle_type_id":"4","last_reported":1746123252,"current_range_meters":14800,"station_id":"ce4bgvp2rcd13ifvqcu0","pricing_plan_id":"cebpf4jnsgd1na2vs0mg"},{"bike_id":"4e7a219e-43e4-4838-92f7-7076aa9a7b8a","system_id":"levelo_inurba_marseille","lat":43.32543,"lon":5.4142,"is_reserved":false,"is_disabled":false,"rental_uris":{"android":"levelo://app?vid=4e7a219e-43e4-4838-92f7-7076aa9a7b8a","ios":"levelo://app?vid=4e7a219e-43e4-4838-92f7-7076aa9a7b8a"},"vehicle_type_id":"4","last_reported":1746123252,"current_range_meters":14400,"station_id":"ce4bhq12rcd13ifvqhhg","pricing_plan_id":"cebpf4jnsgd1na2vs0mg"},{"bike_id":"7a7f0607-fb68-440c-b7e3-73e82541e96e","system_id":"levelo_inurba_marseille","lat":43.27983,"lon":5.41659,"is_reserved":false,"is_disabled":false,"rental_uris":{"android":"levelo://app?vid=7a7f0607-fb68-440c-b7e3-73e82541e96e","ios":"levelo://app?vid=7a7f0607-fb68-440c-b7e3-73e82541e96e"},"vehicle_type_id":"4","last_reported":1746123252,"current_range_meters":14800,"station_id":"ce4bho12rcd13ifvqh1g","pricing_plan_id":"cebpf4jnsgd1na2vs0mg"},{"bike_id":"236585c4-7820-44e2-909b-9ae677da8da9","system_id":"levelo_inurba_marseille","lat":43.30554,"lon":5.36698,"is_reserved":false,"is_disabled":false,"rental_uris":{"android":"levelo://app?vid=236585c4-7820-44e2-909b-9ae677da8da9","ios":"levelo://app?vid=236585c4-7820-44e2-909b-9ae677da8da9"},"vehicle_type_id":"4","last_reported":1746123252,"current_range_meters":14800,"station_id":"ce4bgrp2rcd13ifvqc9g","pricing_plan_id":"cebpf4jnsgd1na2vs0mg"},{"bike_id":"0e76ad88-2579-4467-a103-d1e44aeb826c","system_id":"levelo_inurba_marseille","lat":43.31272,"lon":5.40172,"is_reserved":false,"is_disabled":false,"rental_uris":{"android":"levelo://app?vid=0e76ad88-2579-4467-a103-d1e44aeb826c","ios":"levelo://app?vid=0e76ad88-2579-4467-a103-d1e44aeb826c"},"vehicle_type_id":"4","last_reported":1746123252,"current_range_meters":15200,"station_id":"ce4bh092rcd13ifvqd30","pricing_plan_id":"cebpf4jnsgd1na2vs0mg"},{"bike_id":"cfccd54f-728d-4de3-9f0d-1702d3ffeca0","system_id":"levelo_inurba_marseille","lat":43.29899,"lon":5.43661,"is_reserved":false,"is_disabled":false,"rental_uris":{"android":"levelo://app?vid=cfccd54f-728d-4de3-9f0d-1702d3ffeca0","ios":"levelo://app?vid=cfccd54f-728d-4de3-9f0d-1702d3ffeca0"},"vehicle_type_id":"4","last_reported":1746123252,"current_range_meters":15200,"station_id":"ce4bhpp2rcd13ifvqhfg","pricing_plan_id":"cebpf4jnsgd1na2vs0mg"},{"bike_id":"f262ed2c-8094-411a-b173-bebf0c47da39","system_id":"levelo_inurba_marseille","lat":43.309127,"lon":5.368495,"is_reserved":false,"is_disabled":false,"rental_uris":{"android":"levelo://app?vid=f262ed2c-8094-411a-b173-bebf0c47da39","ios":"levelo://app?vid=f262ed2c-8094-411a-b173-bebf0c47da39"},"vehicle_type_id":"4","last_reported":1746123252,"current_range_meters":15200,"station_id":"","pricing_plan_id":"cebpf4jnsgd1na2vs0mg"},{"bike_id":"0c9a8767-a71f-4ef0-b390-c3b7e9c632a8","system_id":"levelo_inurba_marseille","lat":43.21191,"lon":5.35072,"is_reserved":false,"is_disabled":true,"rental_uris":{"android":"levelo://app?vid=0c9a8767-a71f-4ef0-b390-c3b7e9c632a8","ios":"levelo://app?vid=0c9a8767-a71f-4ef0-b390-c3b7e9c632a8"},"vehicle_type_id":"4","last_reported":1746123252,"current_range_meters":16000,"station_id":"st_cvj6sg6p6f1abm77japg","pricing_plan_id":"cebpf4jnsgd1na2vs0mg"},{"bike_id":"efc184bf-96c0-4865-9f58-4d4b4dab80ad","system_id":"levelo_inurba_marseille","lat":43.29908,"lon":5.38133,"is_reserved":false,"is_disabled":false,"rental_uris":{"android":"levelo://app?vid=efc184bf-96c0-4865-9f58-4d4b4dab80ad","ios":"levelo://app?vid=efc184bf-96c0-4865-9f58-4d4b4dab80ad"},"vehicle_type_id":"4","last_reported":1746123252,"current_range_meters":16000,"station_id":"ce4bgj12rcd13ifvqbc0","pricing_plan_id":"cebpf4jnsgd1na2vs0mg"},{"bike_id":"faae64a1-226d-4384-9f51-eefe58deeedf","system_id":"levelo_inurba_marseille","lat":43.30802,"lon":5.38165,"is_reserved":false,"is_disabled":false,"rental_uris":{"android":"levelo://app?vid=faae64a1-226d-4384-9f51-eefe58deeedf","ios":"levelo://app?vid=faae64a1-226d-4384-9f51-eefe58deeedf"},"vehicle_type_id":"4","last_reported":1746123252,"current_range_meters":16000,"station_id":"ce4bgt12rcd13ifvqce0","pricing_plan_id":"cebpf4jnsgd1na2vs0mg"},{"bike_id":"eb60ebeb-19e9-43bd-8d8a-276b6b709b53","system_id":"levelo_inurba_marseille","lat":43.318918,"lon":5.407253,"is_reserved":false,"is_disabled":false,"rental_uris":{"android":"levelo://app?vid=eb60ebeb-19e9-43bd-8d8a-276b6b709b53","ios":"levelo://app?vid=eb60ebeb-19e9-43bd-8d8a-276b6b709b53"},"vehicle_type_id":"4","last_reported":1746123252,"current_range_meters":16000,"station_id":"ce4bhq12rcd13ifvqhig","pricing_plan_id":"cebpf4jnsgd1na2vs0mg"},{"bike_id":"14bda91a-682a-452f-af68-22abc646d5f1","system_id":"levelo_inurba_marseille","lat":43.3117,"lon":5.3873,"is_reserved":false,"is_disabled":false,"rental_uris":{"android":"levelo://app?vid=14bda91a-682a-452f-af68-22abc646d5f1","ios":"levelo://app?vid=14bda91a-682a-452f-af68-22abc646d5f1"},"vehicle_type_id":"4","last_reported":1746123252,"current_range_meters":16400,"station_id":"ce4bgv12rcd13ifvqcp0","pricing_plan_id":"cebpf4jnsgd1na2vs0mg"},{"bike_id":"be585dde-39e1-44be-a178-8725818040e8","system_id":"levelo_inurba_marseille","lat":43.29852,"lon":5.36288,"is_reserved":false,"is_disabled":false,"rental_uris":{"android":"levelo://app?vid=be585dde-39e1-44be-a178-8725818040e8","ios":"levelo://app?vid=be585dde-39e1-44be-a178-8725818040e8"},"vehicle_type_id":"4","last_reported":1746123252,"current_range_meters":16400,"station_id":"ce4bgpp2rcd13ifvqc3g","pricing_plan_id":"cebpf4jnsgd1na2vs0mg"},{"bike_id":"e5bc7a8d-e57c-404d-8aca-c4b6f8454be7","system_id":"levelo_inurba_marseille","lat":43.28554,"lon":5.39513,"is_reserved":false,"is_disabled":false,"rental_uris":{"android":"levelo://app?vid=e5bc7a8d-e57c-404d-8aca-c4b6f8454be7","ios":"levelo://app?vid=e5bc7a8d-e57c-404d-8aca-c4b6f8454be7"},"vehicle_type_id":"4","last_reported":1746123252,"current_range_meters":16000,"station_id":"ce4bh292rcd13ifvqdg0","pricing_plan_id":"cebpf4jnsgd1na2vs0mg"},{"bike_id":"2f2ffcc5-12f8-4d86-b255-ec7ddfa1eb0d","system_id":"levelo_inurba_marseille","lat":43.23154,"lon":5.43711,"is_reserved":false,"is_disabled":false,"rental_uris":{"android":"levelo://app?vid=2f2ffcc5-12f8-4d86-b255-ec7ddfa1eb0d","ios":"levelo://app?vid=2f2ffcc5-12f8-4d86-b255-ec7ddfa1eb0d"},"vehicle_type_id":"4","last_reported":1746123252,"current_range_meters":16400,"station_id":"ce4bhmp2rcd13ifvqgog","pricing_plan_id":"cebpf4jnsgd1na2vs0mg"},{"bike_id":"8a53bf42-acb8-4be5-ad1b-38650f6ba791","system_id":"levelo_inurba_marseille","lat":43.29957,"lon":5.36571,"is_reserved":false,"is_disabled":true,"rental_uris":{"android":"levelo://app?vid=8a53bf42-acb8-4be5-ad1b-38650f6ba791","ios":"levelo://app?vid=8a53bf42-acb8-4be5-ad1b-38650f6ba791"},"vehicle_type_id":"4","last_reported":1746123252,"current_range_meters":16800,"station_id":"ce4bgm92rcd13ifvqbr0","pricing_plan_id":"cebpf4jnsgd1na2vs0mg"},{"bike_id":"e70e6937-93f0-4736-a2bd-2815ca5c0c90","system_id":"levelo_inurba_marseille","lat":43.29311,"lon":5.37168,"is_reserved":false,"is_disabled":true,"rental_uris":{"android":"levelo://app?vid=e70e6937-93f0-4736-a2bd-2815ca5c0c90","ios":"levelo://app?vid=e70e6937-93f0-4736-a2bd-2815ca5c0c90"},"vehicle_type_id":"4","last_reported":1746123252,"current_range_meters":16800,"station_id":"ce4bgh92rcd13ifvqb40","pricing_plan_id":"cebpf4jnsgd1na2vs0mg"},{"bike_id":"9c61b6b6-aa80-433d-b1ef-7666dd30b7c5","system_id":"levelo_inurba_marseille","lat":43.28611,"lon":5.37063,"is_reserved":false,"is_disabled":false,"rental_uris":{"android":"levelo://app?vid=9c61b6b6-aa80-433d-b1ef-7666dd30b7c5","ios":"levelo://app?vid=9c61b6b6-aa80-433d-b1ef-7666dd30b7c5"},"vehicle_type_id":"4","last_reported":1746123252,"current_range_meters":16800,"station_id":"ce4bht12rcd13ifvqi60","pricing_plan_id":"cebpf4jnsgd1na2vs0mg"},{"bike_id":"8a98d962-578d-444b-a5bb-91a62b69d98d","system_id":"levelo_inurba_marseille","lat":43.21196,"lon":5.35093,"is_reserved":false,"is_disabled":true,"rental_uris":{"android":"levelo://app?vid=8a98d962-578d-444b-a5bb-91a62b69d98d","ios":"levelo://app?vid=8a98d962-578d-444b-a5bb-91a62b69d98d"},"vehicle_type_id":"4","last_reported":1746123252,"current_range_meters":17200,"station_id":"st_cvj6sg6p6f1abm77japg","pricing_plan_id":"cebpf4jnsgd1na2vs0mg"},{"bike_id":"7a089785-cba3-4090-8b16-913661e9f683","system_id":"levelo_inurba_marseille","lat":43.2884,"lon":5.39297,"is_reserved":false,"is_disabled":false,"rental_uris":{"android":"levelo://app?vid=7a089785-cba3-4090-8b16-913661e9f683","ios":"levelo://app?vid=7a089785-cba3-4090-8b16-913661e9f683"},"vehicle_type_id":"4","last_reported":1746123252,"current_range_meters":17200,"station_id":"ce4bh2p2rcd13ifvqdi0","pricing_plan_id":"cebpf4jnsgd1na2vs0mg"},{"bike_id":"5c85783f-2082-4e41-ad9f-78ea62eadfff","system_id":"levelo_inurba_marseille","lat":43.28438,"lon":5.39199,"is_reserved":false,"is_disabled":false,"rental_uris":{"android":"levelo://app?vid=5c85783f-2082-4e41-ad9f-78ea62eadfff","ios":"levelo://app?vid=5c85783f-2082-4e41-ad9f-78ea62eadfff"},"vehicle_type_id":"4","last_reported":1746123252,"current_range_meters":17200,"station_id":"ce4bhoh2rcd13ifvqh5g","pricing_plan_id":"cebpf4jnsgd1na2vs0mg"},{"bike_id":"333694e7-837a-4366-9325-f6518648ddb0","system_id":"levelo_inurba_marseille","lat":43.31764,"lon":5.39009,"is_reserved":false,"is_disabled":false,"rental_uris":{"android":"levelo://app?vid=333694e7-837a-4366-9325-f6518648ddb0","ios":"levelo://app?vid=333694e7-837a-4366-9325-f6518648ddb0"},"vehicle_type_id":"4","last_reported":1746123252,"current_range_meters":17200,"station_id":"ce4bhqp2rcd13ifvqhng","pricing_plan_id":"cebpf4jnsgd1na2vs0mg"},{"bike_id":"4873379d-168f-44a9-bea2-5894f97365e5","system_id":"levelo_inurba_marseille","lat":43.27818,"lon":5.4071,"is_reserved":false,"is_disabled":false,"rental_uris":{"android":"levelo://app?vid=4873379d-168f-44a9-bea2-5894f97365e5","ios":"levelo://app?vid=4873379d-168f-44a9-bea2-5894f97365e5"},"vehicle_type_id":"4","last_reported":1746123252,"current_range_meters":17600,"station_id":"ce4bhnh2rcd13ifvqgtg","pricing_plan_id":"cebpf4jnsgd1na2vs0mg"},{"bike_id":"ac132c29-f819-4d62-974c-5c055342f4f0","system_id":"levelo_inurba_marseille","lat":43.21748,"lon":5.34601,"is_reserved":false,"is_disabled":true,"rental_uris":{"android":"levelo://app?vid=ac132c29-f819-4d62-974c-5c055342f4f0","ios":"levelo://app?vid=ac132c29-f819-4d62-974c-5c055342f4f0"},"vehicle_type_id":"4","last_reported":1746123252,"current_range_meters":17600,"station_id":"st_cvj6r9ubvosntc0bgbag","pricing_plan_id":"cebpf4jnsgd1na2vs0mg"},{"bike_id":"a1a124a6-f280-423a-ba3b-42fcdad275f7","system_id":"levelo_inurba_marseille","lat":43.292542,"lon":5.409054,"is_reserved":false,"is_disabled":false,"rental_uris":{"android":"levelo://app?vid=a1a124a6-f280-423a-ba3b-42fcdad275f7","ios":"levelo://app?vid=a1a124a6-f280-423a-ba3b-42fcdad275f7"},"vehicle_type_id":"4","last_reported":1746123252,"current_range_meters":17200,"station_id":"ce4bh192rcd13ifvqdc0","pricing_plan_id":"cebpf4jnsgd1na2vs0mg"},{"bike_id":"b1a7f355-fed4-4f85-807f-2c536ec90c3b","system_id":"levelo_inurba_marseille","lat":43.29886,"lon":5.38415,"is_reserved":false,"is_disabled":false,"rental_uris":{"android":"levelo://app?vid=b1a7f355-fed4-4f85-807f-2c536ec90c3b","ios":"levelo://app?vid=b1a7f355-fed4-4f85-807f-2c536ec90c3b"},"vehicle_type_id":"4","last_reported":1746123252,"current_range_meters":17600,"station_id":"","pricing_plan_id":"cebpf4jnsgd1na2vs0mg"},{"bike_id":"d119a674-32b8-4cea-958d-b2fa2e46c97a","system_id":"levelo_inurba_marseille","lat":43.28696,"lon":5.37394,"is_reserved":false,"is_disabled":false,"rental_uris":{"android":"levelo://app?vid=d119a674-32b8-4cea-958d-b2fa2e46c97a","ios":"levelo://app?vid=d119a674-32b8-4cea-958d-b2fa2e46c97a"},"vehicle_type_id":"4","last_reported":1746123252,"current_range_meters":18000,"station_id":"ce4bh3p2rcd13ifvqdq0","pricing_plan_id":"cebpf4jnsgd1na2vs0mg"},{"bike_id":"0ca93d30-9e95-49c1-98c0-cdc9b5d9fdde","system_id":"levelo_inurba_marseille","lat":43.32366,"lon":5.38887,"is_reserved":false,"is_disabled":false,"rental_uris":{"android":"levelo://app?vid=0ca93d30-9e95-49c1-98c0-cdc9b5d9fdde","ios":"levelo://app?vid=0ca93d30-9e95-49c1-98c0-cdc9b5d9fdde"},"vehicle_type_id":"4","last_reported":1746123252,"current_range_meters":18000,"station_id":"ce4bhqp2rcd13ifvqhog","pricing_plan_id":"cebpf4jnsgd1na2vs0mg"},{"bike_id":"61ada823-7afc-4bae-8219-f47e25313745","system_id":"levelo_inurba_marseille","lat":43.2572,"lon":5.41794,"is_reserved":false,"is_disabled":false,"rental_uris":{"android":"levelo://app?vid=61ada823-7afc-4bae-8219-f47e25313745","ios":"levelo://app?vid=61ada823-7afc-4bae-8219-f47e25313745"},"vehicle_type_id":"4","last_reported":1746123252,"current_range_meters":17200,"station_id":"","pricing_plan_id":"cebpf4jnsgd1na2vs0mg"},{"bike_id":"e6babb5f-a845-4fdc-905e-3df404ac0ce0","system_id":"levelo_inurba_marseille","lat":43.34143,"lon":5.40895,"is_reserved":false,"is_disabled":false,"rental_uris":{"android":"levelo://app?vid=e6babb5f-a845-4fdc-905e-3df404ac0ce0","ios":"levelo://app?vid=e6babb5f-a845-4fdc-905e-3df404ac0ce0"},"vehicle_type_id":"4","last_reported":1746123252,"current_range_meters":18000,"station_id":"ce4bhqh2rcd13ifvqhlg","pricing_plan_id":"cebpf4jnsgd1na2vs0mg"},{"bike_id":"45d0b93d-c074-45d1-8504-9333c6730ead","system_id":"levelo_inurba_marseille","lat":43.28461,"lon":5.35883,"is_reserved":false,"is_disabled":false,"rental_uris":{"android":"levelo://app?vid=45d0b93d-c074-45d1-8504-9333c6730ead","ios":"levelo://app?vid=45d0b93d-c074-45d1-8504-9333c6730ead"},"vehicle_type_id":"4","last_reported":1746123252,"current_range_meters":17600,"station_id":"ce4bhah2rcd13ifvqei0","pricing_plan_id":"cebpf4jnsgd1na2vs0mg"},{"bike_id":"9fbc7ff4-14d4-4724-b450-579b50a13088","system_id":"levelo_inurba_marseille","lat":43.284362,"lon":5.391917,"is_reserved":false,"is_disabled":false,"rental_uris":{"android":"levelo://app?vid=9fbc7ff4-14d4-4724-b450-579b50a13088","ios":"levelo://app?vid=9fbc7ff4-14d4-4724-b450-579b50a13088"},"vehicle_type_id":"4","last_reported":1746123252,"current_range_meters":18000,"station_id":"ce4bhoh2rcd13ifvqh5g","pricing_plan_id":"cebpf4jnsgd1na2vs0mg"},{"bike_id":"416d5df5-c367-4f40-a71f-9811b24e271b","system_id":"levelo_inurba_marseille","lat":43.28424,"lon":5.375,"is_reserved":false,"is_disabled":false,"rental_uris":{"android":"levelo://app?vid=416d5df5-c367-4f40-a71f-9811b24e271b","ios":"levelo://app?vid=416d5df5-c367-4f40-a71f-9811b24e271b"},"vehicle_type_id":"4","last_reported":1746123252,"current_range_meters":18800,"station_id":"ce4bh412rcd13ifvqds0","pricing_plan_id":"cebpf4jnsgd1na2vs0mg"},{"bike_id":"fea90467-7b9b-451d-849d-003674ab8347","system_id":"levelo_inurba_marseille","lat":43.272005,"lon":5.39227,"is_reserved":false,"is_disabled":true,"rental_uris":{"android":"levelo://app?vid=fea90467-7b9b-451d-849d-003674ab8347","ios":"levelo://app?vid=fea90467-7b9b-451d-849d-003674ab8347"},"vehicle_type_id":"4","last_reported":1746123252,"current_range_meters":18800,"station_id":"ce4bhhp2rcd13ifvqfm0","pricing_plan_id":"cebpf4jnsgd1na2vs0mg"},{"bike_id":"7265c00b-fd03-4f16-8a63-cd8f9ae8a6f3","system_id":"levelo_inurba_marseille","lat":43.24071,"lon":5.37761,"is_reserved":false,"is_disabled":false,"rental_uris":{"android":"levelo://app?vid=7265c00b-fd03-4f16-8a63-cd8f9ae8a6f3","ios":"levelo://app?vid=7265c00b-fd03-4f16-8a63-cd8f9ae8a6f3"},"vehicle_type_id":"4","last_reported":1746123252,"current_range_meters":18800,"station_id":"ce4bhnp2rcd13ifvqgvg","pricing_plan_id":"cebpf4jnsgd1na2vs0mg"},{"bike_id":"fa7ff1d9-18fc-4aad-bb43-0c60f2f38340","system_id":"levelo_inurba_marseille","lat":43.29877,"lon":5.38913,"is_reserved":false,"is_disabled":false,"rental_uris":{"android":"levelo://app?vid=fa7ff1d9-18fc-4aad-bb43-0c60f2f38340","ios":"levelo://app?vid=fa7ff1d9-18fc-4aad-bb43-0c60f2f38340"},"vehicle_type_id":"4","last_reported":1746123252,"current_range_meters":18800,"station_id":"ce4bh392rcd13ifvqdl0","pricing_plan_id":"cebpf4jnsgd1na2vs0mg"},{"bike_id":"62eebc25-834e-40d1-90e4-61c2a03ed9e6","system_id":"levelo_inurba_marseille","lat":43.31491,"lon":5.37308,"is_reserved":false,"is_disabled":false,"rental_uris":{"android":"levelo://app?vid=62eebc25-834e-40d1-90e4-61c2a03ed9e6","ios":"levelo://app?vid=62eebc25-834e-40d1-90e4-61c2a03ed9e6"},"vehicle_type_id":"4","last_reported":1746123252,"current_range_meters":18800,"station_id":"ce4bgt12rcd13ifvqcd0","pricing_plan_id":"cebpf4jnsgd1na2vs0mg"},{"bike_id":"539b2b1e-3584-427e-8150-b3b0ab3ac2d9","system_id":"levelo_inurba_marseille","lat":43.31329,"lon":5.39688,"is_reserved":false,"is_disabled":false,"rental_uris":{"android":"levelo://app?vid=539b2b1e-3584-427e-8150-b3b0ab3ac2d9","ios":"levelo://app?vid=539b2b1e-3584-427e-8150-b3b0ab3ac2d9"},"vehicle_type_id":"4","last_reported":1746123252,"current_range_meters":18000,"station_id":"ce4bgvp2rcd13ifvqcu0","pricing_plan_id":"cebpf4jnsgd1na2vs0mg"},{"bike_id":"2e61cb35-1703-4dd8-8080-3c0bfd7456ff","system_id":"levelo_inurba_marseille","lat":43.29911,"lon":5.38144,"is_reserved":false,"is_disabled":false,"rental_uris":{"android":"levelo://app?vid=2e61cb35-1703-4dd8-8080-3c0bfd7456ff","ios":"levelo://app?vid=2e61cb35-1703-4dd8-8080-3c0bfd7456ff"},"vehicle_type_id":"4","last_reported":1746123252,"current_range_meters":18800,"station_id":"ce4bgj12rcd13ifvqbc0","pricing_plan_id":"cebpf4jnsgd1na2vs0mg"},{"bike_id":"c09baa78-185c-4b51-94b3-b4b02fe4e4d3","system_id":"levelo_inurba_marseille","lat":43.31083,"lon":5.42429,"is_reserved":false,"is_disabled":false,"rental_uris":{"android":"levelo://app?vid=c09baa78-185c-4b51-94b3-b4b02fe4e4d3","ios":"levelo://app?vid=c09baa78-185c-4b51-94b3-b4b02fe4e4d3"},"vehicle_type_id":"4","last_reported":1746123252,"current_range_meters":19200,"station_id":"ce4bhp92rcd13ifvqhag","pricing_plan_id":"cebpf4jnsgd1na2vs0mg"},{"bike_id":"c72be53d-d9b1-4368-8fce-0185dcaa9f07","system_id":"levelo_inurba_marseille","lat":43.29847,"lon":5.36286,"is_reserved":false,"is_disabled":false,"rental_uris":{"android":"levelo://app?vid=c72be53d-d9b1-4368-8fce-0185dcaa9f07","ios":"levelo://app?vid=c72be53d-d9b1-4368-8fce-0185dcaa9f07"},"vehicle_type_id":"4","last_reported":1746123252,"current_range_meters":19200,"station_id":"ce4bgpp2rcd13ifvqc3g","pricing_plan_id":"cebpf4jnsgd1na2vs0mg"},{"bike_id":"b1988240-cf0c-4b94-acac-f30babe32d7d","system_id":"levelo_inurba_marseille","lat":43.30411,"lon":5.41291,"is_reserved":false,"is_disabled":true,"rental_uris":{"android":"levelo://app?vid=b1988240-cf0c-4b94-acac-f30babe32d7d","ios":"levelo://app?vid=b1988240-cf0c-4b94-acac-f30babe32d7d"},"vehicle_type_id":"4","last_reported":1746123252,"current_range_meters":19200,"station_id":"ce4bhop2rcd13ifvqh8g","pricing_plan_id":"cebpf4jnsgd1na2vs0mg"},{"bike_id":"0e0fb994-fd9b-4dc6-ac84-db82c4f0dc95","system_id":"levelo_inurba_marseille","lat":43.31268,"lon":5.40167,"is_reserved":false,"is_disabled":false,"rental_uris":{"android":"levelo://app?vid=0e0fb994-fd9b-4dc6-ac84-db82c4f0dc95","ios":"levelo://app?vid=0e0fb994-fd9b-4dc6-ac84-db82c4f0dc95"},"vehicle_type_id":"4","last_reported":1746123252,"current_range_meters":19600,"station_id":"ce4bh092rcd13ifvqd30","pricing_plan_id":"cebpf4jnsgd1na2vs0mg"},{"bike_id":"da178549-fec5-41e6-a279-aab50a87d02c","system_id":"levelo_inurba_marseille","lat":43.306073,"lon":5.372395,"is_reserved":false,"is_disabled":true,"rental_uris":{"android":"levelo://app?vid=da178549-fec5-41e6-a279-aab50a87d02c","ios":"levelo://app?vid=da178549-fec5-41e6-a279-aab50a87d02c"},"vehicle_type_id":"4","last_reported":1746123252,"current_range_meters":19600,"station_id":"ce4bgqh2rcd13ifvqc4g","pricing_plan_id":"cebpf4jnsgd1na2vs0mg"},{"bike_id":"0fb45cdf-2fd1-4247-8d22-3f882cdf87d6","system_id":"levelo_inurba_marseille","lat":43.30539,"lon":5.36557,"is_reserved":false,"is_disabled":false,"rental_uris":{"android":"levelo://app?vid=0fb45cdf-2fd1-4247-8d22-3f882cdf87d6","ios":"levelo://app?vid=0fb45cdf-2fd1-4247-8d22-3f882cdf87d6"},"vehicle_type_id":"4","last_reported":1746123252,"current_range_meters":19600,"station_id":"ce4bgs12rcd13ifvqcag","pricing_plan_id":"cebpf4jnsgd1na2vs0mg"},{"bike_id":"69d940e2-8a61-4fdc-b389-03ab28ab5ebe","system_id":"levelo_inurba_marseille","lat":43.24064,"lon":5.37741,"is_reserved":false,"is_disabled":false,"rental_uris":{"android":"levelo://app?vid=69d940e2-8a61-4fdc-b389-03ab28ab5ebe","ios":"levelo://app?vid=69d940e2-8a61-4fdc-b389-03ab28ab5ebe"},"vehicle_type_id":"4","last_reported":1746123252,"current_range_meters":19600,"station_id":"ce4bhnp2rcd13ifvqgvg","pricing_plan_id":"cebpf4jnsgd1na2vs0mg"},{"bike_id":"74273205-d106-4cfa-8bab-8f92388478f5","system_id":"levelo_inurba_marseille","lat":43.30643,"lon":5.401,"is_reserved":false,"is_disabled":false,"rental_uris":{"android":"levelo://app?vid=74273205-d106-4cfa-8bab-8f92388478f5","ios":"levelo://app?vid=74273205-d106-4cfa-8bab-8f92388478f5"},"vehicle_type_id":"4","last_reported":1746123252,"current_range_meters":19600,"station_id":"ce4bh112rcd13ifvqda0","pricing_plan_id":"cebpf4jnsgd1na2vs0mg"},{"bike_id":"20e27d73-4f3c-493c-91f9-96e0f92cf713","system_id":"levelo_inurba_marseille","lat":43.30893,"lon":5.3966,"is_reserved":false,"is_disabled":false,"rental_uris":{"android":"levelo://app?vid=20e27d73-4f3c-493c-91f9-96e0f92cf713","ios":"levelo://app?vid=20e27d73-4f3c-493c-91f9-96e0f92cf713"},"vehicle_type_id":"4","last_reported":1746123252,"current_range_meters":20000,"station_id":"ce4bh012rcd13ifvqcv0","pricing_plan_id":"cebpf4jnsgd1na2vs0mg"},{"bike_id":"dc99f8d6-2eb4-4042-9ea0-060f60c63c42","system_id":"levelo_inurba_marseille","lat":43.24167,"lon":5.36395,"is_reserved":false,"is_disabled":false,"rental_uris":{"android":"levelo://app?vid=dc99f8d6-2eb4-4042-9ea0-060f60c63c42","ios":"levelo://app?vid=dc99f8d6-2eb4-4042-9ea0-060f60c63c42"},"vehicle_type_id":"4","last_reported":1746123252,"current_range_meters":20400,"station_id":"cpo36qri1sfpv3e86is0","pricing_plan_id":"cebpf4jnsgd1na2vs0mg"},{"bike_id":"e1de8727-0273-4e5f-b611-9ebecac3bdec","system_id":"levelo_inurba_marseille","lat":43.29559,"lon":5.42289,"is_reserved":false,"is_disabled":false,"rental_uris":{"android":"levelo://app?vid=e1de8727-0273-4e5f-b611-9ebecac3bdec","ios":"levelo://app?vid=e1de8727-0273-4e5f-b611-9ebecac3bdec"},"vehicle_type_id":"4","last_reported":1746123252,"current_range_meters":19600,"station_id":"ce4bhph2rcd13ifvqhdg","pricing_plan_id":"cebpf4jnsgd1na2vs0mg"},{"bike_id":"e25d77ed-e967-4e4e-be41-399ebc2653fb","system_id":"levelo_inurba_marseille","lat":43.3229,"lon":5.38276,"is_reserved":false,"is_disabled":false,"rental_uris":{"android":"levelo://app?vid=e25d77ed-e967-4e4e-be41-399ebc2653fb","ios":"levelo://app?vid=e25d77ed-e967-4e4e-be41-399ebc2653fb"},"vehicle_type_id":"4","last_reported":1746123252,"current_range_meters":19600,"station_id":"ce4bhr12rcd13ifvqhqg","pricing_plan_id":"cebpf4jnsgd1na2vs0mg"},{"bike_id":"7fd68ca5-859a-4482-9d68-ceb8e5587760","system_id":"levelo_inurba_marseille","lat":43.29966,"lon":5.38514,"is_reserved":false,"is_disabled":false,"rental_uris":{"android":"levelo://app?vid=7fd68ca5-859a-4482-9d68-ceb8e5587760","ios":"levelo://app?vid=7fd68ca5-859a-4482-9d68-ceb8e5587760"},"vehicle_type_id":"4","last_reported":1746123252,"current_range_meters":20400,"station_id":"ce4bgj92rcd13ifvqbd0","pricing_plan_id":"cebpf4jnsgd1na2vs0mg"},{"bike_id":"b4f985f8-8997-4553-a297-8de91f016318","system_id":"levelo_inurba_marseille","lat":43.2988,"lon":5.38908,"is_reserved":false,"is_disabled":false,"rental_uris":{"android":"levelo://app?vid=b4f985f8-8997-4553-a297-8de91f016318","ios":"levelo://app?vid=b4f985f8-8997-4553-a297-8de91f016318"},"vehicle_type_id":"4","last_reported":1746123252,"current_range_meters":20000,"station_id":"ce4bh392rcd13ifvqdl0","pricing_plan_id":"cebpf4jnsgd1na2vs0mg"},{"bike_id":"dc41f982-862d-4949-bea7-7bcdfcf34f3d","system_id":"levelo_inurba_marseille","lat":43.2861,"lon":5.37068,"is_reserved":false,"is_disabled":false,"rental_uris":{"android":"levelo://app?vid=dc41f982-862d-4949-bea7-7bcdfcf34f3d","ios":"levelo://app?vid=dc41f982-862d-4949-bea7-7bcdfcf34f3d"},"vehicle_type_id":"4","last_reported":1746123252,"current_range_meters":20400,"station_id":"ce4bht12rcd13ifvqi60","pricing_plan_id":"cebpf4jnsgd1na2vs0mg"},{"bike_id":"5bd5e883-fd44-4a11-a39e-880caa19c299","system_id":"levelo_inurba_marseille","lat":43.29808,"lon":5.38111,"is_reserved":false,"is_disabled":false,"rental_uris":{"android":"levelo://app?vid=5bd5e883-fd44-4a11-a39e-880caa19c299","ios":"levelo://app?vid=5bd5e883-fd44-4a11-a39e-880caa19c299"},"vehicle_type_id":"4","last_reported":1746123252,"current_range_meters":20800,"station_id":"ce4bgip2rcd13ifvqbb0","pricing_plan_id":"cebpf4jnsgd1na2vs0mg"},{"bike_id":"e227a49b-5f2d-479a-a7da-09ba20ce5e08","system_id":"levelo_inurba_marseille","lat":43.29971,"lon":5.38492,"is_reserved":false,"is_disabled":false,"rental_uris":{"android":"levelo://app?vid=e227a49b-5f2d-479a-a7da-09ba20ce5e08","ios":"levelo://app?vid=e227a49b-5f2d-479a-a7da-09ba20ce5e08"},"vehicle_type_id":"4","last_reported":1746123252,"current_range_meters":21600,"station_id":"ce4bgj92rcd13ifvqbd0","pricing_plan_id":"cebpf4jnsgd1na2vs0mg"},{"bike_id":"f8acc904-d12c-42cc-9ad5-13b83df5d41d","system_id":"levelo_inurba_marseille","lat":43.284629,"lon":5.3588,"is_reserved":false,"is_disabled":false,"rental_uris":{"android":"levelo://app?vid=f8acc904-d12c-42cc-9ad5-13b83df5d41d","ios":"levelo://app?vid=f8acc904-d12c-42cc-9ad5-13b83df5d41d"},"vehicle_type_id":"4","last_reported":1746123252,"current_range_meters":20800,"station_id":"ce4bhah2rcd13ifvqei0","pricing_plan_id":"cebpf4jnsgd1na2vs0mg"},{"bike_id":"32eabf7c-04fb-483b-919f-88fd6158f4da","system_id":"levelo_inurba_marseille","lat":43.31323,"lon":5.39694,"is_reserved":false,"is_disabled":false,"rental_uris":{"android":"levelo://app?vid=32eabf7c-04fb-483b-919f-88fd6158f4da","ios":"levelo://app?vid=32eabf7c-04fb-483b-919f-88fd6158f4da"},"vehicle_type_id":"4","last_reported":1746123252,"current_range_meters":21600,"station_id":"ce4bgvp2rcd13ifvqcu0","pricing_plan_id":"cebpf4jnsgd1na2vs0mg"},{"bike_id":"3895ea6f-f5b9-4e07-adaa-8691e8bafbb8","system_id":"levelo_inurba_marseille","lat":43.24834,"lon":5.37449,"is_reserved":false,"is_disabled":true,"rental_uris":{"android":"levelo://app?vid=3895ea6f-f5b9-4e07-adaa-8691e8bafbb8","ios":"levelo://app?vid=3895ea6f-f5b9-4e07-adaa-8691e8bafbb8"},"vehicle_type_id":"4","last_reported":1746123252,"current_range_meters":21600,"station_id":"ce4bhgh2rcd13ifvqfb0","pricing_plan_id":"cebpf4jnsgd1na2vs0mg"},{"bike_id":"4b1b89c6-bf43-4212-a68d-c88276dc2a13","system_id":"levelo_inurba_marseille","lat":43.30732,"lon":5.42434,"is_reserved":false,"is_disabled":false,"rental_uris":{"android":"levelo://app?vid=4b1b89c6-bf43-4212-a68d-c88276dc2a13","ios":"levelo://app?vid=4b1b89c6-bf43-4212-a68d-c88276dc2a13"},"vehicle_type_id":"4","last_reported":1746123252,"current_range_meters":21600,"station_id":"st_cvj6ca6bvosntc0bfgr0","pricing_plan_id":"cebpf4jnsgd1na2vs0mg"},{"bike_id":"d939feff-02a8-4a83-8031-79c34b9027e3","system_id":"levelo_inurba_marseille","lat":43.29184,"lon":5.37142,"is_reserved":false,"is_disabled":false,"rental_uris":{"android":"levelo://app?vid=d939feff-02a8-4a83-8031-79c34b9027e3","ios":"levelo://app?vid=d939feff-02a8-4a83-8031-79c34b9027e3"},"vehicle_type_id":"4","last_reported":1746123252,"current_range_meters":21600,"station_id":"ce4bha92rcd13ifvqeh0","pricing_plan_id":"cebpf4jnsgd1na2vs0mg"},{"bike_id":"44f88353-cbee-4c48-a3d9-6e7a4d8a0e16","system_id":"levelo_inurba_marseille","lat":43.3136,"lon":5.38489,"is_reserved":false,"is_disabled":false,"rental_uris":{"android":"levelo://app?vid=44f88353-cbee-4c48-a3d9-6e7a4d8a0e16","ios":"levelo://app?vid=44f88353-cbee-4c48-a3d9-6e7a4d8a0e16"},"vehicle_type_id":"4","last_reported":1746123252,"current_range_meters":21600,"station_id":"ce4bgt92rcd13ifvqcf0","pricing_plan_id":"cebpf4jnsgd1na2vs0mg"},{"bike_id":"c69451fd-a431-4a4a-90d6-21b3bf69052c","system_id":"levelo_inurba_marseille","lat":43.31494,"lon":5.37306,"is_reserved":false,"is_disabled":false,"rental_uris":{"android":"levelo://app?vid=c69451fd-a431-4a4a-90d6-21b3bf69052c","ios":"levelo://app?vid=c69451fd-a431-4a4a-90d6-21b3bf69052c"},"vehicle_type_id":"4","last_reported":1746123252,"current_range_meters":21600,"station_id":"ce4bgt12rcd13ifvqcd0","pricing_plan_id":"cebpf4jnsgd1na2vs0mg"},{"bike_id":"e1d05fef-36b9-4cd7-bdbf-f9710c6b22d4","system_id":"levelo_inurba_marseille","lat":43.28083,"lon":5.3966,"is_reserved":false,"is_disabled":false,"rental_uris":{"android":"levelo://app?vid=e1d05fef-36b9-4cd7-bdbf-f9710c6b22d4","ios":"levelo://app?vid=e1d05fef-36b9-4cd7-bdbf-f9710c6b22d4"},"vehicle_type_id":"4","last_reported":1746123252,"current_range_meters":21600,"station_id":"ce4bho12rcd13ifvqh2g","pricing_plan_id":"cebpf4jnsgd1na2vs0mg"},{"bike_id":"d6ed636e-92dc-45d2-9107-c6d295007d13","system_id":"levelo_inurba_marseille","lat":43.26952,"lon":5.38634,"is_reserved":false,"is_disabled":false,"rental_uris":{"android":"levelo://app?vid=d6ed636e-92dc-45d2-9107-c6d295007d13","ios":"levelo://app?vid=d6ed636e-92dc-45d2-9107-c6d295007d13"},"vehicle_type_id":"4","last_reported":1746123252,"current_range_meters":22000,"station_id":"ce4bhh92rcd13ifvqfh0","pricing_plan_id":"cebpf4jnsgd1na2vs0mg"},{"bike_id":"816c5709-0d46-4e26-8d9d-ef92e228cf5a","system_id":"levelo_inurba_marseille","lat":43.29278,"lon":5.36847,"is_reserved":false,"is_disabled":false,"rental_uris":{"android":"levelo://app?vid=816c5709-0d46-4e26-8d9d-ef92e228cf5a","ios":"levelo://app?vid=816c5709-0d46-4e26-8d9d-ef92e228cf5a"},"vehicle_type_id":"4","last_reported":1746123252,"current_range_meters":22000,"station_id":"ce4bhbp2rcd13ifvqesg","pricing_plan_id":"cebpf4jnsgd1na2vs0mg"},{"bike_id":"df2a5dcd-a25c-4fe1-9817-f171ba23a1a5","system_id":"levelo_inurba_marseille","lat":43.30887,"lon":5.39659,"is_reserved":false,"is_disabled":false,"rental_uris":{"android":"levelo://app?vid=df2a5dcd-a25c-4fe1-9817-f171ba23a1a5","ios":"levelo://app?vid=df2a5dcd-a25c-4fe1-9817-f171ba23a1a5"},"vehicle_type_id":"4","last_reported":1746123252,"current_range_meters":21600,"station_id":"ce4bh012rcd13ifvqcv0","pricing_plan_id":"cebpf4jnsgd1na2vs0mg"},{"bike_id":"f42a68ed-c346-429b-a050-b4d38a551d91","system_id":"levelo_inurba_marseille","lat":43.30324,"lon":5.39202,"is_reserved":false,"is_disabled":false,"rental_uris":{"android":"levelo://app?vid=f42a68ed-c346-429b-a050-b4d38a551d91","ios":"levelo://app?vid=f42a68ed-c346-429b-a050-b4d38a551d91"},"vehicle_type_id":"4","last_reported":1746123252,"current_range_meters":22400,"station_id":"ce4bgkh2rcd13ifvqbk0","pricing_plan_id":"cebpf4jnsgd1na2vs0mg"},{"bike_id":"beeab7cf-bca7-478a-bc4b-407c020a34f4","system_id":"levelo_inurba_marseille","lat":43.28454,"lon":5.392,"is_reserved":false,"is_disabled":false,"rental_uris":{"android":"levelo://app?vid=beeab7cf-bca7-478a-bc4b-407c020a34f4","ios":"levelo://app?vid=beeab7cf-bca7-478a-bc4b-407c020a34f4"},"vehicle_type_id":"4","last_reported":1746123252,"current_range_meters":22800,"station_id":"ce4bhoh2rcd13ifvqh5g","pricing_plan_id":"cebpf4jnsgd1na2vs0mg"},{"bike_id":"de21e26b-7bb1-4725-8f81-bd0f74c2453d","system_id":"levelo_inurba_marseille","lat":43.278492,"lon":5.35444,"is_reserved":false,"is_disabled":false,"rental_uris":{"android":"levelo://app?vid=de21e26b-7bb1-4725-8f81-bd0f74c2453d","ios":"levelo://app?vid=de21e26b-7bb1-4725-8f81-bd0f74c2453d"},"vehicle_type_id":"4","last_reported":1746123252,"current_range_meters":22800,"station_id":"","pricing_plan_id":"cebpf4jnsgd1na2vs0mg"},{"bike_id":"091878e8-b20e-48cc-a1e7-6a983e01167b","system_id":"levelo_inurba_marseille","lat":43.282984,"lon":5.352242,"is_reserved":false,"is_disabled":false,"rental_uris":{"android":"levelo://app?vid=091878e8-b20e-48cc-a1e7-6a983e01167b","ios":"levelo://app?vid=091878e8-b20e-48cc-a1e7-6a983e01167b"},"vehicle_type_id":"4","last_reported":1746123252,"current_range_meters":22800,"station_id":"ce4bhbp2rcd13ifvqerg","pricing_plan_id":"cebpf4jnsgd1na2vs0mg"},{"bike_id":"aa9534b3-020d-48c4-910c-2281ce33efef","system_id":"levelo_inurba_marseille","lat":43.29623,"lon":5.37169,"is_reserved":false,"is_disabled":false,"rental_uris":{"android":"levelo://app?vid=aa9534b3-020d-48c4-910c-2281ce33efef","ios":"levelo://app?vid=aa9534b3-020d-48c4-910c-2281ce33efef"},"vehicle_type_id":"4","last_reported":1746123252,"current_range_meters":22800,"station_id":"ce4bgnh2rcd13ifvqc0g","pricing_plan_id":"cebpf4jnsgd1na2vs0mg"},{"bike_id":"2bce805b-f99f-444d-ba67-fd2616223447","system_id":"levelo_inurba_marseille","lat":43.307323,"lon":5.42433,"is_reserved":false,"is_disabled":false,"rental_uris":{"android":"levelo://app?vid=2bce805b-f99f-444d-ba67-fd2616223447","ios":"levelo://app?vid=2bce805b-f99f-444d-ba67-fd2616223447"},"vehicle_type_id":"4","last_reported":1746123252,"current_range_meters":22800,"station_id":"st_cvj6ca6bvosntc0bfgr0","pricing_plan_id":"cebpf4jnsgd1na2vs0mg"},{"bike_id":"23b4efb1-2461-4234-b721-393b2e78a5a2","system_id":"levelo_inurba_marseille","lat":43.28933,"lon":5.38407,"is_reserved":false,"is_disabled":false,"rental_uris":{"android":"levelo://app?vid=23b4efb1-2461-4234-b721-393b2e78a5a2","ios":"levelo://app?vid=23b4efb1-2461-4234-b721-393b2e78a5a2"},"vehicle_type_id":"4","last_reported":1746123252,"current_range_meters":23200,"station_id":"ce4bh612rcd13ifvqe6g","pricing_plan_id":"cebpf4jnsgd1na2vs0mg"},{"bike_id":"564f6678-6414-4c69-bf0a-8b3234f3dbfe","system_id":"levelo_inurba_marseille","lat":43.28338,"lon":5.38105,"is_reserved":false,"is_disabled":false,"rental_uris":{"android":"levelo://app?vid=564f6678-6414-4c69-bf0a-8b3234f3dbfe","ios":"levelo://app?vid=564f6678-6414-4c69-bf0a-8b3234f3dbfe"},"vehicle_type_id":"4","last_reported":1746123252,"current_range_meters":22800,"station_id":"ce4bh412rcd13ifvqdr0","pricing_plan_id":"cebpf4jnsgd1na2vs0mg"},{"bike_id":"8351fa19-aa0e-4318-b95b-f1fb285920d9","system_id":"levelo_inurba_marseille","lat":43.22907,"lon":5.35379,"is_reserved":false,"is_disabled":true,"rental_uris":{"android":"levelo://app?vid=8351fa19-aa0e-4318-b95b-f1fb285920d9","ios":"levelo://app?vid=8351fa19-aa0e-4318-b95b-f1fb285920d9"},"vehicle_type_id":"4","last_reported":1746123252,"current_range_meters":23200,"station_id":"cpo3532slgdg3j2ikp40","pricing_plan_id":"cebpf4jnsgd1na2vs0mg"},{"bike_id":"d8189c55-a589-4feb-aff5-39658cecd764","system_id":"levelo_inurba_marseille","lat":43.32337,"lon":5.40623,"is_reserved":false,"is_disabled":false,"rental_uris":{"android":"levelo://app?vid=d8189c55-a589-4feb-aff5-39658cecd764","ios":"levelo://app?vid=d8189c55-a589-4feb-aff5-39658cecd764"},"vehicle_type_id":"4","last_reported":1746123252,"current_range_meters":23200,"station_id":"ce4bhq92rcd13ifvqhjg","pricing_plan_id":"cebpf4jnsgd1na2vs0mg"},{"bike_id":"132f2752-d703-4033-b518-2ddbf812efba","system_id":"levelo_inurba_marseille","lat":43.27931,"lon":5.44111,"is_reserved":false,"is_disabled":false,"rental_uris":{"android":"levelo://app?vid=132f2752-d703-4033-b518-2ddbf812efba","ios":"levelo://app?vid=132f2752-d703-4033-b518-2ddbf812efba"},"vehicle_type_id":"4","last_reported":1746123252,"current_range_meters":23200,"station_id":"","pricing_plan_id":"cebpf4jnsgd1na2vs0mg"},{"bike_id":"d3534cd5-a64e-46c6-87d8-9849db256567","system_id":"levelo_inurba_marseille","lat":43.28407,"lon":5.3752,"is_reserved":false,"is_disabled":true,"rental_uris":{"android":"levelo://app?vid=d3534cd5-a64e-46c6-87d8-9849db256567","ios":"levelo://app?vid=d3534cd5-a64e-46c6-87d8-9849db256567"},"vehicle_type_id":"4","last_reported":1746123252,"current_range_meters":23200,"station_id":"ce4bh412rcd13ifvqds0","pricing_plan_id":"cebpf4jnsgd1na2vs0mg"},{"bike_id":"ce275a13-b30a-4634-b231-60deaeabc0f9","system_id":"levelo_inurba_marseille","lat":43.21645,"lon":5.34439,"is_reserved":false,"is_disabled":false,"rental_uris":{"android":"levelo://app?vid=ce275a13-b30a-4634-b231-60deaeabc0f9","ios":"levelo://app?vid=ce275a13-b30a-4634-b231-60deaeabc0f9"},"vehicle_type_id":"4","last_reported":1746123252,"current_range_meters":24000,"station_id":"","pricing_plan_id":"cebpf4jnsgd1na2vs0mg"},{"bike_id":"022ca82e-ff73-4981-8bc0-43cab9c053d8","system_id":"levelo_inurba_marseille","lat":43.27073,"lon":5.4228,"is_reserved":false,"is_disabled":false,"rental_uris":{"android":"levelo://app?vid=022ca82e-ff73-4981-8bc0-43cab9c053d8","ios":"levelo://app?vid=022ca82e-ff73-4981-8bc0-43cab9c053d8"},"vehicle_type_id":"4","last_reported":1746123252,"current_range_meters":24000,"station_id":"ce4bhk92rcd13ifvqgb0","pricing_plan_id":"cebpf4jnsgd1na2vs0mg"},{"bike_id":"aa8960ab-d409-46d1-8fb2-d6dd74d1e344","system_id":"levelo_inurba_marseille","lat":43.29801,"lon":5.38116,"is_reserved":false,"is_disabled":false,"rental_uris":{"android":"levelo://app?vid=aa8960ab-d409-46d1-8fb2-d6dd74d1e344","ios":"levelo://app?vid=aa8960ab-d409-46d1-8fb2-d6dd74d1e344"},"vehicle_type_id":"4","last_reported":1746123252,"current_range_meters":24000,"station_id":"ce4bgip2rcd13ifvqbb0","pricing_plan_id":"cebpf4jnsgd1na2vs0mg"},{"bike_id":"20b6f9fe-af39-4a91-bbb9-c904f05e40be","system_id":"levelo_inurba_marseille","lat":43.29872,"lon":5.39756,"is_reserved":false,"is_disabled":false,"rental_uris":{"android":"levelo://app?vid=20b6f9fe-af39-4a91-bbb9-c904f05e40be","ios":"levelo://app?vid=20b6f9fe-af39-4a91-bbb9-c904f05e40be"},"vehicle_type_id":"4","last_reported":1746123252,"current_range_meters":24400,"station_id":"ce4bh0h2rcd13ifvqd50","pricing_plan_id":"cebpf4jnsgd1na2vs0mg"},{"bike_id":"e0ceefc0-61c9-406f-91eb-ef69db9dbe42","system_id":"levelo_inurba_marseille","lat":43.26119,"lon":5.41455,"is_reserved":false,"is_disabled":false,"rental_uris":{"android":"levelo://app?vid=e0ceefc0-61c9-406f-91eb-ef69db9dbe42","ios":"levelo://app?vid=e0ceefc0-61c9-406f-91eb-ef69db9dbe42"},"vehicle_type_id":"4","last_reported":1746123252,"current_range_meters":24400,"station_id":"","pricing_plan_id":"cebpf4jnsgd1na2vs0mg"},{"bike_id":"d99290dc-d515-4830-b8ef-a04ed77523ce","system_id":"levelo_inurba_marseille","lat":43.30192,"lon":5.36622,"is_reserved":false,"is_disabled":false,"rental_uris":{"android":"levelo://app?vid=d99290dc-d515-4830-b8ef-a04ed77523ce","ios":"levelo://app?vid=d99290dc-d515-4830-b8ef-a04ed77523ce"},"vehicle_type_id":"4","last_reported":1746123252,"current_range_meters":24000,"station_id":"ce4bgrh2rcd13ifvqc8g","pricing_plan_id":"cebpf4jnsgd1na2vs0mg"},{"bike_id":"ff986219-c71e-454c-a592-4357933e1f0b","system_id":"levelo_inurba_marseille","lat":43.30943,"lon":5.40131,"is_reserved":false,"is_disabled":false,"rental_uris":{"android":"levelo://app?vid=ff986219-c71e-454c-a592-4357933e1f0b","ios":"levelo://app?vid=ff986219-c71e-454c-a592-4357933e1f0b"},"vehicle_type_id":"4","last_reported":1746123252,"current_range_meters":24400,"station_id":"ce4bgvp2rcd13ifvqct0","pricing_plan_id":"cebpf4jnsgd1na2vs0mg"},{"bike_id":"479fc163-17f4-4d2a-9bf5-4f773053e38a","system_id":"levelo_inurba_marseille","lat":43.29706,"lon":5.36622,"is_reserved":false,"is_disabled":false,"rental_uris":{"android":"levelo://app?vid=479fc163-17f4-4d2a-9bf5-4f773053e38a","ios":"levelo://app?vid=479fc163-17f4-4d2a-9bf5-4f773053e38a"},"vehicle_type_id":"4","last_reported":1746123252,"current_range_meters":24400,"station_id":"ce4bgn12rcd13ifvqbt0","pricing_plan_id":"cebpf4jnsgd1na2vs0mg"},{"bike_id":"2b72f55b-f71e-4304-ba72-8e807cdcdfb7","system_id":"levelo_inurba_marseille","lat":43.30136,"lon":5.39871,"is_reserved":false,"is_disabled":false,"rental_uris":{"android":"levelo://app?vid=2b72f55b-f71e-4304-ba72-8e807cdcdfb7","ios":"levelo://app?vid=2b72f55b-f71e-4304-ba72-8e807cdcdfb7"},"vehicle_type_id":"4","last_reported":1746123252,"current_range_meters":24400,"station_id":"ce4bh0h2rcd13ifvqd40","pricing_plan_id":"cebpf4jnsgd1na2vs0mg"},{"bike_id":"645a9f5d-e56f-45b4-8bc7-78b0acbd0c7e","system_id":"levelo_inurba_marseille","lat":43.25579,"lon":5.3823,"is_reserved":false,"is_disabled":true,"rental_uris":{"android":"levelo://app?vid=645a9f5d-e56f-45b4-8bc7-78b0acbd0c7e","ios":"levelo://app?vid=645a9f5d-e56f-45b4-8bc7-78b0acbd0c7e"},"vehicle_type_id":"4","last_reported":1746123252,"current_range_meters":24800,"station_id":"ce4bhih2rcd13ifvqfs0","pricing_plan_id":"cebpf4jnsgd1na2vs0mg"},{"bike_id":"dfc6dfb3-bd21-4db4-8d4e-7bc6274ea759","system_id":"levelo_inurba_marseille","lat":43.29277,"lon":5.36841,"is_reserved":false,"is_disabled":false,"rental_uris":{"android":"levelo://app?vid=dfc6dfb3-bd21-4db4-8d4e-7bc6274ea759","ios":"levelo://app?vid=dfc6dfb3-bd21-4db4-8d4e-7bc6274ea759"},"vehicle_type_id":"4","last_reported":1746123252,"current_range_meters":24800,"station_id":"ce4bhbp2rcd13ifvqesg","pricing_plan_id":"cebpf4jnsgd1na2vs0mg"},{"bike_id":"8d541b9c-8afe-4d13-8407-e0b3c8c5b806","system_id":"levelo_inurba_marseille","lat":43.26215,"lon":5.37438,"is_reserved":false,"is_disabled":true,"rental_uris":{"android":"levelo://app?vid=8d541b9c-8afe-4d13-8407-e0b3c8c5b806","ios":"levelo://app?vid=8d541b9c-8afe-4d13-8407-e0b3c8c5b806"},"vehicle_type_id":"4","last_reported":1746123252,"current_range_meters":24800,"station_id":"ce4bhgp2rcd13ifvqfc0","pricing_plan_id":"cebpf4jnsgd1na2vs0mg"},{"bike_id":"89b1d3b0-8002-47f2-b1f4-e8f7a21c6d37","system_id":"levelo_inurba_marseille","lat":43.27072,"lon":5.42279,"is_reserved":false,"is_disabled":false,"rental_uris":{"android":"levelo://app?vid=89b1d3b0-8002-47f2-b1f4-e8f7a21c6d37","ios":"levelo://app?vid=89b1d3b0-8002-47f2-b1f4-e8f7a21c6d37"},"vehicle_type_id":"4","last_reported":1746123252,"current_range_meters":24800,"station_id":"ce4bhk92rcd13ifvqgb0","pricing_plan_id":"cebpf4jnsgd1na2vs0mg"},{"bike_id":"70dd9d07-bdbb-4d60-b3a9-9dc76b76b650","system_id":"levelo_inurba_marseille","lat":43.30586,"lon":5.3932,"is_reserved":false,"is_disabled":false,"rental_uris":{"android":"levelo://app?vid=70dd9d07-bdbb-4d60-b3a9-9dc76b76b650","ios":"levelo://app?vid=70dd9d07-bdbb-4d60-b3a9-9dc76b76b650"},"vehicle_type_id":"4","last_reported":1746123252,"current_range_meters":24800,"station_id":"ce4bh0p2rcd13ifvqd80","pricing_plan_id":"cebpf4jnsgd1na2vs0mg"},{"bike_id":"791e2eb2-4daf-4dc5-91c5-fb450a3e8271","system_id":"levelo_inurba_marseille","lat":43.29566,"lon":5.39981,"is_reserved":false,"is_disabled":false,"rental_uris":{"android":"levelo://app?vid=791e2eb2-4daf-4dc5-91c5-fb450a3e8271","ios":"levelo://app?vid=791e2eb2-4daf-4dc5-91c5-fb450a3e8271"},"vehicle_type_id":"4","last_reported":1746123252,"current_range_meters":24800,"station_id":"ce4bh312rcd13ifvqdj0","pricing_plan_id":"cebpf4jnsgd1na2vs0mg"},{"bike_id":"a2c8429b-ed80-47f5-a5a7-feac4359eed2","system_id":"levelo_inurba_marseille","lat":43.30925,"lon":5.36832,"is_reserved":false,"is_disabled":false,"rental_uris":{"android":"levelo://app?vid=a2c8429b-ed80-47f5-a5a7-feac4359eed2","ios":"levelo://app?vid=a2c8429b-ed80-47f5-a5a7-feac4359eed2"},"vehicle_type_id":"4","last_reported":1746123252,"current_range_meters":24800,"station_id":"ce4bgn92rcd13ifvqbvg","pricing_plan_id":"cebpf4jnsgd1na2vs0mg"},{"bike_id":"952248a0-0195-4009-a26a-36c7118470a3","system_id":"levelo_inurba_marseille","lat":43.31088,"lon":5.42433,"is_reserved":false,"is_disabled":false,"rental_uris":{"android":"levelo://app?vid=952248a0-0195-4009-a26a-36c7118470a3","ios":"levelo://app?vid=952248a0-0195-4009-a26a-36c7118470a3"},"vehicle_type_id":"4","last_reported":1746123252,"current_range_meters":24800,"station_id":"ce4bhp92rcd13ifvqhag","pricing_plan_id":"cebpf4jnsgd1na2vs0mg"},{"bike_id":"e0d1a1a9-eff0-4cb0-852d-d410bd14a090","system_id":"levelo_inurba_marseille","lat":43.2843,"lon":5.34996,"is_reserved":false,"is_disabled":false,"rental_uris":{"android":"levelo://app?vid=e0d1a1a9-eff0-4cb0-852d-d410bd14a090","ios":"levelo://app?vid=e0d1a1a9-eff0-4cb0-852d-d410bd14a090"},"vehicle_type_id":"4","last_reported":1746123252,"current_range_meters":24800,"station_id":"ce4bhbh2rcd13ifvqepg","pricing_plan_id":"cebpf4jnsgd1na2vs0mg"},{"bike_id":"ca8b48b3-1a9a-4c43-b7da-80f8a72cfd62","system_id":"levelo_inurba_marseille","lat":43.25868,"lon":5.39894,"is_reserved":false,"is_disabled":false,"rental_uris":{"android":"levelo://app?vid=ca8b48b3-1a9a-4c43-b7da-80f8a72cfd62","ios":"levelo://app?vid=ca8b48b3-1a9a-4c43-b7da-80f8a72cfd62"},"vehicle_type_id":"4","last_reported":1746123252,"current_range_meters":24800,"station_id":"ce4bhl92rcd13ifvqghg","pricing_plan_id":"cebpf4jnsgd1na2vs0mg"},{"bike_id":"35e7c118-98ca-494e-b3af-2f8eeec06e88","system_id":"levelo_inurba_marseille","lat":43.29007,"lon":5.35608,"is_reserved":false,"is_disabled":false,"rental_uris":{"android":"levelo://app?vid=35e7c118-98ca-494e-b3af-2f8eeec06e88","ios":"levelo://app?vid=35e7c118-98ca-494e-b3af-2f8eeec06e88"},"vehicle_type_id":"4","last_reported":1746123252,"current_range_meters":25200,"station_id":"ce4bhb92rcd13ifvqen0","pricing_plan_id":"cebpf4jnsgd1na2vs0mg"},{"bike_id":"f6b57897-9af8-441b-920a-6e890a75b764","system_id":"levelo_inurba_marseille","lat":43.29417,"lon":5.38626,"is_reserved":false,"is_disabled":false,"rental_uris":{"android":"levelo://app?vid=f6b57897-9af8-441b-920a-6e890a75b764","ios":"levelo://app?vid=f6b57897-9af8-441b-920a-6e890a75b764"},"vehicle_type_id":"4","last_reported":1746123252,"current_range_meters":24800,"station_id":"ce4bh2h2rcd13ifvqdh0","pricing_plan_id":"cebpf4jnsgd1na2vs0mg"},{"bike_id":"d9b572b3-3407-4b5d-acd7-eab95b4c8fd1","system_id":"levelo_inurba_marseille","lat":43.28405,"lon":5.37509,"is_reserved":false,"is_disabled":false,"rental_uris":{"android":"levelo://app?vid=d9b572b3-3407-4b5d-acd7-eab95b4c8fd1","ios":"levelo://app?vid=d9b572b3-3407-4b5d-acd7-eab95b4c8fd1"},"vehicle_type_id":"4","last_reported":1746123252,"current_range_meters":25200,"station_id":"ce4bh412rcd13ifvqds0","pricing_plan_id":"cebpf4jnsgd1na2vs0mg"},{"bike_id":"293648e2-5913-46f5-ae76-d9938387a95b","system_id":"levelo_inurba_marseille","lat":43.32285,"lon":5.38276,"is_reserved":false,"is_disabled":false,"rental_uris":{"android":"levelo://app?vid=293648e2-5913-46f5-ae76-d9938387a95b","ios":"levelo://app?vid=293648e2-5913-46f5-ae76-d9938387a95b"},"vehicle_type_id":"4","last_reported":1746123252,"current_range_meters":25200,"station_id":"ce4bhr12rcd13ifvqhqg","pricing_plan_id":"cebpf4jnsgd1na2vs0mg"},{"bike_id":"b1924524-1976-4c8d-ac7d-80b1dba4526c","system_id":"levelo_inurba_marseille","lat":43.29036,"lon":5.37551,"is_reserved":false,"is_disabled":false,"rental_uris":{"android":"levelo://app?vid=b1924524-1976-4c8d-ac7d-80b1dba4526c","ios":"levelo://app?vid=b1924524-1976-4c8d-ac7d-80b1dba4526c"},"vehicle_type_id":"4","last_reported":1746123252,"current_range_meters":25200,"station_id":"ce4bh692rcd13ifvqe90","pricing_plan_id":"cebpf4jnsgd1na2vs0mg"},{"bike_id":"40f26f9e-4384-4327-a2ce-1ed2682d94a1","system_id":"levelo_inurba_marseille","lat":43.32535,"lon":5.41426,"is_reserved":false,"is_disabled":false,"rental_uris":{"android":"levelo://app?vid=40f26f9e-4384-4327-a2ce-1ed2682d94a1","ios":"levelo://app?vid=40f26f9e-4384-4327-a2ce-1ed2682d94a1"},"vehicle_type_id":"4","last_reported":1746123252,"current_range_meters":25200,"station_id":"ce4bhq12rcd13ifvqhhg","pricing_plan_id":"cebpf4jnsgd1na2vs0mg"},{"bike_id":"03fc7c98-21e8-42e1-81b5-7ccbc41bf441","system_id":"levelo_inurba_marseille","lat":43.2793,"lon":5.4104,"is_reserved":false,"is_disabled":false,"rental_uris":{"android":"levelo://app?vid=03fc7c98-21e8-42e1-81b5-7ccbc41bf441","ios":"levelo://app?vid=03fc7c98-21e8-42e1-81b5-7ccbc41bf441"},"vehicle_type_id":"4","last_reported":1746123252,"current_range_meters":25600,"station_id":"ce4bhnp2rcd13ifvqh0g","pricing_plan_id":"cebpf4jnsgd1na2vs0mg"},