{"last_updated":1688085819,"ttl":30,"version":"2.2","data":{"bikes":[{"bike_id":"63c72b8a-7e94-4845-898a-cb9ee1bb01e1","system_id":"levelo_inurba_marseille","lat":43.313391,"lon":5.36706,"is_reserved":false,"is_disabled":false,"rental_uris":{"android":"levelo://app?vid=63c72b8a-7e94-4845-898a-cb9ee1bb01e1","ios":"levelo://app?vid=63c72b8a-7e94-4845-898a-cb9ee1bb01e1"},"vehicle_type_id":"4","last_reported":1688085820,"current_range_meters":14000,"station_id":"ce4bgr92rcd13ifvqc6g","pricing_plan_id":"free"},{"bike_id":"666c1415-28e9-4944-87f5-29a628446c75","system_id":"levelo_inurba_marseille","lat":43.312239,"lon":5.368562,"is_reserved":false,"is_disabled":false,"rental_uris":{"android":"levelo://app?vid=666c1415-28e9-4944-87f5-29a628446c75","ios":"levelo://app?vid=666c1415-28e9-4944-87f5-29a628446c75"},"vehicle_type_id":"4","last_reported":1688085820,"current_range_meters":31200,"station_id":"ce4bgl92rcd13ifvqbq0","pricing_plan_id":"free"},{"bike_id":"d66aad9b-ffab-4565-86ba-69c989a8ded8","system_id":"levelo_inurba_marseille","lat":43.30925,"lon":5.36707,"is_reserved":false,"is_disabled":false,"rental_uris":{"android":"levelo://app?vid=d66aad9b-ffab-4565-86ba-69c989a8ded8","ios":"levelo://app?vid=d66aad9b-ffab-4565-86ba-69c989a8ded8"},"vehicle_type_id":"4","last_reported":1688085820,"current_range_meters":12400,"station_id":"","pricing_plan_id":"free"},{"bike_id":"166c1d8e-63e7-4718-9048-2f5e1ba02b6c","system_id":"levelo_inurba_marseille","lat":43.314811,"lon":5.373103,"is_reserved":false,"is_disabled":false,"rental_uris":{"android":"levelo://app?vid=166c1d8e-63e7-4718-9048-2f5e1ba02b6c","ios":"levelo://app?vid=166c1d8e-63e7-4718-9048-2f5e1ba02b6c"},"vehicle_type_id":"4","last_reported":1688085820,"current_range_meters":19600,"station_id":"ce4bgt12rcd13ifvqcd0","pricing_plan_id":"free"},{"bike_id":"53be2543-be14-4452-916a-9c2eca5b10a5","system_id":"levelo_inurba_marseille","lat":43.31494,"lon":5.3731,"is_reserved":false,"is_disabled":false,"rental_uris":{"android":"levelo://app?vid=53be2543-be14-4452-916a-9c2eca5b10a5","ios":"levelo://app?vid=53be2543-be14-4452-916a-9c2eca5b10a5"},"vehicle_type_id":"4","last_reported":1688085820,"current_range_meters":22000,"station_id":"ce4bgt12rcd13ifvqcd0","pricing_plan_id":"free"},{"bike_id":"5f838d10-a751-4454-8c50-21167e5bacbb","system_id":"levelo_inurba_marseille","lat":43.308614,"lon":5.372098,"is_reserved":false,"is_disabled":false,"rental_uris":{"android":"levelo://app?vid=5f838d10-a751-4454-8c50-21167e5bacbb","ios":"levelo://app?vid=5f838d10-a751-4454-8c50-21167e5bacbb"},"vehicle_type_id":"4","last_reported":1688085820,"current_range_meters":6000,"station_id":"ce4bguh2rcd13ifvqckg","pricing_plan_id":"free"},{"bike_id":"fb9a9fa1-f813-4e51-937d-7bac0f3c545e","system_id":"levelo_inurba_marseille","lat":43.30891,"lon":5.37203,"is_reserved":false,"is_disabled":false,"rental_uris":{"android":"levelo://app?vid=fb9a9fa1-f813-4e51-937d-7bac0f3c545e","ios":"levelo://app?vid=fb9a9fa1-f813-4e51-937d-7bac0f3c545e"},"vehicle_type_id":"4","last_reported":1688085820,"current_range_meters":31200,"station_id":"","pricing_plan_id":"free"},{"bike_id":"0f465d21-cc05-456a-87e6-110fa702754f","system_id":"levelo_inurba_marseille","lat":43.30883,"lon":5.37198,"is_reserved":false,"is_disabled":false,"rental_uris":{"android":"levelo://app?vid=0f465d21-cc05-456a-87e6-110fa702754f","ios":"levelo://app?vid=0f465d21-cc05-456a-87e6-110fa702754f"},"vehicle_type_id":"4","last_reported":1688085820,"current_range_meters":31200,"station_id":"ce4bguh2rcd13ifvqckg","pricing_plan_id":"free"},{"bike_id":"8df842b1-28dd-4cec-85d3-fe9c12fc831f","system_id":"levelo_inurba_marseille","lat":43.30642,"lon":5.36751,"is_reserved":false,"is_disabled":false,"rental_uris":{"android":"levelo://app?vid=8df842b1-28dd-4cec-85d3-fe9c12fc831f","ios":"levelo://app?vid=8df842b1-28dd-4cec-85d3-fe9c12fc831f"},"vehicle_type_id":"4","last_reported":1688085820,"current_range_meters":0,"station_id":"","pricing_plan_id":"free"},{"bike_id":"21041195-1f12-459d-b8bd-2257cf84c57a","system_id":"levelo_inurba_marseille","lat":43.30535,"lon":5.36721,"is_reserved":false,"is_disabled":false,"rental_uris":{"android":"levelo://app?vid=21041195-1f12-459d-b8bd-2257cf84c57a","ios":"levelo://app?vid=21041195-1f12-459d-b8bd-2257cf84c57a"},"vehicle_type_id":"4","last_reported":1688085820,"current_range_meters":26800,"station_id":"ce4bgrp2rcd13ifvqc9g","pricing_plan_id":"free"},{"bike_id":"9ef08247-eb95-4936-8cd5-aa85c40d939f","system_id":"levelo_inurba_marseille","lat":43.305989,"lon":5.37225,"is_reserved":false,"is_disabled":false,"rental_uris":{"android":"levelo://app?vid=9ef08247-eb95-4936-8cd5-aa85c40d939f","ios":"levelo://app?vid=9ef08247-eb95-4936-8cd5-aa85c40d939f"},"vehicle_type_id":"4","last_reported":1688085820,"current_range_meters":6000,"station_id":"ce4bgqh2rcd13ifvqc4g","pricing_plan_id":"free"},{"bike_id":"6df011d5-e522-4970-8c42-b1c2fa0de785","system_id":"levelo_inurba_marseille","lat":43.305989,"lon":5.37225,"is_reserved":false,"is_disabled":false,"rental_uris":{"android":"levelo://app?vid=6df011d5-e522-4970-8c42-b1c2fa0de785","ios":"levelo://app?vid=6df011d5-e522-4970-8c42-b1c2fa0de785"},"vehicle_type_id":"4","last_reported":1688085820,"current_range_meters":31600,"station_id":"ce4bgqh2rcd13ifvqc4g","pricing_plan_id":"free"},{"bike_id":"005f9dbf-fb0c-4764-94ea-a20a8de91386","system_id":"levelo_inurba_marseille","lat":43.30607,"lon":5.3723,"is_reserved":false,"is_disabled":false,"rental_uris":{"android":"levelo://app?vid=005f9dbf-fb0c-4764-94ea-a20a8de91386","ios":"levelo://app?vid=005f9dbf-fb0c-4764-94ea-a20a8de91386"},"vehicle_type_id":"4","last_reported":1688085820,"current_range_meters":4400,"station_id":"ce4bgqh2rcd13ifvqc4g","pricing_plan_id":"free"},{"bike_id":"355d2294-89e4-4be2-a783-09e0b71bf5ec","system_id":"levelo_inurba_marseille","lat":43.305989,"lon":5.37225,"is_reserved":false,"is_disabled":false,"rental_uris":{"android":"levelo://app?vid=355d2294-89e4-4be2-a783-09e0b71bf5ec","ios":"levelo://app?vid=355d2294-89e4-4be2-a783-09e0b71bf5ec"},"vehicle_type_id":"4","last_reported":1688085820,"current_range_meters":18400,"station_id":"ce4bgqh2rcd13ifvqc4g","pricing_plan_id":"free"},{"bike_id":"a197fad3-eb52-4745-a2ac-f3f3e09c793a","system_id":"levelo_inurba_marseille","lat":43.305989,"lon":5.37225,"is_reserved":false,"is_disabled":false,"rental_uris":{"android":"levelo://app?vid=a197fad3-eb52-4745-a2ac-f3f3e09c793a","ios":"levelo://app?vid=a197fad3-eb52-4745-a2ac-f3f3e09c793a"},"vehicle_type_id":"4","last_reported":1688085820,"current_range_meters":4400,"station_id":"ce4bgqh2rcd13ifvqc4g","pricing_plan_id":"free"},{"bike_id":"aa29d396-651d-4375-be7b-07db3ab0d60c","system_id":"levelo_inurba_marseille","lat":43.311131,"lon":5.377651,"is_reserved":false,"is_disabled":false,"rental_uris":{"android":"levelo://app?vid=aa29d396-651d-4375-be7b-07db3ab0d60c","ios":"levelo://app?vid=aa29d396-651d-4375-be7b-07db3ab0d60c"},"vehicle_type_id":"4","last_reported":1688085820,"current_range_meters":10800,"station_id":"ce4bgt92rcd13ifvqcg0","pricing_plan_id":"free"},{"bike_id":"b074630c-bd53-4ff5-b894-1b3ce6ee05bf","system_id":"levelo_inurba_marseille","lat":43.311131,"lon":5.377651,"is_reserved":false,"is_disabled":false,"rental_uris":{"android":"levelo://app?vid=b074630c-bd53-4ff5-b894-1b3ce6ee05bf","ios":"levelo://app?vid=b074630c-bd53-4ff5-b894-1b3ce6ee05bf"},"vehicle_type_id":"4","last_reported":1688085820,"current_range_meters":31600,"station_id":"ce4bgt92rcd13ifvqcg0","pricing_plan_id":"free"},{"bike_id":"f8e2ccc2-cacd-4169-89cc-edb0fcf3b1fe","system_id":"levelo_inurba_marseille","lat":43.311125,"lon":5.377624,"is_reserved":false,"is_disabled":false,"rental_uris":{"android":"levelo://app?vid=f8e2ccc2-cacd-4169-89cc-edb0fcf3b1fe","ios":"levelo://app?vid=f8e2ccc2-cacd-4169-89cc-edb0fcf3b1fe"},"vehicle_type_id":"4","last_reported":1688085820,"current_range_meters":12000,"station_id":"ce4bgt92rcd13ifvqcg0","pricing_plan_id":"free"},{"bike_id":"c8190e2b-0fff-4188-a1e0-d35a491a1e2d","system_id":"levelo_inurba_marseille","lat":43.311125,"lon":5.377624,"is_reserved":false,"is_disabled":false,"rental_uris":{"android":"levelo://app?vid=c8190e2b-0fff-4188-a1e0-d35a491a1e2d","ios":"levelo://app?vid=c8190e2b-0fff-4188-a1e0-d35a491a1e2d"},"vehicle_type_id":"4","last_reported":1688085820,"current_range_meters":19600,"station_id":"ce4bgt92rcd13ifvqcg0","pricing_plan_id":"free"},{"bike_id":"98ab853d-f7cd-451f-aa2d-2fe1061bbca2","system_id":"levelo_inurba_marseille","lat":43.311125,"lon":5.377624,"is_reserved":false,"is_disabled":false,"rental_uris":{"android":"levelo://app?vid=98ab853d-f7cd-451f-aa2d-2fe1061bbca2","ios":"levelo://app?vid=98ab853d-f7cd-451f-aa2d-2fe1061bbca2"},"vehicle_type_id":"4","last_reported":1688085820,"current_range_meters":24000,"station_id":"ce4bgt92rcd13ifvqcg0","pricing_plan_id":"free"},{"bike_id":"447654bd-97b2-48ce-a833-60e4c36bb768","system_id":"levelo_inurba_marseille","lat":43.311125,"lon":5.377624,"is_reserved":false,"is_disabled":false,"rental_uris":{"android":"levelo://app?vid=447654bd-97b2-48ce-a833-60e4c36bb768","ios":"levelo://app?vid=447654bd-97b2-48ce-a833-60e4c36bb768"},"vehicle_type_id":"4","last_reported":1688085820,"current_range_meters":5600,"station_id":"ce4bgt92rcd13ifvqcg0","pricing_plan_id":"free"},{"bike_id":"47821930-5791-44ee-90b8-2066ec4212e2","system_id":"levelo_inurba_marseille","lat":43.317075,"lon":5.377367,"is_reserved":false,"is_disabled":false,"rental_uris":{"android":"levelo://app?vid=47821930-5791-44ee-90b8-2066ec4212e2","ios":"levelo://app?vid=47821930-5791-44ee-90b8-2066ec4212e2"},"vehicle_type_id":"4","last_reported":1688085820,"current_range_meters":18800,"station_id":"ce4bgth2rcd13ifvqch0","pricing_plan_id":"free"},{"bike_id":"1dd894a5-fa86-4061-aae5-84f8e66aed75","system_id":"levelo_inurba_marseille","lat":43.317075,"lon":5.377367,"is_reserved":false,"is_disabled":false,"rental_uris":{"android":"levelo://app?vid=1dd894a5-fa86-4061-aae5-84f8e66aed75","ios":"levelo://app?vid=1dd894a5-fa86-4061-aae5-84f8e66aed75"},"vehicle_type_id":"4","last_reported":1688085820,"current_range_meters":3600,"station_id":"ce4bgth2rcd13ifvqch0","pricing_plan_id":"free"},{"bike_id":"0922827c-21e0-4989-811f-3318df700889","system_id":"levelo_inurba_marseille","lat":43.317075,"lon":5.377367,"is_reserved":false,"is_disabled":false,"rental_uris":{"android":"levelo://app?vid=0922827c-21e0-4989-811f-3318df700889","ios":"levelo://app?vid=0922827c-21e0-4989-811f-3318df700889"},"vehicle_type_id":"4","last_reported":1688085820,"current_range_meters":5200,"station_id":"ce4bgth2rcd13ifvqch0","pricing_plan_id":"free"},{"bike_id":"38ad3184-fcfd-4f10-908e-d9c7eca5e25d","system_id":"levelo_inurba_marseille","lat":43.317075,"lon":5.377367,"is_reserved":false,"is_disabled":false,"rental_uris":{"android":"levelo://app?vid=38ad3184-fcfd-4f10-908e-d9c7eca5e25d","ios":"levelo://app?vid=38ad3184-fcfd-4f10-908e-d9c7eca5e25d"},"vehicle_type_id":"4","last_reported":1688085820,"current_range_meters":26000,"station_id":"ce4bgth2rcd13ifvqch0","pricing_plan_id":"free"},{"bike_id":"d82594c3-09fe-4af8-9a27-3e397b9262b9","system_id":"levelo_inurba_marseille","lat":43.311131,"lon":5.377651,"is_reserved":false,"is_disabled":false,"rental_uris":{"android":"levelo://app?vid=d82594c3-09fe-4af8-9a27-3e397b9262b9","ios":"levelo://app?vid=d82594c3-09fe-4af8-9a27-3e397b9262b9"},"vehicle_type_id":"4","last_reported":1688085820,"current_range_meters":21600,"station_id":"ce4bgt92rcd13ifvqcg0","pricing_plan_id":"free"},{"bike_id":"49f5d38a-a490-42b3-9c0e-54311c19f454","system_id":"levelo_inurba_marseille","lat":43.315289,"lon":5.380349,"is_reserved":false,"is_disabled":false,"rental_uris":{"android":"levelo://app?vid=49f5d38a-a490-42b3-9c0e-54311c19f454","ios":"levelo://app?vid=49f5d38a-a490-42b3-9c0e-54311c19f454"},"vehicle_type_id":"4","last_reported":1688085820,"current_range_meters":4400,"station_id":"ce4bhsp2rcd13ifvqi50","pricing_plan_id":"free"},{"bike_id":"bbd88f28-02c4-4bb7-92b1-b43b79e44dcf","system_id":"levelo_inurba_marseille","lat":43.30191,"lon":5.36615,"is_reserved":false,"is_disabled":false,"rental_uris":{"android":"levelo://app?vid=bbd88f28-02c4-4bb7-92b1-b43b79e44dcf","ios":"levelo://app?vid=bbd88f28-02c4-4bb7-92b1-b43b79e44dcf"},"vehicle_type_id":"4","last_reported":1688085820,"current_range_meters":0,"station_id":"ce4bgrh2rcd13ifvqc8g","pricing_plan_id":"free"},{"bike_id":"9103dd05-f671-4527-9959-ba1f1a2137fd","system_id":"levelo_inurba_marseille","lat":43.30645,"lon":5.38019,"is_reserved":false,"is_disabled":false,"rental_uris":{"android":"levelo://app?vid=9103dd05-f671-4527-9959-ba1f1a2137fd","ios":"levelo://app?vid=9103dd05-f671-4527-9959-ba1f1a2137fd"},"vehicle_type_id":"4","last_reported":1688085820,"current_range_meters":18800,"station_id":"ce4bgt92rcd13ifvqcg0","pricing_plan_id":"free"},{"bike_id":"840e4b22-92ed-4378-be63-31d139bff632","system_id":"levelo_inurba_marseille","lat":43.308012,"lon":5.381511,"is_reserved":false,"is_disabled":false,"rental_uris":{"android":"levelo://app?vid=840e4b22-92ed-4378-be63-31d139bff632","ios":"levelo://app?vid=840e4b22-92ed-4378-be63-31d139bff632"},"vehicle_type_id":"4","last_reported":1688085820,"current_range_meters":17600,"station_id":"ce4bgt12rcd13ifvqce0","pricing_plan_id":"free"},{"bike_id":"c51100c8-2e9b-463f-b6ca-549fd80b13da","system_id":"levelo_inurba_marseille","lat":43.308012,"lon":5.381511,"is_reserved":false,"is_disabled":false,"rental_uris":{"android":"levelo://app?vid=c51100c8-2e9b-463f-b6ca-549fd80b13da","ios":"levelo://app?vid=c51100c8-2e9b-463f-b6ca-549fd80b13da"},"vehicle_type_id":"4","last_reported":1688085820,"current_range_meters":8800,"station_id":"ce4bgt12rcd13ifvqce0","pricing_plan_id":"free"},{"bike_id":"3311d9ed-eca8-4af9-a3ea-8a8866e80d15","system_id":"levelo_inurba_marseille","lat":43.30802,"lon":5.38164,"is_reserved":false,"is_disabled":false,"rental_uris":{"android":"levelo://app?vid=3311d9ed-eca8-4af9-a3ea-8a8866e80d15","ios":"levelo://app?vid=3311d9ed-eca8-4af9-a3ea-8a8866e80d15"},"vehicle_type_id":"4","last_reported":1688085820,"current_range_meters":4800,"station_id":"ce4bgt12rcd13ifvqce0","pricing_plan_id":"free"},{"bike_id":"89e698f8-dbe8-4590-a24f-e3f41de4f6dd","system_id":"levelo_inurba_marseille","lat":43.308012,"lon":5.381511,"is_reserved":false,"is_disabled":false,"rental_uris":{"android":"levelo://app?vid=89e698f8-dbe8-4590-a24f-e3f41de4f6dd","ios":"levelo://app?vid=89e698f8-dbe8-4590-a24f-e3f41de4f6dd"},"vehicle_type_id":"4","last_reported":1688085820,"current_range_meters":18800,"station_id":"ce4bgt12rcd13ifvqce0","pricing_plan_id":"free"},{"bike_id":"1843e180-e545-4e47-ae29-5ca8bc537aca","system_id":"levelo_inurba_marseille","lat":43.302784,"lon":5.377158,"is_reserved":false,"is_disabled":false,"rental_uris":{"android":"levelo://app?vid=1843e180-e545-4e47-ae29-5ca8bc537aca","ios":"levelo://app?vid=1843e180-e545-4e47-ae29-5ca8bc537aca"},"vehicle_type_id":"4","last_reported":1688085820,"current_range_meters":16400,"station_id":"ce4bguh2rcd13ifvqcj0","pricing_plan_id":"free"},{"bike_id":"d0934019-2678-4fae-96c0-76398adb3f3c","system_id":"levelo_inurba_marseille","lat":43.301401,"lon":5.374219,"is_reserved":false,"is_disabled":false,"rental_uris":{"android":"levelo://app?vid=d0934019-2678-4fae-96c0-76398adb3f3c","ios":"levelo://app?vid=d0934019-2678-4fae-96c0-76398adb3f3c"},"vehicle_type_id":"4","last_reported":1688085820,"current_range_meters":5600,"station_id":"ce4bgs92rcd13ifvqcc0","pricing_plan_id":"free"},{"bike_id":"34ee49b9-c50b-4a68-a7c0-e16e42a93913","system_id":"levelo_inurba_marseille","lat":43.32534,"lon":5.36873,"is_reserved":false,"is_disabled":false,"rental_uris":{"android":"levelo://app?vid=34ee49b9-c50b-4a68-a7c0-e16e42a93913","ios":"levelo://app?vid=34ee49b9-c50b-4a68-a7c0-e16e42a93913"},"vehicle_type_id":"4","last_reported":1688085820,"current_range_meters":14800,"station_id":"","pricing_plan_id":"free"},{"bike_id":"1c0c91bf-0123-43e7-8d71-946acc731e4e","system_id":"levelo_inurba_marseille","lat":43.30699,"lon":5.3826,"is_reserved":false,"is_disabled":false,"rental_uris":{"android":"levelo://app?vid=1c0c91bf-0123-43e7-8d71-946acc731e4e","ios":"levelo://app?vid=1c0c91bf-0123-43e7-8d71-946acc731e4e"},"vehicle_type_id":"4","last_reported":1688085820,"current_range_meters":19600,"station_id":"","pricing_plan_id":"free"},{"bike_id":"a95db9a8-3544-4127-a403-ba78eeb190c7","system_id":"levelo_inurba_marseille","lat":43.319935,"lon":5.381699,"is_reserved":false,"is_disabled":false,"rental_uris":{"android":"levelo://app?vid=a95db9a8-3544-4127-a403-ba78eeb190c7","ios":"levelo://app?vid=a95db9a8-3544-4127-a403-ba78eeb190c7"},"vehicle_type_id":"4","last_reported":1688085820,"current_range_meters":4400,"station_id":"ce4bhr12rcd13ifvqhpg","pricing_plan_id":"free"},{"bike_id":"c6e29822-c919-4841-82f1-6591d0b3432d","system_id":"levelo_inurba_marseille","lat":43.319935,"lon":5.381699,"is_reserved":false,"is_disabled":false,"rental_uris":{"android":"levelo://app?vid=c6e29822-c919-4841-82f1-6591d0b3432d","ios":"levelo://app?vid=c6e29822-c919-4841-82f1-6591d0b3432d"},"vehicle_type_id":"4","last_reported":1688085820,"current_range_meters":17200,"station_id":"ce4bhr12rcd13ifvqhpg","pricing_plan_id":"free"},{"bike_id":"4a1a26e0-db70-410c-8281-802e517c26f3","system_id":"levelo_inurba_marseille","lat":43.319935,"lon":5.381699,"is_reserved":false,"is_disabled":false,"rental_uris":{"android":"levelo://app?vid=4a1a26e0-db70-410c-8281-802e517c26f3","ios":"levelo://app?vid=4a1a26e0-db70-410c-8281-802e517c26f3"},"vehicle_type_id":"4","last_reported":1688085820,"current_range_meters":31200,"station_id":"ce4bhr12rcd13ifvqhpg","pricing_plan_id":"free"},{"bike_id":"01a806ca-7373-4c5d-b3e0-3ba0c5e63019","system_id":"levelo_inurba_marseille","lat":43.313571,"lon":5.384829,"is_reserved":false,"is_disabled":false,"rental_uris":{"android":"levelo://app?vid=01a806ca-7373-4c5d-b3e0-3ba0c5e63019","ios":"levelo://app?vid=01a806ca-7373-4c5d-b3e0-3ba0c5e63019"},"vehicle_type_id":"4","last_reported":1688085820,"current_range_meters":23600,"station_id":"ce4bgt92rcd13ifvqcf0","pricing_plan_id":"free"},{"bike_id":"2267bba9-3e6a-433f-bc7f-64d2d90d9c17","system_id":"levelo_inurba_marseille","lat":43.313571,"lon":5.384829,"is_reserved":false,"is_disabled":false,"rental_uris":{"android":"levelo://app?vid=2267bba9-3e6a-433f-bc7f-64d2d90d9c17","ios":"levelo://app?vid=2267bba9-3e6a-433f-bc7f-64d2d90d9c17"},"vehicle_type_id":"4","last_reported":1688085820,"current_range_meters":27600,"station_id":"ce4bgt92rcd13ifvqcf0","pricing_plan_id":"free"},{"bike_id":"2db6ccfe-e756-4004-8afb-1502d2232b59","system_id":"levelo_inurba_marseille","lat":43.313571,"lon":5.384829,"is_reserved":false,"is_disabled":false,"rental_uris":{"android":"levelo://app?vid=2db6ccfe-e756-4004-8afb-1502d2232b59","ios":"levelo://app?vid=2db6ccfe-e756-4004-8afb-1502d2232b59"},"vehicle_type_id":"4","last_reported":1688085820,"current_range_meters":30000,"station_id":"ce4bgt92rcd13ifvqcf0","pricing_plan_id":"free"},{"bike_id":"2394b63c-fb41-43d7-bffe-5ee70ff94d24","system_id":"levelo_inurba_marseille","lat":43.299243,"lon":5.374807,"is_reserved":false,"is_disabled":false,"rental_uris":{"android":"levelo://app?vid=2394b63c-fb41-43d7-bffe-5ee70ff94d24","ios":"levelo://app?vid=2394b63c-fb41-43d7-bffe-5ee70ff94d24"},"vehicle_type_id":"4","last_reported":1688085820,"current_range_meters":30400,"station_id":"ce4bgjh2rcd13ifvqbg0","pricing_plan_id":"free"},{"bike_id":"9666aa39-f1b7-47d7-a21a-13e9dd2ade72","system_id":"levelo_inurba_marseille","lat":43.31167,"lon":5.38709,"is_reserved":false,"is_disabled":false,"rental_uris":{"android":"levelo://app?vid=9666aa39-f1b7-47d7-a21a-13e9dd2ade72","ios":"levelo://app?vid=9666aa39-f1b7-47d7-a21a-13e9dd2ade72"},"vehicle_type_id":"4","last_reported":1688085820,"current_range_meters":11200,"station_id":"ce4bgv12rcd13ifvqcp0","pricing_plan_id":"free"},{"bike_id":"17cb2d35-b405-4633-921e-150726ae96bf","system_id":"levelo_inurba_marseille","lat":43.311722,"lon":5.387247,"is_reserved":false,"is_disabled":false,"rental_uris":{"android":"levelo://app?vid=17cb2d35-b405-4633-921e-150726ae96bf","ios":"levelo://app?vid=17cb2d35-b405-4633-921e-150726ae96bf"},"vehicle_type_id":"4","last_reported":1688085820,"current_range_meters":17200,"station_id":"ce4bgv12rcd13ifvqcp0","pricing_plan_id":"free"},{"bike_id":"2f6acf5d-e560-4778-9078-eff6e608efd6","system_id":"levelo_inurba_marseille","lat":43.311722,"lon":5.387247,"is_reserved":false,"is_disabled":false,"rental_uris":{"android":"levelo://app?vid=2f6acf5d-e560-4778-9078-eff6e608efd6","ios":"levelo://app?vid=2f6acf5d-e560-4778-9078-eff6e608efd6"},"vehicle_type_id":"4","last_reported":1688085820,"current_range_meters":25200,"station_id":"ce4bgv12rcd13ifvqcp0","pricing_plan_id":"free"},{"bike_id":"62a3c4e6-f6e4-4d88-a092-4e66d323c822","system_id":"levelo_inurba_marseille","lat":43.328371,"lon":5.366909,"is_reserved":false,"is_disabled":false,"rental_uris":{"android":"levelo://app?vid=62a3c4e6-f6e4-4d88-a092-4e66d323c822","ios":"levelo://app?vid=62a3c4e6-f6e4-4d88-a092-4e66d323c822"},"vehicle_type_id":"4","last_reported":1688085820,"current_range_meters":31200,"station_id":"ce4bhs92rcd13ifvqi0g","pricing_plan_id":"free"},{"bike_id":"cd48d919-abcf-4e95-abda-b4cc46b46269","system_id":"levelo_inurba_marseille","lat":43.32829,"lon":5.36693,"is_reserved":false,"is_disabled":false,"rental_uris":{"android":"levelo://app?vid=cd48d919-abcf-4e95-abda-b4cc46b46269","ios":"levelo://app?vid=cd48d919-abcf-4e95-abda-b4cc46b46269"},"vehicle_type_id":"4","last_reported":1688085820,"current_range_meters":10800,"station_id":"ce4bhs92rcd13ifvqi0g","pricing_plan_id":"free"},{"bike_id":"1b9566db-fb95-494b-9482-7f58cd0de81c","system_id":"levelo_inurba_marseille","lat":43.328371,"lon":5.366909,"is_reserved":false,"is_disabled":false,"rental_uris":{"android":"levelo://app?vid=1b9566db-fb95-494b-9482-7f58cd0de81c","ios":"levelo://app?vid=1b9566db-fb95-494b-9482-7f58cd0de81c"},"vehicle_type_id":"4","last_reported":1688085820,"current_range_meters":22000,"station_id":"ce4bhs92rcd13ifvqi0g","pricing_plan_id":"free"},{"bike_id":"a5bfe231-bc81-46fe-9ea6-6672d7c45834","system_id":"levelo_inurba_marseille","lat":43.32829,"lon":5.36687,"is_reserved":false,"is_disabled":false,"rental_uris":{"android":"levelo://app?vid=a5bfe231-bc81-46fe-9ea6-6672d7c45834","ios":"levelo://app?vid=a5bfe231-bc81-46fe-9ea6-6672d7c45834"},"vehicle_type_id":"4","last_reported":1688085820,"current_range_meters":28400,"station_id":"ce4bhs92rcd13ifvqi0g","pricing_plan_id":"free"},{"bike_id":"d5b5ffdb-9f75-4299-8080-cd3a3e0ca775","system_id":"levelo_inurba_marseille","lat":43.32829,"lon":5.36686,"is_reserved":false,"is_disabled":false,"rental_uris":{"android":"levelo://app?vid=d5b5ffdb-9f75-4299-8080-cd3a3e0ca775","ios":"levelo://app?vid=d5b5ffdb-9f75-4299-8080-cd3a3e0ca775"},"vehicle_type_id":"4","last_reported":1688085820,"current_range_meters":400,"station_id":"ce4bhs92rcd13ifvqi0g","pricing_plan_id":"free"},{"bike_id":"dc991152-807a-497a-bda7-245ae1cdca28","system_id":"levelo_inurba_marseille","lat":43.328371,"lon":5.366909,"is_reserved":false,"is_disabled":false,"rental_uris":{"android":"levelo://app?vid=dc991152-807a-497a-bda7-245ae1cdca28","ios":"levelo://app?vid=dc991152-807a-497a-bda7-245ae1cdca28"},"vehicle_type_id":"4","last_reported":1688085820,"current_range_meters":18400,"station_id":"ce4bhs92rcd13ifvqi0g","pricing_plan_id":"free"},{"bike_id":"9759d232-642c-49e4-8d0e-d8c71db56140","system_id":"levelo_inurba_marseille","lat":43.328371,"lon":5.366909,"is_reserved":false,"is_disabled":false,"rental_uris":{"android":"levelo://app?vid=9759d232-642c-49e4-8d0e-d8c71db56140","ios":"levelo://app?vid=9759d232-642c-49e4-8d0e-d8c71db56140"},"vehicle_type_id":"4","last_reported":1688085820,"current_range_meters":24400,"station_id":"ce4bhs92rcd13ifvqi0g","pricing_plan_id":"free"},{"bike_id":"c465605b-42df-4b41-84fc-10ea3100f081","system_id":"levelo_inurba_marseille","lat":43.32831,"lon":5.36683,"is_reserved":false,"is_disabled":false,"rental_uris":{"android":"levelo://app?vid=c465605b-42df-4b41-84fc-10ea3100f081","ios":"levelo://app?vid=c465605b-42df-4b41-84fc-10ea3100f081"},"vehicle_type_id":"4","last_reported":1688085820,"current_range_meters":30400,"station_id":"ce4bhs92rcd13ifvqi0g","pricing_plan_id":"free"},{"bike_id":"7b74120c-7d6f-4c5b-8316-45a197bfc01f","system_id":"levelo_inurba_marseille","lat":43.29815,"lon":5.37683,"is_reserved":false,"is_disabled":false,"rental_uris":{"android":"levelo://app?vid=7b74120c-7d6f-4c5b-8316-45a197bfc01f","ios":"levelo://app?vid=7b74120c-7d6f-4c5b-8316-45a197bfc01f"},"vehicle_type_id":"4","last_reported":1688085820,"current_range_meters":16400,"station_id":"","pricing_plan_id":"free"},{"bike_id":"038fe928-1889-40e6-a7af-69124a67f31d","system_id":"levelo_inurba_marseille","lat":43.2968,"lon":5.37291,"is_reserved":false,"is_disabled":false,"rental_uris":{"android":"levelo://app?vid=038fe928-1889-40e6-a7af-69124a67f31d","ios":"levelo://app?vid=038fe928-1889-40e6-a7af-69124a67f31d"},"vehicle_type_id":"4","last_reported":1688085820,"current_range_meters":15600,"station_id":"ce4bgk12rcd13ifvqbj0","pricing_plan_id":"free"},{"bike_id":"1c231f91-18f0-4bd2-b866-2de5cdbcdab2","system_id":"levelo_inurba_marseille","lat":43.29705,"lon":5.37706,"is_reserved":false,"is_disabled":false,"rental_uris":{"android":"levelo://app?vid=1c231f91-18f0-4bd2-b866-2de5cdbcdab2","ios":"levelo://app?vid=1c231f91-18f0-4bd2-b866-2de5cdbcdab2"},"vehicle_type_id":"4","last_reported":1688085820,"current_range_meters":27200,"station_id":"","pricing_plan_id":"free"},{"bike_id":"1efc2668-7f21-46b3-9ce4-f9d0870364ed","system_id":"levelo_inurba_marseille","lat":43.317557,"lon":5.390173,"is_reserved":false,"is_disabled":false,"rental_uris":{"android":"levelo://app?vid=1efc2668-7f21-46b3-9ce4-f9d0870364ed","ios":"levelo://app?vid=1efc2668-7f21-46b3-9ce4-f9d0870364ed"},"vehicle_type_id":"4","last_reported":1688085820,"current_range_meters":28400,"station_id":"ce4bhqp2rcd13ifvqhng","pricing_plan_id":"free"},{"bike_id":"76a397dc-9d3e-4419-ad9a-e5a56fa72423","system_id":"levelo_inurba_marseille","lat":43.317557,"lon":5.390173,"is_reserved":false,"is_disabled":false,"rental_uris":{"android":"levelo://app?vid=76a397dc-9d3e-4419-ad9a-e5a56fa72423","ios":"levelo://app?vid=76a397dc-9d3e-4419-ad9a-e5a56fa72423"},"vehicle_type_id":"4","last_reported":1688085820,"current_range_meters":0,"station_id":"ce4bhqp2rcd13ifvqhng","pricing_plan_id":"free"},{"bike_id":"30bc6011-4bbd-4e3b-a074-99d7ec293d23","system_id":"levelo_inurba_marseille","lat":43.317557,"lon":5.390173,"is_reserved":false,"is_disabled":false,"rental_uris":{"android":"levelo://app?vid=30bc6011-4bbd-4e3b-a074-99d7ec293d23","ios":"levelo://app?vid=30bc6011-4bbd-4e3b-a074-99d7ec293d23"},"vehicle_type_id":"4","last_reported":1688085820,"current_range_meters":17200,"station_id":"ce4bhqp2rcd13ifvqhng","pricing_plan_id":"free"},{"bike_id":"eb41eb70-1492-48d8-9a21-b2b9519fa376","system_id":"levelo_inurba_marseille","lat":43.304274,"lon":5.388873,"is_reserved":false,"is_disabled":false,"rental_uris":{"android":"levelo://app?vid=eb41eb70-1492-48d8-9a21-b2b9519fa376","ios":"levelo://app?vid=eb41eb70-1492-48d8-9a21-b2b9519fa376"},"vehicle_type_id":"4","last_reported":1688085820,"current_range_meters":12000,"station_id":"ce4bgk12rcd13ifvqbi0","pricing_plan_id":"free"},{"bike_id":"e5a4d109-16da-4369-9981-ff655d254cae","system_id":"levelo_inurba_marseille","lat":43.297526,"lon":5.380432,"is_reserved":false,"is_disabled":false,"rental_uris":{"android":"levelo://app?vid=e5a4d109-16da-4369-9981-ff655d254cae","ios":"levelo://app?vid=e5a4d109-16da-4369-9981-ff655d254cae"},"vehicle_type_id":"4","last_reported":1688085820,"current_range_meters":20400,"station_id":"","pricing_plan_id":"free"},{"bike_id":"f1c111d0-e235-4e88-b4e6-504d3ed08b6c","system_id":"levelo_inurba_marseille","lat":43.299028,"lon":5.381509,"is_reserved":false,"is_disabled":false,"rental_uris":{"android":"levelo://app?vid=f1c111d0-e235-4e88-b4e6-504d3ed08b6c","ios":"levelo://app?vid=f1c111d0-e235-4e88-b4e6-504d3ed08b6c"},"vehicle_type_id":"4","last_reported":1688085820,"current_range_meters":2400,"station_id":"ce4bgj12rcd13ifvqbc0","pricing_plan_id":"free"},{"bike_id":"cae8fc90-3f96-42e1-8086-7eb9e0e56cac","system_id":"levelo_inurba_marseille","lat":43.30496,"lon":5.39089,"is_reserved":false,"is_disabled":false,"rental_uris":{"android":"levelo://app?vid=cae8fc90-3f96-42e1-8086-7eb9e0e56cac","ios":"levelo://app?vid=cae8fc90-3f96-42e1-8086-7eb9e0e56cac"},"vehicle_type_id":"4","last_reported":1688085820,"current_range_meters":0,"station_id":"","pricing_plan_id":"free"},{"bike_id":"e92b09b5-7ccd-465e-a6ab-5dd9d30b9f25","system_id":"levelo_inurba_marseille","lat":43.29542,"lon":5.37859,"is_reserved":false,"is_disabled":false,"rental_uris":{"android":"levelo://app?vid=e92b09b5-7ccd-465e-a6ab-5dd9d30b9f25","ios":"levelo://app?vid=e92b09b5-7ccd-465e-a6ab-5dd9d30b9f25"},"vehicle_type_id":"4","last_reported":1688085820,"current_range_meters":20400,"station_id":"","pricing_plan_id":"free"},{"bike_id":"2df3a01f-8872-42ce-8416-c04f90cf1b59","system_id":"levelo_inurba_marseille","lat":43.32367,"lon":5.388836,"is_reserved":false,"is_disabled":false,"rental_uris":{"android":"levelo://app?vid=2df3a01f-8872-42ce-8416-c04f90cf1b59","ios":"levelo://app?vid=2df3a01f-8872-42ce-8416-c04f90cf1b59"},"vehicle_type_id":"4","last_reported":1688085820,"current_range_meters":13600,"station_id":"ce4bhqp2rcd13ifvqhog","pricing_plan_id":"free"},{"bike_id":"5be71fd1-292c-4fc7-b8a4-98ece97074a4","system_id":"levelo_inurba_marseille","lat":43.32363,"lon":5.38885,"is_reserved":false,"is_disabled":false,"rental_uris":{"android":"levelo://app?vid=5be71fd1-292c-4fc7-b8a4-98ece97074a4","ios":"levelo://app?vid=5be71fd1-292c-4fc7-b8a4-98ece97074a4"},"vehicle_type_id":"4","last_reported":1688085820,"current_range_meters":3600,"station_id":"ce4bhqp2rcd13ifvqhog","pricing_plan_id":"free"},{"bike_id":"4aa36428-e98f-40db-9ee9-c8ee37674db6","system_id":"levelo_inurba_marseille","lat":43.32367,"lon":5.388836,"is_reserved":false,"is_disabled":false,"rental_uris":{"android":"levelo://app?vid=4aa36428-e98f-40db-9ee9-c8ee37674db6","ios":"levelo://app?vid=4aa36428-e98f-40db-9ee9-c8ee37674db6"},"vehicle_type_id":"4","last_reported":1688085820,"current_range_meters":0,"station_id":"ce4bhqp2rcd13ifvqhog","pricing_plan_id":"free"},{"bike_id":"d3227517-52e4-4126-8296-e8f8b314c652","system_id":"levelo_inurba_marseille","lat":43.32367,"lon":5.388836,"is_reserved":false,"is_disabled":false,"rental_uris":{"android":"levelo://app?vid=d3227517-52e4-4126-8296-e8f8b314c652","ios":"levelo://app?vid=d3227517-52e4-4126-8296-e8f8b314c652"},"vehicle_type_id":"4","last_reported":1688085820,"current_range_meters":0,"station_id":"ce4bhqp2rcd13ifvqhog","pricing_plan_id":"free"},{"bike_id":"c737b305-2f9e-411a-b1ca-26b0f745d0f2","system_id":"levelo_inurba_marseille","lat":43.33197,"lon":5.36157,"is_reserved":false,"is_disabled":false,"rental_uris":{"android":"levelo://app?vid=c737b305-2f9e-411a-b1ca-26b0f745d0f2","ios":"levelo://app?vid=c737b305-2f9e-411a-b1ca-26b0f745d0f2"},"vehicle_type_id":"4","last_reported":1688085820,"current_range_meters":3600,"station_id":"","pricing_plan_id":"free"},{"bike_id":"a812d483-e41f-45ad-a36c-7ac93f77d802","system_id":"levelo_inurba_marseille","lat":43.305994,"lon":5.393687,"is_reserved":false,"is_disabled":false,"rental_uris":{"android":"levelo://app?vid=a812d483-e41f-45ad-a36c-7ac93f77d802","ios":"levelo://app?vid=a812d483-e41f-45ad-a36c-7ac93f77d802"},"vehicle_type_id":"4","last_reported":1688085820,"current_range_meters":30400,"station_id":"ce4bh0p2rcd13ifvqd80","pricing_plan_id":"free"},{"bike_id":"837b4c2f-5bbb-419a-b87c-e857b63103e6","system_id":"levelo_inurba_marseille","lat":43.29295,"lon":5.37468,"is_reserved":false,"is_disabled":false,"rental_uris":{"android":"levelo://app?vid=837b4c2f-5bbb-419a-b87c-e857b63103e6","ios":"levelo://app?vid=837b4c2f-5bbb-419a-b87c-e857b63103e6"},"vehicle_type_id":"4","last_reported":1688085820,"current_range_meters":20400,"station_id":"ce4bgi12rcd13ifvqb70","pricing_plan_id":"free"},{"bike_id":"b6ffae13-f678-4cf0-9044-77af3e50682a","system_id":"levelo_inurba_marseille","lat":43.30603,"lon":5.39367,"is_reserved":false,"is_disabled":false,"rental_uris":{"android":"levelo://app?vid=b6ffae13-f678-4cf0-9044-77af3e50682a","ios":"levelo://app?vid=b6ffae13-f678-4cf0-9044-77af3e50682a"},"vehicle_type_id":"4","last_reported":1688085820,"current_range_meters":0,"station_id":"ce4bh0p2rcd13ifvqd80","pricing_plan_id":"free"},{"bike_id":"d9389a46-ab2e-427e-96b7-e754b919c0ff","system_id":"levelo_inurba_marseille","lat":43.302992,"lon":5.392136,"is_reserved":false,"is_disabled":false,"rental_uris":{"android":"levelo://app?vid=d9389a46-ab2e-427e-96b7-e754b919c0ff","ios":"levelo://app?vid=d9389a46-ab2e-427e-96b7-e754b919c0ff"},"vehicle_type_id":"4","last_reported":1688085820,"current_range_meters":14000,"station_id":"ce4bgkh2rcd13ifvqbk0","pricing_plan_id":"free"},{"bike_id":"099396f2-1cc4-4bd8-a007-66a88bf99f19","system_id":"levelo_inurba_marseille","lat":43.30085,"lon":5.390856,"is_reserved":false,"is_disabled":false,"rental_uris":{"android":"levelo://app?vid=099396f2-1cc4-4bd8-a007-66a88bf99f19","ios":"levelo://app?vid=099396f2-1cc4-4bd8-a007-66a88bf99f19"},"vehicle_type_id":"4","last_reported":1688085820,"current_range_meters":15200,"station_id":"ce4bh192rcd13ifvqdb0","pricing_plan_id":"free"},{"bike_id":"8147c1c2-fa6d-45f7-89fe-7c60ecb4d787","system_id":"levelo_inurba_marseille","lat":43.29227,"lon":5.3607,"is_reserved":false,"is_disabled":false,"rental_uris":{"android":"levelo://app?vid=8147c1c2-fa6d-45f7-89fe-7c60ecb4d787","ios":"levelo://app?vid=8147c1c2-fa6d-45f7-89fe-7c60ecb4d787"},"vehicle_type_id":"4","last_reported":1688085820,"current_range_meters":18800,"station_id":"ce4bhbh2rcd13ifvqeqg","pricing_plan_id":"free"},{"bike_id":"358b41a3-ce29-47fe-879e-80fd47cc8782","system_id":"levelo_inurba_marseille","lat":43.30085,"lon":5.390856,"is_reserved":false,"is_disabled":false,"rental_uris":{"android":"levelo://app?vid=358b41a3-ce29-47fe-879e-80fd47cc8782","ios":"levelo://app?vid=358b41a3-ce29-47fe-879e-80fd47cc8782"},"vehicle_type_id":"4","last_reported":1688085820,"current_range_meters":26400,"station_id":"ce4bh192rcd13ifvqdb0","pricing_plan_id":"free"},{"bike_id":"22d90c3a-9a2b-4dd3-969f-642e706ceeb2","system_id":"levelo_inurba_marseille","lat":43.300852,"lon":5.390859,"is_reserved":false,"is_disabled":false,"rental_uris":{"android":"levelo://app?vid=22d90c3a-9a2b-4dd3-969f-642e706ceeb2","ios":"levelo://app?vid=22d90c3a-9a2b-4dd3-969f-642e706ceeb2"},"vehicle_type_id":"4","last_reported":1688085820,"current_range_meters":2400,"station_id":"ce4bh192rcd13ifvqdb0","pricing_plan_id":"free"},{"bike_id":"ad23bdf9-6a9a-4fe9-a9d0-49405d4fb911","system_id":"levelo_inurba_marseille","lat":43.298764,"lon":5.388973,"is_reserved":false,"is_disabled":false,"rental_uris":{"android":"levelo://app?vid=ad23bdf9-6a9a-4fe9-a9d0-49405d4fb911","ios":"levelo://app?vid=ad23bdf9-6a9a-4fe9-a9d0-49405d4fb911"},"vehicle_type_id":"4","last_reported":1688085820,"current_range_meters":26400,"station_id":"ce4bh392rcd13ifvqdl0","pricing_plan_id":"free"},{"bike_id":"5dc1aee9-7992-4fad-a7ca-088ef4f2606e","system_id":"levelo_inurba_marseille","lat":43.3133,"lon":5.39689,"is_reserved":false,"is_disabled":false,"rental_uris":{"android":"levelo://app?vid=5dc1aee9-7992-4fad-a7ca-088ef4f2606e","ios":"levelo://app?vid=5dc1aee9-7992-4fad-a7ca-088ef4f2606e"},"vehicle_type_id":"4","last_reported":1688085820,"current_range_meters":17200,"station_id":"ce4bgvp2rcd13ifvqcu0","pricing_plan_id":"free"},{"bike_id":"b7e794f3-48da-4dba-89cd-cffe15f6ebe1","system_id":"levelo_inurba_marseille","lat":43.309038,"lon":5.396546,"is_reserved":false,"is_disabled":false,"rental_uris":{"android":"levelo://app?vid=b7e794f3-48da-4dba-89cd-cffe15f6ebe1","ios":"levelo://app?vid=b7e794f3-48da-4dba-89cd-cffe15f6ebe1"},"vehicle_type_id":"4","last_reported":1688085820,"current_range_meters":19600,"station_id":"ce4bh012rcd13ifvqcv0","pricing_plan_id":"free"},{"bike_id":"39de7eec-8d8f-4460-94ef-9b4923b6e342","system_id":"levelo_inurba_marseille","lat":43.309038,"lon":5.396546,"is_reserved":false,"is_disabled":false,"rental_uris":{"android":"levelo://app?vid=39de7eec-8d8f-4460-94ef-9b4923b6e342","ios":"levelo://app?vid=39de7eec-8d8f-4460-94ef-9b4923b6e342"},"vehicle_type_id":"4","last_reported":1688085820,"current_range_meters":31200,"station_id":"ce4bh012rcd13ifvqcv0","pricing_plan_id":"free"},{"bike_id":"a8c652d3-21f8-4c31-acd7-c0942c132046","system_id":"levelo_inurba_marseille","lat":43.31332,"lon":5.39693,"is_reserved":false,"is_disabled":false,"rental_uris":{"android":"levelo://app?vid=a8c652d3-21f8-4c31-acd7-c0942c132046","ios":"levelo://app?vid=a8c652d3-21f8-4c31-acd7-c0942c132046"},"vehicle_type_id":"4","last_reported":1688085820,"current_range_meters":10800,"station_id":"ce4bgvp2rcd13ifvqcu0","pricing_plan_id":"free"},{"bike_id":"b6757c30-ddb6-48d3-953d-ec62d30a9df3","system_id":"levelo_inurba_marseille","lat":43.309038,"lon":5.396546,"is_reserved":false,"is_disabled":false,"rental_uris":{"android":"levelo://app?vid=b6757c30-ddb6-48d3-953d-ec62d30a9df3","ios":"levelo://app?vid=b6757c30-ddb6-48d3-953d-ec62d30a9df3"},"vehicle_type_id":"4","last_reported":1688085820,"current_range_meters":30800,"station_id":"ce4bh012rcd13ifvqcv0","pricing_plan_id":"free"},{"bike_id":"679ce38f-7815-4d99-8c28-6d6c55dc7c26","system_id":"levelo_inurba_marseille","lat":43.309038,"lon":5.396546,"is_reserved":false,"is_disabled":false,"rental_uris":{"android":"levelo://app?vid=679ce38f-7815-4d99-8c28-6d6c55dc7c26","ios":"levelo://app?vid=679ce38f-7815-4d99-8c28-6d6c55dc7c26"},"vehicle_type_id":"4","last_reported":1688085820,"current_range_meters":30800,"station_id":"ce4bh012rcd13ifvqcv0","pricing_plan_id":"free"},{"bike_id":"212c2c22-079d-477d-85e1-84bf314ecfe9","system_id":"levelo_inurba_marseille","lat":43.309038,"lon":5.396546,"is_reserved":false,"is_disabled":false,"rental_uris":{"android":"levelo://app?vid=212c2c22-079d-477d-85e1-84bf314ecfe9","ios":"levelo://app?vid=212c2c22-079d-477d-85e1-84bf314ecfe9"},"vehicle_type_id":"4","last_reported":1688085820,"current_range_meters":31200,"station_id":"ce4bh012rcd13ifvqcv0","pricing_plan_id":"free"},{"bike_id":"f56f0300-13a7-45e8-8e61-5ca7b74f9dc0","system_id":"levelo_inurba_marseille","lat":43.31331,"lon":5.39696,"is_reserved":false,"is_disabled":false,"rental_uris":{"android":"levelo://app?vid=f56f0300-13a7-45e8-8e61-5ca7b74f9dc0","ios":"levelo://app?vid=f56f0300-13a7-45e8-8e61-5ca7b74f9dc0"},"vehicle_type_id":"4","last_reported":1688085820,"current_range_meters":21600,"station_id":"ce4bgvp2rcd13ifvqcu0","pricing_plan_id":"free"},{"bike_id":"3e9f0a2e-252d-433a-98c6-43af1e93e7c9","system_id":"levelo_inurba_marseille","lat":43.309038,"lon":5.396546,"is_reserved":false,"is_disabled":false,"rental_uris":{"android":"levelo://app?vid=3e9f0a2e-252d-433a-98c6-43af1e93e7c9","ios":"levelo://app?vid=3e9f0a2e-252d-433a-98c6-43af1e93e7c9"},"vehicle_type_id":"4","last_reported":1688085820,"current_range_meters":30000,"station_id":"ce4bh012rcd13ifvqcv0","pricing_plan_id":"free"},{"bike_id":"96e83036-990f-4813-b842-7fa0100b8919","system_id":"levelo_inurba_marseille","lat":43.309038,"lon":5.396546,"is_reserved":false,"is_disabled":false,"rental_uris":{"android":"levelo://app?vid=96e83036-990f-4813-b842-7fa0100b8919","ios":"levelo://app?vid=96e83036-990f-4813-b842-7fa0100b8919"},"vehicle_type_id":"4","last_reported":1688085820,"current_range_meters":20400,"station_id":"ce4bh012rcd13ifvqcv0","pricing_plan_id":"free"},{"bike_id":"7b3f5a61-52d2-40ac-b668-748a007960d5","system_id":"levelo_inurba_marseille","lat":43.309038,"lon":5.396546,"is_reserved":false,"is_disabled":false,"rental_uris":{"android":"levelo://app?vid=7b3f5a61-52d2-40ac-b668-748a007960d5","ios":"levelo://app?vid=7b3f5a61-52d2-40ac-b668-748a007960d5"},"vehicle_type_id":"4","last_reported":1688085820,"current_range_meters":22000,"station_id":"ce4bh012rcd13ifvqcv0","pricing_plan_id":"free"},{"bike_id":"ec529ad2-4e03-4b93-910a-bc1928707379","system_id":"levelo_inurba_marseille","lat":43.309038,"lon":5.396546,"is_reserved":false,"is_disabled":false,"rental_uris":{"android":"levelo://app?vid=ec529ad2-4e03-4b93-910a-bc1928707379","ios":"levelo://app?vid=ec529ad2-4e03-4b93-910a-bc1928707379"},"vehicle_type_id":"4","last_reported":1688085820,"current_range_meters":29600,"station_id":"ce4bh012rcd13ifvqcv0","pricing_plan_id":"free"},{"bike_id":"e55586e9-5b55-4a4e-a843-289caa261df5","system_id":"levelo_inurba_marseille","lat":43.309038,"lon":5.396546,"is_reserved":false,"is_disabled":false,"rental_uris":{"android":"levelo://app?vid=e55586e9-5b55-4a4e-a843-289caa261df5","ios":"levelo://app?vid=e55586e9-5b55-4a4e-a843-289caa261df5"},"vehicle_type_id":"4","last_reported":1688085820,"current_range_meters":12400,"station_id":"ce4bh012rcd13ifvqcv0","pricing_plan_id":"free"},{"bike_id":"4f5ef381-9e29-4dc9-bb1b-c9fc312a8756","system_id":"levelo_inurba_marseille","lat":43.309038,"lon":5.396546,"is_reserved":false,"is_disabled":false,"rental_uris":{"android":"levelo://app?vid=4f5ef381-9e29-4dc9-bb1b-c9fc312a8756","ios":"levelo://app?vid=4f5ef381-9e29-4dc9-bb1b-c9fc312a8756"},"vehicle_type_id":"4","last_reported":1688085820,"current_range_meters":27200,"station_id":"ce4bh012rcd13ifvqcv0","pricing_plan_id":"free"},{"bike_id":"76e16d8e-53d5-4104-8534-5363cb5d0ca3","system_id":"levelo_inurba_marseille","lat":43.309038,"lon":5.396546,"is_reserved":false,"is_disabled":false,"rental_uris":{"android":"levelo://app?vid=76e16d8e-53d5-4104-8534-5363cb5d0ca3","ios":"levelo://app?vid=76e16d8e-53d5-4104-8534-5363cb5d0ca3"},"vehicle_type_id":"4","last_reported":1688085820,"current_range_meters":31200,"station_id":"ce4bh012rcd13ifvqcv0","pricing_plan_id":"free"},{"bike_id":"627caaa5-fcfc-4586-b18d-3c4db96df327","system_id":"levelo_inurba_marseille","lat":43.309038,"lon":5.396546,"is_reserved":false,"is_disabled":false,"rental_uris":{"android":"levelo://app?vid=627caaa5-fcfc-4586-b18d-3c4db96df327","ios":"levelo://app?vid=627caaa5-fcfc-4586-b18d-3c4db96df327"},"vehicle_type_id":"4","last_reported":1688085820,"current_range_meters":30400,"station_id":"ce4bh012rcd13ifvqcv0","pricing_plan_id":"free"},{"bike_id":"ef5e8fcd-290b-45f7-9ea9-25d612b3a010","system_id":"levelo_inurba_marseille","lat":43.309038,"lon":5.396546,"is_reserved":false,"is_disabled":false,"rental_uris":{"android":"levelo://app?vid=ef5e8fcd-290b-45f7-9ea9-25d612b3a010","ios":"levelo://app?vid=ef5e8fcd-290b-45f7-9ea9-25d612b3a010"},"vehicle_type_id":"4","last_reported":1688085820,"current_range_meters":30800,"station_id":"ce4bh012rcd13ifvqcv0","pricing_plan_id":"free"},{"bike_id":"522521fb-25ad-4433-862d-3285abb007f3","system_id":"levelo_inurba_marseille","lat":43.309038,"lon":5.396546,"is_reserved":false,"is_disabled":false,"rental_uris":{"android":"levelo://app?vid=522521fb-25ad-4433-862d-3285abb007f3","ios":"levelo://app?vid=522521fb-25ad-4433-862d-3285abb007f3"},"vehicle_type_id":"4","last_reported":1688085820,"current_range_meters":30400,"station_id":"ce4bh012rcd13ifvqcv0","pricing_plan_id":"free"},{"bike_id":"7dfbc4ed-95bd-47ad-b497-ae9f760273fc","system_id":"levelo_inurba_marseille","lat":43.32705,"lon":5.39009,"is_reserved":false,"is_disabled":false,"rental_uris":{"android":"levelo://app?vid=7dfbc4ed-95bd-47ad-b497-ae9f760273fc","ios":"levelo://app?vid=7dfbc4ed-95bd-47ad-b497-ae9f760273fc"},"vehicle_type_id":"4","last_reported":1688085820,"current_range_meters":0,"station_id":"","pricing_plan_id":"free"},{"bike_id":"3b3b679d-0c22-47c6-998c-5bd2fd66d0f5","system_id":"levelo_inurba_marseille","lat":43.29067,"lon":5.3716,"is_reserved":false,"is_disabled":false,"rental_uris":{"android":"levelo://app?vid=3b3b679d-0c22-47c6-998c-5bd2fd66d0f5","ios":"levelo://app?vid=3b3b679d-0c22-47c6-998c-5bd2fd66d0f5"},"vehicle_type_id":"4","last_reported":1688085820,"current_range_meters":400,"station_id":"ce4bh5p2rcd13ifvqe4g","pricing_plan_id":"free"},{"bike_id":"c4e2b00b-b364-4e65-b01d-8ef676b31fe7","system_id":"levelo_inurba_marseille","lat":43.302008,"lon":5.394694,"is_reserved":false,"is_disabled":false,"rental_uris":{"android":"levelo://app?vid=c4e2b00b-b364-4e65-b01d-8ef676b31fe7","ios":"levelo://app?vid=c4e2b00b-b364-4e65-b01d-8ef676b31fe7"},"vehicle_type_id":"4","last_reported":1688085820,"current_range_meters":4400,"station_id":"ce4bh0p2rcd13ifvqd70","pricing_plan_id":"free"},{"bike_id":"421f55cd-b7c1-450c-b14e-38d9d6d75389","system_id":"levelo_inurba_marseille","lat":43.294174,"lon":5.386231,"is_reserved":false,"is_disabled":false,"rental_uris":{"android":"levelo://app?vid=421f55cd-b7c1-450c-b14e-38d9d6d75389","ios":"levelo://app?vid=421f55cd-b7c1-450c-b14e-38d9d6d75389"},"vehicle_type_id":"4","last_reported":1688085820,"current_range_meters":5200,"station_id":"","pricing_plan_id":"free"},{"bike_id":"92677498-a346-4c38-ad1a-036cfd088969","system_id":"levelo_inurba_marseille","lat":43.2942,"lon":5.38641,"is_reserved":false,"is_disabled":false,"rental_uris":{"android":"levelo://app?vid=92677498-a346-4c38-ad1a-036cfd088969","ios":"levelo://app?vid=92677498-a346-4c38-ad1a-036cfd088969"},"vehicle_type_id":"4","last_reported":1688085820,"current_range_meters":0,"station_id":"ce4bh2h2rcd13ifvqdh0","pricing_plan_id":"free"},{"bike_id":"2749f690-0129-4ecc-9f22-a85b0d4d2bc0","system_id":"levelo_inurba_marseille","lat":43.289184,"lon":5.366408,"is_reserved":false,"is_disabled":false,"rental_uris":{"android":"levelo://app?vid=2749f690-0129-4ecc-9f22-a85b0d4d2bc0","ios":"levelo://app?vid=2749f690-0129-4ecc-9f22-a85b0d4d2bc0"},"vehicle_type_id":"4","last_reported":1688085820,"current_range_meters":31200,"station_id":"ce4bhap2rcd13ifvqek0","pricing_plan_id":"free"},{"bike_id":"8ddc4d5a-ac58-45d9-9bbb-58b90f9c345d","system_id":"levelo_inurba_marseille","lat":43.28934,"lon":5.36396,"is_reserved":false,"is_disabled":false,"rental_uris":{"android":"levelo://app?vid=8ddc4d5a-ac58-45d9-9bbb-58b90f9c345d","ios":"levelo://app?vid=8ddc4d5a-ac58-45d9-9bbb-58b90f9c345d"},"vehicle_type_id":"4","last_reported":1688085820,"current_range_meters":6800,"station_id":"","pricing_plan_id":"free"},{"bike_id":"bba7742d-ceb7-466d-8f52-29a03561e6df","system_id":"levelo_inurba_marseille","lat":43.304296,"lon":5.397513,"is_reserved":false,"is_disabled":false,"rental_uris":{"android":"levelo://app?vid=bba7742d-ceb7-466d-8f52-29a03561e6df","ios":"levelo://app?vid=bba7742d-ceb7-466d-8f52-29a03561e6df"},"vehicle_type_id":"4","last_reported":1688085820,"current_range_meters":29600,"station_id":"ce4bh092rcd13ifvqd20","pricing_plan_id":"free"},{"bike_id":"05123e5b-3e98-45b4-9ed0-3daa06230053","system_id":"levelo_inurba_marseille","lat":43.304274,"lon":5.397513,"is_reserved":false,"is_disabled":false,"rental_uris":{"android":"levelo://app?vid=05123e5b-3e98-45b4-9ed0-3daa06230053","ios":"levelo://app?vid=05123e5b-3e98-45b4-9ed0-3daa06230053"},"vehicle_type_id":"4","last_reported":1688085820,"current_range_meters":22400,"station_id":"ce4bh092rcd13ifvqd20","pricing_plan_id":"free"},{"bike_id":"041da59e-b12d-4939-8c18-6453309450ff","system_id":"levelo_inurba_marseille","lat":43.33044,"lon":5.38916,"is_reserved":false,"is_disabled":false,"rental_uris":{"android":"levelo://app?vid=041da59e-b12d-4939-8c18-6453309450ff","ios":"levelo://app?vid=041da59e-b12d-4939-8c18-6453309450ff"},"vehicle_type_id":"4","last_reported":1688085820,"current_range_meters":30400,"station_id":"ce4bhr92rcd13ifvqhrg","pricing_plan_id":"free"},{"bike_id":"2860bd0b-bb7e-4f39-b0a0-fce9a88bf941","system_id":"levelo_inurba_marseille","lat":43.33045,"lon":5.38916,"is_reserved":false,"is_disabled":false,"rental_uris":{"android":"levelo://app?vid=2860bd0b-bb7e-4f39-b0a0-fce9a88bf941","ios":"levelo://app?vid=2860bd0b-bb7e-4f39-b0a0-fce9a88bf941"},"vehicle_type_id":"4","last_reported":1688085820,"current_range_meters":5200,"station_id":"ce4bhr92rcd13ifvqhrg","pricing_plan_id":"free"},{"bike_id":"ceb8bb4b-6e00-4c8d-84a5-26930bfb268c","system_id":"levelo_inurba_marseille","lat":43.33046,"lon":5.38915,"is_reserved":false,"is_disabled":false,"rental_uris":{"android":"levelo://app?vid=ceb8bb4b-6e00-4c8d-84a5-26930bfb268c","ios":"levelo://app?vid=ceb8bb4b-6e00-4c8d-84a5-26930bfb268c"},"vehicle_type_id":"4","last_reported":1688085820,"current_range_meters":7200,"station_id":"ce4bhr92rcd13ifvqhrg","pricing_plan_id":"free"},{"bike_id":"b114e48a-69b0-460e-85de-e6fb12e4bba4","system_id":"levelo_inurba_marseille","lat":43.33042,"lon":5.38922,"is_reserved":false,"is_disabled":false,"rental_uris":{"android":"levelo://app?vid=b114e48a-69b0-460e-85de-e6fb12e4bba4","ios":"levelo://app?vid=b114e48a-69b0-460e-85de-e6fb12e4bba4"},"vehicle_type_id":"4","last_reported":1688085820,"current_range_meters":6400,"station_id":"ce4bhr92rcd13ifvqhrg","pricing_plan_id":"free"},{"bike_id":"bf8bf63f-2ed5-45ef-831e-597a17679c15","system_id":"levelo_inurba_marseille","lat":43.33048,"lon":5.38917,"is_reserved":false,"is_disabled":false,"rental_uris":{"android":"levelo://app?vid=bf8bf63f-2ed5-45ef-831e-597a17679c15","ios":"levelo://app?vid=bf8bf63f-2ed5-45ef-831e-597a17679c15"},"vehicle_type_id":"4","last_reported":1688085820,"current_range_meters":23600,"station_id":"ce4bhr92rcd13ifvqhrg","pricing_plan_id":"free"},{"bike_id":"9e2772d4-8afb-4c77-a2ed-54712698af9a","system_id":"levelo_inurba_marseille","lat":43.295169,"lon":5.390426,"is_reserved":false,"is_disabled":false,"rental_uris":{"android":"levelo://app?vid=9e2772d4-8afb-4c77-a2ed-54712698af9a","ios":"levelo://app?vid=9e2772d4-8afb-4c77-a2ed-54712698af9a"},"vehicle_type_id":"4","last_reported":1688085820,"current_range_meters":3200,"station_id":"ce4bh3p2rcd13ifvqdp0","pricing_plan_id":"free"},{"bike_id":"d355086c-df19-49b6-be61-2f3ecb0554c0","system_id":"levelo_inurba_marseille","lat":43.297815,"lon":5.393548,"is_reserved":false,"is_disabled":false,"rental_uris":{"android":"levelo://app?vid=d355086c-df19-49b6-be61-2f3ecb0554c0","ios":"levelo://app?vid=d355086c-df19-49b6-be61-2f3ecb0554c0"},"vehicle_type_id":"4","last_reported":1688085820,"current_range_meters":28800,"station_id":"chh1huq6cuj3fo74tm60","pricing_plan_id":"free"},{"bike_id":"2f12cc81-305c-4202-af7b-6f6bbd076920","system_id":"levelo_inurba_marseille","lat":43.28856,"lon":5.358371,"is_reserved":false,"is_disabled":false,"rental_uris":{"android":"levelo://app?vid=2f12cc81-305c-4202-af7b-6f6bbd076920","ios":"levelo://app?vid=2f12cc81-305c-4202-af7b-6f6bbd076920"},"vehicle_type_id":"4","last_reported":1688085820,"current_range_meters":18400,"station_id":"ce4bhb12rcd13ifvqem0","pricing_plan_id":"free"},{"bike_id":"956dc1c4-569f-47e9-900d-601d0b0ef8e6","system_id":"levelo_inurba_marseille","lat":43.309344,"lon":5.401331,"is_reserved":false,"is_disabled":false,"rental_uris":{"android":"levelo://app?vid=956dc1c4-569f-47e9-900d-601d0b0ef8e6","ios":"levelo://app?vid=956dc1c4-569f-47e9-900d-601d0b0ef8e6"},"vehicle_type_id":"4","last_reported":1688085820,"current_range_meters":31200,"station_id":"ce4bgvp2rcd13ifvqct0","pricing_plan_id":"free"},{"bike_id":"42dd4811-d752-4443-b321-0e8721047a21","system_id":"levelo_inurba_marseille","lat":43.309379,"lon":5.401345,"is_reserved":false,"is_disabled":false,"rental_uris":{"android":"levelo://app?vid=42dd4811-d752-4443-b321-0e8721047a21","ios":"levelo://app?vid=42dd4811-d752-4443-b321-0e8721047a21"},"vehicle_type_id":"4","last_reported":1688085820,"current_range_meters":20400,"station_id":"ce4bgvp2rcd13ifvqct0","pricing_plan_id":"free"},{"bike_id":"d75b4ea5-085d-4f89-aa15-ce5556a78202","system_id":"levelo_inurba_marseille","lat":43.309308,"lon":5.401357,"is_reserved":false,"is_disabled":false,"rental_uris":{"android":"levelo://app?vid=d75b4ea5-085d-4f89-aa15-ce5556a78202","ios":"levelo://app?vid=d75b4ea5-085d-4f89-aa15-ce5556a78202"},"vehicle_type_id":"4","last_reported":1688085820,"current_range_meters":29600,"station_id":"ce4bgvp2rcd13ifvqct0","pricing_plan_id":"free"},{"bike_id":"6f23985a-a1d7-40de-966c-c75f29733035","system_id":"levelo_inurba_marseille","lat":43.309335,"lon":5.401376,"is_reserved":false,"is_disabled":false,"rental_uris":{"android":"levelo://app?vid=6f23985a-a1d7-40de-966c-c75f29733035","ios":"levelo://app?vid=6f23985a-a1d7-40de-966c-c75f29733035"},"vehicle_type_id":"4","last_reported":1688085820,"current_range_meters":31200,"station_id":"ce4bgvp2rcd13ifvqct0","pricing_plan_id":"free"},{"bike_id":"81fd7f2e-9069-47ce-9b3c-fb07c026ebcb","system_id":"levelo_inurba_marseille","lat":43.309326,"lon":5.401384,"is_reserved":false,"is_disabled":false,"rental_uris":{"android":"levelo://app?vid=81fd7f2e-9069-47ce-9b3c-fb07c026ebcb","ios":"levelo://app?vid=81fd7f2e-9069-47ce-9b3c-fb07c026ebcb"},"vehicle_type_id":"4","last_reported":1688085820,"current_range_meters":31600,"station_id":"ce4bgvp2rcd13ifvqct0","pricing_plan_id":"free"},{"bike_id":"769a198c-911b-4e14-9919-3e2fa2b67bd5","system_id":"levelo_inurba_marseille","lat":43.309332,"lon":5.401389,"is_reserved":false,"is_disabled":false,"rental_uris":{"android":"levelo://app?vid=769a198c-911b-4e14-9919-3e2fa2b67bd5","ios":"levelo://app?vid=769a198c-911b-4e14-9919-3e2fa2b67bd5"},"vehicle_type_id":"4","last_reported":1688085820,"current_range_meters":0,"station_id":"ce4bgvp2rcd13ifvqct0","pricing_plan_id":"free"},{"bike_id":"082f9d25-9398-4246-ae39-12808c3fa889","system_id":"levelo_inurba_marseille","lat":43.309335,"lon":5.401396,"is_reserved":false,"is_disabled":false,"rental_uris":{"android":"levelo://app?vid=082f9d25-9398-4246-ae39-12808c3fa889","ios":"levelo://app?vid=082f9d25-9398-4246-ae39-12808c3fa889"},"vehicle_type_id":"4","last_reported":1688085820,"current_range_meters":10800,"station_id":"ce4bgvp2rcd13ifvqct0","pricing_plan_id":"free"},{"bike_id":"3fbf9fd3-8a21-4248-abbc-0fb723b95293","system_id":"levelo_inurba_marseille","lat":43.309369,"lon":5.401408,"is_reserved":false,"is_disabled":false,"rental_uris":{"android":"levelo://app?vid=3fbf9fd3-8a21-4248-abbc-0fb723b95293","ios":"levelo://app?vid=3fbf9fd3-8a21-4248-abbc-0fb723b95293"},"vehicle_type_id":"4","last_reported":1688085820,"current_range_meters":8800,"station_id":"ce4bgvp2rcd13ifvqct0","pricing_plan_id":"free"},{"bike_id":"17bd0a13-bf92-46e4-a68a-eaa2616b2035","system_id":"levelo_inurba_marseille","lat":43.309313,"lon":5.401404,"is_reserved":false,"is_disabled":false,"rental_uris":{"android":"levelo://app?vid=17bd0a13-bf92-46e4-a68a-eaa2616b2035","ios":"levelo://app?vid=17bd0a13-bf92-46e4-a68a-eaa2616b2035"},"vehicle_type_id":"4","last_reported":1688085820,"current_range_meters":28800,"station_id":"ce4bgvp2rcd13ifvqct0","pricing_plan_id":"free"},{"bike_id":"2204d22c-3c26-4f15-8083-ee7fc4daa893","system_id":"levelo_inurba_marseille","lat":43.30937,"lon":5.40142,"is_reserved":false,"is_disabled":false,"rental_uris":{"android":"levelo://app?vid=2204d22c-3c26-4f15-8083-ee7fc4daa893","ios":"levelo://app?vid=2204d22c-3c26-4f15-8083-ee7fc4daa893"},"vehicle_type_id":"4","last_reported":1688085820,"current_range_meters":24800,"station_id":"ce4bgvp2rcd13ifvqct0","pricing_plan_id":"free"},{"bike_id":"ccaa93a8-d592-4fbd-8f21-12b86fb380fa","system_id":"levelo_inurba_marseille","lat":43.30935,"lon":5.40142,"is_reserved":false,"is_disabled":false,"rental_uris":{"android":"levelo://app?vid=ccaa93a8-d592-4fbd-8f21-12b86fb380fa","ios":"levelo://app?vid=ccaa93a8-d592-4fbd-8f21-12b86fb380fa"},"vehicle_type_id":"4","last_reported":1688085820,"current_range_meters":31200,"station_id":"ce4bgvp2rcd13ifvqct0","pricing_plan_id":"free"},{"bike_id":"b152602a-aaa7-4eed-93ba-89050d9c58ba","system_id":"levelo_inurba_marseille","lat":43.3067,"lon":5.40078,"is_reserved":false,"is_disabled":false,"rental_uris":{"android":"levelo://app?vid=b152602a-aaa7-4eed-93ba-89050d9c58ba","ios":"levelo://app?vid=b152602a-aaa7-4eed-93ba-89050d9c58ba"},"vehicle_type_id":"4","last_reported":1688085820,"current_range_meters":17600,"station_id":"","pricing_plan_id":"free"},{"bike_id":"eb8f3759-629d-4889-9d64-ffcfccb9cf15","system_id":"levelo_inurba_marseille","lat":43.30926,"lon":5.40146,"is_reserved":false,"is_disabled":false,"rental_uris":{"android":"levelo://app?vid=eb8f3759-629d-4889-9d64-ffcfccb9cf15","ios":"levelo://app?vid=eb8f3759-629d-4889-9d64-ffcfccb9cf15"},"vehicle_type_id":"4","last_reported":1688085820,"current_range_meters":31200,"station_id":"ce4bgvp2rcd13ifvqct0","pricing_plan_id":"free"},{"bike_id":"d1d48dbc-bef7-4f0a-ac87-eeefad6e13c7","system_id":"levelo_inurba_marseille","lat":43.33745,"lon":5.37482,"is_reserved":false,"is_disabled":false,"rental_uris":{"android":"levelo://app?vid=d1d48dbc-bef7-4f0a-ac87-eeefad6e13c7","ios":"levelo://app?vid=d1d48dbc-bef7-4f0a-ac87-eeefad6e13c7"},"vehicle_type_id":"4","last_reported":1688085820,"current_range_meters":11200,"station_id":"","pricing_plan_id":"free"},{"bike_id":"476cd57c-2e9c-4f0d-a086-f93a7e3396f6","system_id":"levelo_inurba_marseille","lat":43.337516,"lon":5.374747,"is_reserved":false,"is_disabled":false,"rental_uris":{"android":"levelo://app?vid=476cd57c-2e9c-4f0d-a086-f93a7e3396f6","ios":"levelo://app?vid=476cd57c-2e9c-4f0d-a086-f93a7e3396f6"},"vehicle_type_id":"4","last_reported":1688085820,"current_range_meters":22800,"station_id":"","pricing_plan_id":"free"},{"bike_id":"376ba1ea-7998-4207-9679-4e25a94b2a69","system_id":"levelo_inurba_marseille","lat":43.30637,"lon":5.40075,"is_reserved":false,"is_disabled":false,"rental_uris":{"android":"levelo://app?vid=376ba1ea-7998-4207-9679-4e25a94b2a69","ios":"levelo://app?vid=376ba1ea-7998-4207-9679-4e25a94b2a69"},"vehicle_type_id":"4","last_reported":1688085820,"current_range_meters":12800,"station_id":"ce4bh112rcd13ifvqda0","pricing_plan_id":"free"},{"bike_id":"a65ffe01-f56f-4fe2-9232-8d8ae1d36c4d","system_id":"levelo_inurba_marseille","lat":43.30643,"lon":5.40085,"is_reserved":false,"is_disabled":false,"rental_uris":{"android":"levelo://app?vid=a65ffe01-f56f-4fe2-9232-8d8ae1d36c4d","ios":"levelo://app?vid=a65ffe01-f56f-4fe2-9232-8d8ae1d36c4d"},"vehicle_type_id":"4","last_reported":1688085820,"current_range_meters":14000,"station_id":"ce4bh112rcd13ifvqda0","pricing_plan_id":"free"},{"bike_id":"a3cc2b1a-359f-4faf-8c03-d6b775dc4a11","system_id":"levelo_inurba_marseille","lat":43.30642,"lon":5.401031,"is_reserved":false,"is_disabled":false,"rental_uris":{"android":"levelo://app?vid=a3cc2b1a-359f-4faf-8c03-d6b775dc4a11","ios":"levelo://app?vid=a3cc2b1a-359f-4faf-8c03-d6b775dc4a11"},"vehicle_type_id":"4","last_reported":1688085820,"current_range_meters":21200,"station_id":"ce4bh112rcd13ifvqda0","pricing_plan_id":"free"},{"bike_id":"22c8954c-1a68-4bd4-9369-08a031630aba","system_id":"levelo_inurba_marseille","lat":43.30642,"lon":5.401031,"is_reserved":false,"is_disabled":false,"rental_uris":{"android":"levelo://app?vid=22c8954c-1a68-4bd4-9369-08a031630aba","ios":"levelo://app?vid=22c8954c-1a68-4bd4-9369-08a031630aba"},"vehicle_type_id":"4","last_reported":1688085820,"current_range_meters":6400,"station_id":"ce4bh112rcd13ifvqda0","pricing_plan_id":"free"},{"bike_id":"663c3a03-4eb4-44f3-88dc-bcebd637f91b","system_id":"levelo_inurba_marseille","lat":43.30131,"lon":5.39865,"is_reserved":false,"is_disabled":false,"rental_uris":{"android":"levelo://app?vid=663c3a03-4eb4-44f3-88dc-bcebd637f91b","ios":"levelo://app?vid=663c3a03-4eb4-44f3-88dc-bcebd637f91b"},"vehicle_type_id":"4","last_reported":1688085820,"current_range_meters":3200,"station_id":"ce4bh0h2rcd13ifvqd40","pricing_plan_id":"free"},{"bike_id":"ae07ddaa-bcd3-451c-9e70-d759c9f233c2","system_id":"levelo_inurba_marseille","lat":43.3013,"lon":5.39874,"is_reserved":false,"is_disabled":false,"rental_uris":{"android":"levelo://app?vid=ae07ddaa-bcd3-451c-9e70-d759c9f233c2","ios":"levelo://app?vid=ae07ddaa-bcd3-451c-9e70-d759c9f233c2"},"vehicle_type_id":"4","last_reported":1688085820,"current_range_meters":27200,"station_id":"ce4bh0h2rcd13ifvqd40","pricing_plan_id":"free"},{"bike_id":"d64ed67c-04a1-4ff2-9dd4-c7d1accf9cf5","system_id":"levelo_inurba_marseille","lat":43.30125,"lon":5.39885,"is_reserved":false,"is_disabled":false,"rental_uris":{"android":"levelo://app?vid=d64ed67c-04a1-4ff2-9dd4-c7d1accf9cf5","ios":"levelo://app?vid=d64ed67c-04a1-4ff2-9dd4-c7d1accf9cf5"},"vehicle_type_id":"4","last_reported":1688085820,"current_range_meters":5200,"station_id":"ce4bh0h2rcd13ifvqd40","pricing_plan_id":"free"},{"bike_id":"59e298ab-7f6b-418d-8696-d08a53527528","system_id":"levelo_inurba_marseille","lat":43.298681,"lon":5.397225,"is_reserved":false,"is_disabled":false,"rental_uris":{"android":"levelo://app?vid=59e298ab-7f6b-418d-8696-d08a53527528","ios":"levelo://app?vid=59e298ab-7f6b-418d-8696-d08a53527528"},"vehicle_type_id":"4","last_reported":1688085820,"current_range_meters":30400,"station_id":"ce4bh0h2rcd13ifvqd50","pricing_plan_id":"free"},{"bike_id":"c52fb9ee-f7a0-4c6b-944e-81dce01b9eac","system_id":"levelo_inurba_marseille","lat":43.286591,"lon":5.363346,"is_reserved":false,"is_disabled":false,"rental_uris":{"android":"levelo://app?vid=c52fb9ee-f7a0-4c6b-944e-81dce01b9eac","ios":"levelo://app?vid=c52fb9ee-f7a0-4c6b-944e-81dce01b9eac"},"vehicle_type_id":"4","last_reported":1688085820,"current_range_meters":20000,"station_id":"ce4bhah2rcd13ifvqej0","pricing_plan_id":"free"},{"bike_id":"2829c9ba-4537-4b7b-9fc3-ba90e62c08d4","system_id":"levelo_inurba_marseille","lat":43.298681,"lon":5.397225,"is_reserved":false,"is_disabled":false,"rental_uris":{"android":"levelo://app?vid=2829c9ba-4537-4b7b-9fc3-ba90e62c08d4","ios":"levelo://app?vid=2829c9ba-4537-4b7b-9fc3-ba90e62c08d4"},"vehicle_type_id":"4","last_reported":1688085820,"current_range_meters":31600,"station_id":"ce4bh0h2rcd13ifvqd50","pricing_plan_id":"free"},{"bike_id":"90353797-0df6-4dd6-b183-3a607b46c512","system_id":"levelo_inurba_marseille","lat":43.28706,"lon":5.37391,"is_reserved":false,"is_disabled":false,"rental_uris":{"android":"levelo://app?vid=90353797-0df6-4dd6-b183-3a607b46c512","ios":"levelo://app?vid=90353797-0df6-4dd6-b183-3a607b46c512"},"vehicle_type_id":"4","last_reported":1688085820,"current_range_meters":1200,"station_id":"ce4bh3p2rcd13ifvqdq0","pricing_plan_id":"free"},{"bike_id":"105d352a-1e20-427e-b621-11f41e116f73","system_id":"levelo_inurba_marseille","lat":43.286591,"lon":5.363346,"is_reserved":false,"is_disabled":false,"rental_uris":{"android":"levelo://app?vid=105d352a-1e20-427e-b621-11f41e116f73","ios":"levelo://app?vid=105d352a-1e20-427e-b621-11f41e116f73"},"vehicle_type_id":"4","last_reported":1688085820,"current_range_meters":25600,"station_id":"ce4bhah2rcd13ifvqej0","pricing_plan_id":"free"},{"bike_id":"96462f9c-ce93-4db0-8abf-2da32debe153","system_id":"levelo_inurba_marseille","lat":43.298681,"lon":5.397225,"is_reserved":false,"is_disabled":false,"rental_uris":{"android":"levelo://app?vid=96462f9c-ce93-4db0-8abf-2da32debe153","ios":"levelo://app?vid=96462f9c-ce93-4db0-8abf-2da32debe153"},"vehicle_type_id":"4","last_reported":1688085820,"current_range_meters":26000,"station_id":"ce4bh0h2rcd13ifvqd50","pricing_plan_id":"free"},{"bike_id":"64042e0e-f8df-4cc7-994d-805598e962c8","system_id":"levelo_inurba_marseille","lat":43.286591,"lon":5.363346,"is_reserved":false,"is_disabled":false,"rental_uris":{"android":"levelo://app?vid=64042e0e-f8df-4cc7-994d-805598e962c8","ios":"levelo://app?vid=64042e0e-f8df-4cc7-994d-805598e962c8"},"vehicle_type_id":"4","last_reported":1688085820,"current_range_meters":8000,"station_id":"ce4bhah2rcd13ifvqej0","pricing_plan_id":"free"},{"bike_id":"78406bc8-2936-41b2-a3a4-011ad291d8af","system_id":"levelo_inurba_marseille","lat":43.298681,"lon":5.397225,"is_reserved":false,"is_disabled":false,"rental_uris":{"android":"levelo://app?vid=78406bc8-2936-41b2-a3a4-011ad291d8af","ios":"levelo://app?vid=78406bc8-2936-41b2-a3a4-011ad291d8af"},"vehicle_type_id":"4","last_reported":1688085820,"current_range_meters":27200,"station_id":"ce4bh0h2rcd13ifvqd50","pricing_plan_id":"free"},{"bike_id":"45780c57-863e-45b9-ac6b-85d7e05110bd","system_id":"levelo_inurba_marseille","lat":43.298681,"lon":5.397225,"is_reserved":false,"is_disabled":false,"rental_uris":{"android":"levelo://app?vid=45780c57-863e-45b9-ac6b-85d7e05110bd","ios":"levelo://app?vid=45780c57-863e-45b9-ac6b-85d7e05110bd"},"vehicle_type_id":"4","last_reported":1688085820,"current_range_meters":32000,"station_id":"ce4bh0h2rcd13ifvqd50","pricing_plan_id":"free"},{"bike_id":"6fd1d0c0-b2be-49d9-ad6e-599d24ab89a6","system_id":"levelo_inurba_marseille","lat":43.286591,"lon":5.363346,"is_reserved":false,"is_disabled":false,"rental_uris":{"android":"levelo://app?vid=6fd1d0c0-b2be-49d9-ad6e-599d24ab89a6","ios":"levelo://app?vid=6fd1d0c0-b2be-49d9-ad6e-599d24ab89a6"},"vehicle_type_id":"4","last_reported":1688085820,"current_range_meters":22400,"station_id":"ce4bhah2rcd13ifvqej0","pricing_plan_id":"free"},{"bike_id":"138762c1-3c2b-4f41-ae37-4a038a185297","system_id":"levelo_inurba_marseille","lat":43.286591,"lon":5.363346,"is_reserved":false,"is_disabled":false,"rental_uris":{"android":"levelo://app?vid=138762c1-3c2b-4f41-ae37-4a038a185297","ios":"levelo://app?vid=138762c1-3c2b-4f41-ae37-4a038a185297"},"vehicle_type_id":"4","last_reported":1688085820,"current_range_meters":26800,"station_id":"ce4bhah2rcd13ifvqej0","pricing_plan_id":"free"},{"bike_id":"717187d1-0e23-40b8-be05-0184adb602b1","system_id":"levelo_inurba_marseille","lat":43.298681,"lon":5.397225,"is_reserved":false,"is_disabled":false,"rental_uris":{"android":"levelo://app?vid=717187d1-0e23-40b8-be05-0184adb602b1","ios":"levelo://app?vid=717187d1-0e23-40b8-be05-0184adb602b1"},"vehicle_type_id":"4","last_reported":1688085820,"current_range_meters":22000,"station_id":"ce4bh0h2rcd13ifvqd50","pricing_plan_id":"free"},{"bike_id":"bf80eaeb-1177-48f1-9f45-4f70f818057c","system_id":"levelo_inurba_marseille","lat":43.28663,"lon":5.36355,"is_reserved":false,"is_disabled":false,"rental_uris":{"android":"levelo://app?vid=bf80eaeb-1177-48f1-9f45-4f70f818057c","ios":"levelo://app?vid=bf80eaeb-1177-48f1-9f45-4f70f818057c"},"vehicle_type_id":"4","last_reported":1688085820,"current_range_meters":4400,"station_id":"ce4bhah2rcd13ifvqej0","pricing_plan_id":"free"},{"bike_id":"3077b434-6ed0-4f81-a2c3-70d5fe5dd0dd","system_id":"levelo_inurba_marseille","lat":43.286591,"lon":5.363346,"is_reserved":false,"is_disabled":false,"rental_uris":{"android":"levelo://app?vid=3077b434-6ed0-4f81-a2c3-70d5fe5dd0dd","ios":"levelo://app?vid=3077b434-6ed0-4f81-a2c3-70d5fe5dd0dd"},"vehicle_type_id":"4","last_reported":1688085820,"current_range_meters":16400,"station_id":"ce4bhah2rcd13ifvqej0","pricing_plan_id":"free"},{"bike_id":"3c8467ba-5706-47d8-a031-85af4e16b88b","system_id":"levelo_inurba_marseille","lat":43.298681,"lon":5.397225,"is_reserved":false,"is_disabled":false,"rental_uris":{"android":"levelo://app?vid=3c8467ba-5706-47d8-a031-85af4e16b88b","ios":"levelo://app?vid=3c8467ba-5706-47d8-a031-85af4e16b88b"},"vehicle_type_id":"4","last_reported":1688085820,"current_range_meters":4000,"station_id":"ce4bh0h2rcd13ifvqd50","pricing_plan_id":"free"},{"bike_id":"a1a5f3c9-8400-412b-a603-2db8ee85a39d","system_id":"levelo_inurba_marseille","lat":43.286591,"lon":5.363346,"is_reserved":false,"is_disabled":false,"rental_uris":{"android":"levelo://app?vid=a1a5f3c9-8400-412b-a603-2db8ee85a39d","ios":"levelo://app?vid=a1a5f3c9-8400-412b-a603-2db8ee85a39d"},"vehicle_type_id":"4","last_reported":1688085820,"current_range_meters":21600,"station_id":"ce4bhah2rcd13ifvqej0","pricing_plan_id":"free"},{"bike_id":"0c8dc4d0-dc3a-4a86-a38d-a5f5921f3970","system_id":"levelo_inurba_marseille","lat":43.29874,"lon":5.39744,"is_reserved":false,"is_disabled":false,"rental_uris":{"android":"levelo://app?vid=0c8dc4d0-dc3a-4a86-a38d-a5f5921f3970","ios":"levelo://app?vid=0c8dc4d0-dc3a-4a86-a38d-a5f5921f3970"},"vehicle_type_id":"4","last_reported":1688085820,"current_range_meters":400,"station_id":"ce4bh0h2rcd13ifvqd50","pricing_plan_id":"free"},{"bike_id":"58b088c5-bfe0-43d9-a80c-639a90663698","system_id":"levelo_inurba_marseille","lat":43.298681,"lon":5.397225,"is_reserved":false,"is_disabled":false,"rental_uris":{"android":"levelo://app?vid=58b088c5-bfe0-43d9-a80c-639a90663698","ios":"levelo://app?vid=58b088c5-bfe0-43d9-a80c-639a90663698"},"vehicle_type_id":"4","last_reported":1688085820,"current_range_meters":21600,"station_id":"ce4bh0h2rcd13ifvqd50","pricing_plan_id":"free"},{"bike_id":"6a45c238-d7be-4a18-b095-6532eec0b61d","system_id":"levelo_inurba_marseille","lat":43.29876,"lon":5.39755,"is_reserved":false,"is_disabled":false,"rental_uris":{"android":"levelo://app?vid=6a45c238-d7be-4a18-b095-6532eec0b61d","ios":"levelo://app?vid=6a45c238-d7be-4a18-b095-6532eec0b61d"},"vehicle_type_id":"4","last_reported":1688085820,"current_range_meters":800,"station_id":"ce4bh0h2rcd13ifvqd50","pricing_plan_id":"free"},{"bike_id":"b5d02483-b41e-43c6-b50b-762e6aa825d0","system_id":"levelo_inurba_marseille","lat":43.298681,"lon":5.397225,"is_reserved":false,"is_disabled":false,"rental_uris":{"android":"levelo://app?vid=b5d02483-b41e-43c6-b50b-762e6aa825d0","ios":"levelo://app?vid=b5d02483-b41e-43c6-b50b-762e6aa825d0"},"vehicle_type_id":"4","last_reported":1688085820,"current_range_meters":12000,"station_id":"ce4bh0h2rcd13ifvqd50","pricing_plan_id":"free"},{"bike_id":"9a09f5bc-b1dc-4b6c-84c2-cb0acb6d7c64","system_id":"levelo_inurba_marseille","lat":43.295196,"lon":5.39397,"is_reserved":false,"is_disabled":false,"rental_uris":{"android":"levelo://app?vid=9a09f5bc-b1dc-4b6c-84c2-cb0acb6d7c64","ios":"levelo://app?vid=9a09f5bc-b1dc-4b6c-84c2-cb0acb6d7c64"},"vehicle_type_id":"4","last_reported":1688085820,"current_range_meters":30400,"station_id":"ce4bh292rcd13ifvqdf0","pricing_plan_id":"free"},{"bike_id":"cdf54049-3372-412e-9d67-812a71925c07","system_id":"levelo_inurba_marseille","lat":43.302759,"lon":5.400793,"is_reserved":false,"is_disabled":false,"rental_uris":{"android":"levelo://app?vid=cdf54049-3372-412e-9d67-812a71925c07","ios":"levelo://app?vid=cdf54049-3372-412e-9d67-812a71925c07"},"vehicle_type_id":"4","last_reported":1688085820,"current_range_meters":30800,"station_id":"ce4bgvh2rcd13ifvqcs0","pricing_plan_id":"free"},{"bike_id":"f2f18114-9ea1-446e-94c8-6205af54a836","system_id":"levelo_inurba_marseille","lat":43.302759,"lon":5.400793,"is_reserved":false,"is_disabled":false,"rental_uris":{"android":"levelo://app?vid=f2f18114-9ea1-446e-94c8-6205af54a836","ios":"levelo://app?vid=f2f18114-9ea1-446e-94c8-6205af54a836"},"vehicle_type_id":"4","last_reported":1688085820,"current_range_meters":30000,"station_id":"ce4bgvh2rcd13ifvqcs0","pricing_plan_id":"free"},{"bike_id":"0926dc55-4842-4b11-a0be-58d54d4abe1b","system_id":"levelo_inurba_marseille","lat":43.302759,"lon":5.400793,"is_reserved":false,"is_disabled":false,"rental_uris":{"android":"levelo://app?vid=0926dc55-4842-4b11-a0be-58d54d4abe1b","ios":"levelo://app?vid=0926dc55-4842-4b11-a0be-58d54d4abe1b"},"vehicle_type_id":"4","last_reported":1688085820,"current_range_meters":21600,"station_id":"ce4bgvh2rcd13ifvqcs0","pricing_plan_id":"free"},{"bike_id":"d92afa73-ceaf-4508-9f0a-83d06658b538","system_id":"levelo_inurba_marseille","lat":43.302759,"lon":5.400793,"is_reserved":false,"is_disabled":false,"rental_uris":{"android":"levelo://app?vid=d92afa73-ceaf-4508-9f0a-83d06658b538","ios":"levelo://app?vid=d92afa73-ceaf-4508-9f0a-83d06658b538"},"vehicle_type_id":"4","last_reported":1688085820,"current_range_meters":25600,"station_id":"ce4bgvh2rcd13ifvqcs0","pricing_plan_id":"free"},{"bike_id":"3d8c7bc0-ac5a-4b49-8f46-aede307c6ff3","system_id":"levelo_inurba_marseille","lat":43.290336,"lon":5.386425,"is_reserved":false,"is_disabled":false,"rental_uris":{"android":"levelo://app?vid=3d8c7bc0-ac5a-4b49-8f46-aede307c6ff3","ios":"levelo://app?vid=3d8c7bc0-ac5a-4b49-8f46-aede307c6ff3"},"vehicle_type_id":"4","last_reported":1688085820,"current_range_meters":0,"station_id":"ce4bh4p2rcd13ifvqe0g","pricing_plan_id":"free"},{"bike_id":"b55ec7fa-77bb-412d-9e99-2d64ffe8811d","system_id":"levelo_inurba_marseille","lat":43.302759,"lon":5.400793,"is_reserved":false,"is_disabled":false,"rental_uris":{"android":"levelo://app?vid=b55ec7fa-77bb-412d-9e99-2d64ffe8811d","ios":"levelo://app?vid=b55ec7fa-77bb-412d-9e99-2d64ffe8811d"},"vehicle_type_id":"4","last_reported":1688085820,"current_range_meters":17600,"station_id":"ce4bgvh2rcd13ifvqcs0","pricing_plan_id":"free"},{"bike_id":"af005b13-3695-4e19-8337-8bb5b45bc4ed","system_id":"levelo_inurba_marseille","lat":43.290336,"lon":5.386425,"is_reserved":false,"is_disabled":false,"rental_uris":{"android":"levelo://app?vid=af005b13-3695-4e19-8337-8bb5b45bc4ed","ios":"levelo://app?vid=af005b13-3695-4e19-8337-8bb5b45bc4ed"},"vehicle_type_id":"4","last_reported":1688085820,"current_range_meters":13200,"station_id":"ce4bh4p2rcd13ifvqe0g","pricing_plan_id":"free"},{"bike_id":"4c9b5f72-88f6-483b-b0a1-b46796be6707","system_id":"levelo_inurba_marseille","lat":43.28614,"lon":5.3707,"is_reserved":false,"is_disabled":false,"rental_uris":{"android":"levelo://app?vid=4c9b5f72-88f6-483b-b0a1-b46796be6707","ios":"levelo://app?vid=4c9b5f72-88f6-483b-b0a1-b46796be6707"},"vehicle_type_id":"4","last_reported":1688085820,"current_range_meters":26800,"station_id":"ce4bht12rcd13ifvqi60","pricing_plan_id":"free"},{"bike_id":"79400a0b-8dfa-4e39-9e12-335bd234c952","system_id":"levelo_inurba_marseille","lat":43.286039,"lon":5.370679,"is_reserved":false,"is_disabled":false,"rental_uris":{"android":"levelo://app?vid=79400a0b-8dfa-4e39-9e12-335bd234c952","ios":"levelo://app?vid=79400a0b-8dfa-4e39-9e12-335bd234c952"},"vehicle_type_id":"4","last_reported":1688085820,"current_range_meters":23600,"station_id":"ce4bht12rcd13ifvqi60","pricing_plan_id":"free"},{"bike_id":"b6b5dbf3-1982-414d-8dac-0eaa1bce6f67","system_id":"levelo_inurba_marseille","lat":43.28601,"lon":5.37069,"is_reserved":false,"is_disabled":false,"rental_uris":{"android":"levelo://app?vid=b6b5dbf3-1982-414d-8dac-0eaa1bce6f67","ios":"levelo://app?vid=b6b5dbf3-1982-414d-8dac-0eaa1bce6f67"},"vehicle_type_id":"4","last_reported":1688085820,"current_range_meters":0,"station_id":"","pricing_plan_id":"free"},{"bike_id":"6515c3ff-7d07-46fc-8e5e-d9a8c4c3a412","system_id":"levelo_inurba_marseille","lat":43.30302,"lon":5.40137,"is_reserved":false,"is_disabled":false,"rental_uris":{"android":"levelo://app?vid=6515c3ff-7d07-46fc-8e5e-d9a8c4c3a412","ios":"levelo://app?vid=6515c3ff-7d07-46fc-8e5e-d9a8c4c3a412"},"vehicle_type_id":"4","last_reported":1688085820,"current_range_meters":24800,"station_id":"","pricing_plan_id":"free"},{"bike_id":"162263d6-3193-4531-8905-612ba813ed67","system_id":"levelo_inurba_marseille","lat":43.287184,"lon":5.37937,"is_reserved":false,"is_disabled":false,"rental_uris":{"android":"levelo://app?vid=162263d6-3193-4531-8905-612ba813ed67","ios":"levelo://app?vid=162263d6-3193-4531-8905-612ba813ed67"},"vehicle_type_id":"4","last_reported":1688085820,"current_range_meters":26800,"station_id":"ce4bh9p2rcd13ifvqec0","pricing_plan_id":"free"},{"bike_id":"3508c2c2-f2bc-4d48-982f-eea2e2c24014","system_id":"levelo_inurba_marseille","lat":43.287185,"lon":5.379373,"is_reserved":false,"is_disabled":false,"rental_uris":{"android":"levelo://app?vid=3508c2c2-f2bc-4d48-982f-eea2e2c24014","ios":"levelo://app?vid=3508c2c2-f2bc-4d48-982f-eea2e2c24014"},"vehicle_type_id":"4","last_reported":1688085820,"current_range_meters":29600,"station_id":"ce4bh9p2rcd13ifvqec0","pricing_plan_id":"free"},{"bike_id":"cebfe0e5-d1ee-4f64-92d2-19faa36a9e4c","system_id":"levelo_inurba_marseille","lat":43.31645,"lon":5.40423,"is_reserved":false,"is_disabled":false,"rental_uris":{"android":"levelo://app?vid=cebfe0e5-d1ee-4f64-92d2-19faa36a9e4c","ios":"levelo://app?vid=cebfe0e5-d1ee-4f64-92d2-19faa36a9e4c"},"vehicle_type_id":"4","last_reported":1688085820,"current_range_meters":31200,"station_id":"ce4bh012rcd13ifvqd00","pricing_plan_id":"free"},{"bike_id":"d69fed3a-efe9-46fb-b1dc-1240b8978d3e","system_id":"levelo_inurba_marseille","lat":43.316517,"lon":5.404375,"is_reserved":false,"is_disabled":false,"rental_uris":{"android":"levelo://app?vid=d69fed3a-efe9-46fb-b1dc-1240b8978d3e","ios":"levelo://app?vid=d69fed3a-efe9-46fb-b1dc-1240b8978d3e"},"vehicle_type_id":"4","last_reported":1688085820,"current_range_meters":19200,"station_id":"ce4bh012rcd13ifvqd00","pricing_plan_id":"free"},{"bike_id":"759d1442-e030-4b15-866d-d4029f04741a","system_id":"levelo_inurba_marseille","lat":43.316517,"lon":5.404375,"is_reserved":false,"is_disabled":false,"rental_uris":{"android":"levelo://app?vid=759d1442-e030-4b15-866d-d4029f04741a","ios":"levelo://app?vid=759d1442-e030-4b15-866d-d4029f04741a"},"vehicle_type_id":"4","last_reported":1688085820,"current_range_meters":30000,"station_id":"ce4bh012rcd13ifvqd00","pricing_plan_id":"free"},{"bike_id":"ac2d1f0f-a9b6-402c-b50e-32da6065f738","system_id":"levelo_inurba_marseille","lat":43.316517,"lon":5.404375,"is_reserved":false,"is_disabled":false,"rental_uris":{"android":"levelo://app?vid=ac2d1f0f-a9b6-402c-b50e-32da6065f738","ios":"levelo://app?vid=ac2d1f0f-a9b6-402c-b50e-32da6065f738"},"vehicle_type_id":"4","last_reported":1688085820,"current_range_meters":16400,"station_id":"ce4bh012rcd13ifvqd00","pricing_plan_id":"free"},{"bike_id":"ae304b6d-f8b5-407e-a980-bdb1535c09d3","system_id":"levelo_inurba_marseille","lat":43.316517,"lon":5.404375,"is_reserved":false,"is_disabled":false,"rental_uris":{"android":"levelo://app?vid=ae304b6d-f8b5-407e-a980-bdb1535c09d3","ios":"levelo://app?vid=ae304b6d-f8b5-407e-a980-bdb1535c09d3"},"vehicle_type_id":"4","last_reported":1688085820,"current_range_meters":18400,"station_id":"ce4bh012rcd13ifvqd00","pricing_plan_id":"free"},{"bike_id":"b83768cd-0839-4db2-8c24-f816c7fe1fd0","system_id":"levelo_inurba_marseille","lat":43.316517,"lon":5.404375,"is_reserved":false,"is_disabled":false,"rental_uris":{"android":"levelo://app?vid=b83768cd-0839-4db2-8c24-f816c7fe1fd0","ios":"levelo://app?vid=b83768cd-0839-4db2-8c24-f816c7fe1fd0"},"vehicle_type_id":"4","last_reported":1688085820,"current_range_meters":31200,"station_id":"ce4bh012rcd13ifvqd00","pricing_plan_id":"free"},{"bike_id":"139a3017-a13e-4f9c-b402-cb7973cc5313","system_id":"levelo_inurba_marseille","lat":43.291994,"lon":5.392907,"is_reserved":false,"is_disabled":false,"rental_uris":{"android":"levelo://app?vid=139a3017-a13e-4f9c-b402-cb7973cc5313","ios":"levelo://app?vid=139a3017-a13e-4f9c-b402-cb7973cc5313"},"vehicle_type_id":"4","last_reported":1688085820,"current_range_meters":32000,"station_id":"ce4bh192rcd13ifvqdd0","pricing_plan_id":"free"},{"bike_id":"af03f77d-4c78-47ea-95ca-ed7989cc3280","system_id":"levelo_inurba_marseille","lat":43.291994,"lon":5.392907,"is_reserved":false,"is_disabled":false,"rental_uris":{"android":"levelo://app?vid=af03f77d-4c78-47ea-95ca-ed7989cc3280","ios":"levelo://app?vid=af03f77d-4c78-47ea-95ca-ed7989cc3280"},"vehicle_type_id":"4","last_reported":1688085820,"current_range_meters":27600,"station_id":"ce4bh192rcd13ifvqdd0","pricing_plan_id":"free"},{"bike_id":"ad17e0fc-f741-4dc8-a7be-9ea2c3fb03e9","system_id":"levelo_inurba_marseille","lat":43.28462,"lon":5.359,"is_reserved":false,"is_disabled":false,"rental_uris":{"android":"levelo://app?vid=ad17e0fc-f741-4dc8-a7be-9ea2c3fb03e9","ios":"levelo://app?vid=ad17e0fc-f741-4dc8-a7be-9ea2c3fb03e9"},"vehicle_type_id":"4","last_reported":1688085820,"current_range_meters":7600,"station_id":"ce4bhah2rcd13ifvqei0","pricing_plan_id":"free"},{"bike_id":"29271062-26e9-4403-9194-1914f38c1a6b","system_id":"levelo_inurba_marseille","lat":43.28461,"lon":5.35902,"is_reserved":false,"is_disabled":false,"rental_uris":{"android":"levelo://app?vid=29271062-26e9-4403-9194-1914f38c1a6b","ios":"levelo://app?vid=29271062-26e9-4403-9194-1914f38c1a6b"},"vehicle_type_id":"4","last_reported":1688085820,"current_range_meters":28800,"station_id":"ce4bhah2rcd13ifvqei0","pricing_plan_id":"free"},{"bike_id":"126de63f-4cfa-4768-b71a-b8f0ada42f43","system_id":"levelo_inurba_marseille","lat":43.28461,"lon":5.35895,"is_reserved":false,"is_disabled":false,"rental_uris":{"android":"levelo://app?vid=126de63f-4cfa-4768-b71a-b8f0ada42f43","ios":"levelo://app?vid=126de63f-4cfa-4768-b71a-b8f0ada42f43"},"vehicle_type_id":"4","last_reported":1688085820,"current_range_meters":21200,"station_id":"ce4bhah2rcd13ifvqei0","pricing_plan_id":"free"},{"bike_id":"52da10ed-054a-4e3f-bbe6-c7a4eaf76123","system_id":"levelo_inurba_marseille","lat":43.28461,"lon":5.35887,"is_reserved":false,"is_disabled":false,"rental_uris":{"android":"levelo://app?vid=52da10ed-054a-4e3f-bbe6-c7a4eaf76123","ios":"levelo://app?vid=52da10ed-054a-4e3f-bbe6-c7a4eaf76123"},"vehicle_type_id":"4","last_reported":1688085820,"current_range_meters":3200,"station_id":"ce4bhah2rcd13ifvqei0","pricing_plan_id":"free"},{"bike_id":"89ac9a93-26dd-4ae4-b6b8-769476ad0fac","system_id":"levelo_inurba_marseille","lat":43.284534,"lon":5.358662,"is_reserved":false,"is_disabled":false,"rental_uris":{"android":"levelo://app?vid=89ac9a93-26dd-4ae4-b6b8-769476ad0fac","ios":"levelo://app?vid=89ac9a93-26dd-4ae4-b6b8-769476ad0fac"},"vehicle_type_id":"4","last_reported":1688085820,"current_range_meters":14000,"station_id":"ce4bhah2rcd13ifvqei0","pricing_plan_id":"free"},{"bike_id":"64d027ed-e254-4e04-a708-9dac09d524b0","system_id":"levelo_inurba_marseille","lat":43.28459,"lon":5.35895,"is_reserved":false,"is_disabled":false,"rental_uris":{"android":"levelo://app?vid=64d027ed-e254-4e04-a708-9dac09d524b0","ios":"levelo://app?vid=64d027ed-e254-4e04-a708-9dac09d524b0"},"vehicle_type_id":"4","last_reported":1688085820,"current_range_meters":20800,"station_id":"ce4bhah2rcd13ifvqei0","pricing_plan_id":"free"},{"bike_id":"2c01ac3c-ac87-41ec-ba05-69b5e1276f1b","system_id":"levelo_inurba_marseille","lat":43.28455,"lon":5.35889,"is_reserved":false,"is_disabled":false,"rental_uris":{"android":"levelo://app?vid=2c01ac3c-ac87-41ec-ba05-69b5e1276f1b","ios":"levelo://app?vid=2c01ac3c-ac87-41ec-ba05-69b5e1276f1b"},"vehicle_type_id":"4","last_reported":1688085820,"current_range_meters":19200,"station_id":"ce4bhah2rcd13ifvqei0","pricing_plan_id":"free"},{"bike_id":"8c9bb625-ca96-4660-88b3-3f0fab2a3369","system_id":"levelo_inurba_marseille","lat":43.294314,"lon":5.397498,"is_reserved":false,"is_disabled":false,"rental_uris":{"android":"levelo://app?vid=8c9bb625-ca96-4660-88b3-3f0fab2a3369","ios":"levelo://app?vid=8c9bb625-ca96-4660-88b3-3f0fab2a3369"},"vehicle_type_id":"4","last_reported":1688085820,"current_range_meters":25200,"station_id":"ce4bh3h2rcd13ifvqdo0","pricing_plan_id":"free"},{"bike_id":"4c8ec52c-a1db-4b7c-95c6-77dde4cfae50","system_id":"levelo_inurba_marseille","lat":43.28622,"lon":5.35107,"is_reserved":false,"is_disabled":false,"rental_uris":{"android":"levelo://app?vid=4c8ec52c-a1db-4b7c-95c6-77dde4cfae50","ios":"levelo://app?vid=4c8ec52c-a1db-4b7c-95c6-77dde4cfae50"},"vehicle_type_id":"4","last_reported":1688085820,"current_range_meters":6400,"station_id":"ce4bhch2rcd13ifvqeug","pricing_plan_id":"free"},{"bike_id":"62be05ff-20b9-4e24-930a-6cffb0f0f320","system_id":"levelo_inurba_marseille","lat":43.28619,"lon":5.35109,"is_reserved":false,"is_disabled":false,"rental_uris":{"android":"levelo://app?vid=62be05ff-20b9-4e24-930a-6cffb0f0f320","ios":"levelo://app?vid=62be05ff-20b9-4e24-930a-6cffb0f0f320"},"vehicle_type_id":"4","last_reported":1688085820,"current_range_meters":7200,"station_id":"ce4bhch2rcd13ifvqeug","pricing_plan_id":"free"},{"bike_id":"6486263a-7787-44c6-a421-85bac6bbc183","system_id":"levelo_inurba_marseille","lat":43.28619,"lon":5.35106,"is_reserved":false,"is_disabled":false,"rental_uris":{"android":"levelo://app?vid=6486263a-7787-44c6-a421-85bac6bbc183","ios":"levelo://app?vid=6486263a-7787-44c6-a421-85bac6bbc183"},"vehicle_type_id":"4","last_reported":1688085820,"current_range_meters":26000,"station_id":"ce4bhch2rcd13ifvqeug","pricing_plan_id":"free"},{"bike_id":"3a67d0f2-c59d-4bf4-b0dc-2006c4ec4b03","system_id":"levelo_inurba_marseille","lat":43.285848,"lon":5.350787,"is_reserved":false,"is_disabled":false,"rental_uris":{"android":"levelo://app?vid=3a67d0f2-c59d-4bf4-b0dc-2006c4ec4b03","ios":"levelo://app?vid=3a67d0f2-c59d-4bf4-b0dc-2006c4ec4b03"},"vehicle_type_id":"4","last_reported":1688085820,"current_range_meters":21200,"station_id":"ce4bhch2rcd13ifvqeug","pricing_plan_id":"free"},{"bike_id":"737fdb27-62e2-456c-a310-b847ccf510fa","system_id":"levelo_inurba_marseille","lat":43.283998,"lon":5.375062,"is_reserved":false,"is_disabled":false,"rental_uris":{"android":"levelo://app?vid=737fdb27-62e2-456c-a310-b847ccf510fa","ios":"levelo://app?vid=737fdb27-62e2-456c-a310-b847ccf510fa"},"vehicle_type_id":"4","last_reported":1688085820,"current_range_meters":11600,"station_id":"ce4bh412rcd13ifvqds0","pricing_plan_id":"free"},{"bike_id":"a4807405-02a0-4ff4-a6ca-740868c81b0c","system_id":"levelo_inurba_marseille","lat":43.295713,"lon":5.399639,"is_reserved":false,"is_disabled":false,"rental_uris":{"android":"levelo://app?vid=a4807405-02a0-4ff4-a6ca-740868c81b0c","ios":"levelo://app?vid=a4807405-02a0-4ff4-a6ca-740868c81b0c"},"vehicle_type_id":"4","last_reported":1688085820,"current_range_meters":28800,"station_id":"ce4bh312rcd13ifvqdj0","pricing_plan_id":"free"},{"bike_id":"5088ead8-4f85-4321-824c-9ea8ddb744dd","system_id":"levelo_inurba_marseille","lat":43.29571,"lon":5.39966,"is_reserved":false,"is_disabled":false,"rental_uris":{"android":"levelo://app?vid=5088ead8-4f85-4321-824c-9ea8ddb744dd","ios":"levelo://app?vid=5088ead8-4f85-4321-824c-9ea8ddb744dd"},"vehicle_type_id":"4","last_reported":1688085820,"current_range_meters":2800,"station_id":"ce4bh312rcd13ifvqdj0","pricing_plan_id":"free"},{"bike_id":"c41774bd-b4ea-4137-afbb-4d4b4365d117","system_id":"levelo_inurba_marseille","lat":43.29578,"lon":5.39975,"is_reserved":false,"is_disabled":false,"rental_uris":{"android":"levelo://app?vid=c41774bd-b4ea-4137-afbb-4d4b4365d117","ios":"levelo://app?vid=c41774bd-b4ea-4137-afbb-4d4b4365d117"},"vehicle_type_id":"4","last_reported":1688085820,"current_range_meters":4000,"station_id":"ce4bh312rcd13ifvqdj0","pricing_plan_id":"free"},{"bike_id":"32d08f7c-4e7b-4147-a0e3-f60a0ba68db3","system_id":"levelo_inurba_marseille","lat":43.295713,"lon":5.399639,"is_reserved":false,"is_disabled":false,"rental_uris":{"android":"levelo://app?vid=32d08f7c-4e7b-4147-a0e3-f60a0ba68db3","ios":"levelo://app?vid=32d08f7c-4e7b-4147-a0e3-f60a0ba68db3"},"vehicle_type_id":"4","last_reported":1688085820,"current_range_meters":0,"station_id":"ce4bh312rcd13ifvqdj0","pricing_plan_id":"free"},{"bike_id":"d8a032c3-cdb7-438b-a09f-c25458920c05","system_id":"levelo_inurba_marseille","lat":43.295713,"lon":5.399639,"is_reserved":false,"is_disabled":false,"rental_uris":{"android":"levelo://app?vid=d8a032c3-cdb7-438b-a09f-c25458920c05","ios":"levelo://app?vid=d8a032c3-cdb7-438b-a09f-c25458920c05"},"vehicle_type_id":"4","last_reported":1688085820,"current_range_meters":0,"station_id":"ce4bh312rcd13ifvqdj0","pricing_plan_id":"free"},{"bike_id":"905691a5-b2e1-4df0-8fb7-b8b605a986cc","system_id":"levelo_inurba_marseille","lat":43.28671,"lon":5.38663,"is_reserved":false,"is_disabled":false,"rental_uris":{"android":"levelo://app?vid=905691a5-b2e1-4df0-8fb7-b8b605a986cc","ios":"levelo://app?vid=905691a5-b2e1-4df0-8fb7-b8b605a986cc"},"vehicle_type_id":"4","last_reported":1688085820,"current_range_meters":31200,"station_id":"ce4bh492rcd13ifvqdug","pricing_plan_id":"free"},{"bike_id":"4fc3b4d4-b7c7-4f82-8866-5a9a166f35a1","system_id":"levelo_inurba_marseille","lat":43.32336,"lon":5.40622,"is_reserved":false,"is_disabled":false,"rental_uris":{"android":"levelo://app?vid=4fc3b4d4-b7c7-4f82-8866-5a9a166f35a1","ios":"levelo://app?vid=4fc3b4d4-b7c7-4f82-8866-5a9a166f35a1"},"vehicle_type_id":"4","last_reported":1688085820,"current_range_meters":14800,"station_id":"ce4bhq92rcd13ifvqhjg","pricing_plan_id":"free"},{"bike_id":"b4c950db-352f-4a1a-8e3c-c05101a6dad0","system_id":"levelo_inurba_marseille","lat":43.288,"lon":5.3916,"is_reserved":false,"is_disabled":false,"rental_uris":{"android":"levelo://app?vid=b4c950db-352f-4a1a-8e3c-c05101a6dad0","ios":"levelo://app?vid=b4c950db-352f-4a1a-8e3c-c05101a6dad0"},"vehicle_type_id":"4","last_reported":1688085820,"current_range_meters":28400,"station_id":"","pricing_plan_id":"free"},{"bike_id":"74a1123a-86b2-4fb9-823c-e5c5c3b0e0ec","system_id":"levelo_inurba_marseille","lat":43.288501,"lon":5.393087,"is_reserved":false,"is_disabled":false,"rental_uris":{"android":"levelo://app?vid=74a1123a-86b2-4fb9-823c-e5c5c3b0e0ec","ios":"levelo://app?vid=74a1123a-86b2-4fb9-823c-e5c5c3b0e0ec"},"vehicle_type_id":"4","last_reported":1688085820,"current_range_meters":26800,"station_id":"ce4bh2p2rcd13ifvqdi0","pricing_plan_id":"free"},{"bike_id":"62f3078d-daad-4db6-b008-3de10cd16758","system_id":"levelo_inurba_marseille","lat":43.28846,"lon":5.39314,"is_reserved":false,"is_disabled":false,"rental_uris":{"android":"levelo://app?vid=62f3078d-daad-4db6-b008-3de10cd16758","ios":"levelo://app?vid=62f3078d-daad-4db6-b008-3de10cd16758"},"vehicle_type_id":"4","last_reported":1688085820,"current_range_meters":2400,"station_id":"ce4bh2p2rcd13ifvqdi0","pricing_plan_id":"free"},{"bike_id":"8268e61e-8dc3-4c59-98a8-45dfb365cb95","system_id":"levelo_inurba_marseille","lat":43.28845,"lon":5.39315,"is_reserved":false,"is_disabled":false,"rental_uris":{"android":"levelo://app?vid=8268e61e-8dc3-4c59-98a8-45dfb365cb95","ios":"levelo://app?vid=8268e61e-8dc3-4c59-98a8-45dfb365cb95"},"vehicle_type_id":"4","last_reported":1688085820,"current_range_meters":25200,"station_id":"ce4bh2p2rcd13ifvqdi0","pricing_plan_id":"free"},{"bike_id":"fccdbdaa-57aa-4a4d-b42a-dcf52de0c91c","system_id":"levelo_inurba_marseille","lat":43.283494,"lon":5.380945,"is_reserved":false,"is_disabled":false,"rental_uris":{"android":"levelo://app?vid=fccdbdaa-57aa-4a4d-b42a-dcf52de0c91c","ios":"levelo://app?vid=fccdbdaa-57aa-4a4d-b42a-dcf52de0c91c"},"vehicle_type_id":"4","last_reported":1688085820,"current_range_meters":31200,"station_id":"ce4bh412rcd13ifvqdr0","pricing_plan_id":"free"},{"bike_id":"40265de3-3a11-49a7-8206-7e7d7ca77493","system_id":"levelo_inurba_marseille","lat":43.2884,"lon":5.39325,"is_reserved":false,"is_disabled":false,"rental_uris":{"android":"levelo://app?vid=40265de3-3a11-49a7-8206-7e7d7ca77493","ios":"levelo://app?vid=40265de3-3a11-49a7-8206-7e7d7ca77493"},"vehicle_type_id":"4","last_reported":1688085820,"current_range_meters":0,"station_id":"ce4bh2p2rcd13ifvqdi0","pricing_plan_id":"free"},{"bike_id":"1b7faf63-29ed-4053-8dc0-233713637f48","system_id":"levelo_inurba_marseille","lat":43.283494,"lon":5.380945,"is_reserved":false,"is_disabled":false,"rental_uris":{"android":"levelo://app?vid=1b7faf63-29ed-4053-8dc0-233713637f48","ios":"levelo://app?vid=1b7faf63-29ed-4053-8dc0-233713637f48"},"vehicle_type_id":"4","last_reported":1688085820,"current_range_meters":30000,"station_id":"ce4bh412rcd13ifvqdr0","pricing_plan_id":"free"},{"bike_id":"8525491f-3db0-400c-9669-dc39652966d2","system_id":"levelo_inurba_marseille","lat":43.32399,"lon":5.40662,"is_reserved":false,"is_disabled":false,"rental_uris":{"android":"levelo://app?vid=8525491f-3db0-400c-9669-dc39652966d2","ios":"levelo://app?vid=8525491f-3db0-400c-9669-dc39652966d2"},"vehicle_type_id":"4","last_reported":1688085820,"current_range_meters":28400,"station_id":"","pricing_plan_id":"free"},{"bike_id":"faf566e6-693f-4478-bcf0-391d5cd3de6d","system_id":"levelo_inurba_marseille","lat":43.283498,"lon":5.380948,"is_reserved":false,"is_disabled":false,"rental_uris":{"android":"levelo://app?vid=faf566e6-693f-4478-bcf0-391d5cd3de6d","ios":"levelo://app?vid=faf566e6-693f-4478-bcf0-391d5cd3de6d"},"vehicle_type_id":"4","last_reported":1688085820,"current_range_meters":29600,"station_id":"ce4bh412rcd13ifvqdr0","pricing_plan_id":"free"},{"bike_id":"e529bb16-7af7-4165-9265-26765f972865","system_id":"levelo_inurba_marseille","lat":43.283494,"lon":5.380945,"is_reserved":false,"is_disabled":false,"rental_uris":{"android":"levelo://app?vid=e529bb16-7af7-4165-9265-26765f972865","ios":"levelo://app?vid=e529bb16-7af7-4165-9265-26765f972865"},"vehicle_type_id":"4","last_reported":1688085820,"current_range_meters":28400,"station_id":"ce4bh412rcd13ifvqdr0","pricing_plan_id":"free"},{"bike_id":"a31a35a5-e61f-4317-9391-7f19d8fcfbcd","system_id":"levelo_inurba_marseille","lat":43.28429,"lon":5.34985,"is_reserved":false,"is_disabled":false,"rental_uris":{"android":"levelo://app?vid=a31a35a5-e61f-4317-9391-7f19d8fcfbcd","ios":"levelo://app?vid=a31a35a5-e61f-4317-9391-7f19d8fcfbcd"},"vehicle_type_id":"4","last_reported":1688085820,"current_range_meters":0,"station_id":"ce4bhbh2rcd13ifvqepg","pricing_plan_id":"free"},{"bike_id":"8974d0d8-232e-4d71-bea5-86d976005fb5","system_id":"levelo_inurba_marseille","lat":43.289363,"lon":5.396322,"is_reserved":false,"is_disabled":false,"rental_uris":{"android":"levelo://app?vid=8974d0d8-232e-4d71-bea5-86d976005fb5","ios":"levelo://app?vid=8974d0d8-232e-4d71-bea5-86d976005fb5"},"vehicle_type_id":"4","last_reported":1688085820,"current_range_meters":22000,"station_id":"ce4bh3h2rcd13ifvqdn0","pricing_plan_id":"free"},{"bike_id":"97377538-b322-4c49-972d-ab950bc9c061","system_id":"levelo_inurba_marseille","lat":43.289363,"lon":5.396322,"is_reserved":false,"is_disabled":false,"rental_uris":{"android":"levelo://app?vid=97377538-b322-4c49-972d-ab950bc9c061","ios":"levelo://app?vid=97377538-b322-4c49-972d-ab950bc9c061"},"vehicle_type_id":"4","last_reported":1688085820,"current_range_meters":31600,"station_id":"ce4bh3h2rcd13ifvqdn0","pricing_plan_id":"free"},{"bike_id":"ab3fd236-05cc-4b51-8571-8f21156157e4","system_id":"levelo_inurba_marseille","lat":43.28738,"lon":5.39304,"is_reserved":false,"is_disabled":false,"rental_uris":{"android":"levelo://app?vid=ab3fd236-05cc-4b51-8571-8f21156157e4","ios":"levelo://app?vid=ab3fd236-05cc-4b51-8571-8f21156157e4"},"vehicle_type_id":"4","last_reported":1688085820,"current_range_meters":6800,"station_id":"","pricing_plan_id":"free"},{"bike_id":"a8fa0b6e-a4b1-49dd-949c-c9da37f27918","system_id":"levelo_inurba_marseille","lat":43.289363,"lon":5.396322,"is_reserved":false,"is_disabled":false,"rental_uris":{"android":"levelo://app?vid=a8fa0b6e-a4b1-49dd-949c-c9da37f27918","ios":"levelo://app?vid=a8fa0b6e-a4b1-49dd-949c-c9da37f27918"},"vehicle_type_id":"4","last_reported":1688085820,"current_range_meters":23200,"station_id":"ce4bh3h2rcd13ifvqdn0","pricing_plan_id":"free"},{"bike_id":"57a0c2eb-d3ea-4e4a-bfc9-8f44de8d01b5","system_id":"levelo_inurba_marseille","lat":43.292724,"lon":5.401131,"is_reserved":false,"is_disabled":false,"rental_uris":{"android":"levelo://app?vid=57a0c2eb-d3ea-4e4a-bfc9-8f44de8d01b5","ios":"levelo://app?vid=57a0c2eb-d3ea-4e4a-bfc9-8f44de8d01b5"},"vehicle_type_id":"4","last_reported":1688085820,"current_range_meters":13200,"station_id":"ce4bh312rcd13ifvqdk0","pricing_plan_id":"free"},{"bike_id":"8e1ffae6-8ba8-4cad-96e2-383ab36086b0","system_id":"levelo_inurba_marseille","lat":43.292724,"lon":5.401131,"is_reserved":false,"is_disabled":false,"rental_uris":{"android":"levelo://app?vid=8e1ffae6-8ba8-4cad-96e2-383ab36086b0","ios":"levelo://app?vid=8e1ffae6-8ba8-4cad-96e2-383ab36086b0"},"vehicle_type_id":"4","last_reported":1688085820,"current_range_meters":12000,"station_id":"ce4bh312rcd13ifvqdk0","pricing_plan_id":"free"},{"bike_id":"f3e2207c-6554-4136-9336-3997d9ffa099","system_id":"levelo_inurba_marseille","lat":43.292724,"lon":5.401131,"is_reserved":false,"is_disabled":false,"rental_uris":{"android":"levelo://app?vid=f3e2207c-6554-4136-9336-3997d9ffa099","ios":"levelo://app?vid=f3e2207c-6554-4136-9336-3997d9ffa099"},"vehicle_type_id":"4","last_reported":1688085820,"current_range_meters":20800,"station_id":"ce4bh312rcd13ifvqdk0","pricing_plan_id":"free"},{"bike_id":"70cb742a-d103-4d15-999a-c2bf637bab18","system_id":"levelo_inurba_marseille","lat":43.292724,"lon":5.401131,"is_reserved":false,"is_disabled":false,"rental_uris":{"android":"levelo://app?vid=70cb742a-d103-4d15-999a-c2bf637bab18","ios":"levelo://app?vid=70cb742a-d103-4d15-999a-c2bf637bab18"},"vehicle_type_id":"4","last_reported":1688085820,"current_range_meters":14400,"station_id":"ce4bh312rcd13ifvqdk0","pricing_plan_id":"free"},{"bike_id":"24a64150-f38e-4905-b81d-5300604ef32a","system_id":"levelo_inurba_marseille","lat":43.292724,"lon":5.401131,"is_reserved":false,"is_disabled":false,"rental_uris":{"android":"levelo://app?vid=24a64150-f38e-4905-b81d-5300604ef32a","ios":"levelo://app?vid=24a64150-f38e-4905-b81d-5300604ef32a"},"vehicle_type_id":"4","last_reported":1688085820,"current_range_meters":23200,"station_id":"ce4bh312rcd13ifvqdk0","pricing_plan_id":"free"},{"bike_id":"e16f7055-2f1b-4c22-a9d7-b313ce6d3b15","system_id":"levelo_inurba_marseille","lat":43.292724,"lon":5.401131,"is_reserved":false,"is_disabled":false,"rental_uris":{"android":"levelo://app?vid=e16f7055-2f1b-4c22-a9d7-b313ce6d3b15","ios":"levelo://app?vid=e16f7055-2f1b-4c22-a9d7-b313ce6d3b15"},"vehicle_type_id":"4","last_reported":1688085820,"current_range_meters":18800,"station_id":"ce4bh312rcd13ifvqdk0","pricing_plan_id":"free"},{"bike_id":"f143fd2a-bded-46b0-928a-d97f1c0c4828","system_id":"levelo_inurba_marseille","lat":43.29278,"lon":5.40129,"is_reserved":false,"is_disabled":false,"rental_uris":{"android":"levelo://app?vid=f143fd2a-bded-46b0-928a-d97f1c0c4828","ios":"levelo://app?vid=f143fd2a-bded-46b0-928a-d97f1c0c4828"},"vehicle_type_id":"4","last_reported":1688085820,"current_range_meters":18400,"station_id":"ce4bh312rcd13ifvqdk0","pricing_plan_id":"free"},{"bike_id":"bea195b3-cf85-4dd4-9b5a-09c1e18baa5a","system_id":"levelo_inurba_marseille","lat":43.283502,"lon":5.386471,"is_reserved":false,"is_disabled":false,"rental_uris":{"android":"levelo://app?vid=bea195b3-cf85-4dd4-9b5a-09c1e18baa5a","ios":"levelo://app?vid=bea195b3-cf85-4dd4-9b5a-09c1e18baa5a"},"vehicle_type_id":"4","last_reported":1688085820,"current_range_meters":27600,"station_id":"ce4bh492rcd13ifvqdvg","pricing_plan_id":"free"},{"bike_id":"923331d8-b023-43fe-8fc4-725759aeaf42","system_id":"levelo_inurba_marseille","lat":43.283502,"lon":5.386471,"is_reserved":false,"is_disabled":false,"rental_uris":{"android":"levelo://app?vid=923331d8-b023-43fe-8fc4-725759aeaf42","ios":"levelo://app?vid=923331d8-b023-43fe-8fc4-725759aeaf42"},"vehicle_type_id":"4","last_reported":1688085820,"current_range_meters":31600,"station_id":"ce4bh492rcd13ifvqdvg","pricing_plan_id":"free"},{"bike_id":"97efbc94-dba5-43b4-8cc7-b9f7ac07648a","system_id":"levelo_inurba_marseille","lat":43.29043,"lon":5.39948,"is_reserved":false,"is_disabled":false,"rental_uris":{"android":"levelo://app?vid=97efbc94-dba5-43b4-8cc7-b9f7ac07648a","ios":"levelo://app?vid=97efbc94-dba5-43b4-8cc7-b9f7ac07648a"},"vehicle_type_id":"4","last_reported":1688085820,"current_range_meters":0,"station_id":"ce4bh392rcd13ifvqdm0","pricing_plan_id":"free"},{"bike_id":"e44fc683-7ea7-4b81-af8f-4ac47702255f","system_id":"levelo_inurba_marseille","lat":43.281044,"lon":5.378308,"is_reserved":false,"is_disabled":false,"rental_uris":{"android":"levelo://app?vid=e44fc683-7ea7-4b81-af8f-4ac47702255f","ios":"levelo://app?vid=e44fc683-7ea7-4b81-af8f-4ac47702255f"},"vehicle_type_id":"4","last_reported":1688085820,"current_range_meters":25200,"station_id":"ce4bha12rcd13ifvqee0","pricing_plan_id":"free"},{"bike_id":"bf02bee8-7a22-477e-a238-9f722a4ad3e4","system_id":"levelo_inurba_marseille","lat":43.281044,"lon":5.378308,"is_reserved":false,"is_disabled":false,"rental_uris":{"android":"levelo://app?vid=bf02bee8-7a22-477e-a238-9f722a4ad3e4","ios":"levelo://app?vid=bf02bee8-7a22-477e-a238-9f722a4ad3e4"},"vehicle_type_id":"4","last_reported":1688085820,"current_range_meters":20000,"station_id":"ce4bha12rcd13ifvqee0","pricing_plan_id":"free"},{"bike_id":"a0f6afe9-fe91-4aa7-a806-ac26bab7cb15","system_id":"levelo_inurba_marseille","lat":43.28109,"lon":5.37831,"is_reserved":false,"is_disabled":false,"rental_uris":{"android":"levelo://app?vid=a0f6afe9-fe91-4aa7-a806-ac26bab7cb15","ios":"levelo://app?vid=a0f6afe9-fe91-4aa7-a806-ac26bab7cb15"},"vehicle_type_id":"4","last_reported":1688085820,"current_range_meters":25200,"station_id":"ce4bha12rcd13ifvqee0","pricing_plan_id":"free"},