{"last_updated":1704531980,"ttl":30,"version":"2.2","data":{"bikes":[{"bike_id":"cc8890d5-6b8b-4419-8be0-a71832d276d3","system_id":"levelo_inurba_marseille","lat":43.31341,"lon":5.367098,"is_reserved":false,"is_disabled":false,"rental_uris":{"android":"levelo://app?vid=cc8890d5-6b8b-4419-8be0-a71832d276d3","ios":"levelo://app?vid=cc8890d5-6b8b-4419-8be0-a71832d276d3"},"vehicle_type_id":"4","last_reported":1704531980,"current_range_meters":28400,"station_id":"ce4bgr92rcd13ifvqc6g","pricing_plan_id":"free"},{"bike_id":"c81f1870-308f-4785-92b3-f761605947dc","system_id":"levelo_inurba_marseille","lat":43.314811,"lon":5.373104,"is_reserved":false,"is_disabled":false,"rental_uris":{"android":"levelo://app?vid=c81f1870-308f-4785-92b3-f761605947dc","ios":"levelo://app?vid=c81f1870-308f-4785-92b3-f761605947dc"},"vehicle_type_id":"4","last_reported":1704531980,"current_range_meters":23200,"station_id":"ce4bgt12rcd13ifvqcd0","pricing_plan_id":"free"},{"bike_id":"723d073a-77a2-4bb0-a674-3a93acbd2377","system_id":"levelo_inurba_marseille","lat":43.314811,"lon":5.373103,"is_reserved":false,"is_disabled":false,"rental_uris":{"android":"levelo://app?vid=723d073a-77a2-4bb0-a674-3a93acbd2377","ios":"levelo://app?vid=723d073a-77a2-4bb0-a674-3a93acbd2377"},"vehicle_type_id":"4","last_reported":1704531980,"current_range_meters":29200,"station_id":"ce4bgt12rcd13ifvqcd0","pricing_plan_id":"free"},{"bike_id":"8994073b-6057-46fd-a020-f50b8f7d5d25","system_id":"levelo_inurba_marseille","lat":43.309039,"lon":5.371797,"is_reserved":false,"is_disabled":false,"rental_uris":{"android":"levelo://app?vid=8994073b-6057-46fd-a020-f50b8f7d5d25","ios":"levelo://app?vid=8994073b-6057-46fd-a020-f50b8f7d5d25"},"vehicle_type_id":"4","last_reported":1704531980,"current_range_meters":13200,"station_id":"ce4bguh2rcd13ifvqckg","pricing_plan_id":"free"},{"bike_id":"ef38959e-126e-491a-8606-dd8957acfe4d","system_id":"levelo_inurba_marseille","lat":43.309039,"lon":5.371797,"is_reserved":false,"is_disabled":false,"rental_uris":{"android":"levelo://app?vid=ef38959e-126e-491a-8606-dd8957acfe4d","ios":"levelo://app?vid=ef38959e-126e-491a-8606-dd8957acfe4d"},"vehicle_type_id":"4","last_reported":1704531980,"current_range_meters":25200,"station_id":"ce4bguh2rcd13ifvqckg","pricing_plan_id":"free"},{"bike_id":"d029e3cc-a285-43dd-b3e0-d71b75b8afc4","system_id":"levelo_inurba_marseille","lat":43.309039,"lon":5.371797,"is_reserved":false,"is_disabled":false,"rental_uris":{"android":"levelo://app?vid=d029e3cc-a285-43dd-b3e0-d71b75b8afc4","ios":"levelo://app?vid=d029e3cc-a285-43dd-b3e0-d71b75b8afc4"},"vehicle_type_id":"4","last_reported":1704531980,"current_range_meters":31200,"station_id":"ce4bguh2rcd13ifvqckg","pricing_plan_id":"free"},{"bike_id":"86d1fc9e-8d51-4a2e-b3ba-d3a7d285d640","system_id":"levelo_inurba_marseille","lat":43.305712,"lon":5.365641,"is_reserved":false,"is_disabled":false,"rental_uris":{"android":"levelo://app?vid=86d1fc9e-8d51-4a2e-b3ba-d3a7d285d640","ios":"levelo://app?vid=86d1fc9e-8d51-4a2e-b3ba-d3a7d285d640"},"vehicle_type_id":"4","last_reported":1704531980,"current_range_meters":26800,"station_id":"ce4bgs12rcd13ifvqcag","pricing_plan_id":"free"},{"bike_id":"1d394ad4-67a9-4587-82cf-9f73938f23a0","system_id":"levelo_inurba_marseille","lat":43.305712,"lon":5.365641,"is_reserved":false,"is_disabled":false,"rental_uris":{"android":"levelo://app?vid=1d394ad4-67a9-4587-82cf-9f73938f23a0","ios":"levelo://app?vid=1d394ad4-67a9-4587-82cf-9f73938f23a0"},"vehicle_type_id":"4","last_reported":1704531980,"current_range_meters":28800,"station_id":"ce4bgs12rcd13ifvqcag","pricing_plan_id":"free"},{"bike_id":"700070ef-6769-4d5e-8927-810da1b0df1e","system_id":"levelo_inurba_marseille","lat":43.305706,"lon":5.365654,"is_reserved":false,"is_disabled":false,"rental_uris":{"android":"levelo://app?vid=700070ef-6769-4d5e-8927-810da1b0df1e","ios":"levelo://app?vid=700070ef-6769-4d5e-8927-810da1b0df1e"},"vehicle_type_id":"4","last_reported":1704531980,"current_range_meters":12000,"station_id":"ce4bgs12rcd13ifvqcag","pricing_plan_id":"free"},{"bike_id":"4d635f9b-f15e-4089-91ee-c5ba379f47e4","system_id":"levelo_inurba_marseille","lat":43.305714,"lon":5.365633,"is_reserved":false,"is_disabled":false,"rental_uris":{"android":"levelo://app?vid=4d635f9b-f15e-4089-91ee-c5ba379f47e4","ios":"levelo://app?vid=4d635f9b-f15e-4089-91ee-c5ba379f47e4"},"vehicle_type_id":"4","last_reported":1704531980,"current_range_meters":26000,"station_id":"ce4bgs12rcd13ifvqcag","pricing_plan_id":"free"},{"bike_id":"b16b0121-ba82-4d9b-8862-5652dfd825d9","system_id":"levelo_inurba_marseille","lat":43.305706,"lon":5.365654,"is_reserved":false,"is_disabled":false,"rental_uris":{"android":"levelo://app?vid=b16b0121-ba82-4d9b-8862-5652dfd825d9","ios":"levelo://app?vid=b16b0121-ba82-4d9b-8862-5652dfd825d9"},"vehicle_type_id":"4","last_reported":1704531980,"current_range_meters":14000,"station_id":"ce4bgs12rcd13ifvqcag","pricing_plan_id":"free"},{"bike_id":"4d885b1b-3fef-4591-815f-f204603b10fc","system_id":"levelo_inurba_marseille","lat":43.305706,"lon":5.365654,"is_reserved":false,"is_disabled":false,"rental_uris":{"android":"levelo://app?vid=4d885b1b-3fef-4591-815f-f204603b10fc","ios":"levelo://app?vid=4d885b1b-3fef-4591-815f-f204603b10fc"},"vehicle_type_id":"4","last_reported":1704531980,"current_range_meters":25600,"station_id":"ce4bgs12rcd13ifvqcag","pricing_plan_id":"free"},{"bike_id":"f68dba62-bf1e-41f3-a26e-989b3e8be8be","system_id":"levelo_inurba_marseille","lat":43.305706,"lon":5.365654,"is_reserved":false,"is_disabled":false,"rental_uris":{"android":"levelo://app?vid=f68dba62-bf1e-41f3-a26e-989b3e8be8be","ios":"levelo://app?vid=f68dba62-bf1e-41f3-a26e-989b3e8be8be"},"vehicle_type_id":"4","last_reported":1704531980,"current_range_meters":31600,"station_id":"ce4bgs12rcd13ifvqcag","pricing_plan_id":"free"},{"bike_id":"3cbea1cd-7072-4e9a-a659-ceed40ffac38","system_id":"levelo_inurba_marseille","lat":43.305706,"lon":5.365654,"is_reserved":false,"is_disabled":false,"rental_uris":{"android":"levelo://app?vid=3cbea1cd-7072-4e9a-a659-ceed40ffac38","ios":"levelo://app?vid=3cbea1cd-7072-4e9a-a659-ceed40ffac38"},"vehicle_type_id":"4","last_reported":1704531980,"current_range_meters":23200,"station_id":"ce4bgs12rcd13ifvqcag","pricing_plan_id":"free"},{"bike_id":"6bdf48b6-f2d5-493f-a524-6a4237f6b77c","system_id":"levelo_inurba_marseille","lat":43.305714,"lon":5.365633,"is_reserved":false,"is_disabled":false,"rental_uris":{"android":"levelo://app?vid=6bdf48b6-f2d5-493f-a524-6a4237f6b77c","ios":"levelo://app?vid=6bdf48b6-f2d5-493f-a524-6a4237f6b77c"},"vehicle_type_id":"4","last_reported":1704531980,"current_range_meters":11600,"station_id":"ce4bgs12rcd13ifvqcag","pricing_plan_id":"free"},{"bike_id":"2fc3f52c-7c3f-4dfd-afda-7371e08de4a6","system_id":"levelo_inurba_marseille","lat":43.305989,"lon":5.37225,"is_reserved":false,"is_disabled":false,"rental_uris":{"android":"levelo://app?vid=2fc3f52c-7c3f-4dfd-afda-7371e08de4a6","ios":"levelo://app?vid=2fc3f52c-7c3f-4dfd-afda-7371e08de4a6"},"vehicle_type_id":"4","last_reported":1704531980,"current_range_meters":19200,"station_id":"ce4bgqh2rcd13ifvqc4g","pricing_plan_id":"free"},{"bike_id":"491d5ca4-33a3-468f-b634-2a51cda0718a","system_id":"levelo_inurba_marseille","lat":43.305989,"lon":5.37225,"is_reserved":false,"is_disabled":false,"rental_uris":{"android":"levelo://app?vid=491d5ca4-33a3-468f-b634-2a51cda0718a","ios":"levelo://app?vid=491d5ca4-33a3-468f-b634-2a51cda0718a"},"vehicle_type_id":"4","last_reported":1704531980,"current_range_meters":30800,"station_id":"ce4bgqh2rcd13ifvqc4g","pricing_plan_id":"free"},{"bike_id":"5eaba6bc-044c-4cac-8b98-61c84ff878de","system_id":"levelo_inurba_marseille","lat":43.30601,"lon":5.37215,"is_reserved":false,"is_disabled":false,"rental_uris":{"android":"levelo://app?vid=5eaba6bc-044c-4cac-8b98-61c84ff878de","ios":"levelo://app?vid=5eaba6bc-044c-4cac-8b98-61c84ff878de"},"vehicle_type_id":"4","last_reported":1704531980,"current_range_meters":26400,"station_id":"ce4bgqh2rcd13ifvqc4g","pricing_plan_id":"free"},{"bike_id":"d1719e05-c926-41eb-93f4-98cc5d038b92","system_id":"levelo_inurba_marseille","lat":43.305989,"lon":5.37225,"is_reserved":false,"is_disabled":false,"rental_uris":{"android":"levelo://app?vid=d1719e05-c926-41eb-93f4-98cc5d038b92","ios":"levelo://app?vid=d1719e05-c926-41eb-93f4-98cc5d038b92"},"vehicle_type_id":"4","last_reported":1704531980,"current_range_meters":17200,"station_id":"ce4bgqh2rcd13ifvqc4g","pricing_plan_id":"free"},{"bike_id":"bdd06ded-657b-4931-8a44-65680b84190f","system_id":"levelo_inurba_marseille","lat":43.305989,"lon":5.37225,"is_reserved":false,"is_disabled":false,"rental_uris":{"android":"levelo://app?vid=bdd06ded-657b-4931-8a44-65680b84190f","ios":"levelo://app?vid=bdd06ded-657b-4931-8a44-65680b84190f"},"vehicle_type_id":"4","last_reported":1704531980,"current_range_meters":27200,"station_id":"ce4bgqh2rcd13ifvqc4g","pricing_plan_id":"free"},{"bike_id":"b64c5ad0-fde3-493f-9cb8-5b1db4bc57fc","system_id":"levelo_inurba_marseille","lat":43.311131,"lon":5.377651,"is_reserved":false,"is_disabled":false,"rental_uris":{"android":"levelo://app?vid=b64c5ad0-fde3-493f-9cb8-5b1db4bc57fc","ios":"levelo://app?vid=b64c5ad0-fde3-493f-9cb8-5b1db4bc57fc"},"vehicle_type_id":"4","last_reported":1704531980,"current_range_meters":27200,"station_id":"ce4bgt92rcd13ifvqcg0","pricing_plan_id":"free"},{"bike_id":"a19aa242-7f85-4f34-b179-629aebb762b3","system_id":"levelo_inurba_marseille","lat":43.311131,"lon":5.377651,"is_reserved":false,"is_disabled":false,"rental_uris":{"android":"levelo://app?vid=a19aa242-7f85-4f34-b179-629aebb762b3","ios":"levelo://app?vid=a19aa242-7f85-4f34-b179-629aebb762b3"},"vehicle_type_id":"4","last_reported":1704531980,"current_range_meters":23200,"station_id":"ce4bgt92rcd13ifvqcg0","pricing_plan_id":"free"},{"bike_id":"d852df57-12a7-4466-a2ba-2621f6aefc6c","system_id":"levelo_inurba_marseille","lat":43.311125,"lon":5.377624,"is_reserved":false,"is_disabled":false,"rental_uris":{"android":"levelo://app?vid=d852df57-12a7-4466-a2ba-2621f6aefc6c","ios":"levelo://app?vid=d852df57-12a7-4466-a2ba-2621f6aefc6c"},"vehicle_type_id":"4","last_reported":1704531980,"current_range_meters":8400,"station_id":"ce4bgt92rcd13ifvqcg0","pricing_plan_id":"free"},{"bike_id":"1cb6c202-9a55-40db-a800-593db0036218","system_id":"levelo_inurba_marseille","lat":43.311131,"lon":5.377651,"is_reserved":false,"is_disabled":false,"rental_uris":{"android":"levelo://app?vid=1cb6c202-9a55-40db-a800-593db0036218","ios":"levelo://app?vid=1cb6c202-9a55-40db-a800-593db0036218"},"vehicle_type_id":"4","last_reported":1704531980,"current_range_meters":26000,"station_id":"ce4bgt92rcd13ifvqcg0","pricing_plan_id":"free"},{"bike_id":"ee7b89e1-cdb7-4b2c-be60-8cd1e53bb7a5","system_id":"levelo_inurba_marseille","lat":43.311125,"lon":5.377624,"is_reserved":false,"is_disabled":false,"rental_uris":{"android":"levelo://app?vid=ee7b89e1-cdb7-4b2c-be60-8cd1e53bb7a5","ios":"levelo://app?vid=ee7b89e1-cdb7-4b2c-be60-8cd1e53bb7a5"},"vehicle_type_id":"4","last_reported":1704531980,"current_range_meters":20000,"station_id":"ce4bgt92rcd13ifvqcg0","pricing_plan_id":"free"},{"bike_id":"89389262-4b2a-4d24-90b8-3219c00e2e33","system_id":"levelo_inurba_marseille","lat":43.307945,"lon":5.376487,"is_reserved":false,"is_disabled":false,"rental_uris":{"android":"levelo://app?vid=89389262-4b2a-4d24-90b8-3219c00e2e33","ios":"levelo://app?vid=89389262-4b2a-4d24-90b8-3219c00e2e33"},"vehicle_type_id":"4","last_reported":1704531980,"current_range_meters":28400,"station_id":"ce4bgv92rcd13ifvqcq0","pricing_plan_id":"free"},{"bike_id":"c4e90871-bb94-4085-82dc-ccbd997a22ca","system_id":"levelo_inurba_marseille","lat":43.31537,"lon":5.37903,"is_reserved":false,"is_disabled":false,"rental_uris":{"android":"levelo://app?vid=c4e90871-bb94-4085-82dc-ccbd997a22ca","ios":"levelo://app?vid=c4e90871-bb94-4085-82dc-ccbd997a22ca"},"vehicle_type_id":"4","last_reported":1704531980,"current_range_meters":10800,"station_id":"","pricing_plan_id":"free"},{"bike_id":"d3977a53-ad10-452a-9d04-264689b3e61d","system_id":"levelo_inurba_marseille","lat":43.315329,"lon":5.380249,"is_reserved":false,"is_disabled":false,"rental_uris":{"android":"levelo://app?vid=d3977a53-ad10-452a-9d04-264689b3e61d","ios":"levelo://app?vid=d3977a53-ad10-452a-9d04-264689b3e61d"},"vehicle_type_id":"4","last_reported":1704531980,"current_range_meters":18000,"station_id":"ce4bhsp2rcd13ifvqi50","pricing_plan_id":"free"},{"bike_id":"05f6b2d1-7d84-4255-992b-62eea5a8d18f","system_id":"levelo_inurba_marseille","lat":43.31532,"lon":5.38026,"is_reserved":false,"is_disabled":false,"rental_uris":{"android":"levelo://app?vid=05f6b2d1-7d84-4255-992b-62eea5a8d18f","ios":"levelo://app?vid=05f6b2d1-7d84-4255-992b-62eea5a8d18f"},"vehicle_type_id":"4","last_reported":1704531980,"current_range_meters":19200,"station_id":"ce4bhsp2rcd13ifvqi50","pricing_plan_id":"free"},{"bike_id":"6641d9ad-059b-4217-b3d1-20a793f6ac43","system_id":"levelo_inurba_marseille","lat":43.315283,"lon":5.380301,"is_reserved":false,"is_disabled":false,"rental_uris":{"android":"levelo://app?vid=6641d9ad-059b-4217-b3d1-20a793f6ac43","ios":"levelo://app?vid=6641d9ad-059b-4217-b3d1-20a793f6ac43"},"vehicle_type_id":"4","last_reported":1704531980,"current_range_meters":30800,"station_id":"ce4bhsp2rcd13ifvqi50","pricing_plan_id":"free"},{"bike_id":"7d4de6ef-6761-4a82-b1e9-756627154281","system_id":"levelo_inurba_marseille","lat":43.315361,"lon":5.380385,"is_reserved":false,"is_disabled":false,"rental_uris":{"android":"levelo://app?vid=7d4de6ef-6761-4a82-b1e9-756627154281","ios":"levelo://app?vid=7d4de6ef-6761-4a82-b1e9-756627154281"},"vehicle_type_id":"4","last_reported":1704531980,"current_range_meters":21200,"station_id":"ce4bhsp2rcd13ifvqi50","pricing_plan_id":"free"},{"bike_id":"b52e3391-befa-41c7-a535-57849047a3ee","system_id":"levelo_inurba_marseille","lat":43.301939,"lon":5.366286,"is_reserved":false,"is_disabled":false,"rental_uris":{"android":"levelo://app?vid=b52e3391-befa-41c7-a535-57849047a3ee","ios":"levelo://app?vid=b52e3391-befa-41c7-a535-57849047a3ee"},"vehicle_type_id":"4","last_reported":1704531980,"current_range_meters":4800,"station_id":"ce4bgrh2rcd13ifvqc8g","pricing_plan_id":"free"},{"bike_id":"dcb4c5f3-8c8a-4f89-9bd8-ab5d85abc50e","system_id":"levelo_inurba_marseille","lat":43.301939,"lon":5.366286,"is_reserved":false,"is_disabled":false,"rental_uris":{"android":"levelo://app?vid=dcb4c5f3-8c8a-4f89-9bd8-ab5d85abc50e","ios":"levelo://app?vid=dcb4c5f3-8c8a-4f89-9bd8-ab5d85abc50e"},"vehicle_type_id":"4","last_reported":1704531980,"current_range_meters":26800,"station_id":"ce4bgrh2rcd13ifvqc8g","pricing_plan_id":"free"},{"bike_id":"fbc67417-7463-44bd-adaf-4336fa4ac7df","system_id":"levelo_inurba_marseille","lat":43.301939,"lon":5.366286,"is_reserved":false,"is_disabled":false,"rental_uris":{"android":"levelo://app?vid=fbc67417-7463-44bd-adaf-4336fa4ac7df","ios":"levelo://app?vid=fbc67417-7463-44bd-adaf-4336fa4ac7df"},"vehicle_type_id":"4","last_reported":1704531980,"current_range_meters":20400,"station_id":"ce4bgrh2rcd13ifvqc8g","pricing_plan_id":"free"},{"bike_id":"cdea8f88-4b5f-45eb-84ea-db95bdcd96c8","system_id":"levelo_inurba_marseille","lat":43.301939,"lon":5.366286,"is_reserved":false,"is_disabled":false,"rental_uris":{"android":"levelo://app?vid=cdea8f88-4b5f-45eb-84ea-db95bdcd96c8","ios":"levelo://app?vid=cdea8f88-4b5f-45eb-84ea-db95bdcd96c8"},"vehicle_type_id":"4","last_reported":1704531980,"current_range_meters":31200,"station_id":"ce4bgrh2rcd13ifvqc8g","pricing_plan_id":"free"},{"bike_id":"da4dd549-5269-4eb0-9f66-4c08697162ae","system_id":"levelo_inurba_marseille","lat":43.308012,"lon":5.381511,"is_reserved":false,"is_disabled":false,"rental_uris":{"android":"levelo://app?vid=da4dd549-5269-4eb0-9f66-4c08697162ae","ios":"levelo://app?vid=da4dd549-5269-4eb0-9f66-4c08697162ae"},"vehicle_type_id":"4","last_reported":1704531980,"current_range_meters":30800,"station_id":"ce4bgt12rcd13ifvqce0","pricing_plan_id":"free"},{"bike_id":"744ef029-bf68-4543-a444-2086878766f1","system_id":"levelo_inurba_marseille","lat":43.308012,"lon":5.381511,"is_reserved":false,"is_disabled":false,"rental_uris":{"android":"levelo://app?vid=744ef029-bf68-4543-a444-2086878766f1","ios":"levelo://app?vid=744ef029-bf68-4543-a444-2086878766f1"},"vehicle_type_id":"4","last_reported":1704531980,"current_range_meters":31200,"station_id":"ce4bgt12rcd13ifvqce0","pricing_plan_id":"free"},{"bike_id":"58cef5d9-e524-495d-b439-41a6ff2ee9ae","system_id":"levelo_inurba_marseille","lat":43.308012,"lon":5.381511,"is_reserved":false,"is_disabled":false,"rental_uris":{"android":"levelo://app?vid=58cef5d9-e524-495d-b439-41a6ff2ee9ae","ios":"levelo://app?vid=58cef5d9-e524-495d-b439-41a6ff2ee9ae"},"vehicle_type_id":"4","last_reported":1704531980,"current_range_meters":20000,"station_id":"ce4bgt12rcd13ifvqce0","pricing_plan_id":"free"},{"bike_id":"5f76d7a5-54c7-4624-a5f0-66e99486d28f","system_id":"levelo_inurba_marseille","lat":43.308012,"lon":5.381511,"is_reserved":false,"is_disabled":false,"rental_uris":{"android":"levelo://app?vid=5f76d7a5-54c7-4624-a5f0-66e99486d28f","ios":"levelo://app?vid=5f76d7a5-54c7-4624-a5f0-66e99486d28f"},"vehicle_type_id":"4","last_reported":1704531980,"current_range_meters":26800,"station_id":"ce4bgt12rcd13ifvqce0","pricing_plan_id":"free"},{"bike_id":"0fdda6b5-e980-4a4f-86d3-99f6f50ade04","system_id":"levelo_inurba_marseille","lat":43.304606,"lon":5.379026,"is_reserved":false,"is_disabled":false,"rental_uris":{"android":"levelo://app?vid=0fdda6b5-e980-4a4f-86d3-99f6f50ade04","ios":"levelo://app?vid=0fdda6b5-e980-4a4f-86d3-99f6f50ade04"},"vehicle_type_id":"4","last_reported":1704531980,"current_range_meters":31200,"station_id":"ce4bgup2rcd13ifvqcn0","pricing_plan_id":"free"},{"bike_id":"c5b23c8e-39b7-4476-9592-4c3facdc4951","system_id":"levelo_inurba_marseille","lat":43.304606,"lon":5.379026,"is_reserved":false,"is_disabled":false,"rental_uris":{"android":"levelo://app?vid=c5b23c8e-39b7-4476-9592-4c3facdc4951","ios":"levelo://app?vid=c5b23c8e-39b7-4476-9592-4c3facdc4951"},"vehicle_type_id":"4","last_reported":1704531980,"current_range_meters":31200,"station_id":"ce4bgup2rcd13ifvqcn0","pricing_plan_id":"free"},{"bike_id":"725b0d68-b979-49ee-ac69-ece4c432d389","system_id":"levelo_inurba_marseille","lat":43.304606,"lon":5.379026,"is_reserved":false,"is_disabled":false,"rental_uris":{"android":"levelo://app?vid=725b0d68-b979-49ee-ac69-ece4c432d389","ios":"levelo://app?vid=725b0d68-b979-49ee-ac69-ece4c432d389"},"vehicle_type_id":"4","last_reported":1704531980,"current_range_meters":30000,"station_id":"ce4bgup2rcd13ifvqcn0","pricing_plan_id":"free"},{"bike_id":"896a65d3-65f1-40b1-ba3e-0345242faf23","system_id":"levelo_inurba_marseille","lat":43.304606,"lon":5.379026,"is_reserved":false,"is_disabled":false,"rental_uris":{"android":"levelo://app?vid=896a65d3-65f1-40b1-ba3e-0345242faf23","ios":"levelo://app?vid=896a65d3-65f1-40b1-ba3e-0345242faf23"},"vehicle_type_id":"4","last_reported":1704531980,"current_range_meters":31200,"station_id":"ce4bgup2rcd13ifvqcn0","pricing_plan_id":"free"},{"bike_id":"eec57b2e-ca66-40c7-a94a-4f2dd306223c","system_id":"levelo_inurba_marseille","lat":43.304606,"lon":5.379026,"is_reserved":false,"is_disabled":false,"rental_uris":{"android":"levelo://app?vid=eec57b2e-ca66-40c7-a94a-4f2dd306223c","ios":"levelo://app?vid=eec57b2e-ca66-40c7-a94a-4f2dd306223c"},"vehicle_type_id":"4","last_reported":1704531980,"current_range_meters":8800,"station_id":"ce4bgup2rcd13ifvqcn0","pricing_plan_id":"free"},{"bike_id":"e16e8974-4e55-4f1e-9e75-18d8fc2c6710","system_id":"levelo_inurba_marseille","lat":43.304606,"lon":5.379026,"is_reserved":false,"is_disabled":false,"rental_uris":{"android":"levelo://app?vid=e16e8974-4e55-4f1e-9e75-18d8fc2c6710","ios":"levelo://app?vid=e16e8974-4e55-4f1e-9e75-18d8fc2c6710"},"vehicle_type_id":"4","last_reported":1704531980,"current_range_meters":24400,"station_id":"ce4bgup2rcd13ifvqcn0","pricing_plan_id":"free"},{"bike_id":"81380ced-4b36-4c25-95d1-26a4926ec2e8","system_id":"levelo_inurba_marseille","lat":43.324771,"lon":5.36557,"is_reserved":false,"is_disabled":false,"rental_uris":{"android":"levelo://app?vid=81380ced-4b36-4c25-95d1-26a4926ec2e8","ios":"levelo://app?vid=81380ced-4b36-4c25-95d1-26a4926ec2e8"},"vehicle_type_id":"4","last_reported":1704531980,"current_range_meters":27200,"station_id":"ce4bhs12rcd13ifvqhvg","pricing_plan_id":"free"},{"bike_id":"8e930f6b-e9b5-42c3-883d-51ace40d80d8","system_id":"levelo_inurba_marseille","lat":43.30282,"lon":5.37696,"is_reserved":false,"is_disabled":false,"rental_uris":{"android":"levelo://app?vid=8e930f6b-e9b5-42c3-883d-51ace40d80d8","ios":"levelo://app?vid=8e930f6b-e9b5-42c3-883d-51ace40d80d8"},"vehicle_type_id":"4","last_reported":1704531980,"current_range_meters":21200,"station_id":"","pricing_plan_id":"free"},{"bike_id":"066e96ea-f6c1-470e-b8f6-1787ce8c2234","system_id":"levelo_inurba_marseille","lat":43.319935,"lon":5.381699,"is_reserved":false,"is_disabled":false,"rental_uris":{"android":"levelo://app?vid=066e96ea-f6c1-470e-b8f6-1787ce8c2234","ios":"levelo://app?vid=066e96ea-f6c1-470e-b8f6-1787ce8c2234"},"vehicle_type_id":"4","last_reported":1704531980,"current_range_meters":23200,"station_id":"ce4bhr12rcd13ifvqhpg","pricing_plan_id":"free"},{"bike_id":"e3e5b010-d208-49c2-a569-74ed42340740","system_id":"levelo_inurba_marseille","lat":43.319935,"lon":5.381699,"is_reserved":false,"is_disabled":false,"rental_uris":{"android":"levelo://app?vid=e3e5b010-d208-49c2-a569-74ed42340740","ios":"levelo://app?vid=e3e5b010-d208-49c2-a569-74ed42340740"},"vehicle_type_id":"4","last_reported":1704531980,"current_range_meters":19200,"station_id":"ce4bhr12rcd13ifvqhpg","pricing_plan_id":"free"},{"bike_id":"241ac632-18ce-41ca-80d7-c565ee1af640","system_id":"levelo_inurba_marseille","lat":43.31356,"lon":5.38488,"is_reserved":false,"is_disabled":false,"rental_uris":{"android":"levelo://app?vid=241ac632-18ce-41ca-80d7-c565ee1af640","ios":"levelo://app?vid=241ac632-18ce-41ca-80d7-c565ee1af640"},"vehicle_type_id":"4","last_reported":1704531980,"current_range_meters":22400,"station_id":"ce4bgt92rcd13ifvqcf0","pricing_plan_id":"free"},{"bike_id":"3a832a3d-ec11-4311-9fbc-927361b47fa2","system_id":"levelo_inurba_marseille","lat":43.3137,"lon":5.38493,"is_reserved":false,"is_disabled":false,"rental_uris":{"android":"levelo://app?vid=3a832a3d-ec11-4311-9fbc-927361b47fa2","ios":"levelo://app?vid=3a832a3d-ec11-4311-9fbc-927361b47fa2"},"vehicle_type_id":"4","last_reported":1704531980,"current_range_meters":29600,"station_id":"ce4bgt92rcd13ifvqcf0","pricing_plan_id":"free"},{"bike_id":"17504bde-947a-4cd6-98b3-9a4c66aca99b","system_id":"levelo_inurba_marseille","lat":43.313827,"lon":5.385007,"is_reserved":false,"is_disabled":false,"rental_uris":{"android":"levelo://app?vid=17504bde-947a-4cd6-98b3-9a4c66aca99b","ios":"levelo://app?vid=17504bde-947a-4cd6-98b3-9a4c66aca99b"},"vehicle_type_id":"4","last_reported":1704531980,"current_range_meters":6400,"station_id":"","pricing_plan_id":"free"},{"bike_id":"3c69489c-925b-4888-a83b-5a2156f1e4a8","system_id":"levelo_inurba_marseille","lat":43.300165,"lon":5.374345,"is_reserved":false,"is_disabled":false,"rental_uris":{"android":"levelo://app?vid=3c69489c-925b-4888-a83b-5a2156f1e4a8","ios":"levelo://app?vid=3c69489c-925b-4888-a83b-5a2156f1e4a8"},"vehicle_type_id":"4","last_reported":1704531980,"current_range_meters":26800,"station_id":"","pricing_plan_id":"free"},{"bike_id":"b22604ec-0c4b-41b4-a20e-38add68f7682","system_id":"levelo_inurba_marseille","lat":43.3257,"lon":5.37482,"is_reserved":false,"is_disabled":false,"rental_uris":{"android":"levelo://app?vid=b22604ec-0c4b-41b4-a20e-38add68f7682","ios":"levelo://app?vid=b22604ec-0c4b-41b4-a20e-38add68f7682"},"vehicle_type_id":"4","last_reported":1704531980,"current_range_meters":14400,"station_id":"","pricing_plan_id":"free"},{"bike_id":"360799ba-75ef-4a4e-9a80-5bd626bba749","system_id":"levelo_inurba_marseille","lat":43.305364,"lon":5.384119,"is_reserved":false,"is_disabled":false,"rental_uris":{"android":"levelo://app?vid=360799ba-75ef-4a4e-9a80-5bd626bba749","ios":"levelo://app?vid=360799ba-75ef-4a4e-9a80-5bd626bba749"},"vehicle_type_id":"4","last_reported":1704531980,"current_range_meters":28000,"station_id":"ce4bgg92rcd13ifvqb30","pricing_plan_id":"free"},{"bike_id":"90f624c9-e920-42f0-bdb2-c7157855cdc0","system_id":"levelo_inurba_marseille","lat":43.31155,"lon":5.38682,"is_reserved":false,"is_disabled":false,"rental_uris":{"android":"levelo://app?vid=90f624c9-e920-42f0-bdb2-c7157855cdc0","ios":"levelo://app?vid=90f624c9-e920-42f0-bdb2-c7157855cdc0"},"vehicle_type_id":"4","last_reported":1704531980,"current_range_meters":14000,"station_id":"ce4bgv12rcd13ifvqcp0","pricing_plan_id":"free"},{"bike_id":"6ee20984-0d42-43d9-93c8-2b838aef357a","system_id":"levelo_inurba_marseille","lat":43.305364,"lon":5.384119,"is_reserved":false,"is_disabled":false,"rental_uris":{"android":"levelo://app?vid=6ee20984-0d42-43d9-93c8-2b838aef357a","ios":"levelo://app?vid=6ee20984-0d42-43d9-93c8-2b838aef357a"},"vehicle_type_id":"4","last_reported":1704531980,"current_range_meters":24000,"station_id":"ce4bgg92rcd13ifvqb30","pricing_plan_id":"free"},{"bike_id":"9dbe807b-4147-47f0-bbb0-c47f60037581","system_id":"levelo_inurba_marseille","lat":43.305364,"lon":5.384119,"is_reserved":false,"is_disabled":false,"rental_uris":{"android":"levelo://app?vid=9dbe807b-4147-47f0-bbb0-c47f60037581","ios":"levelo://app?vid=9dbe807b-4147-47f0-bbb0-c47f60037581"},"vehicle_type_id":"4","last_reported":1704531980,"current_range_meters":31600,"station_id":"ce4bgg92rcd13ifvqb30","pricing_plan_id":"free"},{"bike_id":"158a7fa4-2b1e-4163-b447-235e55af8e2c","system_id":"levelo_inurba_marseille","lat":43.298433,"lon":5.362774,"is_reserved":false,"is_disabled":false,"rental_uris":{"android":"levelo://app?vid=158a7fa4-2b1e-4163-b447-235e55af8e2c","ios":"levelo://app?vid=158a7fa4-2b1e-4163-b447-235e55af8e2c"},"vehicle_type_id":"4","last_reported":1704531980,"current_range_meters":30800,"station_id":"ce4bgpp2rcd13ifvqc3g","pricing_plan_id":"free"},{"bike_id":"97619df1-704a-4899-9825-6332cfa67973","system_id":"levelo_inurba_marseille","lat":43.305364,"lon":5.384119,"is_reserved":false,"is_disabled":false,"rental_uris":{"android":"levelo://app?vid=97619df1-704a-4899-9825-6332cfa67973","ios":"levelo://app?vid=97619df1-704a-4899-9825-6332cfa67973"},"vehicle_type_id":"4","last_reported":1704531980,"current_range_meters":17200,"station_id":"ce4bgg92rcd13ifvqb30","pricing_plan_id":"free"},{"bike_id":"74a15c8a-a99d-42a4-83fa-3c9ee5b239bc","system_id":"levelo_inurba_marseille","lat":43.305364,"lon":5.384119,"is_reserved":false,"is_disabled":false,"rental_uris":{"android":"levelo://app?vid=74a15c8a-a99d-42a4-83fa-3c9ee5b239bc","ios":"levelo://app?vid=74a15c8a-a99d-42a4-83fa-3c9ee5b239bc"},"vehicle_type_id":"4","last_reported":1704531980,"current_range_meters":29200,"station_id":"ce4bgg92rcd13ifvqb30","pricing_plan_id":"free"},{"bike_id":"df9a35fe-8078-4ee6-a0b0-e962178ff7a8","system_id":"levelo_inurba_marseille","lat":43.305364,"lon":5.384119,"is_reserved":false,"is_disabled":false,"rental_uris":{"android":"levelo://app?vid=df9a35fe-8078-4ee6-a0b0-e962178ff7a8","ios":"levelo://app?vid=df9a35fe-8078-4ee6-a0b0-e962178ff7a8"},"vehicle_type_id":"4","last_reported":1704531980,"current_range_meters":19200,"station_id":"ce4bgg92rcd13ifvqb30","pricing_plan_id":"free"},{"bike_id":"41e3ffd0-59af-425b-8819-4223cf1be0d4","system_id":"levelo_inurba_marseille","lat":43.298433,"lon":5.362774,"is_reserved":false,"is_disabled":false,"rental_uris":{"android":"levelo://app?vid=41e3ffd0-59af-425b-8819-4223cf1be0d4","ios":"levelo://app?vid=41e3ffd0-59af-425b-8819-4223cf1be0d4"},"vehicle_type_id":"4","last_reported":1704531980,"current_range_meters":26000,"station_id":"ce4bgpp2rcd13ifvqc3g","pricing_plan_id":"free"},{"bike_id":"36b590db-00a3-4ab8-8276-5f4181acda7e","system_id":"levelo_inurba_marseille","lat":43.298433,"lon":5.362774,"is_reserved":false,"is_disabled":false,"rental_uris":{"android":"levelo://app?vid=36b590db-00a3-4ab8-8276-5f4181acda7e","ios":"levelo://app?vid=36b590db-00a3-4ab8-8276-5f4181acda7e"},"vehicle_type_id":"4","last_reported":1704531980,"current_range_meters":31200,"station_id":"ce4bgpp2rcd13ifvqc3g","pricing_plan_id":"free"},{"bike_id":"47052536-72c0-449c-b2bb-822d32b7017d","system_id":"levelo_inurba_marseille","lat":43.31175,"lon":5.38712,"is_reserved":false,"is_disabled":false,"rental_uris":{"android":"levelo://app?vid=47052536-72c0-449c-b2bb-822d32b7017d","ios":"levelo://app?vid=47052536-72c0-449c-b2bb-822d32b7017d"},"vehicle_type_id":"4","last_reported":1704531980,"current_range_meters":12800,"station_id":"ce4bgv12rcd13ifvqcp0","pricing_plan_id":"free"},{"bike_id":"d85fb0f4-d820-462c-8021-a102df41e563","system_id":"levelo_inurba_marseille","lat":43.311722,"lon":5.387247,"is_reserved":false,"is_disabled":false,"rental_uris":{"android":"levelo://app?vid=d85fb0f4-d820-462c-8021-a102df41e563","ios":"levelo://app?vid=d85fb0f4-d820-462c-8021-a102df41e563"},"vehicle_type_id":"4","last_reported":1704531980,"current_range_meters":17200,"station_id":"ce4bgv12rcd13ifvqcp0","pricing_plan_id":"free"},{"bike_id":"131aa404-4ebf-45b2-ae9e-f7e8ab5be03d","system_id":"levelo_inurba_marseille","lat":43.311722,"lon":5.387247,"is_reserved":false,"is_disabled":false,"rental_uris":{"android":"levelo://app?vid=131aa404-4ebf-45b2-ae9e-f7e8ab5be03d","ios":"levelo://app?vid=131aa404-4ebf-45b2-ae9e-f7e8ab5be03d"},"vehicle_type_id":"4","last_reported":1704531980,"current_range_meters":21200,"station_id":"ce4bgv12rcd13ifvqcp0","pricing_plan_id":"free"},{"bike_id":"276c91d7-6ca9-48bc-bf75-acd9920b9ec2","system_id":"levelo_inurba_marseille","lat":43.322872,"lon":5.382756,"is_reserved":false,"is_disabled":false,"rental_uris":{"android":"levelo://app?vid=276c91d7-6ca9-48bc-bf75-acd9920b9ec2","ios":"levelo://app?vid=276c91d7-6ca9-48bc-bf75-acd9920b9ec2"},"vehicle_type_id":"4","last_reported":1704531980,"current_range_meters":26400,"station_id":"ce4bhr12rcd13ifvqhqg","pricing_plan_id":"free"},{"bike_id":"09da622d-5ec6-4261-a95d-695d32c570ab","system_id":"levelo_inurba_marseille","lat":43.322901,"lon":5.382604,"is_reserved":false,"is_disabled":false,"rental_uris":{"android":"levelo://app?vid=09da622d-5ec6-4261-a95d-695d32c570ab","ios":"levelo://app?vid=09da622d-5ec6-4261-a95d-695d32c570ab"},"vehicle_type_id":"4","last_reported":1704531980,"current_range_meters":16000,"station_id":"ce4bhr12rcd13ifvqhqg","pricing_plan_id":"free"},{"bike_id":"2411c3c5-a418-4dd1-9ec2-75ab06173e6a","system_id":"levelo_inurba_marseille","lat":43.322879,"lon":5.382648,"is_reserved":false,"is_disabled":false,"rental_uris":{"android":"levelo://app?vid=2411c3c5-a418-4dd1-9ec2-75ab06173e6a","ios":"levelo://app?vid=2411c3c5-a418-4dd1-9ec2-75ab06173e6a"},"vehicle_type_id":"4","last_reported":1704531980,"current_range_meters":10400,"station_id":"ce4bhr12rcd13ifvqhqg","pricing_plan_id":"free"},{"bike_id":"3bb7c7dd-5eca-4a2d-a889-98c939c30e62","system_id":"levelo_inurba_marseille","lat":43.322872,"lon":5.382756,"is_reserved":false,"is_disabled":false,"rental_uris":{"android":"levelo://app?vid=3bb7c7dd-5eca-4a2d-a889-98c939c30e62","ios":"levelo://app?vid=3bb7c7dd-5eca-4a2d-a889-98c939c30e62"},"vehicle_type_id":"4","last_reported":1704531980,"current_range_meters":31200,"station_id":"ce4bhr12rcd13ifvqhqg","pricing_plan_id":"free"},{"bike_id":"ee6aa480-918b-426f-939d-eabe4c32e237","system_id":"levelo_inurba_marseille","lat":43.297794,"lon":5.370888,"is_reserved":false,"is_disabled":false,"rental_uris":{"android":"levelo://app?vid=ee6aa480-918b-426f-939d-eabe4c32e237","ios":"levelo://app?vid=ee6aa480-918b-426f-939d-eabe4c32e237"},"vehicle_type_id":"4","last_reported":1704531980,"current_range_meters":21600,"station_id":"ce4bgop2rcd13ifvqc1g","pricing_plan_id":"free"},{"bike_id":"c1980ebb-5293-437b-9fb2-1938c4a68b61","system_id":"levelo_inurba_marseille","lat":43.322872,"lon":5.382756,"is_reserved":false,"is_disabled":false,"rental_uris":{"android":"levelo://app?vid=c1980ebb-5293-437b-9fb2-1938c4a68b61","ios":"levelo://app?vid=c1980ebb-5293-437b-9fb2-1938c4a68b61"},"vehicle_type_id":"4","last_reported":1704531980,"current_range_meters":30400,"station_id":"ce4bhr12rcd13ifvqhqg","pricing_plan_id":"free"},{"bike_id":"f661f6de-13d0-42ff-819f-05ad69d6ac0a","system_id":"levelo_inurba_marseille","lat":43.32812,"lon":5.36689,"is_reserved":false,"is_disabled":false,"rental_uris":{"android":"levelo://app?vid=f661f6de-13d0-42ff-819f-05ad69d6ac0a","ios":"levelo://app?vid=f661f6de-13d0-42ff-819f-05ad69d6ac0a"},"vehicle_type_id":"4","last_reported":1704531980,"current_range_meters":7600,"station_id":"ce4bhs92rcd13ifvqi0g","pricing_plan_id":"free"},{"bike_id":"387c1dff-fb7e-4547-838e-1af3f69c4219","system_id":"levelo_inurba_marseille","lat":43.328245,"lon":5.366788,"is_reserved":false,"is_disabled":false,"rental_uris":{"android":"levelo://app?vid=387c1dff-fb7e-4547-838e-1af3f69c4219","ios":"levelo://app?vid=387c1dff-fb7e-4547-838e-1af3f69c4219"},"vehicle_type_id":"4","last_reported":1704531980,"current_range_meters":10800,"station_id":"ce4bhs92rcd13ifvqi0g","pricing_plan_id":"free"},{"bike_id":"66addf4b-70b7-4ac4-8e17-37956e9ecfbb","system_id":"levelo_inurba_marseille","lat":43.328259,"lon":5.366728,"is_reserved":false,"is_disabled":false,"rental_uris":{"android":"levelo://app?vid=66addf4b-70b7-4ac4-8e17-37956e9ecfbb","ios":"levelo://app?vid=66addf4b-70b7-4ac4-8e17-37956e9ecfbb"},"vehicle_type_id":"4","last_reported":1704531980,"current_range_meters":24800,"station_id":"ce4bhs92rcd13ifvqi0g","pricing_plan_id":"free"},{"bike_id":"0725f2a6-de18-43ea-a245-f699ddc19b55","system_id":"levelo_inurba_marseille","lat":43.328371,"lon":5.366909,"is_reserved":false,"is_disabled":false,"rental_uris":{"android":"levelo://app?vid=0725f2a6-de18-43ea-a245-f699ddc19b55","ios":"levelo://app?vid=0725f2a6-de18-43ea-a245-f699ddc19b55"},"vehicle_type_id":"4","last_reported":1704531980,"current_range_meters":13600,"station_id":"ce4bhs92rcd13ifvqi0g","pricing_plan_id":"free"},{"bike_id":"ee966a52-c4f3-4b5b-b8b2-c85b17eb5fb4","system_id":"levelo_inurba_marseille","lat":43.328371,"lon":5.366909,"is_reserved":false,"is_disabled":false,"rental_uris":{"android":"levelo://app?vid=ee966a52-c4f3-4b5b-b8b2-c85b17eb5fb4","ios":"levelo://app?vid=ee966a52-c4f3-4b5b-b8b2-c85b17eb5fb4"},"vehicle_type_id":"4","last_reported":1704531980,"current_range_meters":21200,"station_id":"ce4bhs92rcd13ifvqi0g","pricing_plan_id":"free"},{"bike_id":"42895378-a21e-445b-8e89-325727904609","system_id":"levelo_inurba_marseille","lat":43.328371,"lon":5.366909,"is_reserved":false,"is_disabled":false,"rental_uris":{"android":"levelo://app?vid=42895378-a21e-445b-8e89-325727904609","ios":"levelo://app?vid=42895378-a21e-445b-8e89-325727904609"},"vehicle_type_id":"4","last_reported":1704531980,"current_range_meters":27200,"station_id":"ce4bhs92rcd13ifvqi0g","pricing_plan_id":"free"},{"bike_id":"064b14d2-f3e9-43be-a725-c95d6c66fd15","system_id":"levelo_inurba_marseille","lat":43.328371,"lon":5.366909,"is_reserved":false,"is_disabled":false,"rental_uris":{"android":"levelo://app?vid=064b14d2-f3e9-43be-a725-c95d6c66fd15","ios":"levelo://app?vid=064b14d2-f3e9-43be-a725-c95d6c66fd15"},"vehicle_type_id":"4","last_reported":1704531980,"current_range_meters":27200,"station_id":"ce4bhs92rcd13ifvqi0g","pricing_plan_id":"free"},{"bike_id":"43f47c35-ec23-411b-b2fa-7957e35eab11","system_id":"levelo_inurba_marseille","lat":43.328371,"lon":5.366909,"is_reserved":false,"is_disabled":false,"rental_uris":{"android":"levelo://app?vid=43f47c35-ec23-411b-b2fa-7957e35eab11","ios":"levelo://app?vid=43f47c35-ec23-411b-b2fa-7957e35eab11"},"vehicle_type_id":"4","last_reported":1704531980,"current_range_meters":16000,"station_id":"ce4bhs92rcd13ifvqi0g","pricing_plan_id":"free"},{"bike_id":"c24d90bb-729f-4123-9eb6-19233bdd603c","system_id":"levelo_inurba_marseille","lat":43.297163,"lon":5.365866,"is_reserved":false,"is_disabled":false,"rental_uris":{"android":"levelo://app?vid=c24d90bb-729f-4123-9eb6-19233bdd603c","ios":"levelo://app?vid=c24d90bb-729f-4123-9eb6-19233bdd603c"},"vehicle_type_id":"4","last_reported":1704531980,"current_range_meters":30400,"station_id":"ce4bgn12rcd13ifvqbt0","pricing_plan_id":"free"},{"bike_id":"20ee9ffc-dea6-4ee0-aa5b-7f51a0c56576","system_id":"levelo_inurba_marseille","lat":43.298925,"lon":5.378864,"is_reserved":false,"is_disabled":false,"rental_uris":{"android":"levelo://app?vid=20ee9ffc-dea6-4ee0-aa5b-7f51a0c56576","ios":"levelo://app?vid=20ee9ffc-dea6-4ee0-aa5b-7f51a0c56576"},"vehicle_type_id":"4","last_reported":1704531980,"current_range_meters":20000,"station_id":"","pricing_plan_id":"free"},{"bike_id":"d3a7128e-285e-4de8-b2fa-9e2608bf8049","system_id":"levelo_inurba_marseille","lat":43.296131,"lon":5.370791,"is_reserved":false,"is_disabled":false,"rental_uris":{"android":"levelo://app?vid=d3a7128e-285e-4de8-b2fa-9e2608bf8049","ios":"levelo://app?vid=d3a7128e-285e-4de8-b2fa-9e2608bf8049"},"vehicle_type_id":"4","last_reported":1704531980,"current_range_meters":29200,"station_id":"ce4bgnh2rcd13ifvqc0g","pricing_plan_id":"free"},{"bike_id":"9f14d50e-27b5-44b6-a0e2-875c455c8419","system_id":"levelo_inurba_marseille","lat":43.296921,"lon":5.376579,"is_reserved":false,"is_disabled":false,"rental_uris":{"android":"levelo://app?vid=9f14d50e-27b5-44b6-a0e2-875c455c8419","ios":"levelo://app?vid=9f14d50e-27b5-44b6-a0e2-875c455c8419"},"vehicle_type_id":"4","last_reported":1704531980,"current_range_meters":13600,"station_id":"ce4bgkh2rcd13ifvqbl0","pricing_plan_id":"free"},{"bike_id":"33883e8f-dbdf-4554-8699-65102b6e131b","system_id":"levelo_inurba_marseille","lat":43.296935,"lon":5.376544,"is_reserved":false,"is_disabled":false,"rental_uris":{"android":"levelo://app?vid=33883e8f-dbdf-4554-8699-65102b6e131b","ios":"levelo://app?vid=33883e8f-dbdf-4554-8699-65102b6e131b"},"vehicle_type_id":"4","last_reported":1704531980,"current_range_meters":28000,"station_id":"ce4bgkh2rcd13ifvqbl0","pricing_plan_id":"free"},{"bike_id":"ce3b28e4-7cb9-4fae-983e-39d52ffff224","system_id":"levelo_inurba_marseille","lat":43.296921,"lon":5.376579,"is_reserved":false,"is_disabled":false,"rental_uris":{"android":"levelo://app?vid=ce3b28e4-7cb9-4fae-983e-39d52ffff224","ios":"levelo://app?vid=ce3b28e4-7cb9-4fae-983e-39d52ffff224"},"vehicle_type_id":"4","last_reported":1704531980,"current_range_meters":27200,"station_id":"ce4bgkh2rcd13ifvqbl0","pricing_plan_id":"free"},{"bike_id":"6b9b750a-0b52-44f3-b5ca-dae269aa9fe5","system_id":"levelo_inurba_marseille","lat":43.296935,"lon":5.376544,"is_reserved":false,"is_disabled":false,"rental_uris":{"android":"levelo://app?vid=6b9b750a-0b52-44f3-b5ca-dae269aa9fe5","ios":"levelo://app?vid=6b9b750a-0b52-44f3-b5ca-dae269aa9fe5"},"vehicle_type_id":"4","last_reported":1704531980,"current_range_meters":19200,"station_id":"ce4bgkh2rcd13ifvqbl0","pricing_plan_id":"free"},{"bike_id":"4442d518-1966-4d29-b4b8-ff3934ec88fd","system_id":"levelo_inurba_marseille","lat":43.299028,"lon":5.381509,"is_reserved":false,"is_disabled":false,"rental_uris":{"android":"levelo://app?vid=4442d518-1966-4d29-b4b8-ff3934ec88fd","ios":"levelo://app?vid=4442d518-1966-4d29-b4b8-ff3934ec88fd"},"vehicle_type_id":"4","last_reported":1704531980,"current_range_meters":24800,"station_id":"ce4bgj12rcd13ifvqbc0","pricing_plan_id":"free"},{"bike_id":"7784a1d3-64e8-402f-a150-88e69f13f753","system_id":"levelo_inurba_marseille","lat":43.296921,"lon":5.376579,"is_reserved":false,"is_disabled":false,"rental_uris":{"android":"levelo://app?vid=7784a1d3-64e8-402f-a150-88e69f13f753","ios":"levelo://app?vid=7784a1d3-64e8-402f-a150-88e69f13f753"},"vehicle_type_id":"4","last_reported":1704531980,"current_range_meters":29600,"station_id":"ce4bgkh2rcd13ifvqbl0","pricing_plan_id":"free"},{"bike_id":"b5c9fc0b-b786-4033-986e-6edf34be0e6a","system_id":"levelo_inurba_marseille","lat":43.296935,"lon":5.376544,"is_reserved":false,"is_disabled":false,"rental_uris":{"android":"levelo://app?vid=b5c9fc0b-b786-4033-986e-6edf34be0e6a","ios":"levelo://app?vid=b5c9fc0b-b786-4033-986e-6edf34be0e6a"},"vehicle_type_id":"4","last_reported":1704531980,"current_range_meters":31200,"station_id":"ce4bgkh2rcd13ifvqbl0","pricing_plan_id":"free"},{"bike_id":"af9380de-38e3-4fff-b65d-2352c7e22203","system_id":"levelo_inurba_marseille","lat":43.299028,"lon":5.381509,"is_reserved":false,"is_disabled":false,"rental_uris":{"android":"levelo://app?vid=af9380de-38e3-4fff-b65d-2352c7e22203","ios":"levelo://app?vid=af9380de-38e3-4fff-b65d-2352c7e22203"},"vehicle_type_id":"4","last_reported":1704531980,"current_range_meters":22000,"station_id":"ce4bgj12rcd13ifvqbc0","pricing_plan_id":"free"},{"bike_id":"eee59efb-ec04-4da3-9954-540718c249b9","system_id":"levelo_inurba_marseille","lat":43.299028,"lon":5.381509,"is_reserved":false,"is_disabled":false,"rental_uris":{"android":"levelo://app?vid=eee59efb-ec04-4da3-9954-540718c249b9","ios":"levelo://app?vid=eee59efb-ec04-4da3-9954-540718c249b9"},"vehicle_type_id":"4","last_reported":1704531980,"current_range_meters":24800,"station_id":"ce4bgj12rcd13ifvqbc0","pricing_plan_id":"free"},{"bike_id":"1c489e1d-bceb-428f-b444-644df861085d","system_id":"levelo_inurba_marseille","lat":43.299028,"lon":5.381509,"is_reserved":false,"is_disabled":false,"rental_uris":{"android":"levelo://app?vid=1c489e1d-bceb-428f-b444-644df861085d","ios":"levelo://app?vid=1c489e1d-bceb-428f-b444-644df861085d"},"vehicle_type_id":"4","last_reported":1704531980,"current_range_meters":16000,"station_id":"ce4bgj12rcd13ifvqbc0","pricing_plan_id":"free"},{"bike_id":"da430d79-c247-4832-b899-15a2dfcde566","system_id":"levelo_inurba_marseille","lat":43.299028,"lon":5.381509,"is_reserved":false,"is_disabled":false,"rental_uris":{"android":"levelo://app?vid=da430d79-c247-4832-b899-15a2dfcde566","ios":"levelo://app?vid=da430d79-c247-4832-b899-15a2dfcde566"},"vehicle_type_id":"4","last_reported":1704531980,"current_range_meters":31200,"station_id":"ce4bgj12rcd13ifvqbc0","pricing_plan_id":"free"},{"bike_id":"21646eba-9006-4b03-b480-c4bee9546b41","system_id":"levelo_inurba_marseille","lat":43.299028,"lon":5.381509,"is_reserved":false,"is_disabled":false,"rental_uris":{"android":"levelo://app?vid=21646eba-9006-4b03-b480-c4bee9546b41","ios":"levelo://app?vid=21646eba-9006-4b03-b480-c4bee9546b41"},"vehicle_type_id":"4","last_reported":1704531980,"current_range_meters":31200,"station_id":"ce4bgj12rcd13ifvqbc0","pricing_plan_id":"free"},{"bike_id":"98b0e2cc-4a96-4ca9-b8c5-2afcf4ba0748","system_id":"levelo_inurba_marseille","lat":43.299028,"lon":5.381509,"is_reserved":false,"is_disabled":false,"rental_uris":{"android":"levelo://app?vid=98b0e2cc-4a96-4ca9-b8c5-2afcf4ba0748","ios":"levelo://app?vid=98b0e2cc-4a96-4ca9-b8c5-2afcf4ba0748"},"vehicle_type_id":"4","last_reported":1704531980,"current_range_meters":30400,"station_id":"ce4bgj12rcd13ifvqbc0","pricing_plan_id":"free"},{"bike_id":"4ec22cb3-08b4-4041-8c0e-836a6eb73940","system_id":"levelo_inurba_marseille","lat":43.299028,"lon":5.381509,"is_reserved":false,"is_disabled":false,"rental_uris":{"android":"levelo://app?vid=4ec22cb3-08b4-4041-8c0e-836a6eb73940","ios":"levelo://app?vid=4ec22cb3-08b4-4041-8c0e-836a6eb73940"},"vehicle_type_id":"4","last_reported":1704531980,"current_range_meters":20000,"station_id":"ce4bgj12rcd13ifvqbc0","pricing_plan_id":"free"},{"bike_id":"72d37093-241c-405e-9449-b42a41856264","system_id":"levelo_inurba_marseille","lat":43.309589,"lon":5.390258,"is_reserved":false,"is_disabled":false,"rental_uris":{"android":"levelo://app?vid=72d37093-241c-405e-9449-b42a41856264","ios":"levelo://app?vid=72d37093-241c-405e-9449-b42a41856264"},"vehicle_type_id":"4","last_reported":1704531980,"current_range_meters":30400,"station_id":"ce4bgup2rcd13ifvqco0","pricing_plan_id":"free"},{"bike_id":"9f99198d-706b-47c3-9d54-a5e733922f25","system_id":"levelo_inurba_marseille","lat":43.317557,"lon":5.390173,"is_reserved":false,"is_disabled":false,"rental_uris":{"android":"levelo://app?vid=9f99198d-706b-47c3-9d54-a5e733922f25","ios":"levelo://app?vid=9f99198d-706b-47c3-9d54-a5e733922f25"},"vehicle_type_id":"4","last_reported":1704531980,"current_range_meters":31200,"station_id":"ce4bhqp2rcd13ifvqhng","pricing_plan_id":"free"},{"bike_id":"7613a77e-a079-4ca3-b3b4-fb874ded63fb","system_id":"levelo_inurba_marseille","lat":43.317557,"lon":5.390173,"is_reserved":false,"is_disabled":false,"rental_uris":{"android":"levelo://app?vid=7613a77e-a079-4ca3-b3b4-fb874ded63fb","ios":"levelo://app?vid=7613a77e-a079-4ca3-b3b4-fb874ded63fb"},"vehicle_type_id":"4","last_reported":1704531980,"current_range_meters":24800,"station_id":"ce4bhqp2rcd13ifvqhng","pricing_plan_id":"free"},{"bike_id":"fc457524-f122-4fd7-8ee4-283d15af7027","system_id":"levelo_inurba_marseille","lat":43.317557,"lon":5.390173,"is_reserved":false,"is_disabled":false,"rental_uris":{"android":"levelo://app?vid=fc457524-f122-4fd7-8ee4-283d15af7027","ios":"levelo://app?vid=fc457524-f122-4fd7-8ee4-283d15af7027"},"vehicle_type_id":"4","last_reported":1704531980,"current_range_meters":21600,"station_id":"ce4bhqp2rcd13ifvqhng","pricing_plan_id":"free"},{"bike_id":"a6f81300-6f54-4a91-9424-eee4c20d9ff4","system_id":"levelo_inurba_marseille","lat":43.317557,"lon":5.390173,"is_reserved":false,"is_disabled":false,"rental_uris":{"android":"levelo://app?vid=a6f81300-6f54-4a91-9424-eee4c20d9ff4","ios":"levelo://app?vid=a6f81300-6f54-4a91-9424-eee4c20d9ff4"},"vehicle_type_id":"4","last_reported":1704531980,"current_range_meters":23600,"station_id":"ce4bhqp2rcd13ifvqhng","pricing_plan_id":"free"},{"bike_id":"e37c395a-9586-41ec-a7f6-e0ff510c2fd8","system_id":"levelo_inurba_marseille","lat":43.317557,"lon":5.390173,"is_reserved":false,"is_disabled":false,"rental_uris":{"android":"levelo://app?vid=e37c395a-9586-41ec-a7f6-e0ff510c2fd8","ios":"levelo://app?vid=e37c395a-9586-41ec-a7f6-e0ff510c2fd8"},"vehicle_type_id":"4","last_reported":1704531980,"current_range_meters":31200,"station_id":"ce4bhqp2rcd13ifvqhng","pricing_plan_id":"free"},{"bike_id":"9cf137f3-dcdc-4af5-8cd7-fab4898fa111","system_id":"levelo_inurba_marseille","lat":43.298037,"lon":5.381066,"is_reserved":false,"is_disabled":false,"rental_uris":{"android":"levelo://app?vid=9cf137f3-dcdc-4af5-8cd7-fab4898fa111","ios":"levelo://app?vid=9cf137f3-dcdc-4af5-8cd7-fab4898fa111"},"vehicle_type_id":"4","last_reported":1704531980,"current_range_meters":31200,"station_id":"ce4bgip2rcd13ifvqbb0","pricing_plan_id":"free"},{"bike_id":"d46fd2ac-362e-4095-9926-b904ba1c63ff","system_id":"levelo_inurba_marseille","lat":43.295748,"lon":5.37522,"is_reserved":false,"is_disabled":false,"rental_uris":{"android":"levelo://app?vid=d46fd2ac-362e-4095-9926-b904ba1c63ff","ios":"levelo://app?vid=d46fd2ac-362e-4095-9926-b904ba1c63ff"},"vehicle_type_id":"4","last_reported":1704531980,"current_range_meters":26800,"station_id":"ce4bgh92rcd13ifvqb50","pricing_plan_id":"free"},{"bike_id":"b8b7c6f2-9d2c-4d0e-b5e7-9031a57e03b8","system_id":"levelo_inurba_marseille","lat":43.295748,"lon":5.37522,"is_reserved":false,"is_disabled":false,"rental_uris":{"android":"levelo://app?vid=b8b7c6f2-9d2c-4d0e-b5e7-9031a57e03b8","ios":"levelo://app?vid=b8b7c6f2-9d2c-4d0e-b5e7-9031a57e03b8"},"vehicle_type_id":"4","last_reported":1704531980,"current_range_meters":26400,"station_id":"ce4bgh92rcd13ifvqb50","pricing_plan_id":"free"},{"bike_id":"d60802d6-4f47-444a-b234-883690eec05b","system_id":"levelo_inurba_marseille","lat":43.33062,"lon":5.3627,"is_reserved":false,"is_disabled":false,"rental_uris":{"android":"levelo://app?vid=d60802d6-4f47-444a-b234-883690eec05b","ios":"levelo://app?vid=d60802d6-4f47-444a-b234-883690eec05b"},"vehicle_type_id":"4","last_reported":1704531980,"current_range_meters":800,"station_id":"","pricing_plan_id":"free"},{"bike_id":"c88437a7-fcc3-4419-ad3a-6153e6c3b1e4","system_id":"levelo_inurba_marseille","lat":43.296263,"lon":5.377094,"is_reserved":false,"is_disabled":false,"rental_uris":{"android":"levelo://app?vid=c88437a7-fcc3-4419-ad3a-6153e6c3b1e4","ios":"levelo://app?vid=c88437a7-fcc3-4419-ad3a-6153e6c3b1e4"},"vehicle_type_id":"4","last_reported":1704531980,"current_range_meters":16000,"station_id":"ce4bgi92rcd13ifvqb90","pricing_plan_id":"free"},{"bike_id":"0c6b4a7e-3bdd-49c5-aa39-589cceb01cad","system_id":"levelo_inurba_marseille","lat":43.296277,"lon":5.377108,"is_reserved":false,"is_disabled":false,"rental_uris":{"android":"levelo://app?vid=0c6b4a7e-3bdd-49c5-aa39-589cceb01cad","ios":"levelo://app?vid=0c6b4a7e-3bdd-49c5-aa39-589cceb01cad"},"vehicle_type_id":"4","last_reported":1704531980,"current_range_meters":28400,"station_id":"ce4bgi92rcd13ifvqb90","pricing_plan_id":"free"},{"bike_id":"7c84016b-88e0-4f4e-b34e-fd16d69cb24f","system_id":"levelo_inurba_marseille","lat":43.29534,"lon":5.37518,"is_reserved":false,"is_disabled":false,"rental_uris":{"android":"levelo://app?vid=7c84016b-88e0-4f4e-b34e-fd16d69cb24f","ios":"levelo://app?vid=7c84016b-88e0-4f4e-b34e-fd16d69cb24f"},"vehicle_type_id":"4","last_reported":1704531980,"current_range_meters":24400,"station_id":"ce4bgkp2rcd13ifvqbmg","pricing_plan_id":"free"},{"bike_id":"c08fe48e-f145-4a3d-bb35-09732e71de96","system_id":"levelo_inurba_marseille","lat":43.299717,"lon":5.384845,"is_reserved":false,"is_disabled":false,"rental_uris":{"android":"levelo://app?vid=c08fe48e-f145-4a3d-bb35-09732e71de96","ios":"levelo://app?vid=c08fe48e-f145-4a3d-bb35-09732e71de96"},"vehicle_type_id":"4","last_reported":1704531980,"current_range_meters":31200,"station_id":"ce4bgj92rcd13ifvqbd0","pricing_plan_id":"free"},{"bike_id":"439c02ab-eb45-42d6-912d-ed6656f372f5","system_id":"levelo_inurba_marseille","lat":43.299724,"lon":5.384848,"is_reserved":false,"is_disabled":false,"rental_uris":{"android":"levelo://app?vid=439c02ab-eb45-42d6-912d-ed6656f372f5","ios":"levelo://app?vid=439c02ab-eb45-42d6-912d-ed6656f372f5"},"vehicle_type_id":"4","last_reported":1704531980,"current_range_meters":29600,"station_id":"ce4bgj92rcd13ifvqbd0","pricing_plan_id":"free"},{"bike_id":"1d6e7234-2ebf-453b-9f07-181fb6c71137","system_id":"levelo_inurba_marseille","lat":43.32364,"lon":5.3888,"is_reserved":false,"is_disabled":false,"rental_uris":{"android":"levelo://app?vid=1d6e7234-2ebf-453b-9f07-181fb6c71137","ios":"levelo://app?vid=1d6e7234-2ebf-453b-9f07-181fb6c71137"},"vehicle_type_id":"4","last_reported":1704531980,"current_range_meters":13200,"station_id":"ce4bhqp2rcd13ifvqhog","pricing_plan_id":"free"},{"bike_id":"5c64383b-30f1-4378-92f6-ebd7274bec06","system_id":"levelo_inurba_marseille","lat":43.32367,"lon":5.388836,"is_reserved":false,"is_disabled":false,"rental_uris":{"android":"levelo://app?vid=5c64383b-30f1-4378-92f6-ebd7274bec06","ios":"levelo://app?vid=5c64383b-30f1-4378-92f6-ebd7274bec06"},"vehicle_type_id":"4","last_reported":1704531980,"current_range_meters":24000,"station_id":"ce4bhqp2rcd13ifvqhog","pricing_plan_id":"free"},{"bike_id":"273a3b28-e002-4ced-a4ce-1c724ebdc252","system_id":"levelo_inurba_marseille","lat":43.295992,"lon":5.380976,"is_reserved":false,"is_disabled":false,"rental_uris":{"android":"levelo://app?vid=273a3b28-e002-4ced-a4ce-1c724ebdc252","ios":"levelo://app?vid=273a3b28-e002-4ced-a4ce-1c724ebdc252"},"vehicle_type_id":"4","last_reported":1704531980,"current_range_meters":18000,"station_id":"ce4bgl12rcd13ifvqbo0","pricing_plan_id":"free"},{"bike_id":"a23b0ee1-71e6-4e67-a0e5-c658a48a6dcc","system_id":"levelo_inurba_marseille","lat":43.29602,"lon":5.381084,"is_reserved":false,"is_disabled":false,"rental_uris":{"android":"levelo://app?vid=a23b0ee1-71e6-4e67-a0e5-c658a48a6dcc","ios":"levelo://app?vid=a23b0ee1-71e6-4e67-a0e5-c658a48a6dcc"},"vehicle_type_id":"4","last_reported":1704531980,"current_range_meters":27600,"station_id":"ce4bgl12rcd13ifvqbo0","pricing_plan_id":"free"},{"bike_id":"b21ac763-57d1-430e-a56e-aecfa5690e7b","system_id":"levelo_inurba_marseille","lat":43.293009,"lon":5.374584,"is_reserved":false,"is_disabled":false,"rental_uris":{"android":"levelo://app?vid=b21ac763-57d1-430e-a56e-aecfa5690e7b","ios":"levelo://app?vid=b21ac763-57d1-430e-a56e-aecfa5690e7b"},"vehicle_type_id":"4","last_reported":1704531980,"current_range_meters":20400,"station_id":"ce4bgi12rcd13ifvqb70","pricing_plan_id":"free"},{"bike_id":"e0e38c24-def8-4515-92f1-ee5c9a777168","system_id":"levelo_inurba_marseille","lat":43.293009,"lon":5.374584,"is_reserved":false,"is_disabled":false,"rental_uris":{"android":"levelo://app?vid=e0e38c24-def8-4515-92f1-ee5c9a777168","ios":"levelo://app?vid=e0e38c24-def8-4515-92f1-ee5c9a777168"},"vehicle_type_id":"4","last_reported":1704531980,"current_range_meters":24000,"station_id":"ce4bgi12rcd13ifvqb70","pricing_plan_id":"free"},{"bike_id":"38060895-34e7-4e4a-b18f-6dba722c9fda","system_id":"levelo_inurba_marseille","lat":43.305994,"lon":5.393687,"is_reserved":false,"is_disabled":false,"rental_uris":{"android":"levelo://app?vid=38060895-34e7-4e4a-b18f-6dba722c9fda","ios":"levelo://app?vid=38060895-34e7-4e4a-b18f-6dba722c9fda"},"vehicle_type_id":"4","last_reported":1704531980,"current_range_meters":30000,"station_id":"ce4bh0p2rcd13ifvqd80","pricing_plan_id":"free"},{"bike_id":"a9aa3a61-0aa0-46e8-9daf-37051d3d6499","system_id":"levelo_inurba_marseille","lat":43.29354,"lon":5.377363,"is_reserved":false,"is_disabled":false,"rental_uris":{"android":"levelo://app?vid=a9aa3a61-0aa0-46e8-9daf-37051d3d6499","ios":"levelo://app?vid=a9aa3a61-0aa0-46e8-9daf-37051d3d6499"},"vehicle_type_id":"4","last_reported":1704531980,"current_range_meters":0,"station_id":"","pricing_plan_id":"free"},{"bike_id":"26532816-f0b8-4e14-9896-d3153dd4f67a","system_id":"levelo_inurba_marseille","lat":43.2936,"lon":5.37835,"is_reserved":false,"is_disabled":false,"rental_uris":{"android":"levelo://app?vid=26532816-f0b8-4e14-9896-d3153dd4f67a","ios":"levelo://app?vid=26532816-f0b8-4e14-9896-d3153dd4f67a"},"vehicle_type_id":"4","last_reported":1704531980,"current_range_meters":24800,"station_id":"ce4bgjh2rcd13ifvqbf0","pricing_plan_id":"free"},{"bike_id":"60d16453-c4f4-4822-9b1c-63a473fff451","system_id":"levelo_inurba_marseille","lat":43.2936,"lon":5.37835,"is_reserved":false,"is_disabled":false,"rental_uris":{"android":"levelo://app?vid=60d16453-c4f4-4822-9b1c-63a473fff451","ios":"levelo://app?vid=60d16453-c4f4-4822-9b1c-63a473fff451"},"vehicle_type_id":"4","last_reported":1704531980,"current_range_meters":24400,"station_id":"ce4bgjh2rcd13ifvqbf0","pricing_plan_id":"free"},{"bike_id":"9cf8ffb6-6b5f-4f02-bb60-ba99e53d117b","system_id":"levelo_inurba_marseille","lat":43.300852,"lon":5.390859,"is_reserved":false,"is_disabled":false,"rental_uris":{"android":"levelo://app?vid=9cf8ffb6-6b5f-4f02-bb60-ba99e53d117b","ios":"levelo://app?vid=9cf8ffb6-6b5f-4f02-bb60-ba99e53d117b"},"vehicle_type_id":"4","last_reported":1704531980,"current_range_meters":31200,"station_id":"ce4bh192rcd13ifvqdb0","pricing_plan_id":"free"},{"bike_id":"14f81a8a-0cff-4a32-866a-8842cb8e23e9","system_id":"levelo_inurba_marseille","lat":43.292311,"lon":5.360731,"is_reserved":false,"is_disabled":false,"rental_uris":{"android":"levelo://app?vid=14f81a8a-0cff-4a32-866a-8842cb8e23e9","ios":"levelo://app?vid=14f81a8a-0cff-4a32-866a-8842cb8e23e9"},"vehicle_type_id":"4","last_reported":1704531980,"current_range_meters":29200,"station_id":"ce4bhbh2rcd13ifvqeqg","pricing_plan_id":"free"},{"bike_id":"16d5022c-238d-4b47-acb2-50df330c4054","system_id":"levelo_inurba_marseille","lat":43.291994,"lon":5.357886,"is_reserved":false,"is_disabled":false,"rental_uris":{"android":"levelo://app?vid=16d5022c-238d-4b47-acb2-50df330c4054","ios":"levelo://app?vid=16d5022c-238d-4b47-acb2-50df330c4054"},"vehicle_type_id":"4","last_reported":1704531980,"current_range_meters":26000,"station_id":"ce4bhb12rcd13ifvqel0","pricing_plan_id":"free"},{"bike_id":"abc7310b-521e-49c9-b9e7-916d0181efe0","system_id":"levelo_inurba_marseille","lat":43.313291,"lon":5.396838,"is_reserved":false,"is_disabled":false,"rental_uris":{"android":"levelo://app?vid=abc7310b-521e-49c9-b9e7-916d0181efe0","ios":"levelo://app?vid=abc7310b-521e-49c9-b9e7-916d0181efe0"},"vehicle_type_id":"4","last_reported":1704531980,"current_range_meters":24800,"station_id":"ce4bgvp2rcd13ifvqcu0","pricing_plan_id":"free"},{"bike_id":"a68ddb42-131a-44dd-bdcb-9741ffa5320b","system_id":"levelo_inurba_marseille","lat":43.313291,"lon":5.396838,"is_reserved":false,"is_disabled":false,"rental_uris":{"android":"levelo://app?vid=a68ddb42-131a-44dd-bdcb-9741ffa5320b","ios":"levelo://app?vid=a68ddb42-131a-44dd-bdcb-9741ffa5320b"},"vehicle_type_id":"4","last_reported":1704531980,"current_range_meters":31200,"station_id":"ce4bgvp2rcd13ifvqcu0","pricing_plan_id":"free"},{"bike_id":"1b67dfe0-b301-4d31-bb63-92d5f4be328a","system_id":"levelo_inurba_marseille","lat":43.291994,"lon":5.357886,"is_reserved":false,"is_disabled":false,"rental_uris":{"android":"levelo://app?vid=1b67dfe0-b301-4d31-bb63-92d5f4be328a","ios":"levelo://app?vid=1b67dfe0-b301-4d31-bb63-92d5f4be328a"},"vehicle_type_id":"4","last_reported":1704531980,"current_range_meters":8800,"station_id":"ce4bhb12rcd13ifvqel0","pricing_plan_id":"free"},{"bike_id":"9aedb319-5462-47ce-bafd-e2d87f1d11dc","system_id":"levelo_inurba_marseille","lat":43.313291,"lon":5.396838,"is_reserved":false,"is_disabled":false,"rental_uris":{"android":"levelo://app?vid=9aedb319-5462-47ce-bafd-e2d87f1d11dc","ios":"levelo://app?vid=9aedb319-5462-47ce-bafd-e2d87f1d11dc"},"vehicle_type_id":"4","last_reported":1704531980,"current_range_meters":29200,"station_id":"ce4bgvp2rcd13ifvqcu0","pricing_plan_id":"free"},{"bike_id":"4e2c8cca-6ef1-4cbc-b182-0065bec82b24","system_id":"levelo_inurba_marseille","lat":43.292644,"lon":5.384257,"is_reserved":false,"is_disabled":false,"rental_uris":{"android":"levelo://app?vid=4e2c8cca-6ef1-4cbc-b182-0065bec82b24","ios":"levelo://app?vid=4e2c8cca-6ef1-4cbc-b182-0065bec82b24"},"vehicle_type_id":"4","last_reported":1704531980,"current_range_meters":29600,"station_id":"ce4bh692rcd13ifvqea0","pricing_plan_id":"free"},{"bike_id":"4a9311c4-4db5-4367-b1f7-d435bd185033","system_id":"levelo_inurba_marseille","lat":43.33273,"lon":5.37989,"is_reserved":false,"is_disabled":false,"rental_uris":{"android":"levelo://app?vid=4a9311c4-4db5-4367-b1f7-d435bd185033","ios":"levelo://app?vid=4a9311c4-4db5-4367-b1f7-d435bd185033"},"vehicle_type_id":"4","last_reported":1704531980,"current_range_meters":0,"station_id":"","pricing_plan_id":"free"},{"bike_id":"b0abad34-fb02-44f0-9ee6-019f8abf6330","system_id":"levelo_inurba_marseille","lat":43.29065,"lon":5.371544,"is_reserved":false,"is_disabled":false,"rental_uris":{"android":"levelo://app?vid=b0abad34-fb02-44f0-9ee6-019f8abf6330","ios":"levelo://app?vid=b0abad34-fb02-44f0-9ee6-019f8abf6330"},"vehicle_type_id":"4","last_reported":1704531980,"current_range_meters":31200,"station_id":"ce4bh5p2rcd13ifvqe4g","pricing_plan_id":"free"},{"bike_id":"74638577-bf5f-4cb3-b1ce-db1e90ad3c6d","system_id":"levelo_inurba_marseille","lat":43.290779,"lon":5.371482,"is_reserved":false,"is_disabled":false,"rental_uris":{"android":"levelo://app?vid=74638577-bf5f-4cb3-b1ce-db1e90ad3c6d","ios":"levelo://app?vid=74638577-bf5f-4cb3-b1ce-db1e90ad3c6d"},"vehicle_type_id":"4","last_reported":1704531980,"current_range_meters":28000,"station_id":"ce4bh5p2rcd13ifvqe4g","pricing_plan_id":"free"},{"bike_id":"88721d1f-6e9b-4393-8766-d1ec6ffb233f","system_id":"levelo_inurba_marseille","lat":43.290779,"lon":5.371482,"is_reserved":false,"is_disabled":false,"rental_uris":{"android":"levelo://app?vid=88721d1f-6e9b-4393-8766-d1ec6ffb233f","ios":"levelo://app?vid=88721d1f-6e9b-4393-8766-d1ec6ffb233f"},"vehicle_type_id":"4","last_reported":1704531980,"current_range_meters":12000,"station_id":"ce4bh5p2rcd13ifvqe4g","pricing_plan_id":"free"},{"bike_id":"8f676c1e-2287-485c-8bb5-fcd46f4f0311","system_id":"levelo_inurba_marseille","lat":43.29049,"lon":5.35913,"is_reserved":false,"is_disabled":false,"rental_uris":{"android":"levelo://app?vid=8f676c1e-2287-485c-8bb5-fcd46f4f0311","ios":"levelo://app?vid=8f676c1e-2287-485c-8bb5-fcd46f4f0311"},"vehicle_type_id":"4","last_reported":1704531980,"current_range_meters":30800,"station_id":"ce4bha92rcd13ifvqeg0","pricing_plan_id":"free"},{"bike_id":"aaa79f85-eced-40e0-ad34-1fe638c50465","system_id":"levelo_inurba_marseille","lat":43.29042,"lon":5.359169,"is_reserved":false,"is_disabled":false,"rental_uris":{"android":"levelo://app?vid=aaa79f85-eced-40e0-ad34-1fe638c50465","ios":"levelo://app?vid=aaa79f85-eced-40e0-ad34-1fe638c50465"},"vehicle_type_id":"4","last_reported":1704531980,"current_range_meters":18800,"station_id":"ce4bha92rcd13ifvqeg0","pricing_plan_id":"free"},{"bike_id":"eee3c2ef-15e5-4602-ab2e-900b967736b4","system_id":"levelo_inurba_marseille","lat":43.290631,"lon":5.359244,"is_reserved":false,"is_disabled":false,"rental_uris":{"android":"levelo://app?vid=eee3c2ef-15e5-4602-ab2e-900b967736b4","ios":"levelo://app?vid=eee3c2ef-15e5-4602-ab2e-900b967736b4"},"vehicle_type_id":"4","last_reported":1704531980,"current_range_meters":31200,"station_id":"ce4bha92rcd13ifvqeg0","pricing_plan_id":"free"},{"bike_id":"470e99de-679b-4fae-918b-1eb6258c8074","system_id":"levelo_inurba_marseille","lat":43.289468,"lon":5.363719,"is_reserved":false,"is_disabled":false,"rental_uris":{"android":"levelo://app?vid=470e99de-679b-4fae-918b-1eb6258c8074","ios":"levelo://app?vid=470e99de-679b-4fae-918b-1eb6258c8074"},"vehicle_type_id":"4","last_reported":1704531980,"current_range_meters":23600,"station_id":"ce4bhc92rcd13ifvqetg","pricing_plan_id":"free"},{"bike_id":"bcb157df-b032-4bed-8e26-669d227de037","system_id":"levelo_inurba_marseille","lat":43.289184,"lon":5.366408,"is_reserved":false,"is_disabled":false,"rental_uris":{"android":"levelo://app?vid=bcb157df-b032-4bed-8e26-669d227de037","ios":"levelo://app?vid=bcb157df-b032-4bed-8e26-669d227de037"},"vehicle_type_id":"4","last_reported":1704531980,"current_range_meters":12400,"station_id":"ce4bhap2rcd13ifvqek0","pricing_plan_id":"free"},{"bike_id":"bb66f0be-271b-46a6-b2a2-e91dd2dfb8eb","system_id":"levelo_inurba_marseille","lat":43.290104,"lon":5.356111,"is_reserved":false,"is_disabled":false,"rental_uris":{"android":"levelo://app?vid=bb66f0be-271b-46a6-b2a2-e91dd2dfb8eb","ios":"levelo://app?vid=bb66f0be-271b-46a6-b2a2-e91dd2dfb8eb"},"vehicle_type_id":"4","last_reported":1704531980,"current_range_meters":12400,"station_id":"ce4bhb92rcd13ifvqen0","pricing_plan_id":"free"},{"bike_id":"c58bcad1-11d5-46e2-aebd-e1fbe92a7012","system_id":"levelo_inurba_marseille","lat":43.28988,"lon":5.37818,"is_reserved":false,"is_disabled":false,"rental_uris":{"android":"levelo://app?vid=c58bcad1-11d5-46e2-aebd-e1fbe92a7012","ios":"levelo://app?vid=c58bcad1-11d5-46e2-aebd-e1fbe92a7012"},"vehicle_type_id":"4","last_reported":1704531980,"current_range_meters":0,"station_id":"ce4bh9p2rcd13ifvqed0","pricing_plan_id":"free"},{"bike_id":"c8f1c66d-517e-47cd-8c74-1fbdb664b117","system_id":"levelo_inurba_marseille","lat":43.330442,"lon":5.389148,"is_reserved":false,"is_disabled":false,"rental_uris":{"android":"levelo://app?vid=c8f1c66d-517e-47cd-8c74-1fbdb664b117","ios":"levelo://app?vid=c8f1c66d-517e-47cd-8c74-1fbdb664b117"},"vehicle_type_id":"4","last_reported":1704531980,"current_range_meters":19600,"station_id":"ce4bhr92rcd13ifvqhrg","pricing_plan_id":"free"},{"bike_id":"db1033e7-d202-408d-8fcc-78dc2d4afb4d","system_id":"levelo_inurba_marseille","lat":43.330442,"lon":5.389148,"is_reserved":false,"is_disabled":false,"rental_uris":{"android":"levelo://app?vid=db1033e7-d202-408d-8fcc-78dc2d4afb4d","ios":"levelo://app?vid=db1033e7-d202-408d-8fcc-78dc2d4afb4d"},"vehicle_type_id":"4","last_reported":1704531980,"current_range_meters":20000,"station_id":"ce4bhr92rcd13ifvqhrg","pricing_plan_id":"free"},{"bike_id":"6c5eebbe-3606-40f4-b51a-cdf8266c0074","system_id":"levelo_inurba_marseille","lat":43.330442,"lon":5.389148,"is_reserved":false,"is_disabled":false,"rental_uris":{"android":"levelo://app?vid=6c5eebbe-3606-40f4-b51a-cdf8266c0074","ios":"levelo://app?vid=6c5eebbe-3606-40f4-b51a-cdf8266c0074"},"vehicle_type_id":"4","last_reported":1704531980,"current_range_meters":13600,"station_id":"ce4bhr92rcd13ifvqhrg","pricing_plan_id":"free"},{"bike_id":"8625464e-66d0-4621-bd34-1a2874fb7a19","system_id":"levelo_inurba_marseille","lat":43.330442,"lon":5.389148,"is_reserved":false,"is_disabled":false,"rental_uris":{"android":"levelo://app?vid=8625464e-66d0-4621-bd34-1a2874fb7a19","ios":"levelo://app?vid=8625464e-66d0-4621-bd34-1a2874fb7a19"},"vehicle_type_id":"4","last_reported":1704531980,"current_range_meters":12000,"station_id":"ce4bhr92rcd13ifvqhrg","pricing_plan_id":"free"},{"bike_id":"42a2d22f-ce67-446d-ab38-453f93bc49fa","system_id":"levelo_inurba_marseille","lat":43.330442,"lon":5.389148,"is_reserved":false,"is_disabled":false,"rental_uris":{"android":"levelo://app?vid=42a2d22f-ce67-446d-ab38-453f93bc49fa","ios":"levelo://app?vid=42a2d22f-ce67-446d-ab38-453f93bc49fa"},"vehicle_type_id":"4","last_reported":1704531980,"current_range_meters":18000,"station_id":"ce4bhr92rcd13ifvqhrg","pricing_plan_id":"free"},{"bike_id":"50a06571-ee32-4006-8417-dd8ead2ab8e4","system_id":"levelo_inurba_marseille","lat":43.33021,"lon":5.39038,"is_reserved":false,"is_disabled":false,"rental_uris":{"android":"levelo://app?vid=50a06571-ee32-4006-8417-dd8ead2ab8e4","ios":"levelo://app?vid=50a06571-ee32-4006-8417-dd8ead2ab8e4"},"vehicle_type_id":"4","last_reported":1704531980,"current_range_meters":30000,"station_id":"ce4bhr92rcd13ifvqhrg","pricing_plan_id":"free"},{"bike_id":"8de6259e-b5f0-4e36-9bf6-ac4ca3e78218","system_id":"levelo_inurba_marseille","lat":43.330442,"lon":5.389148,"is_reserved":false,"is_disabled":false,"rental_uris":{"android":"levelo://app?vid=8de6259e-b5f0-4e36-9bf6-ac4ca3e78218","ios":"levelo://app?vid=8de6259e-b5f0-4e36-9bf6-ac4ca3e78218"},"vehicle_type_id":"4","last_reported":1704531980,"current_range_meters":31200,"station_id":"ce4bhr92rcd13ifvqhrg","pricing_plan_id":"free"},{"bike_id":"c66c3696-5d1b-4cf7-8856-36c6313e824c","system_id":"levelo_inurba_marseille","lat":43.330442,"lon":5.389148,"is_reserved":false,"is_disabled":false,"rental_uris":{"android":"levelo://app?vid=c66c3696-5d1b-4cf7-8856-36c6313e824c","ios":"levelo://app?vid=c66c3696-5d1b-4cf7-8856-36c6313e824c"},"vehicle_type_id":"4","last_reported":1704531980,"current_range_meters":31200,"station_id":"ce4bhr92rcd13ifvqhrg","pricing_plan_id":"free"},{"bike_id":"5c0e221b-54dc-4307-a6ad-cc1692cf4df3","system_id":"levelo_inurba_marseille","lat":43.330442,"lon":5.389148,"is_reserved":false,"is_disabled":false,"rental_uris":{"android":"levelo://app?vid=5c0e221b-54dc-4307-a6ad-cc1692cf4df3","ios":"levelo://app?vid=5c0e221b-54dc-4307-a6ad-cc1692cf4df3"},"vehicle_type_id":"4","last_reported":1704531980,"current_range_meters":20000,"station_id":"ce4bhr92rcd13ifvqhrg","pricing_plan_id":"free"},{"bike_id":"57a59c67-703f-4a83-aae5-f27109cb99b9","system_id":"levelo_inurba_marseille","lat":43.330442,"lon":5.389148,"is_reserved":false,"is_disabled":false,"rental_uris":{"android":"levelo://app?vid=57a59c67-703f-4a83-aae5-f27109cb99b9","ios":"levelo://app?vid=57a59c67-703f-4a83-aae5-f27109cb99b9"},"vehicle_type_id":"4","last_reported":1704531980,"current_range_meters":23200,"station_id":"ce4bhr92rcd13ifvqhrg","pricing_plan_id":"free"},{"bike_id":"604d70e1-4bfc-4c1a-ad50-5c45b428d61e","system_id":"levelo_inurba_marseille","lat":43.330442,"lon":5.389148,"is_reserved":false,"is_disabled":false,"rental_uris":{"android":"levelo://app?vid=604d70e1-4bfc-4c1a-ad50-5c45b428d61e","ios":"levelo://app?vid=604d70e1-4bfc-4c1a-ad50-5c45b428d61e"},"vehicle_type_id":"4","last_reported":1704531980,"current_range_meters":24400,"station_id":"ce4bhr92rcd13ifvqhrg","pricing_plan_id":"free"},{"bike_id":"068b5190-8f4c-4784-b0f0-4211890b23f9","system_id":"levelo_inurba_marseille","lat":43.312609,"lon":5.401662,"is_reserved":false,"is_disabled":false,"rental_uris":{"android":"levelo://app?vid=068b5190-8f4c-4784-b0f0-4211890b23f9","ios":"levelo://app?vid=068b5190-8f4c-4784-b0f0-4211890b23f9"},"vehicle_type_id":"4","last_reported":1704531980,"current_range_meters":14400,"station_id":"ce4bh092rcd13ifvqd30","pricing_plan_id":"free"},{"bike_id":"6ef94bfd-5291-44c8-89a5-297b033568b8","system_id":"levelo_inurba_marseille","lat":43.312609,"lon":5.401662,"is_reserved":false,"is_disabled":false,"rental_uris":{"android":"levelo://app?vid=6ef94bfd-5291-44c8-89a5-297b033568b8","ios":"levelo://app?vid=6ef94bfd-5291-44c8-89a5-297b033568b8"},"vehicle_type_id":"4","last_reported":1704531980,"current_range_meters":16800,"station_id":"ce4bh092rcd13ifvqd30","pricing_plan_id":"free"},{"bike_id":"35dc918c-c2d1-46d5-a2c9-958f4dc94e57","system_id":"levelo_inurba_marseille","lat":43.309371,"lon":5.401449,"is_reserved":false,"is_disabled":false,"rental_uris":{"android":"levelo://app?vid=35dc918c-c2d1-46d5-a2c9-958f4dc94e57","ios":"levelo://app?vid=35dc918c-c2d1-46d5-a2c9-958f4dc94e57"},"vehicle_type_id":"4","last_reported":1704531980,"current_range_meters":16000,"station_id":"ce4bgvp2rcd13ifvqct0","pricing_plan_id":"free"},{"bike_id":"5bd1f20f-e8e3-4483-9aab-da288f8334c5","system_id":"levelo_inurba_marseille","lat":43.312609,"lon":5.401662,"is_reserved":false,"is_disabled":false,"rental_uris":{"android":"levelo://app?vid=5bd1f20f-e8e3-4483-9aab-da288f8334c5","ios":"levelo://app?vid=5bd1f20f-e8e3-4483-9aab-da288f8334c5"},"vehicle_type_id":"4","last_reported":1704531980,"current_range_meters":14000,"station_id":"ce4bh092rcd13ifvqd30","pricing_plan_id":"free"},{"bike_id":"d5e4ff94-0b7a-4388-b4ff-e561b895928c","system_id":"levelo_inurba_marseille","lat":43.28727,"lon":5.36078,"is_reserved":false,"is_disabled":false,"rental_uris":{"android":"levelo://app?vid=d5e4ff94-0b7a-4388-b4ff-e561b895928c","ios":"levelo://app?vid=d5e4ff94-0b7a-4388-b4ff-e561b895928c"},"vehicle_type_id":"4","last_reported":1704531980,"current_range_meters":31200,"station_id":"cki0cbj6b192h4jlfktg","pricing_plan_id":"free"},{"bike_id":"6bc8c8cb-6b71-4f6a-b993-a80ec3f8c4cd","system_id":"levelo_inurba_marseille","lat":43.281044,"lon":5.378308,"is_reserved":false,"is_disabled":false,"rental_uris":{"android":"levelo://app?vid=6bc8c8cb-6b71-4f6a-b993-a80ec3f8c4cd","ios":"levelo://app?vid=6bc8c8cb-6b71-4f6a-b993-a80ec3f8c4cd"},"vehicle_type_id":"4","last_reported":1704531980,"current_range_meters":19600,"station_id":"ce4bha12rcd13ifvqee0","pricing_plan_id":"free"},{"bike_id":"126da463-3420-45bb-807c-47a2460dac65","system_id":"levelo_inurba_marseille","lat":43.298681,"lon":5.397225,"is_reserved":false,"is_disabled":false,"rental_uris":{"android":"levelo://app?vid=126da463-3420-45bb-807c-47a2460dac65","ios":"levelo://app?vid=126da463-3420-45bb-807c-47a2460dac65"},"vehicle_type_id":"4","last_reported":1704531980,"current_range_meters":10000,"station_id":"ce4bh0h2rcd13ifvqd50","pricing_plan_id":"free"},{"bike_id":"3c368bf0-8a75-4df8-bbdd-166627396432","system_id":"levelo_inurba_marseille","lat":43.298681,"lon":5.397225,"is_reserved":false,"is_disabled":false,"rental_uris":{"android":"levelo://app?vid=3c368bf0-8a75-4df8-bbdd-166627396432","ios":"levelo://app?vid=3c368bf0-8a75-4df8-bbdd-166627396432"},"vehicle_type_id":"4","last_reported":1704531980,"current_range_meters":26800,"station_id":"ce4bh0h2rcd13ifvqd50","pricing_plan_id":"free"},{"bike_id":"120ab510-4401-46e4-95f8-b7eed6544e22","system_id":"levelo_inurba_marseille","lat":43.286591,"lon":5.363346,"is_reserved":false,"is_disabled":false,"rental_uris":{"android":"levelo://app?vid=120ab510-4401-46e4-95f8-b7eed6544e22","ios":"levelo://app?vid=120ab510-4401-46e4-95f8-b7eed6544e22"},"vehicle_type_id":"4","last_reported":1704531980,"current_range_meters":23200,"station_id":"ce4bhah2rcd13ifvqej0","pricing_plan_id":"free"},{"bike_id":"8840c109-f487-4c2c-9dcd-f1c9ad40e9b9","system_id":"levelo_inurba_marseille","lat":43.298681,"lon":5.397225,"is_reserved":false,"is_disabled":false,"rental_uris":{"android":"levelo://app?vid=8840c109-f487-4c2c-9dcd-f1c9ad40e9b9","ios":"levelo://app?vid=8840c109-f487-4c2c-9dcd-f1c9ad40e9b9"},"vehicle_type_id":"4","last_reported":1704531980,"current_range_meters":26400,"station_id":"ce4bh0h2rcd13ifvqd50","pricing_plan_id":"free"},{"bike_id":"b3145408-1be0-4b8f-862c-95296988543c","system_id":"levelo_inurba_marseille","lat":43.286591,"lon":5.363346,"is_reserved":false,"is_disabled":false,"rental_uris":{"android":"levelo://app?vid=b3145408-1be0-4b8f-862c-95296988543c","ios":"levelo://app?vid=b3145408-1be0-4b8f-862c-95296988543c"},"vehicle_type_id":"4","last_reported":1704531980,"current_range_meters":12800,"station_id":"ce4bhah2rcd13ifvqej0","pricing_plan_id":"free"},{"bike_id":"3f897824-4067-49be-96d6-70aad0329e6f","system_id":"levelo_inurba_marseille","lat":43.286976,"lon":5.373888,"is_reserved":false,"is_disabled":false,"rental_uris":{"android":"levelo://app?vid=3f897824-4067-49be-96d6-70aad0329e6f","ios":"levelo://app?vid=3f897824-4067-49be-96d6-70aad0329e6f"},"vehicle_type_id":"4","last_reported":1704531980,"current_range_meters":24400,"station_id":"ce4bh3p2rcd13ifvqdq0","pricing_plan_id":"free"},{"bike_id":"b692ef1d-24f7-442a-ab93-dc92941e49cd","system_id":"levelo_inurba_marseille","lat":43.286609,"lon":5.363323,"is_reserved":false,"is_disabled":false,"rental_uris":{"android":"levelo://app?vid=b692ef1d-24f7-442a-ab93-dc92941e49cd","ios":"levelo://app?vid=b692ef1d-24f7-442a-ab93-dc92941e49cd"},"vehicle_type_id":"4","last_reported":1704531980,"current_range_meters":20400,"station_id":"ce4bhah2rcd13ifvqej0","pricing_plan_id":"free"},{"bike_id":"6c4140ea-c2d0-4659-b4ae-ee4c29369a9b","system_id":"levelo_inurba_marseille","lat":43.28696,"lon":5.373906,"is_reserved":false,"is_disabled":false,"rental_uris":{"android":"levelo://app?vid=6c4140ea-c2d0-4659-b4ae-ee4c29369a9b","ios":"levelo://app?vid=6c4140ea-c2d0-4659-b4ae-ee4c29369a9b"},"vehicle_type_id":"4","last_reported":1704531980,"current_range_meters":24800,"station_id":"ce4bh3p2rcd13ifvqdq0","pricing_plan_id":"free"},{"bike_id":"13491503-7e07-4587-a4f7-6d04e25b2743","system_id":"levelo_inurba_marseille","lat":43.28785,"lon":5.37917,"is_reserved":false,"is_disabled":false,"rental_uris":{"android":"levelo://app?vid=13491503-7e07-4587-a4f7-6d04e25b2743","ios":"levelo://app?vid=13491503-7e07-4587-a4f7-6d04e25b2743"},"vehicle_type_id":"4","last_reported":1704531980,"current_range_meters":28800,"station_id":"","pricing_plan_id":"free"},{"bike_id":"20ba144a-7aca-4b92-a8e1-145795bdf12c","system_id":"levelo_inurba_marseille","lat":43.287034,"lon":5.379485,"is_reserved":false,"is_disabled":false,"rental_uris":{"android":"levelo://app?vid=20ba144a-7aca-4b92-a8e1-145795bdf12c","ios":"levelo://app?vid=20ba144a-7aca-4b92-a8e1-145795bdf12c"},"vehicle_type_id":"4","last_reported":1704531980,"current_range_meters":21200,"station_id":"ce4bh9p2rcd13ifvqec0","pricing_plan_id":"free"},{"bike_id":"2e367ec8-5a76-4b47-b4ce-6e0a147216db","system_id":"levelo_inurba_marseille","lat":43.284636,"lon":5.358872,"is_reserved":false,"is_disabled":false,"rental_uris":{"android":"levelo://app?vid=2e367ec8-5a76-4b47-b4ce-6e0a147216db","ios":"levelo://app?vid=2e367ec8-5a76-4b47-b4ce-6e0a147216db"},"vehicle_type_id":"4","last_reported":1704531980,"current_range_meters":31200,"station_id":"ce4bhah2rcd13ifvqei0","pricing_plan_id":"free"},{"bike_id":"35b55731-6dff-4caa-9788-229f83b7c028","system_id":"levelo_inurba_marseille","lat":43.284519,"lon":5.358876,"is_reserved":false,"is_disabled":false,"rental_uris":{"android":"levelo://app?vid=35b55731-6dff-4caa-9788-229f83b7c028","ios":"levelo://app?vid=35b55731-6dff-4caa-9788-229f83b7c028"},"vehicle_type_id":"4","last_reported":1704531980,"current_range_meters":16400,"station_id":"ce4bhah2rcd13ifvqei0","pricing_plan_id":"free"},{"bike_id":"01e59b64-29e9-4e48-86ad-7a3b4b582e04","system_id":"levelo_inurba_marseille","lat":43.285856,"lon":5.350771,"is_reserved":false,"is_disabled":false,"rental_uris":{"android":"levelo://app?vid=01e59b64-29e9-4e48-86ad-7a3b4b582e04","ios":"levelo://app?vid=01e59b64-29e9-4e48-86ad-7a3b4b582e04"},"vehicle_type_id":"4","last_reported":1704531980,"current_range_meters":6000,"station_id":"ce4bhch2rcd13ifvqeug","pricing_plan_id":"free"},{"bike_id":"77dcd9db-8541-482e-80ea-3465701dc93c","system_id":"levelo_inurba_marseille","lat":43.285856,"lon":5.350771,"is_reserved":false,"is_disabled":false,"rental_uris":{"android":"levelo://app?vid=77dcd9db-8541-482e-80ea-3465701dc93c","ios":"levelo://app?vid=77dcd9db-8541-482e-80ea-3465701dc93c"},"vehicle_type_id":"4","last_reported":1704531980,"current_range_meters":20000,"station_id":"ce4bhch2rcd13ifvqeug","pricing_plan_id":"free"},{"bike_id":"b0d9c37a-12b7-4fcf-b2cc-70034df7a04b","system_id":"levelo_inurba_marseille","lat":43.29839,"lon":5.40158,"is_reserved":false,"is_disabled":false,"rental_uris":{"android":"levelo://app?vid=b0d9c37a-12b7-4fcf-b2cc-70034df7a04b","ios":"levelo://app?vid=b0d9c37a-12b7-4fcf-b2cc-70034df7a04b"},"vehicle_type_id":"4","last_reported":1704531980,"current_range_meters":4800,"station_id":"","pricing_plan_id":"free"},{"bike_id":"43b3ea92-a636-409a-a2bf-2cfcdf83346d","system_id":"levelo_inurba_marseille","lat":43.285856,"lon":5.350771,"is_reserved":false,"is_disabled":false,"rental_uris":{"android":"levelo://app?vid=43b3ea92-a636-409a-a2bf-2cfcdf83346d","ios":"levelo://app?vid=43b3ea92-a636-409a-a2bf-2cfcdf83346d"},"vehicle_type_id":"4","last_reported":1704531980,"current_range_meters":7200,"station_id":"ce4bhch2rcd13ifvqeug","pricing_plan_id":"free"},{"bike_id":"bce8678c-604c-47b5-bab5-671f09410ac8","system_id":"levelo_inurba_marseille","lat":43.319179,"lon":5.407725,"is_reserved":false,"is_disabled":false,"rental_uris":{"android":"levelo://app?vid=bce8678c-604c-47b5-bab5-671f09410ac8","ios":"levelo://app?vid=bce8678c-604c-47b5-bab5-671f09410ac8"},"vehicle_type_id":"4","last_reported":1704531980,"current_range_meters":29200,"station_id":"ce4bhq12rcd13ifvqhig","pricing_plan_id":"free"},{"bike_id":"47c304eb-ecdd-4363-b7ef-9d921fc0a565","system_id":"levelo_inurba_marseille","lat":43.337168,"lon":5.391825,"is_reserved":false,"is_disabled":false,"rental_uris":{"android":"levelo://app?vid=47c304eb-ecdd-4363-b7ef-9d921fc0a565","ios":"levelo://app?vid=47c304eb-ecdd-4363-b7ef-9d921fc0a565"},"vehicle_type_id":"4","last_reported":1704531980,"current_range_meters":31200,"station_id":"ce4bhr92rcd13ifvqhsg","pricing_plan_id":"free"},{"bike_id":"65aa9c00-8297-4303-b0eb-18ed86d243f6","system_id":"levelo_inurba_marseille","lat":43.323396,"lon":5.406156,"is_reserved":false,"is_disabled":false,"rental_uris":{"android":"levelo://app?vid=65aa9c00-8297-4303-b0eb-18ed86d243f6","ios":"levelo://app?vid=65aa9c00-8297-4303-b0eb-18ed86d243f6"},"vehicle_type_id":"4","last_reported":1704531980,"current_range_meters":28000,"station_id":"ce4bhq92rcd13ifvqhjg","pricing_plan_id":"free"},{"bike_id":"5eedc416-3b24-4d9e-a61f-b633c29d84a8","system_id":"levelo_inurba_marseille","lat":43.337168,"lon":5.391825,"is_reserved":false,"is_disabled":false,"rental_uris":{"android":"levelo://app?vid=5eedc416-3b24-4d9e-a61f-b633c29d84a8","ios":"levelo://app?vid=5eedc416-3b24-4d9e-a61f-b633c29d84a8"},"vehicle_type_id":"4","last_reported":1704531980,"current_range_meters":30000,"station_id":"ce4bhr92rcd13ifvqhsg","pricing_plan_id":"free"},{"bike_id":"576fa5d3-5606-4ea0-8f80-c1e04a94eb32","system_id":"levelo_inurba_marseille","lat":43.284793,"lon":5.384113,"is_reserved":false,"is_disabled":false,"rental_uris":{"android":"levelo://app?vid=576fa5d3-5606-4ea0-8f80-c1e04a94eb32","ios":"levelo://app?vid=576fa5d3-5606-4ea0-8f80-c1e04a94eb32"},"vehicle_type_id":"4","last_reported":1704531980,"current_range_meters":25200,"station_id":"ce4bh512rcd13ifvqe3g","pricing_plan_id":"free"},{"bike_id":"b61a16fd-923e-4cb9-97a4-46e97a06bfb2","system_id":"levelo_inurba_marseille","lat":43.284793,"lon":5.384113,"is_reserved":false,"is_disabled":false,"rental_uris":{"android":"levelo://app?vid=b61a16fd-923e-4cb9-97a4-46e97a06bfb2","ios":"levelo://app?vid=b61a16fd-923e-4cb9-97a4-46e97a06bfb2"},"vehicle_type_id":"4","last_reported":1704531980,"current_range_meters":20000,"station_id":"ce4bh512rcd13ifvqe3g","pricing_plan_id":"free"},{"bike_id":"ba5bf8c5-f1b8-426a-b428-b30e5217fb09","system_id":"levelo_inurba_marseille","lat":43.289363,"lon":5.396322,"is_reserved":false,"is_disabled":false,"rental_uris":{"android":"levelo://app?vid=ba5bf8c5-f1b8-426a-b428-b30e5217fb09","ios":"levelo://app?vid=ba5bf8c5-f1b8-426a-b428-b30e5217fb09"},"vehicle_type_id":"4","last_reported":1704531980,"current_range_meters":31200,"station_id":"ce4bh3h2rcd13ifvqdn0","pricing_plan_id":"free"},{"bike_id":"61c3b05f-576b-4767-a1c0-a54e87726cb5","system_id":"levelo_inurba_marseille","lat":43.289363,"lon":5.396322,"is_reserved":false,"is_disabled":false,"rental_uris":{"android":"levelo://app?vid=61c3b05f-576b-4767-a1c0-a54e87726cb5","ios":"levelo://app?vid=61c3b05f-576b-4767-a1c0-a54e87726cb5"},"vehicle_type_id":"4","last_reported":1704531980,"current_range_meters":25600,"station_id":"ce4bh3h2rcd13ifvqdn0","pricing_plan_id":"free"},{"bike_id":"2fb11524-fe1c-44f3-a4a7-6a5814b96431","system_id":"levelo_inurba_marseille","lat":43.289363,"lon":5.396322,"is_reserved":false,"is_disabled":false,"rental_uris":{"android":"levelo://app?vid=2fb11524-fe1c-44f3-a4a7-6a5814b96431","ios":"levelo://app?vid=2fb11524-fe1c-44f3-a4a7-6a5814b96431"},"vehicle_type_id":"4","last_reported":1704531980,"current_range_meters":27200,"station_id":"ce4bh3h2rcd13ifvqdn0","pricing_plan_id":"free"},{"bike_id":"5eb379ff-9691-48e3-9afe-cbaece97f5e8","system_id":"levelo_inurba_marseille","lat":43.282754,"lon":5.350519,"is_reserved":false,"is_disabled":false,"rental_uris":{"android":"levelo://app?vid=5eb379ff-9691-48e3-9afe-cbaece97f5e8","ios":"levelo://app?vid=5eb379ff-9691-48e3-9afe-cbaece97f5e8"},"vehicle_type_id":"4","last_reported":1704531980,"current_range_meters":31200,"station_id":"ce4bhbp2rcd13ifvqerg","pricing_plan_id":"free"},{"bike_id":"fd817817-289b-4ac7-a1d1-8ad432f14ee3","system_id":"levelo_inurba_marseille","lat":43.282744,"lon":5.350533,"is_reserved":false,"is_disabled":false,"rental_uris":{"android":"levelo://app?vid=fd817817-289b-4ac7-a1d1-8ad432f14ee3","ios":"levelo://app?vid=fd817817-289b-4ac7-a1d1-8ad432f14ee3"},"vehicle_type_id":"4","last_reported":1704531980,"current_range_meters":21600,"station_id":"ce4bhbp2rcd13ifvqerg","pricing_plan_id":"free"},{"bike_id":"f8dd31ec-fac5-40aa-bf57-1849aadae574","system_id":"levelo_inurba_marseille","lat":43.282744,"lon":5.350533,"is_reserved":false,"is_disabled":false,"rental_uris":{"android":"levelo://app?vid=f8dd31ec-fac5-40aa-bf57-1849aadae574","ios":"levelo://app?vid=f8dd31ec-fac5-40aa-bf57-1849aadae574"},"vehicle_type_id":"4","last_reported":1704531980,"current_range_meters":28800,"station_id":"ce4bhbp2rcd13ifvqerg","pricing_plan_id":"free"},{"bike_id":"3e8c8ee1-92df-43ed-9705-bd594ab2bcdb","system_id":"levelo_inurba_marseille","lat":43.282744,"lon":5.350533,"is_reserved":false,"is_disabled":false,"rental_uris":{"android":"levelo://app?vid=3e8c8ee1-92df-43ed-9705-bd594ab2bcdb","ios":"levelo://app?vid=3e8c8ee1-92df-43ed-9705-bd594ab2bcdb"},"vehicle_type_id":"4","last_reported":1704531980,"current_range_meters":10800,"station_id":"ce4bhbp2rcd13ifvqerg","pricing_plan_id":"free"},{"bike_id":"7223a5e2-a16a-4374-abac-e94b52e1c96b","system_id":"levelo_inurba_marseille","lat":43.282744,"lon":5.350533,"is_reserved":false,"is_disabled":false,"rental_uris":{"android":"levelo://app?vid=7223a5e2-a16a-4374-abac-e94b52e1c96b","ios":"levelo://app?vid=7223a5e2-a16a-4374-abac-e94b52e1c96b"},"vehicle_type_id":"4","last_reported":1704531980,"current_range_meters":31200,"station_id":"ce4bhbp2rcd13ifvqerg","pricing_plan_id":"free"},{"bike_id":"d1cab46f-89b8-402e-a574-e16d0fdd23bd","system_id":"levelo_inurba_marseille","lat":43.282754,"lon":5.350519,"is_reserved":false,"is_disabled":false,"rental_uris":{"android":"levelo://app?vid=d1cab46f-89b8-402e-a574-e16d0fdd23bd","ios":"levelo://app?vid=d1cab46f-89b8-402e-a574-e16d0fdd23bd"},"vehicle_type_id":"4","last_reported":1704531980,"current_range_meters":31200,"station_id":"ce4bhbp2rcd13ifvqerg","pricing_plan_id":"free"},{"bike_id":"30e3d8e1-b8f0-46fb-b88f-dc94b7a875ef","system_id":"levelo_inurba_marseille","lat":43.282754,"lon":5.350519,"is_reserved":false,"is_disabled":false,"rental_uris":{"android":"levelo://app?vid=30e3d8e1-b8f0-46fb-b88f-dc94b7a875ef","ios":"levelo://app?vid=30e3d8e1-b8f0-46fb-b88f-dc94b7a875ef"},"vehicle_type_id":"4","last_reported":1704531980,"current_range_meters":31600,"station_id":"ce4bhbp2rcd13ifvqerg","pricing_plan_id":"free"},{"bike_id":"7c8b07e8-5bec-4cf4-adae-681213e603e8","system_id":"levelo_inurba_marseille","lat":43.282744,"lon":5.350533,"is_reserved":false,"is_disabled":false,"rental_uris":{"android":"levelo://app?vid=7c8b07e8-5bec-4cf4-adae-681213e603e8","ios":"levelo://app?vid=7c8b07e8-5bec-4cf4-adae-681213e603e8"},"vehicle_type_id":"4","last_reported":1704531980,"current_range_meters":13200,"station_id":"ce4bhbp2rcd13ifvqerg","pricing_plan_id":"free"},{"bike_id":"5751b2b6-9363-40e1-bd46-5a518aa5ce6c","system_id":"levelo_inurba_marseille","lat":43.282754,"lon":5.350519,"is_reserved":false,"is_disabled":false,"rental_uris":{"android":"levelo://app?vid=5751b2b6-9363-40e1-bd46-5a518aa5ce6c","ios":"levelo://app?vid=5751b2b6-9363-40e1-bd46-5a518aa5ce6c"},"vehicle_type_id":"4","last_reported":1704531980,"current_range_meters":31200,"station_id":"ce4bhbp2rcd13ifvqerg","pricing_plan_id":"free"},{"bike_id":"11b2db57-7d29-4a06-8682-d6cdd66a2c74","system_id":"levelo_inurba_marseille","lat":43.282744,"lon":5.350533,"is_reserved":false,"is_disabled":false,"rental_uris":{"android":"levelo://app?vid=11b2db57-7d29-4a06-8682-d6cdd66a2c74","ios":"levelo://app?vid=11b2db57-7d29-4a06-8682-d6cdd66a2c74"},"vehicle_type_id":"4","last_reported":1704531980,"current_range_meters":9200,"station_id":"ce4bhbp2rcd13ifvqerg","pricing_plan_id":"free"},{"bike_id":"ab50377c-4457-4971-ab7f-fe87fd528bb0","system_id":"levelo_inurba_marseille","lat":43.280382,"lon":5.369291,"is_reserved":false,"is_disabled":false,"rental_uris":{"android":"levelo://app?vid=ab50377c-4457-4971-ab7f-fe87fd528bb0","ios":"levelo://app?vid=ab50377c-4457-4971-ab7f-fe87fd528bb0"},"vehicle_type_id":"4","last_reported":1704531980,"current_range_meters":31200,"station_id":"ce4bha12rcd13ifvqef0","pricing_plan_id":"free"},{"bike_id":"d76a5e5e-6379-4b7b-8d3f-7cc829e71f62","system_id":"levelo_inurba_marseille","lat":43.28039,"lon":5.369297,"is_reserved":false,"is_disabled":false,"rental_uris":{"android":"levelo://app?vid=d76a5e5e-6379-4b7b-8d3f-7cc829e71f62","ios":"levelo://app?vid=d76a5e5e-6379-4b7b-8d3f-7cc829e71f62"},"vehicle_type_id":"4","last_reported":1704531980,"current_range_meters":31200,"station_id":"ce4bha12rcd13ifvqef0","pricing_plan_id":"free"},{"bike_id":"9b1dc124-8b2f-4e69-b8d0-38cf29ab3ee6","system_id":"levelo_inurba_marseille","lat":43.280382,"lon":5.369291,"is_reserved":false,"is_disabled":false,"rental_uris":{"android":"levelo://app?vid=9b1dc124-8b2f-4e69-b8d0-38cf29ab3ee6","ios":"levelo://app?vid=9b1dc124-8b2f-4e69-b8d0-38cf29ab3ee6"},"vehicle_type_id":"4","last_reported":1704531980,"current_range_meters":17200,"station_id":"ce4bha12rcd13ifvqef0","pricing_plan_id":"free"},{"bike_id":"da54d14f-a636-4762-b728-dde6f18cd186","system_id":"levelo_inurba_marseille","lat":43.28039,"lon":5.369297,"is_reserved":false,"is_disabled":false,"rental_uris":{"android":"levelo://app?vid=da54d14f-a636-4762-b728-dde6f18cd186","ios":"levelo://app?vid=da54d14f-a636-4762-b728-dde6f18cd186"},"vehicle_type_id":"4","last_reported":1704531980,"current_range_meters":30400,"station_id":"ce4bha12rcd13ifvqef0","pricing_plan_id":"free"},{"bike_id":"e75954f2-21ef-4384-b1cc-59552e842609","system_id":"levelo_inurba_marseille","lat":43.284462,"lon":5.392121,"is_reserved":false,"is_disabled":false,"rental_uris":{"android":"levelo://app?vid=e75954f2-21ef-4384-b1cc-59552e842609","ios":"levelo://app?vid=e75954f2-21ef-4384-b1cc-59552e842609"},"vehicle_type_id":"4","last_reported":1704531980,"current_range_meters":22000,"station_id":"ce4bhoh2rcd13ifvqh5g","pricing_plan_id":"free"},{"bike_id":"a2573cfe-3924-46cb-aea9-913237773d6f","system_id":"levelo_inurba_marseille","lat":43.326605,"lon":5.409903,"is_reserved":false,"is_disabled":false,"rental_uris":{"android":"levelo://app?vid=a2573cfe-3924-46cb-aea9-913237773d6f","ios":"levelo://app?vid=a2573cfe-3924-46cb-aea9-913237773d6f"},"vehicle_type_id":"4","last_reported":1704531980,"current_range_meters":26400,"station_id":"ce4bhpp2rcd13ifvqhgg","pricing_plan_id":"free"},{"bike_id":"e6b3cd94-e642-4e8b-afe0-04d0a4759014","system_id":"levelo_inurba_marseille","lat":43.326605,"lon":5.409903,"is_reserved":false,"is_disabled":false,"rental_uris":{"android":"levelo://app?vid=e6b3cd94-e642-4e8b-afe0-04d0a4759014","ios":"levelo://app?vid=e6b3cd94-e642-4e8b-afe0-04d0a4759014"},"vehicle_type_id":"4","last_reported":1704531980,"current_range_meters":26800,"station_id":"ce4bhpp2rcd13ifvqhgg","pricing_plan_id":"free"},{"bike_id":"804748a1-919c-4286-95e2-023037287763","system_id":"levelo_inurba_marseille","lat":43.326605,"lon":5.409903,"is_reserved":false,"is_disabled":false,"rental_uris":{"android":"levelo://app?vid=804748a1-919c-4286-95e2-023037287763","ios":"levelo://app?vid=804748a1-919c-4286-95e2-023037287763"},"vehicle_type_id":"4","last_reported":1704531980,"current_range_meters":28800,"station_id":"ce4bhpp2rcd13ifvqhgg","pricing_plan_id":"free"},{"bike_id":"a0d20dd8-a3b3-4fa3-a6e9-2896226abf35","system_id":"levelo_inurba_marseille","lat":43.326605,"lon":5.409903,"is_reserved":false,"is_disabled":false,"rental_uris":{"android":"levelo://app?vid=a0d20dd8-a3b3-4fa3-a6e9-2896226abf35","ios":"levelo://app?vid=a0d20dd8-a3b3-4fa3-a6e9-2896226abf35"},"vehicle_type_id":"4","last_reported":1704531980,"current_range_meters":11600,"station_id":"ce4bhpp2rcd13ifvqhgg","pricing_plan_id":"free"},{"bike_id":"a5551089-d570-4f13-9a5e-d88b46be8d2f","system_id":"levelo_inurba_marseille","lat":43.304188,"lon":5.412904,"is_reserved":false,"is_disabled":false,"rental_uris":{"android":"levelo://app?vid=a5551089-d570-4f13-9a5e-d88b46be8d2f","ios":"levelo://app?vid=a5551089-d570-4f13-9a5e-d88b46be8d2f"},"vehicle_type_id":"4","last_reported":1704531980,"current_range_meters":12400,"station_id":"ce4bhop2rcd13ifvqh8g","pricing_plan_id":"free"},{"bike_id":"8b8c15ed-5404-4033-83d8-1a6cebb9b450","system_id":"levelo_inurba_marseille","lat":43.304188,"lon":5.412904,"is_reserved":false,"is_disabled":false,"rental_uris":{"android":"levelo://app?vid=8b8c15ed-5404-4033-83d8-1a6cebb9b450","ios":"levelo://app?vid=8b8c15ed-5404-4033-83d8-1a6cebb9b450"},"vehicle_type_id":"4","last_reported":1704531980,"current_range_meters":31200,"station_id":"ce4bhop2rcd13ifvqh8g","pricing_plan_id":"free"},{"bike_id":"14d44773-b526-41dd-bdfd-fb90f35f534a","system_id":"levelo_inurba_marseille","lat":43.304188,"lon":5.412904,"is_reserved":false,"is_disabled":false,"rental_uris":{"android":"levelo://app?vid=14d44773-b526-41dd-bdfd-fb90f35f534a","ios":"levelo://app?vid=14d44773-b526-41dd-bdfd-fb90f35f534a"},"vehicle_type_id":"4","last_reported":1704531980,"current_range_meters":16800,"station_id":"ce4bhop2rcd13ifvqh8g","pricing_plan_id":"free"},{"bike_id":"4e07c34b-96d9-4130-9f32-8252d3238c6e","system_id":"levelo_inurba_marseille","lat":43.320603,"lon":5.41537,"is_reserved":false,"is_disabled":false,"rental_uris":{"android":"levelo://app?vid=4e07c34b-96d9-4130-9f32-8252d3238c6e","ios":"levelo://app?vid=4e07c34b-96d9-4130-9f32-8252d3238c6e"},"vehicle_type_id":"4","last_reported":1704531980,"current_range_meters":10000,"station_id":"ce4bhq92rcd13ifvqhkg","pricing_plan_id":"free"},{"bike_id":"e0ee1d23-55ed-4d79-aa5e-2b1056ffab02","system_id":"levelo_inurba_marseille","lat":43.320045,"lon":5.415048,"is_reserved":false,"is_disabled":false,"rental_uris":{"android":"levelo://app?vid=e0ee1d23-55ed-4d79-aa5e-2b1056ffab02","ios":"levelo://app?vid=e0ee1d23-55ed-4d79-aa5e-2b1056ffab02"},"vehicle_type_id":"4","last_reported":1704531980,"current_range_meters":25200,"station_id":"ce4bhq92rcd13ifvqhkg","pricing_plan_id":"free"},{"bike_id":"c091dd33-318a-4a7a-b50f-997c9e30af63","system_id":"levelo_inurba_marseille","lat":43.299577,"lon":5.413277,"is_reserved":false,"is_disabled":false,"rental_uris":{"android":"levelo://app?vid=c091dd33-318a-4a7a-b50f-997c9e30af63","ios":"levelo://app?vid=c091dd33-318a-4a7a-b50f-997c9e30af63"},"vehicle_type_id":"4","last_reported":1704531980,"current_range_meters":30400,"station_id":"ce4bhp12rcd13ifvqh9g","pricing_plan_id":"free"},{"bike_id":"cc00b376-63a4-49c0-b28a-4162405b8bdb","system_id":"levelo_inurba_marseille","lat":43.320045,"lon":5.415048,"is_reserved":false,"is_disabled":false,"rental_uris":{"android":"levelo://app?vid=cc00b376-63a4-49c0-b28a-4162405b8bdb","ios":"levelo://app?vid=cc00b376-63a4-49c0-b28a-4162405b8bdb"},"vehicle_type_id":"4","last_reported":1704531980,"current_range_meters":30400,"station_id":"ce4bhq92rcd13ifvqhkg","pricing_plan_id":"free"},{"bike_id":"d4b4b213-dcc1-444f-bb0e-ca04e730ebd1","system_id":"levelo_inurba_marseille","lat":43.279742,"lon":5.38744,"is_reserved":false,"is_disabled":false,"rental_uris":{"android":"levelo://app?vid=d4b4b213-dcc1-444f-bb0e-ca04e730ebd1","ios":"levelo://app?vid=d4b4b213-dcc1-444f-bb0e-ca04e730ebd1"},"vehicle_type_id":"4","last_reported":1704531980,"current_range_meters":28400,"station_id":"ce4bhg12rcd13ifvqf80","pricing_plan_id":"free"},{"bike_id":"aebb3934-7efa-48b5-a9c8-c53f7945c9a9","system_id":"levelo_inurba_marseille","lat":43.292571,"lon":5.409107,"is_reserved":false,"is_disabled":false,"rental_uris":{"android":"levelo://app?vid=aebb3934-7efa-48b5-a9c8-c53f7945c9a9","ios":"levelo://app?vid=aebb3934-7efa-48b5-a9c8-c53f7945c9a9"},"vehicle_type_id":"4","last_reported":1704531980,"current_range_meters":17600,"station_id":"ce4bh192rcd13ifvqdc0","pricing_plan_id":"free"},{"bike_id":"442c62dc-d974-471b-9aa5-ef6a1bb4e3ee","system_id":"levelo_inurba_marseille","lat":43.27618,"lon":5.361009,"is_reserved":false,"is_disabled":false,"rental_uris":{"android":"levelo://app?vid=442c62dc-d974-471b-9aa5-ef6a1bb4e3ee","ios":"levelo://app?vid=442c62dc-d974-471b-9aa5-ef6a1bb4e3ee"},"vehicle_type_id":"4","last_reported":1704531980,"current_range_meters":25200,"station_id":"ce4bgj92rcd13ifvqbe0","pricing_plan_id":"free"},{"bike_id":"141d8f62-d431-4979-8358-54f524263357","system_id":"levelo_inurba_marseille","lat":43.325342,"lon":5.414488,"is_reserved":false,"is_disabled":false,"rental_uris":{"android":"levelo://app?vid=141d8f62-d431-4979-8358-54f524263357","ios":"levelo://app?vid=141d8f62-d431-4979-8358-54f524263357"},"vehicle_type_id":"4","last_reported":1704531980,"current_range_meters":23600,"station_id":"ce4bhq12rcd13ifvqhhg","pricing_plan_id":"free"},{"bike_id":"f5949106-917a-47f4-864b-ec544cb9e921","system_id":"levelo_inurba_marseille","lat":43.325243,"lon":5.414326,"is_reserved":false,"is_disabled":false,"rental_uris":{"android":"levelo://app?vid=f5949106-917a-47f4-864b-ec544cb9e921","ios":"levelo://app?vid=f5949106-917a-47f4-864b-ec544cb9e921"},"vehicle_type_id":"4","last_reported":1704531980,"current_range_meters":25200,"station_id":"ce4bhq12rcd13ifvqhhg","pricing_plan_id":"free"},{"bike_id":"1f7c6dd5-64d3-4655-b3b0-531d232dd847","system_id":"levelo_inurba_marseille","lat":43.280784,"lon":5.396622,"is_reserved":false,"is_disabled":false,"rental_uris":{"android":"levelo://app?vid=1f7c6dd5-64d3-4655-b3b0-531d232dd847","ios":"levelo://app?vid=1f7c6dd5-64d3-4655-b3b0-531d232dd847"},"vehicle_type_id":"4","last_reported":1704531980,"current_range_meters":29200,"station_id":"ce4bho12rcd13ifvqh2g","pricing_plan_id":"free"},{"bike_id":"f544f848-ff8f-4e27-a938-55a63b579fe3","system_id":"levelo_inurba_marseille","lat":43.303837,"lon":5.418724,"is_reserved":false,"is_disabled":false,"rental_uris":{"android":"levelo://app?vid=f544f848-ff8f-4e27-a938-55a63b579fe3","ios":"levelo://app?vid=f544f848-ff8f-4e27-a938-55a63b579fe3"},"vehicle_type_id":"4","last_reported":1704531980,"current_range_meters":5200,"station_id":"ce4bhop2rcd13ifvqh7g","pricing_plan_id":"free"},{"bike_id":"914a82e4-d608-4374-969e-5df1dc85d42f","system_id":"levelo_inurba_marseille","lat":43.303837,"lon":5.418724,"is_reserved":false,"is_disabled":false,"rental_uris":{"android":"levelo://app?vid=914a82e4-d608-4374-969e-5df1dc85d42f","ios":"levelo://app?vid=914a82e4-d608-4374-969e-5df1dc85d42f"},"vehicle_type_id":"4","last_reported":1704531980,"current_range_meters":31200,"station_id":"ce4bhop2rcd13ifvqh7g","pricing_plan_id":"free"},{"bike_id":"149cab10-f2de-49e9-9e47-0a57c8832a4f","system_id":"levelo_inurba_marseille","lat":43.303837,"lon":5.418724,"is_reserved":false,"is_disabled":false,"rental_uris":{"android":"levelo://app?vid=149cab10-f2de-49e9-9e47-0a57c8832a4f","ios":"levelo://app?vid=149cab10-f2de-49e9-9e47-0a57c8832a4f"},"vehicle_type_id":"4","last_reported":1704531980,"current_range_meters":25200,"station_id":"ce4bhop2rcd13ifvqh7g","pricing_plan_id":"free"},{"bike_id":"dca42b0e-bed3-4ba0-8f62-e3fb8683f328","system_id":"levelo_inurba_marseille","lat":43.273613,"lon":5.362705,"is_reserved":false,"is_disabled":false,"rental_uris":{"android":"levelo://app?vid=dca42b0e-bed3-4ba0-8f62-e3fb8683f328","ios":"levelo://app?vid=dca42b0e-bed3-4ba0-8f62-e3fb8683f328"},"vehicle_type_id":"4","last_reported":1704531980,"current_range_meters":28000,"station_id":"ce4bhbh2rcd13ifvqeo0","pricing_plan_id":"free"},{"bike_id":"ffd764fa-eab8-44a8-b84f-629f50a52810","system_id":"levelo_inurba_marseille","lat":43.273613,"lon":5.362705,"is_reserved":false,"is_disabled":false,"rental_uris":{"android":"levelo://app?vid=ffd764fa-eab8-44a8-b84f-629f50a52810","ios":"levelo://app?vid=ffd764fa-eab8-44a8-b84f-629f50a52810"},"vehicle_type_id":"4","last_reported":1704531980,"current_range_meters":20400,"station_id":"ce4bhbh2rcd13ifvqeo0","pricing_plan_id":"free"},{"bike_id":"665021bf-f621-4cc6-86bf-bd6fd28491a0","system_id":"levelo_inurba_marseille","lat":43.273609,"lon":5.362708,"is_reserved":false,"is_disabled":false,"rental_uris":{"android":"levelo://app?vid=665021bf-f621-4cc6-86bf-bd6fd28491a0","ios":"levelo://app?vid=665021bf-f621-4cc6-86bf-bd6fd28491a0"},"vehicle_type_id":"4","last_reported":1704531980,"current_range_meters":16400,"station_id":"ce4bhbh2rcd13ifvqeo0","pricing_plan_id":"free"},{"bike_id":"05ee6c82-6e53-4a3f-8be1-736adf69b195","system_id":"levelo_inurba_marseille","lat":43.273609,"lon":5.362708,"is_reserved":false,"is_disabled":false,"rental_uris":{"android":"levelo://app?vid=05ee6c82-6e53-4a3f-8be1-736adf69b195","ios":"levelo://app?vid=05ee6c82-6e53-4a3f-8be1-736adf69b195"},"vehicle_type_id":"4","last_reported":1704531980,"current_range_meters":31200,"station_id":"ce4bhbh2rcd13ifvqeo0","pricing_plan_id":"free"},{"bike_id":"4eeb8fdf-869a-4c78-804a-26a0fc14b0d8","system_id":"levelo_inurba_marseille","lat":43.336134,"lon":5.410341,"is_reserved":false,"is_disabled":false,"rental_uris":{"android":"levelo://app?vid=4eeb8fdf-869a-4c78-804a-26a0fc14b0d8","ios":"levelo://app?vid=4eeb8fdf-869a-4c78-804a-26a0fc14b0d8"},"vehicle_type_id":"4","last_reported":1704531980,"current_range_meters":14000,"station_id":"ce4bhqh2rcd13ifvqhmg","pricing_plan_id":"free"},{"bike_id":"4f3729cd-63d8-45d8-904c-2161cb512a8a","system_id":"levelo_inurba_marseille","lat":43.276771,"lon":5.388799,"is_reserved":false,"is_disabled":false,"rental_uris":{"android":"levelo://app?vid=4f3729cd-63d8-45d8-904c-2161cb512a8a","ios":"levelo://app?vid=4f3729cd-63d8-45d8-904c-2161cb512a8a"},"vehicle_type_id":"4","last_reported":1704531980,"current_range_meters":22400,"station_id":"ce4bhi12rcd13ifvqfo0","pricing_plan_id":"free"},{"bike_id":"64e62756-a1e8-48a6-8ae3-24dd84cf3474","system_id":"levelo_inurba_marseille","lat":43.317273,"lon":5.423898,"is_reserved":false,"is_disabled":false,"rental_uris":{"android":"levelo://app?vid=64e62756-a1e8-48a6-8ae3-24dd84cf3474","ios":"levelo://app?vid=64e62756-a1e8-48a6-8ae3-24dd84cf3474"},"vehicle_type_id":"4","last_reported":1704531980,"current_range_meters":21200,"station_id":"ce4bhp92rcd13ifvqhbg","pricing_plan_id":"free"},