{"last_updated":1731618525,"ttl":60,"version":"2.2","data":{"bikes":[{"bike_id":"56fd2d8a-006a-4fe7-b503-b5e93b9874ad","system_id":"levelo_inurba_marseille","lat":43.295166,"lon":5.394068,"is_reserved":false,"is_disabled":false,"rental_uris":{"android":"levelo://app?vid=56fd2d8a-006a-4fe7-b503-b5e93b9874ad","ios":"levelo://app?vid=56fd2d8a-006a-4fe7-b503-b5e93b9874ad"},"vehicle_type_id":"4","last_reported":1731618525,"current_range_meters":28000,"station_id":"ce4bh292rcd13ifvqdf0","pricing_plan_id":"cebpf4jnsgd1na2vs0mg"},{"bike_id":"6b2b803d-1ebc-428e-ba87-b52f6a51e2a2","system_id":"levelo_inurba_marseille","lat":43.31685,"lon":5.40476,"is_reserved":false,"is_disabled":false,"rental_uris":{"android":"levelo://app?vid=6b2b803d-1ebc-428e-ba87-b52f6a51e2a2","ios":"levelo://app?vid=6b2b803d-1ebc-428e-ba87-b52f6a51e2a2"},"vehicle_type_id":"4","last_reported":1731618525,"current_range_meters":4800,"station_id":"ce4bh012rcd13ifvqd00","pricing_plan_id":"cebpf4jnsgd1na2vs0mg"},{"bike_id":"42eea94a-9148-414a-bfb5-9f277df42b86","system_id":"levelo_inurba_marseille","lat":43.29879,"lon":5.39732,"is_reserved":false,"is_disabled":false,"rental_uris":{"android":"levelo://app?vid=42eea94a-9148-414a-bfb5-9f277df42b86","ios":"levelo://app?vid=42eea94a-9148-414a-bfb5-9f277df42b86"},"vehicle_type_id":"4","last_reported":1731618525,"current_range_meters":38800,"station_id":"ce4bh0h2rcd13ifvqd50","pricing_plan_id":"cebpf4jnsgd1na2vs0mg"},{"bike_id":"1d936b62-1bb8-40f6-afdf-7dac3ed8caa9","system_id":"levelo_inurba_marseille","lat":43.28456,"lon":5.3588,"is_reserved":false,"is_disabled":false,"rental_uris":{"android":"levelo://app?vid=1d936b62-1bb8-40f6-afdf-7dac3ed8caa9","ios":"levelo://app?vid=1d936b62-1bb8-40f6-afdf-7dac3ed8caa9"},"vehicle_type_id":"4","last_reported":1731618525,"current_range_meters":18000,"station_id":"ce4bhah2rcd13ifvqei0","pricing_plan_id":"cebpf4jnsgd1na2vs0mg"},{"bike_id":"2c96f6ca-2597-4e0f-bec7-ba4c545d4690","system_id":"levelo_inurba_marseille","lat":43.28722,"lon":5.36084,"is_reserved":false,"is_disabled":false,"rental_uris":{"android":"levelo://app?vid=2c96f6ca-2597-4e0f-bec7-ba4c545d4690","ios":"levelo://app?vid=2c96f6ca-2597-4e0f-bec7-ba4c545d4690"},"vehicle_type_id":"4","last_reported":1731618525,"current_range_meters":38000,"station_id":"cki0cbj6b192h4jlfktg","pricing_plan_id":"cebpf4jnsgd1na2vs0mg"},{"bike_id":"27dfd56c-a0dd-4836-a141-163a04b58bab","system_id":"levelo_inurba_marseille","lat":43.28001,"lon":5.41659,"is_reserved":false,"is_disabled":false,"rental_uris":{"android":"levelo://app?vid=27dfd56c-a0dd-4836-a141-163a04b58bab","ios":"levelo://app?vid=27dfd56c-a0dd-4836-a141-163a04b58bab"},"vehicle_type_id":"4","last_reported":1731618525,"current_range_meters":27600,"station_id":"ce4bho12rcd13ifvqh1g","pricing_plan_id":"cebpf4jnsgd1na2vs0mg"},{"bike_id":"93ee4e53-0b08-432a-8df5-beb35cdea60c","system_id":"levelo_inurba_marseille","lat":43.24386,"lon":5.37055,"is_reserved":false,"is_disabled":false,"rental_uris":{"android":"levelo://app?vid=93ee4e53-0b08-432a-8df5-beb35cdea60c","ios":"levelo://app?vid=93ee4e53-0b08-432a-8df5-beb35cdea60c"},"vehicle_type_id":"4","last_reported":1731618525,"current_range_meters":38400,"station_id":"ce4bhhh2rcd13ifvqfk0","pricing_plan_id":"cebpf4jnsgd1na2vs0mg"},{"bike_id":"c64a60b6-317d-4054-8f52-b03871d4495a","system_id":"levelo_inurba_marseille","lat":43.30812,"lon":5.43522,"is_reserved":false,"is_disabled":false,"rental_uris":{"android":"levelo://app?vid=c64a60b6-317d-4054-8f52-b03871d4495a","ios":"levelo://app?vid=c64a60b6-317d-4054-8f52-b03871d4495a"},"vehicle_type_id":"4","last_reported":1731618525,"current_range_meters":8000,"station_id":"ce4bhph2rcd13ifvqheg","pricing_plan_id":"cebpf4jnsgd1na2vs0mg"},{"bike_id":"5993bac6-5c24-49b7-a326-e88b8c1f8cc7","system_id":"levelo_inurba_marseille","lat":43.3136,"lon":5.38502,"is_reserved":false,"is_disabled":false,"rental_uris":{"android":"levelo://app?vid=5993bac6-5c24-49b7-a326-e88b8c1f8cc7","ios":"levelo://app?vid=5993bac6-5c24-49b7-a326-e88b8c1f8cc7"},"vehicle_type_id":"4","last_reported":1731618525,"current_range_meters":38000,"station_id":"ce4bgt92rcd13ifvqcf0","pricing_plan_id":"cebpf4jnsgd1na2vs0mg"},{"bike_id":"44611800-1428-408c-9660-04824b7466ef","system_id":"levelo_inurba_marseille","lat":43.27675,"lon":5.38904,"is_reserved":false,"is_disabled":false,"rental_uris":{"android":"levelo://app?vid=44611800-1428-408c-9660-04824b7466ef","ios":"levelo://app?vid=44611800-1428-408c-9660-04824b7466ef"},"vehicle_type_id":"4","last_reported":1731618525,"current_range_meters":33200,"station_id":"ce4bhl92rcd13ifvqghg","pricing_plan_id":"cebpf4jnsgd1na2vs0mg"},{"bike_id":"16fde11b-ad8b-4dc1-964d-0dcff4c00b3f","system_id":"levelo_inurba_marseille","lat":43.28,"lon":5.40007,"is_reserved":false,"is_disabled":false,"rental_uris":{"android":"levelo://app?vid=16fde11b-ad8b-4dc1-964d-0dcff4c00b3f","ios":"levelo://app?vid=16fde11b-ad8b-4dc1-964d-0dcff4c00b3f"},"vehicle_type_id":"4","last_reported":1731618525,"current_range_meters":32000,"station_id":"ce4bho92rcd13ifvqh4g","pricing_plan_id":"cebpf4jnsgd1na2vs0mg"},{"bike_id":"3301ddcb-93b1-4572-9682-5ffe16c127ff","system_id":"levelo_inurba_marseille","lat":43.28485,"lon":5.38422,"is_reserved":false,"is_disabled":false,"rental_uris":{"android":"levelo://app?vid=3301ddcb-93b1-4572-9682-5ffe16c127ff","ios":"levelo://app?vid=3301ddcb-93b1-4572-9682-5ffe16c127ff"},"vehicle_type_id":"4","last_reported":1731618525,"current_range_meters":3200,"station_id":"ce4bh512rcd13ifvqe3g","pricing_plan_id":"cebpf4jnsgd1na2vs0mg"},{"bike_id":"8b22f74b-1b72-47ca-8c5e-a56972a0285b","system_id":"levelo_inurba_marseille","lat":43.30883,"lon":5.39637,"is_reserved":false,"is_disabled":false,"rental_uris":{"android":"levelo://app?vid=8b22f74b-1b72-47ca-8c5e-a56972a0285b","ios":"levelo://app?vid=8b22f74b-1b72-47ca-8c5e-a56972a0285b"},"vehicle_type_id":"4","last_reported":1731618525,"current_range_meters":38800,"station_id":"ce4bh012rcd13ifvqcv0","pricing_plan_id":"cebpf4jnsgd1na2vs0mg"},{"bike_id":"78b77ac8-4c63-432d-b19f-de7fa33d9847","system_id":"levelo_inurba_marseille","lat":43.300841,"lon":5.390816,"is_reserved":false,"is_disabled":false,"rental_uris":{"android":"levelo://app?vid=78b77ac8-4c63-432d-b19f-de7fa33d9847","ios":"levelo://app?vid=78b77ac8-4c63-432d-b19f-de7fa33d9847"},"vehicle_type_id":"4","last_reported":1731618525,"current_range_meters":20400,"station_id":"ce4bhqh2rcd13ifvqhlg","pricing_plan_id":"cebpf4jnsgd1na2vs0mg"},{"bike_id":"03a975f5-5857-4808-ac83-1e08fd421270","system_id":"levelo_inurba_marseille","lat":43.32363,"lon":5.38884,"is_reserved":false,"is_disabled":false,"rental_uris":{"android":"levelo://app?vid=03a975f5-5857-4808-ac83-1e08fd421270","ios":"levelo://app?vid=03a975f5-5857-4808-ac83-1e08fd421270"},"vehicle_type_id":"4","last_reported":1731618525,"current_range_meters":33200,"station_id":"ce4bhqp2rcd13ifvqhog","pricing_plan_id":"cebpf4jnsgd1na2vs0mg"},{"bike_id":"94a3f0ab-e69f-4025-98f0-03d1adb941e4","system_id":"levelo_inurba_marseille","lat":43.2695,"lon":5.38628,"is_reserved":false,"is_disabled":false,"rental_uris":{"android":"levelo://app?vid=94a3f0ab-e69f-4025-98f0-03d1adb941e4","ios":"levelo://app?vid=94a3f0ab-e69f-4025-98f0-03d1adb941e4"},"vehicle_type_id":"4","last_reported":1731618525,"current_range_meters":28800,"station_id":"ce4bhh92rcd13ifvqfh0","pricing_plan_id":"cebpf4jnsgd1na2vs0mg"},{"bike_id":"322929c1-8f42-441c-a8e7-5b80c2019ad2","system_id":"levelo_inurba_marseille","lat":43.28259,"lon":5.35061,"is_reserved":false,"is_disabled":false,"rental_uris":{"android":"levelo://app?vid=322929c1-8f42-441c-a8e7-5b80c2019ad2","ios":"levelo://app?vid=322929c1-8f42-441c-a8e7-5b80c2019ad2"},"vehicle_type_id":"4","last_reported":1731618525,"current_range_meters":38800,"station_id":"ce4bhbp2rcd13ifvqerg","pricing_plan_id":"cebpf4jnsgd1na2vs0mg"},{"bike_id":"e3cb1a55-4148-430e-8e94-feb4c70ed1b6","system_id":"levelo_inurba_marseille","lat":43.24173,"lon":5.39715,"is_reserved":false,"is_disabled":false,"rental_uris":{"android":"levelo://app?vid=e3cb1a55-4148-430e-8e94-feb4c70ed1b6","ios":"levelo://app?vid=e3cb1a55-4148-430e-8e94-feb4c70ed1b6"},"vehicle_type_id":"4","last_reported":1731618525,"current_range_meters":9600,"station_id":"ce4bhn12rcd13ifvqgpg","pricing_plan_id":"cebpf4jnsgd1na2vs0mg"},{"bike_id":"bd976e31-5225-4116-a406-80069dff21f2","system_id":"levelo_inurba_marseille","lat":43.28031,"lon":5.36934,"is_reserved":false,"is_disabled":false,"rental_uris":{"android":"levelo://app?vid=bd976e31-5225-4116-a406-80069dff21f2","ios":"levelo://app?vid=bd976e31-5225-4116-a406-80069dff21f2"},"vehicle_type_id":"4","last_reported":1731618525,"current_range_meters":38800,"station_id":"ce4bha12rcd13ifvqef0","pricing_plan_id":"cebpf4jnsgd1na2vs0mg"},{"bike_id":"9ef76943-592f-4d3b-a0f1-da70d440e9b4","system_id":"levelo_inurba_marseille","lat":43.29898,"lon":5.43668,"is_reserved":false,"is_disabled":false,"rental_uris":{"android":"levelo://app?vid=9ef76943-592f-4d3b-a0f1-da70d440e9b4","ios":"levelo://app?vid=9ef76943-592f-4d3b-a0f1-da70d440e9b4"},"vehicle_type_id":"4","last_reported":1731618525,"current_range_meters":26800,"station_id":"ce4bhpp2rcd13ifvqhfg","pricing_plan_id":"cebpf4jnsgd1na2vs0mg"},{"bike_id":"ff9e8fbd-afb5-4332-8f0e-8863372f7ff1","system_id":"levelo_inurba_marseille","lat":43.28149,"lon":5.42645,"is_reserved":false,"is_disabled":false,"rental_uris":{"android":"levelo://app?vid=ff9e8fbd-afb5-4332-8f0e-8863372f7ff1","ios":"levelo://app?vid=ff9e8fbd-afb5-4332-8f0e-8863372f7ff1"},"vehicle_type_id":"4","last_reported":1731618525,"current_range_meters":19600,"station_id":"ce4bhnh2rcd13ifvqgug","pricing_plan_id":"cebpf4jnsgd1na2vs0mg"},{"bike_id":"a2824603-538d-4f20-8dcc-bb0102e732b8","system_id":"levelo_inurba_marseille","lat":43.2781,"lon":5.40701,"is_reserved":false,"is_disabled":false,"rental_uris":{"android":"levelo://app?vid=a2824603-538d-4f20-8dcc-bb0102e732b8","ios":"levelo://app?vid=a2824603-538d-4f20-8dcc-bb0102e732b8"},"vehicle_type_id":"4","last_reported":1731618525,"current_range_meters":39200,"station_id":"ce4bhnh2rcd13ifvqgtg","pricing_plan_id":"cebpf4jnsgd1na2vs0mg"},{"bike_id":"4e853c15-a041-435b-9865-3710980ed8da","system_id":"levelo_inurba_marseille","lat":43.27495,"lon":5.42448,"is_reserved":false,"is_disabled":false,"rental_uris":{"android":"levelo://app?vid=4e853c15-a041-435b-9865-3710980ed8da","ios":"levelo://app?vid=4e853c15-a041-435b-9865-3710980ed8da"},"vehicle_type_id":"4","last_reported":1731618525,"current_range_meters":2800,"station_id":"ce4bhn92rcd13ifvqgrg","pricing_plan_id":"cebpf4jnsgd1na2vs0mg"},{"bike_id":"12be8816-9edc-48be-afea-bec14c436cd5","system_id":"levelo_inurba_marseille","lat":43.323419,"lon":5.406196,"is_reserved":false,"is_disabled":false,"rental_uris":{"android":"levelo://app?vid=12be8816-9edc-48be-afea-bec14c436cd5","ios":"levelo://app?vid=12be8816-9edc-48be-afea-bec14c436cd5"},"vehicle_type_id":"4","last_reported":1731618525,"current_range_meters":38800,"station_id":"ce4bhq92rcd13ifvqhjg","pricing_plan_id":"cebpf4jnsgd1na2vs0mg"},{"bike_id":"88db38ba-bc13-43ac-accd-2908a96ea058","system_id":"levelo_inurba_marseille","lat":43.28347,"lon":5.381,"is_reserved":false,"is_disabled":false,"rental_uris":{"android":"levelo://app?vid=88db38ba-bc13-43ac-accd-2908a96ea058","ios":"levelo://app?vid=88db38ba-bc13-43ac-accd-2908a96ea058"},"vehicle_type_id":"4","last_reported":1731618525,"current_range_meters":28000,"station_id":"ce4bh412rcd13ifvqdr0","pricing_plan_id":"cebpf4jnsgd1na2vs0mg"},{"bike_id":"354f040a-9ab6-488a-9d26-4c39ec3baaa7","system_id":"levelo_inurba_marseille","lat":43.23187,"lon":5.35539,"is_reserved":false,"is_disabled":false,"rental_uris":{"android":"levelo://app?vid=354f040a-9ab6-488a-9d26-4c39ec3baaa7","ios":"levelo://app?vid=354f040a-9ab6-488a-9d26-4c39ec3baaa7"},"vehicle_type_id":"4","last_reported":1731618525,"current_range_meters":40000,"station_id":"ce4bhu92rcd13ifvqi70","pricing_plan_id":"cebpf4jnsgd1na2vs0mg"},{"bike_id":"238dc81d-120a-41e0-a5be-506cc79c5c19","system_id":"levelo_inurba_marseille","lat":43.28853,"lon":5.35839,"is_reserved":false,"is_disabled":false,"rental_uris":{"android":"levelo://app?vid=238dc81d-120a-41e0-a5be-506cc79c5c19","ios":"levelo://app?vid=238dc81d-120a-41e0-a5be-506cc79c5c19"},"vehicle_type_id":"4","last_reported":1731618525,"current_range_meters":13600,"station_id":"ce4bhb12rcd13ifvqem0","pricing_plan_id":"cebpf4jnsgd1na2vs0mg"},{"bike_id":"5c953bf5-0945-4e30-bc78-a41f2d2e25eb","system_id":"levelo_inurba_marseille","lat":43.295751,"lon":5.399791,"is_reserved":false,"is_disabled":false,"rental_uris":{"android":"levelo://app?vid=5c953bf5-0945-4e30-bc78-a41f2d2e25eb","ios":"levelo://app?vid=5c953bf5-0945-4e30-bc78-a41f2d2e25eb"},"vehicle_type_id":"4","last_reported":1731618525,"current_range_meters":21600,"station_id":"","pricing_plan_id":"cebpf4jnsgd1na2vs0mg"},{"bike_id":"0caf5211-c619-4a94-a74a-e85888f1ce9e","system_id":"levelo_inurba_marseille","lat":43.31491,"lon":5.37309,"is_reserved":false,"is_disabled":false,"rental_uris":{"android":"levelo://app?vid=0caf5211-c619-4a94-a74a-e85888f1ce9e","ios":"levelo://app?vid=0caf5211-c619-4a94-a74a-e85888f1ce9e"},"vehicle_type_id":"4","last_reported":1731618525,"current_range_meters":14000,"station_id":"ce4bh2h2rcd13ifvqdh0","pricing_plan_id":"cebpf4jnsgd1na2vs0mg"},{"bike_id":"b983f6e5-3fdf-4e84-afe9-f31e1871bb9a","system_id":"levelo_inurba_marseille","lat":43.285034,"lon":5.359816,"is_reserved":false,"is_disabled":false,"rental_uris":{"android":"levelo://app?vid=b983f6e5-3fdf-4e84-afe9-f31e1871bb9a","ios":"levelo://app?vid=b983f6e5-3fdf-4e84-afe9-f31e1871bb9a"},"vehicle_type_id":"4","last_reported":1731618525,"current_range_meters":19600,"station_id":"ce4bhah2rcd13ifvqei0","pricing_plan_id":"cebpf4jnsgd1na2vs0mg"},{"bike_id":"4a74f469-1d99-48ee-a8ca-9199898c00a4","system_id":"levelo_inurba_marseille","lat":43.2319,"lon":5.35543,"is_reserved":false,"is_disabled":false,"rental_uris":{"android":"levelo://app?vid=4a74f469-1d99-48ee-a8ca-9199898c00a4","ios":"levelo://app?vid=4a74f469-1d99-48ee-a8ca-9199898c00a4"},"vehicle_type_id":"4","last_reported":1731618525,"current_range_meters":18800,"station_id":"ce4bhu92rcd13ifvqi70","pricing_plan_id":"cebpf4jnsgd1na2vs0mg"},{"bike_id":"d13a87f9-953a-4c4d-9d1f-b8db7eaf93ea","system_id":"levelo_inurba_marseille","lat":43.30319,"lon":5.40443,"is_reserved":false,"is_disabled":false,"rental_uris":{"android":"levelo://app?vid=d13a87f9-953a-4c4d-9d1f-b8db7eaf93ea","ios":"levelo://app?vid=d13a87f9-953a-4c4d-9d1f-b8db7eaf93ea"},"vehicle_type_id":"4","last_reported":1731618525,"current_range_meters":33600,"station_id":"ce4bh012rcd13ifvqd10","pricing_plan_id":"cebpf4jnsgd1na2vs0mg"},{"bike_id":"5a9487f5-1f4a-4526-91df-278697abb58b","system_id":"levelo_inurba_marseille","lat":43.2816,"lon":5.42647,"is_reserved":false,"is_disabled":false,"rental_uris":{"android":"levelo://app?vid=5a9487f5-1f4a-4526-91df-278697abb58b","ios":"levelo://app?vid=5a9487f5-1f4a-4526-91df-278697abb58b"},"vehicle_type_id":"4","last_reported":1731618525,"current_range_meters":23200,"station_id":"ce4bhnh2rcd13ifvqgug","pricing_plan_id":"cebpf4jnsgd1na2vs0mg"},{"bike_id":"b218162a-539b-480c-8693-30db50e70400","system_id":"levelo_inurba_marseille","lat":43.30132,"lon":5.39858,"is_reserved":false,"is_disabled":false,"rental_uris":{"android":"levelo://app?vid=b218162a-539b-480c-8693-30db50e70400","ios":"levelo://app?vid=b218162a-539b-480c-8693-30db50e70400"},"vehicle_type_id":"4","last_reported":1731618525,"current_range_meters":36800,"station_id":"ce4bh0h2rcd13ifvqd40","pricing_plan_id":"cebpf4jnsgd1na2vs0mg"},{"bike_id":"b84919f5-2a67-42b6-8358-c3ba73182bca","system_id":"levelo_inurba_marseille","lat":43.28073,"lon":5.39647,"is_reserved":false,"is_disabled":false,"rental_uris":{"android":"levelo://app?vid=b84919f5-2a67-42b6-8358-c3ba73182bca","ios":"levelo://app?vid=b84919f5-2a67-42b6-8358-c3ba73182bca"},"vehicle_type_id":"4","last_reported":1731618525,"current_range_meters":38000,"station_id":"ce4bho12rcd13ifvqh2g","pricing_plan_id":"cebpf4jnsgd1na2vs0mg"},{"bike_id":"ac9ff0e2-0c2f-4cb0-8b16-0d7bb3087fdf","system_id":"levelo_inurba_marseille","lat":43.26956,"lon":5.38642,"is_reserved":false,"is_disabled":false,"rental_uris":{"android":"levelo://app?vid=ac9ff0e2-0c2f-4cb0-8b16-0d7bb3087fdf","ios":"levelo://app?vid=ac9ff0e2-0c2f-4cb0-8b16-0d7bb3087fdf"},"vehicle_type_id":"4","last_reported":1731618525,"current_range_meters":38800,"station_id":"ce4bhh92rcd13ifvqfh0","pricing_plan_id":"cebpf4jnsgd1na2vs0mg"},{"bike_id":"89913496-209d-42f3-83b0-621a9e82faa6","system_id":"levelo_inurba_marseille","lat":43.31756,"lon":5.39019,"is_reserved":false,"is_disabled":false,"rental_uris":{"android":"levelo://app?vid=89913496-209d-42f3-83b0-621a9e82faa6","ios":"levelo://app?vid=89913496-209d-42f3-83b0-621a9e82faa6"},"vehicle_type_id":"4","last_reported":1731618525,"current_range_meters":36800,"station_id":"ce4bhqp2rcd13ifvqhng","pricing_plan_id":"cebpf4jnsgd1na2vs0mg"},{"bike_id":"b401526e-9797-412b-a024-2aeff2654ce6","system_id":"levelo_inurba_marseille","lat":43.27934,"lon":5.35488,"is_reserved":false,"is_disabled":false,"rental_uris":{"android":"levelo://app?vid=b401526e-9797-412b-a024-2aeff2654ce6","ios":"levelo://app?vid=b401526e-9797-412b-a024-2aeff2654ce6"},"vehicle_type_id":"4","last_reported":1731618525,"current_range_meters":2800,"station_id":"","pricing_plan_id":"cebpf4jnsgd1na2vs0mg"},{"bike_id":"2c35c49c-dc15-40b0-90c8-c6504305c667","system_id":"levelo_inurba_marseille","lat":43.28732,"lon":5.36077,"is_reserved":false,"is_disabled":false,"rental_uris":{"android":"levelo://app?vid=2c35c49c-dc15-40b0-90c8-c6504305c667","ios":"levelo://app?vid=2c35c49c-dc15-40b0-90c8-c6504305c667"},"vehicle_type_id":"4","last_reported":1731618525,"current_range_meters":31200,"station_id":"cki0cbj6b192h4jlfktg","pricing_plan_id":"cebpf4jnsgd1na2vs0mg"},{"bike_id":"cdce8673-200c-455e-8f7f-c78d0fab3e45","system_id":"levelo_inurba_marseille","lat":43.30323,"lon":5.4044,"is_reserved":false,"is_disabled":false,"rental_uris":{"android":"levelo://app?vid=cdce8673-200c-455e-8f7f-c78d0fab3e45","ios":"levelo://app?vid=cdce8673-200c-455e-8f7f-c78d0fab3e45"},"vehicle_type_id":"4","last_reported":1731618525,"current_range_meters":37600,"station_id":"ce4bh012rcd13ifvqd10","pricing_plan_id":"cebpf4jnsgd1na2vs0mg"},{"bike_id":"81117fe0-1e47-4966-a7e0-0145c8ef9c98","system_id":"levelo_inurba_marseille","lat":43.25858,"lon":5.399,"is_reserved":false,"is_disabled":false,"rental_uris":{"android":"levelo://app?vid=81117fe0-1e47-4966-a7e0-0145c8ef9c98","ios":"levelo://app?vid=81117fe0-1e47-4966-a7e0-0145c8ef9c98"},"vehicle_type_id":"4","last_reported":1731618525,"current_range_meters":6000,"station_id":"ce4bhl92rcd13ifvqghg","pricing_plan_id":"cebpf4jnsgd1na2vs0mg"},{"bike_id":"1cd6853f-ffdd-4358-bc58-45b6b9d8d7be","system_id":"levelo_inurba_marseille","lat":43.28849,"lon":5.35833,"is_reserved":false,"is_disabled":false,"rental_uris":{"android":"levelo://app?vid=1cd6853f-ffdd-4358-bc58-45b6b9d8d7be","ios":"levelo://app?vid=1cd6853f-ffdd-4358-bc58-45b6b9d8d7be"},"vehicle_type_id":"4","last_reported":1731618525,"current_range_meters":38000,"station_id":"ce4bhb12rcd13ifvqem0","pricing_plan_id":"cebpf4jnsgd1na2vs0mg"},{"bike_id":"f3261bfe-54e6-422d-9a80-717eea542e06","system_id":"levelo_inurba_marseille","lat":43.28854,"lon":5.35852,"is_reserved":false,"is_disabled":false,"rental_uris":{"android":"levelo://app?vid=f3261bfe-54e6-422d-9a80-717eea542e06","ios":"levelo://app?vid=f3261bfe-54e6-422d-9a80-717eea542e06"},"vehicle_type_id":"4","last_reported":1731618525,"current_range_meters":24400,"station_id":"ce4bhb12rcd13ifvqem0","pricing_plan_id":"cebpf4jnsgd1na2vs0mg"},{"bike_id":"05fb42e7-b4d9-498f-8ace-2aea46ef664f","system_id":"levelo_inurba_marseille","lat":43.31264,"lon":5.40179,"is_reserved":false,"is_disabled":false,"rental_uris":{"android":"levelo://app?vid=05fb42e7-b4d9-498f-8ace-2aea46ef664f","ios":"levelo://app?vid=05fb42e7-b4d9-498f-8ace-2aea46ef664f"},"vehicle_type_id":"4","last_reported":1731618525,"current_range_meters":38400,"station_id":"ce4bh092rcd13ifvqd30","pricing_plan_id":"cebpf4jnsgd1na2vs0mg"},{"bike_id":"94c1df7f-9573-4b5a-b9cd-8bc2ab009242","system_id":"levelo_inurba_marseille","lat":43.27811,"lon":5.40707,"is_reserved":false,"is_disabled":false,"rental_uris":{"android":"levelo://app?vid=94c1df7f-9573-4b5a-b9cd-8bc2ab009242","ios":"levelo://app?vid=94c1df7f-9573-4b5a-b9cd-8bc2ab009242"},"vehicle_type_id":"4","last_reported":1731618525,"current_range_meters":38800,"station_id":"ce4bhnh2rcd13ifvqgtg","pricing_plan_id":"cebpf4jnsgd1na2vs0mg"},{"bike_id":"f81262a3-c4a2-4466-a803-f2f2fe03c106","system_id":"levelo_inurba_marseille","lat":43.29194,"lon":5.39319,"is_reserved":false,"is_disabled":false,"rental_uris":{"android":"levelo://app?vid=f81262a3-c4a2-4466-a803-f2f2fe03c106","ios":"levelo://app?vid=f81262a3-c4a2-4466-a803-f2f2fe03c106"},"vehicle_type_id":"4","last_reported":1731618525,"current_range_meters":38800,"station_id":"ce4bh192rcd13ifvqdd0","pricing_plan_id":"cebpf4jnsgd1na2vs0mg"},{"bike_id":"efa8c3d1-15b0-406a-a10a-ef5ffefd3156","system_id":"levelo_inurba_marseille","lat":43.28108,"lon":5.37833,"is_reserved":false,"is_disabled":false,"rental_uris":{"android":"levelo://app?vid=efa8c3d1-15b0-406a-a10a-ef5ffefd3156","ios":"levelo://app?vid=efa8c3d1-15b0-406a-a10a-ef5ffefd3156"},"vehicle_type_id":"4","last_reported":1731618525,"current_range_meters":9600,"station_id":"ce4bha12rcd13ifvqee0","pricing_plan_id":"cebpf4jnsgd1na2vs0mg"},{"bike_id":"13ff6f8a-d7bb-4dac-a849-9ae68dc7ca71","system_id":"levelo_inurba_marseille","lat":43.29098,"lon":5.38123,"is_reserved":false,"is_disabled":false,"rental_uris":{"android":"levelo://app?vid=13ff6f8a-d7bb-4dac-a849-9ae68dc7ca71","ios":"levelo://app?vid=13ff6f8a-d7bb-4dac-a849-9ae68dc7ca71"},"vehicle_type_id":"4","last_reported":1731618525,"current_range_meters":33200,"station_id":"ce4bh512rcd13ifvqe2g","pricing_plan_id":"cebpf4jnsgd1na2vs0mg"},{"bike_id":"23566d23-327f-41c5-a8d1-e6438d27626b","system_id":"levelo_inurba_marseille","lat":43.28951,"lon":5.36392,"is_reserved":false,"is_disabled":false,"rental_uris":{"android":"levelo://app?vid=23566d23-327f-41c5-a8d1-e6438d27626b","ios":"levelo://app?vid=23566d23-327f-41c5-a8d1-e6438d27626b"},"vehicle_type_id":"4","last_reported":1731618525,"current_range_meters":36400,"station_id":"ce4bhc92rcd13ifvqetg","pricing_plan_id":"cebpf4jnsgd1na2vs0mg"},{"bike_id":"96a87de2-2230-4da2-b75f-01c5c0e27949","system_id":"levelo_inurba_marseille","lat":43.26212,"lon":5.37434,"is_reserved":false,"is_disabled":false,"rental_uris":{"android":"levelo://app?vid=96a87de2-2230-4da2-b75f-01c5c0e27949","ios":"levelo://app?vid=96a87de2-2230-4da2-b75f-01c5c0e27949"},"vehicle_type_id":"4","last_reported":1731618525,"current_range_meters":35200,"station_id":"ce4bhgp2rcd13ifvqfc0","pricing_plan_id":"cebpf4jnsgd1na2vs0mg"},{"bike_id":"20ad6f38-7a07-45f4-aaad-7d4548448a1a","system_id":"levelo_inurba_marseille","lat":43.30316,"lon":5.36889,"is_reserved":false,"is_disabled":false,"rental_uris":{"android":"levelo://app?vid=20ad6f38-7a07-45f4-aaad-7d4548448a1a","ios":"levelo://app?vid=20ad6f38-7a07-45f4-aaad-7d4548448a1a"},"vehicle_type_id":"4","last_reported":1731618525,"current_range_meters":23200,"station_id":"ce4bgqh2rcd13ifvqc5g","pricing_plan_id":"cebpf4jnsgd1na2vs0mg"},{"bike_id":"653a4563-33db-4194-9bb5-387d16bacd01","system_id":"levelo_inurba_marseille","lat":43.29029,"lon":5.37553,"is_reserved":false,"is_disabled":false,"rental_uris":{"android":"levelo://app?vid=653a4563-33db-4194-9bb5-387d16bacd01","ios":"levelo://app?vid=653a4563-33db-4194-9bb5-387d16bacd01"},"vehicle_type_id":"4","last_reported":1731618525,"current_range_meters":38800,"station_id":"ce4bh692rcd13ifvqe90","pricing_plan_id":"cebpf4jnsgd1na2vs0mg"},{"bike_id":"d06043c7-953a-47cc-9745-46350f673bb8","system_id":"levelo_inurba_marseille","lat":43.301283,"lon":5.398713,"is_reserved":false,"is_disabled":false,"rental_uris":{"android":"levelo://app?vid=d06043c7-953a-47cc-9745-46350f673bb8","ios":"levelo://app?vid=d06043c7-953a-47cc-9745-46350f673bb8"},"vehicle_type_id":"4","last_reported":1731618525,"current_range_meters":38000,"station_id":"ce4bh0h2rcd13ifvqd40","pricing_plan_id":"cebpf4jnsgd1na2vs0mg"},{"bike_id":"167e501f-4cdd-48cd-8ef5-684c0a5dd309","system_id":"levelo_inurba_marseille","lat":43.28461,"lon":5.35892,"is_reserved":false,"is_disabled":false,"rental_uris":{"android":"levelo://app?vid=167e501f-4cdd-48cd-8ef5-684c0a5dd309","ios":"levelo://app?vid=167e501f-4cdd-48cd-8ef5-684c0a5dd309"},"vehicle_type_id":"4","last_reported":1731618525,"current_range_meters":11200,"station_id":"ce4bhah2rcd13ifvqei0","pricing_plan_id":"cebpf4jnsgd1na2vs0mg"},{"bike_id":"9b2b2486-f3ad-43dd-9972-051be7f2ddba","system_id":"levelo_inurba_marseille","lat":43.28152,"lon":5.42638,"is_reserved":false,"is_disabled":false,"rental_uris":{"android":"levelo://app?vid=9b2b2486-f3ad-43dd-9972-051be7f2ddba","ios":"levelo://app?vid=9b2b2486-f3ad-43dd-9972-051be7f2ddba"},"vehicle_type_id":"4","last_reported":1731618525,"current_range_meters":38400,"station_id":"ce4bhnh2rcd13ifvqgug","pricing_plan_id":"cebpf4jnsgd1na2vs0mg"},{"bike_id":"675fe710-f9e5-46cf-95f1-88cbcbaf9606","system_id":"levelo_inurba_marseille","lat":43.28158,"lon":5.4265,"is_reserved":false,"is_disabled":false,"rental_uris":{"android":"levelo://app?vid=675fe710-f9e5-46cf-95f1-88cbcbaf9606","ios":"levelo://app?vid=675fe710-f9e5-46cf-95f1-88cbcbaf9606"},"vehicle_type_id":"4","last_reported":1731618525,"current_range_meters":28400,"station_id":"ce4bhnh2rcd13ifvqgug","pricing_plan_id":"cebpf4jnsgd1na2vs0mg"},{"bike_id":"bb65540a-63bf-482e-ae28-4c05953402e5","system_id":"levelo_inurba_marseille","lat":43.23181,"lon":5.39988,"is_reserved":false,"is_disabled":false,"rental_uris":{"android":"levelo://app?vid=bb65540a-63bf-482e-ae28-4c05953402e5","ios":"levelo://app?vid=bb65540a-63bf-482e-ae28-4c05953402e5"},"vehicle_type_id":"4","last_reported":1731618525,"current_range_meters":8400,"station_id":"ce4bhn12rcd13ifvqgqg","pricing_plan_id":"cebpf4jnsgd1na2vs0mg"},{"bike_id":"df7f14e8-03da-402b-ad76-8e5a3da7bc84","system_id":"levelo_inurba_marseille","lat":43.308838,"lon":5.39658,"is_reserved":false,"is_disabled":false,"rental_uris":{"android":"levelo://app?vid=df7f14e8-03da-402b-ad76-8e5a3da7bc84","ios":"levelo://app?vid=df7f14e8-03da-402b-ad76-8e5a3da7bc84"},"vehicle_type_id":"4","last_reported":1731618525,"current_range_meters":22400,"station_id":"ce4bh012rcd13ifvqcv0","pricing_plan_id":"cebpf4jnsgd1na2vs0mg"},{"bike_id":"a271cbfc-3cc6-4a9e-bc9d-57e735019ddf","system_id":"levelo_inurba_marseille","lat":43.31324,"lon":5.39688,"is_reserved":false,"is_disabled":false,"rental_uris":{"android":"levelo://app?vid=a271cbfc-3cc6-4a9e-bc9d-57e735019ddf","ios":"levelo://app?vid=a271cbfc-3cc6-4a9e-bc9d-57e735019ddf"},"vehicle_type_id":"4","last_reported":1731618525,"current_range_meters":32800,"station_id":"ce4bgvp2rcd13ifvqcu0","pricing_plan_id":"cebpf4jnsgd1na2vs0mg"},{"bike_id":"19403e5b-9388-47f8-803d-8d1235a538c6","system_id":"levelo_inurba_marseille","lat":43.23193,"lon":5.35553,"is_reserved":false,"is_disabled":false,"rental_uris":{"android":"levelo://app?vid=19403e5b-9388-47f8-803d-8d1235a538c6","ios":"levelo://app?vid=19403e5b-9388-47f8-803d-8d1235a538c6"},"vehicle_type_id":"4","last_reported":1731618525,"current_range_meters":40000,"station_id":"ce4bhu92rcd13ifvqi70","pricing_plan_id":"cebpf4jnsgd1na2vs0mg"},{"bike_id":"dff7b9a3-d1f1-446b-94fd-a71bb1847898","system_id":"levelo_inurba_marseille","lat":43.23949,"lon":5.36629,"is_reserved":false,"is_disabled":false,"rental_uris":{"android":"levelo://app?vid=dff7b9a3-d1f1-446b-94fd-a71bb1847898","ios":"levelo://app?vid=dff7b9a3-d1f1-446b-94fd-a71bb1847898"},"vehicle_type_id":"4","last_reported":1731618525,"current_range_meters":39200,"station_id":"ce4bhi12rcd13ifvqfp0","pricing_plan_id":"cebpf4jnsgd1na2vs0mg"},{"bike_id":"e950bf4f-a36a-44c8-99fb-91246952c7ba","system_id":"levelo_inurba_marseille","lat":43.292755,"lon":5.377125,"is_reserved":false,"is_disabled":false,"rental_uris":{"android":"levelo://app?vid=e950bf4f-a36a-44c8-99fb-91246952c7ba","ios":"levelo://app?vid=e950bf4f-a36a-44c8-99fb-91246952c7ba"},"vehicle_type_id":"4","last_reported":1731618525,"current_range_meters":33200,"station_id":"","pricing_plan_id":"cebpf4jnsgd1na2vs0mg"},{"bike_id":"9a8b7443-707a-4209-b2c8-7cb879bc18a4","system_id":"levelo_inurba_marseille","lat":43.23184,"lon":5.39982,"is_reserved":false,"is_disabled":false,"rental_uris":{"android":"levelo://app?vid=9a8b7443-707a-4209-b2c8-7cb879bc18a4","ios":"levelo://app?vid=9a8b7443-707a-4209-b2c8-7cb879bc18a4"},"vehicle_type_id":"4","last_reported":1731618525,"current_range_meters":18800,"station_id":"ce4bhn12rcd13ifvqgqg","pricing_plan_id":"cebpf4jnsgd1na2vs0mg"},{"bike_id":"eb6a4667-f9a5-4a18-86c1-d3298bcb5fa1","system_id":"levelo_inurba_marseille","lat":43.30438,"lon":5.38894,"is_reserved":false,"is_disabled":false,"rental_uris":{"android":"levelo://app?vid=eb6a4667-f9a5-4a18-86c1-d3298bcb5fa1","ios":"levelo://app?vid=eb6a4667-f9a5-4a18-86c1-d3298bcb5fa1"},"vehicle_type_id":"4","last_reported":1731618525,"current_range_meters":38400,"station_id":"ce4bgk12rcd13ifvqbi0","pricing_plan_id":"cebpf4jnsgd1na2vs0mg"},{"bike_id":"e04d5bca-f965-42b3-9012-d39de6367b96","system_id":"levelo_inurba_marseille","lat":43.288556,"lon":5.393184,"is_reserved":false,"is_disabled":false,"rental_uris":{"android":"levelo://app?vid=e04d5bca-f965-42b3-9012-d39de6367b96","ios":"levelo://app?vid=e04d5bca-f965-42b3-9012-d39de6367b96"},"vehicle_type_id":"4","last_reported":1731618525,"current_range_meters":6400,"station_id":"ce4bh2p2rcd13ifvqdi0","pricing_plan_id":"cebpf4jnsgd1na2vs0mg"},{"bike_id":"1bda7f93-5e07-4d55-9634-1c55956005d0","system_id":"levelo_inurba_marseille","lat":43.25868,"lon":5.39899,"is_reserved":false,"is_disabled":false,"rental_uris":{"android":"levelo://app?vid=1bda7f93-5e07-4d55-9634-1c55956005d0","ios":"levelo://app?vid=1bda7f93-5e07-4d55-9634-1c55956005d0"},"vehicle_type_id":"4","last_reported":1731618525,"current_range_meters":39200,"station_id":"ce4bhl92rcd13ifvqghg","pricing_plan_id":"cebpf4jnsgd1na2vs0mg"},{"bike_id":"2e0c23ca-9fe5-4c7d-a9ae-bd7366942622","system_id":"levelo_inurba_marseille","lat":43.279,"lon":5.41221,"is_reserved":false,"is_disabled":false,"rental_uris":{"android":"levelo://app?vid=2e0c23ca-9fe5-4c7d-a9ae-bd7366942622","ios":"levelo://app?vid=2e0c23ca-9fe5-4c7d-a9ae-bd7366942622"},"vehicle_type_id":"4","last_reported":1731618525,"current_range_meters":6000,"station_id":"","pricing_plan_id":"cebpf4jnsgd1na2vs0mg"},{"bike_id":"d99bff46-e3e0-4c25-9719-3fa3dd9a1a6e","system_id":"levelo_inurba_marseille","lat":43.31874,"lon":5.37364,"is_reserved":false,"is_disabled":false,"rental_uris":{"android":"levelo://app?vid=d99bff46-e3e0-4c25-9719-3fa3dd9a1a6e","ios":"levelo://app?vid=d99bff46-e3e0-4c25-9719-3fa3dd9a1a6e"},"vehicle_type_id":"4","last_reported":1731618525,"current_range_meters":22000,"station_id":"","pricing_plan_id":"cebpf4jnsgd1na2vs0mg"},{"bike_id":"e4ad93bf-2bc8-4f9d-aacc-66ec3cab1268","system_id":"levelo_inurba_marseille","lat":43.26954,"lon":5.38634,"is_reserved":false,"is_disabled":false,"rental_uris":{"android":"levelo://app?vid=e4ad93bf-2bc8-4f9d-aacc-66ec3cab1268","ios":"levelo://app?vid=e4ad93bf-2bc8-4f9d-aacc-66ec3cab1268"},"vehicle_type_id":"4","last_reported":1731618525,"current_range_meters":11600,"station_id":"ce4bhh92rcd13ifvqfh0","pricing_plan_id":"cebpf4jnsgd1na2vs0mg"},{"bike_id":"1d74bc52-c8fd-442b-946b-e61aa82e32f3","system_id":"levelo_inurba_marseille","lat":43.28407,"lon":5.37531,"is_reserved":false,"is_disabled":false,"rental_uris":{"android":"levelo://app?vid=1d74bc52-c8fd-442b-946b-e61aa82e32f3","ios":"levelo://app?vid=1d74bc52-c8fd-442b-946b-e61aa82e32f3"},"vehicle_type_id":"4","last_reported":1731618525,"current_range_meters":38800,"station_id":"ce4bh412rcd13ifvqds0","pricing_plan_id":"cebpf4jnsgd1na2vs0mg"},{"bike_id":"4d6402b1-57e5-4b0a-b809-dd29febde586","system_id":"levelo_inurba_marseille","lat":43.31515,"lon":5.36824,"is_reserved":false,"is_disabled":false,"rental_uris":{"android":"levelo://app?vid=4d6402b1-57e5-4b0a-b809-dd29febde586","ios":"levelo://app?vid=4d6402b1-57e5-4b0a-b809-dd29febde586"},"vehicle_type_id":"4","last_reported":1731618525,"current_range_meters":32400,"station_id":"","pricing_plan_id":"cebpf4jnsgd1na2vs0mg"},{"bike_id":"b84e128d-3dd6-4b51-8f66-a42643087a23","system_id":"levelo_inurba_marseille","lat":43.29004,"lon":5.35613,"is_reserved":false,"is_disabled":false,"rental_uris":{"android":"levelo://app?vid=b84e128d-3dd6-4b51-8f66-a42643087a23","ios":"levelo://app?vid=b84e128d-3dd6-4b51-8f66-a42643087a23"},"vehicle_type_id":"4","last_reported":1731618525,"current_range_meters":30000,"station_id":"ce4bhb92rcd13ifvqen0","pricing_plan_id":"cebpf4jnsgd1na2vs0mg"},{"bike_id":"1ce85507-4c6d-46a4-8a00-0c77b288f505","system_id":"levelo_inurba_marseille","lat":43.28357,"lon":5.41539,"is_reserved":false,"is_disabled":false,"rental_uris":{"android":"levelo://app?vid=1ce85507-4c6d-46a4-8a00-0c77b288f505","ios":"levelo://app?vid=1ce85507-4c6d-46a4-8a00-0c77b288f505"},"vehicle_type_id":"4","last_reported":1731618525,"current_range_meters":38000,"station_id":"","pricing_plan_id":"cebpf4jnsgd1na2vs0mg"},{"bike_id":"43654b45-62c1-46ca-8021-6054737f04d5","system_id":"levelo_inurba_marseille","lat":43.29518,"lon":5.39396,"is_reserved":false,"is_disabled":false,"rental_uris":{"android":"levelo://app?vid=43654b45-62c1-46ca-8021-6054737f04d5","ios":"levelo://app?vid=43654b45-62c1-46ca-8021-6054737f04d5"},"vehicle_type_id":"4","last_reported":1731618525,"current_range_meters":38800,"station_id":"ce4bh292rcd13ifvqdf0","pricing_plan_id":"cebpf4jnsgd1na2vs0mg"},{"bike_id":"3f1eab25-bbd0-4519-b2ce-b4566d191542","system_id":"levelo_inurba_marseille","lat":43.2509,"lon":5.3951,"is_reserved":false,"is_disabled":false,"rental_uris":{"android":"levelo://app?vid=3f1eab25-bbd0-4519-b2ce-b4566d191542","ios":"levelo://app?vid=3f1eab25-bbd0-4519-b2ce-b4566d191542"},"vehicle_type_id":"4","last_reported":1731618525,"current_range_meters":38800,"station_id":"ce4bhm12rcd13ifvqgkg","pricing_plan_id":"cebpf4jnsgd1na2vs0mg"},{"bike_id":"b15ad833-99dc-427d-b9bc-2e07a14741f6","system_id":"levelo_inurba_marseille","lat":43.25727,"lon":5.41111,"is_reserved":false,"is_disabled":false,"rental_uris":{"android":"levelo://app?vid=b15ad833-99dc-427d-b9bc-2e07a14741f6","ios":"levelo://app?vid=b15ad833-99dc-427d-b9bc-2e07a14741f6"},"vehicle_type_id":"4","last_reported":1731618525,"current_range_meters":11600,"station_id":"ce4bhkp2rcd13ifvqgd0","pricing_plan_id":"cebpf4jnsgd1na2vs0mg"},{"bike_id":"af5a6896-9be4-46fd-b2fc-5f2fd4c9ab05","system_id":"levelo_inurba_marseille","lat":43.30139,"lon":5.39879,"is_reserved":false,"is_disabled":false,"rental_uris":{"android":"levelo://app?vid=af5a6896-9be4-46fd-b2fc-5f2fd4c9ab05","ios":"levelo://app?vid=af5a6896-9be4-46fd-b2fc-5f2fd4c9ab05"},"vehicle_type_id":"4","last_reported":1731618525,"current_range_meters":20400,"station_id":"ce4bh0h2rcd13ifvqd40","pricing_plan_id":"cebpf4jnsgd1na2vs0mg"},{"bike_id":"d5fd04f5-e2ad-4f3a-adbb-50f7a9a7b804","system_id":"levelo_inurba_marseille","lat":43.30913,"lon":5.36852,"is_reserved":false,"is_disabled":false,"rental_uris":{"android":"levelo://app?vid=d5fd04f5-e2ad-4f3a-adbb-50f7a9a7b804","ios":"levelo://app?vid=d5fd04f5-e2ad-4f3a-adbb-50f7a9a7b804"},"vehicle_type_id":"4","last_reported":1731618525,"current_range_meters":38800,"station_id":"ce4bgn92rcd13ifvqbvg","pricing_plan_id":"cebpf4jnsgd1na2vs0mg"},{"bike_id":"e5bb307a-3df0-48bc-bf15-4b9a012fd2e4","system_id":"levelo_inurba_marseille","lat":43.25726,"lon":5.41107,"is_reserved":false,"is_disabled":false,"rental_uris":{"android":"levelo://app?vid=e5bb307a-3df0-48bc-bf15-4b9a012fd2e4","ios":"levelo://app?vid=e5bb307a-3df0-48bc-bf15-4b9a012fd2e4"},"vehicle_type_id":"4","last_reported":1731618525,"current_range_meters":38000,"station_id":"ce4bhkp2rcd13ifvqgd0","pricing_plan_id":"cebpf4jnsgd1na2vs0mg"},{"bike_id":"b8f91035-b021-405d-9e06-47c03ff95ddd","system_id":"levelo_inurba_marseille","lat":43.2827,"lon":5.35062,"is_reserved":false,"is_disabled":false,"rental_uris":{"android":"levelo://app?vid=b8f91035-b021-405d-9e06-47c03ff95ddd","ios":"levelo://app?vid=b8f91035-b021-405d-9e06-47c03ff95ddd"},"vehicle_type_id":"4","last_reported":1731618525,"current_range_meters":38000,"station_id":"ce4bhbp2rcd13ifvqerg","pricing_plan_id":"cebpf4jnsgd1na2vs0mg"},{"bike_id":"0e5345b4-db26-4fe7-99ed-27459dba76b2","system_id":"levelo_inurba_marseille","lat":43.2953,"lon":5.38532,"is_reserved":false,"is_disabled":false,"rental_uris":{"android":"levelo://app?vid=0e5345b4-db26-4fe7-99ed-27459dba76b2","ios":"levelo://app?vid=0e5345b4-db26-4fe7-99ed-27459dba76b2"},"vehicle_type_id":"4","last_reported":1731618525,"current_range_meters":33600,"station_id":"ce4bgih2rcd13ifvqba0","pricing_plan_id":"cebpf4jnsgd1na2vs0mg"},{"bike_id":"4b6cae71-77bb-4d72-bed4-f023a0624f58","system_id":"levelo_inurba_marseille","lat":43.29533,"lon":5.38536,"is_reserved":false,"is_disabled":false,"rental_uris":{"android":"levelo://app?vid=4b6cae71-77bb-4d72-bed4-f023a0624f58","ios":"levelo://app?vid=4b6cae71-77bb-4d72-bed4-f023a0624f58"},"vehicle_type_id":"4","last_reported":1731618525,"current_range_meters":36400,"station_id":"ce4bgih2rcd13ifvqba0","pricing_plan_id":"cebpf4jnsgd1na2vs0mg"},{"bike_id":"898343a1-2642-491c-a1ab-47e0e0534d2f","system_id":"levelo_inurba_marseille","lat":43.33609,"lon":5.41036,"is_reserved":false,"is_disabled":false,"rental_uris":{"android":"levelo://app?vid=898343a1-2642-491c-a1ab-47e0e0534d2f","ios":"levelo://app?vid=898343a1-2642-491c-a1ab-47e0e0534d2f"},"vehicle_type_id":"4","last_reported":1731618525,"current_range_meters":16400,"station_id":"ce4bhqh2rcd13ifvqhmg","pricing_plan_id":"cebpf4jnsgd1na2vs0mg"},{"bike_id":"7d2acd7b-40b2-430a-8360-5af1c25c3717","system_id":"levelo_inurba_marseille","lat":43.26806,"lon":5.4027,"is_reserved":false,"is_disabled":false,"rental_uris":{"android":"levelo://app?vid=7d2acd7b-40b2-430a-8360-5af1c25c3717","ios":"levelo://app?vid=7d2acd7b-40b2-430a-8360-5af1c25c3717"},"vehicle_type_id":"4","last_reported":1731618525,"current_range_meters":3200,"station_id":"ce501612rcd8frsf0b60","pricing_plan_id":"cebpf4jnsgd1na2vs0mg"},{"bike_id":"dcb0c9d0-3c52-4364-87e7-a5ce6ed44790","system_id":"levelo_inurba_marseille","lat":43.30131,"lon":5.39862,"is_reserved":false,"is_disabled":false,"rental_uris":{"android":"levelo://app?vid=dcb0c9d0-3c52-4364-87e7-a5ce6ed44790","ios":"levelo://app?vid=dcb0c9d0-3c52-4364-87e7-a5ce6ed44790"},"vehicle_type_id":"4","last_reported":1731618525,"current_range_meters":36800,"station_id":"ce4bh0h2rcd13ifvqd40","pricing_plan_id":"cebpf4jnsgd1na2vs0mg"},{"bike_id":"0640b632-6876-4227-9267-eb35ea8d7191","system_id":"levelo_inurba_marseille","lat":43.28457,"lon":5.35883,"is_reserved":false,"is_disabled":false,"rental_uris":{"android":"levelo://app?vid=0640b632-6876-4227-9267-eb35ea8d7191","ios":"levelo://app?vid=0640b632-6876-4227-9267-eb35ea8d7191"},"vehicle_type_id":"4","last_reported":1731618525,"current_range_meters":39200,"station_id":"ce4bhah2rcd13ifvqei0","pricing_plan_id":"cebpf4jnsgd1na2vs0mg"},{"bike_id":"398b47b3-a042-4cec-b1dd-254773a78263","system_id":"levelo_inurba_marseille","lat":43.274093,"lon":5.389546,"is_reserved":false,"is_disabled":false,"rental_uris":{"android":"levelo://app?vid=398b47b3-a042-4cec-b1dd-254773a78263","ios":"levelo://app?vid=398b47b3-a042-4cec-b1dd-254773a78263"},"vehicle_type_id":"4","last_reported":1731618525,"current_range_meters":2800,"station_id":"","pricing_plan_id":"cebpf4jnsgd1na2vs0mg"},{"bike_id":"5bd3ef85-798d-4160-9c90-ce69105aff3a","system_id":"levelo_inurba_marseille","lat":43.24389,"lon":5.37064,"is_reserved":false,"is_disabled":false,"rental_uris":{"android":"levelo://app?vid=5bd3ef85-798d-4160-9c90-ce69105aff3a","ios":"levelo://app?vid=5bd3ef85-798d-4160-9c90-ce69105aff3a"},"vehicle_type_id":"4","last_reported":1731618525,"current_range_meters":38800,"station_id":"ce4bhhh2rcd13ifvqfk0","pricing_plan_id":"cebpf4jnsgd1na2vs0mg"},{"bike_id":"ee26f58e-b8c7-4191-bda2-353090292f42","system_id":"levelo_inurba_marseille","lat":43.31158,"lon":5.38762,"is_reserved":false,"is_disabled":false,"rental_uris":{"android":"levelo://app?vid=ee26f58e-b8c7-4191-bda2-353090292f42","ios":"levelo://app?vid=ee26f58e-b8c7-4191-bda2-353090292f42"},"vehicle_type_id":"4","last_reported":1731618525,"current_range_meters":8000,"station_id":"ce4bgv12rcd13ifvqcp0","pricing_plan_id":"cebpf4jnsgd1na2vs0mg"},{"bike_id":"505f5e1c-57ce-4f8e-9a06-de7fbd926747","system_id":"levelo_inurba_marseille","lat":43.29272,"lon":5.36848,"is_reserved":false,"is_disabled":false,"rental_uris":{"android":"levelo://app?vid=505f5e1c-57ce-4f8e-9a06-de7fbd926747","ios":"levelo://app?vid=505f5e1c-57ce-4f8e-9a06-de7fbd926747"},"vehicle_type_id":"4","last_reported":1731618525,"current_range_meters":11200,"station_id":"ce4bhbp2rcd13ifvqesg","pricing_plan_id":"cebpf4jnsgd1na2vs0mg"},{"bike_id":"92e3ad17-17c9-4714-a148-ef9436ad6113","system_id":"levelo_inurba_marseille","lat":43.22935,"lon":5.3538,"is_reserved":false,"is_disabled":false,"rental_uris":{"android":"levelo://app?vid=92e3ad17-17c9-4714-a148-ef9436ad6113","ios":"levelo://app?vid=92e3ad17-17c9-4714-a148-ef9436ad6113"},"vehicle_type_id":"4","last_reported":1731618525,"current_range_meters":39200,"station_id":"cpo3532slgdg3j2ikp40","pricing_plan_id":"cebpf4jnsgd1na2vs0mg"},{"bike_id":"bf53713f-d2f4-4338-9d57-861fec9e728d","system_id":"levelo_inurba_marseille","lat":43.2885,"lon":5.35863,"is_reserved":false,"is_disabled":false,"rental_uris":{"android":"levelo://app?vid=bf53713f-d2f4-4338-9d57-861fec9e728d","ios":"levelo://app?vid=bf53713f-d2f4-4338-9d57-861fec9e728d"},"vehicle_type_id":"4","last_reported":1731618525,"current_range_meters":14800,"station_id":"ce4bhb12rcd13ifvqem0","pricing_plan_id":"cebpf4jnsgd1na2vs0mg"},{"bike_id":"e5f7351c-ffeb-4a7d-a910-48141a01d704","system_id":"levelo_inurba_marseille","lat":43.30592,"lon":5.39337,"is_reserved":false,"is_disabled":false,"rental_uris":{"android":"levelo://app?vid=e5f7351c-ffeb-4a7d-a910-48141a01d704","ios":"levelo://app?vid=e5f7351c-ffeb-4a7d-a910-48141a01d704"},"vehicle_type_id":"4","last_reported":1731618525,"current_range_meters":37600,"station_id":"ce4bh0p2rcd13ifvqd80","pricing_plan_id":"cebpf4jnsgd1na2vs0mg"},{"bike_id":"5326c5f8-bba7-40e6-bfc7-8e986a3bddf3","system_id":"levelo_inurba_marseille","lat":43.31913,"lon":5.38219,"is_reserved":false,"is_disabled":false,"rental_uris":{"android":"levelo://app?vid=5326c5f8-bba7-40e6-bfc7-8e986a3bddf3","ios":"levelo://app?vid=5326c5f8-bba7-40e6-bfc7-8e986a3bddf3"},"vehicle_type_id":"4","last_reported":1731618525,"current_range_meters":22400,"station_id":"ce4bhr12rcd13ifvqhqg","pricing_plan_id":"cebpf4jnsgd1na2vs0mg"},{"bike_id":"bd04527e-b885-4f79-b93b-0d229327e277","system_id":"levelo_inurba_marseille","lat":43.31071,"lon":5.38341,"is_reserved":false,"is_disabled":false,"rental_uris":{"android":"levelo://app?vid=bd04527e-b885-4f79-b93b-0d229327e277","ios":"levelo://app?vid=bd04527e-b885-4f79-b93b-0d229327e277"},"vehicle_type_id":"4","last_reported":1731618525,"current_range_meters":30800,"station_id":"ce4bgv92rcd13ifvqcr0","pricing_plan_id":"cebpf4jnsgd1na2vs0mg"},{"bike_id":"82f309e6-c4ae-421f-89cb-1d64a8e0ef10","system_id":"levelo_inurba_marseille","lat":43.337444,"lon":5.374475,"is_reserved":false,"is_disabled":false,"rental_uris":{"android":"levelo://app?vid=82f309e6-c4ae-421f-89cb-1d64a8e0ef10","ios":"levelo://app?vid=82f309e6-c4ae-421f-89cb-1d64a8e0ef10"},"vehicle_type_id":"4","last_reported":1731618525,"current_range_meters":31200,"station_id":"","pricing_plan_id":"cebpf4jnsgd1na2vs0mg"},{"bike_id":"ad998524-5cea-4355-99d8-50f015aa8ae5","system_id":"levelo_inurba_marseille","lat":43.31273,"lon":5.40164,"is_reserved":false,"is_disabled":false,"rental_uris":{"android":"levelo://app?vid=ad998524-5cea-4355-99d8-50f015aa8ae5","ios":"levelo://app?vid=ad998524-5cea-4355-99d8-50f015aa8ae5"},"vehicle_type_id":"4","last_reported":1731618525,"current_range_meters":27200,"station_id":"ce4bh092rcd13ifvqd30","pricing_plan_id":"cebpf4jnsgd1na2vs0mg"},{"bike_id":"ceab052d-e8bf-48cb-8e46-2cba85cc785c","system_id":"levelo_inurba_marseille","lat":43.2808,"lon":5.396662,"is_reserved":false,"is_disabled":false,"rental_uris":{"android":"levelo://app?vid=ceab052d-e8bf-48cb-8e46-2cba85cc785c","ios":"levelo://app?vid=ceab052d-e8bf-48cb-8e46-2cba85cc785c"},"vehicle_type_id":"4","last_reported":1731618525,"current_range_meters":25600,"station_id":"ce4bho12rcd13ifvqh2g","pricing_plan_id":"cebpf4jnsgd1na2vs0mg"},{"bike_id":"3798d6cd-bfdb-48b5-9973-ac3e45e98d8a","system_id":"levelo_inurba_marseille","lat":43.27066,"lon":5.42271,"is_reserved":false,"is_disabled":false,"rental_uris":{"android":"levelo://app?vid=3798d6cd-bfdb-48b5-9973-ac3e45e98d8a","ios":"levelo://app?vid=3798d6cd-bfdb-48b5-9973-ac3e45e98d8a"},"vehicle_type_id":"4","last_reported":1731618525,"current_range_meters":38800,"station_id":"ce4bhk92rcd13ifvqgb0","pricing_plan_id":"cebpf4jnsgd1na2vs0mg"},{"bike_id":"1f9cac8b-add6-4980-80f4-c7b5889c4404","system_id":"levelo_inurba_marseille","lat":43.29195,"lon":5.39319,"is_reserved":false,"is_disabled":false,"rental_uris":{"android":"levelo://app?vid=1f9cac8b-add6-4980-80f4-c7b5889c4404","ios":"levelo://app?vid=1f9cac8b-add6-4980-80f4-c7b5889c4404"},"vehicle_type_id":"4","last_reported":1731618525,"current_range_meters":35200,"station_id":"ce4bh192rcd13ifvqdd0","pricing_plan_id":"cebpf4jnsgd1na2vs0mg"},{"bike_id":"31139bd4-9c6d-4100-a744-c1d0ce199198","system_id":"levelo_inurba_marseille","lat":43.31181,"lon":5.38723,"is_reserved":false,"is_disabled":false,"rental_uris":{"android":"levelo://app?vid=31139bd4-9c6d-4100-a744-c1d0ce199198","ios":"levelo://app?vid=31139bd4-9c6d-4100-a744-c1d0ce199198"},"vehicle_type_id":"4","last_reported":1731618525,"current_range_meters":38800,"station_id":"ce4bgv12rcd13ifvqcp0","pricing_plan_id":"cebpf4jnsgd1na2vs0mg"},{"bike_id":"ba7b5cdb-8ada-4a83-9a04-736db6a0de5f","system_id":"levelo_inurba_marseille","lat":43.29026,"lon":5.38646,"is_reserved":false,"is_disabled":false,"rental_uris":{"android":"levelo://app?vid=ba7b5cdb-8ada-4a83-9a04-736db6a0de5f","ios":"levelo://app?vid=ba7b5cdb-8ada-4a83-9a04-736db6a0de5f"},"vehicle_type_id":"4","last_reported":1731618525,"current_range_meters":38400,"station_id":"ce4bh4p2rcd13ifvqe0g","pricing_plan_id":"cebpf4jnsgd1na2vs0mg"},{"bike_id":"e9831758-7fbb-4bb8-92fd-5b32e1ae3ab6","system_id":"levelo_inurba_marseille","lat":43.33026,"lon":5.39051,"is_reserved":false,"is_disabled":false,"rental_uris":{"android":"levelo://app?vid=e9831758-7fbb-4bb8-92fd-5b32e1ae3ab6","ios":"levelo://app?vid=e9831758-7fbb-4bb8-92fd-5b32e1ae3ab6"},"vehicle_type_id":"4","last_reported":1731618525,"current_range_meters":29600,"station_id":"ce4bhr92rcd13ifvqhrg","pricing_plan_id":"cebpf4jnsgd1na2vs0mg"},{"bike_id":"8781d0fe-a968-4075-9453-c800ea4b95d6","system_id":"levelo_inurba_marseille","lat":43.30326,"lon":5.40421,"is_reserved":false,"is_disabled":false,"rental_uris":{"android":"levelo://app?vid=8781d0fe-a968-4075-9453-c800ea4b95d6","ios":"levelo://app?vid=8781d0fe-a968-4075-9453-c800ea4b95d6"},"vehicle_type_id":"4","last_reported":1731618525,"current_range_meters":36800,"station_id":"ce4bh012rcd13ifvqd10","pricing_plan_id":"cebpf4jnsgd1na2vs0mg"},{"bike_id":"d921a7d4-8a54-46fe-846b-cc863d07da44","system_id":"levelo_inurba_marseille","lat":43.28434,"lon":5.37532,"is_reserved":false,"is_disabled":false,"rental_uris":{"android":"levelo://app?vid=d921a7d4-8a54-46fe-846b-cc863d07da44","ios":"levelo://app?vid=d921a7d4-8a54-46fe-846b-cc863d07da44"},"vehicle_type_id":"4","last_reported":1731618525,"current_range_meters":38800,"station_id":"ce4bh412rcd13ifvqds0","pricing_plan_id":"cebpf4jnsgd1na2vs0mg"},{"bike_id":"d4357b6e-382d-42fb-a863-ff7fd5649955","system_id":"levelo_inurba_marseille","lat":43.25002,"lon":5.38924,"is_reserved":false,"is_disabled":false,"rental_uris":{"android":"levelo://app?vid=d4357b6e-382d-42fb-a863-ff7fd5649955","ios":"levelo://app?vid=d4357b6e-382d-42fb-a863-ff7fd5649955"},"vehicle_type_id":"4","last_reported":1731618525,"current_range_meters":38800,"station_id":"ce4bhgp2rcd13ifvqfd0","pricing_plan_id":"cebpf4jnsgd1na2vs0mg"},{"bike_id":"69c21008-ff05-429b-bd6a-c0f73ac87f88","system_id":"levelo_inurba_marseille","lat":43.29666,"lon":5.40197,"is_reserved":false,"is_disabled":false,"rental_uris":{"android":"levelo://app?vid=69c21008-ff05-429b-bd6a-c0f73ac87f88","ios":"levelo://app?vid=69c21008-ff05-429b-bd6a-c0f73ac87f88"},"vehicle_type_id":"4","last_reported":1731618525,"current_range_meters":26000,"station_id":"ce4bh112rcd13ifvqda0","pricing_plan_id":"cebpf4jnsgd1na2vs0mg"},{"bike_id":"7f6746c7-68cf-4c77-b03b-d21cc90e6f13","system_id":"levelo_inurba_marseille","lat":43.27068,"lon":5.42279,"is_reserved":false,"is_disabled":false,"rental_uris":{"android":"levelo://app?vid=7f6746c7-68cf-4c77-b03b-d21cc90e6f13","ios":"levelo://app?vid=7f6746c7-68cf-4c77-b03b-d21cc90e6f13"},"vehicle_type_id":"4","last_reported":1731618525,"current_range_meters":38800,"station_id":"ce4bhk92rcd13ifvqgb0","pricing_plan_id":"cebpf4jnsgd1na2vs0mg"},{"bike_id":"8760087e-46ae-47bc-bdc8-84173d42342d","system_id":"levelo_inurba_marseille","lat":43.29034,"lon":5.35909,"is_reserved":false,"is_disabled":false,"rental_uris":{"android":"levelo://app?vid=8760087e-46ae-47bc-bdc8-84173d42342d","ios":"levelo://app?vid=8760087e-46ae-47bc-bdc8-84173d42342d"},"vehicle_type_id":"4","last_reported":1731618525,"current_range_meters":37600,"station_id":"ce4bha92rcd13ifvqeg0","pricing_plan_id":"cebpf4jnsgd1na2vs0mg"},{"bike_id":"da29062c-3d72-404e-8948-b52b3fdb0a72","system_id":"levelo_inurba_marseille","lat":43.28458,"lon":5.35883,"is_reserved":false,"is_disabled":false,"rental_uris":{"android":"levelo://app?vid=da29062c-3d72-404e-8948-b52b3fdb0a72","ios":"levelo://app?vid=da29062c-3d72-404e-8948-b52b3fdb0a72"},"vehicle_type_id":"4","last_reported":1731618525,"current_range_meters":25200,"station_id":"ce4bhah2rcd13ifvqei0","pricing_plan_id":"cebpf4jnsgd1na2vs0mg"},{"bike_id":"ba82e2b2-71b7-4fd0-ae22-472bef85183f","system_id":"levelo_inurba_marseille","lat":43.29417,"lon":5.38629,"is_reserved":false,"is_disabled":false,"rental_uris":{"android":"levelo://app?vid=ba82e2b2-71b7-4fd0-ae22-472bef85183f","ios":"levelo://app?vid=ba82e2b2-71b7-4fd0-ae22-472bef85183f"},"vehicle_type_id":"4","last_reported":1731618525,"current_range_meters":38800,"station_id":"ce4bh2h2rcd13ifvqdh0","pricing_plan_id":"cebpf4jnsgd1na2vs0mg"},{"bike_id":"46c58da1-7de4-46bf-8d42-923debd69cab","system_id":"levelo_inurba_marseille","lat":43.287057,"lon":5.373907,"is_reserved":false,"is_disabled":false,"rental_uris":{"android":"levelo://app?vid=46c58da1-7de4-46bf-8d42-923debd69cab","ios":"levelo://app?vid=46c58da1-7de4-46bf-8d42-923debd69cab"},"vehicle_type_id":"4","last_reported":1731618525,"current_range_meters":38400,"station_id":"ce4bh3p2rcd13ifvqdq0","pricing_plan_id":"cebpf4jnsgd1na2vs0mg"},{"bike_id":"7eda8e5f-367f-4f3c-944c-a5365b30f0c9","system_id":"levelo_inurba_marseille","lat":43.31532,"lon":5.38025,"is_reserved":false,"is_disabled":false,"rental_uris":{"android":"levelo://app?vid=7eda8e5f-367f-4f3c-944c-a5365b30f0c9","ios":"levelo://app?vid=7eda8e5f-367f-4f3c-944c-a5365b30f0c9"},"vehicle_type_id":"4","last_reported":1731618525,"current_range_meters":39200,"station_id":"ce4bhsp2rcd13ifvqi50","pricing_plan_id":"cebpf4jnsgd1na2vs0mg"},{"bike_id":"d1badb2f-ae8e-4081-9eb6-03a47653d796","system_id":"levelo_inurba_marseille","lat":43.292649,"lon":5.384411,"is_reserved":false,"is_disabled":false,"rental_uris":{"android":"levelo://app?vid=d1badb2f-ae8e-4081-9eb6-03a47653d796","ios":"levelo://app?vid=d1badb2f-ae8e-4081-9eb6-03a47653d796"},"vehicle_type_id":"4","last_reported":1731618525,"current_range_meters":38800,"station_id":"ce4bh692rcd13ifvqea0","pricing_plan_id":"cebpf4jnsgd1na2vs0mg"},{"bike_id":"add6469e-6694-4a2e-bfcd-ec1f32bc46a7","system_id":"levelo_inurba_marseille","lat":43.24653,"lon":5.38895,"is_reserved":false,"is_disabled":false,"rental_uris":{"android":"levelo://app?vid=add6469e-6694-4a2e-bfcd-ec1f32bc46a7","ios":"levelo://app?vid=add6469e-6694-4a2e-bfcd-ec1f32bc46a7"},"vehicle_type_id":"4","last_reported":1731618525,"current_range_meters":38800,"station_id":"ce4bhg12rcd13ifvqf60","pricing_plan_id":"cebpf4jnsgd1na2vs0mg"},{"bike_id":"88a7ec35-1e7e-417d-aed6-a0debbf85756","system_id":"levelo_inurba_marseille","lat":43.291947,"lon":5.393276,"is_reserved":false,"is_disabled":false,"rental_uris":{"android":"levelo://app?vid=88a7ec35-1e7e-417d-aed6-a0debbf85756","ios":"levelo://app?vid=88a7ec35-1e7e-417d-aed6-a0debbf85756"},"vehicle_type_id":"4","last_reported":1731618525,"current_range_meters":38400,"station_id":"ce4bh192rcd13ifvqdd0","pricing_plan_id":"cebpf4jnsgd1na2vs0mg"},{"bike_id":"6dcbb2ce-c695-4325-893f-7eb3313c10e8","system_id":"levelo_inurba_marseille","lat":43.28102,"lon":5.37838,"is_reserved":false,"is_disabled":false,"rental_uris":{"android":"levelo://app?vid=6dcbb2ce-c695-4325-893f-7eb3313c10e8","ios":"levelo://app?vid=6dcbb2ce-c695-4325-893f-7eb3313c10e8"},"vehicle_type_id":"4","last_reported":1731618525,"current_range_meters":38800,"station_id":"ce4bha12rcd13ifvqee0","pricing_plan_id":"cebpf4jnsgd1na2vs0mg"},{"bike_id":"e2b4984c-598d-4f4e-947f-3b8e957f8f99","system_id":"levelo_inurba_marseille","lat":43.30646,"lon":5.40077,"is_reserved":false,"is_disabled":false,"rental_uris":{"android":"levelo://app?vid=e2b4984c-598d-4f4e-947f-3b8e957f8f99","ios":"levelo://app?vid=e2b4984c-598d-4f4e-947f-3b8e957f8f99"},"vehicle_type_id":"4","last_reported":1731618525,"current_range_meters":32400,"station_id":"ce4bh112rcd13ifvqda0","pricing_plan_id":"cebpf4jnsgd1na2vs0mg"},{"bike_id":"bcf71e31-be4e-4033-b7c9-0a4044a34e08","system_id":"levelo_inurba_marseille","lat":43.30134,"lon":5.39875,"is_reserved":false,"is_disabled":false,"rental_uris":{"android":"levelo://app?vid=bcf71e31-be4e-4033-b7c9-0a4044a34e08","ios":"levelo://app?vid=bcf71e31-be4e-4033-b7c9-0a4044a34e08"},"vehicle_type_id":"4","last_reported":1731618525,"current_range_meters":38000,"station_id":"ce4bh0h2rcd13ifvqd40","pricing_plan_id":"cebpf4jnsgd1na2vs0mg"},{"bike_id":"a010b8e3-131a-40ea-be39-ed559dc96b23","system_id":"levelo_inurba_marseille","lat":43.31229,"lon":5.36856,"is_reserved":false,"is_disabled":false,"rental_uris":{"android":"levelo://app?vid=a010b8e3-131a-40ea-be39-ed559dc96b23","ios":"levelo://app?vid=a010b8e3-131a-40ea-be39-ed559dc96b23"},"vehicle_type_id":"4","last_reported":1731618525,"current_range_meters":20000,"station_id":"ce4bgl92rcd13ifvqbq0","pricing_plan_id":"cebpf4jnsgd1na2vs0mg"},{"bike_id":"a32f3da8-cd3b-447c-b91d-1764310a8577","system_id":"levelo_inurba_marseille","lat":43.30801,"lon":5.38151,"is_reserved":false,"is_disabled":false,"rental_uris":{"android":"levelo://app?vid=a32f3da8-cd3b-447c-b91d-1764310a8577","ios":"levelo://app?vid=a32f3da8-cd3b-447c-b91d-1764310a8577"},"vehicle_type_id":"4","last_reported":1731618525,"current_range_meters":38000,"station_id":"ce4bgt12rcd13ifvqce0","pricing_plan_id":"cebpf4jnsgd1na2vs0mg"},{"bike_id":"a87f255f-2815-4f74-b6f2-0c5330b1b1cf","system_id":"levelo_inurba_marseille","lat":43.29027,"lon":5.38647,"is_reserved":false,"is_disabled":false,"rental_uris":{"android":"levelo://app?vid=a87f255f-2815-4f74-b6f2-0c5330b1b1cf","ios":"levelo://app?vid=a87f255f-2815-4f74-b6f2-0c5330b1b1cf"},"vehicle_type_id":"4","last_reported":1731618525,"current_range_meters":15200,"station_id":"ce4bh4p2rcd13ifvqe0g","pricing_plan_id":"cebpf4jnsgd1na2vs0mg"},{"bike_id":"51704817-2877-45ea-ad31-d3fdee0f0146","system_id":"levelo_inurba_marseille","lat":43.2795,"lon":5.41042,"is_reserved":false,"is_disabled":false,"rental_uris":{"android":"levelo://app?vid=51704817-2877-45ea-ad31-d3fdee0f0146","ios":"levelo://app?vid=51704817-2877-45ea-ad31-d3fdee0f0146"},"vehicle_type_id":"4","last_reported":1731618525,"current_range_meters":18000,"station_id":"ce4bhnp2rcd13ifvqh0g","pricing_plan_id":"cebpf4jnsgd1na2vs0mg"},{"bike_id":"a1df99f0-d509-4bc0-bf21-bfa3ffaea986","system_id":"levelo_inurba_marseille","lat":43.29421,"lon":5.38626,"is_reserved":false,"is_disabled":false,"rental_uris":{"android":"levelo://app?vid=a1df99f0-d509-4bc0-bf21-bfa3ffaea986","ios":"levelo://app?vid=a1df99f0-d509-4bc0-bf21-bfa3ffaea986"},"vehicle_type_id":"4","last_reported":1731618525,"current_range_meters":26800,"station_id":"ce4bh2h2rcd13ifvqdh0","pricing_plan_id":"cebpf4jnsgd1na2vs0mg"},{"bike_id":"1d36ec1c-d89d-4bb1-8e0d-ff1c762508b7","system_id":"levelo_inurba_marseille","lat":43.2293,"lon":5.35373,"is_reserved":false,"is_disabled":false,"rental_uris":{"android":"levelo://app?vid=1d36ec1c-d89d-4bb1-8e0d-ff1c762508b7","ios":"levelo://app?vid=1d36ec1c-d89d-4bb1-8e0d-ff1c762508b7"},"vehicle_type_id":"4","last_reported":1731618525,"current_range_meters":12800,"station_id":"cpo3532slgdg3j2ikp40","pricing_plan_id":"cebpf4jnsgd1na2vs0mg"},{"bike_id":"4d604027-b4bc-4b9b-9de0-afb546d8e038","system_id":"levelo_inurba_marseille","lat":43.30145,"lon":5.39876,"is_reserved":false,"is_disabled":false,"rental_uris":{"android":"levelo://app?vid=4d604027-b4bc-4b9b-9de0-afb546d8e038","ios":"levelo://app?vid=4d604027-b4bc-4b9b-9de0-afb546d8e038"},"vehicle_type_id":"4","last_reported":1731618525,"current_range_meters":20400,"station_id":"ce4bh0h2rcd13ifvqd40","pricing_plan_id":"cebpf4jnsgd1na2vs0mg"},{"bike_id":"96982182-a7c7-450e-8433-0ac9d985aed2","system_id":"levelo_inurba_marseille","lat":43.33718,"lon":5.39175,"is_reserved":false,"is_disabled":false,"rental_uris":{"android":"levelo://app?vid=96982182-a7c7-450e-8433-0ac9d985aed2","ios":"levelo://app?vid=96982182-a7c7-450e-8433-0ac9d985aed2"},"vehicle_type_id":"4","last_reported":1731618525,"current_range_meters":38800,"station_id":"ce4bhr92rcd13ifvqhsg","pricing_plan_id":"cebpf4jnsgd1na2vs0mg"},{"bike_id":"37212eb8-cfa6-47ba-9ed7-bfed51287466","system_id":"levelo_inurba_marseille","lat":43.3145,"lon":5.37373,"is_reserved":false,"is_disabled":false,"rental_uris":{"android":"levelo://app?vid=37212eb8-cfa6-47ba-9ed7-bfed51287466","ios":"levelo://app?vid=37212eb8-cfa6-47ba-9ed7-bfed51287466"},"vehicle_type_id":"4","last_reported":1731618525,"current_range_meters":37600,"station_id":"ce4bgt12rcd13ifvqcd0","pricing_plan_id":"cebpf4jnsgd1na2vs0mg"},{"bike_id":"0a7a7ac5-f54c-44af-a6b9-bff324764339","system_id":"levelo_inurba_marseille","lat":43.23056,"lon":5.35494,"is_reserved":false,"is_disabled":false,"rental_uris":{"android":"levelo://app?vid=0a7a7ac5-f54c-44af-a6b9-bff324764339","ios":"levelo://app?vid=0a7a7ac5-f54c-44af-a6b9-bff324764339"},"vehicle_type_id":"4","last_reported":1731618525,"current_range_meters":18800,"station_id":"cpo3342slgdg3j2ifvpg","pricing_plan_id":"cebpf4jnsgd1na2vs0mg"},{"bike_id":"bef7ca68-0ccd-456c-a245-4471193ed987","system_id":"levelo_inurba_marseille","lat":43.26058,"lon":5.3939,"is_reserved":false,"is_disabled":false,"rental_uris":{"android":"levelo://app?vid=bef7ca68-0ccd-456c-a245-4471193ed987","ios":"levelo://app?vid=bef7ca68-0ccd-456c-a245-4471193ed987"},"vehicle_type_id":"4","last_reported":1731618525,"current_range_meters":38800,"station_id":"ce4bhh92rcd13ifvqfj0","pricing_plan_id":"cebpf4jnsgd1na2vs0mg"},{"bike_id":"e59b464e-a305-4d1c-b1e4-379940bba3f3","system_id":"levelo_inurba_marseille","lat":43.31326,"lon":5.39692,"is_reserved":false,"is_disabled":false,"rental_uris":{"android":"levelo://app?vid=e59b464e-a305-4d1c-b1e4-379940bba3f3","ios":"levelo://app?vid=e59b464e-a305-4d1c-b1e4-379940bba3f3"},"vehicle_type_id":"4","last_reported":1731618525,"current_range_meters":16800,"station_id":"ce4bgvp2rcd13ifvqcu0","pricing_plan_id":"cebpf4jnsgd1na2vs0mg"},{"bike_id":"d13fcb32-d8e6-477f-be3d-4bc64066cf1b","system_id":"levelo_inurba_marseille","lat":43.284424,"lon":5.3586,"is_reserved":false,"is_disabled":false,"rental_uris":{"android":"levelo://app?vid=d13fcb32-d8e6-477f-be3d-4bc64066cf1b","ios":"levelo://app?vid=d13fcb32-d8e6-477f-be3d-4bc64066cf1b"},"vehicle_type_id":"4","last_reported":1731618525,"current_range_meters":35600,"station_id":"ce4bhah2rcd13ifvqei0","pricing_plan_id":"cebpf4jnsgd1na2vs0mg"},{"bike_id":"ad3689c7-f80e-4e87-bb45-8b7a3995a15c","system_id":"levelo_inurba_marseille","lat":43.29067,"lon":5.35836,"is_reserved":false,"is_disabled":false,"rental_uris":{"android":"levelo://app?vid=ad3689c7-f80e-4e87-bb45-8b7a3995a15c","ios":"levelo://app?vid=ad3689c7-f80e-4e87-bb45-8b7a3995a15c"},"vehicle_type_id":"4","last_reported":1731618525,"current_range_meters":16400,"station_id":"","pricing_plan_id":"cebpf4jnsgd1na2vs0mg"},{"bike_id":"cf948389-654f-49de-96a9-5976fdbf275a","system_id":"levelo_inurba_marseille","lat":43.30641,"lon":5.40071,"is_reserved":false,"is_disabled":false,"rental_uris":{"android":"levelo://app?vid=cf948389-654f-49de-96a9-5976fdbf275a","ios":"levelo://app?vid=cf948389-654f-49de-96a9-5976fdbf275a"},"vehicle_type_id":"4","last_reported":1731618525,"current_range_meters":28000,"station_id":"ce4bh112rcd13ifvqda0","pricing_plan_id":"cebpf4jnsgd1na2vs0mg"},{"bike_id":"206137e3-505f-4c07-8db9-b4dea21fdc42","system_id":"levelo_inurba_marseille","lat":43.28661,"lon":5.36347,"is_reserved":false,"is_disabled":false,"rental_uris":{"android":"levelo://app?vid=206137e3-505f-4c07-8db9-b4dea21fdc42","ios":"levelo://app?vid=206137e3-505f-4c07-8db9-b4dea21fdc42"},"vehicle_type_id":"4","last_reported":1731618525,"current_range_meters":6000,"station_id":"ce4bhah2rcd13ifvqej0","pricing_plan_id":"cebpf4jnsgd1na2vs0mg"},{"bike_id":"366cfb73-f810-4c90-999d-a691fedac1aa","system_id":"levelo_inurba_marseille","lat":43.24388,"lon":5.3706,"is_reserved":false,"is_disabled":false,"rental_uris":{"android":"levelo://app?vid=366cfb73-f810-4c90-999d-a691fedac1aa","ios":"levelo://app?vid=366cfb73-f810-4c90-999d-a691fedac1aa"},"vehicle_type_id":"4","last_reported":1731618525,"current_range_meters":10800,"station_id":"ce4bhhh2rcd13ifvqfk0","pricing_plan_id":"cebpf4jnsgd1na2vs0mg"},{"bike_id":"ab8b82ac-a2d3-4349-a4c8-4b453589f39e","system_id":"levelo_inurba_marseille","lat":43.31173,"lon":5.38717,"is_reserved":false,"is_disabled":false,"rental_uris":{"android":"levelo://app?vid=ab8b82ac-a2d3-4349-a4c8-4b453589f39e","ios":"levelo://app?vid=ab8b82ac-a2d3-4349-a4c8-4b453589f39e"},"vehicle_type_id":"4","last_reported":1731618525,"current_range_meters":30800,"station_id":"ce4bgv12rcd13ifvqcp0","pricing_plan_id":"cebpf4jnsgd1na2vs0mg"},{"bike_id":"aaec841f-2a7c-4d64-8722-c25c02ca7092","system_id":"levelo_inurba_marseille","lat":43.237883,"lon":5.430566,"is_reserved":false,"is_disabled":false,"rental_uris":{"android":"levelo://app?vid=aaec841f-2a7c-4d64-8722-c25c02ca7092","ios":"levelo://app?vid=aaec841f-2a7c-4d64-8722-c25c02ca7092"},"vehicle_type_id":"4","last_reported":1731618525,"current_range_meters":36400,"station_id":"","pricing_plan_id":"cebpf4jnsgd1na2vs0mg"},{"bike_id":"d8d9769c-5795-43ab-a6b5-351abc0ce424","system_id":"levelo_inurba_marseille","lat":43.30928,"lon":5.40137,"is_reserved":false,"is_disabled":false,"rental_uris":{"android":"levelo://app?vid=d8d9769c-5795-43ab-a6b5-351abc0ce424","ios":"levelo://app?vid=d8d9769c-5795-43ab-a6b5-351abc0ce424"},"vehicle_type_id":"4","last_reported":1731618525,"current_range_meters":40000,"station_id":"ce4bgvp2rcd13ifvqct0","pricing_plan_id":"cebpf4jnsgd1na2vs0mg"},{"bike_id":"6d757fef-4f26-43f9-ac2c-ffab39bf7dae","system_id":"levelo_inurba_marseille","lat":43.32249,"lon":5.36901,"is_reserved":false,"is_disabled":false,"rental_uris":{"android":"levelo://app?vid=6d757fef-4f26-43f9-ac2c-ffab39bf7dae","ios":"levelo://app?vid=6d757fef-4f26-43f9-ac2c-ffab39bf7dae"},"vehicle_type_id":"4","last_reported":1731618525,"current_range_meters":27200,"station_id":"","pricing_plan_id":"cebpf4jnsgd1na2vs0mg"},{"bike_id":"5472ae20-beb3-4230-a71f-39ee5e6f6d72","system_id":"levelo_inurba_marseille","lat":43.29533,"lon":5.38532,"is_reserved":false,"is_disabled":false,"rental_uris":{"android":"levelo://app?vid=5472ae20-beb3-4230-a71f-39ee5e6f6d72","ios":"levelo://app?vid=5472ae20-beb3-4230-a71f-39ee5e6f6d72"},"vehicle_type_id":"4","last_reported":1731618525,"current_range_meters":33200,"station_id":"ce4bgih2rcd13ifvqba0","pricing_plan_id":"cebpf4jnsgd1na2vs0mg"},{"bike_id":"2a31f2bc-57dd-44bd-869b-c3d3cff81b80","system_id":"levelo_inurba_marseille","lat":43.31894,"lon":5.40727,"is_reserved":false,"is_disabled":false,"rental_uris":{"android":"levelo://app?vid=2a31f2bc-57dd-44bd-869b-c3d3cff81b80","ios":"levelo://app?vid=2a31f2bc-57dd-44bd-869b-c3d3cff81b80"},"vehicle_type_id":"4","last_reported":1731618525,"current_range_meters":33200,"station_id":"ce4bhq12rcd13ifvqhig","pricing_plan_id":"cebpf4jnsgd1na2vs0mg"},{"bike_id":"1d1a7f5a-51c3-4ca6-977d-08ae61ab858a","system_id":"levelo_inurba_marseille","lat":43.28371,"lon":5.38635,"is_reserved":false,"is_disabled":false,"rental_uris":{"android":"levelo://app?vid=1d1a7f5a-51c3-4ca6-977d-08ae61ab858a","ios":"levelo://app?vid=1d1a7f5a-51c3-4ca6-977d-08ae61ab858a"},"vehicle_type_id":"4","last_reported":1731618525,"current_range_meters":18000,"station_id":"ce4bh492rcd13ifvqdvg","pricing_plan_id":"cebpf4jnsgd1na2vs0mg"},{"bike_id":"625e1693-e210-4796-9ba4-a89bb9e5236c","system_id":"levelo_inurba_marseille","lat":43.287257,"lon":5.360845,"is_reserved":false,"is_disabled":false,"rental_uris":{"android":"levelo://app?vid=625e1693-e210-4796-9ba4-a89bb9e5236c","ios":"levelo://app?vid=625e1693-e210-4796-9ba4-a89bb9e5236c"},"vehicle_type_id":"4","last_reported":1731618525,"current_range_meters":39200,"station_id":"cki0cbj6b192h4jlfktg","pricing_plan_id":"cebpf4jnsgd1na2vs0mg"},{"bike_id":"acb69000-2b46-4ec7-80e1-5ef5e1d7e823","system_id":"levelo_inurba_marseille","lat":43.29714,"lon":5.36612,"is_reserved":false,"is_disabled":false,"rental_uris":{"android":"levelo://app?vid=acb69000-2b46-4ec7-80e1-5ef5e1d7e823","ios":"levelo://app?vid=acb69000-2b46-4ec7-80e1-5ef5e1d7e823"},"vehicle_type_id":"4","last_reported":1731618525,"current_range_meters":36000,"station_id":"ce4bgn12rcd13ifvqbt0","pricing_plan_id":"cebpf4jnsgd1na2vs0mg"},{"bike_id":"96f00704-076d-458c-a56b-a84bca77613b","system_id":"levelo_inurba_marseille","lat":43.261982,"lon":5.379359,"is_reserved":false,"is_disabled":false,"rental_uris":{"android":"levelo://app?vid=96f00704-076d-458c-a56b-a84bca77613b","ios":"levelo://app?vid=96f00704-076d-458c-a56b-a84bca77613b"},"vehicle_type_id":"4","last_reported":1731618525,"current_range_meters":37600,"station_id":"ce4bhjp2rcd13ifvqg90","pricing_plan_id":"cebpf4jnsgd1na2vs0mg"},{"bike_id":"ce90b18b-010e-4bc8-bafb-48c2b750ba3a","system_id":"levelo_inurba_marseille","lat":43.30221,"lon":5.39474,"is_reserved":false,"is_disabled":false,"rental_uris":{"android":"levelo://app?vid=ce90b18b-010e-4bc8-bafb-48c2b750ba3a","ios":"levelo://app?vid=ce90b18b-010e-4bc8-bafb-48c2b750ba3a"},"vehicle_type_id":"4","last_reported":1731618525,"current_range_meters":33200,"station_id":"ce4bh0p2rcd13ifvqd70","pricing_plan_id":"cebpf4jnsgd1na2vs0mg"},{"bike_id":"7bf5468b-6945-4b2f-81b0-76ccc61a46a2","system_id":"levelo_inurba_marseille","lat":43.293793,"lon":5.401503,"is_reserved":false,"is_disabled":false,"rental_uris":{"android":"levelo://app?vid=7bf5468b-6945-4b2f-81b0-76ccc61a46a2","ios":"levelo://app?vid=7bf5468b-6945-4b2f-81b0-76ccc61a46a2"},"vehicle_type_id":"4","last_reported":1731618525,"current_range_meters":21600,"station_id":"ce4bh012rcd13ifvqcv0","pricing_plan_id":"cebpf4jnsgd1na2vs0mg"},{"bike_id":"2618fc41-306d-4dc9-b15a-a465c719c14a","system_id":"levelo_inurba_marseille","lat":43.29537,"lon":5.39034,"is_reserved":false,"is_disabled":false,"rental_uris":{"android":"levelo://app?vid=2618fc41-306d-4dc9-b15a-a465c719c14a","ios":"levelo://app?vid=2618fc41-306d-4dc9-b15a-a465c719c14a"},"vehicle_type_id":"4","last_reported":1731618525,"current_range_meters":38800,"station_id":"ce4bh3p2rcd13ifvqdp0","pricing_plan_id":"cebpf4jnsgd1na2vs0mg"},{"bike_id":"779ce6e1-e11f-4f1a-b144-e31fdcd83726","system_id":"levelo_inurba_marseille","lat":43.32659,"lon":5.40991,"is_reserved":false,"is_disabled":false,"rental_uris":{"android":"levelo://app?vid=779ce6e1-e11f-4f1a-b144-e31fdcd83726","ios":"levelo://app?vid=779ce6e1-e11f-4f1a-b144-e31fdcd83726"},"vehicle_type_id":"4","last_reported":1731618525,"current_range_meters":37600,"station_id":"ce4bhpp2rcd13ifvqhgg","pricing_plan_id":"cebpf4jnsgd1na2vs0mg"},{"bike_id":"ce193cbf-7319-45e9-9e0d-dc0685ba2ca5","system_id":"levelo_inurba_marseille","lat":43.29304,"lon":5.37164,"is_reserved":false,"is_disabled":false,"rental_uris":{"android":"levelo://app?vid=ce193cbf-7319-45e9-9e0d-dc0685ba2ca5","ios":"levelo://app?vid=ce193cbf-7319-45e9-9e0d-dc0685ba2ca5"},"vehicle_type_id":"4","last_reported":1731618525,"current_range_meters":35200,"station_id":"ce4bgh92rcd13ifvqb40","pricing_plan_id":"cebpf4jnsgd1na2vs0mg"},{"bike_id":"25166272-a2e4-426f-8bd1-827ffbe55e39","system_id":"levelo_inurba_marseille","lat":43.31331,"lon":5.39697,"is_reserved":false,"is_disabled":false,"rental_uris":{"android":"levelo://app?vid=25166272-a2e4-426f-8bd1-827ffbe55e39","ios":"levelo://app?vid=25166272-a2e4-426f-8bd1-827ffbe55e39"},"vehicle_type_id":"4","last_reported":1731618525,"current_range_meters":20800,"station_id":"ce4bgvp2rcd13ifvqcu0","pricing_plan_id":"cebpf4jnsgd1na2vs0mg"},{"bike_id":"2ba01715-3170-4a7e-ae00-4a8868ac1042","system_id":"levelo_inurba_marseille","lat":43.25088,"lon":5.39512,"is_reserved":false,"is_disabled":false,"rental_uris":{"android":"levelo://app?vid=2ba01715-3170-4a7e-ae00-4a8868ac1042","ios":"levelo://app?vid=2ba01715-3170-4a7e-ae00-4a8868ac1042"},"vehicle_type_id":"4","last_reported":1731618525,"current_range_meters":27600,"station_id":"ce4bhm12rcd13ifvqgkg","pricing_plan_id":"cebpf4jnsgd1na2vs0mg"},{"bike_id":"a5bcaa3e-e10e-4588-be0d-c322f181b4e4","system_id":"levelo_inurba_marseille","lat":43.24674,"lon":5.38165,"is_reserved":false,"is_disabled":false,"rental_uris":{"android":"levelo://app?vid=a5bcaa3e-e10e-4588-be0d-c322f181b4e4","ios":"levelo://app?vid=a5bcaa3e-e10e-4588-be0d-c322f181b4e4"},"vehicle_type_id":"4","last_reported":1731618525,"current_range_meters":38800,"station_id":"ce4bhih2rcd13ifvqfr0","pricing_plan_id":"cebpf4jnsgd1na2vs0mg"},{"bike_id":"5bb144cb-e241-49d6-a28d-9d74e48d78b6","system_id":"levelo_inurba_marseille","lat":43.30214,"lon":5.40053,"is_reserved":false,"is_disabled":false,"rental_uris":{"android":"levelo://app?vid=5bb144cb-e241-49d6-a28d-9d74e48d78b6","ios":"levelo://app?vid=5bb144cb-e241-49d6-a28d-9d74e48d78b6"},"vehicle_type_id":"4","last_reported":1731618525,"current_range_meters":3200,"station_id":"","pricing_plan_id":"cebpf4jnsgd1na2vs0mg"},{"bike_id":"af72970a-4890-4594-ae7c-b099dce2e887","system_id":"levelo_inurba_marseille","lat":43.336073,"lon":5.410361,"is_reserved":false,"is_disabled":false,"rental_uris":{"android":"levelo://app?vid=af72970a-4890-4594-ae7c-b099dce2e887","ios":"levelo://app?vid=af72970a-4890-4594-ae7c-b099dce2e887"},"vehicle_type_id":"4","last_reported":1731618525,"current_range_meters":25200,"station_id":"ce4bhqh2rcd13ifvqhmg","pricing_plan_id":"cebpf4jnsgd1na2vs0mg"},{"bike_id":"359db04f-5d69-43c1-b38e-4defe71ed94d","system_id":"levelo_inurba_marseille","lat":43.25863,"lon":5.39899,"is_reserved":false,"is_disabled":false,"rental_uris":{"android":"levelo://app?vid=359db04f-5d69-43c1-b38e-4defe71ed94d","ios":"levelo://app?vid=359db04f-5d69-43c1-b38e-4defe71ed94d"},"vehicle_type_id":"4","last_reported":1731618525,"current_range_meters":38800,"station_id":"ce4bhl92rcd13ifvqghg","pricing_plan_id":"cebpf4jnsgd1na2vs0mg"},{"bike_id":"8bc76c09-4f0d-4aef-a8c7-bab1b9b4ba71","system_id":"levelo_inurba_marseille","lat":43.27968,"lon":5.38707,"is_reserved":false,"is_disabled":false,"rental_uris":{"android":"levelo://app?vid=8bc76c09-4f0d-4aef-a8c7-bab1b9b4ba71","ios":"levelo://app?vid=8bc76c09-4f0d-4aef-a8c7-bab1b9b4ba71"},"vehicle_type_id":"4","last_reported":1731618525,"current_range_meters":38000,"station_id":"ce4bhg12rcd13ifvqf80","pricing_plan_id":"cebpf4jnsgd1na2vs0mg"},{"bike_id":"3af5230d-21db-48d0-8884-9610ea6ca601","system_id":"levelo_inurba_marseille","lat":43.3089,"lon":5.39645,"is_reserved":false,"is_disabled":false,"rental_uris":{"android":"levelo://app?vid=3af5230d-21db-48d0-8884-9610ea6ca601","ios":"levelo://app?vid=3af5230d-21db-48d0-8884-9610ea6ca601"},"vehicle_type_id":"4","last_reported":1731618525,"current_range_meters":35200,"station_id":"ce4bh012rcd13ifvqcv0","pricing_plan_id":"cebpf4jnsgd1na2vs0mg"},{"bike_id":"7bab346f-0ff3-4797-85a8-c7d0baef4046","system_id":"levelo_inurba_marseille","lat":43.31887,"lon":5.40745,"is_reserved":false,"is_disabled":false,"rental_uris":{"android":"levelo://app?vid=7bab346f-0ff3-4797-85a8-c7d0baef4046","ios":"levelo://app?vid=7bab346f-0ff3-4797-85a8-c7d0baef4046"},"vehicle_type_id":"4","last_reported":1731618525,"current_range_meters":34000,"station_id":"ce4bhq12rcd13ifvqhig","pricing_plan_id":"cebpf4jnsgd1na2vs0mg"},{"bike_id":"895cd789-fa58-4d7a-af0f-4219b1817d05","system_id":"levelo_inurba_marseille","lat":43.31688,"lon":5.40478,"is_reserved":false,"is_disabled":false,"rental_uris":{"android":"levelo://app?vid=895cd789-fa58-4d7a-af0f-4219b1817d05","ios":"levelo://app?vid=895cd789-fa58-4d7a-af0f-4219b1817d05"},"vehicle_type_id":"4","last_reported":1731618525,"current_range_meters":38000,"station_id":"ce4bh012rcd13ifvqd00","pricing_plan_id":"cebpf4jnsgd1na2vs0mg"},{"bike_id":"a4c0b782-d654-44e3-bf31-ac507e118897","system_id":"levelo_inurba_marseille","lat":43.29049,"lon":5.35914,"is_reserved":false,"is_disabled":false,"rental_uris":{"android":"levelo://app?vid=a4c0b782-d654-44e3-bf31-ac507e118897","ios":"levelo://app?vid=a4c0b782-d654-44e3-bf31-ac507e118897"},"vehicle_type_id":"4","last_reported":1731618525,"current_range_meters":24800,"station_id":"ce4bha92rcd13ifvqeg0","pricing_plan_id":"cebpf4jnsgd1na2vs0mg"},{"bike_id":"ad9e5643-959a-4636-935c-2a6093955f09","system_id":"levelo_inurba_marseille","lat":43.26201,"lon":5.37924,"is_reserved":false,"is_disabled":false,"rental_uris":{"android":"levelo://app?vid=ad9e5643-959a-4636-935c-2a6093955f09","ios":"levelo://app?vid=ad9e5643-959a-4636-935c-2a6093955f09"},"vehicle_type_id":"4","last_reported":1731618525,"current_range_meters":39200,"station_id":"ce4bhjp2rcd13ifvqg90","pricing_plan_id":"cebpf4jnsgd1na2vs0mg"},{"bike_id":"6290061e-7002-4bed-8242-03e0a269a134","system_id":"levelo_inurba_marseille","lat":43.303248,"lon":5.404392,"is_reserved":false,"is_disabled":false,"rental_uris":{"android":"levelo://app?vid=6290061e-7002-4bed-8242-03e0a269a134","ios":"levelo://app?vid=6290061e-7002-4bed-8242-03e0a269a134"},"vehicle_type_id":"4","last_reported":1731618525,"current_range_meters":27200,"station_id":"ce4bh012rcd13ifvqd10","pricing_plan_id":"cebpf4jnsgd1na2vs0mg"},{"bike_id":"021ab24c-2a0d-440d-8e09-9e35589bcbc7","system_id":"levelo_inurba_marseille","lat":43.28007,"lon":5.40002,"is_reserved":false,"is_disabled":false,"rental_uris":{"android":"levelo://app?vid=021ab24c-2a0d-440d-8e09-9e35589bcbc7","ios":"levelo://app?vid=021ab24c-2a0d-440d-8e09-9e35589bcbc7"},"vehicle_type_id":"4","last_reported":1731618525,"current_range_meters":38400,"station_id":"ce4bho92rcd13ifvqh4g","pricing_plan_id":"cebpf4jnsgd1na2vs0mg"},{"bike_id":"6f45bdb5-bfdc-40f2-a38c-f51a93e95c83","system_id":"levelo_inurba_marseille","lat":43.25825,"lon":5.3943,"is_reserved":false,"is_disabled":false,"rental_uris":{"android":"levelo://app?vid=6f45bdb5-bfdc-40f2-a38c-f51a93e95c83","ios":"levelo://app?vid=6f45bdb5-bfdc-40f2-a38c-f51a93e95c83"},"vehicle_type_id":"4","last_reported":1731618525,"current_range_meters":8800,"station_id":"ce4bhip2rcd13ifvqft0","pricing_plan_id":"cebpf4jnsgd1na2vs0mg"},{"bike_id":"2db46c00-d305-49fb-9f59-368dd8a841d1","system_id":"levelo_inurba_marseille","lat":43.28455,"lon":5.3589,"is_reserved":false,"is_disabled":false,"rental_uris":{"android":"levelo://app?vid=2db46c00-d305-49fb-9f59-368dd8a841d1","ios":"levelo://app?vid=2db46c00-d305-49fb-9f59-368dd8a841d1"},"vehicle_type_id":"4","last_reported":1731618525,"current_range_meters":38800,"station_id":"ce4bhah2rcd13ifvqei0","pricing_plan_id":"cebpf4jnsgd1na2vs0mg"},{"bike_id":"d619945b-19cf-4150-a322-5a4f380569e5","system_id":"levelo_inurba_marseille","lat":43.30419,"lon":5.41275,"is_reserved":false,"is_disabled":false,"rental_uris":{"android":"levelo://app?vid=d619945b-19cf-4150-a322-5a4f380569e5","ios":"levelo://app?vid=d619945b-19cf-4150-a322-5a4f380569e5"},"vehicle_type_id":"4","last_reported":1731618525,"current_range_meters":18800,"station_id":"ce4bhop2rcd13ifvqh8g","pricing_plan_id":"cebpf4jnsgd1na2vs0mg"},{"bike_id":"8e12737c-b68e-4dc9-a8c9-536f660541a7","system_id":"levelo_inurba_marseille","lat":43.28459,"lon":5.35891,"is_reserved":false,"is_disabled":false,"rental_uris":{"android":"levelo://app?vid=8e12737c-b68e-4dc9-a8c9-536f660541a7","ios":"levelo://app?vid=8e12737c-b68e-4dc9-a8c9-536f660541a7"},"vehicle_type_id":"4","last_reported":1731618525,"current_range_meters":19200,"station_id":"ce4bhah2rcd13ifvqei0","pricing_plan_id":"cebpf4jnsgd1na2vs0mg"},{"bike_id":"37f52798-cde3-4570-a5d2-b0908bfd3884","system_id":"levelo_inurba_marseille","lat":43.25084,"lon":5.39513,"is_reserved":false,"is_disabled":false,"rental_uris":{"android":"levelo://app?vid=37f52798-cde3-4570-a5d2-b0908bfd3884","ios":"levelo://app?vid=37f52798-cde3-4570-a5d2-b0908bfd3884"},"vehicle_type_id":"4","last_reported":1731618525,"current_range_meters":23200,"station_id":"ce4bhm12rcd13ifvqgkg","pricing_plan_id":"cebpf4jnsgd1na2vs0mg"},{"bike_id":"8c487dea-72dd-45c8-9a79-720151b0d48b","system_id":"levelo_inurba_marseille","lat":43.31069,"lon":5.38355,"is_reserved":false,"is_disabled":false,"rental_uris":{"android":"levelo://app?vid=8c487dea-72dd-45c8-9a79-720151b0d48b","ios":"levelo://app?vid=8c487dea-72dd-45c8-9a79-720151b0d48b"},"vehicle_type_id":"4","last_reported":1731618525,"current_range_meters":22400,"station_id":"ce4bgv92rcd13ifvqcr0","pricing_plan_id":"cebpf4jnsgd1na2vs0mg"},{"bike_id":"67acd962-61fe-4c41-93b6-69cf808e27bd","system_id":"levelo_inurba_marseille","lat":43.31999,"lon":5.3814,"is_reserved":false,"is_disabled":false,"rental_uris":{"android":"levelo://app?vid=67acd962-61fe-4c41-93b6-69cf808e27bd","ios":"levelo://app?vid=67acd962-61fe-4c41-93b6-69cf808e27bd"},"vehicle_type_id":"4","last_reported":1731618525,"current_range_meters":22800,"station_id":"ce4bhr12rcd13ifvqhpg","pricing_plan_id":"cebpf4jnsgd1na2vs0mg"},{"bike_id":"3801d79e-aba9-453c-9e83-33f3550a7c41","system_id":"levelo_inurba_marseille","lat":43.24388,"lon":5.37059,"is_reserved":false,"is_disabled":false,"rental_uris":{"android":"levelo://app?vid=3801d79e-aba9-453c-9e83-33f3550a7c41","ios":"levelo://app?vid=3801d79e-aba9-453c-9e83-33f3550a7c41"},"vehicle_type_id":"4","last_reported":1731618525,"current_range_meters":38800,"station_id":"ce4bhhh2rcd13ifvqfk0","pricing_plan_id":"cebpf4jnsgd1na2vs0mg"},{"bike_id":"ae392e5f-25ce-4d0e-9ce3-1e2a8bf46846","system_id":"levelo_inurba_marseille","lat":43.27807,"lon":5.4071,"is_reserved":false,"is_disabled":false,"rental_uris":{"android":"levelo://app?vid=ae392e5f-25ce-4d0e-9ce3-1e2a8bf46846","ios":"levelo://app?vid=ae392e5f-25ce-4d0e-9ce3-1e2a8bf46846"},"vehicle_type_id":"4","last_reported":1731618525,"current_range_meters":29600,"station_id":"ce4bhnh2rcd13ifvqgtg","pricing_plan_id":"cebpf4jnsgd1na2vs0mg"},{"bike_id":"cb467d32-bc70-4425-a9b2-6a02a10bdeec","system_id":"levelo_inurba_marseille","lat":43.291,"lon":5.38149,"is_reserved":false,"is_disabled":false,"rental_uris":{"android":"levelo://app?vid=cb467d32-bc70-4425-a9b2-6a02a10bdeec","ios":"levelo://app?vid=cb467d32-bc70-4425-a9b2-6a02a10bdeec"},"vehicle_type_id":"4","last_reported":1731618525,"current_range_meters":38400,"station_id":"ce4bh512rcd13ifvqe2g","pricing_plan_id":"cebpf4jnsgd1na2vs0mg"},{"bike_id":"af9cb82e-69ea-432a-90dc-068fecce9fe2","system_id":"levelo_inurba_marseille","lat":43.2873,"lon":5.36088,"is_reserved":false,"is_disabled":false,"rental_uris":{"android":"levelo://app?vid=af9cb82e-69ea-432a-90dc-068fecce9fe2","ios":"levelo://app?vid=af9cb82e-69ea-432a-90dc-068fecce9fe2"},"vehicle_type_id":"4","last_reported":1731618525,"current_range_meters":21600,"station_id":"cki0cbj6b192h4jlfktg","pricing_plan_id":"cebpf4jnsgd1na2vs0mg"},{"bike_id":"06a8209f-64d3-46bd-83d2-483209754eff","system_id":"levelo_inurba_marseille","lat":43.24181,"lon":5.39728,"is_reserved":false,"is_disabled":false,"rental_uris":{"android":"levelo://app?vid=06a8209f-64d3-46bd-83d2-483209754eff","ios":"levelo://app?vid=06a8209f-64d3-46bd-83d2-483209754eff"},"vehicle_type_id":"4","last_reported":1731618525,"current_range_meters":6800,"station_id":"ce4bhn12rcd13ifvqgpg","pricing_plan_id":"cebpf4jnsgd1na2vs0mg"},{"bike_id":"1311c692-6e9d-4afb-b7b0-20686564fe7a","system_id":"levelo_inurba_marseille","lat":43.337444,"lon":5.374475,"is_reserved":false,"is_disabled":false,"rental_uris":{"android":"levelo://app?vid=1311c692-6e9d-4afb-b7b0-20686564fe7a","ios":"levelo://app?vid=1311c692-6e9d-4afb-b7b0-20686564fe7a"},"vehicle_type_id":"4","last_reported":1731618525,"current_range_meters":31200,"station_id":"","pricing_plan_id":"cebpf4jnsgd1na2vs0mg"},{"bike_id":"db1e028f-e002-4d9e-8869-9e460843a241","system_id":"levelo_inurba_marseille","lat":43.30319,"lon":5.40437,"is_reserved":false,"is_disabled":false,"rental_uris":{"android":"levelo://app?vid=db1e028f-e002-4d9e-8869-9e460843a241","ios":"levelo://app?vid=db1e028f-e002-4d9e-8869-9e460843a241"},"vehicle_type_id":"4","last_reported":1731618525,"current_range_meters":38000,"station_id":"ce4bh012rcd13ifvqd10","pricing_plan_id":"cebpf4jnsgd1na2vs0mg"},{"bike_id":"db79510e-58e6-4d69-a4d0-b02a58fdb1f1","system_id":"levelo_inurba_marseille","lat":43.23959,"lon":5.36626,"is_reserved":false,"is_disabled":false,"rental_uris":{"android":"levelo://app?vid=db79510e-58e6-4d69-a4d0-b02a58fdb1f1","ios":"levelo://app?vid=db79510e-58e6-4d69-a4d0-b02a58fdb1f1"},"vehicle_type_id":"4","last_reported":1731618525,"current_range_meters":36000,"station_id":"ce4bhi12rcd13ifvqfp0","pricing_plan_id":"cebpf4jnsgd1na2vs0mg"},{"bike_id":"8d13e64c-7f0f-4560-b24d-661a6be9882c","system_id":"levelo_inurba_marseille","lat":43.29269,"lon":5.38443,"is_reserved":false,"is_disabled":false,"rental_uris":{"android":"levelo://app?vid=8d13e64c-7f0f-4560-b24d-661a6be9882c","ios":"levelo://app?vid=8d13e64c-7f0f-4560-b24d-661a6be9882c"},"vehicle_type_id":"4","last_reported":1731618525,"current_range_meters":12800,"station_id":"ce4bh692rcd13ifvqea0","pricing_plan_id":"cebpf4jnsgd1na2vs0mg"},{"bike_id":"70d20d8f-1109-4c5b-86e9-c9e4cb8476ac","system_id":"levelo_inurba_marseille","lat":43.29867,"lon":5.397293,"is_reserved":false,"is_disabled":false,"rental_uris":{"android":"levelo://app?vid=70d20d8f-1109-4c5b-86e9-c9e4cb8476ac","ios":"levelo://app?vid=70d20d8f-1109-4c5b-86e9-c9e4cb8476ac"},"vehicle_type_id":"4","last_reported":1731618525,"current_range_meters":20800,"station_id":"ce4bh0h2rcd13ifvqd50","pricing_plan_id":"cebpf4jnsgd1na2vs0mg"},{"bike_id":"f6e63c56-e76b-4e7f-9c35-ff272f3e7c44","system_id":"levelo_inurba_marseille","lat":43.27811,"lon":5.40711,"is_reserved":false,"is_disabled":false,"rental_uris":{"android":"levelo://app?vid=f6e63c56-e76b-4e7f-9c35-ff272f3e7c44","ios":"levelo://app?vid=f6e63c56-e76b-4e7f-9c35-ff272f3e7c44"},"vehicle_type_id":"4","last_reported":1731618525,"current_range_meters":39200,"station_id":"ce4bhnh2rcd13ifvqgtg","pricing_plan_id":"cebpf4jnsgd1na2vs0mg"},{"bike_id":"89a4f3a7-f5e2-48e0-bc38-fa0b2051d76a","system_id":"levelo_inurba_marseille","lat":43.31223,"lon":5.36871,"is_reserved":false,"is_disabled":false,"rental_uris":{"android":"levelo://app?vid=89a4f3a7-f5e2-48e0-bc38-fa0b2051d76a","ios":"levelo://app?vid=89a4f3a7-f5e2-48e0-bc38-fa0b2051d76a"},"vehicle_type_id":"4","last_reported":1731618525,"current_range_meters":14800,"station_id":"ce4bgl92rcd13ifvqbq0","pricing_plan_id":"cebpf4jnsgd1na2vs0mg"},{"bike_id":"1db7e47b-80a0-46fa-b3dc-cc5c159bde15","system_id":"levelo_inurba_marseille","lat":43.31079,"lon":5.42433,"is_reserved":false,"is_disabled":false,"rental_uris":{"android":"levelo://app?vid=1db7e47b-80a0-46fa-b3dc-cc5c159bde15","ios":"levelo://app?vid=1db7e47b-80a0-46fa-b3dc-cc5c159bde15"},"vehicle_type_id":"4","last_reported":1731618525,"current_range_meters":25600,"station_id":"ce4bhp92rcd13ifvqhag","pricing_plan_id":"cebpf4jnsgd1na2vs0mg"},{"bike_id":"962548b5-1fdc-41b9-aacc-aaec643779c6","system_id":"levelo_inurba_marseille","lat":43.28102,"lon":5.3784,"is_reserved":false,"is_disabled":false,"rental_uris":{"android":"levelo://app?vid=962548b5-1fdc-41b9-aacc-aaec643779c6","ios":"levelo://app?vid=962548b5-1fdc-41b9-aacc-aaec643779c6"},"vehicle_type_id":"4","last_reported":1731618525,"current_range_meters":8000,"station_id":"ce4bha12rcd13ifvqee0","pricing_plan_id":"cebpf4jnsgd1na2vs0mg"},{"bike_id":"30f9f541-c7c4-4250-86c9-c4943d6cda80","system_id":"levelo_inurba_marseille","lat":43.30547,"lon":5.38415,"is_reserved":false,"is_disabled":false,"rental_uris":{"android":"levelo://app?vid=30f9f541-c7c4-4250-86c9-c4943d6cda80","ios":"levelo://app?vid=30f9f541-c7c4-4250-86c9-c4943d6cda80"},"vehicle_type_id":"4","last_reported":1731618525,"current_range_meters":28400,"station_id":"ce4bgg92rcd13ifvqb30","pricing_plan_id":"cebpf4jnsgd1na2vs0mg"},{"bike_id":"a6b8c285-acc9-4039-9531-1aae39136a33","system_id":"levelo_inurba_marseille","lat":43.312042,"lon":5.367348,"is_reserved":false,"is_disabled":false,"rental_uris":{"android":"levelo://app?vid=a6b8c285-acc9-4039-9531-1aae39136a33","ios":"levelo://app?vid=a6b8c285-acc9-4039-9531-1aae39136a33"},"vehicle_type_id":"4","last_reported":1731618525,"current_range_meters":22400,"station_id":"","pricing_plan_id":"cebpf4jnsgd1na2vs0mg"},{"bike_id":"969fc660-e18c-47b7-beed-36ead3f43ca6","system_id":"levelo_inurba_marseille","lat":43.28455,"lon":5.35894,"is_reserved":false,"is_disabled":false,"rental_uris":{"android":"levelo://app?vid=969fc660-e18c-47b7-beed-36ead3f43ca6","ios":"levelo://app?vid=969fc660-e18c-47b7-beed-36ead3f43ca6"},"vehicle_type_id":"4","last_reported":1731618525,"current_range_meters":19200,"station_id":"ce4bhah2rcd13ifvqei0","pricing_plan_id":"cebpf4jnsgd1na2vs0mg"},{"bike_id":"c5d0194e-34c9-4d5b-9425-62c78e5d0cfb","system_id":"levelo_inurba_marseille","lat":43.24179,"lon":5.39729,"is_reserved":false,"is_disabled":false,"rental_uris":{"android":"levelo://app?vid=c5d0194e-34c9-4d5b-9425-62c78e5d0cfb","ios":"levelo://app?vid=c5d0194e-34c9-4d5b-9425-62c78e5d0cfb"},"vehicle_type_id":"4","last_reported":1731618525,"current_range_meters":8000,"station_id":"ce4bhn12rcd13ifvqgpg","pricing_plan_id":"cebpf4jnsgd1na2vs0mg"},{"bike_id":"31e215c2-7dd6-45e6-9b1e-64fa63bf89c1","system_id":"levelo_inurba_marseille","lat":43.2509,"lon":5.39506,"is_reserved":false,"is_disabled":false,"rental_uris":{"android":"levelo://app?vid=31e215c2-7dd6-45e6-9b1e-64fa63bf89c1","ios":"levelo://app?vid=31e215c2-7dd6-45e6-9b1e-64fa63bf89c1"},"vehicle_type_id":"4","last_reported":1731618525,"current_range_meters":4800,"station_id":"ce4bhm12rcd13ifvqgkg","pricing_plan_id":"cebpf4jnsgd1na2vs0mg"},{"bike_id":"3c4efd2f-3952-4f43-bc5f-5c06153b1ebb","system_id":"levelo_inurba_marseille","lat":43.30325,"lon":5.4043,"is_reserved":false,"is_disabled":false,"rental_uris":{"android":"levelo://app?vid=3c4efd2f-3952-4f43-bc5f-5c06153b1ebb","ios":"levelo://app?vid=3c4efd2f-3952-4f43-bc5f-5c06153b1ebb"},"vehicle_type_id":"4","last_reported":1731618525,"current_range_meters":19200,"station_id":"ce4bh012rcd13ifvqd10","pricing_plan_id":"cebpf4jnsgd1na2vs0mg"},{"bike_id":"b9916238-6860-4e40-a31b-eb86b789d0e1","system_id":"levelo_inurba_marseille","lat":43.24175,"lon":5.39729,"is_reserved":false,"is_disabled":false,"rental_uris":{"android":"levelo://app?vid=b9916238-6860-4e40-a31b-eb86b789d0e1","ios":"levelo://app?vid=b9916238-6860-4e40-a31b-eb86b789d0e1"},"vehicle_type_id":"4","last_reported":1731618525,"current_range_meters":30000,"station_id":"ce4bhn12rcd13ifvqgpg","pricing_plan_id":"cebpf4jnsgd1na2vs0mg"},{"bike_id":"d9e1dd85-c394-4dd3-9340-e027e6a5fde3","system_id":"levelo_inurba_marseille","lat":43.27997,"lon":5.40007,"is_reserved":false,"is_disabled":false,"rental_uris":{"android":"levelo://app?vid=d9e1dd85-c394-4dd3-9340-e027e6a5fde3","ios":"levelo://app?vid=d9e1dd85-c394-4dd3-9340-e027e6a5fde3"},"vehicle_type_id":"4","last_reported":1731618525,"current_range_meters":38800,"station_id":"ce4bho92rcd13ifvqh4g","pricing_plan_id":"cebpf4jnsgd1na2vs0mg"},{"bike_id":"acc809af-0a7f-4184-ba91-1cb6045af284","system_id":"levelo_inurba_marseille","lat":43.29453,"lon":5.3975,"is_reserved":false,"is_disabled":false,"rental_uris":{"android":"levelo://app?vid=acc809af-0a7f-4184-ba91-1cb6045af284","ios":"levelo://app?vid=acc809af-0a7f-4184-ba91-1cb6045af284"},"vehicle_type_id":"4","last_reported":1731618525,"current_range_meters":38000,"station_id":"ce4bh3h2rcd13ifvqdo0","pricing_plan_id":"cebpf4jnsgd1na2vs0mg"},{"bike_id":"aa6b97fe-c3f6-4c62-8938-86970424cd5a","system_id":"levelo_inurba_marseille","lat":43.28105,"lon":5.37832,"is_reserved":false,"is_disabled":false,"rental_uris":{"android":"levelo://app?vid=aa6b97fe-c3f6-4c62-8938-86970424cd5a","ios":"levelo://app?vid=aa6b97fe-c3f6-4c62-8938-86970424cd5a"},"vehicle_type_id":"4","last_reported":1731618525,"current_range_meters":28400,"station_id":"ce4bha12rcd13ifvqee0","pricing_plan_id":"cebpf4jnsgd1na2vs0mg"},{"bike_id":"547226dd-20a9-4ce2-bce9-f11f7fb07377","system_id":"levelo_inurba_marseille","lat":43.30551,"lon":5.38438,"is_reserved":false,"is_disabled":false,"rental_uris":{"android":"levelo://app?vid=547226dd-20a9-4ce2-bce9-f11f7fb07377","ios":"levelo://app?vid=547226dd-20a9-4ce2-bce9-f11f7fb07377"},"vehicle_type_id":"4","last_reported":1731618525,"current_range_meters":29600,"station_id":"ce4bgg92rcd13ifvqb30","pricing_plan_id":"cebpf4jnsgd1na2vs0mg"},{"bike_id":"1ae8fe75-00ad-479b-a755-74d45d76bfbe","system_id":"levelo_inurba_marseille","lat":43.24171,"lon":5.36405,"is_reserved":false,"is_disabled":false,"rental_uris":{"android":"levelo://app?vid=1ae8fe75-00ad-479b-a755-74d45d76bfbe","ios":"levelo://app?vid=1ae8fe75-00ad-479b-a755-74d45d76bfbe"},"vehicle_type_id":"4","last_reported":1731618525,"current_range_meters":16400,"station_id":"cpo36qri1sfpv3e86is0","pricing_plan_id":"cebpf4jnsgd1na2vs0mg"},{"bike_id":"3f518df0-4e56-4830-bee8-54f4ac0b257e","system_id":"levelo_inurba_marseille","lat":43.3094,"lon":5.40142,"is_reserved":false,"is_disabled":false,"rental_uris":{"android":"levelo://app?vid=3f518df0-4e56-4830-bee8-54f4ac0b257e","ios":"levelo://app?vid=3f518df0-4e56-4830-bee8-54f4ac0b257e"},"vehicle_type_id":"4","last_reported":1731618525,"current_range_meters":28800,"station_id":"ce4bgvp2rcd13ifvqct0","pricing_plan_id":"cebpf4jnsgd1na2vs0mg"},{"bike_id":"92ac4858-87d6-4ceb-8f6e-004635a816a8","system_id":"levelo_inurba_marseille","lat":43.27788,"lon":5.40733,"is_reserved":false,"is_disabled":false,"rental_uris":{"android":"levelo://app?vid=92ac4858-87d6-4ceb-8f6e-004635a816a8","ios":"levelo://app?vid=92ac4858-87d6-4ceb-8f6e-004635a816a8"},"vehicle_type_id":"4","last_reported":1731618525,"current_range_meters":38800,"station_id":"ce4bhnh2rcd13ifvqgtg","pricing_plan_id":"cebpf4jnsgd1na2vs0mg"},{"bike_id":"2ced9380-2bb8-42f2-9c61-94ee116cfefc","system_id":"levelo_inurba_marseille","lat":43.29532,"lon":5.38542,"is_reserved":false,"is_disabled":false,"rental_uris":{"android":"levelo://app?vid=2ced9380-2bb8-42f2-9c61-94ee116cfefc","ios":"levelo://app?vid=2ced9380-2bb8-42f2-9c61-94ee116cfefc"},"vehicle_type_id":"4","last_reported":1731618525,"current_range_meters":13600,"station_id":"ce4bgih2rcd13ifvqba0","pricing_plan_id":"cebpf4jnsgd1na2vs0mg"},{"bike_id":"44281496-ebb0-475b-9830-51a1115552ab","system_id":"levelo_inurba_marseille","lat":43.28407,"lon":5.37519,"is_reserved":false,"is_disabled":false,"rental_uris":{"android":"levelo://app?vid=44281496-ebb0-475b-9830-51a1115552ab","ios":"levelo://app?vid=44281496-ebb0-475b-9830-51a1115552ab"},"vehicle_type_id":"4","last_reported":1731618525,"current_range_meters":17200,"station_id":"ce4bh412rcd13ifvqds0","pricing_plan_id":"cebpf4jnsgd1na2vs0mg"},{"bike_id":"fd955059-3c0c-4437-8b08-3e7051f4fde1","system_id":"levelo_inurba_marseille","lat":43.29602,"lon":5.38105,"is_reserved":false,"is_disabled":false,"rental_uris":{"android":"levelo://app?vid=fd955059-3c0c-4437-8b08-3e7051f4fde1","ios":"levelo://app?vid=fd955059-3c0c-4437-8b08-3e7051f4fde1"},"vehicle_type_id":"4","last_reported":1731618525,"current_range_meters":37600,"station_id":"ce4bgl12rcd13ifvqbo0","pricing_plan_id":"cebpf4jnsgd1na2vs0mg"},{"bike_id":"6dabee6b-9697-405c-b023-e92ec27f5086","system_id":"levelo_inurba_marseille","lat":43.29509,"lon":5.375029,"is_reserved":false,"is_disabled":false,"rental_uris":{"android":"levelo://app?vid=6dabee6b-9697-405c-b023-e92ec27f5086","ios":"levelo://app?vid=6dabee6b-9697-405c-b023-e92ec27f5086"},"vehicle_type_id":"4","last_reported":1731618525,"current_range_meters":12400,"station_id":"ce4bgkp2rcd13ifvqbmg","pricing_plan_id":"cebpf4jnsgd1na2vs0mg"},{"bike_id":"16c431de-b128-4380-a727-8a0a0eba5b1b","system_id":"levelo_inurba_marseille","lat":43.24386,"lon":5.37061,"is_reserved":false,"is_disabled":false,"rental_uris":{"android":"levelo://app?vid=16c431de-b128-4380-a727-8a0a0eba5b1b","ios":"levelo://app?vid=16c431de-b128-4380-a727-8a0a0eba5b1b"},"vehicle_type_id":"4","last_reported":1731618525,"current_range_meters":38800,"station_id":"ce4bhhh2rcd13ifvqfk0","pricing_plan_id":"cebpf4jnsgd1na2vs0mg"},{"bike_id":"956a9899-dcc9-4a12-bdd9-128c1f17d6e0","system_id":"levelo_inurba_marseille","lat":43.28978,"lon":5.37849,"is_reserved":false,"is_disabled":false,"rental_uris":{"android":"levelo://app?vid=956a9899-dcc9-4a12-bdd9-128c1f17d6e0","ios":"levelo://app?vid=956a9899-dcc9-4a12-bdd9-128c1f17d6e0"},"vehicle_type_id":"4","last_reported":1731618525,"current_range_meters":38800,"station_id":"ce4bh9p2rcd13ifvqed0","pricing_plan_id":"cebpf4jnsgd1na2vs0mg"},{"bike_id":"2c898585-1a29-4c85-a4aa-ce0ad034b9fb","system_id":"levelo_inurba_marseille","lat":43.279494,"lon":5.41046,"is_reserved":false,"is_disabled":false,"rental_uris":{"android":"levelo://app?vid=2c898585-1a29-4c85-a4aa-ce0ad034b9fb","ios":"levelo://app?vid=2c898585-1a29-4c85-a4aa-ce0ad034b9fb"},"vehicle_type_id":"4","last_reported":1731618525,"current_range_meters":8000,"station_id":"ce4bhnp2rcd13ifvqh0g","pricing_plan_id":"cebpf4jnsgd1na2vs0mg"},{"bike_id":"89b008d7-a688-4b2b-bb1b-6499fee8f750","system_id":"levelo_inurba_marseille","lat":43.30701,"lon":5.37326,"is_reserved":false,"is_disabled":false,"rental_uris":{"android":"levelo://app?vid=89b008d7-a688-4b2b-bb1b-6499fee8f750","ios":"levelo://app?vid=89b008d7-a688-4b2b-bb1b-6499fee8f750"},"vehicle_type_id":"4","last_reported":1731618525,"current_range_meters":8000,"station_id":"","pricing_plan_id":"cebpf4jnsgd1na2vs0mg"},{"bike_id":"674b0e8f-8c9e-4c11-a204-160fb5dcf762","system_id":"levelo_inurba_marseille","lat":43.2439,"lon":5.37054,"is_reserved":false,"is_disabled":false,"rental_uris":{"android":"levelo://app?vid=674b0e8f-8c9e-4c11-a204-160fb5dcf762","ios":"levelo://app?vid=674b0e8f-8c9e-4c11-a204-160fb5dcf762"},"vehicle_type_id":"4","last_reported":1731618525,"current_range_meters":38800,"station_id":"ce4bhhh2rcd13ifvqfk0","pricing_plan_id":"cebpf4jnsgd1na2vs0mg"},{"bike_id":"36b01d1a-4efb-4e4d-9b60-4aa545b3ea27","system_id":"levelo_inurba_marseille","lat":43.3044,"lon":5.38887,"is_reserved":false,"is_disabled":false,"rental_uris":{"android":"levelo://app?vid=36b01d1a-4efb-4e4d-9b60-4aa545b3ea27","ios":"levelo://app?vid=36b01d1a-4efb-4e4d-9b60-4aa545b3ea27"},"vehicle_type_id":"4","last_reported":1731618525,"current_range_meters":38800,"station_id":"ce4bgk12rcd13ifvqbi0","pricing_plan_id":"cebpf4jnsgd1na2vs0mg"},{"bike_id":"276f060c-e6b0-4f98-9514-8f4417eb81d0","system_id":"levelo_inurba_marseille","lat":43.2909,"lon":5.38123,"is_reserved":false,"is_disabled":false,"rental_uris":{"android":"levelo://app?vid=276f060c-e6b0-4f98-9514-8f4417eb81d0","ios":"levelo://app?vid=276f060c-e6b0-4f98-9514-8f4417eb81d0"},"vehicle_type_id":"4","last_reported":1731618525,"current_range_meters":39200,"station_id":"ce4bh512rcd13ifvqe2g","pricing_plan_id":"cebpf4jnsgd1na2vs0mg"},{"bike_id":"0f433459-e074-4293-bfa5-3b5b113abeb1","system_id":"levelo_inurba_marseille","lat":43.33726,"lon":5.39182,"is_reserved":false,"is_disabled":false,"rental_uris":{"android":"levelo://app?vid=0f433459-e074-4293-bfa5-3b5b113abeb1","ios":"levelo://app?vid=0f433459-e074-4293-bfa5-3b5b113abeb1"},"vehicle_type_id":"4","last_reported":1731618525,"current_range_meters":38800,"station_id":"ce4bhr92rcd13ifvqhsg","pricing_plan_id":"cebpf4jnsgd1na2vs0mg"},{"bike_id":"d3396ec9-e42a-4d45-a366-d11a3c8f0a7f","system_id":"levelo_inurba_marseille","lat":43.2794,"lon":5.41045,"is_reserved":false,"is_disabled":false,"rental_uris":{"android":"levelo://app?vid=d3396ec9-e42a-4d45-a366-d11a3c8f0a7f","ios":"levelo://app?vid=d3396ec9-e42a-4d45-a366-d11a3c8f0a7f"},"vehicle_type_id":"4","last_reported":1731618525,"current_range_meters":21600,"station_id":"ce4bhnp2rcd13ifvqh0g","pricing_plan_id":"cebpf4jnsgd1na2vs0mg"},{"bike_id":"4450c5a5-ff88-4049-b0b9-9b6e7345f128","system_id":"levelo_inurba_marseille","lat":43.24546,"lon":5.3952,"is_reserved":false,"is_disabled":false,"rental_uris":{"android":"levelo://app?vid=4450c5a5-ff88-4049-b0b9-9b6e7345f128","ios":"levelo://app?vid=4450c5a5-ff88-4049-b0b9-9b6e7345f128"},"vehicle_type_id":"4","last_reported":1731618525,"current_range_meters":38000,"station_id":"ce4bhlp2rcd13ifvqgjg","pricing_plan_id":"cebpf4jnsgd1na2vs0mg"},{"bike_id":"16eab57e-1302-4f75-8821-c3e034ea98ff","system_id":"levelo_inurba_marseille","lat":43.30802,"lon":5.4352,"is_reserved":false,"is_disabled":false,"rental_uris":{"android":"levelo://app?vid=16eab57e-1302-4f75-8821-c3e034ea98ff","ios":"levelo://app?vid=16eab57e-1302-4f75-8821-c3e034ea98ff"},"vehicle_type_id":"4","last_reported":1731618525,"current_range_meters":32800,"station_id":"ce4bhph2rcd13ifvqheg","pricing_plan_id":"cebpf4jnsgd1na2vs0mg"},{"bike_id":"2886128d-fbbb-438c-87be-d5561cf18777","system_id":"levelo_inurba_marseille","lat":43.31323,"lon":5.39695,"is_reserved":false,"is_disabled":false,"rental_uris":{"android":"levelo://app?vid=2886128d-fbbb-438c-87be-d5561cf18777","ios":"levelo://app?vid=2886128d-fbbb-438c-87be-d5561cf18777"},"vehicle_type_id":"4","last_reported":1731618525,"current_range_meters":38800,"station_id":"ce4bgvp2rcd13ifvqcu0","pricing_plan_id":"cebpf4jnsgd1na2vs0mg"},{"bike_id":"96674bee-af63-4238-a3aa-64395f1ee328","system_id":"levelo_inurba_marseille","lat":43.2803,"lon":5.36943,"is_reserved":false,"is_disabled":false,"rental_uris":{"android":"levelo://app?vid=96674bee-af63-4238-a3aa-64395f1ee328","ios":"levelo://app?vid=96674bee-af63-4238-a3aa-64395f1ee328"},"vehicle_type_id":"4","last_reported":1731618525,"current_range_meters":25200,"station_id":"ce4bha12rcd13ifvqef0","pricing_plan_id":"cebpf4jnsgd1na2vs0mg"},{"bike_id":"72ae4ee8-dbd3-40c4-892b-4491699dc29d","system_id":"levelo_inurba_marseille","lat":43.31708,"lon":5.37754,"is_reserved":false,"is_disabled":false,"rental_uris":{"android":"levelo://app?vid=72ae4ee8-dbd3-40c4-892b-4491699dc29d","ios":"levelo://app?vid=72ae4ee8-dbd3-40c4-892b-4491699dc29d"},"vehicle_type_id":"4","last_reported":1731618525,"current_range_meters":37600,"station_id":"ce4bgth2rcd13ifvqch0","pricing_plan_id":"cebpf4jnsgd1na2vs0mg"},{"bike_id":"be49b76f-029a-47f9-bb53-d792b241f780","system_id":"levelo_inurba_marseille","lat":43.28727,"lon":5.36082,"is_reserved":false,"is_disabled":false,"rental_uris":{"android":"levelo://app?vid=be49b76f-029a-47f9-bb53-d792b241f780","ios":"levelo://app?vid=be49b76f-029a-47f9-bb53-d792b241f780"},"vehicle_type_id":"4","last_reported":1731618525,"current_range_meters":30000,"station_id":"cki0cbj6b192h4jlfktg","pricing_plan_id":"cebpf4jnsgd1na2vs0mg"},