{"last_updated":1721236037,"ttl":30,"version":"2.2","data":{"bikes":[{"bike_id":"eba54173-b86a-42b2-bdbd-d8d09c55ae3f","system_id":"levelo_inurba_marseille","lat":43.31251,"lon":5.36793,"is_reserved":false,"is_disabled":false,"rental_uris":{"android":"levelo://app?vid=eba54173-b86a-42b2-bdbd-d8d09c55ae3f","ios":"levelo://app?vid=eba54173-b86a-42b2-bdbd-d8d09c55ae3f"},"vehicle_type_id":"4","last_reported":1721236037,"current_range_meters":0,"station_id":"","pricing_plan_id":"cebpf4jnsgd1na2vs0mg"},{"bike_id":"1696aeee-31e0-4b35-9a4a-ecddf2097809","system_id":"levelo_inurba_marseille","lat":43.30959,"lon":5.36849,"is_reserved":false,"is_disabled":false,"rental_uris":{"android":"levelo://app?vid=1696aeee-31e0-4b35-9a4a-ecddf2097809","ios":"levelo://app?vid=1696aeee-31e0-4b35-9a4a-ecddf2097809"},"vehicle_type_id":"4","last_reported":1721236037,"current_range_meters":0,"station_id":"","pricing_plan_id":"cebpf4jnsgd1na2vs0mg"},{"bike_id":"11c6da8a-615a-42fd-bb09-e422a786421e","system_id":"levelo_inurba_marseille","lat":43.314811,"lon":5.373103,"is_reserved":false,"is_disabled":false,"rental_uris":{"android":"levelo://app?vid=11c6da8a-615a-42fd-bb09-e422a786421e","ios":"levelo://app?vid=11c6da8a-615a-42fd-bb09-e422a786421e"},"vehicle_type_id":"4","last_reported":1721236037,"current_range_meters":12000,"station_id":"ce4bgt12rcd13ifvqcd0","pricing_plan_id":"cebpf4jnsgd1na2vs0mg"},{"bike_id":"6a6ff610-04f9-4d11-8adc-96aaa4f25de1","system_id":"levelo_inurba_marseille","lat":43.305706,"lon":5.365654,"is_reserved":false,"is_disabled":false,"rental_uris":{"android":"levelo://app?vid=6a6ff610-04f9-4d11-8adc-96aaa4f25de1","ios":"levelo://app?vid=6a6ff610-04f9-4d11-8adc-96aaa4f25de1"},"vehicle_type_id":"4","last_reported":1721236037,"current_range_meters":10000,"station_id":"ce4bgs12rcd13ifvqcag","pricing_plan_id":"cebpf4jnsgd1na2vs0mg"},{"bike_id":"e901f8cb-f5c4-4313-8dc9-98084d6212c7","system_id":"levelo_inurba_marseille","lat":43.305706,"lon":5.365654,"is_reserved":false,"is_disabled":false,"rental_uris":{"android":"levelo://app?vid=e901f8cb-f5c4-4313-8dc9-98084d6212c7","ios":"levelo://app?vid=e901f8cb-f5c4-4313-8dc9-98084d6212c7"},"vehicle_type_id":"4","last_reported":1721236037,"current_range_meters":24400,"station_id":"ce4bgs12rcd13ifvqcag","pricing_plan_id":"cebpf4jnsgd1na2vs0mg"},{"bike_id":"b9f08bb1-1687-4d56-8c6d-00dc98173851","system_id":"levelo_inurba_marseille","lat":43.305714,"lon":5.365633,"is_reserved":false,"is_disabled":false,"rental_uris":{"android":"levelo://app?vid=b9f08bb1-1687-4d56-8c6d-00dc98173851","ios":"levelo://app?vid=b9f08bb1-1687-4d56-8c6d-00dc98173851"},"vehicle_type_id":"4","last_reported":1721236037,"current_range_meters":6000,"station_id":"ce4bgs12rcd13ifvqcag","pricing_plan_id":"cebpf4jnsgd1na2vs0mg"},{"bike_id":"2aa2d9f1-2867-49a0-a659-c37914464d23","system_id":"levelo_inurba_marseille","lat":43.305989,"lon":5.37225,"is_reserved":false,"is_disabled":false,"rental_uris":{"android":"levelo://app?vid=2aa2d9f1-2867-49a0-a659-c37914464d23","ios":"levelo://app?vid=2aa2d9f1-2867-49a0-a659-c37914464d23"},"vehicle_type_id":"4","last_reported":1721236037,"current_range_meters":0,"station_id":"ce4bgqh2rcd13ifvqc4g","pricing_plan_id":"cebpf4jnsgd1na2vs0mg"},{"bike_id":"bdab1d25-54e9-48f0-b7a7-d454c2a77a76","system_id":"levelo_inurba_marseille","lat":43.3191,"lon":5.373293,"is_reserved":false,"is_disabled":false,"rental_uris":{"android":"levelo://app?vid=bdab1d25-54e9-48f0-b7a7-d454c2a77a76","ios":"levelo://app?vid=bdab1d25-54e9-48f0-b7a7-d454c2a77a76"},"vehicle_type_id":"4","last_reported":1721236037,"current_range_meters":11600,"station_id":"","pricing_plan_id":"cebpf4jnsgd1na2vs0mg"},{"bike_id":"7c92a134-a85f-4f48-abc3-4cd138a98531","system_id":"levelo_inurba_marseille","lat":43.311131,"lon":5.377651,"is_reserved":false,"is_disabled":false,"rental_uris":{"android":"levelo://app?vid=7c92a134-a85f-4f48-abc3-4cd138a98531","ios":"levelo://app?vid=7c92a134-a85f-4f48-abc3-4cd138a98531"},"vehicle_type_id":"4","last_reported":1721236037,"current_range_meters":0,"station_id":"ce4bgt92rcd13ifvqcg0","pricing_plan_id":"cebpf4jnsgd1na2vs0mg"},{"bike_id":"f08e0388-86e1-4474-9c89-7b92b902d9a2","system_id":"levelo_inurba_marseille","lat":43.30475,"lon":5.36536,"is_reserved":false,"is_disabled":false,"rental_uris":{"android":"levelo://app?vid=f08e0388-86e1-4474-9c89-7b92b902d9a2","ios":"levelo://app?vid=f08e0388-86e1-4474-9c89-7b92b902d9a2"},"vehicle_type_id":"4","last_reported":1721236037,"current_range_meters":0,"station_id":"","pricing_plan_id":"cebpf4jnsgd1na2vs0mg"},{"bike_id":"cabf4be5-8cb4-41a3-b754-5c43c8936691","system_id":"levelo_inurba_marseille","lat":43.317075,"lon":5.377367,"is_reserved":false,"is_disabled":false,"rental_uris":{"android":"levelo://app?vid=cabf4be5-8cb4-41a3-b754-5c43c8936691","ios":"levelo://app?vid=cabf4be5-8cb4-41a3-b754-5c43c8936691"},"vehicle_type_id":"4","last_reported":1721236037,"current_range_meters":8800,"station_id":"ce4bgth2rcd13ifvqch0","pricing_plan_id":"cebpf4jnsgd1na2vs0mg"},{"bike_id":"95bb2840-8bcb-4ebe-949a-813c4a172f54","system_id":"levelo_inurba_marseille","lat":43.317075,"lon":5.377367,"is_reserved":false,"is_disabled":false,"rental_uris":{"android":"levelo://app?vid=95bb2840-8bcb-4ebe-949a-813c4a172f54","ios":"levelo://app?vid=95bb2840-8bcb-4ebe-949a-813c4a172f54"},"vehicle_type_id":"4","last_reported":1721236037,"current_range_meters":6800,"station_id":"ce4bgth2rcd13ifvqch0","pricing_plan_id":"cebpf4jnsgd1na2vs0mg"},{"bike_id":"31f368ec-0eb3-43b9-b777-3ec1e6dc5fa9","system_id":"levelo_inurba_marseille","lat":43.31178,"lon":5.37977,"is_reserved":false,"is_disabled":false,"rental_uris":{"android":"levelo://app?vid=31f368ec-0eb3-43b9-b777-3ec1e6dc5fa9","ios":"levelo://app?vid=31f368ec-0eb3-43b9-b777-3ec1e6dc5fa9"},"vehicle_type_id":"4","last_reported":1721236037,"current_range_meters":8800,"station_id":"","pricing_plan_id":"cebpf4jnsgd1na2vs0mg"},{"bike_id":"99f1f300-d3eb-4de2-a389-b4611dcb3c29","system_id":"levelo_inurba_marseille","lat":43.30304,"lon":5.368987,"is_reserved":false,"is_disabled":false,"rental_uris":{"android":"levelo://app?vid=99f1f300-d3eb-4de2-a389-b4611dcb3c29","ios":"levelo://app?vid=99f1f300-d3eb-4de2-a389-b4611dcb3c29"},"vehicle_type_id":"4","last_reported":1721236037,"current_range_meters":0,"station_id":"ce4bgqh2rcd13ifvqc5g","pricing_plan_id":"cebpf4jnsgd1na2vs0mg"},{"bike_id":"9c3cf123-dfd0-43e9-85c6-aee6b85af80b","system_id":"levelo_inurba_marseille","lat":43.3025,"lon":5.369823,"is_reserved":false,"is_disabled":false,"rental_uris":{"android":"levelo://app?vid=9c3cf123-dfd0-43e9-85c6-aee6b85af80b","ios":"levelo://app?vid=9c3cf123-dfd0-43e9-85c6-aee6b85af80b"},"vehicle_type_id":"4","last_reported":1721236037,"current_range_meters":0,"station_id":"","pricing_plan_id":"cebpf4jnsgd1na2vs0mg"},{"bike_id":"08750086-1d49-4dee-a071-0cb8bf20a4a9","system_id":"levelo_inurba_marseille","lat":43.301939,"lon":5.366286,"is_reserved":false,"is_disabled":false,"rental_uris":{"android":"levelo://app?vid=08750086-1d49-4dee-a071-0cb8bf20a4a9","ios":"levelo://app?vid=08750086-1d49-4dee-a071-0cb8bf20a4a9"},"vehicle_type_id":"4","last_reported":1721236037,"current_range_meters":7600,"station_id":"ce4bgrh2rcd13ifvqc8g","pricing_plan_id":"cebpf4jnsgd1na2vs0mg"},{"bike_id":"1054a580-230d-495f-8222-70e48e7feb1b","system_id":"levelo_inurba_marseille","lat":43.30127,"lon":5.36698,"is_reserved":false,"is_disabled":false,"rental_uris":{"android":"levelo://app?vid=1054a580-230d-495f-8222-70e48e7feb1b","ios":"levelo://app?vid=1054a580-230d-495f-8222-70e48e7feb1b"},"vehicle_type_id":"4","last_reported":1721236037,"current_range_meters":15600,"station_id":"","pricing_plan_id":"cebpf4jnsgd1na2vs0mg"},{"bike_id":"5cdd8535-05f0-4c80-bcd1-4676ab9b554e","system_id":"levelo_inurba_marseille","lat":43.304606,"lon":5.379026,"is_reserved":false,"is_disabled":false,"rental_uris":{"android":"levelo://app?vid=5cdd8535-05f0-4c80-bcd1-4676ab9b554e","ios":"levelo://app?vid=5cdd8535-05f0-4c80-bcd1-4676ab9b554e"},"vehicle_type_id":"4","last_reported":1721236037,"current_range_meters":0,"station_id":"ce4bgup2rcd13ifvqcn0","pricing_plan_id":"cebpf4jnsgd1na2vs0mg"},{"bike_id":"7cc2ffde-413f-4cd2-a524-a02bdf6225f3","system_id":"levelo_inurba_marseille","lat":43.30464,"lon":5.37905,"is_reserved":false,"is_disabled":false,"rental_uris":{"android":"levelo://app?vid=7cc2ffde-413f-4cd2-a524-a02bdf6225f3","ios":"levelo://app?vid=7cc2ffde-413f-4cd2-a524-a02bdf6225f3"},"vehicle_type_id":"4","last_reported":1721236037,"current_range_meters":0,"station_id":"ce4bgup2rcd13ifvqcn0","pricing_plan_id":"cebpf4jnsgd1na2vs0mg"},{"bike_id":"0df83610-aea7-492e-afe3-26e0ae505adf","system_id":"levelo_inurba_marseille","lat":43.304606,"lon":5.379026,"is_reserved":false,"is_disabled":false,"rental_uris":{"android":"levelo://app?vid=0df83610-aea7-492e-afe3-26e0ae505adf","ios":"levelo://app?vid=0df83610-aea7-492e-afe3-26e0ae505adf"},"vehicle_type_id":"4","last_reported":1721236037,"current_range_meters":24400,"station_id":"ce4bgup2rcd13ifvqcn0","pricing_plan_id":"cebpf4jnsgd1na2vs0mg"},{"bike_id":"1b45aaa5-3d40-41b6-becd-829dae0a65b8","system_id":"levelo_inurba_marseille","lat":43.304606,"lon":5.379026,"is_reserved":false,"is_disabled":false,"rental_uris":{"android":"levelo://app?vid=1b45aaa5-3d40-41b6-becd-829dae0a65b8","ios":"levelo://app?vid=1b45aaa5-3d40-41b6-becd-829dae0a65b8"},"vehicle_type_id":"4","last_reported":1721236037,"current_range_meters":1200,"station_id":"ce4bgup2rcd13ifvqcn0","pricing_plan_id":"cebpf4jnsgd1na2vs0mg"},{"bike_id":"12a7f9ad-44c0-4a9a-a61a-01b943742907","system_id":"levelo_inurba_marseille","lat":43.30456,"lon":5.37903,"is_reserved":false,"is_disabled":false,"rental_uris":{"android":"levelo://app?vid=12a7f9ad-44c0-4a9a-a61a-01b943742907","ios":"levelo://app?vid=12a7f9ad-44c0-4a9a-a61a-01b943742907"},"vehicle_type_id":"4","last_reported":1721236037,"current_range_meters":0,"station_id":"ce4bgup2rcd13ifvqcn0","pricing_plan_id":"cebpf4jnsgd1na2vs0mg"},{"bike_id":"f7ba0a58-84b7-4b8c-8ea2-35cf22e4aa74","system_id":"levelo_inurba_marseille","lat":43.304606,"lon":5.379026,"is_reserved":false,"is_disabled":false,"rental_uris":{"android":"levelo://app?vid=f7ba0a58-84b7-4b8c-8ea2-35cf22e4aa74","ios":"levelo://app?vid=f7ba0a58-84b7-4b8c-8ea2-35cf22e4aa74"},"vehicle_type_id":"4","last_reported":1721236037,"current_range_meters":12000,"station_id":"ce4bgup2rcd13ifvqcn0","pricing_plan_id":"cebpf4jnsgd1na2vs0mg"},{"bike_id":"b681a1fe-959f-400e-9253-8466b026f65f","system_id":"levelo_inurba_marseille","lat":43.324771,"lon":5.36557,"is_reserved":false,"is_disabled":false,"rental_uris":{"android":"levelo://app?vid=b681a1fe-959f-400e-9253-8466b026f65f","ios":"levelo://app?vid=b681a1fe-959f-400e-9253-8466b026f65f"},"vehicle_type_id":"4","last_reported":1721236037,"current_range_meters":12000,"station_id":"ce4bhs12rcd13ifvqhvg","pricing_plan_id":"cebpf4jnsgd1na2vs0mg"},{"bike_id":"4a4a26e5-2961-476d-8f4b-a818fc735256","system_id":"levelo_inurba_marseille","lat":43.324771,"lon":5.36557,"is_reserved":false,"is_disabled":false,"rental_uris":{"android":"levelo://app?vid=4a4a26e5-2961-476d-8f4b-a818fc735256","ios":"levelo://app?vid=4a4a26e5-2961-476d-8f4b-a818fc735256"},"vehicle_type_id":"4","last_reported":1721236037,"current_range_meters":24000,"station_id":"ce4bhs12rcd13ifvqhvg","pricing_plan_id":"cebpf4jnsgd1na2vs0mg"},{"bike_id":"ed6518d3-2dad-47df-817c-a42834444454","system_id":"levelo_inurba_marseille","lat":43.324771,"lon":5.36557,"is_reserved":false,"is_disabled":false,"rental_uris":{"android":"levelo://app?vid=ed6518d3-2dad-47df-817c-a42834444454","ios":"levelo://app?vid=ed6518d3-2dad-47df-817c-a42834444454"},"vehicle_type_id":"4","last_reported":1721236037,"current_range_meters":5200,"station_id":"ce4bhs12rcd13ifvqhvg","pricing_plan_id":"cebpf4jnsgd1na2vs0mg"},{"bike_id":"81216438-acc0-465b-8e0a-d2c7931cb110","system_id":"levelo_inurba_marseille","lat":43.324771,"lon":5.36557,"is_reserved":false,"is_disabled":false,"rental_uris":{"android":"levelo://app?vid=81216438-acc0-465b-8e0a-d2c7931cb110","ios":"levelo://app?vid=81216438-acc0-465b-8e0a-d2c7931cb110"},"vehicle_type_id":"4","last_reported":1721236037,"current_range_meters":31600,"station_id":"ce4bhs12rcd13ifvqhvg","pricing_plan_id":"cebpf4jnsgd1na2vs0mg"},{"bike_id":"cd6707da-e7ef-4f2b-88f9-788c5be1bb13","system_id":"levelo_inurba_marseille","lat":43.324771,"lon":5.36557,"is_reserved":false,"is_disabled":false,"rental_uris":{"android":"levelo://app?vid=cd6707da-e7ef-4f2b-88f9-788c5be1bb13","ios":"levelo://app?vid=cd6707da-e7ef-4f2b-88f9-788c5be1bb13"},"vehicle_type_id":"4","last_reported":1721236037,"current_range_meters":17200,"station_id":"ce4bhs12rcd13ifvqhvg","pricing_plan_id":"cebpf4jnsgd1na2vs0mg"},{"bike_id":"6319d8c5-5eb2-4f38-ba95-694d50572082","system_id":"levelo_inurba_marseille","lat":43.324771,"lon":5.36557,"is_reserved":false,"is_disabled":false,"rental_uris":{"android":"levelo://app?vid=6319d8c5-5eb2-4f38-ba95-694d50572082","ios":"levelo://app?vid=6319d8c5-5eb2-4f38-ba95-694d50572082"},"vehicle_type_id":"4","last_reported":1721236037,"current_range_meters":2800,"station_id":"ce4bhs12rcd13ifvqhvg","pricing_plan_id":"cebpf4jnsgd1na2vs0mg"},{"bike_id":"eadc5ba9-316a-4552-a85b-17c3438a40fd","system_id":"levelo_inurba_marseille","lat":43.31071,"lon":5.38364,"is_reserved":false,"is_disabled":false,"rental_uris":{"android":"levelo://app?vid=eadc5ba9-316a-4552-a85b-17c3438a40fd","ios":"levelo://app?vid=eadc5ba9-316a-4552-a85b-17c3438a40fd"},"vehicle_type_id":"4","last_reported":1721236037,"current_range_meters":4800,"station_id":"ce4bgv92rcd13ifvqcr0","pricing_plan_id":"cebpf4jnsgd1na2vs0mg"},{"bike_id":"dbc0d85f-655b-47c6-8d7c-d229c639c61e","system_id":"levelo_inurba_marseille","lat":43.310804,"lon":5.38359,"is_reserved":false,"is_disabled":false,"rental_uris":{"android":"levelo://app?vid=dbc0d85f-655b-47c6-8d7c-d229c639c61e","ios":"levelo://app?vid=dbc0d85f-655b-47c6-8d7c-d229c639c61e"},"vehicle_type_id":"4","last_reported":1721236037,"current_range_meters":0,"station_id":"ce4bgv92rcd13ifvqcr0","pricing_plan_id":"cebpf4jnsgd1na2vs0mg"},{"bike_id":"1a5b117f-14e0-4ca0-98b0-3801fdd27118","system_id":"levelo_inurba_marseille","lat":43.30143,"lon":5.37413,"is_reserved":false,"is_disabled":false,"rental_uris":{"android":"levelo://app?vid=1a5b117f-14e0-4ca0-98b0-3801fdd27118","ios":"levelo://app?vid=1a5b117f-14e0-4ca0-98b0-3801fdd27118"},"vehicle_type_id":"4","last_reported":1721236037,"current_range_meters":21600,"station_id":"ce4bgs92rcd13ifvqcc0","pricing_plan_id":"cebpf4jnsgd1na2vs0mg"},{"bike_id":"1adab825-3631-4e6f-9600-2c791b308b7e","system_id":"levelo_inurba_marseille","lat":43.313663,"lon":5.384877,"is_reserved":false,"is_disabled":false,"rental_uris":{"android":"levelo://app?vid=1adab825-3631-4e6f-9600-2c791b308b7e","ios":"levelo://app?vid=1adab825-3631-4e6f-9600-2c791b308b7e"},"vehicle_type_id":"4","last_reported":1721236037,"current_range_meters":0,"station_id":"ce4bgt92rcd13ifvqcf0","pricing_plan_id":"cebpf4jnsgd1na2vs0mg"},{"bike_id":"601afac2-3bda-4498-bd4f-afe0deb800d5","system_id":"levelo_inurba_marseille","lat":43.313571,"lon":5.384829,"is_reserved":false,"is_disabled":false,"rental_uris":{"android":"levelo://app?vid=601afac2-3bda-4498-bd4f-afe0deb800d5","ios":"levelo://app?vid=601afac2-3bda-4498-bd4f-afe0deb800d5"},"vehicle_type_id":"4","last_reported":1721236037,"current_range_meters":10400,"station_id":"ce4bgt92rcd13ifvqcf0","pricing_plan_id":"cebpf4jnsgd1na2vs0mg"},{"bike_id":"15482867-dc24-4c60-9209-9f6ddc1b5f1a","system_id":"levelo_inurba_marseille","lat":43.313571,"lon":5.384829,"is_reserved":false,"is_disabled":false,"rental_uris":{"android":"levelo://app?vid=15482867-dc24-4c60-9209-9f6ddc1b5f1a","ios":"levelo://app?vid=15482867-dc24-4c60-9209-9f6ddc1b5f1a"},"vehicle_type_id":"4","last_reported":1721236037,"current_range_meters":6800,"station_id":"ce4bgt92rcd13ifvqcf0","pricing_plan_id":"cebpf4jnsgd1na2vs0mg"},{"bike_id":"d0186165-d87f-4d18-a9a6-58ea04f46a41","system_id":"levelo_inurba_marseille","lat":43.313571,"lon":5.384829,"is_reserved":false,"is_disabled":false,"rental_uris":{"android":"levelo://app?vid=d0186165-d87f-4d18-a9a6-58ea04f46a41","ios":"levelo://app?vid=d0186165-d87f-4d18-a9a6-58ea04f46a41"},"vehicle_type_id":"4","last_reported":1721236037,"current_range_meters":8000,"station_id":"ce4bgt92rcd13ifvqcf0","pricing_plan_id":"cebpf4jnsgd1na2vs0mg"},{"bike_id":"3bb40475-d1ff-49b0-bb89-f37d1e39047e","system_id":"levelo_inurba_marseille","lat":43.313571,"lon":5.384829,"is_reserved":false,"is_disabled":false,"rental_uris":{"android":"levelo://app?vid=3bb40475-d1ff-49b0-bb89-f37d1e39047e","ios":"levelo://app?vid=3bb40475-d1ff-49b0-bb89-f37d1e39047e"},"vehicle_type_id":"4","last_reported":1721236037,"current_range_meters":400,"station_id":"ce4bgt92rcd13ifvqcf0","pricing_plan_id":"cebpf4jnsgd1na2vs0mg"},{"bike_id":"217b888e-4ba3-4b9a-816f-3c4d15370fc5","system_id":"levelo_inurba_marseille","lat":43.298433,"lon":5.362774,"is_reserved":false,"is_disabled":false,"rental_uris":{"android":"levelo://app?vid=217b888e-4ba3-4b9a-816f-3c4d15370fc5","ios":"levelo://app?vid=217b888e-4ba3-4b9a-816f-3c4d15370fc5"},"vehicle_type_id":"4","last_reported":1721236037,"current_range_meters":2000,"station_id":"ce4bgpp2rcd13ifvqc3g","pricing_plan_id":"cebpf4jnsgd1na2vs0mg"},{"bike_id":"e07234da-cfe9-4f2c-8b89-4cff556134b7","system_id":"levelo_inurba_marseille","lat":43.311722,"lon":5.387247,"is_reserved":false,"is_disabled":false,"rental_uris":{"android":"levelo://app?vid=e07234da-cfe9-4f2c-8b89-4cff556134b7","ios":"levelo://app?vid=e07234da-cfe9-4f2c-8b89-4cff556134b7"},"vehicle_type_id":"4","last_reported":1721236037,"current_range_meters":2000,"station_id":"ce4bgv12rcd13ifvqcp0","pricing_plan_id":"cebpf4jnsgd1na2vs0mg"},{"bike_id":"20702f49-2601-46ac-9421-a424cfec0431","system_id":"levelo_inurba_marseille","lat":43.311722,"lon":5.387247,"is_reserved":false,"is_disabled":false,"rental_uris":{"android":"levelo://app?vid=20702f49-2601-46ac-9421-a424cfec0431","ios":"levelo://app?vid=20702f49-2601-46ac-9421-a424cfec0431"},"vehicle_type_id":"4","last_reported":1721236037,"current_range_meters":10800,"station_id":"ce4bgv12rcd13ifvqcp0","pricing_plan_id":"cebpf4jnsgd1na2vs0mg"},{"bike_id":"1aa40f4b-ca9c-439f-879a-6093ee511f27","system_id":"levelo_inurba_marseille","lat":43.322872,"lon":5.382756,"is_reserved":false,"is_disabled":false,"rental_uris":{"android":"levelo://app?vid=1aa40f4b-ca9c-439f-879a-6093ee511f27","ios":"levelo://app?vid=1aa40f4b-ca9c-439f-879a-6093ee511f27"},"vehicle_type_id":"4","last_reported":1721236037,"current_range_meters":2400,"station_id":"ce4bhr12rcd13ifvqhqg","pricing_plan_id":"cebpf4jnsgd1na2vs0mg"},{"bike_id":"0fcbeb66-2829-4088-b101-f3bc3ff574e8","system_id":"levelo_inurba_marseille","lat":43.322872,"lon":5.382756,"is_reserved":false,"is_disabled":false,"rental_uris":{"android":"levelo://app?vid=0fcbeb66-2829-4088-b101-f3bc3ff574e8","ios":"levelo://app?vid=0fcbeb66-2829-4088-b101-f3bc3ff574e8"},"vehicle_type_id":"4","last_reported":1721236037,"current_range_meters":5200,"station_id":"ce4bhr12rcd13ifvqhqg","pricing_plan_id":"cebpf4jnsgd1na2vs0mg"},{"bike_id":"4a943fd4-214b-4d84-9dac-92ed8d19ead9","system_id":"levelo_inurba_marseille","lat":43.297163,"lon":5.365866,"is_reserved":false,"is_disabled":false,"rental_uris":{"android":"levelo://app?vid=4a943fd4-214b-4d84-9dac-92ed8d19ead9","ios":"levelo://app?vid=4a943fd4-214b-4d84-9dac-92ed8d19ead9"},"vehicle_type_id":"4","last_reported":1721236037,"current_range_meters":11600,"station_id":"ce4bgn12rcd13ifvqbt0","pricing_plan_id":"cebpf4jnsgd1na2vs0mg"},{"bike_id":"aaedc9b0-6f6a-4029-a2e7-394d2ea8a0e8","system_id":"levelo_inurba_marseille","lat":43.29582,"lon":5.36745,"is_reserved":false,"is_disabled":false,"rental_uris":{"android":"levelo://app?vid=aaedc9b0-6f6a-4029-a2e7-394d2ea8a0e8","ios":"levelo://app?vid=aaedc9b0-6f6a-4029-a2e7-394d2ea8a0e8"},"vehicle_type_id":"4","last_reported":1721236037,"current_range_meters":0,"station_id":"ce4bgph2rcd13ifvqc2g","pricing_plan_id":"cebpf4jnsgd1na2vs0mg"},{"bike_id":"7265d28e-7db8-4585-9b6a-8567ba21a1cf","system_id":"levelo_inurba_marseille","lat":43.303857,"lon":5.386726,"is_reserved":false,"is_disabled":false,"rental_uris":{"android":"levelo://app?vid=7265d28e-7db8-4585-9b6a-8567ba21a1cf","ios":"levelo://app?vid=7265d28e-7db8-4585-9b6a-8567ba21a1cf"},"vehicle_type_id":"4","last_reported":1721236037,"current_range_meters":0,"station_id":"","pricing_plan_id":"cebpf4jnsgd1na2vs0mg"},{"bike_id":"61c56193-f93d-4081-9cc5-e78bab769438","system_id":"levelo_inurba_marseille","lat":43.296129,"lon":5.370777,"is_reserved":false,"is_disabled":false,"rental_uris":{"android":"levelo://app?vid=61c56193-f93d-4081-9cc5-e78bab769438","ios":"levelo://app?vid=61c56193-f93d-4081-9cc5-e78bab769438"},"vehicle_type_id":"4","last_reported":1721236037,"current_range_meters":400,"station_id":"ce4bgnh2rcd13ifvqc0g","pricing_plan_id":"cebpf4jnsgd1na2vs0mg"},{"bike_id":"cfae61c8-4e0e-4bcd-8bb4-a86dc9b1cc39","system_id":"levelo_inurba_marseille","lat":43.29573,"lon":5.367355,"is_reserved":false,"is_disabled":false,"rental_uris":{"android":"levelo://app?vid=cfae61c8-4e0e-4bcd-8bb4-a86dc9b1cc39","ios":"levelo://app?vid=cfae61c8-4e0e-4bcd-8bb4-a86dc9b1cc39"},"vehicle_type_id":"4","last_reported":1721236037,"current_range_meters":0,"station_id":"ce4bgph2rcd13ifvqc2g","pricing_plan_id":"cebpf4jnsgd1na2vs0mg"},{"bike_id":"dba096c4-7077-4fb9-b0b6-cfeba2efbcd4","system_id":"levelo_inurba_marseille","lat":43.299028,"lon":5.381509,"is_reserved":false,"is_disabled":false,"rental_uris":{"android":"levelo://app?vid=dba096c4-7077-4fb9-b0b6-cfeba2efbcd4","ios":"levelo://app?vid=dba096c4-7077-4fb9-b0b6-cfeba2efbcd4"},"vehicle_type_id":"4","last_reported":1721236037,"current_range_meters":800,"station_id":"ce4bgj12rcd13ifvqbc0","pricing_plan_id":"cebpf4jnsgd1na2vs0mg"},{"bike_id":"9323fdef-379a-4445-87ca-21091b79bd63","system_id":"levelo_inurba_marseille","lat":43.296921,"lon":5.376579,"is_reserved":false,"is_disabled":false,"rental_uris":{"android":"levelo://app?vid=9323fdef-379a-4445-87ca-21091b79bd63","ios":"levelo://app?vid=9323fdef-379a-4445-87ca-21091b79bd63"},"vehicle_type_id":"4","last_reported":1721236037,"current_range_meters":24000,"station_id":"ce4bgkh2rcd13ifvqbl0","pricing_plan_id":"cebpf4jnsgd1na2vs0mg"},{"bike_id":"5353dc79-9ecc-4a33-b025-76335e24a9b4","system_id":"levelo_inurba_marseille","lat":43.2958,"lon":5.37501,"is_reserved":false,"is_disabled":false,"rental_uris":{"android":"levelo://app?vid=5353dc79-9ecc-4a33-b025-76335e24a9b4","ios":"levelo://app?vid=5353dc79-9ecc-4a33-b025-76335e24a9b4"},"vehicle_type_id":"4","last_reported":1721236037,"current_range_meters":0,"station_id":"ce4bgh92rcd13ifvqb50","pricing_plan_id":"cebpf4jnsgd1na2vs0mg"},{"bike_id":"7757fa78-7e2f-48e2-9b80-5a95b1ff9d7f","system_id":"levelo_inurba_marseille","lat":43.29569,"lon":5.37523,"is_reserved":false,"is_disabled":false,"rental_uris":{"android":"levelo://app?vid=7757fa78-7e2f-48e2-9b80-5a95b1ff9d7f","ios":"levelo://app?vid=7757fa78-7e2f-48e2-9b80-5a95b1ff9d7f"},"vehicle_type_id":"4","last_reported":1721236037,"current_range_meters":0,"station_id":"ce4bgh92rcd13ifvqb50","pricing_plan_id":"cebpf4jnsgd1na2vs0mg"},{"bike_id":"bfece0d6-74fd-446a-b86f-0a57f48b3af7","system_id":"levelo_inurba_marseille","lat":43.296263,"lon":5.377094,"is_reserved":false,"is_disabled":false,"rental_uris":{"android":"levelo://app?vid=bfece0d6-74fd-446a-b86f-0a57f48b3af7","ios":"levelo://app?vid=bfece0d6-74fd-446a-b86f-0a57f48b3af7"},"vehicle_type_id":"4","last_reported":1721236037,"current_range_meters":0,"station_id":"ce4bgi92rcd13ifvqb90","pricing_plan_id":"cebpf4jnsgd1na2vs0mg"},{"bike_id":"618d9fa7-44bc-4687-803e-90e52ff252f7","system_id":"levelo_inurba_marseille","lat":43.304278,"lon":5.388868,"is_reserved":false,"is_disabled":false,"rental_uris":{"android":"levelo://app?vid=618d9fa7-44bc-4687-803e-90e52ff252f7","ios":"levelo://app?vid=618d9fa7-44bc-4687-803e-90e52ff252f7"},"vehicle_type_id":"4","last_reported":1721236037,"current_range_meters":1600,"station_id":"ce4bgk12rcd13ifvqbi0","pricing_plan_id":"cebpf4jnsgd1na2vs0mg"},{"bike_id":"11f79827-4550-47f4-86c1-a5715fca2eee","system_id":"levelo_inurba_marseille","lat":43.295748,"lon":5.37522,"is_reserved":false,"is_disabled":false,"rental_uris":{"android":"levelo://app?vid=11f79827-4550-47f4-86c1-a5715fca2eee","ios":"levelo://app?vid=11f79827-4550-47f4-86c1-a5715fca2eee"},"vehicle_type_id":"4","last_reported":1721236037,"current_range_meters":0,"station_id":"ce4bgh92rcd13ifvqb50","pricing_plan_id":"cebpf4jnsgd1na2vs0mg"},{"bike_id":"621f6b26-5439-412e-ae31-d5a9d351f29d","system_id":"levelo_inurba_marseille","lat":43.296277,"lon":5.377108,"is_reserved":false,"is_disabled":false,"rental_uris":{"android":"levelo://app?vid=621f6b26-5439-412e-ae31-d5a9d351f29d","ios":"levelo://app?vid=621f6b26-5439-412e-ae31-d5a9d351f29d"},"vehicle_type_id":"4","last_reported":1721236037,"current_range_meters":0,"station_id":"ce4bgi92rcd13ifvqb90","pricing_plan_id":"cebpf4jnsgd1na2vs0mg"},{"bike_id":"36ecd08f-4d4e-46ea-90ac-bb4d30c3318d","system_id":"levelo_inurba_marseille","lat":43.295279,"lon":5.375048,"is_reserved":false,"is_disabled":false,"rental_uris":{"android":"levelo://app?vid=36ecd08f-4d4e-46ea-90ac-bb4d30c3318d","ios":"levelo://app?vid=36ecd08f-4d4e-46ea-90ac-bb4d30c3318d"},"vehicle_type_id":"4","last_reported":1721236037,"current_range_meters":1600,"station_id":"ce4bgkp2rcd13ifvqbmg","pricing_plan_id":"cebpf4jnsgd1na2vs0mg"},{"bike_id":"74c9001a-c0c5-4cd3-8bd5-606c5bbc21cd","system_id":"levelo_inurba_marseille","lat":43.295279,"lon":5.375048,"is_reserved":false,"is_disabled":false,"rental_uris":{"android":"levelo://app?vid=74c9001a-c0c5-4cd3-8bd5-606c5bbc21cd","ios":"levelo://app?vid=74c9001a-c0c5-4cd3-8bd5-606c5bbc21cd"},"vehicle_type_id":"4","last_reported":1721236037,"current_range_meters":3200,"station_id":"ce4bgkp2rcd13ifvqbmg","pricing_plan_id":"cebpf4jnsgd1na2vs0mg"},{"bike_id":"e3110659-8582-4bb2-9609-ae1e31c62f66","system_id":"levelo_inurba_marseille","lat":43.299707,"lon":5.384859,"is_reserved":false,"is_disabled":false,"rental_uris":{"android":"levelo://app?vid=e3110659-8582-4bb2-9609-ae1e31c62f66","ios":"levelo://app?vid=e3110659-8582-4bb2-9609-ae1e31c62f66"},"vehicle_type_id":"4","last_reported":1721236037,"current_range_meters":1200,"station_id":"ce4bgj92rcd13ifvqbd0","pricing_plan_id":"cebpf4jnsgd1na2vs0mg"},{"bike_id":"cb799943-5056-4282-b14b-3a2dfa63ae04","system_id":"levelo_inurba_marseille","lat":43.299724,"lon":5.384848,"is_reserved":false,"is_disabled":false,"rental_uris":{"android":"levelo://app?vid=cb799943-5056-4282-b14b-3a2dfa63ae04","ios":"levelo://app?vid=cb799943-5056-4282-b14b-3a2dfa63ae04"},"vehicle_type_id":"4","last_reported":1721236037,"current_range_meters":2000,"station_id":"ce4bgj92rcd13ifvqbd0","pricing_plan_id":"cebpf4jnsgd1na2vs0mg"},{"bike_id":"707e1a09-032a-4e7b-af83-5a261e18057f","system_id":"levelo_inurba_marseille","lat":43.299717,"lon":5.384845,"is_reserved":false,"is_disabled":false,"rental_uris":{"android":"levelo://app?vid=707e1a09-032a-4e7b-af83-5a261e18057f","ios":"levelo://app?vid=707e1a09-032a-4e7b-af83-5a261e18057f"},"vehicle_type_id":"4","last_reported":1721236037,"current_range_meters":20400,"station_id":"ce4bgj92rcd13ifvqbd0","pricing_plan_id":"cebpf4jnsgd1na2vs0mg"},{"bike_id":"13975390-cf44-417f-9ee8-c825db63b27b","system_id":"levelo_inurba_marseille","lat":43.299724,"lon":5.384848,"is_reserved":false,"is_disabled":false,"rental_uris":{"android":"levelo://app?vid=13975390-cf44-417f-9ee8-c825db63b27b","ios":"levelo://app?vid=13975390-cf44-417f-9ee8-c825db63b27b"},"vehicle_type_id":"4","last_reported":1721236037,"current_range_meters":0,"station_id":"ce4bgj92rcd13ifvqbd0","pricing_plan_id":"cebpf4jnsgd1na2vs0mg"},{"bike_id":"4a2c6fe1-0381-47f1-92e7-f310548df4b4","system_id":"levelo_inurba_marseille","lat":43.299724,"lon":5.384848,"is_reserved":false,"is_disabled":false,"rental_uris":{"android":"levelo://app?vid=4a2c6fe1-0381-47f1-92e7-f310548df4b4","ios":"levelo://app?vid=4a2c6fe1-0381-47f1-92e7-f310548df4b4"},"vehicle_type_id":"4","last_reported":1721236037,"current_range_meters":13200,"station_id":"ce4bgj92rcd13ifvqbd0","pricing_plan_id":"cebpf4jnsgd1na2vs0mg"},{"bike_id":"ae45b0a1-ebd8-4ef2-aabb-9d9294d0e064","system_id":"levelo_inurba_marseille","lat":43.295279,"lon":5.375048,"is_reserved":false,"is_disabled":false,"rental_uris":{"android":"levelo://app?vid=ae45b0a1-ebd8-4ef2-aabb-9d9294d0e064","ios":"levelo://app?vid=ae45b0a1-ebd8-4ef2-aabb-9d9294d0e064"},"vehicle_type_id":"4","last_reported":1721236037,"current_range_meters":19600,"station_id":"ce4bgkp2rcd13ifvqbmg","pricing_plan_id":"cebpf4jnsgd1na2vs0mg"},{"bike_id":"18491e9b-089a-423d-92a6-2224fb4ac1cb","system_id":"levelo_inurba_marseille","lat":43.30473,"lon":5.39011,"is_reserved":false,"is_disabled":false,"rental_uris":{"android":"levelo://app?vid=18491e9b-089a-423d-92a6-2224fb4ac1cb","ios":"levelo://app?vid=18491e9b-089a-423d-92a6-2224fb4ac1cb"},"vehicle_type_id":"4","last_reported":1721236037,"current_range_meters":14400,"station_id":"","pricing_plan_id":"cebpf4jnsgd1na2vs0mg"},{"bike_id":"239e0100-b84f-4d5b-85c7-945abfb4d8fa","system_id":"levelo_inurba_marseille","lat":43.29553,"lon":5.37723,"is_reserved":false,"is_disabled":false,"rental_uris":{"android":"levelo://app?vid=239e0100-b84f-4d5b-85c7-945abfb4d8fa","ios":"levelo://app?vid=239e0100-b84f-4d5b-85c7-945abfb4d8fa"},"vehicle_type_id":"4","last_reported":1721236037,"current_range_meters":0,"station_id":"","pricing_plan_id":"cebpf4jnsgd1na2vs0mg"},{"bike_id":"d518d377-a8e7-4588-96fb-7f616bce6367","system_id":"levelo_inurba_marseille","lat":43.32367,"lon":5.388836,"is_reserved":false,"is_disabled":false,"rental_uris":{"android":"levelo://app?vid=d518d377-a8e7-4588-96fb-7f616bce6367","ios":"levelo://app?vid=d518d377-a8e7-4588-96fb-7f616bce6367"},"vehicle_type_id":"4","last_reported":1721236037,"current_range_meters":13200,"station_id":"ce4bhqp2rcd13ifvqhog","pricing_plan_id":"cebpf4jnsgd1na2vs0mg"},{"bike_id":"2aeaaab9-ad82-417d-8e44-8375dffaf90a","system_id":"levelo_inurba_marseille","lat":43.30747,"lon":5.39261,"is_reserved":false,"is_disabled":false,"rental_uris":{"android":"levelo://app?vid=2aeaaab9-ad82-417d-8e44-8375dffaf90a","ios":"levelo://app?vid=2aeaaab9-ad82-417d-8e44-8375dffaf90a"},"vehicle_type_id":"4","last_reported":1721236037,"current_range_meters":22000,"station_id":"","pricing_plan_id":"cebpf4jnsgd1na2vs0mg"},{"bike_id":"aca332c5-29db-48fe-b0e7-913a6fd6610b","system_id":"levelo_inurba_marseille","lat":43.32386,"lon":5.388873,"is_reserved":false,"is_disabled":false,"rental_uris":{"android":"levelo://app?vid=aca332c5-29db-48fe-b0e7-913a6fd6610b","ios":"levelo://app?vid=aca332c5-29db-48fe-b0e7-913a6fd6610b"},"vehicle_type_id":"4","last_reported":1721236037,"current_range_meters":18000,"station_id":"ce4bhqp2rcd13ifvqhog","pricing_plan_id":"cebpf4jnsgd1na2vs0mg"},{"bike_id":"8d13d484-8020-4e0d-bd86-2717a50b3d88","system_id":"levelo_inurba_marseille","lat":43.293164,"lon":5.371749,"is_reserved":false,"is_disabled":false,"rental_uris":{"android":"levelo://app?vid=8d13d484-8020-4e0d-bd86-2717a50b3d88","ios":"levelo://app?vid=8d13d484-8020-4e0d-bd86-2717a50b3d88"},"vehicle_type_id":"4","last_reported":1721236037,"current_range_meters":15600,"station_id":"ce4bgh92rcd13ifvqb40","pricing_plan_id":"cebpf4jnsgd1na2vs0mg"},{"bike_id":"8581aa66-59b0-42ba-a7ce-54fe0a4c50a1","system_id":"levelo_inurba_marseille","lat":43.292826,"lon":5.36843,"is_reserved":false,"is_disabled":false,"rental_uris":{"android":"levelo://app?vid=8581aa66-59b0-42ba-a7ce-54fe0a4c50a1","ios":"levelo://app?vid=8581aa66-59b0-42ba-a7ce-54fe0a4c50a1"},"vehicle_type_id":"4","last_reported":1721236037,"current_range_meters":15600,"station_id":"ce4bhbp2rcd13ifvqesg","pricing_plan_id":"cebpf4jnsgd1na2vs0mg"},{"bike_id":"f3c5dca2-8186-45a1-8a7b-ef76bf30944d","system_id":"levelo_inurba_marseille","lat":43.293259,"lon":5.371586,"is_reserved":false,"is_disabled":false,"rental_uris":{"android":"levelo://app?vid=f3c5dca2-8186-45a1-8a7b-ef76bf30944d","ios":"levelo://app?vid=f3c5dca2-8186-45a1-8a7b-ef76bf30944d"},"vehicle_type_id":"4","last_reported":1721236037,"current_range_meters":2000,"station_id":"ce4bgh92rcd13ifvqb40","pricing_plan_id":"cebpf4jnsgd1na2vs0mg"},{"bike_id":"d206ae0e-fe53-4e29-b12c-ea04d51d69c5","system_id":"levelo_inurba_marseille","lat":43.30236,"lon":5.39044,"is_reserved":false,"is_disabled":false,"rental_uris":{"android":"levelo://app?vid=d206ae0e-fe53-4e29-b12c-ea04d51d69c5","ios":"levelo://app?vid=d206ae0e-fe53-4e29-b12c-ea04d51d69c5"},"vehicle_type_id":"4","last_reported":1721236037,"current_range_meters":0,"station_id":"ce4bghh2rcd13ifvqb60","pricing_plan_id":"cebpf4jnsgd1na2vs0mg"},{"bike_id":"a9b0c72b-7b0d-47d0-9840-9606ca0dfaba","system_id":"levelo_inurba_marseille","lat":43.293259,"lon":5.371586,"is_reserved":false,"is_disabled":false,"rental_uris":{"android":"levelo://app?vid=a9b0c72b-7b0d-47d0-9840-9606ca0dfaba","ios":"levelo://app?vid=a9b0c72b-7b0d-47d0-9840-9606ca0dfaba"},"vehicle_type_id":"4","last_reported":1721236037,"current_range_meters":0,"station_id":"ce4bgh92rcd13ifvqb40","pricing_plan_id":"cebpf4jnsgd1na2vs0mg"},{"bike_id":"1bcd4200-ed31-4ce3-bf65-a12048f20f02","system_id":"levelo_inurba_marseille","lat":43.29272,"lon":5.36843,"is_reserved":false,"is_disabled":false,"rental_uris":{"android":"levelo://app?vid=1bcd4200-ed31-4ce3-bf65-a12048f20f02","ios":"levelo://app?vid=1bcd4200-ed31-4ce3-bf65-a12048f20f02"},"vehicle_type_id":"4","last_reported":1721236037,"current_range_meters":0,"station_id":"ce4bhbp2rcd13ifvqesg","pricing_plan_id":"cebpf4jnsgd1na2vs0mg"},{"bike_id":"2af37ac7-5d78-48fb-aee9-38a338179391","system_id":"levelo_inurba_marseille","lat":43.293043,"lon":5.374583,"is_reserved":false,"is_disabled":false,"rental_uris":{"android":"levelo://app?vid=2af37ac7-5d78-48fb-aee9-38a338179391","ios":"levelo://app?vid=2af37ac7-5d78-48fb-aee9-38a338179391"},"vehicle_type_id":"4","last_reported":1721236037,"current_range_meters":0,"station_id":"ce4bgi12rcd13ifvqb70","pricing_plan_id":"cebpf4jnsgd1na2vs0mg"},{"bike_id":"12b8459a-6a87-4648-bb13-5fdd4422523f","system_id":"levelo_inurba_marseille","lat":43.293009,"lon":5.374584,"is_reserved":false,"is_disabled":false,"rental_uris":{"android":"levelo://app?vid=12b8459a-6a87-4648-bb13-5fdd4422523f","ios":"levelo://app?vid=12b8459a-6a87-4648-bb13-5fdd4422523f"},"vehicle_type_id":"4","last_reported":1721236037,"current_range_meters":18400,"station_id":"ce4bgi12rcd13ifvqb70","pricing_plan_id":"cebpf4jnsgd1na2vs0mg"},{"bike_id":"e18dd9a6-2bd7-4bed-a925-a6a341419255","system_id":"levelo_inurba_marseille","lat":43.30314,"lon":5.39202,"is_reserved":false,"is_disabled":false,"rental_uris":{"android":"levelo://app?vid=e18dd9a6-2bd7-4bed-a925-a6a341419255","ios":"levelo://app?vid=e18dd9a6-2bd7-4bed-a925-a6a341419255"},"vehicle_type_id":"4","last_reported":1721236037,"current_range_meters":0,"station_id":"ce4bgkh2rcd13ifvqbk0","pricing_plan_id":"cebpf4jnsgd1na2vs0mg"},{"bike_id":"18555926-a478-4499-a01c-a9235cd33caf","system_id":"levelo_inurba_marseille","lat":43.292311,"lon":5.360731,"is_reserved":false,"is_disabled":false,"rental_uris":{"android":"levelo://app?vid=18555926-a478-4499-a01c-a9235cd33caf","ios":"levelo://app?vid=18555926-a478-4499-a01c-a9235cd33caf"},"vehicle_type_id":"4","last_reported":1721236037,"current_range_meters":11200,"station_id":"ce4bhbh2rcd13ifvqeqg","pricing_plan_id":"cebpf4jnsgd1na2vs0mg"},{"bike_id":"21b70599-36b0-4eda-84a9-254e2ea475b3","system_id":"levelo_inurba_marseille","lat":43.31167,"lon":5.39565,"is_reserved":false,"is_disabled":false,"rental_uris":{"android":"levelo://app?vid=21b70599-36b0-4eda-84a9-254e2ea475b3","ios":"levelo://app?vid=21b70599-36b0-4eda-84a9-254e2ea475b3"},"vehicle_type_id":"4","last_reported":1721236037,"current_range_meters":29200,"station_id":"","pricing_plan_id":"cebpf4jnsgd1na2vs0mg"},{"bike_id":"d83096c4-2600-4d29-addc-971510c575cb","system_id":"levelo_inurba_marseille","lat":43.292311,"lon":5.360731,"is_reserved":false,"is_disabled":false,"rental_uris":{"android":"levelo://app?vid=d83096c4-2600-4d29-addc-971510c575cb","ios":"levelo://app?vid=d83096c4-2600-4d29-addc-971510c575cb"},"vehicle_type_id":"4","last_reported":1721236037,"current_range_meters":0,"station_id":"ce4bhbh2rcd13ifvqeqg","pricing_plan_id":"cebpf4jnsgd1na2vs0mg"},{"bike_id":"c10d290b-d9fc-4407-8e4f-1e34497725f2","system_id":"levelo_inurba_marseille","lat":43.29226,"lon":5.36071,"is_reserved":false,"is_disabled":false,"rental_uris":{"android":"levelo://app?vid=c10d290b-d9fc-4407-8e4f-1e34497725f2","ios":"levelo://app?vid=c10d290b-d9fc-4407-8e4f-1e34497725f2"},"vehicle_type_id":"4","last_reported":1721236037,"current_range_meters":800,"station_id":"ce4bhbh2rcd13ifvqeqg","pricing_plan_id":"cebpf4jnsgd1na2vs0mg"},{"bike_id":"c4f1849f-8b23-4218-9144-c0cd72bf70b6","system_id":"levelo_inurba_marseille","lat":43.29228,"lon":5.36047,"is_reserved":false,"is_disabled":false,"rental_uris":{"android":"levelo://app?vid=c4f1849f-8b23-4218-9144-c0cd72bf70b6","ios":"levelo://app?vid=c4f1849f-8b23-4218-9144-c0cd72bf70b6"},"vehicle_type_id":"4","last_reported":1721236037,"current_range_meters":30000,"station_id":"ce4bhbh2rcd13ifvqeqg","pricing_plan_id":"cebpf4jnsgd1na2vs0mg"},{"bike_id":"e157d5bb-fe72-45e2-a06f-6b7ad8ff59bd","system_id":"levelo_inurba_marseille","lat":43.292311,"lon":5.360731,"is_reserved":false,"is_disabled":false,"rental_uris":{"android":"levelo://app?vid=e157d5bb-fe72-45e2-a06f-6b7ad8ff59bd","ios":"levelo://app?vid=e157d5bb-fe72-45e2-a06f-6b7ad8ff59bd"},"vehicle_type_id":"4","last_reported":1721236037,"current_range_meters":29200,"station_id":"ce4bhbh2rcd13ifvqeqg","pricing_plan_id":"cebpf4jnsgd1na2vs0mg"},{"bike_id":"9a16905f-923a-491d-9ea1-aa23f28520a7","system_id":"levelo_inurba_marseille","lat":43.298764,"lon":5.388973,"is_reserved":false,"is_disabled":false,"rental_uris":{"android":"levelo://app?vid=9a16905f-923a-491d-9ea1-aa23f28520a7","ios":"levelo://app?vid=9a16905f-923a-491d-9ea1-aa23f28520a7"},"vehicle_type_id":"4","last_reported":1721236037,"current_range_meters":19200,"station_id":"ce4bh392rcd13ifvqdl0","pricing_plan_id":"cebpf4jnsgd1na2vs0mg"},{"bike_id":"68d1b0ef-4aea-44eb-a6ef-7f58d52a8a8e","system_id":"levelo_inurba_marseille","lat":43.29573,"lon":5.367355,"is_reserved":false,"is_disabled":false,"rental_uris":{"android":"levelo://app?vid=68d1b0ef-4aea-44eb-a6ef-7f58d52a8a8e","ios":"levelo://app?vid=68d1b0ef-4aea-44eb-a6ef-7f58d52a8a8e"},"vehicle_type_id":"4","last_reported":1721236037,"current_range_meters":17200,"station_id":"ce4bgph2rcd13ifvqc2g","pricing_plan_id":"cebpf4jnsgd1na2vs0mg"},{"bike_id":"c5439068-f584-47cd-ab2d-cfe73f24e9f3","system_id":"levelo_inurba_marseille","lat":43.298764,"lon":5.388973,"is_reserved":false,"is_disabled":false,"rental_uris":{"android":"levelo://app?vid=c5439068-f584-47cd-ab2d-cfe73f24e9f3","ios":"levelo://app?vid=c5439068-f584-47cd-ab2d-cfe73f24e9f3"},"vehicle_type_id":"4","last_reported":1721236037,"current_range_meters":15600,"station_id":"ce4bh392rcd13ifvqdl0","pricing_plan_id":"cebpf4jnsgd1na2vs0mg"},{"bike_id":"2707225f-af86-4322-9296-f5471fc8a093","system_id":"levelo_inurba_marseille","lat":43.298764,"lon":5.388973,"is_reserved":false,"is_disabled":false,"rental_uris":{"android":"levelo://app?vid=2707225f-af86-4322-9296-f5471fc8a093","ios":"levelo://app?vid=2707225f-af86-4322-9296-f5471fc8a093"},"vehicle_type_id":"4","last_reported":1721236037,"current_range_meters":3600,"station_id":"ce4bh392rcd13ifvqdl0","pricing_plan_id":"cebpf4jnsgd1na2vs0mg"},{"bike_id":"50c73145-dd5d-44c8-adff-148e47d4b629","system_id":"levelo_inurba_marseille","lat":43.298764,"lon":5.388973,"is_reserved":false,"is_disabled":false,"rental_uris":{"android":"levelo://app?vid=50c73145-dd5d-44c8-adff-148e47d4b629","ios":"levelo://app?vid=50c73145-dd5d-44c8-adff-148e47d4b629"},"vehicle_type_id":"4","last_reported":1721236037,"current_range_meters":0,"station_id":"ce4bh392rcd13ifvqdl0","pricing_plan_id":"cebpf4jnsgd1na2vs0mg"},{"bike_id":"0ff957ce-14c9-4523-b8d9-bed937b10f22","system_id":"levelo_inurba_marseille","lat":43.292005,"lon":5.357875,"is_reserved":false,"is_disabled":false,"rental_uris":{"android":"levelo://app?vid=0ff957ce-14c9-4523-b8d9-bed937b10f22","ios":"levelo://app?vid=0ff957ce-14c9-4523-b8d9-bed937b10f22"},"vehicle_type_id":"4","last_reported":1721236037,"current_range_meters":800,"station_id":"ce4bhb12rcd13ifvqel0","pricing_plan_id":"cebpf4jnsgd1na2vs0mg"},{"bike_id":"9b39f037-1b9e-47a1-85fc-feb4a7ffbea0","system_id":"levelo_inurba_marseille","lat":43.291994,"lon":5.357886,"is_reserved":false,"is_disabled":false,"rental_uris":{"android":"levelo://app?vid=9b39f037-1b9e-47a1-85fc-feb4a7ffbea0","ios":"levelo://app?vid=9b39f037-1b9e-47a1-85fc-feb4a7ffbea0"},"vehicle_type_id":"4","last_reported":1721236037,"current_range_meters":0,"station_id":"ce4bhb12rcd13ifvqel0","pricing_plan_id":"cebpf4jnsgd1na2vs0mg"},{"bike_id":"698b71b7-964a-4ea5-8df6-74647b983a76","system_id":"levelo_inurba_marseille","lat":43.313291,"lon":5.396838,"is_reserved":false,"is_disabled":false,"rental_uris":{"android":"levelo://app?vid=698b71b7-964a-4ea5-8df6-74647b983a76","ios":"levelo://app?vid=698b71b7-964a-4ea5-8df6-74647b983a76"},"vehicle_type_id":"4","last_reported":1721236037,"current_range_meters":5200,"station_id":"ce4bgvp2rcd13ifvqcu0","pricing_plan_id":"cebpf4jnsgd1na2vs0mg"},{"bike_id":"ff531c2b-4853-4c0b-9c84-e84c094a2bed","system_id":"levelo_inurba_marseille","lat":43.313291,"lon":5.396838,"is_reserved":false,"is_disabled":false,"rental_uris":{"android":"levelo://app?vid=ff531c2b-4853-4c0b-9c84-e84c094a2bed","ios":"levelo://app?vid=ff531c2b-4853-4c0b-9c84-e84c094a2bed"},"vehicle_type_id":"4","last_reported":1721236037,"current_range_meters":10000,"station_id":"ce4bgvp2rcd13ifvqcu0","pricing_plan_id":"cebpf4jnsgd1na2vs0mg"},{"bike_id":"2808477d-9f59-4e90-9089-cbbdfcc15345","system_id":"levelo_inurba_marseille","lat":43.313291,"lon":5.396838,"is_reserved":false,"is_disabled":false,"rental_uris":{"android":"levelo://app?vid=2808477d-9f59-4e90-9089-cbbdfcc15345","ios":"levelo://app?vid=2808477d-9f59-4e90-9089-cbbdfcc15345"},"vehicle_type_id":"4","last_reported":1721236037,"current_range_meters":4800,"station_id":"ce4bgvp2rcd13ifvqcu0","pricing_plan_id":"cebpf4jnsgd1na2vs0mg"},{"bike_id":"fe6acdc4-bcbf-42b2-8f03-f776b273f7ca","system_id":"levelo_inurba_marseille","lat":43.2953,"lon":5.38542,"is_reserved":false,"is_disabled":false,"rental_uris":{"android":"levelo://app?vid=fe6acdc4-bcbf-42b2-8f03-f776b273f7ca","ios":"levelo://app?vid=fe6acdc4-bcbf-42b2-8f03-f776b273f7ca"},"vehicle_type_id":"4","last_reported":1721236037,"current_range_meters":0,"station_id":"ce4bgih2rcd13ifvqba0","pricing_plan_id":"cebpf4jnsgd1na2vs0mg"},{"bike_id":"95d0ea33-5987-4d55-adcb-505a8974f240","system_id":"levelo_inurba_marseille","lat":43.290779,"lon":5.371482,"is_reserved":false,"is_disabled":false,"rental_uris":{"android":"levelo://app?vid=95d0ea33-5987-4d55-adcb-505a8974f240","ios":"levelo://app?vid=95d0ea33-5987-4d55-adcb-505a8974f240"},"vehicle_type_id":"4","last_reported":1721236037,"current_range_meters":800,"station_id":"ce4bh5p2rcd13ifvqe4g","pricing_plan_id":"cebpf4jnsgd1na2vs0mg"},{"bike_id":"45f6a71e-78b9-4984-b676-a02a0fbf42b2","system_id":"levelo_inurba_marseille","lat":43.302008,"lon":5.394694,"is_reserved":false,"is_disabled":false,"rental_uris":{"android":"levelo://app?vid=45f6a71e-78b9-4984-b676-a02a0fbf42b2","ios":"levelo://app?vid=45f6a71e-78b9-4984-b676-a02a0fbf42b2"},"vehicle_type_id":"4","last_reported":1721236037,"current_range_meters":0,"station_id":"ce4bh0p2rcd13ifvqd70","pricing_plan_id":"cebpf4jnsgd1na2vs0mg"},{"bike_id":"2ed978bc-ea75-4270-8c9d-e70edddc09ae","system_id":"levelo_inurba_marseille","lat":43.29045,"lon":5.35913,"is_reserved":false,"is_disabled":false,"rental_uris":{"android":"levelo://app?vid=2ed978bc-ea75-4270-8c9d-e70edddc09ae","ios":"levelo://app?vid=2ed978bc-ea75-4270-8c9d-e70edddc09ae"},"vehicle_type_id":"4","last_reported":1721236037,"current_range_meters":0,"station_id":"ce4bha92rcd13ifvqeg0","pricing_plan_id":"cebpf4jnsgd1na2vs0mg"},{"bike_id":"9a0838da-dffa-488b-98d3-fa6e0db6851a","system_id":"levelo_inurba_marseille","lat":43.290624,"lon":5.359245,"is_reserved":false,"is_disabled":false,"rental_uris":{"android":"levelo://app?vid=9a0838da-dffa-488b-98d3-fa6e0db6851a","ios":"levelo://app?vid=9a0838da-dffa-488b-98d3-fa6e0db6851a"},"vehicle_type_id":"4","last_reported":1721236037,"current_range_meters":14000,"station_id":"ce4bha92rcd13ifvqeg0","pricing_plan_id":"cebpf4jnsgd1na2vs0mg"},{"bike_id":"080f5796-9053-4b0f-a2e5-fe6488268e11","system_id":"levelo_inurba_marseille","lat":43.284217,"lon":5.349697,"is_reserved":false,"is_disabled":false,"rental_uris":{"android":"levelo://app?vid=080f5796-9053-4b0f-a2e5-fe6488268e11","ios":"levelo://app?vid=080f5796-9053-4b0f-a2e5-fe6488268e11"},"vehicle_type_id":"4","last_reported":1721236037,"current_range_meters":6000,"station_id":"ce4bhbh2rcd13ifvqepg","pricing_plan_id":"cebpf4jnsgd1na2vs0mg"},{"bike_id":"a99e72e8-a6e0-48ba-96e2-dd870ea20d05","system_id":"levelo_inurba_marseille","lat":43.289468,"lon":5.363719,"is_reserved":false,"is_disabled":false,"rental_uris":{"android":"levelo://app?vid=a99e72e8-a6e0-48ba-96e2-dd870ea20d05","ios":"levelo://app?vid=a99e72e8-a6e0-48ba-96e2-dd870ea20d05"},"vehicle_type_id":"4","last_reported":1721236037,"current_range_meters":0,"station_id":"ce4bhc92rcd13ifvqetg","pricing_plan_id":"cebpf4jnsgd1na2vs0mg"},{"bike_id":"cafab717-3eef-4569-b8a7-61598f74d2ad","system_id":"levelo_inurba_marseille","lat":43.289184,"lon":5.366408,"is_reserved":false,"is_disabled":false,"rental_uris":{"android":"levelo://app?vid=cafab717-3eef-4569-b8a7-61598f74d2ad","ios":"levelo://app?vid=cafab717-3eef-4569-b8a7-61598f74d2ad"},"vehicle_type_id":"4","last_reported":1721236037,"current_range_meters":0,"station_id":"ce4bhap2rcd13ifvqek0","pricing_plan_id":"cebpf4jnsgd1na2vs0mg"},{"bike_id":"69f0f064-a04b-4353-9b50-a737060b2ad8","system_id":"levelo_inurba_marseille","lat":43.282754,"lon":5.350519,"is_reserved":false,"is_disabled":false,"rental_uris":{"android":"levelo://app?vid=69f0f064-a04b-4353-9b50-a737060b2ad8","ios":"levelo://app?vid=69f0f064-a04b-4353-9b50-a737060b2ad8"},"vehicle_type_id":"4","last_reported":1721236037,"current_range_meters":0,"station_id":"ce4bhbp2rcd13ifvqerg","pricing_plan_id":"cebpf4jnsgd1na2vs0mg"},{"bike_id":"6101153c-6060-43eb-8216-e4c2ef066bf4","system_id":"levelo_inurba_marseille","lat":43.29266,"lon":5.38446,"is_reserved":false,"is_disabled":false,"rental_uris":{"android":"levelo://app?vid=6101153c-6060-43eb-8216-e4c2ef066bf4","ios":"levelo://app?vid=6101153c-6060-43eb-8216-e4c2ef066bf4"},"vehicle_type_id":"4","last_reported":1721236037,"current_range_meters":0,"station_id":"ce4bh692rcd13ifvqea0","pricing_plan_id":"cebpf4jnsgd1na2vs0mg"},{"bike_id":"f462e352-7cd7-4c81-93ac-fa5693ee9356","system_id":"levelo_inurba_marseille","lat":43.292644,"lon":5.384257,"is_reserved":false,"is_disabled":false,"rental_uris":{"android":"levelo://app?vid=f462e352-7cd7-4c81-93ac-fa5693ee9356","ios":"levelo://app?vid=f462e352-7cd7-4c81-93ac-fa5693ee9356"},"vehicle_type_id":"4","last_reported":1721236037,"current_range_meters":0,"station_id":"ce4bh692rcd13ifvqea0","pricing_plan_id":"cebpf4jnsgd1na2vs0mg"},{"bike_id":"97b0c3e4-11c6-47ec-882a-2c7305add275","system_id":"levelo_inurba_marseille","lat":43.304274,"lon":5.397513,"is_reserved":false,"is_disabled":false,"rental_uris":{"android":"levelo://app?vid=97b0c3e4-11c6-47ec-882a-2c7305add275","ios":"levelo://app?vid=97b0c3e4-11c6-47ec-882a-2c7305add275"},"vehicle_type_id":"4","last_reported":1721236037,"current_range_meters":12800,"station_id":"ce4bh092rcd13ifvqd20","pricing_plan_id":"cebpf4jnsgd1na2vs0mg"},{"bike_id":"307fc262-41f8-46eb-8d50-62881e8a2d2a","system_id":"levelo_inurba_marseille","lat":43.290104,"lon":5.356111,"is_reserved":false,"is_disabled":false,"rental_uris":{"android":"levelo://app?vid=307fc262-41f8-46eb-8d50-62881e8a2d2a","ios":"levelo://app?vid=307fc262-41f8-46eb-8d50-62881e8a2d2a"},"vehicle_type_id":"4","last_reported":1721236037,"current_range_meters":0,"station_id":"ce4bhb92rcd13ifvqen0","pricing_plan_id":"cebpf4jnsgd1na2vs0mg"},{"bike_id":"11007fd2-1050-4c7a-9e17-572b44d02e6e","system_id":"levelo_inurba_marseille","lat":43.290103,"lon":5.356114,"is_reserved":false,"is_disabled":false,"rental_uris":{"android":"levelo://app?vid=11007fd2-1050-4c7a-9e17-572b44d02e6e","ios":"levelo://app?vid=11007fd2-1050-4c7a-9e17-572b44d02e6e"},"vehicle_type_id":"4","last_reported":1721236037,"current_range_meters":31200,"station_id":"ce4bhb92rcd13ifvqen0","pricing_plan_id":"cebpf4jnsgd1na2vs0mg"},{"bike_id":"47b986f6-0055-4b8d-b3a0-c3b6e90680a6","system_id":"levelo_inurba_marseille","lat":43.290104,"lon":5.356111,"is_reserved":false,"is_disabled":false,"rental_uris":{"android":"levelo://app?vid=47b986f6-0055-4b8d-b3a0-c3b6e90680a6","ios":"levelo://app?vid=47b986f6-0055-4b8d-b3a0-c3b6e90680a6"},"vehicle_type_id":"4","last_reported":1721236037,"current_range_meters":0,"station_id":"ce4bhb92rcd13ifvqen0","pricing_plan_id":"cebpf4jnsgd1na2vs0mg"},{"bike_id":"e8f7a800-1496-4a9e-a83a-55e002624ad2","system_id":"levelo_inurba_marseille","lat":43.290103,"lon":5.356114,"is_reserved":false,"is_disabled":false,"rental_uris":{"android":"levelo://app?vid=e8f7a800-1496-4a9e-a83a-55e002624ad2","ios":"levelo://app?vid=e8f7a800-1496-4a9e-a83a-55e002624ad2"},"vehicle_type_id":"4","last_reported":1721236037,"current_range_meters":800,"station_id":"ce4bhb92rcd13ifvqen0","pricing_plan_id":"cebpf4jnsgd1na2vs0mg"},{"bike_id":"40f5a0eb-54a7-416b-b5ea-2d014079a69d","system_id":"levelo_inurba_marseille","lat":43.290104,"lon":5.356111,"is_reserved":false,"is_disabled":false,"rental_uris":{"android":"levelo://app?vid=40f5a0eb-54a7-416b-b5ea-2d014079a69d","ios":"levelo://app?vid=40f5a0eb-54a7-416b-b5ea-2d014079a69d"},"vehicle_type_id":"4","last_reported":1721236037,"current_range_meters":0,"station_id":"ce4bhb92rcd13ifvqen0","pricing_plan_id":"cebpf4jnsgd1na2vs0mg"},{"bike_id":"87d27305-a195-4721-8d46-975455467cb6","system_id":"levelo_inurba_marseille","lat":43.290104,"lon":5.356111,"is_reserved":false,"is_disabled":false,"rental_uris":{"android":"levelo://app?vid=87d27305-a195-4721-8d46-975455467cb6","ios":"levelo://app?vid=87d27305-a195-4721-8d46-975455467cb6"},"vehicle_type_id":"4","last_reported":1721236037,"current_range_meters":31600,"station_id":"ce4bhb92rcd13ifvqen0","pricing_plan_id":"cebpf4jnsgd1na2vs0mg"},{"bike_id":"da19fee9-764d-42d7-a214-250aec4f3f61","system_id":"levelo_inurba_marseille","lat":43.290103,"lon":5.356114,"is_reserved":false,"is_disabled":false,"rental_uris":{"android":"levelo://app?vid=da19fee9-764d-42d7-a214-250aec4f3f61","ios":"levelo://app?vid=da19fee9-764d-42d7-a214-250aec4f3f61"},"vehicle_type_id":"4","last_reported":1721236037,"current_range_meters":0,"station_id":"ce4bhb92rcd13ifvqen0","pricing_plan_id":"cebpf4jnsgd1na2vs0mg"},{"bike_id":"921c7592-fb65-4eb1-a00f-e5aff37c3ba0","system_id":"levelo_inurba_marseille","lat":43.290104,"lon":5.356111,"is_reserved":false,"is_disabled":false,"rental_uris":{"android":"levelo://app?vid=921c7592-fb65-4eb1-a00f-e5aff37c3ba0","ios":"levelo://app?vid=921c7592-fb65-4eb1-a00f-e5aff37c3ba0"},"vehicle_type_id":"4","last_reported":1721236037,"current_range_meters":22400,"station_id":"ce4bhb92rcd13ifvqen0","pricing_plan_id":"cebpf4jnsgd1na2vs0mg"},{"bike_id":"f1868799-28cc-4854-84fe-4dba8db33093","system_id":"levelo_inurba_marseille","lat":43.290103,"lon":5.356114,"is_reserved":false,"is_disabled":false,"rental_uris":{"android":"levelo://app?vid=f1868799-28cc-4854-84fe-4dba8db33093","ios":"levelo://app?vid=f1868799-28cc-4854-84fe-4dba8db33093"},"vehicle_type_id":"4","last_reported":1721236037,"current_range_meters":0,"station_id":"ce4bhb92rcd13ifvqen0","pricing_plan_id":"cebpf4jnsgd1na2vs0mg"},{"bike_id":"7ecde12b-21a2-414f-bd1f-327d4ab15441","system_id":"levelo_inurba_marseille","lat":43.290995,"lon":5.381361,"is_reserved":false,"is_disabled":false,"rental_uris":{"android":"levelo://app?vid=7ecde12b-21a2-414f-bd1f-327d4ab15441","ios":"levelo://app?vid=7ecde12b-21a2-414f-bd1f-327d4ab15441"},"vehicle_type_id":"4","last_reported":1721236037,"current_range_meters":0,"station_id":"ce4bh512rcd13ifvqe2g","pricing_plan_id":"cebpf4jnsgd1na2vs0mg"},{"bike_id":"e7dcc909-0fcb-4810-863f-e2cb31e9c321","system_id":"levelo_inurba_marseille","lat":43.297873,"lon":5.393527,"is_reserved":false,"is_disabled":false,"rental_uris":{"android":"levelo://app?vid=e7dcc909-0fcb-4810-863f-e2cb31e9c321","ios":"levelo://app?vid=e7dcc909-0fcb-4810-863f-e2cb31e9c321"},"vehicle_type_id":"4","last_reported":1721236037,"current_range_meters":15600,"station_id":"chh1huq6cuj3fo74tm60","pricing_plan_id":"cebpf4jnsgd1na2vs0mg"},{"bike_id":"f716b2a0-7d55-4cd0-84d8-08a532b0b35f","system_id":"levelo_inurba_marseille","lat":43.295169,"lon":5.390426,"is_reserved":false,"is_disabled":false,"rental_uris":{"android":"levelo://app?vid=f716b2a0-7d55-4cd0-84d8-08a532b0b35f","ios":"levelo://app?vid=f716b2a0-7d55-4cd0-84d8-08a532b0b35f"},"vehicle_type_id":"4","last_reported":1721236037,"current_range_meters":4400,"station_id":"ce4bh3p2rcd13ifvqdp0","pricing_plan_id":"cebpf4jnsgd1na2vs0mg"},{"bike_id":"6246aa4f-d03a-44b8-bcd9-d2e77fa6ae29","system_id":"levelo_inurba_marseille","lat":43.295169,"lon":5.390426,"is_reserved":false,"is_disabled":false,"rental_uris":{"android":"levelo://app?vid=6246aa4f-d03a-44b8-bcd9-d2e77fa6ae29","ios":"levelo://app?vid=6246aa4f-d03a-44b8-bcd9-d2e77fa6ae29"},"vehicle_type_id":"4","last_reported":1721236037,"current_range_meters":23200,"station_id":"ce4bh3p2rcd13ifvqdp0","pricing_plan_id":"cebpf4jnsgd1na2vs0mg"},{"bike_id":"af29b126-5533-4925-9769-a72c81292a2b","system_id":"levelo_inurba_marseille","lat":43.33029,"lon":5.39045,"is_reserved":false,"is_disabled":false,"rental_uris":{"android":"levelo://app?vid=af29b126-5533-4925-9769-a72c81292a2b","ios":"levelo://app?vid=af29b126-5533-4925-9769-a72c81292a2b"},"vehicle_type_id":"4","last_reported":1721236037,"current_range_meters":0,"station_id":"ce4bhr92rcd13ifvqhrg","pricing_plan_id":"cebpf4jnsgd1na2vs0mg"},{"bike_id":"b855f990-11c5-4344-a5e3-365416405fef","system_id":"levelo_inurba_marseille","lat":43.29509,"lon":5.39034,"is_reserved":false,"is_disabled":false,"rental_uris":{"android":"levelo://app?vid=b855f990-11c5-4344-a5e3-365416405fef","ios":"levelo://app?vid=b855f990-11c5-4344-a5e3-365416405fef"},"vehicle_type_id":"4","last_reported":1721236037,"current_range_meters":9200,"station_id":"ce4bh3p2rcd13ifvqdp0","pricing_plan_id":"cebpf4jnsgd1na2vs0mg"},{"bike_id":"420a5a35-b1cd-49f4-9092-127d0b52b1b3","system_id":"levelo_inurba_marseille","lat":43.295169,"lon":5.390426,"is_reserved":false,"is_disabled":false,"rental_uris":{"android":"levelo://app?vid=420a5a35-b1cd-49f4-9092-127d0b52b1b3","ios":"levelo://app?vid=420a5a35-b1cd-49f4-9092-127d0b52b1b3"},"vehicle_type_id":"4","last_reported":1721236037,"current_range_meters":4400,"station_id":"ce4bh3p2rcd13ifvqdp0","pricing_plan_id":"cebpf4jnsgd1na2vs0mg"},{"bike_id":"7bd534f4-0e9c-4c4c-9aff-cdd8484889d5","system_id":"levelo_inurba_marseille","lat":43.2903,"lon":5.38129,"is_reserved":false,"is_disabled":false,"rental_uris":{"android":"levelo://app?vid=7bd534f4-0e9c-4c4c-9aff-cdd8484889d5","ios":"levelo://app?vid=7bd534f4-0e9c-4c4c-9aff-cdd8484889d5"},"vehicle_type_id":"4","last_reported":1721236037,"current_range_meters":0,"station_id":"ce4bh4p2rcd13ifvqe1g","pricing_plan_id":"cebpf4jnsgd1na2vs0mg"},{"bike_id":"83e49c50-cdcc-449d-a4e5-19770c62cf37","system_id":"levelo_inurba_marseille","lat":43.28856,"lon":5.358371,"is_reserved":false,"is_disabled":false,"rental_uris":{"android":"levelo://app?vid=83e49c50-cdcc-449d-a4e5-19770c62cf37","ios":"levelo://app?vid=83e49c50-cdcc-449d-a4e5-19770c62cf37"},"vehicle_type_id":"4","last_reported":1721236037,"current_range_meters":0,"station_id":"ce4bhb12rcd13ifvqem0","pricing_plan_id":"cebpf4jnsgd1na2vs0mg"},{"bike_id":"79f09aea-0469-47ec-a6cb-33dbcc915c3e","system_id":"levelo_inurba_marseille","lat":43.290104,"lon":5.356111,"is_reserved":false,"is_disabled":false,"rental_uris":{"android":"levelo://app?vid=79f09aea-0469-47ec-a6cb-33dbcc915c3e","ios":"levelo://app?vid=79f09aea-0469-47ec-a6cb-33dbcc915c3e"},"vehicle_type_id":"4","last_reported":1721236037,"current_range_meters":0,"station_id":"ce4bhb92rcd13ifvqen0","pricing_plan_id":"cebpf4jnsgd1na2vs0mg"},{"bike_id":"506776d4-bedb-4cde-9d49-cc9e6dee2c34","system_id":"levelo_inurba_marseille","lat":43.312609,"lon":5.401662,"is_reserved":false,"is_disabled":false,"rental_uris":{"android":"levelo://app?vid=506776d4-bedb-4cde-9d49-cc9e6dee2c34","ios":"levelo://app?vid=506776d4-bedb-4cde-9d49-cc9e6dee2c34"},"vehicle_type_id":"4","last_reported":1721236037,"current_range_meters":6400,"station_id":"ce4bh092rcd13ifvqd30","pricing_plan_id":"cebpf4jnsgd1na2vs0mg"},{"bike_id":"136a8749-c2ba-4e9a-8544-4b41408ca3d4","system_id":"levelo_inurba_marseille","lat":43.33752,"lon":5.37458,"is_reserved":false,"is_disabled":false,"rental_uris":{"android":"levelo://app?vid=136a8749-c2ba-4e9a-8544-4b41408ca3d4","ios":"levelo://app?vid=136a8749-c2ba-4e9a-8544-4b41408ca3d4"},"vehicle_type_id":"4","last_reported":1721236037,"current_range_meters":21200,"station_id":"","pricing_plan_id":"cebpf4jnsgd1na2vs0mg"},{"bike_id":"8d110055-f2dc-4581-9f36-be92f66c9d34","system_id":"levelo_inurba_marseille","lat":43.33755,"lon":5.37443,"is_reserved":false,"is_disabled":false,"rental_uris":{"android":"levelo://app?vid=8d110055-f2dc-4581-9f36-be92f66c9d34","ios":"levelo://app?vid=8d110055-f2dc-4581-9f36-be92f66c9d34"},"vehicle_type_id":"4","last_reported":1721236037,"current_range_meters":26800,"station_id":"","pricing_plan_id":"cebpf4jnsgd1na2vs0mg"},{"bike_id":"8391f7cc-1acd-4ec9-a3ef-60f9a479b64d","system_id":"levelo_inurba_marseille","lat":43.337572,"lon":5.374554,"is_reserved":false,"is_disabled":false,"rental_uris":{"android":"levelo://app?vid=8391f7cc-1acd-4ec9-a3ef-60f9a479b64d","ios":"levelo://app?vid=8391f7cc-1acd-4ec9-a3ef-60f9a479b64d"},"vehicle_type_id":"4","last_reported":1721236037,"current_range_meters":6000,"station_id":"","pricing_plan_id":"cebpf4jnsgd1na2vs0mg"},{"bike_id":"d178c787-21f1-4941-8ec7-154d892e7b32","system_id":"levelo_inurba_marseille","lat":43.3376,"lon":5.37444,"is_reserved":false,"is_disabled":false,"rental_uris":{"android":"levelo://app?vid=d178c787-21f1-4941-8ec7-154d892e7b32","ios":"levelo://app?vid=d178c787-21f1-4941-8ec7-154d892e7b32"},"vehicle_type_id":"4","last_reported":1721236037,"current_range_meters":30000,"station_id":"","pricing_plan_id":"cebpf4jnsgd1na2vs0mg"},{"bike_id":"f2ddfdbe-e9fd-41ac-b5ee-f1d253a23841","system_id":"levelo_inurba_marseille","lat":43.306412,"lon":5.401035,"is_reserved":false,"is_disabled":false,"rental_uris":{"android":"levelo://app?vid=f2ddfdbe-e9fd-41ac-b5ee-f1d253a23841","ios":"levelo://app?vid=f2ddfdbe-e9fd-41ac-b5ee-f1d253a23841"},"vehicle_type_id":"4","last_reported":1721236037,"current_range_meters":1600,"station_id":"ce4bh112rcd13ifvqda0","pricing_plan_id":"cebpf4jnsgd1na2vs0mg"},{"bike_id":"47bb7a22-63e0-4276-828c-996e182d2788","system_id":"levelo_inurba_marseille","lat":43.30642,"lon":5.401031,"is_reserved":false,"is_disabled":false,"rental_uris":{"android":"levelo://app?vid=47bb7a22-63e0-4276-828c-996e182d2788","ios":"levelo://app?vid=47bb7a22-63e0-4276-828c-996e182d2788"},"vehicle_type_id":"4","last_reported":1721236037,"current_range_meters":17600,"station_id":"ce4bh112rcd13ifvqda0","pricing_plan_id":"cebpf4jnsgd1na2vs0mg"},{"bike_id":"2e9d049c-f21a-4d5a-9950-0f264af2a572","system_id":"levelo_inurba_marseille","lat":43.28727,"lon":5.36078,"is_reserved":false,"is_disabled":false,"rental_uris":{"android":"levelo://app?vid=2e9d049c-f21a-4d5a-9950-0f264af2a572","ios":"levelo://app?vid=2e9d049c-f21a-4d5a-9950-0f264af2a572"},"vehicle_type_id":"4","last_reported":1721236037,"current_range_meters":8800,"station_id":"cki0cbj6b192h4jlfktg","pricing_plan_id":"cebpf4jnsgd1na2vs0mg"},{"bike_id":"61790245-5a89-4624-9073-f729afa64e43","system_id":"levelo_inurba_marseille","lat":43.286591,"lon":5.363346,"is_reserved":false,"is_disabled":false,"rental_uris":{"android":"levelo://app?vid=61790245-5a89-4624-9073-f729afa64e43","ios":"levelo://app?vid=61790245-5a89-4624-9073-f729afa64e43"},"vehicle_type_id":"4","last_reported":1721236037,"current_range_meters":800,"station_id":"ce4bhah2rcd13ifvqej0","pricing_plan_id":"cebpf4jnsgd1na2vs0mg"},{"bike_id":"c4566fd5-9920-45c1-b9de-0c890f6578ba","system_id":"levelo_inurba_marseille","lat":43.286961,"lon":5.373785,"is_reserved":false,"is_disabled":false,"rental_uris":{"android":"levelo://app?vid=c4566fd5-9920-45c1-b9de-0c890f6578ba","ios":"levelo://app?vid=c4566fd5-9920-45c1-b9de-0c890f6578ba"},"vehicle_type_id":"4","last_reported":1721236037,"current_range_meters":11600,"station_id":"ce4bh3p2rcd13ifvqdq0","pricing_plan_id":"cebpf4jnsgd1na2vs0mg"},{"bike_id":"59dd840f-78d7-4312-b115-7cfcde828642","system_id":"levelo_inurba_marseille","lat":43.286961,"lon":5.373785,"is_reserved":false,"is_disabled":false,"rental_uris":{"android":"levelo://app?vid=59dd840f-78d7-4312-b115-7cfcde828642","ios":"levelo://app?vid=59dd840f-78d7-4312-b115-7cfcde828642"},"vehicle_type_id":"4","last_reported":1721236037,"current_range_meters":16000,"station_id":"ce4bh3p2rcd13ifvqdq0","pricing_plan_id":"cebpf4jnsgd1na2vs0mg"},{"bike_id":"5f6ef457-ce35-4f2b-b51b-e1b72393d057","system_id":"levelo_inurba_marseille","lat":43.286593,"lon":5.363346,"is_reserved":false,"is_disabled":false,"rental_uris":{"android":"levelo://app?vid=5f6ef457-ce35-4f2b-b51b-e1b72393d057","ios":"levelo://app?vid=5f6ef457-ce35-4f2b-b51b-e1b72393d057"},"vehicle_type_id":"4","last_reported":1721236037,"current_range_meters":2000,"station_id":"ce4bhah2rcd13ifvqej0","pricing_plan_id":"cebpf4jnsgd1na2vs0mg"},{"bike_id":"97c89e60-8cfb-44ee-86ef-3fb0c17f3e17","system_id":"levelo_inurba_marseille","lat":43.302759,"lon":5.400793,"is_reserved":false,"is_disabled":false,"rental_uris":{"android":"levelo://app?vid=97c89e60-8cfb-44ee-86ef-3fb0c17f3e17","ios":"levelo://app?vid=97c89e60-8cfb-44ee-86ef-3fb0c17f3e17"},"vehicle_type_id":"4","last_reported":1721236037,"current_range_meters":1200,"station_id":"ce4bgvh2rcd13ifvqcs0","pricing_plan_id":"cebpf4jnsgd1na2vs0mg"},{"bike_id":"ebe24c6b-bafa-4a4b-b3d0-d22db0f91411","system_id":"levelo_inurba_marseille","lat":43.290336,"lon":5.386425,"is_reserved":false,"is_disabled":false,"rental_uris":{"android":"levelo://app?vid=ebe24c6b-bafa-4a4b-b3d0-d22db0f91411","ios":"levelo://app?vid=ebe24c6b-bafa-4a4b-b3d0-d22db0f91411"},"vehicle_type_id":"4","last_reported":1721236037,"current_range_meters":11600,"station_id":"ce4bh4p2rcd13ifvqe0g","pricing_plan_id":"cebpf4jnsgd1na2vs0mg"},{"bike_id":"61fdb7df-8f1e-497c-8a22-22d2f6d48919","system_id":"levelo_inurba_marseille","lat":43.29027,"lon":5.38631,"is_reserved":false,"is_disabled":false,"rental_uris":{"android":"levelo://app?vid=61fdb7df-8f1e-497c-8a22-22d2f6d48919","ios":"levelo://app?vid=61fdb7df-8f1e-497c-8a22-22d2f6d48919"},"vehicle_type_id":"4","last_reported":1721236037,"current_range_meters":0,"station_id":"ce4bh4p2rcd13ifvqe0g","pricing_plan_id":"cebpf4jnsgd1na2vs0mg"},{"bike_id":"70e951e8-3c6e-4b0c-b62c-e4cd38a157fe","system_id":"levelo_inurba_marseille","lat":43.290336,"lon":5.386425,"is_reserved":false,"is_disabled":false,"rental_uris":{"android":"levelo://app?vid=70e951e8-3c6e-4b0c-b62c-e4cd38a157fe","ios":"levelo://app?vid=70e951e8-3c6e-4b0c-b62c-e4cd38a157fe"},"vehicle_type_id":"4","last_reported":1721236037,"current_range_meters":2800,"station_id":"ce4bh4p2rcd13ifvqe0g","pricing_plan_id":"cebpf4jnsgd1na2vs0mg"},{"bike_id":"20ae2c36-82d9-4b7a-9ccb-259cf9757eb6","system_id":"levelo_inurba_marseille","lat":43.29027,"lon":5.38646,"is_reserved":false,"is_disabled":false,"rental_uris":{"android":"levelo://app?vid=20ae2c36-82d9-4b7a-9ccb-259cf9757eb6","ios":"levelo://app?vid=20ae2c36-82d9-4b7a-9ccb-259cf9757eb6"},"vehicle_type_id":"4","last_reported":1721236037,"current_range_meters":15200,"station_id":"ce4bh4p2rcd13ifvqe0g","pricing_plan_id":"cebpf4jnsgd1na2vs0mg"},{"bike_id":"93fe3434-6163-4d8e-a661-d51aabea6ab3","system_id":"levelo_inurba_marseille","lat":43.290336,"lon":5.386425,"is_reserved":false,"is_disabled":false,"rental_uris":{"android":"levelo://app?vid=93fe3434-6163-4d8e-a661-d51aabea6ab3","ios":"levelo://app?vid=93fe3434-6163-4d8e-a661-d51aabea6ab3"},"vehicle_type_id":"4","last_reported":1721236037,"current_range_meters":0,"station_id":"ce4bh4p2rcd13ifvqe0g","pricing_plan_id":"cebpf4jnsgd1na2vs0mg"},{"bike_id":"52b56a29-92c4-4c3d-8493-ff7b46e9a6cf","system_id":"levelo_inurba_marseille","lat":43.302759,"lon":5.400793,"is_reserved":false,"is_disabled":false,"rental_uris":{"android":"levelo://app?vid=52b56a29-92c4-4c3d-8493-ff7b46e9a6cf","ios":"levelo://app?vid=52b56a29-92c4-4c3d-8493-ff7b46e9a6cf"},"vehicle_type_id":"4","last_reported":1721236037,"current_range_meters":400,"station_id":"ce4bgvh2rcd13ifvqcs0","pricing_plan_id":"cebpf4jnsgd1na2vs0mg"},{"bike_id":"c2368c4e-2dbb-4aaf-9890-c0c749744d85","system_id":"levelo_inurba_marseille","lat":43.28611,"lon":5.37071,"is_reserved":false,"is_disabled":false,"rental_uris":{"android":"levelo://app?vid=c2368c4e-2dbb-4aaf-9890-c0c749744d85","ios":"levelo://app?vid=c2368c4e-2dbb-4aaf-9890-c0c749744d85"},"vehicle_type_id":"4","last_reported":1721236037,"current_range_meters":3600,"station_id":"ce4bht12rcd13ifvqi60","pricing_plan_id":"cebpf4jnsgd1na2vs0mg"},{"bike_id":"53a97ccd-ab9d-416b-9266-79c2570b404a","system_id":"levelo_inurba_marseille","lat":43.2861,"lon":5.3707,"is_reserved":false,"is_disabled":false,"rental_uris":{"android":"levelo://app?vid=53a97ccd-ab9d-416b-9266-79c2570b404a","ios":"levelo://app?vid=53a97ccd-ab9d-416b-9266-79c2570b404a"},"vehicle_type_id":"4","last_reported":1721236037,"current_range_meters":8000,"station_id":"ce4bht12rcd13ifvqi60","pricing_plan_id":"cebpf4jnsgd1na2vs0mg"},{"bike_id":"f9c4fb96-9b24-4555-aa29-5c8905d30fc3","system_id":"levelo_inurba_marseille","lat":43.291994,"lon":5.392907,"is_reserved":false,"is_disabled":false,"rental_uris":{"android":"levelo://app?vid=f9c4fb96-9b24-4555-aa29-5c8905d30fc3","ios":"levelo://app?vid=f9c4fb96-9b24-4555-aa29-5c8905d30fc3"},"vehicle_type_id":"4","last_reported":1721236037,"current_range_meters":0,"station_id":"ce4bh192rcd13ifvqdd0","pricing_plan_id":"cebpf4jnsgd1na2vs0mg"},{"bike_id":"ae358720-9fda-420f-9e56-3f922bfc3be3","system_id":"levelo_inurba_marseille","lat":43.31318,"lon":5.405865,"is_reserved":false,"is_disabled":false,"rental_uris":{"android":"levelo://app?vid=ae358720-9fda-420f-9e56-3f922bfc3be3","ios":"levelo://app?vid=ae358720-9fda-420f-9e56-3f922bfc3be3"},"vehicle_type_id":"4","last_reported":1721236037,"current_range_meters":21200,"station_id":"","pricing_plan_id":"cebpf4jnsgd1na2vs0mg"},{"bike_id":"1cbbbd4d-e841-48ef-863f-285723596bb0","system_id":"levelo_inurba_marseille","lat":43.284534,"lon":5.358662,"is_reserved":false,"is_disabled":false,"rental_uris":{"android":"levelo://app?vid=1cbbbd4d-e841-48ef-863f-285723596bb0","ios":"levelo://app?vid=1cbbbd4d-e841-48ef-863f-285723596bb0"},"vehicle_type_id":"4","last_reported":1721236037,"current_range_meters":6400,"station_id":"ce4bhah2rcd13ifvqei0","pricing_plan_id":"cebpf4jnsgd1na2vs0mg"},{"bike_id":"9ced07cf-937b-45b5-bcf1-fcbd2b67810b","system_id":"levelo_inurba_marseille","lat":43.284538,"lon":5.358657,"is_reserved":false,"is_disabled":false,"rental_uris":{"android":"levelo://app?vid=9ced07cf-937b-45b5-bcf1-fcbd2b67810b","ios":"levelo://app?vid=9ced07cf-937b-45b5-bcf1-fcbd2b67810b"},"vehicle_type_id":"4","last_reported":1721236037,"current_range_meters":4800,"station_id":"ce4bhah2rcd13ifvqei0","pricing_plan_id":"cebpf4jnsgd1na2vs0mg"},{"bike_id":"0c64d4f3-b3a8-438a-9bb9-d4ea9b7102a5","system_id":"levelo_inurba_marseille","lat":43.284534,"lon":5.358662,"is_reserved":false,"is_disabled":false,"rental_uris":{"android":"levelo://app?vid=0c64d4f3-b3a8-438a-9bb9-d4ea9b7102a5","ios":"levelo://app?vid=0c64d4f3-b3a8-438a-9bb9-d4ea9b7102a5"},"vehicle_type_id":"4","last_reported":1721236037,"current_range_meters":18000,"station_id":"ce4bhah2rcd13ifvqei0","pricing_plan_id":"cebpf4jnsgd1na2vs0mg"},{"bike_id":"6db5c0e6-73f4-4948-857a-4ab2f202364e","system_id":"levelo_inurba_marseille","lat":43.284534,"lon":5.358662,"is_reserved":false,"is_disabled":false,"rental_uris":{"android":"levelo://app?vid=6db5c0e6-73f4-4948-857a-4ab2f202364e","ios":"levelo://app?vid=6db5c0e6-73f4-4948-857a-4ab2f202364e"},"vehicle_type_id":"4","last_reported":1721236037,"current_range_meters":21200,"station_id":"ce4bhah2rcd13ifvqei0","pricing_plan_id":"cebpf4jnsgd1na2vs0mg"},{"bike_id":"55b58cdb-eb9e-4b84-8975-4be8d5e0c5e2","system_id":"levelo_inurba_marseille","lat":43.28625,"lon":5.35103,"is_reserved":false,"is_disabled":false,"rental_uris":{"android":"levelo://app?vid=55b58cdb-eb9e-4b84-8975-4be8d5e0c5e2","ios":"levelo://app?vid=55b58cdb-eb9e-4b84-8975-4be8d5e0c5e2"},"vehicle_type_id":"4","last_reported":1721236037,"current_range_meters":15200,"station_id":"ce4bhch2rcd13ifvqeug","pricing_plan_id":"cebpf4jnsgd1na2vs0mg"},{"bike_id":"c839588e-a56a-417a-9a40-b4732e768f53","system_id":"levelo_inurba_marseille","lat":43.28622,"lon":5.35105,"is_reserved":false,"is_disabled":false,"rental_uris":{"android":"levelo://app?vid=c839588e-a56a-417a-9a40-b4732e768f53","ios":"levelo://app?vid=c839588e-a56a-417a-9a40-b4732e768f53"},"vehicle_type_id":"4","last_reported":1721236037,"current_range_meters":27600,"station_id":"ce4bhch2rcd13ifvqeug","pricing_plan_id":"cebpf4jnsgd1na2vs0mg"},{"bike_id":"caad40cf-b6f6-4b08-b888-4877710a70b8","system_id":"levelo_inurba_marseille","lat":43.285848,"lon":5.350787,"is_reserved":false,"is_disabled":false,"rental_uris":{"android":"levelo://app?vid=caad40cf-b6f6-4b08-b888-4877710a70b8","ios":"levelo://app?vid=caad40cf-b6f6-4b08-b888-4877710a70b8"},"vehicle_type_id":"4","last_reported":1721236037,"current_range_meters":0,"station_id":"ce4bhch2rcd13ifvqeug","pricing_plan_id":"cebpf4jnsgd1na2vs0mg"},{"bike_id":"4f45044b-8aad-4ef5-b2bc-20658ec420cf","system_id":"levelo_inurba_marseille","lat":43.2862,"lon":5.35106,"is_reserved":false,"is_disabled":false,"rental_uris":{"android":"levelo://app?vid=4f45044b-8aad-4ef5-b2bc-20658ec420cf","ios":"levelo://app?vid=4f45044b-8aad-4ef5-b2bc-20658ec420cf"},"vehicle_type_id":"4","last_reported":1721236037,"current_range_meters":800,"station_id":"ce4bhch2rcd13ifvqeug","pricing_plan_id":"cebpf4jnsgd1na2vs0mg"},{"bike_id":"9d994f97-ec23-4cb0-a5ed-7d8948e72e4b","system_id":"levelo_inurba_marseille","lat":43.28618,"lon":5.35112,"is_reserved":false,"is_disabled":false,"rental_uris":{"android":"levelo://app?vid=9d994f97-ec23-4cb0-a5ed-7d8948e72e4b","ios":"levelo://app?vid=9d994f97-ec23-4cb0-a5ed-7d8948e72e4b"},"vehicle_type_id":"4","last_reported":1721236037,"current_range_meters":10000,"station_id":"ce4bhch2rcd13ifvqeug","pricing_plan_id":"cebpf4jnsgd1na2vs0mg"},{"bike_id":"9b46fe71-9bf4-46b5-8250-830a88271432","system_id":"levelo_inurba_marseille","lat":43.2862,"lon":5.351053,"is_reserved":false,"is_disabled":false,"rental_uris":{"android":"levelo://app?vid=9b46fe71-9bf4-46b5-8250-830a88271432","ios":"levelo://app?vid=9b46fe71-9bf4-46b5-8250-830a88271432"},"vehicle_type_id":"4","last_reported":1721236037,"current_range_meters":2800,"station_id":"ce4bhch2rcd13ifvqeug","pricing_plan_id":"cebpf4jnsgd1na2vs0mg"},{"bike_id":"38174f8c-f26f-4da1-864a-02d2524f0132","system_id":"levelo_inurba_marseille","lat":43.28617,"lon":5.35114,"is_reserved":false,"is_disabled":false,"rental_uris":{"android":"levelo://app?vid=38174f8c-f26f-4da1-864a-02d2524f0132","ios":"levelo://app?vid=38174f8c-f26f-4da1-864a-02d2524f0132"},"vehicle_type_id":"4","last_reported":1721236037,"current_range_meters":20400,"station_id":"","pricing_plan_id":"cebpf4jnsgd1na2vs0mg"},{"bike_id":"f2629930-aa3a-4a70-a573-ca184e45f8d9","system_id":"levelo_inurba_marseille","lat":43.2862,"lon":5.35103,"is_reserved":false,"is_disabled":false,"rental_uris":{"android":"levelo://app?vid=f2629930-aa3a-4a70-a573-ca184e45f8d9","ios":"levelo://app?vid=f2629930-aa3a-4a70-a573-ca184e45f8d9"},"vehicle_type_id":"4","last_reported":1721236037,"current_range_meters":13600,"station_id":"ce4bhch2rcd13ifvqeug","pricing_plan_id":"cebpf4jnsgd1na2vs0mg"},{"bike_id":"478896a1-6d35-4cad-9d89-6bbf410fc25b","system_id":"levelo_inurba_marseille","lat":43.2862,"lon":5.35102,"is_reserved":false,"is_disabled":false,"rental_uris":{"android":"levelo://app?vid=478896a1-6d35-4cad-9d89-6bbf410fc25b","ios":"levelo://app?vid=478896a1-6d35-4cad-9d89-6bbf410fc25b"},"vehicle_type_id":"4","last_reported":1721236037,"current_range_meters":31200,"station_id":"ce4bhch2rcd13ifvqeug","pricing_plan_id":"cebpf4jnsgd1na2vs0mg"},{"bike_id":"8cd5f5a3-6478-4694-b263-2c5eefb0a5fd","system_id":"levelo_inurba_marseille","lat":43.28616,"lon":5.35114,"is_reserved":false,"is_disabled":false,"rental_uris":{"android":"levelo://app?vid=8cd5f5a3-6478-4694-b263-2c5eefb0a5fd","ios":"levelo://app?vid=8cd5f5a3-6478-4694-b263-2c5eefb0a5fd"},"vehicle_type_id":"4","last_reported":1721236037,"current_range_meters":6800,"station_id":"ce4bhch2rcd13ifvqeug","pricing_plan_id":"cebpf4jnsgd1na2vs0mg"},{"bike_id":"e41d4c42-e7d5-4311-b6de-92be4788e9f6","system_id":"levelo_inurba_marseille","lat":43.28618,"lon":5.35107,"is_reserved":false,"is_disabled":false,"rental_uris":{"android":"levelo://app?vid=e41d4c42-e7d5-4311-b6de-92be4788e9f6","ios":"levelo://app?vid=e41d4c42-e7d5-4311-b6de-92be4788e9f6"},"vehicle_type_id":"4","last_reported":1721236037,"current_range_meters":27600,"station_id":"ce4bhch2rcd13ifvqeug","pricing_plan_id":"cebpf4jnsgd1na2vs0mg"},{"bike_id":"fb47ffb8-0e15-45d0-9b1e-4b430d25bfc3","system_id":"levelo_inurba_marseille","lat":43.285856,"lon":5.350771,"is_reserved":false,"is_disabled":false,"rental_uris":{"android":"levelo://app?vid=fb47ffb8-0e15-45d0-9b1e-4b430d25bfc3","ios":"levelo://app?vid=fb47ffb8-0e15-45d0-9b1e-4b430d25bfc3"},"vehicle_type_id":"4","last_reported":1721236037,"current_range_meters":8000,"station_id":"ce4bhch2rcd13ifvqeug","pricing_plan_id":"cebpf4jnsgd1na2vs0mg"},{"bike_id":"7f346830-0fe5-43ec-8cca-f510509e5a11","system_id":"levelo_inurba_marseille","lat":43.28616,"lon":5.35113,"is_reserved":false,"is_disabled":false,"rental_uris":{"android":"levelo://app?vid=7f346830-0fe5-43ec-8cca-f510509e5a11","ios":"levelo://app?vid=7f346830-0fe5-43ec-8cca-f510509e5a11"},"vehicle_type_id":"4","last_reported":1721236037,"current_range_meters":22800,"station_id":"ce4bhch2rcd13ifvqeug","pricing_plan_id":"cebpf4jnsgd1na2vs0mg"},{"bike_id":"7a8ab5a3-0e78-4018-8012-49c95b74248b","system_id":"levelo_inurba_marseille","lat":43.2862,"lon":5.351,"is_reserved":false,"is_disabled":false,"rental_uris":{"android":"levelo://app?vid=7a8ab5a3-0e78-4018-8012-49c95b74248b","ios":"levelo://app?vid=7a8ab5a3-0e78-4018-8012-49c95b74248b"},"vehicle_type_id":"4","last_reported":1721236037,"current_range_meters":22000,"station_id":"ce4bhch2rcd13ifvqeug","pricing_plan_id":"cebpf4jnsgd1na2vs0mg"},{"bike_id":"c1aaecd5-0ace-415b-b675-ca5b6f03853e","system_id":"levelo_inurba_marseille","lat":43.28619,"lon":5.35102,"is_reserved":false,"is_disabled":false,"rental_uris":{"android":"levelo://app?vid=c1aaecd5-0ace-415b-b675-ca5b6f03853e","ios":"levelo://app?vid=c1aaecd5-0ace-415b-b675-ca5b6f03853e"},"vehicle_type_id":"4","last_reported":1721236037,"current_range_meters":30800,"station_id":"ce4bhch2rcd13ifvqeug","pricing_plan_id":"cebpf4jnsgd1na2vs0mg"},{"bike_id":"6b5b9562-0b02-4a30-807e-a3180e6d8b8a","system_id":"levelo_inurba_marseille","lat":43.28618,"lon":5.35102,"is_reserved":false,"is_disabled":false,"rental_uris":{"android":"levelo://app?vid=6b5b9562-0b02-4a30-807e-a3180e6d8b8a","ios":"levelo://app?vid=6b5b9562-0b02-4a30-807e-a3180e6d8b8a"},"vehicle_type_id":"4","last_reported":1721236037,"current_range_meters":31200,"station_id":"ce4bhch2rcd13ifvqeug","pricing_plan_id":"cebpf4jnsgd1na2vs0mg"},{"bike_id":"01841092-8217-4657-a004-d4808f20538a","system_id":"levelo_inurba_marseille","lat":43.285848,"lon":5.350787,"is_reserved":false,"is_disabled":false,"rental_uris":{"android":"levelo://app?vid=01841092-8217-4657-a004-d4808f20538a","ios":"levelo://app?vid=01841092-8217-4657-a004-d4808f20538a"},"vehicle_type_id":"4","last_reported":1721236037,"current_range_meters":29200,"station_id":"ce4bhch2rcd13ifvqeug","pricing_plan_id":"cebpf4jnsgd1na2vs0mg"},{"bike_id":"bf1cb7fe-6e3b-4667-95fe-97205659d538","system_id":"levelo_inurba_marseille","lat":43.285856,"lon":5.350771,"is_reserved":false,"is_disabled":false,"rental_uris":{"android":"levelo://app?vid=bf1cb7fe-6e3b-4667-95fe-97205659d538","ios":"levelo://app?vid=bf1cb7fe-6e3b-4667-95fe-97205659d538"},"vehicle_type_id":"4","last_reported":1721236037,"current_range_meters":12400,"station_id":"ce4bhch2rcd13ifvqeug","pricing_plan_id":"cebpf4jnsgd1na2vs0mg"},{"bike_id":"c60bcd2a-e0d0-49f1-9e47-74293c220fdf","system_id":"levelo_inurba_marseille","lat":43.28615,"lon":5.3511,"is_reserved":false,"is_disabled":false,"rental_uris":{"android":"levelo://app?vid=c60bcd2a-e0d0-49f1-9e47-74293c220fdf","ios":"levelo://app?vid=c60bcd2a-e0d0-49f1-9e47-74293c220fdf"},"vehicle_type_id":"4","last_reported":1721236037,"current_range_meters":19600,"station_id":"ce4bhch2rcd13ifvqeug","pricing_plan_id":"cebpf4jnsgd1na2vs0mg"},{"bike_id":"0a907af6-f2ce-4c0d-aacc-df5e9b3c028e","system_id":"levelo_inurba_marseille","lat":43.285848,"lon":5.350787,"is_reserved":false,"is_disabled":false,"rental_uris":{"android":"levelo://app?vid=0a907af6-f2ce-4c0d-aacc-df5e9b3c028e","ios":"levelo://app?vid=0a907af6-f2ce-4c0d-aacc-df5e9b3c028e"},"vehicle_type_id":"4","last_reported":1721236037,"current_range_meters":19200,"station_id":"ce4bhch2rcd13ifvqeug","pricing_plan_id":"cebpf4jnsgd1na2vs0mg"},{"bike_id":"110a0192-3442-4bd7-b44b-8a091d882284","system_id":"levelo_inurba_marseille","lat":43.28616,"lon":5.35106,"is_reserved":false,"is_disabled":false,"rental_uris":{"android":"levelo://app?vid=110a0192-3442-4bd7-b44b-8a091d882284","ios":"levelo://app?vid=110a0192-3442-4bd7-b44b-8a091d882284"},"vehicle_type_id":"4","last_reported":1721236037,"current_range_meters":0,"station_id":"ce4bhch2rcd13ifvqeug","pricing_plan_id":"cebpf4jnsgd1na2vs0mg"},{"bike_id":"11603d31-4896-4709-80de-20986235a3ba","system_id":"levelo_inurba_marseille","lat":43.290104,"lon":5.356111,"is_reserved":false,"is_disabled":false,"rental_uris":{"android":"levelo://app?vid=11603d31-4896-4709-80de-20986235a3ba","ios":"levelo://app?vid=11603d31-4896-4709-80de-20986235a3ba"},"vehicle_type_id":"4","last_reported":1721236037,"current_range_meters":12000,"station_id":"ce4bhb92rcd13ifvqen0","pricing_plan_id":"cebpf4jnsgd1na2vs0mg"},{"bike_id":"067e7714-e074-488b-a542-be0b3db25aa4","system_id":"levelo_inurba_marseille","lat":43.285848,"lon":5.350787,"is_reserved":false,"is_disabled":false,"rental_uris":{"android":"levelo://app?vid=067e7714-e074-488b-a542-be0b3db25aa4","ios":"levelo://app?vid=067e7714-e074-488b-a542-be0b3db25aa4"},"vehicle_type_id":"4","last_reported":1721236037,"current_range_meters":2000,"station_id":"ce4bhch2rcd13ifvqeug","pricing_plan_id":"cebpf4jnsgd1na2vs0mg"},{"bike_id":"669b2cd5-3c7e-459d-a8d4-60db7fe76cf1","system_id":"levelo_inurba_marseille","lat":43.285848,"lon":5.350787,"is_reserved":false,"is_disabled":false,"rental_uris":{"android":"levelo://app?vid=669b2cd5-3c7e-459d-a8d4-60db7fe76cf1","ios":"levelo://app?vid=669b2cd5-3c7e-459d-a8d4-60db7fe76cf1"},"vehicle_type_id":"4","last_reported":1721236037,"current_range_meters":31200,"station_id":"ce4bhch2rcd13ifvqeug","pricing_plan_id":"cebpf4jnsgd1na2vs0mg"},{"bike_id":"285e6265-c7d0-43fb-a5fe-2dd8e9c200fd","system_id":"levelo_inurba_marseille","lat":43.285856,"lon":5.350771,"is_reserved":false,"is_disabled":false,"rental_uris":{"android":"levelo://app?vid=285e6265-c7d0-43fb-a5fe-2dd8e9c200fd","ios":"levelo://app?vid=285e6265-c7d0-43fb-a5fe-2dd8e9c200fd"},"vehicle_type_id":"4","last_reported":1721236037,"current_range_meters":3600,"station_id":"ce4bhch2rcd13ifvqeug","pricing_plan_id":"cebpf4jnsgd1na2vs0mg"},{"bike_id":"d51c8bc3-6ffa-45f5-b69e-0595cead38a0","system_id":"levelo_inurba_marseille","lat":43.28614,"lon":5.35103,"is_reserved":false,"is_disabled":false,"rental_uris":{"android":"levelo://app?vid=d51c8bc3-6ffa-45f5-b69e-0595cead38a0","ios":"levelo://app?vid=d51c8bc3-6ffa-45f5-b69e-0595cead38a0"},"vehicle_type_id":"4","last_reported":1721236037,"current_range_meters":31200,"station_id":"ce4bhch2rcd13ifvqeug","pricing_plan_id":"cebpf4jnsgd1na2vs0mg"},{"bike_id":"42597163-f63c-4ded-bdd0-17e875eb31b6","system_id":"levelo_inurba_marseille","lat":43.285848,"lon":5.350787,"is_reserved":false,"is_disabled":false,"rental_uris":{"android":"levelo://app?vid=42597163-f63c-4ded-bdd0-17e875eb31b6","ios":"levelo://app?vid=42597163-f63c-4ded-bdd0-17e875eb31b6"},"vehicle_type_id":"4","last_reported":1721236037,"current_range_meters":0,"station_id":"ce4bhch2rcd13ifvqeug","pricing_plan_id":"cebpf4jnsgd1na2vs0mg"},{"bike_id":"2c760738-e3fb-4bbf-a516-5a36e4ee9795","system_id":"levelo_inurba_marseille","lat":43.28613,"lon":5.35103,"is_reserved":false,"is_disabled":false,"rental_uris":{"android":"levelo://app?vid=2c760738-e3fb-4bbf-a516-5a36e4ee9795","ios":"levelo://app?vid=2c760738-e3fb-4bbf-a516-5a36e4ee9795"},"vehicle_type_id":"4","last_reported":1721236037,"current_range_meters":1600,"station_id":"ce4bhch2rcd13ifvqeug","pricing_plan_id":"cebpf4jnsgd1na2vs0mg"},{"bike_id":"89f44325-85b7-4310-b996-6b12d2d50b53","system_id":"levelo_inurba_marseille","lat":43.284288,"lon":5.375108,"is_reserved":false,"is_disabled":false,"rental_uris":{"android":"levelo://app?vid=89f44325-85b7-4310-b996-6b12d2d50b53","ios":"levelo://app?vid=89f44325-85b7-4310-b996-6b12d2d50b53"},"vehicle_type_id":"4","last_reported":1721236037,"current_range_meters":2400,"station_id":"","pricing_plan_id":"cebpf4jnsgd1na2vs0mg"},{"bike_id":"670e2757-1037-4f8c-be79-6da6ba91315b","system_id":"levelo_inurba_marseille","lat":43.285848,"lon":5.350787,"is_reserved":false,"is_disabled":false,"rental_uris":{"android":"levelo://app?vid=670e2757-1037-4f8c-be79-6da6ba91315b","ios":"levelo://app?vid=670e2757-1037-4f8c-be79-6da6ba91315b"},"vehicle_type_id":"4","last_reported":1721236037,"current_range_meters":10000,"station_id":"ce4bhch2rcd13ifvqeug","pricing_plan_id":"cebpf4jnsgd1na2vs0mg"},{"bike_id":"ad3ec0f2-ab03-4848-9608-426ae5fdb90f","system_id":"levelo_inurba_marseille","lat":43.28412,"lon":5.37518,"is_reserved":false,"is_disabled":false,"rental_uris":{"android":"levelo://app?vid=ad3ec0f2-ab03-4848-9608-426ae5fdb90f","ios":"levelo://app?vid=ad3ec0f2-ab03-4848-9608-426ae5fdb90f"},"vehicle_type_id":"4","last_reported":1721236037,"current_range_meters":0,"station_id":"ce4bh412rcd13ifvqds0","pricing_plan_id":"cebpf4jnsgd1na2vs0mg"},{"bike_id":"15d0058f-25c7-45c6-aeb3-4f4d1040281d","system_id":"levelo_inurba_marseille","lat":43.283998,"lon":5.375062,"is_reserved":false,"is_disabled":false,"rental_uris":{"android":"levelo://app?vid=15d0058f-25c7-45c6-aeb3-4f4d1040281d","ios":"levelo://app?vid=15d0058f-25c7-45c6-aeb3-4f4d1040281d"},"vehicle_type_id":"4","last_reported":1721236037,"current_range_meters":0,"station_id":"ce4bh412rcd13ifvqds0","pricing_plan_id":"cebpf4jnsgd1na2vs0mg"},{"bike_id":"a8ac181d-8ad8-4d75-a7a3-0800073f5895","system_id":"levelo_inurba_marseille","lat":43.28406,"lon":5.37523,"is_reserved":false,"is_disabled":false,"rental_uris":{"android":"levelo://app?vid=a8ac181d-8ad8-4d75-a7a3-0800073f5895","ios":"levelo://app?vid=a8ac181d-8ad8-4d75-a7a3-0800073f5895"},"vehicle_type_id":"4","last_reported":1721236037,"current_range_meters":0,"station_id":"ce4bh412rcd13ifvqds0","pricing_plan_id":"cebpf4jnsgd1na2vs0mg"},{"bike_id":"dd5c870e-56bf-4c47-b867-dd9983e758b7","system_id":"levelo_inurba_marseille","lat":43.283998,"lon":5.375062,"is_reserved":false,"is_disabled":false,"rental_uris":{"android":"levelo://app?vid=dd5c870e-56bf-4c47-b867-dd9983e758b7","ios":"levelo://app?vid=dd5c870e-56bf-4c47-b867-dd9983e758b7"},"vehicle_type_id":"4","last_reported":1721236037,"current_range_meters":4400,"station_id":"ce4bh412rcd13ifvqds0","pricing_plan_id":"cebpf4jnsgd1na2vs0mg"},{"bike_id":"bf2896eb-aa36-4837-ba7e-1eb786b03e00","system_id":"levelo_inurba_marseille","lat":43.298037,"lon":5.381066,"is_reserved":false,"is_disabled":false,"rental_uris":{"android":"levelo://app?vid=bf2896eb-aa36-4837-ba7e-1eb786b03e00","ios":"levelo://app?vid=bf2896eb-aa36-4837-ba7e-1eb786b03e00"},"vehicle_type_id":"4","last_reported":1721236037,"current_range_meters":12000,"station_id":"ce4bgip2rcd13ifvqbb0","pricing_plan_id":"cebpf4jnsgd1na2vs0mg"},{"bike_id":"71d47c9e-1760-4d80-b43a-d831a5a44bbe","system_id":"levelo_inurba_marseille","lat":43.33717,"lon":5.391857,"is_reserved":false,"is_disabled":false,"rental_uris":{"android":"levelo://app?vid=71d47c9e-1760-4d80-b43a-d831a5a44bbe","ios":"levelo://app?vid=71d47c9e-1760-4d80-b43a-d831a5a44bbe"},"vehicle_type_id":"4","last_reported":1721236037,"current_range_meters":19200,"station_id":"ce4bhr92rcd13ifvqhsg","pricing_plan_id":"cebpf4jnsgd1na2vs0mg"},{"bike_id":"23a6da14-709c-4925-b692-e5ebd08d7a3b","system_id":"levelo_inurba_marseille","lat":43.32345,"lon":5.4062,"is_reserved":false,"is_disabled":false,"rental_uris":{"android":"levelo://app?vid=23a6da14-709c-4925-b692-e5ebd08d7a3b","ios":"levelo://app?vid=23a6da14-709c-4925-b692-e5ebd08d7a3b"},"vehicle_type_id":"4","last_reported":1721236037,"current_range_meters":0,"station_id":"ce4bhq92rcd13ifvqhjg","pricing_plan_id":"cebpf4jnsgd1na2vs0mg"},{"bike_id":"38ca66ab-d540-46d7-b4c0-4a103a8d1381","system_id":"levelo_inurba_marseille","lat":43.323464,"lon":5.406297,"is_reserved":false,"is_disabled":false,"rental_uris":{"android":"levelo://app?vid=38ca66ab-d540-46d7-b4c0-4a103a8d1381","ios":"levelo://app?vid=38ca66ab-d540-46d7-b4c0-4a103a8d1381"},"vehicle_type_id":"4","last_reported":1721236037,"current_range_meters":800,"station_id":"ce4bhq92rcd13ifvqhjg","pricing_plan_id":"cebpf4jnsgd1na2vs0mg"},{"bike_id":"2132e3f0-9351-465a-af8a-5c4918a27d9e","system_id":"levelo_inurba_marseille","lat":43.33717,"lon":5.391857,"is_reserved":false,"is_disabled":false,"rental_uris":{"android":"levelo://app?vid=2132e3f0-9351-465a-af8a-5c4918a27d9e","ios":"levelo://app?vid=2132e3f0-9351-465a-af8a-5c4918a27d9e"},"vehicle_type_id":"4","last_reported":1721236037,"current_range_meters":18400,"station_id":"ce4bhr92rcd13ifvqhsg","pricing_plan_id":"cebpf4jnsgd1na2vs0mg"},{"bike_id":"5c4dfba3-5c85-4a6a-ab42-dc71f970865f","system_id":"levelo_inurba_marseille","lat":43.288536,"lon":5.393096,"is_reserved":false,"is_disabled":false,"rental_uris":{"android":"levelo://app?vid=5c4dfba3-5c85-4a6a-ab42-dc71f970865f","ios":"levelo://app?vid=5c4dfba3-5c85-4a6a-ab42-dc71f970865f"},"vehicle_type_id":"4","last_reported":1721236037,"current_range_meters":0,"station_id":"ce4bh2p2rcd13ifvqdi0","pricing_plan_id":"cebpf4jnsgd1na2vs0mg"},{"bike_id":"192c25ae-b360-497c-94b7-2655dec2c211","system_id":"levelo_inurba_marseille","lat":43.288497,"lon":5.393089,"is_reserved":false,"is_disabled":false,"rental_uris":{"android":"levelo://app?vid=192c25ae-b360-497c-94b7-2655dec2c211","ios":"levelo://app?vid=192c25ae-b360-497c-94b7-2655dec2c211"},"vehicle_type_id":"4","last_reported":1721236037,"current_range_meters":12400,"station_id":"ce4bh2p2rcd13ifvqdi0","pricing_plan_id":"cebpf4jnsgd1na2vs0mg"},{"bike_id":"8d957230-c5b0-465c-bbd2-136d0047c6d0","system_id":"levelo_inurba_marseille","lat":43.28484,"lon":5.38535,"is_reserved":false,"is_disabled":false,"rental_uris":{"android":"levelo://app?vid=8d957230-c5b0-465c-bbd2-136d0047c6d0","ios":"levelo://app?vid=8d957230-c5b0-465c-bbd2-136d0047c6d0"},"vehicle_type_id":"4","last_reported":1721236037,"current_range_meters":0,"station_id":"ce4bh8p2rcd13ifvqeb0","pricing_plan_id":"cebpf4jnsgd1na2vs0mg"},{"bike_id":"de1c8759-4f49-4fc8-a077-07a77e334cb8","system_id":"levelo_inurba_marseille","lat":43.283498,"lon":5.380948,"is_reserved":false,"is_disabled":false,"rental_uris":{"android":"levelo://app?vid=de1c8759-4f49-4fc8-a077-07a77e334cb8","ios":"levelo://app?vid=de1c8759-4f49-4fc8-a077-07a77e334cb8"},"vehicle_type_id":"4","last_reported":1721236037,"current_range_meters":2400,"station_id":"ce4bh412rcd13ifvqdr0","pricing_plan_id":"cebpf4jnsgd1na2vs0mg"},{"bike_id":"f96d6119-1f90-4ec6-9ae4-14c1e330c373","system_id":"levelo_inurba_marseille","lat":43.28487,"lon":5.38555,"is_reserved":false,"is_disabled":false,"rental_uris":{"android":"levelo://app?vid=f96d6119-1f90-4ec6-9ae4-14c1e330c373","ios":"levelo://app?vid=f96d6119-1f90-4ec6-9ae4-14c1e330c373"},"vehicle_type_id":"4","last_reported":1721236037,"current_range_meters":0,"station_id":"ce4bh8p2rcd13ifvqeb0","pricing_plan_id":"cebpf4jnsgd1na2vs0mg"},{"bike_id":"ceac9690-fddf-4e33-9bb9-4221adaa17da","system_id":"levelo_inurba_marseille","lat":43.28482,"lon":5.38541,"is_reserved":false,"is_disabled":false,"rental_uris":{"android":"levelo://app?vid=ceac9690-fddf-4e33-9bb9-4221adaa17da","ios":"levelo://app?vid=ceac9690-fddf-4e33-9bb9-4221adaa17da"},"vehicle_type_id":"4","last_reported":1721236037,"current_range_meters":0,"station_id":"ce4bh8p2rcd13ifvqeb0","pricing_plan_id":"cebpf4jnsgd1na2vs0mg"},{"bike_id":"67487b55-0ca4-46e1-8c84-003df30cf42f","system_id":"levelo_inurba_marseille","lat":43.28431,"lon":5.34978,"is_reserved":false,"is_disabled":false,"rental_uris":{"android":"levelo://app?vid=67487b55-0ca4-46e1-8c84-003df30cf42f","ios":"levelo://app?vid=67487b55-0ca4-46e1-8c84-003df30cf42f"},"vehicle_type_id":"4","last_reported":1721236037,"current_range_meters":30400,"station_id":"ce4bhbh2rcd13ifvqepg","pricing_plan_id":"cebpf4jnsgd1na2vs0mg"},{"bike_id":"882b96fe-bd19-4f7e-b355-5bca28a35470","system_id":"levelo_inurba_marseille","lat":43.28427,"lon":5.34987,"is_reserved":false,"is_disabled":false,"rental_uris":{"android":"levelo://app?vid=882b96fe-bd19-4f7e-b355-5bca28a35470","ios":"levelo://app?vid=882b96fe-bd19-4f7e-b355-5bca28a35470"},"vehicle_type_id":"4","last_reported":1721236037,"current_range_meters":17600,"station_id":"ce4bhbh2rcd13ifvqepg","pricing_plan_id":"cebpf4jnsgd1na2vs0mg"},{"bike_id":"c711e17b-7421-4853-855f-067e772cfc25","system_id":"levelo_inurba_marseille","lat":43.28421,"lon":5.34994,"is_reserved":false,"is_disabled":false,"rental_uris":{"android":"levelo://app?vid=c711e17b-7421-4853-855f-067e772cfc25","ios":"levelo://app?vid=c711e17b-7421-4853-855f-067e772cfc25"},"vehicle_type_id":"4","last_reported":1721236037,"current_range_meters":0,"station_id":"ce4bhbh2rcd13ifvqepg","pricing_plan_id":"cebpf4jnsgd1na2vs0mg"},{"bike_id":"8474dd09-8f9f-4fb2-a45b-974a223b0ca7","system_id":"levelo_inurba_marseille","lat":43.284217,"lon":5.349697,"is_reserved":false,"is_disabled":false,"rental_uris":{"android":"levelo://app?vid=8474dd09-8f9f-4fb2-a45b-974a223b0ca7","ios":"levelo://app?vid=8474dd09-8f9f-4fb2-a45b-974a223b0ca7"},"vehicle_type_id":"4","last_reported":1721236037,"current_range_meters":31600,"station_id":"ce4bhbh2rcd13ifvqepg","pricing_plan_id":"cebpf4jnsgd1na2vs0mg"},{"bike_id":"07f0eb46-ff7e-4fea-8c3f-db34b97e9b11","system_id":"levelo_inurba_marseille","lat":43.2842,"lon":5.3499,"is_reserved":false,"is_disabled":false,"rental_uris":{"android":"levelo://app?vid=07f0eb46-ff7e-4fea-8c3f-db34b97e9b11","ios":"levelo://app?vid=07f0eb46-ff7e-4fea-8c3f-db34b97e9b11"},"vehicle_type_id":"4","last_reported":1721236037,"current_range_meters":0,"station_id":"ce4bhbh2rcd13ifvqepg","pricing_plan_id":"cebpf4jnsgd1na2vs0mg"},{"bike_id":"021e61e1-dbc2-48f0-af4c-4ab83df9664b","system_id":"levelo_inurba_marseille","lat":43.275625,"lon":5.384392,"is_reserved":false,"is_disabled":false,"rental_uris":{"android":"levelo://app?vid=021e61e1-dbc2-48f0-af4c-4ab83df9664b","ios":"levelo://app?vid=021e61e1-dbc2-48f0-af4c-4ab83df9664b"},"vehicle_type_id":"4","last_reported":1721236037,"current_range_meters":10000,"station_id":"ce4bhh92rcd13ifvqfi0","pricing_plan_id":"cebpf4jnsgd1na2vs0mg"},{"bike_id":"3521af2b-3205-45d2-a2c6-c84da6b1d252","system_id":"levelo_inurba_marseille","lat":43.284163,"lon":5.34994,"is_reserved":false,"is_disabled":false,"rental_uris":{"android":"levelo://app?vid=3521af2b-3205-45d2-a2c6-c84da6b1d252","ios":"levelo://app?vid=3521af2b-3205-45d2-a2c6-c84da6b1d252"},"vehicle_type_id":"4","last_reported":1721236037,"current_range_meters":12000,"station_id":"ce4bhbh2rcd13ifvqepg","pricing_plan_id":"cebpf4jnsgd1na2vs0mg"},{"bike_id":"cf861023-7e6b-452d-96ff-8829b5ac734f","system_id":"levelo_inurba_marseille","lat":43.28415,"lon":5.34977,"is_reserved":false,"is_disabled":false,"rental_uris":{"android":"levelo://app?vid=cf861023-7e6b-452d-96ff-8829b5ac734f","ios":"levelo://app?vid=cf861023-7e6b-452d-96ff-8829b5ac734f"},"vehicle_type_id":"4","last_reported":1721236037,"current_range_meters":27200,"station_id":"ce4bhbh2rcd13ifvqepg","pricing_plan_id":"cebpf4jnsgd1na2vs0mg"},{"bike_id":"cb54e2a7-4486-4b89-b78d-d3f475da5406","system_id":"levelo_inurba_marseille","lat":43.284214,"lon":5.349706,"is_reserved":false,"is_disabled":false,"rental_uris":{"android":"levelo://app?vid=cb54e2a7-4486-4b89-b78d-d3f475da5406","ios":"levelo://app?vid=cb54e2a7-4486-4b89-b78d-d3f475da5406"},"vehicle_type_id":"4","last_reported":1721236037,"current_range_meters":26400,"station_id":"ce4bhbh2rcd13ifvqepg","pricing_plan_id":"cebpf4jnsgd1na2vs0mg"},{"bike_id":"b152609f-d501-420e-98f8-d8e47415061a","system_id":"levelo_inurba_marseille","lat":43.292724,"lon":5.401131,"is_reserved":false,"is_disabled":false,"rental_uris":{"android":"levelo://app?vid=b152609f-d501-420e-98f8-d8e47415061a","ios":"levelo://app?vid=b152609f-d501-420e-98f8-d8e47415061a"},"vehicle_type_id":"4","last_reported":1721236037,"current_range_meters":16800,"station_id":"ce4bh312rcd13ifvqdk0","pricing_plan_id":"cebpf4jnsgd1na2vs0mg"},{"bike_id":"b437bd33-6358-4eaf-a599-89549cd35f6f","system_id":"levelo_inurba_marseille","lat":43.28269,"lon":5.35067,"is_reserved":false,"is_disabled":false,"rental_uris":{"android":"levelo://app?vid=b437bd33-6358-4eaf-a599-89549cd35f6f","ios":"levelo://app?vid=b437bd33-6358-4eaf-a599-89549cd35f6f"},"vehicle_type_id":"4","last_reported":1721236037,"current_range_meters":0,"station_id":"ce4bhbp2rcd13ifvqerg","pricing_plan_id":"cebpf4jnsgd1na2vs0mg"},{"bike_id":"4ea4f4ea-25dc-4e40-88ab-4bebc8336f0a","system_id":"levelo_inurba_marseille","lat":43.282754,"lon":5.350519,"is_reserved":false,"is_disabled":false,"rental_uris":{"android":"levelo://app?vid=4ea4f4ea-25dc-4e40-88ab-4bebc8336f0a","ios":"levelo://app?vid=4ea4f4ea-25dc-4e40-88ab-4bebc8336f0a"},"vehicle_type_id":"4","last_reported":1721236037,"current_range_meters":0,"station_id":"ce4bhbp2rcd13ifvqerg","pricing_plan_id":"cebpf4jnsgd1na2vs0mg"},{"bike_id":"3b5cd5dc-2345-42e4-8eb8-056082f2ce21","system_id":"levelo_inurba_marseille","lat":43.283502,"lon":5.386471,"is_reserved":false,"is_disabled":false,"rental_uris":{"android":"levelo://app?vid=3b5cd5dc-2345-42e4-8eb8-056082f2ce21","ios":"levelo://app?vid=3b5cd5dc-2345-42e4-8eb8-056082f2ce21"},"vehicle_type_id":"4","last_reported":1721236037,"current_range_meters":0,"station_id":"ce4bh492rcd13ifvqdvg","pricing_plan_id":"cebpf4jnsgd1na2vs0mg"},{"bike_id":"5ce47a62-d9be-4a93-b465-ee3736638256","system_id":"levelo_inurba_marseille","lat":43.28362,"lon":5.38633,"is_reserved":false,"is_disabled":false,"rental_uris":{"android":"levelo://app?vid=5ce47a62-d9be-4a93-b465-ee3736638256","ios":"levelo://app?vid=5ce47a62-d9be-4a93-b465-ee3736638256"},"vehicle_type_id":"4","last_reported":1721236037,"current_range_meters":7600,"station_id":"ce4bh492rcd13ifvqdvg","pricing_plan_id":"cebpf4jnsgd1na2vs0mg"},{"bike_id":"709e1c3e-4e0f-4c15-9bb2-2c0173d63cd4","system_id":"levelo_inurba_marseille","lat":43.283502,"lon":5.386471,"is_reserved":false,"is_disabled":false,"rental_uris":{"android":"levelo://app?vid=709e1c3e-4e0f-4c15-9bb2-2c0173d63cd4","ios":"levelo://app?vid=709e1c3e-4e0f-4c15-9bb2-2c0173d63cd4"},"vehicle_type_id":"4","last_reported":1721236037,"current_range_meters":0,"station_id":"ce4bh492rcd13ifvqdvg","pricing_plan_id":"cebpf4jnsgd1na2vs0mg"},{"bike_id":"40ee427a-5fec-446d-9761-5b592aed168f","system_id":"levelo_inurba_marseille","lat":43.2825,"lon":5.35077,"is_reserved":false,"is_disabled":false,"rental_uris":{"android":"levelo://app?vid=40ee427a-5fec-446d-9761-5b592aed168f","ios":"levelo://app?vid=40ee427a-5fec-446d-9761-5b592aed168f"},"vehicle_type_id":"4","last_reported":1721236037,"current_range_meters":27200,"station_id":"ce4bhbp2rcd13ifvqerg","pricing_plan_id":"cebpf4jnsgd1na2vs0mg"},{"bike_id":"3dad9a49-2ab5-4b8d-956b-4d5a7ee1e14d","system_id":"levelo_inurba_marseille","lat":43.284462,"lon":5.392121,"is_reserved":false,"is_disabled":false,"rental_uris":{"android":"levelo://app?vid=3dad9a49-2ab5-4b8d-956b-4d5a7ee1e14d","ios":"levelo://app?vid=3dad9a49-2ab5-4b8d-956b-4d5a7ee1e14d"},"vehicle_type_id":"4","last_reported":1721236037,"current_range_meters":1200,"station_id":"ce4bhoh2rcd13ifvqh5g","pricing_plan_id":"cebpf4jnsgd1na2vs0mg"},{"bike_id":"7eabfdd8-0df9-4e1e-b542-73e7e296d978","system_id":"levelo_inurba_marseille","lat":43.28571,"lon":5.39498,"is_reserved":false,"is_disabled":false,"rental_uris":{"android":"levelo://app?vid=7eabfdd8-0df9-4e1e-b542-73e7e296d978","ios":"levelo://app?vid=7eabfdd8-0df9-4e1e-b542-73e7e296d978"},"vehicle_type_id":"4","last_reported":1721236037,"current_range_meters":0,"station_id":"ce4bh292rcd13ifvqdg0","pricing_plan_id":"cebpf4jnsgd1na2vs0mg"},{"bike_id":"213ab9e0-57a5-45c0-9259-20a387ec740f","system_id":"levelo_inurba_marseille","lat":43.285742,"lon":5.395004,"is_reserved":false,"is_disabled":false,"rental_uris":{"android":"levelo://app?vid=213ab9e0-57a5-45c0-9259-20a387ec740f","ios":"levelo://app?vid=213ab9e0-57a5-45c0-9259-20a387ec740f"},"vehicle_type_id":"4","last_reported":1721236037,"current_range_meters":1200,"station_id":"ce4bh292rcd13ifvqdg0","pricing_plan_id":"cebpf4jnsgd1na2vs0mg"},{"bike_id":"0942d8bf-f3f3-4aea-8c3f-0eb8d17f0e3e","system_id":"levelo_inurba_marseille","lat":43.304188,"lon":5.412904,"is_reserved":false,"is_disabled":false,"rental_uris":{"android":"levelo://app?vid=0942d8bf-f3f3-4aea-8c3f-0eb8d17f0e3e","ios":"levelo://app?vid=0942d8bf-f3f3-4aea-8c3f-0eb8d17f0e3e"},"vehicle_type_id":"4","last_reported":1721236037,"current_range_meters":18800,"station_id":"ce4bhop2rcd13ifvqh8g","pricing_plan_id":"cebpf4jnsgd1na2vs0mg"},{"bike_id":"882dfdc8-eb64-4a27-9db1-51f499b899cc","system_id":"levelo_inurba_marseille","lat":43.304188,"lon":5.412904,"is_reserved":false,"is_disabled":false,"rental_uris":{"android":"levelo://app?vid=882dfdc8-eb64-4a27-9db1-51f499b899cc","ios":"levelo://app?vid=882dfdc8-eb64-4a27-9db1-51f499b899cc"},"vehicle_type_id":"4","last_reported":1721236037,"current_range_meters":11200,"station_id":"ce4bhop2rcd13ifvqh8g","pricing_plan_id":"cebpf4jnsgd1na2vs0mg"},{"bike_id":"2f287a36-ae77-4672-89b7-aca6c99d1d17","system_id":"levelo_inurba_marseille","lat":43.304188,"lon":5.412904,"is_reserved":false,"is_disabled":false,"rental_uris":{"android":"levelo://app?vid=2f287a36-ae77-4672-89b7-aca6c99d1d17","ios":"levelo://app?vid=2f287a36-ae77-4672-89b7-aca6c99d1d17"},"vehicle_type_id":"4","last_reported":1721236037,"current_range_meters":29200,"station_id":"ce4bhop2rcd13ifvqh8g","pricing_plan_id":"cebpf4jnsgd1na2vs0mg"},{"bike_id":"af4b33e5-623d-4d4b-b323-afe737a39970","system_id":"levelo_inurba_marseille","lat":43.32849,"lon":5.4093,"is_reserved":false,"is_disabled":false,"rental_uris":{"android":"levelo://app?vid=af4b33e5-623d-4d4b-b323-afe737a39970","ios":"levelo://app?vid=af4b33e5-623d-4d4b-b323-afe737a39970"},"vehicle_type_id":"4","last_reported":1721236037,"current_range_meters":24800,"station_id":"","pricing_plan_id":"cebpf4jnsgd1na2vs0mg"},{"bike_id":"255575c1-4399-4ab8-b94f-fa40faffd5d9","system_id":"levelo_inurba_marseille","lat":43.279087,"lon":5.380114,"is_reserved":false,"is_disabled":false,"rental_uris":{"android":"levelo://app?vid=255575c1-4399-4ab8-b94f-fa40faffd5d9","ios":"levelo://app?vid=255575c1-4399-4ab8-b94f-fa40faffd5d9"},