{"last_updated":1753549720,"ttl":60,"version":"2.2","data":{"bikes":[{"bike_id":"1594d297-b88b-4002-a702-91e8d9cee67a","system_id":"levelo_inurba_marseille","lat":43.305392,"lon":5.365683,"is_reserved":false,"is_disabled":true,"rental_uris":{"android":"levelo://app?vid=1594d297-b88b-4002-a702-91e8d9cee67a","ios":"levelo://app?vid=1594d297-b88b-4002-a702-91e8d9cee67a"},"vehicle_type_id":"4","last_reported":1753549720,"current_range_meters":2800,"station_id":"","pricing_plan_id":"cebpf4jnsgd1na2vs0mg"},{"bike_id":"45bf17ce-5219-4ac0-b5df-ccc48296593d","system_id":"levelo_inurba_marseille","lat":43.301377,"lon":5.387773,"is_reserved":false,"is_disabled":false,"rental_uris":{"android":"levelo://app?vid=45bf17ce-5219-4ac0-b5df-ccc48296593d","ios":"levelo://app?vid=45bf17ce-5219-4ac0-b5df-ccc48296593d"},"vehicle_type_id":"4","last_reported":1753549720,"current_range_meters":3200,"station_id":"ce4bghh2rcd13ifvqb60","pricing_plan_id":"cebpf4jnsgd1na2vs0mg"},{"bike_id":"e19cd9bd-8f1f-4909-a624-5af678243303","system_id":"levelo_inurba_marseille","lat":43.29077,"lon":5.39887,"is_reserved":false,"is_disabled":false,"rental_uris":{"android":"levelo://app?vid=e19cd9bd-8f1f-4909-a624-5af678243303","ios":"levelo://app?vid=e19cd9bd-8f1f-4909-a624-5af678243303"},"vehicle_type_id":"4","last_reported":1753549720,"current_range_meters":3200,"station_id":"","pricing_plan_id":"cebpf4jnsgd1na2vs0mg"},{"bike_id":"fd5b4dcb-e3a4-4b29-a84d-8497e42959e4","system_id":"levelo_inurba_marseille","lat":43.301819,"lon":5.366256,"is_reserved":false,"is_disabled":false,"rental_uris":{"android":"levelo://app?vid=fd5b4dcb-e3a4-4b29-a84d-8497e42959e4","ios":"levelo://app?vid=fd5b4dcb-e3a4-4b29-a84d-8497e42959e4"},"vehicle_type_id":"4","last_reported":1753549720,"current_range_meters":3200,"station_id":"ce4bgrh2rcd13ifvqc8g","pricing_plan_id":"cebpf4jnsgd1na2vs0mg"},{"bike_id":"5f19d144-5d57-414e-bbd2-f77799874ad2","system_id":"levelo_inurba_marseille","lat":43.32649,"lon":5.4098,"is_reserved":false,"is_disabled":false,"rental_uris":{"android":"levelo://app?vid=5f19d144-5d57-414e-bbd2-f77799874ad2","ios":"levelo://app?vid=5f19d144-5d57-414e-bbd2-f77799874ad2"},"vehicle_type_id":"4","last_reported":1753549720,"current_range_meters":3200,"station_id":"ce4bhpp2rcd13ifvqhgg","pricing_plan_id":"cebpf4jnsgd1na2vs0mg"},{"bike_id":"8cdf2e68-f86d-4474-8a0d-f8124858a6c4","system_id":"levelo_inurba_marseille","lat":43.25108,"lon":5.40324,"is_reserved":false,"is_disabled":false,"rental_uris":{"android":"levelo://app?vid=8cdf2e68-f86d-4474-8a0d-f8124858a6c4","ios":"levelo://app?vid=8cdf2e68-f86d-4474-8a0d-f8124858a6c4"},"vehicle_type_id":"4","last_reported":1753549720,"current_range_meters":3200,"station_id":"ce4bhlh2rcd13ifvqgig","pricing_plan_id":"cebpf4jnsgd1na2vs0mg"},{"bike_id":"53341732-3da9-432f-9a31-7402efef9993","system_id":"levelo_inurba_marseille","lat":43.29255,"lon":5.38434,"is_reserved":false,"is_disabled":false,"rental_uris":{"android":"levelo://app?vid=53341732-3da9-432f-9a31-7402efef9993","ios":"levelo://app?vid=53341732-3da9-432f-9a31-7402efef9993"},"vehicle_type_id":"4","last_reported":1753549720,"current_range_meters":3200,"station_id":"ce4bh692rcd13ifvqea0","pricing_plan_id":"cebpf4jnsgd1na2vs0mg"},{"bike_id":"63d4d4af-07ca-40a9-86bb-f63cd0a93009","system_id":"levelo_inurba_marseille","lat":43.295767,"lon":5.375164,"is_reserved":false,"is_disabled":false,"rental_uris":{"android":"levelo://app?vid=63d4d4af-07ca-40a9-86bb-f63cd0a93009","ios":"levelo://app?vid=63d4d4af-07ca-40a9-86bb-f63cd0a93009"},"vehicle_type_id":"4","last_reported":1753549720,"current_range_meters":3200,"station_id":"ce4bgh92rcd13ifvqb50","pricing_plan_id":"cebpf4jnsgd1na2vs0mg"},{"bike_id":"d805f457-0be0-445a-a3ec-dc06d624db02","system_id":"levelo_inurba_marseille","lat":43.29974,"lon":5.38486,"is_reserved":false,"is_disabled":false,"rental_uris":{"android":"levelo://app?vid=d805f457-0be0-445a-a3ec-dc06d624db02","ios":"levelo://app?vid=d805f457-0be0-445a-a3ec-dc06d624db02"},"vehicle_type_id":"4","last_reported":1753549720,"current_range_meters":3600,"station_id":"ce4bgj92rcd13ifvqbd0","pricing_plan_id":"cebpf4jnsgd1na2vs0mg"},{"bike_id":"100527a8-0bd6-4fc3-85c8-1e077172ed11","system_id":"levelo_inurba_marseille","lat":43.29767,"lon":5.380989,"is_reserved":false,"is_disabled":false,"rental_uris":{"android":"levelo://app?vid=100527a8-0bd6-4fc3-85c8-1e077172ed11","ios":"levelo://app?vid=100527a8-0bd6-4fc3-85c8-1e077172ed11"},"vehicle_type_id":"4","last_reported":1753549720,"current_range_meters":3200,"station_id":"ce4bh012rcd13ifvqcv0","pricing_plan_id":"cebpf4jnsgd1na2vs0mg"},{"bike_id":"5a523f2d-a089-4e55-8a8f-d08d62fd6c07","system_id":"levelo_inurba_marseille","lat":43.29527,"lon":5.39401,"is_reserved":false,"is_disabled":false,"rental_uris":{"android":"levelo://app?vid=5a523f2d-a089-4e55-8a8f-d08d62fd6c07","ios":"levelo://app?vid=5a523f2d-a089-4e55-8a8f-d08d62fd6c07"},"vehicle_type_id":"4","last_reported":1753549720,"current_range_meters":3600,"station_id":"ce4bh292rcd13ifvqdf0","pricing_plan_id":"cebpf4jnsgd1na2vs0mg"},{"bike_id":"0973f5c9-8053-4db3-b6a1-5e31e2636ebf","system_id":"levelo_inurba_marseille","lat":43.27559,"lon":5.38411,"is_reserved":false,"is_disabled":false,"rental_uris":{"android":"levelo://app?vid=0973f5c9-8053-4db3-b6a1-5e31e2636ebf","ios":"levelo://app?vid=0973f5c9-8053-4db3-b6a1-5e31e2636ebf"},"vehicle_type_id":"4","last_reported":1753549720,"current_range_meters":3600,"station_id":"ce4bhh92rcd13ifvqfi0","pricing_plan_id":"cebpf4jnsgd1na2vs0mg"},{"bike_id":"89a6d5e3-c803-460f-842b-633e5aac080b","system_id":"levelo_inurba_marseille","lat":43.28617,"lon":5.35106,"is_reserved":false,"is_disabled":false,"rental_uris":{"android":"levelo://app?vid=89a6d5e3-c803-460f-842b-633e5aac080b","ios":"levelo://app?vid=89a6d5e3-c803-460f-842b-633e5aac080b"},"vehicle_type_id":"4","last_reported":1753549720,"current_range_meters":4000,"station_id":"ce4bhch2rcd13ifvqeug","pricing_plan_id":"cebpf4jnsgd1na2vs0mg"},{"bike_id":"f4e10af8-fba6-4fa7-bf98-0297ab83705c","system_id":"levelo_inurba_marseille","lat":43.28153,"lon":5.42635,"is_reserved":false,"is_disabled":false,"rental_uris":{"android":"levelo://app?vid=f4e10af8-fba6-4fa7-bf98-0297ab83705c","ios":"levelo://app?vid=f4e10af8-fba6-4fa7-bf98-0297ab83705c"},"vehicle_type_id":"4","last_reported":1753549720,"current_range_meters":4000,"station_id":"ce4bhnh2rcd13ifvqgug","pricing_plan_id":"cebpf4jnsgd1na2vs0mg"},{"bike_id":"f28d2bb9-4217-4196-a573-ba6f4c172497","system_id":"levelo_inurba_marseille","lat":43.28158,"lon":5.36115,"is_reserved":false,"is_disabled":false,"rental_uris":{"android":"levelo://app?vid=f28d2bb9-4217-4196-a573-ba6f4c172497","ios":"levelo://app?vid=f28d2bb9-4217-4196-a573-ba6f4c172497"},"vehicle_type_id":"4","last_reported":1753549720,"current_range_meters":4400,"station_id":"","pricing_plan_id":"cebpf4jnsgd1na2vs0mg"},{"bike_id":"75ed58c4-34e3-4bf9-82e2-3f5b0cbd5db0","system_id":"levelo_inurba_marseille","lat":43.3067,"lon":5.40083,"is_reserved":false,"is_disabled":false,"rental_uris":{"android":"levelo://app?vid=75ed58c4-34e3-4bf9-82e2-3f5b0cbd5db0","ios":"levelo://app?vid=75ed58c4-34e3-4bf9-82e2-3f5b0cbd5db0"},"vehicle_type_id":"4","last_reported":1753549720,"current_range_meters":4400,"station_id":"ce4bh112rcd13ifvqda0","pricing_plan_id":"cebpf4jnsgd1na2vs0mg"},{"bike_id":"51599667-ffa3-493b-80f6-1e551eaaf9ea","system_id":"levelo_inurba_marseille","lat":43.31902,"lon":5.40724,"is_reserved":false,"is_disabled":false,"rental_uris":{"android":"levelo://app?vid=51599667-ffa3-493b-80f6-1e551eaaf9ea","ios":"levelo://app?vid=51599667-ffa3-493b-80f6-1e551eaaf9ea"},"vehicle_type_id":"4","last_reported":1753549720,"current_range_meters":4400,"station_id":"ce4bhq12rcd13ifvqhig","pricing_plan_id":"cebpf4jnsgd1na2vs0mg"},{"bike_id":"0689d2be-bb77-4c5b-b927-7e7e027db4e9","system_id":"levelo_inurba_marseille","lat":43.28671,"lon":5.3865,"is_reserved":false,"is_disabled":false,"rental_uris":{"android":"levelo://app?vid=0689d2be-bb77-4c5b-b927-7e7e027db4e9","ios":"levelo://app?vid=0689d2be-bb77-4c5b-b927-7e7e027db4e9"},"vehicle_type_id":"4","last_reported":1753549720,"current_range_meters":4800,"station_id":"ce4bh492rcd13ifvqdug","pricing_plan_id":"cebpf4jnsgd1na2vs0mg"},{"bike_id":"25b0da79-d8e1-42f3-9510-dc3eb118c991","system_id":"levelo_inurba_marseille","lat":43.28628,"lon":5.35124,"is_reserved":false,"is_disabled":false,"rental_uris":{"android":"levelo://app?vid=25b0da79-d8e1-42f3-9510-dc3eb118c991","ios":"levelo://app?vid=25b0da79-d8e1-42f3-9510-dc3eb118c991"},"vehicle_type_id":"4","last_reported":1753549720,"current_range_meters":4800,"station_id":"ce4bhch2rcd13ifvqeug","pricing_plan_id":"cebpf4jnsgd1na2vs0mg"},{"bike_id":"9b07fa24-8f56-4ce5-8575-dfa09f8f9b97","system_id":"levelo_inurba_marseille","lat":43.290339,"lon":5.386465,"is_reserved":false,"is_disabled":false,"rental_uris":{"android":"levelo://app?vid=9b07fa24-8f56-4ce5-8575-dfa09f8f9b97","ios":"levelo://app?vid=9b07fa24-8f56-4ce5-8575-dfa09f8f9b97"},"vehicle_type_id":"4","last_reported":1753549720,"current_range_meters":4800,"station_id":"","pricing_plan_id":"cebpf4jnsgd1na2vs0mg"},{"bike_id":"73a3ca56-fcd1-4c9f-bbe7-a130296f68e6","system_id":"levelo_inurba_marseille","lat":43.29523,"lon":5.38648,"is_reserved":false,"is_disabled":false,"rental_uris":{"android":"levelo://app?vid=73a3ca56-fcd1-4c9f-bbe7-a130296f68e6","ios":"levelo://app?vid=73a3ca56-fcd1-4c9f-bbe7-a130296f68e6"},"vehicle_type_id":"4","last_reported":1753549720,"current_range_meters":5600,"station_id":"","pricing_plan_id":"cebpf4jnsgd1na2vs0mg"},{"bike_id":"941a7333-7a7f-46db-98d1-d5b2968b85bb","system_id":"levelo_inurba_marseille","lat":43.225065,"lon":5.347763,"is_reserved":false,"is_disabled":false,"rental_uris":{"android":"levelo://app?vid=941a7333-7a7f-46db-98d1-d5b2968b85bb","ios":"levelo://app?vid=941a7333-7a7f-46db-98d1-d5b2968b85bb"},"vehicle_type_id":"4","last_reported":1753549720,"current_range_meters":5600,"station_id":"st_cvj5dfep6f1abm77gieg","pricing_plan_id":"cebpf4jnsgd1na2vs0mg"},{"bike_id":"d4849ad2-709e-41f0-8d16-76bfcc6bbae7","system_id":"levelo_inurba_marseille","lat":43.3096,"lon":5.39034,"is_reserved":false,"is_disabled":false,"rental_uris":{"android":"levelo://app?vid=d4849ad2-709e-41f0-8d16-76bfcc6bbae7","ios":"levelo://app?vid=d4849ad2-709e-41f0-8d16-76bfcc6bbae7"},"vehicle_type_id":"4","last_reported":1753549720,"current_range_meters":5600,"station_id":"ce4bgup2rcd13ifvqco0","pricing_plan_id":"cebpf4jnsgd1na2vs0mg"},{"bike_id":"9aa277e5-0b1e-4ec5-a2d8-5a82f1f2b0ac","system_id":"levelo_inurba_marseille","lat":43.21195,"lon":5.35072,"is_reserved":false,"is_disabled":false,"rental_uris":{"android":"levelo://app?vid=9aa277e5-0b1e-4ec5-a2d8-5a82f1f2b0ac","ios":"levelo://app?vid=9aa277e5-0b1e-4ec5-a2d8-5a82f1f2b0ac"},"vehicle_type_id":"4","last_reported":1753549720,"current_range_meters":6400,"station_id":"st_cvj6sg6p6f1abm77japg","pricing_plan_id":"cebpf4jnsgd1na2vs0mg"},{"bike_id":"64363b42-df4a-473c-a9e3-4eb338095b28","system_id":"levelo_inurba_marseille","lat":43.30353,"lon":5.41881,"is_reserved":false,"is_disabled":false,"rental_uris":{"android":"levelo://app?vid=64363b42-df4a-473c-a9e3-4eb338095b28","ios":"levelo://app?vid=64363b42-df4a-473c-a9e3-4eb338095b28"},"vehicle_type_id":"4","last_reported":1753549720,"current_range_meters":5600,"station_id":"ce4bhop2rcd13ifvqh7g","pricing_plan_id":"cebpf4jnsgd1na2vs0mg"},{"bike_id":"1815ebc0-78b7-49b8-9c13-2bbf1646b226","system_id":"levelo_inurba_marseille","lat":43.25862,"lon":5.39898,"is_reserved":false,"is_disabled":false,"rental_uris":{"android":"levelo://app?vid=1815ebc0-78b7-49b8-9c13-2bbf1646b226","ios":"levelo://app?vid=1815ebc0-78b7-49b8-9c13-2bbf1646b226"},"vehicle_type_id":"4","last_reported":1753549720,"current_range_meters":11200,"station_id":"ce4bhl92rcd13ifvqghg","pricing_plan_id":"cebpf4jnsgd1na2vs0mg"},{"bike_id":"6af7a72a-189c-4dbc-9282-a956426542ba","system_id":"levelo_inurba_marseille","lat":43.22512,"lon":5.34779,"is_reserved":false,"is_disabled":false,"rental_uris":{"android":"levelo://app?vid=6af7a72a-189c-4dbc-9282-a956426542ba","ios":"levelo://app?vid=6af7a72a-189c-4dbc-9282-a956426542ba"},"vehicle_type_id":"4","last_reported":1753549720,"current_range_meters":6000,"station_id":"","pricing_plan_id":"cebpf4jnsgd1na2vs0mg"},{"bike_id":"ff30a5ee-0e9d-4bfa-a593-c7beaf9df463","system_id":"levelo_inurba_marseille","lat":43.33529,"lon":5.36204,"is_reserved":false,"is_disabled":false,"rental_uris":{"android":"levelo://app?vid=ff30a5ee-0e9d-4bfa-a593-c7beaf9df463","ios":"levelo://app?vid=ff30a5ee-0e9d-4bfa-a593-c7beaf9df463"},"vehicle_type_id":"4","last_reported":1753549720,"current_range_meters":6000,"station_id":"","pricing_plan_id":"cebpf4jnsgd1na2vs0mg"},{"bike_id":"0dd585b3-6fa8-4730-a4c4-ea9c30fde5ce","system_id":"levelo_inurba_marseille","lat":43.29519,"lon":5.39384,"is_reserved":false,"is_disabled":false,"rental_uris":{"android":"levelo://app?vid=0dd585b3-6fa8-4730-a4c4-ea9c30fde5ce","ios":"levelo://app?vid=0dd585b3-6fa8-4730-a4c4-ea9c30fde5ce"},"vehicle_type_id":"4","last_reported":1753549720,"current_range_meters":5600,"station_id":"ce4bh292rcd13ifvqdf0","pricing_plan_id":"cebpf4jnsgd1na2vs0mg"},{"bike_id":"1c31f24b-2b9e-48c3-b103-bffd32b92420","system_id":"levelo_inurba_marseille","lat":43.335157,"lon":5.408612,"is_reserved":false,"is_disabled":false,"rental_uris":{"android":"levelo://app?vid=1c31f24b-2b9e-48c3-b103-bffd32b92420","ios":"levelo://app?vid=1c31f24b-2b9e-48c3-b103-bffd32b92420"},"vehicle_type_id":"4","last_reported":1753549720,"current_range_meters":6400,"station_id":"","pricing_plan_id":"cebpf4jnsgd1na2vs0mg"},{"bike_id":"cdfb00e8-269e-4207-a3ff-fc3cff6b3529","system_id":"levelo_inurba_marseille","lat":43.28417,"lon":5.34967,"is_reserved":false,"is_disabled":false,"rental_uris":{"android":"levelo://app?vid=cdfb00e8-269e-4207-a3ff-fc3cff6b3529","ios":"levelo://app?vid=cdfb00e8-269e-4207-a3ff-fc3cff6b3529"},"vehicle_type_id":"4","last_reported":1753549720,"current_range_meters":6400,"station_id":"ce4bhbh2rcd13ifvqepg","pricing_plan_id":"cebpf4jnsgd1na2vs0mg"},{"bike_id":"89dcea3a-f7f7-44b2-9d2c-a3300861829d","system_id":"levelo_inurba_marseille","lat":43.27869,"lon":5.39707,"is_reserved":false,"is_disabled":false,"rental_uris":{"android":"levelo://app?vid=89dcea3a-f7f7-44b2-9d2c-a3300861829d","ios":"levelo://app?vid=89dcea3a-f7f7-44b2-9d2c-a3300861829d"},"vehicle_type_id":"4","last_reported":1753549720,"current_range_meters":6400,"station_id":"","pricing_plan_id":"cebpf4jnsgd1na2vs0mg"},{"bike_id":"836751ff-8f8b-4fc8-8786-d97d97241d2f","system_id":"levelo_inurba_marseille","lat":43.29785,"lon":5.39339,"is_reserved":false,"is_disabled":false,"rental_uris":{"android":"levelo://app?vid=836751ff-8f8b-4fc8-8786-d97d97241d2f","ios":"levelo://app?vid=836751ff-8f8b-4fc8-8786-d97d97241d2f"},"vehicle_type_id":"4","last_reported":1753549720,"current_range_meters":6400,"station_id":"chh1huq6cuj3fo74tm60","pricing_plan_id":"cebpf4jnsgd1na2vs0mg"},{"bike_id":"7faecdc6-ae27-4a0c-8327-bc288dc3c53c","system_id":"levelo_inurba_marseille","lat":43.29701,"lon":5.36599,"is_reserved":false,"is_disabled":false,"rental_uris":{"android":"levelo://app?vid=7faecdc6-ae27-4a0c-8327-bc288dc3c53c","ios":"levelo://app?vid=7faecdc6-ae27-4a0c-8327-bc288dc3c53c"},"vehicle_type_id":"4","last_reported":1753549720,"current_range_meters":6800,"station_id":"ce4bgn12rcd13ifvqbt0","pricing_plan_id":"cebpf4jnsgd1na2vs0mg"},{"bike_id":"34b68439-2d3d-46ea-acb1-f0a1a78f1a5e","system_id":"levelo_inurba_marseille","lat":43.29788,"lon":5.38073,"is_reserved":false,"is_disabled":false,"rental_uris":{"android":"levelo://app?vid=34b68439-2d3d-46ea-acb1-f0a1a78f1a5e","ios":"levelo://app?vid=34b68439-2d3d-46ea-acb1-f0a1a78f1a5e"},"vehicle_type_id":"4","last_reported":1753549720,"current_range_meters":7200,"station_id":"ce4bgip2rcd13ifvqbb0","pricing_plan_id":"cebpf4jnsgd1na2vs0mg"},{"bike_id":"7477605a-0e3b-43ef-b5e7-bdd95ad256f4","system_id":"levelo_inurba_marseille","lat":43.31712,"lon":5.43705,"is_reserved":false,"is_disabled":false,"rental_uris":{"android":"levelo://app?vid=7477605a-0e3b-43ef-b5e7-bdd95ad256f4","ios":"levelo://app?vid=7477605a-0e3b-43ef-b5e7-bdd95ad256f4"},"vehicle_type_id":"4","last_reported":1753549720,"current_range_meters":7200,"station_id":"ce4bhp92rcd13ifvqhcg","pricing_plan_id":"cebpf4jnsgd1na2vs0mg"},{"bike_id":"0de80a2d-23d5-41f2-9112-c6814c300e7d","system_id":"levelo_inurba_marseille","lat":43.262143,"lon":5.374375,"is_reserved":false,"is_disabled":false,"rental_uris":{"android":"levelo://app?vid=0de80a2d-23d5-41f2-9112-c6814c300e7d","ios":"levelo://app?vid=0de80a2d-23d5-41f2-9112-c6814c300e7d"},"vehicle_type_id":"4","last_reported":1753549720,"current_range_meters":7200,"station_id":"ce4bhgp2rcd13ifvqfc0","pricing_plan_id":"cebpf4jnsgd1na2vs0mg"},{"bike_id":"89d4e405-f6d0-443d-a9d5-11ed2392f2e4","system_id":"levelo_inurba_marseille","lat":43.29279,"lon":5.40122,"is_reserved":false,"is_disabled":false,"rental_uris":{"android":"levelo://app?vid=89d4e405-f6d0-443d-a9d5-11ed2392f2e4","ios":"levelo://app?vid=89d4e405-f6d0-443d-a9d5-11ed2392f2e4"},"vehicle_type_id":"4","last_reported":1753549720,"current_range_meters":7200,"station_id":"ce4bh312rcd13ifvqdk0","pricing_plan_id":"cebpf4jnsgd1na2vs0mg"},{"bike_id":"4d59e1de-b26d-45e9-93ba-2895a9a1ffbd","system_id":"levelo_inurba_marseille","lat":43.2952,"lon":5.38634,"is_reserved":false,"is_disabled":false,"rental_uris":{"android":"levelo://app?vid=4d59e1de-b26d-45e9-93ba-2895a9a1ffbd","ios":"levelo://app?vid=4d59e1de-b26d-45e9-93ba-2895a9a1ffbd"},"vehicle_type_id":"4","last_reported":1753549720,"current_range_meters":8000,"station_id":"","pricing_plan_id":"cebpf4jnsgd1na2vs0mg"},{"bike_id":"f4297774-6ce9-4397-bcda-9a3e5bb9cd76","system_id":"levelo_inurba_marseille","lat":43.225081,"lon":5.347847,"is_reserved":false,"is_disabled":false,"rental_uris":{"android":"levelo://app?vid=f4297774-6ce9-4397-bcda-9a3e5bb9cd76","ios":"levelo://app?vid=f4297774-6ce9-4397-bcda-9a3e5bb9cd76"},"vehicle_type_id":"4","last_reported":1753549720,"current_range_meters":8000,"station_id":"st_cvj5dfep6f1abm77gieg","pricing_plan_id":"cebpf4jnsgd1na2vs0mg"},{"bike_id":"4177c350-b39d-4243-a455-e13f00e80b0a","system_id":"levelo_inurba_marseille","lat":43.26206,"lon":5.37431,"is_reserved":false,"is_disabled":true,"rental_uris":{"android":"levelo://app?vid=4177c350-b39d-4243-a455-e13f00e80b0a","ios":"levelo://app?vid=4177c350-b39d-4243-a455-e13f00e80b0a"},"vehicle_type_id":"4","last_reported":1753549720,"current_range_meters":8000,"station_id":"ce4bhgp2rcd13ifvqfc0","pricing_plan_id":"cebpf4jnsgd1na2vs0mg"},{"bike_id":"1d6e8874-6de0-480b-841d-bc16f87bd464","system_id":"levelo_inurba_marseille","lat":43.29002,"lon":5.35613,"is_reserved":false,"is_disabled":false,"rental_uris":{"android":"levelo://app?vid=1d6e8874-6de0-480b-841d-bc16f87bd464","ios":"levelo://app?vid=1d6e8874-6de0-480b-841d-bc16f87bd464"},"vehicle_type_id":"4","last_reported":1753549720,"current_range_meters":7200,"station_id":"ce4bhb92rcd13ifvqen0","pricing_plan_id":"cebpf4jnsgd1na2vs0mg"},{"bike_id":"a6fb35af-c3fd-4a70-b346-25108a39c0e5","system_id":"levelo_inurba_marseille","lat":43.28166,"lon":5.42637,"is_reserved":false,"is_disabled":false,"rental_uris":{"android":"levelo://app?vid=a6fb35af-c3fd-4a70-b346-25108a39c0e5","ios":"levelo://app?vid=a6fb35af-c3fd-4a70-b346-25108a39c0e5"},"vehicle_type_id":"4","last_reported":1753549720,"current_range_meters":8000,"station_id":"ce4bhnh2rcd13ifvqgug","pricing_plan_id":"cebpf4jnsgd1na2vs0mg"},{"bike_id":"17b8f845-5e4b-435e-b799-d00f7fb05a4e","system_id":"levelo_inurba_marseille","lat":43.30138,"lon":5.38775,"is_reserved":false,"is_disabled":false,"rental_uris":{"android":"levelo://app?vid=17b8f845-5e4b-435e-b799-d00f7fb05a4e","ios":"levelo://app?vid=17b8f845-5e4b-435e-b799-d00f7fb05a4e"},"vehicle_type_id":"4","last_reported":1753549720,"current_range_meters":8400,"station_id":"ce4bghh2rcd13ifvqb60","pricing_plan_id":"cebpf4jnsgd1na2vs0mg"},{"bike_id":"078febbd-6d49-4abf-8b46-d33f87f8da46","system_id":"levelo_inurba_marseille","lat":43.25452,"lon":5.38007,"is_reserved":false,"is_disabled":false,"rental_uris":{"android":"levelo://app?vid=078febbd-6d49-4abf-8b46-d33f87f8da46","ios":"levelo://app?vid=078febbd-6d49-4abf-8b46-d33f87f8da46"},"vehicle_type_id":"4","last_reported":1753549720,"current_range_meters":8400,"station_id":"","pricing_plan_id":"cebpf4jnsgd1na2vs0mg"},{"bike_id":"ccca3042-9358-40fc-ac03-e327e01c225f","system_id":"levelo_inurba_marseille","lat":43.2333,"lon":5.36068,"is_reserved":false,"is_disabled":false,"rental_uris":{"android":"levelo://app?vid=ccca3042-9358-40fc-ac03-e327e01c225f","ios":"levelo://app?vid=ccca3042-9358-40fc-ac03-e327e01c225f"},"vehicle_type_id":"4","last_reported":1753549720,"current_range_meters":8800,"station_id":"","pricing_plan_id":"cebpf4jnsgd1na2vs0mg"},{"bike_id":"68efc304-0d41-4c98-a023-943580f46380","system_id":"levelo_inurba_marseille","lat":43.22503,"lon":5.34764,"is_reserved":false,"is_disabled":true,"rental_uris":{"android":"levelo://app?vid=68efc304-0d41-4c98-a023-943580f46380","ios":"levelo://app?vid=68efc304-0d41-4c98-a023-943580f46380"},"vehicle_type_id":"4","last_reported":1753549720,"current_range_meters":8400,"station_id":"st_cvj5dfep6f1abm77gieg","pricing_plan_id":"cebpf4jnsgd1na2vs0mg"},{"bike_id":"30128f27-b35a-4856-be90-24fe90cdb7a8","system_id":"levelo_inurba_marseille","lat":43.28716,"lon":5.37933,"is_reserved":false,"is_disabled":false,"rental_uris":{"android":"levelo://app?vid=30128f27-b35a-4856-be90-24fe90cdb7a8","ios":"levelo://app?vid=30128f27-b35a-4856-be90-24fe90cdb7a8"},"vehicle_type_id":"4","last_reported":1753549720,"current_range_meters":8000,"station_id":"ce4bh9p2rcd13ifvqec0","pricing_plan_id":"cebpf4jnsgd1na2vs0mg"},{"bike_id":"c1dcf064-7633-4f3e-9c7d-cf25342fb85f","system_id":"levelo_inurba_marseille","lat":43.27194,"lon":5.39195,"is_reserved":false,"is_disabled":true,"rental_uris":{"android":"levelo://app?vid=c1dcf064-7633-4f3e-9c7d-cf25342fb85f","ios":"levelo://app?vid=c1dcf064-7633-4f3e-9c7d-cf25342fb85f"},"vehicle_type_id":"4","last_reported":1753549720,"current_range_meters":8400,"station_id":"ce4bhhp2rcd13ifvqfm0","pricing_plan_id":"cebpf4jnsgd1na2vs0mg"},{"bike_id":"2eb6a03c-9fea-48d5-809a-45c7e336c8e4","system_id":"levelo_inurba_marseille","lat":43.31265,"lon":5.40163,"is_reserved":false,"is_disabled":false,"rental_uris":{"android":"levelo://app?vid=2eb6a03c-9fea-48d5-809a-45c7e336c8e4","ios":"levelo://app?vid=2eb6a03c-9fea-48d5-809a-45c7e336c8e4"},"vehicle_type_id":"4","last_reported":1753549720,"current_range_meters":8400,"station_id":"ce4bh092rcd13ifvqd30","pricing_plan_id":"cebpf4jnsgd1na2vs0mg"},{"bike_id":"eb4a67f9-0613-45cb-bf7b-c587e79d3c7c","system_id":"levelo_inurba_marseille","lat":43.315,"lon":5.37313,"is_reserved":false,"is_disabled":false,"rental_uris":{"android":"levelo://app?vid=eb4a67f9-0613-45cb-bf7b-c587e79d3c7c","ios":"levelo://app?vid=eb4a67f9-0613-45cb-bf7b-c587e79d3c7c"},"vehicle_type_id":"4","last_reported":1753549720,"current_range_meters":8800,"station_id":"ce4bgt12rcd13ifvqcd0","pricing_plan_id":"cebpf4jnsgd1na2vs0mg"},{"bike_id":"c4d6882b-6d52-4394-a273-95b010937f3a","system_id":"levelo_inurba_marseille","lat":43.3014,"lon":5.39858,"is_reserved":false,"is_disabled":false,"rental_uris":{"android":"levelo://app?vid=c4d6882b-6d52-4394-a273-95b010937f3a","ios":"levelo://app?vid=c4d6882b-6d52-4394-a273-95b010937f3a"},"vehicle_type_id":"4","last_reported":1753549720,"current_range_meters":8800,"station_id":"ce4bh0h2rcd13ifvqd40","pricing_plan_id":"cebpf4jnsgd1na2vs0mg"},{"bike_id":"831a3cf2-acf1-4d34-a389-e78eddcf9ddd","system_id":"levelo_inurba_marseille","lat":43.29531,"lon":5.38557,"is_reserved":false,"is_disabled":false,"rental_uris":{"android":"levelo://app?vid=831a3cf2-acf1-4d34-a389-e78eddcf9ddd","ios":"levelo://app?vid=831a3cf2-acf1-4d34-a389-e78eddcf9ddd"},"vehicle_type_id":"4","last_reported":1753549720,"current_range_meters":8800,"station_id":"ce4bgih2rcd13ifvqba0","pricing_plan_id":"cebpf4jnsgd1na2vs0mg"},{"bike_id":"19b621d0-fd8f-4680-ab87-60b5026ad27d","system_id":"levelo_inurba_marseille","lat":43.284217,"lon":5.349867,"is_reserved":false,"is_disabled":false,"rental_uris":{"android":"levelo://app?vid=19b621d0-fd8f-4680-ab87-60b5026ad27d","ios":"levelo://app?vid=19b621d0-fd8f-4680-ab87-60b5026ad27d"},"vehicle_type_id":"4","last_reported":1753549720,"current_range_meters":8800,"station_id":"ce4bhbh2rcd13ifvqepg","pricing_plan_id":"cebpf4jnsgd1na2vs0mg"},{"bike_id":"52675047-3fd3-4328-bd10-db18ca9e7968","system_id":"levelo_inurba_marseille","lat":43.23193,"lon":5.39984,"is_reserved":false,"is_disabled":false,"rental_uris":{"android":"levelo://app?vid=52675047-3fd3-4328-bd10-db18ca9e7968","ios":"levelo://app?vid=52675047-3fd3-4328-bd10-db18ca9e7968"},"vehicle_type_id":"4","last_reported":1753549720,"current_range_meters":8800,"station_id":"ce4bhn12rcd13ifvqgqg","pricing_plan_id":"cebpf4jnsgd1na2vs0mg"},{"bike_id":"13c4991c-3e29-4005-9c0f-381d2d699abf","system_id":"levelo_inurba_marseille","lat":43.28906,"lon":5.36051,"is_reserved":false,"is_disabled":false,"rental_uris":{"android":"levelo://app?vid=13c4991c-3e29-4005-9c0f-381d2d699abf","ios":"levelo://app?vid=13c4991c-3e29-4005-9c0f-381d2d699abf"},"vehicle_type_id":"4","last_reported":1753549720,"current_range_meters":8800,"station_id":"","pricing_plan_id":"cebpf4jnsgd1na2vs0mg"},{"bike_id":"dc9e1c82-30cc-40d0-b96b-43aa21b80cfe","system_id":"levelo_inurba_marseille","lat":43.21228,"lon":5.3505,"is_reserved":false,"is_disabled":false,"rental_uris":{"android":"levelo://app?vid=dc9e1c82-30cc-40d0-b96b-43aa21b80cfe","ios":"levelo://app?vid=dc9e1c82-30cc-40d0-b96b-43aa21b80cfe"},"vehicle_type_id":"4","last_reported":1753549720,"current_range_meters":8800,"station_id":"st_cvj6sg6p6f1abm77japg","pricing_plan_id":"cebpf4jnsgd1na2vs0mg"},{"bike_id":"ab6ad1bc-d23c-44e3-a241-c046e241e621","system_id":"levelo_inurba_marseille","lat":43.28268,"lon":5.35061,"is_reserved":false,"is_disabled":false,"rental_uris":{"android":"levelo://app?vid=ab6ad1bc-d23c-44e3-a241-c046e241e621","ios":"levelo://app?vid=ab6ad1bc-d23c-44e3-a241-c046e241e621"},"vehicle_type_id":"4","last_reported":1753549720,"current_range_meters":9200,"station_id":"ce4bhbp2rcd13ifvqerg","pricing_plan_id":"cebpf4jnsgd1na2vs0mg"},{"bike_id":"43cf4049-15dd-4e8c-88a8-61cd8dc10bf5","system_id":"levelo_inurba_marseille","lat":43.3327,"lon":5.37885,"is_reserved":false,"is_disabled":false,"rental_uris":{"android":"levelo://app?vid=43cf4049-15dd-4e8c-88a8-61cd8dc10bf5","ios":"levelo://app?vid=43cf4049-15dd-4e8c-88a8-61cd8dc10bf5"},"vehicle_type_id":"4","last_reported":1753549720,"current_range_meters":9200,"station_id":"","pricing_plan_id":"cebpf4jnsgd1na2vs0mg"},{"bike_id":"28d2987a-af49-47c1-af2d-8871171acd7d","system_id":"levelo_inurba_marseille","lat":43.303789,"lon":5.424891,"is_reserved":false,"is_disabled":false,"rental_uris":{"android":"levelo://app?vid=28d2987a-af49-47c1-af2d-8871171acd7d","ios":"levelo://app?vid=28d2987a-af49-47c1-af2d-8871171acd7d"},"vehicle_type_id":"4","last_reported":1753549720,"current_range_meters":9200,"station_id":"ce4bhoh2rcd13ifvqh6g","pricing_plan_id":"cebpf4jnsgd1na2vs0mg"},{"bike_id":"81781739-c81a-42f6-984d-9eccadf66fec","system_id":"levelo_inurba_marseille","lat":43.28686,"lon":5.38662,"is_reserved":false,"is_disabled":false,"rental_uris":{"android":"levelo://app?vid=81781739-c81a-42f6-984d-9eccadf66fec","ios":"levelo://app?vid=81781739-c81a-42f6-984d-9eccadf66fec"},"vehicle_type_id":"4","last_reported":1753549720,"current_range_meters":9200,"station_id":"ce4bh492rcd13ifvqdug","pricing_plan_id":"cebpf4jnsgd1na2vs0mg"},{"bike_id":"04923d4b-bcff-4544-b24e-d6ee7d194372","system_id":"levelo_inurba_marseille","lat":43.28663,"lon":5.36341,"is_reserved":false,"is_disabled":false,"rental_uris":{"android":"levelo://app?vid=04923d4b-bcff-4544-b24e-d6ee7d194372","ios":"levelo://app?vid=04923d4b-bcff-4544-b24e-d6ee7d194372"},"vehicle_type_id":"4","last_reported":1753549720,"current_range_meters":9200,"station_id":"ce4bhah2rcd13ifvqej0","pricing_plan_id":"cebpf4jnsgd1na2vs0mg"},{"bike_id":"6a988cf4-791c-4a23-baf2-68d2fecb47c2","system_id":"levelo_inurba_marseille","lat":43.250663,"lon":5.403299,"is_reserved":false,"is_disabled":false,"rental_uris":{"android":"levelo://app?vid=6a988cf4-791c-4a23-baf2-68d2fecb47c2","ios":"levelo://app?vid=6a988cf4-791c-4a23-baf2-68d2fecb47c2"},"vehicle_type_id":"4","last_reported":1753549720,"current_range_meters":9200,"station_id":"ce4bhlh2rcd13ifvqgig","pricing_plan_id":"cebpf4jnsgd1na2vs0mg"},{"bike_id":"009ee75e-dd83-4415-b9ea-73ad7e598fa2","system_id":"levelo_inurba_marseille","lat":43.279074,"lon":5.395755,"is_reserved":false,"is_disabled":false,"rental_uris":{"android":"levelo://app?vid=009ee75e-dd83-4415-b9ea-73ad7e598fa2","ios":"levelo://app?vid=009ee75e-dd83-4415-b9ea-73ad7e598fa2"},"vehicle_type_id":"4","last_reported":1753549720,"current_range_meters":9200,"station_id":"ce4bhf92rcd13ifvqf40","pricing_plan_id":"cebpf4jnsgd1na2vs0mg"},{"bike_id":"3ec42156-c16d-4424-b730-9bd754701c14","system_id":"levelo_inurba_marseille","lat":43.26225,"lon":5.40447,"is_reserved":false,"is_disabled":false,"rental_uris":{"android":"levelo://app?vid=3ec42156-c16d-4424-b730-9bd754701c14","ios":"levelo://app?vid=3ec42156-c16d-4424-b730-9bd754701c14"},"vehicle_type_id":"4","last_reported":1753549720,"current_range_meters":9600,"station_id":"ce4bhmh2rcd13ifvqgmg","pricing_plan_id":"cebpf4jnsgd1na2vs0mg"},{"bike_id":"89233d1c-81f7-4cf0-af96-ec920a798bdd","system_id":"levelo_inurba_marseille","lat":43.26564,"lon":5.373,"is_reserved":false,"is_disabled":false,"rental_uris":{"android":"levelo://app?vid=89233d1c-81f7-4cf0-af96-ec920a798bdd","ios":"levelo://app?vid=89233d1c-81f7-4cf0-af96-ec920a798bdd"},"vehicle_type_id":"4","last_reported":1753549720,"current_range_meters":10000,"station_id":"ce4bhg12rcd13ifvqf70","pricing_plan_id":"cebpf4jnsgd1na2vs0mg"},{"bike_id":"d79b409f-ca1b-43df-9348-1c6665f1fc25","system_id":"levelo_inurba_marseille","lat":43.22503,"lon":5.3477,"is_reserved":false,"is_disabled":false,"rental_uris":{"android":"levelo://app?vid=d79b409f-ca1b-43df-9348-1c6665f1fc25","ios":"levelo://app?vid=d79b409f-ca1b-43df-9348-1c6665f1fc25"},"vehicle_type_id":"4","last_reported":1753549720,"current_range_meters":9600,"station_id":"st_cvj5dfep6f1abm77gieg","pricing_plan_id":"cebpf4jnsgd1na2vs0mg"},{"bike_id":"cd5561c9-1cf8-4017-b7e0-c99a926bc380","system_id":"levelo_inurba_marseille","lat":43.32289,"lon":5.38273,"is_reserved":false,"is_disabled":false,"rental_uris":{"android":"levelo://app?vid=cd5561c9-1cf8-4017-b7e0-c99a926bc380","ios":"levelo://app?vid=cd5561c9-1cf8-4017-b7e0-c99a926bc380"},"vehicle_type_id":"4","last_reported":1753549720,"current_range_meters":9600,"station_id":"ce4bhr12rcd13ifvqhqg","pricing_plan_id":"cebpf4jnsgd1na2vs0mg"},{"bike_id":"d8475239-deac-4246-a8a2-87fe6d8a3365","system_id":"levelo_inurba_marseille","lat":43.26591,"lon":5.3965,"is_reserved":false,"is_disabled":false,"rental_uris":{"android":"levelo://app?vid=d8475239-deac-4246-a8a2-87fe6d8a3365","ios":"levelo://app?vid=d8475239-deac-4246-a8a2-87fe6d8a3365"},"vehicle_type_id":"4","last_reported":1753549720,"current_range_meters":9600,"station_id":"ce4bhi12rcd13ifvqfq0","pricing_plan_id":"cebpf4jnsgd1na2vs0mg"},{"bike_id":"a3fe9995-2e3e-423b-9540-429a92fa997e","system_id":"levelo_inurba_marseille","lat":43.30188,"lon":5.37122,"is_reserved":false,"is_disabled":false,"rental_uris":{"android":"levelo://app?vid=a3fe9995-2e3e-423b-9540-429a92fa997e","ios":"levelo://app?vid=a3fe9995-2e3e-423b-9540-429a92fa997e"},"vehicle_type_id":"4","last_reported":1753549720,"current_range_meters":9600,"station_id":"","pricing_plan_id":"cebpf4jnsgd1na2vs0mg"},{"bike_id":"310b2400-dd2e-4320-8ec4-6b74e028c0c7","system_id":"levelo_inurba_marseille","lat":43.225043,"lon":5.347773,"is_reserved":false,"is_disabled":false,"rental_uris":{"android":"levelo://app?vid=310b2400-dd2e-4320-8ec4-6b74e028c0c7","ios":"levelo://app?vid=310b2400-dd2e-4320-8ec4-6b74e028c0c7"},"vehicle_type_id":"4","last_reported":1753549720,"current_range_meters":9600,"station_id":"","pricing_plan_id":"cebpf4jnsgd1na2vs0mg"},{"bike_id":"51211c48-1df2-40fc-a413-aff485c2f644","system_id":"levelo_inurba_marseille","lat":43.29535,"lon":5.39395,"is_reserved":false,"is_disabled":false,"rental_uris":{"android":"levelo://app?vid=51211c48-1df2-40fc-a413-aff485c2f644","ios":"levelo://app?vid=51211c48-1df2-40fc-a413-aff485c2f644"},"vehicle_type_id":"4","last_reported":1753549720,"current_range_meters":10000,"station_id":"ce4bh292rcd13ifvqdf0","pricing_plan_id":"cebpf4jnsgd1na2vs0mg"},{"bike_id":"a0d60e44-246d-4cc0-aef3-dc664879b373","system_id":"levelo_inurba_marseille","lat":43.2175,"lon":5.34594,"is_reserved":false,"is_disabled":true,"rental_uris":{"android":"levelo://app?vid=a0d60e44-246d-4cc0-aef3-dc664879b373","ios":"levelo://app?vid=a0d60e44-246d-4cc0-aef3-dc664879b373"},"vehicle_type_id":"4","last_reported":1753549720,"current_range_meters":10000,"station_id":"","pricing_plan_id":"cebpf4jnsgd1na2vs0mg"},{"bike_id":"0e9b419e-63f7-470b-b41f-d8bbe9a6d023","system_id":"levelo_inurba_marseille","lat":43.29792,"lon":5.38095,"is_reserved":false,"is_disabled":false,"rental_uris":{"android":"levelo://app?vid=0e9b419e-63f7-470b-b41f-d8bbe9a6d023","ios":"levelo://app?vid=0e9b419e-63f7-470b-b41f-d8bbe9a6d023"},"vehicle_type_id":"4","last_reported":1753549720,"current_range_meters":10000,"station_id":"ce4bgip2rcd13ifvqbb0","pricing_plan_id":"cebpf4jnsgd1na2vs0mg"},{"bike_id":"ab991371-506a-411d-b1d8-1efc5ac7cde6","system_id":"levelo_inurba_marseille","lat":43.22816,"lon":5.35165,"is_reserved":false,"is_disabled":false,"rental_uris":{"android":"levelo://app?vid=ab991371-506a-411d-b1d8-1efc5ac7cde6","ios":"levelo://app?vid=ab991371-506a-411d-b1d8-1efc5ac7cde6"},"vehicle_type_id":"4","last_reported":1753549720,"current_range_meters":10000,"station_id":"","pricing_plan_id":"cebpf4jnsgd1na2vs0mg"},{"bike_id":"8aba77ae-56e8-47bf-a120-29688e01ff93","system_id":"levelo_inurba_marseille","lat":43.29879,"lon":5.38903,"is_reserved":false,"is_disabled":false,"rental_uris":{"android":"levelo://app?vid=8aba77ae-56e8-47bf-a120-29688e01ff93","ios":"levelo://app?vid=8aba77ae-56e8-47bf-a120-29688e01ff93"},"vehicle_type_id":"4","last_reported":1753549720,"current_range_meters":10000,"station_id":"ce4bh392rcd13ifvqdl0","pricing_plan_id":"cebpf4jnsgd1na2vs0mg"},{"bike_id":"75a52d90-a84e-49e8-9197-7fd3f8d0259a","system_id":"levelo_inurba_marseille","lat":43.26229,"lon":5.37422,"is_reserved":false,"is_disabled":true,"rental_uris":{"android":"levelo://app?vid=75a52d90-a84e-49e8-9197-7fd3f8d0259a","ios":"levelo://app?vid=75a52d90-a84e-49e8-9197-7fd3f8d0259a"},"vehicle_type_id":"4","last_reported":1753549720,"current_range_meters":10000,"station_id":"","pricing_plan_id":"cebpf4jnsgd1na2vs0mg"},{"bike_id":"5991ea71-d907-4dee-af54-6a1bd328825d","system_id":"levelo_inurba_marseille","lat":43.3027,"lon":5.37715,"is_reserved":false,"is_disabled":false,"rental_uris":{"android":"levelo://app?vid=5991ea71-d907-4dee-af54-6a1bd328825d","ios":"levelo://app?vid=5991ea71-d907-4dee-af54-6a1bd328825d"},"vehicle_type_id":"4","last_reported":1753549720,"current_range_meters":10000,"station_id":"ce4bguh2rcd13ifvqcj0","pricing_plan_id":"cebpf4jnsgd1na2vs0mg"},{"bike_id":"19318c09-e4d3-47e2-8915-ac116c218e04","system_id":"levelo_inurba_marseille","lat":43.29581,"lon":5.3752,"is_reserved":false,"is_disabled":false,"rental_uris":{"android":"levelo://app?vid=19318c09-e4d3-47e2-8915-ac116c218e04","ios":"levelo://app?vid=19318c09-e4d3-47e2-8915-ac116c218e04"},"vehicle_type_id":"4","last_reported":1753549720,"current_range_meters":10000,"station_id":"ce4bgh92rcd13ifvqb50","pricing_plan_id":"cebpf4jnsgd1na2vs0mg"},{"bike_id":"22dca147-1260-44d8-822d-d9d1d50cce31","system_id":"levelo_inurba_marseille","lat":43.2747,"lon":5.39583,"is_reserved":false,"is_disabled":false,"rental_uris":{"android":"levelo://app?vid=22dca147-1260-44d8-822d-d9d1d50cce31","ios":"levelo://app?vid=22dca147-1260-44d8-822d-d9d1d50cce31"},"vehicle_type_id":"4","last_reported":1753549720,"current_range_meters":10800,"station_id":"","pricing_plan_id":"cebpf4jnsgd1na2vs0mg"},{"bike_id":"c3b2912e-17b7-442a-ac64-e0e5c1ad3164","system_id":"levelo_inurba_marseille","lat":43.2848,"lon":5.38414,"is_reserved":false,"is_disabled":false,"rental_uris":{"android":"levelo://app?vid=c3b2912e-17b7-442a-ac64-e0e5c1ad3164","ios":"levelo://app?vid=c3b2912e-17b7-442a-ac64-e0e5c1ad3164"},"vehicle_type_id":"4","last_reported":1753549720,"current_range_meters":10800,"station_id":"ce4bh512rcd13ifvqe3g","pricing_plan_id":"cebpf4jnsgd1na2vs0mg"},{"bike_id":"93e7d739-426c-4fbd-a5cf-60dc87110b67","system_id":"levelo_inurba_marseille","lat":43.29031,"lon":5.38662,"is_reserved":false,"is_disabled":false,"rental_uris":{"android":"levelo://app?vid=93e7d739-426c-4fbd-a5cf-60dc87110b67","ios":"levelo://app?vid=93e7d739-426c-4fbd-a5cf-60dc87110b67"},"vehicle_type_id":"4","last_reported":1753549720,"current_range_meters":10800,"station_id":"ce4bh4p2rcd13ifvqe0g","pricing_plan_id":"cebpf4jnsgd1na2vs0mg"},{"bike_id":"d0bcc9f3-8953-4b76-b446-8caf485f0312","system_id":"levelo_inurba_marseille","lat":43.28846,"lon":5.35814,"is_reserved":false,"is_disabled":false,"rental_uris":{"android":"levelo://app?vid=d0bcc9f3-8953-4b76-b446-8caf485f0312","ios":"levelo://app?vid=d0bcc9f3-8953-4b76-b446-8caf485f0312"},"vehicle_type_id":"4","last_reported":1753549720,"current_range_meters":10800,"station_id":"ce4bhb12rcd13ifvqem0","pricing_plan_id":"cebpf4jnsgd1na2vs0mg"},{"bike_id":"27dfce26-963c-4480-8351-ab57ac68fc47","system_id":"levelo_inurba_marseille","lat":43.27208,"lon":5.39188,"is_reserved":false,"is_disabled":false,"rental_uris":{"android":"levelo://app?vid=27dfce26-963c-4480-8351-ab57ac68fc47","ios":"levelo://app?vid=27dfce26-963c-4480-8351-ab57ac68fc47"},"vehicle_type_id":"4","last_reported":1753549720,"current_range_meters":10800,"station_id":"ce4bhhp2rcd13ifvqfm0","pricing_plan_id":"cebpf4jnsgd1na2vs0mg"},{"bike_id":"e5b3d4e0-0657-4ee6-a5c2-17afc36b8bfc","system_id":"levelo_inurba_marseille","lat":43.31271,"lon":5.40167,"is_reserved":false,"is_disabled":false,"rental_uris":{"android":"levelo://app?vid=e5b3d4e0-0657-4ee6-a5c2-17afc36b8bfc","ios":"levelo://app?vid=e5b3d4e0-0657-4ee6-a5c2-17afc36b8bfc"},"vehicle_type_id":"4","last_reported":1753549720,"current_range_meters":10800,"station_id":"ce4bh092rcd13ifvqd30","pricing_plan_id":"cebpf4jnsgd1na2vs0mg"},{"bike_id":"11c40921-cb55-4e39-8352-056f1ba2410d","system_id":"levelo_inurba_marseille","lat":43.22505,"lon":5.34784,"is_reserved":false,"is_disabled":false,"rental_uris":{"android":"levelo://app?vid=11c40921-cb55-4e39-8352-056f1ba2410d","ios":"levelo://app?vid=11c40921-cb55-4e39-8352-056f1ba2410d"},"vehicle_type_id":"4","last_reported":1753549720,"current_range_meters":10800,"station_id":"st_cvj5dfep6f1abm77gieg","pricing_plan_id":"cebpf4jnsgd1na2vs0mg"},{"bike_id":"8610bfb9-7335-41f5-8be0-9965985f6486","system_id":"levelo_inurba_marseille","lat":43.29265,"lon":5.38442,"is_reserved":false,"is_disabled":false,"rental_uris":{"android":"levelo://app?vid=8610bfb9-7335-41f5-8be0-9965985f6486","ios":"levelo://app?vid=8610bfb9-7335-41f5-8be0-9965985f6486"},"vehicle_type_id":"4","last_reported":1753549720,"current_range_meters":10800,"station_id":"ce4bh692rcd13ifvqea0","pricing_plan_id":"cebpf4jnsgd1na2vs0mg"},{"bike_id":"a76ff223-27b8-478e-a7fa-22f6ff2e9771","system_id":"levelo_inurba_marseille","lat":43.27958,"lon":5.38733,"is_reserved":false,"is_disabled":false,"rental_uris":{"android":"levelo://app?vid=a76ff223-27b8-478e-a7fa-22f6ff2e9771","ios":"levelo://app?vid=a76ff223-27b8-478e-a7fa-22f6ff2e9771"},"vehicle_type_id":"4","last_reported":1753549720,"current_range_meters":10800,"station_id":"ce4bhg12rcd13ifvqf80","pricing_plan_id":"cebpf4jnsgd1na2vs0mg"},{"bike_id":"6ab0b13c-2ff1-417a-acfd-489d6800d4c9","system_id":"levelo_inurba_marseille","lat":43.27392,"lon":5.36256,"is_reserved":false,"is_disabled":true,"rental_uris":{"android":"levelo://app?vid=6ab0b13c-2ff1-417a-acfd-489d6800d4c9","ios":"levelo://app?vid=6ab0b13c-2ff1-417a-acfd-489d6800d4c9"},"vehicle_type_id":"4","last_reported":1753549720,"current_range_meters":11200,"station_id":"ce4bhbh2rcd13ifvqeo0","pricing_plan_id":"cebpf4jnsgd1na2vs0mg"},{"bike_id":"8b42cd13-0f7a-4bab-ba19-32599db5912d","system_id":"levelo_inurba_marseille","lat":43.30139,"lon":5.39863,"is_reserved":false,"is_disabled":false,"rental_uris":{"android":"levelo://app?vid=8b42cd13-0f7a-4bab-ba19-32599db5912d","ios":"levelo://app?vid=8b42cd13-0f7a-4bab-ba19-32599db5912d"},"vehicle_type_id":"4","last_reported":1753549720,"current_range_meters":11200,"station_id":"ce4bh0h2rcd13ifvqd40","pricing_plan_id":"cebpf4jnsgd1na2vs0mg"},{"bike_id":"8aec49e9-2a7c-473f-936a-01f180d46c56","system_id":"levelo_inurba_marseille","lat":43.225044,"lon":5.347839,"is_reserved":false,"is_disabled":false,"rental_uris":{"android":"levelo://app?vid=8aec49e9-2a7c-473f-936a-01f180d46c56","ios":"levelo://app?vid=8aec49e9-2a7c-473f-936a-01f180d46c56"},"vehicle_type_id":"4","last_reported":1753549720,"current_range_meters":11200,"station_id":"st_cvj5dfep6f1abm77gieg","pricing_plan_id":"cebpf4jnsgd1na2vs0mg"},{"bike_id":"0391bdf1-1935-459e-bea6-89fa281b9593","system_id":"levelo_inurba_marseille","lat":43.267813,"lon":5.394088,"is_reserved":false,"is_disabled":false,"rental_uris":{"android":"levelo://app?vid=0391bdf1-1935-459e-bea6-89fa281b9593","ios":"levelo://app?vid=0391bdf1-1935-459e-bea6-89fa281b9593"},"vehicle_type_id":"4","last_reported":1753549720,"current_range_meters":11200,"station_id":"ce4bhh12rcd13ifvqfg0","pricing_plan_id":"cebpf4jnsgd1na2vs0mg"},{"bike_id":"b7375410-01ab-45f9-a65f-6e214e4ed86d","system_id":"levelo_inurba_marseille","lat":43.28437,"lon":5.34987,"is_reserved":false,"is_disabled":false,"rental_uris":{"android":"levelo://app?vid=b7375410-01ab-45f9-a65f-6e214e4ed86d","ios":"levelo://app?vid=b7375410-01ab-45f9-a65f-6e214e4ed86d"},"vehicle_type_id":"4","last_reported":1753549720,"current_range_meters":11200,"station_id":"ce4bhbh2rcd13ifvqepg","pricing_plan_id":"cebpf4jnsgd1na2vs0mg"},{"bike_id":"de99b14c-9afd-4bdd-bc56-50354c110c3d","system_id":"levelo_inurba_marseille","lat":43.25467,"lon":5.37687,"is_reserved":false,"is_disabled":false,"rental_uris":{"android":"levelo://app?vid=de99b14c-9afd-4bdd-bc56-50354c110c3d","ios":"levelo://app?vid=de99b14c-9afd-4bdd-bc56-50354c110c3d"},"vehicle_type_id":"4","last_reported":1753549720,"current_range_meters":11600,"station_id":"","pricing_plan_id":"cebpf4jnsgd1na2vs0mg"},{"bike_id":"2551aeb9-d478-4559-97a6-036ce08c7df0","system_id":"levelo_inurba_marseille","lat":43.28404,"lon":5.34981,"is_reserved":false,"is_disabled":false,"rental_uris":{"android":"levelo://app?vid=2551aeb9-d478-4559-97a6-036ce08c7df0","ios":"levelo://app?vid=2551aeb9-d478-4559-97a6-036ce08c7df0"},"vehicle_type_id":"4","last_reported":1753549720,"current_range_meters":11600,"station_id":"ce4bhbh2rcd13ifvqepg","pricing_plan_id":"cebpf4jnsgd1na2vs0mg"},{"bike_id":"cc9ac4f6-acd3-4ca3-8347-8dab40b9622a","system_id":"levelo_inurba_marseille","lat":43.23198,"lon":5.35552,"is_reserved":false,"is_disabled":false,"rental_uris":{"android":"levelo://app?vid=cc9ac4f6-acd3-4ca3-8347-8dab40b9622a","ios":"levelo://app?vid=cc9ac4f6-acd3-4ca3-8347-8dab40b9622a"},"vehicle_type_id":"4","last_reported":1753549720,"current_range_meters":11600,"station_id":"ce4bhu92rcd13ifvqi70","pricing_plan_id":"cebpf4jnsgd1na2vs0mg"},{"bike_id":"f0975fd6-9bec-4748-9ff6-4a7c96c46315","system_id":"levelo_inurba_marseille","lat":43.29522,"lon":5.37506,"is_reserved":false,"is_disabled":false,"rental_uris":{"android":"levelo://app?vid=f0975fd6-9bec-4748-9ff6-4a7c96c46315","ios":"levelo://app?vid=f0975fd6-9bec-4748-9ff6-4a7c96c46315"},"vehicle_type_id":"4","last_reported":1753549720,"current_range_meters":11600,"station_id":"ce4bgkp2rcd13ifvqbmg","pricing_plan_id":"cebpf4jnsgd1na2vs0mg"},{"bike_id":"38ab9f3b-fe76-4f47-bf05-e3ca256156a4","system_id":"levelo_inurba_marseille","lat":43.28403,"lon":5.34974,"is_reserved":false,"is_disabled":false,"rental_uris":{"android":"levelo://app?vid=38ab9f3b-fe76-4f47-bf05-e3ca256156a4","ios":"levelo://app?vid=38ab9f3b-fe76-4f47-bf05-e3ca256156a4"},"vehicle_type_id":"4","last_reported":1753549720,"current_range_meters":11600,"station_id":"ce4bhbh2rcd13ifvqepg","pricing_plan_id":"cebpf4jnsgd1na2vs0mg"},{"bike_id":"e315280d-6cf8-44d0-a7ae-764f924a5803","system_id":"levelo_inurba_marseille","lat":43.29099,"lon":5.38125,"is_reserved":false,"is_disabled":false,"rental_uris":{"android":"levelo://app?vid=e315280d-6cf8-44d0-a7ae-764f924a5803","ios":"levelo://app?vid=e315280d-6cf8-44d0-a7ae-764f924a5803"},"vehicle_type_id":"4","last_reported":1753549720,"current_range_meters":11600,"station_id":"ce4bh512rcd13ifvqe2g","pricing_plan_id":"cebpf4jnsgd1na2vs0mg"},{"bike_id":"6070b287-ba72-4b04-8e31-29269d5dd36d","system_id":"levelo_inurba_marseille","lat":43.24077,"lon":5.37666,"is_reserved":false,"is_disabled":false,"rental_uris":{"android":"levelo://app?vid=6070b287-ba72-4b04-8e31-29269d5dd36d","ios":"levelo://app?vid=6070b287-ba72-4b04-8e31-29269d5dd36d"},"vehicle_type_id":"4","last_reported":1753549720,"current_range_meters":11600,"station_id":"","pricing_plan_id":"cebpf4jnsgd1na2vs0mg"},{"bike_id":"6b431c3d-700a-46ad-8bd7-ea0abc3d3883","system_id":"levelo_inurba_marseille","lat":43.27203,"lon":5.39175,"is_reserved":false,"is_disabled":false,"rental_uris":{"android":"levelo://app?vid=6b431c3d-700a-46ad-8bd7-ea0abc3d3883","ios":"levelo://app?vid=6b431c3d-700a-46ad-8bd7-ea0abc3d3883"},"vehicle_type_id":"4","last_reported":1753549720,"current_range_meters":11600,"station_id":"ce4bhhp2rcd13ifvqfm0","pricing_plan_id":"cebpf4jnsgd1na2vs0mg"},{"bike_id":"57755280-973c-4ff3-9c25-8f15e2c5b510","system_id":"levelo_inurba_marseille","lat":43.31872,"lon":5.37373,"is_reserved":false,"is_disabled":false,"rental_uris":{"android":"levelo://app?vid=57755280-973c-4ff3-9c25-8f15e2c5b510","ios":"levelo://app?vid=57755280-973c-4ff3-9c25-8f15e2c5b510"},"vehicle_type_id":"4","last_reported":1753549720,"current_range_meters":11600,"station_id":"","pricing_plan_id":"cebpf4jnsgd1na2vs0mg"},{"bike_id":"533043ec-6a86-44ee-a074-bc5818033009","system_id":"levelo_inurba_marseille","lat":43.30215,"lon":5.39458,"is_reserved":false,"is_disabled":false,"rental_uris":{"android":"levelo://app?vid=533043ec-6a86-44ee-a074-bc5818033009","ios":"levelo://app?vid=533043ec-6a86-44ee-a074-bc5818033009"},"vehicle_type_id":"4","last_reported":1753549720,"current_range_meters":11600,"station_id":"ce4bh0p2rcd13ifvqd70","pricing_plan_id":"cebpf4jnsgd1na2vs0mg"},{"bike_id":"7937f471-dcc0-4727-896c-b6f4f4a0c96e","system_id":"levelo_inurba_marseille","lat":43.27565,"lon":5.38416,"is_reserved":false,"is_disabled":false,"rental_uris":{"android":"levelo://app?vid=7937f471-dcc0-4727-896c-b6f4f4a0c96e","ios":"levelo://app?vid=7937f471-dcc0-4727-896c-b6f4f4a0c96e"},"vehicle_type_id":"4","last_reported":1753549720,"current_range_meters":11600,"station_id":"ce4bhh92rcd13ifvqfi0","pricing_plan_id":"cebpf4jnsgd1na2vs0mg"},{"bike_id":"f2c0d178-a474-46a0-b002-379a7a30c411","system_id":"levelo_inurba_marseille","lat":43.29406,"lon":5.37588,"is_reserved":false,"is_disabled":false,"rental_uris":{"android":"levelo://app?vid=f2c0d178-a474-46a0-b002-379a7a30c411","ios":"levelo://app?vid=f2c0d178-a474-46a0-b002-379a7a30c411"},"vehicle_type_id":"4","last_reported":1753549720,"current_range_meters":12000,"station_id":"","pricing_plan_id":"cebpf4jnsgd1na2vs0mg"},{"bike_id":"0db3ee53-5135-4ea8-8613-b1222f736a7e","system_id":"levelo_inurba_marseille","lat":43.28569,"lon":5.39488,"is_reserved":false,"is_disabled":false,"rental_uris":{"android":"levelo://app?vid=0db3ee53-5135-4ea8-8613-b1222f736a7e","ios":"levelo://app?vid=0db3ee53-5135-4ea8-8613-b1222f736a7e"},"vehicle_type_id":"4","last_reported":1753549720,"current_range_meters":12000,"station_id":"ce4bh292rcd13ifvqdg0","pricing_plan_id":"cebpf4jnsgd1na2vs0mg"},{"bike_id":"09b7f600-cb1e-4ea0-adc2-9c3dcb778794","system_id":"levelo_inurba_marseille","lat":43.225025,"lon":5.347913,"is_reserved":false,"is_disabled":false,"rental_uris":{"android":"levelo://app?vid=09b7f600-cb1e-4ea0-adc2-9c3dcb778794","ios":"levelo://app?vid=09b7f600-cb1e-4ea0-adc2-9c3dcb778794"},"vehicle_type_id":"4","last_reported":1753549720,"current_range_meters":12000,"station_id":"st_cvj5dfep6f1abm77gieg","pricing_plan_id":"cebpf4jnsgd1na2vs0mg"},{"bike_id":"7f7a4770-cb44-4cbe-afee-f7531a238fa9","system_id":"levelo_inurba_marseille","lat":43.225024,"lon":5.347911,"is_reserved":false,"is_disabled":false,"rental_uris":{"android":"levelo://app?vid=7f7a4770-cb44-4cbe-afee-f7531a238fa9","ios":"levelo://app?vid=7f7a4770-cb44-4cbe-afee-f7531a238fa9"},"vehicle_type_id":"4","last_reported":1753549720,"current_range_meters":12000,"station_id":"st_cvj5dfep6f1abm77gieg","pricing_plan_id":"cebpf4jnsgd1na2vs0mg"},{"bike_id":"4fbaba2c-5b50-42e2-9acb-261485aab5f4","system_id":"levelo_inurba_marseille","lat":43.29259,"lon":5.40902,"is_reserved":false,"is_disabled":false,"rental_uris":{"android":"levelo://app?vid=4fbaba2c-5b50-42e2-9acb-261485aab5f4","ios":"levelo://app?vid=4fbaba2c-5b50-42e2-9acb-261485aab5f4"},"vehicle_type_id":"4","last_reported":1753549720,"current_range_meters":12000,"station_id":"ce4bh192rcd13ifvqdc0","pricing_plan_id":"cebpf4jnsgd1na2vs0mg"},{"bike_id":"9bff4c30-7d52-4173-88ba-afd3702b54f6","system_id":"levelo_inurba_marseille","lat":43.279921,"lon":5.416737,"is_reserved":false,"is_disabled":false,"rental_uris":{"android":"levelo://app?vid=9bff4c30-7d52-4173-88ba-afd3702b54f6","ios":"levelo://app?vid=9bff4c30-7d52-4173-88ba-afd3702b54f6"},"vehicle_type_id":"4","last_reported":1753549720,"current_range_meters":12000,"station_id":"ce4bho12rcd13ifvqh1g","pricing_plan_id":"cebpf4jnsgd1na2vs0mg"},{"bike_id":"2442c4a6-83b5-4849-8a94-1e7c2e3ee5a8","system_id":"levelo_inurba_marseille","lat":43.30538,"lon":5.36712,"is_reserved":false,"is_disabled":false,"rental_uris":{"android":"levelo://app?vid=2442c4a6-83b5-4849-8a94-1e7c2e3ee5a8","ios":"levelo://app?vid=2442c4a6-83b5-4849-8a94-1e7c2e3ee5a8"},"vehicle_type_id":"4","last_reported":1753549720,"current_range_meters":11600,"station_id":"ce4bgrp2rcd13ifvqc9g","pricing_plan_id":"cebpf4jnsgd1na2vs0mg"},{"bike_id":"01919711-51c0-4b9e-863e-584f9a31b4ec","system_id":"levelo_inurba_marseille","lat":43.29886,"lon":5.39738,"is_reserved":false,"is_disabled":true,"rental_uris":{"android":"levelo://app?vid=01919711-51c0-4b9e-863e-584f9a31b4ec","ios":"levelo://app?vid=01919711-51c0-4b9e-863e-584f9a31b4ec"},"vehicle_type_id":"4","last_reported":1753549720,"current_range_meters":12000,"station_id":"ce4bh0h2rcd13ifvqd50","pricing_plan_id":"cebpf4jnsgd1na2vs0mg"},{"bike_id":"1172b41e-c979-4934-989e-ce6d0411a47d","system_id":"levelo_inurba_marseille","lat":43.31274,"lon":5.40173,"is_reserved":false,"is_disabled":false,"rental_uris":{"android":"levelo://app?vid=1172b41e-c979-4934-989e-ce6d0411a47d","ios":"levelo://app?vid=1172b41e-c979-4934-989e-ce6d0411a47d"},"vehicle_type_id":"4","last_reported":1753549720,"current_range_meters":11600,"station_id":"ce4bh092rcd13ifvqd30","pricing_plan_id":"cebpf4jnsgd1na2vs0mg"},{"bike_id":"80cda384-a0de-4854-88d7-81c5eb0a10d1","system_id":"levelo_inurba_marseille","lat":43.28943,"lon":5.36386,"is_reserved":false,"is_disabled":true,"rental_uris":{"android":"levelo://app?vid=80cda384-a0de-4854-88d7-81c5eb0a10d1","ios":"levelo://app?vid=80cda384-a0de-4854-88d7-81c5eb0a10d1"},"vehicle_type_id":"4","last_reported":1753549720,"current_range_meters":12000,"station_id":"ce4bhc92rcd13ifvqetg","pricing_plan_id":"cebpf4jnsgd1na2vs0mg"},{"bike_id":"09447d92-0522-480e-b6b5-24959949ccf9","system_id":"levelo_inurba_marseille","lat":43.32432,"lon":5.36771,"is_reserved":false,"is_disabled":false,"rental_uris":{"android":"levelo://app?vid=09447d92-0522-480e-b6b5-24959949ccf9","ios":"levelo://app?vid=09447d92-0522-480e-b6b5-24959949ccf9"},"vehicle_type_id":"4","last_reported":1753549720,"current_range_meters":12400,"station_id":"","pricing_plan_id":"cebpf4jnsgd1na2vs0mg"},{"bike_id":"b5aab1b5-818a-4dfd-b7ae-70df5639e329","system_id":"levelo_inurba_marseille","lat":43.27059,"lon":5.42286,"is_reserved":false,"is_disabled":false,"rental_uris":{"android":"levelo://app?vid=b5aab1b5-818a-4dfd-b7ae-70df5639e329","ios":"levelo://app?vid=b5aab1b5-818a-4dfd-b7ae-70df5639e329"},"vehicle_type_id":"4","last_reported":1753549720,"current_range_meters":12400,"station_id":"ce4bhk92rcd13ifvqgb0","pricing_plan_id":"cebpf4jnsgd1na2vs0mg"},{"bike_id":"de80e1f8-f338-4fdf-a46a-fb5d0e7700ed","system_id":"levelo_inurba_marseille","lat":43.23969,"lon":5.36632,"is_reserved":false,"is_disabled":false,"rental_uris":{"android":"levelo://app?vid=de80e1f8-f338-4fdf-a46a-fb5d0e7700ed","ios":"levelo://app?vid=de80e1f8-f338-4fdf-a46a-fb5d0e7700ed"},"vehicle_type_id":"4","last_reported":1753549720,"current_range_meters":12400,"station_id":"ce4bhi12rcd13ifvqfp0","pricing_plan_id":"cebpf4jnsgd1na2vs0mg"},{"bike_id":"190ee906-dca3-4765-99f1-20ef55b1eaa9","system_id":"levelo_inurba_marseille","lat":43.239631,"lon":5.366271,"is_reserved":false,"is_disabled":false,"rental_uris":{"android":"levelo://app?vid=190ee906-dca3-4765-99f1-20ef55b1eaa9","ios":"levelo://app?vid=190ee906-dca3-4765-99f1-20ef55b1eaa9"},"vehicle_type_id":"4","last_reported":1753549720,"current_range_meters":12400,"station_id":"ce4bhi12rcd13ifvqfp0","pricing_plan_id":"cebpf4jnsgd1na2vs0mg"},{"bike_id":"197e0a95-5e75-43ec-bde8-098480b631d6","system_id":"levelo_inurba_marseille","lat":43.29005,"lon":5.35606,"is_reserved":false,"is_disabled":false,"rental_uris":{"android":"levelo://app?vid=197e0a95-5e75-43ec-bde8-098480b631d6","ios":"levelo://app?vid=197e0a95-5e75-43ec-bde8-098480b631d6"},"vehicle_type_id":"4","last_reported":1753549720,"current_range_meters":12400,"station_id":"ce4bhb92rcd13ifvqen0","pricing_plan_id":"cebpf4jnsgd1na2vs0mg"},{"bike_id":"870c3cf4-7abb-4065-89d4-c6f89944ef73","system_id":"levelo_inurba_marseille","lat":43.26786,"lon":5.39417,"is_reserved":false,"is_disabled":false,"rental_uris":{"android":"levelo://app?vid=870c3cf4-7abb-4065-89d4-c6f89944ef73","ios":"levelo://app?vid=870c3cf4-7abb-4065-89d4-c6f89944ef73"},"vehicle_type_id":"4","last_reported":1753549720,"current_range_meters":12400,"station_id":"ce4bhh12rcd13ifvqfg0","pricing_plan_id":"cebpf4jnsgd1na2vs0mg"},{"bike_id":"228fda2e-a3be-45d0-a69a-d878929b7faf","system_id":"levelo_inurba_marseille","lat":43.29788,"lon":5.38107,"is_reserved":false,"is_disabled":false,"rental_uris":{"android":"levelo://app?vid=228fda2e-a3be-45d0-a69a-d878929b7faf","ios":"levelo://app?vid=228fda2e-a3be-45d0-a69a-d878929b7faf"},"vehicle_type_id":"4","last_reported":1753549720,"current_range_meters":12400,"station_id":"ce4bgip2rcd13ifvqbb0","pricing_plan_id":"cebpf4jnsgd1na2vs0mg"},{"bike_id":"c71818cb-ab2c-4d25-9b05-f9ceb920d9ee","system_id":"levelo_inurba_marseille","lat":43.2978,"lon":5.39342,"is_reserved":false,"is_disabled":false,"rental_uris":{"android":"levelo://app?vid=c71818cb-ab2c-4d25-9b05-f9ceb920d9ee","ios":"levelo://app?vid=c71818cb-ab2c-4d25-9b05-f9ceb920d9ee"},"vehicle_type_id":"4","last_reported":1753549720,"current_range_meters":12800,"station_id":"chh1huq6cuj3fo74tm60","pricing_plan_id":"cebpf4jnsgd1na2vs0mg"},{"bike_id":"0afe0adf-1919-437d-8b55-381572ec3989","system_id":"levelo_inurba_marseille","lat":43.23183,"lon":5.39989,"is_reserved":false,"is_disabled":false,"rental_uris":{"android":"levelo://app?vid=0afe0adf-1919-437d-8b55-381572ec3989","ios":"levelo://app?vid=0afe0adf-1919-437d-8b55-381572ec3989"},"vehicle_type_id":"4","last_reported":1753549720,"current_range_meters":12800,"station_id":"ce4bhn12rcd13ifvqgqg","pricing_plan_id":"cebpf4jnsgd1na2vs0mg"},{"bike_id":"38430b3a-6e1c-4808-8cf1-8d4bfa508640","system_id":"levelo_inurba_marseille","lat":43.29219,"lon":5.36065,"is_reserved":false,"is_disabled":false,"rental_uris":{"android":"levelo://app?vid=38430b3a-6e1c-4808-8cf1-8d4bfa508640","ios":"levelo://app?vid=38430b3a-6e1c-4808-8cf1-8d4bfa508640"},"vehicle_type_id":"4","last_reported":1753549720,"current_range_meters":12800,"station_id":"ce4bhbh2rcd13ifvqeqg","pricing_plan_id":"cebpf4jnsgd1na2vs0mg"},{"bike_id":"a799fb7a-5374-4244-9444-814de63bcde0","system_id":"levelo_inurba_marseille","lat":43.25729,"lon":5.41107,"is_reserved":false,"is_disabled":false,"rental_uris":{"android":"levelo://app?vid=a799fb7a-5374-4244-9444-814de63bcde0","ios":"levelo://app?vid=a799fb7a-5374-4244-9444-814de63bcde0"},"vehicle_type_id":"4","last_reported":1753549720,"current_range_meters":12800,"station_id":"ce4bhkp2rcd13ifvqgd0","pricing_plan_id":"cebpf4jnsgd1na2vs0mg"},{"bike_id":"8f9094ef-4a0f-4c22-91e1-48f4d9ca63e4","system_id":"levelo_inurba_marseille","lat":43.27213,"lon":5.39185,"is_reserved":false,"is_disabled":false,"rental_uris":{"android":"levelo://app?vid=8f9094ef-4a0f-4c22-91e1-48f4d9ca63e4","ios":"levelo://app?vid=8f9094ef-4a0f-4c22-91e1-48f4d9ca63e4"},"vehicle_type_id":"4","last_reported":1753549720,"current_range_meters":12800,"station_id":"ce4bhhp2rcd13ifvqfm0","pricing_plan_id":"cebpf4jnsgd1na2vs0mg"},{"bike_id":"02f26cc0-7caa-4a17-a3af-3f76e2e25af6","system_id":"levelo_inurba_marseille","lat":43.28276,"lon":5.35075,"is_reserved":false,"is_disabled":false,"rental_uris":{"android":"levelo://app?vid=02f26cc0-7caa-4a17-a3af-3f76e2e25af6","ios":"levelo://app?vid=02f26cc0-7caa-4a17-a3af-3f76e2e25af6"},"vehicle_type_id":"4","last_reported":1753549720,"current_range_meters":13600,"station_id":"ce4bhbp2rcd13ifvqerg","pricing_plan_id":"cebpf4jnsgd1na2vs0mg"},{"bike_id":"d00b6abc-174d-48a1-8e37-47955a519e3f","system_id":"levelo_inurba_marseille","lat":43.22952,"lon":5.35357,"is_reserved":false,"is_disabled":false,"rental_uris":{"android":"levelo://app?vid=d00b6abc-174d-48a1-8e37-47955a519e3f","ios":"levelo://app?vid=d00b6abc-174d-48a1-8e37-47955a519e3f"},"vehicle_type_id":"4","last_reported":1753549720,"current_range_meters":13600,"station_id":"cpo3532slgdg3j2ikp40","pricing_plan_id":"cebpf4jnsgd1na2vs0mg"},{"bike_id":"c3c2652b-f2d7-4ed4-89ec-9559feb01451","system_id":"levelo_inurba_marseille","lat":43.29226,"lon":5.360481,"is_reserved":false,"is_disabled":true,"rental_uris":{"android":"levelo://app?vid=c3c2652b-f2d7-4ed4-89ec-9559feb01451","ios":"levelo://app?vid=c3c2652b-f2d7-4ed4-89ec-9559feb01451"},"vehicle_type_id":"4","last_reported":1753549720,"current_range_meters":13600,"station_id":"ce4bhbh2rcd13ifvqeqg","pricing_plan_id":"cebpf4jnsgd1na2vs0mg"},{"bike_id":"c9550559-dd49-4ecf-bad6-c705e02da3f0","system_id":"levelo_inurba_marseille","lat":43.28421,"lon":5.34975,"is_reserved":false,"is_disabled":false,"rental_uris":{"android":"levelo://app?vid=c9550559-dd49-4ecf-bad6-c705e02da3f0","ios":"levelo://app?vid=c9550559-dd49-4ecf-bad6-c705e02da3f0"},"vehicle_type_id":"4","last_reported":1753549720,"current_range_meters":13600,"station_id":"ce4bhbh2rcd13ifvqepg","pricing_plan_id":"cebpf4jnsgd1na2vs0mg"},{"bike_id":"5290a91c-2da7-4771-9529-f9add5e4322d","system_id":"levelo_inurba_marseille","lat":43.292694,"lon":5.384437,"is_reserved":false,"is_disabled":false,"rental_uris":{"android":"levelo://app?vid=5290a91c-2da7-4771-9529-f9add5e4322d","ios":"levelo://app?vid=5290a91c-2da7-4771-9529-f9add5e4322d"},"vehicle_type_id":"4","last_reported":1753549720,"current_range_meters":12800,"station_id":"ce4bh692rcd13ifvqea0","pricing_plan_id":"cebpf4jnsgd1na2vs0mg"},{"bike_id":"45eb8732-4541-458f-a2e3-165bd18fa3fc","system_id":"levelo_inurba_marseille","lat":43.29774,"lon":5.37089,"is_reserved":false,"is_disabled":false,"rental_uris":{"android":"levelo://app?vid=45eb8732-4541-458f-a2e3-165bd18fa3fc","ios":"levelo://app?vid=45eb8732-4541-458f-a2e3-165bd18fa3fc"},"vehicle_type_id":"4","last_reported":1753549720,"current_range_meters":14000,"station_id":"","pricing_plan_id":"cebpf4jnsgd1na2vs0mg"},{"bike_id":"f7a3c1e5-de0d-4d29-bbfd-62d44358ea4f","system_id":"levelo_inurba_marseille","lat":43.290495,"lon":5.359221,"is_reserved":false,"is_disabled":false,"rental_uris":{"android":"levelo://app?vid=f7a3c1e5-de0d-4d29-bbfd-62d44358ea4f","ios":"levelo://app?vid=f7a3c1e5-de0d-4d29-bbfd-62d44358ea4f"},"vehicle_type_id":"4","last_reported":1753549720,"current_range_meters":14000,"station_id":"ce4bha92rcd13ifvqeg0","pricing_plan_id":"cebpf4jnsgd1na2vs0mg"},{"bike_id":"ba93bb28-cf26-4afd-a786-6bc2f811c4cb","system_id":"levelo_inurba_marseille","lat":43.32413,"lon":5.40412,"is_reserved":false,"is_disabled":false,"rental_uris":{"android":"levelo://app?vid=ba93bb28-cf26-4afd-a786-6bc2f811c4cb","ios":"levelo://app?vid=ba93bb28-cf26-4afd-a786-6bc2f811c4cb"},"vehicle_type_id":"4","last_reported":1753549720,"current_range_meters":14000,"station_id":"","pricing_plan_id":"cebpf4jnsgd1na2vs0mg"},{"bike_id":"3d3f7e5e-5f19-4daf-a8dd-75fa4f45d685","system_id":"levelo_inurba_marseille","lat":43.28976,"lon":5.37833,"is_reserved":false,"is_disabled":false,"rental_uris":{"android":"levelo://app?vid=3d3f7e5e-5f19-4daf-a8dd-75fa4f45d685","ios":"levelo://app?vid=3d3f7e5e-5f19-4daf-a8dd-75fa4f45d685"},"vehicle_type_id":"4","last_reported":1753549720,"current_range_meters":14000,"station_id":"","pricing_plan_id":"cebpf4jnsgd1na2vs0mg"},{"bike_id":"dd5b3db2-62f9-4716-992d-435138b6493d","system_id":"levelo_inurba_marseille","lat":43.30822,"lon":5.38142,"is_reserved":false,"is_disabled":true,"rental_uris":{"android":"levelo://app?vid=dd5b3db2-62f9-4716-992d-435138b6493d","ios":"levelo://app?vid=dd5b3db2-62f9-4716-992d-435138b6493d"},"vehicle_type_id":"4","last_reported":1753549720,"current_range_meters":14000,"station_id":"ce4bgt12rcd13ifvqce0","pricing_plan_id":"cebpf4jnsgd1na2vs0mg"},{"bike_id":"8cb3cdfe-341c-4219-9fb7-adf0c31075d3","system_id":"levelo_inurba_marseille","lat":43.22507,"lon":5.34782,"is_reserved":false,"is_disabled":false,"rental_uris":{"android":"levelo://app?vid=8cb3cdfe-341c-4219-9fb7-adf0c31075d3","ios":"levelo://app?vid=8cb3cdfe-341c-4219-9fb7-adf0c31075d3"},"vehicle_type_id":"4","last_reported":1753549720,"current_range_meters":14400,"station_id":"st_cvj5dfep6f1abm77gieg","pricing_plan_id":"cebpf4jnsgd1na2vs0mg"},{"bike_id":"41f9f37c-c50e-462d-946f-728ceba45d27","system_id":"levelo_inurba_marseille","lat":43.28612,"lon":5.35088,"is_reserved":false,"is_disabled":false,"rental_uris":{"android":"levelo://app?vid=41f9f37c-c50e-462d-946f-728ceba45d27","ios":"levelo://app?vid=41f9f37c-c50e-462d-946f-728ceba45d27"},"vehicle_type_id":"4","last_reported":1753549720,"current_range_meters":13600,"station_id":"ce4bhch2rcd13ifvqeug","pricing_plan_id":"cebpf4jnsgd1na2vs0mg"},{"bike_id":"cb9c4048-efa6-41b8-bea2-f6656e0fa307","system_id":"levelo_inurba_marseille","lat":43.29028,"lon":5.38645,"is_reserved":false,"is_disabled":false,"rental_uris":{"android":"levelo://app?vid=cb9c4048-efa6-41b8-bea2-f6656e0fa307","ios":"levelo://app?vid=cb9c4048-efa6-41b8-bea2-f6656e0fa307"},"vehicle_type_id":"4","last_reported":1753549720,"current_range_meters":14400,"station_id":"ce4bh4p2rcd13ifvqe0g","pricing_plan_id":"cebpf4jnsgd1na2vs0mg"},{"bike_id":"e8dde99c-6ecf-4e63-9ffc-47ebe879a97f","system_id":"levelo_inurba_marseille","lat":43.290311,"lon":5.399895,"is_reserved":false,"is_disabled":false,"rental_uris":{"android":"levelo://app?vid=e8dde99c-6ecf-4e63-9ffc-47ebe879a97f","ios":"levelo://app?vid=e8dde99c-6ecf-4e63-9ffc-47ebe879a97f"},"vehicle_type_id":"4","last_reported":1753549720,"current_range_meters":14400,"station_id":"ce4bh392rcd13ifvqdm0","pricing_plan_id":"cebpf4jnsgd1na2vs0mg"},{"bike_id":"4f069cb2-e85f-44ab-8659-b3444c19b657","system_id":"levelo_inurba_marseille","lat":43.23193,"lon":5.35548,"is_reserved":false,"is_disabled":false,"rental_uris":{"android":"levelo://app?vid=4f069cb2-e85f-44ab-8659-b3444c19b657","ios":"levelo://app?vid=4f069cb2-e85f-44ab-8659-b3444c19b657"},"vehicle_type_id":"4","last_reported":1753549720,"current_range_meters":14400,"station_id":"ce4bhu92rcd13ifvqi70","pricing_plan_id":"cebpf4jnsgd1na2vs0mg"},{"bike_id":"4ea020aa-54c2-4a24-9e04-11b2a4241ff6","system_id":"levelo_inurba_marseille","lat":43.28853,"lon":5.3587,"is_reserved":false,"is_disabled":false,"rental_uris":{"android":"levelo://app?vid=4ea020aa-54c2-4a24-9e04-11b2a4241ff6","ios":"levelo://app?vid=4ea020aa-54c2-4a24-9e04-11b2a4241ff6"},"vehicle_type_id":"4","last_reported":1753549720,"current_range_meters":14000,"station_id":"ce4bhb12rcd13ifvqem0","pricing_plan_id":"cebpf4jnsgd1na2vs0mg"},{"bike_id":"25e07804-327d-451e-af4e-6a6e09b5f052","system_id":"levelo_inurba_marseille","lat":43.26567,"lon":5.37285,"is_reserved":false,"is_disabled":false,"rental_uris":{"android":"levelo://app?vid=25e07804-327d-451e-af4e-6a6e09b5f052","ios":"levelo://app?vid=25e07804-327d-451e-af4e-6a6e09b5f052"},"vehicle_type_id":"4","last_reported":1753549720,"current_range_meters":14400,"station_id":"ce4bhg12rcd13ifvqf70","pricing_plan_id":"cebpf4jnsgd1na2vs0mg"},{"bike_id":"1f48da96-a91e-4c2d-a140-4df6e942d0c7","system_id":"levelo_inurba_marseille","lat":43.27368,"lon":5.36261,"is_reserved":false,"is_disabled":false,"rental_uris":{"android":"levelo://app?vid=1f48da96-a91e-4c2d-a140-4df6e942d0c7","ios":"levelo://app?vid=1f48da96-a91e-4c2d-a140-4df6e942d0c7"},"vehicle_type_id":"4","last_reported":1753549720,"current_range_meters":14400,"station_id":"ce4bhbh2rcd13ifvqeo0","pricing_plan_id":"cebpf4jnsgd1na2vs0mg"},{"bike_id":"0cbf75cf-ca0f-428c-adaa-2b0c3e87944b","system_id":"levelo_inurba_marseille","lat":43.25393,"lon":5.37529,"is_reserved":false,"is_disabled":false,"rental_uris":{"android":"levelo://app?vid=0cbf75cf-ca0f-428c-adaa-2b0c3e87944b","ios":"levelo://app?vid=0cbf75cf-ca0f-428c-adaa-2b0c3e87944b"},"vehicle_type_id":"4","last_reported":1753549720,"current_range_meters":14400,"station_id":"","pricing_plan_id":"cebpf4jnsgd1na2vs0mg"},{"bike_id":"9377d52d-7c04-4205-81e5-05265b3eabff","system_id":"levelo_inurba_marseille","lat":43.28709,"lon":5.37935,"is_reserved":false,"is_disabled":true,"rental_uris":{"android":"levelo://app?vid=9377d52d-7c04-4205-81e5-05265b3eabff","ios":"levelo://app?vid=9377d52d-7c04-4205-81e5-05265b3eabff"},"vehicle_type_id":"4","last_reported":1753549720,"current_range_meters":14800,"station_id":"ce4bh9p2rcd13ifvqec0","pricing_plan_id":"cebpf4jnsgd1na2vs0mg"},{"bike_id":"a05343f6-5345-451e-92c9-8d14b4ec04eb","system_id":"levelo_inurba_marseille","lat":43.314919,"lon":5.373082,"is_reserved":false,"is_disabled":false,"rental_uris":{"android":"levelo://app?vid=a05343f6-5345-451e-92c9-8d14b4ec04eb","ios":"levelo://app?vid=a05343f6-5345-451e-92c9-8d14b4ec04eb"},"vehicle_type_id":"4","last_reported":1753549720,"current_range_meters":14800,"station_id":"","pricing_plan_id":"cebpf4jnsgd1na2vs0mg"},{"bike_id":"c3de97ac-6e7b-4813-8605-f523f2e8f0e1","system_id":"levelo_inurba_marseille","lat":43.28724,"lon":5.37935,"is_reserved":false,"is_disabled":false,"rental_uris":{"android":"levelo://app?vid=c3de97ac-6e7b-4813-8605-f523f2e8f0e1","ios":"levelo://app?vid=c3de97ac-6e7b-4813-8605-f523f2e8f0e1"},"vehicle_type_id":"4","last_reported":1753549720,"current_range_meters":14800,"station_id":"ce4bh9p2rcd13ifvqec0","pricing_plan_id":"cebpf4jnsgd1na2vs0mg"},{"bike_id":"61cd7fe3-237f-4708-afc7-dd8a81b4454c","system_id":"levelo_inurba_marseille","lat":43.22906,"lon":5.3536,"is_reserved":false,"is_disabled":false,"rental_uris":{"android":"levelo://app?vid=61cd7fe3-237f-4708-afc7-dd8a81b4454c","ios":"levelo://app?vid=61cd7fe3-237f-4708-afc7-dd8a81b4454c"},"vehicle_type_id":"4","last_reported":1753549720,"current_range_meters":14800,"station_id":"cpo3532slgdg3j2ikp40","pricing_plan_id":"cebpf4jnsgd1na2vs0mg"},{"bike_id":"adc99020-a046-4247-b3bb-abb9aabfb167","system_id":"levelo_inurba_marseille","lat":43.244051,"lon":5.370586,"is_reserved":false,"is_disabled":false,"rental_uris":{"android":"levelo://app?vid=adc99020-a046-4247-b3bb-abb9aabfb167","ios":"levelo://app?vid=adc99020-a046-4247-b3bb-abb9aabfb167"},"vehicle_type_id":"4","last_reported":1753549720,"current_range_meters":14800,"station_id":"","pricing_plan_id":"cebpf4jnsgd1na2vs0mg"},{"bike_id":"95bd8fd3-8a83-4ee7-85d6-75e6e14086ba","system_id":"levelo_inurba_marseille","lat":43.29574,"lon":5.37528,"is_reserved":false,"is_disabled":false,"rental_uris":{"android":"levelo://app?vid=95bd8fd3-8a83-4ee7-85d6-75e6e14086ba","ios":"levelo://app?vid=95bd8fd3-8a83-4ee7-85d6-75e6e14086ba"},"vehicle_type_id":"4","last_reported":1753549720,"current_range_meters":14800,"station_id":"ce4bgh92rcd13ifvqb50","pricing_plan_id":"cebpf4jnsgd1na2vs0mg"},{"bike_id":"f995cbb9-30ee-4d7b-9115-c1bc11791126","system_id":"levelo_inurba_marseille","lat":43.29444,"lon":5.3974,"is_reserved":false,"is_disabled":false,"rental_uris":{"android":"levelo://app?vid=f995cbb9-30ee-4d7b-9115-c1bc11791126","ios":"levelo://app?vid=f995cbb9-30ee-4d7b-9115-c1bc11791126"},"vehicle_type_id":"4","last_reported":1753549720,"current_range_meters":14800,"station_id":"ce4bh3h2rcd13ifvqdo0","pricing_plan_id":"cebpf4jnsgd1na2vs0mg"},{"bike_id":"a1d5115b-997f-44a5-8b4b-21cb29757407","system_id":"levelo_inurba_marseille","lat":43.31237,"lon":5.37289,"is_reserved":false,"is_disabled":false,"rental_uris":{"android":"levelo://app?vid=a1d5115b-997f-44a5-8b4b-21cb29757407","ios":"levelo://app?vid=a1d5115b-997f-44a5-8b4b-21cb29757407"},"vehicle_type_id":"4","last_reported":1753549720,"current_range_meters":14800,"station_id":"","pricing_plan_id":"cebpf4jnsgd1na2vs0mg"},{"bike_id":"c34587a8-a019-4b34-8b52-b2a04d65fdd5","system_id":"levelo_inurba_marseille","lat":43.26052,"lon":5.3752,"is_reserved":false,"is_disabled":false,"rental_uris":{"android":"levelo://app?vid=c34587a8-a019-4b34-8b52-b2a04d65fdd5","ios":"levelo://app?vid=c34587a8-a019-4b34-8b52-b2a04d65fdd5"},"vehicle_type_id":"4","last_reported":1753549720,"current_range_meters":14800,"station_id":"ce4bhgh2rcd13ifvqfa0","pricing_plan_id":"cebpf4jnsgd1na2vs0mg"},{"bike_id":"7e65c5ea-0429-45f5-a396-bd32e67f0744","system_id":"levelo_inurba_marseille","lat":43.33475,"lon":5.40018,"is_reserved":false,"is_disabled":false,"rental_uris":{"android":"levelo://app?vid=7e65c5ea-0429-45f5-a396-bd32e67f0744","ios":"levelo://app?vid=7e65c5ea-0429-45f5-a396-bd32e67f0744"},"vehicle_type_id":"4","last_reported":1753549720,"current_range_meters":14800,"station_id":"","pricing_plan_id":"cebpf4jnsgd1na2vs0mg"},{"bike_id":"898d1f8e-e261-4f25-9386-a6825028d102","system_id":"levelo_inurba_marseille","lat":43.29056,"lon":5.47386,"is_reserved":false,"is_disabled":false,"rental_uris":{"android":"levelo://app?vid=898d1f8e-e261-4f25-9386-a6825028d102","ios":"levelo://app?vid=898d1f8e-e261-4f25-9386-a6825028d102"},"vehicle_type_id":"4","last_reported":1753549720,"current_range_meters":15200,"station_id":"","pricing_plan_id":"cebpf4jnsgd1na2vs0mg"},{"bike_id":"2261dd29-721e-4f24-93e3-8ad70ab2ef71","system_id":"levelo_inurba_marseille","lat":43.27498,"lon":5.42457,"is_reserved":false,"is_disabled":false,"rental_uris":{"android":"levelo://app?vid=2261dd29-721e-4f24-93e3-8ad70ab2ef71","ios":"levelo://app?vid=2261dd29-721e-4f24-93e3-8ad70ab2ef71"},"vehicle_type_id":"4","last_reported":1753549720,"current_range_meters":14800,"station_id":"ce4bhn92rcd13ifvqgrg","pricing_plan_id":"cebpf4jnsgd1na2vs0mg"},{"bike_id":"59bf96aa-cf95-416b-91b3-8f5c19b6bdb9","system_id":"levelo_inurba_marseille","lat":43.287095,"lon":5.379272,"is_reserved":false,"is_disabled":false,"rental_uris":{"android":"levelo://app?vid=59bf96aa-cf95-416b-91b3-8f5c19b6bdb9","ios":"levelo://app?vid=59bf96aa-cf95-416b-91b3-8f5c19b6bdb9"},"vehicle_type_id":"4","last_reported":1753549720,"current_range_meters":15200,"station_id":"ce4bh9p2rcd13ifvqec0","pricing_plan_id":"cebpf4jnsgd1na2vs0mg"},{"bike_id":"f3d9f4e3-18e1-46b0-943e-1414afeca2da","system_id":"levelo_inurba_marseille","lat":43.22933,"lon":5.35373,"is_reserved":false,"is_disabled":false,"rental_uris":{"android":"levelo://app?vid=f3d9f4e3-18e1-46b0-943e-1414afeca2da","ios":"levelo://app?vid=f3d9f4e3-18e1-46b0-943e-1414afeca2da"},"vehicle_type_id":"4","last_reported":1753549720,"current_range_meters":15200,"station_id":"cpo3532slgdg3j2ikp40","pricing_plan_id":"cebpf4jnsgd1na2vs0mg"},{"bike_id":"1e5c96a6-9d0f-4d5f-85ef-5a5f8ac0317a","system_id":"levelo_inurba_marseille","lat":43.33463,"lon":5.39126,"is_reserved":false,"is_disabled":false,"rental_uris":{"android":"levelo://app?vid=1e5c96a6-9d0f-4d5f-85ef-5a5f8ac0317a","ios":"levelo://app?vid=1e5c96a6-9d0f-4d5f-85ef-5a5f8ac0317a"},"vehicle_type_id":"4","last_reported":1753549720,"current_range_meters":15200,"station_id":"","pricing_plan_id":"cebpf4jnsgd1na2vs0mg"},{"bike_id":"04b7ba23-9d3e-49e9-b458-d4985e4e8b88","system_id":"levelo_inurba_marseille","lat":43.286072,"lon":5.351023,"is_reserved":false,"is_disabled":false,"rental_uris":{"android":"levelo://app?vid=04b7ba23-9d3e-49e9-b458-d4985e4e8b88","ios":"levelo://app?vid=04b7ba23-9d3e-49e9-b458-d4985e4e8b88"},"vehicle_type_id":"4","last_reported":1753549720,"current_range_meters":15200,"station_id":"","pricing_plan_id":"cebpf4jnsgd1na2vs0mg"},{"bike_id":"26b687e4-f020-464e-a0a2-61bd002465a3","system_id":"levelo_inurba_marseille","lat":43.316876,"lon":5.404837,"is_reserved":false,"is_disabled":false,"rental_uris":{"android":"levelo://app?vid=26b687e4-f020-464e-a0a2-61bd002465a3","ios":"levelo://app?vid=26b687e4-f020-464e-a0a2-61bd002465a3"},"vehicle_type_id":"4","last_reported":1753549720,"current_range_meters":14800,"station_id":"ce4bh012rcd13ifvqd00","pricing_plan_id":"cebpf4jnsgd1na2vs0mg"},{"bike_id":"94795731-86e6-422f-a5b1-2d334f984c1b","system_id":"levelo_inurba_marseille","lat":43.28846,"lon":5.39322,"is_reserved":false,"is_disabled":false,"rental_uris":{"android":"levelo://app?vid=94795731-86e6-422f-a5b1-2d334f984c1b","ios":"levelo://app?vid=94795731-86e6-422f-a5b1-2d334f984c1b"},"vehicle_type_id":"4","last_reported":1753549720,"current_range_meters":14800,"station_id":"ce4bh2p2rcd13ifvqdi0","pricing_plan_id":"cebpf4jnsgd1na2vs0mg"},{"bike_id":"3fb64e6d-b56a-4138-91b4-02f6d291ee7b","system_id":"levelo_inurba_marseille","lat":43.29622,"lon":5.37711,"is_reserved":false,"is_disabled":false,"rental_uris":{"android":"levelo://app?vid=3fb64e6d-b56a-4138-91b4-02f6d291ee7b","ios":"levelo://app?vid=3fb64e6d-b56a-4138-91b4-02f6d291ee7b"},"vehicle_type_id":"4","last_reported":1753549720,"current_range_meters":15200,"station_id":"ce4bgi92rcd13ifvqb90","pricing_plan_id":"cebpf4jnsgd1na2vs0mg"},{"bike_id":"6950a34e-0d97-4d7d-b50e-749154f2fcdb","system_id":"levelo_inurba_marseille","lat":43.29225,"lon":5.36081,"is_reserved":false,"is_disabled":false,"rental_uris":{"android":"levelo://app?vid=6950a34e-0d97-4d7d-b50e-749154f2fcdb","ios":"levelo://app?vid=6950a34e-0d97-4d7d-b50e-749154f2fcdb"},"vehicle_type_id":"4","last_reported":1753549720,"current_range_meters":15200,"station_id":"ce4bhbh2rcd13ifvqeqg","pricing_plan_id":"cebpf4jnsgd1na2vs0mg"},{"bike_id":"36e6bf97-6485-443c-94bf-9c9cb3f33000","system_id":"levelo_inurba_marseille","lat":43.29227,"lon":5.38489,"is_reserved":false,"is_disabled":true,"rental_uris":{"android":"levelo://app?vid=36e6bf97-6485-443c-94bf-9c9cb3f33000","ios":"levelo://app?vid=36e6bf97-6485-443c-94bf-9c9cb3f33000"},"vehicle_type_id":"4","last_reported":1753549720,"current_range_meters":15200,"station_id":"ce4bh692rcd13ifvqea0","pricing_plan_id":"cebpf4jnsgd1na2vs0mg"},{"bike_id":"a7d896f9-ed90-400f-b521-60f094bf2ab7","system_id":"levelo_inurba_marseille","lat":43.21192,"lon":5.35062,"is_reserved":false,"is_disabled":false,"rental_uris":{"android":"levelo://app?vid=a7d896f9-ed90-400f-b521-60f094bf2ab7","ios":"levelo://app?vid=a7d896f9-ed90-400f-b521-60f094bf2ab7"},"vehicle_type_id":"4","last_reported":1753549720,"current_range_meters":16000,"station_id":"st_cvj6sg6p6f1abm77japg","pricing_plan_id":"cebpf4jnsgd1na2vs0mg"},{"bike_id":"0c11f6c1-8064-42f4-a9d5-3b25c443f052","system_id":"levelo_inurba_marseille","lat":43.22935,"lon":5.35372,"is_reserved":false,"is_disabled":false,"rental_uris":{"android":"levelo://app?vid=0c11f6c1-8064-42f4-a9d5-3b25c443f052","ios":"levelo://app?vid=0c11f6c1-8064-42f4-a9d5-3b25c443f052"},"vehicle_type_id":"4","last_reported":1753549720,"current_range_meters":16000,"station_id":"cpo3532slgdg3j2ikp40","pricing_plan_id":"cebpf4jnsgd1na2vs0mg"},{"bike_id":"9dfdeb8a-ee13-4931-94b4-ad2b5f23aa4b","system_id":"levelo_inurba_marseille","lat":43.2319,"lon":5.39963,"is_reserved":false,"is_disabled":true,"rental_uris":{"android":"levelo://app?vid=9dfdeb8a-ee13-4931-94b4-ad2b5f23aa4b","ios":"levelo://app?vid=9dfdeb8a-ee13-4931-94b4-ad2b5f23aa4b"},"vehicle_type_id":"4","last_reported":1753549720,"current_range_meters":16400,"station_id":"ce4bhn12rcd13ifvqgqg","pricing_plan_id":"cebpf4jnsgd1na2vs0mg"},{"bike_id":"bdc8ef21-146d-46ff-9c91-249dba0037c7","system_id":"levelo_inurba_marseille","lat":43.22923,"lon":5.35372,"is_reserved":false,"is_disabled":false,"rental_uris":{"android":"levelo://app?vid=bdc8ef21-146d-46ff-9c91-249dba0037c7","ios":"levelo://app?vid=bdc8ef21-146d-46ff-9c91-249dba0037c7"},"vehicle_type_id":"4","last_reported":1753549720,"current_range_meters":16000,"station_id":"cpo3532slgdg3j2ikp40","pricing_plan_id":"cebpf4jnsgd1na2vs0mg"},{"bike_id":"b8f7a451-d403-4099-ae9c-c5a14f5b2b25","system_id":"levelo_inurba_marseille","lat":43.22928,"lon":5.35374,"is_reserved":false,"is_disabled":false,"rental_uris":{"android":"levelo://app?vid=b8f7a451-d403-4099-ae9c-c5a14f5b2b25","ios":"levelo://app?vid=b8f7a451-d403-4099-ae9c-c5a14f5b2b25"},"vehicle_type_id":"4","last_reported":1753549720,"current_range_meters":16000,"station_id":"cpo3532slgdg3j2ikp40","pricing_plan_id":"cebpf4jnsgd1na2vs0mg"},{"bike_id":"17fc2f1f-5abe-4cd4-9a51-d45ca1258e83","system_id":"levelo_inurba_marseille","lat":43.28435,"lon":5.34968,"is_reserved":false,"is_disabled":false,"rental_uris":{"android":"levelo://app?vid=17fc2f1f-5abe-4cd4-9a51-d45ca1258e83","ios":"levelo://app?vid=17fc2f1f-5abe-4cd4-9a51-d45ca1258e83"},"vehicle_type_id":"4","last_reported":1753549720,"current_range_meters":16000,"station_id":"ce4bhbh2rcd13ifvqepg","pricing_plan_id":"cebpf4jnsgd1na2vs0mg"},{"bike_id":"8a43fd17-f37d-4efa-9c86-e96e90492052","system_id":"levelo_inurba_marseille","lat":43.24809,"lon":5.37453,"is_reserved":false,"is_disabled":false,"rental_uris":{"android":"levelo://app?vid=8a43fd17-f37d-4efa-9c86-e96e90492052","ios":"levelo://app?vid=8a43fd17-f37d-4efa-9c86-e96e90492052"},"vehicle_type_id":"4","last_reported":1753549720,"current_range_meters":16000,"station_id":"ce4bhgh2rcd13ifvqfb0","pricing_plan_id":"cebpf4jnsgd1na2vs0mg"},{"bike_id":"43dbc09e-d0e4-4ddb-bafe-4f55874d23a9","system_id":"levelo_inurba_marseille","lat":43.30232,"lon":5.3823,"is_reserved":false,"is_disabled":false,"rental_uris":{"android":"levelo://app?vid=43dbc09e-d0e4-4ddb-bafe-4f55874d23a9","ios":"levelo://app?vid=43dbc09e-d0e4-4ddb-bafe-4f55874d23a9"},"vehicle_type_id":"4","last_reported":1753549720,"current_range_meters":16000,"station_id":"","pricing_plan_id":"cebpf4jnsgd1na2vs0mg"},{"bike_id":"c5794c7a-bb35-409f-9175-7d8933c8fd68","system_id":"levelo_inurba_marseille","lat":43.31104,"lon":5.39635,"is_reserved":false,"is_disabled":false,"rental_uris":{"android":"levelo://app?vid=c5794c7a-bb35-409f-9175-7d8933c8fd68","ios":"levelo://app?vid=c5794c7a-bb35-409f-9175-7d8933c8fd68"},"vehicle_type_id":"4","last_reported":1753549720,"current_range_meters":16000,"station_id":"","pricing_plan_id":"cebpf4jnsgd1na2vs0mg"},{"bike_id":"1533361c-c8b0-46c4-bb07-47847e110ffc","system_id":"levelo_inurba_marseille","lat":43.28152,"lon":5.42639,"is_reserved":false,"is_disabled":false,"rental_uris":{"android":"levelo://app?vid=1533361c-c8b0-46c4-bb07-47847e110ffc","ios":"levelo://app?vid=1533361c-c8b0-46c4-bb07-47847e110ffc"},"vehicle_type_id":"4","last_reported":1753549720,"current_range_meters":16000,"station_id":"ce4bhnh2rcd13ifvqgug","pricing_plan_id":"cebpf4jnsgd1na2vs0mg"},{"bike_id":"8ce5ad37-adec-4ba0-a6fc-db6b30ad9ba4","system_id":"levelo_inurba_marseille","lat":43.29905,"lon":5.38147,"is_reserved":false,"is_disabled":false,"rental_uris":{"android":"levelo://app?vid=8ce5ad37-adec-4ba0-a6fc-db6b30ad9ba4","ios":"levelo://app?vid=8ce5ad37-adec-4ba0-a6fc-db6b30ad9ba4"},"vehicle_type_id":"4","last_reported":1753549720,"current_range_meters":15200,"station_id":"ce4bgj12rcd13ifvqbc0","pricing_plan_id":"cebpf4jnsgd1na2vs0mg"},{"bike_id":"07d4a4ad-eb0a-4b60-9da1-134a7aa4a261","system_id":"levelo_inurba_marseille","lat":43.29791,"lon":5.38085,"is_reserved":false,"is_disabled":false,"rental_uris":{"android":"levelo://app?vid=07d4a4ad-eb0a-4b60-9da1-134a7aa4a261","ios":"levelo://app?vid=07d4a4ad-eb0a-4b60-9da1-134a7aa4a261"},"vehicle_type_id":"4","last_reported":1753549720,"current_range_meters":16000,"station_id":"ce4bgip2rcd13ifvqbb0","pricing_plan_id":"cebpf4jnsgd1na2vs0mg"},{"bike_id":"e3ea7b8c-ec2b-4e90-9fb8-78bd951aed6d","system_id":"levelo_inurba_marseille","lat":43.22944,"lon":5.35366,"is_reserved":false,"is_disabled":false,"rental_uris":{"android":"levelo://app?vid=e3ea7b8c-ec2b-4e90-9fb8-78bd951aed6d","ios":"levelo://app?vid=e3ea7b8c-ec2b-4e90-9fb8-78bd951aed6d"},"vehicle_type_id":"4","last_reported":1753549720,"current_range_meters":16000,"station_id":"cpo3532slgdg3j2ikp40","pricing_plan_id":"cebpf4jnsgd1na2vs0mg"},{"bike_id":"07625706-6b8d-4aad-9053-89841f021be3","system_id":"levelo_inurba_marseille","lat":43.292834,"lon":5.401187,"is_reserved":false,"is_disabled":false,"rental_uris":{"android":"levelo://app?vid=07625706-6b8d-4aad-9053-89841f021be3","ios":"levelo://app?vid=07625706-6b8d-4aad-9053-89841f021be3"},"vehicle_type_id":"4","last_reported":1753549720,"current_range_meters":16400,"station_id":"ce4bh312rcd13ifvqdk0","pricing_plan_id":"cebpf4jnsgd1na2vs0mg"},{"bike_id":"1b5c5733-f95a-4a7f-ad91-a4460974a5fa","system_id":"levelo_inurba_marseille","lat":43.2318,"lon":5.39991,"is_reserved":false,"is_disabled":false,"rental_uris":{"android":"levelo://app?vid=1b5c5733-f95a-4a7f-ad91-a4460974a5fa","ios":"levelo://app?vid=1b5c5733-f95a-4a7f-ad91-a4460974a5fa"},"vehicle_type_id":"4","last_reported":1753549720,"current_range_meters":16400,"station_id":"ce4bhn12rcd13ifvqgqg","pricing_plan_id":"cebpf4jnsgd1na2vs0mg"},{"bike_id":"1f277121-b38e-4f86-92a5-2255dd649491","system_id":"levelo_inurba_marseille","lat":43.2783,"lon":5.39192,"is_reserved":false,"is_disabled":false,"rental_uris":{"android":"levelo://app?vid=1f277121-b38e-4f86-92a5-2255dd649491","ios":"levelo://app?vid=1f277121-b38e-4f86-92a5-2255dd649491"},"vehicle_type_id":"4","last_reported":1753549720,"current_range_meters":16000,"station_id":"ce4bhjp2rcd13ifvqga0","pricing_plan_id":"cebpf4jnsgd1na2vs0mg"},{"bike_id":"02cab979-ccb2-40ce-bd89-cd624415fc04","system_id":"levelo_inurba_marseille","lat":43.27782,"lon":5.39945,"is_reserved":false,"is_disabled":false,"rental_uris":{"android":"levelo://app?vid=02cab979-ccb2-40ce-bd89-cd624415fc04","ios":"levelo://app?vid=02cab979-ccb2-40ce-bd89-cd624415fc04"},"vehicle_type_id":"4","last_reported":1753549720,"current_range_meters":16400,"station_id":"","pricing_plan_id":"cebpf4jnsgd1na2vs0mg"},{"bike_id":"4a870c4b-d199-4252-a18c-25aeb8e584ac","system_id":"levelo_inurba_marseille","lat":43.29779,"lon":5.37104,"is_reserved":false,"is_disabled":false,"rental_uris":{"android":"levelo://app?vid=4a870c4b-d199-4252-a18c-25aeb8e584ac","ios":"levelo://app?vid=4a870c4b-d199-4252-a18c-25aeb8e584ac"},"vehicle_type_id":"4","last_reported":1753549720,"current_range_meters":16400,"station_id":"ce4bgop2rcd13ifvqc1g","pricing_plan_id":"cebpf4jnsgd1na2vs0mg"},{"bike_id":"fa09a2af-7e58-468a-9cff-92ca5bfa99da","system_id":"levelo_inurba_marseille","lat":43.3043,"lon":5.38894,"is_reserved":false,"is_disabled":false,"rental_uris":{"android":"levelo://app?vid=fa09a2af-7e58-468a-9cff-92ca5bfa99da","ios":"levelo://app?vid=fa09a2af-7e58-468a-9cff-92ca5bfa99da"},"vehicle_type_id":"4","last_reported":1753549720,"current_range_meters":16400,"station_id":"ce4bgk12rcd13ifvqbi0","pricing_plan_id":"cebpf4jnsgd1na2vs0mg"},{"bike_id":"c65e67e0-d9d9-42a7-974b-813fc67a4b48","system_id":"levelo_inurba_marseille","lat":43.306197,"lon":5.372233,"is_reserved":false,"is_disabled":false,"rental_uris":{"android":"levelo://app?vid=c65e67e0-d9d9-42a7-974b-813fc67a4b48","ios":"levelo://app?vid=c65e67e0-d9d9-42a7-974b-813fc67a4b48"},"vehicle_type_id":"4","last_reported":1753549720,"current_range_meters":16000,"station_id":"ce4bgqh2rcd13ifvqc4g","pricing_plan_id":"cebpf4jnsgd1na2vs0mg"},{"bike_id":"534a45b0-4435-4d6c-9316-096a700acd09","system_id":"levelo_inurba_marseille","lat":43.29523,"lon":5.39036,"is_reserved":false,"is_disabled":false,"rental_uris":{"android":"levelo://app?vid=534a45b0-4435-4d6c-9316-096a700acd09","ios":"levelo://app?vid=534a45b0-4435-4d6c-9316-096a700acd09"},"vehicle_type_id":"4","last_reported":1753549720,"current_range_meters":16000,"station_id":"ce4bh3p2rcd13ifvqdp0","pricing_plan_id":"cebpf4jnsgd1na2vs0mg"},{"bike_id":"8cfd2d72-39ce-4385-9a85-a869229e6c66","system_id":"levelo_inurba_marseille","lat":43.27072,"lon":5.42277,"is_reserved":false,"is_disabled":false,"rental_uris":{"android":"levelo://app?vid=8cfd2d72-39ce-4385-9a85-a869229e6c66","ios":"levelo://app?vid=8cfd2d72-39ce-4385-9a85-a869229e6c66"},"vehicle_type_id":"4","last_reported":1753549720,"current_range_meters":16800,"station_id":"ce4bhk92rcd13ifvqgb0","pricing_plan_id":"cebpf4jnsgd1na2vs0mg"},{"bike_id":"54405b04-0f04-4c64-af8f-9ccbb34ae9ba","system_id":"levelo_inurba_marseille","lat":43.28028,"lon":5.36955,"is_reserved":false,"is_disabled":false,"rental_uris":{"android":"levelo://app?vid=54405b04-0f04-4c64-af8f-9ccbb34ae9ba","ios":"levelo://app?vid=54405b04-0f04-4c64-af8f-9ccbb34ae9ba"},"vehicle_type_id":"4","last_reported":1753549720,"current_range_meters":16800,"station_id":"ce4bha12rcd13ifvqef0","pricing_plan_id":"cebpf4jnsgd1na2vs0mg"},{"bike_id":"7cfeff2f-ed6e-4fc9-bb13-d0033ccdaffa","system_id":"levelo_inurba_marseille","lat":43.30304,"lon":5.369,"is_reserved":false,"is_disabled":false,"rental_uris":{"android":"levelo://app?vid=7cfeff2f-ed6e-4fc9-bb13-d0033ccdaffa","ios":"levelo://app?vid=7cfeff2f-ed6e-4fc9-bb13-d0033ccdaffa"},"vehicle_type_id":"4","last_reported":1753549720,"current_range_meters":16800,"station_id":"ce4bgqh2rcd13ifvqc5g","pricing_plan_id":"cebpf4jnsgd1na2vs0mg"},{"bike_id":"4fc563e5-5af3-4e66-b309-4f545577a0a4","system_id":"levelo_inurba_marseille","lat":43.217445,"lon":5.346039,"is_reserved":false,"is_disabled":false,"rental_uris":{"android":"levelo://app?vid=4fc563e5-5af3-4e66-b309-4f545577a0a4","ios":"levelo://app?vid=4fc563e5-5af3-4e66-b309-4f545577a0a4"},"vehicle_type_id":"4","last_reported":1753549720,"current_range_meters":16800,"station_id":"","pricing_plan_id":"cebpf4jnsgd1na2vs0mg"},{"bike_id":"e5b2d887-6d7b-45ef-88ca-0de6f394b4b4","system_id":"levelo_inurba_marseille","lat":43.29031,"lon":5.38631,"is_reserved":false,"is_disabled":false,"rental_uris":{"android":"levelo://app?vid=e5b2d887-6d7b-45ef-88ca-0de6f394b4b4","ios":"levelo://app?vid=e5b2d887-6d7b-45ef-88ca-0de6f394b4b4"},"vehicle_type_id":"4","last_reported":1753549720,"current_range_meters":16400,"station_id":"ce4bh4p2rcd13ifvqe0g","pricing_plan_id":"cebpf4jnsgd1na2vs0mg"},{"bike_id":"20f06688-3d31-4116-b5be-8ceb0fe37650","system_id":"levelo_inurba_marseille","lat":43.29791,"lon":5.39342,"is_reserved":false,"is_disabled":false,"rental_uris":{"android":"levelo://app?vid=20f06688-3d31-4116-b5be-8ceb0fe37650","ios":"levelo://app?vid=20f06688-3d31-4116-b5be-8ceb0fe37650"},"vehicle_type_id":"4","last_reported":1753549720,"current_range_meters":16800,"station_id":"chh1huq6cuj3fo74tm60","pricing_plan_id":"cebpf4jnsgd1na2vs0mg"},{"bike_id":"6b699af8-cbb2-47b0-86fe-4999583adad2","system_id":"levelo_inurba_marseille","lat":43.317585,"lon":5.390145,"is_reserved":false,"is_disabled":false,"rental_uris":{"android":"levelo://app?vid=6b699af8-cbb2-47b0-86fe-4999583adad2","ios":"levelo://app?vid=6b699af8-cbb2-47b0-86fe-4999583adad2"},"vehicle_type_id":"4","last_reported":1753549720,"current_range_meters":16800,"station_id":"ce4bhqp2rcd13ifvqhng","pricing_plan_id":"cebpf4jnsgd1na2vs0mg"},{"bike_id":"03d4250b-69f9-4399-a884-7539b2b7ba8d","system_id":"levelo_inurba_marseille","lat":43.28645,"lon":5.35106,"is_reserved":false,"is_disabled":false,"rental_uris":{"android":"levelo://app?vid=03d4250b-69f9-4399-a884-7539b2b7ba8d","ios":"levelo://app?vid=03d4250b-69f9-4399-a884-7539b2b7ba8d"},"vehicle_type_id":"4","last_reported":1753549720,"current_range_meters":16800,"station_id":"ce4bhch2rcd13ifvqeug","pricing_plan_id":"cebpf4jnsgd1na2vs0mg"},{"bike_id":"a4d6f206-203a-4f88-9da1-2d95bb45cec3","system_id":"levelo_inurba_marseille","lat":43.29575,"lon":5.37525,"is_reserved":false,"is_disabled":false,"rental_uris":{"android":"levelo://app?vid=a4d6f206-203a-4f88-9da1-2d95bb45cec3","ios":"levelo://app?vid=a4d6f206-203a-4f88-9da1-2d95bb45cec3"},"vehicle_type_id":"4","last_reported":1753549720,"current_range_meters":17200,"station_id":"ce4bgh92rcd13ifvqb50","pricing_plan_id":"cebpf4jnsgd1na2vs0mg"},{"bike_id":"66f9a367-2a8c-4ace-8223-7b06c43f444f","system_id":"levelo_inurba_marseille","lat":43.282702,"lon":5.35065,"is_reserved":false,"is_disabled":false,"rental_uris":{"android":"levelo://app?vid=66f9a367-2a8c-4ace-8223-7b06c43f444f","ios":"levelo://app?vid=66f9a367-2a8c-4ace-8223-7b06c43f444f"},"vehicle_type_id":"4","last_reported":1753549720,"current_range_meters":17200,"station_id":"ce4bhbp2rcd13ifvqerg","pricing_plan_id":"cebpf4jnsgd1na2vs0mg"},{"bike_id":"d8ede7a6-2370-4585-9b4e-834634539090","system_id":"levelo_inurba_marseille","lat":43.22515,"lon":5.34769,"is_reserved":false,"is_disabled":false,"rental_uris":{"android":"levelo://app?vid=d8ede7a6-2370-4585-9b4e-834634539090","ios":"levelo://app?vid=d8ede7a6-2370-4585-9b4e-834634539090"},"vehicle_type_id":"4","last_reported":1753549720,"current_range_meters":17200,"station_id":"st_cvj5dfep6f1abm77gieg","pricing_plan_id":"cebpf4jnsgd1na2vs0mg"},{"bike_id":"0265148e-0cba-447d-9b0d-c35833376968","system_id":"levelo_inurba_marseille","lat":43.24649,"lon":5.38893,"is_reserved":false,"is_disabled":false,"rental_uris":{"android":"levelo://app?vid=0265148e-0cba-447d-9b0d-c35833376968","ios":"levelo://app?vid=0265148e-0cba-447d-9b0d-c35833376968"},"vehicle_type_id":"4","last_reported":1753549720,"current_range_meters":16800,"station_id":"ce4bhg12rcd13ifvqf60","pricing_plan_id":"cebpf4jnsgd1na2vs0mg"},{"bike_id":"37562319-1ab7-4052-84cd-19474c696578","system_id":"levelo_inurba_marseille","lat":43.27614,"lon":5.36079,"is_reserved":false,"is_disabled":false,"rental_uris":{"android":"levelo://app?vid=37562319-1ab7-4052-84cd-19474c696578","ios":"levelo://app?vid=37562319-1ab7-4052-84cd-19474c696578"},"vehicle_type_id":"4","last_reported":1753549720,"current_range_meters":17200,"station_id":"ce4bgj92rcd13ifvqbe0","pricing_plan_id":"cebpf4jnsgd1na2vs0mg"},{"bike_id":"e666153e-0d94-49fc-a285-a6a2347ef6ad","system_id":"levelo_inurba_marseille","lat":43.26944,"lon":5.38636,"is_reserved":false,"is_disabled":true,"rental_uris":{"android":"levelo://app?vid=e666153e-0d94-49fc-a285-a6a2347ef6ad","ios":"levelo://app?vid=e666153e-0d94-49fc-a285-a6a2347ef6ad"},"vehicle_type_id":"4","last_reported":1753549720,"current_range_meters":17200,"station_id":"ce4bhh92rcd13ifvqfh0","pricing_plan_id":"cebpf4jnsgd1na2vs0mg"},{"bike_id":"731cc809-28c8-4135-95bd-0b73e4f009d9","system_id":"levelo_inurba_marseille","lat":43.30542,"lon":5.3671,"is_reserved":false,"is_disabled":false,"rental_uris":{"android":"levelo://app?vid=731cc809-28c8-4135-95bd-0b73e4f009d9","ios":"levelo://app?vid=731cc809-28c8-4135-95bd-0b73e4f009d9"},"vehicle_type_id":"4","last_reported":1753549720,"current_range_meters":17200,"station_id":"ce4bgrp2rcd13ifvqc9g","pricing_plan_id":"cebpf4jnsgd1na2vs0mg"},{"bike_id":"fc1f2ac6-861a-44d5-a4aa-1e2835a8cffa","system_id":"levelo_inurba_marseille","lat":43.29776,"lon":5.37115,"is_reserved":false,"is_disabled":false,"rental_uris":{"android":"levelo://app?vid=fc1f2ac6-861a-44d5-a4aa-1e2835a8cffa","ios":"levelo://app?vid=fc1f2ac6-861a-44d5-a4aa-1e2835a8cffa"},"vehicle_type_id":"4","last_reported":1753549720,"current_range_meters":16800,"station_id":"ce4bgop2rcd13ifvqc1g","pricing_plan_id":"cebpf4jnsgd1na2vs0mg"},{"bike_id":"adbc006e-c51d-4434-863c-610344ea30cd","system_id":"levelo_inurba_marseille","lat":43.21805,"lon":5.34615,"is_reserved":false,"is_disabled":true,"rental_uris":{"android":"levelo://app?vid=adbc006e-c51d-4434-863c-610344ea30cd","ios":"levelo://app?vid=adbc006e-c51d-4434-863c-610344ea30cd"},"vehicle_type_id":"4","last_reported":1753549720,"current_range_meters":17200,"station_id":"","pricing_plan_id":"cebpf4jnsgd1na2vs0mg"},{"bike_id":"65916bc9-d4e4-401a-a3b4-4a4b1ed9f35d","system_id":"levelo_inurba_marseille","lat":43.26035,"lon":5.37546,"is_reserved":false,"is_disabled":false,"rental_uris":{"android":"levelo://app?vid=65916bc9-d4e4-401a-a3b4-4a4b1ed9f35d","ios":"levelo://app?vid=65916bc9-d4e4-401a-a3b4-4a4b1ed9f35d"},"vehicle_type_id":"4","last_reported":1753549720,"current_range_meters":16800,"station_id":"ce4bhgh2rcd13ifvqfa0","pricing_plan_id":"cebpf4jnsgd1na2vs0mg"},{"bike_id":"3227cfed-17a1-4b09-ab6a-9482d5a1e941","system_id":"levelo_inurba_marseille","lat":43.26546,"lon":5.37304,"is_reserved":false,"is_disabled":false,"rental_uris":{"android":"levelo://app?vid=3227cfed-17a1-4b09-ab6a-9482d5a1e941","ios":"levelo://app?vid=3227cfed-17a1-4b09-ab6a-9482d5a1e941"},"vehicle_type_id":"4","last_reported":1753549720,"current_range_meters":17200,"station_id":"ce4bhg12rcd13ifvqf70","pricing_plan_id":"cebpf4jnsgd1na2vs0mg"},{"bike_id":"095a24d7-39e4-498e-ad70-54ab8826a0bb","system_id":"levelo_inurba_marseille","lat":43.3065,"lon":5.401,"is_reserved":false,"is_disabled":false,"rental_uris":{"android":"levelo://app?vid=095a24d7-39e4-498e-ad70-54ab8826a0bb","ios":"levelo://app?vid=095a24d7-39e4-498e-ad70-54ab8826a0bb"},"vehicle_type_id":"4","last_reported":1753549720,"current_range_meters":17600,"station_id":"ce4bh112rcd13ifvqda0","pricing_plan_id":"cebpf4jnsgd1na2vs0mg"},{"bike_id":"3a115ff6-03ac-45ae-a5e1-cadafc7f0168","system_id":"levelo_inurba_marseille","lat":43.30303,"lon":5.39211,"is_reserved":false,"is_disabled":false,"rental_uris":{"android":"levelo://app?vid=3a115ff6-03ac-45ae-a5e1-cadafc7f0168","ios":"levelo://app?vid=3a115ff6-03ac-45ae-a5e1-cadafc7f0168"},"vehicle_type_id":"4","last_reported":1753549720,"current_range_meters":17600,"station_id":"ce4bgkh2rcd13ifvqbk0","pricing_plan_id":"cebpf4jnsgd1na2vs0mg"},{"bike_id":"b6a034ff-dd0b-42c1-88ec-d5b1ecc4da79","system_id":"levelo_inurba_marseille","lat":43.31498,"lon":5.37307,"is_reserved":false,"is_disabled":false,"rental_uris":{"android":"levelo://app?vid=b6a034ff-dd0b-42c1-88ec-d5b1ecc4da79","ios":"levelo://app?vid=b6a034ff-dd0b-42c1-88ec-d5b1ecc4da79"},"vehicle_type_id":"4","last_reported":1753549720,"current_range_meters":17200,"station_id":"ce4bgt12rcd13ifvqcd0","pricing_plan_id":"cebpf4jnsgd1na2vs0mg"},{"bike_id":"b84b714e-3e1c-4965-8fe1-7590f3738bbb","system_id":"levelo_inurba_marseille","lat":43.245458,"lon":5.395196,"is_reserved":false,"is_disabled":false,"rental_uris":{"android":"levelo://app?vid=b84b714e-3e1c-4965-8fe1-7590f3738bbb","ios":"levelo://app?vid=b84b714e-3e1c-4965-8fe1-7590f3738bbb"},"vehicle_type_id":"4","last_reported":1753549720,"current_range_meters":18000,"station_id":"ce4bhlp2rcd13ifvqgjg","pricing_plan_id":"cebpf4jnsgd1na2vs0mg"},{"bike_id":"01f2634f-d4b7-4f4d-8c66-f36499fcfa55","system_id":"levelo_inurba_marseille","lat":43.315327,"lon":5.38025,"is_reserved":false,"is_disabled":false,"rental_uris":{"android":"levelo://app?vid=01f2634f-d4b7-4f4d-8c66-f36499fcfa55","ios":"levelo://app?vid=01f2634f-d4b7-4f4d-8c66-f36499fcfa55"},"vehicle_type_id":"4","last_reported":1753549720,"current_range_meters":17600,"station_id":"ce4bhsp2rcd13ifvqi50","pricing_plan_id":"cebpf4jnsgd1na2vs0mg"},{"bike_id":"badf96b6-4f5d-479d-974e-ec46c12f1da6","system_id":"levelo_inurba_marseille","lat":43.29446,"lon":5.3975,"is_reserved":false,"is_disabled":false,"rental_uris":{"android":"levelo://app?vid=badf96b6-4f5d-479d-974e-ec46c12f1da6","ios":"levelo://app?vid=badf96b6-4f5d-479d-974e-ec46c12f1da6"},"vehicle_type_id":"4","last_reported":1753549720,"current_range_meters":17200,"station_id":"ce4bh3h2rcd13ifvqdo0","pricing_plan_id":"cebpf4jnsgd1na2vs0mg"},{"bike_id":"03fe8270-f150-4d40-af9e-7c4587e3d11a","system_id":"levelo_inurba_marseille","lat":43.26225,"lon":5.40444,"is_reserved":false,"is_disabled":false,"rental_uris":{"android":"levelo://app?vid=03fe8270-f150-4d40-af9e-7c4587e3d11a","ios":"levelo://app?vid=03fe8270-f150-4d40-af9e-7c4587e3d11a"},"vehicle_type_id":"4","last_reported":1753549720,"current_range_meters":17600,"station_id":"ce4bhmh2rcd13ifvqgmg","pricing_plan_id":"cebpf4jnsgd1na2vs0mg"},{"bike_id":"dc8eddc9-b807-4be2-ac1c-594f36a73ea8","system_id":"levelo_inurba_marseille","lat":43.261692,"lon":5.374427,"is_reserved":false,"is_disabled":false,"rental_uris":{"android":"levelo://app?vid=dc8eddc9-b807-4be2-ac1c-594f36a73ea8","ios":"levelo://app?vid=dc8eddc9-b807-4be2-ac1c-594f36a73ea8"},"vehicle_type_id":"4","last_reported":1753549720,"current_range_meters":17600,"station_id":"ce4bhgp2rcd13ifvqfc0","pricing_plan_id":"cebpf4jnsgd1na2vs0mg"},{"bike_id":"8e0c04ce-c2d4-4864-a082-fd062e0f8ad3","system_id":"levelo_inurba_marseille","lat":43.29517,"lon":5.39028,"is_reserved":false,"is_disabled":false,"rental_uris":{"android":"levelo://app?vid=8e0c04ce-c2d4-4864-a082-fd062e0f8ad3","ios":"levelo://app?vid=8e0c04ce-c2d4-4864-a082-fd062e0f8ad3"},"vehicle_type_id":"4","last_reported":1753549720,"current_range_meters":17600,"station_id":"ce4bh3p2rcd13ifvqdp0","pricing_plan_id":"cebpf4jnsgd1na2vs0mg"},{"bike_id":"fe996b7d-d12e-4545-82a9-786326553955","system_id":"levelo_inurba_marseille","lat":43.29258,"lon":5.38436,"is_reserved":false,"is_disabled":false,"rental_uris":{"android":"levelo://app?vid=fe996b7d-d12e-4545-82a9-786326553955","ios":"levelo://app?vid=fe996b7d-d12e-4545-82a9-786326553955"},"vehicle_type_id":"4","last_reported":1753549720,"current_range_meters":17600,"station_id":"ce4bh692rcd13ifvqea0","pricing_plan_id":"cebpf4jnsgd1na2vs0mg"},{"bike_id":"484ce80f-12be-41fa-9586-784b84db2ffe","system_id":"levelo_inurba_marseille","lat":43.24824,"lon":5.37455,"is_reserved":false,"is_disabled":false,"rental_uris":{"android":"levelo://app?vid=484ce80f-12be-41fa-9586-784b84db2ffe","ios":"levelo://app?vid=484ce80f-12be-41fa-9586-784b84db2ffe"},"vehicle_type_id":"4","last_reported":1753549720,"current_range_meters":18000,"station_id":"ce4bhgh2rcd13ifvqfb0","pricing_plan_id":"cebpf4jnsgd1na2vs0mg"},{"bike_id":"7382b5b7-f639-40ab-bd0f-56c2c038d818","system_id":"levelo_inurba_marseille","lat":43.29525,"lon":5.38546,"is_reserved":false,"is_disabled":false,"rental_uris":{"android":"levelo://app?vid=7382b5b7-f639-40ab-bd0f-56c2c038d818","ios":"levelo://app?vid=7382b5b7-f639-40ab-bd0f-56c2c038d818"},"vehicle_type_id":"4","last_reported":1753549720,"current_range_meters":18000,"station_id":"ce4bgih2rcd13ifvqba0","pricing_plan_id":"cebpf4jnsgd1na2vs0mg"},{"bike_id":"0d48500a-3d93-44c9-b593-8748380ed35f","system_id":"levelo_inurba_marseille","lat":43.301869,"lon":5.366217,"is_reserved":false,"is_disabled":false,"rental_uris":{"android":"levelo://app?vid=0d48500a-3d93-44c9-b593-8748380ed35f","ios":"levelo://app?vid=0d48500a-3d93-44c9-b593-8748380ed35f"},"vehicle_type_id":"4","last_reported":1753549720,"current_range_meters":16800,"station_id":"ce4bgrh2rcd13ifvqc8g","pricing_plan_id":"cebpf4jnsgd1na2vs0mg"},{"bike_id":"0b6e37e1-db39-4d64-9941-7e484c9ea038","system_id":"levelo_inurba_marseille","lat":43.29614,"lon":5.37716,"is_reserved":false,"is_disabled":true,"rental_uris":{"android":"levelo://app?vid=0b6e37e1-db39-4d64-9941-7e484c9ea038","ios":"levelo://app?vid=0b6e37e1-db39-4d64-9941-7e484c9ea038"},"vehicle_type_id":"4","last_reported":1753549720,"current_range_meters":18000,"station_id":"","pricing_plan_id":"cebpf4jnsgd1na2vs0mg"},