{"last_updated":1738138344,"ttl":60,"version":"2.2","data":{"bikes":[{"bike_id":"f80f68fe-d05c-47e9-8931-ac3ef28d2b2e","system_id":"levelo_inurba_marseille","lat":43.30193,"lon":5.36629,"is_reserved":false,"is_disabled":false,"rental_uris":{"android":"levelo://app?vid=f80f68fe-d05c-47e9-8931-ac3ef28d2b2e","ios":"levelo://app?vid=f80f68fe-d05c-47e9-8931-ac3ef28d2b2e"},"vehicle_type_id":"4","last_reported":1738138344,"current_range_meters":26000,"station_id":"ce4bgrh2rcd13ifvqc8g","pricing_plan_id":"cebpf4jnsgd1na2vs0mg"},{"bike_id":"14d839c4-e25b-4111-8d49-b5ab5f45d36c","system_id":"levelo_inurba_marseille","lat":43.24075,"lon":5.37751,"is_reserved":false,"is_disabled":false,"rental_uris":{"android":"levelo://app?vid=14d839c4-e25b-4111-8d49-b5ab5f45d36c","ios":"levelo://app?vid=14d839c4-e25b-4111-8d49-b5ab5f45d36c"},"vehicle_type_id":"4","last_reported":1738138344,"current_range_meters":23200,"station_id":"ce4bhnp2rcd13ifvqgvg","pricing_plan_id":"cebpf4jnsgd1na2vs0mg"},{"bike_id":"3cb0fac2-5ab3-4435-9fe9-af517f0263ee","system_id":"levelo_inurba_marseille","lat":43.28937,"lon":5.39652,"is_reserved":false,"is_disabled":true,"rental_uris":{"android":"levelo://app?vid=3cb0fac2-5ab3-4435-9fe9-af517f0263ee","ios":"levelo://app?vid=3cb0fac2-5ab3-4435-9fe9-af517f0263ee"},"vehicle_type_id":"4","last_reported":1738138344,"current_range_meters":35600,"station_id":"ce4bh3h2rcd13ifvqdn0","pricing_plan_id":"cebpf4jnsgd1na2vs0mg"},{"bike_id":"77a227d4-24f8-4b28-a9f7-850a3a5a6295","system_id":"levelo_inurba_marseille","lat":43.25006,"lon":5.38949,"is_reserved":false,"is_disabled":false,"rental_uris":{"android":"levelo://app?vid=77a227d4-24f8-4b28-a9f7-850a3a5a6295","ios":"levelo://app?vid=77a227d4-24f8-4b28-a9f7-850a3a5a6295"},"vehicle_type_id":"4","last_reported":1738138344,"current_range_meters":32800,"station_id":"ce4bhgp2rcd13ifvqfd0","pricing_plan_id":"cebpf4jnsgd1na2vs0mg"},{"bike_id":"e95ca0ab-7e54-4161-8301-71138155f3b2","system_id":"levelo_inurba_marseille","lat":43.29755,"lon":5.37738,"is_reserved":false,"is_disabled":true,"rental_uris":{"android":"levelo://app?vid=e95ca0ab-7e54-4161-8301-71138155f3b2","ios":"levelo://app?vid=e95ca0ab-7e54-4161-8301-71138155f3b2"},"vehicle_type_id":"4","last_reported":1738138344,"current_range_meters":26000,"station_id":"","pricing_plan_id":"cebpf4jnsgd1na2vs0mg"},{"bike_id":"fe3ebb9b-08b6-493c-9a93-713d6a609bdf","system_id":"levelo_inurba_marseille","lat":43.29225,"lon":5.36074,"is_reserved":false,"is_disabled":true,"rental_uris":{"android":"levelo://app?vid=fe3ebb9b-08b6-493c-9a93-713d6a609bdf","ios":"levelo://app?vid=fe3ebb9b-08b6-493c-9a93-713d6a609bdf"},"vehicle_type_id":"4","last_reported":1738138344,"current_range_meters":0,"station_id":"ce4bhbh2rcd13ifvqeqg","pricing_plan_id":"cebpf4jnsgd1na2vs0mg"},{"bike_id":"56f49f8b-4bf2-4d84-97ce-54c8a66ab5f7","system_id":"levelo_inurba_marseille","lat":43.29986,"lon":5.37188,"is_reserved":false,"is_disabled":false,"rental_uris":{"android":"levelo://app?vid=56f49f8b-4bf2-4d84-97ce-54c8a66ab5f7","ios":"levelo://app?vid=56f49f8b-4bf2-4d84-97ce-54c8a66ab5f7"},"vehicle_type_id":"4","last_reported":1738138344,"current_range_meters":8000,"station_id":"ce4bgr92rcd13ifvqc7g","pricing_plan_id":"cebpf4jnsgd1na2vs0mg"},{"bike_id":"e6310977-c603-4a2a-94c1-0bef12b48698","system_id":"levelo_inurba_marseille","lat":43.24077,"lon":5.37758,"is_reserved":false,"is_disabled":false,"rental_uris":{"android":"levelo://app?vid=e6310977-c603-4a2a-94c1-0bef12b48698","ios":"levelo://app?vid=e6310977-c603-4a2a-94c1-0bef12b48698"},"vehicle_type_id":"4","last_reported":1738138344,"current_range_meters":38800,"station_id":"ce4bhnp2rcd13ifvqgvg","pricing_plan_id":"cebpf4jnsgd1na2vs0mg"},{"bike_id":"f7f8117f-03ef-415e-85c6-2eeaf165e4f2","system_id":"levelo_inurba_marseille","lat":43.2623,"lon":5.4042,"is_reserved":false,"is_disabled":true,"rental_uris":{"android":"levelo://app?vid=f7f8117f-03ef-415e-85c6-2eeaf165e4f2","ios":"levelo://app?vid=f7f8117f-03ef-415e-85c6-2eeaf165e4f2"},"vehicle_type_id":"4","last_reported":1738138344,"current_range_meters":29600,"station_id":"ce4bhmh2rcd13ifvqgmg","pricing_plan_id":"cebpf4jnsgd1na2vs0mg"},{"bike_id":"45226d1a-6602-4547-9f5f-cb36e591a81b","system_id":"levelo_inurba_marseille","lat":43.26057,"lon":5.39411,"is_reserved":false,"is_disabled":false,"rental_uris":{"android":"levelo://app?vid=45226d1a-6602-4547-9f5f-cb36e591a81b","ios":"levelo://app?vid=45226d1a-6602-4547-9f5f-cb36e591a81b"},"vehicle_type_id":"4","last_reported":1738138344,"current_range_meters":37600,"station_id":"ce4bhh92rcd13ifvqfj0","pricing_plan_id":"cebpf4jnsgd1na2vs0mg"},{"bike_id":"60b94ec1-a2e5-42fc-ad7c-d66b2ada9c44","system_id":"levelo_inurba_marseille","lat":43.23963,"lon":5.36631,"is_reserved":false,"is_disabled":false,"rental_uris":{"android":"levelo://app?vid=60b94ec1-a2e5-42fc-ad7c-d66b2ada9c44","ios":"levelo://app?vid=60b94ec1-a2e5-42fc-ad7c-d66b2ada9c44"},"vehicle_type_id":"4","last_reported":1738138344,"current_range_meters":5600,"station_id":"ce4bhi12rcd13ifvqfp0","pricing_plan_id":"cebpf4jnsgd1na2vs0mg"},{"bike_id":"1c691f34-b581-43fa-9960-cfc896fbdb5c","system_id":"levelo_inurba_marseille","lat":43.30523,"lon":5.36557,"is_reserved":false,"is_disabled":false,"rental_uris":{"android":"levelo://app?vid=1c691f34-b581-43fa-9960-cfc896fbdb5c","ios":"levelo://app?vid=1c691f34-b581-43fa-9960-cfc896fbdb5c"},"vehicle_type_id":"4","last_reported":1738138344,"current_range_meters":38800,"station_id":"ce4bgs12rcd13ifvqcag","pricing_plan_id":"cebpf4jnsgd1na2vs0mg"},{"bike_id":"d77faba5-2b0c-430f-ad22-bcf40b90e74c","system_id":"levelo_inurba_marseille","lat":43.27796,"lon":5.40743,"is_reserved":false,"is_disabled":true,"rental_uris":{"android":"levelo://app?vid=d77faba5-2b0c-430f-ad22-bcf40b90e74c","ios":"levelo://app?vid=d77faba5-2b0c-430f-ad22-bcf40b90e74c"},"vehicle_type_id":"4","last_reported":1738138344,"current_range_meters":36400,"station_id":"ce4bhnh2rcd13ifvqgtg","pricing_plan_id":"cebpf4jnsgd1na2vs0mg"},{"bike_id":"d64fe0b3-0658-4486-802d-44aa5d4a3168","system_id":"levelo_inurba_marseille","lat":43.25,"lon":5.38928,"is_reserved":false,"is_disabled":false,"rental_uris":{"android":"levelo://app?vid=d64fe0b3-0658-4486-802d-44aa5d4a3168","ios":"levelo://app?vid=d64fe0b3-0658-4486-802d-44aa5d4a3168"},"vehicle_type_id":"4","last_reported":1738138344,"current_range_meters":36800,"station_id":"ce4bhgp2rcd13ifvqfd0","pricing_plan_id":"cebpf4jnsgd1na2vs0mg"},{"bike_id":"98ce2a2c-b2f9-48e6-bc89-f2d93e715c22","system_id":"levelo_inurba_marseille","lat":43.30542,"lon":5.36701,"is_reserved":false,"is_disabled":false,"rental_uris":{"android":"levelo://app?vid=98ce2a2c-b2f9-48e6-bc89-f2d93e715c22","ios":"levelo://app?vid=98ce2a2c-b2f9-48e6-bc89-f2d93e715c22"},"vehicle_type_id":"4","last_reported":1738138344,"current_range_meters":38800,"station_id":"ce4bgrp2rcd13ifvqc9g","pricing_plan_id":"cebpf4jnsgd1na2vs0mg"},{"bike_id":"f93041b9-b8e0-42d2-8838-ad70483b616d","system_id":"levelo_inurba_marseille","lat":43.267866,"lon":5.394119,"is_reserved":false,"is_disabled":true,"rental_uris":{"android":"levelo://app?vid=f93041b9-b8e0-42d2-8838-ad70483b616d","ios":"levelo://app?vid=f93041b9-b8e0-42d2-8838-ad70483b616d"},"vehicle_type_id":"4","last_reported":1738138344,"current_range_meters":17600,"station_id":"ce4bhh12rcd13ifvqfg0","pricing_plan_id":"cebpf4jnsgd1na2vs0mg"},{"bike_id":"6ed8d447-778e-482c-ab97-9b178deadb93","system_id":"levelo_inurba_marseille","lat":43.29566,"lon":5.37539,"is_reserved":false,"is_disabled":false,"rental_uris":{"android":"levelo://app?vid=6ed8d447-778e-482c-ab97-9b178deadb93","ios":"levelo://app?vid=6ed8d447-778e-482c-ab97-9b178deadb93"},"vehicle_type_id":"4","last_reported":1738138344,"current_range_meters":38400,"station_id":"ce4bgh92rcd13ifvqb50","pricing_plan_id":"cebpf4jnsgd1na2vs0mg"},{"bike_id":"89cdc235-09fd-4457-b2c9-240cdad9a50b","system_id":"levelo_inurba_marseille","lat":43.30152,"lon":5.38089,"is_reserved":false,"is_disabled":false,"rental_uris":{"android":"levelo://app?vid=89cdc235-09fd-4457-b2c9-240cdad9a50b","ios":"levelo://app?vid=89cdc235-09fd-4457-b2c9-240cdad9a50b"},"vehicle_type_id":"4","last_reported":1738138344,"current_range_meters":38800,"station_id":"ce4bgjp2rcd13ifvqbh0","pricing_plan_id":"cebpf4jnsgd1na2vs0mg"},{"bike_id":"58e72295-f362-4387-8a27-14a7c991b4f9","system_id":"levelo_inurba_marseille","lat":43.27374,"lon":5.36259,"is_reserved":false,"is_disabled":false,"rental_uris":{"android":"levelo://app?vid=58e72295-f362-4387-8a27-14a7c991b4f9","ios":"levelo://app?vid=58e72295-f362-4387-8a27-14a7c991b4f9"},"vehicle_type_id":"4","last_reported":1738138344,"current_range_meters":32000,"station_id":"ce4bhbh2rcd13ifvqeo0","pricing_plan_id":"cebpf4jnsgd1na2vs0mg"},{"bike_id":"0177f73c-0fae-4831-8180-c81dbaee88c0","system_id":"levelo_inurba_marseille","lat":43.28337,"lon":5.38124,"is_reserved":false,"is_disabled":false,"rental_uris":{"android":"levelo://app?vid=0177f73c-0fae-4831-8180-c81dbaee88c0","ios":"levelo://app?vid=0177f73c-0fae-4831-8180-c81dbaee88c0"},"vehicle_type_id":"4","last_reported":1738138344,"current_range_meters":19600,"station_id":"ce4bguh2rcd13ifvqckg","pricing_plan_id":"cebpf4jnsgd1na2vs0mg"},{"bike_id":"96c6d005-88bb-4fd6-98f4-0a014c553eb8","system_id":"levelo_inurba_marseille","lat":43.33021,"lon":5.39047,"is_reserved":false,"is_disabled":false,"rental_uris":{"android":"levelo://app?vid=96c6d005-88bb-4fd6-98f4-0a014c553eb8","ios":"levelo://app?vid=96c6d005-88bb-4fd6-98f4-0a014c553eb8"},"vehicle_type_id":"4","last_reported":1738138344,"current_range_meters":38800,"station_id":"ce4bhr92rcd13ifvqhrg","pricing_plan_id":"cebpf4jnsgd1na2vs0mg"},{"bike_id":"431fcadf-3903-4ee1-a30c-4f91781eb5a1","system_id":"levelo_inurba_marseille","lat":43.32539,"lon":5.41428,"is_reserved":false,"is_disabled":false,"rental_uris":{"android":"levelo://app?vid=431fcadf-3903-4ee1-a30c-4f91781eb5a1","ios":"levelo://app?vid=431fcadf-3903-4ee1-a30c-4f91781eb5a1"},"vehicle_type_id":"4","last_reported":1738138344,"current_range_meters":28400,"station_id":"ce4bhq12rcd13ifvqhhg","pricing_plan_id":"cebpf4jnsgd1na2vs0mg"},{"bike_id":"b40c35fe-c470-42e7-a7a1-f4c3e646ecc8","system_id":"levelo_inurba_marseille","lat":43.31077,"lon":5.42433,"is_reserved":false,"is_disabled":false,"rental_uris":{"android":"levelo://app?vid=b40c35fe-c470-42e7-a7a1-f4c3e646ecc8","ios":"levelo://app?vid=b40c35fe-c470-42e7-a7a1-f4c3e646ecc8"},"vehicle_type_id":"4","last_reported":1738138344,"current_range_meters":4800,"station_id":"ce4bhp92rcd13ifvqhag","pricing_plan_id":"cebpf4jnsgd1na2vs0mg"},{"bike_id":"4fee5b2c-113a-4e93-8885-ff5a6a124d4d","system_id":"levelo_inurba_marseille","lat":43.27499,"lon":5.42451,"is_reserved":false,"is_disabled":false,"rental_uris":{"android":"levelo://app?vid=4fee5b2c-113a-4e93-8885-ff5a6a124d4d","ios":"levelo://app?vid=4fee5b2c-113a-4e93-8885-ff5a6a124d4d"},"vehicle_type_id":"4","last_reported":1738138344,"current_range_meters":9200,"station_id":"ce4bhn92rcd13ifvqgrg","pricing_plan_id":"cebpf4jnsgd1na2vs0mg"},{"bike_id":"e05d3339-457c-46fa-9827-97d4d0e79dfd","system_id":"levelo_inurba_marseille","lat":43.25864,"lon":5.39902,"is_reserved":false,"is_disabled":false,"rental_uris":{"android":"levelo://app?vid=e05d3339-457c-46fa-9827-97d4d0e79dfd","ios":"levelo://app?vid=e05d3339-457c-46fa-9827-97d4d0e79dfd"},"vehicle_type_id":"4","last_reported":1738138344,"current_range_meters":35600,"station_id":"ce4bhl92rcd13ifvqghg","pricing_plan_id":"cebpf4jnsgd1na2vs0mg"},{"bike_id":"68c61547-82e3-4820-a64c-61733a3707ff","system_id":"levelo_inurba_marseille","lat":43.27494,"lon":5.42458,"is_reserved":false,"is_disabled":false,"rental_uris":{"android":"levelo://app?vid=68c61547-82e3-4820-a64c-61733a3707ff","ios":"levelo://app?vid=68c61547-82e3-4820-a64c-61733a3707ff"},"vehicle_type_id":"4","last_reported":1738138344,"current_range_meters":25600,"station_id":"ce4bhn92rcd13ifvqgrg","pricing_plan_id":"cebpf4jnsgd1na2vs0mg"},{"bike_id":"7dd6c993-b878-4097-bf21-43aba62e680a","system_id":"levelo_inurba_marseille","lat":43.30908,"lon":5.36852,"is_reserved":false,"is_disabled":false,"rental_uris":{"android":"levelo://app?vid=7dd6c993-b878-4097-bf21-43aba62e680a","ios":"levelo://app?vid=7dd6c993-b878-4097-bf21-43aba62e680a"},"vehicle_type_id":"4","last_reported":1738138344,"current_range_meters":24400,"station_id":"ce4bgn92rcd13ifvqbvg","pricing_plan_id":"cebpf4jnsgd1na2vs0mg"},{"bike_id":"7b755feb-61ac-402f-b96a-d28fa888de91","system_id":"levelo_inurba_marseille","lat":43.30168,"lon":5.36613,"is_reserved":false,"is_disabled":false,"rental_uris":{"android":"levelo://app?vid=7b755feb-61ac-402f-b96a-d28fa888de91","ios":"levelo://app?vid=7b755feb-61ac-402f-b96a-d28fa888de91"},"vehicle_type_id":"4","last_reported":1738138344,"current_range_meters":29600,"station_id":"ce4bgrh2rcd13ifvqc8g","pricing_plan_id":"cebpf4jnsgd1na2vs0mg"},{"bike_id":"0a35e13e-7ac4-41c5-852f-a143f236e88c","system_id":"levelo_inurba_marseille","lat":43.30942,"lon":5.39034,"is_reserved":false,"is_disabled":false,"rental_uris":{"android":"levelo://app?vid=0a35e13e-7ac4-41c5-852f-a143f236e88c","ios":"levelo://app?vid=0a35e13e-7ac4-41c5-852f-a143f236e88c"},"vehicle_type_id":"4","last_reported":1738138344,"current_range_meters":20400,"station_id":"ce4bgup2rcd13ifvqco0","pricing_plan_id":"cebpf4jnsgd1na2vs0mg"},{"bike_id":"daa005da-a0f6-4195-8721-8c373d249352","system_id":"levelo_inurba_marseille","lat":43.26951,"lon":5.38638,"is_reserved":false,"is_disabled":false,"rental_uris":{"android":"levelo://app?vid=daa005da-a0f6-4195-8721-8c373d249352","ios":"levelo://app?vid=daa005da-a0f6-4195-8721-8c373d249352"},"vehicle_type_id":"4","last_reported":1738138344,"current_range_meters":22400,"station_id":"ce4bhh92rcd13ifvqfh0","pricing_plan_id":"cebpf4jnsgd1na2vs0mg"},{"bike_id":"ff76dca8-f551-47fa-b9e9-6464a1a4a294","system_id":"levelo_inurba_marseille","lat":43.24067,"lon":5.37753,"is_reserved":false,"is_disabled":false,"rental_uris":{"android":"levelo://app?vid=ff76dca8-f551-47fa-b9e9-6464a1a4a294","ios":"levelo://app?vid=ff76dca8-f551-47fa-b9e9-6464a1a4a294"},"vehicle_type_id":"4","last_reported":1738138344,"current_range_meters":39200,"station_id":"ce4bhnp2rcd13ifvqgvg","pricing_plan_id":"cebpf4jnsgd1na2vs0mg"},{"bike_id":"095aa9d8-83f6-4d86-9429-0e74ec430905","system_id":"levelo_inurba_marseille","lat":43.30469,"lon":5.37908,"is_reserved":false,"is_disabled":true,"rental_uris":{"android":"levelo://app?vid=095aa9d8-83f6-4d86-9429-0e74ec430905","ios":"levelo://app?vid=095aa9d8-83f6-4d86-9429-0e74ec430905"},"vehicle_type_id":"4","last_reported":1738138344,"current_range_meters":1200,"station_id":"ce4bgup2rcd13ifvqcn0","pricing_plan_id":"cebpf4jnsgd1na2vs0mg"},{"bike_id":"500a2ada-0930-4684-8535-655aa1d2e704","system_id":"levelo_inurba_marseille","lat":43.30495,"lon":5.37871,"is_reserved":false,"is_disabled":true,"rental_uris":{"android":"levelo://app?vid=500a2ada-0930-4684-8535-655aa1d2e704","ios":"levelo://app?vid=500a2ada-0930-4684-8535-655aa1d2e704"},"vehicle_type_id":"4","last_reported":1738138344,"current_range_meters":2800,"station_id":"ce4bgup2rcd13ifvqcn0","pricing_plan_id":"cebpf4jnsgd1na2vs0mg"},{"bike_id":"4869fb0f-4146-402c-84ed-833e60286dc8","system_id":"levelo_inurba_marseille","lat":43.30923,"lon":5.37196,"is_reserved":false,"is_disabled":false,"rental_uris":{"android":"levelo://app?vid=4869fb0f-4146-402c-84ed-833e60286dc8","ios":"levelo://app?vid=4869fb0f-4146-402c-84ed-833e60286dc8"},"vehicle_type_id":"4","last_reported":1738138344,"current_range_meters":38800,"station_id":"ce4bguh2rcd13ifvqckg","pricing_plan_id":"cebpf4jnsgd1na2vs0mg"},{"bike_id":"069b705e-258c-450c-88dc-0d2ac3a8269c","system_id":"levelo_inurba_marseille","lat":43.3137,"lon":5.38497,"is_reserved":false,"is_disabled":false,"rental_uris":{"android":"levelo://app?vid=069b705e-258c-450c-88dc-0d2ac3a8269c","ios":"levelo://app?vid=069b705e-258c-450c-88dc-0d2ac3a8269c"},"vehicle_type_id":"4","last_reported":1738138344,"current_range_meters":37600,"station_id":"ce4bgt92rcd13ifvqcf0","pricing_plan_id":"cebpf4jnsgd1na2vs0mg"},{"bike_id":"5d4915e0-4a9f-4c36-821a-8bde58abc3cd","system_id":"levelo_inurba_marseille","lat":43.25113,"lon":5.40341,"is_reserved":false,"is_disabled":true,"rental_uris":{"android":"levelo://app?vid=5d4915e0-4a9f-4c36-821a-8bde58abc3cd","ios":"levelo://app?vid=5d4915e0-4a9f-4c36-821a-8bde58abc3cd"},"vehicle_type_id":"4","last_reported":1738138344,"current_range_meters":10800,"station_id":"ce4bhlh2rcd13ifvqgig","pricing_plan_id":"cebpf4jnsgd1na2vs0mg"},{"bike_id":"b6ffbcad-9371-46a8-899d-8ed92473acd5","system_id":"levelo_inurba_marseille","lat":43.32467,"lon":5.36569,"is_reserved":false,"is_disabled":false,"rental_uris":{"android":"levelo://app?vid=b6ffbcad-9371-46a8-899d-8ed92473acd5","ios":"levelo://app?vid=b6ffbcad-9371-46a8-899d-8ed92473acd5"},"vehicle_type_id":"4","last_reported":1738138344,"current_range_meters":23200,"station_id":"ce4bhs12rcd13ifvqhvg","pricing_plan_id":"cebpf4jnsgd1na2vs0mg"},{"bike_id":"75f78423-7bb1-46bc-9291-8f61438106b2","system_id":"levelo_inurba_marseille","lat":43.33021,"lon":5.39058,"is_reserved":false,"is_disabled":false,"rental_uris":{"android":"levelo://app?vid=75f78423-7bb1-46bc-9291-8f61438106b2","ios":"levelo://app?vid=75f78423-7bb1-46bc-9291-8f61438106b2"},"vehicle_type_id":"4","last_reported":1738138344,"current_range_meters":27200,"station_id":"ce4bhr92rcd13ifvqhrg","pricing_plan_id":"cebpf4jnsgd1na2vs0mg"},{"bike_id":"148d85a2-d701-448b-9576-351bed3ebe96","system_id":"levelo_inurba_marseille","lat":43.25932,"lon":5.40913,"is_reserved":false,"is_disabled":false,"rental_uris":{"android":"levelo://app?vid=148d85a2-d701-448b-9576-351bed3ebe96","ios":"levelo://app?vid=148d85a2-d701-448b-9576-351bed3ebe96"},"vehicle_type_id":"4","last_reported":1738138344,"current_range_meters":30800,"station_id":"ce4bhm92rcd13ifvqglg","pricing_plan_id":"cebpf4jnsgd1na2vs0mg"},{"bike_id":"896cd925-72cf-4706-97b0-d25c4ad56ffa","system_id":"levelo_inurba_marseille","lat":43.30894,"lon":5.36865,"is_reserved":false,"is_disabled":false,"rental_uris":{"android":"levelo://app?vid=896cd925-72cf-4706-97b0-d25c4ad56ffa","ios":"levelo://app?vid=896cd925-72cf-4706-97b0-d25c4ad56ffa"},"vehicle_type_id":"4","last_reported":1738138344,"current_range_meters":38000,"station_id":"ce4bgn92rcd13ifvqbvg","pricing_plan_id":"cebpf4jnsgd1na2vs0mg"},{"bike_id":"8906b01c-c546-42d8-8a71-d3e4c23c32f6","system_id":"levelo_inurba_marseille","lat":43.24396,"lon":5.3706,"is_reserved":false,"is_disabled":false,"rental_uris":{"android":"levelo://app?vid=8906b01c-c546-42d8-8a71-d3e4c23c32f6","ios":"levelo://app?vid=8906b01c-c546-42d8-8a71-d3e4c23c32f6"},"vehicle_type_id":"4","last_reported":1738138344,"current_range_meters":38800,"station_id":"ce4bhhh2rcd13ifvqfk0","pricing_plan_id":"cebpf4jnsgd1na2vs0mg"},{"bike_id":"6f75b636-4ef3-49a9-b026-a2f0df77941a","system_id":"levelo_inurba_marseille","lat":43.28937,"lon":5.36643,"is_reserved":false,"is_disabled":false,"rental_uris":{"android":"levelo://app?vid=6f75b636-4ef3-49a9-b026-a2f0df77941a","ios":"levelo://app?vid=6f75b636-4ef3-49a9-b026-a2f0df77941a"},"vehicle_type_id":"4","last_reported":1738138344,"current_range_meters":4000,"station_id":"ce4bhap2rcd13ifvqek0","pricing_plan_id":"cebpf4jnsgd1na2vs0mg"},{"bike_id":"d6af585f-c468-474f-9bf8-9417f47a5f4b","system_id":"levelo_inurba_marseille","lat":43.31355,"lon":5.36738,"is_reserved":false,"is_disabled":false,"rental_uris":{"android":"levelo://app?vid=d6af585f-c468-474f-9bf8-9417f47a5f4b","ios":"levelo://app?vid=d6af585f-c468-474f-9bf8-9417f47a5f4b"},"vehicle_type_id":"4","last_reported":1738138344,"current_range_meters":38800,"station_id":"ce4bgr92rcd13ifvqc6g","pricing_plan_id":"cebpf4jnsgd1na2vs0mg"},{"bike_id":"ce4ce052-86c8-446e-8eb4-59cc9a697e38","system_id":"levelo_inurba_marseille","lat":43.3082,"lon":5.37227,"is_reserved":false,"is_disabled":false,"rental_uris":{"android":"levelo://app?vid=ce4ce052-86c8-446e-8eb4-59cc9a697e38","ios":"levelo://app?vid=ce4ce052-86c8-446e-8eb4-59cc9a697e38"},"vehicle_type_id":"4","last_reported":1738138344,"current_range_meters":25200,"station_id":"ce4bgr92rcd13ifvqc6g","pricing_plan_id":"cebpf4jnsgd1na2vs0mg"},{"bike_id":"3c6336fe-eb72-435e-95d3-a1bde11ea3e3","system_id":"levelo_inurba_marseille","lat":43.30357,"lon":5.41886,"is_reserved":false,"is_disabled":true,"rental_uris":{"android":"levelo://app?vid=3c6336fe-eb72-435e-95d3-a1bde11ea3e3","ios":"levelo://app?vid=3c6336fe-eb72-435e-95d3-a1bde11ea3e3"},"vehicle_type_id":"4","last_reported":1738138344,"current_range_meters":0,"station_id":"ce4bhop2rcd13ifvqh7g","pricing_plan_id":"cebpf4jnsgd1na2vs0mg"},{"bike_id":"cdaf732f-9180-4276-893c-6a3e1c36505d","system_id":"levelo_inurba_marseille","lat":43.30531,"lon":5.36555,"is_reserved":false,"is_disabled":false,"rental_uris":{"android":"levelo://app?vid=cdaf732f-9180-4276-893c-6a3e1c36505d","ios":"levelo://app?vid=cdaf732f-9180-4276-893c-6a3e1c36505d"},"vehicle_type_id":"4","last_reported":1738138344,"current_range_meters":8000,"station_id":"ce4bgs12rcd13ifvqcag","pricing_plan_id":"cebpf4jnsgd1na2vs0mg"},{"bike_id":"efed7597-62fb-419f-8ed4-4975314f708d","system_id":"levelo_inurba_marseille","lat":43.31881,"lon":5.40731,"is_reserved":false,"is_disabled":false,"rental_uris":{"android":"levelo://app?vid=efed7597-62fb-419f-8ed4-4975314f708d","ios":"levelo://app?vid=efed7597-62fb-419f-8ed4-4975314f708d"},"vehicle_type_id":"4","last_reported":1738138344,"current_range_meters":37600,"station_id":"ce4bhq12rcd13ifvqhig","pricing_plan_id":"cebpf4jnsgd1na2vs0mg"},{"bike_id":"1d3d6cfb-1973-4ef0-b19e-3b4fa3b6b11c","system_id":"levelo_inurba_marseille","lat":43.23953,"lon":5.36646,"is_reserved":false,"is_disabled":false,"rental_uris":{"android":"levelo://app?vid=1d3d6cfb-1973-4ef0-b19e-3b4fa3b6b11c","ios":"levelo://app?vid=1d3d6cfb-1973-4ef0-b19e-3b4fa3b6b11c"},"vehicle_type_id":"4","last_reported":1738138344,"current_range_meters":8000,"station_id":"ce4bhi12rcd13ifvqfp0","pricing_plan_id":"cebpf4jnsgd1na2vs0mg"},{"bike_id":"40836fb3-a7ee-4489-b30e-f5ee0723fe8c","system_id":"levelo_inurba_marseille","lat":43.24675,"lon":5.38165,"is_reserved":false,"is_disabled":false,"rental_uris":{"android":"levelo://app?vid=40836fb3-a7ee-4489-b30e-f5ee0723fe8c","ios":"levelo://app?vid=40836fb3-a7ee-4489-b30e-f5ee0723fe8c"},"vehicle_type_id":"4","last_reported":1738138344,"current_range_meters":38800,"station_id":"ce4bhih2rcd13ifvqfr0","pricing_plan_id":"cebpf4jnsgd1na2vs0mg"},{"bike_id":"d443175e-c838-4f0e-90a6-eae26a0b1d17","system_id":"levelo_inurba_marseille","lat":43.26952,"lon":5.40241,"is_reserved":false,"is_disabled":false,"rental_uris":{"android":"levelo://app?vid=d443175e-c838-4f0e-90a6-eae26a0b1d17","ios":"levelo://app?vid=d443175e-c838-4f0e-90a6-eae26a0b1d17"},"vehicle_type_id":"4","last_reported":1738138344,"current_range_meters":28000,"station_id":"cjm6bp8fraef2m0cb0m0","pricing_plan_id":"cebpf4jnsgd1na2vs0mg"},{"bike_id":"ab7769da-f316-47cb-89d6-5a54360f22ca","system_id":"levelo_inurba_marseille","lat":43.26918,"lon":5.40255,"is_reserved":false,"is_disabled":false,"rental_uris":{"android":"levelo://app?vid=ab7769da-f316-47cb-89d6-5a54360f22ca","ios":"levelo://app?vid=ab7769da-f316-47cb-89d6-5a54360f22ca"},"vehicle_type_id":"4","last_reported":1738138344,"current_range_meters":38800,"station_id":"cjm6bp8fraef2m0cb0m0","pricing_plan_id":"cebpf4jnsgd1na2vs0mg"},{"bike_id":"17ce0d9c-21b4-475e-bc10-60f978ae3a74","system_id":"levelo_inurba_marseille","lat":43.27495,"lon":5.42451,"is_reserved":false,"is_disabled":false,"rental_uris":{"android":"levelo://app?vid=17ce0d9c-21b4-475e-bc10-60f978ae3a74","ios":"levelo://app?vid=17ce0d9c-21b4-475e-bc10-60f978ae3a74"},"vehicle_type_id":"4","last_reported":1738138344,"current_range_meters":36400,"station_id":"ce4bhn92rcd13ifvqgrg","pricing_plan_id":"cebpf4jnsgd1na2vs0mg"},{"bike_id":"a62517b9-0ca8-4176-a2e4-866d218f2cd9","system_id":"levelo_inurba_marseille","lat":43.27692,"lon":5.38872,"is_reserved":false,"is_disabled":false,"rental_uris":{"android":"levelo://app?vid=a62517b9-0ca8-4176-a2e4-866d218f2cd9","ios":"levelo://app?vid=a62517b9-0ca8-4176-a2e4-866d218f2cd9"},"vehicle_type_id":"4","last_reported":1738138344,"current_range_meters":38800,"station_id":"ce4bhi12rcd13ifvqfo0","pricing_plan_id":"cebpf4jnsgd1na2vs0mg"},{"bike_id":"1eefd942-bd95-4bf5-b4eb-85da0a4793c1","system_id":"levelo_inurba_marseille","lat":43.25114,"lon":5.40322,"is_reserved":false,"is_disabled":false,"rental_uris":{"android":"levelo://app?vid=1eefd942-bd95-4bf5-b4eb-85da0a4793c1","ios":"levelo://app?vid=1eefd942-bd95-4bf5-b4eb-85da0a4793c1"},"vehicle_type_id":"4","last_reported":1738138344,"current_range_meters":32400,"station_id":"ce4bhlh2rcd13ifvqgig","pricing_plan_id":"cebpf4jnsgd1na2vs0mg"},{"bike_id":"c8a3a0ed-dff2-4f3c-87dc-2e6b47b1ad28","system_id":"levelo_inurba_marseille","lat":43.337444,"lon":5.374475,"is_reserved":false,"is_disabled":true,"rental_uris":{"android":"levelo://app?vid=c8a3a0ed-dff2-4f3c-87dc-2e6b47b1ad28","ios":"levelo://app?vid=c8a3a0ed-dff2-4f3c-87dc-2e6b47b1ad28"},"vehicle_type_id":"4","last_reported":1738138344,"current_range_meters":1600,"station_id":"","pricing_plan_id":"cebpf4jnsgd1na2vs0mg"},{"bike_id":"135f1e6c-3bb9-4e32-85fb-5ab99b61e396","system_id":"levelo_inurba_marseille","lat":43.2872,"lon":5.3791,"is_reserved":false,"is_disabled":false,"rental_uris":{"android":"levelo://app?vid=135f1e6c-3bb9-4e32-85fb-5ab99b61e396","ios":"levelo://app?vid=135f1e6c-3bb9-4e32-85fb-5ab99b61e396"},"vehicle_type_id":"4","last_reported":1738138344,"current_range_meters":30800,"station_id":"ce4bh9p2rcd13ifvqec0","pricing_plan_id":"cebpf4jnsgd1na2vs0mg"},{"bike_id":"061a807c-1db8-46c7-beec-da6308b151ea","system_id":"levelo_inurba_marseille","lat":43.29587,"lon":5.38135,"is_reserved":false,"is_disabled":true,"rental_uris":{"android":"levelo://app?vid=061a807c-1db8-46c7-beec-da6308b151ea","ios":"levelo://app?vid=061a807c-1db8-46c7-beec-da6308b151ea"},"vehicle_type_id":"4","last_reported":1738138344,"current_range_meters":28800,"station_id":"ce4bgl12rcd13ifvqbo0","pricing_plan_id":"cebpf4jnsgd1na2vs0mg"},{"bike_id":"d323c514-0964-4830-ab1c-7976c00b8559","system_id":"levelo_inurba_marseille","lat":43.23141,"lon":5.43736,"is_reserved":false,"is_disabled":false,"rental_uris":{"android":"levelo://app?vid=d323c514-0964-4830-ab1c-7976c00b8559","ios":"levelo://app?vid=d323c514-0964-4830-ab1c-7976c00b8559"},"vehicle_type_id":"4","last_reported":1738138344,"current_range_meters":38800,"station_id":"ce4bhmp2rcd13ifvqgog","pricing_plan_id":"cebpf4jnsgd1na2vs0mg"},{"bike_id":"98b7a8bf-da30-49dc-839d-48f228787b96","system_id":"levelo_inurba_marseille","lat":43.31767,"lon":5.3898,"is_reserved":false,"is_disabled":false,"rental_uris":{"android":"levelo://app?vid=98b7a8bf-da30-49dc-839d-48f228787b96","ios":"levelo://app?vid=98b7a8bf-da30-49dc-839d-48f228787b96"},"vehicle_type_id":"4","last_reported":1738138344,"current_range_meters":38800,"station_id":"ce4bhqp2rcd13ifvqhng","pricing_plan_id":"cebpf4jnsgd1na2vs0mg"},{"bike_id":"9229d3fd-5bd4-479d-ac22-d264f195dcb3","system_id":"levelo_inurba_marseille","lat":43.33015,"lon":5.39052,"is_reserved":false,"is_disabled":false,"rental_uris":{"android":"levelo://app?vid=9229d3fd-5bd4-479d-ac22-d264f195dcb3","ios":"levelo://app?vid=9229d3fd-5bd4-479d-ac22-d264f195dcb3"},"vehicle_type_id":"4","last_reported":1738138344,"current_range_meters":18000,"station_id":"ce4bhr92rcd13ifvqhrg","pricing_plan_id":"cebpf4jnsgd1na2vs0mg"},{"bike_id":"2012e09c-d355-44a1-99d2-4db92832e458","system_id":"levelo_inurba_marseille","lat":43.2356,"lon":5.399,"is_reserved":false,"is_disabled":false,"rental_uris":{"android":"levelo://app?vid=2012e09c-d355-44a1-99d2-4db92832e458","ios":"levelo://app?vid=2012e09c-d355-44a1-99d2-4db92832e458"},"vehicle_type_id":"4","last_reported":1738138344,"current_range_meters":32000,"station_id":"","pricing_plan_id":"cebpf4jnsgd1na2vs0mg"},{"bike_id":"e055110e-8e50-4402-9b32-8745c1542d21","system_id":"levelo_inurba_marseille","lat":43.239605,"lon":5.366303,"is_reserved":false,"is_disabled":false,"rental_uris":{"android":"levelo://app?vid=e055110e-8e50-4402-9b32-8745c1542d21","ios":"levelo://app?vid=e055110e-8e50-4402-9b32-8745c1542d21"},"vehicle_type_id":"4","last_reported":1738138344,"current_range_meters":38000,"station_id":"ce4bhi12rcd13ifvqfp0","pricing_plan_id":"cebpf4jnsgd1na2vs0mg"},{"bike_id":"4af47e37-e152-4ab1-a20e-15b113150682","system_id":"levelo_inurba_marseille","lat":43.30525,"lon":5.36696,"is_reserved":false,"is_disabled":false,"rental_uris":{"android":"levelo://app?vid=4af47e37-e152-4ab1-a20e-15b113150682","ios":"levelo://app?vid=4af47e37-e152-4ab1-a20e-15b113150682"},"vehicle_type_id":"4","last_reported":1738138344,"current_range_meters":39200,"station_id":"ce4bgrp2rcd13ifvqc9g","pricing_plan_id":"cebpf4jnsgd1na2vs0mg"},{"bike_id":"b012261d-aa2a-436a-809a-076dd4b53452","system_id":"levelo_inurba_marseille","lat":43.30431,"lon":5.38889,"is_reserved":false,"is_disabled":false,"rental_uris":{"android":"levelo://app?vid=b012261d-aa2a-436a-809a-076dd4b53452","ios":"levelo://app?vid=b012261d-aa2a-436a-809a-076dd4b53452"},"vehicle_type_id":"4","last_reported":1738138344,"current_range_meters":30400,"station_id":"ce4bgk12rcd13ifvqbi0","pricing_plan_id":"cebpf4jnsgd1na2vs0mg"},{"bike_id":"b55d6d5e-174b-4a91-aae1-fb6de283d1df","system_id":"levelo_inurba_marseille","lat":43.32533,"lon":5.41443,"is_reserved":false,"is_disabled":false,"rental_uris":{"android":"levelo://app?vid=b55d6d5e-174b-4a91-aae1-fb6de283d1df","ios":"levelo://app?vid=b55d6d5e-174b-4a91-aae1-fb6de283d1df"},"vehicle_type_id":"4","last_reported":1738138344,"current_range_meters":38800,"station_id":"ce4bhq12rcd13ifvqhhg","pricing_plan_id":"cebpf4jnsgd1na2vs0mg"},{"bike_id":"a99754b0-533c-4b68-ad89-42118685fbc7","system_id":"levelo_inurba_marseille","lat":43.27989,"lon":5.41661,"is_reserved":false,"is_disabled":true,"rental_uris":{"android":"levelo://app?vid=a99754b0-533c-4b68-ad89-42118685fbc7","ios":"levelo://app?vid=a99754b0-533c-4b68-ad89-42118685fbc7"},"vehicle_type_id":"4","last_reported":1738138344,"current_range_meters":0,"station_id":"ce4bho12rcd13ifvqh1g","pricing_plan_id":"cebpf4jnsgd1na2vs0mg"},{"bike_id":"602acd65-1296-4ca8-ad89-b72a3ad2bd0b","system_id":"levelo_inurba_marseille","lat":43.30147,"lon":5.3811,"is_reserved":false,"is_disabled":false,"rental_uris":{"android":"levelo://app?vid=602acd65-1296-4ca8-ad89-b72a3ad2bd0b","ios":"levelo://app?vid=602acd65-1296-4ca8-ad89-b72a3ad2bd0b"},"vehicle_type_id":"4","last_reported":1738138344,"current_range_meters":38000,"station_id":"ce4bgjp2rcd13ifvqbh0","pricing_plan_id":"cebpf4jnsgd1na2vs0mg"},{"bike_id":"5b3233ab-dded-42d1-a805-3278eb23fcd8","system_id":"levelo_inurba_marseille","lat":43.301923,"lon":5.366069,"is_reserved":false,"is_disabled":true,"rental_uris":{"android":"levelo://app?vid=5b3233ab-dded-42d1-a805-3278eb23fcd8","ios":"levelo://app?vid=5b3233ab-dded-42d1-a805-3278eb23fcd8"},"vehicle_type_id":"4","last_reported":1738138344,"current_range_meters":37600,"station_id":"ce4bgrh2rcd13ifvqc8g","pricing_plan_id":"cebpf4jnsgd1na2vs0mg"},{"bike_id":"a217eca2-76bf-464c-aef5-0f63397f1780","system_id":"levelo_inurba_marseille","lat":43.29894,"lon":5.43683,"is_reserved":false,"is_disabled":false,"rental_uris":{"android":"levelo://app?vid=a217eca2-76bf-464c-aef5-0f63397f1780","ios":"levelo://app?vid=a217eca2-76bf-464c-aef5-0f63397f1780"},"vehicle_type_id":"4","last_reported":1738138344,"current_range_meters":16400,"station_id":"ce4bhpp2rcd13ifvqhfg","pricing_plan_id":"cebpf4jnsgd1na2vs0mg"},{"bike_id":"6087eac1-5596-4bac-81f3-6e4270a420d5","system_id":"levelo_inurba_marseille","lat":43.29772,"lon":5.37284,"is_reserved":false,"is_disabled":false,"rental_uris":{"android":"levelo://app?vid=6087eac1-5596-4bac-81f3-6e4270a420d5","ios":"levelo://app?vid=6087eac1-5596-4bac-81f3-6e4270a420d5"},"vehicle_type_id":"4","last_reported":1738138344,"current_range_meters":6000,"station_id":"","pricing_plan_id":"cebpf4jnsgd1na2vs0mg"},{"bike_id":"e5ee2a50-9a1d-45e6-be63-f3303a4769ad","system_id":"levelo_inurba_marseille","lat":43.29041,"lon":5.39978,"is_reserved":false,"is_disabled":false,"rental_uris":{"android":"levelo://app?vid=e5ee2a50-9a1d-45e6-be63-f3303a4769ad","ios":"levelo://app?vid=e5ee2a50-9a1d-45e6-be63-f3303a4769ad"},"vehicle_type_id":"4","last_reported":1738138344,"current_range_meters":24000,"station_id":"ce4bh392rcd13ifvqdm0","pricing_plan_id":"cebpf4jnsgd1na2vs0mg"},{"bike_id":"9838cc78-2b53-49d3-ae13-82df62c4fd64","system_id":"levelo_inurba_marseille","lat":43.28412,"lon":5.40934,"is_reserved":false,"is_disabled":true,"rental_uris":{"android":"levelo://app?vid=9838cc78-2b53-49d3-ae13-82df62c4fd64","ios":"levelo://app?vid=9838cc78-2b53-49d3-ae13-82df62c4fd64"},"vehicle_type_id":"4","last_reported":1738138344,"current_range_meters":0,"station_id":"","pricing_plan_id":"cebpf4jnsgd1na2vs0mg"},{"bike_id":"11f70921-b04a-4cdd-83e2-24b869bfe246","system_id":"levelo_inurba_marseille","lat":43.28994,"lon":5.37832,"is_reserved":false,"is_disabled":true,"rental_uris":{"android":"levelo://app?vid=11f70921-b04a-4cdd-83e2-24b869bfe246","ios":"levelo://app?vid=11f70921-b04a-4cdd-83e2-24b869bfe246"},"vehicle_type_id":"4","last_reported":1738138344,"current_range_meters":38400,"station_id":"ce4bh9p2rcd13ifvqed0","pricing_plan_id":"cebpf4jnsgd1na2vs0mg"},{"bike_id":"cb0853d5-af18-438c-93b8-79424bcf3297","system_id":"levelo_inurba_marseille","lat":43.29597,"lon":5.38106,"is_reserved":false,"is_disabled":false,"rental_uris":{"android":"levelo://app?vid=cb0853d5-af18-438c-93b8-79424bcf3297","ios":"levelo://app?vid=cb0853d5-af18-438c-93b8-79424bcf3297"},"vehicle_type_id":"4","last_reported":1738138344,"current_range_meters":21600,"station_id":"ce4bgl12rcd13ifvqbo0","pricing_plan_id":"cebpf4jnsgd1na2vs0mg"},{"bike_id":"44d70056-f722-4d8f-80f9-afd89c389591","system_id":"levelo_inurba_marseille","lat":43.330196,"lon":5.390424,"is_reserved":false,"is_disabled":false,"rental_uris":{"android":"levelo://app?vid=44d70056-f722-4d8f-80f9-afd89c389591","ios":"levelo://app?vid=44d70056-f722-4d8f-80f9-afd89c389591"},"vehicle_type_id":"4","last_reported":1738138344,"current_range_meters":17600,"station_id":"ce4bhr92rcd13ifvqhrg","pricing_plan_id":"cebpf4jnsgd1na2vs0mg"},{"bike_id":"cb4b9878-96ef-4892-8d93-336dc7a1cc89","system_id":"levelo_inurba_marseille","lat":43.34037,"lon":5.35387,"is_reserved":false,"is_disabled":false,"rental_uris":{"android":"levelo://app?vid=cb4b9878-96ef-4892-8d93-336dc7a1cc89","ios":"levelo://app?vid=cb4b9878-96ef-4892-8d93-336dc7a1cc89"},"vehicle_type_id":"4","last_reported":1738138344,"current_range_meters":32800,"station_id":"","pricing_plan_id":"cebpf4jnsgd1na2vs0mg"},{"bike_id":"8ec13af6-5026-4ebc-b641-8436ed8dde5c","system_id":"levelo_inurba_marseille","lat":43.25931,"lon":5.40909,"is_reserved":false,"is_disabled":false,"rental_uris":{"android":"levelo://app?vid=8ec13af6-5026-4ebc-b641-8436ed8dde5c","ios":"levelo://app?vid=8ec13af6-5026-4ebc-b641-8436ed8dde5c"},"vehicle_type_id":"4","last_reported":1738138344,"current_range_meters":13600,"station_id":"ce4bhm92rcd13ifvqglg","pricing_plan_id":"cebpf4jnsgd1na2vs0mg"},{"bike_id":"cebc1cc3-2475-48cb-aa41-05d47858d44e","system_id":"levelo_inurba_marseille","lat":43.29899,"lon":5.4367,"is_reserved":false,"is_disabled":false,"rental_uris":{"android":"levelo://app?vid=cebc1cc3-2475-48cb-aa41-05d47858d44e","ios":"levelo://app?vid=cebc1cc3-2475-48cb-aa41-05d47858d44e"},"vehicle_type_id":"4","last_reported":1738138344,"current_range_meters":28000,"station_id":"ce4bhpp2rcd13ifvqhfg","pricing_plan_id":"cebpf4jnsgd1na2vs0mg"},{"bike_id":"e80cdd67-73a4-4d6f-9d11-3e3617a2c1c2","system_id":"levelo_inurba_marseille","lat":43.30467,"lon":5.37918,"is_reserved":false,"is_disabled":false,"rental_uris":{"android":"levelo://app?vid=e80cdd67-73a4-4d6f-9d11-3e3617a2c1c2","ios":"levelo://app?vid=e80cdd67-73a4-4d6f-9d11-3e3617a2c1c2"},"vehicle_type_id":"4","last_reported":1738138344,"current_range_meters":17600,"station_id":"ce4bgup2rcd13ifvqcn0","pricing_plan_id":"cebpf4jnsgd1na2vs0mg"},{"bike_id":"bdaf3da9-80df-4267-a211-aac531f0b841","system_id":"levelo_inurba_marseille","lat":43.31122,"lon":5.38002,"is_reserved":false,"is_disabled":false,"rental_uris":{"android":"levelo://app?vid=bdaf3da9-80df-4267-a211-aac531f0b841","ios":"levelo://app?vid=bdaf3da9-80df-4267-a211-aac531f0b841"},"vehicle_type_id":"4","last_reported":1738138344,"current_range_meters":15200,"station_id":"","pricing_plan_id":"cebpf4jnsgd1na2vs0mg"},{"bike_id":"65fc8918-3f93-4286-86d3-ce58349e64dd","system_id":"levelo_inurba_marseille","lat":43.2905,"lon":5.37574,"is_reserved":false,"is_disabled":false,"rental_uris":{"android":"levelo://app?vid=65fc8918-3f93-4286-86d3-ce58349e64dd","ios":"levelo://app?vid=65fc8918-3f93-4286-86d3-ce58349e64dd"},"vehicle_type_id":"4","last_reported":1738138344,"current_range_meters":35200,"station_id":"ce4bh692rcd13ifvqe90","pricing_plan_id":"cebpf4jnsgd1na2vs0mg"},{"bike_id":"5f4419c4-2604-4153-a71a-fae1b13a820c","system_id":"levelo_inurba_marseille","lat":43.27311,"lon":5.39079,"is_reserved":false,"is_disabled":true,"rental_uris":{"android":"levelo://app?vid=5f4419c4-2604-4153-a71a-fae1b13a820c","ios":"levelo://app?vid=5f4419c4-2604-4153-a71a-fae1b13a820c"},"vehicle_type_id":"4","last_reported":1738138344,"current_range_meters":800,"station_id":"ce4bhgp2rcd13ifvqfe0","pricing_plan_id":"cebpf4jnsgd1na2vs0mg"},{"bike_id":"069c78ba-4bab-4baa-86d7-31c88c7b249f","system_id":"levelo_inurba_marseille","lat":43.32539,"lon":5.41425,"is_reserved":false,"is_disabled":true,"rental_uris":{"android":"levelo://app?vid=069c78ba-4bab-4baa-86d7-31c88c7b249f","ios":"levelo://app?vid=069c78ba-4bab-4baa-86d7-31c88c7b249f"},"vehicle_type_id":"4","last_reported":1738138344,"current_range_meters":3200,"station_id":"ce4bhq12rcd13ifvqhhg","pricing_plan_id":"cebpf4jnsgd1na2vs0mg"},{"bike_id":"c4bb3c19-2316-4865-b77e-c894a8994f0e","system_id":"levelo_inurba_marseille","lat":43.27315,"lon":5.39075,"is_reserved":false,"is_disabled":false,"rental_uris":{"android":"levelo://app?vid=c4bb3c19-2316-4865-b77e-c894a8994f0e","ios":"levelo://app?vid=c4bb3c19-2316-4865-b77e-c894a8994f0e"},"vehicle_type_id":"4","last_reported":1738138344,"current_range_meters":27200,"station_id":"ce4bhgp2rcd13ifvqfe0","pricing_plan_id":"cebpf4jnsgd1na2vs0mg"},{"bike_id":"f27914d2-c6fd-46d1-af35-a519802c2452","system_id":"levelo_inurba_marseille","lat":43.2409,"lon":5.37751,"is_reserved":false,"is_disabled":false,"rental_uris":{"android":"levelo://app?vid=f27914d2-c6fd-46d1-af35-a519802c2452","ios":"levelo://app?vid=f27914d2-c6fd-46d1-af35-a519802c2452"},"vehicle_type_id":"4","last_reported":1738138344,"current_range_meters":36000,"station_id":"ce4bhnp2rcd13ifvqgvg","pricing_plan_id":"cebpf4jnsgd1na2vs0mg"},{"bike_id":"6077467c-7074-4f45-87db-adb3cf561683","system_id":"levelo_inurba_marseille","lat":43.29425,"lon":5.38605,"is_reserved":false,"is_disabled":true,"rental_uris":{"android":"levelo://app?vid=6077467c-7074-4f45-87db-adb3cf561683","ios":"levelo://app?vid=6077467c-7074-4f45-87db-adb3cf561683"},"vehicle_type_id":"4","last_reported":1738138344,"current_range_meters":19600,"station_id":"ce4bh2h2rcd13ifvqdh0","pricing_plan_id":"cebpf4jnsgd1na2vs0mg"},{"bike_id":"2e0a8b86-b457-48a0-8577-213b01080398","system_id":"levelo_inurba_marseille","lat":43.23201,"lon":5.35552,"is_reserved":false,"is_disabled":false,"rental_uris":{"android":"levelo://app?vid=2e0a8b86-b457-48a0-8577-213b01080398","ios":"levelo://app?vid=2e0a8b86-b457-48a0-8577-213b01080398"},"vehicle_type_id":"4","last_reported":1738138344,"current_range_meters":39200,"station_id":"ce4bhu92rcd13ifvqi70","pricing_plan_id":"cebpf4jnsgd1na2vs0mg"},{"bike_id":"76e822b8-0cb9-4b9d-afe9-f501d7c6369f","system_id":"levelo_inurba_marseille","lat":43.27305,"lon":5.39082,"is_reserved":false,"is_disabled":false,"rental_uris":{"android":"levelo://app?vid=76e822b8-0cb9-4b9d-afe9-f501d7c6369f","ios":"levelo://app?vid=76e822b8-0cb9-4b9d-afe9-f501d7c6369f"},"vehicle_type_id":"4","last_reported":1738138344,"current_range_meters":20400,"station_id":"ce4bhgp2rcd13ifvqfe0","pricing_plan_id":"cebpf4jnsgd1na2vs0mg"},{"bike_id":"d979d8d2-ec65-47af-9229-e4270aab279a","system_id":"levelo_inurba_marseille","lat":43.23057,"lon":5.35547,"is_reserved":false,"is_disabled":false,"rental_uris":{"android":"levelo://app?vid=d979d8d2-ec65-47af-9229-e4270aab279a","ios":"levelo://app?vid=d979d8d2-ec65-47af-9229-e4270aab279a"},"vehicle_type_id":"4","last_reported":1738138344,"current_range_meters":19600,"station_id":"cpo3342slgdg3j2ifvpg","pricing_plan_id":"cebpf4jnsgd1na2vs0mg"},{"bike_id":"beec82ff-6bac-4064-befa-4bdf4421761b","system_id":"levelo_inurba_marseille","lat":43.31753,"lon":5.42404,"is_reserved":false,"is_disabled":false,"rental_uris":{"android":"levelo://app?vid=beec82ff-6bac-4064-befa-4bdf4421761b","ios":"levelo://app?vid=beec82ff-6bac-4064-befa-4bdf4421761b"},"vehicle_type_id":"4","last_reported":1738138344,"current_range_meters":36400,"station_id":"ce4bhp92rcd13ifvqhbg","pricing_plan_id":"cebpf4jnsgd1na2vs0mg"},{"bike_id":"64be77f4-07a5-4d4b-b2d0-0608076ab689","system_id":"levelo_inurba_marseille","lat":43.30272,"lon":5.37714,"is_reserved":false,"is_disabled":false,"rental_uris":{"android":"levelo://app?vid=64be77f4-07a5-4d4b-b2d0-0608076ab689","ios":"levelo://app?vid=64be77f4-07a5-4d4b-b2d0-0608076ab689"},"vehicle_type_id":"4","last_reported":1738138344,"current_range_meters":14800,"station_id":"ce4bguh2rcd13ifvqcj0","pricing_plan_id":"cebpf4jnsgd1na2vs0mg"},{"bike_id":"4c96ce79-1992-454e-ad88-ecdeec5c3550","system_id":"levelo_inurba_marseille","lat":43.23147,"lon":5.43721,"is_reserved":false,"is_disabled":true,"rental_uris":{"android":"levelo://app?vid=4c96ce79-1992-454e-ad88-ecdeec5c3550","ios":"levelo://app?vid=4c96ce79-1992-454e-ad88-ecdeec5c3550"},"vehicle_type_id":"4","last_reported":1738138344,"current_range_meters":16000,"station_id":"ce4bhmp2rcd13ifvqgog","pricing_plan_id":"cebpf4jnsgd1na2vs0mg"},{"bike_id":"8400d4d1-f3a9-4908-b181-0eb6fc5d39c8","system_id":"levelo_inurba_marseille","lat":43.30547,"lon":5.36718,"is_reserved":false,"is_disabled":false,"rental_uris":{"android":"levelo://app?vid=8400d4d1-f3a9-4908-b181-0eb6fc5d39c8","ios":"levelo://app?vid=8400d4d1-f3a9-4908-b181-0eb6fc5d39c8"},"vehicle_type_id":"4","last_reported":1738138344,"current_range_meters":26800,"station_id":"ce4bgrp2rcd13ifvqc9g","pricing_plan_id":"cebpf4jnsgd1na2vs0mg"},{"bike_id":"c92f3ed1-1832-45b1-95ae-e066a3c304bb","system_id":"levelo_inurba_marseille","lat":43.32975,"lon":5.3905,"is_reserved":false,"is_disabled":false,"rental_uris":{"android":"levelo://app?vid=c92f3ed1-1832-45b1-95ae-e066a3c304bb","ios":"levelo://app?vid=c92f3ed1-1832-45b1-95ae-e066a3c304bb"},"vehicle_type_id":"4","last_reported":1738138344,"current_range_meters":36400,"station_id":"","pricing_plan_id":"cebpf4jnsgd1na2vs0mg"},{"bike_id":"1e86e161-8dbf-4321-92e1-b9beb9a2d46b","system_id":"levelo_inurba_marseille","lat":43.31347,"lon":5.36711,"is_reserved":false,"is_disabled":false,"rental_uris":{"android":"levelo://app?vid=1e86e161-8dbf-4321-92e1-b9beb9a2d46b","ios":"levelo://app?vid=1e86e161-8dbf-4321-92e1-b9beb9a2d46b"},"vehicle_type_id":"4","last_reported":1738138344,"current_range_meters":36000,"station_id":"ce4bgr92rcd13ifvqc6g","pricing_plan_id":"cebpf4jnsgd1na2vs0mg"},{"bike_id":"6513bd18-a432-48eb-803f-b48cc40a0bfc","system_id":"levelo_inurba_marseille","lat":43.29933,"lon":5.3852,"is_reserved":false,"is_disabled":false,"rental_uris":{"android":"levelo://app?vid=6513bd18-a432-48eb-803f-b48cc40a0bfc","ios":"levelo://app?vid=6513bd18-a432-48eb-803f-b48cc40a0bfc"},"vehicle_type_id":"4","last_reported":1738138344,"current_range_meters":12800,"station_id":"","pricing_plan_id":"cebpf4jnsgd1na2vs0mg"},{"bike_id":"bd0e1590-e6a0-4c43-a84c-3138437f9358","system_id":"levelo_inurba_marseille","lat":43.30278,"lon":5.37725,"is_reserved":false,"is_disabled":false,"rental_uris":{"android":"levelo://app?vid=bd0e1590-e6a0-4c43-a84c-3138437f9358","ios":"levelo://app?vid=bd0e1590-e6a0-4c43-a84c-3138437f9358"},"vehicle_type_id":"4","last_reported":1738138344,"current_range_meters":6800,"station_id":"ce4bguh2rcd13ifvqcj0","pricing_plan_id":"cebpf4jnsgd1na2vs0mg"},{"bike_id":"b16829f3-dc38-4a8c-9bf1-f26d827f5228","system_id":"levelo_inurba_marseille","lat":43.30305,"lon":5.37698,"is_reserved":false,"is_disabled":false,"rental_uris":{"android":"levelo://app?vid=b16829f3-dc38-4a8c-9bf1-f26d827f5228","ios":"levelo://app?vid=b16829f3-dc38-4a8c-9bf1-f26d827f5228"},"vehicle_type_id":"4","last_reported":1738138344,"current_range_meters":38400,"station_id":"ce4bguh2rcd13ifvqcj0","pricing_plan_id":"cebpf4jnsgd1na2vs0mg"},{"bike_id":"e9ab0186-b371-45da-b57d-d0c4f6b1b4c5","system_id":"levelo_inurba_marseille","lat":43.2904,"lon":5.39953,"is_reserved":false,"is_disabled":false,"rental_uris":{"android":"levelo://app?vid=e9ab0186-b371-45da-b57d-d0c4f6b1b4c5","ios":"levelo://app?vid=e9ab0186-b371-45da-b57d-d0c4f6b1b4c5"},"vehicle_type_id":"4","last_reported":1738138344,"current_range_meters":27200,"station_id":"ce4bh392rcd13ifvqdm0","pricing_plan_id":"cebpf4jnsgd1na2vs0mg"},{"bike_id":"d8b1c3f9-ff6e-4179-8423-4ba0d2a2af0e","system_id":"levelo_inurba_marseille","lat":43.33725,"lon":5.3919,"is_reserved":false,"is_disabled":false,"rental_uris":{"android":"levelo://app?vid=d8b1c3f9-ff6e-4179-8423-4ba0d2a2af0e","ios":"levelo://app?vid=d8b1c3f9-ff6e-4179-8423-4ba0d2a2af0e"},"vehicle_type_id":"4","last_reported":1738138344,"current_range_meters":38800,"station_id":"ce4bhr92rcd13ifvqhsg","pricing_plan_id":"cebpf4jnsgd1na2vs0mg"},{"bike_id":"ffa99bc8-be11-4af6-8115-5e881fa4d214","system_id":"levelo_inurba_marseille","lat":43.24666,"lon":5.38159,"is_reserved":false,"is_disabled":false,"rental_uris":{"android":"levelo://app?vid=ffa99bc8-be11-4af6-8115-5e881fa4d214","ios":"levelo://app?vid=ffa99bc8-be11-4af6-8115-5e881fa4d214"},"vehicle_type_id":"4","last_reported":1738138344,"current_range_meters":9200,"station_id":"ce4bhih2rcd13ifvqfr0","pricing_plan_id":"cebpf4jnsgd1na2vs0mg"},{"bike_id":"ddeeb021-3aa5-4692-ac65-d696b9db8d28","system_id":"levelo_inurba_marseille","lat":43.33024,"lon":5.39043,"is_reserved":false,"is_disabled":false,"rental_uris":{"android":"levelo://app?vid=ddeeb021-3aa5-4692-ac65-d696b9db8d28","ios":"levelo://app?vid=ddeeb021-3aa5-4692-ac65-d696b9db8d28"},"vehicle_type_id":"4","last_reported":1738138344,"current_range_meters":36800,"station_id":"ce4bhr92rcd13ifvqhrg","pricing_plan_id":"cebpf4jnsgd1na2vs0mg"},{"bike_id":"91394c05-5d2c-4802-8f5f-6f60929bbe7d","system_id":"levelo_inurba_marseille","lat":43.2679,"lon":5.39416,"is_reserved":false,"is_disabled":false,"rental_uris":{"android":"levelo://app?vid=91394c05-5d2c-4802-8f5f-6f60929bbe7d","ios":"levelo://app?vid=91394c05-5d2c-4802-8f5f-6f60929bbe7d"},"vehicle_type_id":"4","last_reported":1738138344,"current_range_meters":38000,"station_id":"ce4bhh12rcd13ifvqfg0","pricing_plan_id":"cebpf4jnsgd1na2vs0mg"},{"bike_id":"a30e66db-ca6e-4769-8c50-b29766a8c503","system_id":"levelo_inurba_marseille","lat":43.31343,"lon":5.3673,"is_reserved":false,"is_disabled":false,"rental_uris":{"android":"levelo://app?vid=a30e66db-ca6e-4769-8c50-b29766a8c503","ios":"levelo://app?vid=a30e66db-ca6e-4769-8c50-b29766a8c503"},"vehicle_type_id":"4","last_reported":1738138344,"current_range_meters":23200,"station_id":"ce4bgr92rcd13ifvqc6g","pricing_plan_id":"cebpf4jnsgd1na2vs0mg"},{"bike_id":"6a355744-e0d3-4802-b24f-d6a1eb88a1cc","system_id":"levelo_inurba_marseille","lat":43.27812,"lon":5.40714,"is_reserved":false,"is_disabled":false,"rental_uris":{"android":"levelo://app?vid=6a355744-e0d3-4802-b24f-d6a1eb88a1cc","ios":"levelo://app?vid=6a355744-e0d3-4802-b24f-d6a1eb88a1cc"},"vehicle_type_id":"4","last_reported":1738138344,"current_range_meters":38400,"station_id":"ce4bhnh2rcd13ifvqgtg","pricing_plan_id":"cebpf4jnsgd1na2vs0mg"},{"bike_id":"3c9c9088-9c27-4609-bc62-8218c0dc2be8","system_id":"levelo_inurba_marseille","lat":43.23191,"lon":5.35552,"is_reserved":false,"is_disabled":false,"rental_uris":{"android":"levelo://app?vid=3c9c9088-9c27-4609-bc62-8218c0dc2be8","ios":"levelo://app?vid=3c9c9088-9c27-4609-bc62-8218c0dc2be8"},"vehicle_type_id":"4","last_reported":1738138344,"current_range_meters":29600,"station_id":"ce4bhu92rcd13ifvqi70","pricing_plan_id":"cebpf4jnsgd1na2vs0mg"},{"bike_id":"166b3dc3-5359-4ed1-a7bc-bbad68abb6f8","system_id":"levelo_inurba_marseille","lat":43.30277,"lon":5.37713,"is_reserved":false,"is_disabled":false,"rental_uris":{"android":"levelo://app?vid=166b3dc3-5359-4ed1-a7bc-bbad68abb6f8","ios":"levelo://app?vid=166b3dc3-5359-4ed1-a7bc-bbad68abb6f8"},"vehicle_type_id":"4","last_reported":1738138344,"current_range_meters":24800,"station_id":"ce4bguh2rcd13ifvqcj0","pricing_plan_id":"cebpf4jnsgd1na2vs0mg"},{"bike_id":"4411ff6a-64c2-4799-a3f2-7b1c9e2faadd","system_id":"levelo_inurba_marseille","lat":43.27922,"lon":5.39578,"is_reserved":false,"is_disabled":true,"rental_uris":{"android":"levelo://app?vid=4411ff6a-64c2-4799-a3f2-7b1c9e2faadd","ios":"levelo://app?vid=4411ff6a-64c2-4799-a3f2-7b1c9e2faadd"},"vehicle_type_id":"4","last_reported":1738138344,"current_range_meters":2000,"station_id":"ce4bhf92rcd13ifvqf40","pricing_plan_id":"cebpf4jnsgd1na2vs0mg"},{"bike_id":"15af56a0-50cc-4287-938a-57061c15f0c6","system_id":"levelo_inurba_marseille","lat":43.33013,"lon":5.39051,"is_reserved":false,"is_disabled":false,"rental_uris":{"android":"levelo://app?vid=15af56a0-50cc-4287-938a-57061c15f0c6","ios":"levelo://app?vid=15af56a0-50cc-4287-938a-57061c15f0c6"},"vehicle_type_id":"4","last_reported":1738138344,"current_range_meters":32000,"station_id":"ce4bhr92rcd13ifvqhrg","pricing_plan_id":"cebpf4jnsgd1na2vs0mg"},{"bike_id":"ca9c9b90-ab08-4721-a324-2cac637ff6d9","system_id":"levelo_inurba_marseille","lat":43.3081,"lon":5.38125,"is_reserved":false,"is_disabled":false,"rental_uris":{"android":"levelo://app?vid=ca9c9b90-ab08-4721-a324-2cac637ff6d9","ios":"levelo://app?vid=ca9c9b90-ab08-4721-a324-2cac637ff6d9"},"vehicle_type_id":"4","last_reported":1738138344,"current_range_meters":38000,"station_id":"ce4bgt12rcd13ifvqce0","pricing_plan_id":"cebpf4jnsgd1na2vs0mg"},{"bike_id":"dbf4684f-caf6-4a73-a3c7-791ac00b4caa","system_id":"levelo_inurba_marseille","lat":43.29053,"lon":5.40056,"is_reserved":false,"is_disabled":false,"rental_uris":{"android":"levelo://app?vid=dbf4684f-caf6-4a73-a3c7-791ac00b4caa","ios":"levelo://app?vid=dbf4684f-caf6-4a73-a3c7-791ac00b4caa"},"vehicle_type_id":"4","last_reported":1738138344,"current_range_meters":20400,"station_id":"","pricing_plan_id":"cebpf4jnsgd1na2vs0mg"},{"bike_id":"7427c665-2cc8-4882-8959-647a0d86024a","system_id":"levelo_inurba_marseille","lat":43.30344,"lon":5.41881,"is_reserved":false,"is_disabled":false,"rental_uris":{"android":"levelo://app?vid=7427c665-2cc8-4882-8959-647a0d86024a","ios":"levelo://app?vid=7427c665-2cc8-4882-8959-647a0d86024a"},"vehicle_type_id":"4","last_reported":1738138344,"current_range_meters":38800,"station_id":"ce4bhop2rcd13ifvqh7g","pricing_plan_id":"cebpf4jnsgd1na2vs0mg"},{"bike_id":"7156cab0-668f-4557-a92c-f351fb294cd4","system_id":"levelo_inurba_marseille","lat":43.243901,"lon":5.370519,"is_reserved":false,"is_disabled":false,"rental_uris":{"android":"levelo://app?vid=7156cab0-668f-4557-a92c-f351fb294cd4","ios":"levelo://app?vid=7156cab0-668f-4557-a92c-f351fb294cd4"},"vehicle_type_id":"4","last_reported":1738138344,"current_range_meters":38800,"station_id":"ce4bhhh2rcd13ifvqfk0","pricing_plan_id":"cebpf4jnsgd1na2vs0mg"},{"bike_id":"53d46465-1c69-4274-9bb5-d6a4feb5e603","system_id":"levelo_inurba_marseille","lat":43.31339,"lon":5.36734,"is_reserved":false,"is_disabled":false,"rental_uris":{"android":"levelo://app?vid=53d46465-1c69-4274-9bb5-d6a4feb5e603","ios":"levelo://app?vid=53d46465-1c69-4274-9bb5-d6a4feb5e603"},"vehicle_type_id":"4","last_reported":1738138344,"current_range_meters":39200,"station_id":"ce4bgr92rcd13ifvqc6g","pricing_plan_id":"cebpf4jnsgd1na2vs0mg"},{"bike_id":"0e286095-0818-4ab7-a2d5-e0c249a69d01","system_id":"levelo_inurba_marseille","lat":43.30315,"lon":5.36911,"is_reserved":false,"is_disabled":false,"rental_uris":{"android":"levelo://app?vid=0e286095-0818-4ab7-a2d5-e0c249a69d01","ios":"levelo://app?vid=0e286095-0818-4ab7-a2d5-e0c249a69d01"},"vehicle_type_id":"4","last_reported":1738138344,"current_range_meters":11600,"station_id":"ce4bgqh2rcd13ifvqc5g","pricing_plan_id":"cebpf4jnsgd1na2vs0mg"},{"bike_id":"062acaa4-8533-423f-9d09-91cd05437850","system_id":"levelo_inurba_marseille","lat":43.33019,"lon":5.39059,"is_reserved":false,"is_disabled":false,"rental_uris":{"android":"levelo://app?vid=062acaa4-8533-423f-9d09-91cd05437850","ios":"levelo://app?vid=062acaa4-8533-423f-9d09-91cd05437850"},"vehicle_type_id":"4","last_reported":1738138344,"current_range_meters":7200,"station_id":"ce4bhr92rcd13ifvqhrg","pricing_plan_id":"cebpf4jnsgd1na2vs0mg"},{"bike_id":"5d58ff9b-36c3-4ce0-ab77-36f5aa7b39b9","system_id":"levelo_inurba_marseille","lat":43.28406,"lon":5.37512,"is_reserved":false,"is_disabled":false,"rental_uris":{"android":"levelo://app?vid=5d58ff9b-36c3-4ce0-ab77-36f5aa7b39b9","ios":"levelo://app?vid=5d58ff9b-36c3-4ce0-ab77-36f5aa7b39b9"},"vehicle_type_id":"4","last_reported":1738138344,"current_range_meters":38800,"station_id":"ce4bh412rcd13ifvqds0","pricing_plan_id":"cebpf4jnsgd1na2vs0mg"},{"bike_id":"05b11dd3-6a9c-4f38-8b8d-f8ec90669833","system_id":"levelo_inurba_marseille","lat":43.33602,"lon":5.40968,"is_reserved":false,"is_disabled":false,"rental_uris":{"android":"levelo://app?vid=05b11dd3-6a9c-4f38-8b8d-f8ec90669833","ios":"levelo://app?vid=05b11dd3-6a9c-4f38-8b8d-f8ec90669833"},"vehicle_type_id":"4","last_reported":1738138344,"current_range_meters":30000,"station_id":"ce4bhqh2rcd13ifvqhmg","pricing_plan_id":"cebpf4jnsgd1na2vs0mg"},{"bike_id":"24de690c-442a-4c52-a6f3-3bb00c9edf0d","system_id":"levelo_inurba_marseille","lat":43.28855,"lon":5.35849,"is_reserved":false,"is_disabled":false,"rental_uris":{"android":"levelo://app?vid=24de690c-442a-4c52-a6f3-3bb00c9edf0d","ios":"levelo://app?vid=24de690c-442a-4c52-a6f3-3bb00c9edf0d"},"vehicle_type_id":"4","last_reported":1738138344,"current_range_meters":38400,"station_id":"ce4bhb12rcd13ifvqem0","pricing_plan_id":"cebpf4jnsgd1na2vs0mg"},{"bike_id":"4055047e-0c4f-4698-b155-f0ccf6649608","system_id":"levelo_inurba_marseille","lat":43.29513,"lon":5.39409,"is_reserved":false,"is_disabled":true,"rental_uris":{"android":"levelo://app?vid=4055047e-0c4f-4698-b155-f0ccf6649608","ios":"levelo://app?vid=4055047e-0c4f-4698-b155-f0ccf6649608"},"vehicle_type_id":"4","last_reported":1738138344,"current_range_meters":28000,"station_id":"ce4bh292rcd13ifvqdf0","pricing_plan_id":"cebpf4jnsgd1na2vs0mg"},{"bike_id":"2256710f-428a-4b6c-afaf-f485da875c48","system_id":"levelo_inurba_marseille","lat":43.28614,"lon":5.35089,"is_reserved":false,"is_disabled":false,"rental_uris":{"android":"levelo://app?vid=2256710f-428a-4b6c-afaf-f485da875c48","ios":"levelo://app?vid=2256710f-428a-4b6c-afaf-f485da875c48"},"vehicle_type_id":"4","last_reported":1738138344,"current_range_meters":11200,"station_id":"ce4bhch2rcd13ifvqeug","pricing_plan_id":"cebpf4jnsgd1na2vs0mg"},{"bike_id":"ab2c796a-c23b-4a3a-9534-777b873d6a05","system_id":"levelo_inurba_marseille","lat":43.2417,"lon":5.36413,"is_reserved":false,"is_disabled":false,"rental_uris":{"android":"levelo://app?vid=ab2c796a-c23b-4a3a-9534-777b873d6a05","ios":"levelo://app?vid=ab2c796a-c23b-4a3a-9534-777b873d6a05"},"vehicle_type_id":"4","last_reported":1738138344,"current_range_meters":16800,"station_id":"cpo36qri1sfpv3e86is0","pricing_plan_id":"cebpf4jnsgd1na2vs0mg"},{"bike_id":"d649c18e-0d3b-494a-b8ac-102dfa9b6b68","system_id":"levelo_inurba_marseille","lat":43.265612,"lon":5.373108,"is_reserved":false,"is_disabled":false,"rental_uris":{"android":"levelo://app?vid=d649c18e-0d3b-494a-b8ac-102dfa9b6b68","ios":"levelo://app?vid=d649c18e-0d3b-494a-b8ac-102dfa9b6b68"},"vehicle_type_id":"4","last_reported":1738138344,"current_range_meters":38800,"station_id":"ce4bhg12rcd13ifvqf70","pricing_plan_id":"cebpf4jnsgd1na2vs0mg"},{"bike_id":"05e5f0b8-feae-480b-9d44-943109772500","system_id":"levelo_inurba_marseille","lat":43.26956,"lon":5.38634,"is_reserved":false,"is_disabled":false,"rental_uris":{"android":"levelo://app?vid=05e5f0b8-feae-480b-9d44-943109772500","ios":"levelo://app?vid=05e5f0b8-feae-480b-9d44-943109772500"},"vehicle_type_id":"4","last_reported":1738138344,"current_range_meters":17200,"station_id":"ce4bhh92rcd13ifvqfh0","pricing_plan_id":"cebpf4jnsgd1na2vs0mg"},{"bike_id":"4fc9b73c-1aa3-45f6-9746-8d21a6d833f7","system_id":"levelo_inurba_marseille","lat":43.29534,"lon":5.38551,"is_reserved":false,"is_disabled":false,"rental_uris":{"android":"levelo://app?vid=4fc9b73c-1aa3-45f6-9746-8d21a6d833f7","ios":"levelo://app?vid=4fc9b73c-1aa3-45f6-9746-8d21a6d833f7"},"vehicle_type_id":"4","last_reported":1738138344,"current_range_meters":2000,"station_id":"ce4bgih2rcd13ifvqba0","pricing_plan_id":"cebpf4jnsgd1na2vs0mg"},{"bike_id":"7023018f-a9cc-4d01-b59d-de75cc5a9d8d","system_id":"levelo_inurba_marseille","lat":43.30164,"lon":5.38086,"is_reserved":false,"is_disabled":false,"rental_uris":{"android":"levelo://app?vid=7023018f-a9cc-4d01-b59d-de75cc5a9d8d","ios":"levelo://app?vid=7023018f-a9cc-4d01-b59d-de75cc5a9d8d"},"vehicle_type_id":"4","last_reported":1738138344,"current_range_meters":35600,"station_id":"ce4bgjp2rcd13ifvqbh0","pricing_plan_id":"cebpf4jnsgd1na2vs0mg"},{"bike_id":"24d4f5ef-361b-4b35-a071-0fe3b8f26f07","system_id":"levelo_inurba_marseille","lat":43.27513,"lon":5.42454,"is_reserved":false,"is_disabled":false,"rental_uris":{"android":"levelo://app?vid=24d4f5ef-361b-4b35-a071-0fe3b8f26f07","ios":"levelo://app?vid=24d4f5ef-361b-4b35-a071-0fe3b8f26f07"},"vehicle_type_id":"4","last_reported":1738138344,"current_range_meters":39200,"station_id":"ce4bhn92rcd13ifvqgrg","pricing_plan_id":"cebpf4jnsgd1na2vs0mg"},{"bike_id":"fe1cc2f0-0a29-47aa-bb62-60adbf31ee09","system_id":"levelo_inurba_marseille","lat":43.27495,"lon":5.42457,"is_reserved":false,"is_disabled":false,"rental_uris":{"android":"levelo://app?vid=fe1cc2f0-0a29-47aa-bb62-60adbf31ee09","ios":"levelo://app?vid=fe1cc2f0-0a29-47aa-bb62-60adbf31ee09"},"vehicle_type_id":"4","last_reported":1738138344,"current_range_meters":21600,"station_id":"ce4bhn92rcd13ifvqgrg","pricing_plan_id":"cebpf4jnsgd1na2vs0mg"},{"bike_id":"d9ef2b50-8677-48e8-9305-30387e08f9f2","system_id":"levelo_inurba_marseille","lat":43.3019,"lon":5.36635,"is_reserved":false,"is_disabled":false,"rental_uris":{"android":"levelo://app?vid=d9ef2b50-8677-48e8-9305-30387e08f9f2","ios":"levelo://app?vid=d9ef2b50-8677-48e8-9305-30387e08f9f2"},"vehicle_type_id":"4","last_reported":1738138344,"current_range_meters":25600,"station_id":"ce4bgrh2rcd13ifvqc8g","pricing_plan_id":"cebpf4jnsgd1na2vs0mg"},{"bike_id":"f0f07e84-01c4-443b-852b-4e00b882c1d8","system_id":"levelo_inurba_marseille","lat":43.30801,"lon":5.43567,"is_reserved":false,"is_disabled":false,"rental_uris":{"android":"levelo://app?vid=f0f07e84-01c4-443b-852b-4e00b882c1d8","ios":"levelo://app?vid=f0f07e84-01c4-443b-852b-4e00b882c1d8"},"vehicle_type_id":"4","last_reported":1738138344,"current_range_meters":25200,"station_id":"ce4bhph2rcd13ifvqheg","pricing_plan_id":"cebpf4jnsgd1na2vs0mg"},{"bike_id":"aefa3b58-5280-4eb9-97ee-8c130e0aa227","system_id":"levelo_inurba_marseille","lat":43.27989,"lon":5.40024,"is_reserved":false,"is_disabled":false,"rental_uris":{"android":"levelo://app?vid=aefa3b58-5280-4eb9-97ee-8c130e0aa227","ios":"levelo://app?vid=aefa3b58-5280-4eb9-97ee-8c130e0aa227"},"vehicle_type_id":"4","last_reported":1738138344,"current_range_meters":14400,"station_id":"ce4bho92rcd13ifvqh4g","pricing_plan_id":"cebpf4jnsgd1na2vs0mg"},{"bike_id":"8378b129-9c0d-44b5-9c61-be207ba082f3","system_id":"levelo_inurba_marseille","lat":43.24081,"lon":5.37754,"is_reserved":false,"is_disabled":false,"rental_uris":{"android":"levelo://app?vid=8378b129-9c0d-44b5-9c61-be207ba082f3","ios":"levelo://app?vid=8378b129-9c0d-44b5-9c61-be207ba082f3"},"vehicle_type_id":"4","last_reported":1738138344,"current_range_meters":16000,"station_id":"ce4bhnp2rcd13ifvqgvg","pricing_plan_id":"cebpf4jnsgd1na2vs0mg"},{"bike_id":"3afe2907-14fe-40b0-8ce8-247215ed16c8","system_id":"levelo_inurba_marseille","lat":43.2695,"lon":5.38934,"is_reserved":false,"is_disabled":true,"rental_uris":{"android":"levelo://app?vid=3afe2907-14fe-40b0-8ce8-247215ed16c8","ios":"levelo://app?vid=3afe2907-14fe-40b0-8ce8-247215ed16c8"},"vehicle_type_id":"4","last_reported":1738138344,"current_range_meters":6000,"station_id":"ce4bhhh2rcd13ifvqfl0","pricing_plan_id":"cebpf4jnsgd1na2vs0mg"},{"bike_id":"e8e1f7c6-d773-4c38-bfcc-4a6d773355ce","system_id":"levelo_inurba_marseille","lat":43.22932,"lon":5.35406,"is_reserved":false,"is_disabled":false,"rental_uris":{"android":"levelo://app?vid=e8e1f7c6-d773-4c38-bfcc-4a6d773355ce","ios":"levelo://app?vid=e8e1f7c6-d773-4c38-bfcc-4a6d773355ce"},"vehicle_type_id":"4","last_reported":1738138344,"current_range_meters":39200,"station_id":"cpo3532slgdg3j2ikp40","pricing_plan_id":"cebpf4jnsgd1na2vs0mg"},{"bike_id":"65a4fd37-d87a-41db-b970-5d3a9a8b7aa1","system_id":"levelo_inurba_marseille","lat":43.23192,"lon":5.35553,"is_reserved":false,"is_disabled":false,"rental_uris":{"android":"levelo://app?vid=65a4fd37-d87a-41db-b970-5d3a9a8b7aa1","ios":"levelo://app?vid=65a4fd37-d87a-41db-b970-5d3a9a8b7aa1"},"vehicle_type_id":"4","last_reported":1738138344,"current_range_meters":11200,"station_id":"ce4bhu92rcd13ifvqi70","pricing_plan_id":"cebpf4jnsgd1na2vs0mg"},{"bike_id":"3db96b0b-b0cf-4283-a863-386edecd0027","system_id":"levelo_inurba_marseille","lat":43.23152,"lon":5.43719,"is_reserved":false,"is_disabled":false,"rental_uris":{"android":"levelo://app?vid=3db96b0b-b0cf-4283-a863-386edecd0027","ios":"levelo://app?vid=3db96b0b-b0cf-4283-a863-386edecd0027"},"vehicle_type_id":"4","last_reported":1738138344,"current_range_meters":19600,"station_id":"ce4bhmp2rcd13ifvqgog","pricing_plan_id":"cebpf4jnsgd1na2vs0mg"},{"bike_id":"cc26c524-9981-41d6-9e25-17cb40d9e550","system_id":"levelo_inurba_marseille","lat":43.24819,"lon":5.37464,"is_reserved":false,"is_disabled":false,"rental_uris":{"android":"levelo://app?vid=cc26c524-9981-41d6-9e25-17cb40d9e550","ios":"levelo://app?vid=cc26c524-9981-41d6-9e25-17cb40d9e550"},"vehicle_type_id":"4","last_reported":1738138344,"current_range_meters":24400,"station_id":"ce4bhgh2rcd13ifvqfb0","pricing_plan_id":"cebpf4jnsgd1na2vs0mg"},{"bike_id":"8b6a2e22-7314-494c-be31-0722e29d3f36","system_id":"levelo_inurba_marseille","lat":43.27998,"lon":5.40009,"is_reserved":false,"is_disabled":false,"rental_uris":{"android":"levelo://app?vid=8b6a2e22-7314-494c-be31-0722e29d3f36","ios":"levelo://app?vid=8b6a2e22-7314-494c-be31-0722e29d3f36"},"vehicle_type_id":"4","last_reported":1738138344,"current_range_meters":4000,"station_id":"ce4bho92rcd13ifvqh4g","pricing_plan_id":"cebpf4jnsgd1na2vs0mg"},{"bike_id":"316f153f-a361-43bd-9012-a3853d5348d2","system_id":"levelo_inurba_marseille","lat":43.33602,"lon":5.41046,"is_reserved":false,"is_disabled":false,"rental_uris":{"android":"levelo://app?vid=316f153f-a361-43bd-9012-a3853d5348d2","ios":"levelo://app?vid=316f153f-a361-43bd-9012-a3853d5348d2"},"vehicle_type_id":"4","last_reported":1738138344,"current_range_meters":25200,"station_id":"ce4bhqh2rcd13ifvqhmg","pricing_plan_id":"cebpf4jnsgd1na2vs0mg"},{"bike_id":"b339395b-466c-4063-8391-724221509560","system_id":"levelo_inurba_marseille","lat":43.29034,"lon":5.39989,"is_reserved":false,"is_disabled":false,"rental_uris":{"android":"levelo://app?vid=b339395b-466c-4063-8391-724221509560","ios":"levelo://app?vid=b339395b-466c-4063-8391-724221509560"},"vehicle_type_id":"4","last_reported":1738138344,"current_range_meters":30800,"station_id":"ce4bh392rcd13ifvqdm0","pricing_plan_id":"cebpf4jnsgd1na2vs0mg"},{"bike_id":"dd195832-ff3f-4763-a260-74003ef7ff4c","system_id":"levelo_inurba_marseille","lat":43.29222,"lon":5.36058,"is_reserved":false,"is_disabled":true,"rental_uris":{"android":"levelo://app?vid=dd195832-ff3f-4763-a260-74003ef7ff4c","ios":"levelo://app?vid=dd195832-ff3f-4763-a260-74003ef7ff4c"},"vehicle_type_id":"4","last_reported":1738138344,"current_range_meters":35200,"station_id":"ce4bhbh2rcd13ifvqeqg","pricing_plan_id":"cebpf4jnsgd1na2vs0mg"},{"bike_id":"504dea5b-3c2a-489e-8275-d8db04b04cbd","system_id":"levelo_inurba_marseille","lat":43.28721,"lon":5.383928,"is_reserved":false,"is_disabled":false,"rental_uris":{"android":"levelo://app?vid=504dea5b-3c2a-489e-8275-d8db04b04cbd","ios":"levelo://app?vid=504dea5b-3c2a-489e-8275-d8db04b04cbd"},"vehicle_type_id":"4","last_reported":1738138344,"current_range_meters":35200,"station_id":"","pricing_plan_id":"cebpf4jnsgd1na2vs0mg"},{"bike_id":"dbf24dbe-e3ef-4411-93f3-7d09ed296f83","system_id":"levelo_inurba_marseille","lat":43.29777,"lon":5.38125,"is_reserved":false,"is_disabled":false,"rental_uris":{"android":"levelo://app?vid=dbf24dbe-e3ef-4411-93f3-7d09ed296f83","ios":"levelo://app?vid=dbf24dbe-e3ef-4411-93f3-7d09ed296f83"},"vehicle_type_id":"4","last_reported":1738138344,"current_range_meters":30800,"station_id":"ce4bgip2rcd13ifvqbb0","pricing_plan_id":"cebpf4jnsgd1na2vs0mg"},{"bike_id":"24808ffd-a683-445e-8577-a20ef0674bec","system_id":"levelo_inurba_marseille","lat":43.30283,"lon":5.37719,"is_reserved":false,"is_disabled":false,"rental_uris":{"android":"levelo://app?vid=24808ffd-a683-445e-8577-a20ef0674bec","ios":"levelo://app?vid=24808ffd-a683-445e-8577-a20ef0674bec"},"vehicle_type_id":"4","last_reported":1738138344,"current_range_meters":36000,"station_id":"ce4bguh2rcd13ifvqcj0","pricing_plan_id":"cebpf4jnsgd1na2vs0mg"},{"bike_id":"3bee4485-5796-46ad-a9f6-fae4ffbd959c","system_id":"levelo_inurba_marseille","lat":43.27493,"lon":5.42453,"is_reserved":false,"is_disabled":false,"rental_uris":{"android":"levelo://app?vid=3bee4485-5796-46ad-a9f6-fae4ffbd959c","ios":"levelo://app?vid=3bee4485-5796-46ad-a9f6-fae4ffbd959c"},"vehicle_type_id":"4","last_reported":1738138344,"current_range_meters":28400,"station_id":"ce4bhn92rcd13ifvqgrg","pricing_plan_id":"cebpf4jnsgd1na2vs0mg"},{"bike_id":"8a75c218-745e-4d5a-8531-47bf77bd2d40","system_id":"levelo_inurba_marseille","lat":43.24673,"lon":5.3891,"is_reserved":false,"is_disabled":false,"rental_uris":{"android":"levelo://app?vid=8a75c218-745e-4d5a-8531-47bf77bd2d40","ios":"levelo://app?vid=8a75c218-745e-4d5a-8531-47bf77bd2d40"},"vehicle_type_id":"4","last_reported":1738138344,"current_range_meters":27600,"station_id":"ce4bhg12rcd13ifvqf60","pricing_plan_id":"cebpf4jnsgd1na2vs0mg"},{"bike_id":"71f34f72-d3b7-46a5-9bd4-1fe057b3152f","system_id":"levelo_inurba_marseille","lat":43.22934,"lon":5.35384,"is_reserved":false,"is_disabled":false,"rental_uris":{"android":"levelo://app?vid=71f34f72-d3b7-46a5-9bd4-1fe057b3152f","ios":"levelo://app?vid=71f34f72-d3b7-46a5-9bd4-1fe057b3152f"},"vehicle_type_id":"4","last_reported":1738138344,"current_range_meters":39200,"station_id":"cpo3532slgdg3j2ikp40","pricing_plan_id":"cebpf4jnsgd1na2vs0mg"},{"bike_id":"5d09df15-4a01-44fe-88bd-c0125e7ccdbb","system_id":"levelo_inurba_marseille","lat":43.3048,"lon":5.37909,"is_reserved":false,"is_disabled":false,"rental_uris":{"android":"levelo://app?vid=5d09df15-4a01-44fe-88bd-c0125e7ccdbb","ios":"levelo://app?vid=5d09df15-4a01-44fe-88bd-c0125e7ccdbb"},"vehicle_type_id":"4","last_reported":1738138344,"current_range_meters":10800,"station_id":"ce4bgup2rcd13ifvqcn0","pricing_plan_id":"cebpf4jnsgd1na2vs0mg"},{"bike_id":"20029bdd-9f9c-4ff9-86e4-5ba6ed30f46a","system_id":"levelo_inurba_marseille","lat":43.23147,"lon":5.43728,"is_reserved":false,"is_disabled":true,"rental_uris":{"android":"levelo://app?vid=20029bdd-9f9c-4ff9-86e4-5ba6ed30f46a","ios":"levelo://app?vid=20029bdd-9f9c-4ff9-86e4-5ba6ed30f46a"},"vehicle_type_id":"4","last_reported":1738138344,"current_range_meters":0,"station_id":"ce4bhmp2rcd13ifvqgog","pricing_plan_id":"cebpf4jnsgd1na2vs0mg"},{"bike_id":"a1e9ea9a-e681-4867-9abc-c1bdcd9eed05","system_id":"levelo_inurba_marseille","lat":43.29967,"lon":5.4132,"is_reserved":false,"is_disabled":false,"rental_uris":{"android":"levelo://app?vid=a1e9ea9a-e681-4867-9abc-c1bdcd9eed05","ios":"levelo://app?vid=a1e9ea9a-e681-4867-9abc-c1bdcd9eed05"},"vehicle_type_id":"4","last_reported":1738138344,"current_range_meters":24000,"station_id":"ce4bhp12rcd13ifvqh9g","pricing_plan_id":"cebpf4jnsgd1na2vs0mg"},{"bike_id":"881a30a9-80f2-488e-9060-4f2fb6c00866","system_id":"levelo_inurba_marseille","lat":43.29011,"lon":5.38644,"is_reserved":false,"is_disabled":false,"rental_uris":{"android":"levelo://app?vid=881a30a9-80f2-488e-9060-4f2fb6c00866","ios":"levelo://app?vid=881a30a9-80f2-488e-9060-4f2fb6c00866"},"vehicle_type_id":"4","last_reported":1738138344,"current_range_meters":32400,"station_id":"ce4bh4p2rcd13ifvqe0g","pricing_plan_id":"cebpf4jnsgd1na2vs0mg"},{"bike_id":"4dd36a3d-cf92-40e0-a413-70551ca0bbce","system_id":"levelo_inurba_marseille","lat":43.26062,"lon":5.394,"is_reserved":false,"is_disabled":false,"rental_uris":{"android":"levelo://app?vid=4dd36a3d-cf92-40e0-a413-70551ca0bbce","ios":"levelo://app?vid=4dd36a3d-cf92-40e0-a413-70551ca0bbce"},"vehicle_type_id":"4","last_reported":1738138344,"current_range_meters":22800,"station_id":"ce4bhh92rcd13ifvqfj0","pricing_plan_id":"cebpf4jnsgd1na2vs0mg"},{"bike_id":"21bf5864-23fd-4610-ba4b-43ba8ec88e36","system_id":"levelo_inurba_marseille","lat":43.29806,"lon":5.38089,"is_reserved":false,"is_disabled":false,"rental_uris":{"android":"levelo://app?vid=21bf5864-23fd-4610-ba4b-43ba8ec88e36","ios":"levelo://app?vid=21bf5864-23fd-4610-ba4b-43ba8ec88e36"},"vehicle_type_id":"4","last_reported":1738138344,"current_range_meters":34800,"station_id":"ce4bgip2rcd13ifvqbb0","pricing_plan_id":"cebpf4jnsgd1na2vs0mg"},{"bike_id":"01c346e4-7211-4b0a-9252-8b8a59a9b82f","system_id":"levelo_inurba_marseille","lat":43.28849,"lon":5.3583,"is_reserved":false,"is_disabled":true,"rental_uris":{"android":"levelo://app?vid=01c346e4-7211-4b0a-9252-8b8a59a9b82f","ios":"levelo://app?vid=01c346e4-7211-4b0a-9252-8b8a59a9b82f"},"vehicle_type_id":"4","last_reported":1738138344,"current_range_meters":36400,"station_id":"ce4bhb12rcd13ifvqem0","pricing_plan_id":"cebpf4jnsgd1na2vs0mg"},{"bike_id":"3fb74e29-7f1d-4c67-8af5-0bb8332df870","system_id":"levelo_inurba_marseille","lat":43.24406,"lon":5.37057,"is_reserved":false,"is_disabled":false,"rental_uris":{"android":"levelo://app?vid=3fb74e29-7f1d-4c67-8af5-0bb8332df870","ios":"levelo://app?vid=3fb74e29-7f1d-4c67-8af5-0bb8332df870"},"vehicle_type_id":"4","last_reported":1738138344,"current_range_meters":22800,"station_id":"ce4bhhh2rcd13ifvqfk0","pricing_plan_id":"cebpf4jnsgd1na2vs0mg"},{"bike_id":"73e3775a-a4ad-48db-8256-fb0b8f2a3cbd","system_id":"levelo_inurba_marseille","lat":43.31364,"lon":5.38506,"is_reserved":false,"is_disabled":true,"rental_uris":{"android":"levelo://app?vid=73e3775a-a4ad-48db-8256-fb0b8f2a3cbd","ios":"levelo://app?vid=73e3775a-a4ad-48db-8256-fb0b8f2a3cbd"},"vehicle_type_id":"4","last_reported":1738138344,"current_range_meters":34800,"station_id":"ce4bgt92rcd13ifvqcf0","pricing_plan_id":"cebpf4jnsgd1na2vs0mg"},{"bike_id":"a1f25abd-5197-4524-ac53-ad8743bef105","system_id":"levelo_inurba_marseille","lat":43.29906,"lon":5.43661,"is_reserved":false,"is_disabled":true,"rental_uris":{"android":"levelo://app?vid=a1f25abd-5197-4524-ac53-ad8743bef105","ios":"levelo://app?vid=a1f25abd-5197-4524-ac53-ad8743bef105"},"vehicle_type_id":"4","last_reported":1738138344,"current_range_meters":35200,"station_id":"ce4bhpp2rcd13ifvqhfg","pricing_plan_id":"cebpf4jnsgd1na2vs0mg"},{"bike_id":"5b4f2f8c-2a9b-4cc2-b6cc-1ff207bf40f1","system_id":"levelo_inurba_marseille","lat":43.30312,"lon":5.37696,"is_reserved":false,"is_disabled":false,"rental_uris":{"android":"levelo://app?vid=5b4f2f8c-2a9b-4cc2-b6cc-1ff207bf40f1","ios":"levelo://app?vid=5b4f2f8c-2a9b-4cc2-b6cc-1ff207bf40f1"},"vehicle_type_id":"4","last_reported":1738138344,"current_range_meters":16400,"station_id":"ce4bguh2rcd13ifvqcj0","pricing_plan_id":"cebpf4jnsgd1na2vs0mg"},{"bike_id":"f758916d-7680-40a3-9582-cd262e26db01","system_id":"levelo_inurba_marseille","lat":43.3247,"lon":5.36585,"is_reserved":false,"is_disabled":true,"rental_uris":{"android":"levelo://app?vid=f758916d-7680-40a3-9582-cd262e26db01","ios":"levelo://app?vid=f758916d-7680-40a3-9582-cd262e26db01"},"vehicle_type_id":"4","last_reported":1738138344,"current_range_meters":800,"station_id":"ce4bhs12rcd13ifvqhvg","pricing_plan_id":"cebpf4jnsgd1na2vs0mg"},{"bike_id":"bdddf215-203d-43c3-93dc-953ad8b0e105","system_id":"levelo_inurba_marseille","lat":43.23538,"lon":5.39902,"is_reserved":false,"is_disabled":false,"rental_uris":{"android":"levelo://app?vid=bdddf215-203d-43c3-93dc-953ad8b0e105","ios":"levelo://app?vid=bdddf215-203d-43c3-93dc-953ad8b0e105"},"vehicle_type_id":"4","last_reported":1738138344,"current_range_meters":17200,"station_id":"","pricing_plan_id":"cebpf4jnsgd1na2vs0mg"},{"bike_id":"ff68af14-5554-4f8d-a3de-4549d987f602","system_id":"levelo_inurba_marseille","lat":43.298998,"lon":5.43677,"is_reserved":false,"is_disabled":false,"rental_uris":{"android":"levelo://app?vid=ff68af14-5554-4f8d-a3de-4549d987f602","ios":"levelo://app?vid=ff68af14-5554-4f8d-a3de-4549d987f602"},"vehicle_type_id":"4","last_reported":1738138344,"current_range_meters":32400,"station_id":"ce4bhpp2rcd13ifvqhfg","pricing_plan_id":"cebpf4jnsgd1na2vs0mg"},{"bike_id":"296acca2-a355-4830-bc97-a6939a85f573","system_id":"levelo_inurba_marseille","lat":43.25583,"lon":5.38247,"is_reserved":false,"is_disabled":false,"rental_uris":{"android":"levelo://app?vid=296acca2-a355-4830-bc97-a6939a85f573","ios":"levelo://app?vid=296acca2-a355-4830-bc97-a6939a85f573"},"vehicle_type_id":"4","last_reported":1738138344,"current_range_meters":24800,"station_id":"ce4bhih2rcd13ifvqfs0","pricing_plan_id":"cebpf4jnsgd1na2vs0mg"},{"bike_id":"e2aa4144-f725-4497-81a8-6271243a9220","system_id":"levelo_inurba_marseille","lat":43.28283,"lon":5.40833,"is_reserved":false,"is_disabled":false,"rental_uris":{"android":"levelo://app?vid=e2aa4144-f725-4497-81a8-6271243a9220","ios":"levelo://app?vid=e2aa4144-f725-4497-81a8-6271243a9220"},"vehicle_type_id":"4","last_reported":1738138344,"current_range_meters":27600,"station_id":"","pricing_plan_id":"cebpf4jnsgd1na2vs0mg"},{"bike_id":"f4478125-cd78-44aa-a654-3e65176dd05d","system_id":"levelo_inurba_marseille","lat":43.27977,"lon":5.41662,"is_reserved":false,"is_disabled":false,"rental_uris":{"android":"levelo://app?vid=f4478125-cd78-44aa-a654-3e65176dd05d","ios":"levelo://app?vid=f4478125-cd78-44aa-a654-3e65176dd05d"},"vehicle_type_id":"4","last_reported":1738138344,"current_range_meters":32800,"station_id":"ce4bho12rcd13ifvqh1g","pricing_plan_id":"cebpf4jnsgd1na2vs0mg"},{"bike_id":"bbe409bc-e7f4-4785-a5d2-fbcb7d2118c2","system_id":"levelo_inurba_marseille","lat":43.30471,"lon":5.37917,"is_reserved":false,"is_disabled":false,"rental_uris":{"android":"levelo://app?vid=bbe409bc-e7f4-4785-a5d2-fbcb7d2118c2","ios":"levelo://app?vid=bbe409bc-e7f4-4785-a5d2-fbcb7d2118c2"},"vehicle_type_id":"4","last_reported":1738138344,"current_range_meters":29600,"station_id":"ce4bgup2rcd13ifvqcn0","pricing_plan_id":"cebpf4jnsgd1na2vs0mg"},{"bike_id":"f6a37afb-46f4-467b-8e7a-93a51698bb2e","system_id":"levelo_inurba_marseille","lat":43.28854,"lon":5.35887,"is_reserved":false,"is_disabled":false,"rental_uris":{"android":"levelo://app?vid=f6a37afb-46f4-467b-8e7a-93a51698bb2e","ios":"levelo://app?vid=f6a37afb-46f4-467b-8e7a-93a51698bb2e"},"vehicle_type_id":"4","last_reported":1738138344,"current_range_meters":25200,"station_id":"ce4bhb12rcd13ifvqem0","pricing_plan_id":"cebpf4jnsgd1na2vs0mg"},{"bike_id":"3d95239f-7aae-4c5a-bf4d-ca1ab46f24f8","system_id":"levelo_inurba_marseille","lat":43.2781,"lon":5.40709,"is_reserved":false,"is_disabled":false,"rental_uris":{"android":"levelo://app?vid=3d95239f-7aae-4c5a-bf4d-ca1ab46f24f8","ios":"levelo://app?vid=3d95239f-7aae-4c5a-bf4d-ca1ab46f24f8"},"vehicle_type_id":"4","last_reported":1738138344,"current_range_meters":28400,"station_id":"ce4bhnh2rcd13ifvqgtg","pricing_plan_id":"cebpf4jnsgd1na2vs0mg"},{"bike_id":"60ce30e7-9301-4ca8-982f-21e0e801cbbe","system_id":"levelo_inurba_marseille","lat":43.29916,"lon":5.37477,"is_reserved":false,"is_disabled":false,"rental_uris":{"android":"levelo://app?vid=60ce30e7-9301-4ca8-982f-21e0e801cbbe","ios":"levelo://app?vid=60ce30e7-9301-4ca8-982f-21e0e801cbbe"},"vehicle_type_id":"4","last_reported":1738138344,"current_range_meters":38400,"station_id":"ce4bgjh2rcd13ifvqbg0","pricing_plan_id":"cebpf4jnsgd1na2vs0mg"},{"bike_id":"8ca0c7ee-942f-4e2e-af87-7cfff43ee541","system_id":"levelo_inurba_marseille","lat":43.28942,"lon":5.39639,"is_reserved":false,"is_disabled":false,"rental_uris":{"android":"levelo://app?vid=8ca0c7ee-942f-4e2e-af87-7cfff43ee541","ios":"levelo://app?vid=8ca0c7ee-942f-4e2e-af87-7cfff43ee541"},"vehicle_type_id":"4","last_reported":1738138344,"current_range_meters":27200,"station_id":"ce4bh3h2rcd13ifvqdn0","pricing_plan_id":"cebpf4jnsgd1na2vs0mg"},{"bike_id":"c25e5d10-1e73-4133-a1bc-3b0eebf03463","system_id":"levelo_inurba_marseille","lat":43.23965,"lon":5.36621,"is_reserved":false,"is_disabled":true,"rental_uris":{"android":"levelo://app?vid=c25e5d10-1e73-4133-a1bc-3b0eebf03463","ios":"levelo://app?vid=c25e5d10-1e73-4133-a1bc-3b0eebf03463"},"vehicle_type_id":"4","last_reported":1738138344,"current_range_meters":10000,"station_id":"ce4bhi12rcd13ifvqfp0","pricing_plan_id":"cebpf4jnsgd1na2vs0mg"},{"bike_id":"2ccb8303-d419-4828-aaee-4a8c4a5783d9","system_id":"levelo_inurba_marseille","lat":43.24073,"lon":5.37759,"is_reserved":false,"is_disabled":false,"rental_uris":{"android":"levelo://app?vid=2ccb8303-d419-4828-aaee-4a8c4a5783d9","ios":"levelo://app?vid=2ccb8303-d419-4828-aaee-4a8c4a5783d9"},"vehicle_type_id":"4","last_reported":1738138344,"current_range_meters":32800,"station_id":"ce4bhnp2rcd13ifvqgvg","pricing_plan_id":"cebpf4jnsgd1na2vs0mg"},{"bike_id":"e3c5a10e-948d-477c-91ce-8c835a7fe362","system_id":"levelo_inurba_marseille","lat":43.28112,"lon":5.39664,"is_reserved":false,"is_disabled":true,"rental_uris":{"android":"levelo://app?vid=e3c5a10e-948d-477c-91ce-8c835a7fe362","ios":"levelo://app?vid=e3c5a10e-948d-477c-91ce-8c835a7fe362"},"vehicle_type_id":"4","last_reported":1738138344,"current_range_meters":0,"station_id":"ce4bho12rcd13ifvqh2g","pricing_plan_id":"cebpf4jnsgd1na2vs0mg"},{"bike_id":"d55a0e08-a011-4573-933f-66101b854c5c","system_id":"levelo_inurba_marseille","lat":43.28464,"lon":5.35895,"is_reserved":false,"is_disabled":false,"rental_uris":{"android":"levelo://app?vid=d55a0e08-a011-4573-933f-66101b854c5c","ios":"levelo://app?vid=d55a0e08-a011-4573-933f-66101b854c5c"},"vehicle_type_id":"4","last_reported":1738138344,"current_range_meters":29600,"station_id":"ce4bhah2rcd13ifvqei0","pricing_plan_id":"cebpf4jnsgd1na2vs0mg"},{"bike_id":"756f999f-be57-4c23-a3c3-efaef5406c12","system_id":"levelo_inurba_marseille","lat":43.26068,"lon":5.39408,"is_reserved":false,"is_disabled":false,"rental_uris":{"android":"levelo://app?vid=756f999f-be57-4c23-a3c3-efaef5406c12","ios":"levelo://app?vid=756f999f-be57-4c23-a3c3-efaef5406c12"},"vehicle_type_id":"4","last_reported":1738138344,"current_range_meters":38800,"station_id":"ce4bhh92rcd13ifvqfj0","pricing_plan_id":"cebpf4jnsgd1na2vs0mg"},{"bike_id":"1e7882da-a016-4654-9a16-4361fd531dc2","system_id":"levelo_inurba_marseille","lat":43.271853,"lon":5.409903,"is_reserved":false,"is_disabled":false,"rental_uris":{"android":"levelo://app?vid=1e7882da-a016-4654-9a16-4361fd531dc2","ios":"levelo://app?vid=1e7882da-a016-4654-9a16-4361fd531dc2"},"vehicle_type_id":"4","last_reported":1738138344,"current_range_meters":25200,"station_id":"ce4bhl12rcd13ifvqgf0","pricing_plan_id":"cebpf4jnsgd1na2vs0mg"},{"bike_id":"b1921e8c-9986-428d-a23a-9b2bb02f944f","system_id":"levelo_inurba_marseille","lat":43.29036,"lon":5.37575,"is_reserved":false,"is_disabled":false,"rental_uris":{"android":"levelo://app?vid=b1921e8c-9986-428d-a23a-9b2bb02f944f","ios":"levelo://app?vid=b1921e8c-9986-428d-a23a-9b2bb02f944f"},"vehicle_type_id":"4","last_reported":1738138344,"current_range_meters":29600,"station_id":"ce4bh692rcd13ifvqe90","pricing_plan_id":"cebpf4jnsgd1na2vs0mg"},{"bike_id":"e98bcae3-a7e1-45c1-8127-fba6130bc1d6","system_id":"levelo_inurba_marseille","lat":43.29277,"lon":5.36862,"is_reserved":false,"is_disabled":false,"rental_uris":{"android":"levelo://app?vid=e98bcae3-a7e1-45c1-8127-fba6130bc1d6","ios":"levelo://app?vid=e98bcae3-a7e1-45c1-8127-fba6130bc1d6"},"vehicle_type_id":"4","last_reported":1738138344,"current_range_meters":32800,"station_id":"ce4bhbp2rcd13ifvqesg","pricing_plan_id":"cebpf4jnsgd1na2vs0mg"},{"bike_id":"fb92b986-a6e9-4a5f-b841-750c8cc56328","system_id":"levelo_inurba_marseille","lat":43.26494,"lon":5.39545,"is_reserved":false,"is_disabled":false,"rental_uris":{"android":"levelo://app?vid=fb92b986-a6e9-4a5f-b841-750c8cc56328","ios":"levelo://app?vid=fb92b986-a6e9-4a5f-b841-750c8cc56328"},"vehicle_type_id":"4","last_reported":1738138344,"current_range_meters":38800,"station_id":"ce4bhi12rcd13ifvqfq0","pricing_plan_id":"cebpf4jnsgd1na2vs0mg"},{"bike_id":"7c6cf9d5-106f-41db-9876-d89a3714a60e","system_id":"levelo_inurba_marseille","lat":43.28936,"lon":5.39616,"is_reserved":false,"is_disabled":false,"rental_uris":{"android":"levelo://app?vid=7c6cf9d5-106f-41db-9876-d89a3714a60e","ios":"levelo://app?vid=7c6cf9d5-106f-41db-9876-d89a3714a60e"},"vehicle_type_id":"4","last_reported":1738138344,"current_range_meters":8000,"station_id":"ce4bh3h2rcd13ifvqdn0","pricing_plan_id":"cebpf4jnsgd1na2vs0mg"},{"bike_id":"dc7c1c67-58fd-4b23-90e5-a1f21ef47cbc","system_id":"levelo_inurba_marseille","lat":43.29595,"lon":5.36745,"is_reserved":false,"is_disabled":true,"rental_uris":{"android":"levelo://app?vid=dc7c1c67-58fd-4b23-90e5-a1f21ef47cbc","ios":"levelo://app?vid=dc7c1c67-58fd-4b23-90e5-a1f21ef47cbc"},"vehicle_type_id":"4","last_reported":1738138344,"current_range_meters":10000,"station_id":"ce4bgph2rcd13ifvqc2g","pricing_plan_id":"cebpf4jnsgd1na2vs0mg"},{"bike_id":"477bbd5b-096a-4dce-b719-0fae268d6d85","system_id":"levelo_inurba_marseille","lat":43.30478,"lon":5.37904,"is_reserved":false,"is_disabled":false,"rental_uris":{"android":"levelo://app?vid=477bbd5b-096a-4dce-b719-0fae268d6d85","ios":"levelo://app?vid=477bbd5b-096a-4dce-b719-0fae268d6d85"},"vehicle_type_id":"4","last_reported":1738138344,"current_range_meters":38400,"station_id":"ce4bgup2rcd13ifvqcn0","pricing_plan_id":"cebpf4jnsgd1na2vs0mg"},{"bike_id":"17e47042-8c77-4541-a11d-5ae1a42c0ff2","system_id":"levelo_inurba_marseille","lat":43.27489,"lon":5.42454,"is_reserved":false,"is_disabled":true,"rental_uris":{"android":"levelo://app?vid=17e47042-8c77-4541-a11d-5ae1a42c0ff2","ios":"levelo://app?vid=17e47042-8c77-4541-a11d-5ae1a42c0ff2"},"vehicle_type_id":"4","last_reported":1738138344,"current_range_meters":1200,"station_id":"ce4bhn92rcd13ifvqgrg","pricing_plan_id":"cebpf4jnsgd1na2vs0mg"},{"bike_id":"d0f76cb9-6800-4203-93d0-a43695f0ba59","system_id":"levelo_inurba_marseille","lat":43.2983,"lon":5.38084,"is_reserved":false,"is_disabled":false,"rental_uris":{"android":"levelo://app?vid=d0f76cb9-6800-4203-93d0-a43695f0ba59","ios":"levelo://app?vid=d0f76cb9-6800-4203-93d0-a43695f0ba59"},"vehicle_type_id":"4","last_reported":1738138344,"current_range_meters":34800,"station_id":"ce4bgip2rcd13ifvqbb0","pricing_plan_id":"cebpf4jnsgd1na2vs0mg"},{"bike_id":"138d3fde-4941-45ce-ab30-6cd5c9c4eb78","system_id":"levelo_inurba_marseille","lat":43.2955,"lon":5.42257,"is_reserved":false,"is_disabled":false,"rental_uris":{"android":"levelo://app?vid=138d3fde-4941-45ce-ab30-6cd5c9c4eb78","ios":"levelo://app?vid=138d3fde-4941-45ce-ab30-6cd5c9c4eb78"},"vehicle_type_id":"4","last_reported":1738138344,"current_range_meters":38800,"station_id":"ce4bhph2rcd13ifvqhdg","pricing_plan_id":"cebpf4jnsgd1na2vs0mg"},{"bike_id":"1932502a-a386-4bd4-8041-b68d3b661876","system_id":"levelo_inurba_marseille","lat":43.231993,"lon":5.35541,"is_reserved":false,"is_disabled":false,"rental_uris":{"android":"levelo://app?vid=1932502a-a386-4bd4-8041-b68d3b661876","ios":"levelo://app?vid=1932502a-a386-4bd4-8041-b68d3b661876"},"vehicle_type_id":"4","last_reported":1738138344,"current_range_meters":22800,"station_id":"ce4bhu92rcd13ifvqi70","pricing_plan_id":"cebpf4jnsgd1na2vs0mg"},{"bike_id":"3ad10b32-c1b1-4c7a-9f3c-30dcc350bc0c","system_id":"levelo_inurba_marseille","lat":43.27941,"lon":5.41061,"is_reserved":false,"is_disabled":false,"rental_uris":{"android":"levelo://app?vid=3ad10b32-c1b1-4c7a-9f3c-30dcc350bc0c","ios":"levelo://app?vid=3ad10b32-c1b1-4c7a-9f3c-30dcc350bc0c"},"vehicle_type_id":"4","last_reported":1738138344,"current_range_meters":12800,"station_id":"ce4bhnp2rcd13ifvqh0g","pricing_plan_id":"cebpf4jnsgd1na2vs0mg"},{"bike_id":"8b3da5c4-ee41-46a4-9b2d-09c1a3f9a278","system_id":"levelo_inurba_marseille","lat":43.28846,"lon":5.39313,"is_reserved":false,"is_disabled":false,"rental_uris":{"android":"levelo://app?vid=8b3da5c4-ee41-46a4-9b2d-09c1a3f9a278","ios":"levelo://app?vid=8b3da5c4-ee41-46a4-9b2d-09c1a3f9a278"},"vehicle_type_id":"4","last_reported":1738138344,"current_range_meters":28400,"station_id":"ce4bh2p2rcd13ifvqdi0","pricing_plan_id":"cebpf4jnsgd1na2vs0mg"},{"bike_id":"34b4ae99-6814-4bf5-bae3-5796e36b1513","system_id":"levelo_inurba_marseille","lat":43.29264,"lon":5.40124,"is_reserved":false,"is_disabled":false,"rental_uris":{"android":"levelo://app?vid=34b4ae99-6814-4bf5-bae3-5796e36b1513","ios":"levelo://app?vid=34b4ae99-6814-4bf5-bae3-5796e36b1513"},"vehicle_type_id":"4","last_reported":1738138344,"current_range_meters":3600,"station_id":"ce4bh312rcd13ifvqdk0","pricing_plan_id":"cebpf4jnsgd1na2vs0mg"},{"bike_id":"b988a070-ec1d-4020-9bd5-d00746b70e50","system_id":"levelo_inurba_marseille","lat":43.24075,"lon":5.37764,"is_reserved":false,"is_disabled":false,"rental_uris":{"android":"levelo://app?vid=b988a070-ec1d-4020-9bd5-d00746b70e50","ios":"levelo://app?vid=b988a070-ec1d-4020-9bd5-d00746b70e50"},"vehicle_type_id":"4","last_reported":1738138344,"current_range_meters":11200,"station_id":"ce4bhnp2rcd13ifvqgvg","pricing_plan_id":"cebpf4jnsgd1na2vs0mg"},{"bike_id":"f19c00b2-4831-4ead-a4a4-2906bfac98c3","system_id":"levelo_inurba_marseille","lat":43.30534,"lon":5.36545,"is_reserved":false,"is_disabled":false,"rental_uris":{"android":"levelo://app?vid=f19c00b2-4831-4ead-a4a4-2906bfac98c3","ios":"levelo://app?vid=f19c00b2-4831-4ead-a4a4-2906bfac98c3"},"vehicle_type_id":"4","last_reported":1738138344,"current_range_meters":11600,"station_id":"ce4bgs12rcd13ifvqcag","pricing_plan_id":"cebpf4jnsgd1na2vs0mg"},{"bike_id":"b9970294-4064-4d34-8b1f-671db8464f9a","system_id":"levelo_inurba_marseille","lat":43.26956,"lon":5.38647,"is_reserved":false,"is_disabled":false,"rental_uris":{"android":"levelo://app?vid=b9970294-4064-4d34-8b1f-671db8464f9a","ios":"levelo://app?vid=b9970294-4064-4d34-8b1f-671db8464f9a"},"vehicle_type_id":"4","last_reported":1738138344,"current_range_meters":21600,"station_id":"ce4bhh92rcd13ifvqfh0","pricing_plan_id":"cebpf4jnsgd1na2vs0mg"},{"bike_id":"05aff781-9191-4632-ad87-76bf911c0c4e","system_id":"levelo_inurba_marseille","lat":43.27493,"lon":5.42485,"is_reserved":false,"is_disabled":false,"rental_uris":{"android":"levelo://app?vid=05aff781-9191-4632-ad87-76bf911c0c4e","ios":"levelo://app?vid=05aff781-9191-4632-ad87-76bf911c0c4e"},"vehicle_type_id":"4","last_reported":1738138344,"current_range_meters":30800,"station_id":"ce4bhn92rcd13ifvqgrg","pricing_plan_id":"cebpf4jnsgd1na2vs0mg"},{"bike_id":"eb59de61-6ae6-4e31-a824-491402cfef51","system_id":"levelo_inurba_marseille","lat":43.30807,"lon":5.38154,"is_reserved":false,"is_disabled":false,"rental_uris":{"android":"levelo://app?vid=eb59de61-6ae6-4e31-a824-491402cfef51","ios":"levelo://app?vid=eb59de61-6ae6-4e31-a824-491402cfef51"},"vehicle_type_id":"4","last_reported":1738138344,"current_range_meters":9600,"station_id":"ce4bgt12rcd13ifvqce0","pricing_plan_id":"cebpf4jnsgd1na2vs0mg"},{"bike_id":"c9242e06-810e-49f1-b440-56548629c43f","system_id":"levelo_inurba_marseille","lat":43.28408,"lon":5.37522,"is_reserved":false,"is_disabled":false,"rental_uris":{"android":"levelo://app?vid=c9242e06-810e-49f1-b440-56548629c43f","ios":"levelo://app?vid=c9242e06-810e-49f1-b440-56548629c43f"},"vehicle_type_id":"4","last_reported":1738138344,"current_range_meters":35600,"station_id":"ce4bh412rcd13ifvqds0","pricing_plan_id":"cebpf4jnsgd1na2vs0mg"},{"bike_id":"283c25d8-9fc5-495b-9825-5a72a68442bd","system_id":"levelo_inurba_marseille","lat":43.29249,"lon":5.40928,"is_reserved":false,"is_disabled":true,"rental_uris":{"android":"levelo://app?vid=283c25d8-9fc5-495b-9825-5a72a68442bd","ios":"levelo://app?vid=283c25d8-9fc5-495b-9825-5a72a68442bd"},"vehicle_type_id":"4","last_reported":1738138344,"current_range_meters":38000,"station_id":"ce4bh192rcd13ifvqdc0","pricing_plan_id":"cebpf4jnsgd1na2vs0mg"},{"bike_id":"61bff1fb-024f-42b1-9dd1-e5a3bdf564db","system_id":"levelo_inurba_marseille","lat":43.2669,"lon":5.38269,"is_reserved":false,"is_disabled":false,"rental_uris":{"android":"levelo://app?vid=61bff1fb-024f-42b1-9dd1-e5a3bdf564db","ios":"levelo://app?vid=61bff1fb-024f-42b1-9dd1-e5a3bdf564db"},"vehicle_type_id":"4","last_reported":1738138344,"current_range_meters":6800,"station_id":"ce4bhg92rcd13ifvqf90","pricing_plan_id":"cebpf4jnsgd1na2vs0mg"},{"bike_id":"e3e26aee-15e1-425c-a48f-db58aa520742","system_id":"levelo_inurba_marseille","lat":43.230635,"lon":5.354943,"is_reserved":false,"is_disabled":false,"rental_uris":{"android":"levelo://app?vid=e3e26aee-15e1-425c-a48f-db58aa520742","ios":"levelo://app?vid=e3e26aee-15e1-425c-a48f-db58aa520742"},"vehicle_type_id":"4","last_reported":1738138344,"current_range_meters":34800,"station_id":"cpo3342slgdg3j2ifvpg","pricing_plan_id":"cebpf4jnsgd1na2vs0mg"},{"bike_id":"566e23ec-1d41-4cca-b6b1-4c286a9b4684","system_id":"levelo_inurba_marseille","lat":43.25717,"lon":5.41117,"is_reserved":false,"is_disabled":false,"rental_uris":{"android":"levelo://app?vid=566e23ec-1d41-4cca-b6b1-4c286a9b4684","ios":"levelo://app?vid=566e23ec-1d41-4cca-b6b1-4c286a9b4684"},"vehicle_type_id":"4","last_reported":1738138344,"current_range_meters":38800,"station_id":"ce4bhkp2rcd13ifvqgd0","pricing_plan_id":"cebpf4jnsgd1na2vs0mg"},{"bike_id":"e6920bb2-f587-4df0-93b1-05a51bc6ef82","system_id":"levelo_inurba_marseille","lat":43.2756,"lon":5.38425,"is_reserved":false,"is_disabled":true,"rental_uris":{"android":"levelo://app?vid=e6920bb2-f587-4df0-93b1-05a51bc6ef82","ios":"levelo://app?vid=e6920bb2-f587-4df0-93b1-05a51bc6ef82"},"vehicle_type_id":"4","last_reported":1738138344,"current_range_meters":38000,"station_id":"ce4bhh92rcd13ifvqfi0","pricing_plan_id":"cebpf4jnsgd1na2vs0mg"},{"bike_id":"008429e0-dc1c-4e59-aa4f-57f86b05eef6","system_id":"levelo_inurba_marseille","lat":43.24082,"lon":5.37751,"is_reserved":false,"is_disabled":false,"rental_uris":{"android":"levelo://app?vid=008429e0-dc1c-4e59-aa4f-57f86b05eef6","ios":"levelo://app?vid=008429e0-dc1c-4e59-aa4f-57f86b05eef6"},"vehicle_type_id":"4","last_reported":1738138344,"current_range_meters":36400,"station_id":"ce4bhnp2rcd13ifvqgvg","pricing_plan_id":"cebpf4jnsgd1na2vs0mg"},{"bike_id":"df2653fe-4fdf-43fd-a7c1-0f1c8d8556c5","system_id":"levelo_inurba_marseille","lat":43.330196,"lon":5.390431,"is_reserved":false,"is_disabled":false,"rental_uris":{"android":"levelo://app?vid=df2653fe-4fdf-43fd-a7c1-0f1c8d8556c5","ios":"levelo://app?vid=df2653fe-4fdf-43fd-a7c1-0f1c8d8556c5"},"vehicle_type_id":"4","last_reported":1738138344,"current_range_meters":36800,"station_id":"ce4bhr92rcd13ifvqhrg","pricing_plan_id":"cebpf4jnsgd1na2vs0mg"},{"bike_id":"7c78a755-c7f5-4f07-a96b-621451d47948","system_id":"levelo_inurba_marseille","lat":43.29899,"lon":5.4367,"is_reserved":false,"is_disabled":false,"rental_uris":{"android":"levelo://app?vid=7c78a755-c7f5-4f07-a96b-621451d47948","ios":"levelo://app?vid=7c78a755-c7f5-4f07-a96b-621451d47948"},"vehicle_type_id":"4","last_reported":1738138344,"current_range_meters":19200,"station_id":"ce4bhpp2rcd13ifvqhfg","pricing_plan_id":"cebpf4jnsgd1na2vs0mg"},{"bike_id":"070e1a29-4fa8-4fbc-8021-88e998b5aa41","system_id":"levelo_inurba_marseille","lat":43.30793,"lon":5.3816,"is_reserved":false,"is_disabled":false,"rental_uris":{"android":"levelo://app?vid=070e1a29-4fa8-4fbc-8021-88e998b5aa41","ios":"levelo://app?vid=070e1a29-4fa8-4fbc-8021-88e998b5aa41"},"vehicle_type_id":"4","last_reported":1738138344,"current_range_meters":37600,"station_id":"ce4bgt12rcd13ifvqce0","pricing_plan_id":"cebpf4jnsgd1na2vs0mg"},{"bike_id":"3d1fcd99-fa1f-402d-be1e-7639922ccd47","system_id":"levelo_inurba_marseille","lat":43.2292,"lon":5.35391,"is_reserved":false,"is_disabled":false,"rental_uris":{"android":"levelo://app?vid=3d1fcd99-fa1f-402d-be1e-7639922ccd47","ios":"levelo://app?vid=3d1fcd99-fa1f-402d-be1e-7639922ccd47"},"vehicle_type_id":"4","last_reported":1738138344,"current_range_meters":38000,"station_id":"cpo3532slgdg3j2ikp40","pricing_plan_id":"cebpf4jnsgd1na2vs0mg"},{"bike_id":"2e37b0d2-8751-4445-aa1b-b3f8e099ffd5","system_id":"levelo_inurba_marseille","lat":43.28615,"lon":5.35108,"is_reserved":false,"is_disabled":true,"rental_uris":{"android":"levelo://app?vid=2e37b0d2-8751-4445-aa1b-b3f8e099ffd5","ios":"levelo://app?vid=2e37b0d2-8751-4445-aa1b-b3f8e099ffd5"},"vehicle_type_id":"4","last_reported":1738138344,"current_range_meters":34800,"station_id":"ce4bhch2rcd13ifvqeug","pricing_plan_id":"cebpf4jnsgd1na2vs0mg"},{"bike_id":"803e03d8-7d2e-4feb-ac46-774902d16dee","system_id":"levelo_inurba_marseille","lat":43.33731,"lon":5.37442,"is_reserved":false,"is_disabled":true,"rental_uris":{"android":"levelo://app?vid=803e03d8-7d2e-4feb-ac46-774902d16dee","ios":"levelo://app?vid=803e03d8-7d2e-4feb-ac46-774902d16dee"},"vehicle_type_id":"4","last_reported":1738138344,"current_range_meters":34800,"station_id":"","pricing_plan_id":"cebpf4jnsgd1na2vs0mg"},{"bike_id":"9a71b288-309d-4f57-b5bb-981ea81914d0","system_id":"levelo_inurba_marseille","lat":43.30947,"lon":5.39042,"is_reserved":false,"is_disabled":false,"rental_uris":{"android":"levelo://app?vid=9a71b288-309d-4f57-b5bb-981ea81914d0","ios":"levelo://app?vid=9a71b288-309d-4f57-b5bb-981ea81914d0"},"vehicle_type_id":"4","last_reported":1738138344,"current_range_meters":37600,"station_id":"ce4bgup2rcd13ifvqco0","pricing_plan_id":"cebpf4jnsgd1na2vs0mg"},{"bike_id":"ff1e303e-f01b-45b4-953d-3439c6552787","system_id":"levelo_inurba_marseille","lat":43.26928,"lon":5.40271,"is_reserved":false,"is_disabled":false,"rental_uris":{"android":"levelo://app?vid=ff1e303e-f01b-45b4-953d-3439c6552787","ios":"levelo://app?vid=ff1e303e-f01b-45b4-953d-3439c6552787"},"vehicle_type_id":"4","last_reported":1738138344,"current_range_meters":30000,"station_id":"cjm6bp8fraef2m0cb0m0","pricing_plan_id":"cebpf4jnsgd1na2vs0mg"},{"bike_id":"6d1da78d-00cf-4bf6-8937-cad8764c7ccc","system_id":"levelo_inurba_marseille","lat":43.30316,"lon":5.36896,"is_reserved":false,"is_disabled":false,"rental_uris":{"android":"levelo://app?vid=6d1da78d-00cf-4bf6-8937-cad8764c7ccc","ios":"levelo://app?vid=6d1da78d-00cf-4bf6-8937-cad8764c7ccc"},"vehicle_type_id":"4","last_reported":1738138344,"current_range_meters":12000,"station_id":"ce4bgqh2rcd13ifvqc5g","pricing_plan_id":"cebpf4jnsgd1na2vs0mg"},{"bike_id":"3622e152-b5be-42cb-bc60-3cf0f1d519df","system_id":"levelo_inurba_marseille","lat":43.26679,"lon":5.38274,"is_reserved":false,"is_disabled":false,"rental_uris":{"android":"levelo://app?vid=3622e152-b5be-42cb-bc60-3cf0f1d519df","ios":"levelo://app?vid=3622e152-b5be-42cb-bc60-3cf0f1d519df"},"vehicle_type_id":"4","last_reported":1738138344,"current_range_meters":38800,"station_id":"ce4bhg92rcd13ifvqf90","pricing_plan_id":"cebpf4jnsgd1na2vs0mg"},{"bike_id":"0348ff12-8127-4c06-a3d6-820f8fb6f27c","system_id":"levelo_inurba_marseille","lat":43.32658,"lon":5.40992,"is_reserved":false,"is_disabled":false,"rental_uris":{"android":"levelo://app?vid=0348ff12-8127-4c06-a3d6-820f8fb6f27c","ios":"levelo://app?vid=0348ff12-8127-4c06-a3d6-820f8fb6f27c"},"vehicle_type_id":"4","last_reported":1738138344,"current_range_meters":14400,"station_id":"ce4bhpp2rcd13ifvqhgg","pricing_plan_id":"cebpf4jnsgd1na2vs0mg"},{"bike_id":"febbc295-4da8-48b1-9fb0-05537ebfd738","system_id":"levelo_inurba_marseille","lat":43.28854,"lon":5.35859,"is_reserved":false,"is_disabled":false,"rental_uris":{"android":"levelo://app?vid=febbc295-4da8-48b1-9fb0-05537ebfd738","ios":"levelo://app?vid=febbc295-4da8-48b1-9fb0-05537ebfd738"},"vehicle_type_id":"4","last_reported":1738138344,"current_range_meters":34000,"station_id":"ce4bhb12rcd13ifvqem0","pricing_plan_id":"cebpf4jnsgd1na2vs0mg"},{"bike_id":"2b833396-ff25-4e46-9295-e03dc3a4726d","system_id":"levelo_inurba_marseille","lat":43.32484,"lon":5.36547,"is_reserved":false,"is_disabled":true,"rental_uris":{"android":"levelo://app?vid=2b833396-ff25-4e46-9295-e03dc3a4726d","ios":"levelo://app?vid=2b833396-ff25-4e46-9295-e03dc3a4726d"},"vehicle_type_id":"4","last_reported":1738138344,"current_range_meters":38800,"station_id":"ce4bhs12rcd13ifvqhvg","pricing_plan_id":"cebpf4jnsgd1na2vs0mg"},{"bike_id":"b6fcfd6f-9561-46a7-99a5-b51e485d4593","system_id":"levelo_inurba_marseille","lat":43.30173,"lon":5.3808,"is_reserved":false,"is_disabled":false,"rental_uris":{"android":"levelo://app?vid=b6fcfd6f-9561-46a7-99a5-b51e485d4593","ios":"levelo://app?vid=b6fcfd6f-9561-46a7-99a5-b51e485d4593"},"vehicle_type_id":"4","last_reported":1738138344,"current_range_meters":30800,"station_id":"ce4bgjp2rcd13ifvqbh0","pricing_plan_id":"cebpf4jnsgd1na2vs0mg"},{"bike_id":"90788ee8-b849-42ca-8c9c-22d4914a79d3","system_id":"levelo_inurba_marseille","lat":43.239676,"lon":5.366308,"is_reserved":false,"is_disabled":false,"rental_uris":{"android":"levelo://app?vid=90788ee8-b849-42ca-8c9c-22d4914a79d3","ios":"levelo://app?vid=90788ee8-b849-42ca-8c9c-22d4914a79d3"},"vehicle_type_id":"4","last_reported":1738138344,"current_range_meters":22400,"station_id":"ce4bhi12rcd13ifvqfp0","pricing_plan_id":"cebpf4jnsgd1na2vs0mg"},{"bike_id":"d7659b89-3769-4aaf-aa29-91b38e2083d0","system_id":"levelo_inurba_marseille","lat":43.29548,"lon":5.42285,"is_reserved":false,"is_disabled":false,"rental_uris":{"android":"levelo://app?vid=d7659b89-3769-4aaf-aa29-91b38e2083d0","ios":"levelo://app?vid=d7659b89-3769-4aaf-aa29-91b38e2083d0"},"vehicle_type_id":"4","last_reported":1738138344,"current_range_meters":38800,"station_id":"ce4bhph2rcd13ifvqhdg","pricing_plan_id":"cebpf4jnsgd1na2vs0mg"},{"bike_id":"8377ccb7-6fb2-48fe-860b-156b8e56f003","system_id":"levelo_inurba_marseille","lat":43.30532,"lon":5.36699,"is_reserved":false,"is_disabled":false,"rental_uris":{"android":"levelo://app?vid=8377ccb7-6fb2-48fe-860b-156b8e56f003","ios":"levelo://app?vid=8377ccb7-6fb2-48fe-860b-156b8e56f003"},"vehicle_type_id":"4","last_reported":1738138344,"current_range_meters":6800,"station_id":"ce4bgrp2rcd13ifvqc9g","pricing_plan_id":"cebpf4jnsgd1na2vs0mg"},{"bike_id":"ec744582-7082-420f-84f5-02f28399d1ab","system_id":"levelo_inurba_marseille","lat":43.29093,"lon":5.38133,"is_reserved":false,"is_disabled":false,"rental_uris":{"android":"levelo://app?vid=ec744582-7082-420f-84f5-02f28399d1ab","ios":"levelo://app?vid=ec744582-7082-420f-84f5-02f28399d1ab"},"vehicle_type_id":"4","last_reported":1738138344,"current_range_meters":32400,"station_id":"ce4bh512rcd13ifvqe2g","pricing_plan_id":"cebpf4jnsgd1na2vs0mg"},{"bike_id":"85af6c92-372c-4cd2-84da-c4ec61fa470d","system_id":"levelo_inurba_marseille","lat":43.25698,"lon":5.41109,"is_reserved":false,"is_disabled":true,"rental_uris":{"android":"levelo://app?vid=85af6c92-372c-4cd2-84da-c4ec61fa470d","ios":"levelo://app?vid=85af6c92-372c-4cd2-84da-c4ec61fa470d"},"vehicle_type_id":"4","last_reported":1738138344,"current_range_meters":38000,"station_id":"ce4bhkp2rcd13ifvqgd0","pricing_plan_id":"cebpf4jnsgd1na2vs0mg"},