{"last_updated":1727780879,"ttl":60,"version":"2.2","data":{"bikes":[{"bike_id":"4d3cd05f-bdaf-46df-aa6a-2f774239d020","system_id":"levelo_inurba_marseille","lat":43.24389,"lon":5.37061,"is_reserved":false,"is_disabled":false,"rental_uris":{"android":"levelo://app?vid=4d3cd05f-bdaf-46df-aa6a-2f774239d020","ios":"levelo://app?vid=4d3cd05f-bdaf-46df-aa6a-2f774239d020"},"vehicle_type_id":"4","last_reported":1727780879,"current_range_meters":18000,"station_id":"ce4bhhh2rcd13ifvqfk0","pricing_plan_id":"cebpf4jnsgd1na2vs0mg"},{"bike_id":"45278508-ffed-42b8-b0fa-7766eabb2075","system_id":"levelo_inurba_marseille","lat":43.34144,"lon":5.40907,"is_reserved":false,"is_disabled":false,"rental_uris":{"android":"levelo://app?vid=45278508-ffed-42b8-b0fa-7766eabb2075","ios":"levelo://app?vid=45278508-ffed-42b8-b0fa-7766eabb2075"},"vehicle_type_id":"4","last_reported":1727780879,"current_range_meters":38800,"station_id":"ce4bhqh2rcd13ifvqhlg","pricing_plan_id":"cebpf4jnsgd1na2vs0mg"},{"bike_id":"39e868df-b4f6-467d-877e-948a1de5ed66","system_id":"levelo_inurba_marseille","lat":43.30954,"lon":5.39033,"is_reserved":false,"is_disabled":false,"rental_uris":{"android":"levelo://app?vid=39e868df-b4f6-467d-877e-948a1de5ed66","ios":"levelo://app?vid=39e868df-b4f6-467d-877e-948a1de5ed66"},"vehicle_type_id":"4","last_reported":1727780879,"current_range_meters":37600,"station_id":"ce4bgup2rcd13ifvqco0","pricing_plan_id":"cebpf4jnsgd1na2vs0mg"},{"bike_id":"dad62afc-f55e-4d7d-8a4c-c944cff61821","system_id":"levelo_inurba_marseille","lat":43.24395,"lon":5.37049,"is_reserved":false,"is_disabled":false,"rental_uris":{"android":"levelo://app?vid=dad62afc-f55e-4d7d-8a4c-c944cff61821","ios":"levelo://app?vid=dad62afc-f55e-4d7d-8a4c-c944cff61821"},"vehicle_type_id":"4","last_reported":1727780879,"current_range_meters":32000,"station_id":"ce4bhhh2rcd13ifvqfk0","pricing_plan_id":"cebpf4jnsgd1na2vs0mg"},{"bike_id":"5a6eba01-baf1-4971-8516-61fa988340cb","system_id":"levelo_inurba_marseille","lat":43.34143,"lon":5.40909,"is_reserved":false,"is_disabled":false,"rental_uris":{"android":"levelo://app?vid=5a6eba01-baf1-4971-8516-61fa988340cb","ios":"levelo://app?vid=5a6eba01-baf1-4971-8516-61fa988340cb"},"vehicle_type_id":"4","last_reported":1727780879,"current_range_meters":30000,"station_id":"ce4bhqh2rcd13ifvqhlg","pricing_plan_id":"cebpf4jnsgd1na2vs0mg"},{"bike_id":"4e94225f-8fb8-4cc8-a30e-3b7edaea1e7c","system_id":"levelo_inurba_marseille","lat":43.29907,"lon":5.38148,"is_reserved":false,"is_disabled":false,"rental_uris":{"android":"levelo://app?vid=4e94225f-8fb8-4cc8-a30e-3b7edaea1e7c","ios":"levelo://app?vid=4e94225f-8fb8-4cc8-a30e-3b7edaea1e7c"},"vehicle_type_id":"4","last_reported":1727780879,"current_range_meters":38000,"station_id":"ce4bgj12rcd13ifvqbc0","pricing_plan_id":"cebpf4jnsgd1na2vs0mg"},{"bike_id":"513c5bd8-bf1f-4410-a827-c1858341840c","system_id":"levelo_inurba_marseille","lat":43.24367,"lon":5.37059,"is_reserved":false,"is_disabled":false,"rental_uris":{"android":"levelo://app?vid=513c5bd8-bf1f-4410-a827-c1858341840c","ios":"levelo://app?vid=513c5bd8-bf1f-4410-a827-c1858341840c"},"vehicle_type_id":"4","last_reported":1727780879,"current_range_meters":28800,"station_id":"ce4bhhh2rcd13ifvqfk0","pricing_plan_id":"cebpf4jnsgd1na2vs0mg"},{"bike_id":"f7ab1ff5-e3c9-48ef-bb52-3f7e8d2513a3","system_id":"levelo_inurba_marseille","lat":43.30549,"lon":5.36712,"is_reserved":false,"is_disabled":false,"rental_uris":{"android":"levelo://app?vid=f7ab1ff5-e3c9-48ef-bb52-3f7e8d2513a3","ios":"levelo://app?vid=f7ab1ff5-e3c9-48ef-bb52-3f7e8d2513a3"},"vehicle_type_id":"4","last_reported":1727780879,"current_range_meters":6800,"station_id":"ce4bgrp2rcd13ifvqc9g","pricing_plan_id":"cebpf4jnsgd1na2vs0mg"},{"bike_id":"e39cd14c-8b36-4b04-b3ec-ba549a5d990e","system_id":"levelo_inurba_marseille","lat":43.29554,"lon":5.42294,"is_reserved":false,"is_disabled":false,"rental_uris":{"android":"levelo://app?vid=e39cd14c-8b36-4b04-b3ec-ba549a5d990e","ios":"levelo://app?vid=e39cd14c-8b36-4b04-b3ec-ba549a5d990e"},"vehicle_type_id":"4","last_reported":1727780879,"current_range_meters":16000,"station_id":"ce4bhph2rcd13ifvqhdg","pricing_plan_id":"cebpf4jnsgd1na2vs0mg"},{"bike_id":"89a04316-5fe6-4814-b577-c2af214f628a","system_id":"levelo_inurba_marseille","lat":43.31338,"lon":5.36705,"is_reserved":false,"is_disabled":false,"rental_uris":{"android":"levelo://app?vid=89a04316-5fe6-4814-b577-c2af214f628a","ios":"levelo://app?vid=89a04316-5fe6-4814-b577-c2af214f628a"},"vehicle_type_id":"4","last_reported":1727780879,"current_range_meters":17200,"station_id":"ce4bgr92rcd13ifvqc6g","pricing_plan_id":"cebpf4jnsgd1na2vs0mg"},{"bike_id":"0c3b723f-b32d-48f9-93bc-a349acfec5b6","system_id":"levelo_inurba_marseille","lat":43.27216,"lon":5.39183,"is_reserved":false,"is_disabled":false,"rental_uris":{"android":"levelo://app?vid=0c3b723f-b32d-48f9-93bc-a349acfec5b6","ios":"levelo://app?vid=0c3b723f-b32d-48f9-93bc-a349acfec5b6"},"vehicle_type_id":"4","last_reported":1727780879,"current_range_meters":30000,"station_id":"ce4bhhp2rcd13ifvqfm0","pricing_plan_id":"cebpf4jnsgd1na2vs0mg"},{"bike_id":"96fc2d61-401a-4679-b3d0-fe240de168f4","system_id":"levelo_inurba_marseille","lat":43.33751,"lon":5.37461,"is_reserved":false,"is_disabled":false,"rental_uris":{"android":"levelo://app?vid=96fc2d61-401a-4679-b3d0-fe240de168f4","ios":"levelo://app?vid=96fc2d61-401a-4679-b3d0-fe240de168f4"},"vehicle_type_id":"4","last_reported":1727780879,"current_range_meters":17200,"station_id":"","pricing_plan_id":"cebpf4jnsgd1na2vs0mg"},{"bike_id":"2cd5cf64-7bd7-44fb-8824-407a58c677f2","system_id":"levelo_inurba_marseille","lat":43.29913,"lon":5.37472,"is_reserved":false,"is_disabled":false,"rental_uris":{"android":"levelo://app?vid=2cd5cf64-7bd7-44fb-8824-407a58c677f2","ios":"levelo://app?vid=2cd5cf64-7bd7-44fb-8824-407a58c677f2"},"vehicle_type_id":"4","last_reported":1727780879,"current_range_meters":28000,"station_id":"ce4bgjh2rcd13ifvqbg0","pricing_plan_id":"cebpf4jnsgd1na2vs0mg"},{"bike_id":"b8ea7785-ba07-472f-81b2-503a6c60d551","system_id":"levelo_inurba_marseille","lat":43.24672,"lon":5.38169,"is_reserved":false,"is_disabled":false,"rental_uris":{"android":"levelo://app?vid=b8ea7785-ba07-472f-81b2-503a6c60d551","ios":"levelo://app?vid=b8ea7785-ba07-472f-81b2-503a6c60d551"},"vehicle_type_id":"4","last_reported":1727780879,"current_range_meters":7200,"station_id":"ce4bhih2rcd13ifvqfr0","pricing_plan_id":"cebpf4jnsgd1na2vs0mg"},{"bike_id":"abde54f6-464d-43c2-9eee-fac0b022a410","system_id":"levelo_inurba_marseille","lat":43.2957,"lon":5.37508,"is_reserved":false,"is_disabled":false,"rental_uris":{"android":"levelo://app?vid=abde54f6-464d-43c2-9eee-fac0b022a410","ios":"levelo://app?vid=abde54f6-464d-43c2-9eee-fac0b022a410"},"vehicle_type_id":"4","last_reported":1727780879,"current_range_meters":39200,"station_id":"ce4bgh92rcd13ifvqb50","pricing_plan_id":"cebpf4jnsgd1na2vs0mg"},{"bike_id":"9e03787a-2278-4bc0-9f90-d1b5cb4d5e8e","system_id":"levelo_inurba_marseille","lat":43.30536,"lon":5.36535,"is_reserved":false,"is_disabled":false,"rental_uris":{"android":"levelo://app?vid=9e03787a-2278-4bc0-9f90-d1b5cb4d5e8e","ios":"levelo://app?vid=9e03787a-2278-4bc0-9f90-d1b5cb4d5e8e"},"vehicle_type_id":"4","last_reported":1727780879,"current_range_meters":35600,"station_id":"ce4bgs12rcd13ifvqcag","pricing_plan_id":"cebpf4jnsgd1na2vs0mg"},{"bike_id":"30322b61-cab6-4576-a77a-bf40bbfe107b","system_id":"levelo_inurba_marseille","lat":43.296,"lon":5.381,"is_reserved":false,"is_disabled":false,"rental_uris":{"android":"levelo://app?vid=30322b61-cab6-4576-a77a-bf40bbfe107b","ios":"levelo://app?vid=30322b61-cab6-4576-a77a-bf40bbfe107b"},"vehicle_type_id":"4","last_reported":1727780879,"current_range_meters":20400,"station_id":"ce4bgl12rcd13ifvqbo0","pricing_plan_id":"cebpf4jnsgd1na2vs0mg"},{"bike_id":"74dcd09d-9212-4b44-9964-c7ba6bc4fdfc","system_id":"levelo_inurba_marseille","lat":43.25943,"lon":5.40905,"is_reserved":false,"is_disabled":false,"rental_uris":{"android":"levelo://app?vid=74dcd09d-9212-4b44-9964-c7ba6bc4fdfc","ios":"levelo://app?vid=74dcd09d-9212-4b44-9964-c7ba6bc4fdfc"},"vehicle_type_id":"4","last_reported":1727780879,"current_range_meters":30000,"station_id":"ce4bhm92rcd13ifvqglg","pricing_plan_id":"cebpf4jnsgd1na2vs0mg"},{"bike_id":"17a80a33-3097-4e51-92ad-4b617da8a0d7","system_id":"levelo_inurba_marseille","lat":43.23195,"lon":5.35553,"is_reserved":false,"is_disabled":false,"rental_uris":{"android":"levelo://app?vid=17a80a33-3097-4e51-92ad-4b617da8a0d7","ios":"levelo://app?vid=17a80a33-3097-4e51-92ad-4b617da8a0d7"},"vehicle_type_id":"4","last_reported":1727780879,"current_range_meters":14000,"station_id":"ce4bhu92rcd13ifvqi70","pricing_plan_id":"cebpf4jnsgd1na2vs0mg"},{"bike_id":"67c1bfe5-10f3-4059-94b7-68d0e2f0c2eb","system_id":"levelo_inurba_marseille","lat":43.26055,"lon":5.39401,"is_reserved":false,"is_disabled":false,"rental_uris":{"android":"levelo://app?vid=67c1bfe5-10f3-4059-94b7-68d0e2f0c2eb","ios":"levelo://app?vid=67c1bfe5-10f3-4059-94b7-68d0e2f0c2eb"},"vehicle_type_id":"4","last_reported":1727780879,"current_range_meters":29600,"station_id":"ce4bhh92rcd13ifvqfj0","pricing_plan_id":"cebpf4jnsgd1na2vs0mg"},{"bike_id":"068b2f9a-ba2d-481e-a87a-d34831ca26cb","system_id":"levelo_inurba_marseille","lat":43.30161,"lon":5.3808,"is_reserved":false,"is_disabled":false,"rental_uris":{"android":"levelo://app?vid=068b2f9a-ba2d-481e-a87a-d34831ca26cb","ios":"levelo://app?vid=068b2f9a-ba2d-481e-a87a-d34831ca26cb"},"vehicle_type_id":"4","last_reported":1727780879,"current_range_meters":24400,"station_id":"ce4bgjp2rcd13ifvqbh0","pricing_plan_id":"cebpf4jnsgd1na2vs0mg"},{"bike_id":"cda7da42-3b1a-4306-ac4b-c0997b8af557","system_id":"levelo_inurba_marseille","lat":43.33026,"lon":5.39037,"is_reserved":false,"is_disabled":false,"rental_uris":{"android":"levelo://app?vid=cda7da42-3b1a-4306-ac4b-c0997b8af557","ios":"levelo://app?vid=cda7da42-3b1a-4306-ac4b-c0997b8af557"},"vehicle_type_id":"4","last_reported":1727780879,"current_range_meters":16400,"station_id":"ce4bhr92rcd13ifvqhrg","pricing_plan_id":"cebpf4jnsgd1na2vs0mg"},{"bike_id":"67971196-7a2f-4541-928e-d72a0c5995eb","system_id":"levelo_inurba_marseille","lat":43.28039,"lon":5.36952,"is_reserved":false,"is_disabled":false,"rental_uris":{"android":"levelo://app?vid=67971196-7a2f-4541-928e-d72a0c5995eb","ios":"levelo://app?vid=67971196-7a2f-4541-928e-d72a0c5995eb"},"vehicle_type_id":"4","last_reported":1727780879,"current_range_meters":24400,"station_id":"ce4bha12rcd13ifvqef0","pricing_plan_id":"cebpf4jnsgd1na2vs0mg"},{"bike_id":"7bff6a2b-d55c-40ba-ac8d-db07cec1417d","system_id":"levelo_inurba_marseille","lat":43.279694,"lon":5.382729,"is_reserved":false,"is_disabled":false,"rental_uris":{"android":"levelo://app?vid=7bff6a2b-d55c-40ba-ac8d-db07cec1417d","ios":"levelo://app?vid=7bff6a2b-d55c-40ba-ac8d-db07cec1417d"},"vehicle_type_id":"4","last_reported":1727780879,"current_range_meters":38800,"station_id":"","pricing_plan_id":"cebpf4jnsgd1na2vs0mg"},{"bike_id":"8b6093db-3634-446a-b668-55835c0dbcfb","system_id":"levelo_inurba_marseille","lat":43.2593,"lon":5.40909,"is_reserved":false,"is_disabled":false,"rental_uris":{"android":"levelo://app?vid=8b6093db-3634-446a-b668-55835c0dbcfb","ios":"levelo://app?vid=8b6093db-3634-446a-b668-55835c0dbcfb"},"vehicle_type_id":"4","last_reported":1727780879,"current_range_meters":4800,"station_id":"ce4bhm92rcd13ifvqglg","pricing_plan_id":"cebpf4jnsgd1na2vs0mg"},{"bike_id":"c27c4c99-511d-4fdd-b6db-07e1683bac2f","system_id":"levelo_inurba_marseille","lat":43.2997,"lon":5.37181,"is_reserved":false,"is_disabled":false,"rental_uris":{"android":"levelo://app?vid=c27c4c99-511d-4fdd-b6db-07e1683bac2f","ios":"levelo://app?vid=c27c4c99-511d-4fdd-b6db-07e1683bac2f"},"vehicle_type_id":"4","last_reported":1727780879,"current_range_meters":33600,"station_id":"ce4bgr92rcd13ifvqc7g","pricing_plan_id":"cebpf4jnsgd1na2vs0mg"},{"bike_id":"8f62d7b4-8345-4360-8d20-129e3f9a0c8e","system_id":"levelo_inurba_marseille","lat":43.26956,"lon":5.38639,"is_reserved":false,"is_disabled":false,"rental_uris":{"android":"levelo://app?vid=8f62d7b4-8345-4360-8d20-129e3f9a0c8e","ios":"levelo://app?vid=8f62d7b4-8345-4360-8d20-129e3f9a0c8e"},"vehicle_type_id":"4","last_reported":1727780879,"current_range_meters":14800,"station_id":"ce4bhh92rcd13ifvqfh0","pricing_plan_id":"cebpf4jnsgd1na2vs0mg"},{"bike_id":"d8b2bc7f-43dd-48e5-8981-9aa479d43f70","system_id":"levelo_inurba_marseille","lat":43.30461,"lon":5.37897,"is_reserved":false,"is_disabled":false,"rental_uris":{"android":"levelo://app?vid=d8b2bc7f-43dd-48e5-8981-9aa479d43f70","ios":"levelo://app?vid=d8b2bc7f-43dd-48e5-8981-9aa479d43f70"},"vehicle_type_id":"4","last_reported":1727780879,"current_range_meters":6800,"station_id":"ce4bgup2rcd13ifvqcn0","pricing_plan_id":"cebpf4jnsgd1na2vs0mg"},{"bike_id":"d0a3c08a-a0b1-4104-af96-c3be99ac7bfd","system_id":"levelo_inurba_marseille","lat":43.27329,"lon":5.39072,"is_reserved":false,"is_disabled":false,"rental_uris":{"android":"levelo://app?vid=d0a3c08a-a0b1-4104-af96-c3be99ac7bfd","ios":"levelo://app?vid=d0a3c08a-a0b1-4104-af96-c3be99ac7bfd"},"vehicle_type_id":"4","last_reported":1727780879,"current_range_meters":9200,"station_id":"ce4bhgp2rcd13ifvqfe0","pricing_plan_id":"cebpf4jnsgd1na2vs0mg"},{"bike_id":"d8b58681-9556-4640-a208-d91d0fc1bcc2","system_id":"levelo_inurba_marseille","lat":43.30149,"lon":5.38083,"is_reserved":false,"is_disabled":false,"rental_uris":{"android":"levelo://app?vid=d8b58681-9556-4640-a208-d91d0fc1bcc2","ios":"levelo://app?vid=d8b58681-9556-4640-a208-d91d0fc1bcc2"},"vehicle_type_id":"4","last_reported":1727780879,"current_range_meters":8400,"station_id":"ce4bgjp2rcd13ifvqbh0","pricing_plan_id":"cebpf4jnsgd1na2vs0mg"},{"bike_id":"2b6be98c-0fee-4037-aed8-3be12dc156cf","system_id":"levelo_inurba_marseille","lat":43.29299,"lon":5.37462,"is_reserved":false,"is_disabled":false,"rental_uris":{"android":"levelo://app?vid=2b6be98c-0fee-4037-aed8-3be12dc156cf","ios":"levelo://app?vid=2b6be98c-0fee-4037-aed8-3be12dc156cf"},"vehicle_type_id":"4","last_reported":1727780879,"current_range_meters":28400,"station_id":"ce4bgi12rcd13ifvqb70","pricing_plan_id":"cebpf4jnsgd1na2vs0mg"},{"bike_id":"572d0a0d-e318-44d6-82a8-0de20249403c","system_id":"levelo_inurba_marseille","lat":43.28104,"lon":5.37843,"is_reserved":false,"is_disabled":false,"rental_uris":{"android":"levelo://app?vid=572d0a0d-e318-44d6-82a8-0de20249403c","ios":"levelo://app?vid=572d0a0d-e318-44d6-82a8-0de20249403c"},"vehicle_type_id":"4","last_reported":1727780879,"current_range_meters":14800,"station_id":"ce4bha12rcd13ifvqee0","pricing_plan_id":"cebpf4jnsgd1na2vs0mg"},{"bike_id":"df4de816-b1f0-4e9d-a7ae-a0e40c597628","system_id":"levelo_inurba_marseille","lat":43.29795,"lon":5.37109,"is_reserved":false,"is_disabled":false,"rental_uris":{"android":"levelo://app?vid=df4de816-b1f0-4e9d-a7ae-a0e40c597628","ios":"levelo://app?vid=df4de816-b1f0-4e9d-a7ae-a0e40c597628"},"vehicle_type_id":"4","last_reported":1727780879,"current_range_meters":38800,"station_id":"ce4bgop2rcd13ifvqc1g","pricing_plan_id":"cebpf4jnsgd1na2vs0mg"},{"bike_id":"cf0f56f0-b7e6-4383-adfd-de35192eb21a","system_id":"levelo_inurba_marseille","lat":43.292288,"lon":5.360682,"is_reserved":false,"is_disabled":false,"rental_uris":{"android":"levelo://app?vid=cf0f56f0-b7e6-4383-adfd-de35192eb21a","ios":"levelo://app?vid=cf0f56f0-b7e6-4383-adfd-de35192eb21a"},"vehicle_type_id":"4","last_reported":1727780879,"current_range_meters":32000,"station_id":"ce4bhbh2rcd13ifvqeqg","pricing_plan_id":"cebpf4jnsgd1na2vs0mg"},{"bike_id":"1dcdcf5f-3bcb-4a0d-b1b8-2ae7e82479ef","system_id":"levelo_inurba_marseille","lat":43.23149,"lon":5.43711,"is_reserved":false,"is_disabled":false,"rental_uris":{"android":"levelo://app?vid=1dcdcf5f-3bcb-4a0d-b1b8-2ae7e82479ef","ios":"levelo://app?vid=1dcdcf5f-3bcb-4a0d-b1b8-2ae7e82479ef"},"vehicle_type_id":"4","last_reported":1727780879,"current_range_meters":18000,"station_id":"ce4bhmp2rcd13ifvqgog","pricing_plan_id":"cebpf4jnsgd1na2vs0mg"},{"bike_id":"4ff78b03-5f77-4417-b002-f0630bdf39d5","system_id":"levelo_inurba_marseille","lat":43.28628,"lon":5.3847,"is_reserved":false,"is_disabled":false,"rental_uris":{"android":"levelo://app?vid=4ff78b03-5f77-4417-b002-f0630bdf39d5","ios":"levelo://app?vid=4ff78b03-5f77-4417-b002-f0630bdf39d5"},"vehicle_type_id":"4","last_reported":1727780879,"current_range_meters":4800,"station_id":"","pricing_plan_id":"cebpf4jnsgd1na2vs0mg"},{"bike_id":"61655881-16c9-4131-ab8d-8f63c999894c","system_id":"levelo_inurba_marseille","lat":43.30556,"lon":5.36546,"is_reserved":false,"is_disabled":false,"rental_uris":{"android":"levelo://app?vid=61655881-16c9-4131-ab8d-8f63c999894c","ios":"levelo://app?vid=61655881-16c9-4131-ab8d-8f63c999894c"},"vehicle_type_id":"4","last_reported":1727780879,"current_range_meters":39200,"station_id":"ce4bgs12rcd13ifvqcag","pricing_plan_id":"cebpf4jnsgd1na2vs0mg"},{"bike_id":"5e7c9ca1-667d-4eae-88e1-e28e738f1ee2","system_id":"levelo_inurba_marseille","lat":43.28331,"lon":5.38121,"is_reserved":false,"is_disabled":false,"rental_uris":{"android":"levelo://app?vid=5e7c9ca1-667d-4eae-88e1-e28e738f1ee2","ios":"levelo://app?vid=5e7c9ca1-667d-4eae-88e1-e28e738f1ee2"},"vehicle_type_id":"4","last_reported":1727780879,"current_range_meters":20000,"station_id":"ce4bh412rcd13ifvqdr0","pricing_plan_id":"cebpf4jnsgd1na2vs0mg"},{"bike_id":"e6332187-96ca-4d21-874e-2296cd0a4a57","system_id":"levelo_inurba_marseille","lat":43.27207,"lon":5.39188,"is_reserved":false,"is_disabled":false,"rental_uris":{"android":"levelo://app?vid=e6332187-96ca-4d21-874e-2296cd0a4a57","ios":"levelo://app?vid=e6332187-96ca-4d21-874e-2296cd0a4a57"},"vehicle_type_id":"4","last_reported":1727780879,"current_range_meters":9200,"station_id":"ce4bhhp2rcd13ifvqfm0","pricing_plan_id":"cebpf4jnsgd1na2vs0mg"},{"bike_id":"339388e8-ee6b-4b29-9911-0612c4420461","system_id":"levelo_inurba_marseille","lat":43.337444,"lon":5.374475,"is_reserved":false,"is_disabled":false,"rental_uris":{"android":"levelo://app?vid=339388e8-ee6b-4b29-9911-0612c4420461","ios":"levelo://app?vid=339388e8-ee6b-4b29-9911-0612c4420461"},"vehicle_type_id":"4","last_reported":1727780879,"current_range_meters":36800,"station_id":"","pricing_plan_id":"cebpf4jnsgd1na2vs0mg"},{"bike_id":"040c0dee-6f56-4696-bc60-b436e0337a3a","system_id":"levelo_inurba_marseille","lat":43.3019,"lon":5.36631,"is_reserved":false,"is_disabled":false,"rental_uris":{"android":"levelo://app?vid=040c0dee-6f56-4696-bc60-b436e0337a3a","ios":"levelo://app?vid=040c0dee-6f56-4696-bc60-b436e0337a3a"},"vehicle_type_id":"4","last_reported":1727780879,"current_range_meters":27600,"station_id":"ce4bgrh2rcd13ifvqc8g","pricing_plan_id":"cebpf4jnsgd1na2vs0mg"},{"bike_id":"7fb5d065-2ef8-4492-8b6f-c63a16373982","system_id":"levelo_inurba_marseille","lat":43.30538,"lon":5.36535,"is_reserved":false,"is_disabled":false,"rental_uris":{"android":"levelo://app?vid=7fb5d065-2ef8-4492-8b6f-c63a16373982","ios":"levelo://app?vid=7fb5d065-2ef8-4492-8b6f-c63a16373982"},"vehicle_type_id":"4","last_reported":1727780879,"current_range_meters":38800,"station_id":"ce4bgs12rcd13ifvqcag","pricing_plan_id":"cebpf4jnsgd1na2vs0mg"},{"bike_id":"50670072-f4eb-4dbf-9f1b-e25db6936613","system_id":"levelo_inurba_marseille","lat":43.29887,"lon":5.38891,"is_reserved":false,"is_disabled":false,"rental_uris":{"android":"levelo://app?vid=50670072-f4eb-4dbf-9f1b-e25db6936613","ios":"levelo://app?vid=50670072-f4eb-4dbf-9f1b-e25db6936613"},"vehicle_type_id":"4","last_reported":1727780879,"current_range_meters":32400,"station_id":"ce4bh392rcd13ifvqdl0","pricing_plan_id":"cebpf4jnsgd1na2vs0mg"},{"bike_id":"5bdc1fa4-140d-433c-819d-10b9de658c4f","system_id":"levelo_inurba_marseille","lat":43.26036,"lon":5.37549,"is_reserved":false,"is_disabled":false,"rental_uris":{"android":"levelo://app?vid=5bdc1fa4-140d-433c-819d-10b9de658c4f","ios":"levelo://app?vid=5bdc1fa4-140d-433c-819d-10b9de658c4f"},"vehicle_type_id":"4","last_reported":1727780879,"current_range_meters":25200,"station_id":"ce4bhgh2rcd13ifvqfa0","pricing_plan_id":"cebpf4jnsgd1na2vs0mg"},{"bike_id":"f8f20fa6-f1d5-43f8-9c31-1ab159b24e4b","system_id":"levelo_inurba_marseille","lat":43.29623,"lon":5.37161,"is_reserved":false,"is_disabled":false,"rental_uris":{"android":"levelo://app?vid=f8f20fa6-f1d5-43f8-9c31-1ab159b24e4b","ios":"levelo://app?vid=f8f20fa6-f1d5-43f8-9c31-1ab159b24e4b"},"vehicle_type_id":"4","last_reported":1727780879,"current_range_meters":38400,"station_id":"ce4bgnh2rcd13ifvqc0g","pricing_plan_id":"cebpf4jnsgd1na2vs0mg"},{"bike_id":"c19cd536-2cd2-46f2-a763-baa5f6c0a3d6","system_id":"levelo_inurba_marseille","lat":43.27945,"lon":5.41046,"is_reserved":false,"is_disabled":false,"rental_uris":{"android":"levelo://app?vid=c19cd536-2cd2-46f2-a763-baa5f6c0a3d6","ios":"levelo://app?vid=c19cd536-2cd2-46f2-a763-baa5f6c0a3d6"},"vehicle_type_id":"4","last_reported":1727780879,"current_range_meters":28400,"station_id":"ce4bhnp2rcd13ifvqh0g","pricing_plan_id":"cebpf4jnsgd1na2vs0mg"},{"bike_id":"65dcd46e-662f-4ad8-87c3-7fe40e586e7f","system_id":"levelo_inurba_marseille","lat":43.29798,"lon":5.40394,"is_reserved":false,"is_disabled":false,"rental_uris":{"android":"levelo://app?vid=65dcd46e-662f-4ad8-87c3-7fe40e586e7f","ios":"levelo://app?vid=65dcd46e-662f-4ad8-87c3-7fe40e586e7f"},"vehicle_type_id":"4","last_reported":1727780879,"current_range_meters":28000,"station_id":"ce4bh112rcd13ifvqd90","pricing_plan_id":"cebpf4jnsgd1na2vs0mg"},{"bike_id":"b55c1ee3-6145-4544-b27a-0db1f113711a","system_id":"levelo_inurba_marseille","lat":43.29895,"lon":5.43663,"is_reserved":false,"is_disabled":false,"rental_uris":{"android":"levelo://app?vid=b55c1ee3-6145-4544-b27a-0db1f113711a","ios":"levelo://app?vid=b55c1ee3-6145-4544-b27a-0db1f113711a"},"vehicle_type_id":"4","last_reported":1727780879,"current_range_meters":20800,"station_id":"ce4bhpp2rcd13ifvqhfg","pricing_plan_id":"cebpf4jnsgd1na2vs0mg"},{"bike_id":"5d34d44a-5657-4046-9997-746fa7323ea5","system_id":"levelo_inurba_marseille","lat":43.32554,"lon":5.41424,"is_reserved":false,"is_disabled":false,"rental_uris":{"android":"levelo://app?vid=5d34d44a-5657-4046-9997-746fa7323ea5","ios":"levelo://app?vid=5d34d44a-5657-4046-9997-746fa7323ea5"},"vehicle_type_id":"4","last_reported":1727780879,"current_range_meters":37600,"station_id":"ce4bhq12rcd13ifvqhhg","pricing_plan_id":"cebpf4jnsgd1na2vs0mg"},{"bike_id":"44316ce1-ce09-480d-9ac8-3a86703d9ed1","system_id":"levelo_inurba_marseille","lat":43.29374,"lon":5.37848,"is_reserved":false,"is_disabled":false,"rental_uris":{"android":"levelo://app?vid=44316ce1-ce09-480d-9ac8-3a86703d9ed1","ios":"levelo://app?vid=44316ce1-ce09-480d-9ac8-3a86703d9ed1"},"vehicle_type_id":"4","last_reported":1727780879,"current_range_meters":27600,"station_id":"ce4bgjh2rcd13ifvqbf0","pricing_plan_id":"cebpf4jnsgd1na2vs0mg"},{"bike_id":"6d167ddd-d55e-45d0-b015-82676490b854","system_id":"levelo_inurba_marseille","lat":43.29618,"lon":5.37744,"is_reserved":false,"is_disabled":false,"rental_uris":{"android":"levelo://app?vid=6d167ddd-d55e-45d0-b015-82676490b854","ios":"levelo://app?vid=6d167ddd-d55e-45d0-b015-82676490b854"},"vehicle_type_id":"4","last_reported":1727780879,"current_range_meters":6800,"station_id":"ce4bgi92rcd13ifvqb90","pricing_plan_id":"cebpf4jnsgd1na2vs0mg"},{"bike_id":"a85ce21b-5ed7-46cd-a8e6-5ed48ca6beaf","system_id":"levelo_inurba_marseille","lat":43.26783,"lon":5.39422,"is_reserved":false,"is_disabled":false,"rental_uris":{"android":"levelo://app?vid=a85ce21b-5ed7-46cd-a8e6-5ed48ca6beaf","ios":"levelo://app?vid=a85ce21b-5ed7-46cd-a8e6-5ed48ca6beaf"},"vehicle_type_id":"4","last_reported":1727780879,"current_range_meters":38000,"station_id":"ce4bhh12rcd13ifvqfg0","pricing_plan_id":"cebpf4jnsgd1na2vs0mg"},{"bike_id":"53f489ac-a1ca-4a9e-96fe-2ae8fb87d547","system_id":"levelo_inurba_marseille","lat":43.24076,"lon":5.37756,"is_reserved":false,"is_disabled":false,"rental_uris":{"android":"levelo://app?vid=53f489ac-a1ca-4a9e-96fe-2ae8fb87d547","ios":"levelo://app?vid=53f489ac-a1ca-4a9e-96fe-2ae8fb87d547"},"vehicle_type_id":"4","last_reported":1727780879,"current_range_meters":29600,"station_id":"ce4bhnp2rcd13ifvqgvg","pricing_plan_id":"cebpf4jnsgd1na2vs0mg"},{"bike_id":"b1f09baf-efb6-4048-8222-4ed4e16cbf39","system_id":"levelo_inurba_marseille","lat":43.23148,"lon":5.43711,"is_reserved":false,"is_disabled":false,"rental_uris":{"android":"levelo://app?vid=b1f09baf-efb6-4048-8222-4ed4e16cbf39","ios":"levelo://app?vid=b1f09baf-efb6-4048-8222-4ed4e16cbf39"},"vehicle_type_id":"4","last_reported":1727780879,"current_range_meters":9200,"station_id":"ce4bhmp2rcd13ifvqgog","pricing_plan_id":"cebpf4jnsgd1na2vs0mg"},{"bike_id":"96efbf29-503c-4bbd-a337-fd7c45f0f409","system_id":"levelo_inurba_marseille","lat":43.27923,"lon":5.39572,"is_reserved":false,"is_disabled":false,"rental_uris":{"android":"levelo://app?vid=96efbf29-503c-4bbd-a337-fd7c45f0f409","ios":"levelo://app?vid=96efbf29-503c-4bbd-a337-fd7c45f0f409"},"vehicle_type_id":"4","last_reported":1727780879,"current_range_meters":29600,"station_id":"ce4bhf92rcd13ifvqf40","pricing_plan_id":"cebpf4jnsgd1na2vs0mg"},{"bike_id":"d0babadb-8879-488e-92f8-d76769a9b0e4","system_id":"levelo_inurba_marseille","lat":43.30548,"lon":5.36533,"is_reserved":false,"is_disabled":false,"rental_uris":{"android":"levelo://app?vid=d0babadb-8879-488e-92f8-d76769a9b0e4","ios":"levelo://app?vid=d0babadb-8879-488e-92f8-d76769a9b0e4"},"vehicle_type_id":"4","last_reported":1727780879,"current_range_meters":22800,"station_id":"ce4bgs12rcd13ifvqcag","pricing_plan_id":"cebpf4jnsgd1na2vs0mg"},{"bike_id":"59fa96ea-8b59-462a-8c58-d516207eb328","system_id":"levelo_inurba_marseille","lat":43.29353,"lon":5.3784,"is_reserved":false,"is_disabled":false,"rental_uris":{"android":"levelo://app?vid=59fa96ea-8b59-462a-8c58-d516207eb328","ios":"levelo://app?vid=59fa96ea-8b59-462a-8c58-d516207eb328"},"vehicle_type_id":"4","last_reported":1727780879,"current_range_meters":32400,"station_id":"ce4bgjh2rcd13ifvqbf0","pricing_plan_id":"cebpf4jnsgd1na2vs0mg"},{"bike_id":"c965dffd-2d92-4a33-91c9-61a959b67683","system_id":"levelo_inurba_marseille","lat":43.31488,"lon":5.37311,"is_reserved":false,"is_disabled":false,"rental_uris":{"android":"levelo://app?vid=c965dffd-2d92-4a33-91c9-61a959b67683","ios":"levelo://app?vid=c965dffd-2d92-4a33-91c9-61a959b67683"},"vehicle_type_id":"4","last_reported":1727780879,"current_range_meters":37600,"station_id":"ce4bgt12rcd13ifvqcd0","pricing_plan_id":"cebpf4jnsgd1na2vs0mg"},{"bike_id":"cfdb47d3-1507-413a-a1c8-ccda97b2d99f","system_id":"levelo_inurba_marseille","lat":43.31494,"lon":5.37297,"is_reserved":false,"is_disabled":false,"rental_uris":{"android":"levelo://app?vid=cfdb47d3-1507-413a-a1c8-ccda97b2d99f","ios":"levelo://app?vid=cfdb47d3-1507-413a-a1c8-ccda97b2d99f"},"vehicle_type_id":"4","last_reported":1727780879,"current_range_meters":39200,"station_id":"ce4bgt12rcd13ifvqcd0","pricing_plan_id":"cebpf4jnsgd1na2vs0mg"},{"bike_id":"39510fab-caed-4999-8753-5047e6b44e20","system_id":"levelo_inurba_marseille","lat":43.29796,"lon":5.40406,"is_reserved":false,"is_disabled":false,"rental_uris":{"android":"levelo://app?vid=39510fab-caed-4999-8753-5047e6b44e20","ios":"levelo://app?vid=39510fab-caed-4999-8753-5047e6b44e20"},"vehicle_type_id":"4","last_reported":1727780879,"current_range_meters":28800,"station_id":"ce4bh112rcd13ifvqd90","pricing_plan_id":"cebpf4jnsgd1na2vs0mg"},{"bike_id":"3bfec258-225f-445a-af9a-3b1e3a1deb18","system_id":"levelo_inurba_marseille","lat":43.30425,"lon":5.38895,"is_reserved":false,"is_disabled":false,"rental_uris":{"android":"levelo://app?vid=3bfec258-225f-445a-af9a-3b1e3a1deb18","ios":"levelo://app?vid=3bfec258-225f-445a-af9a-3b1e3a1deb18"},"vehicle_type_id":"4","last_reported":1727780879,"current_range_meters":7200,"station_id":"ce4bgk12rcd13ifvqbi0","pricing_plan_id":"cebpf4jnsgd1na2vs0mg"},{"bike_id":"9edbd866-463a-4262-a4dd-b1427269b4e2","system_id":"levelo_inurba_marseille","lat":43.28108,"lon":5.37838,"is_reserved":false,"is_disabled":false,"rental_uris":{"android":"levelo://app?vid=9edbd866-463a-4262-a4dd-b1427269b4e2","ios":"levelo://app?vid=9edbd866-463a-4262-a4dd-b1427269b4e2"},"vehicle_type_id":"4","last_reported":1727780879,"current_range_meters":3200,"station_id":"ce4bha12rcd13ifvqee0","pricing_plan_id":"cebpf4jnsgd1na2vs0mg"},{"bike_id":"d0f65785-8fdf-4cf1-a675-729295860d7a","system_id":"levelo_inurba_marseille","lat":43.25943,"lon":5.40893,"is_reserved":false,"is_disabled":false,"rental_uris":{"android":"levelo://app?vid=d0f65785-8fdf-4cf1-a675-729295860d7a","ios":"levelo://app?vid=d0f65785-8fdf-4cf1-a675-729295860d7a"},"vehicle_type_id":"4","last_reported":1727780879,"current_range_meters":30000,"station_id":"ce4bhm92rcd13ifvqglg","pricing_plan_id":"cebpf4jnsgd1na2vs0mg"},{"bike_id":"aa17b61d-d001-499f-9fa9-4efac05f5a0e","system_id":"levelo_inurba_marseille","lat":43.30431,"lon":5.38889,"is_reserved":false,"is_disabled":false,"rental_uris":{"android":"levelo://app?vid=aa17b61d-d001-499f-9fa9-4efac05f5a0e","ios":"levelo://app?vid=aa17b61d-d001-499f-9fa9-4efac05f5a0e"},"vehicle_type_id":"4","last_reported":1727780879,"current_range_meters":36800,"station_id":"ce4bgk12rcd13ifvqbi0","pricing_plan_id":"cebpf4jnsgd1na2vs0mg"},{"bike_id":"3f6d908a-8341-4f5f-8c83-53d11db78ff2","system_id":"levelo_inurba_marseille","lat":43.23961,"lon":5.36642,"is_reserved":false,"is_disabled":false,"rental_uris":{"android":"levelo://app?vid=3f6d908a-8341-4f5f-8c83-53d11db78ff2","ios":"levelo://app?vid=3f6d908a-8341-4f5f-8c83-53d11db78ff2"},"vehicle_type_id":"4","last_reported":1727780879,"current_range_meters":38000,"station_id":"ce4bhi12rcd13ifvqfp0","pricing_plan_id":"cebpf4jnsgd1na2vs0mg"},{"bike_id":"77e6c8c4-a97f-433e-b676-51262f3b52bf","system_id":"levelo_inurba_marseille","lat":43.25721,"lon":5.41111,"is_reserved":false,"is_disabled":false,"rental_uris":{"android":"levelo://app?vid=77e6c8c4-a97f-433e-b676-51262f3b52bf","ios":"levelo://app?vid=77e6c8c4-a97f-433e-b676-51262f3b52bf"},"vehicle_type_id":"4","last_reported":1727780879,"current_range_meters":25200,"station_id":"ce4bhkp2rcd13ifvqgd0","pricing_plan_id":"cebpf4jnsgd1na2vs0mg"},{"bike_id":"384fa660-4c2d-4e00-835c-86299bec0b52","system_id":"levelo_inurba_marseille","lat":43.27498,"lon":5.42447,"is_reserved":false,"is_disabled":false,"rental_uris":{"android":"levelo://app?vid=384fa660-4c2d-4e00-835c-86299bec0b52","ios":"levelo://app?vid=384fa660-4c2d-4e00-835c-86299bec0b52"},"vehicle_type_id":"4","last_reported":1727780879,"current_range_meters":24800,"station_id":"ce4bhn92rcd13ifvqgrg","pricing_plan_id":"cebpf4jnsgd1na2vs0mg"},{"bike_id":"e773187b-d1e8-4e49-88d0-7bd2c1879d56","system_id":"levelo_inurba_marseille","lat":43.29905,"lon":5.38147,"is_reserved":false,"is_disabled":false,"rental_uris":{"android":"levelo://app?vid=e773187b-d1e8-4e49-88d0-7bd2c1879d56","ios":"levelo://app?vid=e773187b-d1e8-4e49-88d0-7bd2c1879d56"},"vehicle_type_id":"4","last_reported":1727780879,"current_range_meters":38800,"station_id":"ce4bgj12rcd13ifvqbc0","pricing_plan_id":"cebpf4jnsgd1na2vs0mg"},{"bike_id":"a6f47134-244e-42f1-a1c7-323d39548d9f","system_id":"levelo_inurba_marseille","lat":43.30548,"lon":5.36699,"is_reserved":false,"is_disabled":false,"rental_uris":{"android":"levelo://app?vid=a6f47134-244e-42f1-a1c7-323d39548d9f","ios":"levelo://app?vid=a6f47134-244e-42f1-a1c7-323d39548d9f"},"vehicle_type_id":"4","last_reported":1727780879,"current_range_meters":9600,"station_id":"ce4bgrp2rcd13ifvqc9g","pricing_plan_id":"cebpf4jnsgd1na2vs0mg"},{"bike_id":"0fa1b806-30ca-4295-8579-e914f7d6f08d","system_id":"levelo_inurba_marseille","lat":43.30162,"lon":5.38087,"is_reserved":false,"is_disabled":false,"rental_uris":{"android":"levelo://app?vid=0fa1b806-30ca-4295-8579-e914f7d6f08d","ios":"levelo://app?vid=0fa1b806-30ca-4295-8579-e914f7d6f08d"},"vehicle_type_id":"4","last_reported":1727780879,"current_range_meters":30800,"station_id":"ce4bgjp2rcd13ifvqbh0","pricing_plan_id":"cebpf4jnsgd1na2vs0mg"},{"bike_id":"6487edaa-3807-499c-bab9-5565554d751e","system_id":"levelo_inurba_marseille","lat":43.29579,"lon":5.39985,"is_reserved":false,"is_disabled":false,"rental_uris":{"android":"levelo://app?vid=6487edaa-3807-499c-bab9-5565554d751e","ios":"levelo://app?vid=6487edaa-3807-499c-bab9-5565554d751e"},"vehicle_type_id":"4","last_reported":1727780879,"current_range_meters":36400,"station_id":"ce4bh312rcd13ifvqdj0","pricing_plan_id":"cebpf4jnsgd1na2vs0mg"},{"bike_id":"59dea60b-0868-493c-8d4e-1efd870d8b0c","system_id":"levelo_inurba_marseille","lat":43.31541,"lon":5.3803,"is_reserved":false,"is_disabled":false,"rental_uris":{"android":"levelo://app?vid=59dea60b-0868-493c-8d4e-1efd870d8b0c","ios":"levelo://app?vid=59dea60b-0868-493c-8d4e-1efd870d8b0c"},"vehicle_type_id":"4","last_reported":1727780879,"current_range_meters":5600,"station_id":"ce4bhsp2rcd13ifvqi50","pricing_plan_id":"cebpf4jnsgd1na2vs0mg"},{"bike_id":"02d17221-9ae1-4962-a332-180765a3a2ce","system_id":"levelo_inurba_marseille","lat":43.250916,"lon":5.395085,"is_reserved":false,"is_disabled":false,"rental_uris":{"android":"levelo://app?vid=02d17221-9ae1-4962-a332-180765a3a2ce","ios":"levelo://app?vid=02d17221-9ae1-4962-a332-180765a3a2ce"},"vehicle_type_id":"4","last_reported":1727780879,"current_range_meters":16000,"station_id":"ce4bhm12rcd13ifvqgkg","pricing_plan_id":"cebpf4jnsgd1na2vs0mg"},{"bike_id":"e553449d-8790-420a-b3c7-cabf6cbd862d","system_id":"levelo_inurba_marseille","lat":43.30589,"lon":5.39353,"is_reserved":false,"is_disabled":false,"rental_uris":{"android":"levelo://app?vid=e553449d-8790-420a-b3c7-cabf6cbd862d","ios":"levelo://app?vid=e553449d-8790-420a-b3c7-cabf6cbd862d"},"vehicle_type_id":"4","last_reported":1727780879,"current_range_meters":29600,"station_id":"ce4bh0p2rcd13ifvqd80","pricing_plan_id":"cebpf4jnsgd1na2vs0mg"},{"bike_id":"695c6edc-9d98-4011-8dff-68578c4ede8a","system_id":"levelo_inurba_marseille","lat":43.23148,"lon":5.43724,"is_reserved":false,"is_disabled":false,"rental_uris":{"android":"levelo://app?vid=695c6edc-9d98-4011-8dff-68578c4ede8a","ios":"levelo://app?vid=695c6edc-9d98-4011-8dff-68578c4ede8a"},"vehicle_type_id":"4","last_reported":1727780879,"current_range_meters":20400,"station_id":"ce4bhmp2rcd13ifvqgog","pricing_plan_id":"cebpf4jnsgd1na2vs0mg"},{"bike_id":"f8f518e3-bd48-40f5-801a-4ead88758ee2","system_id":"levelo_inurba_marseille","lat":43.32116,"lon":5.36769,"is_reserved":false,"is_disabled":false,"rental_uris":{"android":"levelo://app?vid=f8f518e3-bd48-40f5-801a-4ead88758ee2","ios":"levelo://app?vid=f8f518e3-bd48-40f5-801a-4ead88758ee2"},"vehicle_type_id":"4","last_reported":1727780879,"current_range_meters":16400,"station_id":"ce4bhrh2rcd13ifvqhug","pricing_plan_id":"cebpf4jnsgd1na2vs0mg"},{"bike_id":"915107d4-ff2d-41e6-96d6-034251ae5d86","system_id":"levelo_inurba_marseille","lat":43.29908,"lon":5.38154,"is_reserved":false,"is_disabled":false,"rental_uris":{"android":"levelo://app?vid=915107d4-ff2d-41e6-96d6-034251ae5d86","ios":"levelo://app?vid=915107d4-ff2d-41e6-96d6-034251ae5d86"},"vehicle_type_id":"4","last_reported":1727780879,"current_range_meters":36400,"station_id":"ce4bgj12rcd13ifvqbc0","pricing_plan_id":"cebpf4jnsgd1na2vs0mg"},{"bike_id":"57591ccd-668b-40c2-8cf8-3f9f944bb30c","system_id":"levelo_inurba_marseille","lat":43.28108,"lon":5.37833,"is_reserved":false,"is_disabled":false,"rental_uris":{"android":"levelo://app?vid=57591ccd-668b-40c2-8cf8-3f9f944bb30c","ios":"levelo://app?vid=57591ccd-668b-40c2-8cf8-3f9f944bb30c"},"vehicle_type_id":"4","last_reported":1727780879,"current_range_meters":25600,"station_id":"ce4bha12rcd13ifvqee0","pricing_plan_id":"cebpf4jnsgd1na2vs0mg"},{"bike_id":"8de11257-5bfa-4a24-8ac8-acf8abd7068e","system_id":"levelo_inurba_marseille","lat":43.29875,"lon":5.38901,"is_reserved":false,"is_disabled":false,"rental_uris":{"android":"levelo://app?vid=8de11257-5bfa-4a24-8ac8-acf8abd7068e","ios":"levelo://app?vid=8de11257-5bfa-4a24-8ac8-acf8abd7068e"},"vehicle_type_id":"4","last_reported":1727780879,"current_range_meters":27600,"station_id":"ce4bh392rcd13ifvqdl0","pricing_plan_id":"cebpf4jnsgd1na2vs0mg"},{"bike_id":"a810b23c-8d93-43e2-9e63-56ab6e8b0144","system_id":"levelo_inurba_marseille","lat":43.2948,"lon":5.38079,"is_reserved":false,"is_disabled":false,"rental_uris":{"android":"levelo://app?vid=a810b23c-8d93-43e2-9e63-56ab6e8b0144","ios":"levelo://app?vid=a810b23c-8d93-43e2-9e63-56ab6e8b0144"},"vehicle_type_id":"4","last_reported":1727780879,"current_range_meters":35600,"station_id":"ce4bgjh2rcd13ifvqbf0","pricing_plan_id":"cebpf4jnsgd1na2vs0mg"},{"bike_id":"4b9bc966-87d4-4c70-9d62-17a91be19674","system_id":"levelo_inurba_marseille","lat":43.25503,"lon":5.37648,"is_reserved":false,"is_disabled":false,"rental_uris":{"android":"levelo://app?vid=4b9bc966-87d4-4c70-9d62-17a91be19674","ios":"levelo://app?vid=4b9bc966-87d4-4c70-9d62-17a91be19674"},"vehicle_type_id":"4","last_reported":1727780879,"current_range_meters":19200,"station_id":"ce4bhh12rcd13ifvqff0","pricing_plan_id":"cebpf4jnsgd1na2vs0mg"},{"bike_id":"026df0c4-4de0-4a6c-b1f3-d3b366387a20","system_id":"levelo_inurba_marseille","lat":43.30652,"lon":5.36744,"is_reserved":false,"is_disabled":false,"rental_uris":{"android":"levelo://app?vid=026df0c4-4de0-4a6c-b1f3-d3b366387a20","ios":"levelo://app?vid=026df0c4-4de0-4a6c-b1f3-d3b366387a20"},"vehicle_type_id":"4","last_reported":1727780879,"current_range_meters":29600,"station_id":"ce4bgl92rcd13ifvqbq0","pricing_plan_id":"cebpf4jnsgd1na2vs0mg"},{"bike_id":"4722f1ff-8fd8-443a-906f-6b5405c2ad48","system_id":"levelo_inurba_marseille","lat":43.304285,"lon":5.38894,"is_reserved":false,"is_disabled":false,"rental_uris":{"android":"levelo://app?vid=4722f1ff-8fd8-443a-906f-6b5405c2ad48","ios":"levelo://app?vid=4722f1ff-8fd8-443a-906f-6b5405c2ad48"},"vehicle_type_id":"4","last_reported":1727780879,"current_range_meters":38000,"station_id":"ce4bgk12rcd13ifvqbi0","pricing_plan_id":"cebpf4jnsgd1na2vs0mg"},{"bike_id":"fced59ca-ba21-42d7-ae36-4248505e51c6","system_id":"levelo_inurba_marseille","lat":43.2991,"lon":5.38141,"is_reserved":false,"is_disabled":false,"rental_uris":{"android":"levelo://app?vid=fced59ca-ba21-42d7-ae36-4248505e51c6","ios":"levelo://app?vid=fced59ca-ba21-42d7-ae36-4248505e51c6"},"vehicle_type_id":"4","last_reported":1727780879,"current_range_meters":36800,"station_id":"ce4bgj12rcd13ifvqbc0","pricing_plan_id":"cebpf4jnsgd1na2vs0mg"},{"bike_id":"e2973350-a192-4ad7-997e-932573a214dd","system_id":"levelo_inurba_marseille","lat":43.23149,"lon":5.4372,"is_reserved":false,"is_disabled":false,"rental_uris":{"android":"levelo://app?vid=e2973350-a192-4ad7-997e-932573a214dd","ios":"levelo://app?vid=e2973350-a192-4ad7-997e-932573a214dd"},"vehicle_type_id":"4","last_reported":1727780879,"current_range_meters":26000,"station_id":"ce4bhmp2rcd13ifvqgog","pricing_plan_id":"cebpf4jnsgd1na2vs0mg"},{"bike_id":"d995d233-d2fe-4db9-b69b-baa1337469bf","system_id":"levelo_inurba_marseille","lat":43.26716,"lon":5.40144,"is_reserved":false,"is_disabled":false,"rental_uris":{"android":"levelo://app?vid=d995d233-d2fe-4db9-b69b-baa1337469bf","ios":"levelo://app?vid=d995d233-d2fe-4db9-b69b-baa1337469bf"},"vehicle_type_id":"4","last_reported":1727780879,"current_range_meters":14000,"station_id":"ce4bhm92rcd13ifvqglg","pricing_plan_id":"cebpf4jnsgd1na2vs0mg"},{"bike_id":"1ba7b6fd-e265-4d06-8e20-b26ba84ee730","system_id":"levelo_inurba_marseille","lat":43.23151,"lon":5.43713,"is_reserved":false,"is_disabled":false,"rental_uris":{"android":"levelo://app?vid=1ba7b6fd-e265-4d06-8e20-b26ba84ee730","ios":"levelo://app?vid=1ba7b6fd-e265-4d06-8e20-b26ba84ee730"},"vehicle_type_id":"4","last_reported":1727780879,"current_range_meters":22800,"station_id":"ce4bhmp2rcd13ifvqgog","pricing_plan_id":"cebpf4jnsgd1na2vs0mg"},{"bike_id":"42f8a450-f3b8-4143-a611-4f4639d51f92","system_id":"levelo_inurba_marseille","lat":43.27565,"lon":5.38434,"is_reserved":false,"is_disabled":false,"rental_uris":{"android":"levelo://app?vid=42f8a450-f3b8-4143-a611-4f4639d51f92","ios":"levelo://app?vid=42f8a450-f3b8-4143-a611-4f4639d51f92"},"vehicle_type_id":"4","last_reported":1727780879,"current_range_meters":34000,"station_id":"ce4bhh92rcd13ifvqfi0","pricing_plan_id":"cebpf4jnsgd1na2vs0mg"},{"bike_id":"c28d8fa9-f123-47c7-97ec-e6029da1b7fe","system_id":"levelo_inurba_marseille","lat":43.29974,"lon":5.3848,"is_reserved":false,"is_disabled":false,"rental_uris":{"android":"levelo://app?vid=c28d8fa9-f123-47c7-97ec-e6029da1b7fe","ios":"levelo://app?vid=c28d8fa9-f123-47c7-97ec-e6029da1b7fe"},"vehicle_type_id":"4","last_reported":1727780879,"current_range_meters":36800,"station_id":"ce4bgj92rcd13ifvqbd0","pricing_plan_id":"cebpf4jnsgd1na2vs0mg"},{"bike_id":"bf8fec67-827f-49cb-b629-dc15ed369d0b","system_id":"levelo_inurba_marseille","lat":43.25823,"lon":5.39431,"is_reserved":false,"is_disabled":false,"rental_uris":{"android":"levelo://app?vid=bf8fec67-827f-49cb-b629-dc15ed369d0b","ios":"levelo://app?vid=bf8fec67-827f-49cb-b629-dc15ed369d0b"},"vehicle_type_id":"4","last_reported":1727780879,"current_range_meters":2800,"station_id":"ce4bhip2rcd13ifvqft0","pricing_plan_id":"cebpf4jnsgd1na2vs0mg"},{"bike_id":"a0b07b7c-5757-458f-a27a-60cb7b5aaa42","system_id":"levelo_inurba_marseille","lat":43.30311,"lon":5.36916,"is_reserved":false,"is_disabled":false,"rental_uris":{"android":"levelo://app?vid=a0b07b7c-5757-458f-a27a-60cb7b5aaa42","ios":"levelo://app?vid=a0b07b7c-5757-458f-a27a-60cb7b5aaa42"},"vehicle_type_id":"4","last_reported":1727780879,"current_range_meters":38800,"station_id":"ce4bgqh2rcd13ifvqc5g","pricing_plan_id":"cebpf4jnsgd1na2vs0mg"},{"bike_id":"b0241f1b-255e-46de-9b1b-bf0769bd1b46","system_id":"levelo_inurba_marseille","lat":43.29847,"lon":5.36585,"is_reserved":false,"is_disabled":false,"rental_uris":{"android":"levelo://app?vid=b0241f1b-255e-46de-9b1b-bf0769bd1b46","ios":"levelo://app?vid=b0241f1b-255e-46de-9b1b-bf0769bd1b46"},"vehicle_type_id":"4","last_reported":1727780879,"current_range_meters":6000,"station_id":"ce4bgn12rcd13ifvqbt0","pricing_plan_id":"cebpf4jnsgd1na2vs0mg"},{"bike_id":"d609dda2-9e88-492a-9ec1-1ee759ae8664","system_id":"levelo_inurba_marseille","lat":43.33021,"lon":5.3904,"is_reserved":false,"is_disabled":false,"rental_uris":{"android":"levelo://app?vid=d609dda2-9e88-492a-9ec1-1ee759ae8664","ios":"levelo://app?vid=d609dda2-9e88-492a-9ec1-1ee759ae8664"},"vehicle_type_id":"4","last_reported":1727780879,"current_range_meters":8000,"station_id":"ce4bhr92rcd13ifvqhrg","pricing_plan_id":"cebpf4jnsgd1na2vs0mg"},{"bike_id":"42d94e83-18d5-463f-b1e4-7fc1cc9910a4","system_id":"levelo_inurba_marseille","lat":43.24083,"lon":5.37755,"is_reserved":false,"is_disabled":false,"rental_uris":{"android":"levelo://app?vid=42d94e83-18d5-463f-b1e4-7fc1cc9910a4","ios":"levelo://app?vid=42d94e83-18d5-463f-b1e4-7fc1cc9910a4"},"vehicle_type_id":"4","last_reported":1727780879,"current_range_meters":11600,"station_id":"ce4bhnp2rcd13ifvqgvg","pricing_plan_id":"cebpf4jnsgd1na2vs0mg"},{"bike_id":"b652f429-09b8-4697-9c1b-3b9adc3c55d8","system_id":"levelo_inurba_marseille","lat":43.26871,"lon":5.39135,"is_reserved":false,"is_disabled":false,"rental_uris":{"android":"levelo://app?vid=b652f429-09b8-4697-9c1b-3b9adc3c55d8","ios":"levelo://app?vid=b652f429-09b8-4697-9c1b-3b9adc3c55d8"},"vehicle_type_id":"4","last_reported":1727780879,"current_range_meters":8000,"station_id":"","pricing_plan_id":"cebpf4jnsgd1na2vs0mg"},{"bike_id":"5dae140b-ae00-44fd-86ea-3df3ccfe95d2","system_id":"levelo_inurba_marseille","lat":43.29907,"lon":5.38149,"is_reserved":false,"is_disabled":false,"rental_uris":{"android":"levelo://app?vid=5dae140b-ae00-44fd-86ea-3df3ccfe95d2","ios":"levelo://app?vid=5dae140b-ae00-44fd-86ea-3df3ccfe95d2"},"vehicle_type_id":"4","last_reported":1727780879,"current_range_meters":19600,"station_id":"ce4bgj12rcd13ifvqbc0","pricing_plan_id":"cebpf4jnsgd1na2vs0mg"},{"bike_id":"09cce354-8b56-4a01-8379-fcec9e7693fb","system_id":"levelo_inurba_marseille","lat":43.26556,"lon":5.39024,"is_reserved":false,"is_disabled":false,"rental_uris":{"android":"levelo://app?vid=09cce354-8b56-4a01-8379-fcec9e7693fb","ios":"levelo://app?vid=09cce354-8b56-4a01-8379-fcec9e7693fb"},"vehicle_type_id":"4","last_reported":1727780879,"current_range_meters":4000,"station_id":"ce4bhe12rcd13ifvqf30","pricing_plan_id":"cebpf4jnsgd1na2vs0mg"},{"bike_id":"63948fa4-ae6d-4866-abff-02440e87cd47","system_id":"levelo_inurba_marseille","lat":43.24394,"lon":5.37054,"is_reserved":false,"is_disabled":false,"rental_uris":{"android":"levelo://app?vid=63948fa4-ae6d-4866-abff-02440e87cd47","ios":"levelo://app?vid=63948fa4-ae6d-4866-abff-02440e87cd47"},"vehicle_type_id":"4","last_reported":1727780879,"current_range_meters":37600,"station_id":"ce4bhhh2rcd13ifvqfk0","pricing_plan_id":"cebpf4jnsgd1na2vs0mg"},{"bike_id":"551da98b-2d93-40ca-9274-2b4e7820d36b","system_id":"levelo_inurba_marseille","lat":43.25122,"lon":5.40313,"is_reserved":false,"is_disabled":false,"rental_uris":{"android":"levelo://app?vid=551da98b-2d93-40ca-9274-2b4e7820d36b","ios":"levelo://app?vid=551da98b-2d93-40ca-9274-2b4e7820d36b"},"vehicle_type_id":"4","last_reported":1727780879,"current_range_meters":29600,"station_id":"ce4bhlh2rcd13ifvqgig","pricing_plan_id":"cebpf4jnsgd1na2vs0mg"},{"bike_id":"4385d767-f377-4473-8d18-795fd014182e","system_id":"levelo_inurba_marseille","lat":43.2988,"lon":5.39755,"is_reserved":false,"is_disabled":false,"rental_uris":{"android":"levelo://app?vid=4385d767-f377-4473-8d18-795fd014182e","ios":"levelo://app?vid=4385d767-f377-4473-8d18-795fd014182e"},"vehicle_type_id":"4","last_reported":1727780879,"current_range_meters":16800,"station_id":"ce4bh0h2rcd13ifvqd50","pricing_plan_id":"cebpf4jnsgd1na2vs0mg"},{"bike_id":"c612762d-33d1-4b43-ab68-c6d251a160c3","system_id":"levelo_inurba_marseille","lat":43.24038,"lon":5.36605,"is_reserved":false,"is_disabled":false,"rental_uris":{"android":"levelo://app?vid=c612762d-33d1-4b43-ab68-c6d251a160c3","ios":"levelo://app?vid=c612762d-33d1-4b43-ab68-c6d251a160c3"},"vehicle_type_id":"4","last_reported":1727780879,"current_range_meters":2800,"station_id":"ce4bhi12rcd13ifvqfp0","pricing_plan_id":"cebpf4jnsgd1na2vs0mg"},{"bike_id":"7a8b241f-57ad-4336-b3e1-9209d3fac587","system_id":"levelo_inurba_marseille","lat":43.31345,"lon":5.36725,"is_reserved":false,"is_disabled":false,"rental_uris":{"android":"levelo://app?vid=7a8b241f-57ad-4336-b3e1-9209d3fac587","ios":"levelo://app?vid=7a8b241f-57ad-4336-b3e1-9209d3fac587"},"vehicle_type_id":"4","last_reported":1727780879,"current_range_meters":38800,"station_id":"ce4bgr92rcd13ifvqc6g","pricing_plan_id":"cebpf4jnsgd1na2vs0mg"},{"bike_id":"a2570d17-2a9a-469e-8042-e6c6127eca09","system_id":"levelo_inurba_marseille","lat":43.30434,"lon":5.38889,"is_reserved":false,"is_disabled":false,"rental_uris":{"android":"levelo://app?vid=a2570d17-2a9a-469e-8042-e6c6127eca09","ios":"levelo://app?vid=a2570d17-2a9a-469e-8042-e6c6127eca09"},"vehicle_type_id":"4","last_reported":1727780879,"current_range_meters":30000,"station_id":"ce4bgk12rcd13ifvqbi0","pricing_plan_id":"cebpf4jnsgd1na2vs0mg"},{"bike_id":"e762dbfa-e56f-4737-89be-c79bfdacb2a9","system_id":"levelo_inurba_marseille","lat":43.3059,"lon":5.39367,"is_reserved":false,"is_disabled":false,"rental_uris":{"android":"levelo://app?vid=e762dbfa-e56f-4737-89be-c79bfdacb2a9","ios":"levelo://app?vid=e762dbfa-e56f-4737-89be-c79bfdacb2a9"},"vehicle_type_id":"4","last_reported":1727780879,"current_range_meters":28000,"station_id":"ce4bh0p2rcd13ifvqd80","pricing_plan_id":"cebpf4jnsgd1na2vs0mg"},{"bike_id":"92634d32-94dd-40f5-a435-95a8d65bd4fd","system_id":"levelo_inurba_marseille","lat":43.31259,"lon":5.40169,"is_reserved":false,"is_disabled":false,"rental_uris":{"android":"levelo://app?vid=92634d32-94dd-40f5-a435-95a8d65bd4fd","ios":"levelo://app?vid=92634d32-94dd-40f5-a435-95a8d65bd4fd"},"vehicle_type_id":"4","last_reported":1727780879,"current_range_meters":24400,"station_id":"ce4bh092rcd13ifvqd30","pricing_plan_id":"cebpf4jnsgd1na2vs0mg"},{"bike_id":"444700ad-a869-4365-9a0b-e09d21f74d28","system_id":"levelo_inurba_marseille","lat":43.29574,"lon":5.37505,"is_reserved":false,"is_disabled":false,"rental_uris":{"android":"levelo://app?vid=444700ad-a869-4365-9a0b-e09d21f74d28","ios":"levelo://app?vid=444700ad-a869-4365-9a0b-e09d21f74d28"},"vehicle_type_id":"4","last_reported":1727780879,"current_range_meters":36400,"station_id":"ce4bgh92rcd13ifvqb50","pricing_plan_id":"cebpf4jnsgd1na2vs0mg"},{"bike_id":"f452b8ce-1dec-4070-b48f-9a302cb899c2","system_id":"levelo_inurba_marseille","lat":43.24075,"lon":5.37762,"is_reserved":false,"is_disabled":false,"rental_uris":{"android":"levelo://app?vid=f452b8ce-1dec-4070-b48f-9a302cb899c2","ios":"levelo://app?vid=f452b8ce-1dec-4070-b48f-9a302cb899c2"},"vehicle_type_id":"4","last_reported":1727780879,"current_range_meters":34000,"station_id":"ce4bhnp2rcd13ifvqgvg","pricing_plan_id":"cebpf4jnsgd1na2vs0mg"},{"bike_id":"0a082c35-0e8b-4ffc-afc3-5d52740c4ea7","system_id":"levelo_inurba_marseille","lat":43.30241,"lon":5.400625,"is_reserved":false,"is_disabled":false,"rental_uris":{"android":"levelo://app?vid=0a082c35-0e8b-4ffc-afc3-5d52740c4ea7","ios":"levelo://app?vid=0a082c35-0e8b-4ffc-afc3-5d52740c4ea7"},"vehicle_type_id":"4","last_reported":1727780879,"current_range_meters":8800,"station_id":"ce4bgvh2rcd13ifvqcs0","pricing_plan_id":"cebpf4jnsgd1na2vs0mg"},{"bike_id":"383284dd-ae95-4a60-ac6b-52360c454bd4","system_id":"levelo_inurba_marseille","lat":43.29021,"lon":5.37568,"is_reserved":false,"is_disabled":false,"rental_uris":{"android":"levelo://app?vid=383284dd-ae95-4a60-ac6b-52360c454bd4","ios":"levelo://app?vid=383284dd-ae95-4a60-ac6b-52360c454bd4"},"vehicle_type_id":"4","last_reported":1727780879,"current_range_meters":19200,"station_id":"ce4bh692rcd13ifvqe90","pricing_plan_id":"cebpf4jnsgd1na2vs0mg"},{"bike_id":"bdd4311f-8e65-4eea-9766-610d21c8e5b6","system_id":"levelo_inurba_marseille","lat":43.31113,"lon":5.37777,"is_reserved":false,"is_disabled":false,"rental_uris":{"android":"levelo://app?vid=bdd4311f-8e65-4eea-9766-610d21c8e5b6","ios":"levelo://app?vid=bdd4311f-8e65-4eea-9766-610d21c8e5b6"},"vehicle_type_id":"4","last_reported":1727780879,"current_range_meters":3600,"station_id":"ce4bgt92rcd13ifvqcg0","pricing_plan_id":"cebpf4jnsgd1na2vs0mg"},{"bike_id":"9498ced8-f8e0-4c14-90aa-a5dcf1075236","system_id":"levelo_inurba_marseille","lat":43.27206,"lon":5.39183,"is_reserved":false,"is_disabled":false,"rental_uris":{"android":"levelo://app?vid=9498ced8-f8e0-4c14-90aa-a5dcf1075236","ios":"levelo://app?vid=9498ced8-f8e0-4c14-90aa-a5dcf1075236"},"vehicle_type_id":"4","last_reported":1727780879,"current_range_meters":33600,"station_id":"ce4bhhp2rcd13ifvqfm0","pricing_plan_id":"cebpf4jnsgd1na2vs0mg"},{"bike_id":"88a5117b-2c2f-4bd6-ab40-da9636065b46","system_id":"levelo_inurba_marseille","lat":43.29977,"lon":5.38485,"is_reserved":false,"is_disabled":false,"rental_uris":{"android":"levelo://app?vid=88a5117b-2c2f-4bd6-ab40-da9636065b46","ios":"levelo://app?vid=88a5117b-2c2f-4bd6-ab40-da9636065b46"},"vehicle_type_id":"4","last_reported":1727780879,"current_range_meters":19600,"station_id":"ce4bgj92rcd13ifvqbd0","pricing_plan_id":"cebpf4jnsgd1na2vs0mg"},{"bike_id":"bd04728e-ea2c-4757-85e4-10d63ec89671","system_id":"levelo_inurba_marseille","lat":43.25819,"lon":5.39434,"is_reserved":false,"is_disabled":false,"rental_uris":{"android":"levelo://app?vid=bd04728e-ea2c-4757-85e4-10d63ec89671","ios":"levelo://app?vid=bd04728e-ea2c-4757-85e4-10d63ec89671"},"vehicle_type_id":"4","last_reported":1727780879,"current_range_meters":17600,"station_id":"ce4bhip2rcd13ifvqft0","pricing_plan_id":"cebpf4jnsgd1na2vs0mg"},{"bike_id":"b3f47936-1ea0-4982-b4a5-9cb648374f37","system_id":"levelo_inurba_marseille","lat":43.2293,"lon":5.35379,"is_reserved":false,"is_disabled":false,"rental_uris":{"android":"levelo://app?vid=b3f47936-1ea0-4982-b4a5-9cb648374f37","ios":"levelo://app?vid=b3f47936-1ea0-4982-b4a5-9cb648374f37"},"vehicle_type_id":"4","last_reported":1727780879,"current_range_meters":22000,"station_id":"cpo3532slgdg3j2ikp40","pricing_plan_id":"cebpf4jnsgd1na2vs0mg"},{"bike_id":"6fa4929a-de3a-41a6-a44b-e69d97bfcf53","system_id":"levelo_inurba_marseille","lat":43.29959,"lon":5.385,"is_reserved":false,"is_disabled":false,"rental_uris":{"android":"levelo://app?vid=6fa4929a-de3a-41a6-a44b-e69d97bfcf53","ios":"levelo://app?vid=6fa4929a-de3a-41a6-a44b-e69d97bfcf53"},"vehicle_type_id":"4","last_reported":1727780879,"current_range_meters":36800,"station_id":"ce4bgj92rcd13ifvqbd0","pricing_plan_id":"cebpf4jnsgd1na2vs0mg"},{"bike_id":"e3dfd300-6e93-45ab-b967-f5bc7249bfed","system_id":"levelo_inurba_marseille","lat":43.29574,"lon":5.37533,"is_reserved":false,"is_disabled":false,"rental_uris":{"android":"levelo://app?vid=e3dfd300-6e93-45ab-b967-f5bc7249bfed","ios":"levelo://app?vid=e3dfd300-6e93-45ab-b967-f5bc7249bfed"},"vehicle_type_id":"4","last_reported":1727780879,"current_range_meters":12400,"station_id":"ce4bgh92rcd13ifvqb50","pricing_plan_id":"cebpf4jnsgd1na2vs0mg"},{"bike_id":"78040539-a8e1-4015-ad7e-b409b27e4bf7","system_id":"levelo_inurba_marseille","lat":43.29976,"lon":5.38484,"is_reserved":false,"is_disabled":false,"rental_uris":{"android":"levelo://app?vid=78040539-a8e1-4015-ad7e-b409b27e4bf7","ios":"levelo://app?vid=78040539-a8e1-4015-ad7e-b409b27e4bf7"},"vehicle_type_id":"4","last_reported":1727780879,"current_range_meters":20400,"station_id":"ce4bgj92rcd13ifvqbd0","pricing_plan_id":"cebpf4jnsgd1na2vs0mg"},{"bike_id":"bf7b89f3-f744-46fc-ae98-1b351af221f4","system_id":"levelo_inurba_marseille","lat":43.30135,"lon":5.38778,"is_reserved":false,"is_disabled":false,"rental_uris":{"android":"levelo://app?vid=bf7b89f3-f744-46fc-ae98-1b351af221f4","ios":"levelo://app?vid=bf7b89f3-f744-46fc-ae98-1b351af221f4"},"vehicle_type_id":"4","last_reported":1727780879,"current_range_meters":38800,"station_id":"ce4bghh2rcd13ifvqb60","pricing_plan_id":"cebpf4jnsgd1na2vs0mg"},{"bike_id":"bb0db29b-307e-4e3c-9fb8-089947d27aae","system_id":"levelo_inurba_marseille","lat":43.30538,"lon":5.36539,"is_reserved":false,"is_disabled":false,"rental_uris":{"android":"levelo://app?vid=bb0db29b-307e-4e3c-9fb8-089947d27aae","ios":"levelo://app?vid=bb0db29b-307e-4e3c-9fb8-089947d27aae"},"vehicle_type_id":"4","last_reported":1727780879,"current_range_meters":34800,"station_id":"ce4bgs12rcd13ifvqcag","pricing_plan_id":"cebpf4jnsgd1na2vs0mg"},{"bike_id":"f21acc7e-e2d2-4425-8e41-4c56d51d4079","system_id":"levelo_inurba_marseille","lat":43.29626,"lon":5.37727,"is_reserved":false,"is_disabled":false,"rental_uris":{"android":"levelo://app?vid=f21acc7e-e2d2-4425-8e41-4c56d51d4079","ios":"levelo://app?vid=f21acc7e-e2d2-4425-8e41-4c56d51d4079"},"vehicle_type_id":"4","last_reported":1727780879,"current_range_meters":35200,"station_id":"ce4bgi92rcd13ifvqb90","pricing_plan_id":"cebpf4jnsgd1na2vs0mg"},{"bike_id":"17346577-f0d6-4544-b4b0-1fd855e7857c","system_id":"levelo_inurba_marseille","lat":43.2791,"lon":5.38017,"is_reserved":false,"is_disabled":false,"rental_uris":{"android":"levelo://app?vid=17346577-f0d6-4544-b4b0-1fd855e7857c","ios":"levelo://app?vid=17346577-f0d6-4544-b4b0-1fd855e7857c"},"vehicle_type_id":"4","last_reported":1727780879,"current_range_meters":34000,"station_id":"ce4bhf92rcd13ifvqf50","pricing_plan_id":"cebpf4jnsgd1na2vs0mg"},{"bike_id":"770abe20-5090-4acb-90bf-9099f4e1d2cb","system_id":"levelo_inurba_marseille","lat":43.28958,"lon":5.3783,"is_reserved":false,"is_disabled":false,"rental_uris":{"android":"levelo://app?vid=770abe20-5090-4acb-90bf-9099f4e1d2cb","ios":"levelo://app?vid=770abe20-5090-4acb-90bf-9099f4e1d2cb"},"vehicle_type_id":"4","last_reported":1727780879,"current_range_meters":24400,"station_id":"ce4bh9p2rcd13ifvqed0","pricing_plan_id":"cebpf4jnsgd1na2vs0mg"},{"bike_id":"507af9aa-79f8-4e66-bc82-e635952e27ce","system_id":"levelo_inurba_marseille","lat":43.30551,"lon":5.36552,"is_reserved":false,"is_disabled":false,"rental_uris":{"android":"levelo://app?vid=507af9aa-79f8-4e66-bc82-e635952e27ce","ios":"levelo://app?vid=507af9aa-79f8-4e66-bc82-e635952e27ce"},"vehicle_type_id":"4","last_reported":1727780879,"current_range_meters":30000,"station_id":"ce4bgs12rcd13ifvqcag","pricing_plan_id":"cebpf4jnsgd1na2vs0mg"},{"bike_id":"2851daf2-74f4-4f76-8991-c879fa516201","system_id":"levelo_inurba_marseille","lat":43.27211,"lon":5.39178,"is_reserved":false,"is_disabled":false,"rental_uris":{"android":"levelo://app?vid=2851daf2-74f4-4f76-8991-c879fa516201","ios":"levelo://app?vid=2851daf2-74f4-4f76-8991-c879fa516201"},"vehicle_type_id":"4","last_reported":1727780879,"current_range_meters":22000,"station_id":"ce4bhhp2rcd13ifvqfm0","pricing_plan_id":"cebpf4jnsgd1na2vs0mg"},{"bike_id":"1bec4600-2480-4f06-a19d-8cba50379eb7","system_id":"levelo_inurba_marseille","lat":43.28156,"lon":5.42637,"is_reserved":false,"is_disabled":false,"rental_uris":{"android":"levelo://app?vid=1bec4600-2480-4f06-a19d-8cba50379eb7","ios":"levelo://app?vid=1bec4600-2480-4f06-a19d-8cba50379eb7"},"vehicle_type_id":"4","last_reported":1727780879,"current_range_meters":12400,"station_id":"ce4bhnh2rcd13ifvqgug","pricing_plan_id":"cebpf4jnsgd1na2vs0mg"},{"bike_id":"ab728a23-caf1-4bd3-910f-0549e57950ad","system_id":"levelo_inurba_marseille","lat":43.23149,"lon":5.43722,"is_reserved":false,"is_disabled":false,"rental_uris":{"android":"levelo://app?vid=ab728a23-caf1-4bd3-910f-0549e57950ad","ios":"levelo://app?vid=ab728a23-caf1-4bd3-910f-0549e57950ad"},"vehicle_type_id":"4","last_reported":1727780879,"current_range_meters":4000,"station_id":"ce4bhmp2rcd13ifvqgog","pricing_plan_id":"cebpf4jnsgd1na2vs0mg"},{"bike_id":"89edb748-22c3-42ef-8109-5174364b1c91","system_id":"levelo_inurba_marseille","lat":43.28266,"lon":5.35069,"is_reserved":false,"is_disabled":false,"rental_uris":{"android":"levelo://app?vid=89edb748-22c3-42ef-8109-5174364b1c91","ios":"levelo://app?vid=89edb748-22c3-42ef-8109-5174364b1c91"},"vehicle_type_id":"4","last_reported":1727780879,"current_range_meters":21600,"station_id":"ce4bhbp2rcd13ifvqerg","pricing_plan_id":"cebpf4jnsgd1na2vs0mg"},{"bike_id":"fe546efa-4b18-48de-9d1e-efef2e98d685","system_id":"levelo_inurba_marseille","lat":43.30542,"lon":5.36721,"is_reserved":false,"is_disabled":false,"rental_uris":{"android":"levelo://app?vid=fe546efa-4b18-48de-9d1e-efef2e98d685","ios":"levelo://app?vid=fe546efa-4b18-48de-9d1e-efef2e98d685"},"vehicle_type_id":"4","last_reported":1727780879,"current_range_meters":22400,"station_id":"ce4bgrp2rcd13ifvqc9g","pricing_plan_id":"cebpf4jnsgd1na2vs0mg"},{"bike_id":"150a0520-233d-4765-a4e3-e64358289cd2","system_id":"levelo_inurba_marseille","lat":43.29978,"lon":5.38476,"is_reserved":false,"is_disabled":false,"rental_uris":{"android":"levelo://app?vid=150a0520-233d-4765-a4e3-e64358289cd2","ios":"levelo://app?vid=150a0520-233d-4765-a4e3-e64358289cd2"},"vehicle_type_id":"4","last_reported":1727780879,"current_range_meters":37600,"station_id":"ce4bgj92rcd13ifvqbd0","pricing_plan_id":"cebpf4jnsgd1na2vs0mg"},{"bike_id":"fcbae823-f9d2-4c8b-b1b8-e6d97ed05338","system_id":"levelo_inurba_marseille","lat":43.3361,"lon":5.4103,"is_reserved":false,"is_disabled":false,"rental_uris":{"android":"levelo://app?vid=fcbae823-f9d2-4c8b-b1b8-e6d97ed05338","ios":"levelo://app?vid=fcbae823-f9d2-4c8b-b1b8-e6d97ed05338"},"vehicle_type_id":"4","last_reported":1727780879,"current_range_meters":11600,"station_id":"ce4bhqh2rcd13ifvqhmg","pricing_plan_id":"cebpf4jnsgd1na2vs0mg"},{"bike_id":"646b4c85-8c7e-4715-856c-f450496d3f81","system_id":"levelo_inurba_marseille","lat":43.25933,"lon":5.40908,"is_reserved":false,"is_disabled":false,"rental_uris":{"android":"levelo://app?vid=646b4c85-8c7e-4715-856c-f450496d3f81","ios":"levelo://app?vid=646b4c85-8c7e-4715-856c-f450496d3f81"},"vehicle_type_id":"4","last_reported":1727780879,"current_range_meters":27600,"station_id":"ce4bhm92rcd13ifvqglg","pricing_plan_id":"cebpf4jnsgd1na2vs0mg"},{"bike_id":"d7ce7a5c-b08f-49b4-8b23-521e5b122803","system_id":"levelo_inurba_marseille","lat":43.23149,"lon":5.43706,"is_reserved":false,"is_disabled":false,"rental_uris":{"android":"levelo://app?vid=d7ce7a5c-b08f-49b4-8b23-521e5b122803","ios":"levelo://app?vid=d7ce7a5c-b08f-49b4-8b23-521e5b122803"},"vehicle_type_id":"4","last_reported":1727780879,"current_range_meters":17200,"station_id":"ce4bhmp2rcd13ifvqgog","pricing_plan_id":"cebpf4jnsgd1na2vs0mg"},{"bike_id":"07b5a74b-d824-4607-9a9d-31a616d5b59d","system_id":"levelo_inurba_marseille","lat":43.33754,"lon":5.37474,"is_reserved":false,"is_disabled":false,"rental_uris":{"android":"levelo://app?vid=07b5a74b-d824-4607-9a9d-31a616d5b59d","ios":"levelo://app?vid=07b5a74b-d824-4607-9a9d-31a616d5b59d"},"vehicle_type_id":"4","last_reported":1727780879,"current_range_meters":36000,"station_id":"","pricing_plan_id":"cebpf4jnsgd1na2vs0mg"},{"bike_id":"e64ace66-566a-45f3-a58a-06d5398efb4c","system_id":"levelo_inurba_marseille","lat":43.3059,"lon":5.39355,"is_reserved":false,"is_disabled":false,"rental_uris":{"android":"levelo://app?vid=e64ace66-566a-45f3-a58a-06d5398efb4c","ios":"levelo://app?vid=e64ace66-566a-45f3-a58a-06d5398efb4c"},"vehicle_type_id":"4","last_reported":1727780879,"current_range_meters":8400,"station_id":"ce4bh0p2rcd13ifvqd80","pricing_plan_id":"cebpf4jnsgd1na2vs0mg"},{"bike_id":"f1554556-52f0-433d-bd88-b5eb834d79c4","system_id":"levelo_inurba_marseille","lat":43.30598,"lon":5.3936,"is_reserved":false,"is_disabled":false,"rental_uris":{"android":"levelo://app?vid=f1554556-52f0-433d-bd88-b5eb834d79c4","ios":"levelo://app?vid=f1554556-52f0-433d-bd88-b5eb834d79c4"},"vehicle_type_id":"4","last_reported":1727780879,"current_range_meters":27600,"station_id":"ce4bh0p2rcd13ifvqd80","pricing_plan_id":"cebpf4jnsgd1na2vs0mg"},{"bike_id":"eaaf4e68-0a84-4e62-ac56-d62af6f3e194","system_id":"levelo_inurba_marseille","lat":43.2998,"lon":5.38491,"is_reserved":false,"is_disabled":false,"rental_uris":{"android":"levelo://app?vid=eaaf4e68-0a84-4e62-ac56-d62af6f3e194","ios":"levelo://app?vid=eaaf4e68-0a84-4e62-ac56-d62af6f3e194"},"vehicle_type_id":"4","last_reported":1727780879,"current_range_meters":9600,"station_id":"ce4bgj92rcd13ifvqbd0","pricing_plan_id":"cebpf4jnsgd1na2vs0mg"},{"bike_id":"32048f1d-dced-4666-a8a5-c5cafb6067ab","system_id":"levelo_inurba_marseille","lat":43.28276,"lon":5.350546,"is_reserved":false,"is_disabled":false,"rental_uris":{"android":"levelo://app?vid=32048f1d-dced-4666-a8a5-c5cafb6067ab","ios":"levelo://app?vid=32048f1d-dced-4666-a8a5-c5cafb6067ab"},"vehicle_type_id":"4","last_reported":1727780879,"current_range_meters":38800,"station_id":"ce4bhbp2rcd13ifvqerg","pricing_plan_id":"cebpf4jnsgd1na2vs0mg"},{"bike_id":"9af58720-66a1-4696-bd85-921a9bcffe7c","system_id":"levelo_inurba_marseille","lat":43.30594,"lon":5.39348,"is_reserved":false,"is_disabled":false,"rental_uris":{"android":"levelo://app?vid=9af58720-66a1-4696-bd85-921a9bcffe7c","ios":"levelo://app?vid=9af58720-66a1-4696-bd85-921a9bcffe7c"},"vehicle_type_id":"4","last_reported":1727780879,"current_range_meters":38400,"station_id":"ce4bh0p2rcd13ifvqd80","pricing_plan_id":"cebpf4jnsgd1na2vs0mg"},{"bike_id":"2d1e394b-c65c-48dd-8f6c-7fbd688f784e","system_id":"levelo_inurba_marseille","lat":43.31754,"lon":5.39011,"is_reserved":false,"is_disabled":false,"rental_uris":{"android":"levelo://app?vid=2d1e394b-c65c-48dd-8f6c-7fbd688f784e","ios":"levelo://app?vid=2d1e394b-c65c-48dd-8f6c-7fbd688f784e"},"vehicle_type_id":"4","last_reported":1727780879,"current_range_meters":3600,"station_id":"ce4bhqp2rcd13ifvqhng","pricing_plan_id":"cebpf4jnsgd1na2vs0mg"},{"bike_id":"9fdb61b4-442c-4eff-9d3b-cf7f40325237","system_id":"levelo_inurba_marseille","lat":43.29571,"lon":5.37509,"is_reserved":false,"is_disabled":false,"rental_uris":{"android":"levelo://app?vid=9fdb61b4-442c-4eff-9d3b-cf7f40325237","ios":"levelo://app?vid=9fdb61b4-442c-4eff-9d3b-cf7f40325237"},"vehicle_type_id":"4","last_reported":1727780879,"current_range_meters":36400,"station_id":"ce4bgh92rcd13ifvqb50","pricing_plan_id":"cebpf4jnsgd1na2vs0mg"},{"bike_id":"8e1f0cc5-50fd-4e1f-8f0f-cb5039a2e7c4","system_id":"levelo_inurba_marseille","lat":43.27209,"lon":5.39165,"is_reserved":false,"is_disabled":false,"rental_uris":{"android":"levelo://app?vid=8e1f0cc5-50fd-4e1f-8f0f-cb5039a2e7c4","ios":"levelo://app?vid=8e1f0cc5-50fd-4e1f-8f0f-cb5039a2e7c4"},"vehicle_type_id":"4","last_reported":1727780879,"current_range_meters":8000,"station_id":"ce4bhhp2rcd13ifvqfm0","pricing_plan_id":"cebpf4jnsgd1na2vs0mg"},{"bike_id":"ab80b424-bfc5-4709-9b95-a2bee6a56f64","system_id":"levelo_inurba_marseille","lat":43.32292,"lon":5.38261,"is_reserved":false,"is_disabled":false,"rental_uris":{"android":"levelo://app?vid=ab80b424-bfc5-4709-9b95-a2bee6a56f64","ios":"levelo://app?vid=ab80b424-bfc5-4709-9b95-a2bee6a56f64"},"vehicle_type_id":"4","last_reported":1727780879,"current_range_meters":39200,"station_id":"ce4bhr12rcd13ifvqhqg","pricing_plan_id":"cebpf4jnsgd1na2vs0mg"},{"bike_id":"2bfd4452-d854-4ea1-8b71-db38f940202a","system_id":"levelo_inurba_marseille","lat":43.30532,"lon":5.36705,"is_reserved":false,"is_disabled":false,"rental_uris":{"android":"levelo://app?vid=2bfd4452-d854-4ea1-8b71-db38f940202a","ios":"levelo://app?vid=2bfd4452-d854-4ea1-8b71-db38f940202a"},"vehicle_type_id":"4","last_reported":1727780879,"current_range_meters":36000,"station_id":"ce4bgrp2rcd13ifvqc9g","pricing_plan_id":"cebpf4jnsgd1na2vs0mg"},{"bike_id":"df08c436-a1a3-41e6-a62d-9c276a9f6b05","system_id":"levelo_inurba_marseille","lat":43.28458,"lon":5.35893,"is_reserved":false,"is_disabled":false,"rental_uris":{"android":"levelo://app?vid=df08c436-a1a3-41e6-a62d-9c276a9f6b05","ios":"levelo://app?vid=df08c436-a1a3-41e6-a62d-9c276a9f6b05"},"vehicle_type_id":"4","last_reported":1727780879,"current_range_meters":6800,"station_id":"ce4bhah2rcd13ifvqei0","pricing_plan_id":"cebpf4jnsgd1na2vs0mg"},{"bike_id":"157abced-53dc-49f0-8be0-a1a494696491","system_id":"levelo_inurba_marseille","lat":43.25938,"lon":5.40903,"is_reserved":false,"is_disabled":false,"rental_uris":{"android":"levelo://app?vid=157abced-53dc-49f0-8be0-a1a494696491","ios":"levelo://app?vid=157abced-53dc-49f0-8be0-a1a494696491"},"vehicle_type_id":"4","last_reported":1727780879,"current_range_meters":32000,"station_id":"ce4bhm92rcd13ifvqglg","pricing_plan_id":"cebpf4jnsgd1na2vs0mg"},{"bike_id":"dd05cf58-177b-4d66-8ca2-fe7872404e55","system_id":"levelo_inurba_marseille","lat":43.23146,"lon":5.43716,"is_reserved":false,"is_disabled":false,"rental_uris":{"android":"levelo://app?vid=dd05cf58-177b-4d66-8ca2-fe7872404e55","ios":"levelo://app?vid=dd05cf58-177b-4d66-8ca2-fe7872404e55"},"vehicle_type_id":"4","last_reported":1727780879,"current_range_meters":32400,"station_id":"ce4bhmp2rcd13ifvqgog","pricing_plan_id":"cebpf4jnsgd1na2vs0mg"},{"bike_id":"b8dd6703-cc1f-404b-8857-f01c34a0cdeb","system_id":"levelo_inurba_marseille","lat":43.29969,"lon":5.38487,"is_reserved":false,"is_disabled":false,"rental_uris":{"android":"levelo://app?vid=b8dd6703-cc1f-404b-8857-f01c34a0cdeb","ios":"levelo://app?vid=b8dd6703-cc1f-404b-8857-f01c34a0cdeb"},"vehicle_type_id":"4","last_reported":1727780879,"current_range_meters":30800,"station_id":"ce4bgj92rcd13ifvqbd0","pricing_plan_id":"cebpf4jnsgd1na2vs0mg"},{"bike_id":"5978c7ba-508f-472f-8183-f4d1fef805bb","system_id":"levelo_inurba_marseille","lat":43.24074,"lon":5.37761,"is_reserved":false,"is_disabled":false,"rental_uris":{"android":"levelo://app?vid=5978c7ba-508f-472f-8183-f4d1fef805bb","ios":"levelo://app?vid=5978c7ba-508f-472f-8183-f4d1fef805bb"},"vehicle_type_id":"4","last_reported":1727780879,"current_range_meters":10800,"station_id":"ce4bhnp2rcd13ifvqgvg","pricing_plan_id":"cebpf4jnsgd1na2vs0mg"},{"bike_id":"c9995128-10a1-4e5e-b0aa-637a89135fb9","system_id":"levelo_inurba_marseille","lat":43.26944,"lon":5.38628,"is_reserved":false,"is_disabled":false,"rental_uris":{"android":"levelo://app?vid=c9995128-10a1-4e5e-b0aa-637a89135fb9","ios":"levelo://app?vid=c9995128-10a1-4e5e-b0aa-637a89135fb9"},"vehicle_type_id":"4","last_reported":1727780879,"current_range_meters":32000,"station_id":"ce4bhh92rcd13ifvqfh0","pricing_plan_id":"cebpf4jnsgd1na2vs0mg"},{"bike_id":"f493192b-13c6-47a1-9573-739dd32e633f","system_id":"levelo_inurba_marseille","lat":43.337444,"lon":5.374475,"is_reserved":false,"is_disabled":false,"rental_uris":{"android":"levelo://app?vid=f493192b-13c6-47a1-9573-739dd32e633f","ios":"levelo://app?vid=f493192b-13c6-47a1-9573-739dd32e633f"},"vehicle_type_id":"4","last_reported":1727780879,"current_range_meters":17200,"station_id":"","pricing_plan_id":"cebpf4jnsgd1na2vs0mg"},{"bike_id":"503260b7-9fc9-4ff7-ae7f-84b6478dbf9b","system_id":"levelo_inurba_marseille","lat":43.321594,"lon":5.41122,"is_reserved":false,"is_disabled":false,"rental_uris":{"android":"levelo://app?vid=503260b7-9fc9-4ff7-ae7f-84b6478dbf9b","ios":"levelo://app?vid=503260b7-9fc9-4ff7-ae7f-84b6478dbf9b"},"vehicle_type_id":"4","last_reported":1727780879,"current_range_meters":8800,"station_id":"ce4bh392rcd13ifvqdm0","pricing_plan_id":"cebpf4jnsgd1na2vs0mg"},{"bike_id":"3dab0a02-c252-4bc7-9c17-a17097a1ad7c","system_id":"levelo_inurba_marseille","lat":43.27491,"lon":5.42459,"is_reserved":false,"is_disabled":false,"rental_uris":{"android":"levelo://app?vid=3dab0a02-c252-4bc7-9c17-a17097a1ad7c","ios":"levelo://app?vid=3dab0a02-c252-4bc7-9c17-a17097a1ad7c"},"vehicle_type_id":"4","last_reported":1727780879,"current_range_meters":14400,"station_id":"ce4bhn92rcd13ifvqgrg","pricing_plan_id":"cebpf4jnsgd1na2vs0mg"},{"bike_id":"8703bcf1-8807-48a1-9dff-1bc4fd084e21","system_id":"levelo_inurba_marseille","lat":43.30785,"lon":5.37639,"is_reserved":false,"is_disabled":false,"rental_uris":{"android":"levelo://app?vid=8703bcf1-8807-48a1-9dff-1bc4fd084e21","ios":"levelo://app?vid=8703bcf1-8807-48a1-9dff-1bc4fd084e21"},"vehicle_type_id":"4","last_reported":1727780879,"current_range_meters":9600,"station_id":"ce4bgv92rcd13ifvqcq0","pricing_plan_id":"cebpf4jnsgd1na2vs0mg"},{"bike_id":"85235cf6-1531-4f2d-a042-82f76cfb71da","system_id":"levelo_inurba_marseille","lat":43.29335,"lon":5.41178,"is_reserved":false,"is_disabled":false,"rental_uris":{"android":"levelo://app?vid=85235cf6-1531-4f2d-a042-82f76cfb71da","ios":"levelo://app?vid=85235cf6-1531-4f2d-a042-82f76cfb71da"},"vehicle_type_id":"4","last_reported":1727780879,"current_range_meters":2800,"station_id":"","pricing_plan_id":"cebpf4jnsgd1na2vs0mg"},{"bike_id":"8864ce64-4139-4b69-9d65-e9b4daf2b46f","system_id":"levelo_inurba_marseille","lat":43.27549,"lon":5.38435,"is_reserved":false,"is_disabled":false,"rental_uris":{"android":"levelo://app?vid=8864ce64-4139-4b69-9d65-e9b4daf2b46f","ios":"levelo://app?vid=8864ce64-4139-4b69-9d65-e9b4daf2b46f"},"vehicle_type_id":"4","last_reported":1727780879,"current_range_meters":7200,"station_id":"ce4bhh92rcd13ifvqfi0","pricing_plan_id":"cebpf4jnsgd1na2vs0mg"},{"bike_id":"682e8091-68ea-4fce-b1bd-5ad117660139","system_id":"levelo_inurba_marseille","lat":43.28265,"lon":5.35074,"is_reserved":false,"is_disabled":false,"rental_uris":{"android":"levelo://app?vid=682e8091-68ea-4fce-b1bd-5ad117660139","ios":"levelo://app?vid=682e8091-68ea-4fce-b1bd-5ad117660139"},"vehicle_type_id":"4","last_reported":1727780879,"current_range_meters":26000,"station_id":"ce4bhbp2rcd13ifvqerg","pricing_plan_id":"cebpf4jnsgd1na2vs0mg"},{"bike_id":"422ee2ab-d8cf-4a53-80a9-0ba479a92212","system_id":"levelo_inurba_marseille","lat":43.30934,"lon":5.40136,"is_reserved":false,"is_disabled":false,"rental_uris":{"android":"levelo://app?vid=422ee2ab-d8cf-4a53-80a9-0ba479a92212","ios":"levelo://app?vid=422ee2ab-d8cf-4a53-80a9-0ba479a92212"},"vehicle_type_id":"4","last_reported":1727780879,"current_range_meters":6400,"station_id":"ce4bgvp2rcd13ifvqct0","pricing_plan_id":"cebpf4jnsgd1na2vs0mg"},{"bike_id":"c449df07-1118-46b6-9cf4-b9bafa5947a2","system_id":"levelo_inurba_marseille","lat":43.262,"lon":5.37932,"is_reserved":false,"is_disabled":false,"rental_uris":{"android":"levelo://app?vid=c449df07-1118-46b6-9cf4-b9bafa5947a2","ios":"levelo://app?vid=c449df07-1118-46b6-9cf4-b9bafa5947a2"},"vehicle_type_id":"4","last_reported":1727780879,"current_range_meters":18800,"station_id":"ce4bhjp2rcd13ifvqg90","pricing_plan_id":"cebpf4jnsgd1na2vs0mg"},{"bike_id":"eef0ff24-2e3f-471a-8736-b680248f123f","system_id":"levelo_inurba_marseille","lat":43.31703,"lon":5.37772,"is_reserved":false,"is_disabled":false,"rental_uris":{"android":"levelo://app?vid=eef0ff24-2e3f-471a-8736-b680248f123f","ios":"levelo://app?vid=eef0ff24-2e3f-471a-8736-b680248f123f"},"vehicle_type_id":"4","last_reported":1727780879,"current_range_meters":37600,"station_id":"ce4bgth2rcd13ifvqch0","pricing_plan_id":"cebpf4jnsgd1na2vs0mg"},{"bike_id":"c2d755fe-89a0-4d03-abbc-d5e6fa6f1c3e","system_id":"levelo_inurba_marseille","lat":43.23174,"lon":5.39998,"is_reserved":false,"is_disabled":false,"rental_uris":{"android":"levelo://app?vid=c2d755fe-89a0-4d03-abbc-d5e6fa6f1c3e","ios":"levelo://app?vid=c2d755fe-89a0-4d03-abbc-d5e6fa6f1c3e"},"vehicle_type_id":"4","last_reported":1727780879,"current_range_meters":10800,"station_id":"ce4bhn12rcd13ifvqgqg","pricing_plan_id":"cebpf4jnsgd1na2vs0mg"},{"bike_id":"642d7fd3-d38b-4606-9ffb-cae38cb8eaea","system_id":"levelo_inurba_marseille","lat":43.29097,"lon":5.38138,"is_reserved":false,"is_disabled":false,"rental_uris":{"android":"levelo://app?vid=642d7fd3-d38b-4606-9ffb-cae38cb8eaea","ios":"levelo://app?vid=642d7fd3-d38b-4606-9ffb-cae38cb8eaea"},"vehicle_type_id":"4","last_reported":1727780879,"current_range_meters":16800,"station_id":"ce4bh512rcd13ifvqe2g","pricing_plan_id":"cebpf4jnsgd1na2vs0mg"},{"bike_id":"007cd8f4-202e-4a0b-a22f-1270b64cf322","system_id":"levelo_inurba_marseille","lat":43.24079,"lon":5.37754,"is_reserved":false,"is_disabled":false,"rental_uris":{"android":"levelo://app?vid=007cd8f4-202e-4a0b-a22f-1270b64cf322","ios":"levelo://app?vid=007cd8f4-202e-4a0b-a22f-1270b64cf322"},"vehicle_type_id":"4","last_reported":1727780879,"current_range_meters":9200,"station_id":"ce4bhnp2rcd13ifvqgvg","pricing_plan_id":"cebpf4jnsgd1na2vs0mg"},{"bike_id":"6abfd20c-f0bd-401f-aaa0-c1e49b5ffb7d","system_id":"levelo_inurba_marseille","lat":43.293689,"lon":5.378549,"is_reserved":false,"is_disabled":false,"rental_uris":{"android":"levelo://app?vid=6abfd20c-f0bd-401f-aaa0-c1e49b5ffb7d","ios":"levelo://app?vid=6abfd20c-f0bd-401f-aaa0-c1e49b5ffb7d"},"vehicle_type_id":"4","last_reported":1727780879,"current_range_meters":4000,"station_id":"ce4bgjh2rcd13ifvqbf0","pricing_plan_id":"cebpf4jnsgd1na2vs0mg"},{"bike_id":"9711c5af-ceda-4c50-b517-1e16cc14a4c7","system_id":"levelo_inurba_marseille","lat":43.23151,"lon":5.43719,"is_reserved":false,"is_disabled":false,"rental_uris":{"android":"levelo://app?vid=9711c5af-ceda-4c50-b517-1e16cc14a4c7","ios":"levelo://app?vid=9711c5af-ceda-4c50-b517-1e16cc14a4c7"},"vehicle_type_id":"4","last_reported":1727780879,"current_range_meters":10000,"station_id":"ce4bhmp2rcd13ifvqgog","pricing_plan_id":"cebpf4jnsgd1na2vs0mg"},{"bike_id":"782c3aa5-ceb4-4f6e-a6c1-90decdc36104","system_id":"levelo_inurba_marseille","lat":43.30545,"lon":5.38416,"is_reserved":false,"is_disabled":false,"rental_uris":{"android":"levelo://app?vid=782c3aa5-ceb4-4f6e-a6c1-90decdc36104","ios":"levelo://app?vid=782c3aa5-ceb4-4f6e-a6c1-90decdc36104"},"vehicle_type_id":"4","last_reported":1727780879,"current_range_meters":36400,"station_id":"ce4bgg92rcd13ifvqb30","pricing_plan_id":"cebpf4jnsgd1na2vs0mg"},{"bike_id":"66be07d5-230f-46b6-beb4-ccbc14743bc4","system_id":"levelo_inurba_marseille","lat":43.27945,"lon":5.41048,"is_reserved":false,"is_disabled":false,"rental_uris":{"android":"levelo://app?vid=66be07d5-230f-46b6-beb4-ccbc14743bc4","ios":"levelo://app?vid=66be07d5-230f-46b6-beb4-ccbc14743bc4"},"vehicle_type_id":"4","last_reported":1727780879,"current_range_meters":37600,"station_id":"ce4bhnp2rcd13ifvqh0g","pricing_plan_id":"cebpf4jnsgd1na2vs0mg"},{"bike_id":"9a4977d9-af5f-434a-b72f-5e805c7b2c44","system_id":"levelo_inurba_marseille","lat":43.31486,"lon":5.37305,"is_reserved":false,"is_disabled":false,"rental_uris":{"android":"levelo://app?vid=9a4977d9-af5f-434a-b72f-5e805c7b2c44","ios":"levelo://app?vid=9a4977d9-af5f-434a-b72f-5e805c7b2c44"},"vehicle_type_id":"4","last_reported":1727780879,"current_range_meters":28400,"station_id":"ce4bgt12rcd13ifvqcd0","pricing_plan_id":"cebpf4jnsgd1na2vs0mg"},{"bike_id":"a2ca83da-f3d3-49a1-a9a2-7b55b27691b8","system_id":"levelo_inurba_marseille","lat":43.29678,"lon":5.37284,"is_reserved":false,"is_disabled":false,"rental_uris":{"android":"levelo://app?vid=a2ca83da-f3d3-49a1-a9a2-7b55b27691b8","ios":"levelo://app?vid=a2ca83da-f3d3-49a1-a9a2-7b55b27691b8"},"vehicle_type_id":"4","last_reported":1727780879,"current_range_meters":26800,"station_id":"ce4bgk12rcd13ifvqbj0","pricing_plan_id":"cebpf4jnsgd1na2vs0mg"},{"bike_id":"198de9cf-8cbb-4e98-9bda-77e8ead9389c","system_id":"levelo_inurba_marseille","lat":43.2901,"lon":5.35607,"is_reserved":false,"is_disabled":false,"rental_uris":{"android":"levelo://app?vid=198de9cf-8cbb-4e98-9bda-77e8ead9389c","ios":"levelo://app?vid=198de9cf-8cbb-4e98-9bda-77e8ead9389c"},"vehicle_type_id":"4","last_reported":1727780879,"current_range_meters":38000,"station_id":"ce4bhb92rcd13ifvqen0","pricing_plan_id":"cebpf4jnsgd1na2vs0mg"},{"bike_id":"01aeba3e-2ff5-4731-a9c8-3a2a9c7c3286","system_id":"levelo_inurba_marseille","lat":43.23957,"lon":5.36641,"is_reserved":false,"is_disabled":false,"rental_uris":{"android":"levelo://app?vid=01aeba3e-2ff5-4731-a9c8-3a2a9c7c3286","ios":"levelo://app?vid=01aeba3e-2ff5-4731-a9c8-3a2a9c7c3286"},"vehicle_type_id":"4","last_reported":1727780879,"current_range_meters":24000,"station_id":"ce4bhi12rcd13ifvqfp0","pricing_plan_id":"cebpf4jnsgd1na2vs0mg"},{"bike_id":"bfdba73b-b279-477d-9344-504fffe97138","system_id":"levelo_inurba_marseille","lat":43.31324,"lon":5.39695,"is_reserved":false,"is_disabled":false,"rental_uris":{"android":"levelo://app?vid=bfdba73b-b279-477d-9344-504fffe97138","ios":"levelo://app?vid=bfdba73b-b279-477d-9344-504fffe97138"},"vehicle_type_id":"4","last_reported":1727780879,"current_range_meters":14800,"station_id":"ce4bgvp2rcd13ifvqcu0","pricing_plan_id":"cebpf4jnsgd1na2vs0mg"},{"bike_id":"9ea8b84f-766b-4bb4-84c8-4fc394bf7639","system_id":"levelo_inurba_marseille","lat":43.29787,"lon":5.37101,"is_reserved":false,"is_disabled":false,"rental_uris":{"android":"levelo://app?vid=9ea8b84f-766b-4bb4-84c8-4fc394bf7639","ios":"levelo://app?vid=9ea8b84f-766b-4bb4-84c8-4fc394bf7639"},"vehicle_type_id":"4","last_reported":1727780879,"current_range_meters":6400,"station_id":"ce4bhr12rcd13ifvqhpg","pricing_plan_id":"cebpf4jnsgd1na2vs0mg"},{"bike_id":"0cd2142c-5562-430f-861b-4e7329de9689","system_id":"levelo_inurba_marseille","lat":43.32286,"lon":5.38272,"is_reserved":false,"is_disabled":false,"rental_uris":{"android":"levelo://app?vid=0cd2142c-5562-430f-861b-4e7329de9689","ios":"levelo://app?vid=0cd2142c-5562-430f-861b-4e7329de9689"},"vehicle_type_id":"4","last_reported":1727780879,"current_range_meters":11600,"station_id":"ce4bhr12rcd13ifvqhqg","pricing_plan_id":"cebpf4jnsgd1na2vs0mg"},{"bike_id":"32dd92d9-407e-420c-9152-5eedb801238e","system_id":"levelo_inurba_marseille","lat":43.30434,"lon":5.38888,"is_reserved":false,"is_disabled":false,"rental_uris":{"android":"levelo://app?vid=32dd92d9-407e-420c-9152-5eedb801238e","ios":"levelo://app?vid=32dd92d9-407e-420c-9152-5eedb801238e"},"vehicle_type_id":"4","last_reported":1727780879,"current_range_meters":27200,"station_id":"ce4bgk12rcd13ifvqbi0","pricing_plan_id":"cebpf4jnsgd1na2vs0mg"},{"bike_id":"b0e18e0c-c9a0-40d2-a481-9d2d4a3cef1d","system_id":"levelo_inurba_marseille","lat":43.26927,"lon":5.38934,"is_reserved":false,"is_disabled":false,"rental_uris":{"android":"levelo://app?vid=b0e18e0c-c9a0-40d2-a481-9d2d4a3cef1d","ios":"levelo://app?vid=b0e18e0c-c9a0-40d2-a481-9d2d4a3cef1d"},"vehicle_type_id":"4","last_reported":1727780879,"current_range_meters":38800,"station_id":"ce4bhhh2rcd13ifvqfl0","pricing_plan_id":"cebpf4jnsgd1na2vs0mg"},{"bike_id":"4e29003e-43fd-4772-a373-e2060dcea67f","system_id":"levelo_inurba_marseille","lat":43.30596,"lon":5.3935,"is_reserved":false,"is_disabled":false,"rental_uris":{"android":"levelo://app?vid=4e29003e-43fd-4772-a373-e2060dcea67f","ios":"levelo://app?vid=4e29003e-43fd-4772-a373-e2060dcea67f"},"vehicle_type_id":"4","last_reported":1727780879,"current_range_meters":38800,"station_id":"ce4bh0p2rcd13ifvqd80","pricing_plan_id":"cebpf4jnsgd1na2vs0mg"},{"bike_id":"f7dd35f8-9801-471e-93fe-8cf220468a7d","system_id":"levelo_inurba_marseille","lat":43.2749,"lon":5.4246,"is_reserved":false,"is_disabled":false,"rental_uris":{"android":"levelo://app?vid=f7dd35f8-9801-471e-93fe-8cf220468a7d","ios":"levelo://app?vid=f7dd35f8-9801-471e-93fe-8cf220468a7d"},"vehicle_type_id":"4","last_reported":1727780879,"current_range_meters":26800,"station_id":"ce4bhn92rcd13ifvqgrg","pricing_plan_id":"cebpf4jnsgd1na2vs0mg"},{"bike_id":"f51bb76c-cb3e-4045-8267-2fa23634f21d","system_id":"levelo_inurba_marseille","lat":43.27492,"lon":5.42456,"is_reserved":false,"is_disabled":false,"rental_uris":{"android":"levelo://app?vid=f51bb76c-cb3e-4045-8267-2fa23634f21d","ios":"levelo://app?vid=f51bb76c-cb3e-4045-8267-2fa23634f21d"},"vehicle_type_id":"4","last_reported":1727780879,"current_range_meters":20000,"station_id":"ce4bhn92rcd13ifvqgrg","pricing_plan_id":"cebpf4jnsgd1na2vs0mg"},{"bike_id":"9096bd7b-c660-4365-bf80-565dc682badb","system_id":"levelo_inurba_marseille","lat":43.31713,"lon":5.3777,"is_reserved":false,"is_disabled":false,"rental_uris":{"android":"levelo://app?vid=9096bd7b-c660-4365-bf80-565dc682badb","ios":"levelo://app?vid=9096bd7b-c660-4365-bf80-565dc682badb"},"vehicle_type_id":"4","last_reported":1727780879,"current_range_meters":37600,"station_id":"ce4bgth2rcd13ifvqch0","pricing_plan_id":"cebpf4jnsgd1na2vs0mg"},{"bike_id":"c84e5d59-30fc-4713-b481-61636401509d","system_id":"levelo_inurba_marseille","lat":43.26564,"lon":5.39014,"is_reserved":false,"is_disabled":false,"rental_uris":{"android":"levelo://app?vid=c84e5d59-30fc-4713-b481-61636401509d","ios":"levelo://app?vid=c84e5d59-30fc-4713-b481-61636401509d"},"vehicle_type_id":"4","last_reported":1727780879,"current_range_meters":26000,"station_id":"ce4bhe12rcd13ifvqf30","pricing_plan_id":"cebpf4jnsgd1na2vs0mg"},{"bike_id":"a0df0cef-a026-41dc-9390-a3b65f866c5c","system_id":"levelo_inurba_marseille","lat":43.26949,"lon":5.38638,"is_reserved":false,"is_disabled":false,"rental_uris":{"android":"levelo://app?vid=a0df0cef-a026-41dc-9390-a3b65f866c5c","ios":"levelo://app?vid=a0df0cef-a026-41dc-9390-a3b65f866c5c"},"vehicle_type_id":"4","last_reported":1727780879,"current_range_meters":29600,"station_id":"ce4bhh92rcd13ifvqfh0","pricing_plan_id":"cebpf4jnsgd1na2vs0mg"},{"bike_id":"9493b5f8-32e6-4d4d-a67f-e9f2001597b3","system_id":"levelo_inurba_marseille","lat":43.30554,"lon":5.36528,"is_reserved":false,"is_disabled":false,"rental_uris":{"android":"levelo://app?vid=9493b5f8-32e6-4d4d-a67f-e9f2001597b3","ios":"levelo://app?vid=9493b5f8-32e6-4d4d-a67f-e9f2001597b3"},"vehicle_type_id":"4","last_reported":1727780879,"current_range_meters":36400,"station_id":"ce4bgs12rcd13ifvqcag","pricing_plan_id":"cebpf4jnsgd1na2vs0mg"},{"bike_id":"2d7439c9-83ec-4fba-a8cc-813889000f94","system_id":"levelo_inurba_marseille","lat":43.23186,"lon":5.35558,"is_reserved":false,"is_disabled":false,"rental_uris":{"android":"levelo://app?vid=2d7439c9-83ec-4fba-a8cc-813889000f94","ios":"levelo://app?vid=2d7439c9-83ec-4fba-a8cc-813889000f94"},"vehicle_type_id":"4","last_reported":1727780879,"current_range_meters":37600,"station_id":"ce4bhu92rcd13ifvqi70","pricing_plan_id":"cebpf4jnsgd1na2vs0mg"},{"bike_id":"283c0a19-b0ec-4986-9e09-c097d5d27e38","system_id":"levelo_inurba_marseille","lat":43.23153,"lon":5.43702,"is_reserved":false,"is_disabled":false,"rental_uris":{"android":"levelo://app?vid=283c0a19-b0ec-4986-9e09-c097d5d27e38","ios":"levelo://app?vid=283c0a19-b0ec-4986-9e09-c097d5d27e38"},"vehicle_type_id":"4","last_reported":1727780879,"current_range_meters":38800,"station_id":"ce4bhmp2rcd13ifvqgog","pricing_plan_id":"cebpf4jnsgd1na2vs0mg"},{"bike_id":"8460e650-0c0b-4c11-b05b-78e8059fc565","system_id":"levelo_inurba_marseille","lat":43.27492,"lon":5.42459,"is_reserved":false,"is_disabled":false,"rental_uris":{"android":"levelo://app?vid=8460e650-0c0b-4c11-b05b-78e8059fc565","ios":"levelo://app?vid=8460e650-0c0b-4c11-b05b-78e8059fc565"},"vehicle_type_id":"4","last_reported":1727780879,"current_range_meters":8400,"station_id":"ce4bhn92rcd13ifvqgrg","pricing_plan_id":"cebpf4jnsgd1na2vs0mg"},{"bike_id":"5a2bf0d2-37a5-4a79-a371-5ddb1ff2d2a5","system_id":"levelo_inurba_marseille","lat":43.29602,"lon":5.38101,"is_reserved":false,"is_disabled":false,"rental_uris":{"android":"levelo://app?vid=5a2bf0d2-37a5-4a79-a371-5ddb1ff2d2a5","ios":"levelo://app?vid=5a2bf0d2-37a5-4a79-a371-5ddb1ff2d2a5"},"vehicle_type_id":"4","last_reported":1727780879,"current_range_meters":9200,"station_id":"ce4bgl12rcd13ifvqbo0","pricing_plan_id":"cebpf4jnsgd1na2vs0mg"},{"bike_id":"1ef9aa22-f456-49d7-9b93-a80f5fe44895","system_id":"levelo_inurba_marseille","lat":43.27491,"lon":5.42456,"is_reserved":false,"is_disabled":false,"rental_uris":{"android":"levelo://app?vid=1ef9aa22-f456-49d7-9b93-a80f5fe44895","ios":"levelo://app?vid=1ef9aa22-f456-49d7-9b93-a80f5fe44895"},"vehicle_type_id":"4","last_reported":1727780879,"current_range_meters":15200,"station_id":"ce4bhn92rcd13ifvqgrg","pricing_plan_id":"cebpf4jnsgd1na2vs0mg"},{"bike_id":"ec165253-bda4-4bac-82a7-037e6bfb341b","system_id":"levelo_inurba_marseille","lat":43.30533,"lon":5.36696,"is_reserved":false,"is_disabled":false,"rental_uris":{"android":"levelo://app?vid=ec165253-bda4-4bac-82a7-037e6bfb341b","ios":"levelo://app?vid=ec165253-bda4-4bac-82a7-037e6bfb341b"},"vehicle_type_id":"4","last_reported":1727780879,"current_range_meters":30800,"station_id":"ce4bgrp2rcd13ifvqc9g","pricing_plan_id":"cebpf4jnsgd1na2vs0mg"},{"bike_id":"6a189ee9-b345-4c2d-bda2-cbc10f3d38d4","system_id":"levelo_inurba_marseille","lat":43.27618,"lon":5.36105,"is_reserved":false,"is_disabled":false,"rental_uris":{"android":"levelo://app?vid=6a189ee9-b345-4c2d-bda2-cbc10f3d38d4","ios":"levelo://app?vid=6a189ee9-b345-4c2d-bda2-cbc10f3d38d4"},"vehicle_type_id":"4","last_reported":1727780879,"current_range_meters":32800,"station_id":"ce4bgj92rcd13ifvqbe0","pricing_plan_id":"cebpf4jnsgd1na2vs0mg"},{"bike_id":"689e2eb2-d4db-424a-a35d-2231117279c5","system_id":"levelo_inurba_marseille","lat":43.26947,"lon":5.38649,"is_reserved":false,"is_disabled":false,"rental_uris":{"android":"levelo://app?vid=689e2eb2-d4db-424a-a35d-2231117279c5","ios":"levelo://app?vid=689e2eb2-d4db-424a-a35d-2231117279c5"},"vehicle_type_id":"4","last_reported":1727780879,"current_range_meters":39200,"station_id":"ce4bhh92rcd13ifvqfh0","pricing_plan_id":"cebpf4jnsgd1na2vs0mg"},{"bike_id":"cc0a7f5d-1ff8-4de2-8e46-8430e23ab933","system_id":"levelo_inurba_marseille","lat":43.31086,"lon":5.4243,"is_reserved":false,"is_disabled":false,"rental_uris":{"android":"levelo://app?vid=cc0a7f5d-1ff8-4de2-8e46-8430e23ab933","ios":"levelo://app?vid=cc0a7f5d-1ff8-4de2-8e46-8430e23ab933"},"vehicle_type_id":"4","last_reported":1727780879,"current_range_meters":37600,"station_id":"ce4bhp92rcd13ifvqhag","pricing_plan_id":"cebpf4jnsgd1na2vs0mg"},{"bike_id":"27c4dd9a-4646-4cfd-a441-59d385db3d40","system_id":"levelo_inurba_marseille","lat":43.2512,"lon":5.40316,"is_reserved":false,"is_disabled":false,"rental_uris":{"android":"levelo://app?vid=27c4dd9a-4646-4cfd-a441-59d385db3d40","ios":"levelo://app?vid=27c4dd9a-4646-4cfd-a441-59d385db3d40"},"vehicle_type_id":"4","last_reported":1727780879,"current_range_meters":27600,"station_id":"ce4bhlh2rcd13ifvqgig","pricing_plan_id":"cebpf4jnsgd1na2vs0mg"},{"bike_id":"67eea467-8d36-4024-b8f7-900864c5d3cc","system_id":"levelo_inurba_marseille","lat":43.29373,"lon":5.37854,"is_reserved":false,"is_disabled":false,"rental_uris":{"android":"levelo://app?vid=67eea467-8d36-4024-b8f7-900864c5d3cc","ios":"levelo://app?vid=67eea467-8d36-4024-b8f7-900864c5d3cc"},"vehicle_type_id":"4","last_reported":1727780879,"current_range_meters":32000,"station_id":"ce4bgjh2rcd13ifvqbf0","pricing_plan_id":"cebpf4jnsgd1na2vs0mg"},{"bike_id":"e49b4168-7eab-4e96-81b4-d12336a2062f","system_id":"levelo_inurba_marseille","lat":43.259335,"lon":5.409067,"is_reserved":false,"is_disabled":false,"rental_uris":{"android":"levelo://app?vid=e49b4168-7eab-4e96-81b4-d12336a2062f","ios":"levelo://app?vid=e49b4168-7eab-4e96-81b4-d12336a2062f"},"vehicle_type_id":"4","last_reported":1727780879,"current_range_meters":11600,"station_id":"ce4bhm92rcd13ifvqglg","pricing_plan_id":"cebpf4jnsgd1na2vs0mg"},{"bike_id":"e1fe0d2a-6a8f-4221-94db-849f44068beb","system_id":"levelo_inurba_marseille","lat":43.29624,"lon":5.37714,"is_reserved":false,"is_disabled":false,"rental_uris":{"android":"levelo://app?vid=e1fe0d2a-6a8f-4221-94db-849f44068beb","ios":"levelo://app?vid=e1fe0d2a-6a8f-4221-94db-849f44068beb"},"vehicle_type_id":"4","last_reported":1727780879,"current_range_meters":11200,"station_id":"ce4bgi92rcd13ifvqb90","pricing_plan_id":"cebpf4jnsgd1na2vs0mg"},{"bike_id":"931a435c-9153-4687-b1d4-315f2ece9231","system_id":"levelo_inurba_marseille","lat":43.30932,"lon":5.40145,"is_reserved":false,"is_disabled":false,"rental_uris":{"android":"levelo://app?vid=931a435c-9153-4687-b1d4-315f2ece9231","ios":"levelo://app?vid=931a435c-9153-4687-b1d4-315f2ece9231"},"vehicle_type_id":"4","last_reported":1727780879,"current_range_meters":26000,"station_id":"ce4bgvp2rcd13ifvqct0","pricing_plan_id":"cebpf4jnsgd1na2vs0mg"},{"bike_id":"d54afdb5-64b5-4577-b0c1-8bff91cdc5ae","system_id":"levelo_inurba_marseille","lat":43.28616,"lon":5.35098,"is_reserved":false,"is_disabled":false,"rental_uris":{"android":"levelo://app?vid=d54afdb5-64b5-4577-b0c1-8bff91cdc5ae","ios":"levelo://app?vid=d54afdb5-64b5-4577-b0c1-8bff91cdc5ae"},"vehicle_type_id":"4","last_reported":1727780879,"current_range_meters":22400,"station_id":"ce4bhch2rcd13ifvqeug","pricing_plan_id":"cebpf4jnsgd1na2vs0mg"},{"bike_id":"2c388bd6-d793-474a-b14e-849d1f0d8373","system_id":"levelo_inurba_marseille","lat":43.29283,"lon":5.40128,"is_reserved":false,"is_disabled":false,"rental_uris":{"android":"levelo://app?vid=2c388bd6-d793-474a-b14e-849d1f0d8373","ios":"levelo://app?vid=2c388bd6-d793-474a-b14e-849d1f0d8373"},"vehicle_type_id":"4","last_reported":1727780879,"current_range_meters":23200,"station_id":"ce4bh312rcd13ifvqdk0","pricing_plan_id":"cebpf4jnsgd1na2vs0mg"},{"bike_id":"fbf2244a-541f-49e1-9715-9965a334a70e","system_id":"levelo_inurba_marseille","lat":43.34142,"lon":5.409,"is_reserved":false,"is_disabled":false,"rental_uris":{"android":"levelo://app?vid=fbf2244a-541f-49e1-9715-9965a334a70e","ios":"levelo://app?vid=fbf2244a-541f-49e1-9715-9965a334a70e"},"vehicle_type_id":"4","last_reported":1727780879,"current_range_meters":23200,"station_id":"ce4bhqh2rcd13ifvqhlg","pricing_plan_id":"cebpf4jnsgd1na2vs0mg"},{"bike_id":"f3dd4a1a-413a-4b06-b3b1-3e65ec6c6fac","system_id":"levelo_inurba_marseille","lat":43.30592,"lon":5.39347,"is_reserved":false,"is_disabled":false,"rental_uris":{"android":"levelo://app?vid=f3dd4a1a-413a-4b06-b3b1-3e65ec6c6fac","ios":"levelo://app?vid=f3dd4a1a-413a-4b06-b3b1-3e65ec6c6fac"},"vehicle_type_id":"4","last_reported":1727780879,"current_range_meters":34000,"station_id":"ce4bh0p2rcd13ifvqd80","pricing_plan_id":"cebpf4jnsgd1na2vs0mg"},{"bike_id":"2ed36a11-5e83-4a67-bd66-efe684933ead","system_id":"levelo_inurba_marseille","lat":43.31347,"lon":5.36709,"is_reserved":false,"is_disabled":false,"rental_uris":{"android":"levelo://app?vid=2ed36a11-5e83-4a67-bd66-efe684933ead","ios":"levelo://app?vid=2ed36a11-5e83-4a67-bd66-efe684933ead"},"vehicle_type_id":"4","last_reported":1727780879,"current_range_meters":39200,"station_id":"ce4bgr92rcd13ifvqc6g","pricing_plan_id":"cebpf4jnsgd1na2vs0mg"},{"bike_id":"35e861d4-8df1-4251-acdf-992b8415e66a","system_id":"levelo_inurba_marseille","lat":43.29575,"lon":5.39981,"is_reserved":false,"is_disabled":false,"rental_uris":{"android":"levelo://app?vid=35e861d4-8df1-4251-acdf-992b8415e66a","ios":"levelo://app?vid=35e861d4-8df1-4251-acdf-992b8415e66a"},"vehicle_type_id":"4","last_reported":1727780879,"current_range_meters":17600,"station_id":"ce4bh312rcd13ifvqdj0","pricing_plan_id":"cebpf4jnsgd1na2vs0mg"},{"bike_id":"6e4e18d8-1b46-480e-a81c-4aaa5a2672c2","system_id":"levelo_inurba_marseille","lat":43.23156,"lon":5.43699,"is_reserved":false,"is_disabled":false,"rental_uris":{"android":"levelo://app?vid=6e4e18d8-1b46-480e-a81c-4aaa5a2672c2","ios":"levelo://app?vid=6e4e18d8-1b46-480e-a81c-4aaa5a2672c2"},"vehicle_type_id":"4","last_reported":1727780879,"current_range_meters":17600,"station_id":"ce4bhmp2rcd13ifvqgog","pricing_plan_id":"cebpf4jnsgd1na2vs0mg"},{"bike_id":"e48c8979-8cc3-4527-9bd0-21524ec72a19","system_id":"levelo_inurba_marseille","lat":43.29575,"lon":5.37505,"is_reserved":false,"is_disabled":false,"rental_uris":{"android":"levelo://app?vid=e48c8979-8cc3-4527-9bd0-21524ec72a19","ios":"levelo://app?vid=e48c8979-8cc3-4527-9bd0-21524ec72a19"},"vehicle_type_id":"4","last_reported":1727780879,"current_range_meters":28000,"station_id":"ce4bgh92rcd13ifvqb50","pricing_plan_id":"cebpf4jnsgd1na2vs0mg"},{"bike_id":"a86ac359-1547-4175-bce3-51b63efa0be5","system_id":"levelo_inurba_marseille","lat":43.30166,"lon":5.38084,"is_reserved":false,"is_disabled":false,"rental_uris":{"android":"levelo://app?vid=a86ac359-1547-4175-bce3-51b63efa0be5","ios":"levelo://app?vid=a86ac359-1547-4175-bce3-51b63efa0be5"},"vehicle_type_id":"4","last_reported":1727780879,"current_range_meters":9600,"station_id":"ce4bh9p2rcd13ifvqec0","pricing_plan_id":"cebpf4jnsgd1na2vs0mg"},{"bike_id":"03ddc322-6e9f-467b-afb4-b2f2eab33087","system_id":"levelo_inurba_marseille","lat":43.29008,"lon":5.35604,"is_reserved":false,"is_disabled":false,"rental_uris":{"android":"levelo://app?vid=03ddc322-6e9f-467b-afb4-b2f2eab33087","ios":"levelo://app?vid=03ddc322-6e9f-467b-afb4-b2f2eab33087"},"vehicle_type_id":"4","last_reported":1727780879,"current_range_meters":9200,"station_id":"ce4bhb92rcd13ifvqen0","pricing_plan_id":"cebpf4jnsgd1na2vs0mg"},{"bike_id":"e4c114f5-57a8-4a0f-9ac4-f4bd516d6015","system_id":"levelo_inurba_marseille","lat":43.3169,"lon":5.40477,"is_reserved":false,"is_disabled":false,"rental_uris":{"android":"levelo://app?vid=e4c114f5-57a8-4a0f-9ac4-f4bd516d6015","ios":"levelo://app?vid=e4c114f5-57a8-4a0f-9ac4-f4bd516d6015"},"vehicle_type_id":"4","last_reported":1727780879,"current_range_meters":35200,"station_id":"ce4bh012rcd13ifvqd00","pricing_plan_id":"cebpf4jnsgd1na2vs0mg"},{"bike_id":"72396cda-045e-40a5-99dd-8e6adb283673","system_id":"levelo_inurba_marseille","lat":43.34151,"lon":5.40898,"is_reserved":false,"is_disabled":false,"rental_uris":{"android":"levelo://app?vid=72396cda-045e-40a5-99dd-8e6adb283673","ios":"levelo://app?vid=72396cda-045e-40a5-99dd-8e6adb283673"},"vehicle_type_id":"4","last_reported":1727780879,"current_range_meters":24800,"station_id":"ce4bhqh2rcd13ifvqhlg","pricing_plan_id":"cebpf4jnsgd1na2vs0mg"},{"bike_id":"d0dbede8-81d1-45cc-927f-4dc9b3bafb6c","system_id":"levelo_inurba_marseille","lat":43.28339,"lon":5.38104,"is_reserved":false,"is_disabled":false,"rental_uris":{"android":"levelo://app?vid=d0dbede8-81d1-45cc-927f-4dc9b3bafb6c","ios":"levelo://app?vid=d0dbede8-81d1-45cc-927f-4dc9b3bafb6c"},"vehicle_type_id":"4","last_reported":1727780879,"current_range_meters":16400,"station_id":"ce4bh412rcd13ifvqdr0","pricing_plan_id":"cebpf4jnsgd1na2vs0mg"},{"bike_id":"a89da852-1037-48ee-9c81-7bc5f3c20611","system_id":"levelo_inurba_marseille","lat":43.25937,"lon":5.40906,"is_reserved":false,"is_disabled":false,"rental_uris":{"android":"levelo://app?vid=a89da852-1037-48ee-9c81-7bc5f3c20611","ios":"levelo://app?vid=a89da852-1037-48ee-9c81-7bc5f3c20611"},"vehicle_type_id":"4","last_reported":1727780879,"current_range_meters":8800,"station_id":"ce4bhm92rcd13ifvqglg","pricing_plan_id":"cebpf4jnsgd1na2vs0mg"},{"bike_id":"67e0566b-a3a2-4812-958d-95e55852e48f","system_id":"levelo_inurba_marseille","lat":43.30532,"lon":5.36701,"is_reserved":false,"is_disabled":false,"rental_uris":{"android":"levelo://app?vid=67e0566b-a3a2-4812-958d-95e55852e48f","ios":"levelo://app?vid=67e0566b-a3a2-4812-958d-95e55852e48f"},"vehicle_type_id":"4","last_reported":1727780879,"current_range_meters":38800,"station_id":"ce4bh092rcd13ifvqd30","pricing_plan_id":"cebpf4jnsgd1na2vs0mg"},{"bike_id":"3332c8f5-1cc1-4aab-aca1-b2c33c8913d9","system_id":"levelo_inurba_marseille","lat":43.25942,"lon":5.40896,"is_reserved":false,"is_disabled":false,"rental_uris":{"android":"levelo://app?vid=3332c8f5-1cc1-4aab-aca1-b2c33c8913d9","ios":"levelo://app?vid=3332c8f5-1cc1-4aab-aca1-b2c33c8913d9"},"vehicle_type_id":"4","last_reported":1727780879,"current_range_meters":33600,"station_id":"ce4bhm92rcd13ifvqglg","pricing_plan_id":"cebpf4jnsgd1na2vs0mg"},{"bike_id":"7cdc4650-5148-4339-9fd1-1d5a0c61e686","system_id":"levelo_inurba_marseille","lat":43.24177,"lon":5.39746,"is_reserved":false,"is_disabled":false,"rental_uris":{"android":"levelo://app?vid=7cdc4650-5148-4339-9fd1-1d5a0c61e686","ios":"levelo://app?vid=7cdc4650-5148-4339-9fd1-1d5a0c61e686"},"vehicle_type_id":"4","last_reported":1727780879,"current_range_meters":38800,"station_id":"ce4bhn12rcd13ifvqgpg","pricing_plan_id":"cebpf4jnsgd1na2vs0mg"},{"bike_id":"a6a5837e-ae0e-43ad-a937-8733ae1af49a","system_id":"levelo_inurba_marseille","lat":43.30557,"lon":5.36544,"is_reserved":false,"is_disabled":false,"rental_uris":{"android":"levelo://app?vid=a6a5837e-ae0e-43ad-a937-8733ae1af49a","ios":"levelo://app?vid=a6a5837e-ae0e-43ad-a937-8733ae1af49a"},"vehicle_type_id":"4","last_reported":1727780879,"current_range_meters":39200,"station_id":"ce4bgs12rcd13ifvqcag","pricing_plan_id":"cebpf4jnsgd1na2vs0mg"},{"bike_id":"a9d29f9a-601a-4b9b-ab7c-f1242fff1611","system_id":"levelo_inurba_marseille","lat":43.24071,"lon":5.37763,"is_reserved":false,"is_disabled":false,"rental_uris":{"android":"levelo://app?vid=a9d29f9a-601a-4b9b-ab7c-f1242fff1611","ios":"levelo://app?vid=a9d29f9a-601a-4b9b-ab7c-f1242fff1611"},"vehicle_type_id":"4","last_reported":1727780879,"current_range_meters":14000,"station_id":"ce4bhnp2rcd13ifvqgvg","pricing_plan_id":"cebpf4jnsgd1na2vs0mg"},{"bike_id":"66faafa7-3903-437b-9666-2c162becdfee","system_id":"levelo_inurba_marseille","lat":43.292972,"lon":5.401662,"is_reserved":false,"is_disabled":false,"rental_uris":{"android":"levelo://app?vid=66faafa7-3903-437b-9666-2c162becdfee","ios":"levelo://app?vid=66faafa7-3903-437b-9666-2c162becdfee"},"vehicle_type_id":"4","last_reported":1727780879,"current_range_meters":28000,"station_id":"ce4bh192rcd13ifvqdc0","pricing_plan_id":"cebpf4jnsgd1na2vs0mg"},{"bike_id":"c0f09735-5f9d-4d91-a862-446293fb3a3d","system_id":"levelo_inurba_marseille","lat":43.30188,"lon":5.36629,"is_reserved":false,"is_disabled":false,"rental_uris":{"android":"levelo://app?vid=c0f09735-5f9d-4d91-a862-446293fb3a3d","ios":"levelo://app?vid=c0f09735-5f9d-4d91-a862-446293fb3a3d"},"vehicle_type_id":"4","last_reported":1727780879,"current_range_meters":37600,"station_id":"ce4bgrh2rcd13ifvqc8g","pricing_plan_id":"cebpf4jnsgd1na2vs0mg"},{"bike_id":"3960e487-b40c-4d98-86d5-6a6cc1418cf0","system_id":"levelo_inurba_marseille","lat":43.3028,"lon":5.37698,"is_reserved":false,"is_disabled":false,"rental_uris":{"android":"levelo://app?vid=3960e487-b40c-4d98-86d5-6a6cc1418cf0","ios":"levelo://app?vid=3960e487-b40c-4d98-86d5-6a6cc1418cf0"},"vehicle_type_id":"4","last_reported":1727780879,"current_range_meters":38800,"station_id":"ce4bguh2rcd13ifvqcj0","pricing_plan_id":"cebpf4jnsgd1na2vs0mg"},{"bike_id":"ada40fcd-b9ea-429e-9dcf-b8916983f347","system_id":"levelo_inurba_marseille","lat":43.29515,"lon":5.39404,"is_reserved":false,"is_disabled":false,"rental_uris":{"android":"levelo://app?vid=ada40fcd-b9ea-429e-9dcf-b8916983f347","ios":"levelo://app?vid=ada40fcd-b9ea-429e-9dcf-b8916983f347"},"vehicle_type_id":"4","last_reported":1727780879,"current_range_meters":23200,"station_id":"ce4bh292rcd13ifvqdf0","pricing_plan_id":"cebpf4jnsgd1na2vs0mg"},