{"last_updated":1719342433,"ttl":30,"version":"2.2","data":{"bikes":[{"bike_id":"3bb0c5ae-48f5-4370-85d8-a5b3d90d6517","system_id":"levelo_inurba_marseille","lat":43.31228,"lon":5.36846,"is_reserved":false,"is_disabled":false,"rental_uris":{"android":"levelo://app?vid=3bb0c5ae-48f5-4370-85d8-a5b3d90d6517","ios":"levelo://app?vid=3bb0c5ae-48f5-4370-85d8-a5b3d90d6517"},"vehicle_type_id":"4","last_reported":1719342434,"current_range_meters":800,"station_id":"ce4bgl92rcd13ifvqbq0","pricing_plan_id":"cebpf4jnsgd1na2vs0mg"},{"bike_id":"bcc3e4e7-49ad-4827-ad72-a8aac5cd29e6","system_id":"levelo_inurba_marseille","lat":43.31509,"lon":5.37089,"is_reserved":false,"is_disabled":false,"rental_uris":{"android":"levelo://app?vid=bcc3e4e7-49ad-4827-ad72-a8aac5cd29e6","ios":"levelo://app?vid=bcc3e4e7-49ad-4827-ad72-a8aac5cd29e6"},"vehicle_type_id":"4","last_reported":1719342434,"current_range_meters":18800,"station_id":"","pricing_plan_id":"cebpf4jnsgd1na2vs0mg"},{"bike_id":"a8d6938b-25fa-4082-b8d8-90451e9785b6","system_id":"levelo_inurba_marseille","lat":43.30912,"lon":5.36845,"is_reserved":false,"is_disabled":false,"rental_uris":{"android":"levelo://app?vid=a8d6938b-25fa-4082-b8d8-90451e9785b6","ios":"levelo://app?vid=a8d6938b-25fa-4082-b8d8-90451e9785b6"},"vehicle_type_id":"4","last_reported":1719342434,"current_range_meters":5200,"station_id":"ce4bgn92rcd13ifvqbvg","pricing_plan_id":"cebpf4jnsgd1na2vs0mg"},{"bike_id":"b21a7d9b-f200-4e5d-9133-8b83723d081d","system_id":"levelo_inurba_marseille","lat":43.314811,"lon":5.373104,"is_reserved":false,"is_disabled":false,"rental_uris":{"android":"levelo://app?vid=b21a7d9b-f200-4e5d-9133-8b83723d081d","ios":"levelo://app?vid=b21a7d9b-f200-4e5d-9133-8b83723d081d"},"vehicle_type_id":"4","last_reported":1719342434,"current_range_meters":28000,"station_id":"ce4bgt12rcd13ifvqcd0","pricing_plan_id":"cebpf4jnsgd1na2vs0mg"},{"bike_id":"7dd480be-5bcb-433b-b637-b07ac608a14c","system_id":"levelo_inurba_marseille","lat":43.309039,"lon":5.371797,"is_reserved":false,"is_disabled":false,"rental_uris":{"android":"levelo://app?vid=7dd480be-5bcb-433b-b637-b07ac608a14c","ios":"levelo://app?vid=7dd480be-5bcb-433b-b637-b07ac608a14c"},"vehicle_type_id":"4","last_reported":1719342434,"current_range_meters":24400,"station_id":"ce4bguh2rcd13ifvqckg","pricing_plan_id":"cebpf4jnsgd1na2vs0mg"},{"bike_id":"ead18698-b369-4961-a1eb-ff90c633ea77","system_id":"levelo_inurba_marseille","lat":43.30822,"lon":5.37315,"is_reserved":false,"is_disabled":false,"rental_uris":{"android":"levelo://app?vid=ead18698-b369-4961-a1eb-ff90c633ea77","ios":"levelo://app?vid=ead18698-b369-4961-a1eb-ff90c633ea77"},"vehicle_type_id":"4","last_reported":1719342434,"current_range_meters":6400,"station_id":"","pricing_plan_id":"cebpf4jnsgd1na2vs0mg"},{"bike_id":"411a8ae1-8905-405a-9f89-3e20915d0528","system_id":"levelo_inurba_marseille","lat":43.305368,"lon":5.367343,"is_reserved":false,"is_disabled":false,"rental_uris":{"android":"levelo://app?vid=411a8ae1-8905-405a-9f89-3e20915d0528","ios":"levelo://app?vid=411a8ae1-8905-405a-9f89-3e20915d0528"},"vehicle_type_id":"4","last_reported":1719342434,"current_range_meters":8800,"station_id":"ce4bgrp2rcd13ifvqc9g","pricing_plan_id":"cebpf4jnsgd1na2vs0mg"},{"bike_id":"47e18133-8ccb-4e72-9531-f4f12e1d429a","system_id":"levelo_inurba_marseille","lat":43.305368,"lon":5.367343,"is_reserved":false,"is_disabled":false,"rental_uris":{"android":"levelo://app?vid=47e18133-8ccb-4e72-9531-f4f12e1d429a","ios":"levelo://app?vid=47e18133-8ccb-4e72-9531-f4f12e1d429a"},"vehicle_type_id":"4","last_reported":1719342434,"current_range_meters":2800,"station_id":"ce4bgrp2rcd13ifvqc9g","pricing_plan_id":"cebpf4jnsgd1na2vs0mg"},{"bike_id":"d8500118-5b48-4db6-9cde-300836ed2774","system_id":"levelo_inurba_marseille","lat":43.305989,"lon":5.37225,"is_reserved":false,"is_disabled":false,"rental_uris":{"android":"levelo://app?vid=d8500118-5b48-4db6-9cde-300836ed2774","ios":"levelo://app?vid=d8500118-5b48-4db6-9cde-300836ed2774"},"vehicle_type_id":"4","last_reported":1719342434,"current_range_meters":21200,"station_id":"ce4bgqh2rcd13ifvqc4g","pricing_plan_id":"cebpf4jnsgd1na2vs0mg"},{"bike_id":"42d7b5e2-9438-4745-937f-c5143e618def","system_id":"levelo_inurba_marseille","lat":43.305989,"lon":5.37225,"is_reserved":false,"is_disabled":false,"rental_uris":{"android":"levelo://app?vid=42d7b5e2-9438-4745-937f-c5143e618def","ios":"levelo://app?vid=42d7b5e2-9438-4745-937f-c5143e618def"},"vehicle_type_id":"4","last_reported":1719342434,"current_range_meters":2800,"station_id":"ce4bgqh2rcd13ifvqc4g","pricing_plan_id":"cebpf4jnsgd1na2vs0mg"},{"bike_id":"f77375e2-a238-4567-98bc-5004fcbafc08","system_id":"levelo_inurba_marseille","lat":43.305989,"lon":5.37225,"is_reserved":false,"is_disabled":false,"rental_uris":{"android":"levelo://app?vid=f77375e2-a238-4567-98bc-5004fcbafc08","ios":"levelo://app?vid=f77375e2-a238-4567-98bc-5004fcbafc08"},"vehicle_type_id":"4","last_reported":1719342434,"current_range_meters":28000,"station_id":"ce4bgqh2rcd13ifvqc4g","pricing_plan_id":"cebpf4jnsgd1na2vs0mg"},{"bike_id":"36c140fe-d18f-4ff5-be8f-386de33eddf0","system_id":"levelo_inurba_marseille","lat":43.311178,"lon":5.377647,"is_reserved":false,"is_disabled":false,"rental_uris":{"android":"levelo://app?vid=36c140fe-d18f-4ff5-be8f-386de33eddf0","ios":"levelo://app?vid=36c140fe-d18f-4ff5-be8f-386de33eddf0"},"vehicle_type_id":"4","last_reported":1719342434,"current_range_meters":28400,"station_id":"ce4bgt92rcd13ifvqcg0","pricing_plan_id":"cebpf4jnsgd1na2vs0mg"},{"bike_id":"2bbb5117-c361-439e-9070-abed429f1edc","system_id":"levelo_inurba_marseille","lat":43.30535,"lon":5.37322,"is_reserved":false,"is_disabled":false,"rental_uris":{"android":"levelo://app?vid=2bbb5117-c361-439e-9070-abed429f1edc","ios":"levelo://app?vid=2bbb5117-c361-439e-9070-abed429f1edc"},"vehicle_type_id":"4","last_reported":1719342434,"current_range_meters":0,"station_id":"","pricing_plan_id":"cebpf4jnsgd1na2vs0mg"},{"bike_id":"f844013f-ad70-4cdc-8823-761c0e734657","system_id":"levelo_inurba_marseille","lat":43.303046,"lon":5.368981,"is_reserved":false,"is_disabled":false,"rental_uris":{"android":"levelo://app?vid=f844013f-ad70-4cdc-8823-761c0e734657","ios":"levelo://app?vid=f844013f-ad70-4cdc-8823-761c0e734657"},"vehicle_type_id":"4","last_reported":1719342434,"current_range_meters":19600,"station_id":"ce4bgqh2rcd13ifvqc5g","pricing_plan_id":"cebpf4jnsgd1na2vs0mg"},{"bike_id":"c73f0f5f-5599-4f20-affb-07e483d7f409","system_id":"levelo_inurba_marseille","lat":43.303046,"lon":5.368981,"is_reserved":false,"is_disabled":false,"rental_uris":{"android":"levelo://app?vid=c73f0f5f-5599-4f20-affb-07e483d7f409","ios":"levelo://app?vid=c73f0f5f-5599-4f20-affb-07e483d7f409"},"vehicle_type_id":"4","last_reported":1719342434,"current_range_meters":24400,"station_id":"ce4bgqh2rcd13ifvqc5g","pricing_plan_id":"cebpf4jnsgd1na2vs0mg"},{"bike_id":"f77352fa-ce48-4753-996e-0be031b22d73","system_id":"levelo_inurba_marseille","lat":43.303046,"lon":5.368981,"is_reserved":false,"is_disabled":false,"rental_uris":{"android":"levelo://app?vid=f77352fa-ce48-4753-996e-0be031b22d73","ios":"levelo://app?vid=f77352fa-ce48-4753-996e-0be031b22d73"},"vehicle_type_id":"4","last_reported":1719342434,"current_range_meters":8800,"station_id":"ce4bgqh2rcd13ifvqc5g","pricing_plan_id":"cebpf4jnsgd1na2vs0mg"},{"bike_id":"704a50c4-34c5-4c30-bae7-473a39ec3104","system_id":"levelo_inurba_marseille","lat":43.303046,"lon":5.368981,"is_reserved":false,"is_disabled":false,"rental_uris":{"android":"levelo://app?vid=704a50c4-34c5-4c30-bae7-473a39ec3104","ios":"levelo://app?vid=704a50c4-34c5-4c30-bae7-473a39ec3104"},"vehicle_type_id":"4","last_reported":1719342434,"current_range_meters":28000,"station_id":"ce4bgqh2rcd13ifvqc5g","pricing_plan_id":"cebpf4jnsgd1na2vs0mg"},{"bike_id":"07d27705-d9e1-4545-abed-dfcbe136df88","system_id":"levelo_inurba_marseille","lat":43.301939,"lon":5.366286,"is_reserved":false,"is_disabled":false,"rental_uris":{"android":"levelo://app?vid=07d27705-d9e1-4545-abed-dfcbe136df88","ios":"levelo://app?vid=07d27705-d9e1-4545-abed-dfcbe136df88"},"vehicle_type_id":"4","last_reported":1719342434,"current_range_meters":29600,"station_id":"ce4bgrh2rcd13ifvqc8g","pricing_plan_id":"cebpf4jnsgd1na2vs0mg"},{"bike_id":"41280e79-4d84-4f06-8dd1-bed746db557f","system_id":"levelo_inurba_marseille","lat":43.308012,"lon":5.381511,"is_reserved":false,"is_disabled":false,"rental_uris":{"android":"levelo://app?vid=41280e79-4d84-4f06-8dd1-bed746db557f","ios":"levelo://app?vid=41280e79-4d84-4f06-8dd1-bed746db557f"},"vehicle_type_id":"4","last_reported":1719342434,"current_range_meters":30400,"station_id":"ce4bgt12rcd13ifvqce0","pricing_plan_id":"cebpf4jnsgd1na2vs0mg"},{"bike_id":"fd2e87f5-17ce-4ac9-9386-3077101e488f","system_id":"levelo_inurba_marseille","lat":43.308021,"lon":5.381559,"is_reserved":false,"is_disabled":false,"rental_uris":{"android":"levelo://app?vid=fd2e87f5-17ce-4ac9-9386-3077101e488f","ios":"levelo://app?vid=fd2e87f5-17ce-4ac9-9386-3077101e488f"},"vehicle_type_id":"4","last_reported":1719342434,"current_range_meters":22400,"station_id":"ce4bgt12rcd13ifvqce0","pricing_plan_id":"cebpf4jnsgd1na2vs0mg"},{"bike_id":"e04491b7-fd51-46eb-a678-2c113550687f","system_id":"levelo_inurba_marseille","lat":43.304606,"lon":5.379026,"is_reserved":false,"is_disabled":false,"rental_uris":{"android":"levelo://app?vid=e04491b7-fd51-46eb-a678-2c113550687f","ios":"levelo://app?vid=e04491b7-fd51-46eb-a678-2c113550687f"},"vehicle_type_id":"4","last_reported":1719342434,"current_range_meters":800,"station_id":"ce4bgup2rcd13ifvqcn0","pricing_plan_id":"cebpf4jnsgd1na2vs0mg"},{"bike_id":"864bb52d-89d1-41e0-9aeb-116204898887","system_id":"levelo_inurba_marseille","lat":43.324771,"lon":5.36557,"is_reserved":false,"is_disabled":false,"rental_uris":{"android":"levelo://app?vid=864bb52d-89d1-41e0-9aeb-116204898887","ios":"levelo://app?vid=864bb52d-89d1-41e0-9aeb-116204898887"},"vehicle_type_id":"4","last_reported":1719342434,"current_range_meters":30400,"station_id":"ce4bhs12rcd13ifvqhvg","pricing_plan_id":"cebpf4jnsgd1na2vs0mg"},{"bike_id":"8f9d76be-e091-4886-b1fd-16aaf5deb38e","system_id":"levelo_inurba_marseille","lat":43.324771,"lon":5.36557,"is_reserved":false,"is_disabled":false,"rental_uris":{"android":"levelo://app?vid=8f9d76be-e091-4886-b1fd-16aaf5deb38e","ios":"levelo://app?vid=8f9d76be-e091-4886-b1fd-16aaf5deb38e"},"vehicle_type_id":"4","last_reported":1719342434,"current_range_meters":9600,"station_id":"ce4bhs12rcd13ifvqhvg","pricing_plan_id":"cebpf4jnsgd1na2vs0mg"},{"bike_id":"a9f21f50-1daf-4542-bd0c-9c3e404897ef","system_id":"levelo_inurba_marseille","lat":43.324771,"lon":5.36557,"is_reserved":false,"is_disabled":false,"rental_uris":{"android":"levelo://app?vid=a9f21f50-1daf-4542-bd0c-9c3e404897ef","ios":"levelo://app?vid=a9f21f50-1daf-4542-bd0c-9c3e404897ef"},"vehicle_type_id":"4","last_reported":1719342434,"current_range_meters":4800,"station_id":"ce4bhs12rcd13ifvqhvg","pricing_plan_id":"cebpf4jnsgd1na2vs0mg"},{"bike_id":"2053fbea-4a92-43fe-84e8-57ace0132add","system_id":"levelo_inurba_marseille","lat":43.310804,"lon":5.38359,"is_reserved":false,"is_disabled":false,"rental_uris":{"android":"levelo://app?vid=2053fbea-4a92-43fe-84e8-57ace0132add","ios":"levelo://app?vid=2053fbea-4a92-43fe-84e8-57ace0132add"},"vehicle_type_id":"4","last_reported":1719342434,"current_range_meters":20800,"station_id":"ce4bgv92rcd13ifvqcr0","pricing_plan_id":"cebpf4jnsgd1na2vs0mg"},{"bike_id":"3b41ade8-5a75-47db-9f5a-71ac178f06c8","system_id":"levelo_inurba_marseille","lat":43.310804,"lon":5.38359,"is_reserved":false,"is_disabled":false,"rental_uris":{"android":"levelo://app?vid=3b41ade8-5a75-47db-9f5a-71ac178f06c8","ios":"levelo://app?vid=3b41ade8-5a75-47db-9f5a-71ac178f06c8"},"vehicle_type_id":"4","last_reported":1719342434,"current_range_meters":11200,"station_id":"ce4bgv92rcd13ifvqcr0","pricing_plan_id":"cebpf4jnsgd1na2vs0mg"},{"bike_id":"7fdabcf8-c7de-4b53-bfa8-2c01b1018977","system_id":"levelo_inurba_marseille","lat":43.319935,"lon":5.381699,"is_reserved":false,"is_disabled":false,"rental_uris":{"android":"levelo://app?vid=7fdabcf8-c7de-4b53-bfa8-2c01b1018977","ios":"levelo://app?vid=7fdabcf8-c7de-4b53-bfa8-2c01b1018977"},"vehicle_type_id":"4","last_reported":1719342434,"current_range_meters":19200,"station_id":"ce4bhr12rcd13ifvqhpg","pricing_plan_id":"cebpf4jnsgd1na2vs0mg"},{"bike_id":"ea9f3099-edc2-40e3-8a7a-31e9223881ca","system_id":"levelo_inurba_marseille","lat":43.319935,"lon":5.381699,"is_reserved":false,"is_disabled":false,"rental_uris":{"android":"levelo://app?vid=ea9f3099-edc2-40e3-8a7a-31e9223881ca","ios":"levelo://app?vid=ea9f3099-edc2-40e3-8a7a-31e9223881ca"},"vehicle_type_id":"4","last_reported":1719342434,"current_range_meters":800,"station_id":"ce4bhr12rcd13ifvqhpg","pricing_plan_id":"cebpf4jnsgd1na2vs0mg"},{"bike_id":"4e1058df-b64a-469f-90c6-72235ffa546c","system_id":"levelo_inurba_marseille","lat":43.313607,"lon":5.38494,"is_reserved":false,"is_disabled":false,"rental_uris":{"android":"levelo://app?vid=4e1058df-b64a-469f-90c6-72235ffa546c","ios":"levelo://app?vid=4e1058df-b64a-469f-90c6-72235ffa546c"},"vehicle_type_id":"4","last_reported":1719342434,"current_range_meters":16800,"station_id":"ce4bgt92rcd13ifvqcf0","pricing_plan_id":"cebpf4jnsgd1na2vs0mg"},{"bike_id":"1833b8ca-e1b3-41d5-a412-c46394e0a49e","system_id":"levelo_inurba_marseille","lat":43.313571,"lon":5.384829,"is_reserved":false,"is_disabled":false,"rental_uris":{"android":"levelo://app?vid=1833b8ca-e1b3-41d5-a412-c46394e0a49e","ios":"levelo://app?vid=1833b8ca-e1b3-41d5-a412-c46394e0a49e"},"vehicle_type_id":"4","last_reported":1719342434,"current_range_meters":26000,"station_id":"ce4bgt92rcd13ifvqcf0","pricing_plan_id":"cebpf4jnsgd1na2vs0mg"},{"bike_id":"55011479-508e-47fd-b3df-1efe87808d3b","system_id":"levelo_inurba_marseille","lat":43.313571,"lon":5.384829,"is_reserved":false,"is_disabled":false,"rental_uris":{"android":"levelo://app?vid=55011479-508e-47fd-b3df-1efe87808d3b","ios":"levelo://app?vid=55011479-508e-47fd-b3df-1efe87808d3b"},"vehicle_type_id":"4","last_reported":1719342434,"current_range_meters":6400,"station_id":"ce4bgt92rcd13ifvqcf0","pricing_plan_id":"cebpf4jnsgd1na2vs0mg"},{"bike_id":"ff7f354a-3edf-4631-9376-a7c4fdf2aad6","system_id":"levelo_inurba_marseille","lat":43.299222,"lon":5.365554,"is_reserved":false,"is_disabled":false,"rental_uris":{"android":"levelo://app?vid=ff7f354a-3edf-4631-9376-a7c4fdf2aad6","ios":"levelo://app?vid=ff7f354a-3edf-4631-9376-a7c4fdf2aad6"},"vehicle_type_id":"4","last_reported":1719342434,"current_range_meters":31200,"station_id":"ce4bgm92rcd13ifvqbr0","pricing_plan_id":"cebpf4jnsgd1na2vs0mg"},{"bike_id":"f1e3c460-33ce-403a-bb03-8a7f5ddb53e3","system_id":"levelo_inurba_marseille","lat":43.298783,"lon":5.364657,"is_reserved":false,"is_disabled":false,"rental_uris":{"android":"levelo://app?vid=f1e3c460-33ce-403a-bb03-8a7f5ddb53e3","ios":"levelo://app?vid=f1e3c460-33ce-403a-bb03-8a7f5ddb53e3"},"vehicle_type_id":"4","last_reported":1719342434,"current_range_meters":22400,"station_id":"","pricing_plan_id":"cebpf4jnsgd1na2vs0mg"},{"bike_id":"0ac34d10-96e1-4ac0-9782-10b118adb7b7","system_id":"levelo_inurba_marseille","lat":43.29853,"lon":5.36731,"is_reserved":false,"is_disabled":false,"rental_uris":{"android":"levelo://app?vid=0ac34d10-96e1-4ac0-9782-10b118adb7b7","ios":"levelo://app?vid=0ac34d10-96e1-4ac0-9782-10b118adb7b7"},"vehicle_type_id":"4","last_reported":1719342434,"current_range_meters":6000,"station_id":"","pricing_plan_id":"cebpf4jnsgd1na2vs0mg"},{"bike_id":"19d2c7fc-49c1-4346-a09e-630e75f693cf","system_id":"levelo_inurba_marseille","lat":43.30528,"lon":5.38391,"is_reserved":false,"is_disabled":false,"rental_uris":{"android":"levelo://app?vid=19d2c7fc-49c1-4346-a09e-630e75f693cf","ios":"levelo://app?vid=19d2c7fc-49c1-4346-a09e-630e75f693cf"},"vehicle_type_id":"4","last_reported":1719342434,"current_range_meters":15600,"station_id":"ce4bgg92rcd13ifvqb30","pricing_plan_id":"cebpf4jnsgd1na2vs0mg"},{"bike_id":"1e82676a-a8f8-4873-9506-e78e58c0cc81","system_id":"levelo_inurba_marseille","lat":43.2986,"lon":5.36273,"is_reserved":false,"is_disabled":false,"rental_uris":{"android":"levelo://app?vid=1e82676a-a8f8-4873-9506-e78e58c0cc81","ios":"levelo://app?vid=1e82676a-a8f8-4873-9506-e78e58c0cc81"},"vehicle_type_id":"4","last_reported":1719342434,"current_range_meters":29200,"station_id":"ce4bgpp2rcd13ifvqc3g","pricing_plan_id":"cebpf4jnsgd1na2vs0mg"},{"bike_id":"aae764b1-e9bc-4453-8532-bc0933eacad9","system_id":"levelo_inurba_marseille","lat":43.299243,"lon":5.37481,"is_reserved":false,"is_disabled":false,"rental_uris":{"android":"levelo://app?vid=aae764b1-e9bc-4453-8532-bc0933eacad9","ios":"levelo://app?vid=aae764b1-e9bc-4453-8532-bc0933eacad9"},"vehicle_type_id":"4","last_reported":1719342434,"current_range_meters":30400,"station_id":"ce4bgjh2rcd13ifvqbg0","pricing_plan_id":"cebpf4jnsgd1na2vs0mg"},{"bike_id":"447428f0-73a7-47e0-8e8e-44d0a209c214","system_id":"levelo_inurba_marseille","lat":43.305364,"lon":5.384119,"is_reserved":false,"is_disabled":false,"rental_uris":{"android":"levelo://app?vid=447428f0-73a7-47e0-8e8e-44d0a209c214","ios":"levelo://app?vid=447428f0-73a7-47e0-8e8e-44d0a209c214"},"vehicle_type_id":"4","last_reported":1719342434,"current_range_meters":24400,"station_id":"ce4bgg92rcd13ifvqb30","pricing_plan_id":"cebpf4jnsgd1na2vs0mg"},{"bike_id":"0861829c-6199-45d3-bf24-eb2ae78c4027","system_id":"levelo_inurba_marseille","lat":43.31184,"lon":5.38713,"is_reserved":false,"is_disabled":false,"rental_uris":{"android":"levelo://app?vid=0861829c-6199-45d3-bf24-eb2ae78c4027","ios":"levelo://app?vid=0861829c-6199-45d3-bf24-eb2ae78c4027"},"vehicle_type_id":"4","last_reported":1719342434,"current_range_meters":18800,"station_id":"ce4bgv12rcd13ifvqcp0","pricing_plan_id":"cebpf4jnsgd1na2vs0mg"},{"bike_id":"3cdc3e6f-73c6-4ff2-989f-25b16500cac4","system_id":"levelo_inurba_marseille","lat":43.299243,"lon":5.374807,"is_reserved":false,"is_disabled":false,"rental_uris":{"android":"levelo://app?vid=3cdc3e6f-73c6-4ff2-989f-25b16500cac4","ios":"levelo://app?vid=3cdc3e6f-73c6-4ff2-989f-25b16500cac4"},"vehicle_type_id":"4","last_reported":1719342434,"current_range_meters":0,"station_id":"ce4bgjh2rcd13ifvqbg0","pricing_plan_id":"cebpf4jnsgd1na2vs0mg"},{"bike_id":"1d61f0b2-eaab-44b3-8b06-4b88aab63361","system_id":"levelo_inurba_marseille","lat":43.31172,"lon":5.38714,"is_reserved":false,"is_disabled":false,"rental_uris":{"android":"levelo://app?vid=1d61f0b2-eaab-44b3-8b06-4b88aab63361","ios":"levelo://app?vid=1d61f0b2-eaab-44b3-8b06-4b88aab63361"},"vehicle_type_id":"4","last_reported":1719342434,"current_range_meters":0,"station_id":"ce4bgv12rcd13ifvqcp0","pricing_plan_id":"cebpf4jnsgd1na2vs0mg"},{"bike_id":"c832b964-5d0b-46f5-8e11-735d97946ebc","system_id":"levelo_inurba_marseille","lat":43.31185,"lon":5.38718,"is_reserved":false,"is_disabled":false,"rental_uris":{"android":"levelo://app?vid=c832b964-5d0b-46f5-8e11-735d97946ebc","ios":"levelo://app?vid=c832b964-5d0b-46f5-8e11-735d97946ebc"},"vehicle_type_id":"4","last_reported":1719342434,"current_range_meters":1200,"station_id":"ce4bgv12rcd13ifvqcp0","pricing_plan_id":"cebpf4jnsgd1na2vs0mg"},{"bike_id":"9c618ad4-adbb-481b-978d-a75a744c1993","system_id":"levelo_inurba_marseille","lat":43.311722,"lon":5.387247,"is_reserved":false,"is_disabled":false,"rental_uris":{"android":"levelo://app?vid=9c618ad4-adbb-481b-978d-a75a744c1993","ios":"levelo://app?vid=9c618ad4-adbb-481b-978d-a75a744c1993"},"vehicle_type_id":"4","last_reported":1719342434,"current_range_meters":8000,"station_id":"ce4bgv12rcd13ifvqcp0","pricing_plan_id":"cebpf4jnsgd1na2vs0mg"},{"bike_id":"045d968d-02ae-4d09-9efc-ccc680253d13","system_id":"levelo_inurba_marseille","lat":43.311722,"lon":5.387247,"is_reserved":false,"is_disabled":false,"rental_uris":{"android":"levelo://app?vid=045d968d-02ae-4d09-9efc-ccc680253d13","ios":"levelo://app?vid=045d968d-02ae-4d09-9efc-ccc680253d13"},"vehicle_type_id":"4","last_reported":1719342434,"current_range_meters":15600,"station_id":"ce4bgv12rcd13ifvqcp0","pricing_plan_id":"cebpf4jnsgd1na2vs0mg"},{"bike_id":"ef4e475d-5be1-4696-a4dc-64caaab9ca44","system_id":"levelo_inurba_marseille","lat":43.322872,"lon":5.382756,"is_reserved":false,"is_disabled":false,"rental_uris":{"android":"levelo://app?vid=ef4e475d-5be1-4696-a4dc-64caaab9ca44","ios":"levelo://app?vid=ef4e475d-5be1-4696-a4dc-64caaab9ca44"},"vehicle_type_id":"4","last_reported":1719342434,"current_range_meters":21600,"station_id":"ce4bhr12rcd13ifvqhqg","pricing_plan_id":"cebpf4jnsgd1na2vs0mg"},{"bike_id":"175c4510-2fec-41a6-8877-73fba39ccf10","system_id":"levelo_inurba_marseille","lat":43.297794,"lon":5.370888,"is_reserved":false,"is_disabled":false,"rental_uris":{"android":"levelo://app?vid=175c4510-2fec-41a6-8877-73fba39ccf10","ios":"levelo://app?vid=175c4510-2fec-41a6-8877-73fba39ccf10"},"vehicle_type_id":"4","last_reported":1719342434,"current_range_meters":800,"station_id":"ce4bgop2rcd13ifvqc1g","pricing_plan_id":"cebpf4jnsgd1na2vs0mg"},{"bike_id":"266d1d06-a273-4ed2-8c96-ed4644379e4b","system_id":"levelo_inurba_marseille","lat":43.298755,"lon":5.376108,"is_reserved":false,"is_disabled":false,"rental_uris":{"android":"levelo://app?vid=266d1d06-a273-4ed2-8c96-ed4644379e4b","ios":"levelo://app?vid=266d1d06-a273-4ed2-8c96-ed4644379e4b"},"vehicle_type_id":"4","last_reported":1719342434,"current_range_meters":6800,"station_id":"","pricing_plan_id":"cebpf4jnsgd1na2vs0mg"},{"bike_id":"b7ba28a9-6070-4547-ab8f-587a7f08c9ba","system_id":"levelo_inurba_marseille","lat":43.297163,"lon":5.365866,"is_reserved":false,"is_disabled":false,"rental_uris":{"android":"levelo://app?vid=b7ba28a9-6070-4547-ab8f-587a7f08c9ba","ios":"levelo://app?vid=b7ba28a9-6070-4547-ab8f-587a7f08c9ba"},"vehicle_type_id":"4","last_reported":1719342434,"current_range_meters":26400,"station_id":"ce4bgn12rcd13ifvqbt0","pricing_plan_id":"cebpf4jnsgd1na2vs0mg"},{"bike_id":"4137d1cd-a17f-4a69-9d09-a5fce377b9c6","system_id":"levelo_inurba_marseille","lat":43.29711,"lon":5.36799,"is_reserved":false,"is_disabled":false,"rental_uris":{"android":"levelo://app?vid=4137d1cd-a17f-4a69-9d09-a5fce377b9c6","ios":"levelo://app?vid=4137d1cd-a17f-4a69-9d09-a5fce377b9c6"},"vehicle_type_id":"4","last_reported":1719342434,"current_range_meters":22800,"station_id":"","pricing_plan_id":"cebpf4jnsgd1na2vs0mg"},{"bike_id":"8a3dee68-befb-495c-8c53-779d24084da1","system_id":"levelo_inurba_marseille","lat":43.297065,"lon":5.365465,"is_reserved":false,"is_disabled":false,"rental_uris":{"android":"levelo://app?vid=8a3dee68-befb-495c-8c53-779d24084da1","ios":"levelo://app?vid=8a3dee68-befb-495c-8c53-779d24084da1"},"vehicle_type_id":"4","last_reported":1719342434,"current_range_meters":26400,"station_id":"","pricing_plan_id":"cebpf4jnsgd1na2vs0mg"},{"bike_id":"a6d58e1e-9869-4fee-a296-88c027fe2bf8","system_id":"levelo_inurba_marseille","lat":43.297163,"lon":5.365866,"is_reserved":false,"is_disabled":false,"rental_uris":{"android":"levelo://app?vid=a6d58e1e-9869-4fee-a296-88c027fe2bf8","ios":"levelo://app?vid=a6d58e1e-9869-4fee-a296-88c027fe2bf8"},"vehicle_type_id":"4","last_reported":1719342434,"current_range_meters":25200,"station_id":"ce4bgn12rcd13ifvqbt0","pricing_plan_id":"cebpf4jnsgd1na2vs0mg"},{"bike_id":"3b0e0764-2e41-4625-bc24-97f41f133f0f","system_id":"levelo_inurba_marseille","lat":43.296129,"lon":5.370777,"is_reserved":false,"is_disabled":false,"rental_uris":{"android":"levelo://app?vid=3b0e0764-2e41-4625-bc24-97f41f133f0f","ios":"levelo://app?vid=3b0e0764-2e41-4625-bc24-97f41f133f0f"},"vehicle_type_id":"4","last_reported":1719342434,"current_range_meters":9600,"station_id":"ce4bgnh2rcd13ifvqc0g","pricing_plan_id":"cebpf4jnsgd1na2vs0mg"},{"bike_id":"1025c0cd-481e-4306-ae7e-737692324fd8","system_id":"levelo_inurba_marseille","lat":43.296131,"lon":5.370773,"is_reserved":false,"is_disabled":false,"rental_uris":{"android":"levelo://app?vid=1025c0cd-481e-4306-ae7e-737692324fd8","ios":"levelo://app?vid=1025c0cd-481e-4306-ae7e-737692324fd8"},"vehicle_type_id":"4","last_reported":1719342434,"current_range_meters":30000,"station_id":"ce4bgnh2rcd13ifvqc0g","pricing_plan_id":"cebpf4jnsgd1na2vs0mg"},{"bike_id":"c4ddd791-a5a7-40aa-8d39-04636b1629de","system_id":"levelo_inurba_marseille","lat":43.29617,"lon":5.3714,"is_reserved":false,"is_disabled":false,"rental_uris":{"android":"levelo://app?vid=c4ddd791-a5a7-40aa-8d39-04636b1629de","ios":"levelo://app?vid=c4ddd791-a5a7-40aa-8d39-04636b1629de"},"vehicle_type_id":"4","last_reported":1719342434,"current_range_meters":21600,"station_id":"ce4bgnh2rcd13ifvqc0g","pricing_plan_id":"cebpf4jnsgd1na2vs0mg"},{"bike_id":"c55c32cb-dab6-4b0f-99b7-552e12a656af","system_id":"levelo_inurba_marseille","lat":43.2965,"lon":5.37389,"is_reserved":false,"is_disabled":false,"rental_uris":{"android":"levelo://app?vid=c55c32cb-dab6-4b0f-99b7-552e12a656af","ios":"levelo://app?vid=c55c32cb-dab6-4b0f-99b7-552e12a656af"},"vehicle_type_id":"4","last_reported":1719342434,"current_range_meters":17600,"station_id":"","pricing_plan_id":"cebpf4jnsgd1na2vs0mg"},{"bike_id":"8c043e20-aa50-4a9a-9264-f2c1dd0465f9","system_id":"levelo_inurba_marseille","lat":43.309589,"lon":5.390258,"is_reserved":false,"is_disabled":false,"rental_uris":{"android":"levelo://app?vid=8c043e20-aa50-4a9a-9264-f2c1dd0465f9","ios":"levelo://app?vid=8c043e20-aa50-4a9a-9264-f2c1dd0465f9"},"vehicle_type_id":"4","last_reported":1719342434,"current_range_meters":28000,"station_id":"ce4bgup2rcd13ifvqco0","pricing_plan_id":"cebpf4jnsgd1na2vs0mg"},{"bike_id":"efe1f7e9-5d5b-485b-a8fd-c97954c4f2f9","system_id":"levelo_inurba_marseille","lat":43.309589,"lon":5.390258,"is_reserved":false,"is_disabled":false,"rental_uris":{"android":"levelo://app?vid=efe1f7e9-5d5b-485b-a8fd-c97954c4f2f9","ios":"levelo://app?vid=efe1f7e9-5d5b-485b-a8fd-c97954c4f2f9"},"vehicle_type_id":"4","last_reported":1719342434,"current_range_meters":2800,"station_id":"ce4bgup2rcd13ifvqco0","pricing_plan_id":"cebpf4jnsgd1na2vs0mg"},{"bike_id":"e90502f8-fc31-4ee9-ad12-a3222ac0d641","system_id":"levelo_inurba_marseille","lat":43.309589,"lon":5.390258,"is_reserved":false,"is_disabled":false,"rental_uris":{"android":"levelo://app?vid=e90502f8-fc31-4ee9-ad12-a3222ac0d641","ios":"levelo://app?vid=e90502f8-fc31-4ee9-ad12-a3222ac0d641"},"vehicle_type_id":"4","last_reported":1719342434,"current_range_meters":31200,"station_id":"ce4bgup2rcd13ifvqco0","pricing_plan_id":"cebpf4jnsgd1na2vs0mg"},{"bike_id":"e1f9493f-a078-4045-ab9b-b3b376674078","system_id":"levelo_inurba_marseille","lat":43.30955,"lon":5.39028,"is_reserved":false,"is_disabled":false,"rental_uris":{"android":"levelo://app?vid=e1f9493f-a078-4045-ab9b-b3b376674078","ios":"levelo://app?vid=e1f9493f-a078-4045-ab9b-b3b376674078"},"vehicle_type_id":"4","last_reported":1719342434,"current_range_meters":11600,"station_id":"ce4bgup2rcd13ifvqco0","pricing_plan_id":"cebpf4jnsgd1na2vs0mg"},{"bike_id":"38da8490-0e99-42b2-95d6-5bffc92d256d","system_id":"levelo_inurba_marseille","lat":43.309589,"lon":5.390258,"is_reserved":false,"is_disabled":false,"rental_uris":{"android":"levelo://app?vid=38da8490-0e99-42b2-95d6-5bffc92d256d","ios":"levelo://app?vid=38da8490-0e99-42b2-95d6-5bffc92d256d"},"vehicle_type_id":"4","last_reported":1719342434,"current_range_meters":30000,"station_id":"ce4bgup2rcd13ifvqco0","pricing_plan_id":"cebpf4jnsgd1na2vs0mg"},{"bike_id":"d0dd8aeb-0c72-4b2b-a893-1f63d44c2f4f","system_id":"levelo_inurba_marseille","lat":43.309589,"lon":5.390258,"is_reserved":false,"is_disabled":false,"rental_uris":{"android":"levelo://app?vid=d0dd8aeb-0c72-4b2b-a893-1f63d44c2f4f","ios":"levelo://app?vid=d0dd8aeb-0c72-4b2b-a893-1f63d44c2f4f"},"vehicle_type_id":"4","last_reported":1719342434,"current_range_meters":18800,"station_id":"ce4bgup2rcd13ifvqco0","pricing_plan_id":"cebpf4jnsgd1na2vs0mg"},{"bike_id":"32e6c6ab-498e-4051-89ac-aeffefab4107","system_id":"levelo_inurba_marseille","lat":43.309589,"lon":5.390258,"is_reserved":false,"is_disabled":false,"rental_uris":{"android":"levelo://app?vid=32e6c6ab-498e-4051-89ac-aeffefab4107","ios":"levelo://app?vid=32e6c6ab-498e-4051-89ac-aeffefab4107"},"vehicle_type_id":"4","last_reported":1719342434,"current_range_meters":0,"station_id":"ce4bgup2rcd13ifvqco0","pricing_plan_id":"cebpf4jnsgd1na2vs0mg"},{"bike_id":"ae6fa624-0aeb-4b42-ae50-1262e127234e","system_id":"levelo_inurba_marseille","lat":43.309589,"lon":5.390258,"is_reserved":false,"is_disabled":false,"rental_uris":{"android":"levelo://app?vid=ae6fa624-0aeb-4b42-ae50-1262e127234e","ios":"levelo://app?vid=ae6fa624-0aeb-4b42-ae50-1262e127234e"},"vehicle_type_id":"4","last_reported":1719342434,"current_range_meters":5600,"station_id":"ce4bgup2rcd13ifvqco0","pricing_plan_id":"cebpf4jnsgd1na2vs0mg"},{"bike_id":"e601dee1-ff2c-4a05-a02a-c05a2f33e069","system_id":"levelo_inurba_marseille","lat":43.309589,"lon":5.390258,"is_reserved":false,"is_disabled":false,"rental_uris":{"android":"levelo://app?vid=e601dee1-ff2c-4a05-a02a-c05a2f33e069","ios":"levelo://app?vid=e601dee1-ff2c-4a05-a02a-c05a2f33e069"},"vehicle_type_id":"4","last_reported":1719342434,"current_range_meters":14400,"station_id":"ce4bgup2rcd13ifvqco0","pricing_plan_id":"cebpf4jnsgd1na2vs0mg"},{"bike_id":"ea280958-20eb-45a3-930d-28d35cfa4379","system_id":"levelo_inurba_marseille","lat":43.309589,"lon":5.390258,"is_reserved":false,"is_disabled":false,"rental_uris":{"android":"levelo://app?vid=ea280958-20eb-45a3-930d-28d35cfa4379","ios":"levelo://app?vid=ea280958-20eb-45a3-930d-28d35cfa4379"},"vehicle_type_id":"4","last_reported":1719342434,"current_range_meters":31200,"station_id":"ce4bgup2rcd13ifvqco0","pricing_plan_id":"cebpf4jnsgd1na2vs0mg"},{"bike_id":"94a727f8-e7a3-45d6-a3a5-db6219ad5036","system_id":"levelo_inurba_marseille","lat":43.309589,"lon":5.390258,"is_reserved":false,"is_disabled":false,"rental_uris":{"android":"levelo://app?vid=94a727f8-e7a3-45d6-a3a5-db6219ad5036","ios":"levelo://app?vid=94a727f8-e7a3-45d6-a3a5-db6219ad5036"},"vehicle_type_id":"4","last_reported":1719342434,"current_range_meters":0,"station_id":"ce4bgup2rcd13ifvqco0","pricing_plan_id":"cebpf4jnsgd1na2vs0mg"},{"bike_id":"c6349d02-82e6-4e78-bf00-fcbf2043e8b5","system_id":"levelo_inurba_marseille","lat":43.309589,"lon":5.390258,"is_reserved":false,"is_disabled":false,"rental_uris":{"android":"levelo://app?vid=c6349d02-82e6-4e78-bf00-fcbf2043e8b5","ios":"levelo://app?vid=c6349d02-82e6-4e78-bf00-fcbf2043e8b5"},"vehicle_type_id":"4","last_reported":1719342434,"current_range_meters":27600,"station_id":"ce4bgup2rcd13ifvqco0","pricing_plan_id":"cebpf4jnsgd1na2vs0mg"},{"bike_id":"6ee5280e-dda3-4df1-b4cf-586587564a2e","system_id":"levelo_inurba_marseille","lat":43.309589,"lon":5.390258,"is_reserved":false,"is_disabled":false,"rental_uris":{"android":"levelo://app?vid=6ee5280e-dda3-4df1-b4cf-586587564a2e","ios":"levelo://app?vid=6ee5280e-dda3-4df1-b4cf-586587564a2e"},"vehicle_type_id":"4","last_reported":1719342434,"current_range_meters":29600,"station_id":"ce4bgup2rcd13ifvqco0","pricing_plan_id":"cebpf4jnsgd1na2vs0mg"},{"bike_id":"936d2952-5276-4ec2-91f1-78d4a81cf73e","system_id":"levelo_inurba_marseille","lat":43.309589,"lon":5.390258,"is_reserved":false,"is_disabled":false,"rental_uris":{"android":"levelo://app?vid=936d2952-5276-4ec2-91f1-78d4a81cf73e","ios":"levelo://app?vid=936d2952-5276-4ec2-91f1-78d4a81cf73e"},"vehicle_type_id":"4","last_reported":1719342434,"current_range_meters":1200,"station_id":"ce4bgup2rcd13ifvqco0","pricing_plan_id":"cebpf4jnsgd1na2vs0mg"},{"bike_id":"fa40e5cf-5d7f-4a93-b778-5b156efc381a","system_id":"levelo_inurba_marseille","lat":43.309589,"lon":5.390258,"is_reserved":false,"is_disabled":false,"rental_uris":{"android":"levelo://app?vid=fa40e5cf-5d7f-4a93-b778-5b156efc381a","ios":"levelo://app?vid=fa40e5cf-5d7f-4a93-b778-5b156efc381a"},"vehicle_type_id":"4","last_reported":1719342434,"current_range_meters":28400,"station_id":"ce4bgup2rcd13ifvqco0","pricing_plan_id":"cebpf4jnsgd1na2vs0mg"},{"bike_id":"eadd04b9-d727-4de6-9e9b-1cca2d35e3d8","system_id":"levelo_inurba_marseille","lat":43.309463,"lon":5.39033,"is_reserved":false,"is_disabled":false,"rental_uris":{"android":"levelo://app?vid=eadd04b9-d727-4de6-9e9b-1cca2d35e3d8","ios":"levelo://app?vid=eadd04b9-d727-4de6-9e9b-1cca2d35e3d8"},"vehicle_type_id":"4","last_reported":1719342434,"current_range_meters":28400,"station_id":"ce4bgup2rcd13ifvqco0","pricing_plan_id":"cebpf4jnsgd1na2vs0mg"},{"bike_id":"bdc71ea1-4aaa-4bcc-b14e-6da1e94b5f04","system_id":"levelo_inurba_marseille","lat":43.309589,"lon":5.390258,"is_reserved":false,"is_disabled":false,"rental_uris":{"android":"levelo://app?vid=bdc71ea1-4aaa-4bcc-b14e-6da1e94b5f04","ios":"levelo://app?vid=bdc71ea1-4aaa-4bcc-b14e-6da1e94b5f04"},"vehicle_type_id":"4","last_reported":1719342434,"current_range_meters":21200,"station_id":"ce4bgup2rcd13ifvqco0","pricing_plan_id":"cebpf4jnsgd1na2vs0mg"},{"bike_id":"731765dc-d9b0-4031-a13e-18cc1993c110","system_id":"levelo_inurba_marseille","lat":43.30952,"lon":5.39038,"is_reserved":false,"is_disabled":false,"rental_uris":{"android":"levelo://app?vid=731765dc-d9b0-4031-a13e-18cc1993c110","ios":"levelo://app?vid=731765dc-d9b0-4031-a13e-18cc1993c110"},"vehicle_type_id":"4","last_reported":1719342434,"current_range_meters":5600,"station_id":"ce4bgup2rcd13ifvqco0","pricing_plan_id":"cebpf4jnsgd1na2vs0mg"},{"bike_id":"d2a12e76-870e-4735-a962-e562c328809f","system_id":"levelo_inurba_marseille","lat":43.30958,"lon":5.3904,"is_reserved":false,"is_disabled":false,"rental_uris":{"android":"levelo://app?vid=d2a12e76-870e-4735-a962-e562c328809f","ios":"levelo://app?vid=d2a12e76-870e-4735-a962-e562c328809f"},"vehicle_type_id":"4","last_reported":1719342434,"current_range_meters":12000,"station_id":"ce4bgup2rcd13ifvqco0","pricing_plan_id":"cebpf4jnsgd1na2vs0mg"},{"bike_id":"bf19a4d5-a1e4-4a52-b2f9-748a1037dfae","system_id":"levelo_inurba_marseille","lat":43.309589,"lon":5.390258,"is_reserved":false,"is_disabled":false,"rental_uris":{"android":"levelo://app?vid=bf19a4d5-a1e4-4a52-b2f9-748a1037dfae","ios":"levelo://app?vid=bf19a4d5-a1e4-4a52-b2f9-748a1037dfae"},"vehicle_type_id":"4","last_reported":1719342434,"current_range_meters":22000,"station_id":"ce4bgup2rcd13ifvqco0","pricing_plan_id":"cebpf4jnsgd1na2vs0mg"},{"bike_id":"07423f3c-c540-47e3-847a-94a8f88d48ba","system_id":"levelo_inurba_marseille","lat":43.30949,"lon":5.390393,"is_reserved":false,"is_disabled":false,"rental_uris":{"android":"levelo://app?vid=07423f3c-c540-47e3-847a-94a8f88d48ba","ios":"levelo://app?vid=07423f3c-c540-47e3-847a-94a8f88d48ba"},"vehicle_type_id":"4","last_reported":1719342434,"current_range_meters":0,"station_id":"ce4bgup2rcd13ifvqco0","pricing_plan_id":"cebpf4jnsgd1na2vs0mg"},{"bike_id":"5c37d585-6772-4b11-ba1c-0c73ea331e49","system_id":"levelo_inurba_marseille","lat":43.30954,"lon":5.39041,"is_reserved":false,"is_disabled":false,"rental_uris":{"android":"levelo://app?vid=5c37d585-6772-4b11-ba1c-0c73ea331e49","ios":"levelo://app?vid=5c37d585-6772-4b11-ba1c-0c73ea331e49"},"vehicle_type_id":"4","last_reported":1719342434,"current_range_meters":20400,"station_id":"ce4bgup2rcd13ifvqco0","pricing_plan_id":"cebpf4jnsgd1na2vs0mg"},{"bike_id":"63656785-85bf-47d1-9992-1643ab5592ac","system_id":"levelo_inurba_marseille","lat":43.309473,"lon":5.390393,"is_reserved":false,"is_disabled":false,"rental_uris":{"android":"levelo://app?vid=63656785-85bf-47d1-9992-1643ab5592ac","ios":"levelo://app?vid=63656785-85bf-47d1-9992-1643ab5592ac"},"vehicle_type_id":"4","last_reported":1719342434,"current_range_meters":0,"station_id":"ce4bgup2rcd13ifvqco0","pricing_plan_id":"cebpf4jnsgd1na2vs0mg"},{"bike_id":"d648ff01-7072-4e45-9aa3-3a3191a24e1d","system_id":"levelo_inurba_marseille","lat":43.309589,"lon":5.390258,"is_reserved":false,"is_disabled":false,"rental_uris":{"android":"levelo://app?vid=d648ff01-7072-4e45-9aa3-3a3191a24e1d","ios":"levelo://app?vid=d648ff01-7072-4e45-9aa3-3a3191a24e1d"},"vehicle_type_id":"4","last_reported":1719342434,"current_range_meters":21600,"station_id":"ce4bgup2rcd13ifvqco0","pricing_plan_id":"cebpf4jnsgd1na2vs0mg"},{"bike_id":"671964b3-e4bd-43c5-9ca2-3f78bbc16a2f","system_id":"levelo_inurba_marseille","lat":43.31757,"lon":5.39014,"is_reserved":false,"is_disabled":false,"rental_uris":{"android":"levelo://app?vid=671964b3-e4bd-43c5-9ca2-3f78bbc16a2f","ios":"levelo://app?vid=671964b3-e4bd-43c5-9ca2-3f78bbc16a2f"},"vehicle_type_id":"4","last_reported":1719342434,"current_range_meters":10000,"station_id":"ce4bhqp2rcd13ifvqhng","pricing_plan_id":"cebpf4jnsgd1na2vs0mg"},{"bike_id":"df0485a2-2b36-4450-8586-fe17e5b2af1b","system_id":"levelo_inurba_marseille","lat":43.295802,"lon":5.375131,"is_reserved":false,"is_disabled":false,"rental_uris":{"android":"levelo://app?vid=df0485a2-2b36-4450-8586-fe17e5b2af1b","ios":"levelo://app?vid=df0485a2-2b36-4450-8586-fe17e5b2af1b"},"vehicle_type_id":"4","last_reported":1719342434,"current_range_meters":8000,"station_id":"ce4bgh92rcd13ifvqb50","pricing_plan_id":"cebpf4jnsgd1na2vs0mg"},{"bike_id":"603c67a6-9e10-4c59-9b64-08eed26fb04c","system_id":"levelo_inurba_marseille","lat":43.304274,"lon":5.388873,"is_reserved":false,"is_disabled":false,"rental_uris":{"android":"levelo://app?vid=603c67a6-9e10-4c59-9b64-08eed26fb04c","ios":"levelo://app?vid=603c67a6-9e10-4c59-9b64-08eed26fb04c"},"vehicle_type_id":"4","last_reported":1719342434,"current_range_meters":7200,"station_id":"ce4bgk12rcd13ifvqbi0","pricing_plan_id":"cebpf4jnsgd1na2vs0mg"},{"bike_id":"f47f622e-62f4-4fbb-b98e-caea00f58833","system_id":"levelo_inurba_marseille","lat":43.304274,"lon":5.388873,"is_reserved":false,"is_disabled":false,"rental_uris":{"android":"levelo://app?vid=f47f622e-62f4-4fbb-b98e-caea00f58833","ios":"levelo://app?vid=f47f622e-62f4-4fbb-b98e-caea00f58833"},"vehicle_type_id":"4","last_reported":1719342434,"current_range_meters":29600,"station_id":"ce4bgk12rcd13ifvqbi0","pricing_plan_id":"cebpf4jnsgd1na2vs0mg"},{"bike_id":"ae43f8be-ab7d-49cf-9773-7549d7633e9a","system_id":"levelo_inurba_marseille","lat":43.296107,"lon":5.377197,"is_reserved":false,"is_disabled":false,"rental_uris":{"android":"levelo://app?vid=ae43f8be-ab7d-49cf-9773-7549d7633e9a","ios":"levelo://app?vid=ae43f8be-ab7d-49cf-9773-7549d7633e9a"},"vehicle_type_id":"4","last_reported":1719342434,"current_range_meters":5200,"station_id":"ce4bgi92rcd13ifvqb90","pricing_plan_id":"cebpf4jnsgd1na2vs0mg"},{"bike_id":"a11e3cd3-328e-4c52-b35b-a009000ab69d","system_id":"levelo_inurba_marseille","lat":43.299707,"lon":5.384859,"is_reserved":false,"is_disabled":false,"rental_uris":{"android":"levelo://app?vid=a11e3cd3-328e-4c52-b35b-a009000ab69d","ios":"levelo://app?vid=a11e3cd3-328e-4c52-b35b-a009000ab69d"},"vehicle_type_id":"4","last_reported":1719342434,"current_range_meters":8800,"station_id":"ce4bgj92rcd13ifvqbd0","pricing_plan_id":"cebpf4jnsgd1na2vs0mg"},{"bike_id":"29d7ac11-d23c-4fa7-83ba-da54b7dae2b8","system_id":"levelo_inurba_marseille","lat":43.29967,"lon":5.38497,"is_reserved":false,"is_disabled":false,"rental_uris":{"android":"levelo://app?vid=29d7ac11-d23c-4fa7-83ba-da54b7dae2b8","ios":"levelo://app?vid=29d7ac11-d23c-4fa7-83ba-da54b7dae2b8"},"vehicle_type_id":"4","last_reported":1719342434,"current_range_meters":4800,"station_id":"ce4bgj92rcd13ifvqbd0","pricing_plan_id":"cebpf4jnsgd1na2vs0mg"},{"bike_id":"5cf6437f-0921-4fb2-b8f7-a4a601b59b8f","system_id":"levelo_inurba_marseille","lat":43.299707,"lon":5.384859,"is_reserved":false,"is_disabled":false,"rental_uris":{"android":"levelo://app?vid=5cf6437f-0921-4fb2-b8f7-a4a601b59b8f","ios":"levelo://app?vid=5cf6437f-0921-4fb2-b8f7-a4a601b59b8f"},"vehicle_type_id":"4","last_reported":1719342434,"current_range_meters":31200,"station_id":"ce4bgj92rcd13ifvqbd0","pricing_plan_id":"cebpf4jnsgd1na2vs0mg"},{"bike_id":"621daebc-abc6-42fb-b650-61812c71e0c4","system_id":"levelo_inurba_marseille","lat":43.299724,"lon":5.384848,"is_reserved":false,"is_disabled":false,"rental_uris":{"android":"levelo://app?vid=621daebc-abc6-42fb-b650-61812c71e0c4","ios":"levelo://app?vid=621daebc-abc6-42fb-b650-61812c71e0c4"},"vehicle_type_id":"4","last_reported":1719342434,"current_range_meters":17600,"station_id":"ce4bgj92rcd13ifvqbd0","pricing_plan_id":"cebpf4jnsgd1na2vs0mg"},{"bike_id":"a298b1d4-5baa-4494-867a-8ca0d4de5a07","system_id":"levelo_inurba_marseille","lat":43.32365,"lon":5.38882,"is_reserved":false,"is_disabled":false,"rental_uris":{"android":"levelo://app?vid=a298b1d4-5baa-4494-867a-8ca0d4de5a07","ios":"levelo://app?vid=a298b1d4-5baa-4494-867a-8ca0d4de5a07"},"vehicle_type_id":"4","last_reported":1719342434,"current_range_meters":10000,"station_id":"ce4bhqp2rcd13ifvqhog","pricing_plan_id":"cebpf4jnsgd1na2vs0mg"},{"bike_id":"4be35121-d313-4fed-83cf-bf98c4eaf641","system_id":"levelo_inurba_marseille","lat":43.32367,"lon":5.388836,"is_reserved":false,"is_disabled":false,"rental_uris":{"android":"levelo://app?vid=4be35121-d313-4fed-83cf-bf98c4eaf641","ios":"levelo://app?vid=4be35121-d313-4fed-83cf-bf98c4eaf641"},"vehicle_type_id":"4","last_reported":1719342434,"current_range_meters":16000,"station_id":"ce4bhqp2rcd13ifvqhog","pricing_plan_id":"cebpf4jnsgd1na2vs0mg"},{"bike_id":"ae9eaaba-ed40-485a-9809-72efdd5eed36","system_id":"levelo_inurba_marseille","lat":43.32371,"lon":5.38882,"is_reserved":false,"is_disabled":false,"rental_uris":{"android":"levelo://app?vid=ae9eaaba-ed40-485a-9809-72efdd5eed36","ios":"levelo://app?vid=ae9eaaba-ed40-485a-9809-72efdd5eed36"},"vehicle_type_id":"4","last_reported":1719342434,"current_range_meters":15200,"station_id":"ce4bhqp2rcd13ifvqhog","pricing_plan_id":"cebpf4jnsgd1na2vs0mg"},{"bike_id":"ac196284-48b1-49bf-aa29-00b2a77da4d4","system_id":"levelo_inurba_marseille","lat":43.30198,"lon":5.38955,"is_reserved":false,"is_disabled":false,"rental_uris":{"android":"levelo://app?vid=ac196284-48b1-49bf-aa29-00b2a77da4d4","ios":"levelo://app?vid=ac196284-48b1-49bf-aa29-00b2a77da4d4"},"vehicle_type_id":"4","last_reported":1719342434,"current_range_meters":13200,"station_id":"","pricing_plan_id":"cebpf4jnsgd1na2vs0mg"},{"bike_id":"7a63a2fd-0c73-4297-91ba-971fcf317c01","system_id":"levelo_inurba_marseille","lat":43.29304,"lon":5.37159,"is_reserved":false,"is_disabled":false,"rental_uris":{"android":"levelo://app?vid=7a63a2fd-0c73-4297-91ba-971fcf317c01","ios":"levelo://app?vid=7a63a2fd-0c73-4297-91ba-971fcf317c01"},"vehicle_type_id":"4","last_reported":1719342434,"current_range_meters":2000,"station_id":"ce4bgh92rcd13ifvqb40","pricing_plan_id":"cebpf4jnsgd1na2vs0mg"},{"bike_id":"b6cbf06e-e80e-464c-aa29-e2a45abeddde","system_id":"levelo_inurba_marseille","lat":43.293249,"lon":5.371578,"is_reserved":false,"is_disabled":false,"rental_uris":{"android":"levelo://app?vid=b6cbf06e-e80e-464c-aa29-e2a45abeddde","ios":"levelo://app?vid=b6cbf06e-e80e-464c-aa29-e2a45abeddde"},"vehicle_type_id":"4","last_reported":1719342434,"current_range_meters":0,"station_id":"ce4bgh92rcd13ifvqb40","pricing_plan_id":"cebpf4jnsgd1na2vs0mg"},{"bike_id":"347c2272-6fa0-4bb0-ab7c-17bb4922dfc7","system_id":"levelo_inurba_marseille","lat":43.29272,"lon":5.36843,"is_reserved":false,"is_disabled":false,"rental_uris":{"android":"levelo://app?vid=347c2272-6fa0-4bb0-ab7c-17bb4922dfc7","ios":"levelo://app?vid=347c2272-6fa0-4bb0-ab7c-17bb4922dfc7"},"vehicle_type_id":"4","last_reported":1719342434,"current_range_meters":24400,"station_id":"ce4bhbp2rcd13ifvqesg","pricing_plan_id":"cebpf4jnsgd1na2vs0mg"},{"bike_id":"0a841434-6333-48f1-94ed-3a6616a797f6","system_id":"levelo_inurba_marseille","lat":43.29266,"lon":5.36843,"is_reserved":false,"is_disabled":false,"rental_uris":{"android":"levelo://app?vid=0a841434-6333-48f1-94ed-3a6616a797f6","ios":"levelo://app?vid=0a841434-6333-48f1-94ed-3a6616a797f6"},"vehicle_type_id":"4","last_reported":1719342434,"current_range_meters":31200,"station_id":"ce4bhbp2rcd13ifvqesg","pricing_plan_id":"cebpf4jnsgd1na2vs0mg"},{"bike_id":"ebf4e844-2240-41d8-be09-add8c6b1e6df","system_id":"levelo_inurba_marseille","lat":43.29301,"lon":5.37436,"is_reserved":false,"is_disabled":false,"rental_uris":{"android":"levelo://app?vid=ebf4e844-2240-41d8-be09-add8c6b1e6df","ios":"levelo://app?vid=ebf4e844-2240-41d8-be09-add8c6b1e6df"},"vehicle_type_id":"4","last_reported":1719342434,"current_range_meters":0,"station_id":"ce4bgi12rcd13ifvqb70","pricing_plan_id":"cebpf4jnsgd1na2vs0mg"},{"bike_id":"21a4c8cc-63ab-436e-9a6e-a8c0deaf8457","system_id":"levelo_inurba_marseille","lat":43.293029,"lon":5.374467,"is_reserved":false,"is_disabled":false,"rental_uris":{"android":"levelo://app?vid=21a4c8cc-63ab-436e-9a6e-a8c0deaf8457","ios":"levelo://app?vid=21a4c8cc-63ab-436e-9a6e-a8c0deaf8457"},"vehicle_type_id":"4","last_reported":1719342434,"current_range_meters":0,"station_id":"ce4bgi12rcd13ifvqb70","pricing_plan_id":"cebpf4jnsgd1na2vs0mg"},{"bike_id":"c896c3af-8352-465f-abc9-30a8bb892f19","system_id":"levelo_inurba_marseille","lat":43.305994,"lon":5.393687,"is_reserved":false,"is_disabled":false,"rental_uris":{"android":"levelo://app?vid=c896c3af-8352-465f-abc9-30a8bb892f19","ios":"levelo://app?vid=c896c3af-8352-465f-abc9-30a8bb892f19"},"vehicle_type_id":"4","last_reported":1719342434,"current_range_meters":23200,"station_id":"ce4bh0p2rcd13ifvqd80","pricing_plan_id":"cebpf4jnsgd1na2vs0mg"},{"bike_id":"f24036c0-bf17-4099-9392-0699d424b8af","system_id":"levelo_inurba_marseille","lat":43.30599,"lon":5.39357,"is_reserved":false,"is_disabled":false,"rental_uris":{"android":"levelo://app?vid=f24036c0-bf17-4099-9392-0699d424b8af","ios":"levelo://app?vid=f24036c0-bf17-4099-9392-0699d424b8af"},"vehicle_type_id":"4","last_reported":1719342434,"current_range_meters":25600,"station_id":"ce4bh0p2rcd13ifvqd80","pricing_plan_id":"cebpf4jnsgd1na2vs0mg"},{"bike_id":"349fd7a1-e46f-4ba8-8aed-fbc7457f0207","system_id":"levelo_inurba_marseille","lat":43.305994,"lon":5.393687,"is_reserved":false,"is_disabled":false,"rental_uris":{"android":"levelo://app?vid=349fd7a1-e46f-4ba8-8aed-fbc7457f0207","ios":"levelo://app?vid=349fd7a1-e46f-4ba8-8aed-fbc7457f0207"},"vehicle_type_id":"4","last_reported":1719342434,"current_range_meters":9600,"station_id":"ce4bh0p2rcd13ifvqd80","pricing_plan_id":"cebpf4jnsgd1na2vs0mg"},{"bike_id":"823d6985-b40c-480e-bcb6-4a1af5e5e8b2","system_id":"levelo_inurba_marseille","lat":43.305994,"lon":5.393687,"is_reserved":false,"is_disabled":false,"rental_uris":{"android":"levelo://app?vid=823d6985-b40c-480e-bcb6-4a1af5e5e8b2","ios":"levelo://app?vid=823d6985-b40c-480e-bcb6-4a1af5e5e8b2"},"vehicle_type_id":"4","last_reported":1719342434,"current_range_meters":13200,"station_id":"ce4bh0p2rcd13ifvqd80","pricing_plan_id":"cebpf4jnsgd1na2vs0mg"},{"bike_id":"84c672d5-ef4d-45c7-8514-7b1dc92328db","system_id":"levelo_inurba_marseille","lat":43.305994,"lon":5.393687,"is_reserved":false,"is_disabled":false,"rental_uris":{"android":"levelo://app?vid=84c672d5-ef4d-45c7-8514-7b1dc92328db","ios":"levelo://app?vid=84c672d5-ef4d-45c7-8514-7b1dc92328db"},"vehicle_type_id":"4","last_reported":1719342434,"current_range_meters":0,"station_id":"ce4bh0p2rcd13ifvqd80","pricing_plan_id":"cebpf4jnsgd1na2vs0mg"},{"bike_id":"dbb352d9-5d5a-4102-b7a7-88bef8a98f1d","system_id":"levelo_inurba_marseille","lat":43.305994,"lon":5.393687,"is_reserved":false,"is_disabled":false,"rental_uris":{"android":"levelo://app?vid=dbb352d9-5d5a-4102-b7a7-88bef8a98f1d","ios":"levelo://app?vid=dbb352d9-5d5a-4102-b7a7-88bef8a98f1d"},"vehicle_type_id":"4","last_reported":1719342434,"current_range_meters":8000,"station_id":"ce4bh0p2rcd13ifvqd80","pricing_plan_id":"cebpf4jnsgd1na2vs0mg"},{"bike_id":"0564b916-855b-4699-a18f-34b8fe5e7692","system_id":"levelo_inurba_marseille","lat":43.305994,"lon":5.393687,"is_reserved":false,"is_disabled":false,"rental_uris":{"android":"levelo://app?vid=0564b916-855b-4699-a18f-34b8fe5e7692","ios":"levelo://app?vid=0564b916-855b-4699-a18f-34b8fe5e7692"},"vehicle_type_id":"4","last_reported":1719342434,"current_range_meters":15600,"station_id":"ce4bh0p2rcd13ifvqd80","pricing_plan_id":"cebpf4jnsgd1na2vs0mg"},{"bike_id":"894c13b7-5975-4162-a636-585a78833a80","system_id":"levelo_inurba_marseille","lat":43.305994,"lon":5.393687,"is_reserved":false,"is_disabled":false,"rental_uris":{"android":"levelo://app?vid=894c13b7-5975-4162-a636-585a78833a80","ios":"levelo://app?vid=894c13b7-5975-4162-a636-585a78833a80"},"vehicle_type_id":"4","last_reported":1719342434,"current_range_meters":14800,"station_id":"ce4bh0p2rcd13ifvqd80","pricing_plan_id":"cebpf4jnsgd1na2vs0mg"},{"bike_id":"aaaa4f70-12ef-4337-a99a-2b55f942daaf","system_id":"levelo_inurba_marseille","lat":43.293009,"lon":5.374584,"is_reserved":false,"is_disabled":false,"rental_uris":{"android":"levelo://app?vid=aaaa4f70-12ef-4337-a99a-2b55f942daaf","ios":"levelo://app?vid=aaaa4f70-12ef-4337-a99a-2b55f942daaf"},"vehicle_type_id":"4","last_reported":1719342434,"current_range_meters":0,"station_id":"ce4bgi12rcd13ifvqb70","pricing_plan_id":"cebpf4jnsgd1na2vs0mg"},{"bike_id":"477ba3ea-4a3e-4de7-9026-d8a1ecf5c4da","system_id":"levelo_inurba_marseille","lat":43.303002,"lon":5.392142,"is_reserved":false,"is_disabled":false,"rental_uris":{"android":"levelo://app?vid=477ba3ea-4a3e-4de7-9026-d8a1ecf5c4da","ios":"levelo://app?vid=477ba3ea-4a3e-4de7-9026-d8a1ecf5c4da"},"vehicle_type_id":"4","last_reported":1719342434,"current_range_meters":15600,"station_id":"ce4bgkh2rcd13ifvqbk0","pricing_plan_id":"cebpf4jnsgd1na2vs0mg"},{"bike_id":"0a012c5b-d996-437a-951f-22308e9e6355","system_id":"levelo_inurba_marseille","lat":43.30304,"lon":5.39199,"is_reserved":false,"is_disabled":false,"rental_uris":{"android":"levelo://app?vid=0a012c5b-d996-437a-951f-22308e9e6355","ios":"levelo://app?vid=0a012c5b-d996-437a-951f-22308e9e6355"},"vehicle_type_id":"4","last_reported":1719342434,"current_range_meters":8800,"station_id":"ce4bgkh2rcd13ifvqbk0","pricing_plan_id":"cebpf4jnsgd1na2vs0mg"},{"bike_id":"f1ab1fa4-3986-44bc-af10-2f0f58c91ec5","system_id":"levelo_inurba_marseille","lat":43.302992,"lon":5.392136,"is_reserved":false,"is_disabled":false,"rental_uris":{"android":"levelo://app?vid=f1ab1fa4-3986-44bc-af10-2f0f58c91ec5","ios":"levelo://app?vid=f1ab1fa4-3986-44bc-af10-2f0f58c91ec5"},"vehicle_type_id":"4","last_reported":1719342434,"current_range_meters":18400,"station_id":"ce4bgkh2rcd13ifvqbk0","pricing_plan_id":"cebpf4jnsgd1na2vs0mg"},{"bike_id":"0aceceb7-6ef6-4421-bc23-28f98436b046","system_id":"levelo_inurba_marseille","lat":43.303002,"lon":5.392142,"is_reserved":false,"is_disabled":false,"rental_uris":{"android":"levelo://app?vid=0aceceb7-6ef6-4421-bc23-28f98436b046","ios":"levelo://app?vid=0aceceb7-6ef6-4421-bc23-28f98436b046"},"vehicle_type_id":"4","last_reported":1719342434,"current_range_meters":30800,"station_id":"ce4bgkh2rcd13ifvqbk0","pricing_plan_id":"cebpf4jnsgd1na2vs0mg"},{"bike_id":"2ff8886f-30b2-4678-ba4b-8bb54277f2df","system_id":"levelo_inurba_marseille","lat":43.303002,"lon":5.392142,"is_reserved":false,"is_disabled":false,"rental_uris":{"android":"levelo://app?vid=2ff8886f-30b2-4678-ba4b-8bb54277f2df","ios":"levelo://app?vid=2ff8886f-30b2-4678-ba4b-8bb54277f2df"},"vehicle_type_id":"4","last_reported":1719342434,"current_range_meters":8800,"station_id":"ce4bgkh2rcd13ifvqbk0","pricing_plan_id":"cebpf4jnsgd1na2vs0mg"},{"bike_id":"3db5a595-fb56-4a2d-a4b4-4118eae0f6cf","system_id":"levelo_inurba_marseille","lat":43.303002,"lon":5.392142,"is_reserved":false,"is_disabled":false,"rental_uris":{"android":"levelo://app?vid=3db5a595-fb56-4a2d-a4b4-4118eae0f6cf","ios":"levelo://app?vid=3db5a595-fb56-4a2d-a4b4-4118eae0f6cf"},"vehicle_type_id":"4","last_reported":1719342434,"current_range_meters":2000,"station_id":"ce4bgkh2rcd13ifvqbk0","pricing_plan_id":"cebpf4jnsgd1na2vs0mg"},{"bike_id":"dd10b544-ff6d-4cb3-a77e-c505900a1235","system_id":"levelo_inurba_marseille","lat":43.302992,"lon":5.392136,"is_reserved":false,"is_disabled":false,"rental_uris":{"android":"levelo://app?vid=dd10b544-ff6d-4cb3-a77e-c505900a1235","ios":"levelo://app?vid=dd10b544-ff6d-4cb3-a77e-c505900a1235"},"vehicle_type_id":"4","last_reported":1719342434,"current_range_meters":5600,"station_id":"ce4bgkh2rcd13ifvqbk0","pricing_plan_id":"cebpf4jnsgd1na2vs0mg"},{"bike_id":"b56ad220-ce05-4241-8f01-d45884078f1b","system_id":"levelo_inurba_marseille","lat":43.302992,"lon":5.392136,"is_reserved":false,"is_disabled":false,"rental_uris":{"android":"levelo://app?vid=b56ad220-ce05-4241-8f01-d45884078f1b","ios":"levelo://app?vid=b56ad220-ce05-4241-8f01-d45884078f1b"},"vehicle_type_id":"4","last_reported":1719342434,"current_range_meters":24800,"station_id":"ce4bgkh2rcd13ifvqbk0","pricing_plan_id":"cebpf4jnsgd1na2vs0mg"},{"bike_id":"9937be2c-ae11-42fd-8bde-b515f69f8789","system_id":"levelo_inurba_marseille","lat":43.303002,"lon":5.392142,"is_reserved":false,"is_disabled":false,"rental_uris":{"android":"levelo://app?vid=9937be2c-ae11-42fd-8bde-b515f69f8789","ios":"levelo://app?vid=9937be2c-ae11-42fd-8bde-b515f69f8789"},"vehicle_type_id":"4","last_reported":1719342434,"current_range_meters":31600,"station_id":"ce4bgkh2rcd13ifvqbk0","pricing_plan_id":"cebpf4jnsgd1na2vs0mg"},{"bike_id":"c1b5abeb-d46f-4e2c-8cb0-cb952d939879","system_id":"levelo_inurba_marseille","lat":43.29214,"lon":5.36368,"is_reserved":false,"is_disabled":false,"rental_uris":{"android":"levelo://app?vid=c1b5abeb-d46f-4e2c-8cb0-cb952d939879","ios":"levelo://app?vid=c1b5abeb-d46f-4e2c-8cb0-cb952d939879"},"vehicle_type_id":"4","last_reported":1719342434,"current_range_meters":0,"station_id":"","pricing_plan_id":"cebpf4jnsgd1na2vs0mg"},{"bike_id":"7a75199e-da3d-48b2-9c7d-8acbeae2457b","system_id":"levelo_inurba_marseille","lat":43.303002,"lon":5.392142,"is_reserved":false,"is_disabled":false,"rental_uris":{"android":"levelo://app?vid=7a75199e-da3d-48b2-9c7d-8acbeae2457b","ios":"levelo://app?vid=7a75199e-da3d-48b2-9c7d-8acbeae2457b"},"vehicle_type_id":"4","last_reported":1719342434,"current_range_meters":24800,"station_id":"ce4bgkh2rcd13ifvqbk0","pricing_plan_id":"cebpf4jnsgd1na2vs0mg"},{"bike_id":"1f399bc3-8d74-49d2-9fc3-a4000fa819b8","system_id":"levelo_inurba_marseille","lat":43.303002,"lon":5.392142,"is_reserved":false,"is_disabled":false,"rental_uris":{"android":"levelo://app?vid=1f399bc3-8d74-49d2-9fc3-a4000fa819b8","ios":"levelo://app?vid=1f399bc3-8d74-49d2-9fc3-a4000fa819b8"},"vehicle_type_id":"4","last_reported":1719342434,"current_range_meters":22000,"station_id":"ce4bgkh2rcd13ifvqbk0","pricing_plan_id":"cebpf4jnsgd1na2vs0mg"},{"bike_id":"c6b7ea29-4e91-4aa7-90a5-efc9268f6140","system_id":"levelo_inurba_marseille","lat":43.302992,"lon":5.392136,"is_reserved":false,"is_disabled":false,"rental_uris":{"android":"levelo://app?vid=c6b7ea29-4e91-4aa7-90a5-efc9268f6140","ios":"levelo://app?vid=c6b7ea29-4e91-4aa7-90a5-efc9268f6140"},"vehicle_type_id":"4","last_reported":1719342434,"current_range_meters":14800,"station_id":"ce4bgkh2rcd13ifvqbk0","pricing_plan_id":"cebpf4jnsgd1na2vs0mg"},{"bike_id":"bfc49aa0-c986-45b1-a85b-c1700561d146","system_id":"levelo_inurba_marseille","lat":43.302992,"lon":5.392136,"is_reserved":false,"is_disabled":false,"rental_uris":{"android":"levelo://app?vid=bfc49aa0-c986-45b1-a85b-c1700561d146","ios":"levelo://app?vid=bfc49aa0-c986-45b1-a85b-c1700561d146"},"vehicle_type_id":"4","last_reported":1719342434,"current_range_meters":27200,"station_id":"ce4bgkh2rcd13ifvqbk0","pricing_plan_id":"cebpf4jnsgd1na2vs0mg"},{"bike_id":"49131859-ef30-4ab1-aea7-236d5d4b8545","system_id":"levelo_inurba_marseille","lat":43.303002,"lon":5.392142,"is_reserved":false,"is_disabled":false,"rental_uris":{"android":"levelo://app?vid=49131859-ef30-4ab1-aea7-236d5d4b8545","ios":"levelo://app?vid=49131859-ef30-4ab1-aea7-236d5d4b8545"},"vehicle_type_id":"4","last_reported":1719342434,"current_range_meters":2400,"station_id":"ce4bgkh2rcd13ifvqbk0","pricing_plan_id":"cebpf4jnsgd1na2vs0mg"},{"bike_id":"06310f01-4d7b-4fcf-ae43-ac4c8b968515","system_id":"levelo_inurba_marseille","lat":43.302992,"lon":5.392136,"is_reserved":false,"is_disabled":false,"rental_uris":{"android":"levelo://app?vid=06310f01-4d7b-4fcf-ae43-ac4c8b968515","ios":"levelo://app?vid=06310f01-4d7b-4fcf-ae43-ac4c8b968515"},"vehicle_type_id":"4","last_reported":1719342434,"current_range_meters":21200,"station_id":"ce4bgkh2rcd13ifvqbk0","pricing_plan_id":"cebpf4jnsgd1na2vs0mg"},{"bike_id":"6a1871e8-5e27-4bd3-80d1-0234d64628e4","system_id":"levelo_inurba_marseille","lat":43.302992,"lon":5.392136,"is_reserved":false,"is_disabled":false,"rental_uris":{"android":"levelo://app?vid=6a1871e8-5e27-4bd3-80d1-0234d64628e4","ios":"levelo://app?vid=6a1871e8-5e27-4bd3-80d1-0234d64628e4"},"vehicle_type_id":"4","last_reported":1719342434,"current_range_meters":8800,"station_id":"ce4bgkh2rcd13ifvqbk0","pricing_plan_id":"cebpf4jnsgd1na2vs0mg"},{"bike_id":"36a1c4f9-249d-4e64-ae6f-455f5f0208b1","system_id":"levelo_inurba_marseille","lat":43.302992,"lon":5.392136,"is_reserved":false,"is_disabled":false,"rental_uris":{"android":"levelo://app?vid=36a1c4f9-249d-4e64-ae6f-455f5f0208b1","ios":"levelo://app?vid=36a1c4f9-249d-4e64-ae6f-455f5f0208b1"},"vehicle_type_id":"4","last_reported":1719342434,"current_range_meters":26800,"station_id":"ce4bgkh2rcd13ifvqbk0","pricing_plan_id":"cebpf4jnsgd1na2vs0mg"},{"bike_id":"5fd6e475-468f-4fec-8c49-48a6a3a91c49","system_id":"levelo_inurba_marseille","lat":43.300852,"lon":5.390859,"is_reserved":false,"is_disabled":false,"rental_uris":{"android":"levelo://app?vid=5fd6e475-468f-4fec-8c49-48a6a3a91c49","ios":"levelo://app?vid=5fd6e475-468f-4fec-8c49-48a6a3a91c49"},"vehicle_type_id":"4","last_reported":1719342434,"current_range_meters":14400,"station_id":"ce4bh192rcd13ifvqdb0","pricing_plan_id":"cebpf4jnsgd1na2vs0mg"},{"bike_id":"7a126554-892b-496a-bb14-5c1435be246d","system_id":"levelo_inurba_marseille","lat":43.300852,"lon":5.390859,"is_reserved":false,"is_disabled":false,"rental_uris":{"android":"levelo://app?vid=7a126554-892b-496a-bb14-5c1435be246d","ios":"levelo://app?vid=7a126554-892b-496a-bb14-5c1435be246d"},"vehicle_type_id":"4","last_reported":1719342434,"current_range_meters":2000,"station_id":"ce4bh192rcd13ifvqdb0","pricing_plan_id":"cebpf4jnsgd1na2vs0mg"},{"bike_id":"ce57d8c6-51d1-4b25-84ff-a8de72390494","system_id":"levelo_inurba_marseille","lat":43.292311,"lon":5.360731,"is_reserved":false,"is_disabled":false,"rental_uris":{"android":"levelo://app?vid=ce57d8c6-51d1-4b25-84ff-a8de72390494","ios":"levelo://app?vid=ce57d8c6-51d1-4b25-84ff-a8de72390494"},"vehicle_type_id":"4","last_reported":1719342434,"current_range_meters":30400,"station_id":"ce4bhbh2rcd13ifvqeqg","pricing_plan_id":"cebpf4jnsgd1na2vs0mg"},{"bike_id":"9303f986-fe06-491c-a009-7ccff93bb98c","system_id":"levelo_inurba_marseille","lat":43.298764,"lon":5.388973,"is_reserved":false,"is_disabled":false,"rental_uris":{"android":"levelo://app?vid=9303f986-fe06-491c-a009-7ccff93bb98c","ios":"levelo://app?vid=9303f986-fe06-491c-a009-7ccff93bb98c"},"vehicle_type_id":"4","last_reported":1719342434,"current_range_meters":6400,"station_id":"ce4bh392rcd13ifvqdl0","pricing_plan_id":"cebpf4jnsgd1na2vs0mg"},{"bike_id":"0968e7a6-7b89-4544-abc3-47a12fe432a8","system_id":"levelo_inurba_marseille","lat":43.291671,"lon":5.371575,"is_reserved":false,"is_disabled":false,"rental_uris":{"android":"levelo://app?vid=0968e7a6-7b89-4544-abc3-47a12fe432a8","ios":"levelo://app?vid=0968e7a6-7b89-4544-abc3-47a12fe432a8"},"vehicle_type_id":"4","last_reported":1719342434,"current_range_meters":29200,"station_id":"ce4bha92rcd13ifvqeh0","pricing_plan_id":"cebpf4jnsgd1na2vs0mg"},{"bike_id":"3905962f-7b77-46e4-bbe6-ab4c42e6daa1","system_id":"levelo_inurba_marseille","lat":43.298764,"lon":5.388973,"is_reserved":false,"is_disabled":false,"rental_uris":{"android":"levelo://app?vid=3905962f-7b77-46e4-bbe6-ab4c42e6daa1","ios":"levelo://app?vid=3905962f-7b77-46e4-bbe6-ab4c42e6daa1"},"vehicle_type_id":"4","last_reported":1719342434,"current_range_meters":27600,"station_id":"ce4bh392rcd13ifvqdl0","pricing_plan_id":"cebpf4jnsgd1na2vs0mg"},{"bike_id":"7531c590-1317-4457-9c77-528d86fbd6a4","system_id":"levelo_inurba_marseille","lat":43.313291,"lon":5.396838,"is_reserved":false,"is_disabled":false,"rental_uris":{"android":"levelo://app?vid=7531c590-1317-4457-9c77-528d86fbd6a4","ios":"levelo://app?vid=7531c590-1317-4457-9c77-528d86fbd6a4"},"vehicle_type_id":"4","last_reported":1719342434,"current_range_meters":13200,"station_id":"ce4bgvp2rcd13ifvqcu0","pricing_plan_id":"cebpf4jnsgd1na2vs0mg"},{"bike_id":"d0fa3130-0457-44ce-a1bc-c8726395a49d","system_id":"levelo_inurba_marseille","lat":43.30889,"lon":5.39628,"is_reserved":false,"is_disabled":false,"rental_uris":{"android":"levelo://app?vid=d0fa3130-0457-44ce-a1bc-c8726395a49d","ios":"levelo://app?vid=d0fa3130-0457-44ce-a1bc-c8726395a49d"},"vehicle_type_id":"4","last_reported":1719342434,"current_range_meters":20800,"station_id":"ce4bh012rcd13ifvqcv0","pricing_plan_id":"cebpf4jnsgd1na2vs0mg"},{"bike_id":"66ce5eec-f14f-4ca8-9093-235578ebd7a2","system_id":"levelo_inurba_marseille","lat":43.292005,"lon":5.357875,"is_reserved":false,"is_disabled":false,"rental_uris":{"android":"levelo://app?vid=66ce5eec-f14f-4ca8-9093-235578ebd7a2","ios":"levelo://app?vid=66ce5eec-f14f-4ca8-9093-235578ebd7a2"},"vehicle_type_id":"4","last_reported":1719342434,"current_range_meters":400,"station_id":"ce4bhb12rcd13ifvqel0","pricing_plan_id":"cebpf4jnsgd1na2vs0mg"},{"bike_id":"1e349e8d-5810-42a9-93e5-f33392c6d20b","system_id":"levelo_inurba_marseille","lat":43.30883,"lon":5.39635,"is_reserved":false,"is_disabled":false,"rental_uris":{"android":"levelo://app?vid=1e349e8d-5810-42a9-93e5-f33392c6d20b","ios":"levelo://app?vid=1e349e8d-5810-42a9-93e5-f33392c6d20b"},"vehicle_type_id":"4","last_reported":1719342434,"current_range_meters":22400,"station_id":"ce4bh012rcd13ifvqcv0","pricing_plan_id":"cebpf4jnsgd1na2vs0mg"},{"bike_id":"c8fe6185-d141-4084-b481-c81ef152b952","system_id":"levelo_inurba_marseille","lat":43.30883,"lon":5.39635,"is_reserved":false,"is_disabled":false,"rental_uris":{"android":"levelo://app?vid=c8fe6185-d141-4084-b481-c81ef152b952","ios":"levelo://app?vid=c8fe6185-d141-4084-b481-c81ef152b952"},"vehicle_type_id":"4","last_reported":1719342434,"current_range_meters":12800,"station_id":"ce4bh012rcd13ifvqcv0","pricing_plan_id":"cebpf4jnsgd1na2vs0mg"},{"bike_id":"c99655bf-f7fc-4535-b67b-b68957c3690b","system_id":"levelo_inurba_marseille","lat":43.309038,"lon":5.396546,"is_reserved":false,"is_disabled":false,"rental_uris":{"android":"levelo://app?vid=c99655bf-f7fc-4535-b67b-b68957c3690b","ios":"levelo://app?vid=c99655bf-f7fc-4535-b67b-b68957c3690b"},"vehicle_type_id":"4","last_reported":1719342434,"current_range_meters":17200,"station_id":"ce4bh012rcd13ifvqcv0","pricing_plan_id":"cebpf4jnsgd1na2vs0mg"},{"bike_id":"f9570fcb-0417-4283-8117-895c051971da","system_id":"levelo_inurba_marseille","lat":43.313291,"lon":5.396838,"is_reserved":false,"is_disabled":false,"rental_uris":{"android":"levelo://app?vid=f9570fcb-0417-4283-8117-895c051971da","ios":"levelo://app?vid=f9570fcb-0417-4283-8117-895c051971da"},"vehicle_type_id":"4","last_reported":1719342434,"current_range_meters":4000,"station_id":"ce4bgvp2rcd13ifvqcu0","pricing_plan_id":"cebpf4jnsgd1na2vs0mg"},{"bike_id":"ab1f8257-d003-4964-b234-20766c29ae5a","system_id":"levelo_inurba_marseille","lat":43.313291,"lon":5.396838,"is_reserved":false,"is_disabled":false,"rental_uris":{"android":"levelo://app?vid=ab1f8257-d003-4964-b234-20766c29ae5a","ios":"levelo://app?vid=ab1f8257-d003-4964-b234-20766c29ae5a"},"vehicle_type_id":"4","last_reported":1719342434,"current_range_meters":4000,"station_id":"ce4bgvp2rcd13ifvqcu0","pricing_plan_id":"cebpf4jnsgd1na2vs0mg"},{"bike_id":"f34346e4-ef7c-420a-af67-07668581a31a","system_id":"levelo_inurba_marseille","lat":43.313291,"lon":5.396838,"is_reserved":false,"is_disabled":false,"rental_uris":{"android":"levelo://app?vid=f34346e4-ef7c-420a-af67-07668581a31a","ios":"levelo://app?vid=f34346e4-ef7c-420a-af67-07668581a31a"},"vehicle_type_id":"4","last_reported":1719342434,"current_range_meters":0,"station_id":"ce4bgvp2rcd13ifvqcu0","pricing_plan_id":"cebpf4jnsgd1na2vs0mg"},{"bike_id":"e1807def-592b-4fdf-8afa-c0e2787ff46e","system_id":"levelo_inurba_marseille","lat":43.313291,"lon":5.396838,"is_reserved":false,"is_disabled":false,"rental_uris":{"android":"levelo://app?vid=e1807def-592b-4fdf-8afa-c0e2787ff46e","ios":"levelo://app?vid=e1807def-592b-4fdf-8afa-c0e2787ff46e"},"vehicle_type_id":"4","last_reported":1719342434,"current_range_meters":18800,"station_id":"ce4bgvp2rcd13ifvqcu0","pricing_plan_id":"cebpf4jnsgd1na2vs0mg"},{"bike_id":"cdb3d257-c279-48ba-9ab4-339949597400","system_id":"levelo_inurba_marseille","lat":43.313291,"lon":5.396838,"is_reserved":false,"is_disabled":false,"rental_uris":{"android":"levelo://app?vid=cdb3d257-c279-48ba-9ab4-339949597400","ios":"levelo://app?vid=cdb3d257-c279-48ba-9ab4-339949597400"},"vehicle_type_id":"4","last_reported":1719342434,"current_range_meters":22000,"station_id":"ce4bgvp2rcd13ifvqcu0","pricing_plan_id":"cebpf4jnsgd1na2vs0mg"},{"bike_id":"c872b8f2-b96e-496d-841b-69c5ec304ba9","system_id":"levelo_inurba_marseille","lat":43.30884,"lon":5.39645,"is_reserved":false,"is_disabled":false,"rental_uris":{"android":"levelo://app?vid=c872b8f2-b96e-496d-841b-69c5ec304ba9","ios":"levelo://app?vid=c872b8f2-b96e-496d-841b-69c5ec304ba9"},"vehicle_type_id":"4","last_reported":1719342434,"current_range_meters":17200,"station_id":"ce4bh012rcd13ifvqcv0","pricing_plan_id":"cebpf4jnsgd1na2vs0mg"},{"bike_id":"0cbd6b64-92a5-40cc-a4e1-acd749d0e98a","system_id":"levelo_inurba_marseille","lat":43.291994,"lon":5.357886,"is_reserved":false,"is_disabled":false,"rental_uris":{"android":"levelo://app?vid=0cbd6b64-92a5-40cc-a4e1-acd749d0e98a","ios":"levelo://app?vid=0cbd6b64-92a5-40cc-a4e1-acd749d0e98a"},"vehicle_type_id":"4","last_reported":1719342434,"current_range_meters":28000,"station_id":"ce4bhb12rcd13ifvqel0","pricing_plan_id":"cebpf4jnsgd1na2vs0mg"},{"bike_id":"131c4618-0c30-43d2-afc4-61c616449de7","system_id":"levelo_inurba_marseille","lat":43.313291,"lon":5.396838,"is_reserved":false,"is_disabled":false,"rental_uris":{"android":"levelo://app?vid=131c4618-0c30-43d2-afc4-61c616449de7","ios":"levelo://app?vid=131c4618-0c30-43d2-afc4-61c616449de7"},"vehicle_type_id":"4","last_reported":1719342434,"current_range_meters":12800,"station_id":"ce4bgvp2rcd13ifvqcu0","pricing_plan_id":"cebpf4jnsgd1na2vs0mg"},{"bike_id":"cd218dcc-8779-412d-bccc-ac2534b488c9","system_id":"levelo_inurba_marseille","lat":43.3089,"lon":5.3965,"is_reserved":false,"is_disabled":false,"rental_uris":{"android":"levelo://app?vid=cd218dcc-8779-412d-bccc-ac2534b488c9","ios":"levelo://app?vid=cd218dcc-8779-412d-bccc-ac2534b488c9"},"vehicle_type_id":"4","last_reported":1719342434,"current_range_meters":5600,"station_id":"ce4bh012rcd13ifvqcv0","pricing_plan_id":"cebpf4jnsgd1na2vs0mg"},{"bike_id":"27a241f8-4c6d-40d1-b6ea-7a2c41a8e5fa","system_id":"levelo_inurba_marseille","lat":43.30888,"lon":5.39656,"is_reserved":false,"is_disabled":false,"rental_uris":{"android":"levelo://app?vid=27a241f8-4c6d-40d1-b6ea-7a2c41a8e5fa","ios":"levelo://app?vid=27a241f8-4c6d-40d1-b6ea-7a2c41a8e5fa"},"vehicle_type_id":"4","last_reported":1719342434,"current_range_meters":24400,"station_id":"ce4bh012rcd13ifvqcv0","pricing_plan_id":"cebpf4jnsgd1na2vs0mg"},{"bike_id":"9fab94a2-463f-4a54-ae35-b80838c45d03","system_id":"levelo_inurba_marseille","lat":43.30881,"lon":5.39656,"is_reserved":false,"is_disabled":false,"rental_uris":{"android":"levelo://app?vid=9fab94a2-463f-4a54-ae35-b80838c45d03","ios":"levelo://app?vid=9fab94a2-463f-4a54-ae35-b80838c45d03"},"vehicle_type_id":"4","last_reported":1719342434,"current_range_meters":6000,"station_id":"ce4bh012rcd13ifvqcv0","pricing_plan_id":"cebpf4jnsgd1na2vs0mg"},{"bike_id":"092b78f5-41c1-4aba-8d99-cbb54238a3a0","system_id":"levelo_inurba_marseille","lat":43.30902,"lon":5.39677,"is_reserved":false,"is_disabled":false,"rental_uris":{"android":"levelo://app?vid=092b78f5-41c1-4aba-8d99-cbb54238a3a0","ios":"levelo://app?vid=092b78f5-41c1-4aba-8d99-cbb54238a3a0"},"vehicle_type_id":"4","last_reported":1719342434,"current_range_meters":20800,"station_id":"ce4bh012rcd13ifvqcv0","pricing_plan_id":"cebpf4jnsgd1na2vs0mg"},{"bike_id":"5e8bca2c-7d2b-4956-adc1-ad60cfa72999","system_id":"levelo_inurba_marseille","lat":43.29079,"lon":5.37161,"is_reserved":false,"is_disabled":false,"rental_uris":{"android":"levelo://app?vid=5e8bca2c-7d2b-4956-adc1-ad60cfa72999","ios":"levelo://app?vid=5e8bca2c-7d2b-4956-adc1-ad60cfa72999"},"vehicle_type_id":"4","last_reported":1719342434,"current_range_meters":5600,"station_id":"ce4bh5p2rcd13ifvqe4g","pricing_plan_id":"cebpf4jnsgd1na2vs0mg"},{"bike_id":"7000caf2-cc1e-4b3e-b9a0-550098449039","system_id":"levelo_inurba_marseille","lat":43.29077,"lon":5.37158,"is_reserved":false,"is_disabled":false,"rental_uris":{"android":"levelo://app?vid=7000caf2-cc1e-4b3e-b9a0-550098449039","ios":"levelo://app?vid=7000caf2-cc1e-4b3e-b9a0-550098449039"},"vehicle_type_id":"4","last_reported":1719342434,"current_range_meters":1600,"station_id":"ce4bh5p2rcd13ifvqe4g","pricing_plan_id":"cebpf4jnsgd1na2vs0mg"},{"bike_id":"9bd95c3c-9f03-4616-8131-88f269086b75","system_id":"levelo_inurba_marseille","lat":43.290779,"lon":5.371482,"is_reserved":false,"is_disabled":false,"rental_uris":{"android":"levelo://app?vid=9bd95c3c-9f03-4616-8131-88f269086b75","ios":"levelo://app?vid=9bd95c3c-9f03-4616-8131-88f269086b75"},"vehicle_type_id":"4","last_reported":1719342434,"current_range_meters":4400,"station_id":"ce4bh5p2rcd13ifvqe4g","pricing_plan_id":"cebpf4jnsgd1na2vs0mg"},{"bike_id":"3399ca7a-6c45-4cc7-be63-8230154663a5","system_id":"levelo_inurba_marseille","lat":43.29072,"lon":5.37162,"is_reserved":false,"is_disabled":false,"rental_uris":{"android":"levelo://app?vid=3399ca7a-6c45-4cc7-be63-8230154663a5","ios":"levelo://app?vid=3399ca7a-6c45-4cc7-be63-8230154663a5"},"vehicle_type_id":"4","last_reported":1719342434,"current_range_meters":17200,"station_id":"ce4bh5p2rcd13ifvqe4g","pricing_plan_id":"cebpf4jnsgd1na2vs0mg"},{"bike_id":"59013b30-0bc6-4af4-9490-ef69fa6fb930","system_id":"levelo_inurba_marseille","lat":43.290779,"lon":5.371482,"is_reserved":false,"is_disabled":false,"rental_uris":{"android":"levelo://app?vid=59013b30-0bc6-4af4-9490-ef69fa6fb930","ios":"levelo://app?vid=59013b30-0bc6-4af4-9490-ef69fa6fb930"},"vehicle_type_id":"4","last_reported":1719342434,"current_range_meters":0,"station_id":"ce4bh5p2rcd13ifvqe4g","pricing_plan_id":"cebpf4jnsgd1na2vs0mg"},{"bike_id":"41a7b9da-4cda-442b-9c17-a023a336ff02","system_id":"levelo_inurba_marseille","lat":43.290779,"lon":5.371482,"is_reserved":false,"is_disabled":false,"rental_uris":{"android":"levelo://app?vid=41a7b9da-4cda-442b-9c17-a023a336ff02","ios":"levelo://app?vid=41a7b9da-4cda-442b-9c17-a023a336ff02"},"vehicle_type_id":"4","last_reported":1719342434,"current_range_meters":0,"station_id":"ce4bh5p2rcd13ifvqe4g","pricing_plan_id":"cebpf4jnsgd1na2vs0mg"},{"bike_id":"baa664a4-7e70-4e0d-84b2-3ca82696cd54","system_id":"levelo_inurba_marseille","lat":43.290779,"lon":5.371482,"is_reserved":false,"is_disabled":false,"rental_uris":{"android":"levelo://app?vid=baa664a4-7e70-4e0d-84b2-3ca82696cd54","ios":"levelo://app?vid=baa664a4-7e70-4e0d-84b2-3ca82696cd54"},"vehicle_type_id":"4","last_reported":1719342434,"current_range_meters":16000,"station_id":"ce4bh5p2rcd13ifvqe4g","pricing_plan_id":"cebpf4jnsgd1na2vs0mg"},{"bike_id":"50519d96-8dd4-408e-b1d8-349e362f5e54","system_id":"levelo_inurba_marseille","lat":43.302008,"lon":5.394694,"is_reserved":false,"is_disabled":false,"rental_uris":{"android":"levelo://app?vid=50519d96-8dd4-408e-b1d8-349e362f5e54","ios":"levelo://app?vid=50519d96-8dd4-408e-b1d8-349e362f5e54"},"vehicle_type_id":"4","last_reported":1719342434,"current_range_meters":26000,"station_id":"ce4bh0p2rcd13ifvqd70","pricing_plan_id":"cebpf4jnsgd1na2vs0mg"},{"bike_id":"5116ed49-d875-4abc-84a1-680c8aa3dae5","system_id":"levelo_inurba_marseille","lat":43.290631,"lon":5.359244,"is_reserved":false,"is_disabled":false,"rental_uris":{"android":"levelo://app?vid=5116ed49-d875-4abc-84a1-680c8aa3dae5","ios":"levelo://app?vid=5116ed49-d875-4abc-84a1-680c8aa3dae5"},"vehicle_type_id":"4","last_reported":1719342434,"current_range_meters":14000,"station_id":"ce4bha92rcd13ifvqeg0","pricing_plan_id":"cebpf4jnsgd1na2vs0mg"},{"bike_id":"48dac267-4692-446e-b8fe-781d3cbe6e36","system_id":"levelo_inurba_marseille","lat":43.290624,"lon":5.359245,"is_reserved":false,"is_disabled":false,"rental_uris":{"android":"levelo://app?vid=48dac267-4692-446e-b8fe-781d3cbe6e36","ios":"levelo://app?vid=48dac267-4692-446e-b8fe-781d3cbe6e36"},"vehicle_type_id":"4","last_reported":1719342434,"current_range_meters":29600,"station_id":"ce4bha92rcd13ifvqeg0","pricing_plan_id":"cebpf4jnsgd1na2vs0mg"},{"bike_id":"f1650ffb-9b49-4ec2-9e66-73824d06e4d1","system_id":"levelo_inurba_marseille","lat":43.294153,"lon":5.386305,"is_reserved":false,"is_disabled":false,"rental_uris":{"android":"levelo://app?vid=f1650ffb-9b49-4ec2-9e66-73824d06e4d1","ios":"levelo://app?vid=f1650ffb-9b49-4ec2-9e66-73824d06e4d1"},"vehicle_type_id":"4","last_reported":1719342434,"current_range_meters":8000,"station_id":"ce4bh2h2rcd13ifvqdh0","pricing_plan_id":"cebpf4jnsgd1na2vs0mg"},{"bike_id":"cda21cc6-3522-434c-819a-1c0233e54785","system_id":"levelo_inurba_marseille","lat":43.289184,"lon":5.366408,"is_reserved":false,"is_disabled":false,"rental_uris":{"android":"levelo://app?vid=cda21cc6-3522-434c-819a-1c0233e54785","ios":"levelo://app?vid=cda21cc6-3522-434c-819a-1c0233e54785"},"vehicle_type_id":"4","last_reported":1719342434,"current_range_meters":18400,"station_id":"ce4bhap2rcd13ifvqek0","pricing_plan_id":"cebpf4jnsgd1na2vs0mg"},{"bike_id":"0350b046-2f0a-4b72-aeef-3b865193116e","system_id":"levelo_inurba_marseille","lat":43.294162,"lon":5.386292,"is_reserved":false,"is_disabled":false,"rental_uris":{"android":"levelo://app?vid=0350b046-2f0a-4b72-aeef-3b865193116e","ios":"levelo://app?vid=0350b046-2f0a-4b72-aeef-3b865193116e"},"vehicle_type_id":"4","last_reported":1719342434,"current_range_meters":3600,"station_id":"ce4bh2h2rcd13ifvqdh0","pricing_plan_id":"cebpf4jnsgd1na2vs0mg"},{"bike_id":"58911086-648f-4a71-a74e-a68f584d02f6","system_id":"levelo_inurba_marseille","lat":43.290327,"lon":5.375711,"is_reserved":false,"is_disabled":false,"rental_uris":{"android":"levelo://app?vid=58911086-648f-4a71-a74e-a68f584d02f6","ios":"levelo://app?vid=58911086-648f-4a71-a74e-a68f584d02f6"},"vehicle_type_id":"4","last_reported":1719342434,"current_range_meters":0,"station_id":"ce4bh692rcd13ifvqe90","pricing_plan_id":"cebpf4jnsgd1na2vs0mg"},{"bike_id":"67f9454e-21bb-45e5-8fd0-e28d9d5819ae","system_id":"levelo_inurba_marseille","lat":43.2903,"lon":5.37552,"is_reserved":false,"is_disabled":false,"rental_uris":{"android":"levelo://app?vid=67f9454e-21bb-45e5-8fd0-e28d9d5819ae","ios":"levelo://app?vid=67f9454e-21bb-45e5-8fd0-e28d9d5819ae"},"vehicle_type_id":"4","last_reported":1719342434,"current_range_meters":16800,"station_id":"ce4bh692rcd13ifvqe90","pricing_plan_id":"cebpf4jnsgd1na2vs0mg"},{"bike_id":"8a1d2883-f7e9-45f2-b96c-47d32e15a845","system_id":"levelo_inurba_marseille","lat":43.294162,"lon":5.386292,"is_reserved":false,"is_disabled":false,"rental_uris":{"android":"levelo://app?vid=8a1d2883-f7e9-45f2-b96c-47d32e15a845","ios":"levelo://app?vid=8a1d2883-f7e9-45f2-b96c-47d32e15a845"},"vehicle_type_id":"4","last_reported":1719342434,"current_range_meters":27600,"station_id":"ce4bh2h2rcd13ifvqdh0","pricing_plan_id":"cebpf4jnsgd1na2vs0mg"},{"bike_id":"b9f5b69e-e267-4b1a-8486-8573f46fba9d","system_id":"levelo_inurba_marseille","lat":43.289468,"lon":5.363719,"is_reserved":false,"is_disabled":false,"rental_uris":{"android":"levelo://app?vid=b9f5b69e-e267-4b1a-8486-8573f46fba9d","ios":"levelo://app?vid=b9f5b69e-e267-4b1a-8486-8573f46fba9d"},"vehicle_type_id":"4","last_reported":1719342434,"current_range_meters":8800,"station_id":"ce4bhc92rcd13ifvqetg","pricing_plan_id":"cebpf4jnsgd1na2vs0mg"},{"bike_id":"8aec3702-d988-4d43-a9ab-826e3374d4bf","system_id":"levelo_inurba_marseille","lat":43.28942,"lon":5.36641,"is_reserved":false,"is_disabled":false,"rental_uris":{"android":"levelo://app?vid=8aec3702-d988-4d43-a9ab-826e3374d4bf","ios":"levelo://app?vid=8aec3702-d988-4d43-a9ab-826e3374d4bf"},"vehicle_type_id":"4","last_reported":1719342434,"current_range_meters":24000,"station_id":"ce4bhap2rcd13ifvqek0","pricing_plan_id":"cebpf4jnsgd1na2vs0mg"},{"bike_id":"f76342ad-911c-49b4-af8a-80d51b117525","system_id":"levelo_inurba_marseille","lat":43.28942,"lon":5.36627,"is_reserved":false,"is_disabled":false,"rental_uris":{"android":"levelo://app?vid=f76342ad-911c-49b4-af8a-80d51b117525","ios":"levelo://app?vid=f76342ad-911c-49b4-af8a-80d51b117525"},"vehicle_type_id":"4","last_reported":1719342434,"current_range_meters":0,"station_id":"ce4bhap2rcd13ifvqek0","pricing_plan_id":"cebpf4jnsgd1na2vs0mg"},{"bike_id":"a844076e-188a-42aa-b6b1-3c6358805bed","system_id":"levelo_inurba_marseille","lat":43.28941,"lon":5.36629,"is_reserved":false,"is_disabled":false,"rental_uris":{"android":"levelo://app?vid=a844076e-188a-42aa-b6b1-3c6358805bed","ios":"levelo://app?vid=a844076e-188a-42aa-b6b1-3c6358805bed"},"vehicle_type_id":"4","last_reported":1719342434,"current_range_meters":0,"station_id":"ce4bhap2rcd13ifvqek0","pricing_plan_id":"cebpf4jnsgd1na2vs0mg"},{"bike_id":"d307b107-e92b-4d51-ad10-01183253772f","system_id":"levelo_inurba_marseille","lat":43.289468,"lon":5.363719,"is_reserved":false,"is_disabled":false,"rental_uris":{"android":"levelo://app?vid=d307b107-e92b-4d51-ad10-01183253772f","ios":"levelo://app?vid=d307b107-e92b-4d51-ad10-01183253772f"},"vehicle_type_id":"4","last_reported":1719342434,"current_range_meters":17200,"station_id":"ce4bhc92rcd13ifvqetg","pricing_plan_id":"cebpf4jnsgd1na2vs0mg"},{"bike_id":"82e2e89c-b3f3-4128-8144-e7a4e64fe2f8","system_id":"levelo_inurba_marseille","lat":43.289184,"lon":5.366408,"is_reserved":false,"is_disabled":false,"rental_uris":{"android":"levelo://app?vid=82e2e89c-b3f3-4128-8144-e7a4e64fe2f8","ios":"levelo://app?vid=82e2e89c-b3f3-4128-8144-e7a4e64fe2f8"},"vehicle_type_id":"4","last_reported":1719342434,"current_range_meters":15200,"station_id":"ce4bhap2rcd13ifvqek0","pricing_plan_id":"cebpf4jnsgd1na2vs0mg"},{"bike_id":"02ae451c-cf18-414d-8ac3-a2a9f7395372","system_id":"levelo_inurba_marseille","lat":43.290319,"lon":5.375732,"is_reserved":false,"is_disabled":false,"rental_uris":{"android":"levelo://app?vid=02ae451c-cf18-414d-8ac3-a2a9f7395372","ios":"levelo://app?vid=02ae451c-cf18-414d-8ac3-a2a9f7395372"},"vehicle_type_id":"4","last_reported":1719342434,"current_range_meters":7200,"station_id":"ce4bh692rcd13ifvqe90","pricing_plan_id":"cebpf4jnsgd1na2vs0mg"},{"bike_id":"aef9902e-5da2-4518-9448-c70fc4887175","system_id":"levelo_inurba_marseille","lat":43.289468,"lon":5.363719,"is_reserved":false,"is_disabled":false,"rental_uris":{"android":"levelo://app?vid=aef9902e-5da2-4518-9448-c70fc4887175","ios":"levelo://app?vid=aef9902e-5da2-4518-9448-c70fc4887175"},"vehicle_type_id":"4","last_reported":1719342434,"current_range_meters":20800,"station_id":"ce4bhc92rcd13ifvqetg","pricing_plan_id":"cebpf4jnsgd1na2vs0mg"},{"bike_id":"df280ebb-2dbc-40de-a87c-1611d12b68b3","system_id":"levelo_inurba_marseille","lat":43.289297,"lon":5.366433,"is_reserved":false,"is_disabled":false,"rental_uris":{"android":"levelo://app?vid=df280ebb-2dbc-40de-a87c-1611d12b68b3","ios":"levelo://app?vid=df280ebb-2dbc-40de-a87c-1611d12b68b3"},"vehicle_type_id":"4","last_reported":1719342434,"current_range_meters":0,"station_id":"ce4bhap2rcd13ifvqek0","pricing_plan_id":"cebpf4jnsgd1na2vs0mg"},{"bike_id":"b21a184c-2c57-4151-946e-613f157dadf4","system_id":"levelo_inurba_marseille","lat":43.304296,"lon":5.397513,"is_reserved":false,"is_disabled":false,"rental_uris":{"android":"levelo://app?vid=b21a184c-2c57-4151-946e-613f157dadf4","ios":"levelo://app?vid=b21a184c-2c57-4151-946e-613f157dadf4"},"vehicle_type_id":"4","last_reported":1719342434,"current_range_meters":13600,"station_id":"ce4bh092rcd13ifvqd20","pricing_plan_id":"cebpf4jnsgd1na2vs0mg"},{"bike_id":"d78f84ce-9a5b-49eb-a2c7-c1e547003f11","system_id":"levelo_inurba_marseille","lat":43.304296,"lon":5.397513,"is_reserved":false,"is_disabled":false,"rental_uris":{"android":"levelo://app?vid=d78f84ce-9a5b-49eb-a2c7-c1e547003f11","ios":"levelo://app?vid=d78f84ce-9a5b-49eb-a2c7-c1e547003f11"},"vehicle_type_id":"4","last_reported":1719342434,"current_range_meters":27600,"station_id":"ce4bh092rcd13ifvqd20","pricing_plan_id":"cebpf4jnsgd1na2vs0mg"},{"bike_id":"f6dc76e7-aa6e-44ea-b6fe-4933377d55ca","system_id":"levelo_inurba_marseille","lat":43.30423,"lon":5.3974,"is_reserved":false,"is_disabled":false,"rental_uris":{"android":"levelo://app?vid=f6dc76e7-aa6e-44ea-b6fe-4933377d55ca","ios":"levelo://app?vid=f6dc76e7-aa6e-44ea-b6fe-4933377d55ca"},"vehicle_type_id":"4","last_reported":1719342434,"current_range_meters":24000,"station_id":"ce4bh092rcd13ifvqd20","pricing_plan_id":"cebpf4jnsgd1na2vs0mg"},{"bike_id":"510442ef-1779-4433-9661-1396bc493698","system_id":"levelo_inurba_marseille","lat":43.304296,"lon":5.397513,"is_reserved":false,"is_disabled":false,"rental_uris":{"android":"levelo://app?vid=510442ef-1779-4433-9661-1396bc493698","ios":"levelo://app?vid=510442ef-1779-4433-9661-1396bc493698"},"vehicle_type_id":"4","last_reported":1719342434,"current_range_meters":25200,"station_id":"ce4bh092rcd13ifvqd20","pricing_plan_id":"cebpf4jnsgd1na2vs0mg"},{"bike_id":"2b1995ce-5ce0-406e-bb3d-0f3a78af695e","system_id":"levelo_inurba_marseille","lat":43.30422,"lon":5.39743,"is_reserved":false,"is_disabled":false,"rental_uris":{"android":"levelo://app?vid=2b1995ce-5ce0-406e-bb3d-0f3a78af695e","ios":"levelo://app?vid=2b1995ce-5ce0-406e-bb3d-0f3a78af695e"},"vehicle_type_id":"4","last_reported":1719342434,"current_range_meters":7600,"station_id":"ce4bh092rcd13ifvqd20","pricing_plan_id":"cebpf4jnsgd1na2vs0mg"},{"bike_id":"1883ebaf-c3ff-4c13-abf2-f63834997390","system_id":"levelo_inurba_marseille","lat":43.304296,"lon":5.397513,"is_reserved":false,"is_disabled":false,"rental_uris":{"android":"levelo://app?vid=1883ebaf-c3ff-4c13-abf2-f63834997390","ios":"levelo://app?vid=1883ebaf-c3ff-4c13-abf2-f63834997390"},"vehicle_type_id":"4","last_reported":1719342434,"current_range_meters":31200,"station_id":"ce4bh092rcd13ifvqd20","pricing_plan_id":"cebpf4jnsgd1na2vs0mg"},{"bike_id":"d3eda1e3-5272-433b-834c-b86d4f1ba9fd","system_id":"levelo_inurba_marseille","lat":43.30426,"lon":5.39746,"is_reserved":false,"is_disabled":false,"rental_uris":{"android":"levelo://app?vid=d3eda1e3-5272-433b-834c-b86d4f1ba9fd","ios":"levelo://app?vid=d3eda1e3-5272-433b-834c-b86d4f1ba9fd"},"vehicle_type_id":"4","last_reported":1719342434,"current_range_meters":28000,"station_id":"ce4bh092rcd13ifvqd20","pricing_plan_id":"cebpf4jnsgd1na2vs0mg"},{"bike_id":"73e65c4c-a92e-4842-89be-a12b0427f882","system_id":"levelo_inurba_marseille","lat":43.3042,"lon":5.39743,"is_reserved":false,"is_disabled":false,"rental_uris":{"android":"levelo://app?vid=73e65c4c-a92e-4842-89be-a12b0427f882","ios":"levelo://app?vid=73e65c4c-a92e-4842-89be-a12b0427f882"},"vehicle_type_id":"4","last_reported":1719342434,"current_range_meters":4800,"station_id":"ce4bh092rcd13ifvqd20","pricing_plan_id":"cebpf4jnsgd1na2vs0mg"},{"bike_id":"6b31dbd7-2c97-491d-96ef-c8217c38567c","system_id":"levelo_inurba_marseille","lat":43.304296,"lon":5.397513,"is_reserved":false,"is_disabled":false,"rental_uris":{"android":"levelo://app?vid=6b31dbd7-2c97-491d-96ef-c8217c38567c","ios":"levelo://app?vid=6b31dbd7-2c97-491d-96ef-c8217c38567c"},"vehicle_type_id":"4","last_reported":1719342434,"current_range_meters":7600,"station_id":"ce4bh092rcd13ifvqd20","pricing_plan_id":"cebpf4jnsgd1na2vs0mg"},{"bike_id":"24fd4630-8337-4dfc-a76f-56e612b55eb0","system_id":"levelo_inurba_marseille","lat":43.304296,"lon":5.397513,"is_reserved":false,"is_disabled":false,"rental_uris":{"android":"levelo://app?vid=24fd4630-8337-4dfc-a76f-56e612b55eb0","ios":"levelo://app?vid=24fd4630-8337-4dfc-a76f-56e612b55eb0"},"vehicle_type_id":"4","last_reported":1719342434,"current_range_meters":15200,"station_id":"ce4bh092rcd13ifvqd20","pricing_plan_id":"cebpf4jnsgd1na2vs0mg"},{"bike_id":"d7a5aaef-c1bd-4f49-891a-1636f75e6240","system_id":"levelo_inurba_marseille","lat":43.3042,"lon":5.39747,"is_reserved":false,"is_disabled":false,"rental_uris":{"android":"levelo://app?vid=d7a5aaef-c1bd-4f49-891a-1636f75e6240","ios":"levelo://app?vid=d7a5aaef-c1bd-4f49-891a-1636f75e6240"},"vehicle_type_id":"4","last_reported":1719342434,"current_range_meters":23600,"station_id":"ce4bh092rcd13ifvqd20","pricing_plan_id":"cebpf4jnsgd1na2vs0mg"},{"bike_id":"0aa40da1-c647-4b5f-864d-303a89bb6022","system_id":"levelo_inurba_marseille","lat":43.30423,"lon":5.39749,"is_reserved":false,"is_disabled":false,"rental_uris":{"android":"levelo://app?vid=0aa40da1-c647-4b5f-864d-303a89bb6022","ios":"levelo://app?vid=0aa40da1-c647-4b5f-864d-303a89bb6022"},"vehicle_type_id":"4","last_reported":1719342434,"current_range_meters":31200,"station_id":"ce4bh092rcd13ifvqd20","pricing_plan_id":"cebpf4jnsgd1na2vs0mg"},{"bike_id":"bc6eaf76-b94b-4a24-9f05-b3f41bdeb684","system_id":"levelo_inurba_marseille","lat":43.3042,"lon":5.39749,"is_reserved":false,"is_disabled":false,"rental_uris":{"android":"levelo://app?vid=bc6eaf76-b94b-4a24-9f05-b3f41bdeb684","ios":"levelo://app?vid=bc6eaf76-b94b-4a24-9f05-b3f41bdeb684"},"vehicle_type_id":"4","last_reported":1719342434,"current_range_meters":28400,"station_id":"ce4bh092rcd13ifvqd20","pricing_plan_id":"cebpf4jnsgd1na2vs0mg"},{"bike_id":"c7109847-d23a-40c5-ae27-c9aff3e693b2","system_id":"levelo_inurba_marseille","lat":43.292644,"lon":5.384257,"is_reserved":false,"is_disabled":false,"rental_uris":{"android":"levelo://app?vid=c7109847-d23a-40c5-ae27-c9aff3e693b2","ios":"levelo://app?vid=c7109847-d23a-40c5-ae27-c9aff3e693b2"},"vehicle_type_id":"4","last_reported":1719342434,"current_range_meters":3600,"station_id":"ce4bh692rcd13ifvqea0","pricing_plan_id":"cebpf4jnsgd1na2vs0mg"},{"bike_id":"abe95609-4d56-4d2b-9e60-4f704d1fad8c","system_id":"levelo_inurba_marseille","lat":43.304296,"lon":5.397513,"is_reserved":false,"is_disabled":false,"rental_uris":{"android":"levelo://app?vid=abe95609-4d56-4d2b-9e60-4f704d1fad8c","ios":"levelo://app?vid=abe95609-4d56-4d2b-9e60-4f704d1fad8c"},"vehicle_type_id":"4","last_reported":1719342434,"current_range_meters":10800,"station_id":"ce4bh092rcd13ifvqd20","pricing_plan_id":"cebpf4jnsgd1na2vs0mg"},{"bike_id":"03085fe2-7fe2-4c44-aeed-c7317cab039b","system_id":"levelo_inurba_marseille","lat":43.292644,"lon":5.384257,"is_reserved":false,"is_disabled":false,"rental_uris":{"android":"levelo://app?vid=03085fe2-7fe2-4c44-aeed-c7317cab039b","ios":"levelo://app?vid=03085fe2-7fe2-4c44-aeed-c7317cab039b"},"vehicle_type_id":"4","last_reported":1719342434,"current_range_meters":12400,"station_id":"ce4bh692rcd13ifvqea0","pricing_plan_id":"cebpf4jnsgd1na2vs0mg"},{"bike_id":"52406381-88d9-4f2d-bf2f-2a16b9d036f8","system_id":"levelo_inurba_marseille","lat":43.304296,"lon":5.397513,"is_reserved":false,"is_disabled":false,"rental_uris":{"android":"levelo://app?vid=52406381-88d9-4f2d-bf2f-2a16b9d036f8","ios":"levelo://app?vid=52406381-88d9-4f2d-bf2f-2a16b9d036f8"},"vehicle_type_id":"4","last_reported":1719342434,"current_range_meters":25600,"station_id":"ce4bh092rcd13ifvqd20","pricing_plan_id":"cebpf4jnsgd1na2vs0mg"},{"bike_id":"b5e2b857-9534-4db4-b0d4-a992b8bd61bb","system_id":"levelo_inurba_marseille","lat":43.304296,"lon":5.397513,"is_reserved":false,"is_disabled":false,"rental_uris":{"android":"levelo://app?vid=b5e2b857-9534-4db4-b0d4-a992b8bd61bb","ios":"levelo://app?vid=b5e2b857-9534-4db4-b0d4-a992b8bd61bb"},"vehicle_type_id":"4","last_reported":1719342434,"current_range_meters":24800,"station_id":"ce4bh092rcd13ifvqd20","pricing_plan_id":"cebpf4jnsgd1na2vs0mg"},{"bike_id":"46d78b64-bd13-4efa-b383-71c3948a681e","system_id":"levelo_inurba_marseille","lat":43.304296,"lon":5.397513,"is_reserved":false,"is_disabled":false,"rental_uris":{"android":"levelo://app?vid=46d78b64-bd13-4efa-b383-71c3948a681e","ios":"levelo://app?vid=46d78b64-bd13-4efa-b383-71c3948a681e"},"vehicle_type_id":"4","last_reported":1719342434,"current_range_meters":31200,"station_id":"ce4bh092rcd13ifvqd20","pricing_plan_id":"cebpf4jnsgd1na2vs0mg"},{"bike_id":"0b4689fa-eb7d-47fa-9173-31fb98d0d681","system_id":"levelo_inurba_marseille","lat":43.290995,"lon":5.381361,"is_reserved":false,"is_disabled":false,"rental_uris":{"android":"levelo://app?vid=0b4689fa-eb7d-47fa-9173-31fb98d0d681","ios":"levelo://app?vid=0b4689fa-eb7d-47fa-9173-31fb98d0d681"},"vehicle_type_id":"4","last_reported":1719342434,"current_range_meters":21200,"station_id":"ce4bh512rcd13ifvqe2g","pricing_plan_id":"cebpf4jnsgd1na2vs0mg"},{"bike_id":"03e7b024-a5b4-4b0d-9b0b-99018816e4b2","system_id":"levelo_inurba_marseille","lat":43.290995,"lon":5.381361,"is_reserved":false,"is_disabled":false,"rental_uris":{"android":"levelo://app?vid=03e7b024-a5b4-4b0d-9b0b-99018816e4b2","ios":"levelo://app?vid=03e7b024-a5b4-4b0d-9b0b-99018816e4b2"},"vehicle_type_id":"4","last_reported":1719342434,"current_range_meters":10000,"station_id":"ce4bh512rcd13ifvqe2g","pricing_plan_id":"cebpf4jnsgd1na2vs0mg"},{"bike_id":"d0d6f56e-99ad-4905-b95a-2cc18595a7c0","system_id":"levelo_inurba_marseille","lat":43.289741,"lon":5.378306,"is_reserved":false,"is_disabled":false,"rental_uris":{"android":"levelo://app?vid=d0d6f56e-99ad-4905-b95a-2cc18595a7c0","ios":"levelo://app?vid=d0d6f56e-99ad-4905-b95a-2cc18595a7c0"},"vehicle_type_id":"4","last_reported":1719342434,"current_range_meters":18000,"station_id":"ce4bh9p2rcd13ifvqed0","pricing_plan_id":"cebpf4jnsgd1na2vs0mg"},{"bike_id":"2b62f0f2-bc37-4f1f-bfaa-47b4d0052cf0","system_id":"levelo_inurba_marseille","lat":43.295169,"lon":5.390426,"is_reserved":false,"is_disabled":false,"rental_uris":{"android":"levelo://app?vid=2b62f0f2-bc37-4f1f-bfaa-47b4d0052cf0","ios":"levelo://app?vid=2b62f0f2-bc37-4f1f-bfaa-47b4d0052cf0"},"vehicle_type_id":"4","last_reported":1719342434,"current_range_meters":400,"station_id":"ce4bh3p2rcd13ifvqdp0","pricing_plan_id":"cebpf4jnsgd1na2vs0mg"},{"bike_id":"518b4ddc-113c-466d-b011-b7bc04774c33","system_id":"levelo_inurba_marseille","lat":43.330442,"lon":5.389148,"is_reserved":false,"is_disabled":false,"rental_uris":{"android":"levelo://app?vid=518b4ddc-113c-466d-b011-b7bc04774c33","ios":"levelo://app?vid=518b4ddc-113c-466d-b011-b7bc04774c33"},"vehicle_type_id":"4","last_reported":1719342434,"current_range_meters":7600,"station_id":"ce4bhr92rcd13ifvqhrg","pricing_plan_id":"cebpf4jnsgd1na2vs0mg"},{"bike_id":"2fc29a03-3a03-43d0-b4f2-1460a5d190a9","system_id":"levelo_inurba_marseille","lat":43.330442,"lon":5.389148,"is_reserved":false,"is_disabled":false,"rental_uris":{"android":"levelo://app?vid=2fc29a03-3a03-43d0-b4f2-1460a5d190a9","ios":"levelo://app?vid=2fc29a03-3a03-43d0-b4f2-1460a5d190a9"},"vehicle_type_id":"4","last_reported":1719342434,"current_range_meters":1200,"station_id":"ce4bhr92rcd13ifvqhrg","pricing_plan_id":"cebpf4jnsgd1na2vs0mg"},{"bike_id":"8bd9c8e6-1b91-4ee5-82f0-9335edf72a30","system_id":"levelo_inurba_marseille","lat":43.330442,"lon":5.389148,"is_reserved":false,"is_disabled":false,"rental_uris":{"android":"levelo://app?vid=8bd9c8e6-1b91-4ee5-82f0-9335edf72a30","ios":"levelo://app?vid=8bd9c8e6-1b91-4ee5-82f0-9335edf72a30"},"vehicle_type_id":"4","last_reported":1719342434,"current_range_meters":17200,"station_id":"ce4bhr92rcd13ifvqhrg","pricing_plan_id":"cebpf4jnsgd1na2vs0mg"},{"bike_id":"58e71fc8-2b69-4882-b6ea-e571f96033da","system_id":"levelo_inurba_marseille","lat":43.2903,"lon":5.38136,"is_reserved":false,"is_disabled":false,"rental_uris":{"android":"levelo://app?vid=58e71fc8-2b69-4882-b6ea-e571f96033da","ios":"levelo://app?vid=58e71fc8-2b69-4882-b6ea-e571f96033da"},"vehicle_type_id":"4","last_reported":1719342434,"current_range_meters":12400,"station_id":"ce4bh4p2rcd13ifvqe1g","pricing_plan_id":"cebpf4jnsgd1na2vs0mg"},{"bike_id":"77e85caf-47b1-4a41-81e6-8d298992df47","system_id":"levelo_inurba_marseille","lat":43.309371,"lon":5.401449,"is_reserved":false,"is_disabled":false,"rental_uris":{"android":"levelo://app?vid=77e85caf-47b1-4a41-81e6-8d298992df47","ios":"levelo://app?vid=77e85caf-47b1-4a41-81e6-8d298992df47"},"vehicle_type_id":"4","last_reported":1719342434,"current_range_meters":24800,"station_id":"ce4bgvp2rcd13ifvqct0","pricing_plan_id":"cebpf4jnsgd1na2vs0mg"},{"bike_id":"bb65fb70-df82-47d8-b27f-438620895501","system_id":"levelo_inurba_marseille","lat":43.337364,"lon":5.374609,"is_reserved":false,"is_disabled":false,"rental_uris":{"android":"levelo://app?vid=bb65fb70-df82-47d8-b27f-438620895501","ios":"levelo://app?vid=bb65fb70-df82-47d8-b27f-438620895501"},"vehicle_type_id":"0","last_reported":1719342434,"current_range_meters":16800,"station_id":"","pricing_plan_id":"cebpf4jnsgd1na2vs0mg"},{"bike_id":"c8afda74-cf9b-4c2e-9d5a-5237ff550dcd","system_id":"levelo_inurba_marseille","lat":43.312609,"lon":5.401662,"is_reserved":false,"is_disabled":false,"rental_uris":{"android":"levelo://app?vid=c8afda74-cf9b-4c2e-9d5a-5237ff550dcd","ios":"levelo://app?vid=c8afda74-cf9b-4c2e-9d5a-5237ff550dcd"},"vehicle_type_id":"4","last_reported":1719342434,"current_range_meters":0,"station_id":"ce4bh092rcd13ifvqd30","pricing_plan_id":"cebpf4jnsgd1na2vs0mg"},{"bike_id":"46ca6dfa-d1fc-4ad4-bb0e-64bd9b7c146a","system_id":"levelo_inurba_marseille","lat":43.312609,"lon":5.401662,"is_reserved":false,"is_disabled":false,"rental_uris":{"android":"levelo://app?vid=46ca6dfa-d1fc-4ad4-bb0e-64bd9b7c146a","ios":"levelo://app?vid=46ca6dfa-d1fc-4ad4-bb0e-64bd9b7c146a"},"vehicle_type_id":"4","last_reported":1719342434,"current_range_meters":10800,"station_id":"ce4bh092rcd13ifvqd30","pricing_plan_id":"cebpf4jnsgd1na2vs0mg"},{"bike_id":"aa733c01-381c-471a-8210-d10e21c4f446","system_id":"levelo_inurba_marseille","lat":43.312609,"lon":5.401662,"is_reserved":false,"is_disabled":false,"rental_uris":{"android":"levelo://app?vid=aa733c01-381c-471a-8210-d10e21c4f446","ios":"levelo://app?vid=aa733c01-381c-471a-8210-d10e21c4f446"},"vehicle_type_id":"4","last_reported":1719342434,"current_range_meters":2000,"station_id":"ce4bh092rcd13ifvqd30","pricing_plan_id":"cebpf4jnsgd1na2vs0mg"},{"bike_id":"2bffac18-a8fe-485f-be52-f67a471a544f","system_id":"levelo_inurba_marseille","lat":43.31281,"lon":5.40165,"is_reserved":false,"is_disabled":false,"rental_uris":{"android":"levelo://app?vid=2bffac18-a8fe-485f-be52-f67a471a544f","ios":"levelo://app?vid=2bffac18-a8fe-485f-be52-f67a471a544f"},"vehicle_type_id":"4","last_reported":1719342434,"current_range_meters":0,"station_id":"ce4bh092rcd13ifvqd30","pricing_plan_id":"cebpf4jnsgd1na2vs0mg"},{"bike_id":"c25a3696-e1cc-43ba-8656-23d4a118ee2e","system_id":"levelo_inurba_marseille","lat":43.337362,"lon":5.374717,"is_reserved":false,"is_disabled":false,"rental_uris":{"android":"levelo://app?vid=c25a3696-e1cc-43ba-8656-23d4a118ee2e","ios":"levelo://app?vid=c25a3696-e1cc-43ba-8656-23d4a118ee2e"},"vehicle_type_id":"4","last_reported":1719342434,"current_range_meters":22800,"station_id":"","pricing_plan_id":"cebpf4jnsgd1na2vs0mg"},{"bike_id":"f987180d-160b-49a3-acd1-d70c132d352e","system_id":"levelo_inurba_marseille","lat":43.312609,"lon":5.401662,"is_reserved":false,"is_disabled":false,"rental_uris":{"android":"levelo://app?vid=f987180d-160b-49a3-acd1-d70c132d352e","ios":"levelo://app?vid=f987180d-160b-49a3-acd1-d70c132d352e"},"vehicle_type_id":"4","last_reported":1719342434,"current_range_meters":0,"station_id":"ce4bh092rcd13ifvqd30","pricing_plan_id":"cebpf4jnsgd1na2vs0mg"},{"bike_id":"8043cc8a-f702-4e45-9523-d56dfd7ee432","system_id":"levelo_inurba_marseille","lat":43.337371,"lon":5.374681,"is_reserved":false,"is_disabled":false,"rental_uris":{"android":"levelo://app?vid=8043cc8a-f702-4e45-9523-d56dfd7ee432","ios":"levelo://app?vid=8043cc8a-f702-4e45-9523-d56dfd7ee432"},"vehicle_type_id":"0","last_reported":1719342434,"current_range_meters":21600,"station_id":"","pricing_plan_id":"cebpf4jnsgd1na2vs0mg"},{"bike_id":"c3ddbe4a-157d-4893-acf1-f1f626a65d21","system_id":"levelo_inurba_marseille","lat":43.337386,"lon":5.374597,"is_reserved":false,"is_disabled":false,"rental_uris":{"android":"levelo://app?vid=c3ddbe4a-157d-4893-acf1-f1f626a65d21","ios":"levelo://app?vid=c3ddbe4a-157d-4893-acf1-f1f626a65d21"},"vehicle_type_id":"0","last_reported":1719342434,"current_range_meters":19200,"station_id":"","pricing_plan_id":"cebpf4jnsgd1na2vs0mg"},{"bike_id":"81f3b553-8793-429e-bdf8-35ca3752f904","system_id":"levelo_inurba_marseille","lat":43.309371,"lon":5.401449,"is_reserved":false,"is_disabled":false,"rental_uris":{"android":"levelo://app?vid=81f3b553-8793-429e-bdf8-35ca3752f904","ios":"levelo://app?vid=81f3b553-8793-429e-bdf8-35ca3752f904"},"vehicle_type_id":"4","last_reported":1719342434,"current_range_meters":12800,"station_id":"ce4bgvp2rcd13ifvqct0","pricing_plan_id":"cebpf4jnsgd1na2vs0mg"},{"bike_id":"bd9a6c26-2db3-4e30-92c7-c85ae97147aa","system_id":"levelo_inurba_marseille","lat":43.337392,"lon":5.374609,"is_reserved":false,"is_disabled":false,"rental_uris":{"android":"levelo://app?vid=bd9a6c26-2db3-4e30-92c7-c85ae97147aa","ios":"levelo://app?vid=bd9a6c26-2db3-4e30-92c7-c85ae97147aa"},"vehicle_type_id":"0","last_reported":1719342434,"current_range_meters":25200,"station_id":"","pricing_plan_id":"cebpf4jnsgd1na2vs0mg"},{"bike_id":"aa527c2c-31a5-479b-bfbe-daae0d9bb514","system_id":"levelo_inurba_marseille","lat":43.33739,"lon":5.374655,"is_reserved":false,"is_disabled":false,"rental_uris":{"android":"levelo://app?vid=aa527c2c-31a5-479b-bfbe-daae0d9bb514","ios":"levelo://app?vid=aa527c2c-31a5-479b-bfbe-daae0d9bb514"},"vehicle_type_id":"0","last_reported":1719342434,"current_range_meters":12000,"station_id":"","pricing_plan_id":"cebpf4jnsgd1na2vs0mg"},{"bike_id":"70df0eff-7892-4d64-8b33-f9b25d3cdb77","system_id":"levelo_inurba_marseille","lat":43.337395,"lon":5.374653,"is_reserved":false,"is_disabled":false,"rental_uris":{"android":"levelo://app?vid=70df0eff-7892-4d64-8b33-f9b25d3cdb77","ios":"levelo://app?vid=70df0eff-7892-4d64-8b33-f9b25d3cdb77"},"vehicle_type_id":"4","last_reported":1719342434,"current_range_meters":22800,"station_id":"","pricing_plan_id":"cebpf4jnsgd1na2vs0mg"},{"bike_id":"985eda3a-8205-4c72-8b0d-a44593dd15b5","system_id":"levelo_inurba_marseille","lat":43.337402,"lon":5.374684,"is_reserved":false,"is_disabled":false,"rental_uris":{"android":"levelo://app?vid=985eda3a-8205-4c72-8b0d-a44593dd15b5","ios":"levelo://app?vid=985eda3a-8205-4c72-8b0d-a44593dd15b5"},"vehicle_type_id":"0","last_reported":1719342434,"current_range_meters":15600,"station_id":"","pricing_plan_id":"cebpf4jnsgd1na2vs0mg"},{"bike_id":"cbff8e2e-87ad-4d9e-a09d-9b1fba1c0aeb","system_id":"levelo_inurba_marseille","lat":43.337406,"lon":5.374682,"is_reserved":false,"is_disabled":false,"rental_uris":{"android":"levelo://app?vid=cbff8e2e-87ad-4d9e-a09d-9b1fba1c0aeb","ios":"levelo://app?vid=cbff8e2e-87ad-4d9e-a09d-9b1fba1c0aeb"},"vehicle_type_id":"0","last_reported":1719342434,"current_range_meters":22000,"station_id":"","pricing_plan_id":"cebpf4jnsgd1na2vs0mg"},{"bike_id":"20626a48-ddb6-4b45-97c4-dfb09d3171d8","system_id":"levelo_inurba_marseille","lat":43.309371,"lon":5.401449,"is_reserved":false,"is_disabled":false,"rental_uris":{"android":"levelo://app?vid=20626a48-ddb6-4b45-97c4-dfb09d3171d8","ios":"levelo://app?vid=20626a48-ddb6-4b45-97c4-dfb09d3171d8"},"vehicle_type_id":"4","last_reported":1719342434,"current_range_meters":400,"station_id":"ce4bgvp2rcd13ifvqct0","pricing_plan_id":"cebpf4jnsgd1na2vs0mg"},{"bike_id":"3aee49bc-6005-47f0-8d87-533cb129d5c4","system_id":"levelo_inurba_marseille","lat":43.309371,"lon":5.401449,"is_reserved":false,"is_disabled":false,"rental_uris":{"android":"levelo://app?vid=3aee49bc-6005-47f0-8d87-533cb129d5c4","ios":"levelo://app?vid=3aee49bc-6005-47f0-8d87-533cb129d5c4"},"vehicle_type_id":"4","last_reported":1719342434,"current_range_meters":800,"station_id":"ce4bgvp2rcd13ifvqct0","pricing_plan_id":"cebpf4jnsgd1na2vs0mg"},