{"last_updated":1745929249,"ttl":60,"version":"2.2","data":{"bikes":[{"bike_id":"d1d8d2f0-2745-43ca-bc7c-e17fd45195ed","system_id":"levelo_inurba_marseille","lat":43.279194,"lon":5.393623,"is_reserved":false,"is_disabled":false,"rental_uris":{"android":"levelo://app?vid=d1d8d2f0-2745-43ca-bc7c-e17fd45195ed","ios":"levelo://app?vid=d1d8d2f0-2745-43ca-bc7c-e17fd45195ed"},"vehicle_type_id":"4","last_reported":1745929249,"current_range_meters":2800,"station_id":"","pricing_plan_id":"cebpf4jnsgd1na2vs0mg"},{"bike_id":"a8d3fab5-1fb5-48c6-a36d-e2f890de9804","system_id":"levelo_inurba_marseille","lat":43.26939,"lon":5.38615,"is_reserved":false,"is_disabled":false,"rental_uris":{"android":"levelo://app?vid=a8d3fab5-1fb5-48c6-a36d-e2f890de9804","ios":"levelo://app?vid=a8d3fab5-1fb5-48c6-a36d-e2f890de9804"},"vehicle_type_id":"4","last_reported":1745929249,"current_range_meters":2800,"station_id":"ce4bhh92rcd13ifvqfh0","pricing_plan_id":"cebpf4jnsgd1na2vs0mg"},{"bike_id":"4daa3749-1f4e-42a5-a1a4-70205714e520","system_id":"levelo_inurba_marseille","lat":43.30546,"lon":5.36551,"is_reserved":false,"is_disabled":false,"rental_uris":{"android":"levelo://app?vid=4daa3749-1f4e-42a5-a1a4-70205714e520","ios":"levelo://app?vid=4daa3749-1f4e-42a5-a1a4-70205714e520"},"vehicle_type_id":"4","last_reported":1745929249,"current_range_meters":2800,"station_id":"ce4bgs12rcd13ifvqcag","pricing_plan_id":"cebpf4jnsgd1na2vs0mg"},{"bike_id":"d927d6d2-9671-45c3-978e-15e2a8d897e8","system_id":"levelo_inurba_marseille","lat":43.3254,"lon":5.41429,"is_reserved":false,"is_disabled":false,"rental_uris":{"android":"levelo://app?vid=d927d6d2-9671-45c3-978e-15e2a8d897e8","ios":"levelo://app?vid=d927d6d2-9671-45c3-978e-15e2a8d897e8"},"vehicle_type_id":"4","last_reported":1745929249,"current_range_meters":3200,"station_id":"ce4bhq12rcd13ifvqhhg","pricing_plan_id":"cebpf4jnsgd1na2vs0mg"},{"bike_id":"d029b5c9-e858-414f-bda4-330bd8e89399","system_id":"levelo_inurba_marseille","lat":43.283475,"lon":5.381124,"is_reserved":false,"is_disabled":false,"rental_uris":{"android":"levelo://app?vid=d029b5c9-e858-414f-bda4-330bd8e89399","ios":"levelo://app?vid=d029b5c9-e858-414f-bda4-330bd8e89399"},"vehicle_type_id":"4","last_reported":1745929249,"current_range_meters":3600,"station_id":"ce4bh412rcd13ifvqdr0","pricing_plan_id":"cebpf4jnsgd1na2vs0mg"},{"bike_id":"6f591b00-bad1-418a-b84a-b7ed49d58d21","system_id":"levelo_inurba_marseille","lat":43.246616,"lon":5.381614,"is_reserved":false,"is_disabled":false,"rental_uris":{"android":"levelo://app?vid=6f591b00-bad1-418a-b84a-b7ed49d58d21","ios":"levelo://app?vid=6f591b00-bad1-418a-b84a-b7ed49d58d21"},"vehicle_type_id":"4","last_reported":1745929249,"current_range_meters":3600,"station_id":"","pricing_plan_id":"cebpf4jnsgd1na2vs0mg"},{"bike_id":"382e3145-0fba-466c-9a16-9d57906e5072","system_id":"levelo_inurba_marseille","lat":43.255096,"lon":5.376194,"is_reserved":false,"is_disabled":false,"rental_uris":{"android":"levelo://app?vid=382e3145-0fba-466c-9a16-9d57906e5072","ios":"levelo://app?vid=382e3145-0fba-466c-9a16-9d57906e5072"},"vehicle_type_id":"4","last_reported":1745929249,"current_range_meters":3600,"station_id":"ce4bhh12rcd13ifvqff0","pricing_plan_id":"cebpf4jnsgd1na2vs0mg"},{"bike_id":"af57393a-87dd-4edd-9a3f-cbc696d9f77f","system_id":"levelo_inurba_marseille","lat":43.29275,"lon":5.40117,"is_reserved":false,"is_disabled":false,"rental_uris":{"android":"levelo://app?vid=af57393a-87dd-4edd-9a3f-cbc696d9f77f","ios":"levelo://app?vid=af57393a-87dd-4edd-9a3f-cbc696d9f77f"},"vehicle_type_id":"4","last_reported":1745929249,"current_range_meters":1600,"station_id":"ce4bh312rcd13ifvqdk0","pricing_plan_id":"cebpf4jnsgd1na2vs0mg"},{"bike_id":"a4c8a335-745b-4d95-97e0-7bac3cb18549","system_id":"levelo_inurba_marseille","lat":43.28123,"lon":5.39828,"is_reserved":false,"is_disabled":false,"rental_uris":{"android":"levelo://app?vid=a4c8a335-745b-4d95-97e0-7bac3cb18549","ios":"levelo://app?vid=a4c8a335-745b-4d95-97e0-7bac3cb18549"},"vehicle_type_id":"4","last_reported":1745929249,"current_range_meters":3600,"station_id":"","pricing_plan_id":"cebpf4jnsgd1na2vs0mg"},{"bike_id":"6b419829-d7d1-4214-86b5-f383992a52df","system_id":"levelo_inurba_marseille","lat":43.24548,"lon":5.39523,"is_reserved":false,"is_disabled":false,"rental_uris":{"android":"levelo://app?vid=6b419829-d7d1-4214-86b5-f383992a52df","ios":"levelo://app?vid=6b419829-d7d1-4214-86b5-f383992a52df"},"vehicle_type_id":"4","last_reported":1745929249,"current_range_meters":3600,"station_id":"ce4bhlp2rcd13ifvqgjg","pricing_plan_id":"cebpf4jnsgd1na2vs0mg"},{"bike_id":"a11d4a0a-9f21-4186-9fd2-e5b4e00145fb","system_id":"levelo_inurba_marseille","lat":43.31493,"lon":5.37313,"is_reserved":false,"is_disabled":false,"rental_uris":{"android":"levelo://app?vid=a11d4a0a-9f21-4186-9fd2-e5b4e00145fb","ios":"levelo://app?vid=a11d4a0a-9f21-4186-9fd2-e5b4e00145fb"},"vehicle_type_id":"4","last_reported":1745929249,"current_range_meters":4000,"station_id":"ce4bgt12rcd13ifvqcd0","pricing_plan_id":"cebpf4jnsgd1na2vs0mg"},{"bike_id":"806c56b0-2571-40c0-9f92-eec6e6dc377c","system_id":"levelo_inurba_marseille","lat":43.29537,"lon":5.38547,"is_reserved":false,"is_disabled":false,"rental_uris":{"android":"levelo://app?vid=806c56b0-2571-40c0-9f92-eec6e6dc377c","ios":"levelo://app?vid=806c56b0-2571-40c0-9f92-eec6e6dc377c"},"vehicle_type_id":"4","last_reported":1745929249,"current_range_meters":4000,"station_id":"ce4bgih2rcd13ifvqba0","pricing_plan_id":"cebpf4jnsgd1na2vs0mg"},{"bike_id":"175aa3c5-fad7-4c35-b892-13d9c139d829","system_id":"levelo_inurba_marseille","lat":43.24067,"lon":5.37761,"is_reserved":false,"is_disabled":false,"rental_uris":{"android":"levelo://app?vid=175aa3c5-fad7-4c35-b892-13d9c139d829","ios":"levelo://app?vid=175aa3c5-fad7-4c35-b892-13d9c139d829"},"vehicle_type_id":"4","last_reported":1745929249,"current_range_meters":4000,"station_id":"ce4bhnp2rcd13ifvqgvg","pricing_plan_id":"cebpf4jnsgd1na2vs0mg"},{"bike_id":"6698fbee-4cf0-4c1f-9513-5b22dc0ab7aa","system_id":"levelo_inurba_marseille","lat":43.29046,"lon":5.39973,"is_reserved":false,"is_disabled":false,"rental_uris":{"android":"levelo://app?vid=6698fbee-4cf0-4c1f-9513-5b22dc0ab7aa","ios":"levelo://app?vid=6698fbee-4cf0-4c1f-9513-5b22dc0ab7aa"},"vehicle_type_id":"4","last_reported":1745929249,"current_range_meters":4400,"station_id":"ce4bh392rcd13ifvqdm0","pricing_plan_id":"cebpf4jnsgd1na2vs0mg"},{"bike_id":"d1d133fe-cc4a-449f-883b-2365bae86f00","system_id":"levelo_inurba_marseille","lat":43.27904,"lon":5.38012,"is_reserved":false,"is_disabled":false,"rental_uris":{"android":"levelo://app?vid=d1d133fe-cc4a-449f-883b-2365bae86f00","ios":"levelo://app?vid=d1d133fe-cc4a-449f-883b-2365bae86f00"},"vehicle_type_id":"4","last_reported":1745929249,"current_range_meters":4000,"station_id":"ce4bhf92rcd13ifvqf50","pricing_plan_id":"cebpf4jnsgd1na2vs0mg"},{"bike_id":"86ab0af3-b351-49ab-bbe5-c9a7ac141512","system_id":"levelo_inurba_marseille","lat":43.32541,"lon":5.41445,"is_reserved":false,"is_disabled":false,"rental_uris":{"android":"levelo://app?vid=86ab0af3-b351-49ab-bbe5-c9a7ac141512","ios":"levelo://app?vid=86ab0af3-b351-49ab-bbe5-c9a7ac141512"},"vehicle_type_id":"4","last_reported":1745929249,"current_range_meters":4400,"station_id":"ce4bhq12rcd13ifvqhhg","pricing_plan_id":"cebpf4jnsgd1na2vs0mg"},{"bike_id":"a5c1d44a-4c19-4fce-895b-88b3cbf21a52","system_id":"levelo_inurba_marseille","lat":43.27371,"lon":5.36259,"is_reserved":false,"is_disabled":false,"rental_uris":{"android":"levelo://app?vid=a5c1d44a-4c19-4fce-895b-88b3cbf21a52","ios":"levelo://app?vid=a5c1d44a-4c19-4fce-895b-88b3cbf21a52"},"vehicle_type_id":"4","last_reported":1745929249,"current_range_meters":4400,"station_id":"ce4bhbh2rcd13ifvqeo0","pricing_plan_id":"cebpf4jnsgd1na2vs0mg"},{"bike_id":"b16a894d-433d-49ab-bd9b-d1d2514e4370","system_id":"levelo_inurba_marseille","lat":43.24542,"lon":5.395263,"is_reserved":false,"is_disabled":false,"rental_uris":{"android":"levelo://app?vid=b16a894d-433d-49ab-bd9b-d1d2514e4370","ios":"levelo://app?vid=b16a894d-433d-49ab-bd9b-d1d2514e4370"},"vehicle_type_id":"4","last_reported":1745929249,"current_range_meters":5600,"station_id":"ce4bhlp2rcd13ifvqgjg","pricing_plan_id":"cebpf4jnsgd1na2vs0mg"},{"bike_id":"4f0adce5-ecfa-45f7-996d-b4a6e64691b0","system_id":"levelo_inurba_marseille","lat":43.29531,"lon":5.38547,"is_reserved":false,"is_disabled":false,"rental_uris":{"android":"levelo://app?vid=4f0adce5-ecfa-45f7-996d-b4a6e64691b0","ios":"levelo://app?vid=4f0adce5-ecfa-45f7-996d-b4a6e64691b0"},"vehicle_type_id":"4","last_reported":1745929249,"current_range_meters":4800,"station_id":"ce4bgih2rcd13ifvqba0","pricing_plan_id":"cebpf4jnsgd1na2vs0mg"},{"bike_id":"d23c4696-7f3e-4ba3-9a33-ac141e53faa5","system_id":"levelo_inurba_marseille","lat":43.283484,"lon":5.350234,"is_reserved":false,"is_disabled":false,"rental_uris":{"android":"levelo://app?vid=d23c4696-7f3e-4ba3-9a33-ac141e53faa5","ios":"levelo://app?vid=d23c4696-7f3e-4ba3-9a33-ac141e53faa5"},"vehicle_type_id":"4","last_reported":1745929249,"current_range_meters":5600,"station_id":"ce4bhbp2rcd13ifvqerg","pricing_plan_id":"cebpf4jnsgd1na2vs0mg"},{"bike_id":"26deac1f-c435-40bc-9469-9ae0b266bb77","system_id":"levelo_inurba_marseille","lat":43.30191,"lon":5.38456,"is_reserved":false,"is_disabled":false,"rental_uris":{"android":"levelo://app?vid=26deac1f-c435-40bc-9469-9ae0b266bb77","ios":"levelo://app?vid=26deac1f-c435-40bc-9469-9ae0b266bb77"},"vehicle_type_id":"4","last_reported":1745929249,"current_range_meters":5600,"station_id":"","pricing_plan_id":"cebpf4jnsgd1na2vs0mg"},{"bike_id":"4b926ed4-062a-42df-bc75-ec745e4c5bf2","system_id":"levelo_inurba_marseille","lat":43.30317,"lon":5.369,"is_reserved":false,"is_disabled":false,"rental_uris":{"android":"levelo://app?vid=4b926ed4-062a-42df-bc75-ec745e4c5bf2","ios":"levelo://app?vid=4b926ed4-062a-42df-bc75-ec745e4c5bf2"},"vehicle_type_id":"4","last_reported":1745929249,"current_range_meters":5600,"station_id":"ce4bgqh2rcd13ifvqc5g","pricing_plan_id":"cebpf4jnsgd1na2vs0mg"},{"bike_id":"95479e5e-3b25-440d-bd77-79467bee1ff6","system_id":"levelo_inurba_marseille","lat":43.296363,"lon":5.40597,"is_reserved":false,"is_disabled":true,"rental_uris":{"android":"levelo://app?vid=95479e5e-3b25-440d-bd77-79467bee1ff6","ios":"levelo://app?vid=95479e5e-3b25-440d-bd77-79467bee1ff6"},"vehicle_type_id":"4","last_reported":1745929249,"current_range_meters":6000,"station_id":"ce4bh0h2rcd13ifvqd60","pricing_plan_id":"cebpf4jnsgd1na2vs0mg"},{"bike_id":"c45c975c-eac0-440e-9430-ec99f4e7eaa5","system_id":"levelo_inurba_marseille","lat":43.27365,"lon":5.36236,"is_reserved":false,"is_disabled":false,"rental_uris":{"android":"levelo://app?vid=c45c975c-eac0-440e-9430-ec99f4e7eaa5","ios":"levelo://app?vid=c45c975c-eac0-440e-9430-ec99f4e7eaa5"},"vehicle_type_id":"4","last_reported":1745929249,"current_range_meters":6000,"station_id":"ce4bhbh2rcd13ifvqeo0","pricing_plan_id":"cebpf4jnsgd1na2vs0mg"},{"bike_id":"59cdeab1-446c-451d-9b7c-ce96684d40ae","system_id":"levelo_inurba_marseille","lat":43.27375,"lon":5.36255,"is_reserved":false,"is_disabled":false,"rental_uris":{"android":"levelo://app?vid=59cdeab1-446c-451d-9b7c-ce96684d40ae","ios":"levelo://app?vid=59cdeab1-446c-451d-9b7c-ce96684d40ae"},"vehicle_type_id":"4","last_reported":1745929249,"current_range_meters":6000,"station_id":"ce4bhbh2rcd13ifvqeo0","pricing_plan_id":"cebpf4jnsgd1na2vs0mg"},{"bike_id":"6199fe66-f7cc-45c4-856b-8658beb95f6e","system_id":"levelo_inurba_marseille","lat":43.2868,"lon":5.38658,"is_reserved":false,"is_disabled":true,"rental_uris":{"android":"levelo://app?vid=6199fe66-f7cc-45c4-856b-8658beb95f6e","ios":"levelo://app?vid=6199fe66-f7cc-45c4-856b-8658beb95f6e"},"vehicle_type_id":"4","last_reported":1745929249,"current_range_meters":6000,"station_id":"ce4bh492rcd13ifvqdug","pricing_plan_id":"cebpf4jnsgd1na2vs0mg"},{"bike_id":"bf05d069-2ec5-4246-9d82-6d6f716d8264","system_id":"levelo_inurba_marseille","lat":43.241669,"lon":5.363999,"is_reserved":false,"is_disabled":false,"rental_uris":{"android":"levelo://app?vid=bf05d069-2ec5-4246-9d82-6d6f716d8264","ios":"levelo://app?vid=bf05d069-2ec5-4246-9d82-6d6f716d8264"},"vehicle_type_id":"4","last_reported":1745929249,"current_range_meters":6400,"station_id":"cpo36qri1sfpv3e86is0","pricing_plan_id":"cebpf4jnsgd1na2vs0mg"},{"bike_id":"385e9c98-69db-4cd1-b082-7e5d6269ba9f","system_id":"levelo_inurba_marseille","lat":43.32546,"lon":5.41439,"is_reserved":false,"is_disabled":false,"rental_uris":{"android":"levelo://app?vid=385e9c98-69db-4cd1-b082-7e5d6269ba9f","ios":"levelo://app?vid=385e9c98-69db-4cd1-b082-7e5d6269ba9f"},"vehicle_type_id":"4","last_reported":1745929249,"current_range_meters":6400,"station_id":"ce4bhq12rcd13ifvqhhg","pricing_plan_id":"cebpf4jnsgd1na2vs0mg"},{"bike_id":"0cddaa88-2c1e-4624-95dd-ee0e27eba3cd","system_id":"levelo_inurba_marseille","lat":43.23156,"lon":5.43699,"is_reserved":false,"is_disabled":false,"rental_uris":{"android":"levelo://app?vid=0cddaa88-2c1e-4624-95dd-ee0e27eba3cd","ios":"levelo://app?vid=0cddaa88-2c1e-4624-95dd-ee0e27eba3cd"},"vehicle_type_id":"4","last_reported":1745929249,"current_range_meters":6400,"station_id":"ce4bhmp2rcd13ifvqgog","pricing_plan_id":"cebpf4jnsgd1na2vs0mg"},{"bike_id":"a927ad15-b129-4085-9072-8cc54f2c8cf2","system_id":"levelo_inurba_marseille","lat":43.32102,"lon":5.36774,"is_reserved":false,"is_disabled":false,"rental_uris":{"android":"levelo://app?vid=a927ad15-b129-4085-9072-8cc54f2c8cf2","ios":"levelo://app?vid=a927ad15-b129-4085-9072-8cc54f2c8cf2"},"vehicle_type_id":"4","last_reported":1745929249,"current_range_meters":6400,"station_id":"","pricing_plan_id":"cebpf4jnsgd1na2vs0mg"},{"bike_id":"af4f0c69-e62d-4155-b1d1-a67b45271ae1","system_id":"levelo_inurba_marseille","lat":43.2473,"lon":5.41176,"is_reserved":false,"is_disabled":false,"rental_uris":{"android":"levelo://app?vid=af4f0c69-e62d-4155-b1d1-a67b45271ae1","ios":"levelo://app?vid=af4f0c69-e62d-4155-b1d1-a67b45271ae1"},"vehicle_type_id":"4","last_reported":1745929249,"current_range_meters":6800,"station_id":"","pricing_plan_id":"cebpf4jnsgd1na2vs0mg"},{"bike_id":"e316e9c9-3641-4187-83e7-351f605a3292","system_id":"levelo_inurba_marseille","lat":43.23196,"lon":5.35562,"is_reserved":false,"is_disabled":false,"rental_uris":{"android":"levelo://app?vid=e316e9c9-3641-4187-83e7-351f605a3292","ios":"levelo://app?vid=e316e9c9-3641-4187-83e7-351f605a3292"},"vehicle_type_id":"4","last_reported":1745929249,"current_range_meters":6800,"station_id":"ce4bhu92rcd13ifvqi70","pricing_plan_id":"cebpf4jnsgd1na2vs0mg"},{"bike_id":"8d850ace-f376-44e1-9b65-0b3175fcb0f8","system_id":"levelo_inurba_marseille","lat":43.3028,"lon":5.37702,"is_reserved":false,"is_disabled":false,"rental_uris":{"android":"levelo://app?vid=8d850ace-f376-44e1-9b65-0b3175fcb0f8","ios":"levelo://app?vid=8d850ace-f376-44e1-9b65-0b3175fcb0f8"},"vehicle_type_id":"4","last_reported":1745929249,"current_range_meters":6800,"station_id":"ce4bguh2rcd13ifvqcj0","pricing_plan_id":"cebpf4jnsgd1na2vs0mg"},{"bike_id":"06b9d8a1-cc18-4fda-a6e1-9f15898d47fe","system_id":"levelo_inurba_marseille","lat":43.24071,"lon":5.37705,"is_reserved":false,"is_disabled":false,"rental_uris":{"android":"levelo://app?vid=06b9d8a1-cc18-4fda-a6e1-9f15898d47fe","ios":"levelo://app?vid=06b9d8a1-cc18-4fda-a6e1-9f15898d47fe"},"vehicle_type_id":"4","last_reported":1745929249,"current_range_meters":7200,"station_id":"ce4bhnp2rcd13ifvqgvg","pricing_plan_id":"cebpf4jnsgd1na2vs0mg"},{"bike_id":"11beab31-c7c5-4dd2-a927-f48a7ff7bce4","system_id":"levelo_inurba_marseille","lat":43.324878,"lon":5.365618,"is_reserved":false,"is_disabled":false,"rental_uris":{"android":"levelo://app?vid=11beab31-c7c5-4dd2-a927-f48a7ff7bce4","ios":"levelo://app?vid=11beab31-c7c5-4dd2-a927-f48a7ff7bce4"},"vehicle_type_id":"4","last_reported":1745929249,"current_range_meters":8000,"station_id":"ce4bhs12rcd13ifvqhvg","pricing_plan_id":"cebpf4jnsgd1na2vs0mg"},{"bike_id":"98be2b3c-0dca-41db-b3aa-ee3b9af50f3c","system_id":"levelo_inurba_marseille","lat":43.29096,"lon":5.3811,"is_reserved":false,"is_disabled":false,"rental_uris":{"android":"levelo://app?vid=98be2b3c-0dca-41db-b3aa-ee3b9af50f3c","ios":"levelo://app?vid=98be2b3c-0dca-41db-b3aa-ee3b9af50f3c"},"vehicle_type_id":"4","last_reported":1745929249,"current_range_meters":7200,"station_id":"ce4bh512rcd13ifvqe2g","pricing_plan_id":"cebpf4jnsgd1na2vs0mg"},{"bike_id":"9dcc8e33-63c3-4034-868c-3e95c87388ec","system_id":"levelo_inurba_marseille","lat":43.2696,"lon":5.38631,"is_reserved":false,"is_disabled":false,"rental_uris":{"android":"levelo://app?vid=9dcc8e33-63c3-4034-868c-3e95c87388ec","ios":"levelo://app?vid=9dcc8e33-63c3-4034-868c-3e95c87388ec"},"vehicle_type_id":"4","last_reported":1745929249,"current_range_meters":8000,"station_id":"ce4bhh92rcd13ifvqfh0","pricing_plan_id":"cebpf4jnsgd1na2vs0mg"},{"bike_id":"6b2e8620-605d-4ad9-a68c-d87643be3b98","system_id":"levelo_inurba_marseille","lat":43.29849,"lon":5.36277,"is_reserved":false,"is_disabled":false,"rental_uris":{"android":"levelo://app?vid=6b2e8620-605d-4ad9-a68c-d87643be3b98","ios":"levelo://app?vid=6b2e8620-605d-4ad9-a68c-d87643be3b98"},"vehicle_type_id":"4","last_reported":1745929249,"current_range_meters":7200,"station_id":"ce4bgpp2rcd13ifvqc3g","pricing_plan_id":"cebpf4jnsgd1na2vs0mg"},{"bike_id":"2c8ab541-a558-4ede-a0c8-3b4aecf2c824","system_id":"levelo_inurba_marseille","lat":43.25501,"lon":5.37657,"is_reserved":false,"is_disabled":false,"rental_uris":{"android":"levelo://app?vid=2c8ab541-a558-4ede-a0c8-3b4aecf2c824","ios":"levelo://app?vid=2c8ab541-a558-4ede-a0c8-3b4aecf2c824"},"vehicle_type_id":"4","last_reported":1745929249,"current_range_meters":8000,"station_id":"ce4bhh12rcd13ifvqff0","pricing_plan_id":"cebpf4jnsgd1na2vs0mg"},{"bike_id":"a343ff56-b29a-4a95-8ade-29dce92ad84b","system_id":"levelo_inurba_marseille","lat":43.29264,"lon":5.37627,"is_reserved":false,"is_disabled":false,"rental_uris":{"android":"levelo://app?vid=a343ff56-b29a-4a95-8ade-29dce92ad84b","ios":"levelo://app?vid=a343ff56-b29a-4a95-8ade-29dce92ad84b"},"vehicle_type_id":"4","last_reported":1745929249,"current_range_meters":8000,"station_id":"ce4bgi12rcd13ifvqb80","pricing_plan_id":"cebpf4jnsgd1na2vs0mg"},{"bike_id":"745e04b7-4349-4bf8-9258-3ab97d727d90","system_id":"levelo_inurba_marseille","lat":43.30925,"lon":5.40144,"is_reserved":false,"is_disabled":false,"rental_uris":{"android":"levelo://app?vid=745e04b7-4349-4bf8-9258-3ab97d727d90","ios":"levelo://app?vid=745e04b7-4349-4bf8-9258-3ab97d727d90"},"vehicle_type_id":"4","last_reported":1745929249,"current_range_meters":7200,"station_id":"ce4bgvp2rcd13ifvqct0","pricing_plan_id":"cebpf4jnsgd1na2vs0mg"},{"bike_id":"151c5ca1-37f6-4b86-bc2e-08d8b9d7c3ef","system_id":"levelo_inurba_marseille","lat":43.26955,"lon":5.38636,"is_reserved":false,"is_disabled":false,"rental_uris":{"android":"levelo://app?vid=151c5ca1-37f6-4b86-bc2e-08d8b9d7c3ef","ios":"levelo://app?vid=151c5ca1-37f6-4b86-bc2e-08d8b9d7c3ef"},"vehicle_type_id":"4","last_reported":1745929249,"current_range_meters":8000,"station_id":"ce4bhh92rcd13ifvqfh0","pricing_plan_id":"cebpf4jnsgd1na2vs0mg"},{"bike_id":"f06c2110-6c9b-41e6-a5ca-a74207204e85","system_id":"levelo_inurba_marseille","lat":43.3128,"lon":5.36873,"is_reserved":false,"is_disabled":false,"rental_uris":{"android":"levelo://app?vid=f06c2110-6c9b-41e6-a5ca-a74207204e85","ios":"levelo://app?vid=f06c2110-6c9b-41e6-a5ca-a74207204e85"},"vehicle_type_id":"4","last_reported":1745929249,"current_range_meters":8400,"station_id":"ce4bgl92rcd13ifvqbq0","pricing_plan_id":"cebpf4jnsgd1na2vs0mg"},{"bike_id":"45863e3c-c555-49a1-9842-43ecd03180d1","system_id":"levelo_inurba_marseille","lat":43.26033,"lon":5.37544,"is_reserved":false,"is_disabled":false,"rental_uris":{"android":"levelo://app?vid=45863e3c-c555-49a1-9842-43ecd03180d1","ios":"levelo://app?vid=45863e3c-c555-49a1-9842-43ecd03180d1"},"vehicle_type_id":"4","last_reported":1745929249,"current_range_meters":8000,"station_id":"ce4bhgh2rcd13ifvqfa0","pricing_plan_id":"cebpf4jnsgd1na2vs0mg"},{"bike_id":"78f7d318-6ab3-497c-b89c-90a84eb6ae9a","system_id":"levelo_inurba_marseille","lat":43.2827,"lon":5.35068,"is_reserved":false,"is_disabled":false,"rental_uris":{"android":"levelo://app?vid=78f7d318-6ab3-497c-b89c-90a84eb6ae9a","ios":"levelo://app?vid=78f7d318-6ab3-497c-b89c-90a84eb6ae9a"},"vehicle_type_id":"4","last_reported":1745929249,"current_range_meters":8400,"station_id":"ce4bhbp2rcd13ifvqerg","pricing_plan_id":"cebpf4jnsgd1na2vs0mg"},{"bike_id":"db87410b-c699-47fa-8ee4-123d3a7d8581","system_id":"levelo_inurba_marseille","lat":43.23144,"lon":5.43697,"is_reserved":false,"is_disabled":false,"rental_uris":{"android":"levelo://app?vid=db87410b-c699-47fa-8ee4-123d3a7d8581","ios":"levelo://app?vid=db87410b-c699-47fa-8ee4-123d3a7d8581"},"vehicle_type_id":"4","last_reported":1745929249,"current_range_meters":8400,"station_id":"ce4bhmp2rcd13ifvqgog","pricing_plan_id":"cebpf4jnsgd1na2vs0mg"},{"bike_id":"e5b4b90d-e268-4de2-98f4-f6d0513f8801","system_id":"levelo_inurba_marseille","lat":43.26543,"lon":5.42212,"is_reserved":false,"is_disabled":false,"rental_uris":{"android":"levelo://app?vid=e5b4b90d-e268-4de2-98f4-f6d0513f8801","ios":"levelo://app?vid=e5b4b90d-e268-4de2-98f4-f6d0513f8801"},"vehicle_type_id":"4","last_reported":1745929249,"current_range_meters":8400,"station_id":"","pricing_plan_id":"cebpf4jnsgd1na2vs0mg"},{"bike_id":"37332e27-3c0f-43b0-a78a-0eff23ffcebe","system_id":"levelo_inurba_marseille","lat":43.317,"lon":5.40459,"is_reserved":false,"is_disabled":false,"rental_uris":{"android":"levelo://app?vid=37332e27-3c0f-43b0-a78a-0eff23ffcebe","ios":"levelo://app?vid=37332e27-3c0f-43b0-a78a-0eff23ffcebe"},"vehicle_type_id":"4","last_reported":1745929249,"current_range_meters":8400,"station_id":"ce4bh012rcd13ifvqd00","pricing_plan_id":"cebpf4jnsgd1na2vs0mg"},{"bike_id":"370c8d1f-72eb-4af7-823b-b4df18a8483a","system_id":"levelo_inurba_marseille","lat":43.2931,"lon":5.37173,"is_reserved":false,"is_disabled":false,"rental_uris":{"android":"levelo://app?vid=370c8d1f-72eb-4af7-823b-b4df18a8483a","ios":"levelo://app?vid=370c8d1f-72eb-4af7-823b-b4df18a8483a"},"vehicle_type_id":"4","last_reported":1745929249,"current_range_meters":8400,"station_id":"ce4bgh92rcd13ifvqb40","pricing_plan_id":"cebpf4jnsgd1na2vs0mg"},{"bike_id":"96a0efe0-3b83-4075-a705-a15692deacc2","system_id":"levelo_inurba_marseille","lat":43.21747,"lon":5.34605,"is_reserved":false,"is_disabled":true,"rental_uris":{"android":"levelo://app?vid=96a0efe0-3b83-4075-a705-a15692deacc2","ios":"levelo://app?vid=96a0efe0-3b83-4075-a705-a15692deacc2"},"vehicle_type_id":"4","last_reported":1745929249,"current_range_meters":9200,"station_id":"","pricing_plan_id":"cebpf4jnsgd1na2vs0mg"},{"bike_id":"446b3c66-3c31-4388-9a67-757ed5655c29","system_id":"levelo_inurba_marseille","lat":43.27622,"lon":5.361,"is_reserved":false,"is_disabled":false,"rental_uris":{"android":"levelo://app?vid=446b3c66-3c31-4388-9a67-757ed5655c29","ios":"levelo://app?vid=446b3c66-3c31-4388-9a67-757ed5655c29"},"vehicle_type_id":"4","last_reported":1745929249,"current_range_meters":9200,"station_id":"ce4bgj92rcd13ifvqbe0","pricing_plan_id":"cebpf4jnsgd1na2vs0mg"},{"bike_id":"62469412-6712-483f-9ef5-1f87fe972cfc","system_id":"levelo_inurba_marseille","lat":43.30306,"lon":5.36887,"is_reserved":false,"is_disabled":false,"rental_uris":{"android":"levelo://app?vid=62469412-6712-483f-9ef5-1f87fe972cfc","ios":"levelo://app?vid=62469412-6712-483f-9ef5-1f87fe972cfc"},"vehicle_type_id":"4","last_reported":1745929249,"current_range_meters":9600,"station_id":"ce4bgqh2rcd13ifvqc5g","pricing_plan_id":"cebpf4jnsgd1na2vs0mg"},{"bike_id":"385f44c8-d47a-40fc-8235-8720929e4041","system_id":"levelo_inurba_marseille","lat":43.231576,"lon":5.437066,"is_reserved":false,"is_disabled":false,"rental_uris":{"android":"levelo://app?vid=385f44c8-d47a-40fc-8235-8720929e4041","ios":"levelo://app?vid=385f44c8-d47a-40fc-8235-8720929e4041"},"vehicle_type_id":"4","last_reported":1745929249,"current_range_meters":9600,"station_id":"ce4bhmp2rcd13ifvqgog","pricing_plan_id":"cebpf4jnsgd1na2vs0mg"},{"bike_id":"ffd6c253-5aea-49cf-a1cd-3f4be3c9b7ec","system_id":"levelo_inurba_marseille","lat":43.27484,"lon":5.42439,"is_reserved":false,"is_disabled":false,"rental_uris":{"android":"levelo://app?vid=ffd6c253-5aea-49cf-a1cd-3f4be3c9b7ec","ios":"levelo://app?vid=ffd6c253-5aea-49cf-a1cd-3f4be3c9b7ec"},"vehicle_type_id":"4","last_reported":1745929249,"current_range_meters":9600,"station_id":"ce4bhn92rcd13ifvqgrg","pricing_plan_id":"cebpf4jnsgd1na2vs0mg"},{"bike_id":"4f33f1fd-20a3-4897-9777-19066388bb99","system_id":"levelo_inurba_marseille","lat":43.29901,"lon":5.38274,"is_reserved":false,"is_disabled":true,"rental_uris":{"android":"levelo://app?vid=4f33f1fd-20a3-4897-9777-19066388bb99","ios":"levelo://app?vid=4f33f1fd-20a3-4897-9777-19066388bb99"},"vehicle_type_id":"4","last_reported":1745929249,"current_range_meters":9600,"station_id":"","pricing_plan_id":"cebpf4jnsgd1na2vs0mg"},{"bike_id":"6c394fb3-8255-4430-bd28-5181eb502d9b","system_id":"levelo_inurba_marseille","lat":43.31615,"lon":5.38893,"is_reserved":false,"is_disabled":false,"rental_uris":{"android":"levelo://app?vid=6c394fb3-8255-4430-bd28-5181eb502d9b","ios":"levelo://app?vid=6c394fb3-8255-4430-bd28-5181eb502d9b"},"vehicle_type_id":"4","last_reported":1745929249,"current_range_meters":10000,"station_id":"","pricing_plan_id":"cebpf4jnsgd1na2vs0mg"},{"bike_id":"a273dd95-99e2-4bb8-bee8-19cb9b13f516","system_id":"levelo_inurba_marseille","lat":43.299029,"lon":5.436608,"is_reserved":false,"is_disabled":true,"rental_uris":{"android":"levelo://app?vid=a273dd95-99e2-4bb8-bee8-19cb9b13f516","ios":"levelo://app?vid=a273dd95-99e2-4bb8-bee8-19cb9b13f516"},"vehicle_type_id":"4","last_reported":1745929249,"current_range_meters":10000,"station_id":"ce4bhpp2rcd13ifvqhfg","pricing_plan_id":"cebpf4jnsgd1na2vs0mg"},{"bike_id":"221baf4d-c602-4577-a05a-e2579ad3dcd8","system_id":"levelo_inurba_marseille","lat":43.30929,"lon":5.36824,"is_reserved":false,"is_disabled":false,"rental_uris":{"android":"levelo://app?vid=221baf4d-c602-4577-a05a-e2579ad3dcd8","ios":"levelo://app?vid=221baf4d-c602-4577-a05a-e2579ad3dcd8"},"vehicle_type_id":"4","last_reported":1745929249,"current_range_meters":10000,"station_id":"ce4bgn92rcd13ifvqbvg","pricing_plan_id":"cebpf4jnsgd1na2vs0mg"},{"bike_id":"28894e81-ede6-4351-84e3-e6b48081a345","system_id":"levelo_inurba_marseille","lat":43.33465,"lon":5.400537,"is_reserved":false,"is_disabled":false,"rental_uris":{"android":"levelo://app?vid=28894e81-ede6-4351-84e3-e6b48081a345","ios":"levelo://app?vid=28894e81-ede6-4351-84e3-e6b48081a345"},"vehicle_type_id":"4","last_reported":1745929249,"current_range_meters":10800,"station_id":"","pricing_plan_id":"cebpf4jnsgd1na2vs0mg"},{"bike_id":"b24d099b-c213-4d0e-8bed-0a6b1553f715","system_id":"levelo_inurba_marseille","lat":43.32418,"lon":5.36514,"is_reserved":false,"is_disabled":false,"rental_uris":{"android":"levelo://app?vid=b24d099b-c213-4d0e-8bed-0a6b1553f715","ios":"levelo://app?vid=b24d099b-c213-4d0e-8bed-0a6b1553f715"},"vehicle_type_id":"4","last_reported":1745929249,"current_range_meters":10800,"station_id":"","pricing_plan_id":"cebpf4jnsgd1na2vs0mg"},{"bike_id":"613dfa66-27ac-4232-8868-112d7bc52a72","system_id":"levelo_inurba_marseille","lat":43.30305,"lon":5.36881,"is_reserved":false,"is_disabled":false,"rental_uris":{"android":"levelo://app?vid=613dfa66-27ac-4232-8868-112d7bc52a72","ios":"levelo://app?vid=613dfa66-27ac-4232-8868-112d7bc52a72"},"vehicle_type_id":"4","last_reported":1745929249,"current_range_meters":10800,"station_id":"ce4bgqh2rcd13ifvqc5g","pricing_plan_id":"cebpf4jnsgd1na2vs0mg"},{"bike_id":"53de78d7-d874-4d94-8b98-ab6165993028","system_id":"levelo_inurba_marseille","lat":43.25012,"lon":5.38919,"is_reserved":false,"is_disabled":false,"rental_uris":{"android":"levelo://app?vid=53de78d7-d874-4d94-8b98-ab6165993028","ios":"levelo://app?vid=53de78d7-d874-4d94-8b98-ab6165993028"},"vehicle_type_id":"4","last_reported":1745929249,"current_range_meters":10000,"station_id":"ce4bhgp2rcd13ifvqfd0","pricing_plan_id":"cebpf4jnsgd1na2vs0mg"},{"bike_id":"b5119ce2-1118-4d0f-98b3-51cd5904584e","system_id":"levelo_inurba_marseille","lat":43.30252,"lon":5.40061,"is_reserved":false,"is_disabled":false,"rental_uris":{"android":"levelo://app?vid=b5119ce2-1118-4d0f-98b3-51cd5904584e","ios":"levelo://app?vid=b5119ce2-1118-4d0f-98b3-51cd5904584e"},"vehicle_type_id":"4","last_reported":1745929249,"current_range_meters":10800,"station_id":"ce4bgvh2rcd13ifvqcs0","pricing_plan_id":"cebpf4jnsgd1na2vs0mg"},{"bike_id":"274de418-4901-4594-96ba-14adb2b508fe","system_id":"levelo_inurba_marseille","lat":43.25938,"lon":5.40896,"is_reserved":false,"is_disabled":false,"rental_uris":{"android":"levelo://app?vid=274de418-4901-4594-96ba-14adb2b508fe","ios":"levelo://app?vid=274de418-4901-4594-96ba-14adb2b508fe"},"vehicle_type_id":"4","last_reported":1745929249,"current_range_meters":11200,"station_id":"ce4bhm92rcd13ifvqglg","pricing_plan_id":"cebpf4jnsgd1na2vs0mg"},{"bike_id":"1ed22fd6-601a-4a82-92b3-e104871edbfd","system_id":"levelo_inurba_marseille","lat":43.28947,"lon":5.36619,"is_reserved":false,"is_disabled":false,"rental_uris":{"android":"levelo://app?vid=1ed22fd6-601a-4a82-92b3-e104871edbfd","ios":"levelo://app?vid=1ed22fd6-601a-4a82-92b3-e104871edbfd"},"vehicle_type_id":"4","last_reported":1745929249,"current_range_meters":10800,"station_id":"ce4bhap2rcd13ifvqek0","pricing_plan_id":"cebpf4jnsgd1na2vs0mg"},{"bike_id":"4d5f1d45-001f-4354-9daf-5434be1d53b7","system_id":"levelo_inurba_marseille","lat":43.2845,"lon":5.39204,"is_reserved":false,"is_disabled":false,"rental_uris":{"android":"levelo://app?vid=4d5f1d45-001f-4354-9daf-5434be1d53b7","ios":"levelo://app?vid=4d5f1d45-001f-4354-9daf-5434be1d53b7"},"vehicle_type_id":"4","last_reported":1745929249,"current_range_meters":9600,"station_id":"ce4bhoh2rcd13ifvqh5g","pricing_plan_id":"cebpf4jnsgd1na2vs0mg"},{"bike_id":"b13f9913-27dd-4197-ba83-0d6b671b36d4","system_id":"levelo_inurba_marseille","lat":43.32474,"lon":5.36557,"is_reserved":false,"is_disabled":false,"rental_uris":{"android":"levelo://app?vid=b13f9913-27dd-4197-ba83-0d6b671b36d4","ios":"levelo://app?vid=b13f9913-27dd-4197-ba83-0d6b671b36d4"},"vehicle_type_id":"4","last_reported":1745929249,"current_range_meters":11200,"station_id":"ce4bhs12rcd13ifvqhvg","pricing_plan_id":"cebpf4jnsgd1na2vs0mg"},{"bike_id":"3b197627-d16b-4605-8fa5-1f6366478ff0","system_id":"levelo_inurba_marseille","lat":43.275372,"lon":5.359873,"is_reserved":false,"is_disabled":false,"rental_uris":{"android":"levelo://app?vid=3b197627-d16b-4605-8fa5-1f6366478ff0","ios":"levelo://app?vid=3b197627-d16b-4605-8fa5-1f6366478ff0"},"vehicle_type_id":"4","last_reported":1745929249,"current_range_meters":11200,"station_id":"ce4bhbh2rcd13ifvqeo0","pricing_plan_id":"cebpf4jnsgd1na2vs0mg"},{"bike_id":"94047fbd-5312-40d9-96fe-11e2783bcc01","system_id":"levelo_inurba_marseille","lat":43.31687,"lon":5.40469,"is_reserved":false,"is_disabled":false,"rental_uris":{"android":"levelo://app?vid=94047fbd-5312-40d9-96fe-11e2783bcc01","ios":"levelo://app?vid=94047fbd-5312-40d9-96fe-11e2783bcc01"},"vehicle_type_id":"4","last_reported":1745929249,"current_range_meters":11600,"station_id":"ce4bh012rcd13ifvqd00","pricing_plan_id":"cebpf4jnsgd1na2vs0mg"},{"bike_id":"b1a783f7-3664-469b-9d6d-6ff70d718e9d","system_id":"levelo_inurba_marseille","lat":43.28418,"lon":5.34978,"is_reserved":false,"is_disabled":false,"rental_uris":{"android":"levelo://app?vid=b1a783f7-3664-469b-9d6d-6ff70d718e9d","ios":"levelo://app?vid=b1a783f7-3664-469b-9d6d-6ff70d718e9d"},"vehicle_type_id":"4","last_reported":1745929249,"current_range_meters":11600,"station_id":"ce4bhbh2rcd13ifvqepg","pricing_plan_id":"cebpf4jnsgd1na2vs0mg"},{"bike_id":"15c6b0a6-4807-425a-9c7e-a79083a8e9b5","system_id":"levelo_inurba_marseille","lat":43.29783,"lon":5.39337,"is_reserved":false,"is_disabled":false,"rental_uris":{"android":"levelo://app?vid=15c6b0a6-4807-425a-9c7e-a79083a8e9b5","ios":"levelo://app?vid=15c6b0a6-4807-425a-9c7e-a79083a8e9b5"},"vehicle_type_id":"4","last_reported":1745929249,"current_range_meters":11200,"station_id":"chh1huq6cuj3fo74tm60","pricing_plan_id":"cebpf4jnsgd1na2vs0mg"},{"bike_id":"47c8e995-1286-4459-ac31-bcb1455ace8e","system_id":"levelo_inurba_marseille","lat":43.23154,"lon":5.43713,"is_reserved":false,"is_disabled":false,"rental_uris":{"android":"levelo://app?vid=47c8e995-1286-4459-ac31-bcb1455ace8e","ios":"levelo://app?vid=47c8e995-1286-4459-ac31-bcb1455ace8e"},"vehicle_type_id":"4","last_reported":1745929249,"current_range_meters":11600,"station_id":"ce4bhmp2rcd13ifvqgog","pricing_plan_id":"cebpf4jnsgd1na2vs0mg"},{"bike_id":"f7e56802-355b-429e-830a-9528c08632b7","system_id":"levelo_inurba_marseille","lat":43.28039,"lon":5.36942,"is_reserved":false,"is_disabled":false,"rental_uris":{"android":"levelo://app?vid=f7e56802-355b-429e-830a-9528c08632b7","ios":"levelo://app?vid=f7e56802-355b-429e-830a-9528c08632b7"},"vehicle_type_id":"4","last_reported":1745929249,"current_range_meters":11600,"station_id":"ce4bha12rcd13ifvqef0","pricing_plan_id":"cebpf4jnsgd1na2vs0mg"},{"bike_id":"a4e908cc-ce4b-4ed0-9d8d-022b2dd7de70","system_id":"levelo_inurba_marseille","lat":43.22932,"lon":5.35375,"is_reserved":false,"is_disabled":false,"rental_uris":{"android":"levelo://app?vid=a4e908cc-ce4b-4ed0-9d8d-022b2dd7de70","ios":"levelo://app?vid=a4e908cc-ce4b-4ed0-9d8d-022b2dd7de70"},"vehicle_type_id":"4","last_reported":1745929249,"current_range_meters":11600,"station_id":"cpo3532slgdg3j2ikp40","pricing_plan_id":"cebpf4jnsgd1na2vs0mg"},{"bike_id":"fe573eb8-4f9b-4b89-8548-7cb84d7a7041","system_id":"levelo_inurba_marseille","lat":43.27499,"lon":5.42452,"is_reserved":false,"is_disabled":false,"rental_uris":{"android":"levelo://app?vid=fe573eb8-4f9b-4b89-8548-7cb84d7a7041","ios":"levelo://app?vid=fe573eb8-4f9b-4b89-8548-7cb84d7a7041"},"vehicle_type_id":"4","last_reported":1745929249,"current_range_meters":12000,"station_id":"ce4bhn92rcd13ifvqgrg","pricing_plan_id":"cebpf4jnsgd1na2vs0mg"},{"bike_id":"bd4dd0d7-46f4-440a-a46e-451b65dfbb5a","system_id":"levelo_inurba_marseille","lat":43.30546,"lon":5.3669,"is_reserved":false,"is_disabled":false,"rental_uris":{"android":"levelo://app?vid=bd4dd0d7-46f4-440a-a46e-451b65dfbb5a","ios":"levelo://app?vid=bd4dd0d7-46f4-440a-a46e-451b65dfbb5a"},"vehicle_type_id":"4","last_reported":1745929249,"current_range_meters":12000,"station_id":"ce4bgrp2rcd13ifvqc9g","pricing_plan_id":"cebpf4jnsgd1na2vs0mg"},{"bike_id":"140727dd-4ddf-46d6-a110-efd6e2a630de","system_id":"levelo_inurba_marseille","lat":43.247488,"lon":5.374015,"is_reserved":false,"is_disabled":false,"rental_uris":{"android":"levelo://app?vid=140727dd-4ddf-46d6-a110-efd6e2a630de","ios":"levelo://app?vid=140727dd-4ddf-46d6-a110-efd6e2a630de"},"vehicle_type_id":"4","last_reported":1745929249,"current_range_meters":12000,"station_id":"ce4bhnp2rcd13ifvqgvg","pricing_plan_id":"cebpf4jnsgd1na2vs0mg"},{"bike_id":"8f7b6daa-ce50-4625-843f-d0d46be3668a","system_id":"levelo_inurba_marseille","lat":43.293069,"lon":5.371832,"is_reserved":false,"is_disabled":false,"rental_uris":{"android":"levelo://app?vid=8f7b6daa-ce50-4625-843f-d0d46be3668a","ios":"levelo://app?vid=8f7b6daa-ce50-4625-843f-d0d46be3668a"},"vehicle_type_id":"4","last_reported":1745929249,"current_range_meters":12000,"station_id":"ce4bgh92rcd13ifvqb40","pricing_plan_id":"cebpf4jnsgd1na2vs0mg"},{"bike_id":"c2147122-3203-46af-94b2-55cc40ffa8dd","system_id":"levelo_inurba_marseille","lat":43.31165,"lon":5.38722,"is_reserved":false,"is_disabled":false,"rental_uris":{"android":"levelo://app?vid=c2147122-3203-46af-94b2-55cc40ffa8dd","ios":"levelo://app?vid=c2147122-3203-46af-94b2-55cc40ffa8dd"},"vehicle_type_id":"4","last_reported":1745929249,"current_range_meters":12000,"station_id":"ce4bgv12rcd13ifvqcp0","pricing_plan_id":"cebpf4jnsgd1na2vs0mg"},{"bike_id":"091a2dd9-0082-4fa9-9c5c-3885973a6a02","system_id":"levelo_inurba_marseille","lat":43.313578,"lon":5.384933,"is_reserved":false,"is_disabled":false,"rental_uris":{"android":"levelo://app?vid=091a2dd9-0082-4fa9-9c5c-3885973a6a02","ios":"levelo://app?vid=091a2dd9-0082-4fa9-9c5c-3885973a6a02"},"vehicle_type_id":"4","last_reported":1745929249,"current_range_meters":12000,"station_id":"ce4bgt92rcd13ifvqcf0","pricing_plan_id":"cebpf4jnsgd1na2vs0mg"},{"bike_id":"308a0858-7782-4816-8962-95080a2043e4","system_id":"levelo_inurba_marseille","lat":43.28404,"lon":5.37522,"is_reserved":false,"is_disabled":false,"rental_uris":{"android":"levelo://app?vid=308a0858-7782-4816-8962-95080a2043e4","ios":"levelo://app?vid=308a0858-7782-4816-8962-95080a2043e4"},"vehicle_type_id":"4","last_reported":1745929249,"current_range_meters":12000,"station_id":"ce4bh412rcd13ifvqds0","pricing_plan_id":"cebpf4jnsgd1na2vs0mg"},{"bike_id":"c561163e-a003-49a9-bf4f-8ad31b0bbaac","system_id":"levelo_inurba_marseille","lat":43.25718,"lon":5.41823,"is_reserved":false,"is_disabled":false,"rental_uris":{"android":"levelo://app?vid=c561163e-a003-49a9-bf4f-8ad31b0bbaac","ios":"levelo://app?vid=c561163e-a003-49a9-bf4f-8ad31b0bbaac"},"vehicle_type_id":"4","last_reported":1745929249,"current_range_meters":12400,"station_id":"","pricing_plan_id":"cebpf4jnsgd1na2vs0mg"},{"bike_id":"a299c2a5-2ef4-4120-9c76-0707816c5247","system_id":"levelo_inurba_marseille","lat":43.2827,"lon":5.35065,"is_reserved":false,"is_disabled":false,"rental_uris":{"android":"levelo://app?vid=a299c2a5-2ef4-4120-9c76-0707816c5247","ios":"levelo://app?vid=a299c2a5-2ef4-4120-9c76-0707816c5247"},"vehicle_type_id":"4","last_reported":1745929249,"current_range_meters":12400,"station_id":"ce4bhbp2rcd13ifvqerg","pricing_plan_id":"cebpf4jnsgd1na2vs0mg"},{"bike_id":"d3715506-8cc3-4bc8-be16-f053f2e537c1","system_id":"levelo_inurba_marseille","lat":43.30189,"lon":5.36635,"is_reserved":false,"is_disabled":false,"rental_uris":{"android":"levelo://app?vid=d3715506-8cc3-4bc8-be16-f053f2e537c1","ios":"levelo://app?vid=d3715506-8cc3-4bc8-be16-f053f2e537c1"},"vehicle_type_id":"4","last_reported":1745929249,"current_range_meters":12400,"station_id":"ce4bgrh2rcd13ifvqc8g","pricing_plan_id":"cebpf4jnsgd1na2vs0mg"},{"bike_id":"3143d293-7ae0-4ad4-ac9f-056ea6f9e961","system_id":"levelo_inurba_marseille","lat":43.29938,"lon":5.36545,"is_reserved":false,"is_disabled":false,"rental_uris":{"android":"levelo://app?vid=3143d293-7ae0-4ad4-ac9f-056ea6f9e961","ios":"levelo://app?vid=3143d293-7ae0-4ad4-ac9f-056ea6f9e961"},"vehicle_type_id":"4","last_reported":1745929249,"current_range_meters":12400,"station_id":"ce4bgm92rcd13ifvqbr0","pricing_plan_id":"cebpf4jnsgd1na2vs0mg"},{"bike_id":"90ec756e-7d75-44ae-9837-bcc6f8c453df","system_id":"levelo_inurba_marseille","lat":43.23185,"lon":5.3557,"is_reserved":false,"is_disabled":false,"rental_uris":{"android":"levelo://app?vid=90ec756e-7d75-44ae-9837-bcc6f8c453df","ios":"levelo://app?vid=90ec756e-7d75-44ae-9837-bcc6f8c453df"},"vehicle_type_id":"4","last_reported":1745929249,"current_range_meters":12400,"station_id":"ce4bhu92rcd13ifvqi70","pricing_plan_id":"cebpf4jnsgd1na2vs0mg"},{"bike_id":"64c7e544-e113-4a66-b59a-88632ec9dda0","system_id":"levelo_inurba_marseille","lat":43.2439,"lon":5.37059,"is_reserved":false,"is_disabled":false,"rental_uris":{"android":"levelo://app?vid=64c7e544-e113-4a66-b59a-88632ec9dda0","ios":"levelo://app?vid=64c7e544-e113-4a66-b59a-88632ec9dda0"},"vehicle_type_id":"4","last_reported":1745929249,"current_range_meters":12800,"station_id":"ce4bhhh2rcd13ifvqfk0","pricing_plan_id":"cebpf4jnsgd1na2vs0mg"},{"bike_id":"b4c6cca8-2e10-4fc8-a0ad-ad89366af1a1","system_id":"levelo_inurba_marseille","lat":43.23068,"lon":5.35493,"is_reserved":false,"is_disabled":false,"rental_uris":{"android":"levelo://app?vid=b4c6cca8-2e10-4fc8-a0ad-ad89366af1a1","ios":"levelo://app?vid=b4c6cca8-2e10-4fc8-a0ad-ad89366af1a1"},"vehicle_type_id":"4","last_reported":1745929249,"current_range_meters":12800,"station_id":"cpo3342slgdg3j2ifvpg","pricing_plan_id":"cebpf4jnsgd1na2vs0mg"},{"bike_id":"340527a2-0f35-4a44-8a0b-05d17dfe443d","system_id":"levelo_inurba_marseille","lat":43.30759,"lon":5.36786,"is_reserved":false,"is_disabled":false,"rental_uris":{"android":"levelo://app?vid=340527a2-0f35-4a44-8a0b-05d17dfe443d","ios":"levelo://app?vid=340527a2-0f35-4a44-8a0b-05d17dfe443d"},"vehicle_type_id":"4","last_reported":1745929249,"current_range_meters":12800,"station_id":"","pricing_plan_id":"cebpf4jnsgd1na2vs0mg"},{"bike_id":"978c4f03-4d43-4305-bd80-2431ab157904","system_id":"levelo_inurba_marseille","lat":43.31367,"lon":5.38495,"is_reserved":false,"is_disabled":false,"rental_uris":{"android":"levelo://app?vid=978c4f03-4d43-4305-bd80-2431ab157904","ios":"levelo://app?vid=978c4f03-4d43-4305-bd80-2431ab157904"},"vehicle_type_id":"4","last_reported":1745929249,"current_range_meters":12800,"station_id":"ce4bgt92rcd13ifvqcf0","pricing_plan_id":"cebpf4jnsgd1na2vs0mg"},{"bike_id":"6a004e24-127b-4c82-843e-13f74352509a","system_id":"levelo_inurba_marseille","lat":43.2315,"lon":5.43719,"is_reserved":false,"is_disabled":false,"rental_uris":{"android":"levelo://app?vid=6a004e24-127b-4c82-843e-13f74352509a","ios":"levelo://app?vid=6a004e24-127b-4c82-843e-13f74352509a"},"vehicle_type_id":"4","last_reported":1745929249,"current_range_meters":13600,"station_id":"ce4bhmp2rcd13ifvqgog","pricing_plan_id":"cebpf4jnsgd1na2vs0mg"},{"bike_id":"e0c41004-05b9-4aff-9a33-69b6ddc1cb20","system_id":"levelo_inurba_marseille","lat":43.28691,"lon":5.40005,"is_reserved":false,"is_disabled":false,"rental_uris":{"android":"levelo://app?vid=e0c41004-05b9-4aff-9a33-69b6ddc1cb20","ios":"levelo://app?vid=e0c41004-05b9-4aff-9a33-69b6ddc1cb20"},"vehicle_type_id":"4","last_reported":1745929249,"current_range_meters":13600,"station_id":"ce4bho92rcd13ifvqh3g","pricing_plan_id":"cebpf4jnsgd1na2vs0mg"},{"bike_id":"4190111b-a73e-4ef4-a34c-5e80e4d4146e","system_id":"levelo_inurba_marseille","lat":43.25824,"lon":5.39437,"is_reserved":false,"is_disabled":false,"rental_uris":{"android":"levelo://app?vid=4190111b-a73e-4ef4-a34c-5e80e4d4146e","ios":"levelo://app?vid=4190111b-a73e-4ef4-a34c-5e80e4d4146e"},"vehicle_type_id":"4","last_reported":1745929249,"current_range_meters":13600,"station_id":"ce4bhip2rcd13ifvqft0","pricing_plan_id":"cebpf4jnsgd1na2vs0mg"},{"bike_id":"bd78c49a-5120-4bbc-8349-46364b4b566c","system_id":"levelo_inurba_marseille","lat":43.24075,"lon":5.37766,"is_reserved":false,"is_disabled":false,"rental_uris":{"android":"levelo://app?vid=bd78c49a-5120-4bbc-8349-46364b4b566c","ios":"levelo://app?vid=bd78c49a-5120-4bbc-8349-46364b4b566c"},"vehicle_type_id":"4","last_reported":1745929249,"current_range_meters":12400,"station_id":"ce4bhnp2rcd13ifvqgvg","pricing_plan_id":"cebpf4jnsgd1na2vs0mg"},{"bike_id":"9a3a418b-b911-4048-8393-240f1bf1e3af","system_id":"levelo_inurba_marseille","lat":43.28156,"lon":5.42648,"is_reserved":false,"is_disabled":false,"rental_uris":{"android":"levelo://app?vid=9a3a418b-b911-4048-8393-240f1bf1e3af","ios":"levelo://app?vid=9a3a418b-b911-4048-8393-240f1bf1e3af"},"vehicle_type_id":"4","last_reported":1745929249,"current_range_meters":13600,"station_id":"ce4bhnh2rcd13ifvqgug","pricing_plan_id":"cebpf4jnsgd1na2vs0mg"},{"bike_id":"204922d3-c22f-4c19-b2ba-339ff5e2148d","system_id":"levelo_inurba_marseille","lat":43.28139,"lon":5.42671,"is_reserved":false,"is_disabled":false,"rental_uris":{"android":"levelo://app?vid=204922d3-c22f-4c19-b2ba-339ff5e2148d","ios":"levelo://app?vid=204922d3-c22f-4c19-b2ba-339ff5e2148d"},"vehicle_type_id":"4","last_reported":1745929249,"current_range_meters":13600,"station_id":"ce4bhnh2rcd13ifvqgug","pricing_plan_id":"cebpf4jnsgd1na2vs0mg"},{"bike_id":"489415b8-9254-45c1-b00c-e7554d56755c","system_id":"levelo_inurba_marseille","lat":43.24508,"lon":5.41212,"is_reserved":false,"is_disabled":false,"rental_uris":{"android":"levelo://app?vid=489415b8-9254-45c1-b00c-e7554d56755c","ios":"levelo://app?vid=489415b8-9254-45c1-b00c-e7554d56755c"},"vehicle_type_id":"4","last_reported":1745929249,"current_range_meters":14000,"station_id":"","pricing_plan_id":"cebpf4jnsgd1na2vs0mg"},{"bike_id":"c90ed555-eebf-4656-82da-44b373ecf701","system_id":"levelo_inurba_marseille","lat":43.28033,"lon":5.36949,"is_reserved":false,"is_disabled":false,"rental_uris":{"android":"levelo://app?vid=c90ed555-eebf-4656-82da-44b373ecf701","ios":"levelo://app?vid=c90ed555-eebf-4656-82da-44b373ecf701"},"vehicle_type_id":"4","last_reported":1745929249,"current_range_meters":14000,"station_id":"ce4bha12rcd13ifvqef0","pricing_plan_id":"cebpf4jnsgd1na2vs0mg"},{"bike_id":"ad39bbde-8bae-4084-9809-8a6226a1a735","system_id":"levelo_inurba_marseille","lat":43.30315,"lon":5.36885,"is_reserved":false,"is_disabled":false,"rental_uris":{"android":"levelo://app?vid=ad39bbde-8bae-4084-9809-8a6226a1a735","ios":"levelo://app?vid=ad39bbde-8bae-4084-9809-8a6226a1a735"},"vehicle_type_id":"4","last_reported":1745929249,"current_range_meters":14000,"station_id":"ce4bgqh2rcd13ifvqc5g","pricing_plan_id":"cebpf4jnsgd1na2vs0mg"},{"bike_id":"8663b10c-1e24-428c-bec4-66fabeba84de","system_id":"levelo_inurba_marseille","lat":43.3047,"lon":5.37245,"is_reserved":false,"is_disabled":false,"rental_uris":{"android":"levelo://app?vid=8663b10c-1e24-428c-bec4-66fabeba84de","ios":"levelo://app?vid=8663b10c-1e24-428c-bec4-66fabeba84de"},"vehicle_type_id":"4","last_reported":1745929249,"current_range_meters":14000,"station_id":"","pricing_plan_id":"cebpf4jnsgd1na2vs0mg"},{"bike_id":"fb52263c-8dbb-453b-b1f6-ec83364d1767","system_id":"levelo_inurba_marseille","lat":43.25912,"lon":5.40891,"is_reserved":false,"is_disabled":false,"rental_uris":{"android":"levelo://app?vid=fb52263c-8dbb-453b-b1f6-ec83364d1767","ios":"levelo://app?vid=fb52263c-8dbb-453b-b1f6-ec83364d1767"},"vehicle_type_id":"4","last_reported":1745929249,"current_range_meters":14000,"station_id":"ce4bhm92rcd13ifvqglg","pricing_plan_id":"cebpf4jnsgd1na2vs0mg"},{"bike_id":"d8fbc429-4aed-4066-8080-d40a727345cc","system_id":"levelo_inurba_marseille","lat":43.25586,"lon":5.38229,"is_reserved":false,"is_disabled":false,"rental_uris":{"android":"levelo://app?vid=d8fbc429-4aed-4066-8080-d40a727345cc","ios":"levelo://app?vid=d8fbc429-4aed-4066-8080-d40a727345cc"},"vehicle_type_id":"4","last_reported":1745929249,"current_range_meters":13600,"station_id":"ce4bhih2rcd13ifvqfs0","pricing_plan_id":"cebpf4jnsgd1na2vs0mg"},{"bike_id":"3da905a4-929f-4bd4-9c8b-0d65eabf5e95","system_id":"levelo_inurba_marseille","lat":43.24389,"lon":5.37056,"is_reserved":false,"is_disabled":false,"rental_uris":{"android":"levelo://app?vid=3da905a4-929f-4bd4-9c8b-0d65eabf5e95","ios":"levelo://app?vid=3da905a4-929f-4bd4-9c8b-0d65eabf5e95"},"vehicle_type_id":"4","last_reported":1745929249,"current_range_meters":13600,"station_id":"ce4bhhh2rcd13ifvqfk0","pricing_plan_id":"cebpf4jnsgd1na2vs0mg"},{"bike_id":"aded9c91-29f0-4b8b-82de-7869644499ba","system_id":"levelo_inurba_marseille","lat":43.28269,"lon":5.35064,"is_reserved":false,"is_disabled":false,"rental_uris":{"android":"levelo://app?vid=aded9c91-29f0-4b8b-82de-7869644499ba","ios":"levelo://app?vid=aded9c91-29f0-4b8b-82de-7869644499ba"},"vehicle_type_id":"4","last_reported":1745929249,"current_range_meters":14000,"station_id":"ce4bhbp2rcd13ifvqerg","pricing_plan_id":"cebpf4jnsgd1na2vs0mg"},{"bike_id":"adefe742-c586-4079-b0fd-1d08ed92e335","system_id":"levelo_inurba_marseille","lat":43.25826,"lon":5.39429,"is_reserved":false,"is_disabled":false,"rental_uris":{"android":"levelo://app?vid=adefe742-c586-4079-b0fd-1d08ed92e335","ios":"levelo://app?vid=adefe742-c586-4079-b0fd-1d08ed92e335"},"vehicle_type_id":"4","last_reported":1745929249,"current_range_meters":14400,"station_id":"ce4bhip2rcd13ifvqft0","pricing_plan_id":"cebpf4jnsgd1na2vs0mg"},{"bike_id":"2d303286-1748-405f-b5c7-c9d6c2ec111c","system_id":"levelo_inurba_marseille","lat":43.24387,"lon":5.37055,"is_reserved":false,"is_disabled":false,"rental_uris":{"android":"levelo://app?vid=2d303286-1748-405f-b5c7-c9d6c2ec111c","ios":"levelo://app?vid=2d303286-1748-405f-b5c7-c9d6c2ec111c"},"vehicle_type_id":"4","last_reported":1745929249,"current_range_meters":14400,"station_id":"ce4bhhh2rcd13ifvqfk0","pricing_plan_id":"cebpf4jnsgd1na2vs0mg"},{"bike_id":"e4164340-bf7f-4fb4-b737-403e4b2172c3","system_id":"levelo_inurba_marseille","lat":43.29919,"lon":5.37454,"is_reserved":false,"is_disabled":false,"rental_uris":{"android":"levelo://app?vid=e4164340-bf7f-4fb4-b737-403e4b2172c3","ios":"levelo://app?vid=e4164340-bf7f-4fb4-b737-403e4b2172c3"},"vehicle_type_id":"4","last_reported":1745929249,"current_range_meters":14000,"station_id":"ce4bgjh2rcd13ifvqbg0","pricing_plan_id":"cebpf4jnsgd1na2vs0mg"},{"bike_id":"58874810-081f-406c-81a1-60aa58fcdfaf","system_id":"levelo_inurba_marseille","lat":43.25582,"lon":5.38234,"is_reserved":false,"is_disabled":false,"rental_uris":{"android":"levelo://app?vid=58874810-081f-406c-81a1-60aa58fcdfaf","ios":"levelo://app?vid=58874810-081f-406c-81a1-60aa58fcdfaf"},"vehicle_type_id":"4","last_reported":1745929249,"current_range_meters":14400,"station_id":"ce4bhih2rcd13ifvqfs0","pricing_plan_id":"cebpf4jnsgd1na2vs0mg"},{"bike_id":"e27c9434-7cad-426a-accf-7de8131c5123","system_id":"levelo_inurba_marseille","lat":43.286162,"lon":5.351028,"is_reserved":false,"is_disabled":false,"rental_uris":{"android":"levelo://app?vid=e27c9434-7cad-426a-accf-7de8131c5123","ios":"levelo://app?vid=e27c9434-7cad-426a-accf-7de8131c5123"},"vehicle_type_id":"4","last_reported":1745929249,"current_range_meters":14400,"station_id":"ce4bhch2rcd13ifvqeug","pricing_plan_id":"cebpf4jnsgd1na2vs0mg"},{"bike_id":"9cb81fcb-f4ac-455c-85d7-19f67c7990a0","system_id":"levelo_inurba_marseille","lat":43.28417,"lon":5.34992,"is_reserved":false,"is_disabled":false,"rental_uris":{"android":"levelo://app?vid=9cb81fcb-f4ac-455c-85d7-19f67c7990a0","ios":"levelo://app?vid=9cb81fcb-f4ac-455c-85d7-19f67c7990a0"},"vehicle_type_id":"4","last_reported":1745929249,"current_range_meters":14400,"station_id":"ce4bhbh2rcd13ifvqepg","pricing_plan_id":"cebpf4jnsgd1na2vs0mg"},{"bike_id":"0563b445-1b55-4cc9-972d-f3012de2097b","system_id":"levelo_inurba_marseille","lat":43.2893,"lon":5.38395,"is_reserved":false,"is_disabled":false,"rental_uris":{"android":"levelo://app?vid=0563b445-1b55-4cc9-972d-f3012de2097b","ios":"levelo://app?vid=0563b445-1b55-4cc9-972d-f3012de2097b"},"vehicle_type_id":"4","last_reported":1745929249,"current_range_meters":14400,"station_id":"ce4bh612rcd13ifvqe6g","pricing_plan_id":"cebpf4jnsgd1na2vs0mg"},{"bike_id":"3cb154d7-8c6e-4600-899b-7612348ed2e0","system_id":"levelo_inurba_marseille","lat":43.29621,"lon":5.37737,"is_reserved":false,"is_disabled":false,"rental_uris":{"android":"levelo://app?vid=3cb154d7-8c6e-4600-899b-7612348ed2e0","ios":"levelo://app?vid=3cb154d7-8c6e-4600-899b-7612348ed2e0"},"vehicle_type_id":"4","last_reported":1745929249,"current_range_meters":14400,"station_id":"ce4bgi92rcd13ifvqb90","pricing_plan_id":"cebpf4jnsgd1na2vs0mg"},{"bike_id":"8271b352-70c8-46b5-8461-f257a3a05aad","system_id":"levelo_inurba_marseille","lat":43.26949,"lon":5.38629,"is_reserved":false,"is_disabled":false,"rental_uris":{"android":"levelo://app?vid=8271b352-70c8-46b5-8461-f257a3a05aad","ios":"levelo://app?vid=8271b352-70c8-46b5-8461-f257a3a05aad"},"vehicle_type_id":"4","last_reported":1745929249,"current_range_meters":14800,"station_id":"ce4bhh92rcd13ifvqfh0","pricing_plan_id":"cebpf4jnsgd1na2vs0mg"},{"bike_id":"bbc4344e-5038-45ae-9d8e-678ab2676960","system_id":"levelo_inurba_marseille","lat":43.28411,"lon":5.34989,"is_reserved":false,"is_disabled":false,"rental_uris":{"android":"levelo://app?vid=bbc4344e-5038-45ae-9d8e-678ab2676960","ios":"levelo://app?vid=bbc4344e-5038-45ae-9d8e-678ab2676960"},"vehicle_type_id":"4","last_reported":1745929249,"current_range_meters":15200,"station_id":"ce4bhbh2rcd13ifvqepg","pricing_plan_id":"cebpf4jnsgd1na2vs0mg"},{"bike_id":"cdb7a5b8-dd20-4610-ba00-cb4bba7fe166","system_id":"levelo_inurba_marseille","lat":43.27494,"lon":5.42457,"is_reserved":false,"is_disabled":false,"rental_uris":{"android":"levelo://app?vid=cdb7a5b8-dd20-4610-ba00-cb4bba7fe166","ios":"levelo://app?vid=cdb7a5b8-dd20-4610-ba00-cb4bba7fe166"},"vehicle_type_id":"4","last_reported":1745929249,"current_range_meters":15200,"station_id":"ce4bhn92rcd13ifvqgrg","pricing_plan_id":"cebpf4jnsgd1na2vs0mg"},{"bike_id":"3a9bd96a-1d84-454e-b55b-a4ef583e3749","system_id":"levelo_inurba_marseille","lat":43.266785,"lon":5.382777,"is_reserved":false,"is_disabled":true,"rental_uris":{"android":"levelo://app?vid=3a9bd96a-1d84-454e-b55b-a4ef583e3749","ios":"levelo://app?vid=3a9bd96a-1d84-454e-b55b-a4ef583e3749"},"vehicle_type_id":"4","last_reported":1745929249,"current_range_meters":15200,"station_id":"ce4bhg92rcd13ifvqf90","pricing_plan_id":"cebpf4jnsgd1na2vs0mg"},{"bike_id":"3f9329a2-c449-4241-9761-ee183b73fa05","system_id":"levelo_inurba_marseille","lat":43.308015,"lon":5.381445,"is_reserved":false,"is_disabled":false,"rental_uris":{"android":"levelo://app?vid=3f9329a2-c449-4241-9761-ee183b73fa05","ios":"levelo://app?vid=3f9329a2-c449-4241-9761-ee183b73fa05"},"vehicle_type_id":"4","last_reported":1745929249,"current_range_meters":15200,"station_id":"ce4bgt12rcd13ifvqce0","pricing_plan_id":"cebpf4jnsgd1na2vs0mg"},{"bike_id":"d669cb91-aec5-42f7-ab66-a1eb60fa9404","system_id":"levelo_inurba_marseille","lat":43.28262,"lon":5.35071,"is_reserved":false,"is_disabled":false,"rental_uris":{"android":"levelo://app?vid=d669cb91-aec5-42f7-ab66-a1eb60fa9404","ios":"levelo://app?vid=d669cb91-aec5-42f7-ab66-a1eb60fa9404"},"vehicle_type_id":"4","last_reported":1745929249,"current_range_meters":16000,"station_id":"ce4bhbp2rcd13ifvqerg","pricing_plan_id":"cebpf4jnsgd1na2vs0mg"},{"bike_id":"ddf42e2f-5ba3-456f-b6b9-71a4fb220f7c","system_id":"levelo_inurba_marseille","lat":43.21752,"lon":5.34598,"is_reserved":false,"is_disabled":false,"rental_uris":{"android":"levelo://app?vid=ddf42e2f-5ba3-456f-b6b9-71a4fb220f7c","ios":"levelo://app?vid=ddf42e2f-5ba3-456f-b6b9-71a4fb220f7c"},"vehicle_type_id":"4","last_reported":1745929249,"current_range_meters":16000,"station_id":"","pricing_plan_id":"cebpf4jnsgd1na2vs0mg"},{"bike_id":"91419b51-a87b-438c-9e3a-9cc8bd0db318","system_id":"levelo_inurba_marseille","lat":43.32118,"lon":5.36767,"is_reserved":false,"is_disabled":false,"rental_uris":{"android":"levelo://app?vid=91419b51-a87b-438c-9e3a-9cc8bd0db318","ios":"levelo://app?vid=91419b51-a87b-438c-9e3a-9cc8bd0db318"},"vehicle_type_id":"4","last_reported":1745929249,"current_range_meters":16000,"station_id":"ce4bhrh2rcd13ifvqhug","pricing_plan_id":"cebpf4jnsgd1na2vs0mg"},{"bike_id":"59a59b9e-6227-42a7-9d6b-40307c85246d","system_id":"levelo_inurba_marseille","lat":43.262,"lon":5.37929,"is_reserved":false,"is_disabled":false,"rental_uris":{"android":"levelo://app?vid=59a59b9e-6227-42a7-9d6b-40307c85246d","ios":"levelo://app?vid=59a59b9e-6227-42a7-9d6b-40307c85246d"},"vehicle_type_id":"4","last_reported":1745929249,"current_range_meters":16000,"station_id":"ce4bhjp2rcd13ifvqg90","pricing_plan_id":"cebpf4jnsgd1na2vs0mg"},{"bike_id":"ed355368-eb00-417d-aa41-105a70f14d01","system_id":"levelo_inurba_marseille","lat":43.28427,"lon":5.34992,"is_reserved":false,"is_disabled":false,"rental_uris":{"android":"levelo://app?vid=ed355368-eb00-417d-aa41-105a70f14d01","ios":"levelo://app?vid=ed355368-eb00-417d-aa41-105a70f14d01"},"vehicle_type_id":"4","last_reported":1745929249,"current_range_meters":16000,"station_id":"ce4bhbh2rcd13ifvqepg","pricing_plan_id":"cebpf4jnsgd1na2vs0mg"},{"bike_id":"6ee3670a-c0ab-4af8-b925-c763c37bc0f4","system_id":"levelo_inurba_marseille","lat":43.28588,"lon":5.37056,"is_reserved":false,"is_disabled":false,"rental_uris":{"android":"levelo://app?vid=6ee3670a-c0ab-4af8-b925-c763c37bc0f4","ios":"levelo://app?vid=6ee3670a-c0ab-4af8-b925-c763c37bc0f4"},"vehicle_type_id":"4","last_reported":1745929249,"current_range_meters":16000,"station_id":"ce4bht12rcd13ifvqi60","pricing_plan_id":"cebpf4jnsgd1na2vs0mg"},{"bike_id":"1cb3da76-f497-49e4-a8a6-5a0629444d60","system_id":"levelo_inurba_marseille","lat":43.29943,"lon":5.36706,"is_reserved":false,"is_disabled":false,"rental_uris":{"android":"levelo://app?vid=1cb3da76-f497-49e4-a8a6-5a0629444d60","ios":"levelo://app?vid=1cb3da76-f497-49e4-a8a6-5a0629444d60"},"vehicle_type_id":"4","last_reported":1745929249,"current_range_meters":16000,"station_id":"","pricing_plan_id":"cebpf4jnsgd1na2vs0mg"},{"bike_id":"2ffcb5dc-6039-4018-8890-4d281a5d40f1","system_id":"levelo_inurba_marseille","lat":43.23153,"lon":5.43706,"is_reserved":false,"is_disabled":false,"rental_uris":{"android":"levelo://app?vid=2ffcb5dc-6039-4018-8890-4d281a5d40f1","ios":"levelo://app?vid=2ffcb5dc-6039-4018-8890-4d281a5d40f1"},"vehicle_type_id":"4","last_reported":1745929249,"current_range_meters":16000,"station_id":"ce4bhmp2rcd13ifvqgog","pricing_plan_id":"cebpf4jnsgd1na2vs0mg"},{"bike_id":"fa372ab2-158d-4e0c-98a6-6f5fe5c96b30","system_id":"levelo_inurba_marseille","lat":43.27664,"lon":5.38889,"is_reserved":false,"is_disabled":false,"rental_uris":{"android":"levelo://app?vid=fa372ab2-158d-4e0c-98a6-6f5fe5c96b30","ios":"levelo://app?vid=fa372ab2-158d-4e0c-98a6-6f5fe5c96b30"},"vehicle_type_id":"4","last_reported":1745929249,"current_range_meters":16000,"station_id":"ce4bhi12rcd13ifvqfo0","pricing_plan_id":"cebpf4jnsgd1na2vs0mg"},{"bike_id":"f200c58f-ac67-4e96-8a1a-5b20a5d72779","system_id":"levelo_inurba_marseille","lat":43.28348,"lon":5.38103,"is_reserved":false,"is_disabled":false,"rental_uris":{"android":"levelo://app?vid=f200c58f-ac67-4e96-8a1a-5b20a5d72779","ios":"levelo://app?vid=f200c58f-ac67-4e96-8a1a-5b20a5d72779"},"vehicle_type_id":"4","last_reported":1745929249,"current_range_meters":16000,"station_id":"ce4bh412rcd13ifvqdr0","pricing_plan_id":"cebpf4jnsgd1na2vs0mg"},{"bike_id":"351c8957-74db-4acc-88e9-7da8deb40038","system_id":"levelo_inurba_marseille","lat":43.25935,"lon":5.40911,"is_reserved":false,"is_disabled":false,"rental_uris":{"android":"levelo://app?vid=351c8957-74db-4acc-88e9-7da8deb40038","ios":"levelo://app?vid=351c8957-74db-4acc-88e9-7da8deb40038"},"vehicle_type_id":"4","last_reported":1745929249,"current_range_meters":16400,"station_id":"ce4bhm92rcd13ifvqglg","pricing_plan_id":"cebpf4jnsgd1na2vs0mg"},{"bike_id":"fe8960e1-228f-4306-bc25-b57b60a713c0","system_id":"levelo_inurba_marseille","lat":43.21756,"lon":5.34602,"is_reserved":false,"is_disabled":false,"rental_uris":{"android":"levelo://app?vid=fe8960e1-228f-4306-bc25-b57b60a713c0","ios":"levelo://app?vid=fe8960e1-228f-4306-bc25-b57b60a713c0"},"vehicle_type_id":"4","last_reported":1745929249,"current_range_meters":16400,"station_id":"st_cvj6r9ubvosntc0bgbag","pricing_plan_id":"cebpf4jnsgd1na2vs0mg"},{"bike_id":"b547e79a-2c60-4978-a2b8-aff463cb04a7","system_id":"levelo_inurba_marseille","lat":43.2407,"lon":5.37753,"is_reserved":false,"is_disabled":false,"rental_uris":{"android":"levelo://app?vid=b547e79a-2c60-4978-a2b8-aff463cb04a7","ios":"levelo://app?vid=b547e79a-2c60-4978-a2b8-aff463cb04a7"},"vehicle_type_id":"4","last_reported":1745929249,"current_range_meters":14800,"station_id":"ce4bhnp2rcd13ifvqgvg","pricing_plan_id":"cebpf4jnsgd1na2vs0mg"},{"bike_id":"3ff2e379-2ec8-4f28-b1f0-310c0c886266","system_id":"levelo_inurba_marseille","lat":43.26932,"lon":5.38917,"is_reserved":false,"is_disabled":false,"rental_uris":{"android":"levelo://app?vid=3ff2e379-2ec8-4f28-b1f0-310c0c886266","ios":"levelo://app?vid=3ff2e379-2ec8-4f28-b1f0-310c0c886266"},"vehicle_type_id":"4","last_reported":1745929249,"current_range_meters":16000,"station_id":"ce4bhhh2rcd13ifvqfl0","pricing_plan_id":"cebpf4jnsgd1na2vs0mg"},{"bike_id":"89ae2a75-bc1c-40ed-bf5d-2a4c8fda3812","system_id":"levelo_inurba_marseille","lat":43.28619,"lon":5.35109,"is_reserved":false,"is_disabled":false,"rental_uris":{"android":"levelo://app?vid=89ae2a75-bc1c-40ed-bf5d-2a4c8fda3812","ios":"levelo://app?vid=89ae2a75-bc1c-40ed-bf5d-2a4c8fda3812"},"vehicle_type_id":"4","last_reported":1745929249,"current_range_meters":16400,"station_id":"ce4bhch2rcd13ifvqeug","pricing_plan_id":"cebpf4jnsgd1na2vs0mg"},{"bike_id":"9154f141-62f2-45f5-83e8-fb2bddcfbaf0","system_id":"levelo_inurba_marseille","lat":43.262085,"lon":5.379302,"is_reserved":false,"is_disabled":false,"rental_uris":{"android":"levelo://app?vid=9154f141-62f2-45f5-83e8-fb2bddcfbaf0","ios":"levelo://app?vid=9154f141-62f2-45f5-83e8-fb2bddcfbaf0"},"vehicle_type_id":"4","last_reported":1745929249,"current_range_meters":16800,"station_id":"ce4bhjp2rcd13ifvqg90","pricing_plan_id":"cebpf4jnsgd1na2vs0mg"},{"bike_id":"dc6f3b8b-30ff-436d-80f5-cf39793f814d","system_id":"levelo_inurba_marseille","lat":43.29263,"lon":5.37624,"is_reserved":false,"is_disabled":false,"rental_uris":{"android":"levelo://app?vid=dc6f3b8b-30ff-436d-80f5-cf39793f814d","ios":"levelo://app?vid=dc6f3b8b-30ff-436d-80f5-cf39793f814d"},"vehicle_type_id":"4","last_reported":1745929249,"current_range_meters":16800,"station_id":"ce4bgi12rcd13ifvqb80","pricing_plan_id":"cebpf4jnsgd1na2vs0mg"},{"bike_id":"82ee886b-8997-44a7-a17b-27a57a0f9d04","system_id":"levelo_inurba_marseille","lat":43.303121,"lon":5.368988,"is_reserved":false,"is_disabled":false,"rental_uris":{"android":"levelo://app?vid=82ee886b-8997-44a7-a17b-27a57a0f9d04","ios":"levelo://app?vid=82ee886b-8997-44a7-a17b-27a57a0f9d04"},"vehicle_type_id":"4","last_reported":1745929249,"current_range_meters":16800,"station_id":"ce4bgqh2rcd13ifvqc5g","pricing_plan_id":"cebpf4jnsgd1na2vs0mg"},{"bike_id":"07d1339b-07ad-4b4b-9944-2a33e2c879af","system_id":"levelo_inurba_marseille","lat":43.275,"lon":5.42441,"is_reserved":false,"is_disabled":false,"rental_uris":{"android":"levelo://app?vid=07d1339b-07ad-4b4b-9944-2a33e2c879af","ios":"levelo://app?vid=07d1339b-07ad-4b4b-9944-2a33e2c879af"},"vehicle_type_id":"4","last_reported":1745929249,"current_range_meters":16800,"station_id":"ce4bhn92rcd13ifvqgrg","pricing_plan_id":"cebpf4jnsgd1na2vs0mg"},{"bike_id":"ae4376e6-24b6-434a-80b8-b980c2d438fe","system_id":"levelo_inurba_marseille","lat":43.3047,"lon":5.379063,"is_reserved":false,"is_disabled":false,"rental_uris":{"android":"levelo://app?vid=ae4376e6-24b6-434a-80b8-b980c2d438fe","ios":"levelo://app?vid=ae4376e6-24b6-434a-80b8-b980c2d438fe"},"vehicle_type_id":"4","last_reported":1745929249,"current_range_meters":16400,"station_id":"ce4bgup2rcd13ifvqcn0","pricing_plan_id":"cebpf4jnsgd1na2vs0mg"},{"bike_id":"fd0a5d2b-09f6-46e1-a6a6-3661a2ef4771","system_id":"levelo_inurba_marseille","lat":43.25937,"lon":5.40902,"is_reserved":false,"is_disabled":false,"rental_uris":{"android":"levelo://app?vid=fd0a5d2b-09f6-46e1-a6a6-3661a2ef4771","ios":"levelo://app?vid=fd0a5d2b-09f6-46e1-a6a6-3661a2ef4771"},"vehicle_type_id":"4","last_reported":1745929249,"current_range_meters":16800,"station_id":"ce4bhm92rcd13ifvqglg","pricing_plan_id":"cebpf4jnsgd1na2vs0mg"},{"bike_id":"4a8a1acd-ccc4-480e-8578-07ce1a4eda97","system_id":"levelo_inurba_marseille","lat":43.31261,"lon":5.36838,"is_reserved":false,"is_disabled":false,"rental_uris":{"android":"levelo://app?vid=4a8a1acd-ccc4-480e-8578-07ce1a4eda97","ios":"levelo://app?vid=4a8a1acd-ccc4-480e-8578-07ce1a4eda97"},"vehicle_type_id":"4","last_reported":1745929249,"current_range_meters":16800,"station_id":"ce4bgl92rcd13ifvqbq0","pricing_plan_id":"cebpf4jnsgd1na2vs0mg"},{"bike_id":"1b360c96-bb92-4526-9878-4be17eb75010","system_id":"levelo_inurba_marseille","lat":43.25513,"lon":5.37646,"is_reserved":false,"is_disabled":false,"rental_uris":{"android":"levelo://app?vid=1b360c96-bb92-4526-9878-4be17eb75010","ios":"levelo://app?vid=1b360c96-bb92-4526-9878-4be17eb75010"},"vehicle_type_id":"4","last_reported":1745929249,"current_range_meters":16800,"station_id":"ce4bhh12rcd13ifvqff0","pricing_plan_id":"cebpf4jnsgd1na2vs0mg"},{"bike_id":"c8ed0fad-7edd-4023-aa0a-656d52629ab8","system_id":"levelo_inurba_marseille","lat":43.29535,"lon":5.38547,"is_reserved":false,"is_disabled":false,"rental_uris":{"android":"levelo://app?vid=c8ed0fad-7edd-4023-aa0a-656d52629ab8","ios":"levelo://app?vid=c8ed0fad-7edd-4023-aa0a-656d52629ab8"},"vehicle_type_id":"4","last_reported":1745929249,"current_range_meters":16400,"station_id":"ce4bgih2rcd13ifvqba0","pricing_plan_id":"cebpf4jnsgd1na2vs0mg"},{"bike_id":"2d7daadd-3ad7-4efc-9706-fdc28690c46f","system_id":"levelo_inurba_marseille","lat":43.24547,"lon":5.39523,"is_reserved":false,"is_disabled":false,"rental_uris":{"android":"levelo://app?vid=2d7daadd-3ad7-4efc-9706-fdc28690c46f","ios":"levelo://app?vid=2d7daadd-3ad7-4efc-9706-fdc28690c46f"},"vehicle_type_id":"4","last_reported":1745929249,"current_range_meters":17200,"station_id":"ce4bhlp2rcd13ifvqgjg","pricing_plan_id":"cebpf4jnsgd1na2vs0mg"},{"bike_id":"4d16ccc8-ca1a-41cd-a528-cec906aeed0e","system_id":"levelo_inurba_marseille","lat":43.28612,"lon":5.35105,"is_reserved":false,"is_disabled":false,"rental_uris":{"android":"levelo://app?vid=4d16ccc8-ca1a-41cd-a528-cec906aeed0e","ios":"levelo://app?vid=4d16ccc8-ca1a-41cd-a528-cec906aeed0e"},"vehicle_type_id":"4","last_reported":1745929249,"current_range_meters":17200,"station_id":"ce4bhch2rcd13ifvqeug","pricing_plan_id":"cebpf4jnsgd1na2vs0mg"},{"bike_id":"19bc52c3-74db-454f-9839-b056878a7608","system_id":"levelo_inurba_marseille","lat":43.2669,"lon":5.382745,"is_reserved":false,"is_disabled":true,"rental_uris":{"android":"levelo://app?vid=19bc52c3-74db-454f-9839-b056878a7608","ios":"levelo://app?vid=19bc52c3-74db-454f-9839-b056878a7608"},"vehicle_type_id":"4","last_reported":1745929249,"current_range_meters":17200,"station_id":"ce4bhg92rcd13ifvqf90","pricing_plan_id":"cebpf4jnsgd1na2vs0mg"},{"bike_id":"a3d053db-9d0b-4e97-817b-6015252bd932","system_id":"levelo_inurba_marseille","lat":43.30913,"lon":5.3687,"is_reserved":false,"is_disabled":false,"rental_uris":{"android":"levelo://app?vid=a3d053db-9d0b-4e97-817b-6015252bd932","ios":"levelo://app?vid=a3d053db-9d0b-4e97-817b-6015252bd932"},"vehicle_type_id":"4","last_reported":1745929249,"current_range_meters":17200,"station_id":"ce4bgn92rcd13ifvqbvg","pricing_plan_id":"cebpf4jnsgd1na2vs0mg"},{"bike_id":"1ff7221b-8e1e-4dce-9e57-4aed861ca4b9","system_id":"levelo_inurba_marseille","lat":43.337319,"lon":5.391874,"is_reserved":false,"is_disabled":false,"rental_uris":{"android":"levelo://app?vid=1ff7221b-8e1e-4dce-9e57-4aed861ca4b9","ios":"levelo://app?vid=1ff7221b-8e1e-4dce-9e57-4aed861ca4b9"},"vehicle_type_id":"4","last_reported":1745929249,"current_range_meters":17200,"station_id":"ce4bhr92rcd13ifvqhsg","pricing_plan_id":"cebpf4jnsgd1na2vs0mg"},{"bike_id":"a33a26cf-b103-4c1d-b4c8-78610a3df846","system_id":"levelo_inurba_marseille","lat":43.27362,"lon":5.36246,"is_reserved":false,"is_disabled":false,"rental_uris":{"android":"levelo://app?vid=a33a26cf-b103-4c1d-b4c8-78610a3df846","ios":"levelo://app?vid=a33a26cf-b103-4c1d-b4c8-78610a3df846"},"vehicle_type_id":"4","last_reported":1745929249,"current_range_meters":17200,"station_id":"ce4bhbh2rcd13ifvqeo0","pricing_plan_id":"cebpf4jnsgd1na2vs0mg"},{"bike_id":"216ab7a4-16be-4673-8874-de83fe9c21f1","system_id":"levelo_inurba_marseille","lat":43.31085,"lon":5.40084,"is_reserved":false,"is_disabled":false,"rental_uris":{"android":"levelo://app?vid=216ab7a4-16be-4673-8874-de83fe9c21f1","ios":"levelo://app?vid=216ab7a4-16be-4673-8874-de83fe9c21f1"},"vehicle_type_id":"4","last_reported":1745929249,"current_range_meters":17600,"station_id":"","pricing_plan_id":"cebpf4jnsgd1na2vs0mg"},{"bike_id":"4958d449-c7d8-4d41-b08d-ff11ddaaee41","system_id":"levelo_inurba_marseille","lat":43.28275,"lon":5.35059,"is_reserved":false,"is_disabled":false,"rental_uris":{"android":"levelo://app?vid=4958d449-c7d8-4d41-b08d-ff11ddaaee41","ios":"levelo://app?vid=4958d449-c7d8-4d41-b08d-ff11ddaaee41"},"vehicle_type_id":"4","last_reported":1745929249,"current_range_meters":17600,"station_id":"ce4bhbp2rcd13ifvqerg","pricing_plan_id":"cebpf4jnsgd1na2vs0mg"},{"bike_id":"37ef3df1-0377-405a-b06c-6aef4fd72f96","system_id":"levelo_inurba_marseille","lat":43.25493,"lon":5.37663,"is_reserved":false,"is_disabled":false,"rental_uris":{"android":"levelo://app?vid=37ef3df1-0377-405a-b06c-6aef4fd72f96","ios":"levelo://app?vid=37ef3df1-0377-405a-b06c-6aef4fd72f96"},"vehicle_type_id":"4","last_reported":1745929249,"current_range_meters":17200,"station_id":"ce4bhh12rcd13ifvqff0","pricing_plan_id":"cebpf4jnsgd1na2vs0mg"},{"bike_id":"d99bbe3b-2af1-4b73-8e26-c06f6faeba9b","system_id":"levelo_inurba_marseille","lat":43.321042,"lon":5.367747,"is_reserved":false,"is_disabled":false,"rental_uris":{"android":"levelo://app?vid=d99bbe3b-2af1-4b73-8e26-c06f6faeba9b","ios":"levelo://app?vid=d99bbe3b-2af1-4b73-8e26-c06f6faeba9b"},"vehicle_type_id":"4","last_reported":1745929249,"current_range_meters":17600,"station_id":"ce4bhrh2rcd13ifvqhug","pricing_plan_id":"cebpf4jnsgd1na2vs0mg"},{"bike_id":"6c161536-4692-4f2c-8796-b1fd89d1b505","system_id":"levelo_inurba_marseille","lat":43.2314,"lon":5.43707,"is_reserved":false,"is_disabled":false,"rental_uris":{"android":"levelo://app?vid=6c161536-4692-4f2c-8796-b1fd89d1b505","ios":"levelo://app?vid=6c161536-4692-4f2c-8796-b1fd89d1b505"},"vehicle_type_id":"4","last_reported":1745929249,"current_range_meters":17600,"station_id":"ce4bhmp2rcd13ifvqgog","pricing_plan_id":"cebpf4jnsgd1na2vs0mg"},{"bike_id":"ee58d2d0-2375-47cc-8dde-0456162a3bd0","system_id":"levelo_inurba_marseille","lat":43.22932,"lon":5.3538,"is_reserved":false,"is_disabled":false,"rental_uris":{"android":"levelo://app?vid=ee58d2d0-2375-47cc-8dde-0456162a3bd0","ios":"levelo://app?vid=ee58d2d0-2375-47cc-8dde-0456162a3bd0"},"vehicle_type_id":"4","last_reported":1745929249,"current_range_meters":17600,"station_id":"cpo3532slgdg3j2ikp40","pricing_plan_id":"cebpf4jnsgd1na2vs0mg"},{"bike_id":"3c34eb8d-a8ce-41ee-9808-5b7640469d3f","system_id":"levelo_inurba_marseille","lat":43.28411,"lon":5.34975,"is_reserved":false,"is_disabled":false,"rental_uris":{"android":"levelo://app?vid=3c34eb8d-a8ce-41ee-9808-5b7640469d3f","ios":"levelo://app?vid=3c34eb8d-a8ce-41ee-9808-5b7640469d3f"},"vehicle_type_id":"4","last_reported":1745929249,"current_range_meters":17600,"station_id":"ce4bhbh2rcd13ifvqepg","pricing_plan_id":"cebpf4jnsgd1na2vs0mg"},{"bike_id":"455dfde0-ee00-4454-8173-fd4da0f209e8","system_id":"levelo_inurba_marseille","lat":43.27372,"lon":5.36257,"is_reserved":false,"is_disabled":false,"rental_uris":{"android":"levelo://app?vid=455dfde0-ee00-4454-8173-fd4da0f209e8","ios":"levelo://app?vid=455dfde0-ee00-4454-8173-fd4da0f209e8"},"vehicle_type_id":"4","last_reported":1745929249,"current_range_meters":18000,"station_id":"ce4bhbh2rcd13ifvqeo0","pricing_plan_id":"cebpf4jnsgd1na2vs0mg"},{"bike_id":"03935c52-0c0b-4e2f-89ec-2bd5f8595df7","system_id":"levelo_inurba_marseille","lat":43.28423,"lon":5.3499,"is_reserved":false,"is_disabled":false,"rental_uris":{"android":"levelo://app?vid=03935c52-0c0b-4e2f-89ec-2bd5f8595df7","ios":"levelo://app?vid=03935c52-0c0b-4e2f-89ec-2bd5f8595df7"},"vehicle_type_id":"4","last_reported":1745929249,"current_range_meters":18000,"station_id":"ce4bhbh2rcd13ifvqepg","pricing_plan_id":"cebpf4jnsgd1na2vs0mg"},{"bike_id":"d8eb98a2-d08f-4f2c-8c1c-a717dabf58cc","system_id":"levelo_inurba_marseille","lat":43.29033,"lon":5.39957,"is_reserved":false,"is_disabled":false,"rental_uris":{"android":"levelo://app?vid=d8eb98a2-d08f-4f2c-8c1c-a717dabf58cc","ios":"levelo://app?vid=d8eb98a2-d08f-4f2c-8c1c-a717dabf58cc"},"vehicle_type_id":"4","last_reported":1745929249,"current_range_meters":18000,"station_id":"ce4bh392rcd13ifvqdm0","pricing_plan_id":"cebpf4jnsgd1na2vs0mg"},{"bike_id":"b65f8461-4c86-486f-9cfb-0bb29b5a42d6","system_id":"levelo_inurba_marseille","lat":43.24067,"lon":5.37754,"is_reserved":false,"is_disabled":false,"rental_uris":{"android":"levelo://app?vid=b65f8461-4c86-486f-9cfb-0bb29b5a42d6","ios":"levelo://app?vid=b65f8461-4c86-486f-9cfb-0bb29b5a42d6"},"vehicle_type_id":"4","last_reported":1745929249,"current_range_meters":18000,"station_id":"ce4bhnp2rcd13ifvqgvg","pricing_plan_id":"cebpf4jnsgd1na2vs0mg"},{"bike_id":"82d0b9e3-e416-464f-8be4-66e82caa9519","system_id":"levelo_inurba_marseille","lat":43.29269,"lon":5.38439,"is_reserved":false,"is_disabled":false,"rental_uris":{"android":"levelo://app?vid=82d0b9e3-e416-464f-8be4-66e82caa9519","ios":"levelo://app?vid=82d0b9e3-e416-464f-8be4-66e82caa9519"},"vehicle_type_id":"4","last_reported":1745929249,"current_range_meters":18000,"station_id":"ce4bh692rcd13ifvqea0","pricing_plan_id":"cebpf4jnsgd1na2vs0mg"},{"bike_id":"067753e7-de67-494a-a3cf-05aa1bc3760b","system_id":"levelo_inurba_marseille","lat":43.28105,"lon":5.37841,"is_reserved":false,"is_disabled":false,"rental_uris":{"android":"levelo://app?vid=067753e7-de67-494a-a3cf-05aa1bc3760b","ios":"levelo://app?vid=067753e7-de67-494a-a3cf-05aa1bc3760b"},"vehicle_type_id":"4","last_reported":1745929249,"current_range_meters":18000,"station_id":"ce4bha12rcd13ifvqee0","pricing_plan_id":"cebpf4jnsgd1na2vs0mg"},{"bike_id":"e5e92a64-e709-4b1a-a9b1-cbffe85789ca","system_id":"levelo_inurba_marseille","lat":43.25531,"lon":5.38155,"is_reserved":false,"is_disabled":false,"rental_uris":{"android":"levelo://app?vid=e5e92a64-e709-4b1a-a9b1-cbffe85789ca","ios":"levelo://app?vid=e5e92a64-e709-4b1a-a9b1-cbffe85789ca"},"vehicle_type_id":"4","last_reported":1745929249,"current_range_meters":18000,"station_id":"","pricing_plan_id":"cebpf4jnsgd1na2vs0mg"},{"bike_id":"ce2710b2-8aee-43d8-8ef3-2843f2527c66","system_id":"levelo_inurba_marseille","lat":43.24175,"lon":5.36381,"is_reserved":false,"is_disabled":false,"rental_uris":{"android":"levelo://app?vid=ce2710b2-8aee-43d8-8ef3-2843f2527c66","ios":"levelo://app?vid=ce2710b2-8aee-43d8-8ef3-2843f2527c66"},"vehicle_type_id":"4","last_reported":1745929249,"current_range_meters":18000,"station_id":"cpo36qri1sfpv3e86is0","pricing_plan_id":"cebpf4jnsgd1na2vs0mg"},{"bike_id":"3cbdcf8d-8403-42fa-95a4-02f03497e3ce","system_id":"levelo_inurba_marseille","lat":43.23154,"lon":5.43711,"is_reserved":false,"is_disabled":false,"rental_uris":{"android":"levelo://app?vid=3cbdcf8d-8403-42fa-95a4-02f03497e3ce","ios":"levelo://app?vid=3cbdcf8d-8403-42fa-95a4-02f03497e3ce"},"vehicle_type_id":"4","last_reported":1745929249,"current_range_meters":18800,"station_id":"ce4bhmp2rcd13ifvqgog","pricing_plan_id":"cebpf4jnsgd1na2vs0mg"},{"bike_id":"0c31997d-e7ef-4d3a-9cd8-87211b9c681c","system_id":"levelo_inurba_marseille","lat":43.243973,"lon":5.370523,"is_reserved":false,"is_disabled":false,"rental_uris":{"android":"levelo://app?vid=0c31997d-e7ef-4d3a-9cd8-87211b9c681c","ios":"levelo://app?vid=0c31997d-e7ef-4d3a-9cd8-87211b9c681c"},"vehicle_type_id":"4","last_reported":1745929249,"current_range_meters":18800,"station_id":"ce4bhhh2rcd13ifvqfk0","pricing_plan_id":"cebpf4jnsgd1na2vs0mg"},{"bike_id":"b26a0b33-650f-4f7b-8536-58a942167ba4","system_id":"levelo_inurba_marseille","lat":43.232,"lon":5.35562,"is_reserved":false,"is_disabled":false,"rental_uris":{"android":"levelo://app?vid=b26a0b33-650f-4f7b-8536-58a942167ba4","ios":"levelo://app?vid=b26a0b33-650f-4f7b-8536-58a942167ba4"},"vehicle_type_id":"4","last_reported":1745929249,"current_range_meters":18800,"station_id":"ce4bhu92rcd13ifvqi70","pricing_plan_id":"cebpf4jnsgd1na2vs0mg"},{"bike_id":"c427d6eb-1f78-42be-b622-3fdb355ad2cf","system_id":"levelo_inurba_marseille","lat":43.301841,"lon":5.373982,"is_reserved":false,"is_disabled":false,"rental_uris":{"android":"levelo://app?vid=c427d6eb-1f78-42be-b622-3fdb355ad2cf","ios":"levelo://app?vid=c427d6eb-1f78-42be-b622-3fdb355ad2cf"},"vehicle_type_id":"4","last_reported":1745929249,"current_range_meters":18800,"station_id":"ce4bgs92rcd13ifvqcc0","pricing_plan_id":"cebpf4jnsgd1na2vs0mg"},{"bike_id":"942e1be8-0b4c-4b58-97b4-0482c4bdb7e4","system_id":"levelo_inurba_marseille","lat":43.30906,"lon":5.36859,"is_reserved":false,"is_disabled":false,"rental_uris":{"android":"levelo://app?vid=942e1be8-0b4c-4b58-97b4-0482c4bdb7e4","ios":"levelo://app?vid=942e1be8-0b4c-4b58-97b4-0482c4bdb7e4"},"vehicle_type_id":"4","last_reported":1745929249,"current_range_meters":18800,"station_id":"ce4bgn92rcd13ifvqbvg","pricing_plan_id":"cebpf4jnsgd1na2vs0mg"},{"bike_id":"4678f98c-9605-485e-9f52-d38650b7e3f9","system_id":"levelo_inurba_marseille","lat":43.32465,"lon":5.36568,"is_reserved":false,"is_disabled":false,"rental_uris":{"android":"levelo://app?vid=4678f98c-9605-485e-9f52-d38650b7e3f9","ios":"levelo://app?vid=4678f98c-9605-485e-9f52-d38650b7e3f9"},"vehicle_type_id":"4","last_reported":1745929249,"current_range_meters":18800,"station_id":"ce4bhs12rcd13ifvqhvg","pricing_plan_id":"cebpf4jnsgd1na2vs0mg"},{"bike_id":"8179376d-d4e0-4616-b23d-8a06eae09f1a","system_id":"levelo_inurba_marseille","lat":43.341625,"lon":5.40902,"is_reserved":false,"is_disabled":false,"rental_uris":{"android":"levelo://app?vid=8179376d-d4e0-4616-b23d-8a06eae09f1a","ios":"levelo://app?vid=8179376d-d4e0-4616-b23d-8a06eae09f1a"},"vehicle_type_id":"4","last_reported":1745929249,"current_range_meters":18800,"station_id":"ce4bhqh2rcd13ifvqhlg","pricing_plan_id":"cebpf4jnsgd1na2vs0mg"},{"bike_id":"4d4da387-545a-49b6-ae3a-1c5d0a939b5e","system_id":"levelo_inurba_marseille","lat":43.30138,"lon":5.39889,"is_reserved":false,"is_disabled":false,"rental_uris":{"android":"levelo://app?vid=4d4da387-545a-49b6-ae3a-1c5d0a939b5e","ios":"levelo://app?vid=4d4da387-545a-49b6-ae3a-1c5d0a939b5e"},"vehicle_type_id":"4","last_reported":1745929249,"current_range_meters":19200,"station_id":"ce4bh0h2rcd13ifvqd40","pricing_plan_id":"cebpf4jnsgd1na2vs0mg"},{"bike_id":"3f2c8720-4262-4c4b-b203-35899e59c127","system_id":"levelo_inurba_marseille","lat":43.34146,"lon":5.40904,"is_reserved":false,"is_disabled":false,"rental_uris":{"android":"levelo://app?vid=3f2c8720-4262-4c4b-b203-35899e59c127","ios":"levelo://app?vid=3f2c8720-4262-4c4b-b203-35899e59c127"},"vehicle_type_id":"4","last_reported":1745929249,"current_range_meters":19200,"station_id":"ce4bhqh2rcd13ifvqhlg","pricing_plan_id":"cebpf4jnsgd1na2vs0mg"},{"bike_id":"42065952-572d-4841-a19e-a1b9cf9387c7","system_id":"levelo_inurba_marseille","lat":43.27814,"lon":5.40711,"is_reserved":false,"is_disabled":false,"rental_uris":{"android":"levelo://app?vid=42065952-572d-4841-a19e-a1b9cf9387c7","ios":"levelo://app?vid=42065952-572d-4841-a19e-a1b9cf9387c7"},"vehicle_type_id":"4","last_reported":1745929249,"current_range_meters":19200,"station_id":"ce4bhnh2rcd13ifvqgtg","pricing_plan_id":"cebpf4jnsgd1na2vs0mg"},{"bike_id":"613dd303-9b9b-490c-8b90-12fd790120cd","system_id":"levelo_inurba_marseille","lat":43.23151,"lon":5.43691,"is_reserved":false,"is_disabled":false,"rental_uris":{"android":"levelo://app?vid=613dd303-9b9b-490c-8b90-12fd790120cd","ios":"levelo://app?vid=613dd303-9b9b-490c-8b90-12fd790120cd"},"vehicle_type_id":"4","last_reported":1745929249,"current_range_meters":19200,"station_id":"ce4bhmp2rcd13ifvqgog","pricing_plan_id":"cebpf4jnsgd1na2vs0mg"},{"bike_id":"c2c2df9a-1f5f-49a8-a3ca-b37ef81f0a19","system_id":"levelo_inurba_marseille","lat":43.286177,"lon":5.351177,"is_reserved":false,"is_disabled":false,"rental_uris":{"android":"levelo://app?vid=c2c2df9a-1f5f-49a8-a3ca-b37ef81f0a19","ios":"levelo://app?vid=c2c2df9a-1f5f-49a8-a3ca-b37ef81f0a19"},"vehicle_type_id":"4","last_reported":1745929249,"current_range_meters":19200,"station_id":"ce4bhch2rcd13ifvqeug","pricing_plan_id":"cebpf4jnsgd1na2vs0mg"},{"bike_id":"fce2c520-92d3-4d18-810b-8d643fc15a1a","system_id":"levelo_inurba_marseille","lat":43.2308,"lon":5.35502,"is_reserved":false,"is_disabled":false,"rental_uris":{"android":"levelo://app?vid=fce2c520-92d3-4d18-810b-8d643fc15a1a","ios":"levelo://app?vid=fce2c520-92d3-4d18-810b-8d643fc15a1a"},"vehicle_type_id":"4","last_reported":1745929249,"current_range_meters":19200,"station_id":"cpo3342slgdg3j2ifvpg","pricing_plan_id":"cebpf4jnsgd1na2vs0mg"},{"bike_id":"a0a1997d-1f22-4781-9930-a2493ae14778","system_id":"levelo_inurba_marseille","lat":43.29068,"lon":5.37149,"is_reserved":false,"is_disabled":false,"rental_uris":{"android":"levelo://app?vid=a0a1997d-1f22-4781-9930-a2493ae14778","ios":"levelo://app?vid=a0a1997d-1f22-4781-9930-a2493ae14778"},"vehicle_type_id":"4","last_reported":1745929249,"current_range_meters":18800,"station_id":"ce4bh5p2rcd13ifvqe4g","pricing_plan_id":"cebpf4jnsgd1na2vs0mg"},{"bike_id":"c1995f3f-0495-4507-8d09-527e63d69b75","system_id":"levelo_inurba_marseille","lat":43.30655,"lon":5.40082,"is_reserved":false,"is_disabled":true,"rental_uris":{"android":"levelo://app?vid=c1995f3f-0495-4507-8d09-527e63d69b75","ios":"levelo://app?vid=c1995f3f-0495-4507-8d09-527e63d69b75"},"vehicle_type_id":"4","last_reported":1745929249,"current_range_meters":19600,"station_id":"ce4bh112rcd13ifvqda0","pricing_plan_id":"cebpf4jnsgd1na2vs0mg"},{"bike_id":"86c2979e-8cf6-48ed-bdb1-835ff11e3adc","system_id":"levelo_inurba_marseille","lat":43.253863,"lon":5.418553,"is_reserved":false,"is_disabled":false,"rental_uris":{"android":"levelo://app?vid=86c2979e-8cf6-48ed-bdb1-835ff11e3adc","ios":"levelo://app?vid=86c2979e-8cf6-48ed-bdb1-835ff11e3adc"},"vehicle_type_id":"4","last_reported":1745929249,"current_range_meters":19600,"station_id":"","pricing_plan_id":"cebpf4jnsgd1na2vs0mg"},{"bike_id":"b6caa585-52ab-4b84-af6a-e527be8eb8f5","system_id":"levelo_inurba_marseille","lat":43.27372,"lon":5.36256,"is_reserved":false,"is_disabled":false,"rental_uris":{"android":"levelo://app?vid=b6caa585-52ab-4b84-af6a-e527be8eb8f5","ios":"levelo://app?vid=b6caa585-52ab-4b84-af6a-e527be8eb8f5"},"vehicle_type_id":"4","last_reported":1745929249,"current_range_meters":19600,"station_id":"ce4bhbh2rcd13ifvqeo0","pricing_plan_id":"cebpf4jnsgd1na2vs0mg"},{"bike_id":"bdf72ee9-bebb-4f9a-bfde-35a72dc20f3b","system_id":"levelo_inurba_marseille","lat":43.296967,"lon":5.373541,"is_reserved":false,"is_disabled":false,"rental_uris":{"android":"levelo://app?vid=bdf72ee9-bebb-4f9a-bfde-35a72dc20f3b","ios":"levelo://app?vid=bdf72ee9-bebb-4f9a-bfde-35a72dc20f3b"},"vehicle_type_id":"4","last_reported":1745929249,"current_range_meters":19600,"station_id":"ce4bgk12rcd13ifvqbj0","pricing_plan_id":"cebpf4jnsgd1na2vs0mg"},{"bike_id":"88492e5c-8ffb-4597-9f0d-20ee0b2d438b","system_id":"levelo_inurba_marseille","lat":43.26802,"lon":5.39422,"is_reserved":false,"is_disabled":false,"rental_uris":{"android":"levelo://app?vid=88492e5c-8ffb-4597-9f0d-20ee0b2d438b","ios":"levelo://app?vid=88492e5c-8ffb-4597-9f0d-20ee0b2d438b"},"vehicle_type_id":"4","last_reported":1745929249,"current_range_meters":19600,"station_id":"ce4bhh12rcd13ifvqfg0","pricing_plan_id":"cebpf4jnsgd1na2vs0mg"},{"bike_id":"a6d0ce6a-843f-4729-9a07-a84d24e9d12a","system_id":"levelo_inurba_marseille","lat":43.241663,"lon":5.363887,"is_reserved":false,"is_disabled":false,"rental_uris":{"android":"levelo://app?vid=a6d0ce6a-843f-4729-9a07-a84d24e9d12a","ios":"levelo://app?vid=a6d0ce6a-843f-4729-9a07-a84d24e9d12a"},"vehicle_type_id":"4","last_reported":1745929249,"current_range_meters":19600,"station_id":"cpo36qri1sfpv3e86is0","pricing_plan_id":"cebpf4jnsgd1na2vs0mg"},{"bike_id":"404f8bb0-e61e-473d-84e3-ad9a44a44b05","system_id":"levelo_inurba_marseille","lat":43.28416,"lon":5.34983,"is_reserved":false,"is_disabled":false,"rental_uris":{"android":"levelo://app?vid=404f8bb0-e61e-473d-84e3-ad9a44a44b05","ios":"levelo://app?vid=404f8bb0-e61e-473d-84e3-ad9a44a44b05"},"vehicle_type_id":"4","last_reported":1745929249,"current_range_meters":19600,"station_id":"ce4bhbh2rcd13ifvqepg","pricing_plan_id":"cebpf4jnsgd1na2vs0mg"},{"bike_id":"b900238a-2229-426e-95fd-7c71b1539c5a","system_id":"levelo_inurba_marseille","lat":43.24072,"lon":5.3775,"is_reserved":false,"is_disabled":false,"rental_uris":{"android":"levelo://app?vid=b900238a-2229-426e-95fd-7c71b1539c5a","ios":"levelo://app?vid=b900238a-2229-426e-95fd-7c71b1539c5a"},"vehicle_type_id":"4","last_reported":1745929249,"current_range_meters":18800,"station_id":"ce4bhnp2rcd13ifvqgvg","pricing_plan_id":"cebpf4jnsgd1na2vs0mg"},{"bike_id":"637f17b1-a980-4bc5-993d-9a9de04fb5bf","system_id":"levelo_inurba_marseille","lat":43.30651,"lon":5.36815,"is_reserved":false,"is_disabled":false,"rental_uris":{"android":"levelo://app?vid=637f17b1-a980-4bc5-993d-9a9de04fb5bf","ios":"levelo://app?vid=637f17b1-a980-4bc5-993d-9a9de04fb5bf"},"vehicle_type_id":"4","last_reported":1745929249,"current_range_meters":20000,"station_id":"","pricing_plan_id":"cebpf4jnsgd1na2vs0mg"},{"bike_id":"3636533b-bf41-4efe-b76a-eea715c3396b","system_id":"levelo_inurba_marseille","lat":43.28934,"lon":5.36641,"is_reserved":false,"is_disabled":false,"rental_uris":{"android":"levelo://app?vid=3636533b-bf41-4efe-b76a-eea715c3396b","ios":"levelo://app?vid=3636533b-bf41-4efe-b76a-eea715c3396b"},"vehicle_type_id":"4","last_reported":1745929249,"current_range_meters":20000,"station_id":"ce4bhap2rcd13ifvqek0","pricing_plan_id":"cebpf4jnsgd1na2vs0mg"},{"bike_id":"e56e9497-d4d4-41f0-94b2-7be833205efe","system_id":"levelo_inurba_marseille","lat":43.27497,"lon":5.42449,"is_reserved":false,"is_disabled":false,"rental_uris":{"android":"levelo://app?vid=e56e9497-d4d4-41f0-94b2-7be833205efe","ios":"levelo://app?vid=e56e9497-d4d4-41f0-94b2-7be833205efe"},"vehicle_type_id":"4","last_reported":1745929249,"current_range_meters":20000,"station_id":"ce4bhn92rcd13ifvqgrg","pricing_plan_id":"cebpf4jnsgd1na2vs0mg"},{"bike_id":"413870a0-84a9-4857-aee6-fde271b5d85e","system_id":"levelo_inurba_marseille","lat":43.30681,"lon":5.36853,"is_reserved":false,"is_disabled":false,"rental_uris":{"android":"levelo://app?vid=413870a0-84a9-4857-aee6-fde271b5d85e","ios":"levelo://app?vid=413870a0-84a9-4857-aee6-fde271b5d85e"},"vehicle_type_id":"4","last_reported":1745929249,"current_range_meters":20000,"station_id":"","pricing_plan_id":"cebpf4jnsgd1na2vs0mg"},{"bike_id":"456540d1-7e4b-4c94-81f7-c6140e987cde","system_id":"levelo_inurba_marseille","lat":43.33019,"lon":5.39047,"is_reserved":false,"is_disabled":false,"rental_uris":{"android":"levelo://app?vid=456540d1-7e4b-4c94-81f7-c6140e987cde","ios":"levelo://app?vid=456540d1-7e4b-4c94-81f7-c6140e987cde"},"vehicle_type_id":"4","last_reported":1745929249,"current_range_meters":20000,"station_id":"ce4bhr92rcd13ifvqhrg","pricing_plan_id":"cebpf4jnsgd1na2vs0mg"},{"bike_id":"dfdf818f-eb59-4c1f-b033-4e386dfd4dfd","system_id":"levelo_inurba_marseille","lat":43.27813,"lon":5.40707,"is_reserved":false,"is_disabled":false,"rental_uris":{"android":"levelo://app?vid=dfdf818f-eb59-4c1f-b033-4e386dfd4dfd","ios":"levelo://app?vid=dfdf818f-eb59-4c1f-b033-4e386dfd4dfd"},"vehicle_type_id":"4","last_reported":1745929249,"current_range_meters":20000,"station_id":"ce4bhnh2rcd13ifvqgtg","pricing_plan_id":"cebpf4jnsgd1na2vs0mg"},{"bike_id":"f48bc54a-1c7b-4384-b39b-1a568550c0de","system_id":"levelo_inurba_marseille","lat":43.31251,"lon":5.36859,"is_reserved":false,"is_disabled":false,"rental_uris":{"android":"levelo://app?vid=f48bc54a-1c7b-4384-b39b-1a568550c0de","ios":"levelo://app?vid=f48bc54a-1c7b-4384-b39b-1a568550c0de"},"vehicle_type_id":"4","last_reported":1745929249,"current_range_meters":20000,"station_id":"ce4bgl92rcd13ifvqbq0","pricing_plan_id":"cebpf4jnsgd1na2vs0mg"},{"bike_id":"11101981-444a-4f7a-8c31-db8da8283ae5","system_id":"levelo_inurba_marseille","lat":43.29077,"lon":5.37161,"is_reserved":false,"is_disabled":false,"rental_uris":{"android":"levelo://app?vid=11101981-444a-4f7a-8c31-db8da8283ae5","ios":"levelo://app?vid=11101981-444a-4f7a-8c31-db8da8283ae5"},"vehicle_type_id":"4","last_reported":1745929249,"current_range_meters":19600,"station_id":"ce4bh5p2rcd13ifvqe4g","pricing_plan_id":"cebpf4jnsgd1na2vs0mg"},{"bike_id":"3f524380-8d4f-4a66-b8ac-b99ae8612063","system_id":"levelo_inurba_marseille","lat":43.24165,"lon":5.39707,"is_reserved":false,"is_disabled":false,"rental_uris":{"android":"levelo://app?vid=3f524380-8d4f-4a66-b8ac-b99ae8612063","ios":"levelo://app?vid=3f524380-8d4f-4a66-b8ac-b99ae8612063"},"vehicle_type_id":"4","last_reported":1745929249,"current_range_meters":20000,"station_id":"ce4bhn12rcd13ifvqgpg","pricing_plan_id":"cebpf4jnsgd1na2vs0mg"},{"bike_id":"9db557f1-8070-446a-af50-fe5169ea2e6c","system_id":"levelo_inurba_marseille","lat":43.32658,"lon":5.40997,"is_reserved":false,"is_disabled":false,"rental_uris":{"android":"levelo://app?vid=9db557f1-8070-446a-af50-fe5169ea2e6c","ios":"levelo://app?vid=9db557f1-8070-446a-af50-fe5169ea2e6c"},"vehicle_type_id":"4","last_reported":1745929249,"current_range_meters":20000,"station_id":"ce4bhpp2rcd13ifvqhgg","pricing_plan_id":"cebpf4jnsgd1na2vs0mg"},{"bike_id":"000b53b8-6b0e-4f6f-8d18-65e3a9ea8bb7","system_id":"levelo_inurba_marseille","lat":43.25579,"lon":5.38233,"is_reserved":false,"is_disabled":false,"rental_uris":{"android":"levelo://app?vid=000b53b8-6b0e-4f6f-8d18-65e3a9ea8bb7","ios":"levelo://app?vid=000b53b8-6b0e-4f6f-8d18-65e3a9ea8bb7"},"vehicle_type_id":"4","last_reported":1745929249,"current_range_meters":20000,"station_id":"ce4bhih2rcd13ifvqfs0","pricing_plan_id":"cebpf4jnsgd1na2vs0mg"},{"bike_id":"6fac186b-fbf3-4be4-84d4-291cf92e8326","system_id":"levelo_inurba_marseille","lat":43.28938,"lon":5.36644,"is_reserved":false,"is_disabled":false,"rental_uris":{"android":"levelo://app?vid=6fac186b-fbf3-4be4-84d4-291cf92e8326","ios":"levelo://app?vid=6fac186b-fbf3-4be4-84d4-291cf92e8326"},"vehicle_type_id":"4","last_reported":1745929249,"current_range_meters":20000,"station_id":"ce4bhap2rcd13ifvqek0","pricing_plan_id":"cebpf4jnsgd1na2vs0mg"},{"bike_id":"4974ee8a-8937-46e6-aada-e77179cb74ac","system_id":"levelo_inurba_marseille","lat":43.21199,"lon":5.35067,"is_reserved":false,"is_disabled":false,"rental_uris":{"android":"levelo://app?vid=4974ee8a-8937-46e6-aada-e77179cb74ac","ios":"levelo://app?vid=4974ee8a-8937-46e6-aada-e77179cb74ac"},"vehicle_type_id":"4","last_reported":1745929249,"current_range_meters":20000,"station_id":"st_cvj6sg6p6f1abm77japg","pricing_plan_id":"cebpf4jnsgd1na2vs0mg"},{"bike_id":"f35b97b1-0a14-484f-bd69-b4b74bd55c8c","system_id":"levelo_inurba_marseille","lat":43.26568,"lon":5.39021,"is_reserved":false,"is_disabled":false,"rental_uris":{"android":"levelo://app?vid=f35b97b1-0a14-484f-bd69-b4b74bd55c8c","ios":"levelo://app?vid=f35b97b1-0a14-484f-bd69-b4b74bd55c8c"},"vehicle_type_id":"4","last_reported":1745929249,"current_range_meters":20000,"station_id":"ce4bhe12rcd13ifvqf30","pricing_plan_id":"cebpf4jnsgd1na2vs0mg"},{"bike_id":"d9f1dcb0-1ef0-4f4d-9c2e-775fd1c3db18","system_id":"levelo_inurba_marseille","lat":43.27509,"lon":5.42454,"is_reserved":false,"is_disabled":false,"rental_uris":{"android":"levelo://app?vid=d9f1dcb0-1ef0-4f4d-9c2e-775fd1c3db18","ios":"levelo://app?vid=d9f1dcb0-1ef0-4f4d-9c2e-775fd1c3db18"},"vehicle_type_id":"4","last_reported":1745929249,"current_range_meters":20400,"station_id":"ce4bhn92rcd13ifvqgrg","pricing_plan_id":"cebpf4jnsgd1na2vs0mg"},{"bike_id":"da238281-dc76-4013-9cbc-c9dbb2795121","system_id":"levelo_inurba_marseille","lat":43.28269,"lon":5.35076,"is_reserved":false,"is_disabled":false,"rental_uris":{"android":"levelo://app?vid=da238281-dc76-4013-9cbc-c9dbb2795121","ios":"levelo://app?vid=da238281-dc76-4013-9cbc-c9dbb2795121"},"vehicle_type_id":"4","last_reported":1745929249,"current_range_meters":20400,"station_id":"ce4bhbp2rcd13ifvqerg","pricing_plan_id":"cebpf4jnsgd1na2vs0mg"},{"bike_id":"4b40f695-63b9-4e85-bcfa-13ae23a90fcb","system_id":"levelo_inurba_marseille","lat":43.25577,"lon":5.38246,"is_reserved":false,"is_disabled":false,"rental_uris":{"android":"levelo://app?vid=4b40f695-63b9-4e85-bcfa-13ae23a90fcb","ios":"levelo://app?vid=4b40f695-63b9-4e85-bcfa-13ae23a90fcb"},"vehicle_type_id":"4","last_reported":1745929249,"current_range_meters":20400,"station_id":"ce4bhih2rcd13ifvqfs0","pricing_plan_id":"cebpf4jnsgd1na2vs0mg"},{"bike_id":"c9f9035c-26b3-49c0-96f4-96f0171dfe1e","system_id":"levelo_inurba_marseille","lat":43.29533,"lon":5.39051,"is_reserved":false,"is_disabled":false,"rental_uris":{"android":"levelo://app?vid=c9f9035c-26b3-49c0-96f4-96f0171dfe1e","ios":"levelo://app?vid=c9f9035c-26b3-49c0-96f4-96f0171dfe1e"},"vehicle_type_id":"4","last_reported":1745929249,"current_range_meters":20000,"station_id":"ce4bh3p2rcd13ifvqdp0","pricing_plan_id":"cebpf4jnsgd1na2vs0mg"},{"bike_id":"7eaf3e52-855b-4348-9f5e-e29d554273fd","system_id":"levelo_inurba_marseille","lat":43.319305,"lon":5.4081,"is_reserved":false,"is_disabled":false,"rental_uris":{"android":"levelo://app?vid=7eaf3e52-855b-4348-9f5e-e29d554273fd","ios":"levelo://app?vid=7eaf3e52-855b-4348-9f5e-e29d554273fd"},"vehicle_type_id":"4","last_reported":1745929249,"current_range_meters":20400,"station_id":"ce4bhq12rcd13ifvqhig","pricing_plan_id":"cebpf4jnsgd1na2vs0mg"},{"bike_id":"d17dbf82-7bda-4b93-a937-4aebb3880bd7","system_id":"levelo_inurba_marseille","lat":43.33029,"lon":5.39044,"is_reserved":false,"is_disabled":false,"rental_uris":{"android":"levelo://app?vid=d17dbf82-7bda-4b93-a937-4aebb3880bd7","ios":"levelo://app?vid=d17dbf82-7bda-4b93-a937-4aebb3880bd7"},"vehicle_type_id":"4","last_reported":1745929249,"current_range_meters":20400,"station_id":"ce4bhr92rcd13ifvqhrg","pricing_plan_id":"cebpf4jnsgd1na2vs0mg"},{"bike_id":"957a3d0d-ba17-460f-b4ec-4c0136a5ba25","system_id":"levelo_inurba_marseille","lat":43.298786,"lon":5.397431,"is_reserved":false,"is_disabled":true,"rental_uris":{"android":"levelo://app?vid=957a3d0d-ba17-460f-b4ec-4c0136a5ba25","ios":"levelo://app?vid=957a3d0d-ba17-460f-b4ec-4c0136a5ba25"},"vehicle_type_id":"4","last_reported":1745929249,"current_range_meters":20800,"station_id":"ce4bh0h2rcd13ifvqd50","pricing_plan_id":"cebpf4jnsgd1na2vs0mg"},{"bike_id":"c33eb9f3-dff4-4285-aed8-8085b9868846","system_id":"levelo_inurba_marseille","lat":43.28413,"lon":5.34983,"is_reserved":false,"is_disabled":false,"rental_uris":{"android":"levelo://app?vid=c33eb9f3-dff4-4285-aed8-8085b9868846","ios":"levelo://app?vid=c33eb9f3-dff4-4285-aed8-8085b9868846"},"vehicle_type_id":"4","last_reported":1745929249,"current_range_meters":20800,"station_id":"ce4bhbh2rcd13ifvqepg","pricing_plan_id":"cebpf4jnsgd1na2vs0mg"},{"bike_id":"516bcf45-fb34-498c-8400-bae34598544a","system_id":"levelo_inurba_marseille","lat":43.31089,"lon":5.42416,"is_reserved":false,"is_disabled":false,"rental_uris":{"android":"levelo://app?vid=516bcf45-fb34-498c-8400-bae34598544a","ios":"levelo://app?vid=516bcf45-fb34-498c-8400-bae34598544a"},"vehicle_type_id":"4","last_reported":1745929249,"current_range_meters":20800,"station_id":"ce4bhp92rcd13ifvqhag","pricing_plan_id":"cebpf4jnsgd1na2vs0mg"},{"bike_id":"0ad62a15-6b7b-4bc4-b34c-d3efec700591","system_id":"levelo_inurba_marseille","lat":43.29056,"lon":5.37575,"is_reserved":false,"is_disabled":false,"rental_uris":{"android":"levelo://app?vid=0ad62a15-6b7b-4bc4-b34c-d3efec700591","ios":"levelo://app?vid=0ad62a15-6b7b-4bc4-b34c-d3efec700591"},"vehicle_type_id":"4","last_reported":1745929249,"current_range_meters":20400,"station_id":"","pricing_plan_id":"cebpf4jnsgd1na2vs0mg"},{"bike_id":"2372f7c6-1089-4c13-bafe-c3d7862aadcc","system_id":"levelo_inurba_marseille","lat":43.31711,"lon":5.43703,"is_reserved":false,"is_disabled":false,"rental_uris":{"android":"levelo://app?vid=2372f7c6-1089-4c13-bafe-c3d7862aadcc","ios":"levelo://app?vid=2372f7c6-1089-4c13-bafe-c3d7862aadcc"},"vehicle_type_id":"4","last_reported":1745929249,"current_range_meters":21600,"station_id":"ce4bhp92rcd13ifvqhcg","pricing_plan_id":"cebpf4jnsgd1na2vs0mg"},{"bike_id":"82111903-e5eb-4219-8771-baa514480061","system_id":"levelo_inurba_marseille","lat":43.28722,"lon":5.361,"is_reserved":false,"is_disabled":false,"rental_uris":{"android":"levelo://app?vid=82111903-e5eb-4219-8771-baa514480061","ios":"levelo://app?vid=82111903-e5eb-4219-8771-baa514480061"},"vehicle_type_id":"4","last_reported":1745929249,"current_range_meters":21600,"station_id":"cki0cbj6b192h4jlfktg","pricing_plan_id":"cebpf4jnsgd1na2vs0mg"},{"bike_id":"2a4f5dfa-513d-46a0-923b-e5be40c3c2bc","system_id":"levelo_inurba_marseille","lat":43.28467,"lon":5.39176,"is_reserved":false,"is_disabled":true,"rental_uris":{"android":"levelo://app?vid=2a4f5dfa-513d-46a0-923b-e5be40c3c2bc","ios":"levelo://app?vid=2a4f5dfa-513d-46a0-923b-e5be40c3c2bc"},"vehicle_type_id":"4","last_reported":1745929249,"current_range_meters":21600,"station_id":"ce4bhoh2rcd13ifvqh5g","pricing_plan_id":"cebpf4jnsgd1na2vs0mg"},{"bike_id":"9bfe6821-b569-461d-b21b-20646d93475e","system_id":"levelo_inurba_marseille","lat":43.324831,"lon":5.365709,"is_reserved":false,"is_disabled":false,"rental_uris":{"android":"levelo://app?vid=9bfe6821-b569-461d-b21b-20646d93475e","ios":"levelo://app?vid=9bfe6821-b569-461d-b21b-20646d93475e"},"vehicle_type_id":"4","last_reported":1745929249,"current_range_meters":21600,"station_id":"ce4bhs12rcd13ifvqhvg","pricing_plan_id":"cebpf4jnsgd1na2vs0mg"},{"bike_id":"9acb650b-4ddf-4287-bee1-8cabb3d2000a","system_id":"levelo_inurba_marseille","lat":43.27369,"lon":5.36244,"is_reserved":false,"is_disabled":false,"rental_uris":{"android":"levelo://app?vid=9acb650b-4ddf-4287-bee1-8cabb3d2000a","ios":"levelo://app?vid=9acb650b-4ddf-4287-bee1-8cabb3d2000a"},"vehicle_type_id":"4","last_reported":1745929249,"current_range_meters":21600,"station_id":"ce4bhbh2rcd13ifvqeo0","pricing_plan_id":"cebpf4jnsgd1na2vs0mg"},{"bike_id":"7940bc1b-eaa7-4f49-a435-46dc9391f6a1","system_id":"levelo_inurba_marseille","lat":43.21181,"lon":5.35061,"is_reserved":false,"is_disabled":false,"rental_uris":{"android":"levelo://app?vid=7940bc1b-eaa7-4f49-a435-46dc9391f6a1","ios":"levelo://app?vid=7940bc1b-eaa7-4f49-a435-46dc9391f6a1"},"vehicle_type_id":"4","last_reported":1745929249,"current_range_meters":21600,"station_id":"st_cvj6sg6p6f1abm77japg","pricing_plan_id":"cebpf4jnsgd1na2vs0mg"},{"bike_id":"39089e5b-adfa-4663-816f-59cf0daa187e","system_id":"levelo_inurba_marseille","lat":43.28273,"lon":5.35075,"is_reserved":false,"is_disabled":false,"rental_uris":{"android":"levelo://app?vid=39089e5b-adfa-4663-816f-59cf0daa187e","ios":"levelo://app?vid=39089e5b-adfa-4663-816f-59cf0daa187e"},"vehicle_type_id":"4","last_reported":1745929249,"current_range_meters":21600,"station_id":"ce4bhbp2rcd13ifvqerg","pricing_plan_id":"cebpf4jnsgd1na2vs0mg"},{"bike_id":"b05be8b3-1617-4144-947f-836bdd1f1221","system_id":"levelo_inurba_marseille","lat":43.31186,"lon":5.38723,"is_reserved":false,"is_disabled":false,"rental_uris":{"android":"levelo://app?vid=b05be8b3-1617-4144-947f-836bdd1f1221","ios":"levelo://app?vid=b05be8b3-1617-4144-947f-836bdd1f1221"},"vehicle_type_id":"4","last_reported":1745929249,"current_range_meters":21600,"station_id":"ce4bgv12rcd13ifvqcp0","pricing_plan_id":"cebpf4jnsgd1na2vs0mg"},{"bike_id":"9a6d1a0d-0520-4c44-b0a9-74ddbe754418","system_id":"levelo_inurba_marseille","lat":43.256957,"lon":5.411294,"is_reserved":false,"is_disabled":false,"rental_uris":{"android":"levelo://app?vid=9a6d1a0d-0520-4c44-b0a9-74ddbe754418","ios":"levelo://app?vid=9a6d1a0d-0520-4c44-b0a9-74ddbe754418"},"vehicle_type_id":"4","last_reported":1745929249,"current_range_meters":22000,"station_id":"ce4bhkp2rcd13ifvqgd0","pricing_plan_id":"cebpf4jnsgd1na2vs0mg"},{"bike_id":"32de64e9-00da-4d6e-b3f1-018681f2531c","system_id":"levelo_inurba_marseille","lat":43.25505,"lon":5.37653,"is_reserved":false,"is_disabled":false,"rental_uris":{"android":"levelo://app?vid=32de64e9-00da-4d6e-b3f1-018681f2531c","ios":"levelo://app?vid=32de64e9-00da-4d6e-b3f1-018681f2531c"},"vehicle_type_id":"4","last_reported":1745929249,"current_range_meters":22000,"station_id":"ce4bhh12rcd13ifvqff0","pricing_plan_id":"cebpf4jnsgd1na2vs0mg"},{"bike_id":"cb24adb8-097c-4796-a1e5-463db305c7b4","system_id":"levelo_inurba_marseille","lat":43.29512,"lon":5.39386,"is_reserved":false,"is_disabled":false,"rental_uris":{"android":"levelo://app?vid=cb24adb8-097c-4796-a1e5-463db305c7b4","ios":"levelo://app?vid=cb24adb8-097c-4796-a1e5-463db305c7b4"},"vehicle_type_id":"4","last_reported":1745929249,"current_range_meters":21600,"station_id":"ce4bh292rcd13ifvqdf0","pricing_plan_id":"cebpf4jnsgd1na2vs0mg"},{"bike_id":"5b67c6ec-6d70-4a86-a7d1-b72cbd2b96af","system_id":"levelo_inurba_marseille","lat":43.29506,"lon":5.37524,"is_reserved":false,"is_disabled":false,"rental_uris":{"android":"levelo://app?vid=5b67c6ec-6d70-4a86-a7d1-b72cbd2b96af","ios":"levelo://app?vid=5b67c6ec-6d70-4a86-a7d1-b72cbd2b96af"},