{"last_updated":1741039710,"ttl":60,"version":"2.2","data":{"bikes":[{"bike_id":"6903389d-47cb-4168-9147-f4ecb81bfe8b","system_id":"levelo_inurba_marseille","lat":43.30614,"lon":5.37213,"is_reserved":false,"is_disabled":false,"rental_uris":{"android":"levelo://app?vid=6903389d-47cb-4168-9147-f4ecb81bfe8b","ios":"levelo://app?vid=6903389d-47cb-4168-9147-f4ecb81bfe8b"},"vehicle_type_id":"4","last_reported":1741039710,"current_range_meters":2800,"station_id":"ce4bgqh2rcd13ifvqc4g","pricing_plan_id":"cebpf4jnsgd1na2vs0mg"},{"bike_id":"8c77a360-b56a-4f88-8970-8e70158547b5","system_id":"levelo_inurba_marseille","lat":43.31328,"lon":5.39687,"is_reserved":false,"is_disabled":false,"rental_uris":{"android":"levelo://app?vid=8c77a360-b56a-4f88-8970-8e70158547b5","ios":"levelo://app?vid=8c77a360-b56a-4f88-8970-8e70158547b5"},"vehicle_type_id":"4","last_reported":1741039710,"current_range_meters":3200,"station_id":"ce4bgvp2rcd13ifvqcu0","pricing_plan_id":"cebpf4jnsgd1na2vs0mg"},{"bike_id":"7294fa1b-6789-4d34-92da-72d6801cf1aa","system_id":"levelo_inurba_marseille","lat":43.3279,"lon":5.36211,"is_reserved":false,"is_disabled":false,"rental_uris":{"android":"levelo://app?vid=7294fa1b-6789-4d34-92da-72d6801cf1aa","ios":"levelo://app?vid=7294fa1b-6789-4d34-92da-72d6801cf1aa"},"vehicle_type_id":"4","last_reported":1741039710,"current_range_meters":3600,"station_id":"","pricing_plan_id":"cebpf4jnsgd1na2vs0mg"},{"bike_id":"0d714f9a-9499-40f0-8797-a6531bf1ccb2","system_id":"levelo_inurba_marseille","lat":43.30552,"lon":5.39344,"is_reserved":false,"is_disabled":false,"rental_uris":{"android":"levelo://app?vid=0d714f9a-9499-40f0-8797-a6531bf1ccb2","ios":"levelo://app?vid=0d714f9a-9499-40f0-8797-a6531bf1ccb2"},"vehicle_type_id":"4","last_reported":1741039710,"current_range_meters":4000,"station_id":"ce4bh0p2rcd13ifvqd80","pricing_plan_id":"cebpf4jnsgd1na2vs0mg"},{"bike_id":"70c6e167-86d7-458a-afff-ae78bc757ae8","system_id":"levelo_inurba_marseille","lat":43.31325,"lon":5.39693,"is_reserved":false,"is_disabled":false,"rental_uris":{"android":"levelo://app?vid=70c6e167-86d7-458a-afff-ae78bc757ae8","ios":"levelo://app?vid=70c6e167-86d7-458a-afff-ae78bc757ae8"},"vehicle_type_id":"4","last_reported":1741039710,"current_range_meters":4000,"station_id":"ce4bgvp2rcd13ifvqcu0","pricing_plan_id":"cebpf4jnsgd1na2vs0mg"},{"bike_id":"fbb434ec-fb3e-4b4d-be26-675e17ec36af","system_id":"levelo_inurba_marseille","lat":43.23158,"lon":5.43721,"is_reserved":false,"is_disabled":true,"rental_uris":{"android":"levelo://app?vid=fbb434ec-fb3e-4b4d-be26-675e17ec36af","ios":"levelo://app?vid=fbb434ec-fb3e-4b4d-be26-675e17ec36af"},"vehicle_type_id":"4","last_reported":1741039710,"current_range_meters":4000,"station_id":"ce4bhmp2rcd13ifvqgog","pricing_plan_id":"cebpf4jnsgd1na2vs0mg"},{"bike_id":"b4a958b6-c20a-49d7-b146-1203321285d8","system_id":"levelo_inurba_marseille","lat":43.23183,"lon":5.39978,"is_reserved":false,"is_disabled":false,"rental_uris":{"android":"levelo://app?vid=b4a958b6-c20a-49d7-b146-1203321285d8","ios":"levelo://app?vid=b4a958b6-c20a-49d7-b146-1203321285d8"},"vehicle_type_id":"4","last_reported":1741039710,"current_range_meters":4000,"station_id":"ce4bhn12rcd13ifvqgqg","pricing_plan_id":"cebpf4jnsgd1na2vs0mg"},{"bike_id":"5d5f85e8-4030-4cb8-8ed9-a1faab49c48f","system_id":"levelo_inurba_marseille","lat":43.32212,"lon":5.39154,"is_reserved":false,"is_disabled":false,"rental_uris":{"android":"levelo://app?vid=5d5f85e8-4030-4cb8-8ed9-a1faab49c48f","ios":"levelo://app?vid=5d5f85e8-4030-4cb8-8ed9-a1faab49c48f"},"vehicle_type_id":"4","last_reported":1741039710,"current_range_meters":4000,"station_id":"","pricing_plan_id":"cebpf4jnsgd1na2vs0mg"},{"bike_id":"6f31b376-f302-4324-a8e4-7ab4f5d3f375","system_id":"levelo_inurba_marseille","lat":43.30886,"lon":5.39665,"is_reserved":false,"is_disabled":false,"rental_uris":{"android":"levelo://app?vid=6f31b376-f302-4324-a8e4-7ab4f5d3f375","ios":"levelo://app?vid=6f31b376-f302-4324-a8e4-7ab4f5d3f375"},"vehicle_type_id":"4","last_reported":1741039710,"current_range_meters":4000,"station_id":"ce4bh012rcd13ifvqcv0","pricing_plan_id":"cebpf4jnsgd1na2vs0mg"},{"bike_id":"2c15bcff-6aec-40d5-8ca8-80a2ed6cf8a4","system_id":"levelo_inurba_marseille","lat":43.27792,"lon":5.42802,"is_reserved":false,"is_disabled":true,"rental_uris":{"android":"levelo://app?vid=2c15bcff-6aec-40d5-8ca8-80a2ed6cf8a4","ios":"levelo://app?vid=2c15bcff-6aec-40d5-8ca8-80a2ed6cf8a4"},"vehicle_type_id":"4","last_reported":1741039710,"current_range_meters":4400,"station_id":"","pricing_plan_id":"cebpf4jnsgd1na2vs0mg"},{"bike_id":"217d65b3-7ceb-462d-9843-88d2f01a5050","system_id":"levelo_inurba_marseille","lat":43.32901,"lon":5.38069,"is_reserved":false,"is_disabled":false,"rental_uris":{"android":"levelo://app?vid=217d65b3-7ceb-462d-9843-88d2f01a5050","ios":"levelo://app?vid=217d65b3-7ceb-462d-9843-88d2f01a5050"},"vehicle_type_id":"4","last_reported":1741039710,"current_range_meters":4400,"station_id":"","pricing_plan_id":"cebpf4jnsgd1na2vs0mg"},{"bike_id":"face0865-d642-455a-b3a5-4e8ed90ff01b","system_id":"levelo_inurba_marseille","lat":43.25809,"lon":5.39416,"is_reserved":false,"is_disabled":true,"rental_uris":{"android":"levelo://app?vid=face0865-d642-455a-b3a5-4e8ed90ff01b","ios":"levelo://app?vid=face0865-d642-455a-b3a5-4e8ed90ff01b"},"vehicle_type_id":"4","last_reported":1741039710,"current_range_meters":4400,"station_id":"ce4bhip2rcd13ifvqft0","pricing_plan_id":"cebpf4jnsgd1na2vs0mg"},{"bike_id":"ed66d6d0-2199-4330-a81f-5b8beacb5347","system_id":"levelo_inurba_marseille","lat":43.28409,"lon":5.37508,"is_reserved":false,"is_disabled":false,"rental_uris":{"android":"levelo://app?vid=ed66d6d0-2199-4330-a81f-5b8beacb5347","ios":"levelo://app?vid=ed66d6d0-2199-4330-a81f-5b8beacb5347"},"vehicle_type_id":"4","last_reported":1741039710,"current_range_meters":4400,"station_id":"ce4bh412rcd13ifvqds0","pricing_plan_id":"cebpf4jnsgd1na2vs0mg"},{"bike_id":"e0fc8d54-7aea-4d6e-8fa8-926448c099ad","system_id":"levelo_inurba_marseille","lat":43.26053,"lon":5.3939,"is_reserved":false,"is_disabled":false,"rental_uris":{"android":"levelo://app?vid=e0fc8d54-7aea-4d6e-8fa8-926448c099ad","ios":"levelo://app?vid=e0fc8d54-7aea-4d6e-8fa8-926448c099ad"},"vehicle_type_id":"4","last_reported":1741039710,"current_range_meters":4800,"station_id":"ce4bhh92rcd13ifvqfj0","pricing_plan_id":"cebpf4jnsgd1na2vs0mg"},{"bike_id":"de12ae88-8a49-4127-a4ae-0c2d4331cb91","system_id":"levelo_inurba_marseille","lat":43.24393,"lon":5.37057,"is_reserved":false,"is_disabled":false,"rental_uris":{"android":"levelo://app?vid=de12ae88-8a49-4127-a4ae-0c2d4331cb91","ios":"levelo://app?vid=de12ae88-8a49-4127-a4ae-0c2d4331cb91"},"vehicle_type_id":"4","last_reported":1741039710,"current_range_meters":5600,"station_id":"ce4bhhh2rcd13ifvqfk0","pricing_plan_id":"cebpf4jnsgd1na2vs0mg"},{"bike_id":"90394b7f-0ce7-45bd-b4c9-c7a4ad2fafa6","system_id":"levelo_inurba_marseille","lat":43.2315,"lon":5.43721,"is_reserved":false,"is_disabled":false,"rental_uris":{"android":"levelo://app?vid=90394b7f-0ce7-45bd-b4c9-c7a4ad2fafa6","ios":"levelo://app?vid=90394b7f-0ce7-45bd-b4c9-c7a4ad2fafa6"},"vehicle_type_id":"4","last_reported":1741039710,"current_range_meters":5600,"station_id":"ce4bhmp2rcd13ifvqgog","pricing_plan_id":"cebpf4jnsgd1na2vs0mg"},{"bike_id":"8e3ff0cf-7f35-4b32-a007-06e8e220cfb3","system_id":"levelo_inurba_marseille","lat":43.276334,"lon":5.390424,"is_reserved":false,"is_disabled":false,"rental_uris":{"android":"levelo://app?vid=8e3ff0cf-7f35-4b32-a007-06e8e220cfb3","ios":"levelo://app?vid=8e3ff0cf-7f35-4b32-a007-06e8e220cfb3"},"vehicle_type_id":"4","last_reported":1741039710,"current_range_meters":4800,"station_id":"ce4bhdp2rcd13ifvqf20","pricing_plan_id":"cebpf4jnsgd1na2vs0mg"},{"bike_id":"e7bf9aa4-ebab-4733-bd2d-62b9efb9b294","system_id":"levelo_inurba_marseille","lat":43.27493,"lon":5.42447,"is_reserved":false,"is_disabled":true,"rental_uris":{"android":"levelo://app?vid=e7bf9aa4-ebab-4733-bd2d-62b9efb9b294","ios":"levelo://app?vid=e7bf9aa4-ebab-4733-bd2d-62b9efb9b294"},"vehicle_type_id":"4","last_reported":1741039710,"current_range_meters":6000,"station_id":"ce4bhn92rcd13ifvqgrg","pricing_plan_id":"cebpf4jnsgd1na2vs0mg"},{"bike_id":"385dddc1-9c1a-4d8e-b6d8-f60b91470058","system_id":"levelo_inurba_marseille","lat":43.29423,"lon":5.38621,"is_reserved":false,"is_disabled":false,"rental_uris":{"android":"levelo://app?vid=385dddc1-9c1a-4d8e-b6d8-f60b91470058","ios":"levelo://app?vid=385dddc1-9c1a-4d8e-b6d8-f60b91470058"},"vehicle_type_id":"4","last_reported":1741039710,"current_range_meters":6400,"station_id":"ce4bh2h2rcd13ifvqdh0","pricing_plan_id":"cebpf4jnsgd1na2vs0mg"},{"bike_id":"fd55ec61-ea03-4691-8f74-530e74ea7311","system_id":"levelo_inurba_marseille","lat":43.25006,"lon":5.38935,"is_reserved":false,"is_disabled":false,"rental_uris":{"android":"levelo://app?vid=fd55ec61-ea03-4691-8f74-530e74ea7311","ios":"levelo://app?vid=fd55ec61-ea03-4691-8f74-530e74ea7311"},"vehicle_type_id":"4","last_reported":1741039710,"current_range_meters":6400,"station_id":"ce4bhgp2rcd13ifvqfd0","pricing_plan_id":"cebpf4jnsgd1na2vs0mg"},{"bike_id":"51dac736-e1f7-43ae-a021-5c1e738d6bef","system_id":"levelo_inurba_marseille","lat":43.28854,"lon":5.35833,"is_reserved":false,"is_disabled":true,"rental_uris":{"android":"levelo://app?vid=51dac736-e1f7-43ae-a021-5c1e738d6bef","ios":"levelo://app?vid=51dac736-e1f7-43ae-a021-5c1e738d6bef"},"vehicle_type_id":"4","last_reported":1741039710,"current_range_meters":6400,"station_id":"ce4bhb12rcd13ifvqem0","pricing_plan_id":"cebpf4jnsgd1na2vs0mg"},{"bike_id":"db104c0f-134f-4bc4-a7af-e3810cf28c33","system_id":"levelo_inurba_marseille","lat":43.28348,"lon":5.38105,"is_reserved":false,"is_disabled":false,"rental_uris":{"android":"levelo://app?vid=db104c0f-134f-4bc4-a7af-e3810cf28c33","ios":"levelo://app?vid=db104c0f-134f-4bc4-a7af-e3810cf28c33"},"vehicle_type_id":"4","last_reported":1741039710,"current_range_meters":6400,"station_id":"ce4bh412rcd13ifvqdr0","pricing_plan_id":"cebpf4jnsgd1na2vs0mg"},{"bike_id":"1621e0c3-0194-4d15-8a8b-87beecb39238","system_id":"levelo_inurba_marseille","lat":43.31996,"lon":5.3815,"is_reserved":false,"is_disabled":true,"rental_uris":{"android":"levelo://app?vid=1621e0c3-0194-4d15-8a8b-87beecb39238","ios":"levelo://app?vid=1621e0c3-0194-4d15-8a8b-87beecb39238"},"vehicle_type_id":"4","last_reported":1741039710,"current_range_meters":6800,"station_id":"ce4bhr12rcd13ifvqhpg","pricing_plan_id":"cebpf4jnsgd1na2vs0mg"},{"bike_id":"23c20c41-e8a4-4dc6-b7b9-05b6d6793f3e","system_id":"levelo_inurba_marseille","lat":43.27817,"lon":5.40716,"is_reserved":false,"is_disabled":false,"rental_uris":{"android":"levelo://app?vid=23c20c41-e8a4-4dc6-b7b9-05b6d6793f3e","ios":"levelo://app?vid=23c20c41-e8a4-4dc6-b7b9-05b6d6793f3e"},"vehicle_type_id":"4","last_reported":1741039710,"current_range_meters":6800,"station_id":"ce4bhnh2rcd13ifvqgtg","pricing_plan_id":"cebpf4jnsgd1na2vs0mg"},{"bike_id":"3df256a4-3af2-4e09-ac29-246774d99c68","system_id":"levelo_inurba_marseille","lat":43.23185,"lon":5.39967,"is_reserved":false,"is_disabled":false,"rental_uris":{"android":"levelo://app?vid=3df256a4-3af2-4e09-ac29-246774d99c68","ios":"levelo://app?vid=3df256a4-3af2-4e09-ac29-246774d99c68"},"vehicle_type_id":"4","last_reported":1741039710,"current_range_meters":6800,"station_id":"ce4bhn12rcd13ifvqgqg","pricing_plan_id":"cebpf4jnsgd1na2vs0mg"},{"bike_id":"5cd0c11b-f9d6-428f-9f34-0abc9c264bfe","system_id":"levelo_inurba_marseille","lat":43.2799,"lon":5.41657,"is_reserved":false,"is_disabled":false,"rental_uris":{"android":"levelo://app?vid=5cd0c11b-f9d6-428f-9f34-0abc9c264bfe","ios":"levelo://app?vid=5cd0c11b-f9d6-428f-9f34-0abc9c264bfe"},"vehicle_type_id":"4","last_reported":1741039710,"current_range_meters":6800,"station_id":"ce4bho12rcd13ifvqh1g","pricing_plan_id":"cebpf4jnsgd1na2vs0mg"},{"bike_id":"232499b3-0afe-409e-b179-d21bfa5b759f","system_id":"levelo_inurba_marseille","lat":43.27178,"lon":5.40982,"is_reserved":false,"is_disabled":false,"rental_uris":{"android":"levelo://app?vid=232499b3-0afe-409e-b179-d21bfa5b759f","ios":"levelo://app?vid=232499b3-0afe-409e-b179-d21bfa5b759f"},"vehicle_type_id":"4","last_reported":1741039710,"current_range_meters":6800,"station_id":"ce4bhl12rcd13ifvqgf0","pricing_plan_id":"cebpf4jnsgd1na2vs0mg"},{"bike_id":"9db49163-1bcf-4cb4-975b-b1e9ddf4e6d9","system_id":"levelo_inurba_marseille","lat":43.2718,"lon":5.4099,"is_reserved":false,"is_disabled":false,"rental_uris":{"android":"levelo://app?vid=9db49163-1bcf-4cb4-975b-b1e9ddf4e6d9","ios":"levelo://app?vid=9db49163-1bcf-4cb4-975b-b1e9ddf4e6d9"},"vehicle_type_id":"4","last_reported":1741039710,"current_range_meters":6800,"station_id":"ce4bhl12rcd13ifvqgf0","pricing_plan_id":"cebpf4jnsgd1na2vs0mg"},{"bike_id":"c82ed515-533d-442c-95f2-5ddb43b4dcca","system_id":"levelo_inurba_marseille","lat":43.291966,"lon":5.357964,"is_reserved":false,"is_disabled":false,"rental_uris":{"android":"levelo://app?vid=c82ed515-533d-442c-95f2-5ddb43b4dcca","ios":"levelo://app?vid=c82ed515-533d-442c-95f2-5ddb43b4dcca"},"vehicle_type_id":"4","last_reported":1741039710,"current_range_meters":6800,"station_id":"ce4bhb12rcd13ifvqel0","pricing_plan_id":"cebpf4jnsgd1na2vs0mg"},{"bike_id":"6229b5e8-8d17-4294-a915-b97f6de0103d","system_id":"levelo_inurba_marseille","lat":43.25577,"lon":5.38231,"is_reserved":false,"is_disabled":false,"rental_uris":{"android":"levelo://app?vid=6229b5e8-8d17-4294-a915-b97f6de0103d","ios":"levelo://app?vid=6229b5e8-8d17-4294-a915-b97f6de0103d"},"vehicle_type_id":"4","last_reported":1741039710,"current_range_meters":7200,"station_id":"ce4bhih2rcd13ifvqfs0","pricing_plan_id":"cebpf4jnsgd1na2vs0mg"},{"bike_id":"938f08ad-b3c2-4eec-9728-0c2196707d8d","system_id":"levelo_inurba_marseille","lat":43.30877,"lon":5.37209,"is_reserved":false,"is_disabled":false,"rental_uris":{"android":"levelo://app?vid=938f08ad-b3c2-4eec-9728-0c2196707d8d","ios":"levelo://app?vid=938f08ad-b3c2-4eec-9728-0c2196707d8d"},"vehicle_type_id":"4","last_reported":1741039710,"current_range_meters":7200,"station_id":"ce4bguh2rcd13ifvqckg","pricing_plan_id":"cebpf4jnsgd1na2vs0mg"},{"bike_id":"73681137-6538-4684-87ec-aa9b29720d1e","system_id":"levelo_inurba_marseille","lat":43.23181,"lon":5.3554,"is_reserved":false,"is_disabled":false,"rental_uris":{"android":"levelo://app?vid=73681137-6538-4684-87ec-aa9b29720d1e","ios":"levelo://app?vid=73681137-6538-4684-87ec-aa9b29720d1e"},"vehicle_type_id":"4","last_reported":1741039710,"current_range_meters":7200,"station_id":"ce4bhu92rcd13ifvqi70","pricing_plan_id":"cebpf4jnsgd1na2vs0mg"},{"bike_id":"2daa11be-071f-479c-9bd0-92101cc53d8c","system_id":"levelo_inurba_marseille","lat":43.28074,"lon":5.3965,"is_reserved":false,"is_disabled":false,"rental_uris":{"android":"levelo://app?vid=2daa11be-071f-479c-9bd0-92101cc53d8c","ios":"levelo://app?vid=2daa11be-071f-479c-9bd0-92101cc53d8c"},"vehicle_type_id":"4","last_reported":1741039710,"current_range_meters":7200,"station_id":"ce4bho12rcd13ifvqh2g","pricing_plan_id":"cebpf4jnsgd1na2vs0mg"},{"bike_id":"55ea9caf-613b-4c31-ba2e-f6b9436a5dae","system_id":"levelo_inurba_marseille","lat":43.30883,"lon":5.39649,"is_reserved":false,"is_disabled":false,"rental_uris":{"android":"levelo://app?vid=55ea9caf-613b-4c31-ba2e-f6b9436a5dae","ios":"levelo://app?vid=55ea9caf-613b-4c31-ba2e-f6b9436a5dae"},"vehicle_type_id":"4","last_reported":1741039710,"current_range_meters":7200,"station_id":"ce4bh012rcd13ifvqcv0","pricing_plan_id":"cebpf4jnsgd1na2vs0mg"},{"bike_id":"93c78c45-afab-486c-8bef-c2b3d219a8cf","system_id":"levelo_inurba_marseille","lat":43.27068,"lon":5.42277,"is_reserved":false,"is_disabled":false,"rental_uris":{"android":"levelo://app?vid=93c78c45-afab-486c-8bef-c2b3d219a8cf","ios":"levelo://app?vid=93c78c45-afab-486c-8bef-c2b3d219a8cf"},"vehicle_type_id":"4","last_reported":1741039710,"current_range_meters":7200,"station_id":"ce4bhk92rcd13ifvqgb0","pricing_plan_id":"cebpf4jnsgd1na2vs0mg"},{"bike_id":"5da70b26-5045-4fcf-85cf-7f68a925e135","system_id":"levelo_inurba_marseille","lat":43.27982,"lon":5.41653,"is_reserved":false,"is_disabled":false,"rental_uris":{"android":"levelo://app?vid=5da70b26-5045-4fcf-85cf-7f68a925e135","ios":"levelo://app?vid=5da70b26-5045-4fcf-85cf-7f68a925e135"},"vehicle_type_id":"4","last_reported":1741039710,"current_range_meters":7200,"station_id":"ce4bho12rcd13ifvqh1g","pricing_plan_id":"cebpf4jnsgd1na2vs0mg"},{"bike_id":"0a42b506-aec3-4369-808c-c91f0f7eb197","system_id":"levelo_inurba_marseille","lat":43.25568,"lon":5.38245,"is_reserved":false,"is_disabled":false,"rental_uris":{"android":"levelo://app?vid=0a42b506-aec3-4369-808c-c91f0f7eb197","ios":"levelo://app?vid=0a42b506-aec3-4369-808c-c91f0f7eb197"},"vehicle_type_id":"4","last_reported":1741039710,"current_range_meters":7200,"station_id":"ce4bhih2rcd13ifvqfs0","pricing_plan_id":"cebpf4jnsgd1na2vs0mg"},{"bike_id":"f381c9bd-14fa-41ab-b589-3ecebd6dfe48","system_id":"levelo_inurba_marseille","lat":43.32364,"lon":5.36732,"is_reserved":false,"is_disabled":false,"rental_uris":{"android":"levelo://app?vid=f381c9bd-14fa-41ab-b589-3ecebd6dfe48","ios":"levelo://app?vid=f381c9bd-14fa-41ab-b589-3ecebd6dfe48"},"vehicle_type_id":"4","last_reported":1741039710,"current_range_meters":7200,"station_id":"ce4bhsh2rcd13ifvqi2g","pricing_plan_id":"cebpf4jnsgd1na2vs0mg"},{"bike_id":"40323d2b-7fa4-44fa-8afd-3105efa74518","system_id":"levelo_inurba_marseille","lat":43.24167,"lon":5.39738,"is_reserved":false,"is_disabled":false,"rental_uris":{"android":"levelo://app?vid=40323d2b-7fa4-44fa-8afd-3105efa74518","ios":"levelo://app?vid=40323d2b-7fa4-44fa-8afd-3105efa74518"},"vehicle_type_id":"4","last_reported":1741039710,"current_range_meters":8000,"station_id":"ce4bhn12rcd13ifvqgpg","pricing_plan_id":"cebpf4jnsgd1na2vs0mg"},{"bike_id":"89cb348e-b4f6-4810-b86f-98d924074122","system_id":"levelo_inurba_marseille","lat":43.32366,"lon":5.38891,"is_reserved":false,"is_disabled":false,"rental_uris":{"android":"levelo://app?vid=89cb348e-b4f6-4810-b86f-98d924074122","ios":"levelo://app?vid=89cb348e-b4f6-4810-b86f-98d924074122"},"vehicle_type_id":"4","last_reported":1741039710,"current_range_meters":8000,"station_id":"ce4bhqp2rcd13ifvqhog","pricing_plan_id":"cebpf4jnsgd1na2vs0mg"},{"bike_id":"b7baf54f-5a7f-48ec-9282-59f318b50e79","system_id":"levelo_inurba_marseille","lat":43.29255,"lon":5.40905,"is_reserved":false,"is_disabled":false,"rental_uris":{"android":"levelo://app?vid=b7baf54f-5a7f-48ec-9282-59f318b50e79","ios":"levelo://app?vid=b7baf54f-5a7f-48ec-9282-59f318b50e79"},"vehicle_type_id":"4","last_reported":1741039710,"current_range_meters":8000,"station_id":"ce4bh192rcd13ifvqdc0","pricing_plan_id":"cebpf4jnsgd1na2vs0mg"},{"bike_id":"e45890b8-294d-42ad-bfa3-bc5df2a1bc44","system_id":"levelo_inurba_marseille","lat":43.30306,"lon":5.3921,"is_reserved":false,"is_disabled":false,"rental_uris":{"android":"levelo://app?vid=e45890b8-294d-42ad-bfa3-bc5df2a1bc44","ios":"levelo://app?vid=e45890b8-294d-42ad-bfa3-bc5df2a1bc44"},"vehicle_type_id":"4","last_reported":1741039710,"current_range_meters":8000,"station_id":"ce4bgkh2rcd13ifvqbk0","pricing_plan_id":"cebpf4jnsgd1na2vs0mg"},{"bike_id":"9ee3d017-a864-4e85-a47f-e27d4c7b327f","system_id":"levelo_inurba_marseille","lat":43.27812,"lon":5.4071,"is_reserved":false,"is_disabled":false,"rental_uris":{"android":"levelo://app?vid=9ee3d017-a864-4e85-a47f-e27d4c7b327f","ios":"levelo://app?vid=9ee3d017-a864-4e85-a47f-e27d4c7b327f"},"vehicle_type_id":"4","last_reported":1741039710,"current_range_meters":8000,"station_id":"ce4bhnh2rcd13ifvqgtg","pricing_plan_id":"cebpf4jnsgd1na2vs0mg"},{"bike_id":"2ab11bbe-a968-4ea2-8a15-b47f3045ae38","system_id":"levelo_inurba_marseille","lat":43.2318,"lon":5.40007,"is_reserved":false,"is_disabled":false,"rental_uris":{"android":"levelo://app?vid=2ab11bbe-a968-4ea2-8a15-b47f3045ae38","ios":"levelo://app?vid=2ab11bbe-a968-4ea2-8a15-b47f3045ae38"},"vehicle_type_id":"4","last_reported":1741039710,"current_range_meters":8000,"station_id":"ce4bhn12rcd13ifvqgqg","pricing_plan_id":"cebpf4jnsgd1na2vs0mg"},{"bike_id":"cc33fbb4-9af6-4003-b965-a7312e3c1cb7","system_id":"levelo_inurba_marseille","lat":43.29733,"lon":5.37884,"is_reserved":false,"is_disabled":false,"rental_uris":{"android":"levelo://app?vid=cc33fbb4-9af6-4003-b965-a7312e3c1cb7","ios":"levelo://app?vid=cc33fbb4-9af6-4003-b965-a7312e3c1cb7"},"vehicle_type_id":"4","last_reported":1741039710,"current_range_meters":8000,"station_id":"","pricing_plan_id":"cebpf4jnsgd1na2vs0mg"},{"bike_id":"2d4e1c3e-7392-4616-b3cf-646345a17bd5","system_id":"levelo_inurba_marseille","lat":43.295667,"lon":5.422847,"is_reserved":false,"is_disabled":true,"rental_uris":{"android":"levelo://app?vid=2d4e1c3e-7392-4616-b3cf-646345a17bd5","ios":"levelo://app?vid=2d4e1c3e-7392-4616-b3cf-646345a17bd5"},"vehicle_type_id":"4","last_reported":1741039710,"current_range_meters":8000,"station_id":"ce4bhph2rcd13ifvqhdg","pricing_plan_id":"cebpf4jnsgd1na2vs0mg"},{"bike_id":"9aa030fc-75b6-46d2-bc65-2c1c00869ae1","system_id":"levelo_inurba_marseille","lat":43.25084,"lon":5.39523,"is_reserved":false,"is_disabled":false,"rental_uris":{"android":"levelo://app?vid=9aa030fc-75b6-46d2-bc65-2c1c00869ae1","ios":"levelo://app?vid=9aa030fc-75b6-46d2-bc65-2c1c00869ae1"},"vehicle_type_id":"4","last_reported":1741039710,"current_range_meters":8000,"station_id":"ce4bhm12rcd13ifvqgkg","pricing_plan_id":"cebpf4jnsgd1na2vs0mg"},{"bike_id":"44101e39-02e2-418b-aacf-47b808d8b0c8","system_id":"levelo_inurba_marseille","lat":43.296683,"lon":5.372934,"is_reserved":false,"is_disabled":false,"rental_uris":{"android":"levelo://app?vid=44101e39-02e2-418b-aacf-47b808d8b0c8","ios":"levelo://app?vid=44101e39-02e2-418b-aacf-47b808d8b0c8"},"vehicle_type_id":"4","last_reported":1741039710,"current_range_meters":9200,"station_id":"ce4bgl92rcd13ifvqbq0","pricing_plan_id":"cebpf4jnsgd1na2vs0mg"},{"bike_id":"6d179f19-88b8-4e27-9211-90e1bfa6d2cb","system_id":"levelo_inurba_marseille","lat":43.33009,"lon":5.39305,"is_reserved":false,"is_disabled":false,"rental_uris":{"android":"levelo://app?vid=6d179f19-88b8-4e27-9211-90e1bfa6d2cb","ios":"levelo://app?vid=6d179f19-88b8-4e27-9211-90e1bfa6d2cb"},"vehicle_type_id":"4","last_reported":1741039710,"current_range_meters":8400,"station_id":"","pricing_plan_id":"cebpf4jnsgd1na2vs0mg"},{"bike_id":"c62a7805-9269-443d-b2fa-5cf768d42dfc","system_id":"levelo_inurba_marseille","lat":43.32336,"lon":5.40622,"is_reserved":false,"is_disabled":false,"rental_uris":{"android":"levelo://app?vid=c62a7805-9269-443d-b2fa-5cf768d42dfc","ios":"levelo://app?vid=c62a7805-9269-443d-b2fa-5cf768d42dfc"},"vehicle_type_id":"4","last_reported":1741039710,"current_range_meters":8800,"station_id":"ce4bhq92rcd13ifvqhjg","pricing_plan_id":"cebpf4jnsgd1na2vs0mg"},{"bike_id":"27d79748-37ff-44a9-9b3c-91da3ce4c1f0","system_id":"levelo_inurba_marseille","lat":43.28946,"lon":5.36387,"is_reserved":false,"is_disabled":false,"rental_uris":{"android":"levelo://app?vid=27d79748-37ff-44a9-9b3c-91da3ce4c1f0","ios":"levelo://app?vid=27d79748-37ff-44a9-9b3c-91da3ce4c1f0"},"vehicle_type_id":"4","last_reported":1741039710,"current_range_meters":8400,"station_id":"ce4bhc92rcd13ifvqetg","pricing_plan_id":"cebpf4jnsgd1na2vs0mg"},{"bike_id":"33141e3c-07e2-4f7b-a409-6a46bbb2d563","system_id":"levelo_inurba_marseille","lat":43.28848,"lon":5.35845,"is_reserved":false,"is_disabled":false,"rental_uris":{"android":"levelo://app?vid=33141e3c-07e2-4f7b-a409-6a46bbb2d563","ios":"levelo://app?vid=33141e3c-07e2-4f7b-a409-6a46bbb2d563"},"vehicle_type_id":"4","last_reported":1741039710,"current_range_meters":8400,"station_id":"ce4bhb12rcd13ifvqem0","pricing_plan_id":"cebpf4jnsgd1na2vs0mg"},{"bike_id":"c19d77a8-5520-45f7-9712-a3f89cb69d9f","system_id":"levelo_inurba_marseille","lat":43.28351,"lon":5.3891,"is_reserved":false,"is_disabled":false,"rental_uris":{"android":"levelo://app?vid=c19d77a8-5520-45f7-9712-a3f89cb69d9f","ios":"levelo://app?vid=c19d77a8-5520-45f7-9712-a3f89cb69d9f"},"vehicle_type_id":"4","last_reported":1741039710,"current_range_meters":8400,"station_id":"","pricing_plan_id":"cebpf4jnsgd1na2vs0mg"},{"bike_id":"b2fa1401-2d52-4863-82e0-708505f297ae","system_id":"levelo_inurba_marseille","lat":43.28854,"lon":5.35843,"is_reserved":false,"is_disabled":false,"rental_uris":{"android":"levelo://app?vid=b2fa1401-2d52-4863-82e0-708505f297ae","ios":"levelo://app?vid=b2fa1401-2d52-4863-82e0-708505f297ae"},"vehicle_type_id":"4","last_reported":1741039710,"current_range_meters":8400,"station_id":"ce4bhb12rcd13ifvqem0","pricing_plan_id":"cebpf4jnsgd1na2vs0mg"},{"bike_id":"d7ce44cc-3af2-4647-93ca-8a6f7b44c256","system_id":"levelo_inurba_marseille","lat":43.32793,"lon":5.39146,"is_reserved":false,"is_disabled":false,"rental_uris":{"android":"levelo://app?vid=d7ce44cc-3af2-4647-93ca-8a6f7b44c256","ios":"levelo://app?vid=d7ce44cc-3af2-4647-93ca-8a6f7b44c256"},"vehicle_type_id":"4","last_reported":1741039710,"current_range_meters":8400,"station_id":"","pricing_plan_id":"cebpf4jnsgd1na2vs0mg"},{"bike_id":"76d154d9-de45-47c4-aa4e-ebc4dd631146","system_id":"levelo_inurba_marseille","lat":43.29256,"lon":5.37614,"is_reserved":false,"is_disabled":false,"rental_uris":{"android":"levelo://app?vid=76d154d9-de45-47c4-aa4e-ebc4dd631146","ios":"levelo://app?vid=76d154d9-de45-47c4-aa4e-ebc4dd631146"},"vehicle_type_id":"4","last_reported":1741039710,"current_range_meters":8400,"station_id":"ce4bgi12rcd13ifvqb80","pricing_plan_id":"cebpf4jnsgd1na2vs0mg"},{"bike_id":"f17ea63a-db17-447a-a811-21a7bc82155d","system_id":"levelo_inurba_marseille","lat":43.29264,"lon":5.37619,"is_reserved":false,"is_disabled":false,"rental_uris":{"android":"levelo://app?vid=f17ea63a-db17-447a-a811-21a7bc82155d","ios":"levelo://app?vid=f17ea63a-db17-447a-a811-21a7bc82155d"},"vehicle_type_id":"4","last_reported":1741039710,"current_range_meters":8400,"station_id":"ce4bgi12rcd13ifvqb80","pricing_plan_id":"cebpf4jnsgd1na2vs0mg"},{"bike_id":"69539ccb-ca63-4555-bd43-968ddad5c3c6","system_id":"levelo_inurba_marseille","lat":43.25022,"lon":5.38904,"is_reserved":false,"is_disabled":false,"rental_uris":{"android":"levelo://app?vid=69539ccb-ca63-4555-bd43-968ddad5c3c6","ios":"levelo://app?vid=69539ccb-ca63-4555-bd43-968ddad5c3c6"},"vehicle_type_id":"4","last_reported":1741039710,"current_range_meters":8400,"station_id":"ce4bhgp2rcd13ifvqfd0","pricing_plan_id":"cebpf4jnsgd1na2vs0mg"},{"bike_id":"b240d511-138a-48c0-af7a-005b95321099","system_id":"levelo_inurba_marseille","lat":43.27921,"lon":5.39582,"is_reserved":false,"is_disabled":false,"rental_uris":{"android":"levelo://app?vid=b240d511-138a-48c0-af7a-005b95321099","ios":"levelo://app?vid=b240d511-138a-48c0-af7a-005b95321099"},"vehicle_type_id":"4","last_reported":1741039710,"current_range_meters":8800,"station_id":"ce4bhf92rcd13ifvqf40","pricing_plan_id":"cebpf4jnsgd1na2vs0mg"},{"bike_id":"8853f3b9-20a3-4480-9c1d-81721e27d9f9","system_id":"levelo_inurba_marseille","lat":43.26056,"lon":5.39407,"is_reserved":false,"is_disabled":false,"rental_uris":{"android":"levelo://app?vid=8853f3b9-20a3-4480-9c1d-81721e27d9f9","ios":"levelo://app?vid=8853f3b9-20a3-4480-9c1d-81721e27d9f9"},"vehicle_type_id":"4","last_reported":1741039710,"current_range_meters":8800,"station_id":"ce4bhh92rcd13ifvqfj0","pricing_plan_id":"cebpf4jnsgd1na2vs0mg"},{"bike_id":"8b908584-d68b-46d3-bb03-c3e743578435","system_id":"levelo_inurba_marseille","lat":43.284,"lon":5.37526,"is_reserved":false,"is_disabled":false,"rental_uris":{"android":"levelo://app?vid=8b908584-d68b-46d3-bb03-c3e743578435","ios":"levelo://app?vid=8b908584-d68b-46d3-bb03-c3e743578435"},"vehicle_type_id":"4","last_reported":1741039710,"current_range_meters":8800,"station_id":"ce4bh412rcd13ifvqds0","pricing_plan_id":"cebpf4jnsgd1na2vs0mg"},{"bike_id":"b21e25bd-5fe3-4b4c-9515-724946c2cde8","system_id":"levelo_inurba_marseille","lat":43.28469,"lon":5.35874,"is_reserved":false,"is_disabled":false,"rental_uris":{"android":"levelo://app?vid=b21e25bd-5fe3-4b4c-9515-724946c2cde8","ios":"levelo://app?vid=b21e25bd-5fe3-4b4c-9515-724946c2cde8"},"vehicle_type_id":"4","last_reported":1741039710,"current_range_meters":8800,"station_id":"ce4bhah2rcd13ifvqei0","pricing_plan_id":"cebpf4jnsgd1na2vs0mg"},{"bike_id":"8ade5181-cd88-4ece-8534-46a6372826ef","system_id":"levelo_inurba_marseille","lat":43.27698,"lon":5.41546,"is_reserved":false,"is_disabled":false,"rental_uris":{"android":"levelo://app?vid=8ade5181-cd88-4ece-8534-46a6372826ef","ios":"levelo://app?vid=8ade5181-cd88-4ece-8534-46a6372826ef"},"vehicle_type_id":"4","last_reported":1741039710,"current_range_meters":8800,"station_id":"","pricing_plan_id":"cebpf4jnsgd1na2vs0mg"},{"bike_id":"2353c1f8-5019-4228-8ea1-65b8a96eed88","system_id":"levelo_inurba_marseille","lat":43.28621,"lon":5.35099,"is_reserved":false,"is_disabled":false,"rental_uris":{"android":"levelo://app?vid=2353c1f8-5019-4228-8ea1-65b8a96eed88","ios":"levelo://app?vid=2353c1f8-5019-4228-8ea1-65b8a96eed88"},"vehicle_type_id":"4","last_reported":1741039710,"current_range_meters":8800,"station_id":"ce4bhch2rcd13ifvqeug","pricing_plan_id":"cebpf4jnsgd1na2vs0mg"},{"bike_id":"6d4c1863-5b62-4c5a-885f-92e7721e779d","system_id":"levelo_inurba_marseille","lat":43.28465,"lon":5.35879,"is_reserved":false,"is_disabled":false,"rental_uris":{"android":"levelo://app?vid=6d4c1863-5b62-4c5a-885f-92e7721e779d","ios":"levelo://app?vid=6d4c1863-5b62-4c5a-885f-92e7721e779d"},"vehicle_type_id":"4","last_reported":1741039710,"current_range_meters":8800,"station_id":"ce4bhah2rcd13ifvqei0","pricing_plan_id":"cebpf4jnsgd1na2vs0mg"},{"bike_id":"31b2184d-2679-404d-b959-56eaf43114d2","system_id":"levelo_inurba_marseille","lat":43.26221,"lon":5.40453,"is_reserved":false,"is_disabled":false,"rental_uris":{"android":"levelo://app?vid=31b2184d-2679-404d-b959-56eaf43114d2","ios":"levelo://app?vid=31b2184d-2679-404d-b959-56eaf43114d2"},"vehicle_type_id":"4","last_reported":1741039710,"current_range_meters":8800,"station_id":"ce4bhmh2rcd13ifvqgmg","pricing_plan_id":"cebpf4jnsgd1na2vs0mg"},{"bike_id":"8445baf1-babd-45fd-bde0-38bf964b444c","system_id":"levelo_inurba_marseille","lat":43.31167,"lon":5.38722,"is_reserved":false,"is_disabled":false,"rental_uris":{"android":"levelo://app?vid=8445baf1-babd-45fd-bde0-38bf964b444c","ios":"levelo://app?vid=8445baf1-babd-45fd-bde0-38bf964b444c"},"vehicle_type_id":"4","last_reported":1741039710,"current_range_meters":8800,"station_id":"ce4bgv12rcd13ifvqcp0","pricing_plan_id":"cebpf4jnsgd1na2vs0mg"},{"bike_id":"c55f943c-a1f5-4b2f-86d0-ef3cfa5b4d57","system_id":"levelo_inurba_marseille","lat":43.25118,"lon":5.40318,"is_reserved":false,"is_disabled":false,"rental_uris":{"android":"levelo://app?vid=c55f943c-a1f5-4b2f-86d0-ef3cfa5b4d57","ios":"levelo://app?vid=c55f943c-a1f5-4b2f-86d0-ef3cfa5b4d57"},"vehicle_type_id":"4","last_reported":1741039710,"current_range_meters":8800,"station_id":"ce4bhlh2rcd13ifvqgig","pricing_plan_id":"cebpf4jnsgd1na2vs0mg"},{"bike_id":"e41e0bb8-6c1c-4ce2-b18d-069e130ca183","system_id":"levelo_inurba_marseille","lat":43.23061,"lon":5.35505,"is_reserved":false,"is_disabled":false,"rental_uris":{"android":"levelo://app?vid=e41e0bb8-6c1c-4ce2-b18d-069e130ca183","ios":"levelo://app?vid=e41e0bb8-6c1c-4ce2-b18d-069e130ca183"},"vehicle_type_id":"4","last_reported":1741039710,"current_range_meters":8800,"station_id":"cpo3342slgdg3j2ifvpg","pricing_plan_id":"cebpf4jnsgd1na2vs0mg"},{"bike_id":"e5af46d8-756e-4b29-887f-202b12c3baa0","system_id":"levelo_inurba_marseille","lat":43.30418,"lon":5.41272,"is_reserved":false,"is_disabled":false,"rental_uris":{"android":"levelo://app?vid=e5af46d8-756e-4b29-887f-202b12c3baa0","ios":"levelo://app?vid=e5af46d8-756e-4b29-887f-202b12c3baa0"},"vehicle_type_id":"4","last_reported":1741039710,"current_range_meters":8800,"station_id":"ce4bhop2rcd13ifvqh8g","pricing_plan_id":"cebpf4jnsgd1na2vs0mg"},{"bike_id":"c8c30254-af6a-4a88-b0b6-9a3a52022bea","system_id":"levelo_inurba_marseille","lat":43.32444,"lon":5.42664,"is_reserved":false,"is_disabled":false,"rental_uris":{"android":"levelo://app?vid=c8c30254-af6a-4a88-b0b6-9a3a52022bea","ios":"levelo://app?vid=c8c30254-af6a-4a88-b0b6-9a3a52022bea"},"vehicle_type_id":"4","last_reported":1741039710,"current_range_meters":9200,"station_id":"","pricing_plan_id":"cebpf4jnsgd1na2vs0mg"},{"bike_id":"5b69c928-069c-4522-8a93-8676e4f351de","system_id":"levelo_inurba_marseille","lat":43.28458,"lon":5.35891,"is_reserved":false,"is_disabled":false,"rental_uris":{"android":"levelo://app?vid=5b69c928-069c-4522-8a93-8676e4f351de","ios":"levelo://app?vid=5b69c928-069c-4522-8a93-8676e4f351de"},"vehicle_type_id":"4","last_reported":1741039710,"current_range_meters":9200,"station_id":"ce4bhah2rcd13ifvqei0","pricing_plan_id":"cebpf4jnsgd1na2vs0mg"},{"bike_id":"1a8af668-2d08-4b2d-a918-6d19270993f1","system_id":"levelo_inurba_marseille","lat":43.30879,"lon":5.39651,"is_reserved":false,"is_disabled":false,"rental_uris":{"android":"levelo://app?vid=1a8af668-2d08-4b2d-a918-6d19270993f1","ios":"levelo://app?vid=1a8af668-2d08-4b2d-a918-6d19270993f1"},"vehicle_type_id":"4","last_reported":1741039710,"current_range_meters":9200,"station_id":"ce4bh012rcd13ifvqcv0","pricing_plan_id":"cebpf4jnsgd1na2vs0mg"},{"bike_id":"06deaff6-987d-40fe-82cf-07c3d33866d6","system_id":"levelo_inurba_marseille","lat":43.28678,"lon":5.38649,"is_reserved":false,"is_disabled":false,"rental_uris":{"android":"levelo://app?vid=06deaff6-987d-40fe-82cf-07c3d33866d6","ios":"levelo://app?vid=06deaff6-987d-40fe-82cf-07c3d33866d6"},"vehicle_type_id":"4","last_reported":1741039710,"current_range_meters":9200,"station_id":"ce4bh492rcd13ifvqdug","pricing_plan_id":"cebpf4jnsgd1na2vs0mg"},{"bike_id":"ce8ef3d2-07e3-4512-8813-bcde53a01429","system_id":"levelo_inurba_marseille","lat":43.24178,"lon":5.36389,"is_reserved":false,"is_disabled":false,"rental_uris":{"android":"levelo://app?vid=ce8ef3d2-07e3-4512-8813-bcde53a01429","ios":"levelo://app?vid=ce8ef3d2-07e3-4512-8813-bcde53a01429"},"vehicle_type_id":"4","last_reported":1741039710,"current_range_meters":9200,"station_id":"cpo36qri1sfpv3e86is0","pricing_plan_id":"cebpf4jnsgd1na2vs0mg"},{"bike_id":"8a926c1c-bce9-43a8-b444-8cbd0ddeca91","system_id":"levelo_inurba_marseille","lat":43.337444,"lon":5.374475,"is_reserved":false,"is_disabled":true,"rental_uris":{"android":"levelo://app?vid=8a926c1c-bce9-43a8-b444-8cbd0ddeca91","ios":"levelo://app?vid=8a926c1c-bce9-43a8-b444-8cbd0ddeca91"},"vehicle_type_id":"4","last_reported":1741039710,"current_range_meters":9200,"station_id":"","pricing_plan_id":"cebpf4jnsgd1na2vs0mg"},{"bike_id":"48d33537-7de8-4746-9396-b1f5f4e83f13","system_id":"levelo_inurba_marseille","lat":43.24074,"lon":5.37759,"is_reserved":false,"is_disabled":false,"rental_uris":{"android":"levelo://app?vid=48d33537-7de8-4746-9396-b1f5f4e83f13","ios":"levelo://app?vid=48d33537-7de8-4746-9396-b1f5f4e83f13"},"vehicle_type_id":"4","last_reported":1741039710,"current_range_meters":9200,"station_id":"ce4bhnp2rcd13ifvqgvg","pricing_plan_id":"cebpf4jnsgd1na2vs0mg"},{"bike_id":"fcc1e2d7-d27d-4efa-925e-da5eb0b689fc","system_id":"levelo_inurba_marseille","lat":43.28105,"lon":5.37836,"is_reserved":false,"is_disabled":false,"rental_uris":{"android":"levelo://app?vid=fcc1e2d7-d27d-4efa-925e-da5eb0b689fc","ios":"levelo://app?vid=fcc1e2d7-d27d-4efa-925e-da5eb0b689fc"},"vehicle_type_id":"4","last_reported":1741039710,"current_range_meters":9200,"station_id":"ce4bha12rcd13ifvqee0","pricing_plan_id":"cebpf4jnsgd1na2vs0mg"},{"bike_id":"ffd5fa35-92ec-4cc7-9a87-e8633ad3e1d2","system_id":"levelo_inurba_marseille","lat":43.27819,"lon":5.40724,"is_reserved":false,"is_disabled":false,"rental_uris":{"android":"levelo://app?vid=ffd5fa35-92ec-4cc7-9a87-e8633ad3e1d2","ios":"levelo://app?vid=ffd5fa35-92ec-4cc7-9a87-e8633ad3e1d2"},"vehicle_type_id":"4","last_reported":1741039710,"current_range_meters":9200,"station_id":"ce4bhnh2rcd13ifvqgtg","pricing_plan_id":"cebpf4jnsgd1na2vs0mg"},{"bike_id":"4586ca83-2f5e-4b63-b2a9-29ed75f9f1db","system_id":"levelo_inurba_marseille","lat":43.28719,"lon":5.36101,"is_reserved":false,"is_disabled":false,"rental_uris":{"android":"levelo://app?vid=4586ca83-2f5e-4b63-b2a9-29ed75f9f1db","ios":"levelo://app?vid=4586ca83-2f5e-4b63-b2a9-29ed75f9f1db"},"vehicle_type_id":"4","last_reported":1741039710,"current_range_meters":9200,"station_id":"cki0cbj6b192h4jlfktg","pricing_plan_id":"cebpf4jnsgd1na2vs0mg"},{"bike_id":"30d075e9-20e1-4621-94dc-4318e577ce39","system_id":"levelo_inurba_marseille","lat":43.3011,"lon":5.39884,"is_reserved":false,"is_disabled":false,"rental_uris":{"android":"levelo://app?vid=30d075e9-20e1-4621-94dc-4318e577ce39","ios":"levelo://app?vid=30d075e9-20e1-4621-94dc-4318e577ce39"},"vehicle_type_id":"4","last_reported":1741039710,"current_range_meters":9200,"station_id":"ce4bh0h2rcd13ifvqd40","pricing_plan_id":"cebpf4jnsgd1na2vs0mg"},{"bike_id":"ca5480bb-53a6-4ee4-a068-0e6478df7749","system_id":"levelo_inurba_marseille","lat":43.28018,"lon":5.41639,"is_reserved":false,"is_disabled":false,"rental_uris":{"android":"levelo://app?vid=ca5480bb-53a6-4ee4-a068-0e6478df7749","ios":"levelo://app?vid=ca5480bb-53a6-4ee4-a068-0e6478df7749"},"vehicle_type_id":"4","last_reported":1741039710,"current_range_meters":9200,"station_id":"ce4bho12rcd13ifvqh1g","pricing_plan_id":"cebpf4jnsgd1na2vs0mg"},{"bike_id":"b53e751e-c2f6-4da9-aba0-fe23543b117d","system_id":"levelo_inurba_marseille","lat":43.28081,"lon":5.39659,"is_reserved":false,"is_disabled":false,"rental_uris":{"android":"levelo://app?vid=b53e751e-c2f6-4da9-aba0-fe23543b117d","ios":"levelo://app?vid=b53e751e-c2f6-4da9-aba0-fe23543b117d"},"vehicle_type_id":"4","last_reported":1741039710,"current_range_meters":9200,"station_id":"ce4bho12rcd13ifvqh2g","pricing_plan_id":"cebpf4jnsgd1na2vs0mg"},{"bike_id":"c67d6682-cdfe-41bb-b50f-b3a087ff2cad","system_id":"levelo_inurba_marseille","lat":43.31224,"lon":5.36863,"is_reserved":false,"is_disabled":false,"rental_uris":{"android":"levelo://app?vid=c67d6682-cdfe-41bb-b50f-b3a087ff2cad","ios":"levelo://app?vid=c67d6682-cdfe-41bb-b50f-b3a087ff2cad"},"vehicle_type_id":"4","last_reported":1741039710,"current_range_meters":9600,"station_id":"ce4bgl92rcd13ifvqbq0","pricing_plan_id":"cebpf4jnsgd1na2vs0mg"},{"bike_id":"a195e6bc-b894-442a-bea7-6f9808515ae7","system_id":"levelo_inurba_marseille","lat":43.30862,"lon":5.39646,"is_reserved":false,"is_disabled":false,"rental_uris":{"android":"levelo://app?vid=a195e6bc-b894-442a-bea7-6f9808515ae7","ios":"levelo://app?vid=a195e6bc-b894-442a-bea7-6f9808515ae7"},"vehicle_type_id":"4","last_reported":1741039710,"current_range_meters":9200,"station_id":"ce4bh012rcd13ifvqcv0","pricing_plan_id":"cebpf4jnsgd1na2vs0mg"},{"bike_id":"5f6058f8-17d6-41f9-bf21-73aab62a2071","system_id":"levelo_inurba_marseille","lat":43.25823,"lon":5.39431,"is_reserved":false,"is_disabled":false,"rental_uris":{"android":"levelo://app?vid=5f6058f8-17d6-41f9-bf21-73aab62a2071","ios":"levelo://app?vid=5f6058f8-17d6-41f9-bf21-73aab62a2071"},"vehicle_type_id":"4","last_reported":1741039710,"current_range_meters":9600,"station_id":"ce4bhip2rcd13ifvqft0","pricing_plan_id":"cebpf4jnsgd1na2vs0mg"},{"bike_id":"e1993c30-bf76-4bdd-b6e8-6751d5d1e137","system_id":"levelo_inurba_marseille","lat":43.28561,"lon":5.39495,"is_reserved":false,"is_disabled":false,"rental_uris":{"android":"levelo://app?vid=e1993c30-bf76-4bdd-b6e8-6751d5d1e137","ios":"levelo://app?vid=e1993c30-bf76-4bdd-b6e8-6751d5d1e137"},"vehicle_type_id":"4","last_reported":1741039710,"current_range_meters":9600,"station_id":"ce4bh292rcd13ifvqdg0","pricing_plan_id":"cebpf4jnsgd1na2vs0mg"},{"bike_id":"71cd5d9d-c4a9-4d7f-b25c-bd7ceef0b27e","system_id":"levelo_inurba_marseille","lat":43.31255,"lon":5.37757,"is_reserved":false,"is_disabled":false,"rental_uris":{"android":"levelo://app?vid=71cd5d9d-c4a9-4d7f-b25c-bd7ceef0b27e","ios":"levelo://app?vid=71cd5d9d-c4a9-4d7f-b25c-bd7ceef0b27e"},"vehicle_type_id":"4","last_reported":1741039710,"current_range_meters":9600,"station_id":"","pricing_plan_id":"cebpf4jnsgd1na2vs0mg"},{"bike_id":"7b15edc4-4095-4874-a928-e0acde3c0feb","system_id":"levelo_inurba_marseille","lat":43.30294,"lon":5.36874,"is_reserved":false,"is_disabled":false,"rental_uris":{"android":"levelo://app?vid=7b15edc4-4095-4874-a928-e0acde3c0feb","ios":"levelo://app?vid=7b15edc4-4095-4874-a928-e0acde3c0feb"},"vehicle_type_id":"4","last_reported":1741039710,"current_range_meters":9600,"station_id":"ce4bgqh2rcd13ifvqc5g","pricing_plan_id":"cebpf4jnsgd1na2vs0mg"},{"bike_id":"07f56688-c23f-4b0c-8af0-19bac8f9d72c","system_id":"levelo_inurba_marseille","lat":43.262,"lon":5.37926,"is_reserved":false,"is_disabled":false,"rental_uris":{"android":"levelo://app?vid=07f56688-c23f-4b0c-8af0-19bac8f9d72c","ios":"levelo://app?vid=07f56688-c23f-4b0c-8af0-19bac8f9d72c"},"vehicle_type_id":"4","last_reported":1741039710,"current_range_meters":9600,"station_id":"ce4bhjp2rcd13ifvqg90","pricing_plan_id":"cebpf4jnsgd1na2vs0mg"},{"bike_id":"66f40a1c-7781-4ebb-9051-0263d44179e7","system_id":"levelo_inurba_marseille","lat":43.28724,"lon":5.36086,"is_reserved":false,"is_disabled":false,"rental_uris":{"android":"levelo://app?vid=66f40a1c-7781-4ebb-9051-0263d44179e7","ios":"levelo://app?vid=66f40a1c-7781-4ebb-9051-0263d44179e7"},"vehicle_type_id":"4","last_reported":1741039710,"current_range_meters":9600,"station_id":"cki0cbj6b192h4jlfktg","pricing_plan_id":"cebpf4jnsgd1na2vs0mg"},{"bike_id":"f3cd6fd4-60b1-4d0a-8ba2-ff80b7f418e3","system_id":"levelo_inurba_marseille","lat":43.31163,"lon":5.38724,"is_reserved":false,"is_disabled":false,"rental_uris":{"android":"levelo://app?vid=f3cd6fd4-60b1-4d0a-8ba2-ff80b7f418e3","ios":"levelo://app?vid=f3cd6fd4-60b1-4d0a-8ba2-ff80b7f418e3"},"vehicle_type_id":"4","last_reported":1741039710,"current_range_meters":9600,"station_id":"ce4bgv12rcd13ifvqcp0","pricing_plan_id":"cebpf4jnsgd1na2vs0mg"},{"bike_id":"ee26afb6-ba4c-4dc4-8464-b764cc25857b","system_id":"levelo_inurba_marseille","lat":43.2799,"lon":5.41044,"is_reserved":false,"is_disabled":false,"rental_uris":{"android":"levelo://app?vid=ee26afb6-ba4c-4dc4-8464-b764cc25857b","ios":"levelo://app?vid=ee26afb6-ba4c-4dc4-8464-b764cc25857b"},"vehicle_type_id":"4","last_reported":1741039710,"current_range_meters":9600,"station_id":"ce4bhnp2rcd13ifvqh0g","pricing_plan_id":"cebpf4jnsgd1na2vs0mg"},{"bike_id":"9de31664-78c8-4270-8903-4906d276beb2","system_id":"levelo_inurba_marseille","lat":43.28084,"lon":5.39666,"is_reserved":false,"is_disabled":false,"rental_uris":{"android":"levelo://app?vid=9de31664-78c8-4270-8903-4906d276beb2","ios":"levelo://app?vid=9de31664-78c8-4270-8903-4906d276beb2"},"vehicle_type_id":"4","last_reported":1741039710,"current_range_meters":9600,"station_id":"ce4bho12rcd13ifvqh2g","pricing_plan_id":"cebpf4jnsgd1na2vs0mg"},{"bike_id":"20f28f92-adf9-48e3-a33b-83ded65127c5","system_id":"levelo_inurba_marseille","lat":43.23071,"lon":5.35471,"is_reserved":false,"is_disabled":false,"rental_uris":{"android":"levelo://app?vid=20f28f92-adf9-48e3-a33b-83ded65127c5","ios":"levelo://app?vid=20f28f92-adf9-48e3-a33b-83ded65127c5"},"vehicle_type_id":"4","last_reported":1741039710,"current_range_meters":9600,"station_id":"cpo3342slgdg3j2ifvpg","pricing_plan_id":"cebpf4jnsgd1na2vs0mg"},{"bike_id":"604464c5-97b1-4246-ba0d-281a359fb88c","system_id":"levelo_inurba_marseille","lat":43.28571,"lon":5.39493,"is_reserved":false,"is_disabled":false,"rental_uris":{"android":"levelo://app?vid=604464c5-97b1-4246-ba0d-281a359fb88c","ios":"levelo://app?vid=604464c5-97b1-4246-ba0d-281a359fb88c"},"vehicle_type_id":"4","last_reported":1741039710,"current_range_meters":9600,"station_id":"ce4bh292rcd13ifvqdg0","pricing_plan_id":"cebpf4jnsgd1na2vs0mg"},{"bike_id":"dd1f8279-3140-4cc7-9d4f-2981bc73d236","system_id":"levelo_inurba_marseille","lat":43.32335,"lon":5.40628,"is_reserved":false,"is_disabled":false,"rental_uris":{"android":"levelo://app?vid=dd1f8279-3140-4cc7-9d4f-2981bc73d236","ios":"levelo://app?vid=dd1f8279-3140-4cc7-9d4f-2981bc73d236"},"vehicle_type_id":"4","last_reported":1741039710,"current_range_meters":10000,"station_id":"ce4bhq92rcd13ifvqhjg","pricing_plan_id":"cebpf4jnsgd1na2vs0mg"},{"bike_id":"f71f9016-cd7a-4d2f-a244-6b67297b159e","system_id":"levelo_inurba_marseille","lat":43.279046,"lon":5.416719,"is_reserved":false,"is_disabled":false,"rental_uris":{"android":"levelo://app?vid=f71f9016-cd7a-4d2f-a244-6b67297b159e","ios":"levelo://app?vid=f71f9016-cd7a-4d2f-a244-6b67297b159e"},"vehicle_type_id":"4","last_reported":1741039710,"current_range_meters":10000,"station_id":"","pricing_plan_id":"cebpf4jnsgd1na2vs0mg"},{"bike_id":"1901130a-ffd5-42a0-b994-e2aa42548e35","system_id":"levelo_inurba_marseille","lat":43.26125,"lon":5.4147,"is_reserved":false,"is_disabled":false,"rental_uris":{"android":"levelo://app?vid=1901130a-ffd5-42a0-b994-e2aa42548e35","ios":"levelo://app?vid=1901130a-ffd5-42a0-b994-e2aa42548e35"},"vehicle_type_id":"4","last_reported":1741039710,"current_range_meters":10000,"station_id":"","pricing_plan_id":"cebpf4jnsgd1na2vs0mg"},{"bike_id":"853e9f93-6f18-4242-b269-d87025e7bb93","system_id":"levelo_inurba_marseille","lat":43.30743,"lon":5.37123,"is_reserved":false,"is_disabled":false,"rental_uris":{"android":"levelo://app?vid=853e9f93-6f18-4242-b269-d87025e7bb93","ios":"levelo://app?vid=853e9f93-6f18-4242-b269-d87025e7bb93"},"vehicle_type_id":"4","last_reported":1741039710,"current_range_meters":10000,"station_id":"","pricing_plan_id":"cebpf4jnsgd1na2vs0mg"},{"bike_id":"b9314492-a56a-4787-bda8-bd2f48e84ce6","system_id":"levelo_inurba_marseille","lat":43.26233,"lon":5.40447,"is_reserved":false,"is_disabled":false,"rental_uris":{"android":"levelo://app?vid=b9314492-a56a-4787-bda8-bd2f48e84ce6","ios":"levelo://app?vid=b9314492-a56a-4787-bda8-bd2f48e84ce6"},"vehicle_type_id":"4","last_reported":1741039710,"current_range_meters":10000,"station_id":"ce4bhmh2rcd13ifvqgmg","pricing_plan_id":"cebpf4jnsgd1na2vs0mg"},{"bike_id":"caedf473-9313-4874-87c8-230b4a1efdb8","system_id":"levelo_inurba_marseille","lat":43.32484,"lon":5.36571,"is_reserved":false,"is_disabled":false,"rental_uris":{"android":"levelo://app?vid=caedf473-9313-4874-87c8-230b4a1efdb8","ios":"levelo://app?vid=caedf473-9313-4874-87c8-230b4a1efdb8"},"vehicle_type_id":"4","last_reported":1741039710,"current_range_meters":10000,"station_id":"ce4bhs12rcd13ifvqhvg","pricing_plan_id":"cebpf4jnsgd1na2vs0mg"},{"bike_id":"39ce79f8-ba13-4405-b1fe-aba1cf664dd4","system_id":"levelo_inurba_marseille","lat":43.28002,"lon":5.4166,"is_reserved":false,"is_disabled":false,"rental_uris":{"android":"levelo://app?vid=39ce79f8-ba13-4405-b1fe-aba1cf664dd4","ios":"levelo://app?vid=39ce79f8-ba13-4405-b1fe-aba1cf664dd4"},"vehicle_type_id":"4","last_reported":1741039710,"current_range_meters":10000,"station_id":"ce4bho12rcd13ifvqh1g","pricing_plan_id":"cebpf4jnsgd1na2vs0mg"},{"bike_id":"92a13695-a31a-4c3d-ab13-a6feccfe10f8","system_id":"levelo_inurba_marseille","lat":43.29166,"lon":5.37155,"is_reserved":false,"is_disabled":false,"rental_uris":{"android":"levelo://app?vid=92a13695-a31a-4c3d-ab13-a6feccfe10f8","ios":"levelo://app?vid=92a13695-a31a-4c3d-ab13-a6feccfe10f8"},"vehicle_type_id":"4","last_reported":1741039710,"current_range_meters":11200,"station_id":"ce4bha92rcd13ifvqeh0","pricing_plan_id":"cebpf4jnsgd1na2vs0mg"},{"bike_id":"64953142-7637-42b4-b0d1-c449e63f1db7","system_id":"levelo_inurba_marseille","lat":43.29634,"lon":5.36021,"is_reserved":false,"is_disabled":false,"rental_uris":{"android":"levelo://app?vid=64953142-7637-42b4-b0d1-c449e63f1db7","ios":"levelo://app?vid=64953142-7637-42b4-b0d1-c449e63f1db7"},"vehicle_type_id":"4","last_reported":1741039710,"current_range_meters":10000,"station_id":"","pricing_plan_id":"cebpf4jnsgd1na2vs0mg"},{"bike_id":"0e0a04c4-3d57-4505-9ff3-f1acd8b4030a","system_id":"levelo_inurba_marseille","lat":43.29904,"lon":5.43646,"is_reserved":false,"is_disabled":false,"rental_uris":{"android":"levelo://app?vid=0e0a04c4-3d57-4505-9ff3-f1acd8b4030a","ios":"levelo://app?vid=0e0a04c4-3d57-4505-9ff3-f1acd8b4030a"},"vehicle_type_id":"4","last_reported":1741039710,"current_range_meters":10800,"station_id":"ce4bhpp2rcd13ifvqhfg","pricing_plan_id":"cebpf4jnsgd1na2vs0mg"},{"bike_id":"bba5c829-32fe-4a1d-9461-a852d59caa6b","system_id":"levelo_inurba_marseille","lat":43.28858,"lon":5.393155,"is_reserved":false,"is_disabled":true,"rental_uris":{"android":"levelo://app?vid=bba5c829-32fe-4a1d-9461-a852d59caa6b","ios":"levelo://app?vid=bba5c829-32fe-4a1d-9461-a852d59caa6b"},"vehicle_type_id":"4","last_reported":1741039710,"current_range_meters":10000,"station_id":"ce4bh2p2rcd13ifvqdi0","pricing_plan_id":"cebpf4jnsgd1na2vs0mg"},{"bike_id":"2ed2e3e7-e95c-4cb5-a2ea-92715e7ed6d7","system_id":"levelo_inurba_marseille","lat":43.28346,"lon":5.38107,"is_reserved":false,"is_disabled":false,"rental_uris":{"android":"levelo://app?vid=2ed2e3e7-e95c-4cb5-a2ea-92715e7ed6d7","ios":"levelo://app?vid=2ed2e3e7-e95c-4cb5-a2ea-92715e7ed6d7"},"vehicle_type_id":"4","last_reported":1741039710,"current_range_meters":10800,"station_id":"ce4bh412rcd13ifvqdr0","pricing_plan_id":"cebpf4jnsgd1na2vs0mg"},{"bike_id":"89888c26-0775-4ff1-b548-343455608575","system_id":"levelo_inurba_marseille","lat":43.30541,"lon":5.38433,"is_reserved":false,"is_disabled":false,"rental_uris":{"android":"levelo://app?vid=89888c26-0775-4ff1-b548-343455608575","ios":"levelo://app?vid=89888c26-0775-4ff1-b548-343455608575"},"vehicle_type_id":"4","last_reported":1741039710,"current_range_meters":8400,"station_id":"ce4bgg92rcd13ifvqb30","pricing_plan_id":"cebpf4jnsgd1na2vs0mg"},{"bike_id":"442e17cf-9700-477c-a555-09fc8cf0081c","system_id":"levelo_inurba_marseille","lat":43.28449,"lon":5.3589,"is_reserved":false,"is_disabled":false,"rental_uris":{"android":"levelo://app?vid=442e17cf-9700-477c-a555-09fc8cf0081c","ios":"levelo://app?vid=442e17cf-9700-477c-a555-09fc8cf0081c"},"vehicle_type_id":"4","last_reported":1741039710,"current_range_meters":10800,"station_id":"ce4bhah2rcd13ifvqei0","pricing_plan_id":"cebpf4jnsgd1na2vs0mg"},{"bike_id":"6f575320-0666-41e9-bdb0-fc8dacfb507e","system_id":"levelo_inurba_marseille","lat":43.296943,"lon":5.366102,"is_reserved":false,"is_disabled":false,"rental_uris":{"android":"levelo://app?vid=6f575320-0666-41e9-bdb0-fc8dacfb507e","ios":"levelo://app?vid=6f575320-0666-41e9-bdb0-fc8dacfb507e"},"vehicle_type_id":"4","last_reported":1741039710,"current_range_meters":10800,"station_id":"ce4bgn12rcd13ifvqbt0","pricing_plan_id":"cebpf4jnsgd1na2vs0mg"},{"bike_id":"a18fece4-236b-4528-b0b9-389d2006a2ed","system_id":"levelo_inurba_marseille","lat":43.29403,"lon":5.40288,"is_reserved":false,"is_disabled":false,"rental_uris":{"android":"levelo://app?vid=a18fece4-236b-4528-b0b9-389d2006a2ed","ios":"levelo://app?vid=a18fece4-236b-4528-b0b9-389d2006a2ed"},"vehicle_type_id":"4","last_reported":1741039710,"current_range_meters":10800,"station_id":"","pricing_plan_id":"cebpf4jnsgd1na2vs0mg"},{"bike_id":"7c309f39-c40e-43c0-ba34-e6d9dc8bea4d","system_id":"levelo_inurba_marseille","lat":43.23961,"lon":5.36647,"is_reserved":false,"is_disabled":false,"rental_uris":{"android":"levelo://app?vid=7c309f39-c40e-43c0-ba34-e6d9dc8bea4d","ios":"levelo://app?vid=7c309f39-c40e-43c0-ba34-e6d9dc8bea4d"},"vehicle_type_id":"4","last_reported":1741039710,"current_range_meters":10800,"station_id":"ce4bhi12rcd13ifvqfp0","pricing_plan_id":"cebpf4jnsgd1na2vs0mg"},{"bike_id":"901934c1-859a-461c-ba7e-3af826871fe8","system_id":"levelo_inurba_marseille","lat":43.27494,"lon":5.42448,"is_reserved":false,"is_disabled":false,"rental_uris":{"android":"levelo://app?vid=901934c1-859a-461c-ba7e-3af826871fe8","ios":"levelo://app?vid=901934c1-859a-461c-ba7e-3af826871fe8"},"vehicle_type_id":"4","last_reported":1741039710,"current_range_meters":10800,"station_id":"ce4bhn92rcd13ifvqgrg","pricing_plan_id":"cebpf4jnsgd1na2vs0mg"},{"bike_id":"0753ec27-48d6-4162-a59d-54d599fb737c","system_id":"levelo_inurba_marseille","lat":43.23193,"lon":5.39989,"is_reserved":false,"is_disabled":false,"rental_uris":{"android":"levelo://app?vid=0753ec27-48d6-4162-a59d-54d599fb737c","ios":"levelo://app?vid=0753ec27-48d6-4162-a59d-54d599fb737c"},"vehicle_type_id":"4","last_reported":1741039710,"current_range_meters":10800,"station_id":"ce4bhn12rcd13ifvqgqg","pricing_plan_id":"cebpf4jnsgd1na2vs0mg"},{"bike_id":"41ed89d3-77cd-4311-8513-748a0ca63c4f","system_id":"levelo_inurba_marseille","lat":43.212435,"lon":5.353283,"is_reserved":false,"is_disabled":false,"rental_uris":{"android":"levelo://app?vid=41ed89d3-77cd-4311-8513-748a0ca63c4f","ios":"levelo://app?vid=41ed89d3-77cd-4311-8513-748a0ca63c4f"},"vehicle_type_id":"4","last_reported":1741039710,"current_range_meters":10800,"station_id":"","pricing_plan_id":"cebpf4jnsgd1na2vs0mg"},{"bike_id":"b8c5cd8d-ca3b-41d4-8f16-89bc4107002f","system_id":"levelo_inurba_marseille","lat":43.23955,"lon":5.36627,"is_reserved":false,"is_disabled":false,"rental_uris":{"android":"levelo://app?vid=b8c5cd8d-ca3b-41d4-8f16-89bc4107002f","ios":"levelo://app?vid=b8c5cd8d-ca3b-41d4-8f16-89bc4107002f"},"vehicle_type_id":"4","last_reported":1741039710,"current_range_meters":10800,"station_id":"ce4bhi12rcd13ifvqfp0","pricing_plan_id":"cebpf4jnsgd1na2vs0mg"},{"bike_id":"c9b6ebcc-7cc0-4609-bdd7-67eaaed88636","system_id":"levelo_inurba_marseille","lat":43.30424,"lon":5.39748,"is_reserved":false,"is_disabled":false,"rental_uris":{"android":"levelo://app?vid=c9b6ebcc-7cc0-4609-bdd7-67eaaed88636","ios":"levelo://app?vid=c9b6ebcc-7cc0-4609-bdd7-67eaaed88636"},"vehicle_type_id":"4","last_reported":1741039710,"current_range_meters":10800,"station_id":"ce4bh092rcd13ifvqd20","pricing_plan_id":"cebpf4jnsgd1na2vs0mg"},{"bike_id":"7145967b-9c34-4188-804f-c15fb0045d6f","system_id":"levelo_inurba_marseille","lat":43.28725,"lon":5.3609,"is_reserved":false,"is_disabled":false,"rental_uris":{"android":"levelo://app?vid=7145967b-9c34-4188-804f-c15fb0045d6f","ios":"levelo://app?vid=7145967b-9c34-4188-804f-c15fb0045d6f"},"vehicle_type_id":"4","last_reported":1741039710,"current_range_meters":10800,"station_id":"cki0cbj6b192h4jlfktg","pricing_plan_id":"cebpf4jnsgd1na2vs0mg"},{"bike_id":"83ed66f8-02e2-4018-b9ef-9016056fb6bc","system_id":"levelo_inurba_marseille","lat":43.245449,"lon":5.395263,"is_reserved":false,"is_disabled":false,"rental_uris":{"android":"levelo://app?vid=83ed66f8-02e2-4018-b9ef-9016056fb6bc","ios":"levelo://app?vid=83ed66f8-02e2-4018-b9ef-9016056fb6bc"},"vehicle_type_id":"4","last_reported":1741039710,"current_range_meters":10800,"station_id":"ce4bhlp2rcd13ifvqgjg","pricing_plan_id":"cebpf4jnsgd1na2vs0mg"},{"bike_id":"9a386038-9cc6-4b52-b406-e6a33e3dcf23","system_id":"levelo_inurba_marseille","lat":43.28462,"lon":5.35877,"is_reserved":false,"is_disabled":false,"rental_uris":{"android":"levelo://app?vid=9a386038-9cc6-4b52-b406-e6a33e3dcf23","ios":"levelo://app?vid=9a386038-9cc6-4b52-b406-e6a33e3dcf23"},"vehicle_type_id":"4","last_reported":1741039710,"current_range_meters":10800,"station_id":"ce4bhah2rcd13ifvqei0","pricing_plan_id":"cebpf4jnsgd1na2vs0mg"},{"bike_id":"362b2e41-0f7d-42ca-85b4-447baad17196","system_id":"levelo_inurba_marseille","lat":43.27203,"lon":5.41889,"is_reserved":false,"is_disabled":false,"rental_uris":{"android":"levelo://app?vid=362b2e41-0f7d-42ca-85b4-447baad17196","ios":"levelo://app?vid=362b2e41-0f7d-42ca-85b4-447baad17196"},"vehicle_type_id":"4","last_reported":1741039710,"current_range_meters":10800,"station_id":"","pricing_plan_id":"cebpf4jnsgd1na2vs0mg"},{"bike_id":"0b818497-4d97-451b-b637-cef3d02b5c9d","system_id":"levelo_inurba_marseille","lat":43.3172,"lon":5.43702,"is_reserved":false,"is_disabled":true,"rental_uris":{"android":"levelo://app?vid=0b818497-4d97-451b-b637-cef3d02b5c9d","ios":"levelo://app?vid=0b818497-4d97-451b-b637-cef3d02b5c9d"},"vehicle_type_id":"4","last_reported":1741039710,"current_range_meters":11200,"station_id":"ce4bhp92rcd13ifvqhcg","pricing_plan_id":"cebpf4jnsgd1na2vs0mg"},{"bike_id":"30968f85-f129-48d6-abc5-f71376c2c07d","system_id":"levelo_inurba_marseille","lat":43.23135,"lon":5.43696,"is_reserved":false,"is_disabled":false,"rental_uris":{"android":"levelo://app?vid=30968f85-f129-48d6-abc5-f71376c2c07d","ios":"levelo://app?vid=30968f85-f129-48d6-abc5-f71376c2c07d"},"vehicle_type_id":"4","last_reported":1741039710,"current_range_meters":11200,"station_id":"ce4bhmp2rcd13ifvqgog","pricing_plan_id":"cebpf4jnsgd1na2vs0mg"},{"bike_id":"9c9f0913-f60e-48c1-a059-193d8823879b","system_id":"levelo_inurba_marseille","lat":43.29179,"lon":5.39314,"is_reserved":false,"is_disabled":false,"rental_uris":{"android":"levelo://app?vid=9c9f0913-f60e-48c1-a059-193d8823879b","ios":"levelo://app?vid=9c9f0913-f60e-48c1-a059-193d8823879b"},"vehicle_type_id":"4","last_reported":1741039710,"current_range_meters":11200,"station_id":"ce4bh192rcd13ifvqdd0","pricing_plan_id":"cebpf4jnsgd1na2vs0mg"},{"bike_id":"fd02f3a8-dea7-4cf3-80b4-23d80305c13b","system_id":"levelo_inurba_marseille","lat":43.298654,"lon":5.388981,"is_reserved":false,"is_disabled":false,"rental_uris":{"android":"levelo://app?vid=fd02f3a8-dea7-4cf3-80b4-23d80305c13b","ios":"levelo://app?vid=fd02f3a8-dea7-4cf3-80b4-23d80305c13b"},"vehicle_type_id":"4","last_reported":1741039710,"current_range_meters":11200,"station_id":"ce4bh392rcd13ifvqdl0","pricing_plan_id":"cebpf4jnsgd1na2vs0mg"},{"bike_id":"4b8bcc6a-b1ee-4044-9ae8-7c00efea0717","system_id":"levelo_inurba_marseille","lat":43.28397,"lon":5.37516,"is_reserved":false,"is_disabled":false,"rental_uris":{"android":"levelo://app?vid=4b8bcc6a-b1ee-4044-9ae8-7c00efea0717","ios":"levelo://app?vid=4b8bcc6a-b1ee-4044-9ae8-7c00efea0717"},"vehicle_type_id":"4","last_reported":1741039710,"current_range_meters":11200,"station_id":"ce4bh412rcd13ifvqds0","pricing_plan_id":"cebpf4jnsgd1na2vs0mg"},{"bike_id":"5923fd7a-4ed2-439f-8776-a65be9a30aff","system_id":"levelo_inurba_marseille","lat":43.24648,"lon":5.38903,"is_reserved":false,"is_disabled":false,"rental_uris":{"android":"levelo://app?vid=5923fd7a-4ed2-439f-8776-a65be9a30aff","ios":"levelo://app?vid=5923fd7a-4ed2-439f-8776-a65be9a30aff"},"vehicle_type_id":"4","last_reported":1741039710,"current_range_meters":11600,"station_id":"ce4bhg12rcd13ifvqf60","pricing_plan_id":"cebpf4jnsgd1na2vs0mg"},{"bike_id":"641bc30e-b086-411e-a196-950ba8189dd3","system_id":"levelo_inurba_marseille","lat":43.30325,"lon":5.40428,"is_reserved":false,"is_disabled":false,"rental_uris":{"android":"levelo://app?vid=641bc30e-b086-411e-a196-950ba8189dd3","ios":"levelo://app?vid=641bc30e-b086-411e-a196-950ba8189dd3"},"vehicle_type_id":"4","last_reported":1741039710,"current_range_meters":11600,"station_id":"ce4bh012rcd13ifvqd10","pricing_plan_id":"cebpf4jnsgd1na2vs0mg"},{"bike_id":"83e29b9f-bd92-4fee-8e11-06bb4afe1a8f","system_id":"levelo_inurba_marseille","lat":43.28442,"lon":5.39202,"is_reserved":false,"is_disabled":false,"rental_uris":{"android":"levelo://app?vid=83e29b9f-bd92-4fee-8e11-06bb4afe1a8f","ios":"levelo://app?vid=83e29b9f-bd92-4fee-8e11-06bb4afe1a8f"},"vehicle_type_id":"4","last_reported":1741039710,"current_range_meters":12000,"station_id":"ce4bhoh2rcd13ifvqh5g","pricing_plan_id":"cebpf4jnsgd1na2vs0mg"},{"bike_id":"36f40a18-1797-485d-9d52-f860a3297b44","system_id":"levelo_inurba_marseille","lat":43.29507,"lon":5.39395,"is_reserved":false,"is_disabled":false,"rental_uris":{"android":"levelo://app?vid=36f40a18-1797-485d-9d52-f860a3297b44","ios":"levelo://app?vid=36f40a18-1797-485d-9d52-f860a3297b44"},"vehicle_type_id":"4","last_reported":1741039710,"current_range_meters":11600,"station_id":"ce4bh292rcd13ifvqdf0","pricing_plan_id":"cebpf4jnsgd1na2vs0mg"},{"bike_id":"102de46f-1f3d-42c6-b125-cb45380886c0","system_id":"levelo_inurba_marseille","lat":43.28452,"lon":5.3583,"is_reserved":false,"is_disabled":false,"rental_uris":{"android":"levelo://app?vid=102de46f-1f3d-42c6-b125-cb45380886c0","ios":"levelo://app?vid=102de46f-1f3d-42c6-b125-cb45380886c0"},"vehicle_type_id":"4","last_reported":1741039710,"current_range_meters":11600,"station_id":"ce4bhah2rcd13ifvqei0","pricing_plan_id":"cebpf4jnsgd1na2vs0mg"},{"bike_id":"2fe8f916-4590-4cd4-978d-98051b849535","system_id":"levelo_inurba_marseille","lat":43.27985,"lon":5.41644,"is_reserved":false,"is_disabled":false,"rental_uris":{"android":"levelo://app?vid=2fe8f916-4590-4cd4-978d-98051b849535","ios":"levelo://app?vid=2fe8f916-4590-4cd4-978d-98051b849535"},"vehicle_type_id":"4","last_reported":1741039710,"current_range_meters":12000,"station_id":"ce4bho12rcd13ifvqh1g","pricing_plan_id":"cebpf4jnsgd1na2vs0mg"},{"bike_id":"e4e91370-e554-4387-b1fb-5ffddc6d4231","system_id":"levelo_inurba_marseille","lat":43.25827,"lon":5.39423,"is_reserved":false,"is_disabled":false,"rental_uris":{"android":"levelo://app?vid=e4e91370-e554-4387-b1fb-5ffddc6d4231","ios":"levelo://app?vid=e4e91370-e554-4387-b1fb-5ffddc6d4231"},"vehicle_type_id":"4","last_reported":1741039710,"current_range_meters":12000,"station_id":"ce4bhip2rcd13ifvqft0","pricing_plan_id":"cebpf4jnsgd1na2vs0mg"},{"bike_id":"9de42f25-f760-4086-9a08-2934eee1b520","system_id":"levelo_inurba_marseille","lat":43.21272,"lon":5.3535,"is_reserved":false,"is_disabled":false,"rental_uris":{"android":"levelo://app?vid=9de42f25-f760-4086-9a08-2934eee1b520","ios":"levelo://app?vid=9de42f25-f760-4086-9a08-2934eee1b520"},"vehicle_type_id":"4","last_reported":1741039710,"current_range_meters":12000,"station_id":"","pricing_plan_id":"cebpf4jnsgd1na2vs0mg"},{"bike_id":"3e74a211-58e0-4f08-81a1-22c030f8307e","system_id":"levelo_inurba_marseille","lat":43.26943,"lon":5.38636,"is_reserved":false,"is_disabled":false,"rental_uris":{"android":"levelo://app?vid=3e74a211-58e0-4f08-81a1-22c030f8307e","ios":"levelo://app?vid=3e74a211-58e0-4f08-81a1-22c030f8307e"},"vehicle_type_id":"4","last_reported":1741039710,"current_range_meters":12000,"station_id":"ce4bhh92rcd13ifvqfh0","pricing_plan_id":"cebpf4jnsgd1na2vs0mg"},{"bike_id":"e29f86e8-2c96-484f-9c1f-a6eb3cd7348e","system_id":"levelo_inurba_marseille","lat":43.27985,"lon":5.41657,"is_reserved":false,"is_disabled":false,"rental_uris":{"android":"levelo://app?vid=e29f86e8-2c96-484f-9c1f-a6eb3cd7348e","ios":"levelo://app?vid=e29f86e8-2c96-484f-9c1f-a6eb3cd7348e"},"vehicle_type_id":"4","last_reported":1741039710,"current_range_meters":12000,"station_id":"ce4bho12rcd13ifvqh1g","pricing_plan_id":"cebpf4jnsgd1na2vs0mg"},{"bike_id":"dc5931ae-b5f8-419b-8447-18d4499db6c6","system_id":"levelo_inurba_marseille","lat":43.30599,"lon":5.39361,"is_reserved":false,"is_disabled":false,"rental_uris":{"android":"levelo://app?vid=dc5931ae-b5f8-419b-8447-18d4499db6c6","ios":"levelo://app?vid=dc5931ae-b5f8-419b-8447-18d4499db6c6"},"vehicle_type_id":"4","last_reported":1741039710,"current_range_meters":12000,"station_id":"ce4bh0p2rcd13ifvqd80","pricing_plan_id":"cebpf4jnsgd1na2vs0mg"},{"bike_id":"095be3af-e43e-4c12-8377-caa0ebb75794","system_id":"levelo_inurba_marseille","lat":43.28394,"lon":5.37522,"is_reserved":false,"is_disabled":false,"rental_uris":{"android":"levelo://app?vid=095be3af-e43e-4c12-8377-caa0ebb75794","ios":"levelo://app?vid=095be3af-e43e-4c12-8377-caa0ebb75794"},"vehicle_type_id":"4","last_reported":1741039710,"current_range_meters":12000,"station_id":"ce4bh412rcd13ifvqds0","pricing_plan_id":"cebpf4jnsgd1na2vs0mg"},{"bike_id":"bce611a7-5044-470a-9dc2-ccdbc1151c5c","system_id":"levelo_inurba_marseille","lat":43.32462,"lon":5.36554,"is_reserved":false,"is_disabled":false,"rental_uris":{"android":"levelo://app?vid=bce611a7-5044-470a-9dc2-ccdbc1151c5c","ios":"levelo://app?vid=bce611a7-5044-470a-9dc2-ccdbc1151c5c"},"vehicle_type_id":"4","last_reported":1741039710,"current_range_meters":12000,"station_id":"ce4bhs12rcd13ifvqhvg","pricing_plan_id":"cebpf4jnsgd1na2vs0mg"},{"bike_id":"e7ec1ac1-2323-47bd-a2b5-7cd3afb282cf","system_id":"levelo_inurba_marseille","lat":43.26548,"lon":5.37328,"is_reserved":false,"is_disabled":false,"rental_uris":{"android":"levelo://app?vid=e7ec1ac1-2323-47bd-a2b5-7cd3afb282cf","ios":"levelo://app?vid=e7ec1ac1-2323-47bd-a2b5-7cd3afb282cf"},"vehicle_type_id":"4","last_reported":1741039710,"current_range_meters":12400,"station_id":"ce4bhg12rcd13ifvqf70","pricing_plan_id":"cebpf4jnsgd1na2vs0mg"},{"bike_id":"37879935-4cf9-468e-9cee-d7233264c869","system_id":"levelo_inurba_marseille","lat":43.30404,"lon":5.3977,"is_reserved":false,"is_disabled":false,"rental_uris":{"android":"levelo://app?vid=37879935-4cf9-468e-9cee-d7233264c869","ios":"levelo://app?vid=37879935-4cf9-468e-9cee-d7233264c869"},"vehicle_type_id":"4","last_reported":1741039710,"current_range_meters":12400,"station_id":"ce4bh092rcd13ifvqd20","pricing_plan_id":"cebpf4jnsgd1na2vs0mg"},{"bike_id":"32cac79a-bb75-480e-9e14-d7497b0ae56e","system_id":"levelo_inurba_marseille","lat":43.25001,"lon":5.38935,"is_reserved":false,"is_disabled":false,"rental_uris":{"android":"levelo://app?vid=32cac79a-bb75-480e-9e14-d7497b0ae56e","ios":"levelo://app?vid=32cac79a-bb75-480e-9e14-d7497b0ae56e"},"vehicle_type_id":"4","last_reported":1741039710,"current_range_meters":12400,"station_id":"ce4bhgp2rcd13ifvqfd0","pricing_plan_id":"cebpf4jnsgd1na2vs0mg"},{"bike_id":"84d59691-2fe2-40f5-99af-d69b01f1f4e5","system_id":"levelo_inurba_marseille","lat":43.29185,"lon":5.39324,"is_reserved":false,"is_disabled":false,"rental_uris":{"android":"levelo://app?vid=84d59691-2fe2-40f5-99af-d69b01f1f4e5","ios":"levelo://app?vid=84d59691-2fe2-40f5-99af-d69b01f1f4e5"},"vehicle_type_id":"4","last_reported":1741039710,"current_range_meters":12400,"station_id":"ce4bh192rcd13ifvqdd0","pricing_plan_id":"cebpf4jnsgd1na2vs0mg"},{"bike_id":"4247b9b9-6823-4c60-8997-51b720a676a0","system_id":"levelo_inurba_marseille","lat":43.30925,"lon":5.40145,"is_reserved":false,"is_disabled":false,"rental_uris":{"android":"levelo://app?vid=4247b9b9-6823-4c60-8997-51b720a676a0","ios":"levelo://app?vid=4247b9b9-6823-4c60-8997-51b720a676a0"},"vehicle_type_id":"4","last_reported":1741039710,"current_range_meters":12400,"station_id":"ce4bgvp2rcd13ifvqct0","pricing_plan_id":"cebpf4jnsgd1na2vs0mg"},{"bike_id":"cb014a6b-6553-43cb-90ee-c6d22cf5883f","system_id":"levelo_inurba_marseille","lat":43.26069,"lon":5.39409,"is_reserved":false,"is_disabled":false,"rental_uris":{"android":"levelo://app?vid=cb014a6b-6553-43cb-90ee-c6d22cf5883f","ios":"levelo://app?vid=cb014a6b-6553-43cb-90ee-c6d22cf5883f"},"vehicle_type_id":"4","last_reported":1741039710,"current_range_meters":12400,"station_id":"ce4bhh92rcd13ifvqfj0","pricing_plan_id":"cebpf4jnsgd1na2vs0mg"},{"bike_id":"d749ca5c-d506-43ea-8c3f-c819b06b7f2f","system_id":"levelo_inurba_marseille","lat":43.28671,"lon":5.36348,"is_reserved":false,"is_disabled":false,"rental_uris":{"android":"levelo://app?vid=d749ca5c-d506-43ea-8c3f-c819b06b7f2f","ios":"levelo://app?vid=d749ca5c-d506-43ea-8c3f-c819b06b7f2f"},"vehicle_type_id":"4","last_reported":1741039710,"current_range_meters":12800,"station_id":"ce4bhah2rcd13ifvqej0","pricing_plan_id":"cebpf4jnsgd1na2vs0mg"},{"bike_id":"373d78c5-16bc-4095-9a66-2b440c99b361","system_id":"levelo_inurba_marseille","lat":43.27821,"lon":5.40701,"is_reserved":false,"is_disabled":false,"rental_uris":{"android":"levelo://app?vid=373d78c5-16bc-4095-9a66-2b440c99b361","ios":"levelo://app?vid=373d78c5-16bc-4095-9a66-2b440c99b361"},"vehicle_type_id":"4","last_reported":1741039710,"current_range_meters":12800,"station_id":"ce4bhnh2rcd13ifvqgtg","pricing_plan_id":"cebpf4jnsgd1na2vs0mg"},{"bike_id":"29c60754-9df2-4a82-8936-100fec420b4c","system_id":"levelo_inurba_marseille","lat":43.29896,"lon":5.39733,"is_reserved":false,"is_disabled":false,"rental_uris":{"android":"levelo://app?vid=29c60754-9df2-4a82-8936-100fec420b4c","ios":"levelo://app?vid=29c60754-9df2-4a82-8936-100fec420b4c"},"vehicle_type_id":"4","last_reported":1741039710,"current_range_meters":12800,"station_id":"ce4bh0h2rcd13ifvqd50","pricing_plan_id":"cebpf4jnsgd1na2vs0mg"},{"bike_id":"a5193847-231c-4c8c-b335-8579028b0ddd","system_id":"levelo_inurba_marseille","lat":43.27817,"lon":5.40715,"is_reserved":false,"is_disabled":false,"rental_uris":{"android":"levelo://app?vid=a5193847-231c-4c8c-b335-8579028b0ddd","ios":"levelo://app?vid=a5193847-231c-4c8c-b335-8579028b0ddd"},"vehicle_type_id":"4","last_reported":1741039710,"current_range_meters":12800,"station_id":"ce4bhnh2rcd13ifvqgtg","pricing_plan_id":"cebpf4jnsgd1na2vs0mg"},{"bike_id":"33d78023-4d5b-48ce-9665-2809bebb67ae","system_id":"levelo_inurba_marseille","lat":43.28469,"lon":5.35878,"is_reserved":false,"is_disabled":false,"rental_uris":{"android":"levelo://app?vid=33d78023-4d5b-48ce-9665-2809bebb67ae","ios":"levelo://app?vid=33d78023-4d5b-48ce-9665-2809bebb67ae"},"vehicle_type_id":"4","last_reported":1741039710,"current_range_meters":12800,"station_id":"ce4bhah2rcd13ifvqei0","pricing_plan_id":"cebpf4jnsgd1na2vs0mg"},{"bike_id":"dd08d469-0e07-4995-a332-b3086215ce48","system_id":"levelo_inurba_marseille","lat":43.3094,"lon":5.39068,"is_reserved":false,"is_disabled":true,"rental_uris":{"android":"levelo://app?vid=dd08d469-0e07-4995-a332-b3086215ce48","ios":"levelo://app?vid=dd08d469-0e07-4995-a332-b3086215ce48"},"vehicle_type_id":"4","last_reported":1741039710,"current_range_meters":12800,"station_id":"ce4bgup2rcd13ifvqco0","pricing_plan_id":"cebpf4jnsgd1na2vs0mg"},{"bike_id":"09e4a186-5878-4788-9d97-8c4dac66bb36","system_id":"levelo_inurba_marseille","lat":43.28464,"lon":5.35868,"is_reserved":false,"is_disabled":false,"rental_uris":{"android":"levelo://app?vid=09e4a186-5878-4788-9d97-8c4dac66bb36","ios":"levelo://app?vid=09e4a186-5878-4788-9d97-8c4dac66bb36"},"vehicle_type_id":"4","last_reported":1741039710,"current_range_meters":12800,"station_id":"ce4bhah2rcd13ifvqei0","pricing_plan_id":"cebpf4jnsgd1na2vs0mg"},{"bike_id":"9411878b-4976-4d8c-88e9-45e4a28619e0","system_id":"levelo_inurba_marseille","lat":43.28155,"lon":5.42638,"is_reserved":false,"is_disabled":false,"rental_uris":{"android":"levelo://app?vid=9411878b-4976-4d8c-88e9-45e4a28619e0","ios":"levelo://app?vid=9411878b-4976-4d8c-88e9-45e4a28619e0"},"vehicle_type_id":"4","last_reported":1741039710,"current_range_meters":14000,"station_id":"ce4bhnh2rcd13ifvqgug","pricing_plan_id":"cebpf4jnsgd1na2vs0mg"},{"bike_id":"fc538172-abdb-42d0-9e73-20cebfb49ebf","system_id":"levelo_inurba_marseille","lat":43.28414,"lon":5.37522,"is_reserved":false,"is_disabled":false,"rental_uris":{"android":"levelo://app?vid=fc538172-abdb-42d0-9e73-20cebfb49ebf","ios":"levelo://app?vid=fc538172-abdb-42d0-9e73-20cebfb49ebf"},"vehicle_type_id":"4","last_reported":1741039710,"current_range_meters":12800,"station_id":"ce4bh412rcd13ifvqds0","pricing_plan_id":"cebpf4jnsgd1na2vs0mg"},{"bike_id":"d1b38336-63c7-4d2d-a2d6-75d4567269de","system_id":"levelo_inurba_marseille","lat":43.30932,"lon":5.40149,"is_reserved":false,"is_disabled":false,"rental_uris":{"android":"levelo://app?vid=d1b38336-63c7-4d2d-a2d6-75d4567269de","ios":"levelo://app?vid=d1b38336-63c7-4d2d-a2d6-75d4567269de"},"vehicle_type_id":"4","last_reported":1741039710,"current_range_meters":12800,"station_id":"ce4bgvp2rcd13ifvqct0","pricing_plan_id":"cebpf4jnsgd1na2vs0mg"},{"bike_id":"cb813df4-3836-4634-974a-d02d99a32d8a","system_id":"levelo_inurba_marseille","lat":43.32705,"lon":5.39232,"is_reserved":false,"is_disabled":false,"rental_uris":{"android":"levelo://app?vid=cb813df4-3836-4634-974a-d02d99a32d8a","ios":"levelo://app?vid=cb813df4-3836-4634-974a-d02d99a32d8a"},"vehicle_type_id":"4","last_reported":1741039710,"current_range_meters":13600,"station_id":"","pricing_plan_id":"cebpf4jnsgd1na2vs0mg"},{"bike_id":"81831f9f-6fd4-4dba-9bbb-5a847137fe17","system_id":"levelo_inurba_marseille","lat":43.3128,"lon":5.40167,"is_reserved":false,"is_disabled":false,"rental_uris":{"android":"levelo://app?vid=81831f9f-6fd4-4dba-9bbb-5a847137fe17","ios":"levelo://app?vid=81831f9f-6fd4-4dba-9bbb-5a847137fe17"},"vehicle_type_id":"4","last_reported":1741039710,"current_range_meters":14800,"station_id":"ce4bh092rcd13ifvqd30","pricing_plan_id":"cebpf4jnsgd1na2vs0mg"},{"bike_id":"a4c3698b-40cd-4d33-a9d9-689474fbe572","system_id":"levelo_inurba_marseille","lat":43.30872,"lon":5.39097,"is_reserved":false,"is_disabled":false,"rental_uris":{"android":"levelo://app?vid=a4c3698b-40cd-4d33-a9d9-689474fbe572","ios":"levelo://app?vid=a4c3698b-40cd-4d33-a9d9-689474fbe572"},"vehicle_type_id":"4","last_reported":1741039710,"current_range_meters":13600,"station_id":"","pricing_plan_id":"cebpf4jnsgd1na2vs0mg"},{"bike_id":"355e1532-21c7-4584-bd3e-0af4695c627f","system_id":"levelo_inurba_marseille","lat":43.284176,"lon":5.349866,"is_reserved":false,"is_disabled":false,"rental_uris":{"android":"levelo://app?vid=355e1532-21c7-4584-bd3e-0af4695c627f","ios":"levelo://app?vid=355e1532-21c7-4584-bd3e-0af4695c627f"},"vehicle_type_id":"4","last_reported":1741039710,"current_range_meters":13600,"station_id":"ce4bhbh2rcd13ifvqepg","pricing_plan_id":"cebpf4jnsgd1na2vs0mg"},{"bike_id":"ca062356-a8b7-4a61-8f3f-0e74b13a3ad4","system_id":"levelo_inurba_marseille","lat":43.31094,"lon":5.37744,"is_reserved":false,"is_disabled":false,"rental_uris":{"android":"levelo://app?vid=ca062356-a8b7-4a61-8f3f-0e74b13a3ad4","ios":"levelo://app?vid=ca062356-a8b7-4a61-8f3f-0e74b13a3ad4"},"vehicle_type_id":"4","last_reported":1741039710,"current_range_meters":13600,"station_id":"ce4bgt92rcd13ifvqcg0","pricing_plan_id":"cebpf4jnsgd1na2vs0mg"},{"bike_id":"e5136b97-99d8-49fc-aff2-faca0326e8ae","system_id":"levelo_inurba_marseille","lat":43.27933,"lon":5.41038,"is_reserved":false,"is_disabled":false,"rental_uris":{"android":"levelo://app?vid=e5136b97-99d8-49fc-aff2-faca0326e8ae","ios":"levelo://app?vid=e5136b97-99d8-49fc-aff2-faca0326e8ae"},"vehicle_type_id":"4","last_reported":1741039710,"current_range_meters":13600,"station_id":"ce4bhnp2rcd13ifvqh0g","pricing_plan_id":"cebpf4jnsgd1na2vs0mg"},{"bike_id":"44a7153b-0fd7-4509-836b-676bbf84fb06","system_id":"levelo_inurba_marseille","lat":43.23193,"lon":5.35545,"is_reserved":false,"is_disabled":false,"rental_uris":{"android":"levelo://app?vid=44a7153b-0fd7-4509-836b-676bbf84fb06","ios":"levelo://app?vid=44a7153b-0fd7-4509-836b-676bbf84fb06"},"vehicle_type_id":"4","last_reported":1741039710,"current_range_meters":13600,"station_id":"ce4bhu92rcd13ifvqi70","pricing_plan_id":"cebpf4jnsgd1na2vs0mg"},{"bike_id":"9a633337-6129-4042-810b-abbb21f0b063","system_id":"levelo_inurba_marseille","lat":43.29537,"lon":5.39393,"is_reserved":false,"is_disabled":false,"rental_uris":{"android":"levelo://app?vid=9a633337-6129-4042-810b-abbb21f0b063","ios":"levelo://app?vid=9a633337-6129-4042-810b-abbb21f0b063"},"vehicle_type_id":"4","last_reported":1741039710,"current_range_meters":14000,"station_id":"ce4bh292rcd13ifvqdf0","pricing_plan_id":"cebpf4jnsgd1na2vs0mg"},{"bike_id":"442bfba6-bd18-40c4-a34b-7d774854ee17","system_id":"levelo_inurba_marseille","lat":43.29261,"lon":5.37614,"is_reserved":false,"is_disabled":false,"rental_uris":{"android":"levelo://app?vid=442bfba6-bd18-40c4-a34b-7d774854ee17","ios":"levelo://app?vid=442bfba6-bd18-40c4-a34b-7d774854ee17"},"vehicle_type_id":"4","last_reported":1741039710,"current_range_meters":14400,"station_id":"ce4bgi12rcd13ifvqb80","pricing_plan_id":"cebpf4jnsgd1na2vs0mg"},{"bike_id":"ee1d2ad1-36ca-49dd-a328-f2a9a9994ecb","system_id":"levelo_inurba_marseille","lat":43.31085,"lon":5.38152,"is_reserved":false,"is_disabled":false,"rental_uris":{"android":"levelo://app?vid=ee1d2ad1-36ca-49dd-a328-f2a9a9994ecb","ios":"levelo://app?vid=ee1d2ad1-36ca-49dd-a328-f2a9a9994ecb"},"vehicle_type_id":"4","last_reported":1741039710,"current_range_meters":14400,"station_id":"","pricing_plan_id":"cebpf4jnsgd1na2vs0mg"},{"bike_id":"089251b4-101d-44dd-a4b2-0e114c7f8e04","system_id":"levelo_inurba_marseille","lat":43.30424,"lon":5.3975,"is_reserved":false,"is_disabled":false,"rental_uris":{"android":"levelo://app?vid=089251b4-101d-44dd-a4b2-0e114c7f8e04","ios":"levelo://app?vid=089251b4-101d-44dd-a4b2-0e114c7f8e04"},"vehicle_type_id":"4","last_reported":1741039710,"current_range_meters":14400,"station_id":"ce4bh092rcd13ifvqd20","pricing_plan_id":"cebpf4jnsgd1na2vs0mg"},{"bike_id":"eb01ef88-05e0-4c7b-b2b2-90ea98a3b163","system_id":"levelo_inurba_marseille","lat":43.30255,"lon":5.40059,"is_reserved":false,"is_disabled":false,"rental_uris":{"android":"levelo://app?vid=eb01ef88-05e0-4c7b-b2b2-90ea98a3b163","ios":"levelo://app?vid=eb01ef88-05e0-4c7b-b2b2-90ea98a3b163"},"vehicle_type_id":"4","last_reported":1741039710,"current_range_meters":14400,"station_id":"ce4bgvh2rcd13ifvqcs0","pricing_plan_id":"cebpf4jnsgd1na2vs0mg"},{"bike_id":"ed7f448a-2ee8-49f9-aca5-39dcd6dc9acb","system_id":"levelo_inurba_marseille","lat":43.29029,"lon":5.35912,"is_reserved":false,"is_disabled":false,"rental_uris":{"android":"levelo://app?vid=ed7f448a-2ee8-49f9-aca5-39dcd6dc9acb","ios":"levelo://app?vid=ed7f448a-2ee8-49f9-aca5-39dcd6dc9acb"},"vehicle_type_id":"4","last_reported":1741039710,"current_range_meters":14400,"station_id":"ce4bha92rcd13ifvqeg0","pricing_plan_id":"cebpf4jnsgd1na2vs0mg"},{"bike_id":"e7fa8cb6-83ee-45f6-8dbf-12eafe146840","system_id":"levelo_inurba_marseille","lat":43.30142,"lon":5.37418,"is_reserved":false,"is_disabled":false,"rental_uris":{"android":"levelo://app?vid=e7fa8cb6-83ee-45f6-8dbf-12eafe146840","ios":"levelo://app?vid=e7fa8cb6-83ee-45f6-8dbf-12eafe146840"},"vehicle_type_id":"4","last_reported":1741039710,"current_range_meters":14000,"station_id":"ce4bgs92rcd13ifvqcc0","pricing_plan_id":"cebpf4jnsgd1na2vs0mg"},{"bike_id":"474b314c-3a52-4e17-bbda-10f41385b1a6","system_id":"levelo_inurba_marseille","lat":43.30552,"lon":5.37206,"is_reserved":false,"is_disabled":false,"rental_uris":{"android":"levelo://app?vid=474b314c-3a52-4e17-bbda-10f41385b1a6","ios":"levelo://app?vid=474b314c-3a52-4e17-bbda-10f41385b1a6"},"vehicle_type_id":"4","last_reported":1741039710,"current_range_meters":14400,"station_id":"","pricing_plan_id":"cebpf4jnsgd1na2vs0mg"},{"bike_id":"991d15a8-747c-4f29-8bf2-aa8c2f014bd4","system_id":"levelo_inurba_marseille","lat":43.292,"lon":5.39312,"is_reserved":false,"is_disabled":false,"rental_uris":{"android":"levelo://app?vid=991d15a8-747c-4f29-8bf2-aa8c2f014bd4","ios":"levelo://app?vid=991d15a8-747c-4f29-8bf2-aa8c2f014bd4"},"vehicle_type_id":"4","last_reported":1741039710,"current_range_meters":14800,"station_id":"ce4bh192rcd13ifvqdd0","pricing_plan_id":"cebpf4jnsgd1na2vs0mg"},{"bike_id":"a9e4db3f-a424-4a70-bbb1-9ffa5bd94433","system_id":"levelo_inurba_marseille","lat":43.32366,"lon":5.38898,"is_reserved":false,"is_disabled":false,"rental_uris":{"android":"levelo://app?vid=a9e4db3f-a424-4a70-bbb1-9ffa5bd94433","ios":"levelo://app?vid=a9e4db3f-a424-4a70-bbb1-9ffa5bd94433"},"vehicle_type_id":"4","last_reported":1741039710,"current_range_meters":14800,"station_id":"ce4bhqp2rcd13ifvqhog","pricing_plan_id":"cebpf4jnsgd1na2vs0mg"},{"bike_id":"9de8de23-382e-4035-b9d0-ffd8bcdb1f44","system_id":"levelo_inurba_marseille","lat":43.30803,"lon":5.43516,"is_reserved":false,"is_disabled":false,"rental_uris":{"android":"levelo://app?vid=9de8de23-382e-4035-b9d0-ffd8bcdb1f44","ios":"levelo://app?vid=9de8de23-382e-4035-b9d0-ffd8bcdb1f44"},"vehicle_type_id":"4","last_reported":1741039710,"current_range_meters":14800,"station_id":"ce4bhph2rcd13ifvqheg","pricing_plan_id":"cebpf4jnsgd1na2vs0mg"},{"bike_id":"a672a65c-d1fc-4716-9934-f7368b43bb6f","system_id":"levelo_inurba_marseille","lat":43.28414,"lon":5.37517,"is_reserved":false,"is_disabled":false,"rental_uris":{"android":"levelo://app?vid=a672a65c-d1fc-4716-9934-f7368b43bb6f","ios":"levelo://app?vid=a672a65c-d1fc-4716-9934-f7368b43bb6f"},"vehicle_type_id":"4","last_reported":1741039710,"current_range_meters":14800,"station_id":"ce4bh412rcd13ifvqds0","pricing_plan_id":"cebpf4jnsgd1na2vs0mg"},{"bike_id":"4ced6644-ce8d-40ca-9170-d9cd2beeedb6","system_id":"levelo_inurba_marseille","lat":43.30427,"lon":5.39737,"is_reserved":false,"is_disabled":false,"rental_uris":{"android":"levelo://app?vid=4ced6644-ce8d-40ca-9170-d9cd2beeedb6","ios":"levelo://app?vid=4ced6644-ce8d-40ca-9170-d9cd2beeedb6"},"vehicle_type_id":"4","last_reported":1741039710,"current_range_meters":15200,"station_id":"ce4bh092rcd13ifvqd20","pricing_plan_id":"cebpf4jnsgd1na2vs0mg"},{"bike_id":"2458e0f1-a8b2-4533-b3c9-d2a934eb6fd5","system_id":"levelo_inurba_marseille","lat":43.28839,"lon":5.35832,"is_reserved":false,"is_disabled":false,"rental_uris":{"android":"levelo://app?vid=2458e0f1-a8b2-4533-b3c9-d2a934eb6fd5","ios":"levelo://app?vid=2458e0f1-a8b2-4533-b3c9-d2a934eb6fd5"},"vehicle_type_id":"4","last_reported":1741039710,"current_range_meters":15200,"station_id":"ce4bhb12rcd13ifvqem0","pricing_plan_id":"cebpf4jnsgd1na2vs0mg"},{"bike_id":"6a2f443b-bc7f-4630-b851-1b63f59abf78","system_id":"levelo_inurba_marseille","lat":43.26039,"lon":5.39394,"is_reserved":false,"is_disabled":false,"rental_uris":{"android":"levelo://app?vid=6a2f443b-bc7f-4630-b851-1b63f59abf78","ios":"levelo://app?vid=6a2f443b-bc7f-4630-b851-1b63f59abf78"},"vehicle_type_id":"4","last_reported":1741039710,"current_range_meters":15200,"station_id":"ce4bhh92rcd13ifvqfj0","pricing_plan_id":"cebpf4jnsgd1na2vs0mg"},{"bike_id":"dbccb913-5ec5-4cdf-bf01-b4b5464a675c","system_id":"levelo_inurba_marseille","lat":43.30191,"lon":5.36602,"is_reserved":false,"is_disabled":false,"rental_uris":{"android":"levelo://app?vid=dbccb913-5ec5-4cdf-bf01-b4b5464a675c","ios":"levelo://app?vid=dbccb913-5ec5-4cdf-bf01-b4b5464a675c"},"vehicle_type_id":"4","last_reported":1741039710,"current_range_meters":16000,"station_id":"ce4bgrh2rcd13ifvqc8g","pricing_plan_id":"cebpf4jnsgd1na2vs0mg"},{"bike_id":"443a506e-3487-4634-8f70-3912280dd197","system_id":"levelo_inurba_marseille","lat":43.28404,"lon":5.37507,"is_reserved":false,"is_disabled":false,"rental_uris":{"android":"levelo://app?vid=443a506e-3487-4634-8f70-3912280dd197","ios":"levelo://app?vid=443a506e-3487-4634-8f70-3912280dd197"},"vehicle_type_id":"4","last_reported":1741039710,"current_range_meters":15200,"station_id":"ce4bh412rcd13ifvqds0","pricing_plan_id":"cebpf4jnsgd1na2vs0mg"},{"bike_id":"49fa7bca-8fff-4567-aa08-bf6bb741163c","system_id":"levelo_inurba_marseille","lat":43.29605,"lon":5.38101,"is_reserved":false,"is_disabled":false,"rental_uris":{"android":"levelo://app?vid=49fa7bca-8fff-4567-aa08-bf6bb741163c","ios":"levelo://app?vid=49fa7bca-8fff-4567-aa08-bf6bb741163c"},"vehicle_type_id":"4","last_reported":1741039710,"current_range_meters":15200,"station_id":"ce4bgl12rcd13ifvqbo0","pricing_plan_id":"cebpf4jnsgd1na2vs0mg"},{"bike_id":"4f6a53e2-adc0-4f21-a484-100d8eb7192f","system_id":"levelo_inurba_marseille","lat":43.27818,"lon":5.4071,"is_reserved":false,"is_disabled":false,"rental_uris":{"android":"levelo://app?vid=4f6a53e2-adc0-4f21-a484-100d8eb7192f","ios":"levelo://app?vid=4f6a53e2-adc0-4f21-a484-100d8eb7192f"},"vehicle_type_id":"4","last_reported":1741039710,"current_range_meters":15200,"station_id":"ce4bhnh2rcd13ifvqgtg","pricing_plan_id":"cebpf4jnsgd1na2vs0mg"},{"bike_id":"163569a7-e3aa-4ff6-bc32-0405d96908d0","system_id":"levelo_inurba_marseille","lat":43.29193,"lon":5.35801,"is_reserved":false,"is_disabled":false,"rental_uris":{"android":"levelo://app?vid=163569a7-e3aa-4ff6-bc32-0405d96908d0","ios":"levelo://app?vid=163569a7-e3aa-4ff6-bc32-0405d96908d0"},"vehicle_type_id":"4","last_reported":1741039710,"current_range_meters":16000,"station_id":"ce4bhb12rcd13ifvqel0","pricing_plan_id":"cebpf4jnsgd1na2vs0mg"},{"bike_id":"670ed502-f3c8-40ab-817b-69e2419bbfcf","system_id":"levelo_inurba_marseille","lat":43.288498,"lon":5.393195,"is_reserved":false,"is_disabled":false,"rental_uris":{"android":"levelo://app?vid=670ed502-f3c8-40ab-817b-69e2419bbfcf","ios":"levelo://app?vid=670ed502-f3c8-40ab-817b-69e2419bbfcf"},"vehicle_type_id":"4","last_reported":1741039710,"current_range_meters":15200,"station_id":"ce4bh692rcd13ifvqe90","pricing_plan_id":"cebpf4jnsgd1na2vs0mg"},{"bike_id":"d08d378c-fb72-4398-a06e-228d657e4335","system_id":"levelo_inurba_marseille","lat":43.28865,"lon":5.35837,"is_reserved":false,"is_disabled":false,"rental_uris":{"android":"levelo://app?vid=d08d378c-fb72-4398-a06e-228d657e4335","ios":"levelo://app?vid=d08d378c-fb72-4398-a06e-228d657e4335"},"vehicle_type_id":"4","last_reported":1741039710,"current_range_meters":16000,"station_id":"ce4bhb12rcd13ifvqem0","pricing_plan_id":"cebpf4jnsgd1na2vs0mg"},{"bike_id":"9e4f53fe-e434-44c9-a146-29f149bf6c3f","system_id":"levelo_inurba_marseille","lat":43.24187,"lon":5.39738,"is_reserved":false,"is_disabled":false,"rental_uris":{"android":"levelo://app?vid=9e4f53fe-e434-44c9-a146-29f149bf6c3f","ios":"levelo://app?vid=9e4f53fe-e434-44c9-a146-29f149bf6c3f"},"vehicle_type_id":"4","last_reported":1741039710,"current_range_meters":16000,"station_id":"ce4bhn12rcd13ifvqgpg","pricing_plan_id":"cebpf4jnsgd1na2vs0mg"},{"bike_id":"b388f542-63b9-443e-a414-897e0ce91452","system_id":"levelo_inurba_marseille","lat":43.31758,"lon":5.38903,"is_reserved":false,"is_disabled":false,"rental_uris":{"android":"levelo://app?vid=b388f542-63b9-443e-a414-897e0ce91452","ios":"levelo://app?vid=b388f542-63b9-443e-a414-897e0ce91452"},"vehicle_type_id":"4","last_reported":1741039710,"current_range_meters":16000,"station_id":"","pricing_plan_id":"cebpf4jnsgd1na2vs0mg"},{"bike_id":"fe65d165-e4f8-45e4-b0cc-6ba4a385c0db","system_id":"levelo_inurba_marseille","lat":43.29251,"lon":5.37637,"is_reserved":false,"is_disabled":false,"rental_uris":{"android":"levelo://app?vid=fe65d165-e4f8-45e4-b0cc-6ba4a385c0db","ios":"levelo://app?vid=fe65d165-e4f8-45e4-b0cc-6ba4a385c0db"},"vehicle_type_id":"4","last_reported":1741039710,"current_range_meters":16000,"station_id":"ce4bgi12rcd13ifvqb80","pricing_plan_id":"cebpf4jnsgd1na2vs0mg"},{"bike_id":"18dc9bda-e5c5-440d-b60f-d6dbca42063e","system_id":"levelo_inurba_marseille","lat":43.2986,"lon":5.38909,"is_reserved":false,"is_disabled":false,"rental_uris":{"android":"levelo://app?vid=18dc9bda-e5c5-440d-b60f-d6dbca42063e","ios":"levelo://app?vid=18dc9bda-e5c5-440d-b60f-d6dbca42063e"},"vehicle_type_id":"4","last_reported":1741039710,"current_range_meters":16000,"station_id":"ce4bh392rcd13ifvqdl0","pricing_plan_id":"cebpf4jnsgd1na2vs0mg"},{"bike_id":"4630baf1-4845-450c-8cd3-3a3ab55f7dbd","system_id":"levelo_inurba_marseille","lat":43.28844,"lon":5.35845,"is_reserved":false,"is_disabled":false,"rental_uris":{"android":"levelo://app?vid=4630baf1-4845-450c-8cd3-3a3ab55f7dbd","ios":"levelo://app?vid=4630baf1-4845-450c-8cd3-3a3ab55f7dbd"},"vehicle_type_id":"4","last_reported":1741039710,"current_range_meters":16000,"station_id":"ce4bhb12rcd13ifvqem0","pricing_plan_id":"cebpf4jnsgd1na2vs0mg"},{"bike_id":"e0bbd19f-dbed-424f-998c-e43cb85c9ec3","system_id":"levelo_inurba_marseille","lat":43.2417,"lon":5.36373,"is_reserved":false,"is_disabled":false,"rental_uris":{"android":"levelo://app?vid=e0bbd19f-dbed-424f-998c-e43cb85c9ec3","ios":"levelo://app?vid=e0bbd19f-dbed-424f-998c-e43cb85c9ec3"},"vehicle_type_id":"4","last_reported":1741039710,"current_range_meters":16000,"station_id":"cpo36qri1sfpv3e86is0","pricing_plan_id":"cebpf4jnsgd1na2vs0mg"},{"bike_id":"cfd37df0-b1c6-4f94-a627-4f20422c897a","system_id":"levelo_inurba_marseille","lat":43.27695,"lon":5.41545,"is_reserved":false,"is_disabled":false,"rental_uris":{"android":"levelo://app?vid=cfd37df0-b1c6-4f94-a627-4f20422c897a","ios":"levelo://app?vid=cfd37df0-b1c6-4f94-a627-4f20422c897a"},"vehicle_type_id":"4","last_reported":1741039710,"current_range_meters":16000,"station_id":"","pricing_plan_id":"cebpf4jnsgd1na2vs0mg"},{"bike_id":"853eb05d-885b-485e-8901-2449dc2d3bfa","system_id":"levelo_inurba_marseille","lat":43.2558,"lon":5.38224,"is_reserved":false,"is_disabled":false,"rental_uris":{"android":"levelo://app?vid=853eb05d-885b-485e-8901-2449dc2d3bfa","ios":"levelo://app?vid=853eb05d-885b-485e-8901-2449dc2d3bfa"},"vehicle_type_id":"4","last_reported":1741039710,"current_range_meters":16000,"station_id":"ce4bhih2rcd13ifvqfs0","pricing_plan_id":"cebpf4jnsgd1na2vs0mg"},{"bike_id":"72eb316f-b406-4368-b692-99c81bec4002","system_id":"levelo_inurba_marseille","lat":43.30417,"lon":5.41282,"is_reserved":false,"is_disabled":true,"rental_uris":{"android":"levelo://app?vid=72eb316f-b406-4368-b692-99c81bec4002","ios":"levelo://app?vid=72eb316f-b406-4368-b692-99c81bec4002"},"vehicle_type_id":"4","last_reported":1741039710,"current_range_meters":16400,"station_id":"ce4bhop2rcd13ifvqh8g","pricing_plan_id":"cebpf4jnsgd1na2vs0mg"},{"bike_id":"dc7ff41a-bd66-48fb-95fc-dadc422033f1","system_id":"levelo_inurba_marseille","lat":43.28084,"lon":5.39645,"is_reserved":false,"is_disabled":false,"rental_uris":{"android":"levelo://app?vid=dc7ff41a-bd66-48fb-95fc-dadc422033f1","ios":"levelo://app?vid=dc7ff41a-bd66-48fb-95fc-dadc422033f1"},"vehicle_type_id":"4","last_reported":1741039710,"current_range_meters":16400,"station_id":"ce4bho12rcd13ifvqh2g","pricing_plan_id":"cebpf4jnsgd1na2vs0mg"},{"bike_id":"b579293e-a70a-4d49-92be-7c642d91f6bb","system_id":"levelo_inurba_marseille","lat":43.31167,"lon":5.38732,"is_reserved":false,"is_disabled":false,"rental_uris":{"android":"levelo://app?vid=b579293e-a70a-4d49-92be-7c642d91f6bb","ios":"levelo://app?vid=b579293e-a70a-4d49-92be-7c642d91f6bb"},"vehicle_type_id":"4","last_reported":1741039710,"current_range_meters":16400,"station_id":"ce4bgv12rcd13ifvqcp0","pricing_plan_id":"cebpf4jnsgd1na2vs0mg"},{"bike_id":"2ee677f9-50e6-45e9-9951-b21ba41122af","system_id":"levelo_inurba_marseille","lat":43.2903,"lon":5.38655,"is_reserved":false,"is_disabled":false,"rental_uris":{"android":"levelo://app?vid=2ee677f9-50e6-45e9-9951-b21ba41122af","ios":"levelo://app?vid=2ee677f9-50e6-45e9-9951-b21ba41122af"},"vehicle_type_id":"4","last_reported":1741039710,"current_range_meters":16800,"station_id":"ce4bh4p2rcd13ifvqe0g","pricing_plan_id":"cebpf4jnsgd1na2vs0mg"},{"bike_id":"bc389614-a1bd-4bd1-ae6c-15acadf8db1a","system_id":"levelo_inurba_marseille","lat":43.28326,"lon":5.43256,"is_reserved":false,"is_disabled":false,"rental_uris":{"android":"levelo://app?vid=bc389614-a1bd-4bd1-ae6c-15acadf8db1a","ios":"levelo://app?vid=bc389614-a1bd-4bd1-ae6c-15acadf8db1a"},"vehicle_type_id":"4","last_reported":1741039710,"current_range_meters":16400,"station_id":"","pricing_plan_id":"cebpf4jnsgd1na2vs0mg"},{"bike_id":"d7ef5145-0bca-4f45-a0cf-6b1d49f6690d","system_id":"levelo_inurba_marseille","lat":43.31386,"lon":5.39192,"is_reserved":false,"is_disabled":false,"rental_uris":{"android":"levelo://app?vid=d7ef5145-0bca-4f45-a0cf-6b1d49f6690d","ios":"levelo://app?vid=d7ef5145-0bca-4f45-a0cf-6b1d49f6690d"},"vehicle_type_id":"4","last_reported":1741039710,"current_range_meters":16400,"station_id":"","pricing_plan_id":"cebpf4jnsgd1na2vs0mg"},{"bike_id":"38f37a23-5169-4d18-ab25-4dff16ba5bae","system_id":"levelo_inurba_marseille","lat":43.28598,"lon":5.37069,"is_reserved":false,"is_disabled":false,"rental_uris":{"android":"levelo://app?vid=38f37a23-5169-4d18-ab25-4dff16ba5bae","ios":"levelo://app?vid=38f37a23-5169-4d18-ab25-4dff16ba5bae"},"vehicle_type_id":"4","last_reported":1741039710,"current_range_meters":16400,"station_id":"ce4bht12rcd13ifvqi60","pricing_plan_id":"cebpf4jnsgd1na2vs0mg"},{"bike_id":"c395fb15-a322-41fc-bdbe-96573b3caaff","system_id":"levelo_inurba_marseille","lat":43.28437,"lon":5.39199,"is_reserved":false,"is_disabled":false,"rental_uris":{"android":"levelo://app?vid=c395fb15-a322-41fc-bdbe-96573b3caaff","ios":"levelo://app?vid=c395fb15-a322-41fc-bdbe-96573b3caaff"},"vehicle_type_id":"4","last_reported":1741039710,"current_range_meters":16800,"station_id":"ce4bhoh2rcd13ifvqh5g","pricing_plan_id":"cebpf4jnsgd1na2vs0mg"},{"bike_id":"187f4ec1-c9f7-48d7-8248-8f68e0f5345f","system_id":"levelo_inurba_marseille","lat":43.26924,"lon":5.38932,"is_reserved":false,"is_disabled":false,"rental_uris":{"android":"levelo://app?vid=187f4ec1-c9f7-48d7-8248-8f68e0f5345f","ios":"levelo://app?vid=187f4ec1-c9f7-48d7-8248-8f68e0f5345f"},"vehicle_type_id":"4","last_reported":1741039710,"current_range_meters":16400,"station_id":"ce4bhhh2rcd13ifvqfl0","pricing_plan_id":"cebpf4jnsgd1na2vs0mg"},{"bike_id":"642c7792-3e94-4263-87b3-9666d4f3535e","system_id":"levelo_inurba_marseille","lat":43.25488,"lon":5.37649,"is_reserved":false,"is_disabled":false,"rental_uris":{"android":"levelo://app?vid=642c7792-3e94-4263-87b3-9666d4f3535e","ios":"levelo://app?vid=642c7792-3e94-4263-87b3-9666d4f3535e"},"vehicle_type_id":"4","last_reported":1741039710,"current_range_meters":16400,"station_id":"ce4bhh12rcd13ifvqff0","pricing_plan_id":"cebpf4jnsgd1na2vs0mg"},{"bike_id":"9fec91bd-d7aa-4149-bd43-cd46ffb8d0a9","system_id":"levelo_inurba_marseille","lat":43.29167,"lon":5.39334,"is_reserved":false,"is_disabled":false,"rental_uris":{"android":"levelo://app?vid=9fec91bd-d7aa-4149-bd43-cd46ffb8d0a9","ios":"levelo://app?vid=9fec91bd-d7aa-4149-bd43-cd46ffb8d0a9"},"vehicle_type_id":"4","last_reported":1741039710,"current_range_meters":16400,"station_id":"","pricing_plan_id":"cebpf4jnsgd1na2vs0mg"},{"bike_id":"aa5e15a5-bf17-40ed-a11e-3d25debe7230","system_id":"levelo_inurba_marseille","lat":43.30418,"lon":5.39748,"is_reserved":false,"is_disabled":false,"rental_uris":{"android":"levelo://app?vid=aa5e15a5-bf17-40ed-a11e-3d25debe7230","ios":"levelo://app?vid=aa5e15a5-bf17-40ed-a11e-3d25debe7230"},"vehicle_type_id":"4","last_reported":1741039710,"current_range_meters":16800,"station_id":"ce4bh092rcd13ifvqd20","pricing_plan_id":"cebpf4jnsgd1na2vs0mg"},{"bike_id":"811bf25c-9b41-4fd0-9c9f-36e1e5f39574","system_id":"levelo_inurba_marseille","lat":43.28468,"lon":5.35874,"is_reserved":false,"is_disabled":false,"rental_uris":{"android":"levelo://app?vid=811bf25c-9b41-4fd0-9c9f-36e1e5f39574","ios":"levelo://app?vid=811bf25c-9b41-4fd0-9c9f-36e1e5f39574"},"vehicle_type_id":"4","last_reported":1741039710,"current_range_meters":16800,"station_id":"ce4bhah2rcd13ifvqei0","pricing_plan_id":"cebpf4jnsgd1na2vs0mg"},{"bike_id":"21d576ee-ad99-4344-99a6-48a7647dc728","system_id":"levelo_inurba_marseille","lat":43.32921,"lon":5.43003,"is_reserved":false,"is_disabled":false,"rental_uris":{"android":"levelo://app?vid=21d576ee-ad99-4344-99a6-48a7647dc728","ios":"levelo://app?vid=21d576ee-ad99-4344-99a6-48a7647dc728"},"vehicle_type_id":"4","last_reported":1741039710,"current_range_meters":16800,"station_id":"","pricing_plan_id":"cebpf4jnsgd1na2vs0mg"},{"bike_id":"7cea7b38-f7a0-4e92-8d25-24dec4d43a08","system_id":"levelo_inurba_marseille","lat":43.266933,"lon":5.38271,"is_reserved":false,"is_disabled":true,"rental_uris":{"android":"levelo://app?vid=7cea7b38-f7a0-4e92-8d25-24dec4d43a08","ios":"levelo://app?vid=7cea7b38-f7a0-4e92-8d25-24dec4d43a08"},"vehicle_type_id":"4","last_reported":1741039710,"current_range_meters":16800,"station_id":"ce4bhg92rcd13ifvqf90","pricing_plan_id":"cebpf4jnsgd1na2vs0mg"},{"bike_id":"954be03c-bedc-4d79-b23c-ddf297b60e57","system_id":"levelo_inurba_marseille","lat":43.25104,"lon":5.39553,"is_reserved":false,"is_disabled":false,"rental_uris":{"android":"levelo://app?vid=954be03c-bedc-4d79-b23c-ddf297b60e57","ios":"levelo://app?vid=954be03c-bedc-4d79-b23c-ddf297b60e57"},"vehicle_type_id":"4","last_reported":1741039710,"current_range_meters":16800,"station_id":"ce4bhm12rcd13ifvqgkg","pricing_plan_id":"cebpf4jnsgd1na2vs0mg"},{"bike_id":"f83a09a1-05e9-4f34-b3b0-a301d7d23141","system_id":"levelo_inurba_marseille","lat":43.293033,"lon":5.427086,"is_reserved":false,"is_disabled":false,"rental_uris":{"android":"levelo://app?vid=f83a09a1-05e9-4f34-b3b0-a301d7d23141","ios":"levelo://app?vid=f83a09a1-05e9-4f34-b3b0-a301d7d23141"},"vehicle_type_id":"4","last_reported":1741039710,"current_range_meters":16800,"station_id":"","pricing_plan_id":"cebpf4jnsgd1na2vs0mg"},{"bike_id":"2f3067f0-7bbc-458f-8e14-d4bc08996548","system_id":"levelo_inurba_marseille","lat":43.29218,"lon":5.36081,"is_reserved":false,"is_disabled":false,"rental_uris":{"android":"levelo://app?vid=2f3067f0-7bbc-458f-8e14-d4bc08996548","ios":"levelo://app?vid=2f3067f0-7bbc-458f-8e14-d4bc08996548"},"vehicle_type_id":"4","last_reported":1741039710,"current_range_meters":16800,"station_id":"ce4bhbh2rcd13ifvqeqg","pricing_plan_id":"cebpf4jnsgd1na2vs0mg"},{"bike_id":"31b1445f-c7ad-40ed-bd63-5cfde2d4e07b","system_id":"levelo_inurba_marseille","lat":43.32783,"lon":5.39146,"is_reserved":false,"is_disabled":false,"rental_uris":{"android":"levelo://app?vid=31b1445f-c7ad-40ed-bd63-5cfde2d4e07b","ios":"levelo://app?vid=31b1445f-c7ad-40ed-bd63-5cfde2d4e07b"},"vehicle_type_id":"4","last_reported":1741039710,"current_range_meters":16800,"station_id":"","pricing_plan_id":"cebpf4jnsgd1na2vs0mg"},{"bike_id":"4ec810ea-73dc-400a-8074-0b79c1f6310a","system_id":"levelo_inurba_marseille","lat":43.31116,"lon":5.37767,"is_reserved":false,"is_disabled":false,"rental_uris":{"android":"levelo://app?vid=4ec810ea-73dc-400a-8074-0b79c1f6310a","ios":"levelo://app?vid=4ec810ea-73dc-400a-8074-0b79c1f6310a"},"vehicle_type_id":"4","last_reported":1741039710,"current_range_meters":16800,"station_id":"ce4bgt92rcd13ifvqcg0","pricing_plan_id":"cebpf4jnsgd1na2vs0mg"},{"bike_id":"f9399c72-5c7c-4b08-ab63-acba36776af1","system_id":"levelo_inurba_marseille","lat":43.28411,"lon":5.37493,"is_reserved":false,"is_disabled":false,"rental_uris":{"android":"levelo://app?vid=f9399c72-5c7c-4b08-ab63-acba36776af1","ios":"levelo://app?vid=f9399c72-5c7c-4b08-ab63-acba36776af1"},"vehicle_type_id":"4","last_reported":1741039710,"current_range_meters":17200,"station_id":"ce4bh412rcd13ifvqds0","pricing_plan_id":"cebpf4jnsgd1na2vs0mg"},{"bike_id":"186c2e13-106b-4934-b963-46eca3550d97","system_id":"levelo_inurba_marseille","lat":43.3112,"lon":5.37768,"is_reserved":false,"is_disabled":false,"rental_uris":{"android":"levelo://app?vid=186c2e13-106b-4934-b963-46eca3550d97","ios":"levelo://app?vid=186c2e13-106b-4934-b963-46eca3550d97"},"vehicle_type_id":"4","last_reported":1741039710,"current_range_meters":17200,"station_id":"ce4bgt92rcd13ifvqcg0","pricing_plan_id":"cebpf4jnsgd1na2vs0mg"},{"bike_id":"0f921424-afa4-4686-90b3-7f97a03d67ae","system_id":"levelo_inurba_marseille","lat":43.31064,"lon":5.38348,"is_reserved":false,"is_disabled":false,"rental_uris":{"android":"levelo://app?vid=0f921424-afa4-4686-90b3-7f97a03d67ae","ios":"levelo://app?vid=0f921424-afa4-4686-90b3-7f97a03d67ae"},"vehicle_type_id":"4","last_reported":1741039710,"current_range_meters":17200,"station_id":"ce4bgv92rcd13ifvqcr0","pricing_plan_id":"cebpf4jnsgd1na2vs0mg"},{"bike_id":"d5debced-2b81-4e17-9b50-d781ba86435e","system_id":"levelo_inurba_marseille","lat":43.29529,"lon":5.39399,"is_reserved":false,"is_disabled":false,"rental_uris":{"android":"levelo://app?vid=d5debced-2b81-4e17-9b50-d781ba86435e","ios":"levelo://app?vid=d5debced-2b81-4e17-9b50-d781ba86435e"},"vehicle_type_id":"4","last_reported":1741039710,"current_range_meters":17200,"station_id":"ce4bh292rcd13ifvqdf0","pricing_plan_id":"cebpf4jnsgd1na2vs0mg"},{"bike_id":"746fd962-f6f9-4941-83ba-433d3b12a1cc","system_id":"levelo_inurba_marseille","lat":43.29253,"lon":5.37616,"is_reserved":false,"is_disabled":false,"rental_uris":{"android":"levelo://app?vid=746fd962-f6f9-4941-83ba-433d3b12a1cc","ios":"levelo://app?vid=746fd962-f6f9-4941-83ba-433d3b12a1cc"},"vehicle_type_id":"4","last_reported":1741039710,"current_range_meters":17200,"station_id":"ce4bgi12rcd13ifvqb80","pricing_plan_id":"cebpf4jnsgd1na2vs0mg"},{"bike_id":"e6ce3260-6e42-4334-a434-b7f25aa0a5bb","system_id":"levelo_inurba_marseille","lat":43.31901,"lon":5.3795,"is_reserved":false,"is_disabled":false,"rental_uris":{"android":"levelo://app?vid=e6ce3260-6e42-4334-a434-b7f25aa0a5bb","ios":"levelo://app?vid=e6ce3260-6e42-4334-a434-b7f25aa0a5bb"},"vehicle_type_id":"4","last_reported":1741039710,"current_range_meters":17200,"station_id":"","pricing_plan_id":"cebpf4jnsgd1na2vs0mg"},{"bike_id":"49ff0a36-2db2-49fc-adb2-7997ee55172b","system_id":"levelo_inurba_marseille","lat":43.30811,"lon":5.37633,"is_reserved":false,"is_disabled":false,"rental_uris":{"android":"levelo://app?vid=49ff0a36-2db2-49fc-adb2-7997ee55172b","ios":"levelo://app?vid=49ff0a36-2db2-49fc-adb2-7997ee55172b"},"vehicle_type_id":"4","last_reported":1741039710,"current_range_meters":17600,"station_id":"ce4bgv92rcd13ifvqcq0","pricing_plan_id":"cebpf4jnsgd1na2vs0mg"},