{"last_updated":1761894599,"ttl":60,"version":"2.2","data":{"bikes":[{"bike_id":"aacc01e3-6d9f-491a-b1ed-d10f639e29e2","system_id":"levelo_inurba_marseille","lat":43.337444,"lon":5.374475,"is_reserved":false,"is_disabled":false,"rental_uris":{"android":"levelo://app?vid=aacc01e3-6d9f-491a-b1ed-d10f639e29e2","ios":"levelo://app?vid=aacc01e3-6d9f-491a-b1ed-d10f639e29e2"},"vehicle_type_id":"4","last_reported":1761894599,"current_range_meters":0,"station_id":"","pricing_plan_id":"cebpf4jnsgd1na2vs0mg"},{"bike_id":"4dbab57a-b708-409a-b815-3b9a5d92f753","system_id":"levelo_inurba_marseille","lat":43.337444,"lon":5.374475,"is_reserved":false,"is_disabled":false,"rental_uris":{"android":"levelo://app?vid=4dbab57a-b708-409a-b815-3b9a5d92f753","ios":"levelo://app?vid=4dbab57a-b708-409a-b815-3b9a5d92f753"},"vehicle_type_id":"4","last_reported":1761894599,"current_range_meters":0,"station_id":"","pricing_plan_id":"cebpf4jnsgd1na2vs0mg"},{"bike_id":"b06c4997-7e4f-467a-922f-92f2f2e27e9d","system_id":"levelo_inurba_marseille","lat":43.337444,"lon":5.374475,"is_reserved":false,"is_disabled":false,"rental_uris":{"android":"levelo://app?vid=b06c4997-7e4f-467a-922f-92f2f2e27e9d","ios":"levelo://app?vid=b06c4997-7e4f-467a-922f-92f2f2e27e9d"},"vehicle_type_id":"4","last_reported":1761894599,"current_range_meters":0,"station_id":"","pricing_plan_id":"cebpf4jnsgd1na2vs0mg"},{"bike_id":"bb49b980-4cfb-49a5-9add-f3f9d4fc6db5","system_id":"levelo_inurba_marseille","lat":43.337444,"lon":5.374475,"is_reserved":false,"is_disabled":false,"rental_uris":{"android":"levelo://app?vid=bb49b980-4cfb-49a5-9add-f3f9d4fc6db5","ios":"levelo://app?vid=bb49b980-4cfb-49a5-9add-f3f9d4fc6db5"},"vehicle_type_id":"4","last_reported":1761894599,"current_range_meters":0,"station_id":"","pricing_plan_id":"cebpf4jnsgd1na2vs0mg"},{"bike_id":"b97206fc-6c94-4378-926a-a788d4f71c09","system_id":"levelo_inurba_marseille","lat":43.337444,"lon":5.374475,"is_reserved":false,"is_disabled":false,"rental_uris":{"android":"levelo://app?vid=b97206fc-6c94-4378-926a-a788d4f71c09","ios":"levelo://app?vid=b97206fc-6c94-4378-926a-a788d4f71c09"},"vehicle_type_id":"4","last_reported":1761894599,"current_range_meters":0,"station_id":"","pricing_plan_id":"cebpf4jnsgd1na2vs0mg"},{"bike_id":"37d7ebf5-2b3d-4af3-a7cd-4f29f464d5a0","system_id":"levelo_inurba_marseille","lat":43.337444,"lon":5.374475,"is_reserved":false,"is_disabled":false,"rental_uris":{"android":"levelo://app?vid=37d7ebf5-2b3d-4af3-a7cd-4f29f464d5a0","ios":"levelo://app?vid=37d7ebf5-2b3d-4af3-a7cd-4f29f464d5a0"},"vehicle_type_id":"4","last_reported":1761894599,"current_range_meters":0,"station_id":"","pricing_plan_id":"cebpf4jnsgd1na2vs0mg"},{"bike_id":"4ce4318f-b763-4325-8589-2aecbcc80add","system_id":"levelo_inurba_marseille","lat":43.337444,"lon":5.374475,"is_reserved":false,"is_disabled":false,"rental_uris":{"android":"levelo://app?vid=4ce4318f-b763-4325-8589-2aecbcc80add","ios":"levelo://app?vid=4ce4318f-b763-4325-8589-2aecbcc80add"},"vehicle_type_id":"4","last_reported":1761894599,"current_range_meters":0,"station_id":"","pricing_plan_id":"cebpf4jnsgd1na2vs0mg"},{"bike_id":"da4320ad-f916-4bd4-99f8-5adbc386f400","system_id":"levelo_inurba_marseille","lat":43.313565,"lon":5.385055,"is_reserved":false,"is_disabled":false,"rental_uris":{"android":"levelo://app?vid=da4320ad-f916-4bd4-99f8-5adbc386f400","ios":"levelo://app?vid=da4320ad-f916-4bd4-99f8-5adbc386f400"},"vehicle_type_id":"4","last_reported":1761894599,"current_range_meters":2800,"station_id":"ce4bgt92rcd13ifvqcf0","pricing_plan_id":"cebpf4jnsgd1na2vs0mg"},{"bike_id":"b85120f1-bb36-4950-b98b-e1bc39b70416","system_id":"levelo_inurba_marseille","lat":43.3014,"lon":5.38095,"is_reserved":false,"is_disabled":false,"rental_uris":{"android":"levelo://app?vid=b85120f1-bb36-4950-b98b-e1bc39b70416","ios":"levelo://app?vid=b85120f1-bb36-4950-b98b-e1bc39b70416"},"vehicle_type_id":"4","last_reported":1761894599,"current_range_meters":3200,"station_id":"ce4bgjp2rcd13ifvqbh0","pricing_plan_id":"cebpf4jnsgd1na2vs0mg"},{"bike_id":"8293800e-0cdb-4280-8c15-8cf0b47afcc7","system_id":"levelo_inurba_marseille","lat":43.23155,"lon":5.43759,"is_reserved":false,"is_disabled":false,"rental_uris":{"android":"levelo://app?vid=8293800e-0cdb-4280-8c15-8cf0b47afcc7","ios":"levelo://app?vid=8293800e-0cdb-4280-8c15-8cf0b47afcc7"},"vehicle_type_id":"4","last_reported":1761894599,"current_range_meters":3200,"station_id":"ce4bhmp2rcd13ifvqgog","pricing_plan_id":"cebpf4jnsgd1na2vs0mg"},{"bike_id":"b07e6c54-778e-41c3-a161-9e07ef330032","system_id":"levelo_inurba_marseille","lat":43.3047,"lon":5.3791,"is_reserved":false,"is_disabled":false,"rental_uris":{"android":"levelo://app?vid=b07e6c54-778e-41c3-a161-9e07ef330032","ios":"levelo://app?vid=b07e6c54-778e-41c3-a161-9e07ef330032"},"vehicle_type_id":"4","last_reported":1761894599,"current_range_meters":3200,"station_id":"ce4bgup2rcd13ifvqcn0","pricing_plan_id":"cebpf4jnsgd1na2vs0mg"},{"bike_id":"7db30370-454c-4ea0-a81d-1531212ebfce","system_id":"levelo_inurba_marseille","lat":43.29571,"lon":5.39158,"is_reserved":false,"is_disabled":true,"rental_uris":{"android":"levelo://app?vid=7db30370-454c-4ea0-a81d-1531212ebfce","ios":"levelo://app?vid=7db30370-454c-4ea0-a81d-1531212ebfce"},"vehicle_type_id":"4","last_reported":1761894599,"current_range_meters":3200,"station_id":"","pricing_plan_id":"cebpf4jnsgd1na2vs0mg"},{"bike_id":"d907c087-bdae-4244-924a-85c9d93022f4","system_id":"levelo_inurba_marseille","lat":43.25932,"lon":5.40911,"is_reserved":false,"is_disabled":false,"rental_uris":{"android":"levelo://app?vid=d907c087-bdae-4244-924a-85c9d93022f4","ios":"levelo://app?vid=d907c087-bdae-4244-924a-85c9d93022f4"},"vehicle_type_id":"4","last_reported":1761894599,"current_range_meters":3200,"station_id":"ce4bhm92rcd13ifvqglg","pricing_plan_id":"cebpf4jnsgd1na2vs0mg"},{"bike_id":"82c57213-c643-4d10-9a61-a126e205e4de","system_id":"levelo_inurba_marseille","lat":43.27918,"lon":5.39576,"is_reserved":false,"is_disabled":false,"rental_uris":{"android":"levelo://app?vid=82c57213-c643-4d10-9a61-a126e205e4de","ios":"levelo://app?vid=82c57213-c643-4d10-9a61-a126e205e4de"},"vehicle_type_id":"4","last_reported":1761894599,"current_range_meters":3200,"station_id":"ce4bhf92rcd13ifvqf40","pricing_plan_id":"cebpf4jnsgd1na2vs0mg"},{"bike_id":"ae8ebe94-fc0f-4409-8f77-39eb5c613a67","system_id":"levelo_inurba_marseille","lat":43.337444,"lon":5.374475,"is_reserved":false,"is_disabled":false,"rental_uris":{"android":"levelo://app?vid=ae8ebe94-fc0f-4409-8f77-39eb5c613a67","ios":"levelo://app?vid=ae8ebe94-fc0f-4409-8f77-39eb5c613a67"},"vehicle_type_id":"4","last_reported":1761894599,"current_range_meters":3600,"station_id":"","pricing_plan_id":"cebpf4jnsgd1na2vs0mg"},{"bike_id":"e2e35269-30a5-4900-acfa-b3db6a523382","system_id":"levelo_inurba_marseille","lat":43.28138,"lon":5.37431,"is_reserved":false,"is_disabled":false,"rental_uris":{"android":"levelo://app?vid=e2e35269-30a5-4900-acfa-b3db6a523382","ios":"levelo://app?vid=e2e35269-30a5-4900-acfa-b3db6a523382"},"vehicle_type_id":"4","last_reported":1761894599,"current_range_meters":3600,"station_id":"","pricing_plan_id":"cebpf4jnsgd1na2vs0mg"},{"bike_id":"e85dc3bf-df6a-446b-914b-75189d622bbb","system_id":"levelo_inurba_marseille","lat":43.301687,"lon":5.386029,"is_reserved":false,"is_disabled":false,"rental_uris":{"android":"levelo://app?vid=e85dc3bf-df6a-446b-914b-75189d622bbb","ios":"levelo://app?vid=e85dc3bf-df6a-446b-914b-75189d622bbb"},"vehicle_type_id":"4","last_reported":1761894599,"current_range_meters":4000,"station_id":"","pricing_plan_id":"cebpf4jnsgd1na2vs0mg"},{"bike_id":"c6698ab8-b9c1-4ef6-8d1d-6b190a79e8e9","system_id":"levelo_inurba_marseille","lat":43.309624,"lon":5.372802,"is_reserved":false,"is_disabled":false,"rental_uris":{"android":"levelo://app?vid=c6698ab8-b9c1-4ef6-8d1d-6b190a79e8e9","ios":"levelo://app?vid=c6698ab8-b9c1-4ef6-8d1d-6b190a79e8e9"},"vehicle_type_id":"4","last_reported":1761894599,"current_range_meters":4400,"station_id":"","pricing_plan_id":"cebpf4jnsgd1na2vs0mg"},{"bike_id":"7632d16b-d979-4d51-bdc3-d7a8dfdd012b","system_id":"levelo_inurba_marseille","lat":43.330174,"lon":5.390432,"is_reserved":false,"is_disabled":false,"rental_uris":{"android":"levelo://app?vid=7632d16b-d979-4d51-bdc3-d7a8dfdd012b","ios":"levelo://app?vid=7632d16b-d979-4d51-bdc3-d7a8dfdd012b"},"vehicle_type_id":"4","last_reported":1761894599,"current_range_meters":4400,"station_id":"ce4bhr92rcd13ifvqhrg","pricing_plan_id":"cebpf4jnsgd1na2vs0mg"},{"bike_id":"3296ddd1-811f-49da-94ff-86b4ef787d34","system_id":"levelo_inurba_marseille","lat":43.28934,"lon":5.36641,"is_reserved":false,"is_disabled":false,"rental_uris":{"android":"levelo://app?vid=3296ddd1-811f-49da-94ff-86b4ef787d34","ios":"levelo://app?vid=3296ddd1-811f-49da-94ff-86b4ef787d34"},"vehicle_type_id":"4","last_reported":1761894599,"current_range_meters":4400,"station_id":"ce4bhap2rcd13ifvqek0","pricing_plan_id":"cebpf4jnsgd1na2vs0mg"},{"bike_id":"baeea4d6-b0b3-4e83-af9b-0fb2379be4c2","system_id":"levelo_inurba_marseille","lat":43.23962,"lon":5.36617,"is_reserved":false,"is_disabled":false,"rental_uris":{"android":"levelo://app?vid=baeea4d6-b0b3-4e83-af9b-0fb2379be4c2","ios":"levelo://app?vid=baeea4d6-b0b3-4e83-af9b-0fb2379be4c2"},"vehicle_type_id":"4","last_reported":1761894599,"current_range_meters":4800,"station_id":"ce4bhi12rcd13ifvqfp0","pricing_plan_id":"cebpf4jnsgd1na2vs0mg"},{"bike_id":"52493eca-0768-4afb-877c-fe9b6ad302cf","system_id":"levelo_inurba_marseille","lat":43.31337,"lon":5.36722,"is_reserved":false,"is_disabled":false,"rental_uris":{"android":"levelo://app?vid=52493eca-0768-4afb-877c-fe9b6ad302cf","ios":"levelo://app?vid=52493eca-0768-4afb-877c-fe9b6ad302cf"},"vehicle_type_id":"4","last_reported":1761894599,"current_range_meters":4800,"station_id":"ce4bgr92rcd13ifvqc6g","pricing_plan_id":"cebpf4jnsgd1na2vs0mg"},{"bike_id":"3766a3a5-31f4-4882-a605-7999812b13c3","system_id":"levelo_inurba_marseille","lat":43.282654,"lon":5.411847,"is_reserved":false,"is_disabled":false,"rental_uris":{"android":"levelo://app?vid=3766a3a5-31f4-4882-a605-7999812b13c3","ios":"levelo://app?vid=3766a3a5-31f4-4882-a605-7999812b13c3"},"vehicle_type_id":"4","last_reported":1761894599,"current_range_meters":5600,"station_id":"","pricing_plan_id":"cebpf4jnsgd1na2vs0mg"},{"bike_id":"8a72c798-80af-472b-8fdd-0cc382408231","system_id":"levelo_inurba_marseille","lat":43.301516,"lon":5.38071,"is_reserved":false,"is_disabled":false,"rental_uris":{"android":"levelo://app?vid=8a72c798-80af-472b-8fdd-0cc382408231","ios":"levelo://app?vid=8a72c798-80af-472b-8fdd-0cc382408231"},"vehicle_type_id":"4","last_reported":1761894599,"current_range_meters":5600,"station_id":"ce4bgjp2rcd13ifvqbh0","pricing_plan_id":"cebpf4jnsgd1na2vs0mg"},{"bike_id":"4d6951a1-7a78-4ca2-8ca4-8255e45c3311","system_id":"levelo_inurba_marseille","lat":43.29534,"lon":5.39049,"is_reserved":false,"is_disabled":false,"rental_uris":{"android":"levelo://app?vid=4d6951a1-7a78-4ca2-8ca4-8255e45c3311","ios":"levelo://app?vid=4d6951a1-7a78-4ca2-8ca4-8255e45c3311"},"vehicle_type_id":"4","last_reported":1761894599,"current_range_meters":5600,"station_id":"ce4bh3p2rcd13ifvqdp0","pricing_plan_id":"cebpf4jnsgd1na2vs0mg"},{"bike_id":"4ad04422-99e9-4919-b7c6-d6a9dc3b7a01","system_id":"levelo_inurba_marseille","lat":43.29595,"lon":5.38097,"is_reserved":false,"is_disabled":false,"rental_uris":{"android":"levelo://app?vid=4ad04422-99e9-4919-b7c6-d6a9dc3b7a01","ios":"levelo://app?vid=4ad04422-99e9-4919-b7c6-d6a9dc3b7a01"},"vehicle_type_id":"4","last_reported":1761894599,"current_range_meters":6000,"station_id":"ce4bgl12rcd13ifvqbo0","pricing_plan_id":"cebpf4jnsgd1na2vs0mg"},{"bike_id":"7b51bccb-aa3a-49a8-af03-30f18a101fa3","system_id":"levelo_inurba_marseille","lat":43.24067,"lon":5.37768,"is_reserved":false,"is_disabled":false,"rental_uris":{"android":"levelo://app?vid=7b51bccb-aa3a-49a8-af03-30f18a101fa3","ios":"levelo://app?vid=7b51bccb-aa3a-49a8-af03-30f18a101fa3"},"vehicle_type_id":"4","last_reported":1761894599,"current_range_meters":6000,"station_id":"ce4bhnp2rcd13ifvqgvg","pricing_plan_id":"cebpf4jnsgd1na2vs0mg"},{"bike_id":"d9a3637a-3954-4c82-b9fc-b5f917758005","system_id":"levelo_inurba_marseille","lat":43.28202,"lon":5.39042,"is_reserved":false,"is_disabled":true,"rental_uris":{"android":"levelo://app?vid=d9a3637a-3954-4c82-b9fc-b5f917758005","ios":"levelo://app?vid=d9a3637a-3954-4c82-b9fc-b5f917758005"},"vehicle_type_id":"4","last_reported":1761894599,"current_range_meters":6400,"station_id":"ce4bhn92rcd13ifvqgsg","pricing_plan_id":"cebpf4jnsgd1na2vs0mg"},{"bike_id":"5e93f166-569c-4d88-96ec-8cb1b3eac212","system_id":"levelo_inurba_marseille","lat":43.2979,"lon":5.39358,"is_reserved":false,"is_disabled":false,"rental_uris":{"android":"levelo://app?vid=5e93f166-569c-4d88-96ec-8cb1b3eac212","ios":"levelo://app?vid=5e93f166-569c-4d88-96ec-8cb1b3eac212"},"vehicle_type_id":"4","last_reported":1761894599,"current_range_meters":6400,"station_id":"chh1huq6cuj3fo74tm60","pricing_plan_id":"cebpf4jnsgd1na2vs0mg"},{"bike_id":"faee4aed-34d1-4e59-9f3e-bc2337688920","system_id":"levelo_inurba_marseille","lat":43.31704,"lon":5.43698,"is_reserved":false,"is_disabled":true,"rental_uris":{"android":"levelo://app?vid=faee4aed-34d1-4e59-9f3e-bc2337688920","ios":"levelo://app?vid=faee4aed-34d1-4e59-9f3e-bc2337688920"},"vehicle_type_id":"4","last_reported":1761894599,"current_range_meters":6400,"station_id":"ce4bhp92rcd13ifvqhcg","pricing_plan_id":"cebpf4jnsgd1na2vs0mg"},{"bike_id":"4a8f6ca7-df5d-4722-9092-bdaff0cfbb8d","system_id":"levelo_inurba_marseille","lat":43.24177,"lon":5.39724,"is_reserved":false,"is_disabled":false,"rental_uris":{"android":"levelo://app?vid=4a8f6ca7-df5d-4722-9092-bdaff0cfbb8d","ios":"levelo://app?vid=4a8f6ca7-df5d-4722-9092-bdaff0cfbb8d"},"vehicle_type_id":"4","last_reported":1761894599,"current_range_meters":6400,"station_id":"ce4bhn12rcd13ifvqgpg","pricing_plan_id":"cebpf4jnsgd1na2vs0mg"},{"bike_id":"85afd5da-6093-45b2-8e67-e004b6249797","system_id":"levelo_inurba_marseille","lat":43.284484,"lon":5.391967,"is_reserved":false,"is_disabled":false,"rental_uris":{"android":"levelo://app?vid=85afd5da-6093-45b2-8e67-e004b6249797","ios":"levelo://app?vid=85afd5da-6093-45b2-8e67-e004b6249797"},"vehicle_type_id":"4","last_reported":1761894599,"current_range_meters":6800,"station_id":"ce4bhoh2rcd13ifvqh5g","pricing_plan_id":"cebpf4jnsgd1na2vs0mg"},{"bike_id":"cc2e82cb-5ccb-439b-b8b9-bc00f724273f","system_id":"levelo_inurba_marseille","lat":43.22981,"lon":5.43804,"is_reserved":false,"is_disabled":false,"rental_uris":{"android":"levelo://app?vid=cc2e82cb-5ccb-439b-b8b9-bc00f724273f","ios":"levelo://app?vid=cc2e82cb-5ccb-439b-b8b9-bc00f724273f"},"vehicle_type_id":"4","last_reported":1761894599,"current_range_meters":6800,"station_id":"","pricing_plan_id":"cebpf4jnsgd1na2vs0mg"},{"bike_id":"f3feeff6-d410-4cea-8ba1-9870dc4ec990","system_id":"levelo_inurba_marseille","lat":43.31032,"lon":5.37938,"is_reserved":false,"is_disabled":false,"rental_uris":{"android":"levelo://app?vid=f3feeff6-d410-4cea-8ba1-9870dc4ec990","ios":"levelo://app?vid=f3feeff6-d410-4cea-8ba1-9870dc4ec990"},"vehicle_type_id":"4","last_reported":1761894599,"current_range_meters":6800,"station_id":"","pricing_plan_id":"cebpf4jnsgd1na2vs0mg"},{"bike_id":"ff8a4bcc-82ac-40f1-86a0-3005250d10e8","system_id":"levelo_inurba_marseille","lat":43.28465,"lon":5.38419,"is_reserved":false,"is_disabled":false,"rental_uris":{"android":"levelo://app?vid=ff8a4bcc-82ac-40f1-86a0-3005250d10e8","ios":"levelo://app?vid=ff8a4bcc-82ac-40f1-86a0-3005250d10e8"},"vehicle_type_id":"4","last_reported":1761894599,"current_range_meters":6800,"station_id":"ce4bh512rcd13ifvqe3g","pricing_plan_id":"cebpf4jnsgd1na2vs0mg"},{"bike_id":"82f3d7c6-863c-4d02-a0ce-ff05f3d81388","system_id":"levelo_inurba_marseille","lat":43.28665,"lon":5.36353,"is_reserved":false,"is_disabled":false,"rental_uris":{"android":"levelo://app?vid=82f3d7c6-863c-4d02-a0ce-ff05f3d81388","ios":"levelo://app?vid=82f3d7c6-863c-4d02-a0ce-ff05f3d81388"},"vehicle_type_id":"4","last_reported":1761894599,"current_range_meters":7200,"station_id":"ce4bhah2rcd13ifvqej0","pricing_plan_id":"cebpf4jnsgd1na2vs0mg"},{"bike_id":"59c8dc23-6a88-453c-9305-cf11fe5fdcf0","system_id":"levelo_inurba_marseille","lat":43.23162,"lon":5.43711,"is_reserved":false,"is_disabled":false,"rental_uris":{"android":"levelo://app?vid=59c8dc23-6a88-453c-9305-cf11fe5fdcf0","ios":"levelo://app?vid=59c8dc23-6a88-453c-9305-cf11fe5fdcf0"},"vehicle_type_id":"4","last_reported":1761894599,"current_range_meters":7200,"station_id":"ce4bhmp2rcd13ifvqgog","pricing_plan_id":"cebpf4jnsgd1na2vs0mg"},{"bike_id":"46f3e991-c55b-4d9d-9a37-f9e3e15f4f3f","system_id":"levelo_inurba_marseille","lat":43.2119,"lon":5.35074,"is_reserved":false,"is_disabled":false,"rental_uris":{"android":"levelo://app?vid=46f3e991-c55b-4d9d-9a37-f9e3e15f4f3f","ios":"levelo://app?vid=46f3e991-c55b-4d9d-9a37-f9e3e15f4f3f"},"vehicle_type_id":"4","last_reported":1761894599,"current_range_meters":7200,"station_id":"st_cvj6sg6p6f1abm77japg","pricing_plan_id":"cebpf4jnsgd1na2vs0mg"},{"bike_id":"ac48c9a6-9f76-4a62-8c97-1830981db306","system_id":"levelo_inurba_marseille","lat":43.254726,"lon":5.382135,"is_reserved":false,"is_disabled":false,"rental_uris":{"android":"levelo://app?vid=ac48c9a6-9f76-4a62-8c97-1830981db306","ios":"levelo://app?vid=ac48c9a6-9f76-4a62-8c97-1830981db306"},"vehicle_type_id":"4","last_reported":1761894599,"current_range_meters":8000,"station_id":"","pricing_plan_id":"cebpf4jnsgd1na2vs0mg"},{"bike_id":"4042a8e6-9f9d-4750-97a0-8691b363476d","system_id":"levelo_inurba_marseille","lat":43.288471,"lon":5.396701,"is_reserved":false,"is_disabled":false,"rental_uris":{"android":"levelo://app?vid=4042a8e6-9f9d-4750-97a0-8691b363476d","ios":"levelo://app?vid=4042a8e6-9f9d-4750-97a0-8691b363476d"},"vehicle_type_id":"4","last_reported":1761894599,"current_range_meters":8000,"station_id":"","pricing_plan_id":"cebpf4jnsgd1na2vs0mg"},{"bike_id":"b9f74423-aa79-4748-b80a-22d4a2dba692","system_id":"levelo_inurba_marseille","lat":43.31341,"lon":5.36704,"is_reserved":false,"is_disabled":false,"rental_uris":{"android":"levelo://app?vid=b9f74423-aa79-4748-b80a-22d4a2dba692","ios":"levelo://app?vid=b9f74423-aa79-4748-b80a-22d4a2dba692"},"vehicle_type_id":"4","last_reported":1761894599,"current_range_meters":8000,"station_id":"ce4bgr92rcd13ifvqc6g","pricing_plan_id":"cebpf4jnsgd1na2vs0mg"},{"bike_id":"c71fd93c-acdd-4c99-9a38-a0c6f51793e7","system_id":"levelo_inurba_marseille","lat":43.23147,"lon":5.43721,"is_reserved":false,"is_disabled":false,"rental_uris":{"android":"levelo://app?vid=c71fd93c-acdd-4c99-9a38-a0c6f51793e7","ios":"levelo://app?vid=c71fd93c-acdd-4c99-9a38-a0c6f51793e7"},"vehicle_type_id":"4","last_reported":1761894599,"current_range_meters":8000,"station_id":"ce4bhmp2rcd13ifvqgog","pricing_plan_id":"cebpf4jnsgd1na2vs0mg"},{"bike_id":"3a217d2d-0c7e-4d79-a702-b9135e90946e","system_id":"levelo_inurba_marseille","lat":43.28144,"lon":5.42652,"is_reserved":false,"is_disabled":false,"rental_uris":{"android":"levelo://app?vid=3a217d2d-0c7e-4d79-a702-b9135e90946e","ios":"levelo://app?vid=3a217d2d-0c7e-4d79-a702-b9135e90946e"},"vehicle_type_id":"4","last_reported":1761894599,"current_range_meters":8000,"station_id":"ce4bhnh2rcd13ifvqgug","pricing_plan_id":"cebpf4jnsgd1na2vs0mg"},{"bike_id":"95085d82-855b-4dad-bf49-ab0525e7b191","system_id":"levelo_inurba_marseille","lat":43.2314,"lon":5.43727,"is_reserved":false,"is_disabled":false,"rental_uris":{"android":"levelo://app?vid=95085d82-855b-4dad-bf49-ab0525e7b191","ios":"levelo://app?vid=95085d82-855b-4dad-bf49-ab0525e7b191"},"vehicle_type_id":"4","last_reported":1761894599,"current_range_meters":8400,"station_id":"ce4bhmp2rcd13ifvqgog","pricing_plan_id":"cebpf4jnsgd1na2vs0mg"},{"bike_id":"cee9a211-d377-4cea-ab88-99e67d177cfe","system_id":"levelo_inurba_marseille","lat":43.23196,"lon":5.39982,"is_reserved":false,"is_disabled":false,"rental_uris":{"android":"levelo://app?vid=cee9a211-d377-4cea-ab88-99e67d177cfe","ios":"levelo://app?vid=cee9a211-d377-4cea-ab88-99e67d177cfe"},"vehicle_type_id":"4","last_reported":1761894599,"current_range_meters":8400,"station_id":"ce4bhn12rcd13ifvqgqg","pricing_plan_id":"cebpf4jnsgd1na2vs0mg"},{"bike_id":"59fc4896-d387-43ff-9fc6-2d5ab0606c0c","system_id":"levelo_inurba_marseille","lat":43.28465,"lon":5.35882,"is_reserved":false,"is_disabled":false,"rental_uris":{"android":"levelo://app?vid=59fc4896-d387-43ff-9fc6-2d5ab0606c0c","ios":"levelo://app?vid=59fc4896-d387-43ff-9fc6-2d5ab0606c0c"},"vehicle_type_id":"4","last_reported":1761894599,"current_range_meters":8400,"station_id":"ce4bhah2rcd13ifvqei0","pricing_plan_id":"cebpf4jnsgd1na2vs0mg"},{"bike_id":"6fff56e2-dc33-4322-9554-e738206d1bc0","system_id":"levelo_inurba_marseille","lat":43.211933,"lon":5.350712,"is_reserved":false,"is_disabled":false,"rental_uris":{"android":"levelo://app?vid=6fff56e2-dc33-4322-9554-e738206d1bc0","ios":"levelo://app?vid=6fff56e2-dc33-4322-9554-e738206d1bc0"},"vehicle_type_id":"4","last_reported":1761894599,"current_range_meters":8400,"station_id":"st_cvj6sg6p6f1abm77japg","pricing_plan_id":"cebpf4jnsgd1na2vs0mg"},{"bike_id":"299b6d25-0432-40b3-b88d-599bdb7cfc7b","system_id":"levelo_inurba_marseille","lat":43.2952,"lon":5.39045,"is_reserved":false,"is_disabled":true,"rental_uris":{"android":"levelo://app?vid=299b6d25-0432-40b3-b88d-599bdb7cfc7b","ios":"levelo://app?vid=299b6d25-0432-40b3-b88d-599bdb7cfc7b"},"vehicle_type_id":"4","last_reported":1761894599,"current_range_meters":8400,"station_id":"ce4bh3p2rcd13ifvqdp0","pricing_plan_id":"cebpf4jnsgd1na2vs0mg"},{"bike_id":"9e3564a3-3b3b-4a4a-a9e5-f73e91e05ce8","system_id":"levelo_inurba_marseille","lat":43.3091,"lon":5.36863,"is_reserved":false,"is_disabled":true,"rental_uris":{"android":"levelo://app?vid=9e3564a3-3b3b-4a4a-a9e5-f73e91e05ce8","ios":"levelo://app?vid=9e3564a3-3b3b-4a4a-a9e5-f73e91e05ce8"},"vehicle_type_id":"4","last_reported":1761894599,"current_range_meters":8400,"station_id":"ce4bgn92rcd13ifvqbvg","pricing_plan_id":"cebpf4jnsgd1na2vs0mg"},{"bike_id":"53c1e4c1-be5b-45c9-b2c7-e603e7ed276a","system_id":"levelo_inurba_marseille","lat":43.25726,"lon":5.41077,"is_reserved":false,"is_disabled":false,"rental_uris":{"android":"levelo://app?vid=53c1e4c1-be5b-45c9-b2c7-e603e7ed276a","ios":"levelo://app?vid=53c1e4c1-be5b-45c9-b2c7-e603e7ed276a"},"vehicle_type_id":"4","last_reported":1761894599,"current_range_meters":8400,"station_id":"ce4bhkp2rcd13ifvqgd0","pricing_plan_id":"cebpf4jnsgd1na2vs0mg"},{"bike_id":"1bdb0524-fd2f-434a-9e83-4b7a1a09b5bb","system_id":"levelo_inurba_marseille","lat":43.33407,"lon":5.41115,"is_reserved":false,"is_disabled":false,"rental_uris":{"android":"levelo://app?vid=1bdb0524-fd2f-434a-9e83-4b7a1a09b5bb","ios":"levelo://app?vid=1bdb0524-fd2f-434a-9e83-4b7a1a09b5bb"},"vehicle_type_id":"4","last_reported":1761894599,"current_range_meters":8400,"station_id":"","pricing_plan_id":"cebpf4jnsgd1na2vs0mg"},{"bike_id":"e1e2a457-df19-4b98-90a8-25aeb1c4995a","system_id":"levelo_inurba_marseille","lat":43.2603,"lon":5.41752,"is_reserved":false,"is_disabled":false,"rental_uris":{"android":"levelo://app?vid=e1e2a457-df19-4b98-90a8-25aeb1c4995a","ios":"levelo://app?vid=e1e2a457-df19-4b98-90a8-25aeb1c4995a"},"vehicle_type_id":"4","last_reported":1761894599,"current_range_meters":8800,"station_id":"","pricing_plan_id":"cebpf4jnsgd1na2vs0mg"},{"bike_id":"22878d24-6d09-4c78-8701-97568c72061f","system_id":"levelo_inurba_marseille","lat":43.30773,"lon":5.37662,"is_reserved":false,"is_disabled":false,"rental_uris":{"android":"levelo://app?vid=22878d24-6d09-4c78-8701-97568c72061f","ios":"levelo://app?vid=22878d24-6d09-4c78-8701-97568c72061f"},"vehicle_type_id":"4","last_reported":1761894599,"current_range_meters":8800,"station_id":"ce4bgv92rcd13ifvqcq0","pricing_plan_id":"cebpf4jnsgd1na2vs0mg"},{"bike_id":"81f0d162-b88c-4c48-ac3a-5de6e63d58f3","system_id":"levelo_inurba_marseille","lat":43.29856,"lon":5.38473,"is_reserved":false,"is_disabled":false,"rental_uris":{"android":"levelo://app?vid=81f0d162-b88c-4c48-ac3a-5de6e63d58f3","ios":"levelo://app?vid=81f0d162-b88c-4c48-ac3a-5de6e63d58f3"},"vehicle_type_id":"4","last_reported":1761894599,"current_range_meters":8800,"station_id":"","pricing_plan_id":"cebpf4jnsgd1na2vs0mg"},{"bike_id":"003dc589-afc6-47c4-a84a-e90cd5f91109","system_id":"levelo_inurba_marseille","lat":43.295195,"lon":5.390344,"is_reserved":false,"is_disabled":true,"rental_uris":{"android":"levelo://app?vid=003dc589-afc6-47c4-a84a-e90cd5f91109","ios":"levelo://app?vid=003dc589-afc6-47c4-a84a-e90cd5f91109"},"vehicle_type_id":"4","last_reported":1761894599,"current_range_meters":8800,"station_id":"ce4bh3p2rcd13ifvqdp0","pricing_plan_id":"cebpf4jnsgd1na2vs0mg"},{"bike_id":"2db2a9a1-d059-4ac4-9b86-ca30546cc040","system_id":"levelo_inurba_marseille","lat":43.29862,"lon":5.36284,"is_reserved":false,"is_disabled":false,"rental_uris":{"android":"levelo://app?vid=2db2a9a1-d059-4ac4-9b86-ca30546cc040","ios":"levelo://app?vid=2db2a9a1-d059-4ac4-9b86-ca30546cc040"},"vehicle_type_id":"4","last_reported":1761894599,"current_range_meters":8800,"station_id":"ce4bgpp2rcd13ifvqc3g","pricing_plan_id":"cebpf4jnsgd1na2vs0mg"},{"bike_id":"3126ce35-4101-4b06-a7b2-19548fb25089","system_id":"levelo_inurba_marseille","lat":43.21195,"lon":5.35066,"is_reserved":false,"is_disabled":false,"rental_uris":{"android":"levelo://app?vid=3126ce35-4101-4b06-a7b2-19548fb25089","ios":"levelo://app?vid=3126ce35-4101-4b06-a7b2-19548fb25089"},"vehicle_type_id":"4","last_reported":1761894599,"current_range_meters":8800,"station_id":"st_cvj6sg6p6f1abm77japg","pricing_plan_id":"cebpf4jnsgd1na2vs0mg"},{"bike_id":"5d9d3525-7a41-4126-a5b1-68a6bb3fb552","system_id":"levelo_inurba_marseille","lat":43.28938,"lon":5.39637,"is_reserved":false,"is_disabled":false,"rental_uris":{"android":"levelo://app?vid=5d9d3525-7a41-4126-a5b1-68a6bb3fb552","ios":"levelo://app?vid=5d9d3525-7a41-4126-a5b1-68a6bb3fb552"},"vehicle_type_id":"4","last_reported":1761894599,"current_range_meters":8800,"station_id":"ce4bh3h2rcd13ifvqdn0","pricing_plan_id":"cebpf4jnsgd1na2vs0mg"},{"bike_id":"942cb668-9ab0-4e5e-8a02-78f93e17c71e","system_id":"levelo_inurba_marseille","lat":43.30025,"lon":5.38343,"is_reserved":false,"is_disabled":false,"rental_uris":{"android":"levelo://app?vid=942cb668-9ab0-4e5e-8a02-78f93e17c71e","ios":"levelo://app?vid=942cb668-9ab0-4e5e-8a02-78f93e17c71e"},"vehicle_type_id":"4","last_reported":1761894599,"current_range_meters":9200,"station_id":"","pricing_plan_id":"cebpf4jnsgd1na2vs0mg"},{"bike_id":"688e0991-23bb-4f67-a97d-b9bb7704a66a","system_id":"levelo_inurba_marseille","lat":43.29255,"lon":5.39101,"is_reserved":false,"is_disabled":false,"rental_uris":{"android":"levelo://app?vid=688e0991-23bb-4f67-a97d-b9bb7704a66a","ios":"levelo://app?vid=688e0991-23bb-4f67-a97d-b9bb7704a66a"},"vehicle_type_id":"4","last_reported":1761894599,"current_range_meters":9200,"station_id":"","pricing_plan_id":"cebpf4jnsgd1na2vs0mg"},{"bike_id":"eb98d852-e103-4ef2-ad42-c16d73c8a137","system_id":"levelo_inurba_marseille","lat":43.28413,"lon":5.39218,"is_reserved":false,"is_disabled":false,"rental_uris":{"android":"levelo://app?vid=eb98d852-e103-4ef2-ad42-c16d73c8a137","ios":"levelo://app?vid=eb98d852-e103-4ef2-ad42-c16d73c8a137"},"vehicle_type_id":"4","last_reported":1761894599,"current_range_meters":9200,"station_id":"ce4bhoh2rcd13ifvqh5g","pricing_plan_id":"cebpf4jnsgd1na2vs0mg"},{"bike_id":"6c3f8b32-c115-4971-ab70-7ce53698f0ed","system_id":"levelo_inurba_marseille","lat":43.28147,"lon":5.42639,"is_reserved":false,"is_disabled":false,"rental_uris":{"android":"levelo://app?vid=6c3f8b32-c115-4971-ab70-7ce53698f0ed","ios":"levelo://app?vid=6c3f8b32-c115-4971-ab70-7ce53698f0ed"},"vehicle_type_id":"4","last_reported":1761894599,"current_range_meters":9200,"station_id":"ce4bhnh2rcd13ifvqgug","pricing_plan_id":"cebpf4jnsgd1na2vs0mg"},{"bike_id":"ef077506-ad53-48c6-96ed-57184394616c","system_id":"levelo_inurba_marseille","lat":43.30878,"lon":5.37167,"is_reserved":false,"is_disabled":false,"rental_uris":{"android":"levelo://app?vid=ef077506-ad53-48c6-96ed-57184394616c","ios":"levelo://app?vid=ef077506-ad53-48c6-96ed-57184394616c"},"vehicle_type_id":"4","last_reported":1761894599,"current_range_meters":9600,"station_id":"ce4bguh2rcd13ifvqckg","pricing_plan_id":"cebpf4jnsgd1na2vs0mg"},{"bike_id":"22219237-c8df-4ea1-8cfc-d971c5dcd449","system_id":"levelo_inurba_marseille","lat":43.24066,"lon":5.37725,"is_reserved":false,"is_disabled":false,"rental_uris":{"android":"levelo://app?vid=22219237-c8df-4ea1-8cfc-d971c5dcd449","ios":"levelo://app?vid=22219237-c8df-4ea1-8cfc-d971c5dcd449"},"vehicle_type_id":"4","last_reported":1761894599,"current_range_meters":9600,"station_id":"ce4bhnp2rcd13ifvqgvg","pricing_plan_id":"cebpf4jnsgd1na2vs0mg"},{"bike_id":"4c1b2049-b590-4ae2-a090-9d731b00e193","system_id":"levelo_inurba_marseille","lat":43.270644,"lon":5.422739,"is_reserved":false,"is_disabled":false,"rental_uris":{"android":"levelo://app?vid=4c1b2049-b590-4ae2-a090-9d731b00e193","ios":"levelo://app?vid=4c1b2049-b590-4ae2-a090-9d731b00e193"},"vehicle_type_id":"4","last_reported":1761894599,"current_range_meters":9600,"station_id":"ce4bhk92rcd13ifvqgb0","pricing_plan_id":"cebpf4jnsgd1na2vs0mg"},{"bike_id":"007896d7-a74d-4bb8-b312-9f7c544e6281","system_id":"levelo_inurba_marseille","lat":43.29178,"lon":5.35805,"is_reserved":false,"is_disabled":false,"rental_uris":{"android":"levelo://app?vid=007896d7-a74d-4bb8-b312-9f7c544e6281","ios":"levelo://app?vid=007896d7-a74d-4bb8-b312-9f7c544e6281"},"vehicle_type_id":"4","last_reported":1761894599,"current_range_meters":9600,"station_id":"ce4bhb12rcd13ifvqel0","pricing_plan_id":"cebpf4jnsgd1na2vs0mg"},{"bike_id":"0b1b4eb2-08ad-4740-b0ed-46827b0ff964","system_id":"levelo_inurba_marseille","lat":43.30773,"lon":5.37661,"is_reserved":false,"is_disabled":false,"rental_uris":{"android":"levelo://app?vid=0b1b4eb2-08ad-4740-b0ed-46827b0ff964","ios":"levelo://app?vid=0b1b4eb2-08ad-4740-b0ed-46827b0ff964"},"vehicle_type_id":"4","last_reported":1761894599,"current_range_meters":9600,"station_id":"ce4bgv92rcd13ifvqcq0","pricing_plan_id":"cebpf4jnsgd1na2vs0mg"},{"bike_id":"e7fbda8d-e4b1-4d1d-8e59-650ead40058d","system_id":"levelo_inurba_marseille","lat":43.24639,"lon":5.43138,"is_reserved":false,"is_disabled":false,"rental_uris":{"android":"levelo://app?vid=e7fbda8d-e4b1-4d1d-8e59-650ead40058d","ios":"levelo://app?vid=e7fbda8d-e4b1-4d1d-8e59-650ead40058d"},"vehicle_type_id":"4","last_reported":1761894599,"current_range_meters":10000,"station_id":"st_d2m6c4gdas8pm72e190g","pricing_plan_id":"cebpf4jnsgd1na2vs0mg"},{"bike_id":"169905cb-ac91-4dda-9c65-ae951f2fedd8","system_id":"levelo_inurba_marseille","lat":43.29266,"lon":5.37625,"is_reserved":false,"is_disabled":false,"rental_uris":{"android":"levelo://app?vid=169905cb-ac91-4dda-9c65-ae951f2fedd8","ios":"levelo://app?vid=169905cb-ac91-4dda-9c65-ae951f2fedd8"},"vehicle_type_id":"4","last_reported":1761894599,"current_range_meters":10000,"station_id":"ce4bgi12rcd13ifvqb80","pricing_plan_id":"cebpf4jnsgd1na2vs0mg"},{"bike_id":"7a999160-9831-4d4f-86b7-5157d2a58c5a","system_id":"levelo_inurba_marseille","lat":43.2319,"lon":5.39982,"is_reserved":false,"is_disabled":false,"rental_uris":{"android":"levelo://app?vid=7a999160-9831-4d4f-86b7-5157d2a58c5a","ios":"levelo://app?vid=7a999160-9831-4d4f-86b7-5157d2a58c5a"},"vehicle_type_id":"4","last_reported":1761894599,"current_range_meters":10000,"station_id":"ce4bhn12rcd13ifvqgqg","pricing_plan_id":"cebpf4jnsgd1na2vs0mg"},{"bike_id":"bd43bf2d-d103-4900-8015-35353dbf95d9","system_id":"levelo_inurba_marseille","lat":43.30318,"lon":5.40443,"is_reserved":false,"is_disabled":false,"rental_uris":{"android":"levelo://app?vid=bd43bf2d-d103-4900-8015-35353dbf95d9","ios":"levelo://app?vid=bd43bf2d-d103-4900-8015-35353dbf95d9"},"vehicle_type_id":"4","last_reported":1761894599,"current_range_meters":10000,"station_id":"ce4bh012rcd13ifvqd10","pricing_plan_id":"cebpf4jnsgd1na2vs0mg"},{"bike_id":"f6946de9-6fd5-486c-846e-6aac0ac8e59f","system_id":"levelo_inurba_marseille","lat":43.21192,"lon":5.35081,"is_reserved":false,"is_disabled":false,"rental_uris":{"android":"levelo://app?vid=f6946de9-6fd5-486c-846e-6aac0ac8e59f","ios":"levelo://app?vid=f6946de9-6fd5-486c-846e-6aac0ac8e59f"},"vehicle_type_id":"4","last_reported":1761894599,"current_range_meters":10000,"station_id":"st_cvj6sg6p6f1abm77japg","pricing_plan_id":"cebpf4jnsgd1na2vs0mg"},{"bike_id":"a159c7fa-4c33-479a-9130-82f09aa8b34d","system_id":"levelo_inurba_marseille","lat":43.25084,"lon":5.39541,"is_reserved":false,"is_disabled":false,"rental_uris":{"android":"levelo://app?vid=a159c7fa-4c33-479a-9130-82f09aa8b34d","ios":"levelo://app?vid=a159c7fa-4c33-479a-9130-82f09aa8b34d"},"vehicle_type_id":"4","last_reported":1761894599,"current_range_meters":10000,"station_id":"ce4bhm12rcd13ifvqgkg","pricing_plan_id":"cebpf4jnsgd1na2vs0mg"},{"bike_id":"d99505fe-d7a7-4e44-b7f5-f0065cd01a03","system_id":"levelo_inurba_marseille","lat":43.333665,"lon":5.429038,"is_reserved":false,"is_disabled":false,"rental_uris":{"android":"levelo://app?vid=d99505fe-d7a7-4e44-b7f5-f0065cd01a03","ios":"levelo://app?vid=d99505fe-d7a7-4e44-b7f5-f0065cd01a03"},"vehicle_type_id":"4","last_reported":1761894599,"current_range_meters":10800,"station_id":"","pricing_plan_id":"cebpf4jnsgd1na2vs0mg"},{"bike_id":"196a7d4a-05f1-40ba-beda-a1fd200da649","system_id":"levelo_inurba_marseille","lat":43.28419,"lon":5.375274,"is_reserved":false,"is_disabled":false,"rental_uris":{"android":"levelo://app?vid=196a7d4a-05f1-40ba-beda-a1fd200da649","ios":"levelo://app?vid=196a7d4a-05f1-40ba-beda-a1fd200da649"},"vehicle_type_id":"4","last_reported":1761894599,"current_range_meters":10800,"station_id":"ce4bh412rcd13ifvqds0","pricing_plan_id":"cebpf4jnsgd1na2vs0mg"},{"bike_id":"917c7cf8-f6a9-404f-b9c2-35276abaea43","system_id":"levelo_inurba_marseille","lat":43.32365,"lon":5.38878,"is_reserved":false,"is_disabled":false,"rental_uris":{"android":"levelo://app?vid=917c7cf8-f6a9-404f-b9c2-35276abaea43","ios":"levelo://app?vid=917c7cf8-f6a9-404f-b9c2-35276abaea43"},"vehicle_type_id":"4","last_reported":1761894599,"current_range_meters":10800,"station_id":"ce4bhqp2rcd13ifvqhog","pricing_plan_id":"cebpf4jnsgd1na2vs0mg"},{"bike_id":"117ae17e-ef15-4bc2-ae40-d75a93066efd","system_id":"levelo_inurba_marseille","lat":43.30934,"lon":5.4012,"is_reserved":false,"is_disabled":true,"rental_uris":{"android":"levelo://app?vid=117ae17e-ef15-4bc2-ae40-d75a93066efd","ios":"levelo://app?vid=117ae17e-ef15-4bc2-ae40-d75a93066efd"},"vehicle_type_id":"4","last_reported":1761894599,"current_range_meters":10800,"station_id":"ce4bgvp2rcd13ifvqct0","pricing_plan_id":"cebpf4jnsgd1na2vs0mg"},{"bike_id":"7f597b80-e60b-4d55-8e6a-3e68b1031742","system_id":"levelo_inurba_marseille","lat":43.25066,"lon":5.39537,"is_reserved":false,"is_disabled":false,"rental_uris":{"android":"levelo://app?vid=7f597b80-e60b-4d55-8e6a-3e68b1031742","ios":"levelo://app?vid=7f597b80-e60b-4d55-8e6a-3e68b1031742"},"vehicle_type_id":"4","last_reported":1761894599,"current_range_meters":11200,"station_id":"ce4bhm12rcd13ifvqgkg","pricing_plan_id":"cebpf4jnsgd1na2vs0mg"},{"bike_id":"08b2eda2-0e70-4be1-8cbd-085b9bda286c","system_id":"levelo_inurba_marseille","lat":43.2994,"lon":5.36558,"is_reserved":false,"is_disabled":false,"rental_uris":{"android":"levelo://app?vid=08b2eda2-0e70-4be1-8cbd-085b9bda286c","ios":"levelo://app?vid=08b2eda2-0e70-4be1-8cbd-085b9bda286c"},"vehicle_type_id":"4","last_reported":1761894599,"current_range_meters":11200,"station_id":"ce4bgm92rcd13ifvqbr0","pricing_plan_id":"cebpf4jnsgd1na2vs0mg"},{"bike_id":"f1ebec42-de39-49cb-aa79-a7d00cd08ff7","system_id":"levelo_inurba_marseille","lat":43.330206,"lon":5.390382,"is_reserved":false,"is_disabled":false,"rental_uris":{"android":"levelo://app?vid=f1ebec42-de39-49cb-aa79-a7d00cd08ff7","ios":"levelo://app?vid=f1ebec42-de39-49cb-aa79-a7d00cd08ff7"},"vehicle_type_id":"4","last_reported":1761894599,"current_range_meters":11200,"station_id":"ce4bhr92rcd13ifvqhrg","pricing_plan_id":"cebpf4jnsgd1na2vs0mg"},{"bike_id":"dd457ba3-9e07-42fa-81ff-1ce7b1782007","system_id":"levelo_inurba_marseille","lat":43.29807,"lon":5.38127,"is_reserved":false,"is_disabled":false,"rental_uris":{"android":"levelo://app?vid=dd457ba3-9e07-42fa-81ff-1ce7b1782007","ios":"levelo://app?vid=dd457ba3-9e07-42fa-81ff-1ce7b1782007"},"vehicle_type_id":"4","last_reported":1761894599,"current_range_meters":11200,"station_id":"ce4bgip2rcd13ifvqbb0","pricing_plan_id":"cebpf4jnsgd1na2vs0mg"},{"bike_id":"9b93b5e1-c939-4745-bf85-2d21945442dc","system_id":"levelo_inurba_marseille","lat":43.30001,"lon":5.36379,"is_reserved":false,"is_disabled":false,"rental_uris":{"android":"levelo://app?vid=9b93b5e1-c939-4745-bf85-2d21945442dc","ios":"levelo://app?vid=9b93b5e1-c939-4745-bf85-2d21945442dc"},"vehicle_type_id":"4","last_reported":1761894599,"current_range_meters":11600,"station_id":"","pricing_plan_id":"cebpf4jnsgd1na2vs0mg"},{"bike_id":"926593f6-579b-4bc9-b774-62aba5138a9f","system_id":"levelo_inurba_marseille","lat":43.313618,"lon":5.385077,"is_reserved":false,"is_disabled":false,"rental_uris":{"android":"levelo://app?vid=926593f6-579b-4bc9-b774-62aba5138a9f","ios":"levelo://app?vid=926593f6-579b-4bc9-b774-62aba5138a9f"},"vehicle_type_id":"4","last_reported":1761894599,"current_range_meters":11600,"station_id":"ce4bgt92rcd13ifvqcf0","pricing_plan_id":"cebpf4jnsgd1na2vs0mg"},{"bike_id":"0d38b03c-e157-4d26-ae3d-27b563024fc4","system_id":"levelo_inurba_marseille","lat":43.30785,"lon":5.37636,"is_reserved":false,"is_disabled":false,"rental_uris":{"android":"levelo://app?vid=0d38b03c-e157-4d26-ae3d-27b563024fc4","ios":"levelo://app?vid=0d38b03c-e157-4d26-ae3d-27b563024fc4"},"vehicle_type_id":"4","last_reported":1761894599,"current_range_meters":11600,"station_id":"ce4bgv92rcd13ifvqcq0","pricing_plan_id":"cebpf4jnsgd1na2vs0mg"},{"bike_id":"fb2a965b-2372-405d-a458-766be3b50c2a","system_id":"levelo_inurba_marseille","lat":43.302277,"lon":5.395111,"is_reserved":false,"is_disabled":false,"rental_uris":{"android":"levelo://app?vid=fb2a965b-2372-405d-a458-766be3b50c2a","ios":"levelo://app?vid=fb2a965b-2372-405d-a458-766be3b50c2a"},"vehicle_type_id":"4","last_reported":1761894599,"current_range_meters":11600,"station_id":"","pricing_plan_id":"cebpf4jnsgd1na2vs0mg"},{"bike_id":"6031e130-bc2f-4945-be2d-739bc30e9d8e","system_id":"levelo_inurba_marseille","lat":43.28528,"lon":5.44087,"is_reserved":false,"is_disabled":false,"rental_uris":{"android":"levelo://app?vid=6031e130-bc2f-4945-be2d-739bc30e9d8e","ios":"levelo://app?vid=6031e130-bc2f-4945-be2d-739bc30e9d8e"},"vehicle_type_id":"4","last_reported":1761894599,"current_range_meters":11600,"station_id":"st_d3j3df2ikq2c7380ej80","pricing_plan_id":"cebpf4jnsgd1na2vs0mg"},{"bike_id":"69daedd1-e532-426c-b096-24cfed29fb24","system_id":"levelo_inurba_marseille","lat":43.27924,"lon":5.41065,"is_reserved":false,"is_disabled":false,"rental_uris":{"android":"levelo://app?vid=69daedd1-e532-426c-b096-24cfed29fb24","ios":"levelo://app?vid=69daedd1-e532-426c-b096-24cfed29fb24"},"vehicle_type_id":"4","last_reported":1761894599,"current_range_meters":11600,"station_id":"ce4bhnp2rcd13ifvqh0g","pricing_plan_id":"cebpf4jnsgd1na2vs0mg"},{"bike_id":"a18dbf48-2c4d-4fa4-a4c5-c9871d73c9a0","system_id":"levelo_inurba_marseille","lat":43.301994,"lon":5.383462,"is_reserved":false,"is_disabled":false,"rental_uris":{"android":"levelo://app?vid=a18dbf48-2c4d-4fa4-a4c5-c9871d73c9a0","ios":"levelo://app?vid=a18dbf48-2c4d-4fa4-a4c5-c9871d73c9a0"},"vehicle_type_id":"4","last_reported":1761894599,"current_range_meters":11600,"station_id":"ce4bgup2rcd13ifvqcn0","pricing_plan_id":"cebpf4jnsgd1na2vs0mg"},{"bike_id":"4d7d62ab-4ac7-4f11-a006-c751970e74e0","system_id":"levelo_inurba_marseille","lat":43.25322,"lon":5.42155,"is_reserved":false,"is_disabled":false,"rental_uris":{"android":"levelo://app?vid=4d7d62ab-4ac7-4f11-a006-c751970e74e0","ios":"levelo://app?vid=4d7d62ab-4ac7-4f11-a006-c751970e74e0"},"vehicle_type_id":"4","last_reported":1761894599,"current_range_meters":11600,"station_id":"st_d2m65c5bi1j21697t3ng","pricing_plan_id":"cebpf4jnsgd1na2vs0mg"},{"bike_id":"aff1941b-155a-439c-b6d1-9cd7afc356cf","system_id":"levelo_inurba_marseille","lat":43.23968,"lon":5.3662,"is_reserved":false,"is_disabled":false,"rental_uris":{"android":"levelo://app?vid=aff1941b-155a-439c-b6d1-9cd7afc356cf","ios":"levelo://app?vid=aff1941b-155a-439c-b6d1-9cd7afc356cf"},"vehicle_type_id":"4","last_reported":1761894599,"current_range_meters":11600,"station_id":"ce4bhi12rcd13ifvqfp0","pricing_plan_id":"cebpf4jnsgd1na2vs0mg"},{"bike_id":"b61e1e59-261f-4781-9885-10fc3dd1eaf7","system_id":"levelo_inurba_marseille","lat":43.3048,"lon":5.36888,"is_reserved":false,"is_disabled":false,"rental_uris":{"android":"levelo://app?vid=b61e1e59-261f-4781-9885-10fc3dd1eaf7","ios":"levelo://app?vid=b61e1e59-261f-4781-9885-10fc3dd1eaf7"},"vehicle_type_id":"4","last_reported":1761894599,"current_range_meters":11600,"station_id":"","pricing_plan_id":"cebpf4jnsgd1na2vs0mg"},{"bike_id":"f95271cb-8b7d-4173-a6e6-442c346dbea7","system_id":"levelo_inurba_marseille","lat":43.29287,"lon":5.40124,"is_reserved":false,"is_disabled":false,"rental_uris":{"android":"levelo://app?vid=f95271cb-8b7d-4173-a6e6-442c346dbea7","ios":"levelo://app?vid=f95271cb-8b7d-4173-a6e6-442c346dbea7"},"vehicle_type_id":"4","last_reported":1761894599,"current_range_meters":11600,"station_id":"ce4bh312rcd13ifvqdk0","pricing_plan_id":"cebpf4jnsgd1na2vs0mg"},{"bike_id":"13b5bebc-2277-4643-9efc-b419c3a09bbd","system_id":"levelo_inurba_marseille","lat":43.22925,"lon":5.35392,"is_reserved":false,"is_disabled":false,"rental_uris":{"android":"levelo://app?vid=13b5bebc-2277-4643-9efc-b419c3a09bbd","ios":"levelo://app?vid=13b5bebc-2277-4643-9efc-b419c3a09bbd"},"vehicle_type_id":"4","last_reported":1761894599,"current_range_meters":12000,"station_id":"cpo3532slgdg3j2ikp40","pricing_plan_id":"cebpf4jnsgd1na2vs0mg"},{"bike_id":"c0a1ab8d-72ff-4114-b274-fdab8f1c3cb0","system_id":"levelo_inurba_marseille","lat":43.247,"lon":5.38181,"is_reserved":false,"is_disabled":false,"rental_uris":{"android":"levelo://app?vid=c0a1ab8d-72ff-4114-b274-fdab8f1c3cb0","ios":"levelo://app?vid=c0a1ab8d-72ff-4114-b274-fdab8f1c3cb0"},"vehicle_type_id":"4","last_reported":1761894599,"current_range_meters":12000,"station_id":"ce4bhih2rcd13ifvqfr0","pricing_plan_id":"cebpf4jnsgd1na2vs0mg"},{"bike_id":"dece9867-e5a9-4874-bf8f-047757dcdcac","system_id":"levelo_inurba_marseille","lat":43.29277,"lon":5.40129,"is_reserved":false,"is_disabled":false,"rental_uris":{"android":"levelo://app?vid=dece9867-e5a9-4874-bf8f-047757dcdcac","ios":"levelo://app?vid=dece9867-e5a9-4874-bf8f-047757dcdcac"},"vehicle_type_id":"4","last_reported":1761894599,"current_range_meters":12000,"station_id":"ce4bh312rcd13ifvqdk0","pricing_plan_id":"cebpf4jnsgd1na2vs0mg"},{"bike_id":"a0d564f2-5ac0-4238-b3be-1fed830781ea","system_id":"levelo_inurba_marseille","lat":43.273801,"lon":5.362358,"is_reserved":false,"is_disabled":false,"rental_uris":{"android":"levelo://app?vid=a0d564f2-5ac0-4238-b3be-1fed830781ea","ios":"levelo://app?vid=a0d564f2-5ac0-4238-b3be-1fed830781ea"},"vehicle_type_id":"4","last_reported":1761894599,"current_range_meters":12000,"station_id":"","pricing_plan_id":"cebpf4jnsgd1na2vs0mg"},{"bike_id":"c2b29e2a-9ddf-4599-9569-ebeda3771708","system_id":"levelo_inurba_marseille","lat":43.21193,"lon":5.35087,"is_reserved":false,"is_disabled":false,"rental_uris":{"android":"levelo://app?vid=c2b29e2a-9ddf-4599-9569-ebeda3771708","ios":"levelo://app?vid=c2b29e2a-9ddf-4599-9569-ebeda3771708"},"vehicle_type_id":"4","last_reported":1761894599,"current_range_meters":12000,"station_id":"st_cvj6sg6p6f1abm77japg","pricing_plan_id":"cebpf4jnsgd1na2vs0mg"},{"bike_id":"d3e4191f-8708-4957-a7db-efe93d73dc66","system_id":"levelo_inurba_marseille","lat":43.28529,"lon":5.44087,"is_reserved":false,"is_disabled":false,"rental_uris":{"android":"levelo://app?vid=d3e4191f-8708-4957-a7db-efe93d73dc66","ios":"levelo://app?vid=d3e4191f-8708-4957-a7db-efe93d73dc66"},"vehicle_type_id":"4","last_reported":1761894599,"current_range_meters":12400,"station_id":"st_d3j3df2ikq2c7380ej80","pricing_plan_id":"cebpf4jnsgd1na2vs0mg"},{"bike_id":"f9f5725b-4420-4974-8696-29f60feee800","system_id":"levelo_inurba_marseille","lat":43.336108,"lon":5.410231,"is_reserved":false,"is_disabled":false,"rental_uris":{"android":"levelo://app?vid=f9f5725b-4420-4974-8696-29f60feee800","ios":"levelo://app?vid=f9f5725b-4420-4974-8696-29f60feee800"},"vehicle_type_id":"4","last_reported":1761894599,"current_range_meters":12400,"station_id":"ce4bhqh2rcd13ifvqhmg","pricing_plan_id":"cebpf4jnsgd1na2vs0mg"},{"bike_id":"2662fe9b-aa47-4e6a-8505-64d896678582","system_id":"levelo_inurba_marseille","lat":43.22561,"lon":5.41639,"is_reserved":false,"is_disabled":false,"rental_uris":{"android":"levelo://app?vid=2662fe9b-aa47-4e6a-8505-64d896678582","ios":"levelo://app?vid=2662fe9b-aa47-4e6a-8505-64d896678582"},"vehicle_type_id":"4","last_reported":1761894599,"current_range_meters":12400,"station_id":"st_d2o4gvlbi1j2169b742g","pricing_plan_id":"cebpf4jnsgd1na2vs0mg"},{"bike_id":"516995d3-31b4-460f-8436-1dc3fc004b9c","system_id":"levelo_inurba_marseille","lat":43.2926,"lon":5.409,"is_reserved":false,"is_disabled":false,"rental_uris":{"android":"levelo://app?vid=516995d3-31b4-460f-8436-1dc3fc004b9c","ios":"levelo://app?vid=516995d3-31b4-460f-8436-1dc3fc004b9c"},"vehicle_type_id":"4","last_reported":1761894599,"current_range_meters":12400,"station_id":"ce4bh192rcd13ifvqdc0","pricing_plan_id":"cebpf4jnsgd1na2vs0mg"},{"bike_id":"75b2ab03-b6f9-4537-834b-b438df40fe86","system_id":"levelo_inurba_marseille","lat":43.29561,"lon":5.40063,"is_reserved":false,"is_disabled":false,"rental_uris":{"android":"levelo://app?vid=75b2ab03-b6f9-4537-834b-b438df40fe86","ios":"levelo://app?vid=75b2ab03-b6f9-4537-834b-b438df40fe86"},"vehicle_type_id":"4","last_reported":1761894599,"current_range_meters":12400,"station_id":"","pricing_plan_id":"cebpf4jnsgd1na2vs0mg"},{"bike_id":"5de2d1a8-73fd-4111-9eaa-87a8310fed91","system_id":"levelo_inurba_marseille","lat":43.29634,"lon":5.40598,"is_reserved":false,"is_disabled":false,"rental_uris":{"android":"levelo://app?vid=5de2d1a8-73fd-4111-9eaa-87a8310fed91","ios":"levelo://app?vid=5de2d1a8-73fd-4111-9eaa-87a8310fed91"},"vehicle_type_id":"4","last_reported":1761894599,"current_range_meters":12400,"station_id":"ce4bh0h2rcd13ifvqd60","pricing_plan_id":"cebpf4jnsgd1na2vs0mg"},{"bike_id":"0ea07904-84f7-4751-a79c-34eb67ef8001","system_id":"levelo_inurba_marseille","lat":43.24548,"lon":5.39535,"is_reserved":false,"is_disabled":false,"rental_uris":{"android":"levelo://app?vid=0ea07904-84f7-4751-a79c-34eb67ef8001","ios":"levelo://app?vid=0ea07904-84f7-4751-a79c-34eb67ef8001"},"vehicle_type_id":"4","last_reported":1761894599,"current_range_meters":12800,"station_id":"ce4bhlp2rcd13ifvqgjg","pricing_plan_id":"cebpf4jnsgd1na2vs0mg"},{"bike_id":"0e8e0a18-4139-452e-bab3-cb99f058b247","system_id":"levelo_inurba_marseille","lat":43.29492,"lon":5.419896,"is_reserved":false,"is_disabled":true,"rental_uris":{"android":"levelo://app?vid=0e8e0a18-4139-452e-bab3-cb99f058b247","ios":"levelo://app?vid=0e8e0a18-4139-452e-bab3-cb99f058b247"},"vehicle_type_id":"4","last_reported":1761894599,"current_range_meters":12800,"station_id":"","pricing_plan_id":"cebpf4jnsgd1na2vs0mg"},{"bike_id":"88327406-ba65-4ce0-831c-3da476dbb691","system_id":"levelo_inurba_marseille","lat":43.237827,"lon":5.366276,"is_reserved":false,"is_disabled":false,"rental_uris":{"android":"levelo://app?vid=88327406-ba65-4ce0-831c-3da476dbb691","ios":"levelo://app?vid=88327406-ba65-4ce0-831c-3da476dbb691"},"vehicle_type_id":"4","last_reported":1761894599,"current_range_meters":12800,"station_id":"st_d3nk18o9ro0c73en2l3g","pricing_plan_id":"cebpf4jnsgd1na2vs0mg"},{"bike_id":"b8f404d3-62c4-4489-a471-d37212346558","system_id":"levelo_inurba_marseille","lat":43.310638,"lon":5.378646,"is_reserved":false,"is_disabled":false,"rental_uris":{"android":"levelo://app?vid=b8f404d3-62c4-4489-a471-d37212346558","ios":"levelo://app?vid=b8f404d3-62c4-4489-a471-d37212346558"},"vehicle_type_id":"4","last_reported":1761894599,"current_range_meters":12800,"station_id":"","pricing_plan_id":"cebpf4jnsgd1na2vs0mg"},{"bike_id":"bf249e9a-ea64-452d-bc1b-e8d78d39e8c4","system_id":"levelo_inurba_marseille","lat":43.23194,"lon":5.39975,"is_reserved":false,"is_disabled":false,"rental_uris":{"android":"levelo://app?vid=bf249e9a-ea64-452d-bc1b-e8d78d39e8c4","ios":"levelo://app?vid=bf249e9a-ea64-452d-bc1b-e8d78d39e8c4"},"vehicle_type_id":"4","last_reported":1761894599,"current_range_meters":12800,"station_id":"ce4bhn12rcd13ifvqgqg","pricing_plan_id":"cebpf4jnsgd1na2vs0mg"},{"bike_id":"28bbf614-7806-40a7-b631-19d992de53ed","system_id":"levelo_inurba_marseille","lat":43.229259,"lon":5.353841,"is_reserved":false,"is_disabled":false,"rental_uris":{"android":"levelo://app?vid=28bbf614-7806-40a7-b631-19d992de53ed","ios":"levelo://app?vid=28bbf614-7806-40a7-b631-19d992de53ed"},"vehicle_type_id":"4","last_reported":1761894599,"current_range_meters":12800,"station_id":"cpo3532slgdg3j2ikp40","pricing_plan_id":"cebpf4jnsgd1na2vs0mg"},{"bike_id":"0ddd52f3-af9c-49de-9bf2-944301dde1b1","system_id":"levelo_inurba_marseille","lat":43.27803,"lon":5.40701,"is_reserved":false,"is_disabled":false,"rental_uris":{"android":"levelo://app?vid=0ddd52f3-af9c-49de-9bf2-944301dde1b1","ios":"levelo://app?vid=0ddd52f3-af9c-49de-9bf2-944301dde1b1"},"vehicle_type_id":"4","last_reported":1761894599,"current_range_meters":13600,"station_id":"ce4bhnh2rcd13ifvqgtg","pricing_plan_id":"cebpf4jnsgd1na2vs0mg"},{"bike_id":"a3ba9ae1-19bb-4e14-8a8f-cd2d005b5815","system_id":"levelo_inurba_marseille","lat":43.2877,"lon":5.36652,"is_reserved":false,"is_disabled":false,"rental_uris":{"android":"levelo://app?vid=a3ba9ae1-19bb-4e14-8a8f-cd2d005b5815","ios":"levelo://app?vid=a3ba9ae1-19bb-4e14-8a8f-cd2d005b5815"},"vehicle_type_id":"4","last_reported":1761894599,"current_range_meters":13600,"station_id":"","pricing_plan_id":"cebpf4jnsgd1na2vs0mg"},{"bike_id":"02471e56-ad43-4c01-89da-630478758450","system_id":"levelo_inurba_marseille","lat":43.30321,"lon":5.4044,"is_reserved":false,"is_disabled":false,"rental_uris":{"android":"levelo://app?vid=02471e56-ad43-4c01-89da-630478758450","ios":"levelo://app?vid=02471e56-ad43-4c01-89da-630478758450"},"vehicle_type_id":"4","last_reported":1761894599,"current_range_meters":13600,"station_id":"ce4bh012rcd13ifvqd10","pricing_plan_id":"cebpf4jnsgd1na2vs0mg"},{"bike_id":"80c53fab-d9fd-4b9a-94e7-e3f3183e35da","system_id":"levelo_inurba_marseille","lat":43.33017,"lon":5.39051,"is_reserved":false,"is_disabled":false,"rental_uris":{"android":"levelo://app?vid=80c53fab-d9fd-4b9a-94e7-e3f3183e35da","ios":"levelo://app?vid=80c53fab-d9fd-4b9a-94e7-e3f3183e35da"},"vehicle_type_id":"4","last_reported":1761894599,"current_range_meters":13600,"station_id":"ce4bhr92rcd13ifvqhrg","pricing_plan_id":"cebpf4jnsgd1na2vs0mg"},{"bike_id":"7afafebc-9388-4b96-826a-eb1746b15f9a","system_id":"levelo_inurba_marseille","lat":43.27072,"lon":5.42273,"is_reserved":false,"is_disabled":false,"rental_uris":{"android":"levelo://app?vid=7afafebc-9388-4b96-826a-eb1746b15f9a","ios":"levelo://app?vid=7afafebc-9388-4b96-826a-eb1746b15f9a"},"vehicle_type_id":"4","last_reported":1761894599,"current_range_meters":13600,"station_id":"ce4bhk92rcd13ifvqgb0","pricing_plan_id":"cebpf4jnsgd1na2vs0mg"},{"bike_id":"2cfa874f-dc6d-4dd8-9701-01932c0aaea7","system_id":"levelo_inurba_marseille","lat":43.30154,"lon":5.38089,"is_reserved":false,"is_disabled":false,"rental_uris":{"android":"levelo://app?vid=2cfa874f-dc6d-4dd8-9701-01932c0aaea7","ios":"levelo://app?vid=2cfa874f-dc6d-4dd8-9701-01932c0aaea7"},"vehicle_type_id":"4","last_reported":1761894599,"current_range_meters":13600,"station_id":"ce4bgjp2rcd13ifvqbh0","pricing_plan_id":"cebpf4jnsgd1na2vs0mg"},{"bike_id":"8a0ff850-cf9f-4e75-bc3f-994489f28f31","system_id":"levelo_inurba_marseille","lat":43.22557,"lon":5.4163,"is_reserved":false,"is_disabled":false,"rental_uris":{"android":"levelo://app?vid=8a0ff850-cf9f-4e75-bc3f-994489f28f31","ios":"levelo://app?vid=8a0ff850-cf9f-4e75-bc3f-994489f28f31"},"vehicle_type_id":"4","last_reported":1761894599,"current_range_meters":13600,"station_id":"st_d2o4gvlbi1j2169b742g","pricing_plan_id":"cebpf4jnsgd1na2vs0mg"},{"bike_id":"47a0604b-ebf0-481c-99c8-f92e88b99a63","system_id":"levelo_inurba_marseille","lat":43.30774,"lon":5.37648,"is_reserved":false,"is_disabled":false,"rental_uris":{"android":"levelo://app?vid=47a0604b-ebf0-481c-99c8-f92e88b99a63","ios":"levelo://app?vid=47a0604b-ebf0-481c-99c8-f92e88b99a63"},"vehicle_type_id":"4","last_reported":1761894599,"current_range_meters":13600,"station_id":"ce4bgv92rcd13ifvqcq0","pricing_plan_id":"cebpf4jnsgd1na2vs0mg"},{"bike_id":"2f477f8f-972b-406c-841a-14096d9c76ee","system_id":"levelo_inurba_marseille","lat":43.29757,"lon":5.42778,"is_reserved":false,"is_disabled":false,"rental_uris":{"android":"levelo://app?vid=2f477f8f-972b-406c-841a-14096d9c76ee","ios":"levelo://app?vid=2f477f8f-972b-406c-841a-14096d9c76ee"},"vehicle_type_id":"4","last_reported":1761894599,"current_range_meters":14000,"station_id":"st_d3md5207bmas73dh9klg","pricing_plan_id":"cebpf4jnsgd1na2vs0mg"},{"bike_id":"d3173905-3c9f-4639-b7f0-7933d51eab66","system_id":"levelo_inurba_marseille","lat":43.253233,"lon":5.421674,"is_reserved":false,"is_disabled":false,"rental_uris":{"android":"levelo://app?vid=d3173905-3c9f-4639-b7f0-7933d51eab66","ios":"levelo://app?vid=d3173905-3c9f-4639-b7f0-7933d51eab66"},"vehicle_type_id":"4","last_reported":1761894599,"current_range_meters":14000,"station_id":"st_d2m65c5bi1j21697t3ng","pricing_plan_id":"cebpf4jnsgd1na2vs0mg"},{"bike_id":"43a97748-0316-4727-903d-293299d355d4","system_id":"levelo_inurba_marseille","lat":43.30759,"lon":5.387254,"is_reserved":false,"is_disabled":false,"rental_uris":{"android":"levelo://app?vid=43a97748-0316-4727-903d-293299d355d4","ios":"levelo://app?vid=43a97748-0316-4727-903d-293299d355d4"},"vehicle_type_id":"4","last_reported":1761894599,"current_range_meters":14000,"station_id":"ce4bgup2rcd13ifvqco0","pricing_plan_id":"cebpf4jnsgd1na2vs0mg"},{"bike_id":"79ab418a-79c0-4a6e-993b-761280f132d6","system_id":"levelo_inurba_marseille","lat":43.28472,"lon":5.48401,"is_reserved":false,"is_disabled":false,"rental_uris":{"android":"levelo://app?vid=79ab418a-79c0-4a6e-993b-761280f132d6","ios":"levelo://app?vid=79ab418a-79c0-4a6e-993b-761280f132d6"},"vehicle_type_id":"4","last_reported":1761894599,"current_range_meters":14400,"station_id":"st_d3svhcjqgbts73a3dn0g","pricing_plan_id":"cebpf4jnsgd1na2vs0mg"},{"bike_id":"1213ff01-604d-4b83-b3a2-60440c4b245e","system_id":"levelo_inurba_marseille","lat":43.237868,"lon":5.366199,"is_reserved":false,"is_disabled":false,"rental_uris":{"android":"levelo://app?vid=1213ff01-604d-4b83-b3a2-60440c4b245e","ios":"levelo://app?vid=1213ff01-604d-4b83-b3a2-60440c4b245e"},"vehicle_type_id":"4","last_reported":1761894599,"current_range_meters":14400,"station_id":"st_d3nk18o9ro0c73en2l3g","pricing_plan_id":"cebpf4jnsgd1na2vs0mg"},{"bike_id":"46835159-5dd5-4fc9-a732-591f6a5307e4","system_id":"levelo_inurba_marseille","lat":43.31351,"lon":5.37912,"is_reserved":false,"is_disabled":false,"rental_uris":{"android":"levelo://app?vid=46835159-5dd5-4fc9-a732-591f6a5307e4","ios":"levelo://app?vid=46835159-5dd5-4fc9-a732-591f6a5307e4"},"vehicle_type_id":"4","last_reported":1761894599,"current_range_meters":14400,"station_id":"","pricing_plan_id":"cebpf4jnsgd1na2vs0mg"},{"bike_id":"2a99e6de-82a9-4bbf-99c8-57c42edf91b0","system_id":"levelo_inurba_marseille","lat":43.30166,"lon":5.38101,"is_reserved":false,"is_disabled":false,"rental_uris":{"android":"levelo://app?vid=2a99e6de-82a9-4bbf-99c8-57c42edf91b0","ios":"levelo://app?vid=2a99e6de-82a9-4bbf-99c8-57c42edf91b0"},"vehicle_type_id":"4","last_reported":1761894599,"current_range_meters":14400,"station_id":"ce4bgjp2rcd13ifvqbh0","pricing_plan_id":"cebpf4jnsgd1na2vs0mg"},{"bike_id":"a4dac4fa-66e6-48be-a654-6e17cdc7ca0b","system_id":"levelo_inurba_marseille","lat":43.337571,"lon":5.374323,"is_reserved":false,"is_disabled":false,"rental_uris":{"android":"levelo://app?vid=a4dac4fa-66e6-48be-a654-6e17cdc7ca0b","ios":"levelo://app?vid=a4dac4fa-66e6-48be-a654-6e17cdc7ca0b"},"vehicle_type_id":"4","last_reported":1761894599,"current_range_meters":14800,"station_id":"","pricing_plan_id":"cebpf4jnsgd1na2vs0mg"},{"bike_id":"21553026-9263-439d-ab8d-e09b6f3032f3","system_id":"levelo_inurba_marseille","lat":43.25105,"lon":5.40322,"is_reserved":false,"is_disabled":false,"rental_uris":{"android":"levelo://app?vid=21553026-9263-439d-ab8d-e09b6f3032f3","ios":"levelo://app?vid=21553026-9263-439d-ab8d-e09b6f3032f3"},"vehicle_type_id":"4","last_reported":1761894599,"current_range_meters":14800,"station_id":"ce4bhlh2rcd13ifvqgig","pricing_plan_id":"cebpf4jnsgd1na2vs0mg"},{"bike_id":"1282d74a-548d-440e-84c8-e15be2e1b590","system_id":"levelo_inurba_marseille","lat":43.26203,"lon":5.37924,"is_reserved":false,"is_disabled":false,"rental_uris":{"android":"levelo://app?vid=1282d74a-548d-440e-84c8-e15be2e1b590","ios":"levelo://app?vid=1282d74a-548d-440e-84c8-e15be2e1b590"},"vehicle_type_id":"4","last_reported":1761894599,"current_range_meters":15200,"station_id":"ce4bhjp2rcd13ifvqg90","pricing_plan_id":"cebpf4jnsgd1na2vs0mg"},{"bike_id":"26c78a77-de93-4c23-af12-c3910eefe543","system_id":"levelo_inurba_marseille","lat":43.28412,"lon":5.37517,"is_reserved":false,"is_disabled":false,"rental_uris":{"android":"levelo://app?vid=26c78a77-de93-4c23-af12-c3910eefe543","ios":"levelo://app?vid=26c78a77-de93-4c23-af12-c3910eefe543"},"vehicle_type_id":"4","last_reported":1761894599,"current_range_meters":15200,"station_id":"ce4bh412rcd13ifvqds0","pricing_plan_id":"cebpf4jnsgd1na2vs0mg"},{"bike_id":"9da932a5-8f71-41d5-90d3-bb657dc1c603","system_id":"levelo_inurba_marseille","lat":43.276635,"lon":5.388816,"is_reserved":false,"is_disabled":true,"rental_uris":{"android":"levelo://app?vid=9da932a5-8f71-41d5-90d3-bb657dc1c603","ios":"levelo://app?vid=9da932a5-8f71-41d5-90d3-bb657dc1c603"},"vehicle_type_id":"4","last_reported":1761894599,"current_range_meters":15200,"station_id":"ce4bhi12rcd13ifvqfo0","pricing_plan_id":"cebpf4jnsgd1na2vs0mg"},{"bike_id":"10550d20-c29a-421a-ad3c-0acbf44c0aaf","system_id":"levelo_inurba_marseille","lat":43.247986,"lon":5.374661,"is_reserved":false,"is_disabled":false,"rental_uris":{"android":"levelo://app?vid=10550d20-c29a-421a-ad3c-0acbf44c0aaf","ios":"levelo://app?vid=10550d20-c29a-421a-ad3c-0acbf44c0aaf"},"vehicle_type_id":"4","last_reported":1761894599,"current_range_meters":15200,"station_id":"ce4bhgh2rcd13ifvqfb0","pricing_plan_id":"cebpf4jnsgd1na2vs0mg"},{"bike_id":"ee261a32-9de1-4b9e-a923-6c91e1e26176","system_id":"levelo_inurba_marseille","lat":43.284812,"lon":5.483843,"is_reserved":false,"is_disabled":false,"rental_uris":{"android":"levelo://app?vid=ee261a32-9de1-4b9e-a923-6c91e1e26176","ios":"levelo://app?vid=ee261a32-9de1-4b9e-a923-6c91e1e26176"},"vehicle_type_id":"4","last_reported":1761894599,"current_range_meters":15200,"station_id":"st_d3svhcjqgbts73a3dn0g","pricing_plan_id":"cebpf4jnsgd1na2vs0mg"},{"bike_id":"00c10a33-9983-47cc-b41c-8a9a2ed4bb2b","system_id":"levelo_inurba_marseille","lat":43.28414,"lon":5.3754,"is_reserved":false,"is_disabled":false,"rental_uris":{"android":"levelo://app?vid=00c10a33-9983-47cc-b41c-8a9a2ed4bb2b","ios":"levelo://app?vid=00c10a33-9983-47cc-b41c-8a9a2ed4bb2b"},"vehicle_type_id":"4","last_reported":1761894599,"current_range_meters":15200,"station_id":"ce4bh412rcd13ifvqds0","pricing_plan_id":"cebpf4jnsgd1na2vs0mg"},{"bike_id":"709dc3cb-272e-4021-beff-59c84c7800d8","system_id":"levelo_inurba_marseille","lat":43.246411,"lon":5.388998,"is_reserved":false,"is_disabled":false,"rental_uris":{"android":"levelo://app?vid=709dc3cb-272e-4021-beff-59c84c7800d8","ios":"levelo://app?vid=709dc3cb-272e-4021-beff-59c84c7800d8"},"vehicle_type_id":"4","last_reported":1761894599,"current_range_meters":16000,"station_id":"ce4bhg12rcd13ifvqf60","pricing_plan_id":"cebpf4jnsgd1na2vs0mg"},{"bike_id":"467ad5f0-709e-4541-bd1b-d85c8a863052","system_id":"levelo_inurba_marseille","lat":43.30255,"lon":5.37354,"is_reserved":false,"is_disabled":false,"rental_uris":{"android":"levelo://app?vid=467ad5f0-709e-4541-bd1b-d85c8a863052","ios":"levelo://app?vid=467ad5f0-709e-4541-bd1b-d85c8a863052"},"vehicle_type_id":"4","last_reported":1761894599,"current_range_meters":16000,"station_id":"","pricing_plan_id":"cebpf4jnsgd1na2vs0mg"},{"bike_id":"79124adf-132e-41b2-af99-a4e21a0fde77","system_id":"levelo_inurba_marseille","lat":43.30158,"lon":5.38084,"is_reserved":false,"is_disabled":false,"rental_uris":{"android":"levelo://app?vid=79124adf-132e-41b2-af99-a4e21a0fde77","ios":"levelo://app?vid=79124adf-132e-41b2-af99-a4e21a0fde77"},"vehicle_type_id":"4","last_reported":1761894599,"current_range_meters":16000,"station_id":"ce4bgjp2rcd13ifvqbh0","pricing_plan_id":"cebpf4jnsgd1na2vs0mg"},{"bike_id":"aad6a064-c048-4ba9-a156-1745b89548aa","system_id":"levelo_inurba_marseille","lat":43.28304,"lon":5.41111,"is_reserved":false,"is_disabled":false,"rental_uris":{"android":"levelo://app?vid=aad6a064-c048-4ba9-a156-1745b89548aa","ios":"levelo://app?vid=aad6a064-c048-4ba9-a156-1745b89548aa"},"vehicle_type_id":"4","last_reported":1761894599,"current_range_meters":16000,"station_id":"","pricing_plan_id":"cebpf4jnsgd1na2vs0mg"},{"bike_id":"d367e803-0cc0-433f-bfa1-60ffe7c595bd","system_id":"levelo_inurba_marseille","lat":43.307389,"lon":5.42443,"is_reserved":false,"is_disabled":false,"rental_uris":{"android":"levelo://app?vid=d367e803-0cc0-433f-bfa1-60ffe7c595bd","ios":"levelo://app?vid=d367e803-0cc0-433f-bfa1-60ffe7c595bd"},"vehicle_type_id":"4","last_reported":1761894599,"current_range_meters":16000,"station_id":"st_cvj6ca6bvosntc0bfgr0","pricing_plan_id":"cebpf4jnsgd1na2vs0mg"},{"bike_id":"ec8e4f97-d500-4b79-b9f1-140344d7f670","system_id":"levelo_inurba_marseille","lat":43.23155,"lon":5.43721,"is_reserved":false,"is_disabled":false,"rental_uris":{"android":"levelo://app?vid=ec8e4f97-d500-4b79-b9f1-140344d7f670","ios":"levelo://app?vid=ec8e4f97-d500-4b79-b9f1-140344d7f670"},"vehicle_type_id":"4","last_reported":1761894599,"current_range_meters":16000,"station_id":"ce4bhmp2rcd13ifvqgog","pricing_plan_id":"cebpf4jnsgd1na2vs0mg"},{"bike_id":"14bf380a-0a43-4ae3-aac3-e33047dea600","system_id":"levelo_inurba_marseille","lat":43.29273,"lon":5.36845,"is_reserved":false,"is_disabled":true,"rental_uris":{"android":"levelo://app?vid=14bf380a-0a43-4ae3-aac3-e33047dea600","ios":"levelo://app?vid=14bf380a-0a43-4ae3-aac3-e33047dea600"},"vehicle_type_id":"4","last_reported":1761894599,"current_range_meters":16000,"station_id":"ce4bhbp2rcd13ifvqesg","pricing_plan_id":"cebpf4jnsgd1na2vs0mg"},{"bike_id":"9e616a1f-080b-4bfc-b976-40ec117c7812","system_id":"levelo_inurba_marseille","lat":43.26557,"lon":5.39043,"is_reserved":false,"is_disabled":true,"rental_uris":{"android":"levelo://app?vid=9e616a1f-080b-4bfc-b976-40ec117c7812","ios":"levelo://app?vid=9e616a1f-080b-4bfc-b976-40ec117c7812"},"vehicle_type_id":"4","last_reported":1761894599,"current_range_meters":16400,"station_id":"ce4bhe12rcd13ifvqf30","pricing_plan_id":"cebpf4jnsgd1na2vs0mg"},{"bike_id":"3b8d8128-20c3-4189-8013-ffc8bbfec252","system_id":"levelo_inurba_marseille","lat":43.28629,"lon":5.35146,"is_reserved":false,"is_disabled":false,"rental_uris":{"android":"levelo://app?vid=3b8d8128-20c3-4189-8013-ffc8bbfec252","ios":"levelo://app?vid=3b8d8128-20c3-4189-8013-ffc8bbfec252"},"vehicle_type_id":"4","last_reported":1761894599,"current_range_meters":16400,"station_id":"ce4bhch2rcd13ifvqeug","pricing_plan_id":"cebpf4jnsgd1na2vs0mg"},{"bike_id":"57eee411-e5e3-47c5-8454-02b34dfc88c4","system_id":"levelo_inurba_marseille","lat":43.313564,"lon":5.384983,"is_reserved":false,"is_disabled":false,"rental_uris":{"android":"levelo://app?vid=57eee411-e5e3-47c5-8454-02b34dfc88c4","ios":"levelo://app?vid=57eee411-e5e3-47c5-8454-02b34dfc88c4"},"vehicle_type_id":"4","last_reported":1761894599,"current_range_meters":16400,"station_id":"ce4bgt92rcd13ifvqcf0","pricing_plan_id":"cebpf4jnsgd1na2vs0mg"},{"bike_id":"90cc4e35-1e9a-4d48-878d-a3997094c0ce","system_id":"levelo_inurba_marseille","lat":43.246383,"lon":5.431494,"is_reserved":false,"is_disabled":false,"rental_uris":{"android":"levelo://app?vid=90cc4e35-1e9a-4d48-878d-a3997094c0ce","ios":"levelo://app?vid=90cc4e35-1e9a-4d48-878d-a3997094c0ce"},"vehicle_type_id":"4","last_reported":1761894599,"current_range_meters":16400,"station_id":"st_d2m6c4gdas8pm72e190g","pricing_plan_id":"cebpf4jnsgd1na2vs0mg"},{"bike_id":"319b8584-93f2-449c-b056-ea3f20ebc971","system_id":"levelo_inurba_marseille","lat":43.2851,"lon":5.43021,"is_reserved":false,"is_disabled":false,"rental_uris":{"android":"levelo://app?vid=319b8584-93f2-449c-b056-ea3f20ebc971","ios":"levelo://app?vid=319b8584-93f2-449c-b056-ea3f20ebc971"},"vehicle_type_id":"4","last_reported":1761894599,"current_range_meters":16400,"station_id":"","pricing_plan_id":"cebpf4jnsgd1na2vs0mg"},{"bike_id":"0dc930ae-88e6-493c-ab95-8df0b3ac1f8b","system_id":"levelo_inurba_marseille","lat":43.29894,"lon":5.43671,"is_reserved":false,"is_disabled":false,"rental_uris":{"android":"levelo://app?vid=0dc930ae-88e6-493c-ab95-8df0b3ac1f8b","ios":"levelo://app?vid=0dc930ae-88e6-493c-ab95-8df0b3ac1f8b"},"vehicle_type_id":"4","last_reported":1761894599,"current_range_meters":16800,"station_id":"ce4bhpp2rcd13ifvqhfg","pricing_plan_id":"cebpf4jnsgd1na2vs0mg"},{"bike_id":"e689a1c3-c0a6-4360-9617-9d3223325b8c","system_id":"levelo_inurba_marseille","lat":43.25083,"lon":5.39527,"is_reserved":false,"is_disabled":false,"rental_uris":{"android":"levelo://app?vid=e689a1c3-c0a6-4360-9617-9d3223325b8c","ios":"levelo://app?vid=e689a1c3-c0a6-4360-9617-9d3223325b8c"},"vehicle_type_id":"4","last_reported":1761894599,"current_range_meters":16800,"station_id":"ce4bhm12rcd13ifvqgkg","pricing_plan_id":"cebpf4jnsgd1na2vs0mg"},{"bike_id":"6cd59db7-cb12-4301-8385-22b87d7a5cfd","system_id":"levelo_inurba_marseille","lat":43.285303,"lon":5.440978,"is_reserved":false,"is_disabled":false,"rental_uris":{"android":"levelo://app?vid=6cd59db7-cb12-4301-8385-22b87d7a5cfd","ios":"levelo://app?vid=6cd59db7-cb12-4301-8385-22b87d7a5cfd"},"vehicle_type_id":"4","last_reported":1761894599,"current_range_meters":16800,"station_id":"st_d3j3df2ikq2c7380ej80","pricing_plan_id":"cebpf4jnsgd1na2vs0mg"},{"bike_id":"a74ca4e6-9019-4ce4-a364-7a22bd8e206a","system_id":"levelo_inurba_marseille","lat":43.26501,"lon":5.38517,"is_reserved":false,"is_disabled":false,"rental_uris":{"android":"levelo://app?vid=a74ca4e6-9019-4ce4-a364-7a22bd8e206a","ios":"levelo://app?vid=a74ca4e6-9019-4ce4-a364-7a22bd8e206a"},"vehicle_type_id":"4","last_reported":1761894599,"current_range_meters":16800,"station_id":"","pricing_plan_id":"cebpf4jnsgd1na2vs0mg"},{"bike_id":"84ace5ab-b68e-4f3a-9b87-718e55765aec","system_id":"levelo_inurba_marseille","lat":43.30551,"lon":5.38438,"is_reserved":false,"is_disabled":false,"rental_uris":{"android":"levelo://app?vid=84ace5ab-b68e-4f3a-9b87-718e55765aec","ios":"levelo://app?vid=84ace5ab-b68e-4f3a-9b87-718e55765aec"},"vehicle_type_id":"4","last_reported":1761894599,"current_range_meters":16800,"station_id":"ce4bgg92rcd13ifvqb30","pricing_plan_id":"cebpf4jnsgd1na2vs0mg"},{"bike_id":"c015c7a2-82a9-4665-ab56-4c69e7c6c92c","system_id":"levelo_inurba_marseille","lat":43.279158,"lon":5.39582,"is_reserved":false,"is_disabled":false,"rental_uris":{"android":"levelo://app?vid=c015c7a2-82a9-4665-ab56-4c69e7c6c92c","ios":"levelo://app?vid=c015c7a2-82a9-4665-ab56-4c69e7c6c92c"},"vehicle_type_id":"4","last_reported":1761894599,"current_range_meters":16800,"station_id":"ce4bhf92rcd13ifvqf40","pricing_plan_id":"cebpf4jnsgd1na2vs0mg"},{"bike_id":"a9cdbb07-222c-4ae2-b8a0-add1896b5ebf","system_id":"levelo_inurba_marseille","lat":43.2607,"lon":5.39373,"is_reserved":false,"is_disabled":false,"rental_uris":{"android":"levelo://app?vid=a9cdbb07-222c-4ae2-b8a0-add1896b5ebf","ios":"levelo://app?vid=a9cdbb07-222c-4ae2-b8a0-add1896b5ebf"},"vehicle_type_id":"4","last_reported":1761894599,"current_range_meters":17200,"station_id":"ce4bhh92rcd13ifvqfj0","pricing_plan_id":"cebpf4jnsgd1na2vs0mg"},{"bike_id":"e7ead618-cc2b-4c53-bc61-330caff21889","system_id":"levelo_inurba_marseille","lat":43.25327,"lon":5.42183,"is_reserved":false,"is_disabled":false,"rental_uris":{"android":"levelo://app?vid=e7ead618-cc2b-4c53-bc61-330caff21889","ios":"levelo://app?vid=e7ead618-cc2b-4c53-bc61-330caff21889"},"vehicle_type_id":"4","last_reported":1761894599,"current_range_meters":17200,"station_id":"st_d2m65c5bi1j21697t3ng","pricing_plan_id":"cebpf4jnsgd1na2vs0mg"},{"bike_id":"e974006c-e3c8-4c1a-9a8d-ea5c7e7acb49","system_id":"levelo_inurba_marseille","lat":43.28541,"lon":5.44107,"is_reserved":false,"is_disabled":false,"rental_uris":{"android":"levelo://app?vid=e974006c-e3c8-4c1a-9a8d-ea5c7e7acb49","ios":"levelo://app?vid=e974006c-e3c8-4c1a-9a8d-ea5c7e7acb49"},"vehicle_type_id":"4","last_reported":1761894599,"current_range_meters":17200,"station_id":"st_d3j3df2ikq2c7380ej80","pricing_plan_id":"cebpf4jnsgd1na2vs0mg"},{"bike_id":"efab51bb-2873-49b5-8a21-1850eb33cbaf","system_id":"levelo_inurba_marseille","lat":43.24076,"lon":5.37745,"is_reserved":false,"is_disabled":false,"rental_uris":{"android":"levelo://app?vid=efab51bb-2873-49b5-8a21-1850eb33cbaf","ios":"levelo://app?vid=efab51bb-2873-49b5-8a21-1850eb33cbaf"},"vehicle_type_id":"4","last_reported":1761894599,"current_range_meters":17200,"station_id":"ce4bhnp2rcd13ifvqgvg","pricing_plan_id":"cebpf4jnsgd1na2vs0mg"},{"bike_id":"1a77fe62-2536-43f5-a256-826db41f5c6b","system_id":"levelo_inurba_marseille","lat":43.25334,"lon":5.42171,"is_reserved":false,"is_disabled":false,"rental_uris":{"android":"levelo://app?vid=1a77fe62-2536-43f5-a256-826db41f5c6b","ios":"levelo://app?vid=1a77fe62-2536-43f5-a256-826db41f5c6b"},"vehicle_type_id":"4","last_reported":1761894599,"current_range_meters":17200,"station_id":"st_d2m65c5bi1j21697t3ng","pricing_plan_id":"cebpf4jnsgd1na2vs0mg"},{"bike_id":"b1e81361-2b17-4ef1-8a58-6def5753471b","system_id":"levelo_inurba_marseille","lat":43.33753,"lon":5.37484,"is_reserved":false,"is_disabled":false,"rental_uris":{"android":"levelo://app?vid=b1e81361-2b17-4ef1-8a58-6def5753471b","ios":"levelo://app?vid=b1e81361-2b17-4ef1-8a58-6def5753471b"},"vehicle_type_id":"4","last_reported":1761894599,"current_range_meters":17600,"station_id":"","pricing_plan_id":"cebpf4jnsgd1na2vs0mg"},{"bike_id":"9ea9f5b7-d963-4546-b85c-1d443d48cac7","system_id":"levelo_inurba_marseille","lat":43.272,"lon":5.39196,"is_reserved":false,"is_disabled":true,"rental_uris":{"android":"levelo://app?vid=9ea9f5b7-d963-4546-b85c-1d443d48cac7","ios":"levelo://app?vid=9ea9f5b7-d963-4546-b85c-1d443d48cac7"},"vehicle_type_id":"4","last_reported":1761894599,"current_range_meters":17600,"station_id":"ce4bhhp2rcd13ifvqfm0","pricing_plan_id":"cebpf4jnsgd1na2vs0mg"},{"bike_id":"153e63ec-7736-43fc-bb54-10eef0a4950e","system_id":"levelo_inurba_marseille","lat":43.30166,"lon":5.38099,"is_reserved":false,"is_disabled":false,"rental_uris":{"android":"levelo://app?vid=153e63ec-7736-43fc-bb54-10eef0a4950e","ios":"levelo://app?vid=153e63ec-7736-43fc-bb54-10eef0a4950e"},"vehicle_type_id":"4","last_reported":1761894599,"current_range_meters":17600,"station_id":"ce4bgjp2rcd13ifvqbh0","pricing_plan_id":"cebpf4jnsgd1na2vs0mg"},{"bike_id":"52b117f2-4c01-4f66-887d-006722496528","system_id":"levelo_inurba_marseille","lat":43.308703,"lon":5.37144,"is_reserved":false,"is_disabled":false,"rental_uris":{"android":"levelo://app?vid=52b117f2-4c01-4f66-887d-006722496528","ios":"levelo://app?vid=52b117f2-4c01-4f66-887d-006722496528"},"vehicle_type_id":"4","last_reported":1761894599,"current_range_meters":17600,"station_id":"ce4bguh2rcd13ifvqckg","pricing_plan_id":"cebpf4jnsgd1na2vs0mg"},{"bike_id":"a7e3e902-903d-44d6-879c-b09e8dc2a899","system_id":"levelo_inurba_marseille","lat":43.250828,"lon":5.395135,"is_reserved":false,"is_disabled":false,"rental_uris":{"android":"levelo://app?vid=a7e3e902-903d-44d6-879c-b09e8dc2a899","ios":"levelo://app?vid=a7e3e902-903d-44d6-879c-b09e8dc2a899"},"vehicle_type_id":"4","last_reported":1761894599,"current_range_meters":17600,"station_id":"ce4bhm12rcd13ifvqgkg","pricing_plan_id":"cebpf4jnsgd1na2vs0mg"},{"bike_id":"c2686a17-bb9a-48e2-ae7d-a65e3ec7d887","system_id":"levelo_inurba_marseille","lat":43.31354,"lon":5.38515,"is_reserved":false,"is_disabled":false,"rental_uris":{"android":"levelo://app?vid=c2686a17-bb9a-48e2-ae7d-a65e3ec7d887","ios":"levelo://app?vid=c2686a17-bb9a-48e2-ae7d-a65e3ec7d887"},"vehicle_type_id":"4","last_reported":1761894599,"current_range_meters":17600,"station_id":"ce4bgt92rcd13ifvqcf0","pricing_plan_id":"cebpf4jnsgd1na2vs0mg"},{"bike_id":"74c92432-071a-4cbc-9f12-0b0b3a01b2a6","system_id":"levelo_inurba_marseille","lat":43.28227,"lon":5.39072,"is_reserved":false,"is_disabled":false,"rental_uris":{"android":"levelo://app?vid=74c92432-071a-4cbc-9f12-0b0b3a01b2a6","ios":"levelo://app?vid=74c92432-071a-4cbc-9f12-0b0b3a01b2a6"},"vehicle_type_id":"4","last_reported":1761894599,"current_range_meters":17600,"station_id":"ce4bhn92rcd13ifvqgsg","pricing_plan_id":"cebpf4jnsgd1na2vs0mg"},{"bike_id":"933ed787-74a5-45ae-8d47-34a1b88d6813","system_id":"levelo_inurba_marseille","lat":43.23159,"lon":5.43713,"is_reserved":false,"is_disabled":false,"rental_uris":{"android":"levelo://app?vid=933ed787-74a5-45ae-8d47-34a1b88d6813","ios":"levelo://app?vid=933ed787-74a5-45ae-8d47-34a1b88d6813"},"vehicle_type_id":"4","last_reported":1761894599,"current_range_meters":17600,"station_id":"ce4bhmp2rcd13ifvqgog","pricing_plan_id":"cebpf4jnsgd1na2vs0mg"},{"bike_id":"5520c76b-01be-41fc-bd60-376896635d08","system_id":"levelo_inurba_marseille","lat":43.28392,"lon":5.37544,"is_reserved":false,"is_disabled":false,"rental_uris":{"android":"levelo://app?vid=5520c76b-01be-41fc-bd60-376896635d08","ios":"levelo://app?vid=5520c76b-01be-41fc-bd60-376896635d08"},"vehicle_type_id":"4","last_reported":1761894599,"current_range_meters":18000,"station_id":"ce4bh412rcd13ifvqds0","pricing_plan_id":"cebpf4jnsgd1na2vs0mg"},{"bike_id":"12c24c1a-5f34-4e4f-b6c0-f07cd6755b8d","system_id":"levelo_inurba_marseille","lat":43.24955,"lon":5.40502,"is_reserved":false,"is_disabled":false,"rental_uris":{"android":"levelo://app?vid=12c24c1a-5f34-4e4f-b6c0-f07cd6755b8d","ios":"levelo://app?vid=12c24c1a-5f34-4e4f-b6c0-f07cd6755b8d"},"vehicle_type_id":"4","last_reported":1761894599,"current_range_meters":18000,"station_id":"st_d2ngiaodas8pm72gd1h0","pricing_plan_id":"cebpf4jnsgd1na2vs0mg"},{"bike_id":"b9d2a6bf-bf3c-4f93-9477-0a76cf804f60","system_id":"levelo_inurba_marseille","lat":43.2791,"lon":5.39579,"is_reserved":false,"is_disabled":false,"rental_uris":{"android":"levelo://app?vid=b9d2a6bf-bf3c-4f93-9477-0a76cf804f60","ios":"levelo://app?vid=b9d2a6bf-bf3c-4f93-9477-0a76cf804f60"},"vehicle_type_id":"4","last_reported":1761894599,"current_range_meters":18000,"station_id":"ce4bhf92rcd13ifvqf40","pricing_plan_id":"cebpf4jnsgd1na2vs0mg"},{"bike_id":"b1529460-35c1-49c7-a059-1efcb986b42d","system_id":"levelo_inurba_marseille","lat":43.28748,"lon":5.38431,"is_reserved":false,"is_disabled":false,"rental_uris":{"android":"levelo://app?vid=b1529460-35c1-49c7-a059-1efcb986b42d","ios":"levelo://app?vid=b1529460-35c1-49c7-a059-1efcb986b42d"},"vehicle_type_id":"4","last_reported":1761894599,"current_range_meters":18000,"station_id":"","pricing_plan_id":"cebpf4jnsgd1na2vs0mg"},{"bike_id":"81ddfa84-8a38-4992-b757-66a5e1097b2f","system_id":"levelo_inurba_marseille","lat":43.29897,"lon":5.43669,"is_reserved":false,"is_disabled":true,"rental_uris":{"android":"levelo://app?vid=81ddfa84-8a38-4992-b757-66a5e1097b2f","ios":"levelo://app?vid=81ddfa84-8a38-4992-b757-66a5e1097b2f"},"vehicle_type_id":"4","last_reported":1761894599,"current_range_meters":18000,"station_id":"ce4bhpp2rcd13ifvqhfg","pricing_plan_id":"cebpf4jnsgd1na2vs0mg"},{"bike_id":"859bd123-0d20-48f1-9f0f-d434bb125ef1","system_id":"levelo_inurba_marseille","lat":43.30304,"lon":5.39193,"is_reserved":false,"is_disabled":true,"rental_uris":{"android":"levelo://app?vid=859bd123-0d20-48f1-9f0f-d434bb125ef1","ios":"levelo://app?vid=859bd123-0d20-48f1-9f0f-d434bb125ef1"},"vehicle_type_id":"4","last_reported":1761894599,"current_range_meters":18000,"station_id":"ce4bgkh2rcd13ifvqbk0","pricing_plan_id":"cebpf4jnsgd1na2vs0mg"},{"bike_id":"a9bd6156-5973-4728-a560-5afb8e593a6c","system_id":"levelo_inurba_marseille","lat":43.30467,"lon":5.37901,"is_reserved":false,"is_disabled":false,"rental_uris":{"android":"levelo://app?vid=a9bd6156-5973-4728-a560-5afb8e593a6c","ios":"levelo://app?vid=a9bd6156-5973-4728-a560-5afb8e593a6c"},"vehicle_type_id":"4","last_reported":1761894599,"current_range_meters":18000,"station_id":"ce4bgup2rcd13ifvqcn0","pricing_plan_id":"cebpf4jnsgd1na2vs0mg"},{"bike_id":"9497805b-35be-40e8-93bb-ca649d9c3608","system_id":"levelo_inurba_marseille","lat":43.26778,"lon":5.39421,"is_reserved":false,"is_disabled":false,"rental_uris":{"android":"levelo://app?vid=9497805b-35be-40e8-93bb-ca649d9c3608","ios":"levelo://app?vid=9497805b-35be-40e8-93bb-ca649d9c3608"},"vehicle_type_id":"4","last_reported":1761894599,"current_range_meters":18000,"station_id":"ce4bhh12rcd13ifvqfg0","pricing_plan_id":"cebpf4jnsgd1na2vs0mg"},{"bike_id":"1fd613a7-8f1b-4e74-9412-0797ddbd231e","system_id":"levelo_inurba_marseille","lat":43.29609,"lon":5.37719,"is_reserved":false,"is_disabled":true,"rental_uris":{"android":"levelo://app?vid=1fd613a7-8f1b-4e74-9412-0797ddbd231e","ios":"levelo://app?vid=1fd613a7-8f1b-4e74-9412-0797ddbd231e"},"vehicle_type_id":"4","last_reported":1761894599,"current_range_meters":18000,"station_id":"ce4bgi92rcd13ifvqb90","pricing_plan_id":"cebpf4jnsgd1na2vs0mg"},{"bike_id":"02d869e4-5856-4b89-b4f7-83a21afde51d","system_id":"levelo_inurba_marseille","lat":43.21203,"lon":5.35074,"is_reserved":false,"is_disabled":false,"rental_uris":{"android":"levelo://app?vid=02d869e4-5856-4b89-b4f7-83a21afde51d","ios":"levelo://app?vid=02d869e4-5856-4b89-b4f7-83a21afde51d"},"vehicle_type_id":"4","last_reported":1761894599,"current_range_meters":18000,"station_id":"st_cvj6sg6p6f1abm77japg","pricing_plan_id":"cebpf4jnsgd1na2vs0mg"},{"bike_id":"4b424c58-cc32-484f-b63a-d3d24c7d832c","system_id":"levelo_inurba_marseille","lat":43.30554,"lon":5.36688,"is_reserved":false,"is_disabled":false,"rental_uris":{"android":"levelo://app?vid=4b424c58-cc32-484f-b63a-d3d24c7d832c","ios":"levelo://app?vid=4b424c58-cc32-484f-b63a-d3d24c7d832c"},"vehicle_type_id":"4","last_reported":1761894599,"current_range_meters":18800,"station_id":"ce4bgrp2rcd13ifvqc9g","pricing_plan_id":"cebpf4jnsgd1na2vs0mg"},{"bike_id":"455197c1-eb6d-4837-a623-b34486eecd88","system_id":"levelo_inurba_marseille","lat":43.29849,"lon":5.36291,"is_reserved":false,"is_disabled":true,"rental_uris":{"android":"levelo://app?vid=455197c1-eb6d-4837-a623-b34486eecd88","ios":"levelo://app?vid=455197c1-eb6d-4837-a623-b34486eecd88"},"vehicle_type_id":"4","last_reported":1761894599,"current_range_meters":18800,"station_id":"ce4bgpp2rcd13ifvqc3g","pricing_plan_id":"cebpf4jnsgd1na2vs0mg"},{"bike_id":"3fdd4075-2d2f-41f7-b068-ea13f83763a0","system_id":"levelo_inurba_marseille","lat":43.32959,"lon":5.38995,"is_reserved":false,"is_disabled":false,"rental_uris":{"android":"levelo://app?vid=3fdd4075-2d2f-41f7-b068-ea13f83763a0","ios":"levelo://app?vid=3fdd4075-2d2f-41f7-b068-ea13f83763a0"},"vehicle_type_id":"4","last_reported":1761894599,"current_range_meters":18800,"station_id":"","pricing_plan_id":"cebpf4jnsgd1na2vs0mg"},{"bike_id":"9743aeff-6a21-4c2f-9062-43158aa31109","system_id":"levelo_inurba_marseille","lat":43.26063,"lon":5.3941,"is_reserved":false,"is_disabled":false,"rental_uris":{"android":"levelo://app?vid=9743aeff-6a21-4c2f-9062-43158aa31109","ios":"levelo://app?vid=9743aeff-6a21-4c2f-9062-43158aa31109"},"vehicle_type_id":"4","last_reported":1761894599,"current_range_meters":18800,"station_id":"ce4bhh92rcd13ifvqfj0","pricing_plan_id":"cebpf4jnsgd1na2vs0mg"},{"bike_id":"6daff1b2-0ad6-4766-9539-d584aea6793d","system_id":"levelo_inurba_marseille","lat":43.28396,"lon":5.37522,"is_reserved":false,"is_disabled":false,"rental_uris":{"android":"levelo://app?vid=6daff1b2-0ad6-4766-9539-d584aea6793d","ios":"levelo://app?vid=6daff1b2-0ad6-4766-9539-d584aea6793d"},"vehicle_type_id":"4","last_reported":1761894599,"current_range_meters":18800,"station_id":"ce4bh412rcd13ifvqds0","pricing_plan_id":"cebpf4jnsgd1na2vs0mg"},{"bike_id":"98bf14ae-2ea3-45e7-bc07-5b3131510cca","system_id":"levelo_inurba_marseille","lat":43.255785,"lon":5.382414,"is_reserved":false,"is_disabled":false,"rental_uris":{"android":"levelo://app?vid=98bf14ae-2ea3-45e7-bc07-5b3131510cca","ios":"levelo://app?vid=98bf14ae-2ea3-45e7-bc07-5b3131510cca"},"vehicle_type_id":"4","last_reported":1761894599,"current_range_meters":18800,"station_id":"ce4bhih2rcd13ifvqfs0","pricing_plan_id":"cebpf4jnsgd1na2vs0mg"},{"bike_id":"f1bfa7ee-e707-4bf3-b3ac-efd4e54c16f5","system_id":"levelo_inurba_marseille","lat":43.24945,"lon":5.40492,"is_reserved":false,"is_disabled":false,"rental_uris":{"android":"levelo://app?vid=f1bfa7ee-e707-4bf3-b3ac-efd4e54c16f5","ios":"levelo://app?vid=f1bfa7ee-e707-4bf3-b3ac-efd4e54c16f5"},"vehicle_type_id":"4","last_reported":1761894599,"current_range_meters":18800,"station_id":"st_d2ngiaodas8pm72gd1h0","pricing_plan_id":"cebpf4jnsgd1na2vs0mg"},{"bike_id":"b8108206-9138-4244-9f78-cad009006784","system_id":"levelo_inurba_marseille","lat":43.30951,"lon":5.39052,"is_reserved":false,"is_disabled":false,"rental_uris":{"android":"levelo://app?vid=b8108206-9138-4244-9f78-cad009006784","ios":"levelo://app?vid=b8108206-9138-4244-9f78-cad009006784"},"vehicle_type_id":"4","last_reported":1761894599,"current_range_meters":19200,"station_id":"ce4bgup2rcd13ifvqco0","pricing_plan_id":"cebpf4jnsgd1na2vs0mg"},{"bike_id":"c311dcd7-8990-4d0c-b893-da6fc911ae2a","system_id":"levelo_inurba_marseille","lat":43.23188,"lon":5.39993,"is_reserved":false,"is_disabled":false,"rental_uris":{"android":"levelo://app?vid=c311dcd7-8990-4d0c-b893-da6fc911ae2a","ios":"levelo://app?vid=c311dcd7-8990-4d0c-b893-da6fc911ae2a"},"vehicle_type_id":"4","last_reported":1761894599,"current_range_meters":19200,"station_id":"ce4bhn12rcd13ifvqgqg","pricing_plan_id":"cebpf4jnsgd1na2vs0mg"},{"bike_id":"5329277d-b696-4f32-9412-95d13ccb7cbb","system_id":"levelo_inurba_marseille","lat":43.29826,"lon":5.44062,"is_reserved":false,"is_disabled":false,"rental_uris":{"android":"levelo://app?vid=5329277d-b696-4f32-9412-95d13ccb7cbb","ios":"levelo://app?vid=5329277d-b696-4f32-9412-95d13ccb7cbb"},"vehicle_type_id":"4","last_reported":1761894599,"current_range_meters":19200,"station_id":"st_d3jp68qikq2c7381ktn0","pricing_plan_id":"cebpf4jnsgd1na2vs0mg"},{"bike_id":"da52ac4a-d2ca-43af-ba37-a237e0f07039","system_id":"levelo_inurba_marseille","lat":43.284361,"lon":5.391855,"is_reserved":false,"is_disabled":false,"rental_uris":{"android":"levelo://app?vid=da52ac4a-d2ca-43af-ba37-a237e0f07039","ios":"levelo://app?vid=da52ac4a-d2ca-43af-ba37-a237e0f07039"},"vehicle_type_id":"4","last_reported":1761894599,"current_range_meters":19600,"station_id":"ce4bhoh2rcd13ifvqh5g","pricing_plan_id":"cebpf4jnsgd1na2vs0mg"},{"bike_id":"b09038d0-c76a-4bf6-ab7c-6db3de8dd038","system_id":"levelo_inurba_marseille","lat":43.31244,"lon":5.36896,"is_reserved":false,"is_disabled":false,"rental_uris":{"android":"levelo://app?vid=b09038d0-c76a-4bf6-ab7c-6db3de8dd038","ios":"levelo://app?vid=b09038d0-c76a-4bf6-ab7c-6db3de8dd038"},"vehicle_type_id":"4","last_reported":1761894599,"current_range_meters":19600,"station_id":"ce4bgl92rcd13ifvqbq0","pricing_plan_id":"cebpf4jnsgd1na2vs0mg"},{"bike_id":"609eccca-b55b-4605-87cd-a8fbec0dfdd6","system_id":"levelo_inurba_marseille","lat":43.2963,"lon":5.40595,"is_reserved":false,"is_disabled":false,"rental_uris":{"android":"levelo://app?vid=609eccca-b55b-4605-87cd-a8fbec0dfdd6","ios":"levelo://app?vid=609eccca-b55b-4605-87cd-a8fbec0dfdd6"},"vehicle_type_id":"4","last_reported":1761894599,"current_range_meters":19600,"station_id":"ce4bh0h2rcd13ifvqd60","pricing_plan_id":"cebpf4jnsgd1na2vs0mg"},{"bike_id":"4476fb93-b41b-429c-b66e-779ffc5aabd1","system_id":"levelo_inurba_marseille","lat":43.25327,"lon":5.42177,"is_reserved":false,"is_disabled":false,"rental_uris":{"android":"levelo://app?vid=4476fb93-b41b-429c-b66e-779ffc5aabd1","ios":"levelo://app?vid=4476fb93-b41b-429c-b66e-779ffc5aabd1"},"vehicle_type_id":"4","last_reported":1761894599,"current_range_meters":19600,"station_id":"st_d2m65c5bi1j21697t3ng","pricing_plan_id":"cebpf4jnsgd1na2vs0mg"},{"bike_id":"e04f332d-b41c-47fd-b12f-6fdc7d63f429","system_id":"levelo_inurba_marseille","lat":43.30847,"lon":5.38278,"is_reserved":false,"is_disabled":false,"rental_uris":{"android":"levelo://app?vid=e04f332d-b41c-47fd-b12f-6fdc7d63f429","ios":"levelo://app?vid=e04f332d-b41c-47fd-b12f-6fdc7d63f429"},"vehicle_type_id":"4","last_reported":1761894599,"current_range_meters":19600,"station_id":"","pricing_plan_id":"cebpf4jnsgd1na2vs0mg"},{"bike_id":"2bca1ce7-c418-42d6-9069-88a3e1d8883f","system_id":"levelo_inurba_marseille","lat":43.24796,"lon":5.37451,"is_reserved":false,"is_disabled":false,"rental_uris":{"android":"levelo://app?vid=2bca1ce7-c418-42d6-9069-88a3e1d8883f","ios":"levelo://app?vid=2bca1ce7-c418-42d6-9069-88a3e1d8883f"},"vehicle_type_id":"4","last_reported":1761894599,"current_range_meters":19600,"station_id":"ce4bhgh2rcd13ifvqfb0","pricing_plan_id":"cebpf4jnsgd1na2vs0mg"},{"bike_id":"52f3f3a4-64f7-447c-95fa-0404b2a8a35c","system_id":"levelo_inurba_marseille","lat":43.297949,"lon":5.393484,"is_reserved":false,"is_disabled":false,"rental_uris":{"android":"levelo://app?vid=52f3f3a4-64f7-447c-95fa-0404b2a8a35c","ios":"levelo://app?vid=52f3f3a4-64f7-447c-95fa-0404b2a8a35c"},"vehicle_type_id":"4","last_reported":1761894599,"current_range_meters":19600,"station_id":"chh1huq6cuj3fo74tm60","pricing_plan_id":"cebpf4jnsgd1na2vs0mg"},{"bike_id":"fb5bbde1-17ca-45a2-871a-75bfcf71f4c3","system_id":"levelo_inurba_marseille","lat":43.285299,"lon":5.441017,"is_reserved":false,"is_disabled":false,"rental_uris":{"android":"levelo://app?vid=fb5bbde1-17ca-45a2-871a-75bfcf71f4c3","ios":"levelo://app?vid=fb5bbde1-17ca-45a2-871a-75bfcf71f4c3"},"vehicle_type_id":"4","last_reported":1761894599,"current_range_meters":19600,"station_id":"st_d3j3df2ikq2c7380ej80","pricing_plan_id":"cebpf4jnsgd1na2vs0mg"},{"bike_id":"c04ea6ec-c85d-4b9a-aa74-f0de2415a6d2","system_id":"levelo_inurba_marseille","lat":43.31551,"lon":5.38236,"is_reserved":false,"is_disabled":false,"rental_uris":{"android":"levelo://app?vid=c04ea6ec-c85d-4b9a-aa74-f0de2415a6d2","ios":"levelo://app?vid=c04ea6ec-c85d-4b9a-aa74-f0de2415a6d2"},"vehicle_type_id":"4","last_reported":1761894599,"current_range_meters":19600,"station_id":"","pricing_plan_id":"cebpf4jnsgd1na2vs0mg"},{"bike_id":"fbcc5886-69e3-488f-96fd-e45314a075e6","system_id":"levelo_inurba_marseille","lat":43.28878,"lon":5.42524,"is_reserved":false,"is_disabled":true,"rental_uris":{"android":"levelo://app?vid=fbcc5886-69e3-488f-96fd-e45314a075e6","ios":"levelo://app?vid=fbcc5886-69e3-488f-96fd-e45314a075e6"},"vehicle_type_id":"4","last_reported":1761894599,"current_range_meters":19600,"station_id":"st_d3b462108ojc7389ooeg","pricing_plan_id":"cebpf4jnsgd1na2vs0mg"},{"bike_id":"71ae02d0-2647-4b8d-be67-0baf777b61cb","system_id":"levelo_inurba_marseille","lat":43.287854,"lon":5.392099,"is_reserved":false,"is_disabled":false,"rental_uris":{"android":"levelo://app?vid=71ae02d0-2647-4b8d-be67-0baf777b61cb","ios":"levelo://app?vid=71ae02d0-2647-4b8d-be67-0baf777b61cb"},"vehicle_type_id":"4","last_reported":1761894599,"current_range_meters":20000,"station_id":"ce4bh3h2rcd13ifvqdn0","pricing_plan_id":"cebpf4jnsgd1na2vs0mg"},{"bike_id":"313de478-8a35-46ae-9e0d-511648dfee84","system_id":"levelo_inurba_marseille","lat":43.29577,"lon":5.39976,"is_reserved":false,"is_disabled":false,"rental_uris":{"android":"levelo://app?vid=313de478-8a35-46ae-9e0d-511648dfee84","ios":"levelo://app?vid=313de478-8a35-46ae-9e0d-511648dfee84"},"vehicle_type_id":"4","last_reported":1761894599,"current_range_meters":20000,"station_id":"ce4bh312rcd13ifvqdj0","pricing_plan_id":"cebpf4jnsgd1na2vs0mg"},{"bike_id":"6b849d39-5c9f-4ec8-bd9f-c15b3b1a6134","system_id":"levelo_inurba_marseille","lat":43.28437,"lon":5.39192,"is_reserved":false,"is_disabled":false,"rental_uris":{"android":"levelo://app?vid=6b849d39-5c9f-4ec8-bd9f-c15b3b1a6134","ios":"levelo://app?vid=6b849d39-5c9f-4ec8-bd9f-c15b3b1a6134"},"vehicle_type_id":"4","last_reported":1761894599,"current_range_meters":20000,"station_id":"ce4bhoh2rcd13ifvqh5g","pricing_plan_id":"cebpf4jnsgd1na2vs0mg"},{"bike_id":"0179aad9-8cf1-4065-b886-e1fdc3f62a49","system_id":"levelo_inurba_marseille","lat":43.24946,"lon":5.40525,"is_reserved":false,"is_disabled":false,"rental_uris":{"android":"levelo://app?vid=0179aad9-8cf1-4065-b886-e1fdc3f62a49","ios":"levelo://app?vid=0179aad9-8cf1-4065-b886-e1fdc3f62a49"},"vehicle_type_id":"4","last_reported":1761894599,"current_range_meters":20000,"station_id":"st_d2ngiaodas8pm72gd1h0","pricing_plan_id":"cebpf4jnsgd1na2vs0mg"},{"bike_id":"62e63a15-f730-4bfd-9ad6-808ea825ac1d","system_id":"levelo_inurba_marseille","lat":43.237888,"lon":5.366308,"is_reserved":false,"is_disabled":false,"rental_uris":{"android":"levelo://app?vid=62e63a15-f730-4bfd-9ad6-808ea825ac1d","ios":"levelo://app?vid=62e63a15-f730-4bfd-9ad6-808ea825ac1d"},"vehicle_type_id":"4","last_reported":1761894599,"current_range_meters":20000,"station_id":"st_d3nk18o9ro0c73en2l3g","pricing_plan_id":"cebpf4jnsgd1na2vs0mg"},{"bike_id":"a5d08a2b-3be6-4c97-bceb-9f8beea509b3","system_id":"levelo_inurba_marseille","lat":43.29607,"lon":5.405,"is_reserved":false,"is_disabled":false,"rental_uris":{"android":"levelo://app?vid=a5d08a2b-3be6-4c97-bceb-9f8beea509b3","ios":"levelo://app?vid=a5d08a2b-3be6-4c97-bceb-9f8beea509b3"},"vehicle_type_id":"4","last_reported":1761894599,"current_range_meters":20400,"station_id":"","pricing_plan_id":"cebpf4jnsgd1na2vs0mg"},{"bike_id":"9f4dc427-2c29-4e41-82a8-c6cc9e0f5f4d","system_id":"levelo_inurba_marseille","lat":43.2594,"lon":5.40896,"is_reserved":false,"is_disabled":false,"rental_uris":{"android":"levelo://app?vid=9f4dc427-2c29-4e41-82a8-c6cc9e0f5f4d","ios":"levelo://app?vid=9f4dc427-2c29-4e41-82a8-c6cc9e0f5f4d"},"vehicle_type_id":"4","last_reported":1761894599,"current_range_meters":20400,"station_id":"ce4bhm92rcd13ifvqglg","pricing_plan_id":"cebpf4jnsgd1na2vs0mg"},{"bike_id":"32eca335-d388-4cee-a7a2-3457278818ed","system_id":"levelo_inurba_marseille","lat":43.30558,"lon":5.36548,"is_reserved":false,"is_disabled":false,"rental_uris":{"android":"levelo://app?vid=32eca335-d388-4cee-a7a2-3457278818ed","ios":"levelo://app?vid=32eca335-d388-4cee-a7a2-3457278818ed"},"vehicle_type_id":"4","last_reported":1761894599,"current_range_meters":20400,"station_id":"ce4bgs12rcd13ifvqcag","pricing_plan_id":"cebpf4jnsgd1na2vs0mg"},{"bike_id":"692b7c1d-3c5f-4dda-aae0-6a07ab65ac3e","system_id":"levelo_inurba_marseille","lat":43.308888,"lon":5.371879,"is_reserved":false,"is_disabled":false,"rental_uris":{"android":"levelo://app?vid=692b7c1d-3c5f-4dda-aae0-6a07ab65ac3e","ios":"levelo://app?vid=692b7c1d-3c5f-4dda-aae0-6a07ab65ac3e"},"vehicle_type_id":"4","last_reported":1761894599,"current_range_meters":20400,"station_id":"ce4bguh2rcd13ifvqckg","pricing_plan_id":"cebpf4jnsgd1na2vs0mg"},{"bike_id":"6b49f50e-59a3-414e-91b9-ca2241d6d11f","system_id":"levelo_inurba_marseille","lat":43.285313,"lon":5.440958,"is_reserved":false,"is_disabled":false,"rental_uris":{"android":"levelo://app?vid=6b49f50e-59a3-414e-91b9-ca2241d6d11f","ios":"levelo://app?vid=6b49f50e-59a3-414e-91b9-ca2241d6d11f"},"vehicle_type_id":"4","last_reported":1761894599,"current_range_meters":20400,"station_id":"st_d3j3df2ikq2c7380ej80","pricing_plan_id":"cebpf4jnsgd1na2vs0mg"},{"bike_id":"b9e16650-97c0-458e-8070-16260751a294","system_id":"levelo_inurba_marseille","lat":43.293,"lon":5.37434,"is_reserved":false,"is_disabled":false,"rental_uris":{"android":"levelo://app?vid=b9e16650-97c0-458e-8070-16260751a294","ios":"levelo://app?vid=b9e16650-97c0-458e-8070-16260751a294"},"vehicle_type_id":"4","last_reported":1761894599,"current_range_meters":20400,"station_id":"ce4bgi12rcd13ifvqb70","pricing_plan_id":"cebpf4jnsgd1na2vs0mg"},{"bike_id":"c135f71c-a227-4553-9193-33778dd137be","system_id":"levelo_inurba_marseille","lat":43.28416,"lon":5.37527,"is_reserved":false,"is_disabled":false,"rental_uris":{"android":"levelo://app?vid=c135f71c-a227-4553-9193-33778dd137be","ios":"levelo://app?vid=c135f71c-a227-4553-9193-33778dd137be"},"vehicle_type_id":"4","last_reported":1761894599,"current_range_meters":20400,"station_id":"ce4bh412rcd13ifvqds0","pricing_plan_id":"cebpf4jnsgd1na2vs0mg"},{"bike_id":"f1a85f38-b79e-4672-8c85-e3a2aafee49a","system_id":"levelo_inurba_marseille","lat":43.280883,"lon":5.396599,"is_reserved":false,"is_disabled":false,"rental_uris":{"android":"levelo://app?vid=f1a85f38-b79e-4672-8c85-e3a2aafee49a","ios":"levelo://app?vid=f1a85f38-b79e-4672-8c85-e3a2aafee49a"},"vehicle_type_id":"4","last_reported":1761894599,"current_range_meters":20800,"station_id":"ce4bho12rcd13ifvqh2g","pricing_plan_id":"cebpf4jnsgd1na2vs0mg"},{"bike_id":"fd8432c5-a33b-404e-b90a-e83cae963779","system_id":"levelo_inurba_marseille","lat":43.292594,"lon":5.409116,"is_reserved":false,"is_disabled":false,"rental_uris":{"android":"levelo://app?vid=fd8432c5-a33b-404e-b90a-e83cae963779","ios":"levelo://app?vid=fd8432c5-a33b-404e-b90a-e83cae963779"},"vehicle_type_id":"4","last_reported":1761894599,"current_range_meters":20800,"station_id":"ce4bh192rcd13ifvqdc0","pricing_plan_id":"cebpf4jnsgd1na2vs0mg"},{"bike_id":"17ba5ddb-f5c9-4b5d-a0b3-f825096490c7","system_id":"levelo_inurba_marseille","lat":43.31074,"lon":5.38352,"is_reserved":false,"is_disabled":true,"rental_uris":{"android":"levelo://app?vid=17ba5ddb-f5c9-4b5d-a0b3-f825096490c7","ios":"levelo://app?vid=17ba5ddb-f5c9-4b5d-a0b3-f825096490c7"},"vehicle_type_id":"4","last_reported":1761894599,"current_range_meters":20800,"station_id":"ce4bgv92rcd13ifvqcr0","pricing_plan_id":"cebpf4jnsgd1na2vs0mg"},{"bike_id":"0f4b829f-ca5a-4bd4-9ec9-8e27d70712ed","system_id":"levelo_inurba_marseille","lat":43.272129,"lon":5.392013,"is_reserved":false,"is_disabled":false,"rental_uris":{"android":"levelo://app?vid=0f4b829f-ca5a-4bd4-9ec9-8e27d70712ed","ios":"levelo://app?vid=0f4b829f-ca5a-4bd4-9ec9-8e27d70712ed"},"vehicle_type_id":"4","last_reported":1761894599,"current_range_meters":20800,"station_id":"ce4bhhp2rcd13ifvqfm0","pricing_plan_id":"cebpf4jnsgd1na2vs0mg"},{"bike_id":"0f1a8f15-f276-44cd-84b8-13ad7751e224","system_id":"levelo_inurba_marseille","lat":43.265694,"lon":5.398136,"is_reserved":false,"is_disabled":false,"rental_uris":{"android":"levelo://app?vid=0f1a8f15-f276-44cd-84b8-13ad7751e224","ios":"levelo://app?vid=0f1a8f15-f276-44cd-84b8-13ad7751e224"},"vehicle_type_id":"4","last_reported":1761894599,"current_range_meters":20800,"station_id":"","pricing_plan_id":"cebpf4jnsgd1na2vs0mg"},{"bike_id":"6a390678-a799-420e-8b61-cd4a653cce87","system_id":"levelo_inurba_marseille","lat":43.321111,"lon":5.367439,"is_reserved":false,"is_disabled":false,"rental_uris":{"android":"levelo://app?vid=6a390678-a799-420e-8b61-cd4a653cce87","ios":"levelo://app?vid=6a390678-a799-420e-8b61-cd4a653cce87"},"vehicle_type_id":"4","last_reported":1761894599,"current_range_meters":20800,"station_id":"ce4bhrh2rcd13ifvqhug","pricing_plan_id":"cebpf4jnsgd1na2vs0mg"},{"bike_id":"fa939046-5394-40f9-98cd-23d749eb3b57","system_id":"levelo_inurba_marseille","lat":43.28151,"lon":5.426525,"is_reserved":false,"is_disabled":false,"rental_uris":{"android":"levelo://app?vid=fa939046-5394-40f9-98cd-23d749eb3b57","ios":"levelo://app?vid=fa939046-5394-40f9-98cd-23d749eb3b57"},"vehicle_type_id":"4","last_reported":1761894599,"current_range_meters":20800,"station_id":"ce4bhnh2rcd13ifvqgug","pricing_plan_id":"cebpf4jnsgd1na2vs0mg"},{"bike_id":"20f5c051-0bf5-49c6-8d5d-56c0d3cb77c3","system_id":"levelo_inurba_marseille","lat":43.315731,"lon":5.389295,"is_reserved":false,"is_disabled":false,"rental_uris":{"android":"levelo://app?vid=20f5c051-0bf5-49c6-8d5d-56c0d3cb77c3","ios":"levelo://app?vid=20f5c051-0bf5-49c6-8d5d-56c0d3cb77c3"},"vehicle_type_id":"4","last_reported":1761894599,"current_range_meters":20800,"station_id":"","pricing_plan_id":"cebpf4jnsgd1na2vs0mg"},{"bike_id":"25c6bbea-7729-4715-86de-1bada7a728fd","system_id":"levelo_inurba_marseille","lat":43.25729,"lon":5.411,"is_reserved":false,"is_disabled":false,"rental_uris":{"android":"levelo://app?vid=25c6bbea-7729-4715-86de-1bada7a728fd","ios":"levelo://app?vid=25c6bbea-7729-4715-86de-1bada7a728fd"},"vehicle_type_id":"4","last_reported":1761894599,"current_range_meters":20800,"station_id":"ce4bhkp2rcd13ifvqgd0","pricing_plan_id":"cebpf4jnsgd1na2vs0mg"},{"bike_id":"7918bd20-32a6-463b-8e3c-f38601ab57f1","system_id":"levelo_inurba_marseille","lat":43.30749,"lon":5.3765,"is_reserved":false,"is_disabled":false,"rental_uris":{"android":"levelo://app?vid=7918bd20-32a6-463b-8e3c-f38601ab57f1","ios":"levelo://app?vid=7918bd20-32a6-463b-8e3c-f38601ab57f1"},"vehicle_type_id":"4","last_reported":1761894599,"current_range_meters":20800,"station_id":"ce4bgv92rcd13ifvqcq0","pricing_plan_id":"cebpf4jnsgd1na2vs0mg"},{"bike_id":"499d308f-bee4-4a7a-ac9a-6a2d259e4572","system_id":"levelo_inurba_marseille","lat":43.26577,"lon":5.37275,"is_reserved":false,"is_disabled":false,"rental_uris":{"android":"levelo://app?vid=499d308f-bee4-4a7a-ac9a-6a2d259e4572","ios":"levelo://app?vid=499d308f-bee4-4a7a-ac9a-6a2d259e4572"},"vehicle_type_id":"4","last_reported":1761894599,"current_range_meters":21600,"station_id":"ce4bhg12rcd13ifvqf70","pricing_plan_id":"cebpf4jnsgd1na2vs0mg"},{"bike_id":"5bec0f2b-db2f-42b1-9a22-d227ac5efecd","system_id":"levelo_inurba_marseille","lat":43.31301,"lon":5.38176,"is_reserved":false,"is_disabled":false,"rental_uris":{"android":"levelo://app?vid=5bec0f2b-db2f-42b1-9a22-d227ac5efecd","ios":"levelo://app?vid=5bec0f2b-db2f-42b1-9a22-d227ac5efecd"},"vehicle_type_id":"4","last_reported":1761894599,"current_range_meters":21600,"station_id":"","pricing_plan_id":"cebpf4jnsgd1na2vs0mg"},{"bike_id":"32632625-b281-4348-990f-071d78c42b84","system_id":"levelo_inurba_marseille","lat":43.26569,"lon":5.39014,"is_reserved":false,"is_disabled":false,"rental_uris":{"android":"levelo://app?vid=32632625-b281-4348-990f-071d78c42b84","ios":"levelo://app?vid=32632625-b281-4348-990f-071d78c42b84"},"vehicle_type_id":"4","last_reported":1761894599,"current_range_meters":21600,"station_id":"","pricing_plan_id":"cebpf4jnsgd1na2vs0mg"},{"bike_id":"55d9d99a-6ece-4263-8a3a-9a4fba179bc6","system_id":"levelo_inurba_marseille","lat":43.29689,"lon":5.3746,"is_reserved":false,"is_disabled":false,"rental_uris":{"android":"levelo://app?vid=55d9d99a-6ece-4263-8a3a-9a4fba179bc6","ios":"levelo://app?vid=55d9d99a-6ece-4263-8a3a-9a4fba179bc6"},"vehicle_type_id":"4","last_reported":1761894599,"current_range_meters":21600,"station_id":"","pricing_plan_id":"cebpf4jnsgd1na2vs0mg"},{"bike_id":"a5f9d115-2eb0-463d-bf65-9070eaddf3fb","system_id":"levelo_inurba_marseille","lat":43.2398,"lon":5.36608,"is_reserved":false,"is_disabled":false,"rental_uris":{"android":"levelo://app?vid=a5f9d115-2eb0-463d-bf65-9070eaddf3fb","ios":"levelo://app?vid=a5f9d115-2eb0-463d-bf65-9070eaddf3fb"},"vehicle_type_id":"4","last_reported":1761894599,"current_range_meters":21600,"station_id":"ce4bhi12rcd13ifvqfp0","pricing_plan_id":"cebpf4jnsgd1na2vs0mg"},