{"last_updated":1743322334,"ttl":60,"version":"2.2","data":{"bikes":[{"bike_id":"d7c9e49f-9da5-4b2e-bae8-8dbfb05890a7","system_id":"levelo_inurba_marseille","lat":43.33365,"lon":5.40117,"is_reserved":false,"is_disabled":false,"rental_uris":{"android":"levelo://app?vid=d7c9e49f-9da5-4b2e-bae8-8dbfb05890a7","ios":"levelo://app?vid=d7c9e49f-9da5-4b2e-bae8-8dbfb05890a7"},"vehicle_type_id":"4","last_reported":1743322334,"current_range_meters":2800,"station_id":"","pricing_plan_id":"cebpf4jnsgd1na2vs0mg"},{"bike_id":"7556f589-64c8-4a20-91e9-aa7795e2b72b","system_id":"levelo_inurba_marseille","lat":43.30146,"lon":5.38075,"is_reserved":false,"is_disabled":false,"rental_uris":{"android":"levelo://app?vid=7556f589-64c8-4a20-91e9-aa7795e2b72b","ios":"levelo://app?vid=7556f589-64c8-4a20-91e9-aa7795e2b72b"},"vehicle_type_id":"4","last_reported":1743322334,"current_range_meters":2800,"station_id":"ce4bgjp2rcd13ifvqbh0","pricing_plan_id":"cebpf4jnsgd1na2vs0mg"},{"bike_id":"5035eaaf-4c4b-4740-b3e0-521452716a6f","system_id":"levelo_inurba_marseille","lat":43.26216,"lon":5.37456,"is_reserved":false,"is_disabled":true,"rental_uris":{"android":"levelo://app?vid=5035eaaf-4c4b-4740-b3e0-521452716a6f","ios":"levelo://app?vid=5035eaaf-4c4b-4740-b3e0-521452716a6f"},"vehicle_type_id":"4","last_reported":1743322334,"current_range_meters":2800,"station_id":"ce4bhgp2rcd13ifvqfc0","pricing_plan_id":"cebpf4jnsgd1na2vs0mg"},{"bike_id":"971c92cb-66df-438d-9a85-e63af939e6ff","system_id":"levelo_inurba_marseille","lat":43.286167,"lon":5.350961,"is_reserved":false,"is_disabled":true,"rental_uris":{"android":"levelo://app?vid=971c92cb-66df-438d-9a85-e63af939e6ff","ios":"levelo://app?vid=971c92cb-66df-438d-9a85-e63af939e6ff"},"vehicle_type_id":"4","last_reported":1743322334,"current_range_meters":2800,"station_id":"ce4bhch2rcd13ifvqeug","pricing_plan_id":"cebpf4jnsgd1na2vs0mg"},{"bike_id":"7402bd79-0fbf-4f8c-ab2f-aee4b69d0601","system_id":"levelo_inurba_marseille","lat":43.279154,"lon":5.395917,"is_reserved":false,"is_disabled":false,"rental_uris":{"android":"levelo://app?vid=7402bd79-0fbf-4f8c-ab2f-aee4b69d0601","ios":"levelo://app?vid=7402bd79-0fbf-4f8c-ab2f-aee4b69d0601"},"vehicle_type_id":"4","last_reported":1743322334,"current_range_meters":3200,"station_id":"ce4bhf92rcd13ifvqf40","pricing_plan_id":"cebpf4jnsgd1na2vs0mg"},{"bike_id":"6dd02f85-6cf6-46d2-9894-d0d58ed0d569","system_id":"levelo_inurba_marseille","lat":43.30734,"lon":5.424453,"is_reserved":false,"is_disabled":false,"rental_uris":{"android":"levelo://app?vid=6dd02f85-6cf6-46d2-9894-d0d58ed0d569","ios":"levelo://app?vid=6dd02f85-6cf6-46d2-9894-d0d58ed0d569"},"vehicle_type_id":"4","last_reported":1743322334,"current_range_meters":4000,"station_id":"st_cvj6ca6bvosntc0bfgr0","pricing_plan_id":"cebpf4jnsgd1na2vs0mg"},{"bike_id":"43d3f610-2ea9-4eda-a4c8-e3f9706bb87c","system_id":"levelo_inurba_marseille","lat":43.304,"lon":5.37346,"is_reserved":false,"is_disabled":false,"rental_uris":{"android":"levelo://app?vid=43d3f610-2ea9-4eda-a4c8-e3f9706bb87c","ios":"levelo://app?vid=43d3f610-2ea9-4eda-a4c8-e3f9706bb87c"},"vehicle_type_id":"4","last_reported":1743322334,"current_range_meters":4000,"station_id":"","pricing_plan_id":"cebpf4jnsgd1na2vs0mg"},{"bike_id":"6df043e1-a42e-4580-9ca0-8f52f737a714","system_id":"levelo_inurba_marseille","lat":43.29543,"lon":5.42288,"is_reserved":false,"is_disabled":false,"rental_uris":{"android":"levelo://app?vid=6df043e1-a42e-4580-9ca0-8f52f737a714","ios":"levelo://app?vid=6df043e1-a42e-4580-9ca0-8f52f737a714"},"vehicle_type_id":"4","last_reported":1743322334,"current_range_meters":4000,"station_id":"ce4bhph2rcd13ifvqhdg","pricing_plan_id":"cebpf4jnsgd1na2vs0mg"},{"bike_id":"3a78098d-c66a-44fa-b491-49c88350e494","system_id":"levelo_inurba_marseille","lat":43.287042,"lon":5.399744,"is_reserved":false,"is_disabled":false,"rental_uris":{"android":"levelo://app?vid=3a78098d-c66a-44fa-b491-49c88350e494","ios":"levelo://app?vid=3a78098d-c66a-44fa-b491-49c88350e494"},"vehicle_type_id":"4","last_reported":1743322334,"current_range_meters":4400,"station_id":"ce4bho92rcd13ifvqh3g","pricing_plan_id":"cebpf4jnsgd1na2vs0mg"},{"bike_id":"d5ffff0a-47db-470d-a1ce-99a37bfcd090","system_id":"levelo_inurba_marseille","lat":43.28649,"lon":5.35076,"is_reserved":false,"is_disabled":false,"rental_uris":{"android":"levelo://app?vid=d5ffff0a-47db-470d-a1ce-99a37bfcd090","ios":"levelo://app?vid=d5ffff0a-47db-470d-a1ce-99a37bfcd090"},"vehicle_type_id":"4","last_reported":1743322334,"current_range_meters":4400,"station_id":"ce4bhch2rcd13ifvqeug","pricing_plan_id":"cebpf4jnsgd1na2vs0mg"},{"bike_id":"e63ebc96-4cda-4588-aeed-ac1fbc8ba9de","system_id":"levelo_inurba_marseille","lat":43.24831,"lon":5.3747,"is_reserved":false,"is_disabled":false,"rental_uris":{"android":"levelo://app?vid=e63ebc96-4cda-4588-aeed-ac1fbc8ba9de","ios":"levelo://app?vid=e63ebc96-4cda-4588-aeed-ac1fbc8ba9de"},"vehicle_type_id":"4","last_reported":1743322334,"current_range_meters":4400,"station_id":"ce4bhgh2rcd13ifvqfb0","pricing_plan_id":"cebpf4jnsgd1na2vs0mg"},{"bike_id":"cd2dc4de-70a1-432b-8900-303cf935d2f7","system_id":"levelo_inurba_marseille","lat":43.24832,"lon":5.37442,"is_reserved":false,"is_disabled":false,"rental_uris":{"android":"levelo://app?vid=cd2dc4de-70a1-432b-8900-303cf935d2f7","ios":"levelo://app?vid=cd2dc4de-70a1-432b-8900-303cf935d2f7"},"vehicle_type_id":"4","last_reported":1743322334,"current_range_meters":4400,"station_id":"ce4bhgh2rcd13ifvqfb0","pricing_plan_id":"cebpf4jnsgd1na2vs0mg"},{"bike_id":"4777850e-a840-44f2-a6a5-fd44a1ac41d3","system_id":"levelo_inurba_marseille","lat":43.28709,"lon":5.39987,"is_reserved":false,"is_disabled":true,"rental_uris":{"android":"levelo://app?vid=4777850e-a840-44f2-a6a5-fd44a1ac41d3","ios":"levelo://app?vid=4777850e-a840-44f2-a6a5-fd44a1ac41d3"},"vehicle_type_id":"4","last_reported":1743322334,"current_range_meters":4800,"station_id":"ce4bho92rcd13ifvqh3g","pricing_plan_id":"cebpf4jnsgd1na2vs0mg"},{"bike_id":"0f9fc322-7a0f-4e30-9d4f-f42e9d546b3b","system_id":"levelo_inurba_marseille","lat":43.30555,"lon":5.38449,"is_reserved":false,"is_disabled":true,"rental_uris":{"android":"levelo://app?vid=0f9fc322-7a0f-4e30-9d4f-f42e9d546b3b","ios":"levelo://app?vid=0f9fc322-7a0f-4e30-9d4f-f42e9d546b3b"},"vehicle_type_id":"4","last_reported":1743322334,"current_range_meters":4800,"station_id":"ce4bgg92rcd13ifvqb30","pricing_plan_id":"cebpf4jnsgd1na2vs0mg"},{"bike_id":"22e8a677-7859-481e-a613-94be0f9261ae","system_id":"levelo_inurba_marseille","lat":43.231938,"lon":5.43717,"is_reserved":false,"is_disabled":false,"rental_uris":{"android":"levelo://app?vid=22e8a677-7859-481e-a613-94be0f9261ae","ios":"levelo://app?vid=22e8a677-7859-481e-a613-94be0f9261ae"},"vehicle_type_id":"4","last_reported":1743322334,"current_range_meters":4800,"station_id":"ce4bhmp2rcd13ifvqgog","pricing_plan_id":"cebpf4jnsgd1na2vs0mg"},{"bike_id":"6082a6d8-29f3-4441-bd82-d0f95ead75d7","system_id":"levelo_inurba_marseille","lat":43.23197,"lon":5.35537,"is_reserved":false,"is_disabled":false,"rental_uris":{"android":"levelo://app?vid=6082a6d8-29f3-4441-bd82-d0f95ead75d7","ios":"levelo://app?vid=6082a6d8-29f3-4441-bd82-d0f95ead75d7"},"vehicle_type_id":"4","last_reported":1743322334,"current_range_meters":4800,"station_id":"ce4bhu92rcd13ifvqi70","pricing_plan_id":"cebpf4jnsgd1na2vs0mg"},{"bike_id":"983c4c9f-ee1a-4d13-8ce7-bfd36c479f46","system_id":"levelo_inurba_marseille","lat":43.241661,"lon":5.364025,"is_reserved":false,"is_disabled":false,"rental_uris":{"android":"levelo://app?vid=983c4c9f-ee1a-4d13-8ce7-bfd36c479f46","ios":"levelo://app?vid=983c4c9f-ee1a-4d13-8ce7-bfd36c479f46"},"vehicle_type_id":"4","last_reported":1743322334,"current_range_meters":5600,"station_id":"cpo36qri1sfpv3e86is0","pricing_plan_id":"cebpf4jnsgd1na2vs0mg"},{"bike_id":"d110ea9c-afe8-47f1-b008-e66bc6e44a55","system_id":"levelo_inurba_marseille","lat":43.28447,"lon":5.35036,"is_reserved":false,"is_disabled":false,"rental_uris":{"android":"levelo://app?vid=d110ea9c-afe8-47f1-b008-e66bc6e44a55","ios":"levelo://app?vid=d110ea9c-afe8-47f1-b008-e66bc6e44a55"},"vehicle_type_id":"4","last_reported":1743322334,"current_range_meters":5600,"station_id":"ce4bhbh2rcd13ifvqepg","pricing_plan_id":"cebpf4jnsgd1na2vs0mg"},{"bike_id":"78b67e3b-74b3-4d5c-912b-2236b79a68ba","system_id":"levelo_inurba_marseille","lat":43.23157,"lon":5.43718,"is_reserved":false,"is_disabled":false,"rental_uris":{"android":"levelo://app?vid=78b67e3b-74b3-4d5c-912b-2236b79a68ba","ios":"levelo://app?vid=78b67e3b-74b3-4d5c-912b-2236b79a68ba"},"vehicle_type_id":"4","last_reported":1743322334,"current_range_meters":5600,"station_id":"ce4bhmp2rcd13ifvqgog","pricing_plan_id":"cebpf4jnsgd1na2vs0mg"},{"bike_id":"388e9556-019a-4b4b-8ff4-37bbffabc80a","system_id":"levelo_inurba_marseille","lat":43.31761,"lon":5.39022,"is_reserved":false,"is_disabled":false,"rental_uris":{"android":"levelo://app?vid=388e9556-019a-4b4b-8ff4-37bbffabc80a","ios":"levelo://app?vid=388e9556-019a-4b4b-8ff4-37bbffabc80a"},"vehicle_type_id":"4","last_reported":1743322334,"current_range_meters":4800,"station_id":"ce4bhqp2rcd13ifvqhng","pricing_plan_id":"cebpf4jnsgd1na2vs0mg"},{"bike_id":"97135e9b-4559-4844-99a8-b1d4ceff0374","system_id":"levelo_inurba_marseille","lat":43.32108,"lon":5.3678,"is_reserved":false,"is_disabled":false,"rental_uris":{"android":"levelo://app?vid=97135e9b-4559-4844-99a8-b1d4ceff0374","ios":"levelo://app?vid=97135e9b-4559-4844-99a8-b1d4ceff0374"},"vehicle_type_id":"4","last_reported":1743322334,"current_range_meters":5600,"station_id":"ce4bhrh2rcd13ifvqhug","pricing_plan_id":"cebpf4jnsgd1na2vs0mg"},{"bike_id":"0558bc66-2825-46b4-8c35-dfa19eca05b8","system_id":"levelo_inurba_marseille","lat":43.24398,"lon":5.37056,"is_reserved":false,"is_disabled":false,"rental_uris":{"android":"levelo://app?vid=0558bc66-2825-46b4-8c35-dfa19eca05b8","ios":"levelo://app?vid=0558bc66-2825-46b4-8c35-dfa19eca05b8"},"vehicle_type_id":"4","last_reported":1743322334,"current_range_meters":5600,"station_id":"ce4bhhh2rcd13ifvqfk0","pricing_plan_id":"cebpf4jnsgd1na2vs0mg"},{"bike_id":"6aed6101-bf8c-421d-b7c0-ed95bf7cc50c","system_id":"levelo_inurba_marseille","lat":43.2418,"lon":5.39735,"is_reserved":false,"is_disabled":false,"rental_uris":{"android":"levelo://app?vid=6aed6101-bf8c-421d-b7c0-ed95bf7cc50c","ios":"levelo://app?vid=6aed6101-bf8c-421d-b7c0-ed95bf7cc50c"},"vehicle_type_id":"4","last_reported":1743322334,"current_range_meters":6000,"station_id":"ce4bhn12rcd13ifvqgpg","pricing_plan_id":"cebpf4jnsgd1na2vs0mg"},{"bike_id":"e6967797-29d0-4947-88e5-61bc42de65df","system_id":"levelo_inurba_marseille","lat":43.28635,"lon":5.35096,"is_reserved":false,"is_disabled":false,"rental_uris":{"android":"levelo://app?vid=e6967797-29d0-4947-88e5-61bc42de65df","ios":"levelo://app?vid=e6967797-29d0-4947-88e5-61bc42de65df"},"vehicle_type_id":"4","last_reported":1743322334,"current_range_meters":6000,"station_id":"ce4bhch2rcd13ifvqeug","pricing_plan_id":"cebpf4jnsgd1na2vs0mg"},{"bike_id":"865a02c7-239d-4c4a-8242-4ce424cbd659","system_id":"levelo_inurba_marseille","lat":43.29818,"lon":5.39714,"is_reserved":false,"is_disabled":false,"rental_uris":{"android":"levelo://app?vid=865a02c7-239d-4c4a-8242-4ce424cbd659","ios":"levelo://app?vid=865a02c7-239d-4c4a-8242-4ce424cbd659"},"vehicle_type_id":"4","last_reported":1743322334,"current_range_meters":6000,"station_id":"","pricing_plan_id":"cebpf4jnsgd1na2vs0mg"},{"bike_id":"f11e6948-848f-4600-a85d-8cc801b23862","system_id":"levelo_inurba_marseille","lat":43.27298,"lon":5.39096,"is_reserved":false,"is_disabled":false,"rental_uris":{"android":"levelo://app?vid=f11e6948-848f-4600-a85d-8cc801b23862","ios":"levelo://app?vid=f11e6948-848f-4600-a85d-8cc801b23862"},"vehicle_type_id":"4","last_reported":1743322334,"current_range_meters":6000,"station_id":"ce4bhgp2rcd13ifvqfe0","pricing_plan_id":"cebpf4jnsgd1na2vs0mg"},{"bike_id":"449ef742-4b05-4a15-9c0d-e1bb0d6115fe","system_id":"levelo_inurba_marseille","lat":43.25718,"lon":5.41116,"is_reserved":false,"is_disabled":false,"rental_uris":{"android":"levelo://app?vid=449ef742-4b05-4a15-9c0d-e1bb0d6115fe","ios":"levelo://app?vid=449ef742-4b05-4a15-9c0d-e1bb0d6115fe"},"vehicle_type_id":"4","last_reported":1743322334,"current_range_meters":6000,"station_id":"ce4bhkp2rcd13ifvqgd0","pricing_plan_id":"cebpf4jnsgd1na2vs0mg"},{"bike_id":"fd9fd94c-c027-49a4-8acd-69991dd3677a","system_id":"levelo_inurba_marseille","lat":43.2758,"lon":5.38429,"is_reserved":false,"is_disabled":false,"rental_uris":{"android":"levelo://app?vid=fd9fd94c-c027-49a4-8acd-69991dd3677a","ios":"levelo://app?vid=fd9fd94c-c027-49a4-8acd-69991dd3677a"},"vehicle_type_id":"4","last_reported":1743322334,"current_range_meters":5600,"station_id":"ce4bhh92rcd13ifvqfi0","pricing_plan_id":"cebpf4jnsgd1na2vs0mg"},{"bike_id":"b5ace6c6-32e3-486d-9744-efb1ce0dfa9d","system_id":"levelo_inurba_marseille","lat":43.28909,"lon":5.37111,"is_reserved":false,"is_disabled":true,"rental_uris":{"android":"levelo://app?vid=b5ace6c6-32e3-486d-9744-efb1ce0dfa9d","ios":"levelo://app?vid=b5ace6c6-32e3-486d-9744-efb1ce0dfa9d"},"vehicle_type_id":"4","last_reported":1743322334,"current_range_meters":6400,"station_id":"","pricing_plan_id":"cebpf4jnsgd1na2vs0mg"},{"bike_id":"db60c315-c328-4f87-b733-227506b6708b","system_id":"levelo_inurba_marseille","lat":43.30166,"lon":5.38088,"is_reserved":false,"is_disabled":false,"rental_uris":{"android":"levelo://app?vid=db60c315-c328-4f87-b733-227506b6708b","ios":"levelo://app?vid=db60c315-c328-4f87-b733-227506b6708b"},"vehicle_type_id":"4","last_reported":1743322334,"current_range_meters":6400,"station_id":"ce4bgjp2rcd13ifvqbh0","pricing_plan_id":"cebpf4jnsgd1na2vs0mg"},{"bike_id":"8d6abdef-27aa-4d1b-9448-656a6296f19d","system_id":"levelo_inurba_marseille","lat":43.24178,"lon":5.39716,"is_reserved":false,"is_disabled":false,"rental_uris":{"android":"levelo://app?vid=8d6abdef-27aa-4d1b-9448-656a6296f19d","ios":"levelo://app?vid=8d6abdef-27aa-4d1b-9448-656a6296f19d"},"vehicle_type_id":"4","last_reported":1743322334,"current_range_meters":6400,"station_id":"ce4bhn12rcd13ifvqgpg","pricing_plan_id":"cebpf4jnsgd1na2vs0mg"},{"bike_id":"d0e312ef-16fe-4ace-a864-6003e49561f0","system_id":"levelo_inurba_marseille","lat":43.32362,"lon":5.38883,"is_reserved":false,"is_disabled":false,"rental_uris":{"android":"levelo://app?vid=d0e312ef-16fe-4ace-a864-6003e49561f0","ios":"levelo://app?vid=d0e312ef-16fe-4ace-a864-6003e49561f0"},"vehicle_type_id":"4","last_reported":1743322334,"current_range_meters":6400,"station_id":"ce4bhqp2rcd13ifvqhog","pricing_plan_id":"cebpf4jnsgd1na2vs0mg"},{"bike_id":"d14cdd1e-f0b3-48a5-be5e-77128af69a2d","system_id":"levelo_inurba_marseille","lat":43.28624,"lon":5.35115,"is_reserved":false,"is_disabled":false,"rental_uris":{"android":"levelo://app?vid=d14cdd1e-f0b3-48a5-be5e-77128af69a2d","ios":"levelo://app?vid=d14cdd1e-f0b3-48a5-be5e-77128af69a2d"},"vehicle_type_id":"4","last_reported":1743322334,"current_range_meters":6400,"station_id":"ce4bhch2rcd13ifvqeug","pricing_plan_id":"cebpf4jnsgd1na2vs0mg"},{"bike_id":"e4614adf-59ca-49c9-9f29-fb2629aacd37","system_id":"levelo_inurba_marseille","lat":43.286169,"lon":5.351079,"is_reserved":false,"is_disabled":false,"rental_uris":{"android":"levelo://app?vid=e4614adf-59ca-49c9-9f29-fb2629aacd37","ios":"levelo://app?vid=e4614adf-59ca-49c9-9f29-fb2629aacd37"},"vehicle_type_id":"4","last_reported":1743322334,"current_range_meters":6400,"station_id":"ce4bhch2rcd13ifvqeug","pricing_plan_id":"cebpf4jnsgd1na2vs0mg"},{"bike_id":"86402da5-f9ef-43b6-a281-06ce7c4c3160","system_id":"levelo_inurba_marseille","lat":43.28617,"lon":5.35108,"is_reserved":false,"is_disabled":false,"rental_uris":{"android":"levelo://app?vid=86402da5-f9ef-43b6-a281-06ce7c4c3160","ios":"levelo://app?vid=86402da5-f9ef-43b6-a281-06ce7c4c3160"},"vehicle_type_id":"4","last_reported":1743322334,"current_range_meters":6800,"station_id":"ce4bhch2rcd13ifvqeug","pricing_plan_id":"cebpf4jnsgd1na2vs0mg"},{"bike_id":"7a8af4c2-cef0-4683-96dc-2bf396b4e218","system_id":"levelo_inurba_marseille","lat":43.25491,"lon":5.37646,"is_reserved":false,"is_disabled":false,"rental_uris":{"android":"levelo://app?vid=7a8af4c2-cef0-4683-96dc-2bf396b4e218","ios":"levelo://app?vid=7a8af4c2-cef0-4683-96dc-2bf396b4e218"},"vehicle_type_id":"4","last_reported":1743322334,"current_range_meters":6800,"station_id":"ce4bhh12rcd13ifvqff0","pricing_plan_id":"cebpf4jnsgd1na2vs0mg"},{"bike_id":"b1ecd358-38ec-4753-8af1-9b87454b444a","system_id":"levelo_inurba_marseille","lat":43.28606,"lon":5.3511,"is_reserved":false,"is_disabled":false,"rental_uris":{"android":"levelo://app?vid=b1ecd358-38ec-4753-8af1-9b87454b444a","ios":"levelo://app?vid=b1ecd358-38ec-4753-8af1-9b87454b444a"},"vehicle_type_id":"4","last_reported":1743322334,"current_range_meters":6800,"station_id":"ce4bhch2rcd13ifvqeug","pricing_plan_id":"cebpf4jnsgd1na2vs0mg"},{"bike_id":"a908f285-d3a5-4bf5-8706-ab3f83d2dd08","system_id":"levelo_inurba_marseille","lat":43.28609,"lon":5.35103,"is_reserved":false,"is_disabled":false,"rental_uris":{"android":"levelo://app?vid=a908f285-d3a5-4bf5-8706-ab3f83d2dd08","ios":"levelo://app?vid=a908f285-d3a5-4bf5-8706-ab3f83d2dd08"},"vehicle_type_id":"4","last_reported":1743322334,"current_range_meters":6800,"station_id":"ce4bhch2rcd13ifvqeug","pricing_plan_id":"cebpf4jnsgd1na2vs0mg"},{"bike_id":"a36a9ec1-537e-4091-9d7a-dd0444d14e10","system_id":"levelo_inurba_marseille","lat":43.2481,"lon":5.37461,"is_reserved":false,"is_disabled":false,"rental_uris":{"android":"levelo://app?vid=a36a9ec1-537e-4091-9d7a-dd0444d14e10","ios":"levelo://app?vid=a36a9ec1-537e-4091-9d7a-dd0444d14e10"},"vehicle_type_id":"4","last_reported":1743322334,"current_range_meters":6800,"station_id":"ce4bhgh2rcd13ifvqfb0","pricing_plan_id":"cebpf4jnsgd1na2vs0mg"},{"bike_id":"8146fa8a-bb85-41b3-a961-78ddb70e9b3f","system_id":"levelo_inurba_marseille","lat":43.28618,"lon":5.35111,"is_reserved":false,"is_disabled":false,"rental_uris":{"android":"levelo://app?vid=8146fa8a-bb85-41b3-a961-78ddb70e9b3f","ios":"levelo://app?vid=8146fa8a-bb85-41b3-a961-78ddb70e9b3f"},"vehicle_type_id":"4","last_reported":1743322334,"current_range_meters":6800,"station_id":"ce4bhch2rcd13ifvqeug","pricing_plan_id":"cebpf4jnsgd1na2vs0mg"},{"bike_id":"5e3b321f-3f1a-471d-96ca-3ae7e8f8d5a5","system_id":"levelo_inurba_marseille","lat":43.27625,"lon":5.36119,"is_reserved":false,"is_disabled":false,"rental_uris":{"android":"levelo://app?vid=5e3b321f-3f1a-471d-96ca-3ae7e8f8d5a5","ios":"levelo://app?vid=5e3b321f-3f1a-471d-96ca-3ae7e8f8d5a5"},"vehicle_type_id":"4","last_reported":1743322334,"current_range_meters":6800,"station_id":"ce4bgj92rcd13ifvqbe0","pricing_plan_id":"cebpf4jnsgd1na2vs0mg"},{"bike_id":"bccdc0c0-20a2-4696-ad74-263cc8bc333c","system_id":"levelo_inurba_marseille","lat":43.28007,"lon":5.36886,"is_reserved":false,"is_disabled":false,"rental_uris":{"android":"levelo://app?vid=bccdc0c0-20a2-4696-ad74-263cc8bc333c","ios":"levelo://app?vid=bccdc0c0-20a2-4696-ad74-263cc8bc333c"},"vehicle_type_id":"4","last_reported":1743322334,"current_range_meters":6800,"station_id":"","pricing_plan_id":"cebpf4jnsgd1na2vs0mg"},{"bike_id":"ade0056c-24a5-436b-ac14-0aeaee884a11","system_id":"levelo_inurba_marseille","lat":43.28454,"lon":5.35878,"is_reserved":false,"is_disabled":false,"rental_uris":{"android":"levelo://app?vid=ade0056c-24a5-436b-ac14-0aeaee884a11","ios":"levelo://app?vid=ade0056c-24a5-436b-ac14-0aeaee884a11"},"vehicle_type_id":"4","last_reported":1743322334,"current_range_meters":6800,"station_id":"ce4bhah2rcd13ifvqei0","pricing_plan_id":"cebpf4jnsgd1na2vs0mg"},{"bike_id":"96fa1290-e699-40b9-9109-379d3b77c6fb","system_id":"levelo_inurba_marseille","lat":43.33758,"lon":5.39186,"is_reserved":false,"is_disabled":false,"rental_uris":{"android":"levelo://app?vid=96fa1290-e699-40b9-9109-379d3b77c6fb","ios":"levelo://app?vid=96fa1290-e699-40b9-9109-379d3b77c6fb"},"vehicle_type_id":"4","last_reported":1743322334,"current_range_meters":7200,"station_id":"ce4bhr92rcd13ifvqhsg","pricing_plan_id":"cebpf4jnsgd1na2vs0mg"},{"bike_id":"296d0da0-4cc4-40ab-acd1-7c240f5eee02","system_id":"levelo_inurba_marseille","lat":43.305781,"lon":5.376639,"is_reserved":false,"is_disabled":false,"rental_uris":{"android":"levelo://app?vid=296d0da0-4cc4-40ab-acd1-7c240f5eee02","ios":"levelo://app?vid=296d0da0-4cc4-40ab-acd1-7c240f5eee02"},"vehicle_type_id":"4","last_reported":1743322334,"current_range_meters":7200,"station_id":"","pricing_plan_id":"cebpf4jnsgd1na2vs0mg"},{"bike_id":"4b2323ae-94b8-41f7-9062-4d9bd4bd549e","system_id":"levelo_inurba_marseille","lat":43.2415,"lon":5.36402,"is_reserved":false,"is_disabled":false,"rental_uris":{"android":"levelo://app?vid=4b2323ae-94b8-41f7-9062-4d9bd4bd549e","ios":"levelo://app?vid=4b2323ae-94b8-41f7-9062-4d9bd4bd549e"},"vehicle_type_id":"4","last_reported":1743322334,"current_range_meters":7200,"station_id":"cpo36qri1sfpv3e86is0","pricing_plan_id":"cebpf4jnsgd1na2vs0mg"},{"bike_id":"a8c2d63a-9eeb-46b0-9f10-0ac54c09e17b","system_id":"levelo_inurba_marseille","lat":43.25005,"lon":5.38928,"is_reserved":false,"is_disabled":false,"rental_uris":{"android":"levelo://app?vid=a8c2d63a-9eeb-46b0-9f10-0ac54c09e17b","ios":"levelo://app?vid=a8c2d63a-9eeb-46b0-9f10-0ac54c09e17b"},"vehicle_type_id":"4","last_reported":1743322334,"current_range_meters":7200,"station_id":"ce4bhgp2rcd13ifvqfd0","pricing_plan_id":"cebpf4jnsgd1na2vs0mg"},{"bike_id":"a2891cc1-74ac-4bb3-ac89-3d4a61a76871","system_id":"levelo_inurba_marseille","lat":43.23962,"lon":5.36623,"is_reserved":false,"is_disabled":false,"rental_uris":{"android":"levelo://app?vid=a2891cc1-74ac-4bb3-ac89-3d4a61a76871","ios":"levelo://app?vid=a2891cc1-74ac-4bb3-ac89-3d4a61a76871"},"vehicle_type_id":"4","last_reported":1743322334,"current_range_meters":7200,"station_id":"ce4bhi12rcd13ifvqfp0","pricing_plan_id":"cebpf4jnsgd1na2vs0mg"},{"bike_id":"50fc61f7-fd02-4646-9da0-44b701229b8b","system_id":"levelo_inurba_marseille","lat":43.2845,"lon":5.39149,"is_reserved":false,"is_disabled":false,"rental_uris":{"android":"levelo://app?vid=50fc61f7-fd02-4646-9da0-44b701229b8b","ios":"levelo://app?vid=50fc61f7-fd02-4646-9da0-44b701229b8b"},"vehicle_type_id":"4","last_reported":1743322334,"current_range_meters":7200,"station_id":"","pricing_plan_id":"cebpf4jnsgd1na2vs0mg"},{"bike_id":"8c0f6e3f-b370-4d64-ac55-96b0ff55a395","system_id":"levelo_inurba_marseille","lat":43.24392,"lon":5.37043,"is_reserved":false,"is_disabled":false,"rental_uris":{"android":"levelo://app?vid=8c0f6e3f-b370-4d64-ac55-96b0ff55a395","ios":"levelo://app?vid=8c0f6e3f-b370-4d64-ac55-96b0ff55a395"},"vehicle_type_id":"4","last_reported":1743322334,"current_range_meters":7200,"station_id":"ce4bhhh2rcd13ifvqfk0","pricing_plan_id":"cebpf4jnsgd1na2vs0mg"},{"bike_id":"e13c5804-8cfa-4e19-af0d-8fc5e4ec2833","system_id":"levelo_inurba_marseille","lat":43.31086,"lon":5.38362,"is_reserved":false,"is_disabled":false,"rental_uris":{"android":"levelo://app?vid=e13c5804-8cfa-4e19-af0d-8fc5e4ec2833","ios":"levelo://app?vid=e13c5804-8cfa-4e19-af0d-8fc5e4ec2833"},"vehicle_type_id":"4","last_reported":1743322334,"current_range_meters":7200,"station_id":"ce4bgv92rcd13ifvqcr0","pricing_plan_id":"cebpf4jnsgd1na2vs0mg"},{"bike_id":"4586e23a-2d77-446c-8e8c-a15b6ae5de02","system_id":"levelo_inurba_marseille","lat":43.28587,"lon":5.38129,"is_reserved":false,"is_disabled":false,"rental_uris":{"android":"levelo://app?vid=4586e23a-2d77-446c-8e8c-a15b6ae5de02","ios":"levelo://app?vid=4586e23a-2d77-446c-8e8c-a15b6ae5de02"},"vehicle_type_id":"4","last_reported":1743322334,"current_range_meters":7200,"station_id":"","pricing_plan_id":"cebpf4jnsgd1na2vs0mg"},{"bike_id":"1a8ec8fe-cd0f-44f4-9a76-dfc354a60ccc","system_id":"levelo_inurba_marseille","lat":43.23955,"lon":5.36631,"is_reserved":false,"is_disabled":false,"rental_uris":{"android":"levelo://app?vid=1a8ec8fe-cd0f-44f4-9a76-dfc354a60ccc","ios":"levelo://app?vid=1a8ec8fe-cd0f-44f4-9a76-dfc354a60ccc"},"vehicle_type_id":"4","last_reported":1743322334,"current_range_meters":7200,"station_id":"ce4bhi12rcd13ifvqfp0","pricing_plan_id":"cebpf4jnsgd1na2vs0mg"},{"bike_id":"3b9e2dbb-dda4-4ed5-8aef-7e67e6437f0d","system_id":"levelo_inurba_marseille","lat":43.33349,"lon":5.4014,"is_reserved":false,"is_disabled":false,"rental_uris":{"android":"levelo://app?vid=3b9e2dbb-dda4-4ed5-8aef-7e67e6437f0d","ios":"levelo://app?vid=3b9e2dbb-dda4-4ed5-8aef-7e67e6437f0d"},"vehicle_type_id":"4","last_reported":1743322334,"current_range_meters":7200,"station_id":"","pricing_plan_id":"cebpf4jnsgd1na2vs0mg"},{"bike_id":"4cc81884-de11-499d-854b-434327af9601","system_id":"levelo_inurba_marseille","lat":43.28647,"lon":5.36364,"is_reserved":false,"is_disabled":false,"rental_uris":{"android":"levelo://app?vid=4cc81884-de11-499d-854b-434327af9601","ios":"levelo://app?vid=4cc81884-de11-499d-854b-434327af9601"},"vehicle_type_id":"4","last_reported":1743322334,"current_range_meters":7200,"station_id":"ce4bhah2rcd13ifvqej0","pricing_plan_id":"cebpf4jnsgd1na2vs0mg"},{"bike_id":"02d90919-559d-4630-a432-1f6893f6e8aa","system_id":"levelo_inurba_marseille","lat":43.31116,"lon":5.37774,"is_reserved":false,"is_disabled":false,"rental_uris":{"android":"levelo://app?vid=02d90919-559d-4630-a432-1f6893f6e8aa","ios":"levelo://app?vid=02d90919-559d-4630-a432-1f6893f6e8aa"},"vehicle_type_id":"4","last_reported":1743322334,"current_range_meters":8000,"station_id":"ce4bgt92rcd13ifvqcg0","pricing_plan_id":"cebpf4jnsgd1na2vs0mg"},{"bike_id":"678afc02-7887-4189-83e7-46e425f91ae8","system_id":"levelo_inurba_marseille","lat":43.23191,"lon":5.35554,"is_reserved":false,"is_disabled":false,"rental_uris":{"android":"levelo://app?vid=678afc02-7887-4189-83e7-46e425f91ae8","ios":"levelo://app?vid=678afc02-7887-4189-83e7-46e425f91ae8"},"vehicle_type_id":"4","last_reported":1743322334,"current_range_meters":8000,"station_id":"ce4bhu92rcd13ifvqi70","pricing_plan_id":"cebpf4jnsgd1na2vs0mg"},{"bike_id":"0ec0cc6f-44c3-4eef-9ac4-56390c46c478","system_id":"levelo_inurba_marseille","lat":43.30158,"lon":5.38078,"is_reserved":false,"is_disabled":false,"rental_uris":{"android":"levelo://app?vid=0ec0cc6f-44c3-4eef-9ac4-56390c46c478","ios":"levelo://app?vid=0ec0cc6f-44c3-4eef-9ac4-56390c46c478"},"vehicle_type_id":"4","last_reported":1743322334,"current_range_meters":8000,"station_id":"ce4bgjp2rcd13ifvqbh0","pricing_plan_id":"cebpf4jnsgd1na2vs0mg"},{"bike_id":"f6e780c4-90a9-4c52-bdda-724b78ccf213","system_id":"levelo_inurba_marseille","lat":43.28758,"lon":5.38011,"is_reserved":false,"is_disabled":false,"rental_uris":{"android":"levelo://app?vid=f6e780c4-90a9-4c52-bdda-724b78ccf213","ios":"levelo://app?vid=f6e780c4-90a9-4c52-bdda-724b78ccf213"},"vehicle_type_id":"4","last_reported":1743322334,"current_range_meters":8000,"station_id":"","pricing_plan_id":"cebpf4jnsgd1na2vs0mg"},{"bike_id":"5a3307a6-54ca-44bc-a5fd-ab80751e6464","system_id":"levelo_inurba_marseille","lat":43.23188,"lon":5.3998,"is_reserved":false,"is_disabled":true,"rental_uris":{"android":"levelo://app?vid=5a3307a6-54ca-44bc-a5fd-ab80751e6464","ios":"levelo://app?vid=5a3307a6-54ca-44bc-a5fd-ab80751e6464"},"vehicle_type_id":"4","last_reported":1743322334,"current_range_meters":8000,"station_id":"ce4bhn12rcd13ifvqgqg","pricing_plan_id":"cebpf4jnsgd1na2vs0mg"},{"bike_id":"49b5a4d5-2ce4-499c-95d5-119862a0acca","system_id":"levelo_inurba_marseille","lat":43.30873,"lon":5.39653,"is_reserved":false,"is_disabled":false,"rental_uris":{"android":"levelo://app?vid=49b5a4d5-2ce4-499c-95d5-119862a0acca","ios":"levelo://app?vid=49b5a4d5-2ce4-499c-95d5-119862a0acca"},"vehicle_type_id":"4","last_reported":1743322334,"current_range_meters":8400,"station_id":"ce4bh012rcd13ifvqcv0","pricing_plan_id":"cebpf4jnsgd1na2vs0mg"},{"bike_id":"b2e6e5f9-815c-46ac-bebd-de4e22a8e049","system_id":"levelo_inurba_marseille","lat":43.33323,"lon":5.39564,"is_reserved":false,"is_disabled":false,"rental_uris":{"android":"levelo://app?vid=b2e6e5f9-815c-46ac-bebd-de4e22a8e049","ios":"levelo://app?vid=b2e6e5f9-815c-46ac-bebd-de4e22a8e049"},"vehicle_type_id":"4","last_reported":1743322334,"current_range_meters":8400,"station_id":"","pricing_plan_id":"cebpf4jnsgd1na2vs0mg"},{"bike_id":"b98594d7-8128-4bc2-a9d4-f4c330986c65","system_id":"levelo_inurba_marseille","lat":43.2396,"lon":5.36636,"is_reserved":false,"is_disabled":false,"rental_uris":{"android":"levelo://app?vid=b98594d7-8128-4bc2-a9d4-f4c330986c65","ios":"levelo://app?vid=b98594d7-8128-4bc2-a9d4-f4c330986c65"},"vehicle_type_id":"4","last_reported":1743322334,"current_range_meters":8400,"station_id":"ce4bhi12rcd13ifvqfp0","pricing_plan_id":"cebpf4jnsgd1na2vs0mg"},{"bike_id":"96ac20e8-5840-4579-b371-184ec6253952","system_id":"levelo_inurba_marseille","lat":43.27496,"lon":5.41139,"is_reserved":false,"is_disabled":false,"rental_uris":{"android":"levelo://app?vid=96ac20e8-5840-4579-b371-184ec6253952","ios":"levelo://app?vid=96ac20e8-5840-4579-b371-184ec6253952"},"vehicle_type_id":"4","last_reported":1743322334,"current_range_meters":8400,"station_id":"","pricing_plan_id":"cebpf4jnsgd1na2vs0mg"},{"bike_id":"469328d2-7891-4ea9-9bc7-ffa887dc90ca","system_id":"levelo_inurba_marseille","lat":43.30315,"lon":5.36885,"is_reserved":false,"is_disabled":false,"rental_uris":{"android":"levelo://app?vid=469328d2-7891-4ea9-9bc7-ffa887dc90ca","ios":"levelo://app?vid=469328d2-7891-4ea9-9bc7-ffa887dc90ca"},"vehicle_type_id":"4","last_reported":1743322334,"current_range_meters":8400,"station_id":"ce4bgqh2rcd13ifvqc5g","pricing_plan_id":"cebpf4jnsgd1na2vs0mg"},{"bike_id":"ead84735-1991-4501-b506-2229ced7058a","system_id":"levelo_inurba_marseille","lat":43.23063,"lon":5.35486,"is_reserved":false,"is_disabled":false,"rental_uris":{"android":"levelo://app?vid=ead84735-1991-4501-b506-2229ced7058a","ios":"levelo://app?vid=ead84735-1991-4501-b506-2229ced7058a"},"vehicle_type_id":"4","last_reported":1743322334,"current_range_meters":8400,"station_id":"cpo3342slgdg3j2ifvpg","pricing_plan_id":"cebpf4jnsgd1na2vs0mg"},{"bike_id":"2014ec2d-3dbd-40d7-818b-e9e4b74a24e2","system_id":"levelo_inurba_marseille","lat":43.31311,"lon":5.3969,"is_reserved":false,"is_disabled":false,"rental_uris":{"android":"levelo://app?vid=2014ec2d-3dbd-40d7-818b-e9e4b74a24e2","ios":"levelo://app?vid=2014ec2d-3dbd-40d7-818b-e9e4b74a24e2"},"vehicle_type_id":"4","last_reported":1743322334,"current_range_meters":8400,"station_id":"ce4bgvp2rcd13ifvqcu0","pricing_plan_id":"cebpf4jnsgd1na2vs0mg"},{"bike_id":"5dca16b0-0836-4d29-a112-b6ae5585b009","system_id":"levelo_inurba_marseille","lat":43.28615,"lon":5.35112,"is_reserved":false,"is_disabled":false,"rental_uris":{"android":"levelo://app?vid=5dca16b0-0836-4d29-a112-b6ae5585b009","ios":"levelo://app?vid=5dca16b0-0836-4d29-a112-b6ae5585b009"},"vehicle_type_id":"4","last_reported":1743322334,"current_range_meters":8400,"station_id":"ce4bhch2rcd13ifvqeug","pricing_plan_id":"cebpf4jnsgd1na2vs0mg"},{"bike_id":"a1b5a514-f0ef-42eb-b1a4-22dd30a86324","system_id":"levelo_inurba_marseille","lat":43.3177,"lon":5.3901,"is_reserved":false,"is_disabled":false,"rental_uris":{"android":"levelo://app?vid=a1b5a514-f0ef-42eb-b1a4-22dd30a86324","ios":"levelo://app?vid=a1b5a514-f0ef-42eb-b1a4-22dd30a86324"},"vehicle_type_id":"4","last_reported":1743322334,"current_range_meters":8400,"station_id":"ce4bhqp2rcd13ifvqhng","pricing_plan_id":"cebpf4jnsgd1na2vs0mg"},{"bike_id":"970d0fb3-ec32-4d9d-8099-816bed18a534","system_id":"levelo_inurba_marseille","lat":43.23963,"lon":5.36627,"is_reserved":false,"is_disabled":false,"rental_uris":{"android":"levelo://app?vid=970d0fb3-ec32-4d9d-8099-816bed18a534","ios":"levelo://app?vid=970d0fb3-ec32-4d9d-8099-816bed18a534"},"vehicle_type_id":"4","last_reported":1743322334,"current_range_meters":8800,"station_id":"ce4bhi12rcd13ifvqfp0","pricing_plan_id":"cebpf4jnsgd1na2vs0mg"},{"bike_id":"30d066a4-e674-441e-adfb-bc28e129479b","system_id":"levelo_inurba_marseille","lat":43.29262,"lon":5.36858,"is_reserved":false,"is_disabled":false,"rental_uris":{"android":"levelo://app?vid=30d066a4-e674-441e-adfb-bc28e129479b","ios":"levelo://app?vid=30d066a4-e674-441e-adfb-bc28e129479b"},"vehicle_type_id":"4","last_reported":1743322334,"current_range_meters":8800,"station_id":"ce4bhbp2rcd13ifvqesg","pricing_plan_id":"cebpf4jnsgd1na2vs0mg"},{"bike_id":"d0ed36b4-3c5a-4da6-8fb4-955c321dd03a","system_id":"levelo_inurba_marseille","lat":43.27511,"lon":5.41016,"is_reserved":false,"is_disabled":false,"rental_uris":{"android":"levelo://app?vid=d0ed36b4-3c5a-4da6-8fb4-955c321dd03a","ios":"levelo://app?vid=d0ed36b4-3c5a-4da6-8fb4-955c321dd03a"},"vehicle_type_id":"4","last_reported":1743322334,"current_range_meters":8800,"station_id":"","pricing_plan_id":"cebpf4jnsgd1na2vs0mg"},{"bike_id":"278e116b-2b8f-44d7-809a-61451e03597b","system_id":"levelo_inurba_marseille","lat":43.28699,"lon":5.39987,"is_reserved":false,"is_disabled":false,"rental_uris":{"android":"levelo://app?vid=278e116b-2b8f-44d7-809a-61451e03597b","ios":"levelo://app?vid=278e116b-2b8f-44d7-809a-61451e03597b"},"vehicle_type_id":"4","last_reported":1743322334,"current_range_meters":8400,"station_id":"ce4bho92rcd13ifvqh3g","pricing_plan_id":"cebpf4jnsgd1na2vs0mg"},{"bike_id":"2babefe7-230c-4dd6-abf4-4247c7977333","system_id":"levelo_inurba_marseille","lat":43.30934,"lon":5.40177,"is_reserved":false,"is_disabled":false,"rental_uris":{"android":"levelo://app?vid=2babefe7-230c-4dd6-abf4-4247c7977333","ios":"levelo://app?vid=2babefe7-230c-4dd6-abf4-4247c7977333"},"vehicle_type_id":"4","last_reported":1743322334,"current_range_meters":8800,"station_id":"ce4bgvp2rcd13ifvqct0","pricing_plan_id":"cebpf4jnsgd1na2vs0mg"},{"bike_id":"004ed55f-f985-4268-b523-9ed16ba4ea3b","system_id":"levelo_inurba_marseille","lat":43.29291,"lon":5.36848,"is_reserved":false,"is_disabled":true,"rental_uris":{"android":"levelo://app?vid=004ed55f-f985-4268-b523-9ed16ba4ea3b","ios":"levelo://app?vid=004ed55f-f985-4268-b523-9ed16ba4ea3b"},"vehicle_type_id":"4","last_reported":1743322334,"current_range_meters":8800,"station_id":"ce4bhbp2rcd13ifvqesg","pricing_plan_id":"cebpf4jnsgd1na2vs0mg"},{"bike_id":"92bfecbf-789d-4c73-ae76-0e5a1e2a6e8a","system_id":"levelo_inurba_marseille","lat":43.2557,"lon":5.38247,"is_reserved":false,"is_disabled":false,"rental_uris":{"android":"levelo://app?vid=92bfecbf-789d-4c73-ae76-0e5a1e2a6e8a","ios":"levelo://app?vid=92bfecbf-789d-4c73-ae76-0e5a1e2a6e8a"},"vehicle_type_id":"4","last_reported":1743322334,"current_range_meters":8800,"station_id":"ce4bhih2rcd13ifvqfs0","pricing_plan_id":"cebpf4jnsgd1na2vs0mg"},{"bike_id":"1adfec18-edad-4215-845d-68da8da924b9","system_id":"levelo_inurba_marseille","lat":43.23196,"lon":5.35566,"is_reserved":false,"is_disabled":false,"rental_uris":{"android":"levelo://app?vid=1adfec18-edad-4215-845d-68da8da924b9","ios":"levelo://app?vid=1adfec18-edad-4215-845d-68da8da924b9"},"vehicle_type_id":"4","last_reported":1743322334,"current_range_meters":8800,"station_id":"ce4bhu92rcd13ifvqi70","pricing_plan_id":"cebpf4jnsgd1na2vs0mg"},{"bike_id":"488767ae-a52a-41d7-8f9a-e947164469f3","system_id":"levelo_inurba_marseille","lat":43.31624,"lon":5.41652,"is_reserved":false,"is_disabled":true,"rental_uris":{"android":"levelo://app?vid=488767ae-a52a-41d7-8f9a-e947164469f3","ios":"levelo://app?vid=488767ae-a52a-41d7-8f9a-e947164469f3"},"vehicle_type_id":"4","last_reported":1743322334,"current_range_meters":8800,"station_id":"","pricing_plan_id":"cebpf4jnsgd1na2vs0mg"},{"bike_id":"747d2bc2-6706-42d9-8381-8fcc8fac62bd","system_id":"levelo_inurba_marseille","lat":43.28694,"lon":5.36978,"is_reserved":false,"is_disabled":true,"rental_uris":{"android":"levelo://app?vid=747d2bc2-6706-42d9-8381-8fcc8fac62bd","ios":"levelo://app?vid=747d2bc2-6706-42d9-8381-8fcc8fac62bd"},"vehicle_type_id":"4","last_reported":1743322334,"current_range_meters":8800,"station_id":"","pricing_plan_id":"cebpf4jnsgd1na2vs0mg"},{"bike_id":"7699dc8a-14fa-4918-b36a-a478a442365c","system_id":"levelo_inurba_marseille","lat":43.28702,"lon":5.37393,"is_reserved":false,"is_disabled":false,"rental_uris":{"android":"levelo://app?vid=7699dc8a-14fa-4918-b36a-a478a442365c","ios":"levelo://app?vid=7699dc8a-14fa-4918-b36a-a478a442365c"},"vehicle_type_id":"4","last_reported":1743322334,"current_range_meters":8800,"station_id":"ce4bh3p2rcd13ifvqdq0","pricing_plan_id":"cebpf4jnsgd1na2vs0mg"},{"bike_id":"89b372e0-e34b-4448-a651-9f0d9816c98e","system_id":"levelo_inurba_marseille","lat":43.24162,"lon":5.3641,"is_reserved":false,"is_disabled":false,"rental_uris":{"android":"levelo://app?vid=89b372e0-e34b-4448-a651-9f0d9816c98e","ios":"levelo://app?vid=89b372e0-e34b-4448-a651-9f0d9816c98e"},"vehicle_type_id":"4","last_reported":1743322334,"current_range_meters":8800,"station_id":"cpo36qri1sfpv3e86is0","pricing_plan_id":"cebpf4jnsgd1na2vs0mg"},{"bike_id":"66f0934b-61dd-4ad9-bac8-57acb999b032","system_id":"levelo_inurba_marseille","lat":43.29707,"lon":5.36617,"is_reserved":false,"is_disabled":false,"rental_uris":{"android":"levelo://app?vid=66f0934b-61dd-4ad9-bac8-57acb999b032","ios":"levelo://app?vid=66f0934b-61dd-4ad9-bac8-57acb999b032"},"vehicle_type_id":"4","last_reported":1743322334,"current_range_meters":8400,"station_id":"ce4bgn12rcd13ifvqbt0","pricing_plan_id":"cebpf4jnsgd1na2vs0mg"},{"bike_id":"8e69e7f9-76b5-4d0a-8b34-45d50fc637f3","system_id":"levelo_inurba_marseille","lat":43.24212,"lon":5.38459,"is_reserved":false,"is_disabled":false,"rental_uris":{"android":"levelo://app?vid=8e69e7f9-76b5-4d0a-8b34-45d50fc637f3","ios":"levelo://app?vid=8e69e7f9-76b5-4d0a-8b34-45d50fc637f3"},"vehicle_type_id":"4","last_reported":1743322334,"current_range_meters":8800,"station_id":"","pricing_plan_id":"cebpf4jnsgd1na2vs0mg"},{"bike_id":"e21c6cd6-a4f4-4697-99e2-bf5aece6c9a1","system_id":"levelo_inurba_marseille","lat":43.24167,"lon":5.36393,"is_reserved":false,"is_disabled":false,"rental_uris":{"android":"levelo://app?vid=e21c6cd6-a4f4-4697-99e2-bf5aece6c9a1","ios":"levelo://app?vid=e21c6cd6-a4f4-4697-99e2-bf5aece6c9a1"},"vehicle_type_id":"4","last_reported":1743322334,"current_range_meters":8800,"station_id":"cpo36qri1sfpv3e86is0","pricing_plan_id":"cebpf4jnsgd1na2vs0mg"},{"bike_id":"25bb5fbc-8229-4010-b703-31f5ee6ac141","system_id":"levelo_inurba_marseille","lat":43.30622,"lon":5.366009,"is_reserved":false,"is_disabled":false,"rental_uris":{"android":"levelo://app?vid=25bb5fbc-8229-4010-b703-31f5ee6ac141","ios":"levelo://app?vid=25bb5fbc-8229-4010-b703-31f5ee6ac141"},"vehicle_type_id":"4","last_reported":1743322334,"current_range_meters":9200,"station_id":"","pricing_plan_id":"cebpf4jnsgd1na2vs0mg"},{"bike_id":"f324a5d7-b202-41ae-b7c0-b34189ccf720","system_id":"levelo_inurba_marseille","lat":43.29275,"lon":5.40122,"is_reserved":false,"is_disabled":false,"rental_uris":{"android":"levelo://app?vid=f324a5d7-b202-41ae-b7c0-b34189ccf720","ios":"levelo://app?vid=f324a5d7-b202-41ae-b7c0-b34189ccf720"},"vehicle_type_id":"4","last_reported":1743322334,"current_range_meters":9200,"station_id":"ce4bh312rcd13ifvqdk0","pricing_plan_id":"cebpf4jnsgd1na2vs0mg"},{"bike_id":"56382eee-a8fa-40dd-bdaa-e22b9db5afbc","system_id":"levelo_inurba_marseille","lat":43.28949,"lon":5.3664,"is_reserved":false,"is_disabled":false,"rental_uris":{"android":"levelo://app?vid=56382eee-a8fa-40dd-bdaa-e22b9db5afbc","ios":"levelo://app?vid=56382eee-a8fa-40dd-bdaa-e22b9db5afbc"},"vehicle_type_id":"4","last_reported":1743322334,"current_range_meters":9200,"station_id":"ce4bhap2rcd13ifvqek0","pricing_plan_id":"cebpf4jnsgd1na2vs0mg"},{"bike_id":"7de9dd33-d0eb-4937-8f18-15b92d21ed08","system_id":"levelo_inurba_marseille","lat":43.25817,"lon":5.39432,"is_reserved":false,"is_disabled":false,"rental_uris":{"android":"levelo://app?vid=7de9dd33-d0eb-4937-8f18-15b92d21ed08","ios":"levelo://app?vid=7de9dd33-d0eb-4937-8f18-15b92d21ed08"},"vehicle_type_id":"4","last_reported":1743322334,"current_range_meters":9200,"station_id":"ce4bhip2rcd13ifvqft0","pricing_plan_id":"cebpf4jnsgd1na2vs0mg"},{"bike_id":"c22c38ac-cdc7-4323-bc60-ffc2c0247aa6","system_id":"levelo_inurba_marseille","lat":43.31313,"lon":5.39686,"is_reserved":false,"is_disabled":false,"rental_uris":{"android":"levelo://app?vid=c22c38ac-cdc7-4323-bc60-ffc2c0247aa6","ios":"levelo://app?vid=c22c38ac-cdc7-4323-bc60-ffc2c0247aa6"},"vehicle_type_id":"4","last_reported":1743322334,"current_range_meters":9200,"station_id":"ce4bgvp2rcd13ifvqcu0","pricing_plan_id":"cebpf4jnsgd1na2vs0mg"},{"bike_id":"e4b5cbc9-e70e-48ed-b080-c73c1df9a8a3","system_id":"levelo_inurba_marseille","lat":43.31083,"lon":5.42431,"is_reserved":false,"is_disabled":false,"rental_uris":{"android":"levelo://app?vid=e4b5cbc9-e70e-48ed-b080-c73c1df9a8a3","ios":"levelo://app?vid=e4b5cbc9-e70e-48ed-b080-c73c1df9a8a3"},"vehicle_type_id":"4","last_reported":1743322334,"current_range_meters":8000,"station_id":"ce4bhp92rcd13ifvqhag","pricing_plan_id":"cebpf4jnsgd1na2vs0mg"},{"bike_id":"fd5a39dd-96b5-442c-99c4-5577adc0b24b","system_id":"levelo_inurba_marseille","lat":43.23194,"lon":5.3998,"is_reserved":false,"is_disabled":false,"rental_uris":{"android":"levelo://app?vid=fd5a39dd-96b5-442c-99c4-5577adc0b24b","ios":"levelo://app?vid=fd5a39dd-96b5-442c-99c4-5577adc0b24b"},"vehicle_type_id":"4","last_reported":1743322334,"current_range_meters":9200,"station_id":"ce4bhn12rcd13ifvqgqg","pricing_plan_id":"cebpf4jnsgd1na2vs0mg"},{"bike_id":"900a2d48-8c53-48dd-a923-a7cb71aefd17","system_id":"levelo_inurba_marseille","lat":43.24074,"lon":5.37763,"is_reserved":false,"is_disabled":false,"rental_uris":{"android":"levelo://app?vid=900a2d48-8c53-48dd-a923-a7cb71aefd17","ios":"levelo://app?vid=900a2d48-8c53-48dd-a923-a7cb71aefd17"},"vehicle_type_id":"4","last_reported":1743322334,"current_range_meters":9200,"station_id":"ce4bhnp2rcd13ifvqgvg","pricing_plan_id":"cebpf4jnsgd1na2vs0mg"},{"bike_id":"4576df33-62a6-4a82-9ad2-6633066a7f89","system_id":"levelo_inurba_marseille","lat":43.30804,"lon":5.3816,"is_reserved":false,"is_disabled":false,"rental_uris":{"android":"levelo://app?vid=4576df33-62a6-4a82-9ad2-6633066a7f89","ios":"levelo://app?vid=4576df33-62a6-4a82-9ad2-6633066a7f89"},"vehicle_type_id":"4","last_reported":1743322334,"current_range_meters":9200,"station_id":"ce4bgt12rcd13ifvqce0","pricing_plan_id":"cebpf4jnsgd1na2vs0mg"},{"bike_id":"76d4ed16-8625-4a14-a5f1-d28ac2574c13","system_id":"levelo_inurba_marseille","lat":43.24545,"lon":5.39533,"is_reserved":false,"is_disabled":false,"rental_uris":{"android":"levelo://app?vid=76d4ed16-8625-4a14-a5f1-d28ac2574c13","ios":"levelo://app?vid=76d4ed16-8625-4a14-a5f1-d28ac2574c13"},"vehicle_type_id":"4","last_reported":1743322334,"current_range_meters":9600,"station_id":"ce4bhlp2rcd13ifvqgjg","pricing_plan_id":"cebpf4jnsgd1na2vs0mg"},{"bike_id":"42bc7b23-0e2f-4d72-b583-40bcdabb28c7","system_id":"levelo_inurba_marseille","lat":43.29543,"lon":5.3738,"is_reserved":false,"is_disabled":false,"rental_uris":{"android":"levelo://app?vid=42bc7b23-0e2f-4d72-b583-40bcdabb28c7","ios":"levelo://app?vid=42bc7b23-0e2f-4d72-b583-40bcdabb28c7"},"vehicle_type_id":"4","last_reported":1743322334,"current_range_meters":9600,"station_id":"","pricing_plan_id":"cebpf4jnsgd1na2vs0mg"},{"bike_id":"39baf016-c34f-4e87-9650-9ce95f117093","system_id":"levelo_inurba_marseille","lat":43.25003,"lon":5.38925,"is_reserved":false,"is_disabled":false,"rental_uris":{"android":"levelo://app?vid=39baf016-c34f-4e87-9650-9ce95f117093","ios":"levelo://app?vid=39baf016-c34f-4e87-9650-9ce95f117093"},"vehicle_type_id":"4","last_reported":1743322334,"current_range_meters":9600,"station_id":"ce4bhgp2rcd13ifvqfd0","pricing_plan_id":"cebpf4jnsgd1na2vs0mg"},{"bike_id":"0de4a61d-7cbd-46cd-b57d-5a34b2917f05","system_id":"levelo_inurba_marseille","lat":43.28482,"lon":5.38594,"is_reserved":false,"is_disabled":false,"rental_uris":{"android":"levelo://app?vid=0de4a61d-7cbd-46cd-b57d-5a34b2917f05","ios":"levelo://app?vid=0de4a61d-7cbd-46cd-b57d-5a34b2917f05"},"vehicle_type_id":"4","last_reported":1743322334,"current_range_meters":9600,"station_id":"ce4bh8p2rcd13ifvqeb0","pricing_plan_id":"cebpf4jnsgd1na2vs0mg"},{"bike_id":"bc3cd0b9-d32a-4cc5-9474-24f406b49286","system_id":"levelo_inurba_marseille","lat":43.28659,"lon":5.36362,"is_reserved":false,"is_disabled":false,"rental_uris":{"android":"levelo://app?vid=bc3cd0b9-d32a-4cc5-9474-24f406b49286","ios":"levelo://app?vid=bc3cd0b9-d32a-4cc5-9474-24f406b49286"},"vehicle_type_id":"4","last_reported":1743322334,"current_range_meters":9600,"station_id":"ce4bhah2rcd13ifvqej0","pricing_plan_id":"cebpf4jnsgd1na2vs0mg"},{"bike_id":"8cf4f201-930c-4d9c-9146-38a1c2c66eff","system_id":"levelo_inurba_marseille","lat":43.28433,"lon":5.35012,"is_reserved":false,"is_disabled":false,"rental_uris":{"android":"levelo://app?vid=8cf4f201-930c-4d9c-9146-38a1c2c66eff","ios":"levelo://app?vid=8cf4f201-930c-4d9c-9146-38a1c2c66eff"},"vehicle_type_id":"4","last_reported":1743322334,"current_range_meters":9600,"station_id":"ce4bhbh2rcd13ifvqepg","pricing_plan_id":"cebpf4jnsgd1na2vs0mg"},{"bike_id":"21b7dfed-4bf3-42a6-9071-9b2b5259da3c","system_id":"levelo_inurba_marseille","lat":43.296226,"lon":5.371434,"is_reserved":false,"is_disabled":true,"rental_uris":{"android":"levelo://app?vid=21b7dfed-4bf3-42a6-9071-9b2b5259da3c","ios":"levelo://app?vid=21b7dfed-4bf3-42a6-9071-9b2b5259da3c"},"vehicle_type_id":"4","last_reported":1743322334,"current_range_meters":9600,"station_id":"ce4bgnh2rcd13ifvqc0g","pricing_plan_id":"cebpf4jnsgd1na2vs0mg"},{"bike_id":"d563c213-618e-425c-b303-ffc33d25d3f9","system_id":"levelo_inurba_marseille","lat":43.23156,"lon":5.43708,"is_reserved":false,"is_disabled":false,"rental_uris":{"android":"levelo://app?vid=d563c213-618e-425c-b303-ffc33d25d3f9","ios":"levelo://app?vid=d563c213-618e-425c-b303-ffc33d25d3f9"},"vehicle_type_id":"4","last_reported":1743322334,"current_range_meters":9600,"station_id":"ce4bhmp2rcd13ifvqgog","pricing_plan_id":"cebpf4jnsgd1na2vs0mg"},{"bike_id":"a810a8f1-ad12-455f-88f1-3e6b53c9382f","system_id":"levelo_inurba_marseille","lat":43.29208,"lon":5.36036,"is_reserved":false,"is_disabled":false,"rental_uris":{"android":"levelo://app?vid=a810a8f1-ad12-455f-88f1-3e6b53c9382f","ios":"levelo://app?vid=a810a8f1-ad12-455f-88f1-3e6b53c9382f"},"vehicle_type_id":"4","last_reported":1743322334,"current_range_meters":10000,"station_id":"ce4bhbh2rcd13ifvqeqg","pricing_plan_id":"cebpf4jnsgd1na2vs0mg"},{"bike_id":"7b30d470-9209-4d84-9568-3664fac24105","system_id":"levelo_inurba_marseille","lat":43.3088,"lon":5.37197,"is_reserved":false,"is_disabled":false,"rental_uris":{"android":"levelo://app?vid=7b30d470-9209-4d84-9568-3664fac24105","ios":"levelo://app?vid=7b30d470-9209-4d84-9568-3664fac24105"},"vehicle_type_id":"4","last_reported":1743322334,"current_range_meters":10000,"station_id":"ce4bguh2rcd13ifvqckg","pricing_plan_id":"cebpf4jnsgd1na2vs0mg"},{"bike_id":"184094ea-61ab-42ce-9526-c741bc9e525e","system_id":"levelo_inurba_marseille","lat":43.30152,"lon":5.37398,"is_reserved":false,"is_disabled":false,"rental_uris":{"android":"levelo://app?vid=184094ea-61ab-42ce-9526-c741bc9e525e","ios":"levelo://app?vid=184094ea-61ab-42ce-9526-c741bc9e525e"},"vehicle_type_id":"4","last_reported":1743322334,"current_range_meters":10000,"station_id":"ce4bgs92rcd13ifvqcc0","pricing_plan_id":"cebpf4jnsgd1na2vs0mg"},{"bike_id":"14c490b6-844b-4566-b5ce-4a1eef9a0745","system_id":"levelo_inurba_marseille","lat":43.27836,"lon":5.40738,"is_reserved":false,"is_disabled":false,"rental_uris":{"android":"levelo://app?vid=14c490b6-844b-4566-b5ce-4a1eef9a0745","ios":"levelo://app?vid=14c490b6-844b-4566-b5ce-4a1eef9a0745"},"vehicle_type_id":"4","last_reported":1743322334,"current_range_meters":10000,"station_id":"ce4bhnh2rcd13ifvqgtg","pricing_plan_id":"cebpf4jnsgd1na2vs0mg"},{"bike_id":"f55695a6-b65f-4a30-99ab-94b2bfa63268","system_id":"levelo_inurba_marseille","lat":43.23194,"lon":5.3556,"is_reserved":false,"is_disabled":false,"rental_uris":{"android":"levelo://app?vid=f55695a6-b65f-4a30-99ab-94b2bfa63268","ios":"levelo://app?vid=f55695a6-b65f-4a30-99ab-94b2bfa63268"},"vehicle_type_id":"4","last_reported":1743322334,"current_range_meters":10000,"station_id":"ce4bhu92rcd13ifvqi70","pricing_plan_id":"cebpf4jnsgd1na2vs0mg"},{"bike_id":"fb5a3640-c2bd-4d5a-a532-631ac7449c3d","system_id":"levelo_inurba_marseille","lat":43.280136,"lon":5.409323,"is_reserved":false,"is_disabled":false,"rental_uris":{"android":"levelo://app?vid=fb5a3640-c2bd-4d5a-a532-631ac7449c3d","ios":"levelo://app?vid=fb5a3640-c2bd-4d5a-a532-631ac7449c3d"},"vehicle_type_id":"4","last_reported":1743322334,"current_range_meters":10000,"station_id":"","pricing_plan_id":"cebpf4jnsgd1na2vs0mg"},{"bike_id":"ebf530c5-baf0-4f8b-9740-976f99607fdb","system_id":"levelo_inurba_marseille","lat":43.24186,"lon":5.39738,"is_reserved":false,"is_disabled":false,"rental_uris":{"android":"levelo://app?vid=ebf530c5-baf0-4f8b-9740-976f99607fdb","ios":"levelo://app?vid=ebf530c5-baf0-4f8b-9740-976f99607fdb"},"vehicle_type_id":"4","last_reported":1743322334,"current_range_meters":10000,"station_id":"ce4bhn12rcd13ifvqgpg","pricing_plan_id":"cebpf4jnsgd1na2vs0mg"},{"bike_id":"653ea6de-a177-4007-9cfa-5f3f77e975f6","system_id":"levelo_inurba_marseille","lat":43.24829,"lon":5.37464,"is_reserved":false,"is_disabled":false,"rental_uris":{"android":"levelo://app?vid=653ea6de-a177-4007-9cfa-5f3f77e975f6","ios":"levelo://app?vid=653ea6de-a177-4007-9cfa-5f3f77e975f6"},"vehicle_type_id":"4","last_reported":1743322334,"current_range_meters":10000,"station_id":"ce4bhgh2rcd13ifvqfb0","pricing_plan_id":"cebpf4jnsgd1na2vs0mg"},{"bike_id":"626d2136-a31c-4224-ba68-9a83c069cd7e","system_id":"levelo_inurba_marseille","lat":43.23187,"lon":5.39988,"is_reserved":false,"is_disabled":false,"rental_uris":{"android":"levelo://app?vid=626d2136-a31c-4224-ba68-9a83c069cd7e","ios":"levelo://app?vid=626d2136-a31c-4224-ba68-9a83c069cd7e"},"vehicle_type_id":"4","last_reported":1743322334,"current_range_meters":10000,"station_id":"ce4bhn12rcd13ifvqgqg","pricing_plan_id":"cebpf4jnsgd1na2vs0mg"},{"bike_id":"0cc92472-d0e4-4683-99ec-a6dc9dd4a34d","system_id":"levelo_inurba_marseille","lat":43.27941,"lon":5.41041,"is_reserved":false,"is_disabled":false,"rental_uris":{"android":"levelo://app?vid=0cc92472-d0e4-4683-99ec-a6dc9dd4a34d","ios":"levelo://app?vid=0cc92472-d0e4-4683-99ec-a6dc9dd4a34d"},"vehicle_type_id":"4","last_reported":1743322334,"current_range_meters":10000,"station_id":"ce4bhnp2rcd13ifvqh0g","pricing_plan_id":"cebpf4jnsgd1na2vs0mg"},{"bike_id":"5347da3b-4766-4b5f-860e-e5fcb38f3a05","system_id":"levelo_inurba_marseille","lat":43.31366,"lon":5.38504,"is_reserved":false,"is_disabled":true,"rental_uris":{"android":"levelo://app?vid=5347da3b-4766-4b5f-860e-e5fcb38f3a05","ios":"levelo://app?vid=5347da3b-4766-4b5f-860e-e5fcb38f3a05"},"vehicle_type_id":"4","last_reported":1743322334,"current_range_meters":10000,"station_id":"ce4bgt92rcd13ifvqcf0","pricing_plan_id":"cebpf4jnsgd1na2vs0mg"},{"bike_id":"fc06a652-d91f-49ce-ba86-eba4168fc665","system_id":"levelo_inurba_marseille","lat":43.30152,"lon":5.38081,"is_reserved":false,"is_disabled":false,"rental_uris":{"android":"levelo://app?vid=fc06a652-d91f-49ce-ba86-eba4168fc665","ios":"levelo://app?vid=fc06a652-d91f-49ce-ba86-eba4168fc665"},"vehicle_type_id":"4","last_reported":1743322334,"current_range_meters":10800,"station_id":"ce4bgjp2rcd13ifvqbh0","pricing_plan_id":"cebpf4jnsgd1na2vs0mg"},{"bike_id":"9f50066e-01fa-4519-9f61-8109fe65f5d9","system_id":"levelo_inurba_marseille","lat":43.297087,"lon":5.371316,"is_reserved":false,"is_disabled":false,"rental_uris":{"android":"levelo://app?vid=9f50066e-01fa-4519-9f61-8109fe65f5d9","ios":"levelo://app?vid=9f50066e-01fa-4519-9f61-8109fe65f5d9"},"vehicle_type_id":"4","last_reported":1743322334,"current_range_meters":10800,"station_id":"","pricing_plan_id":"cebpf4jnsgd1na2vs0mg"},{"bike_id":"99864047-3ac3-45c4-a913-53ee9cea7446","system_id":"levelo_inurba_marseille","lat":43.286993,"lon":5.373798,"is_reserved":false,"is_disabled":true,"rental_uris":{"android":"levelo://app?vid=99864047-3ac3-45c4-a913-53ee9cea7446","ios":"levelo://app?vid=99864047-3ac3-45c4-a913-53ee9cea7446"},"vehicle_type_id":"4","last_reported":1743322334,"current_range_meters":10800,"station_id":"ce4bh3p2rcd13ifvqdq0","pricing_plan_id":"cebpf4jnsgd1na2vs0mg"},{"bike_id":"9c824c75-560a-4b7a-a761-6a75d459c2aa","system_id":"levelo_inurba_marseille","lat":43.26219,"lon":5.37447,"is_reserved":false,"is_disabled":false,"rental_uris":{"android":"levelo://app?vid=9c824c75-560a-4b7a-a761-6a75d459c2aa","ios":"levelo://app?vid=9c824c75-560a-4b7a-a761-6a75d459c2aa"},"vehicle_type_id":"4","last_reported":1743322334,"current_range_meters":10800,"station_id":"ce4bhgp2rcd13ifvqfc0","pricing_plan_id":"cebpf4jnsgd1na2vs0mg"},{"bike_id":"61b93b3e-de2c-498f-9067-20d081913f50","system_id":"levelo_inurba_marseille","lat":43.291974,"lon":5.358086,"is_reserved":false,"is_disabled":false,"rental_uris":{"android":"levelo://app?vid=61b93b3e-de2c-498f-9067-20d081913f50","ios":"levelo://app?vid=61b93b3e-de2c-498f-9067-20d081913f50"},"vehicle_type_id":"4","last_reported":1743322334,"current_range_meters":10800,"station_id":"ce4bhb12rcd13ifvqel0","pricing_plan_id":"cebpf4jnsgd1na2vs0mg"},{"bike_id":"60a5895b-0fc5-483c-85ae-f59ef653f234","system_id":"levelo_inurba_marseille","lat":43.25493,"lon":5.37654,"is_reserved":false,"is_disabled":false,"rental_uris":{"android":"levelo://app?vid=60a5895b-0fc5-483c-85ae-f59ef653f234","ios":"levelo://app?vid=60a5895b-0fc5-483c-85ae-f59ef653f234"},"vehicle_type_id":"4","last_reported":1743322334,"current_range_meters":10800,"station_id":"ce4bhh12rcd13ifvqff0","pricing_plan_id":"cebpf4jnsgd1na2vs0mg"},{"bike_id":"8bcc045e-f28b-442a-a0af-38457b26197c","system_id":"levelo_inurba_marseille","lat":43.24166,"lon":5.36394,"is_reserved":false,"is_disabled":false,"rental_uris":{"android":"levelo://app?vid=8bcc045e-f28b-442a-a0af-38457b26197c","ios":"levelo://app?vid=8bcc045e-f28b-442a-a0af-38457b26197c"},"vehicle_type_id":"4","last_reported":1743322334,"current_range_meters":10800,"station_id":"cpo36qri1sfpv3e86is0","pricing_plan_id":"cebpf4jnsgd1na2vs0mg"},{"bike_id":"2861f50d-7c1b-4253-8cf7-4824b4260319","system_id":"levelo_inurba_marseille","lat":43.28377,"lon":5.38645,"is_reserved":false,"is_disabled":false,"rental_uris":{"android":"levelo://app?vid=2861f50d-7c1b-4253-8cf7-4824b4260319","ios":"levelo://app?vid=2861f50d-7c1b-4253-8cf7-4824b4260319"},"vehicle_type_id":"4","last_reported":1743322334,"current_range_meters":11200,"station_id":"ce4bh492rcd13ifvqdvg","pricing_plan_id":"cebpf4jnsgd1na2vs0mg"},{"bike_id":"83267f93-312b-440d-a018-dabfa81d3601","system_id":"levelo_inurba_marseille","lat":43.29226,"lon":5.36069,"is_reserved":false,"is_disabled":false,"rental_uris":{"android":"levelo://app?vid=83267f93-312b-440d-a018-dabfa81d3601","ios":"levelo://app?vid=83267f93-312b-440d-a018-dabfa81d3601"},"vehicle_type_id":"4","last_reported":1743322334,"current_range_meters":11200,"station_id":"ce4bhbh2rcd13ifvqeqg","pricing_plan_id":"cebpf4jnsgd1na2vs0mg"},{"bike_id":"6ef18dd7-1cb9-4ef6-bfdd-052cde57f183","system_id":"levelo_inurba_marseille","lat":43.32102,"lon":5.367988,"is_reserved":false,"is_disabled":false,"rental_uris":{"android":"levelo://app?vid=6ef18dd7-1cb9-4ef6-bfdd-052cde57f183","ios":"levelo://app?vid=6ef18dd7-1cb9-4ef6-bfdd-052cde57f183"},"vehicle_type_id":"4","last_reported":1743322334,"current_range_meters":11200,"station_id":"ce4bhrh2rcd13ifvqhug","pricing_plan_id":"cebpf4jnsgd1na2vs0mg"},{"bike_id":"477a8a0c-d993-469b-a55f-34a2688f7cf6","system_id":"levelo_inurba_marseille","lat":43.2799,"lon":5.41667,"is_reserved":false,"is_disabled":false,"rental_uris":{"android":"levelo://app?vid=477a8a0c-d993-469b-a55f-34a2688f7cf6","ios":"levelo://app?vid=477a8a0c-d993-469b-a55f-34a2688f7cf6"},"vehicle_type_id":"4","last_reported":1743322334,"current_range_meters":11200,"station_id":"ce4bho12rcd13ifvqh1g","pricing_plan_id":"cebpf4jnsgd1na2vs0mg"},{"bike_id":"2c1e71e5-c946-4802-a82f-11f3b8cd9908","system_id":"levelo_inurba_marseille","lat":43.30883,"lon":5.3964,"is_reserved":false,"is_disabled":false,"rental_uris":{"android":"levelo://app?vid=2c1e71e5-c946-4802-a82f-11f3b8cd9908","ios":"levelo://app?vid=2c1e71e5-c946-4802-a82f-11f3b8cd9908"},"vehicle_type_id":"4","last_reported":1743322334,"current_range_meters":11200,"station_id":"ce4bh012rcd13ifvqcv0","pricing_plan_id":"cebpf4jnsgd1na2vs0mg"},{"bike_id":"0e9d92a7-df29-43d8-906d-2a51c6561f7d","system_id":"levelo_inurba_marseille","lat":43.28425,"lon":5.35004,"is_reserved":false,"is_disabled":false,"rental_uris":{"android":"levelo://app?vid=0e9d92a7-df29-43d8-906d-2a51c6561f7d","ios":"levelo://app?vid=0e9d92a7-df29-43d8-906d-2a51c6561f7d"},"vehicle_type_id":"4","last_reported":1743322334,"current_range_meters":11200,"station_id":"ce4bhbh2rcd13ifvqepg","pricing_plan_id":"cebpf4jnsgd1na2vs0mg"},{"bike_id":"f7ff1d87-1ce2-46e7-8c9c-27d3194509a3","system_id":"levelo_inurba_marseille","lat":43.27496,"lon":5.42453,"is_reserved":false,"is_disabled":false,"rental_uris":{"android":"levelo://app?vid=f7ff1d87-1ce2-46e7-8c9c-27d3194509a3","ios":"levelo://app?vid=f7ff1d87-1ce2-46e7-8c9c-27d3194509a3"},"vehicle_type_id":"4","last_reported":1743322334,"current_range_meters":11600,"station_id":"ce4bhn92rcd13ifvqgrg","pricing_plan_id":"cebpf4jnsgd1na2vs0mg"},{"bike_id":"5c49fc8b-b573-44cd-9da2-767f8f7a765b","system_id":"levelo_inurba_marseille","lat":43.31761,"lon":5.39032,"is_reserved":false,"is_disabled":false,"rental_uris":{"android":"levelo://app?vid=5c49fc8b-b573-44cd-9da2-767f8f7a765b","ios":"levelo://app?vid=5c49fc8b-b573-44cd-9da2-767f8f7a765b"},"vehicle_type_id":"4","last_reported":1743322334,"current_range_meters":11600,"station_id":"ce4bhqp2rcd13ifvqhng","pricing_plan_id":"cebpf4jnsgd1na2vs0mg"},{"bike_id":"7e46e322-27d9-4f9d-b1ce-11741eb7c78f","system_id":"levelo_inurba_marseille","lat":43.317579,"lon":5.390274,"is_reserved":false,"is_disabled":false,"rental_uris":{"android":"levelo://app?vid=7e46e322-27d9-4f9d-b1ce-11741eb7c78f","ios":"levelo://app?vid=7e46e322-27d9-4f9d-b1ce-11741eb7c78f"},"vehicle_type_id":"4","last_reported":1743322334,"current_range_meters":11600,"station_id":"ce4bhqp2rcd13ifvqhng","pricing_plan_id":"cebpf4jnsgd1na2vs0mg"},{"bike_id":"bfcad82b-6acc-493c-b418-93ec0bae17e4","system_id":"levelo_inurba_marseille","lat":43.32114,"lon":5.36778,"is_reserved":false,"is_disabled":false,"rental_uris":{"android":"levelo://app?vid=bfcad82b-6acc-493c-b418-93ec0bae17e4","ios":"levelo://app?vid=bfcad82b-6acc-493c-b418-93ec0bae17e4"},"vehicle_type_id":"4","last_reported":1743322334,"current_range_meters":11600,"station_id":"ce4bhrh2rcd13ifvqhug","pricing_plan_id":"cebpf4jnsgd1na2vs0mg"},{"bike_id":"59359988-faf5-47a1-b5f8-d319a6e1abfa","system_id":"levelo_inurba_marseille","lat":43.28418,"lon":5.34992,"is_reserved":false,"is_disabled":false,"rental_uris":{"android":"levelo://app?vid=59359988-faf5-47a1-b5f8-d319a6e1abfa","ios":"levelo://app?vid=59359988-faf5-47a1-b5f8-d319a6e1abfa"},"vehicle_type_id":"4","last_reported":1743322334,"current_range_meters":11600,"station_id":"ce4bhbh2rcd13ifvqepg","pricing_plan_id":"cebpf4jnsgd1na2vs0mg"},{"bike_id":"961f4bec-db7a-4ed1-a701-1ccde281b3be","system_id":"levelo_inurba_marseille","lat":43.25001,"lon":5.38924,"is_reserved":false,"is_disabled":false,"rental_uris":{"android":"levelo://app?vid=961f4bec-db7a-4ed1-a701-1ccde281b3be","ios":"levelo://app?vid=961f4bec-db7a-4ed1-a701-1ccde281b3be"},"vehicle_type_id":"4","last_reported":1743322334,"current_range_meters":11600,"station_id":"ce4bhgp2rcd13ifvqfd0","pricing_plan_id":"cebpf4jnsgd1na2vs0mg"},{"bike_id":"5cb8c766-498c-488a-86ec-2317510d9867","system_id":"levelo_inurba_marseille","lat":43.32363,"lon":5.36767,"is_reserved":false,"is_disabled":false,"rental_uris":{"android":"levelo://app?vid=5cb8c766-498c-488a-86ec-2317510d9867","ios":"levelo://app?vid=5cb8c766-498c-488a-86ec-2317510d9867"},"vehicle_type_id":"4","last_reported":1743322334,"current_range_meters":12000,"station_id":"ce4bhsh2rcd13ifvqi2g","pricing_plan_id":"cebpf4jnsgd1na2vs0mg"},{"bike_id":"e9a2a445-241d-4d76-ae7f-242ac1e603b1","system_id":"levelo_inurba_marseille","lat":43.23188,"lon":5.35553,"is_reserved":false,"is_disabled":false,"rental_uris":{"android":"levelo://app?vid=e9a2a445-241d-4d76-ae7f-242ac1e603b1","ios":"levelo://app?vid=e9a2a445-241d-4d76-ae7f-242ac1e603b1"},"vehicle_type_id":"4","last_reported":1743322334,"current_range_meters":12000,"station_id":"ce4bhu92rcd13ifvqi70","pricing_plan_id":"cebpf4jnsgd1na2vs0mg"},{"bike_id":"799ccde8-5e80-4174-8457-42229912affd","system_id":"levelo_inurba_marseille","lat":43.283764,"lon":5.363273,"is_reserved":false,"is_disabled":false,"rental_uris":{"android":"levelo://app?vid=799ccde8-5e80-4174-8457-42229912affd","ios":"levelo://app?vid=799ccde8-5e80-4174-8457-42229912affd"},"vehicle_type_id":"4","last_reported":1743322334,"current_range_meters":12000,"station_id":"","pricing_plan_id":"cebpf4jnsgd1na2vs0mg"},{"bike_id":"823ea277-4675-4c93-906f-e9254970183f","system_id":"levelo_inurba_marseille","lat":43.28727,"lon":5.37938,"is_reserved":false,"is_disabled":false,"rental_uris":{"android":"levelo://app?vid=823ea277-4675-4c93-906f-e9254970183f","ios":"levelo://app?vid=823ea277-4675-4c93-906f-e9254970183f"},"vehicle_type_id":"4","last_reported":1743322334,"current_range_meters":12000,"station_id":"ce4bh9p2rcd13ifvqec0","pricing_plan_id":"cebpf4jnsgd1na2vs0mg"},{"bike_id":"674d9255-c1b5-4fdd-97dc-cf4ea5e86e0d","system_id":"levelo_inurba_marseille","lat":43.26213,"lon":5.37942,"is_reserved":false,"is_disabled":false,"rental_uris":{"android":"levelo://app?vid=674d9255-c1b5-4fdd-97dc-cf4ea5e86e0d","ios":"levelo://app?vid=674d9255-c1b5-4fdd-97dc-cf4ea5e86e0d"},"vehicle_type_id":"4","last_reported":1743322334,"current_range_meters":12000,"station_id":"ce4bhjp2rcd13ifvqg90","pricing_plan_id":"cebpf4jnsgd1na2vs0mg"},{"bike_id":"b63eee63-392e-4360-bd35-8f9c5961cdc8","system_id":"levelo_inurba_marseille","lat":43.26031,"lon":5.37553,"is_reserved":false,"is_disabled":false,"rental_uris":{"android":"levelo://app?vid=b63eee63-392e-4360-bd35-8f9c5961cdc8","ios":"levelo://app?vid=b63eee63-392e-4360-bd35-8f9c5961cdc8"},"vehicle_type_id":"4","last_reported":1743322334,"current_range_meters":12000,"station_id":"ce4bhgh2rcd13ifvqfa0","pricing_plan_id":"cebpf4jnsgd1na2vs0mg"},{"bike_id":"871f3035-10bb-4a28-afa0-18619600e1a6","system_id":"levelo_inurba_marseille","lat":43.29937,"lon":5.36553,"is_reserved":false,"is_disabled":true,"rental_uris":{"android":"levelo://app?vid=871f3035-10bb-4a28-afa0-18619600e1a6","ios":"levelo://app?vid=871f3035-10bb-4a28-afa0-18619600e1a6"},"vehicle_type_id":"4","last_reported":1743322334,"current_range_meters":12400,"station_id":"ce4bgm92rcd13ifvqbr0","pricing_plan_id":"cebpf4jnsgd1na2vs0mg"},{"bike_id":"51f634e3-ac61-4928-9ed6-54eb1e30344e","system_id":"levelo_inurba_marseille","lat":43.29693,"lon":5.3732,"is_reserved":false,"is_disabled":true,"rental_uris":{"android":"levelo://app?vid=51f634e3-ac61-4928-9ed6-54eb1e30344e","ios":"levelo://app?vid=51f634e3-ac61-4928-9ed6-54eb1e30344e"},"vehicle_type_id":"4","last_reported":1743322334,"current_range_meters":12400,"station_id":"ce4bgk12rcd13ifvqbj0","pricing_plan_id":"cebpf4jnsgd1na2vs0mg"},{"bike_id":"ba362734-34ca-4bcd-8728-cadb040d6152","system_id":"levelo_inurba_marseille","lat":43.243867,"lon":5.370697,"is_reserved":false,"is_disabled":false,"rental_uris":{"android":"levelo://app?vid=ba362734-34ca-4bcd-8728-cadb040d6152","ios":"levelo://app?vid=ba362734-34ca-4bcd-8728-cadb040d6152"},"vehicle_type_id":"4","last_reported":1743322334,"current_range_meters":12400,"station_id":"ce4bhhh2rcd13ifvqfk0","pricing_plan_id":"cebpf4jnsgd1na2vs0mg"},{"bike_id":"55694635-b48b-4ef4-8e1b-964c89dc7da6","system_id":"levelo_inurba_marseille","lat":43.31203,"lon":5.36849,"is_reserved":false,"is_disabled":false,"rental_uris":{"android":"levelo://app?vid=55694635-b48b-4ef4-8e1b-964c89dc7da6","ios":"levelo://app?vid=55694635-b48b-4ef4-8e1b-964c89dc7da6"},"vehicle_type_id":"4","last_reported":1743322334,"current_range_meters":12400,"station_id":"ce4bgl92rcd13ifvqbq0","pricing_plan_id":"cebpf4jnsgd1na2vs0mg"},{"bike_id":"d657b6c6-9c98-41e1-a011-dd2a714f5f2c","system_id":"levelo_inurba_marseille","lat":43.2846,"lon":5.39208,"is_reserved":false,"is_disabled":false,"rental_uris":{"android":"levelo://app?vid=d657b6c6-9c98-41e1-a011-dd2a714f5f2c","ios":"levelo://app?vid=d657b6c6-9c98-41e1-a011-dd2a714f5f2c"},"vehicle_type_id":"4","last_reported":1743322334,"current_range_meters":12400,"station_id":"ce4bhoh2rcd13ifvqh5g","pricing_plan_id":"cebpf4jnsgd1na2vs0mg"},{"bike_id":"cb8c9ca5-9083-4e86-9e9f-2bc245af5095","system_id":"levelo_inurba_marseille","lat":43.2841,"lon":5.37517,"is_reserved":false,"is_disabled":true,"rental_uris":{"android":"levelo://app?vid=cb8c9ca5-9083-4e86-9e9f-2bc245af5095","ios":"levelo://app?vid=cb8c9ca5-9083-4e86-9e9f-2bc245af5095"},"vehicle_type_id":"4","last_reported":1743322334,"current_range_meters":12400,"station_id":"ce4bh412rcd13ifvqds0","pricing_plan_id":"cebpf4jnsgd1na2vs0mg"},{"bike_id":"82be5020-df29-4bb6-b821-10f31b9ed89a","system_id":"levelo_inurba_marseille","lat":43.2842,"lon":5.35002,"is_reserved":false,"is_disabled":false,"rental_uris":{"android":"levelo://app?vid=82be5020-df29-4bb6-b821-10f31b9ed89a","ios":"levelo://app?vid=82be5020-df29-4bb6-b821-10f31b9ed89a"},"vehicle_type_id":"4","last_reported":1743322334,"current_range_meters":12400,"station_id":"ce4bhbh2rcd13ifvqepg","pricing_plan_id":"cebpf4jnsgd1na2vs0mg"},{"bike_id":"4cecc92c-55c2-47ad-bd4f-c93295a571e1","system_id":"levelo_inurba_marseille","lat":43.30929,"lon":5.4018,"is_reserved":false,"is_disabled":false,"rental_uris":{"android":"levelo://app?vid=4cecc92c-55c2-47ad-bd4f-c93295a571e1","ios":"levelo://app?vid=4cecc92c-55c2-47ad-bd4f-c93295a571e1"},"vehicle_type_id":"4","last_reported":1743322334,"current_range_meters":12400,"station_id":"ce4bgvp2rcd13ifvqct0","pricing_plan_id":"cebpf4jnsgd1na2vs0mg"},{"bike_id":"ff18bcdf-571c-47d8-80d2-7ecc26541996","system_id":"levelo_inurba_marseille","lat":43.28247,"lon":5.42429,"is_reserved":false,"is_disabled":false,"rental_uris":{"android":"levelo://app?vid=ff18bcdf-571c-47d8-80d2-7ecc26541996","ios":"levelo://app?vid=ff18bcdf-571c-47d8-80d2-7ecc26541996"},"vehicle_type_id":"4","last_reported":1743322334,"current_range_meters":12400,"station_id":"","pricing_plan_id":"cebpf4jnsgd1na2vs0mg"},{"bike_id":"8a10f383-19c5-4923-b922-98dfb0c55539","system_id":"levelo_inurba_marseille","lat":43.23193,"lon":5.35553,"is_reserved":false,"is_disabled":false,"rental_uris":{"android":"levelo://app?vid=8a10f383-19c5-4923-b922-98dfb0c55539","ios":"levelo://app?vid=8a10f383-19c5-4923-b922-98dfb0c55539"},"vehicle_type_id":"4","last_reported":1743322334,"current_range_meters":12800,"station_id":"ce4bhu92rcd13ifvqi70","pricing_plan_id":"cebpf4jnsgd1na2vs0mg"},{"bike_id":"40eec0b2-8636-4808-9862-992daa850bb8","system_id":"levelo_inurba_marseille","lat":43.30534,"lon":5.36706,"is_reserved":false,"is_disabled":false,"rental_uris":{"android":"levelo://app?vid=40eec0b2-8636-4808-9862-992daa850bb8","ios":"levelo://app?vid=40eec0b2-8636-4808-9862-992daa850bb8"},"vehicle_type_id":"4","last_reported":1743322334,"current_range_meters":12400,"station_id":"ce4bgrp2rcd13ifvqc9g","pricing_plan_id":"cebpf4jnsgd1na2vs0mg"},{"bike_id":"c67eed27-13e6-4a8f-ab60-752a07a3c412","system_id":"levelo_inurba_marseille","lat":43.31474,"lon":5.37285,"is_reserved":false,"is_disabled":false,"rental_uris":{"android":"levelo://app?vid=c67eed27-13e6-4a8f-ab60-752a07a3c412","ios":"levelo://app?vid=c67eed27-13e6-4a8f-ab60-752a07a3c412"},"vehicle_type_id":"4","last_reported":1743322334,"current_range_meters":12800,"station_id":"ce4bgt12rcd13ifvqcd0","pricing_plan_id":"cebpf4jnsgd1na2vs0mg"},{"bike_id":"76859129-4009-4843-90a4-dc4d2b65271a","system_id":"levelo_inurba_marseille","lat":43.24169,"lon":5.36407,"is_reserved":false,"is_disabled":false,"rental_uris":{"android":"levelo://app?vid=76859129-4009-4843-90a4-dc4d2b65271a","ios":"levelo://app?vid=76859129-4009-4843-90a4-dc4d2b65271a"},"vehicle_type_id":"4","last_reported":1743322334,"current_range_meters":13600,"station_id":"cpo36qri1sfpv3e86is0","pricing_plan_id":"cebpf4jnsgd1na2vs0mg"},{"bike_id":"ddd87c41-bb83-428a-8d89-aa68329e6b50","system_id":"levelo_inurba_marseille","lat":43.231955,"lon":5.355507,"is_reserved":false,"is_disabled":false,"rental_uris":{"android":"levelo://app?vid=ddd87c41-bb83-428a-8d89-aa68329e6b50","ios":"levelo://app?vid=ddd87c41-bb83-428a-8d89-aa68329e6b50"},"vehicle_type_id":"4","last_reported":1743322334,"current_range_meters":13600,"station_id":"","pricing_plan_id":"cebpf4jnsgd1na2vs0mg"},{"bike_id":"bf8f06f8-9f7a-4ca6-97ef-3f544d07990e","system_id":"levelo_inurba_marseille","lat":43.2993,"lon":5.39412,"is_reserved":false,"is_disabled":false,"rental_uris":{"android":"levelo://app?vid=bf8f06f8-9f7a-4ca6-97ef-3f544d07990e","ios":"levelo://app?vid=bf8f06f8-9f7a-4ca6-97ef-3f544d07990e"},"vehicle_type_id":"4","last_reported":1743322334,"current_range_meters":13600,"station_id":"","pricing_plan_id":"cebpf4jnsgd1na2vs0mg"},{"bike_id":"b73281d3-4024-4cc2-9467-a02b03434418","system_id":"levelo_inurba_marseille","lat":43.28616,"lon":5.35102,"is_reserved":false,"is_disabled":false,"rental_uris":{"android":"levelo://app?vid=b73281d3-4024-4cc2-9467-a02b03434418","ios":"levelo://app?vid=b73281d3-4024-4cc2-9467-a02b03434418"},"vehicle_type_id":"4","last_reported":1743322334,"current_range_meters":13600,"station_id":"ce4bhch2rcd13ifvqeug","pricing_plan_id":"cebpf4jnsgd1na2vs0mg"},{"bike_id":"438bf018-441f-4617-abe0-d3bdcc673418","system_id":"levelo_inurba_marseille","lat":43.29793,"lon":5.404,"is_reserved":false,"is_disabled":false,"rental_uris":{"android":"levelo://app?vid=438bf018-441f-4617-abe0-d3bdcc673418","ios":"levelo://app?vid=438bf018-441f-4617-abe0-d3bdcc673418"},"vehicle_type_id":"4","last_reported":1743322334,"current_range_meters":13600,"station_id":"ce4bh112rcd13ifvqd90","pricing_plan_id":"cebpf4jnsgd1na2vs0mg"},{"bike_id":"6cde4a34-e143-431c-a7f7-2ec02f02b233","system_id":"levelo_inurba_marseille","lat":43.30541,"lon":5.36563,"is_reserved":false,"is_disabled":false,"rental_uris":{"android":"levelo://app?vid=6cde4a34-e143-431c-a7f7-2ec02f02b233","ios":"levelo://app?vid=6cde4a34-e143-431c-a7f7-2ec02f02b233"},"vehicle_type_id":"4","last_reported":1743322334,"current_range_meters":13600,"station_id":"ce4bgs12rcd13ifvqcag","pricing_plan_id":"cebpf4jnsgd1na2vs0mg"},{"bike_id":"78edf300-7db3-4c93-9631-38797c9b1771","system_id":"levelo_inurba_marseille","lat":43.29059,"lon":5.37162,"is_reserved":false,"is_disabled":true,"rental_uris":{"android":"levelo://app?vid=78edf300-7db3-4c93-9631-38797c9b1771","ios":"levelo://app?vid=78edf300-7db3-4c93-9631-38797c9b1771"},"vehicle_type_id":"4","last_reported":1743322334,"current_range_meters":13600,"station_id":"ce4bh5p2rcd13ifvqe4g","pricing_plan_id":"cebpf4jnsgd1na2vs0mg"},{"bike_id":"be430004-1f47-4d8a-8600-85922812470d","system_id":"levelo_inurba_marseille","lat":43.30873,"lon":5.39639,"is_reserved":false,"is_disabled":false,"rental_uris":{"android":"levelo://app?vid=be430004-1f47-4d8a-8600-85922812470d","ios":"levelo://app?vid=be430004-1f47-4d8a-8600-85922812470d"},"vehicle_type_id":"4","last_reported":1743322334,"current_range_meters":13600,"station_id":"ce4bh012rcd13ifvqcv0","pricing_plan_id":"cebpf4jnsgd1na2vs0mg"},{"bike_id":"e83f7e4f-4957-42cd-8e75-4003a854ff62","system_id":"levelo_inurba_marseille","lat":43.261936,"lon":5.379417,"is_reserved":false,"is_disabled":false,"rental_uris":{"android":"levelo://app?vid=e83f7e4f-4957-42cd-8e75-4003a854ff62","ios":"levelo://app?vid=e83f7e4f-4957-42cd-8e75-4003a854ff62"},"vehicle_type_id":"4","last_reported":1743322334,"current_range_meters":14000,"station_id":"ce4bhjp2rcd13ifvqg90","pricing_plan_id":"cebpf4jnsgd1na2vs0mg"},{"bike_id":"6e6e3e99-fe04-4bb3-95d8-0505f36ae855","system_id":"levelo_inurba_marseille","lat":43.32368,"lon":5.38894,"is_reserved":false,"is_disabled":false,"rental_uris":{"android":"levelo://app?vid=6e6e3e99-fe04-4bb3-95d8-0505f36ae855","ios":"levelo://app?vid=6e6e3e99-fe04-4bb3-95d8-0505f36ae855"},"vehicle_type_id":"4","last_reported":1743322334,"current_range_meters":14000,"station_id":"ce4bhqp2rcd13ifvqhog","pricing_plan_id":"cebpf4jnsgd1na2vs0mg"},{"bike_id":"0600e7bd-0bd3-4850-819b-5e0393ef8d35","system_id":"levelo_inurba_marseille","lat":43.30566,"lon":5.3651,"is_reserved":false,"is_disabled":false,"rental_uris":{"android":"levelo://app?vid=0600e7bd-0bd3-4850-819b-5e0393ef8d35","ios":"levelo://app?vid=0600e7bd-0bd3-4850-819b-5e0393ef8d35"},"vehicle_type_id":"4","last_reported":1743322334,"current_range_meters":14000,"station_id":"ce4bgs12rcd13ifvqcag","pricing_plan_id":"cebpf4jnsgd1na2vs0mg"},{"bike_id":"5e28d70b-4652-41fc-a69d-9609802a62ea","system_id":"levelo_inurba_marseille","lat":43.30535,"lon":5.36556,"is_reserved":false,"is_disabled":false,"rental_uris":{"android":"levelo://app?vid=5e28d70b-4652-41fc-a69d-9609802a62ea","ios":"levelo://app?vid=5e28d70b-4652-41fc-a69d-9609802a62ea"},"vehicle_type_id":"4","last_reported":1743322334,"current_range_meters":13600,"station_id":"ce4bgs12rcd13ifvqcag","pricing_plan_id":"cebpf4jnsgd1na2vs0mg"},{"bike_id":"18e3b6ba-f76e-4211-bfc1-d1a5678196eb","system_id":"levelo_inurba_marseille","lat":43.31705,"lon":5.37751,"is_reserved":false,"is_disabled":false,"rental_uris":{"android":"levelo://app?vid=18e3b6ba-f76e-4211-bfc1-d1a5678196eb","ios":"levelo://app?vid=18e3b6ba-f76e-4211-bfc1-d1a5678196eb"},"vehicle_type_id":"4","last_reported":1743322334,"current_range_meters":14400,"station_id":"ce4bgth2rcd13ifvqch0","pricing_plan_id":"cebpf4jnsgd1na2vs0mg"},{"bike_id":"8800990b-0588-4701-9f9b-d00ff201f1bf","system_id":"levelo_inurba_marseille","lat":43.31753,"lon":5.39018,"is_reserved":false,"is_disabled":false,"rental_uris":{"android":"levelo://app?vid=8800990b-0588-4701-9f9b-d00ff201f1bf","ios":"levelo://app?vid=8800990b-0588-4701-9f9b-d00ff201f1bf"},"vehicle_type_id":"4","last_reported":1743322334,"current_range_meters":14400,"station_id":"ce4bhqp2rcd13ifvqhng","pricing_plan_id":"cebpf4jnsgd1na2vs0mg"},{"bike_id":"12cd2614-5759-4501-9c23-d3351a7cc7df","system_id":"levelo_inurba_marseille","lat":43.30551,"lon":5.38438,"is_reserved":false,"is_disabled":true,"rental_uris":{"android":"levelo://app?vid=12cd2614-5759-4501-9c23-d3351a7cc7df","ios":"levelo://app?vid=12cd2614-5759-4501-9c23-d3351a7cc7df"},"vehicle_type_id":"4","last_reported":1743322334,"current_range_meters":14400,"station_id":"ce4bgg92rcd13ifvqb30","pricing_plan_id":"cebpf4jnsgd1na2vs0mg"},{"bike_id":"7bcef57b-2b32-4033-b8b4-6fd7fe51a930","system_id":"levelo_inurba_marseille","lat":43.28622,"lon":5.35099,"is_reserved":false,"is_disabled":false,"rental_uris":{"android":"levelo://app?vid=7bcef57b-2b32-4033-b8b4-6fd7fe51a930","ios":"levelo://app?vid=7bcef57b-2b32-4033-b8b4-6fd7fe51a930"},"vehicle_type_id":"4","last_reported":1743322334,"current_range_meters":14400,"station_id":"ce4bhch2rcd13ifvqeug","pricing_plan_id":"cebpf4jnsgd1na2vs0mg"},{"bike_id":"0b60b6cc-65bb-4e73-8958-1b351c6fdd96","system_id":"levelo_inurba_marseille","lat":43.32107,"lon":5.36791,"is_reserved":false,"is_disabled":false,"rental_uris":{"android":"levelo://app?vid=0b60b6cc-65bb-4e73-8958-1b351c6fdd96","ios":"levelo://app?vid=0b60b6cc-65bb-4e73-8958-1b351c6fdd96"},"vehicle_type_id":"4","last_reported":1743322334,"current_range_meters":14400,"station_id":"ce4bhrh2rcd13ifvqhug","pricing_plan_id":"cebpf4jnsgd1na2vs0mg"},{"bike_id":"4e42b2a7-a67a-45e1-a4e4-4e874d832b4d","system_id":"levelo_inurba_marseille","lat":43.284111,"lon":5.375097,"is_reserved":false,"is_disabled":false,"rental_uris":{"android":"levelo://app?vid=4e42b2a7-a67a-45e1-a4e4-4e874d832b4d","ios":"levelo://app?vid=4e42b2a7-a67a-45e1-a4e4-4e874d832b4d"},"vehicle_type_id":"4","last_reported":1743322334,"current_range_meters":14400,"station_id":"ce4bh612rcd13ifvqe6g","pricing_plan_id":"cebpf4jnsgd1na2vs0mg"},{"bike_id":"fd077727-cac9-4da1-be78-e3859541690a","system_id":"levelo_inurba_marseille","lat":43.30532,"lon":5.38447,"is_reserved":false,"is_disabled":true,"rental_uris":{"android":"levelo://app?vid=fd077727-cac9-4da1-be78-e3859541690a","ios":"levelo://app?vid=fd077727-cac9-4da1-be78-e3859541690a"},"vehicle_type_id":"4","last_reported":1743322334,"current_range_meters":14800,"station_id":"ce4bgg92rcd13ifvqb30","pricing_plan_id":"cebpf4jnsgd1na2vs0mg"},{"bike_id":"7f752182-e4ed-42fc-8f04-cfbffe448954","system_id":"levelo_inurba_marseille","lat":43.28722,"lon":5.37967,"is_reserved":false,"is_disabled":false,"rental_uris":{"android":"levelo://app?vid=7f752182-e4ed-42fc-8f04-cfbffe448954","ios":"levelo://app?vid=7f752182-e4ed-42fc-8f04-cfbffe448954"},"vehicle_type_id":"4","last_reported":1743322334,"current_range_meters":14800,"station_id":"ce4bh9p2rcd13ifvqec0","pricing_plan_id":"cebpf4jnsgd1na2vs0mg"},{"bike_id":"1bc7cd77-9a11-4126-adfa-cfb607e79a31","system_id":"levelo_inurba_marseille","lat":43.26025,"lon":5.37559,"is_reserved":false,"is_disabled":false,"rental_uris":{"android":"levelo://app?vid=1bc7cd77-9a11-4126-adfa-cfb607e79a31","ios":"levelo://app?vid=1bc7cd77-9a11-4126-adfa-cfb607e79a31"},"vehicle_type_id":"4","last_reported":1743322334,"current_range_meters":14800,"station_id":"ce4bhgh2rcd13ifvqfa0","pricing_plan_id":"cebpf4jnsgd1na2vs0mg"},{"bike_id":"fb0e2782-64d8-47c2-8a78-bad86b5dcc20","system_id":"levelo_inurba_marseille","lat":43.32098,"lon":5.36795,"is_reserved":false,"is_disabled":false,"rental_uris":{"android":"levelo://app?vid=fb0e2782-64d8-47c2-8a78-bad86b5dcc20","ios":"levelo://app?vid=fb0e2782-64d8-47c2-8a78-bad86b5dcc20"},"vehicle_type_id":"4","last_reported":1743322334,"current_range_meters":14800,"station_id":"ce4bhrh2rcd13ifvqhug","pricing_plan_id":"cebpf4jnsgd1na2vs0mg"},{"bike_id":"67085084-85a6-45a2-8452-0c83324101d7","system_id":"levelo_inurba_marseille","lat":43.25514,"lon":5.37666,"is_reserved":false,"is_disabled":false,"rental_uris":{"android":"levelo://app?vid=67085084-85a6-45a2-8452-0c83324101d7","ios":"levelo://app?vid=67085084-85a6-45a2-8452-0c83324101d7"},"vehicle_type_id":"4","last_reported":1743322334,"current_range_meters":15200,"station_id":"ce4bhh12rcd13ifvqff0","pricing_plan_id":"cebpf4jnsgd1na2vs0mg"},{"bike_id":"64817d54-f960-48ce-91f2-66a2bd11fede","system_id":"levelo_inurba_marseille","lat":43.284354,"lon":5.392022,"is_reserved":false,"is_disabled":false,"rental_uris":{"android":"levelo://app?vid=64817d54-f960-48ce-91f2-66a2bd11fede","ios":"levelo://app?vid=64817d54-f960-48ce-91f2-66a2bd11fede"},"vehicle_type_id":"4","last_reported":1743322334,"current_range_meters":15200,"station_id":"ce4bhoh2rcd13ifvqh5g","pricing_plan_id":"cebpf4jnsgd1na2vs0mg"},{"bike_id":"b0a9a573-5657-4012-ad6b-f829f20b511f","system_id":"levelo_inurba_marseille","lat":43.28937,"lon":5.39615,"is_reserved":false,"is_disabled":false,"rental_uris":{"android":"levelo://app?vid=b0a9a573-5657-4012-ad6b-f829f20b511f","ios":"levelo://app?vid=b0a9a573-5657-4012-ad6b-f829f20b511f"},"vehicle_type_id":"4","last_reported":1743322334,"current_range_meters":15200,"station_id":"ce4bh3h2rcd13ifvqdn0","pricing_plan_id":"cebpf4jnsgd1na2vs0mg"},{"bike_id":"8f4145c4-1bd6-401b-a227-c2c77bf7d7af","system_id":"levelo_inurba_marseille","lat":43.30228,"lon":5.40069,"is_reserved":false,"is_disabled":true,"rental_uris":{"android":"levelo://app?vid=8f4145c4-1bd6-401b-a227-c2c77bf7d7af","ios":"levelo://app?vid=8f4145c4-1bd6-401b-a227-c2c77bf7d7af"},"vehicle_type_id":"4","last_reported":1743322334,"current_range_meters":15200,"station_id":"ce4bgvh2rcd13ifvqcs0","pricing_plan_id":"cebpf4jnsgd1na2vs0mg"},{"bike_id":"c5670112-9696-47cc-816f-5b7b9ef66e92","system_id":"levelo_inurba_marseille","lat":43.29307,"lon":5.37466,"is_reserved":false,"is_disabled":false,"rental_uris":{"android":"levelo://app?vid=c5670112-9696-47cc-816f-5b7b9ef66e92","ios":"levelo://app?vid=c5670112-9696-47cc-816f-5b7b9ef66e92"},"vehicle_type_id":"4","last_reported":1743322334,"current_range_meters":14800,"station_id":"ce4bgi12rcd13ifvqb70","pricing_plan_id":"cebpf4jnsgd1na2vs0mg"},{"bike_id":"4323b71b-75a4-4344-aa79-0097aefcc021","system_id":"levelo_inurba_marseille","lat":43.28474,"lon":5.35892,"is_reserved":false,"is_disabled":false,"rental_uris":{"android":"levelo://app?vid=4323b71b-75a4-4344-aa79-0097aefcc021","ios":"levelo://app?vid=4323b71b-75a4-4344-aa79-0097aefcc021"},"vehicle_type_id":"4","last_reported":1743322334,"current_range_meters":15200,"station_id":"ce4bhah2rcd13ifvqei0","pricing_plan_id":"cebpf4jnsgd1na2vs0mg"},{"bike_id":"3fc49759-3010-4e0c-82f2-7ee3e8bf36b9","system_id":"levelo_inurba_marseille","lat":43.28274,"lon":5.35078,"is_reserved":false,"is_disabled":false,"rental_uris":{"android":"levelo://app?vid=3fc49759-3010-4e0c-82f2-7ee3e8bf36b9","ios":"levelo://app?vid=3fc49759-3010-4e0c-82f2-7ee3e8bf36b9"},"vehicle_type_id":"4","last_reported":1743322334,"current_range_meters":16000,"station_id":"ce4bhbp2rcd13ifvqerg","pricing_plan_id":"cebpf4jnsgd1na2vs0mg"},{"bike_id":"b185afe1-45aa-4bea-b183-90a603b8cfda","system_id":"levelo_inurba_marseille","lat":43.26206,"lon":5.40483,"is_reserved":false,"is_disabled":false,"rental_uris":{"android":"levelo://app?vid=b185afe1-45aa-4bea-b183-90a603b8cfda","ios":"levelo://app?vid=b185afe1-45aa-4bea-b183-90a603b8cfda"},"vehicle_type_id":"4","last_reported":1743322334,"current_range_meters":16000,"station_id":"ce4bhmh2rcd13ifvqgmg","pricing_plan_id":"cebpf4jnsgd1na2vs0mg"},{"bike_id":"f576cb60-7ff4-4eb0-be38-9b8f0381786d","system_id":"levelo_inurba_marseille","lat":43.28343,"lon":5.36333,"is_reserved":false,"is_disabled":false,"rental_uris":{"android":"levelo://app?vid=f576cb60-7ff4-4eb0-be38-9b8f0381786d","ios":"levelo://app?vid=f576cb60-7ff4-4eb0-be38-9b8f0381786d"},"vehicle_type_id":"4","last_reported":1743322334,"current_range_meters":16000,"station_id":"","pricing_plan_id":"cebpf4jnsgd1na2vs0mg"},{"bike_id":"f4aa7984-6e0a-4355-a188-7dfbb140094d","system_id":"levelo_inurba_marseille","lat":43.2814,"lon":5.42637,"is_reserved":false,"is_disabled":false,"rental_uris":{"android":"levelo://app?vid=f4aa7984-6e0a-4355-a188-7dfbb140094d","ios":"levelo://app?vid=f4aa7984-6e0a-4355-a188-7dfbb140094d"},"vehicle_type_id":"4","last_reported":1743322334,"current_range_meters":16000,"station_id":"ce4bhnh2rcd13ifvqgug","pricing_plan_id":"cebpf4jnsgd1na2vs0mg"},{"bike_id":"d2bdab8d-508c-4617-a487-d6f2ad6bec6a","system_id":"levelo_inurba_marseille","lat":43.28614,"lon":5.35102,"is_reserved":false,"is_disabled":false,"rental_uris":{"android":"levelo://app?vid=d2bdab8d-508c-4617-a487-d6f2ad6bec6a","ios":"levelo://app?vid=d2bdab8d-508c-4617-a487-d6f2ad6bec6a"},"vehicle_type_id":"4","last_reported":1743322334,"current_range_meters":16000,"station_id":"ce4bhch2rcd13ifvqeug","pricing_plan_id":"cebpf4jnsgd1na2vs0mg"},{"bike_id":"f80b586e-f44c-41b6-b526-a06cd3999ad5","system_id":"levelo_inurba_marseille","lat":43.24076,"lon":5.37783,"is_reserved":false,"is_disabled":false,"rental_uris":{"android":"levelo://app?vid=f80b586e-f44c-41b6-b526-a06cd3999ad5","ios":"levelo://app?vid=f80b586e-f44c-41b6-b526-a06cd3999ad5"},"vehicle_type_id":"4","last_reported":1743322334,"current_range_meters":16000,"station_id":"ce4bhnp2rcd13ifvqgvg","pricing_plan_id":"cebpf4jnsgd1na2vs0mg"},{"bike_id":"90999d59-def8-4d4d-a0de-1b61966a032f","system_id":"levelo_inurba_marseille","lat":43.240821,"lon":5.377523,"is_reserved":false,"is_disabled":false,"rental_uris":{"android":"levelo://app?vid=90999d59-def8-4d4d-a0de-1b61966a032f","ios":"levelo://app?vid=90999d59-def8-4d4d-a0de-1b61966a032f"},"vehicle_type_id":"4","last_reported":1743322334,"current_range_meters":16000,"station_id":"ce4bhnp2rcd13ifvqgvg","pricing_plan_id":"cebpf4jnsgd1na2vs0mg"},{"bike_id":"e5e87896-fc79-4739-9748-f5cd1d13e44f","system_id":"levelo_inurba_marseille","lat":43.28618,"lon":5.35097,"is_reserved":false,"is_disabled":false,"rental_uris":{"android":"levelo://app?vid=e5e87896-fc79-4739-9748-f5cd1d13e44f","ios":"levelo://app?vid=e5e87896-fc79-4739-9748-f5cd1d13e44f"},"vehicle_type_id":"4","last_reported":1743322334,"current_range_meters":16000,"station_id":"ce4bhch2rcd13ifvqeug","pricing_plan_id":"cebpf4jnsgd1na2vs0mg"},{"bike_id":"562e96c5-4910-4585-9f12-03dee2990be6","system_id":"levelo_inurba_marseille","lat":43.31324,"lon":5.39704,"is_reserved":false,"is_disabled":false,"rental_uris":{"android":"levelo://app?vid=562e96c5-4910-4585-9f12-03dee2990be6","ios":"levelo://app?vid=562e96c5-4910-4585-9f12-03dee2990be6"},"vehicle_type_id":"4","last_reported":1743322334,"current_range_meters":16000,"station_id":"ce4bgvp2rcd13ifvqcu0","pricing_plan_id":"cebpf4jnsgd1na2vs0mg"},{"bike_id":"3550a36d-3c45-4392-b638-e4bfcd519444","system_id":"levelo_inurba_marseille","lat":43.299006,"lon":5.381319,"is_reserved":false,"is_disabled":true,"rental_uris":{"android":"levelo://app?vid=3550a36d-3c45-4392-b638-e4bfcd519444","ios":"levelo://app?vid=3550a36d-3c45-4392-b638-e4bfcd519444"},"vehicle_type_id":"4","last_reported":1743322334,"current_range_meters":16000,"station_id":"ce4bgj12rcd13ifvqbc0","pricing_plan_id":"cebpf4jnsgd1na2vs0mg"},{"bike_id":"a84445ff-337f-4fd5-9926-fe316147aff5","system_id":"levelo_inurba_marseille","lat":43.3094,"lon":5.40148,"is_reserved":false,"is_disabled":false,"rental_uris":{"android":"levelo://app?vid=a84445ff-337f-4fd5-9926-fe316147aff5","ios":"levelo://app?vid=a84445ff-337f-4fd5-9926-fe316147aff5"},"vehicle_type_id":"4","last_reported":1743322334,"current_range_meters":16000,"station_id":"ce4bgvp2rcd13ifvqct0","pricing_plan_id":"cebpf4jnsgd1na2vs0mg"},{"bike_id":"9ce7fda9-9c41-431d-981e-34bc5c52cbc3","system_id":"levelo_inurba_marseille","lat":43.28447,"lon":5.35902,"is_reserved":false,"is_disabled":false,"rental_uris":{"android":"levelo://app?vid=9ce7fda9-9c41-431d-981e-34bc5c52cbc3","ios":"levelo://app?vid=9ce7fda9-9c41-431d-981e-34bc5c52cbc3"},"vehicle_type_id":"4","last_reported":1743322334,"current_range_meters":16400,"station_id":"ce4bhah2rcd13ifvqei0","pricing_plan_id":"cebpf4jnsgd1na2vs0mg"},{"bike_id":"42428cfe-3f95-40ff-9232-8a08d4516ac5","system_id":"levelo_inurba_marseille","lat":43.30148,"lon":5.38083,"is_reserved":false,"is_disabled":false,"rental_uris":{"android":"levelo://app?vid=42428cfe-3f95-40ff-9232-8a08d4516ac5","ios":"levelo://app?vid=42428cfe-3f95-40ff-9232-8a08d4516ac5"},"vehicle_type_id":"4","last_reported":1743322334,"current_range_meters":16400,"station_id":"ce4bgjp2rcd13ifvqbh0","pricing_plan_id":"cebpf4jnsgd1na2vs0mg"},{"bike_id":"d18a6bc3-d324-4d69-b486-ba53b76f7d82","system_id":"levelo_inurba_marseille","lat":43.28473,"lon":5.3842,"is_reserved":false,"is_disabled":false,"rental_uris":{"android":"levelo://app?vid=d18a6bc3-d324-4d69-b486-ba53b76f7d82","ios":"levelo://app?vid=d18a6bc3-d324-4d69-b486-ba53b76f7d82"},"vehicle_type_id":"4","last_reported":1743322334,"current_range_meters":16400,"station_id":"ce4bh512rcd13ifvqe3g","pricing_plan_id":"cebpf4jnsgd1na2vs0mg"},{"bike_id":"653ad549-fc6a-4bd0-9a7d-9a4ab94dd253","system_id":"levelo_inurba_marseille","lat":43.30924,"lon":5.40152,"is_reserved":false,"is_disabled":false,"rental_uris":{"android":"levelo://app?vid=653ad549-fc6a-4bd0-9a7d-9a4ab94dd253","ios":"levelo://app?vid=653ad549-fc6a-4bd0-9a7d-9a4ab94dd253"},"vehicle_type_id":"4","last_reported":1743322334,"current_range_meters":16400,"station_id":"ce4bgvp2rcd13ifvqct0","pricing_plan_id":"cebpf4jnsgd1na2vs0mg"},{"bike_id":"54cf8bae-f58a-44d2-91e1-77f321f35d3a","system_id":"levelo_inurba_marseille","lat":43.29265,"lon":5.36851,"is_reserved":false,"is_disabled":false,"rental_uris":{"android":"levelo://app?vid=54cf8bae-f58a-44d2-91e1-77f321f35d3a","ios":"levelo://app?vid=54cf8bae-f58a-44d2-91e1-77f321f35d3a"},"vehicle_type_id":"4","last_reported":1743322334,"current_range_meters":16400,"station_id":"ce4bhbp2rcd13ifvqesg","pricing_plan_id":"cebpf4jnsgd1na2vs0mg"},{"bike_id":"f3df6df3-5cb0-438c-80ab-5f2bb15565d6","system_id":"levelo_inurba_marseille","lat":43.27905,"lon":5.39602,"is_reserved":false,"is_disabled":false,"rental_uris":{"android":"levelo://app?vid=f3df6df3-5cb0-438c-80ab-5f2bb15565d6","ios":"levelo://app?vid=f3df6df3-5cb0-438c-80ab-5f2bb15565d6"},"vehicle_type_id":"4","last_reported":1743322334,"current_range_meters":16400,"station_id":"ce4bhf92rcd13ifvqf40","pricing_plan_id":"cebpf4jnsgd1na2vs0mg"},{"bike_id":"0cdd7251-92a2-42f0-866a-0a237a7daf30","system_id":"levelo_inurba_marseille","lat":43.30533,"lon":5.36553,"is_reserved":false,"is_disabled":false,"rental_uris":{"android":"levelo://app?vid=0cdd7251-92a2-42f0-866a-0a237a7daf30","ios":"levelo://app?vid=0cdd7251-92a2-42f0-866a-0a237a7daf30"},"vehicle_type_id":"4","last_reported":1743322334,"current_range_meters":16400,"station_id":"ce4bgs12rcd13ifvqcag","pricing_plan_id":"cebpf4jnsgd1na2vs0mg"},{"bike_id":"69b50256-db65-42dc-92ba-446ffcf8ca25","system_id":"levelo_inurba_marseille","lat":43.323681,"lon":5.388817,"is_reserved":false,"is_disabled":false,"rental_uris":{"android":"levelo://app?vid=69b50256-db65-42dc-92ba-446ffcf8ca25","ios":"levelo://app?vid=69b50256-db65-42dc-92ba-446ffcf8ca25"},"vehicle_type_id":"4","last_reported":1743322334,"current_range_meters":16800,"station_id":"ce4bhqp2rcd13ifvqhog","pricing_plan_id":"cebpf4jnsgd1na2vs0mg"},{"bike_id":"527eaf6f-9dd4-47f1-8136-298925baea60","system_id":"levelo_inurba_marseille","lat":43.26723,"lon":5.38325,"is_reserved":false,"is_disabled":true,"rental_uris":{"android":"levelo://app?vid=527eaf6f-9dd4-47f1-8136-298925baea60","ios":"levelo://app?vid=527eaf6f-9dd4-47f1-8136-298925baea60"},"vehicle_type_id":"4","last_reported":1743322334,"current_range_meters":16800,"station_id":"","pricing_plan_id":"cebpf4jnsgd1na2vs0mg"},{"bike_id":"8a93de34-e24a-4131-842b-11ea3d50b820","system_id":"levelo_inurba_marseille","lat":43.272047,"lon":5.391916,"is_reserved":false,"is_disabled":true,"rental_uris":{"android":"levelo://app?vid=8a93de34-e24a-4131-842b-11ea3d50b820","ios":"levelo://app?vid=8a93de34-e24a-4131-842b-11ea3d50b820"},"vehicle_type_id":"4","last_reported":1743322334,"current_range_meters":16800,"station_id":"ce4bhhp2rcd13ifvqfm0","pricing_plan_id":"cebpf4jnsgd1na2vs0mg"},{"bike_id":"a6a9dbf1-aa0a-49ea-a471-01a95bba8e72","system_id":"levelo_inurba_marseille","lat":43.28415,"lon":5.34997,"is_reserved":false,"is_disabled":false,"rental_uris":{"android":"levelo://app?vid=a6a9dbf1-aa0a-49ea-a471-01a95bba8e72","ios":"levelo://app?vid=a6a9dbf1-aa0a-49ea-a471-01a95bba8e72"},"vehicle_type_id":"4","last_reported":1743322334,"current_range_meters":16800,"station_id":"ce4bhbh2rcd13ifvqepg","pricing_plan_id":"cebpf4jnsgd1na2vs0mg"},{"bike_id":"3275884a-6733-4e66-849e-bec924515224","system_id":"levelo_inurba_marseille","lat":43.32371,"lon":5.36777,"is_reserved":false,"is_disabled":false,"rental_uris":{"android":"levelo://app?vid=3275884a-6733-4e66-849e-bec924515224","ios":"levelo://app?vid=3275884a-6733-4e66-849e-bec924515224"},"vehicle_type_id":"4","last_reported":1743322334,"current_range_meters":16800,"station_id":"ce4bhsh2rcd13ifvqi2g","pricing_plan_id":"cebpf4jnsgd1na2vs0mg"},{"bike_id":"d7671a11-d2a9-4c19-b8ab-5839a05a2057","system_id":"levelo_inurba_marseille","lat":43.28152,"lon":5.42637,"is_reserved":false,"is_disabled":false,"rental_uris":{"android":"levelo://app?vid=d7671a11-d2a9-4c19-b8ab-5839a05a2057","ios":"levelo://app?vid=d7671a11-d2a9-4c19-b8ab-5839a05a2057"},"vehicle_type_id":"4","last_reported":1743322334,"current_range_meters":16800,"station_id":"ce4bhnh2rcd13ifvqgug","pricing_plan_id":"cebpf4jnsgd1na2vs0mg"},{"bike_id":"22eab072-2876-4a24-876c-426b3688c78b","system_id":"levelo_inurba_marseille","lat":43.28658,"lon":5.386606,"is_reserved":false,"is_disabled":false,"rental_uris":{"android":"levelo://app?vid=22eab072-2876-4a24-876c-426b3688c78b","ios":"levelo://app?vid=22eab072-2876-4a24-876c-426b3688c78b"},"vehicle_type_id":"4","last_reported":1743322334,"current_range_meters":16800,"station_id":"ce4bh492rcd13ifvqdug","pricing_plan_id":"cebpf4jnsgd1na2vs0mg"},{"bike_id":"eab4b6d6-ba89-4629-bbdd-71f11d2b55bb","system_id":"levelo_inurba_marseille","lat":43.24384,"lon":5.37047,"is_reserved":false,"is_disabled":false,"rental_uris":{"android":"levelo://app?vid=eab4b6d6-ba89-4629-bbdd-71f11d2b55bb","ios":"levelo://app?vid=eab4b6d6-ba89-4629-bbdd-71f11d2b55bb"},"vehicle_type_id":"4","last_reported":1743322334,"current_range_meters":16800,"station_id":"ce4bhhh2rcd13ifvqfk0","pricing_plan_id":"cebpf4jnsgd1na2vs0mg"},{"bike_id":"dfb09742-8a72-4b6a-838d-f904a8543b6d","system_id":"levelo_inurba_marseille","lat":43.22942,"lon":5.35382,"is_reserved":false,"is_disabled":false,"rental_uris":{"android":"levelo://app?vid=dfb09742-8a72-4b6a-838d-f904a8543b6d","ios":"levelo://app?vid=dfb09742-8a72-4b6a-838d-f904a8543b6d"},"vehicle_type_id":"4","last_reported":1743322334,"current_range_meters":16800,"station_id":"cpo3532slgdg3j2ikp40","pricing_plan_id":"cebpf4jnsgd1na2vs0mg"},{"bike_id":"08f15c13-7657-412d-b471-2f02fcdb5090","system_id":"levelo_inurba_marseille","lat":43.31704,"lon":5.40448,"is_reserved":false,"is_disabled":false,"rental_uris":{"android":"levelo://app?vid=08f15c13-7657-412d-b471-2f02fcdb5090","ios":"levelo://app?vid=08f15c13-7657-412d-b471-2f02fcdb5090"},"vehicle_type_id":"4","last_reported":1743322334,"current_range_meters":17200,"station_id":"ce4bh012rcd13ifvqd00","pricing_plan_id":"cebpf4jnsgd1na2vs0mg"},{"bike_id":"7c56403f-4ec3-434a-9050-2766b993aeeb","system_id":"levelo_inurba_marseille","lat":43.30149,"lon":5.38073,"is_reserved":false,"is_disabled":false,"rental_uris":{"android":"levelo://app?vid=7c56403f-4ec3-434a-9050-2766b993aeeb","ios":"levelo://app?vid=7c56403f-4ec3-434a-9050-2766b993aeeb"},"vehicle_type_id":"4","last_reported":1743322334,"current_range_meters":17200,"station_id":"ce4bgjp2rcd13ifvqbh0","pricing_plan_id":"cebpf4jnsgd1na2vs0mg"},{"bike_id":"dc811744-4db0-4115-abf7-a8bc0c7935f3","system_id":"levelo_inurba_marseille","lat":43.23962,"lon":5.36675,"is_reserved":false,"is_disabled":false,"rental_uris":{"android":"levelo://app?vid=dc811744-4db0-4115-abf7-a8bc0c7935f3","ios":"levelo://app?vid=dc811744-4db0-4115-abf7-a8bc0c7935f3"},"vehicle_type_id":"4","last_reported":1743322334,"current_range_meters":17200,"station_id":"ce4bhi12rcd13ifvqfp0","pricing_plan_id":"cebpf4jnsgd1na2vs0mg"},{"bike_id":"29b0d117-591a-4469-8736-b567a2c8f7e2","system_id":"levelo_inurba_marseille","lat":43.28681,"lon":5.37051,"is_reserved":false,"is_disabled":false,"rental_uris":{"android":"levelo://app?vid=29b0d117-591a-4469-8736-b567a2c8f7e2","ios":"levelo://app?vid=29b0d117-591a-4469-8736-b567a2c8f7e2"},"vehicle_type_id":"4","last_reported":1743322334,"current_range_meters":17200,"station_id":"","pricing_plan_id":"cebpf4jnsgd1na2vs0mg"},{"bike_id":"68862b48-7ae4-4ab8-884c-aa3ee4f82104","system_id":"levelo_inurba_marseille","lat":43.284195,"lon":5.349882,"is_reserved":false,"is_disabled":false,"rental_uris":{"android":"levelo://app?vid=68862b48-7ae4-4ab8-884c-aa3ee4f82104","ios":"levelo://app?vid=68862b48-7ae4-4ab8-884c-aa3ee4f82104"},"vehicle_type_id":"4","last_reported":1743322334,"current_range_meters":17200,"station_id":"ce4bhbh2rcd13ifvqepg","pricing_plan_id":"cebpf4jnsgd1na2vs0mg"},{"bike_id":"5bcee1e5-07e4-4b72-a062-6c92b156f63f","system_id":"levelo_inurba_marseille","lat":43.26781,"lon":5.39417,"is_reserved":false,"is_disabled":false,"rental_uris":{"android":"levelo://app?vid=5bcee1e5-07e4-4b72-a062-6c92b156f63f","ios":"levelo://app?vid=5bcee1e5-07e4-4b72-a062-6c92b156f63f"},"vehicle_type_id":"4","last_reported":1743322334,"current_range_meters":17200,"station_id":"ce4bhh12rcd13ifvqfg0","pricing_plan_id":"cebpf4jnsgd1na2vs0mg"},{"bike_id":"b3d08038-6a9a-48fe-a313-9a37b7868640","system_id":"levelo_inurba_marseille","lat":43.29289,"lon":5.36838,"is_reserved":false,"is_disabled":false,"rental_uris":{"android":"levelo://app?vid=b3d08038-6a9a-48fe-a313-9a37b7868640","ios":"levelo://app?vid=b3d08038-6a9a-48fe-a313-9a37b7868640"},"vehicle_type_id":"4","last_reported":1743322334,"current_range_meters":17600,"station_id":"ce4bhbp2rcd13ifvqesg","pricing_plan_id":"cebpf4jnsgd1na2vs0mg"},{"bike_id":"d522e24b-0c96-4b4c-946d-da864a91d12d","system_id":"levelo_inurba_marseille","lat":43.25813,"lon":5.39449,"is_reserved":false,"is_disabled":false,"rental_uris":{"android":"levelo://app?vid=d522e24b-0c96-4b4c-946d-da864a91d12d","ios":"levelo://app?vid=d522e24b-0c96-4b4c-946d-da864a91d12d"},"vehicle_type_id":"4","last_reported":1743322334,"current_range_meters":17600,"station_id":"ce4bhip2rcd13ifvqft0","pricing_plan_id":"cebpf4jnsgd1na2vs0mg"},{"bike_id":"b03c1e8b-f250-499e-9c12-2884e7eb7fa8","system_id":"levelo_inurba_marseille","lat":43.28025,"lon":5.36946,"is_reserved":false,"is_disabled":false,"rental_uris":{"android":"levelo://app?vid=b03c1e8b-f250-499e-9c12-2884e7eb7fa8","ios":"levelo://app?vid=b03c1e8b-f250-499e-9c12-2884e7eb7fa8"},"vehicle_type_id":"4","last_reported":1743322334,"current_range_meters":17200,"station_id":"ce4bha12rcd13ifvqef0","pricing_plan_id":"cebpf4jnsgd1na2vs0mg"},{"bike_id":"ce289411-076b-4c91-8681-00cb99138d8a","system_id":"levelo_inurba_marseille","lat":43.30882,"lon":5.39667,"is_reserved":false,"is_disabled":false,"rental_uris":{"android":"levelo://app?vid=ce289411-076b-4c91-8681-00cb99138d8a","ios":"levelo://app?vid=ce289411-076b-4c91-8681-00cb99138d8a"},"vehicle_type_id":"4","last_reported":1743322334,"current_range_meters":17600,"station_id":"ce4bh012rcd13ifvqcv0","pricing_plan_id":"cebpf4jnsgd1na2vs0mg"},{"bike_id":"63bd693f-45b5-425b-9bd9-4303e8066c9c","system_id":"levelo_inurba_marseille","lat":43.28846,"lon":5.38761,"is_reserved":false,"is_disabled":false,"rental_uris":{"android":"levelo://app?vid=63bd693f-45b5-425b-9bd9-4303e8066c9c","ios":"levelo://app?vid=63bd693f-45b5-425b-9bd9-4303e8066c9c"},"vehicle_type_id":"4","last_reported":1743322334,"current_range_meters":18000,"station_id":"","pricing_plan_id":"cebpf4jnsgd1na2vs0mg"},{"bike_id":"8c6b4744-e975-413e-bae4-dacc55fe526d","system_id":"levelo_inurba_marseille","lat":43.2736,"lon":5.431,"is_reserved":false,"is_disabled":false,"rental_uris":{"android":"levelo://app?vid=8c6b4744-e975-413e-bae4-dacc55fe526d","ios":"levelo://app?vid=8c6b4744-e975-413e-bae4-dacc55fe526d"},"vehicle_type_id":"4","last_reported":1743322334,"current_range_meters":18000,"station_id":"","pricing_plan_id":"cebpf4jnsgd1na2vs0mg"},{"bike_id":"0601127e-e7f0-441d-9362-41910d211473","system_id":"levelo_inurba_marseille","lat":43.29721,"lon":5.36608,"is_reserved":false,"is_disabled":false,"rental_uris":{"android":"levelo://app?vid=0601127e-e7f0-441d-9362-41910d211473","ios":"levelo://app?vid=0601127e-e7f0-441d-9362-41910d211473"},"vehicle_type_id":"4","last_reported":1743322334,"current_range_meters":17600,"station_id":"ce4bgn12rcd13ifvqbt0","pricing_plan_id":"cebpf4jnsgd1na2vs0mg"},{"bike_id":"fd6dec39-8bde-4be0-98b9-6c6465dfb13d","system_id":"levelo_inurba_marseille","lat":43.24171,"lon":5.39738,"is_reserved":false,"is_disabled":false,"rental_uris":{"android":"levelo://app?vid=fd6dec39-8bde-4be0-98b9-6c6465dfb13d","ios":"levelo://app?vid=fd6dec39-8bde-4be0-98b9-6c6465dfb13d"},"vehicle_type_id":"4","last_reported":1743322334,"current_range_meters":18000,"station_id":"ce4bhn12rcd13ifvqgpg","pricing_plan_id":"cebpf4jnsgd1na2vs0mg"},{"bike_id":"9a821de1-077e-4171-a99b-e15f03f0ce6a","system_id":"levelo_inurba_marseille","lat":43.29255,"lon":5.38439,"is_reserved":false,"is_disabled":true,"rental_uris":{"android":"levelo://app?vid=9a821de1-077e-4171-a99b-e15f03f0ce6a","ios":"levelo://app?vid=9a821de1-077e-4171-a99b-e15f03f0ce6a"},"vehicle_type_id":"4","last_reported":1743322334,"current_range_meters":18000,"station_id":"ce4bh692rcd13ifvqea0","pricing_plan_id":"cebpf4jnsgd1na2vs0mg"},{"bike_id":"f111e2a0-a8e1-44d6-b513-abacfe3a1da9","system_id":"levelo_inurba_marseille","lat":43.23963,"lon":5.36662,"is_reserved":false,"is_disabled":false,"rental_uris":{"android":"levelo://app?vid=f111e2a0-a8e1-44d6-b513-abacfe3a1da9","ios":"levelo://app?vid=f111e2a0-a8e1-44d6-b513-abacfe3a1da9"},"vehicle_type_id":"4","last_reported":1743322334,"current_range_meters":18000,"station_id":"ce4bhi12rcd13ifvqfp0","pricing_plan_id":"cebpf4jnsgd1na2vs0mg"},