{"last_updated":1729757588,"ttl":60,"version":"2.2","data":{"bikes":[{"bike_id":"6bb28513-7ba6-4d73-94c5-cbf1dfef8b42","system_id":"levelo_inurba_marseille","lat":43.32487,"lon":5.36559,"is_reserved":false,"is_disabled":false,"rental_uris":{"android":"levelo://app?vid=6bb28513-7ba6-4d73-94c5-cbf1dfef8b42","ios":"levelo://app?vid=6bb28513-7ba6-4d73-94c5-cbf1dfef8b42"},"vehicle_type_id":"4","last_reported":1729757589,"current_range_meters":25600,"station_id":"ce4bhs12rcd13ifvqhvg","pricing_plan_id":"cebpf4jnsgd1na2vs0mg"},{"bike_id":"6e7189c8-6d34-4945-8fbf-b2a1a37960a8","system_id":"levelo_inurba_marseille","lat":43.31703,"lon":5.37752,"is_reserved":false,"is_disabled":false,"rental_uris":{"android":"levelo://app?vid=6e7189c8-6d34-4945-8fbf-b2a1a37960a8","ios":"levelo://app?vid=6e7189c8-6d34-4945-8fbf-b2a1a37960a8"},"vehicle_type_id":"4","last_reported":1729757589,"current_range_meters":24000,"station_id":"ce4bgth2rcd13ifvqch0","pricing_plan_id":"cebpf4jnsgd1na2vs0mg"},{"bike_id":"0e2acf5a-7c20-401e-8487-d71ebbd0c240","system_id":"levelo_inurba_marseille","lat":43.24386,"lon":5.37054,"is_reserved":false,"is_disabled":false,"rental_uris":{"android":"levelo://app?vid=0e2acf5a-7c20-401e-8487-d71ebbd0c240","ios":"levelo://app?vid=0e2acf5a-7c20-401e-8487-d71ebbd0c240"},"vehicle_type_id":"4","last_reported":1729757589,"current_range_meters":36400,"station_id":"ce4bhhh2rcd13ifvqfk0","pricing_plan_id":"cebpf4jnsgd1na2vs0mg"},{"bike_id":"4e718520-217c-4986-8e4a-4dbcae9b7210","system_id":"levelo_inurba_marseille","lat":43.27987,"lon":5.41655,"is_reserved":false,"is_disabled":false,"rental_uris":{"android":"levelo://app?vid=4e718520-217c-4986-8e4a-4dbcae9b7210","ios":"levelo://app?vid=4e718520-217c-4986-8e4a-4dbcae9b7210"},"vehicle_type_id":"4","last_reported":1729757589,"current_range_meters":9200,"station_id":"ce4bho12rcd13ifvqh1g","pricing_plan_id":"cebpf4jnsgd1na2vs0mg"},{"bike_id":"d645e0cf-57e5-4f52-9080-98904e940886","system_id":"levelo_inurba_marseille","lat":43.27944,"lon":5.4105,"is_reserved":false,"is_disabled":false,"rental_uris":{"android":"levelo://app?vid=d645e0cf-57e5-4f52-9080-98904e940886","ios":"levelo://app?vid=d645e0cf-57e5-4f52-9080-98904e940886"},"vehicle_type_id":"4","last_reported":1729757589,"current_range_meters":16800,"station_id":"ce4bhnp2rcd13ifvqh0g","pricing_plan_id":"cebpf4jnsgd1na2vs0mg"},{"bike_id":"cf00bfcd-9f87-4011-81c6-4541ee31d8cd","system_id":"levelo_inurba_marseille","lat":43.3135,"lon":5.36706,"is_reserved":false,"is_disabled":false,"rental_uris":{"android":"levelo://app?vid=cf00bfcd-9f87-4011-81c6-4541ee31d8cd","ios":"levelo://app?vid=cf00bfcd-9f87-4011-81c6-4541ee31d8cd"},"vehicle_type_id":"4","last_reported":1729757589,"current_range_meters":38000,"station_id":"ce4bgr92rcd13ifvqc6g","pricing_plan_id":"cebpf4jnsgd1na2vs0mg"},{"bike_id":"21c7101c-ca4b-4c55-b4b1-4130a4e6a9f4","system_id":"levelo_inurba_marseille","lat":43.30539,"lon":5.36704,"is_reserved":false,"is_disabled":false,"rental_uris":{"android":"levelo://app?vid=21c7101c-ca4b-4c55-b4b1-4130a4e6a9f4","ios":"levelo://app?vid=21c7101c-ca4b-4c55-b4b1-4130a4e6a9f4"},"vehicle_type_id":"4","last_reported":1729757589,"current_range_meters":38800,"station_id":"ce4bgrp2rcd13ifvqc9g","pricing_plan_id":"cebpf4jnsgd1na2vs0mg"},{"bike_id":"e309b298-e094-467e-aed7-013e823b4798","system_id":"levelo_inurba_marseille","lat":43.27369,"lon":5.36258,"is_reserved":false,"is_disabled":false,"rental_uris":{"android":"levelo://app?vid=e309b298-e094-467e-aed7-013e823b4798","ios":"levelo://app?vid=e309b298-e094-467e-aed7-013e823b4798"},"vehicle_type_id":"4","last_reported":1729757589,"current_range_meters":28400,"station_id":"ce4bhbh2rcd13ifvqeo0","pricing_plan_id":"cebpf4jnsgd1na2vs0mg"},{"bike_id":"9f074ccd-7b5d-4615-a0de-1df1963b28b4","system_id":"levelo_inurba_marseille","lat":43.31495,"lon":5.37305,"is_reserved":false,"is_disabled":false,"rental_uris":{"android":"levelo://app?vid=9f074ccd-7b5d-4615-a0de-1df1963b28b4","ios":"levelo://app?vid=9f074ccd-7b5d-4615-a0de-1df1963b28b4"},"vehicle_type_id":"4","last_reported":1729757589,"current_range_meters":6000,"station_id":"ce4bgt12rcd13ifvqcd0","pricing_plan_id":"cebpf4jnsgd1na2vs0mg"},{"bike_id":"f3e7c407-7d92-46a7-bd13-bda8f069ba72","system_id":"levelo_inurba_marseille","lat":43.29709,"lon":5.36608,"is_reserved":false,"is_disabled":false,"rental_uris":{"android":"levelo://app?vid=f3e7c407-7d92-46a7-bd13-bda8f069ba72","ios":"levelo://app?vid=f3e7c407-7d92-46a7-bd13-bda8f069ba72"},"vehicle_type_id":"4","last_reported":1729757589,"current_range_meters":38000,"station_id":"ce4bgn12rcd13ifvqbt0","pricing_plan_id":"cebpf4jnsgd1na2vs0mg"},{"bike_id":"2f0838b1-1d12-41db-b771-0d96c14d00b5","system_id":"levelo_inurba_marseille","lat":43.305556,"lon":5.36558,"is_reserved":false,"is_disabled":false,"rental_uris":{"android":"levelo://app?vid=2f0838b1-1d12-41db-b771-0d96c14d00b5","ios":"levelo://app?vid=2f0838b1-1d12-41db-b771-0d96c14d00b5"},"vehicle_type_id":"4","last_reported":1729757589,"current_range_meters":3600,"station_id":"ce4bgs12rcd13ifvqcag","pricing_plan_id":"cebpf4jnsgd1na2vs0mg"},{"bike_id":"0a1b479d-52cc-43be-b555-b0ec65cfda36","system_id":"levelo_inurba_marseille","lat":43.24075,"lon":5.37769,"is_reserved":false,"is_disabled":false,"rental_uris":{"android":"levelo://app?vid=0a1b479d-52cc-43be-b555-b0ec65cfda36","ios":"levelo://app?vid=0a1b479d-52cc-43be-b555-b0ec65cfda36"},"vehicle_type_id":"4","last_reported":1729757589,"current_range_meters":38000,"station_id":"ce4bhnp2rcd13ifvqgvg","pricing_plan_id":"cebpf4jnsgd1na2vs0mg"},{"bike_id":"93b004d5-e088-4995-a4b0-f34bd0d548c5","system_id":"levelo_inurba_marseille","lat":43.33724,"lon":5.39185,"is_reserved":false,"is_disabled":false,"rental_uris":{"android":"levelo://app?vid=93b004d5-e088-4995-a4b0-f34bd0d548c5","ios":"levelo://app?vid=93b004d5-e088-4995-a4b0-f34bd0d548c5"},"vehicle_type_id":"4","last_reported":1729757589,"current_range_meters":27600,"station_id":"ce4bhr92rcd13ifvqhsg","pricing_plan_id":"cebpf4jnsgd1na2vs0mg"},{"bike_id":"29022cab-0aa3-4fff-9ddc-958bddb55705","system_id":"levelo_inurba_marseille","lat":43.30154,"lon":5.38085,"is_reserved":false,"is_disabled":false,"rental_uris":{"android":"levelo://app?vid=29022cab-0aa3-4fff-9ddc-958bddb55705","ios":"levelo://app?vid=29022cab-0aa3-4fff-9ddc-958bddb55705"},"vehicle_type_id":"4","last_reported":1729757589,"current_range_meters":24400,"station_id":"ce4bgjp2rcd13ifvqbh0","pricing_plan_id":"cebpf4jnsgd1na2vs0mg"},{"bike_id":"7a632fec-0e5c-4d95-9f73-b6a9f3a4cd45","system_id":"levelo_inurba_marseille","lat":43.31998,"lon":5.38165,"is_reserved":false,"is_disabled":false,"rental_uris":{"android":"levelo://app?vid=7a632fec-0e5c-4d95-9f73-b6a9f3a4cd45","ios":"levelo://app?vid=7a632fec-0e5c-4d95-9f73-b6a9f3a4cd45"},"vehicle_type_id":"4","last_reported":1729757589,"current_range_meters":24800,"station_id":"ce4bhr12rcd13ifvqhpg","pricing_plan_id":"cebpf4jnsgd1na2vs0mg"},{"bike_id":"c921cf07-fcd7-4226-b27e-5b71c96be01a","system_id":"levelo_inurba_marseille","lat":43.26496,"lon":5.39537,"is_reserved":false,"is_disabled":false,"rental_uris":{"android":"levelo://app?vid=c921cf07-fcd7-4226-b27e-5b71c96be01a","ios":"levelo://app?vid=c921cf07-fcd7-4226-b27e-5b71c96be01a"},"vehicle_type_id":"4","last_reported":1729757589,"current_range_meters":38000,"station_id":"ce4bhi12rcd13ifvqfq0","pricing_plan_id":"cebpf4jnsgd1na2vs0mg"},{"bike_id":"cc9315d9-2520-4cc1-8b0e-7c92bd8403db","system_id":"levelo_inurba_marseille","lat":43.25863,"lon":5.39898,"is_reserved":false,"is_disabled":false,"rental_uris":{"android":"levelo://app?vid=cc9315d9-2520-4cc1-8b0e-7c92bd8403db","ios":"levelo://app?vid=cc9315d9-2520-4cc1-8b0e-7c92bd8403db"},"vehicle_type_id":"4","last_reported":1729757589,"current_range_meters":8400,"station_id":"ce4bhl92rcd13ifvqghg","pricing_plan_id":"cebpf4jnsgd1na2vs0mg"},{"bike_id":"b88e4dc5-5503-4994-89af-e505032e0648","system_id":"levelo_inurba_marseille","lat":43.30549,"lon":5.3655,"is_reserved":false,"is_disabled":false,"rental_uris":{"android":"levelo://app?vid=b88e4dc5-5503-4994-89af-e505032e0648","ios":"levelo://app?vid=b88e4dc5-5503-4994-89af-e505032e0648"},"vehicle_type_id":"4","last_reported":1729757589,"current_range_meters":38800,"station_id":"ce4bgs12rcd13ifvqcag","pricing_plan_id":"cebpf4jnsgd1na2vs0mg"},{"bike_id":"062e9064-3b68-492d-845f-9db18d7db043","system_id":"levelo_inurba_marseille","lat":43.29721,"lon":5.37703,"is_reserved":false,"is_disabled":false,"rental_uris":{"android":"levelo://app?vid=062e9064-3b68-492d-845f-9db18d7db043","ios":"levelo://app?vid=062e9064-3b68-492d-845f-9db18d7db043"},"vehicle_type_id":"4","last_reported":1729757589,"current_range_meters":26000,"station_id":"ce4bgkh2rcd13ifvqbl0","pricing_plan_id":"cebpf4jnsgd1na2vs0mg"},{"bike_id":"3e6dacef-7721-4fd6-908f-05fbf9bc0354","system_id":"levelo_inurba_marseille","lat":43.23196,"lon":5.3556,"is_reserved":false,"is_disabled":false,"rental_uris":{"android":"levelo://app?vid=3e6dacef-7721-4fd6-908f-05fbf9bc0354","ios":"levelo://app?vid=3e6dacef-7721-4fd6-908f-05fbf9bc0354"},"vehicle_type_id":"4","last_reported":1729757589,"current_range_meters":37600,"station_id":"ce4bhu92rcd13ifvqi70","pricing_plan_id":"cebpf4jnsgd1na2vs0mg"},{"bike_id":"3733b08b-7ef7-40ca-a94b-5bcffd5d0805","system_id":"levelo_inurba_marseille","lat":43.288483,"lon":5.35324,"is_reserved":false,"is_disabled":false,"rental_uris":{"android":"levelo://app?vid=3733b08b-7ef7-40ca-a94b-5bcffd5d0805","ios":"levelo://app?vid=3733b08b-7ef7-40ca-a94b-5bcffd5d0805"},"vehicle_type_id":"4","last_reported":1729757589,"current_range_meters":26800,"station_id":"ce4bhbp2rcd13ifvqerg","pricing_plan_id":"cebpf4jnsgd1na2vs0mg"},{"bike_id":"0238450d-25c9-4421-8c04-eedecf1641c7","system_id":"levelo_inurba_marseille","lat":43.29727,"lon":5.37701,"is_reserved":false,"is_disabled":false,"rental_uris":{"android":"levelo://app?vid=0238450d-25c9-4421-8c04-eedecf1641c7","ios":"levelo://app?vid=0238450d-25c9-4421-8c04-eedecf1641c7"},"vehicle_type_id":"4","last_reported":1729757589,"current_range_meters":30400,"station_id":"ce4bgkh2rcd13ifvqbl0","pricing_plan_id":"cebpf4jnsgd1na2vs0mg"},{"bike_id":"58e86890-2928-4e3e-98e3-56e00009da16","system_id":"levelo_inurba_marseille","lat":43.27205,"lon":5.39185,"is_reserved":false,"is_disabled":false,"rental_uris":{"android":"levelo://app?vid=58e86890-2928-4e3e-98e3-56e00009da16","ios":"levelo://app?vid=58e86890-2928-4e3e-98e3-56e00009da16"},"vehicle_type_id":"4","last_reported":1729757589,"current_range_meters":30000,"station_id":"ce4bhhp2rcd13ifvqfm0","pricing_plan_id":"cebpf4jnsgd1na2vs0mg"},{"bike_id":"43625689-ac1a-41b4-ab73-66d27a8da837","system_id":"levelo_inurba_marseille","lat":43.24178,"lon":5.39717,"is_reserved":false,"is_disabled":false,"rental_uris":{"android":"levelo://app?vid=43625689-ac1a-41b4-ab73-66d27a8da837","ios":"levelo://app?vid=43625689-ac1a-41b4-ab73-66d27a8da837"},"vehicle_type_id":"4","last_reported":1729757589,"current_range_meters":31200,"station_id":"ce4bhn12rcd13ifvqgpg","pricing_plan_id":"cebpf4jnsgd1na2vs0mg"},{"bike_id":"97ce6431-cdfe-4c86-8575-534875aed7f5","system_id":"levelo_inurba_marseille","lat":43.3053,"lon":5.36659,"is_reserved":false,"is_disabled":false,"rental_uris":{"android":"levelo://app?vid=97ce6431-cdfe-4c86-8575-534875aed7f5","ios":"levelo://app?vid=97ce6431-cdfe-4c86-8575-534875aed7f5"},"vehicle_type_id":"4","last_reported":1729757589,"current_range_meters":8400,"station_id":"","pricing_plan_id":"cebpf4jnsgd1na2vs0mg"},{"bike_id":"bc4efb73-4734-4293-a1eb-82c722d0ec12","system_id":"levelo_inurba_marseille","lat":43.25503,"lon":5.37649,"is_reserved":false,"is_disabled":false,"rental_uris":{"android":"levelo://app?vid=bc4efb73-4734-4293-a1eb-82c722d0ec12","ios":"levelo://app?vid=bc4efb73-4734-4293-a1eb-82c722d0ec12"},"vehicle_type_id":"4","last_reported":1729757589,"current_range_meters":38000,"station_id":"ce4bhh12rcd13ifvqff0","pricing_plan_id":"cebpf4jnsgd1na2vs0mg"},{"bike_id":"a2c214d3-8514-49e8-b573-b4f9e4c3627e","system_id":"levelo_inurba_marseille","lat":43.30418,"lon":5.41274,"is_reserved":false,"is_disabled":false,"rental_uris":{"android":"levelo://app?vid=a2c214d3-8514-49e8-b573-b4f9e4c3627e","ios":"levelo://app?vid=a2c214d3-8514-49e8-b573-b4f9e4c3627e"},"vehicle_type_id":"4","last_reported":1729757589,"current_range_meters":1600,"station_id":"ce4bhop2rcd13ifvqh8g","pricing_plan_id":"cebpf4jnsgd1na2vs0mg"},{"bike_id":"b69d0c64-0724-4563-ab4e-cdb5166b1cd5","system_id":"levelo_inurba_marseille","lat":43.33116,"lon":5.38212,"is_reserved":false,"is_disabled":false,"rental_uris":{"android":"levelo://app?vid=b69d0c64-0724-4563-ab4e-cdb5166b1cd5","ios":"levelo://app?vid=b69d0c64-0724-4563-ab4e-cdb5166b1cd5"},"vehicle_type_id":"4","last_reported":1729757589,"current_range_meters":21600,"station_id":"","pricing_plan_id":"cebpf4jnsgd1na2vs0mg"},{"bike_id":"e05535c8-56a4-4714-aaa2-9ead5e6ba38b","system_id":"levelo_inurba_marseille","lat":43.25931,"lon":5.40912,"is_reserved":false,"is_disabled":false,"rental_uris":{"android":"levelo://app?vid=e05535c8-56a4-4714-aaa2-9ead5e6ba38b","ios":"levelo://app?vid=e05535c8-56a4-4714-aaa2-9ead5e6ba38b"},"vehicle_type_id":"4","last_reported":1729757589,"current_range_meters":27600,"station_id":"ce4bhm92rcd13ifvqglg","pricing_plan_id":"cebpf4jnsgd1na2vs0mg"},{"bike_id":"67fc909c-3820-48d9-a4af-ea6bbe1c49b9","system_id":"levelo_inurba_marseille","lat":43.28418,"lon":5.34976,"is_reserved":false,"is_disabled":false,"rental_uris":{"android":"levelo://app?vid=67fc909c-3820-48d9-a4af-ea6bbe1c49b9","ios":"levelo://app?vid=67fc909c-3820-48d9-a4af-ea6bbe1c49b9"},"vehicle_type_id":"4","last_reported":1729757589,"current_range_meters":24000,"station_id":"ce4bhbh2rcd13ifvqepg","pricing_plan_id":"cebpf4jnsgd1na2vs0mg"},{"bike_id":"8e40de37-296d-47ae-a26b-2fc39d683675","system_id":"levelo_inurba_marseille","lat":43.25934,"lon":5.4091,"is_reserved":false,"is_disabled":false,"rental_uris":{"android":"levelo://app?vid=8e40de37-296d-47ae-a26b-2fc39d683675","ios":"levelo://app?vid=8e40de37-296d-47ae-a26b-2fc39d683675"},"vehicle_type_id":"4","last_reported":1729757589,"current_range_meters":27600,"station_id":"ce4bhm92rcd13ifvqglg","pricing_plan_id":"cebpf4jnsgd1na2vs0mg"},{"bike_id":"d559dc1b-ba63-4390-a50c-92e4adeb1a9d","system_id":"levelo_inurba_marseille","lat":43.25944,"lon":5.40893,"is_reserved":false,"is_disabled":false,"rental_uris":{"android":"levelo://app?vid=d559dc1b-ba63-4390-a50c-92e4adeb1a9d","ios":"levelo://app?vid=d559dc1b-ba63-4390-a50c-92e4adeb1a9d"},"vehicle_type_id":"4","last_reported":1729757589,"current_range_meters":8400,"station_id":"ce4bhm92rcd13ifvqglg","pricing_plan_id":"cebpf4jnsgd1na2vs0mg"},{"bike_id":"5180379b-fbfd-429b-bac6-14031fe35466","system_id":"levelo_inurba_marseille","lat":43.3361,"lon":5.41031,"is_reserved":false,"is_disabled":false,"rental_uris":{"android":"levelo://app?vid=5180379b-fbfd-429b-bac6-14031fe35466","ios":"levelo://app?vid=5180379b-fbfd-429b-bac6-14031fe35466"},"vehicle_type_id":"4","last_reported":1729757589,"current_range_meters":38800,"station_id":"ce4bhqh2rcd13ifvqhmg","pricing_plan_id":"cebpf4jnsgd1na2vs0mg"},{"bike_id":"aa99f811-363e-46a8-aef9-b5e22fccd73b","system_id":"levelo_inurba_marseille","lat":43.27902,"lon":5.37997,"is_reserved":false,"is_disabled":false,"rental_uris":{"android":"levelo://app?vid=aa99f811-363e-46a8-aef9-b5e22fccd73b","ios":"levelo://app?vid=aa99f811-363e-46a8-aef9-b5e22fccd73b"},"vehicle_type_id":"4","last_reported":1729757589,"current_range_meters":38800,"station_id":"ce4bhf92rcd13ifvqf50","pricing_plan_id":"cebpf4jnsgd1na2vs0mg"},{"bike_id":"c4ec3362-47c0-409b-b8ac-01ecbef91c99","system_id":"levelo_inurba_marseille","lat":43.28985,"lon":5.37829,"is_reserved":false,"is_disabled":false,"rental_uris":{"android":"levelo://app?vid=c4ec3362-47c0-409b-b8ac-01ecbef91c99","ios":"levelo://app?vid=c4ec3362-47c0-409b-b8ac-01ecbef91c99"},"vehicle_type_id":"4","last_reported":1729757589,"current_range_meters":19600,"station_id":"ce4bh9p2rcd13ifvqed0","pricing_plan_id":"cebpf4jnsgd1na2vs0mg"},{"bike_id":"e38d6abe-d29c-478e-8db0-3b610855bfb5","system_id":"levelo_inurba_marseille","lat":43.33602,"lon":5.41032,"is_reserved":false,"is_disabled":false,"rental_uris":{"android":"levelo://app?vid=e38d6abe-d29c-478e-8db0-3b610855bfb5","ios":"levelo://app?vid=e38d6abe-d29c-478e-8db0-3b610855bfb5"},"vehicle_type_id":"4","last_reported":1729757589,"current_range_meters":9600,"station_id":"ce4bhqh2rcd13ifvqhmg","pricing_plan_id":"cebpf4jnsgd1na2vs0mg"},{"bike_id":"d7515cbf-5aa1-41fd-b258-49d42fd5997e","system_id":"levelo_inurba_marseille","lat":43.30471,"lon":5.37908,"is_reserved":false,"is_disabled":false,"rental_uris":{"android":"levelo://app?vid=d7515cbf-5aa1-41fd-b258-49d42fd5997e","ios":"levelo://app?vid=d7515cbf-5aa1-41fd-b258-49d42fd5997e"},"vehicle_type_id":"4","last_reported":1729757589,"current_range_meters":19200,"station_id":"ce4bgup2rcd13ifvqcn0","pricing_plan_id":"cebpf4jnsgd1na2vs0mg"},{"bike_id":"b3b6e0a5-7e00-455d-ac5a-07b7fd90617d","system_id":"levelo_inurba_marseille","lat":43.29568,"lon":5.3998,"is_reserved":false,"is_disabled":false,"rental_uris":{"android":"levelo://app?vid=b3b6e0a5-7e00-455d-ac5a-07b7fd90617d","ios":"levelo://app?vid=b3b6e0a5-7e00-455d-ac5a-07b7fd90617d"},"vehicle_type_id":"4","last_reported":1729757589,"current_range_meters":29600,"station_id":"","pricing_plan_id":"cebpf4jnsgd1na2vs0mg"},{"bike_id":"9eb74a59-2088-4eb3-b793-8ecaa974b92a","system_id":"levelo_inurba_marseille","lat":43.24076,"lon":5.37755,"is_reserved":false,"is_disabled":false,"rental_uris":{"android":"levelo://app?vid=9eb74a59-2088-4eb3-b793-8ecaa974b92a","ios":"levelo://app?vid=9eb74a59-2088-4eb3-b793-8ecaa974b92a"},"vehicle_type_id":"4","last_reported":1729757589,"current_range_meters":28000,"station_id":"ce4bhnp2rcd13ifvqgvg","pricing_plan_id":"cebpf4jnsgd1na2vs0mg"},{"bike_id":"8f40f5a1-dff7-42c7-90d7-c956ea526b89","system_id":"levelo_inurba_marseille","lat":43.30143,"lon":5.37415,"is_reserved":false,"is_disabled":false,"rental_uris":{"android":"levelo://app?vid=8f40f5a1-dff7-42c7-90d7-c956ea526b89","ios":"levelo://app?vid=8f40f5a1-dff7-42c7-90d7-c956ea526b89"},"vehicle_type_id":"4","last_reported":1729757589,"current_range_meters":35200,"station_id":"ce4bgs92rcd13ifvqcc0","pricing_plan_id":"cebpf4jnsgd1na2vs0mg"},{"bike_id":"ef519d9b-1eb7-4a1f-8ee3-47333831fccd","system_id":"levelo_inurba_marseille","lat":43.29534,"lon":5.38544,"is_reserved":false,"is_disabled":false,"rental_uris":{"android":"levelo://app?vid=ef519d9b-1eb7-4a1f-8ee3-47333831fccd","ios":"levelo://app?vid=ef519d9b-1eb7-4a1f-8ee3-47333831fccd"},"vehicle_type_id":"4","last_reported":1729757589,"current_range_meters":14000,"station_id":"ce4bgih2rcd13ifvqba0","pricing_plan_id":"cebpf4jnsgd1na2vs0mg"},{"bike_id":"677a26f0-a8b9-43c0-a2aa-8b4d07896f2e","system_id":"levelo_inurba_marseille","lat":43.25082,"lon":5.39522,"is_reserved":false,"is_disabled":false,"rental_uris":{"android":"levelo://app?vid=677a26f0-a8b9-43c0-a2aa-8b4d07896f2e","ios":"levelo://app?vid=677a26f0-a8b9-43c0-a2aa-8b4d07896f2e"},"vehicle_type_id":"4","last_reported":1729757589,"current_range_meters":22800,"station_id":"ce4bhm12rcd13ifvqgkg","pricing_plan_id":"cebpf4jnsgd1na2vs0mg"},{"bike_id":"9bd57b46-8543-4ce3-a243-70724cf1f67b","system_id":"levelo_inurba_marseille","lat":43.2957,"lon":5.37518,"is_reserved":false,"is_disabled":false,"rental_uris":{"android":"levelo://app?vid=9bd57b46-8543-4ce3-a243-70724cf1f67b","ios":"levelo://app?vid=9bd57b46-8543-4ce3-a243-70724cf1f67b"},"vehicle_type_id":"4","last_reported":1729757589,"current_range_meters":37600,"station_id":"ce4bgh92rcd13ifvqb50","pricing_plan_id":"cebpf4jnsgd1na2vs0mg"},{"bike_id":"efa42ff0-fcbb-4391-98d4-4b32fd7b9000","system_id":"levelo_inurba_marseille","lat":43.30473,"lon":5.37908,"is_reserved":false,"is_disabled":false,"rental_uris":{"android":"levelo://app?vid=efa42ff0-fcbb-4391-98d4-4b32fd7b9000","ios":"levelo://app?vid=efa42ff0-fcbb-4391-98d4-4b32fd7b9000"},"vehicle_type_id":"4","last_reported":1729757589,"current_range_meters":35600,"station_id":"ce4bgup2rcd13ifvqcn0","pricing_plan_id":"cebpf4jnsgd1na2vs0mg"},{"bike_id":"78568ba3-e558-46e4-aa36-5671f868e825","system_id":"levelo_inurba_marseille","lat":43.32036,"lon":5.41573,"is_reserved":false,"is_disabled":false,"rental_uris":{"android":"levelo://app?vid=78568ba3-e558-46e4-aa36-5671f868e825","ios":"levelo://app?vid=78568ba3-e558-46e4-aa36-5671f868e825"},"vehicle_type_id":"4","last_reported":1729757589,"current_range_meters":18800,"station_id":"ce4bhq92rcd13ifvqhkg","pricing_plan_id":"cebpf4jnsgd1na2vs0mg"},{"bike_id":"87b6995d-9c77-4c54-bef7-5ea2d7376b5f","system_id":"levelo_inurba_marseille","lat":43.30282,"lon":5.37709,"is_reserved":false,"is_disabled":false,"rental_uris":{"android":"levelo://app?vid=87b6995d-9c77-4c54-bef7-5ea2d7376b5f","ios":"levelo://app?vid=87b6995d-9c77-4c54-bef7-5ea2d7376b5f"},"vehicle_type_id":"4","last_reported":1729757589,"current_range_meters":12800,"station_id":"ce4bguh2rcd13ifvqcj0","pricing_plan_id":"cebpf4jnsgd1na2vs0mg"},{"bike_id":"90d0b193-ebe7-480a-a48d-1c561e70920a","system_id":"levelo_inurba_marseille","lat":43.28275,"lon":5.35076,"is_reserved":false,"is_disabled":false,"rental_uris":{"android":"levelo://app?vid=90d0b193-ebe7-480a-a48d-1c561e70920a","ios":"levelo://app?vid=90d0b193-ebe7-480a-a48d-1c561e70920a"},"vehicle_type_id":"4","last_reported":1729757589,"current_range_meters":38400,"station_id":"ce4bhbp2rcd13ifvqerg","pricing_plan_id":"cebpf4jnsgd1na2vs0mg"},{"bike_id":"825b0c26-32f9-4648-81bd-2702b467ac44","system_id":"levelo_inurba_marseille","lat":43.24546,"lon":5.39522,"is_reserved":false,"is_disabled":false,"rental_uris":{"android":"levelo://app?vid=825b0c26-32f9-4648-81bd-2702b467ac44","ios":"levelo://app?vid=825b0c26-32f9-4648-81bd-2702b467ac44"},"vehicle_type_id":"4","last_reported":1729757589,"current_range_meters":28800,"station_id":"ce4bhlp2rcd13ifvqgjg","pricing_plan_id":"cebpf4jnsgd1na2vs0mg"},{"bike_id":"db69ea4c-1c7d-43a0-b7f1-e0da5b76f2ea","system_id":"levelo_inurba_marseille","lat":43.28436,"lon":5.45978,"is_reserved":false,"is_disabled":false,"rental_uris":{"android":"levelo://app?vid=db69ea4c-1c7d-43a0-b7f1-e0da5b76f2ea","ios":"levelo://app?vid=db69ea4c-1c7d-43a0-b7f1-e0da5b76f2ea"},"vehicle_type_id":"4","last_reported":1729757589,"current_range_meters":9600,"station_id":"","pricing_plan_id":"cebpf4jnsgd1na2vs0mg"},{"bike_id":"ec787f1a-01a2-4575-b819-14ce3e52d368","system_id":"levelo_inurba_marseille","lat":43.33724,"lon":5.3918,"is_reserved":false,"is_disabled":false,"rental_uris":{"android":"levelo://app?vid=ec787f1a-01a2-4575-b819-14ce3e52d368","ios":"levelo://app?vid=ec787f1a-01a2-4575-b819-14ce3e52d368"},"vehicle_type_id":"4","last_reported":1729757589,"current_range_meters":28400,"station_id":"ce4bhr92rcd13ifvqhsg","pricing_plan_id":"cebpf4jnsgd1na2vs0mg"},{"bike_id":"8f977213-38c3-4691-b362-b74e851d6509","system_id":"levelo_inurba_marseille","lat":43.251251,"lon":5.387882,"is_reserved":false,"is_disabled":false,"rental_uris":{"android":"levelo://app?vid=8f977213-38c3-4691-b362-b74e851d6509","ios":"levelo://app?vid=8f977213-38c3-4691-b362-b74e851d6509"},"vehicle_type_id":"4","last_reported":1729757589,"current_range_meters":16800,"station_id":"ce4bgvp2rcd13ifvqcu0","pricing_plan_id":"cebpf4jnsgd1na2vs0mg"},{"bike_id":"fc19061a-5ba3-4c1b-9962-f24d7bbba9e6","system_id":"levelo_inurba_marseille","lat":43.26684,"lon":5.38267,"is_reserved":false,"is_disabled":false,"rental_uris":{"android":"levelo://app?vid=fc19061a-5ba3-4c1b-9962-f24d7bbba9e6","ios":"levelo://app?vid=fc19061a-5ba3-4c1b-9962-f24d7bbba9e6"},"vehicle_type_id":"4","last_reported":1729757589,"current_range_meters":28000,"station_id":"ce4bhg92rcd13ifvqf90","pricing_plan_id":"cebpf4jnsgd1na2vs0mg"},{"bike_id":"ec13b053-8bdc-432d-87d1-aad3d3afed5b","system_id":"levelo_inurba_marseille","lat":43.30799,"lon":5.38196,"is_reserved":false,"is_disabled":false,"rental_uris":{"android":"levelo://app?vid=ec13b053-8bdc-432d-87d1-aad3d3afed5b","ios":"levelo://app?vid=ec13b053-8bdc-432d-87d1-aad3d3afed5b"},"vehicle_type_id":"4","last_reported":1729757589,"current_range_meters":39200,"station_id":"","pricing_plan_id":"cebpf4jnsgd1na2vs0mg"},{"bike_id":"f1263351-9f0f-41ba-b8f6-38db19b22437","system_id":"levelo_inurba_marseille","lat":43.30476,"lon":5.379053,"is_reserved":false,"is_disabled":false,"rental_uris":{"android":"levelo://app?vid=f1263351-9f0f-41ba-b8f6-38db19b22437","ios":"levelo://app?vid=f1263351-9f0f-41ba-b8f6-38db19b22437"},"vehicle_type_id":"4","last_reported":1729757589,"current_range_meters":28000,"station_id":"ce4bgup2rcd13ifvqcn0","pricing_plan_id":"cebpf4jnsgd1na2vs0mg"},{"bike_id":"491e6dc9-a9e0-47c6-b7ee-cbbf6227fc3b","system_id":"levelo_inurba_marseille","lat":43.31995,"lon":5.38165,"is_reserved":false,"is_disabled":false,"rental_uris":{"android":"levelo://app?vid=491e6dc9-a9e0-47c6-b7ee-cbbf6227fc3b","ios":"levelo://app?vid=491e6dc9-a9e0-47c6-b7ee-cbbf6227fc3b"},"vehicle_type_id":"4","last_reported":1729757589,"current_range_meters":6800,"station_id":"ce4bhr12rcd13ifvqhpg","pricing_plan_id":"cebpf4jnsgd1na2vs0mg"},{"bike_id":"5e506d15-df2d-4cf2-a9b2-860ae69be514","system_id":"levelo_inurba_marseille","lat":43.3055,"lon":5.36552,"is_reserved":false,"is_disabled":false,"rental_uris":{"android":"levelo://app?vid=5e506d15-df2d-4cf2-a9b2-860ae69be514","ios":"levelo://app?vid=5e506d15-df2d-4cf2-a9b2-860ae69be514"},"vehicle_type_id":"4","last_reported":1729757589,"current_range_meters":26800,"station_id":"ce4bgs12rcd13ifvqcag","pricing_plan_id":"cebpf4jnsgd1na2vs0mg"},{"bike_id":"f990f0f4-bf4b-41b4-a95e-0260b16863b6","system_id":"levelo_inurba_marseille","lat":43.30307,"lon":5.36904,"is_reserved":false,"is_disabled":false,"rental_uris":{"android":"levelo://app?vid=f990f0f4-bf4b-41b4-a95e-0260b16863b6","ios":"levelo://app?vid=f990f0f4-bf4b-41b4-a95e-0260b16863b6"},"vehicle_type_id":"4","last_reported":1729757589,"current_range_meters":34000,"station_id":"ce4bgqh2rcd13ifvqc5g","pricing_plan_id":"cebpf4jnsgd1na2vs0mg"},{"bike_id":"825884dd-1853-45a9-b03b-6e8955f52d0a","system_id":"levelo_inurba_marseille","lat":43.27057,"lon":5.40261,"is_reserved":false,"is_disabled":false,"rental_uris":{"android":"levelo://app?vid=825884dd-1853-45a9-b03b-6e8955f52d0a","ios":"levelo://app?vid=825884dd-1853-45a9-b03b-6e8955f52d0a"},"vehicle_type_id":"4","last_reported":1729757589,"current_range_meters":38800,"station_id":"ce4bhk92rcd13ifvqgc0","pricing_plan_id":"cebpf4jnsgd1na2vs0mg"},{"bike_id":"ee56864d-0289-4ab0-b1d9-4e118a6c50f5","system_id":"levelo_inurba_marseille","lat":43.34142,"lon":5.40895,"is_reserved":false,"is_disabled":false,"rental_uris":{"android":"levelo://app?vid=ee56864d-0289-4ab0-b1d9-4e118a6c50f5","ios":"levelo://app?vid=ee56864d-0289-4ab0-b1d9-4e118a6c50f5"},"vehicle_type_id":"4","last_reported":1729757589,"current_range_meters":39200,"station_id":"ce4bhqh2rcd13ifvqhlg","pricing_plan_id":"cebpf4jnsgd1na2vs0mg"},{"bike_id":"5742a4c0-e38b-4103-a94e-8a600309e688","system_id":"levelo_inurba_marseille","lat":43.27975,"lon":5.38737,"is_reserved":false,"is_disabled":false,"rental_uris":{"android":"levelo://app?vid=5742a4c0-e38b-4103-a94e-8a600309e688","ios":"levelo://app?vid=5742a4c0-e38b-4103-a94e-8a600309e688"},"vehicle_type_id":"4","last_reported":1729757589,"current_range_meters":4400,"station_id":"ce4bhg12rcd13ifvqf80","pricing_plan_id":"cebpf4jnsgd1na2vs0mg"},{"bike_id":"1957bb6b-5dd2-41b6-a4ff-1efe87830d8c","system_id":"levelo_inurba_marseille","lat":43.29926,"lon":5.37466,"is_reserved":false,"is_disabled":false,"rental_uris":{"android":"levelo://app?vid=1957bb6b-5dd2-41b6-a4ff-1efe87830d8c","ios":"levelo://app?vid=1957bb6b-5dd2-41b6-a4ff-1efe87830d8c"},"vehicle_type_id":"4","last_reported":1729757589,"current_range_meters":24800,"station_id":"ce4bgjh2rcd13ifvqbg0","pricing_plan_id":"cebpf4jnsgd1na2vs0mg"},{"bike_id":"1e0bfa34-cda6-4930-a78a-aab2c731dbff","system_id":"levelo_inurba_marseille","lat":43.30552,"lon":5.36541,"is_reserved":false,"is_disabled":false,"rental_uris":{"android":"levelo://app?vid=1e0bfa34-cda6-4930-a78a-aab2c731dbff","ios":"levelo://app?vid=1e0bfa34-cda6-4930-a78a-aab2c731dbff"},"vehicle_type_id":"4","last_reported":1729757589,"current_range_meters":38800,"station_id":"ce4bgs12rcd13ifvqcag","pricing_plan_id":"cebpf4jnsgd1na2vs0mg"},{"bike_id":"5f67ba67-de88-4ef4-bfd0-789561c93004","system_id":"levelo_inurba_marseille","lat":43.29196,"lon":5.35807,"is_reserved":false,"is_disabled":false,"rental_uris":{"android":"levelo://app?vid=5f67ba67-de88-4ef4-bfd0-789561c93004","ios":"levelo://app?vid=5f67ba67-de88-4ef4-bfd0-789561c93004"},"vehicle_type_id":"4","last_reported":1729757589,"current_range_meters":33600,"station_id":"ce4bhb12rcd13ifvqel0","pricing_plan_id":"cebpf4jnsgd1na2vs0mg"},{"bike_id":"05a0d57c-8c95-4215-bcd6-85aea099ed42","system_id":"levelo_inurba_marseille","lat":43.23155,"lon":5.437,"is_reserved":false,"is_disabled":false,"rental_uris":{"android":"levelo://app?vid=05a0d57c-8c95-4215-bcd6-85aea099ed42","ios":"levelo://app?vid=05a0d57c-8c95-4215-bcd6-85aea099ed42"},"vehicle_type_id":"4","last_reported":1729757589,"current_range_meters":30400,"station_id":"ce4bhmp2rcd13ifvqgog","pricing_plan_id":"cebpf4jnsgd1na2vs0mg"},{"bike_id":"71d7f328-a427-4358-bc2f-cc1d51a56f06","system_id":"levelo_inurba_marseille","lat":43.30959,"lon":5.39027,"is_reserved":false,"is_disabled":false,"rental_uris":{"android":"levelo://app?vid=71d7f328-a427-4358-bc2f-cc1d51a56f06","ios":"levelo://app?vid=71d7f328-a427-4358-bc2f-cc1d51a56f06"},"vehicle_type_id":"4","last_reported":1729757589,"current_range_meters":14800,"station_id":"ce4bgup2rcd13ifvqco0","pricing_plan_id":"cebpf4jnsgd1na2vs0mg"},{"bike_id":"3a904881-c49f-42f3-ab29-bca1bed304a9","system_id":"levelo_inurba_marseille","lat":43.25938,"lon":5.40899,"is_reserved":false,"is_disabled":false,"rental_uris":{"android":"levelo://app?vid=3a904881-c49f-42f3-ab29-bca1bed304a9","ios":"levelo://app?vid=3a904881-c49f-42f3-ab29-bca1bed304a9"},"vehicle_type_id":"4","last_reported":1729757589,"current_range_meters":27600,"station_id":"ce4bhm92rcd13ifvqglg","pricing_plan_id":"cebpf4jnsgd1na2vs0mg"},{"bike_id":"53100c54-a4e3-45a7-9427-b292d95b6c16","system_id":"levelo_inurba_marseille","lat":43.30899,"lon":5.37197,"is_reserved":false,"is_disabled":false,"rental_uris":{"android":"levelo://app?vid=53100c54-a4e3-45a7-9427-b292d95b6c16","ios":"levelo://app?vid=53100c54-a4e3-45a7-9427-b292d95b6c16"},"vehicle_type_id":"4","last_reported":1729757589,"current_range_meters":38800,"station_id":"ce4bguh2rcd13ifvqckg","pricing_plan_id":"cebpf4jnsgd1na2vs0mg"},{"bike_id":"293a0eda-a37d-4172-bb6f-d028643c9783","system_id":"levelo_inurba_marseille","lat":43.23145,"lon":5.43718,"is_reserved":false,"is_disabled":false,"rental_uris":{"android":"levelo://app?vid=293a0eda-a37d-4172-bb6f-d028643c9783","ios":"levelo://app?vid=293a0eda-a37d-4172-bb6f-d028643c9783"},"vehicle_type_id":"4","last_reported":1729757589,"current_range_meters":16400,"station_id":"ce4bhmp2rcd13ifvqgog","pricing_plan_id":"cebpf4jnsgd1na2vs0mg"},{"bike_id":"29c617a6-00f3-460d-abea-5d05c6478338","system_id":"levelo_inurba_marseille","lat":43.25934,"lon":5.40911,"is_reserved":false,"is_disabled":false,"rental_uris":{"android":"levelo://app?vid=29c617a6-00f3-460d-abea-5d05c6478338","ios":"levelo://app?vid=29c617a6-00f3-460d-abea-5d05c6478338"},"vehicle_type_id":"4","last_reported":1729757589,"current_range_meters":28000,"station_id":"ce4bhm92rcd13ifvqglg","pricing_plan_id":"cebpf4jnsgd1na2vs0mg"},{"bike_id":"a62ea118-4fe5-4ab2-b6bf-6bd32b72aea5","system_id":"levelo_inurba_marseille","lat":43.28103,"lon":5.3784,"is_reserved":false,"is_disabled":false,"rental_uris":{"android":"levelo://app?vid=a62ea118-4fe5-4ab2-b6bf-6bd32b72aea5","ios":"levelo://app?vid=a62ea118-4fe5-4ab2-b6bf-6bd32b72aea5"},"vehicle_type_id":"4","last_reported":1729757589,"current_range_meters":26800,"station_id":"ce4bha12rcd13ifvqee0","pricing_plan_id":"cebpf4jnsgd1na2vs0mg"},{"bike_id":"de32c2c9-06dd-4759-a21e-2db3caebc313","system_id":"levelo_inurba_marseille","lat":43.29907,"lon":5.39737,"is_reserved":false,"is_disabled":false,"rental_uris":{"android":"levelo://app?vid=de32c2c9-06dd-4759-a21e-2db3caebc313","ios":"levelo://app?vid=de32c2c9-06dd-4759-a21e-2db3caebc313"},"vehicle_type_id":"4","last_reported":1729757589,"current_range_meters":28000,"station_id":"ce4bh0h2rcd13ifvqd50","pricing_plan_id":"cebpf4jnsgd1na2vs0mg"},{"bike_id":"91bfa645-9cfa-4568-8072-595cbd3b9c72","system_id":"levelo_inurba_marseille","lat":43.28904,"lon":5.36108,"is_reserved":false,"is_disabled":false,"rental_uris":{"android":"levelo://app?vid=91bfa645-9cfa-4568-8072-595cbd3b9c72","ios":"levelo://app?vid=91bfa645-9cfa-4568-8072-595cbd3b9c72"},"vehicle_type_id":"4","last_reported":1729757589,"current_range_meters":24400,"station_id":"","pricing_plan_id":"cebpf4jnsgd1na2vs0mg"},{"bike_id":"1dd47f97-c610-46a7-b04d-161712013943","system_id":"levelo_inurba_marseille","lat":43.31399,"lon":5.3852,"is_reserved":false,"is_disabled":false,"rental_uris":{"android":"levelo://app?vid=1dd47f97-c610-46a7-b04d-161712013943","ios":"levelo://app?vid=1dd47f97-c610-46a7-b04d-161712013943"},"vehicle_type_id":"4","last_reported":1729757589,"current_range_meters":26800,"station_id":"ce4bgt92rcd13ifvqcf0","pricing_plan_id":"cebpf4jnsgd1na2vs0mg"},{"bike_id":"4a969d9a-a2f7-4482-9d72-f6a3a46a8b8b","system_id":"levelo_inurba_marseille","lat":43.30143,"lon":5.37416,"is_reserved":false,"is_disabled":false,"rental_uris":{"android":"levelo://app?vid=4a969d9a-a2f7-4482-9d72-f6a3a46a8b8b","ios":"levelo://app?vid=4a969d9a-a2f7-4482-9d72-f6a3a46a8b8b"},"vehicle_type_id":"4","last_reported":1729757589,"current_range_meters":28800,"station_id":"ce4bgs92rcd13ifvqcc0","pricing_plan_id":"cebpf4jnsgd1na2vs0mg"},{"bike_id":"12965f57-3a1d-4768-83c5-e018ff17ce98","system_id":"levelo_inurba_marseille","lat":43.24172,"lon":5.39728,"is_reserved":false,"is_disabled":false,"rental_uris":{"android":"levelo://app?vid=12965f57-3a1d-4768-83c5-e018ff17ce98","ios":"levelo://app?vid=12965f57-3a1d-4768-83c5-e018ff17ce98"},"vehicle_type_id":"4","last_reported":1729757589,"current_range_meters":39200,"station_id":"ce4bhn12rcd13ifvqgpg","pricing_plan_id":"cebpf4jnsgd1na2vs0mg"},{"bike_id":"a6417bf8-880f-4a10-a525-c43160847438","system_id":"levelo_inurba_marseille","lat":43.25939,"lon":5.40902,"is_reserved":false,"is_disabled":false,"rental_uris":{"android":"levelo://app?vid=a6417bf8-880f-4a10-a525-c43160847438","ios":"levelo://app?vid=a6417bf8-880f-4a10-a525-c43160847438"},"vehicle_type_id":"4","last_reported":1729757589,"current_range_meters":26000,"station_id":"ce4bhm92rcd13ifvqglg","pricing_plan_id":"cebpf4jnsgd1na2vs0mg"},{"bike_id":"0300ae8c-d89e-4fc9-94c4-e4571dd93d5f","system_id":"levelo_inurba_marseille","lat":43.24643,"lon":5.4247,"is_reserved":false,"is_disabled":false,"rental_uris":{"android":"levelo://app?vid=0300ae8c-d89e-4fc9-94c4-e4571dd93d5f","ios":"levelo://app?vid=0300ae8c-d89e-4fc9-94c4-e4571dd93d5f"},"vehicle_type_id":"4","last_reported":1729757589,"current_range_meters":32400,"station_id":"","pricing_plan_id":"cebpf4jnsgd1na2vs0mg"},{"bike_id":"0a44162f-f058-4046-81a5-0ad78a3e7aae","system_id":"levelo_inurba_marseille","lat":43.27563,"lon":5.38422,"is_reserved":false,"is_disabled":false,"rental_uris":{"android":"levelo://app?vid=0a44162f-f058-4046-81a5-0ad78a3e7aae","ios":"levelo://app?vid=0a44162f-f058-4046-81a5-0ad78a3e7aae"},"vehicle_type_id":"4","last_reported":1729757589,"current_range_meters":36800,"station_id":"ce4bhh92rcd13ifvqfi0","pricing_plan_id":"cebpf4jnsgd1na2vs0mg"},{"bike_id":"8b368eb4-d88f-4e27-9a59-f48c296d2a4c","system_id":"levelo_inurba_marseille","lat":43.27987,"lon":5.41663,"is_reserved":false,"is_disabled":false,"rental_uris":{"android":"levelo://app?vid=8b368eb4-d88f-4e27-9a59-f48c296d2a4c","ios":"levelo://app?vid=8b368eb4-d88f-4e27-9a59-f48c296d2a4c"},"vehicle_type_id":"4","last_reported":1729757589,"current_range_meters":23200,"station_id":"ce4bho12rcd13ifvqh1g","pricing_plan_id":"cebpf4jnsgd1na2vs0mg"},{"bike_id":"5c405a47-5da1-4eb2-a048-e6e0e39d0db1","system_id":"levelo_inurba_marseille","lat":43.29843,"lon":5.36277,"is_reserved":false,"is_disabled":false,"rental_uris":{"android":"levelo://app?vid=5c405a47-5da1-4eb2-a048-e6e0e39d0db1","ios":"levelo://app?vid=5c405a47-5da1-4eb2-a048-e6e0e39d0db1"},"vehicle_type_id":"4","last_reported":1729757589,"current_range_meters":20000,"station_id":"ce4bgpp2rcd13ifvqc3g","pricing_plan_id":"cebpf4jnsgd1na2vs0mg"},{"bike_id":"a159004c-6b0d-4cda-b6c0-b8546774c9f5","system_id":"levelo_inurba_marseille","lat":43.24542,"lon":5.39523,"is_reserved":false,"is_disabled":false,"rental_uris":{"android":"levelo://app?vid=a159004c-6b0d-4cda-b6c0-b8546774c9f5","ios":"levelo://app?vid=a159004c-6b0d-4cda-b6c0-b8546774c9f5"},"vehicle_type_id":"4","last_reported":1729757589,"current_range_meters":4400,"station_id":"ce4bhlp2rcd13ifvqgjg","pricing_plan_id":"cebpf4jnsgd1na2vs0mg"},{"bike_id":"fd9701c6-ca47-4ddc-b523-a4a888532baa","system_id":"levelo_inurba_marseille","lat":43.30469,"lon":5.37898,"is_reserved":false,"is_disabled":false,"rental_uris":{"android":"levelo://app?vid=fd9701c6-ca47-4ddc-b523-a4a888532baa","ios":"levelo://app?vid=fd9701c6-ca47-4ddc-b523-a4a888532baa"},"vehicle_type_id":"4","last_reported":1729757589,"current_range_meters":17600,"station_id":"ce4bgup2rcd13ifvqcn0","pricing_plan_id":"cebpf4jnsgd1na2vs0mg"},{"bike_id":"d424369c-b7c8-49cf-8c48-613aa8652011","system_id":"levelo_inurba_marseille","lat":43.28568,"lon":5.39489,"is_reserved":false,"is_disabled":false,"rental_uris":{"android":"levelo://app?vid=d424369c-b7c8-49cf-8c48-613aa8652011","ios":"levelo://app?vid=d424369c-b7c8-49cf-8c48-613aa8652011"},"vehicle_type_id":"4","last_reported":1729757589,"current_range_meters":39200,"station_id":"ce4bh292rcd13ifvqdg0","pricing_plan_id":"cebpf4jnsgd1na2vs0mg"},{"bike_id":"0964197e-a959-42c5-83d3-1a0d8ca2b4c5","system_id":"levelo_inurba_marseille","lat":43.30471,"lon":5.37914,"is_reserved":false,"is_disabled":false,"rental_uris":{"android":"levelo://app?vid=0964197e-a959-42c5-83d3-1a0d8ca2b4c5","ios":"levelo://app?vid=0964197e-a959-42c5-83d3-1a0d8ca2b4c5"},"vehicle_type_id":"4","last_reported":1729757589,"current_range_meters":38800,"station_id":"ce4bgup2rcd13ifvqcn0","pricing_plan_id":"cebpf4jnsgd1na2vs0mg"},{"bike_id":"9c980766-3696-42be-8e1a-d22fb6edb5c5","system_id":"levelo_inurba_marseille","lat":43.30674,"lon":5.38202,"is_reserved":false,"is_disabled":false,"rental_uris":{"android":"levelo://app?vid=9c980766-3696-42be-8e1a-d22fb6edb5c5","ios":"levelo://app?vid=9c980766-3696-42be-8e1a-d22fb6edb5c5"},"vehicle_type_id":"4","last_reported":1729757589,"current_range_meters":28800,"station_id":"","pricing_plan_id":"cebpf4jnsgd1na2vs0mg"},{"bike_id":"a277a657-994a-4685-a23d-2aacd0b366a7","system_id":"levelo_inurba_marseille","lat":43.28611,"lon":5.35103,"is_reserved":false,"is_disabled":false,"rental_uris":{"android":"levelo://app?vid=a277a657-994a-4685-a23d-2aacd0b366a7","ios":"levelo://app?vid=a277a657-994a-4685-a23d-2aacd0b366a7"},"vehicle_type_id":"4","last_reported":1729757589,"current_range_meters":32400,"station_id":"ce4bhch2rcd13ifvqeug","pricing_plan_id":"cebpf4jnsgd1na2vs0mg"},{"bike_id":"02eb4d68-6da0-4bac-ba07-7f096e7ad67e","system_id":"levelo_inurba_marseille","lat":43.30542,"lon":5.36731,"is_reserved":false,"is_disabled":false,"rental_uris":{"android":"levelo://app?vid=02eb4d68-6da0-4bac-ba07-7f096e7ad67e","ios":"levelo://app?vid=02eb4d68-6da0-4bac-ba07-7f096e7ad67e"},"vehicle_type_id":"4","last_reported":1729757589,"current_range_meters":9200,"station_id":"ce4bgrp2rcd13ifvqc9g","pricing_plan_id":"cebpf4jnsgd1na2vs0mg"},{"bike_id":"fbf97ef8-bd1b-4c04-9a9d-32289ab679c9","system_id":"levelo_inurba_marseille","lat":43.31704,"lon":5.37747,"is_reserved":false,"is_disabled":false,"rental_uris":{"android":"levelo://app?vid=fbf97ef8-bd1b-4c04-9a9d-32289ab679c9","ios":"levelo://app?vid=fbf97ef8-bd1b-4c04-9a9d-32289ab679c9"},"vehicle_type_id":"4","last_reported":1729757589,"current_range_meters":38800,"station_id":"ce4bgth2rcd13ifvqch0","pricing_plan_id":"cebpf4jnsgd1na2vs0mg"},{"bike_id":"e9ad741b-3551-466e-b5bc-26b5d5b49933","system_id":"levelo_inurba_marseille","lat":43.24806,"lon":5.37456,"is_reserved":false,"is_disabled":false,"rental_uris":{"android":"levelo://app?vid=e9ad741b-3551-466e-b5bc-26b5d5b49933","ios":"levelo://app?vid=e9ad741b-3551-466e-b5bc-26b5d5b49933"},"vehicle_type_id":"4","last_reported":1729757589,"current_range_meters":38000,"station_id":"ce4bhgh2rcd13ifvqfb0","pricing_plan_id":"cebpf4jnsgd1na2vs0mg"},{"bike_id":"121f9985-b8e0-4d17-8b28-94e575572cd5","system_id":"levelo_inurba_marseille","lat":43.2978,"lon":5.38107,"is_reserved":false,"is_disabled":false,"rental_uris":{"android":"levelo://app?vid=121f9985-b8e0-4d17-8b28-94e575572cd5","ios":"levelo://app?vid=121f9985-b8e0-4d17-8b28-94e575572cd5"},"vehicle_type_id":"4","last_reported":1729757589,"current_range_meters":30800,"station_id":"ce4bgip2rcd13ifvqbb0","pricing_plan_id":"cebpf4jnsgd1na2vs0mg"},{"bike_id":"8d3a665e-b607-4c6b-bfa9-0539dee50c40","system_id":"levelo_inurba_marseille","lat":43.30462,"lon":5.37907,"is_reserved":false,"is_disabled":false,"rental_uris":{"android":"levelo://app?vid=8d3a665e-b607-4c6b-bfa9-0539dee50c40","ios":"levelo://app?vid=8d3a665e-b607-4c6b-bfa9-0539dee50c40"},"vehicle_type_id":"4","last_reported":1729757589,"current_range_meters":28400,"station_id":"ce4bgup2rcd13ifvqcn0","pricing_plan_id":"cebpf4jnsgd1na2vs0mg"},{"bike_id":"8f1caad2-6668-48d2-87b2-cf3ca965c060","system_id":"levelo_inurba_marseille","lat":43.26683,"lon":5.38274,"is_reserved":false,"is_disabled":false,"rental_uris":{"android":"levelo://app?vid=8f1caad2-6668-48d2-87b2-cf3ca965c060","ios":"levelo://app?vid=8f1caad2-6668-48d2-87b2-cf3ca965c060"},"vehicle_type_id":"4","last_reported":1729757589,"current_range_meters":16800,"station_id":"ce4bhg92rcd13ifvqf90","pricing_plan_id":"cebpf4jnsgd1na2vs0mg"},{"bike_id":"90c3a3ae-e1f9-49f9-8230-c82dc265a457","system_id":"levelo_inurba_marseille","lat":43.31995,"lon":5.38147,"is_reserved":false,"is_disabled":false,"rental_uris":{"android":"levelo://app?vid=90c3a3ae-e1f9-49f9-8230-c82dc265a457","ios":"levelo://app?vid=90c3a3ae-e1f9-49f9-8230-c82dc265a457"},"vehicle_type_id":"4","last_reported":1729757589,"current_range_meters":7200,"station_id":"ce4bhr12rcd13ifvqhpg","pricing_plan_id":"cebpf4jnsgd1na2vs0mg"},{"bike_id":"1227eb8d-9f23-41a3-aa69-a2da26e5ecf4","system_id":"levelo_inurba_marseille","lat":43.27205,"lon":5.39185,"is_reserved":false,"is_disabled":false,"rental_uris":{"android":"levelo://app?vid=1227eb8d-9f23-41a3-aa69-a2da26e5ecf4","ios":"levelo://app?vid=1227eb8d-9f23-41a3-aa69-a2da26e5ecf4"},"vehicle_type_id":"4","last_reported":1729757589,"current_range_meters":38000,"station_id":"ce4bhhp2rcd13ifvqfm0","pricing_plan_id":"cebpf4jnsgd1na2vs0mg"},{"bike_id":"e6b310af-d763-4708-a97e-f6f2e27c7b8b","system_id":"levelo_inurba_marseille","lat":43.27172,"lon":5.4098,"is_reserved":false,"is_disabled":false,"rental_uris":{"android":"levelo://app?vid=e6b310af-d763-4708-a97e-f6f2e27c7b8b","ios":"levelo://app?vid=e6b310af-d763-4708-a97e-f6f2e27c7b8b"},"vehicle_type_id":"4","last_reported":1729757589,"current_range_meters":8400,"station_id":"ce4bhl12rcd13ifvqgf0","pricing_plan_id":"cebpf4jnsgd1na2vs0mg"},{"bike_id":"be0d00ce-27d2-40e7-8a7a-2ec3e754ac3a","system_id":"levelo_inurba_marseille","lat":43.32657,"lon":5.40992,"is_reserved":false,"is_disabled":false,"rental_uris":{"android":"levelo://app?vid=be0d00ce-27d2-40e7-8a7a-2ec3e754ac3a","ios":"levelo://app?vid=be0d00ce-27d2-40e7-8a7a-2ec3e754ac3a"},"vehicle_type_id":"4","last_reported":1729757589,"current_range_meters":27200,"station_id":"ce4bhpp2rcd13ifvqhgg","pricing_plan_id":"cebpf4jnsgd1na2vs0mg"},{"bike_id":"2b3d180a-b013-4b3c-ac17-fef6da1587c2","system_id":"levelo_inurba_marseille","lat":43.30521,"lon":5.36712,"is_reserved":false,"is_disabled":false,"rental_uris":{"android":"levelo://app?vid=2b3d180a-b013-4b3c-ac17-fef6da1587c2","ios":"levelo://app?vid=2b3d180a-b013-4b3c-ac17-fef6da1587c2"},"vehicle_type_id":"4","last_reported":1729757589,"current_range_meters":30000,"station_id":"ce4bgrp2rcd13ifvqc9g","pricing_plan_id":"cebpf4jnsgd1na2vs0mg"},{"bike_id":"580e5096-fa37-4f44-a46b-8466554005b3","system_id":"levelo_inurba_marseille","lat":43.32045,"lon":5.41566,"is_reserved":false,"is_disabled":false,"rental_uris":{"android":"levelo://app?vid=580e5096-fa37-4f44-a46b-8466554005b3","ios":"levelo://app?vid=580e5096-fa37-4f44-a46b-8466554005b3"},"vehicle_type_id":"4","last_reported":1729757589,"current_range_meters":26000,"station_id":"ce4bhq92rcd13ifvqhkg","pricing_plan_id":"cebpf4jnsgd1na2vs0mg"},{"bike_id":"0d3c81fa-6a31-4452-b5b1-b7fbe245fca5","system_id":"levelo_inurba_marseille","lat":43.29059,"lon":5.37172,"is_reserved":false,"is_disabled":false,"rental_uris":{"android":"levelo://app?vid=0d3c81fa-6a31-4452-b5b1-b7fbe245fca5","ios":"levelo://app?vid=0d3c81fa-6a31-4452-b5b1-b7fbe245fca5"},"vehicle_type_id":"4","last_reported":1729757589,"current_range_meters":18000,"station_id":"ce4bh5p2rcd13ifvqe4g","pricing_plan_id":"cebpf4jnsgd1na2vs0mg"},{"bike_id":"61ce41c0-c830-4f5f-b326-d71c02bdc8f9","system_id":"levelo_inurba_marseille","lat":43.33721,"lon":5.39183,"is_reserved":false,"is_disabled":false,"rental_uris":{"android":"levelo://app?vid=61ce41c0-c830-4f5f-b326-d71c02bdc8f9","ios":"levelo://app?vid=61ce41c0-c830-4f5f-b326-d71c02bdc8f9"},"vehicle_type_id":"4","last_reported":1729757589,"current_range_meters":37600,"station_id":"ce4bhr92rcd13ifvqhsg","pricing_plan_id":"cebpf4jnsgd1na2vs0mg"},{"bike_id":"53643c73-ebff-4438-9bbc-d1455671aa2b","system_id":"levelo_inurba_marseille","lat":43.32002,"lon":5.38148,"is_reserved":false,"is_disabled":false,"rental_uris":{"android":"levelo://app?vid=53643c73-ebff-4438-9bbc-d1455671aa2b","ios":"levelo://app?vid=53643c73-ebff-4438-9bbc-d1455671aa2b"},"vehicle_type_id":"4","last_reported":1729757589,"current_range_meters":30000,"station_id":"ce4bhr12rcd13ifvqhpg","pricing_plan_id":"cebpf4jnsgd1na2vs0mg"},{"bike_id":"ccdc46be-3359-4fc8-85a3-4029df8711ec","system_id":"levelo_inurba_marseille","lat":43.26685,"lon":5.38274,"is_reserved":false,"is_disabled":false,"rental_uris":{"android":"levelo://app?vid=ccdc46be-3359-4fc8-85a3-4029df8711ec","ios":"levelo://app?vid=ccdc46be-3359-4fc8-85a3-4029df8711ec"},"vehicle_type_id":"4","last_reported":1729757589,"current_range_meters":35200,"station_id":"ce4bhg92rcd13ifvqf90","pricing_plan_id":"cebpf4jnsgd1na2vs0mg"},{"bike_id":"def7af2c-608e-4ee7-bf3d-69f5dfc7577b","system_id":"levelo_inurba_marseille","lat":43.25123,"lon":5.40314,"is_reserved":false,"is_disabled":false,"rental_uris":{"android":"levelo://app?vid=def7af2c-608e-4ee7-bf3d-69f5dfc7577b","ios":"levelo://app?vid=def7af2c-608e-4ee7-bf3d-69f5dfc7577b"},"vehicle_type_id":"4","last_reported":1729757589,"current_range_meters":26000,"station_id":"ce4bhlh2rcd13ifvqgig","pricing_plan_id":"cebpf4jnsgd1na2vs0mg"},{"bike_id":"00a8bd9d-eef3-42e3-9e17-61a6e620d1f8","system_id":"levelo_inurba_marseille","lat":43.33021,"lon":5.39041,"is_reserved":false,"is_disabled":false,"rental_uris":{"android":"levelo://app?vid=00a8bd9d-eef3-42e3-9e17-61a6e620d1f8","ios":"levelo://app?vid=00a8bd9d-eef3-42e3-9e17-61a6e620d1f8"},"vehicle_type_id":"4","last_reported":1729757589,"current_range_meters":38800,"station_id":"ce4bhr92rcd13ifvqhrg","pricing_plan_id":"cebpf4jnsgd1na2vs0mg"},{"bike_id":"cfa22508-ceb7-4555-aa40-dbd6e0ae53c7","system_id":"levelo_inurba_marseille","lat":43.25077,"lon":5.39501,"is_reserved":false,"is_disabled":false,"rental_uris":{"android":"levelo://app?vid=cfa22508-ceb7-4555-aa40-dbd6e0ae53c7","ios":"levelo://app?vid=cfa22508-ceb7-4555-aa40-dbd6e0ae53c7"},"vehicle_type_id":"4","last_reported":1729757589,"current_range_meters":6800,"station_id":"ce4bhm12rcd13ifvqgkg","pricing_plan_id":"cebpf4jnsgd1na2vs0mg"},{"bike_id":"0f261f88-a2a9-4e5c-bdb1-cfc0ed81ef54","system_id":"levelo_inurba_marseille","lat":43.24999,"lon":5.38924,"is_reserved":false,"is_disabled":false,"rental_uris":{"android":"levelo://app?vid=0f261f88-a2a9-4e5c-bdb1-cfc0ed81ef54","ios":"levelo://app?vid=0f261f88-a2a9-4e5c-bdb1-cfc0ed81ef54"},"vehicle_type_id":"4","last_reported":1729757589,"current_range_meters":35200,"station_id":"ce4bhgp2rcd13ifvqfd0","pricing_plan_id":"cebpf4jnsgd1na2vs0mg"},{"bike_id":"40d7d049-8518-4ec4-b0e7-a82d69869ad0","system_id":"levelo_inurba_marseille","lat":43.30278,"lon":5.37704,"is_reserved":false,"is_disabled":false,"rental_uris":{"android":"levelo://app?vid=40d7d049-8518-4ec4-b0e7-a82d69869ad0","ios":"levelo://app?vid=40d7d049-8518-4ec4-b0e7-a82d69869ad0"},"vehicle_type_id":"4","last_reported":1729757589,"current_range_meters":39200,"station_id":"ce4bguh2rcd13ifvqcj0","pricing_plan_id":"cebpf4jnsgd1na2vs0mg"},{"bike_id":"3bd1e45c-77e7-484c-a4cd-42c393daeced","system_id":"levelo_inurba_marseille","lat":43.25927,"lon":5.40902,"is_reserved":false,"is_disabled":false,"rental_uris":{"android":"levelo://app?vid=3bd1e45c-77e7-484c-a4cd-42c393daeced","ios":"levelo://app?vid=3bd1e45c-77e7-484c-a4cd-42c393daeced"},"vehicle_type_id":"4","last_reported":1729757589,"current_range_meters":33600,"station_id":"ce4bhm92rcd13ifvqglg","pricing_plan_id":"cebpf4jnsgd1na2vs0mg"},{"bike_id":"fe92c0ef-c58a-40c0-853a-64f17e6671c0","system_id":"levelo_inurba_marseille","lat":43.31706,"lon":5.37735,"is_reserved":false,"is_disabled":false,"rental_uris":{"android":"levelo://app?vid=fe92c0ef-c58a-40c0-853a-64f17e6671c0","ios":"levelo://app?vid=fe92c0ef-c58a-40c0-853a-64f17e6671c0"},"vehicle_type_id":"4","last_reported":1729757589,"current_range_meters":16000,"station_id":"ce4bgth2rcd13ifvqch0","pricing_plan_id":"cebpf4jnsgd1na2vs0mg"},{"bike_id":"292ae588-7da8-4e37-83a8-3c80924cbc10","system_id":"levelo_inurba_marseille","lat":43.30316,"lon":5.36896,"is_reserved":false,"is_disabled":false,"rental_uris":{"android":"levelo://app?vid=292ae588-7da8-4e37-83a8-3c80924cbc10","ios":"levelo://app?vid=292ae588-7da8-4e37-83a8-3c80924cbc10"},"vehicle_type_id":"4","last_reported":1729757589,"current_range_meters":10000,"station_id":"ce4bgqh2rcd13ifvqc5g","pricing_plan_id":"cebpf4jnsgd1na2vs0mg"},{"bike_id":"b2b9f3d6-a061-4ef3-bcc4-d6af18337c10","system_id":"levelo_inurba_marseille","lat":43.30144,"lon":5.37408,"is_reserved":false,"is_disabled":false,"rental_uris":{"android":"levelo://app?vid=b2b9f3d6-a061-4ef3-bcc4-d6af18337c10","ios":"levelo://app?vid=b2b9f3d6-a061-4ef3-bcc4-d6af18337c10"},"vehicle_type_id":"4","last_reported":1729757589,"current_range_meters":25200,"station_id":"ce4bgs92rcd13ifvqcc0","pricing_plan_id":"cebpf4jnsgd1na2vs0mg"},{"bike_id":"c3e70af7-3f2f-4929-ac75-99c2d70a3d79","system_id":"levelo_inurba_marseille","lat":43.30136,"lon":5.37421,"is_reserved":false,"is_disabled":false,"rental_uris":{"android":"levelo://app?vid=c3e70af7-3f2f-4929-ac75-99c2d70a3d79","ios":"levelo://app?vid=c3e70af7-3f2f-4929-ac75-99c2d70a3d79"},"vehicle_type_id":"4","last_reported":1729757589,"current_range_meters":17200,"station_id":"ce4bgs92rcd13ifvqcc0","pricing_plan_id":"cebpf4jnsgd1na2vs0mg"},{"bike_id":"4b6769f0-9d52-4427-92eb-85214df0463d","system_id":"levelo_inurba_marseille","lat":43.23192,"lon":5.35552,"is_reserved":false,"is_disabled":false,"rental_uris":{"android":"levelo://app?vid=4b6769f0-9d52-4427-92eb-85214df0463d","ios":"levelo://app?vid=4b6769f0-9d52-4427-92eb-85214df0463d"},"vehicle_type_id":"4","last_reported":1729757589,"current_range_meters":16000,"station_id":"ce4bhu92rcd13ifvqi70","pricing_plan_id":"cebpf4jnsgd1na2vs0mg"},{"bike_id":"4ec25af9-2c50-4187-b3b7-1dc66bf6c68a","system_id":"levelo_inurba_marseille","lat":43.28288,"lon":5.40842,"is_reserved":false,"is_disabled":false,"rental_uris":{"android":"levelo://app?vid=4ec25af9-2c50-4187-b3b7-1dc66bf6c68a","ios":"levelo://app?vid=4ec25af9-2c50-4187-b3b7-1dc66bf6c68a"},"vehicle_type_id":"4","last_reported":1729757589,"current_range_meters":8400,"station_id":"","pricing_plan_id":"cebpf4jnsgd1na2vs0mg"},{"bike_id":"c9e98acb-c38f-4440-9218-002d553a6cac","system_id":"levelo_inurba_marseille","lat":43.32534,"lon":5.41449,"is_reserved":false,"is_disabled":false,"rental_uris":{"android":"levelo://app?vid=c9e98acb-c38f-4440-9218-002d553a6cac","ios":"levelo://app?vid=c9e98acb-c38f-4440-9218-002d553a6cac"},"vehicle_type_id":"4","last_reported":1729757589,"current_range_meters":36800,"station_id":"ce4bhq12rcd13ifvqhhg","pricing_plan_id":"cebpf4jnsgd1na2vs0mg"},{"bike_id":"17034fa2-c92b-409c-85c9-b225721a06c2","system_id":"levelo_inurba_marseille","lat":43.29797,"lon":5.40399,"is_reserved":false,"is_disabled":false,"rental_uris":{"android":"levelo://app?vid=17034fa2-c92b-409c-85c9-b225721a06c2","ios":"levelo://app?vid=17034fa2-c92b-409c-85c9-b225721a06c2"},"vehicle_type_id":"4","last_reported":1729757589,"current_range_meters":23200,"station_id":"ce4bh112rcd13ifvqd90","pricing_plan_id":"cebpf4jnsgd1na2vs0mg"},{"bike_id":"91989275-0d1f-4cd9-8078-425599e100f1","system_id":"levelo_inurba_marseille","lat":43.30466,"lon":5.37907,"is_reserved":false,"is_disabled":false,"rental_uris":{"android":"levelo://app?vid=91989275-0d1f-4cd9-8078-425599e100f1","ios":"levelo://app?vid=91989275-0d1f-4cd9-8078-425599e100f1"},"vehicle_type_id":"4","last_reported":1729757589,"current_range_meters":20000,"station_id":"ce4bgup2rcd13ifvqcn0","pricing_plan_id":"cebpf4jnsgd1na2vs0mg"},{"bike_id":"11f4da9f-54d4-4fc3-bb64-30048373bf8c","system_id":"levelo_inurba_marseille","lat":43.2315,"lon":5.43717,"is_reserved":false,"is_disabled":false,"rental_uris":{"android":"levelo://app?vid=11f4da9f-54d4-4fc3-bb64-30048373bf8c","ios":"levelo://app?vid=11f4da9f-54d4-4fc3-bb64-30048373bf8c"},"vehicle_type_id":"4","last_reported":1729757589,"current_range_meters":18000,"station_id":"ce4bhmp2rcd13ifvqgog","pricing_plan_id":"cebpf4jnsgd1na2vs0mg"},{"bike_id":"103ed008-6f4b-4142-8ae0-e6b210d9a427","system_id":"levelo_inurba_marseille","lat":43.22928,"lon":5.35374,"is_reserved":false,"is_disabled":false,"rental_uris":{"android":"levelo://app?vid=103ed008-6f4b-4142-8ae0-e6b210d9a427","ios":"levelo://app?vid=103ed008-6f4b-4142-8ae0-e6b210d9a427"},"vehicle_type_id":"4","last_reported":1729757589,"current_range_meters":11600,"station_id":"cpo3532slgdg3j2ikp40","pricing_plan_id":"cebpf4jnsgd1na2vs0mg"},{"bike_id":"ca5536a6-d4cf-4970-b396-d6337f5fcca0","system_id":"levelo_inurba_marseille","lat":43.33596,"lon":5.41034,"is_reserved":false,"is_disabled":false,"rental_uris":{"android":"levelo://app?vid=ca5536a6-d4cf-4970-b396-d6337f5fcca0","ios":"levelo://app?vid=ca5536a6-d4cf-4970-b396-d6337f5fcca0"},"vehicle_type_id":"4","last_reported":1729757589,"current_range_meters":10800,"station_id":"ce4bhqh2rcd13ifvqhmg","pricing_plan_id":"cebpf4jnsgd1na2vs0mg"},{"bike_id":"4a703aa6-2f3c-47b8-af19-a34ef088c15e","system_id":"levelo_inurba_marseille","lat":43.2894,"lon":5.39622,"is_reserved":false,"is_disabled":false,"rental_uris":{"android":"levelo://app?vid=4a703aa6-2f3c-47b8-af19-a34ef088c15e","ios":"levelo://app?vid=4a703aa6-2f3c-47b8-af19-a34ef088c15e"},"vehicle_type_id":"4","last_reported":1729757589,"current_range_meters":22000,"station_id":"ce4bh3h2rcd13ifvqdn0","pricing_plan_id":"cebpf4jnsgd1na2vs0mg"},{"bike_id":"dded596a-f90c-4c39-88ca-17060e5fd4d0","system_id":"levelo_inurba_marseille","lat":43.25933,"lon":5.40901,"is_reserved":false,"is_disabled":false,"rental_uris":{"android":"levelo://app?vid=dded596a-f90c-4c39-88ca-17060e5fd4d0","ios":"levelo://app?vid=dded596a-f90c-4c39-88ca-17060e5fd4d0"},"vehicle_type_id":"4","last_reported":1729757589,"current_range_meters":8000,"station_id":"ce4bhm92rcd13ifvqglg","pricing_plan_id":"cebpf4jnsgd1na2vs0mg"},{"bike_id":"78cd2e9b-6801-4bef-96b5-e7a5c8c2e050","system_id":"levelo_inurba_marseille","lat":43.24381,"lon":5.37058,"is_reserved":false,"is_disabled":false,"rental_uris":{"android":"levelo://app?vid=78cd2e9b-6801-4bef-96b5-e7a5c8c2e050","ios":"levelo://app?vid=78cd2e9b-6801-4bef-96b5-e7a5c8c2e050"},"vehicle_type_id":"4","last_reported":1729757589,"current_range_meters":35200,"station_id":"ce4bhhh2rcd13ifvqfk0","pricing_plan_id":"cebpf4jnsgd1na2vs0mg"},{"bike_id":"e93d0849-6889-4c3b-b756-5d2c77aee686","system_id":"levelo_inurba_marseille","lat":43.27988,"lon":5.4166,"is_reserved":false,"is_disabled":false,"rental_uris":{"android":"levelo://app?vid=e93d0849-6889-4c3b-b756-5d2c77aee686","ios":"levelo://app?vid=e93d0849-6889-4c3b-b756-5d2c77aee686"},"vehicle_type_id":"4","last_reported":1729757589,"current_range_meters":38400,"station_id":"ce4bho12rcd13ifvqh1g","pricing_plan_id":"cebpf4jnsgd1na2vs0mg"},{"bike_id":"40aef2b4-8e15-4951-ac8c-4ec26d41b1e7","system_id":"levelo_inurba_marseille","lat":43.26947,"lon":5.3863,"is_reserved":false,"is_disabled":false,"rental_uris":{"android":"levelo://app?vid=40aef2b4-8e15-4951-ac8c-4ec26d41b1e7","ios":"levelo://app?vid=40aef2b4-8e15-4951-ac8c-4ec26d41b1e7"},"vehicle_type_id":"4","last_reported":1729757589,"current_range_meters":37600,"station_id":"ce4bhh92rcd13ifvqfh0","pricing_plan_id":"cebpf4jnsgd1na2vs0mg"},{"bike_id":"ad297b4a-0149-46a8-9574-4f0bf0a867b7","system_id":"levelo_inurba_marseille","lat":43.26954,"lon":5.38632,"is_reserved":false,"is_disabled":false,"rental_uris":{"android":"levelo://app?vid=ad297b4a-0149-46a8-9574-4f0bf0a867b7","ios":"levelo://app?vid=ad297b4a-0149-46a8-9574-4f0bf0a867b7"},"vehicle_type_id":"4","last_reported":1729757589,"current_range_meters":22000,"station_id":"ce4bhh92rcd13ifvqfh0","pricing_plan_id":"cebpf4jnsgd1na2vs0mg"},{"bike_id":"54b88a6a-89cd-4068-ae20-aab1b2e58c86","system_id":"levelo_inurba_marseille","lat":43.26679,"lon":5.38271,"is_reserved":false,"is_disabled":false,"rental_uris":{"android":"levelo://app?vid=54b88a6a-89cd-4068-ae20-aab1b2e58c86","ios":"levelo://app?vid=54b88a6a-89cd-4068-ae20-aab1b2e58c86"},"vehicle_type_id":"4","last_reported":1729757589,"current_range_meters":10800,"station_id":"ce4bhg92rcd13ifvqf90","pricing_plan_id":"cebpf4jnsgd1na2vs0mg"},{"bike_id":"53c31639-0c10-4eec-929c-a4ad5bb37ce6","system_id":"levelo_inurba_marseille","lat":43.30537,"lon":5.36701,"is_reserved":false,"is_disabled":false,"rental_uris":{"android":"levelo://app?vid=53c31639-0c10-4eec-929c-a4ad5bb37ce6","ios":"levelo://app?vid=53c31639-0c10-4eec-929c-a4ad5bb37ce6"},"vehicle_type_id":"4","last_reported":1729757589,"current_range_meters":37600,"station_id":"ce4bgrp2rcd13ifvqc9g","pricing_plan_id":"cebpf4jnsgd1na2vs0mg"},{"bike_id":"0bc90dc2-cf8c-457e-a6aa-9b91de95f992","system_id":"levelo_inurba_marseille","lat":43.22783,"lon":5.41575,"is_reserved":false,"is_disabled":false,"rental_uris":{"android":"levelo://app?vid=0bc90dc2-cf8c-457e-a6aa-9b91de95f992","ios":"levelo://app?vid=0bc90dc2-cf8c-457e-a6aa-9b91de95f992"},"vehicle_type_id":"4","last_reported":1729757589,"current_range_meters":33600,"station_id":"","pricing_plan_id":"cebpf4jnsgd1na2vs0mg"},{"bike_id":"65d0e1cb-03f2-4647-a94d-794b8001f709","system_id":"levelo_inurba_marseille","lat":43.30465,"lon":5.37912,"is_reserved":false,"is_disabled":false,"rental_uris":{"android":"levelo://app?vid=65d0e1cb-03f2-4647-a94d-794b8001f709","ios":"levelo://app?vid=65d0e1cb-03f2-4647-a94d-794b8001f709"},"vehicle_type_id":"4","last_reported":1729757589,"current_range_meters":31200,"station_id":"ce4bgup2rcd13ifvqco0","pricing_plan_id":"cebpf4jnsgd1na2vs0mg"},{"bike_id":"adb692e3-757f-448e-88e2-08bb58fbf765","system_id":"levelo_inurba_marseille","lat":43.304749,"lon":5.37889,"is_reserved":false,"is_disabled":false,"rental_uris":{"android":"levelo://app?vid=adb692e3-757f-448e-88e2-08bb58fbf765","ios":"levelo://app?vid=adb692e3-757f-448e-88e2-08bb58fbf765"},"vehicle_type_id":"4","last_reported":1729757589,"current_range_meters":16800,"station_id":"ce4bgup2rcd13ifvqcn0","pricing_plan_id":"cebpf4jnsgd1na2vs0mg"},{"bike_id":"af38d5e4-0e39-4374-845f-f1a25b139460","system_id":"levelo_inurba_marseille","lat":43.30186,"lon":5.36616,"is_reserved":false,"is_disabled":false,"rental_uris":{"android":"levelo://app?vid=af38d5e4-0e39-4374-845f-f1a25b139460","ios":"levelo://app?vid=af38d5e4-0e39-4374-845f-f1a25b139460"},"vehicle_type_id":"4","last_reported":1729757589,"current_range_meters":31200,"station_id":"ce4bgrh2rcd13ifvqc8g","pricing_plan_id":"cebpf4jnsgd1na2vs0mg"},{"bike_id":"bb2a666e-d4fd-434c-9930-bd52d9e92c1d","system_id":"levelo_inurba_marseille","lat":43.2594,"lon":5.40904,"is_reserved":false,"is_disabled":false,"rental_uris":{"android":"levelo://app?vid=bb2a666e-d4fd-434c-9930-bd52d9e92c1d","ios":"levelo://app?vid=bb2a666e-d4fd-434c-9930-bd52d9e92c1d"},"vehicle_type_id":"4","last_reported":1729757589,"current_range_meters":37600,"station_id":"ce4bhm92rcd13ifvqglg","pricing_plan_id":"cebpf4jnsgd1na2vs0mg"},{"bike_id":"5cef0e88-3c6f-425f-8df9-88c319c3cec6","system_id":"levelo_inurba_marseille","lat":43.293284,"lon":5.371751,"is_reserved":false,"is_disabled":false,"rental_uris":{"android":"levelo://app?vid=5cef0e88-3c6f-425f-8df9-88c319c3cec6","ios":"levelo://app?vid=5cef0e88-3c6f-425f-8df9-88c319c3cec6"},"vehicle_type_id":"4","last_reported":1729757589,"current_range_meters":5600,"station_id":"ce4bgh92rcd13ifvqb40","pricing_plan_id":"cebpf4jnsgd1na2vs0mg"},{"bike_id":"9050aa27-210e-4a00-99a6-53ce385deffc","system_id":"levelo_inurba_marseille","lat":43.29624,"lon":5.37151,"is_reserved":false,"is_disabled":false,"rental_uris":{"android":"levelo://app?vid=9050aa27-210e-4a00-99a6-53ce385deffc","ios":"levelo://app?vid=9050aa27-210e-4a00-99a6-53ce385deffc"},"vehicle_type_id":"4","last_reported":1729757589,"current_range_meters":28800,"station_id":"ce4bgnh2rcd13ifvqc0g","pricing_plan_id":"cebpf4jnsgd1na2vs0mg"},{"bike_id":"a0bfcec4-1019-4422-bc30-2e46cb48cb4e","system_id":"levelo_inurba_marseille","lat":43.33753,"lon":5.37433,"is_reserved":false,"is_disabled":false,"rental_uris":{"android":"levelo://app?vid=a0bfcec4-1019-4422-bc30-2e46cb48cb4e","ios":"levelo://app?vid=a0bfcec4-1019-4422-bc30-2e46cb48cb4e"},"vehicle_type_id":"4","last_reported":1729757589,"current_range_meters":24000,"station_id":"","pricing_plan_id":"cebpf4jnsgd1na2vs0mg"},{"bike_id":"1073f825-e44c-4e4a-b9cc-76b207edc148","system_id":"levelo_inurba_marseille","lat":43.25934,"lon":5.40909,"is_reserved":false,"is_disabled":false,"rental_uris":{"android":"levelo://app?vid=1073f825-e44c-4e4a-b9cc-76b207edc148","ios":"levelo://app?vid=1073f825-e44c-4e4a-b9cc-76b207edc148"},"vehicle_type_id":"4","last_reported":1729757589,"current_range_meters":30400,"station_id":"ce4bhm92rcd13ifvqglg","pricing_plan_id":"cebpf4jnsgd1na2vs0mg"},{"bike_id":"2b8730be-ef37-4431-9d19-d02d441014a3","system_id":"levelo_inurba_marseille","lat":43.25929,"lon":5.409,"is_reserved":false,"is_disabled":false,"rental_uris":{"android":"levelo://app?vid=2b8730be-ef37-4431-9d19-d02d441014a3","ios":"levelo://app?vid=2b8730be-ef37-4431-9d19-d02d441014a3"},"vehicle_type_id":"4","last_reported":1729757589,"current_range_meters":29600,"station_id":"ce4bhm92rcd13ifvqglg","pricing_plan_id":"cebpf4jnsgd1na2vs0mg"},{"bike_id":"96899c8c-0ef9-4a29-be88-9667e7a7b523","system_id":"levelo_inurba_marseille","lat":43.24387,"lon":5.37064,"is_reserved":false,"is_disabled":false,"rental_uris":{"android":"levelo://app?vid=96899c8c-0ef9-4a29-be88-9667e7a7b523","ios":"levelo://app?vid=96899c8c-0ef9-4a29-be88-9667e7a7b523"},"vehicle_type_id":"4","last_reported":1729757589,"current_range_meters":38800,"station_id":"ce4bhhh2rcd13ifvqfk0","pricing_plan_id":"cebpf4jnsgd1na2vs0mg"},{"bike_id":"9cc86360-5eab-45ae-a458-952e8a91e43e","system_id":"levelo_inurba_marseille","lat":43.22933,"lon":5.35379,"is_reserved":false,"is_disabled":false,"rental_uris":{"android":"levelo://app?vid=9cc86360-5eab-45ae-a458-952e8a91e43e","ios":"levelo://app?vid=9cc86360-5eab-45ae-a458-952e8a91e43e"},"vehicle_type_id":"4","last_reported":1729757589,"current_range_meters":17600,"station_id":"cpo3532slgdg3j2ikp40","pricing_plan_id":"cebpf4jnsgd1na2vs0mg"},{"bike_id":"a78ae7ee-254c-4b4c-89df-747798ee113f","system_id":"levelo_inurba_marseille","lat":43.27973,"lon":5.38719,"is_reserved":false,"is_disabled":false,"rental_uris":{"android":"levelo://app?vid=a78ae7ee-254c-4b4c-89df-747798ee113f","ios":"levelo://app?vid=a78ae7ee-254c-4b4c-89df-747798ee113f"},"vehicle_type_id":"4","last_reported":1729757589,"current_range_meters":37600,"station_id":"ce4bhg12rcd13ifvqf80","pricing_plan_id":"cebpf4jnsgd1na2vs0mg"},{"bike_id":"e58254e7-ba4e-4d9d-8fff-364ee51af42e","system_id":"levelo_inurba_marseille","lat":43.23154,"lon":5.43706,"is_reserved":false,"is_disabled":false,"rental_uris":{"android":"levelo://app?vid=e58254e7-ba4e-4d9d-8fff-364ee51af42e","ios":"levelo://app?vid=e58254e7-ba4e-4d9d-8fff-364ee51af42e"},"vehicle_type_id":"4","last_reported":1729757589,"current_range_meters":4800,"station_id":"ce4bhmp2rcd13ifvqgog","pricing_plan_id":"cebpf4jnsgd1na2vs0mg"},{"bike_id":"8b900a92-59b7-489f-8bcb-cd0143bc2a5d","system_id":"levelo_inurba_marseille","lat":43.29303,"lon":5.37174,"is_reserved":false,"is_disabled":false,"rental_uris":{"android":"levelo://app?vid=8b900a92-59b7-489f-8bcb-cd0143bc2a5d","ios":"levelo://app?vid=8b900a92-59b7-489f-8bcb-cd0143bc2a5d"},"vehicle_type_id":"4","last_reported":1729757589,"current_range_meters":27200,"station_id":"ce4bgh92rcd13ifvqb40","pricing_plan_id":"cebpf4jnsgd1na2vs0mg"},{"bike_id":"37ed72e3-012c-4272-a47f-b2fce42718ff","system_id":"levelo_inurba_marseille","lat":43.264892,"lon":5.395375,"is_reserved":false,"is_disabled":false,"rental_uris":{"android":"levelo://app?vid=37ed72e3-012c-4272-a47f-b2fce42718ff","ios":"levelo://app?vid=37ed72e3-012c-4272-a47f-b2fce42718ff"},"vehicle_type_id":"4","last_reported":1729757589,"current_range_meters":23200,"station_id":"ce4bhi12rcd13ifvqfq0","pricing_plan_id":"cebpf4jnsgd1na2vs0mg"},{"bike_id":"2ec9e0b4-e0e2-4964-addd-52427af08b8d","system_id":"levelo_inurba_marseille","lat":43.31353,"lon":5.36724,"is_reserved":false,"is_disabled":false,"rental_uris":{"android":"levelo://app?vid=2ec9e0b4-e0e2-4964-addd-52427af08b8d","ios":"levelo://app?vid=2ec9e0b4-e0e2-4964-addd-52427af08b8d"},"vehicle_type_id":"4","last_reported":1729757589,"current_range_meters":36000,"station_id":"ce4bgr92rcd13ifvqc6g","pricing_plan_id":"cebpf4jnsgd1na2vs0mg"},{"bike_id":"e8d0ac63-9341-4151-adb7-1e0c24619ff3","system_id":"levelo_inurba_marseille","lat":43.33612,"lon":5.41024,"is_reserved":false,"is_disabled":false,"rental_uris":{"android":"levelo://app?vid=e8d0ac63-9341-4151-adb7-1e0c24619ff3","ios":"levelo://app?vid=e8d0ac63-9341-4151-adb7-1e0c24619ff3"},"vehicle_type_id":"4","last_reported":1729757589,"current_range_meters":38800,"station_id":"ce4bhqh2rcd13ifvqhmg","pricing_plan_id":"cebpf4jnsgd1na2vs0mg"},{"bike_id":"cfcebfa7-3f59-4d32-a8f1-45e59f6e2f26","system_id":"levelo_inurba_marseille","lat":43.22932,"lon":5.35378,"is_reserved":false,"is_disabled":false,"rental_uris":{"android":"levelo://app?vid=cfcebfa7-3f59-4d32-a8f1-45e59f6e2f26","ios":"levelo://app?vid=cfcebfa7-3f59-4d32-a8f1-45e59f6e2f26"},"vehicle_type_id":"4","last_reported":1729757589,"current_range_meters":32400,"station_id":"cpo3532slgdg3j2ikp40","pricing_plan_id":"cebpf4jnsgd1na2vs0mg"},{"bike_id":"3e381e9b-65a4-436a-a571-b4ba1ee13663","system_id":"levelo_inurba_marseille","lat":43.3248,"lon":5.36563,"is_reserved":false,"is_disabled":false,"rental_uris":{"android":"levelo://app?vid=3e381e9b-65a4-436a-a571-b4ba1ee13663","ios":"levelo://app?vid=3e381e9b-65a4-436a-a571-b4ba1ee13663"},"vehicle_type_id":"4","last_reported":1729757589,"current_range_meters":16800,"station_id":"ce4bhs12rcd13ifvqhvg","pricing_plan_id":"cebpf4jnsgd1na2vs0mg"},{"bike_id":"a3dcf7ee-59f1-4f53-936b-77f32b59962d","system_id":"levelo_inurba_marseille","lat":43.27497,"lon":5.42451,"is_reserved":false,"is_disabled":false,"rental_uris":{"android":"levelo://app?vid=a3dcf7ee-59f1-4f53-936b-77f32b59962d","ios":"levelo://app?vid=a3dcf7ee-59f1-4f53-936b-77f32b59962d"},"vehicle_type_id":"4","last_reported":1729757589,"current_range_meters":38800,"station_id":"ce4bhn92rcd13ifvqgrg","pricing_plan_id":"cebpf4jnsgd1na2vs0mg"},{"bike_id":"3a526fc6-5f14-429c-8829-287dc38ef285","system_id":"levelo_inurba_marseille","lat":43.22931,"lon":5.35374,"is_reserved":false,"is_disabled":false,"rental_uris":{"android":"levelo://app?vid=3a526fc6-5f14-429c-8829-287dc38ef285","ios":"levelo://app?vid=3a526fc6-5f14-429c-8829-287dc38ef285"},"vehicle_type_id":"4","last_reported":1729757589,"current_range_meters":32400,"station_id":"cpo3532slgdg3j2ikp40","pricing_plan_id":"cebpf4jnsgd1na2vs0mg"},{"bike_id":"50d120a1-10db-46f7-af46-f5262df90342","system_id":"levelo_inurba_marseille","lat":43.24181,"lon":5.39718,"is_reserved":false,"is_disabled":false,"rental_uris":{"android":"levelo://app?vid=50d120a1-10db-46f7-af46-f5262df90342","ios":"levelo://app?vid=50d120a1-10db-46f7-af46-f5262df90342"},"vehicle_type_id":"4","last_reported":1729757589,"current_range_meters":30400,"station_id":"ce4bhn12rcd13ifvqgpg","pricing_plan_id":"cebpf4jnsgd1na2vs0mg"},{"bike_id":"a07dffb7-f4f8-47f4-8f1c-a7a5beafe8fa","system_id":"levelo_inurba_marseille","lat":43.24385,"lon":5.37052,"is_reserved":false,"is_disabled":false,"rental_uris":{"android":"levelo://app?vid=a07dffb7-f4f8-47f4-8f1c-a7a5beafe8fa","ios":"levelo://app?vid=a07dffb7-f4f8-47f4-8f1c-a7a5beafe8fa"},"vehicle_type_id":"4","last_reported":1729757589,"current_range_meters":12400,"station_id":"ce4bhhh2rcd13ifvqfk0","pricing_plan_id":"cebpf4jnsgd1na2vs0mg"},{"bike_id":"ef51127b-730a-430f-809f-0982d638f925","system_id":"levelo_inurba_marseille","lat":43.30439,"lon":5.38894,"is_reserved":false,"is_disabled":false,"rental_uris":{"android":"levelo://app?vid=ef51127b-730a-430f-809f-0982d638f925","ios":"levelo://app?vid=ef51127b-730a-430f-809f-0982d638f925"},"vehicle_type_id":"4","last_reported":1729757589,"current_range_meters":19200,"station_id":"ce4bgk12rcd13ifvqbi0","pricing_plan_id":"cebpf4jnsgd1na2vs0mg"},{"bike_id":"365a5e76-e012-4983-b8a9-1a07480bde83","system_id":"levelo_inurba_marseille","lat":43.23201,"lon":5.35546,"is_reserved":false,"is_disabled":false,"rental_uris":{"android":"levelo://app?vid=365a5e76-e012-4983-b8a9-1a07480bde83","ios":"levelo://app?vid=365a5e76-e012-4983-b8a9-1a07480bde83"},"vehicle_type_id":"4","last_reported":1729757589,"current_range_meters":39200,"station_id":"ce4bhu92rcd13ifvqi70","pricing_plan_id":"cebpf4jnsgd1na2vs0mg"},{"bike_id":"6238641e-c4b1-47db-8e1c-3446ea1a80b0","system_id":"levelo_inurba_marseille","lat":43.30558,"lon":5.36541,"is_reserved":false,"is_disabled":false,"rental_uris":{"android":"levelo://app?vid=6238641e-c4b1-47db-8e1c-3446ea1a80b0","ios":"levelo://app?vid=6238641e-c4b1-47db-8e1c-3446ea1a80b0"},"vehicle_type_id":"4","last_reported":1729757589,"current_range_meters":33600,"station_id":"ce4bgs12rcd13ifvqcag","pricing_plan_id":"cebpf4jnsgd1na2vs0mg"},{"bike_id":"c0a2c481-fabb-4e11-a000-2c2c1e1749fa","system_id":"levelo_inurba_marseille","lat":43.22929,"lon":5.35375,"is_reserved":false,"is_disabled":false,"rental_uris":{"android":"levelo://app?vid=c0a2c481-fabb-4e11-a000-2c2c1e1749fa","ios":"levelo://app?vid=c0a2c481-fabb-4e11-a000-2c2c1e1749fa"},"vehicle_type_id":"4","last_reported":1729757589,"current_range_meters":18800,"station_id":"cpo3532slgdg3j2ikp40","pricing_plan_id":"cebpf4jnsgd1na2vs0mg"},{"bike_id":"dc411e3e-cc9a-4ce4-8132-7a80b983de2d","system_id":"levelo_inurba_marseille","lat":43.26498,"lon":5.39538,"is_reserved":false,"is_disabled":false,"rental_uris":{"android":"levelo://app?vid=dc411e3e-cc9a-4ce4-8132-7a80b983de2d","ios":"levelo://app?vid=dc411e3e-cc9a-4ce4-8132-7a80b983de2d"},"vehicle_type_id":"4","last_reported":1729757589,"current_range_meters":38800,"station_id":"ce4bhi12rcd13ifvqfq0","pricing_plan_id":"cebpf4jnsgd1na2vs0mg"},{"bike_id":"0b9e4057-ab6b-4f8d-b677-caa270a65354","system_id":"levelo_inurba_marseille","lat":43.34139,"lon":5.40903,"is_reserved":false,"is_disabled":false,"rental_uris":{"android":"levelo://app?vid=0b9e4057-ab6b-4f8d-b677-caa270a65354","ios":"levelo://app?vid=0b9e4057-ab6b-4f8d-b677-caa270a65354"},"vehicle_type_id":"4","last_reported":1729757589,"current_range_meters":32400,"station_id":"ce4bhqh2rcd13ifvqhlg","pricing_plan_id":"cebpf4jnsgd1na2vs0mg"},{"bike_id":"3dc2eb7e-15a4-47fb-81be-d850bbd51ccf","system_id":"levelo_inurba_marseille","lat":43.337444,"lon":5.374475,"is_reserved":false,"is_disabled":false,"rental_uris":{"android":"levelo://app?vid=3dc2eb7e-15a4-47fb-81be-d850bbd51ccf","ios":"levelo://app?vid=3dc2eb7e-15a4-47fb-81be-d850bbd51ccf"},"vehicle_type_id":"4","last_reported":1729757589,"current_range_meters":38800,"station_id":"","pricing_plan_id":"cebpf4jnsgd1na2vs0mg"},{"bike_id":"be1eb102-cd99-4a7e-9c6f-01b9897ec876","system_id":"levelo_inurba_marseille","lat":43.28396,"lon":5.37519,"is_reserved":false,"is_disabled":false,"rental_uris":{"android":"levelo://app?vid=be1eb102-cd99-4a7e-9c6f-01b9897ec876","ios":"levelo://app?vid=be1eb102-cd99-4a7e-9c6f-01b9897ec876"},"vehicle_type_id":"4","last_reported":1729757589,"current_range_meters":26800,"station_id":"ce4bh412rcd13ifvqds0","pricing_plan_id":"cebpf4jnsgd1na2vs0mg"},{"bike_id":"3d79d8c7-210c-438d-beb7-1aefc7439ccc","system_id":"levelo_inurba_marseille","lat":43.29719,"lon":5.3771,"is_reserved":false,"is_disabled":false,"rental_uris":{"android":"levelo://app?vid=3d79d8c7-210c-438d-beb7-1aefc7439ccc","ios":"levelo://app?vid=3d79d8c7-210c-438d-beb7-1aefc7439ccc"},"vehicle_type_id":"4","last_reported":1729757589,"current_range_meters":33200,"station_id":"ce4bgkh2rcd13ifvqbl0","pricing_plan_id":"cebpf4jnsgd1na2vs0mg"},{"bike_id":"44498722-3ba7-41ba-bf9c-247f3bde6450","system_id":"levelo_inurba_marseille","lat":43.299765,"lon":5.371823,"is_reserved":false,"is_disabled":false,"rental_uris":{"android":"levelo://app?vid=44498722-3ba7-41ba-bf9c-247f3bde6450","ios":"levelo://app?vid=44498722-3ba7-41ba-bf9c-247f3bde6450"},"vehicle_type_id":"4","last_reported":1729757589,"current_range_meters":38400,"station_id":"ce4bgr92rcd13ifvqc7g","pricing_plan_id":"cebpf4jnsgd1na2vs0mg"},{"bike_id":"391db758-31b7-472c-a887-7b1d43668e66","system_id":"levelo_inurba_marseille","lat":43.27965,"lon":5.38732,"is_reserved":false,"is_disabled":false,"rental_uris":{"android":"levelo://app?vid=391db758-31b7-472c-a887-7b1d43668e66","ios":"levelo://app?vid=391db758-31b7-472c-a887-7b1d43668e66"},"vehicle_type_id":"4","last_reported":1729757589,"current_range_meters":9200,"station_id":"ce4bhg12rcd13ifvqf80","pricing_plan_id":"cebpf4jnsgd1na2vs0mg"},{"bike_id":"6ae03549-5478-4731-b9e3-9ceeba8b2934","system_id":"levelo_inurba_marseille","lat":43.32366,"lon":5.38882,"is_reserved":false,"is_disabled":false,"rental_uris":{"android":"levelo://app?vid=6ae03549-5478-4731-b9e3-9ceeba8b2934","ios":"levelo://app?vid=6ae03549-5478-4731-b9e3-9ceeba8b2934"},"vehicle_type_id":"4","last_reported":1729757589,"current_range_meters":22400,"station_id":"ce4bhqp2rcd13ifvqhog","pricing_plan_id":"cebpf4jnsgd1na2vs0mg"},{"bike_id":"0b09b582-0ee7-4ddb-9854-87e85e7391b2","system_id":"levelo_inurba_marseille","lat":43.29585,"lon":5.36743,"is_reserved":false,"is_disabled":false,"rental_uris":{"android":"levelo://app?vid=0b09b582-0ee7-4ddb-9854-87e85e7391b2","ios":"levelo://app?vid=0b09b582-0ee7-4ddb-9854-87e85e7391b2"},"vehicle_type_id":"4","last_reported":1729757589,"current_range_meters":38800,"station_id":"ce4bgph2rcd13ifvqc2g","pricing_plan_id":"cebpf4jnsgd1na2vs0mg"},{"bike_id":"9bb2be0f-78e5-4e25-a5ae-9623fa90c53b","system_id":"levelo_inurba_marseille","lat":43.251156,"lon":5.40313,"is_reserved":false,"is_disabled":false,"rental_uris":{"android":"levelo://app?vid=9bb2be0f-78e5-4e25-a5ae-9623fa90c53b","ios":"levelo://app?vid=9bb2be0f-78e5-4e25-a5ae-9623fa90c53b"},"vehicle_type_id":"4","last_reported":1729757589,"current_range_meters":16400,"station_id":"ce4bhhp2rcd13ifvqfm0","pricing_plan_id":"cebpf4jnsgd1na2vs0mg"},{"bike_id":"10ed8c7b-0b46-4899-be3c-72844b8799cd","system_id":"levelo_inurba_marseille","lat":43.30152,"lon":5.38087,"is_reserved":false,"is_disabled":false,"rental_uris":{"android":"levelo://app?vid=10ed8c7b-0b46-4899-be3c-72844b8799cd","ios":"levelo://app?vid=10ed8c7b-0b46-4899-be3c-72844b8799cd"},"vehicle_type_id":"4","last_reported":1729757589,"current_range_meters":25200,"station_id":"ce4bgjp2rcd13ifvqbh0","pricing_plan_id":"cebpf4jnsgd1na2vs0mg"},{"bike_id":"8cd56846-8f4f-4fb3-b578-5be6d2397739","system_id":"levelo_inurba_marseille","lat":43.30138,"lon":5.38026,"is_reserved":false,"is_disabled":false,"rental_uris":{"android":"levelo://app?vid=8cd56846-8f4f-4fb3-b578-5be6d2397739","ios":"levelo://app?vid=8cd56846-8f4f-4fb3-b578-5be6d2397739"},"vehicle_type_id":"4","last_reported":1729757589,"current_range_meters":33200,"station_id":"ce4bh0h2rcd13ifvqd50","pricing_plan_id":"cebpf4jnsgd1na2vs0mg"},{"bike_id":"1d180020-2774-494a-9712-55fe63b19d77","system_id":"levelo_inurba_marseille","lat":43.25937,"lon":5.40897,"is_reserved":false,"is_disabled":false,"rental_uris":{"android":"levelo://app?vid=1d180020-2774-494a-9712-55fe63b19d77","ios":"levelo://app?vid=1d180020-2774-494a-9712-55fe63b19d77"},"vehicle_type_id":"4","last_reported":1729757589,"current_range_meters":14000,"station_id":"ce4bhm92rcd13ifvqglg","pricing_plan_id":"cebpf4jnsgd1na2vs0mg"},{"bike_id":"2b8263e0-7230-429e-ad59-46fe84792315","system_id":"levelo_inurba_marseille","lat":43.30468,"lon":5.37905,"is_reserved":false,"is_disabled":false,"rental_uris":{"android":"levelo://app?vid=2b8263e0-7230-429e-ad59-46fe84792315","ios":"levelo://app?vid=2b8263e0-7230-429e-ad59-46fe84792315"},"vehicle_type_id":"4","last_reported":1729757589,"current_range_meters":38000,"station_id":"ce4bgup2rcd13ifvqcn0","pricing_plan_id":"cebpf4jnsgd1na2vs0mg"},{"bike_id":"f7049507-45c2-41d7-9262-0fb171be7c82","system_id":"levelo_inurba_marseille","lat":43.3249,"lon":5.36564,"is_reserved":false,"is_disabled":false,"rental_uris":{"android":"levelo://app?vid=f7049507-45c2-41d7-9262-0fb171be7c82","ios":"levelo://app?vid=f7049507-45c2-41d7-9262-0fb171be7c82"},"vehicle_type_id":"4","last_reported":1729757589,"current_range_meters":8000,"station_id":"ce4bhs12rcd13ifvqhvg","pricing_plan_id":"cebpf4jnsgd1na2vs0mg"},{"bike_id":"abfd30f5-95b6-4cac-a3a1-1eaa2ce2d044","system_id":"levelo_inurba_marseille","lat":43.33604,"lon":5.41029,"is_reserved":false,"is_disabled":false,"rental_uris":{"android":"levelo://app?vid=abfd30f5-95b6-4cac-a3a1-1eaa2ce2d044","ios":"levelo://app?vid=abfd30f5-95b6-4cac-a3a1-1eaa2ce2d044"},"vehicle_type_id":"4","last_reported":1729757589,"current_range_meters":30800,"station_id":"ce4bhqh2rcd13ifvqhmg","pricing_plan_id":"cebpf4jnsgd1na2vs0mg"},{"bike_id":"bef1f06b-12df-46cc-ab59-a6fed6408ed9","system_id":"levelo_inurba_marseille","lat":43.32536,"lon":5.41445,"is_reserved":false,"is_disabled":false,"rental_uris":{"android":"levelo://app?vid=bef1f06b-12df-46cc-ab59-a6fed6408ed9","ios":"levelo://app?vid=bef1f06b-12df-46cc-ab59-a6fed6408ed9"},"vehicle_type_id":"4","last_reported":1729757589,"current_range_meters":16800,"station_id":"ce4bhq12rcd13ifvqhhg","pricing_plan_id":"cebpf4jnsgd1na2vs0mg"},{"bike_id":"6f2010c4-5e2d-4215-a353-769403543d7f","system_id":"levelo_inurba_marseille","lat":43.30464,"lon":5.37911,"is_reserved":false,"is_disabled":false,"rental_uris":{"android":"levelo://app?vid=6f2010c4-5e2d-4215-a353-769403543d7f","ios":"levelo://app?vid=6f2010c4-5e2d-4215-a353-769403543d7f"},"vehicle_type_id":"4","last_reported":1729757589,"current_range_meters":16000,"station_id":"ce4bgup2rcd13ifvqcn0","pricing_plan_id":"cebpf4jnsgd1na2vs0mg"},{"bike_id":"41605f85-731a-4250-9af2-c7b238256270","system_id":"levelo_inurba_marseille","lat":43.279379,"lon":5.410405,"is_reserved":false,"is_disabled":false,"rental_uris":{"android":"levelo://app?vid=41605f85-731a-4250-9af2-c7b238256270","ios":"levelo://app?vid=41605f85-731a-4250-9af2-c7b238256270"},"vehicle_type_id":"4","last_reported":1729757589,"current_range_meters":34000,"station_id":"ce4bhnp2rcd13ifvqh0g","pricing_plan_id":"cebpf4jnsgd1na2vs0mg"},{"bike_id":"e45eab98-32ce-4b22-86cc-8f84373556ec","system_id":"levelo_inurba_marseille","lat":43.30902,"lon":5.36854,"is_reserved":false,"is_disabled":false,"rental_uris":{"android":"levelo://app?vid=e45eab98-32ce-4b22-86cc-8f84373556ec","ios":"levelo://app?vid=e45eab98-32ce-4b22-86cc-8f84373556ec"},"vehicle_type_id":"4","last_reported":1729757589,"current_range_meters":36800,"station_id":"ce4bgn92rcd13ifvqbvg","pricing_plan_id":"cebpf4jnsgd1na2vs0mg"},{"bike_id":"2c4a684a-b69b-4a59-9f8f-3e61716fa58f","system_id":"levelo_inurba_marseille","lat":43.30544,"lon":5.36543,"is_reserved":false,"is_disabled":false,"rental_uris":{"android":"levelo://app?vid=2c4a684a-b69b-4a59-9f8f-3e61716fa58f","ios":"levelo://app?vid=2c4a684a-b69b-4a59-9f8f-3e61716fa58f"},"vehicle_type_id":"4","last_reported":1729757589,"current_range_meters":24400,"station_id":"ce4bgs12rcd13ifvqcag","pricing_plan_id":"cebpf4jnsgd1na2vs0mg"},{"bike_id":"049e6b8b-6b24-416d-ada9-4a21fd898aad","system_id":"levelo_inurba_marseille","lat":43.25934,"lon":5.40913,"is_reserved":false,"is_disabled":false,"rental_uris":{"android":"levelo://app?vid=049e6b8b-6b24-416d-ada9-4a21fd898aad","ios":"levelo://app?vid=049e6b8b-6b24-416d-ada9-4a21fd898aad"},"vehicle_type_id":"4","last_reported":1729757589,"current_range_meters":27200,"station_id":"ce4bhm92rcd13ifvqglg","pricing_plan_id":"cebpf4jnsgd1na2vs0mg"},{"bike_id":"3a65809e-0726-4de3-a84e-1732083512dc","system_id":"levelo_inurba_marseille","lat":43.29622,"lon":5.37151,"is_reserved":false,"is_disabled":false,"rental_uris":{"android":"levelo://app?vid=3a65809e-0726-4de3-a84e-1732083512dc","ios":"levelo://app?vid=3a65809e-0726-4de3-a84e-1732083512dc"},"vehicle_type_id":"4","last_reported":1729757589,"current_range_meters":15200,"station_id":"ce4bgnh2rcd13ifvqc0g","pricing_plan_id":"cebpf4jnsgd1na2vs0mg"},{"bike_id":"316ea24d-f593-4042-9cf4-2e2584db247e","system_id":"levelo_inurba_marseille","lat":43.30552,"lon":5.36543,"is_reserved":false,"is_disabled":false,"rental_uris":{"android":"levelo://app?vid=316ea24d-f593-4042-9cf4-2e2584db247e","ios":"levelo://app?vid=316ea24d-f593-4042-9cf4-2e2584db247e"},"vehicle_type_id":"4","last_reported":1729757589,"current_range_meters":30800,"station_id":"ce4bgs12rcd13ifvqcag","pricing_plan_id":"cebpf4jnsgd1na2vs0mg"},{"bike_id":"4f409860-e0f7-4877-99ee-a24fed7f0e97","system_id":"levelo_inurba_marseille","lat":43.27817,"lon":5.40723,"is_reserved":false,"is_disabled":false,"rental_uris":{"android":"levelo://app?vid=4f409860-e0f7-4877-99ee-a24fed7f0e97","ios":"levelo://app?vid=4f409860-e0f7-4877-99ee-a24fed7f0e97"},"vehicle_type_id":"4","last_reported":1729757589,"current_range_meters":37600,"station_id":"ce4bhnh2rcd13ifvqgtg","pricing_plan_id":"cebpf4jnsgd1na2vs0mg"},{"bike_id":"1ca1daa7-0e75-4cfe-a3b6-fdac1a0604e2","system_id":"levelo_inurba_marseille","lat":43.3015,"lon":5.38105,"is_reserved":false,"is_disabled":false,"rental_uris":{"android":"levelo://app?vid=1ca1daa7-0e75-4cfe-a3b6-fdac1a0604e2","ios":"levelo://app?vid=1ca1daa7-0e75-4cfe-a3b6-fdac1a0604e2"},"vehicle_type_id":"4","last_reported":1729757589,"current_range_meters":38800,"station_id":"ce4bgjp2rcd13ifvqbh0","pricing_plan_id":"cebpf4jnsgd1na2vs0mg"},{"bike_id":"ad4ea531-167c-4431-8d16-8500a9645a80","system_id":"levelo_inurba_marseille","lat":43.25122,"lon":5.40317,"is_reserved":false,"is_disabled":false,"rental_uris":{"android":"levelo://app?vid=ad4ea531-167c-4431-8d16-8500a9645a80","ios":"levelo://app?vid=ad4ea531-167c-4431-8d16-8500a9645a80"},"vehicle_type_id":"4","last_reported":1729757589,"current_range_meters":38800,"station_id":"ce4bhlh2rcd13ifvqgig","pricing_plan_id":"cebpf4jnsgd1na2vs0mg"},{"bike_id":"6fba9260-8408-444f-ad0b-bcf10fcbc831","system_id":"levelo_inurba_marseille","lat":43.30946,"lon":5.39026,"is_reserved":false,"is_disabled":false,"rental_uris":{"android":"levelo://app?vid=6fba9260-8408-444f-ad0b-bcf10fcbc831","ios":"levelo://app?vid=6fba9260-8408-444f-ad0b-bcf10fcbc831"},"vehicle_type_id":"4","last_reported":1729757589,"current_range_meters":33200,"station_id":"ce4bgup2rcd13ifvqco0","pricing_plan_id":"cebpf4jnsgd1na2vs0mg"},{"bike_id":"b1dbdeab-6f7d-400f-af51-11d20041e3e3","system_id":"levelo_inurba_marseille","lat":43.28433,"lon":5.39194,"is_reserved":false,"is_disabled":false,"rental_uris":{"android":"levelo://app?vid=b1dbdeab-6f7d-400f-af51-11d20041e3e3","ios":"levelo://app?vid=b1dbdeab-6f7d-400f-af51-11d20041e3e3"},"vehicle_type_id":"4","last_reported":1729757589,"current_range_meters":35200,"station_id":"ce4bhoh2rcd13ifvqh5g","pricing_plan_id":"cebpf4jnsgd1na2vs0mg"},{"bike_id":"4b3d6b6d-1db7-4821-9e82-e543296250c5","system_id":"levelo_inurba_marseille","lat":43.24998,"lon":5.38931,"is_reserved":false,"is_disabled":false,"rental_uris":{"android":"levelo://app?vid=4b3d6b6d-1db7-4821-9e82-e543296250c5","ios":"levelo://app?vid=4b3d6b6d-1db7-4821-9e82-e543296250c5"},"vehicle_type_id":"4","last_reported":1729757589,"current_range_meters":27600,"station_id":"ce4bhgp2rcd13ifvqfd0","pricing_plan_id":"cebpf4jnsgd1na2vs0mg"},{"bike_id":"62ffa3f4-9d42-434c-a2ce-0d53c352b7c8","system_id":"levelo_inurba_marseille","lat":43.27376,"lon":5.36257,"is_reserved":false,"is_disabled":false,"rental_uris":{"android":"levelo://app?vid=62ffa3f4-9d42-434c-a2ce-0d53c352b7c8","ios":"levelo://app?vid=62ffa3f4-9d42-434c-a2ce-0d53c352b7c8"},"vehicle_type_id":"4","last_reported":1729757589,"current_range_meters":38800,"station_id":"ce4bhbh2rcd13ifvqeo0","pricing_plan_id":"cebpf4jnsgd1na2vs0mg"},{"bike_id":"59f3a389-d7a8-47cf-9d92-040e11689600","system_id":"levelo_inurba_marseille","lat":43.30463,"lon":5.37906,"is_reserved":false,"is_disabled":false,"rental_uris":{"android":"levelo://app?vid=59f3a389-d7a8-47cf-9d92-040e11689600","ios":"levelo://app?vid=59f3a389-d7a8-47cf-9d92-040e11689600"},"vehicle_type_id":"4","last_reported":1729757589,"current_range_meters":24800,"station_id":"ce4bgup2rcd13ifvqcn0","pricing_plan_id":"cebpf4jnsgd1na2vs0mg"},{"bike_id":"e2366167-088f-4160-af23-712c2655b22c","system_id":"levelo_inurba_marseille","lat":43.29299,"lon":5.37451,"is_reserved":false,"is_disabled":false,"rental_uris":{"android":"levelo://app?vid=e2366167-088f-4160-af23-712c2655b22c","ios":"levelo://app?vid=e2366167-088f-4160-af23-712c2655b22c"},"vehicle_type_id":"4","last_reported":1729757589,"current_range_meters":26000,"station_id":"ce4bgi12rcd13ifvqb70","pricing_plan_id":"cebpf4jnsgd1na2vs0mg"},{"bike_id":"b4e6ddf4-e94c-4cf2-9931-296d9ca0f55e","system_id":"levelo_inurba_marseille","lat":43.25936,"lon":5.40901,"is_reserved":false,"is_disabled":false,"rental_uris":{"android":"levelo://app?vid=b4e6ddf4-e94c-4cf2-9931-296d9ca0f55e","ios":"levelo://app?vid=b4e6ddf4-e94c-4cf2-9931-296d9ca0f55e"},"vehicle_type_id":"4","last_reported":1729757589,"current_range_meters":13600,"station_id":"ce4bhm92rcd13ifvqglg","pricing_plan_id":"cebpf4jnsgd1na2vs0mg"},{"bike_id":"045439c4-5bc5-4d89-a2e5-3fbfe1bd344a","system_id":"levelo_inurba_marseille","lat":43.31999,"lon":5.38162,"is_reserved":false,"is_disabled":false,"rental_uris":{"android":"levelo://app?vid=045439c4-5bc5-4d89-a2e5-3fbfe1bd344a","ios":"levelo://app?vid=045439c4-5bc5-4d89-a2e5-3fbfe1bd344a"},"vehicle_type_id":"4","last_reported":1729757589,"current_range_meters":9200,"station_id":"ce4bhr12rcd13ifvqhpg","pricing_plan_id":"cebpf4jnsgd1na2vs0mg"},{"bike_id":"a4b0927f-71eb-473d-982e-a2d99a041e81","system_id":"levelo_inurba_marseille","lat":43.29033,"lon":5.37567,"is_reserved":false,"is_disabled":false,"rental_uris":{"android":"levelo://app?vid=a4b0927f-71eb-473d-982e-a2d99a041e81","ios":"levelo://app?vid=a4b0927f-71eb-473d-982e-a2d99a041e81"},"vehicle_type_id":"4","last_reported":1729757589,"current_range_meters":9600,"station_id":"ce4bh692rcd13ifvqe90","pricing_plan_id":"cebpf4jnsgd1na2vs0mg"},{"bike_id":"ba281863-9f58-430c-b368-eaaf45a66db6","system_id":"levelo_inurba_marseille","lat":43.31995,"lon":5.38143,"is_reserved":false,"is_disabled":false,"rental_uris":{"android":"levelo://app?vid=ba281863-9f58-430c-b368-eaaf45a66db6","ios":"levelo://app?vid=ba281863-9f58-430c-b368-eaaf45a66db6"},"vehicle_type_id":"4","last_reported":1729757589,"current_range_meters":18000,"station_id":"ce4bhr12rcd13ifvqhpg","pricing_plan_id":"cebpf4jnsgd1na2vs0mg"},{"bike_id":"06e334e9-cd89-4c02-9877-e800c847cdb2","system_id":"levelo_inurba_marseille","lat":43.31352,"lon":5.36698,"is_reserved":false,"is_disabled":false,"rental_uris":{"android":"levelo://app?vid=06e334e9-cd89-4c02-9877-e800c847cdb2","ios":"levelo://app?vid=06e334e9-cd89-4c02-9877-e800c847cdb2"},"vehicle_type_id":"4","last_reported":1729757589,"current_range_meters":37600,"station_id":"ce4bgr92rcd13ifvqc6g","pricing_plan_id":"cebpf4jnsgd1na2vs0mg"},{"bike_id":"f83ceaa1-8d1c-4d1f-9b62-7bba25297877","system_id":"levelo_inurba_marseille","lat":43.29039,"lon":5.37568,"is_reserved":false,"is_disabled":false,"rental_uris":{"android":"levelo://app?vid=f83ceaa1-8d1c-4d1f-9b62-7bba25297877","ios":"levelo://app?vid=f83ceaa1-8d1c-4d1f-9b62-7bba25297877"},"vehicle_type_id":"4","last_reported":1729757589,"current_range_meters":16000,"station_id":"ce4bh692rcd13ifvqe90","pricing_plan_id":"cebpf4jnsgd1na2vs0mg"},{"bike_id":"6b3fed5c-aeff-4932-8168-1be565fc6082","system_id":"levelo_inurba_marseille","lat":43.2439,"lon":5.3707,"is_reserved":false,"is_disabled":false,"rental_uris":{"android":"levelo://app?vid=6b3fed5c-aeff-4932-8168-1be565fc6082","ios":"levelo://app?vid=6b3fed5c-aeff-4932-8168-1be565fc6082"},"vehicle_type_id":"4","last_reported":1729757589,"current_range_meters":8400,"station_id":"ce4bhhh2rcd13ifvqfk0","pricing_plan_id":"cebpf4jnsgd1na2vs0mg"},{"bike_id":"2d957180-245f-4c8d-8ee6-b8f11aac58cd","system_id":"levelo_inurba_marseille","lat":43.26199,"lon":5.37928,"is_reserved":false,"is_disabled":false,"rental_uris":{"android":"levelo://app?vid=2d957180-245f-4c8d-8ee6-b8f11aac58cd","ios":"levelo://app?vid=2d957180-245f-4c8d-8ee6-b8f11aac58cd"},"vehicle_type_id":"4","last_reported":1729757589,"current_range_meters":39200,"station_id":"ce4bhjp2rcd13ifvqg90","pricing_plan_id":"cebpf4jnsgd1na2vs0mg"},{"bike_id":"6afec774-c3c3-4ec5-9192-8e42dae79597","system_id":"levelo_inurba_marseille","lat":43.24177,"lon":5.39727,"is_reserved":false,"is_disabled":false,"rental_uris":{"android":"levelo://app?vid=6afec774-c3c3-4ec5-9192-8e42dae79597","ios":"levelo://app?vid=6afec774-c3c3-4ec5-9192-8e42dae79597"},"vehicle_type_id":"4","last_reported":1729757589,"current_range_meters":8000,"station_id":"ce4bhn12rcd13ifvqgpg","pricing_plan_id":"cebpf4jnsgd1na2vs0mg"},{"bike_id":"807e98e3-c05c-42d0-b77c-7c8989c5bdc4","system_id":"levelo_inurba_marseille","lat":43.3249,"lon":5.36566,"is_reserved":false,"is_disabled":false,"rental_uris":{"android":"levelo://app?vid=807e98e3-c05c-42d0-b77c-7c8989c5bdc4","ios":"levelo://app?vid=807e98e3-c05c-42d0-b77c-7c8989c5bdc4"},"vehicle_type_id":"4","last_reported":1729757589,"current_range_meters":39200,"station_id":"ce4bhs12rcd13ifvqhvg","pricing_plan_id":"cebpf4jnsgd1na2vs0mg"},{"bike_id":"4e5e4355-30f3-4aa2-a0ba-1b9175c7f0bb","system_id":"levelo_inurba_marseille","lat":43.33749,"lon":5.37453,"is_reserved":false,"is_disabled":false,"rental_uris":{"android":"levelo://app?vid=4e5e4355-30f3-4aa2-a0ba-1b9175c7f0bb","ios":"levelo://app?vid=4e5e4355-30f3-4aa2-a0ba-1b9175c7f0bb"},"vehicle_type_id":"4","last_reported":1729757589,"current_range_meters":37600,"station_id":"","pricing_plan_id":"cebpf4jnsgd1na2vs0mg"},{"bike_id":"d75bec2a-e1d3-491e-90ca-e38a5d8adcf3","system_id":"levelo_inurba_marseille","lat":43.23153,"lon":5.43725,"is_reserved":false,"is_disabled":false,"rental_uris":{"android":"levelo://app?vid=d75bec2a-e1d3-491e-90ca-e38a5d8adcf3","ios":"levelo://app?vid=d75bec2a-e1d3-491e-90ca-e38a5d8adcf3"},"vehicle_type_id":"4","last_reported":1729757589,"current_range_meters":27600,"station_id":"ce4bhmp2rcd13ifvqgog","pricing_plan_id":"cebpf4jnsgd1na2vs0mg"},{"bike_id":"d86d273c-1417-4d9e-82d8-4ddc26095daa","system_id":"levelo_inurba_marseille","lat":43.29716,"lon":5.36609,"is_reserved":false,"is_disabled":false,"rental_uris":{"android":"levelo://app?vid=d86d273c-1417-4d9e-82d8-4ddc26095daa","ios":"levelo://app?vid=d86d273c-1417-4d9e-82d8-4ddc26095daa"},"vehicle_type_id":"4","last_reported":1729757589,"current_range_meters":23200,"station_id":"ce4bgn12rcd13ifvqbt0","pricing_plan_id":"cebpf4jnsgd1na2vs0mg"},{"bike_id":"cc8afa2a-65eb-4472-82d0-4de278737e2b","system_id":"levelo_inurba_marseille","lat":43.33611,"lon":5.41028,"is_reserved":false,"is_disabled":false,"rental_uris":{"android":"levelo://app?vid=cc8afa2a-65eb-4472-82d0-4de278737e2b","ios":"levelo://app?vid=cc8afa2a-65eb-4472-82d0-4de278737e2b"},"vehicle_type_id":"4","last_reported":1729757589,"current_range_meters":20400,"station_id":"ce4bhqh2rcd13ifvqhmg","pricing_plan_id":"cebpf4jnsgd1na2vs0mg"},{"bike_id":"46e5a48f-4501-4e4e-bfa0-f17a7aed52b9","system_id":"levelo_inurba_marseille","lat":43.33601,"lon":5.41018,"is_reserved":false,"is_disabled":false,"rental_uris":{"android":"levelo://app?vid=46e5a48f-4501-4e4e-bfa0-f17a7aed52b9","ios":"levelo://app?vid=46e5a48f-4501-4e4e-bfa0-f17a7aed52b9"},"vehicle_type_id":"4","last_reported":1729757589,"current_range_meters":24800,"station_id":"ce4bhqh2rcd13ifvqhmg","pricing_plan_id":"cebpf4jnsgd1na2vs0mg"},{"bike_id":"5ee5278b-8c8a-42d0-874a-1f9c7bb2b973","system_id":"levelo_inurba_marseille","lat":43.2407,"lon":5.37762,"is_reserved":false,"is_disabled":false,"rental_uris":{"android":"levelo://app?vid=5ee5278b-8c8a-42d0-874a-1f9c7bb2b973","ios":"levelo://app?vid=5ee5278b-8c8a-42d0-874a-1f9c7bb2b973"},"vehicle_type_id":"4","last_reported":1729757589,"current_range_meters":4000,"station_id":"ce4bhnp2rcd13ifvqgvg","pricing_plan_id":"cebpf4jnsgd1na2vs0mg"},{"bike_id":"241050d4-efa0-49be-b3d8-98434da03d11","system_id":"levelo_inurba_marseille","lat":43.33609,"lon":5.41018,"is_reserved":false,"is_disabled":false,"rental_uris":{"android":"levelo://app?vid=241050d4-efa0-49be-b3d8-98434da03d11","ios":"levelo://app?vid=241050d4-efa0-49be-b3d8-98434da03d11"},"vehicle_type_id":"4","last_reported":1729757589,"current_range_meters":38800,"station_id":"ce4bhqh2rcd13ifvqhmg","pricing_plan_id":"cebpf4jnsgd1na2vs0mg"},{"bike_id":"4d301cd0-a2e0-42f3-9c0d-233509403e70","system_id":"levelo_inurba_marseille","lat":43.24066,"lon":5.37762,"is_reserved":false,"is_disabled":false,"rental_uris":{"android":"levelo://app?vid=4d301cd0-a2e0-42f3-9c0d-233509403e70","ios":"levelo://app?vid=4d301cd0-a2e0-42f3-9c0d-233509403e70"},"vehicle_type_id":"4","last_reported":1729757589,"current_range_meters":20000,"station_id":"ce4bhnp2rcd13ifvqgvg","pricing_plan_id":"cebpf4jnsgd1na2vs0mg"},{"bike_id":"28ff410d-1399-4b82-946d-cad2c8e724e6","system_id":"levelo_inurba_marseille","lat":43.30151,"lon":5.38078,"is_reserved":false,"is_disabled":false,"rental_uris":{"android":"levelo://app?vid=28ff410d-1399-4b82-946d-cad2c8e724e6","ios":"levelo://app?vid=28ff410d-1399-4b82-946d-cad2c8e724e6"},"vehicle_type_id":"4","last_reported":1729757589,"current_range_meters":28000,"station_id":"ce4bgjp2rcd13ifvqbh0","pricing_plan_id":"cebpf4jnsgd1na2vs0mg"},{"bike_id":"54e22695-c48b-40b2-8aa7-e4631e5eb99c","system_id":"levelo_inurba_marseille","lat":43.25725,"lon":5.41105,"is_reserved":false,"is_disabled":false,"rental_uris":{"android":"levelo://app?vid=54e22695-c48b-40b2-8aa7-e4631e5eb99c","ios":"levelo://app?vid=54e22695-c48b-40b2-8aa7-e4631e5eb99c"},"vehicle_type_id":"4","last_reported":1729757589,"current_range_meters":38800,"station_id":"ce4bhkp2rcd13ifvqgd0","pricing_plan_id":"cebpf4jnsgd1na2vs0mg"},{"bike_id":"055026e7-aca3-466f-b7b0-f1dd313c923a","system_id":"levelo_inurba_marseille","lat":43.32483,"lon":5.36573,"is_reserved":false,"is_disabled":false,"rental_uris":{"android":"levelo://app?vid=055026e7-aca3-466f-b7b0-f1dd313c923a","ios":"levelo://app?vid=055026e7-aca3-466f-b7b0-f1dd313c923a"},"vehicle_type_id":"4","last_reported":1729757589,"current_range_meters":20000,"station_id":"ce4bhs12rcd13ifvqhvg","pricing_plan_id":"cebpf4jnsgd1na2vs0mg"},{"bike_id":"af326255-e804-4587-8144-a1f8740ac40e","system_id":"levelo_inurba_marseille","lat":43.29163,"lon":5.3715,"is_reserved":false,"is_disabled":false,"rental_uris":{"android":"levelo://app?vid=af326255-e804-4587-8144-a1f8740ac40e","ios":"levelo://app?vid=af326255-e804-4587-8144-a1f8740ac40e"},"vehicle_type_id":"4","last_reported":1729757589,"current_range_meters":38800,"station_id":"ce4bha92rcd13ifvqeh0","pricing_plan_id":"cebpf4jnsgd1na2vs0mg"},{"bike_id":"5dac752b-5f3e-449b-8933-09241deb391d","system_id":"levelo_inurba_marseille","lat":43.26822,"lon":5.41116,"is_reserved":false,"is_disabled":false,"rental_uris":{"android":"levelo://app?vid=5dac752b-5f3e-449b-8933-09241deb391d","ios":"levelo://app?vid=5dac752b-5f3e-449b-8933-09241deb391d"},"vehicle_type_id":"4","last_reported":1729757589,"current_range_meters":16400,"station_id":"","pricing_plan_id":"cebpf4jnsgd1na2vs0mg"},{"bike_id":"1c28d517-d703-4854-a840-4c86777855bd","system_id":"levelo_inurba_marseille","lat":43.29037,"lon":5.3997,"is_reserved":false,"is_disabled":false,"rental_uris":{"android":"levelo://app?vid=1c28d517-d703-4854-a840-4c86777855bd","ios":"levelo://app?vid=1c28d517-d703-4854-a840-4c86777855bd"},"vehicle_type_id":"4","last_reported":1729757589,"current_range_meters":10800,"station_id":"ce4bh392rcd13ifvqdm0","pricing_plan_id":"cebpf4jnsgd1na2vs0mg"},{"bike_id":"13da6b91-9db0-4a61-a8cc-a26b1fbbf6e6","system_id":"levelo_inurba_marseille","lat":43.30141,"lon":5.37426,"is_reserved":false,"is_disabled":false,"rental_uris":{"android":"levelo://app?vid=13da6b91-9db0-4a61-a8cc-a26b1fbbf6e6","ios":"levelo://app?vid=13da6b91-9db0-4a61-a8cc-a26b1fbbf6e6"},"vehicle_type_id":"4","last_reported":1729757589,"current_range_meters":23200,"station_id":"ce4bgs92rcd13ifvqcc0","pricing_plan_id":"cebpf4jnsgd1na2vs0mg"},{"bike_id":"f60b783d-b3d7-4fa1-a912-6efaec8ffad4","system_id":"levelo_inurba_marseille","lat":43.30536,"lon":5.36735,"is_reserved":false,"is_disabled":false,"rental_uris":{"android":"levelo://app?vid=f60b783d-b3d7-4fa1-a912-6efaec8ffad4","ios":"levelo://app?vid=f60b783d-b3d7-4fa1-a912-6efaec8ffad4"},"vehicle_type_id":"4","last_reported":1729757589,"current_range_meters":26800,"station_id":"ce4bgrp2rcd13ifvqc9g","pricing_plan_id":"cebpf4jnsgd1na2vs0mg"},{"bike_id":"b380b6b8-a592-4924-a6ff-5e74170012e3","system_id":"levelo_inurba_marseille","lat":43.27577,"lon":5.38423,"is_reserved":false,"is_disabled":false,"rental_uris":{"android":"levelo://app?vid=b380b6b8-a592-4924-a6ff-5e74170012e3","ios":"levelo://app?vid=b380b6b8-a592-4924-a6ff-5e74170012e3"},"vehicle_type_id":"4","last_reported":1729757589,"current_range_meters":32800,"station_id":"ce4bhh92rcd13ifvqfi0","pricing_plan_id":"cebpf4jnsgd1na2vs0mg"},{"bike_id":"35516373-ec38-4c8d-a5dd-911e4dec410c","system_id":"levelo_inurba_marseille","lat":43.27374,"lon":5.36256,"is_reserved":false,"is_disabled":false,"rental_uris":{"android":"levelo://app?vid=35516373-ec38-4c8d-a5dd-911e4dec410c","ios":"levelo://app?vid=35516373-ec38-4c8d-a5dd-911e4dec410c"},"vehicle_type_id":"4","last_reported":1729757589,"current_range_meters":7200,"station_id":"ce4bhbh2rcd13ifvqeo0","pricing_plan_id":"cebpf4jnsgd1na2vs0mg"},{"bike_id":"e2958e72-62c7-4536-b16f-4e2f7958c8ec","system_id":"levelo_inurba_marseille","lat":43.34137,"lon":5.4091,"is_reserved":false,"is_disabled":false,"rental_uris":{"android":"levelo://app?vid=e2958e72-62c7-4536-b16f-4e2f7958c8ec","ios":"levelo://app?vid=e2958e72-62c7-4536-b16f-4e2f7958c8ec"},"vehicle_type_id":"4","last_reported":1729757589,"current_range_meters":7200,"station_id":"ce4bhqh2rcd13ifvqhlg","pricing_plan_id":"cebpf4jnsgd1na2vs0mg"},{"bike_id":"62c3aa43-1485-490c-96a3-23ca4f976a8d","system_id":"levelo_inurba_marseille","lat":43.31353,"lon":5.36705,"is_reserved":false,"is_disabled":false,"rental_uris":{"android":"levelo://app?vid=62c3aa43-1485-490c-96a3-23ca4f976a8d","ios":"levelo://app?vid=62c3aa43-1485-490c-96a3-23ca4f976a8d"},"vehicle_type_id":"4","last_reported":1729757589,"current_range_meters":16400,"station_id":"ce4bgr92rcd13ifvqc6g","pricing_plan_id":"cebpf4jnsgd1na2vs0mg"},