{"last_updated":1758647216,"ttl":60,"version":"2.2","data":{"bikes":[{"bike_id":"48a4be4c-7bab-4311-940c-2fb8cff1e659","system_id":"levelo_inurba_marseille","lat":43.2927,"lon":5.36852,"is_reserved":false,"is_disabled":false,"rental_uris":{"android":"levelo://app?vid=48a4be4c-7bab-4311-940c-2fb8cff1e659","ios":"levelo://app?vid=48a4be4c-7bab-4311-940c-2fb8cff1e659"},"vehicle_type_id":"4","last_reported":1758647216,"current_range_meters":2800,"station_id":"ce4bhbp2rcd13ifvqesg","pricing_plan_id":"cebpf4jnsgd1na2vs0mg"},{"bike_id":"ba3952de-ae8a-41d0-93bc-d3ad476daad5","system_id":"levelo_inurba_marseille","lat":43.28044,"lon":5.36937,"is_reserved":false,"is_disabled":false,"rental_uris":{"android":"levelo://app?vid=ba3952de-ae8a-41d0-93bc-d3ad476daad5","ios":"levelo://app?vid=ba3952de-ae8a-41d0-93bc-d3ad476daad5"},"vehicle_type_id":"4","last_reported":1758647216,"current_range_meters":2800,"station_id":"ce4bha12rcd13ifvqef0","pricing_plan_id":"cebpf4jnsgd1na2vs0mg"},{"bike_id":"7422391f-ce14-437a-b94a-bfcacb06477b","system_id":"levelo_inurba_marseille","lat":43.28702,"lon":5.37381,"is_reserved":false,"is_disabled":false,"rental_uris":{"android":"levelo://app?vid=7422391f-ce14-437a-b94a-bfcacb06477b","ios":"levelo://app?vid=7422391f-ce14-437a-b94a-bfcacb06477b"},"vehicle_type_id":"4","last_reported":1758647216,"current_range_meters":2800,"station_id":"ce4bh3p2rcd13ifvqdq0","pricing_plan_id":"cebpf4jnsgd1na2vs0mg"},{"bike_id":"ece0a631-544b-4bb5-928b-af72029d9aef","system_id":"levelo_inurba_marseille","lat":43.26564,"lon":5.39014,"is_reserved":false,"is_disabled":false,"rental_uris":{"android":"levelo://app?vid=ece0a631-544b-4bb5-928b-af72029d9aef","ios":"levelo://app?vid=ece0a631-544b-4bb5-928b-af72029d9aef"},"vehicle_type_id":"4","last_reported":1758647216,"current_range_meters":2800,"station_id":"ce4bhe12rcd13ifvqf30","pricing_plan_id":"cebpf4jnsgd1na2vs0mg"},{"bike_id":"9398ab38-177f-4c52-a546-766f0f37bedf","system_id":"levelo_inurba_marseille","lat":43.28339,"lon":5.38107,"is_reserved":false,"is_disabled":false,"rental_uris":{"android":"levelo://app?vid=9398ab38-177f-4c52-a546-766f0f37bedf","ios":"levelo://app?vid=9398ab38-177f-4c52-a546-766f0f37bedf"},"vehicle_type_id":"4","last_reported":1758647216,"current_range_meters":2800,"station_id":"ce4bh412rcd13ifvqdr0","pricing_plan_id":"cebpf4jnsgd1na2vs0mg"},{"bike_id":"72df89cb-7746-46e6-b269-fbddd2d473fe","system_id":"levelo_inurba_marseille","lat":43.32115,"lon":5.36772,"is_reserved":false,"is_disabled":false,"rental_uris":{"android":"levelo://app?vid=72df89cb-7746-46e6-b269-fbddd2d473fe","ios":"levelo://app?vid=72df89cb-7746-46e6-b269-fbddd2d473fe"},"vehicle_type_id":"4","last_reported":1758647216,"current_range_meters":2800,"station_id":"ce4bhrh2rcd13ifvqhug","pricing_plan_id":"cebpf4jnsgd1na2vs0mg"},{"bike_id":"64dc9029-0eea-4198-bf75-fc19e094ea35","system_id":"levelo_inurba_marseille","lat":43.28943,"lon":5.39637,"is_reserved":false,"is_disabled":false,"rental_uris":{"android":"levelo://app?vid=64dc9029-0eea-4198-bf75-fc19e094ea35","ios":"levelo://app?vid=64dc9029-0eea-4198-bf75-fc19e094ea35"},"vehicle_type_id":"4","last_reported":1758647216,"current_range_meters":2800,"station_id":"ce4bh3h2rcd13ifvqdn0","pricing_plan_id":"cebpf4jnsgd1na2vs0mg"},{"bike_id":"05977a29-4492-4e42-b026-696e72e1cc93","system_id":"levelo_inurba_marseille","lat":43.28259,"lon":5.37269,"is_reserved":false,"is_disabled":false,"rental_uris":{"android":"levelo://app?vid=05977a29-4492-4e42-b026-696e72e1cc93","ios":"levelo://app?vid=05977a29-4492-4e42-b026-696e72e1cc93"},"vehicle_type_id":"4","last_reported":1758647216,"current_range_meters":3200,"station_id":"","pricing_plan_id":"cebpf4jnsgd1na2vs0mg"},{"bike_id":"0809e574-e768-4af1-bf6f-18b1258367fc","system_id":"levelo_inurba_marseille","lat":43.31281,"lon":5.40166,"is_reserved":false,"is_disabled":false,"rental_uris":{"android":"levelo://app?vid=0809e574-e768-4af1-bf6f-18b1258367fc","ios":"levelo://app?vid=0809e574-e768-4af1-bf6f-18b1258367fc"},"vehicle_type_id":"4","last_reported":1758647216,"current_range_meters":3200,"station_id":"ce4bh092rcd13ifvqd30","pricing_plan_id":"cebpf4jnsgd1na2vs0mg"},{"bike_id":"1b790372-5d34-489f-a29a-5f2319ad70e0","system_id":"levelo_inurba_marseille","lat":43.28261,"lon":5.35048,"is_reserved":false,"is_disabled":true,"rental_uris":{"android":"levelo://app?vid=1b790372-5d34-489f-a29a-5f2319ad70e0","ios":"levelo://app?vid=1b790372-5d34-489f-a29a-5f2319ad70e0"},"vehicle_type_id":"4","last_reported":1758647216,"current_range_meters":3200,"station_id":"ce4bhbp2rcd13ifvqerg","pricing_plan_id":"cebpf4jnsgd1na2vs0mg"},{"bike_id":"3a47d10f-a087-43c9-a5a4-4835d268f697","system_id":"levelo_inurba_marseille","lat":43.288429,"lon":5.393079,"is_reserved":false,"is_disabled":false,"rental_uris":{"android":"levelo://app?vid=3a47d10f-a087-43c9-a5a4-4835d268f697","ios":"levelo://app?vid=3a47d10f-a087-43c9-a5a4-4835d268f697"},"vehicle_type_id":"4","last_reported":1758647216,"current_range_meters":3200,"station_id":"ce4bh2p2rcd13ifvqdi0","pricing_plan_id":"cebpf4jnsgd1na2vs0mg"},{"bike_id":"b659386c-cda6-4c60-8712-e117ccb56da0","system_id":"levelo_inurba_marseille","lat":43.253179,"lon":5.421868,"is_reserved":false,"is_disabled":false,"rental_uris":{"android":"levelo://app?vid=b659386c-cda6-4c60-8712-e117ccb56da0","ios":"levelo://app?vid=b659386c-cda6-4c60-8712-e117ccb56da0"},"vehicle_type_id":"4","last_reported":1758647216,"current_range_meters":3200,"station_id":"","pricing_plan_id":"cebpf4jnsgd1na2vs0mg"},{"bike_id":"90805fd3-4a78-4c28-b0db-9640829c08d0","system_id":"levelo_inurba_marseille","lat":43.293798,"lon":5.401367,"is_reserved":false,"is_disabled":false,"rental_uris":{"android":"levelo://app?vid=90805fd3-4a78-4c28-b0db-9640829c08d0","ios":"levelo://app?vid=90805fd3-4a78-4c28-b0db-9640829c08d0"},"vehicle_type_id":"4","last_reported":1758647216,"current_range_meters":3200,"station_id":"ce4bh312rcd13ifvqdj0","pricing_plan_id":"cebpf4jnsgd1na2vs0mg"},{"bike_id":"32c428a1-baf1-46fc-8711-5db34d880b3e","system_id":"levelo_inurba_marseille","lat":43.28614,"lon":5.35105,"is_reserved":false,"is_disabled":false,"rental_uris":{"android":"levelo://app?vid=32c428a1-baf1-46fc-8711-5db34d880b3e","ios":"levelo://app?vid=32c428a1-baf1-46fc-8711-5db34d880b3e"},"vehicle_type_id":"4","last_reported":1758647216,"current_range_meters":3200,"station_id":"ce4bhch2rcd13ifvqeug","pricing_plan_id":"cebpf4jnsgd1na2vs0mg"},{"bike_id":"7f4e60da-a29b-487f-9acc-25997c6b21d0","system_id":"levelo_inurba_marseille","lat":43.29881,"lon":5.38906,"is_reserved":false,"is_disabled":false,"rental_uris":{"android":"levelo://app?vid=7f4e60da-a29b-487f-9acc-25997c6b21d0","ios":"levelo://app?vid=7f4e60da-a29b-487f-9acc-25997c6b21d0"},"vehicle_type_id":"4","last_reported":1758647216,"current_range_meters":3200,"station_id":"ce4bh392rcd13ifvqdl0","pricing_plan_id":"cebpf4jnsgd1na2vs0mg"},{"bike_id":"031e1efe-6860-4e9c-89c7-04d88c6c6240","system_id":"levelo_inurba_marseille","lat":43.28854,"lon":5.39323,"is_reserved":false,"is_disabled":false,"rental_uris":{"android":"levelo://app?vid=031e1efe-6860-4e9c-89c7-04d88c6c6240","ios":"levelo://app?vid=031e1efe-6860-4e9c-89c7-04d88c6c6240"},"vehicle_type_id":"4","last_reported":1758647216,"current_range_meters":3600,"station_id":"ce4bh2p2rcd13ifvqdi0","pricing_plan_id":"cebpf4jnsgd1na2vs0mg"},{"bike_id":"54502de0-09ba-43cd-a1f2-9f84e6e6c1cb","system_id":"levelo_inurba_marseille","lat":43.290149,"lon":5.381283,"is_reserved":false,"is_disabled":false,"rental_uris":{"android":"levelo://app?vid=54502de0-09ba-43cd-a1f2-9f84e6e6c1cb","ios":"levelo://app?vid=54502de0-09ba-43cd-a1f2-9f84e6e6c1cb"},"vehicle_type_id":"4","last_reported":1758647216,"current_range_meters":3600,"station_id":"","pricing_plan_id":"cebpf4jnsgd1na2vs0mg"},{"bike_id":"bd3fa11e-c1ae-47cf-a870-024ce64cbe75","system_id":"levelo_inurba_marseille","lat":43.25002,"lon":5.3893,"is_reserved":false,"is_disabled":false,"rental_uris":{"android":"levelo://app?vid=bd3fa11e-c1ae-47cf-a870-024ce64cbe75","ios":"levelo://app?vid=bd3fa11e-c1ae-47cf-a870-024ce64cbe75"},"vehicle_type_id":"4","last_reported":1758647216,"current_range_meters":3600,"station_id":"ce4bhgp2rcd13ifvqfd0","pricing_plan_id":"cebpf4jnsgd1na2vs0mg"},{"bike_id":"6cba2d3f-a568-4392-a9fa-426451460183","system_id":"levelo_inurba_marseille","lat":43.30304,"lon":5.36899,"is_reserved":false,"is_disabled":false,"rental_uris":{"android":"levelo://app?vid=6cba2d3f-a568-4392-a9fa-426451460183","ios":"levelo://app?vid=6cba2d3f-a568-4392-a9fa-426451460183"},"vehicle_type_id":"4","last_reported":1758647216,"current_range_meters":3600,"station_id":"ce4bgqh2rcd13ifvqc5g","pricing_plan_id":"cebpf4jnsgd1na2vs0mg"},{"bike_id":"3b076c43-0825-4da4-8294-ea2de06eb4b6","system_id":"levelo_inurba_marseille","lat":43.23958,"lon":5.36642,"is_reserved":false,"is_disabled":false,"rental_uris":{"android":"levelo://app?vid=3b076c43-0825-4da4-8294-ea2de06eb4b6","ios":"levelo://app?vid=3b076c43-0825-4da4-8294-ea2de06eb4b6"},"vehicle_type_id":"4","last_reported":1758647216,"current_range_meters":4000,"station_id":"ce4bhi12rcd13ifvqfp0","pricing_plan_id":"cebpf4jnsgd1na2vs0mg"},{"bike_id":"2b1affb0-dbe0-403a-b8af-b75ca338670a","system_id":"levelo_inurba_marseille","lat":43.23195,"lon":5.35547,"is_reserved":false,"is_disabled":false,"rental_uris":{"android":"levelo://app?vid=2b1affb0-dbe0-403a-b8af-b75ca338670a","ios":"levelo://app?vid=2b1affb0-dbe0-403a-b8af-b75ca338670a"},"vehicle_type_id":"4","last_reported":1758647216,"current_range_meters":3600,"station_id":"ce4bhu92rcd13ifvqi70","pricing_plan_id":"cebpf4jnsgd1na2vs0mg"},{"bike_id":"4d1a2eed-ee74-4d0b-bf74-7ae1925267fb","system_id":"levelo_inurba_marseille","lat":43.24167,"lon":5.36395,"is_reserved":false,"is_disabled":false,"rental_uris":{"android":"levelo://app?vid=4d1a2eed-ee74-4d0b-bf74-7ae1925267fb","ios":"levelo://app?vid=4d1a2eed-ee74-4d0b-bf74-7ae1925267fb"},"vehicle_type_id":"4","last_reported":1758647216,"current_range_meters":4000,"station_id":"cpo36qri1sfpv3e86is0","pricing_plan_id":"cebpf4jnsgd1na2vs0mg"},{"bike_id":"d700d7f9-7718-4210-9a2b-3b05ce29e73c","system_id":"levelo_inurba_marseille","lat":43.3043,"lon":5.38895,"is_reserved":false,"is_disabled":false,"rental_uris":{"android":"levelo://app?vid=d700d7f9-7718-4210-9a2b-3b05ce29e73c","ios":"levelo://app?vid=d700d7f9-7718-4210-9a2b-3b05ce29e73c"},"vehicle_type_id":"4","last_reported":1758647216,"current_range_meters":4000,"station_id":"ce4bgk12rcd13ifvqbi0","pricing_plan_id":"cebpf4jnsgd1na2vs0mg"},{"bike_id":"77eef53f-8ca8-4226-9330-cf2436ca42a6","system_id":"levelo_inurba_marseille","lat":43.284189,"lon":5.349766,"is_reserved":false,"is_disabled":false,"rental_uris":{"android":"levelo://app?vid=77eef53f-8ca8-4226-9330-cf2436ca42a6","ios":"levelo://app?vid=77eef53f-8ca8-4226-9330-cf2436ca42a6"},"vehicle_type_id":"4","last_reported":1758647216,"current_range_meters":4000,"station_id":"ce4bhb92rcd13ifvqen0","pricing_plan_id":"cebpf4jnsgd1na2vs0mg"},{"bike_id":"9176512c-2cc1-4df2-a8e0-6be514fbcdbf","system_id":"levelo_inurba_marseille","lat":43.33748,"lon":5.37465,"is_reserved":false,"is_disabled":false,"rental_uris":{"android":"levelo://app?vid=9176512c-2cc1-4df2-a8e0-6be514fbcdbf","ios":"levelo://app?vid=9176512c-2cc1-4df2-a8e0-6be514fbcdbf"},"vehicle_type_id":"4","last_reported":1758647216,"current_range_meters":4400,"station_id":"","pricing_plan_id":"cebpf4jnsgd1na2vs0mg"},{"bike_id":"5ca1c0c6-6e10-49fa-a57b-ab219f6286e0","system_id":"levelo_inurba_marseille","lat":43.257109,"lon":5.411154,"is_reserved":false,"is_disabled":false,"rental_uris":{"android":"levelo://app?vid=5ca1c0c6-6e10-49fa-a57b-ab219f6286e0","ios":"levelo://app?vid=5ca1c0c6-6e10-49fa-a57b-ab219f6286e0"},"vehicle_type_id":"4","last_reported":1758647216,"current_range_meters":4400,"station_id":"ce4bhkp2rcd13ifvqgd0","pricing_plan_id":"cebpf4jnsgd1na2vs0mg"},{"bike_id":"027b2a32-5f44-4753-a657-f637e9115868","system_id":"levelo_inurba_marseille","lat":43.28918,"lon":5.35849,"is_reserved":false,"is_disabled":false,"rental_uris":{"android":"levelo://app?vid=027b2a32-5f44-4753-a657-f637e9115868","ios":"levelo://app?vid=027b2a32-5f44-4753-a657-f637e9115868"},"vehicle_type_id":"4","last_reported":1758647216,"current_range_meters":4400,"station_id":"","pricing_plan_id":"cebpf4jnsgd1na2vs0mg"},{"bike_id":"6ab4a66e-7a65-4f29-b789-936dd211b77a","system_id":"levelo_inurba_marseille","lat":43.30902,"lon":5.379,"is_reserved":false,"is_disabled":false,"rental_uris":{"android":"levelo://app?vid=6ab4a66e-7a65-4f29-b789-936dd211b77a","ios":"levelo://app?vid=6ab4a66e-7a65-4f29-b789-936dd211b77a"},"vehicle_type_id":"4","last_reported":1758647216,"current_range_meters":5600,"station_id":"","pricing_plan_id":"cebpf4jnsgd1na2vs0mg"},{"bike_id":"9523d82e-79c1-4b85-9227-2573e4627c75","system_id":"levelo_inurba_marseille","lat":43.25822,"lon":5.39439,"is_reserved":false,"is_disabled":false,"rental_uris":{"android":"levelo://app?vid=9523d82e-79c1-4b85-9227-2573e4627c75","ios":"levelo://app?vid=9523d82e-79c1-4b85-9227-2573e4627c75"},"vehicle_type_id":"4","last_reported":1758647216,"current_range_meters":4800,"station_id":"ce4bhip2rcd13ifvqft0","pricing_plan_id":"cebpf4jnsgd1na2vs0mg"},{"bike_id":"2375d1a2-0d62-45ce-baf9-15d02cf18fe7","system_id":"levelo_inurba_marseille","lat":43.28674,"lon":5.38661,"is_reserved":false,"is_disabled":false,"rental_uris":{"android":"levelo://app?vid=2375d1a2-0d62-45ce-baf9-15d02cf18fe7","ios":"levelo://app?vid=2375d1a2-0d62-45ce-baf9-15d02cf18fe7"},"vehicle_type_id":"4","last_reported":1758647216,"current_range_meters":4400,"station_id":"ce4bh492rcd13ifvqdug","pricing_plan_id":"cebpf4jnsgd1na2vs0mg"},{"bike_id":"5b463f2f-7627-4983-ae9c-ca1fe6f78488","system_id":"levelo_inurba_marseille","lat":43.27494,"lon":5.42448,"is_reserved":false,"is_disabled":false,"rental_uris":{"android":"levelo://app?vid=5b463f2f-7627-4983-ae9c-ca1fe6f78488","ios":"levelo://app?vid=5b463f2f-7627-4983-ae9c-ca1fe6f78488"},"vehicle_type_id":"4","last_reported":1758647216,"current_range_meters":4800,"station_id":"ce4bhn92rcd13ifvqgrg","pricing_plan_id":"cebpf4jnsgd1na2vs0mg"},{"bike_id":"438ead59-de14-4fa0-a61d-03a70a4122ae","system_id":"levelo_inurba_marseille","lat":43.97285,"lon":4.89134,"is_reserved":false,"is_disabled":true,"rental_uris":{"android":"levelo://app?vid=438ead59-de14-4fa0-a61d-03a70a4122ae","ios":"levelo://app?vid=438ead59-de14-4fa0-a61d-03a70a4122ae"},"vehicle_type_id":"4","last_reported":1758647216,"current_range_meters":4800,"station_id":"","pricing_plan_id":"cebpf4jnsgd1na2vs0mg"},{"bike_id":"ab44ffc3-e674-4e4c-b28a-31dd582f7f70","system_id":"levelo_inurba_marseille","lat":43.29596,"lon":5.38104,"is_reserved":false,"is_disabled":false,"rental_uris":{"android":"levelo://app?vid=ab44ffc3-e674-4e4c-b28a-31dd582f7f70","ios":"levelo://app?vid=ab44ffc3-e674-4e4c-b28a-31dd582f7f70"},"vehicle_type_id":"4","last_reported":1758647216,"current_range_meters":4800,"station_id":"ce4bgl12rcd13ifvqbo0","pricing_plan_id":"cebpf4jnsgd1na2vs0mg"},{"bike_id":"834ccfae-df82-4933-a89b-3af5d83cc994","system_id":"levelo_inurba_marseille","lat":43.306335,"lon":5.401106,"is_reserved":false,"is_disabled":false,"rental_uris":{"android":"levelo://app?vid=834ccfae-df82-4933-a89b-3af5d83cc994","ios":"levelo://app?vid=834ccfae-df82-4933-a89b-3af5d83cc994"},"vehicle_type_id":"4","last_reported":1758647216,"current_range_meters":4800,"station_id":"ce4bh112rcd13ifvqda0","pricing_plan_id":"cebpf4jnsgd1na2vs0mg"},{"bike_id":"41b1f112-6c36-4f49-a1d5-9d072b5c32ed","system_id":"levelo_inurba_marseille","lat":43.25491,"lon":5.37653,"is_reserved":false,"is_disabled":false,"rental_uris":{"android":"levelo://app?vid=41b1f112-6c36-4f49-a1d5-9d072b5c32ed","ios":"levelo://app?vid=41b1f112-6c36-4f49-a1d5-9d072b5c32ed"},"vehicle_type_id":"4","last_reported":1758647216,"current_range_meters":5600,"station_id":"ce4bhh12rcd13ifvqff0","pricing_plan_id":"cebpf4jnsgd1na2vs0mg"},{"bike_id":"1bc599e6-02a9-4ec9-882e-2bc705d1c2a0","system_id":"levelo_inurba_marseille","lat":43.296308,"lon":5.377845,"is_reserved":false,"is_disabled":false,"rental_uris":{"android":"levelo://app?vid=1bc599e6-02a9-4ec9-882e-2bc705d1c2a0","ios":"levelo://app?vid=1bc599e6-02a9-4ec9-882e-2bc705d1c2a0"},"vehicle_type_id":"4","last_reported":1758647216,"current_range_meters":5600,"station_id":"ce4bgh92rcd13ifvqb50","pricing_plan_id":"cebpf4jnsgd1na2vs0mg"},{"bike_id":"39440f91-df99-41a6-afe8-efaeecc5f862","system_id":"levelo_inurba_marseille","lat":43.32542,"lon":5.41431,"is_reserved":false,"is_disabled":false,"rental_uris":{"android":"levelo://app?vid=39440f91-df99-41a6-afe8-efaeecc5f862","ios":"levelo://app?vid=39440f91-df99-41a6-afe8-efaeecc5f862"},"vehicle_type_id":"4","last_reported":1758647216,"current_range_meters":4800,"station_id":"ce4bhq12rcd13ifvqhhg","pricing_plan_id":"cebpf4jnsgd1na2vs0mg"},{"bike_id":"54f00a7a-25c0-43f6-a50c-0a6ae175d98e","system_id":"levelo_inurba_marseille","lat":43.28997,"lon":5.3561,"is_reserved":false,"is_disabled":false,"rental_uris":{"android":"levelo://app?vid=54f00a7a-25c0-43f6-a50c-0a6ae175d98e","ios":"levelo://app?vid=54f00a7a-25c0-43f6-a50c-0a6ae175d98e"},"vehicle_type_id":"4","last_reported":1758647216,"current_range_meters":5600,"station_id":"ce4bhb92rcd13ifvqen0","pricing_plan_id":"cebpf4jnsgd1na2vs0mg"},{"bike_id":"e02e7eda-6ce5-4c38-a981-a362f6ab6186","system_id":"levelo_inurba_marseille","lat":43.31121,"lon":5.37768,"is_reserved":false,"is_disabled":false,"rental_uris":{"android":"levelo://app?vid=e02e7eda-6ce5-4c38-a981-a362f6ab6186","ios":"levelo://app?vid=e02e7eda-6ce5-4c38-a981-a362f6ab6186"},"vehicle_type_id":"4","last_reported":1758647216,"current_range_meters":5600,"station_id":"ce4bgt92rcd13ifvqcg0","pricing_plan_id":"cebpf4jnsgd1na2vs0mg"},{"bike_id":"73bd8b56-8b15-4874-aa65-8dbf3f9cdad7","system_id":"levelo_inurba_marseille","lat":43.26029,"lon":5.37547,"is_reserved":false,"is_disabled":false,"rental_uris":{"android":"levelo://app?vid=73bd8b56-8b15-4874-aa65-8dbf3f9cdad7","ios":"levelo://app?vid=73bd8b56-8b15-4874-aa65-8dbf3f9cdad7"},"vehicle_type_id":"4","last_reported":1758647216,"current_range_meters":6000,"station_id":"ce4bhgh2rcd13ifvqfa0","pricing_plan_id":"cebpf4jnsgd1na2vs0mg"},{"bike_id":"3b27ca7b-a50e-4864-a60f-4ea9286714a0","system_id":"levelo_inurba_marseille","lat":43.24182,"lon":5.39728,"is_reserved":false,"is_disabled":false,"rental_uris":{"android":"levelo://app?vid=3b27ca7b-a50e-4864-a60f-4ea9286714a0","ios":"levelo://app?vid=3b27ca7b-a50e-4864-a60f-4ea9286714a0"},"vehicle_type_id":"4","last_reported":1758647216,"current_range_meters":5600,"station_id":"ce4bhn12rcd13ifvqgpg","pricing_plan_id":"cebpf4jnsgd1na2vs0mg"},{"bike_id":"de2775a9-1ffb-4665-8b70-4cf95f14cfe7","system_id":"levelo_inurba_marseille","lat":43.284149,"lon":5.375182,"is_reserved":false,"is_disabled":false,"rental_uris":{"android":"levelo://app?vid=de2775a9-1ffb-4665-8b70-4cf95f14cfe7","ios":"levelo://app?vid=de2775a9-1ffb-4665-8b70-4cf95f14cfe7"},"vehicle_type_id":"4","last_reported":1758647216,"current_range_meters":6000,"station_id":"ce4bh412rcd13ifvqds0","pricing_plan_id":"cebpf4jnsgd1na2vs0mg"},{"bike_id":"fdf63e3d-0851-4c37-9965-372a8efe2232","system_id":"levelo_inurba_marseille","lat":43.29916,"lon":5.37484,"is_reserved":false,"is_disabled":false,"rental_uris":{"android":"levelo://app?vid=fdf63e3d-0851-4c37-9965-372a8efe2232","ios":"levelo://app?vid=fdf63e3d-0851-4c37-9965-372a8efe2232"},"vehicle_type_id":"4","last_reported":1758647216,"current_range_meters":5600,"station_id":"ce4bgjh2rcd13ifvqbg0","pricing_plan_id":"cebpf4jnsgd1na2vs0mg"},{"bike_id":"698a1659-1be4-4464-8e40-0054e6845364","system_id":"levelo_inurba_marseille","lat":43.29382,"lon":5.40391,"is_reserved":false,"is_disabled":false,"rental_uris":{"android":"levelo://app?vid=698a1659-1be4-4464-8e40-0054e6845364","ios":"levelo://app?vid=698a1659-1be4-4464-8e40-0054e6845364"},"vehicle_type_id":"4","last_reported":1758647216,"current_range_meters":6400,"station_id":"","pricing_plan_id":"cebpf4jnsgd1na2vs0mg"},{"bike_id":"329a5725-cfe0-49c9-b6a7-fcad920e0962","system_id":"levelo_inurba_marseille","lat":43.240814,"lon":5.377485,"is_reserved":false,"is_disabled":false,"rental_uris":{"android":"levelo://app?vid=329a5725-cfe0-49c9-b6a7-fcad920e0962","ios":"levelo://app?vid=329a5725-cfe0-49c9-b6a7-fcad920e0962"},"vehicle_type_id":"4","last_reported":1758647216,"current_range_meters":6000,"station_id":"ce4bhnp2rcd13ifvqgvg","pricing_plan_id":"cebpf4jnsgd1na2vs0mg"},{"bike_id":"1fdcbf26-1d23-420a-b5e5-e10a6d2f6298","system_id":"levelo_inurba_marseille","lat":43.299747,"lon":5.384802,"is_reserved":false,"is_disabled":false,"rental_uris":{"android":"levelo://app?vid=1fdcbf26-1d23-420a-b5e5-e10a6d2f6298","ios":"levelo://app?vid=1fdcbf26-1d23-420a-b5e5-e10a6d2f6298"},"vehicle_type_id":"4","last_reported":1758647216,"current_range_meters":6400,"station_id":"","pricing_plan_id":"cebpf4jnsgd1na2vs0mg"},{"bike_id":"7ac609cd-d0a8-4661-a3eb-dcfe4123aa16","system_id":"levelo_inurba_marseille","lat":43.2737,"lon":5.36259,"is_reserved":false,"is_disabled":false,"rental_uris":{"android":"levelo://app?vid=7ac609cd-d0a8-4661-a3eb-dcfe4123aa16","ios":"levelo://app?vid=7ac609cd-d0a8-4661-a3eb-dcfe4123aa16"},"vehicle_type_id":"4","last_reported":1758647216,"current_range_meters":6400,"station_id":"ce4bhbh2rcd13ifvqeo0","pricing_plan_id":"cebpf4jnsgd1na2vs0mg"},{"bike_id":"1327ee79-1989-43d7-86b7-aa3f0487fbe3","system_id":"levelo_inurba_marseille","lat":43.31065,"lon":5.38369,"is_reserved":false,"is_disabled":false,"rental_uris":{"android":"levelo://app?vid=1327ee79-1989-43d7-86b7-aa3f0487fbe3","ios":"levelo://app?vid=1327ee79-1989-43d7-86b7-aa3f0487fbe3"},"vehicle_type_id":"4","last_reported":1758647216,"current_range_meters":6400,"station_id":"ce4bgv92rcd13ifvqcr0","pricing_plan_id":"cebpf4jnsgd1na2vs0mg"},{"bike_id":"af29bd4a-51c0-47f1-bce0-b9ca138339ea","system_id":"levelo_inurba_marseille","lat":43.317112,"lon":5.437043,"is_reserved":false,"is_disabled":false,"rental_uris":{"android":"levelo://app?vid=af29bd4a-51c0-47f1-bce0-b9ca138339ea","ios":"levelo://app?vid=af29bd4a-51c0-47f1-bce0-b9ca138339ea"},"vehicle_type_id":"4","last_reported":1758647216,"current_range_meters":6800,"station_id":"ce4bhp92rcd13ifvqhcg","pricing_plan_id":"cebpf4jnsgd1na2vs0mg"},{"bike_id":"3d3616ae-55ab-4319-9346-2104e95c171f","system_id":"levelo_inurba_marseille","lat":43.30978,"lon":5.37958,"is_reserved":false,"is_disabled":false,"rental_uris":{"android":"levelo://app?vid=3d3616ae-55ab-4319-9346-2104e95c171f","ios":"levelo://app?vid=3d3616ae-55ab-4319-9346-2104e95c171f"},"vehicle_type_id":"4","last_reported":1758647216,"current_range_meters":6800,"station_id":"","pricing_plan_id":"cebpf4jnsgd1na2vs0mg"},{"bike_id":"ca000825-5d13-495e-af19-915ae846db43","system_id":"levelo_inurba_marseille","lat":43.330216,"lon":5.390364,"is_reserved":false,"is_disabled":false,"rental_uris":{"android":"levelo://app?vid=ca000825-5d13-495e-af19-915ae846db43","ios":"levelo://app?vid=ca000825-5d13-495e-af19-915ae846db43"},"vehicle_type_id":"4","last_reported":1758647216,"current_range_meters":6800,"station_id":"ce4bhr92rcd13ifvqhrg","pricing_plan_id":"cebpf4jnsgd1na2vs0mg"},{"bike_id":"2289a0ff-9c3e-4f79-ad38-4b41158d6057","system_id":"levelo_inurba_marseille","lat":43.29882,"lon":5.37911,"is_reserved":false,"is_disabled":false,"rental_uris":{"android":"levelo://app?vid=2289a0ff-9c3e-4f79-ad38-4b41158d6057","ios":"levelo://app?vid=2289a0ff-9c3e-4f79-ad38-4b41158d6057"},"vehicle_type_id":"4","last_reported":1758647216,"current_range_meters":6800,"station_id":"","pricing_plan_id":"cebpf4jnsgd1na2vs0mg"},{"bike_id":"3e9d781d-aa79-479b-b9f8-67fed3a1465c","system_id":"levelo_inurba_marseille","lat":43.28157,"lon":5.42648,"is_reserved":false,"is_disabled":false,"rental_uris":{"android":"levelo://app?vid=3e9d781d-aa79-479b-b9f8-67fed3a1465c","ios":"levelo://app?vid=3e9d781d-aa79-479b-b9f8-67fed3a1465c"},"vehicle_type_id":"4","last_reported":1758647216,"current_range_meters":6400,"station_id":"ce4bhnh2rcd13ifvqgug","pricing_plan_id":"cebpf4jnsgd1na2vs0mg"},{"bike_id":"128a2d59-b8b1-4487-9732-c6bc394c309a","system_id":"levelo_inurba_marseille","lat":43.283547,"lon":5.381056,"is_reserved":false,"is_disabled":false,"rental_uris":{"android":"levelo://app?vid=128a2d59-b8b1-4487-9732-c6bc394c309a","ios":"levelo://app?vid=128a2d59-b8b1-4487-9732-c6bc394c309a"},"vehicle_type_id":"4","last_reported":1758647216,"current_range_meters":6800,"station_id":"ce4bh412rcd13ifvqdr0","pricing_plan_id":"cebpf4jnsgd1na2vs0mg"},{"bike_id":"be814d61-308f-4330-8d61-deb894fada68","system_id":"levelo_inurba_marseille","lat":43.32058,"lon":5.41538,"is_reserved":false,"is_disabled":false,"rental_uris":{"android":"levelo://app?vid=be814d61-308f-4330-8d61-deb894fada68","ios":"levelo://app?vid=be814d61-308f-4330-8d61-deb894fada68"},"vehicle_type_id":"4","last_reported":1758647216,"current_range_meters":7200,"station_id":"ce4bhq92rcd13ifvqhkg","pricing_plan_id":"cebpf4jnsgd1na2vs0mg"},{"bike_id":"dd9f96ea-11f2-40af-9b10-7a879edbece3","system_id":"levelo_inurba_marseille","lat":43.29518,"lon":5.39051,"is_reserved":false,"is_disabled":false,"rental_uris":{"android":"levelo://app?vid=dd9f96ea-11f2-40af-9b10-7a879edbece3","ios":"levelo://app?vid=dd9f96ea-11f2-40af-9b10-7a879edbece3"},"vehicle_type_id":"4","last_reported":1758647216,"current_range_meters":7200,"station_id":"ce4bh3p2rcd13ifvqdp0","pricing_plan_id":"cebpf4jnsgd1na2vs0mg"},{"bike_id":"7fd14ad2-a454-423d-bbfa-04d2678cc6ac","system_id":"levelo_inurba_marseille","lat":43.29775,"lon":5.38092,"is_reserved":false,"is_disabled":false,"rental_uris":{"android":"levelo://app?vid=7fd14ad2-a454-423d-bbfa-04d2678cc6ac","ios":"levelo://app?vid=7fd14ad2-a454-423d-bbfa-04d2678cc6ac"},"vehicle_type_id":"4","last_reported":1758647216,"current_range_meters":7200,"station_id":"ce4bgip2rcd13ifvqbb0","pricing_plan_id":"cebpf4jnsgd1na2vs0mg"},{"bike_id":"9134e149-687c-4297-be86-bc1013418bc0","system_id":"levelo_inurba_marseille","lat":43.31327,"lon":5.39692,"is_reserved":false,"is_disabled":false,"rental_uris":{"android":"levelo://app?vid=9134e149-687c-4297-be86-bc1013418bc0","ios":"levelo://app?vid=9134e149-687c-4297-be86-bc1013418bc0"},"vehicle_type_id":"4","last_reported":1758647216,"current_range_meters":7200,"station_id":"ce4bgvp2rcd13ifvqcu0","pricing_plan_id":"cebpf4jnsgd1na2vs0mg"},{"bike_id":"f1c77307-a605-421a-9553-21a93c6f4bf0","system_id":"levelo_inurba_marseille","lat":43.29599,"lon":5.38098,"is_reserved":false,"is_disabled":false,"rental_uris":{"android":"levelo://app?vid=f1c77307-a605-421a-9553-21a93c6f4bf0","ios":"levelo://app?vid=f1c77307-a605-421a-9553-21a93c6f4bf0"},"vehicle_type_id":"4","last_reported":1758647216,"current_range_meters":7200,"station_id":"ce4bgl12rcd13ifvqbo0","pricing_plan_id":"cebpf4jnsgd1na2vs0mg"},{"bike_id":"fcf1bf44-5a13-4d1b-84d2-72432a05b3d8","system_id":"levelo_inurba_marseille","lat":43.32053,"lon":5.41543,"is_reserved":false,"is_disabled":false,"rental_uris":{"android":"levelo://app?vid=fcf1bf44-5a13-4d1b-84d2-72432a05b3d8","ios":"levelo://app?vid=fcf1bf44-5a13-4d1b-84d2-72432a05b3d8"},"vehicle_type_id":"4","last_reported":1758647216,"current_range_meters":7200,"station_id":"ce4bhq92rcd13ifvqhkg","pricing_plan_id":"cebpf4jnsgd1na2vs0mg"},{"bike_id":"7aac19aa-6012-45c9-b3e4-07830b140906","system_id":"levelo_inurba_marseille","lat":43.30329,"lon":5.40433,"is_reserved":false,"is_disabled":false,"rental_uris":{"android":"levelo://app?vid=7aac19aa-6012-45c9-b3e4-07830b140906","ios":"levelo://app?vid=7aac19aa-6012-45c9-b3e4-07830b140906"},"vehicle_type_id":"4","last_reported":1758647216,"current_range_meters":7200,"station_id":"ce4bh012rcd13ifvqd10","pricing_plan_id":"cebpf4jnsgd1na2vs0mg"},{"bike_id":"463826d2-3a30-4831-b2d8-047b58d228bf","system_id":"levelo_inurba_marseille","lat":43.2863,"lon":5.37116,"is_reserved":false,"is_disabled":false,"rental_uris":{"android":"levelo://app?vid=463826d2-3a30-4831-b2d8-047b58d228bf","ios":"levelo://app?vid=463826d2-3a30-4831-b2d8-047b58d228bf"},"vehicle_type_id":"4","last_reported":1758647216,"current_range_meters":7200,"station_id":"ce4bht12rcd13ifvqi60","pricing_plan_id":"cebpf4jnsgd1na2vs0mg"},{"bike_id":"58f09128-2929-4f2a-9ad3-cbf6fc70f070","system_id":"levelo_inurba_marseille","lat":43.29579,"lon":5.36735,"is_reserved":false,"is_disabled":false,"rental_uris":{"android":"levelo://app?vid=58f09128-2929-4f2a-9ad3-cbf6fc70f070","ios":"levelo://app?vid=58f09128-2929-4f2a-9ad3-cbf6fc70f070"},"vehicle_type_id":"4","last_reported":1758647216,"current_range_meters":7200,"station_id":"ce4bgph2rcd13ifvqc2g","pricing_plan_id":"cebpf4jnsgd1na2vs0mg"},{"bike_id":"471b95a4-0018-46c7-8a2b-e17a66dac3c9","system_id":"levelo_inurba_marseille","lat":43.29024,"lon":5.38644,"is_reserved":false,"is_disabled":false,"rental_uris":{"android":"levelo://app?vid=471b95a4-0018-46c7-8a2b-e17a66dac3c9","ios":"levelo://app?vid=471b95a4-0018-46c7-8a2b-e17a66dac3c9"},"vehicle_type_id":"4","last_reported":1758647216,"current_range_meters":7200,"station_id":"ce4bh4p2rcd13ifvqe0g","pricing_plan_id":"cebpf4jnsgd1na2vs0mg"},{"bike_id":"988f5f36-df72-4b20-baed-29d561d7a093","system_id":"levelo_inurba_marseille","lat":43.23962,"lon":5.36632,"is_reserved":false,"is_disabled":false,"rental_uris":{"android":"levelo://app?vid=988f5f36-df72-4b20-baed-29d561d7a093","ios":"levelo://app?vid=988f5f36-df72-4b20-baed-29d561d7a093"},"vehicle_type_id":"4","last_reported":1758647216,"current_range_meters":8400,"station_id":"ce4bhi12rcd13ifvqfp0","pricing_plan_id":"cebpf4jnsgd1na2vs0mg"},{"bike_id":"f393e41e-3b21-4855-9d5f-0a451556a869","system_id":"levelo_inurba_marseille","lat":43.2871,"lon":5.37938,"is_reserved":false,"is_disabled":false,"rental_uris":{"android":"levelo://app?vid=f393e41e-3b21-4855-9d5f-0a451556a869","ios":"levelo://app?vid=f393e41e-3b21-4855-9d5f-0a451556a869"},"vehicle_type_id":"4","last_reported":1758647216,"current_range_meters":8400,"station_id":"ce4bh9p2rcd13ifvqec0","pricing_plan_id":"cebpf4jnsgd1na2vs0mg"},{"bike_id":"dcf73aa4-53c5-4afc-b45c-d4c2482be691","system_id":"levelo_inurba_marseille","lat":43.21739,"lon":5.34614,"is_reserved":false,"is_disabled":false,"rental_uris":{"android":"levelo://app?vid=dcf73aa4-53c5-4afc-b45c-d4c2482be691","ios":"levelo://app?vid=dcf73aa4-53c5-4afc-b45c-d4c2482be691"},"vehicle_type_id":"4","last_reported":1758647216,"current_range_meters":8400,"station_id":"st_cvj6r9ubvosntc0bgbag","pricing_plan_id":"cebpf4jnsgd1na2vs0mg"},{"bike_id":"a9612f45-8054-42e7-bf13-95fddb04dfa9","system_id":"levelo_inurba_marseille","lat":43.325709,"lon":5.41394,"is_reserved":false,"is_disabled":false,"rental_uris":{"android":"levelo://app?vid=a9612f45-8054-42e7-bf13-95fddb04dfa9","ios":"levelo://app?vid=a9612f45-8054-42e7-bf13-95fddb04dfa9"},"vehicle_type_id":"4","last_reported":1758647216,"current_range_meters":8400,"station_id":"ce4bhq12rcd13ifvqhhg","pricing_plan_id":"cebpf4jnsgd1na2vs0mg"},{"bike_id":"eed2cf9a-36d5-4639-8402-2398b6fbd4cf","system_id":"levelo_inurba_marseille","lat":43.21752,"lon":5.34619,"is_reserved":false,"is_disabled":false,"rental_uris":{"android":"levelo://app?vid=eed2cf9a-36d5-4639-8402-2398b6fbd4cf","ios":"levelo://app?vid=eed2cf9a-36d5-4639-8402-2398b6fbd4cf"},"vehicle_type_id":"4","last_reported":1758647216,"current_range_meters":8400,"station_id":"st_cvj6r9ubvosntc0bgbag","pricing_plan_id":"cebpf4jnsgd1na2vs0mg"},{"bike_id":"e1c6dc46-ee83-4a82-8c3d-f2ad796d5912","system_id":"levelo_inurba_marseille","lat":43.24764,"lon":5.39288,"is_reserved":false,"is_disabled":false,"rental_uris":{"android":"levelo://app?vid=e1c6dc46-ee83-4a82-8c3d-f2ad796d5912","ios":"levelo://app?vid=e1c6dc46-ee83-4a82-8c3d-f2ad796d5912"},"vehicle_type_id":"4","last_reported":1758647216,"current_range_meters":8400,"station_id":"","pricing_plan_id":"cebpf4jnsgd1na2vs0mg"},{"bike_id":"e8566b83-494c-4d3a-b579-b003c619e989","system_id":"levelo_inurba_marseille","lat":43.28851,"lon":5.35854,"is_reserved":false,"is_disabled":false,"rental_uris":{"android":"levelo://app?vid=e8566b83-494c-4d3a-b579-b003c619e989","ios":"levelo://app?vid=e8566b83-494c-4d3a-b579-b003c619e989"},"vehicle_type_id":"4","last_reported":1758647216,"current_range_meters":8400,"station_id":"ce4bhb12rcd13ifvqem0","pricing_plan_id":"cebpf4jnsgd1na2vs0mg"},{"bike_id":"d46536c1-b7ad-4df6-a9a1-6c4b8943878b","system_id":"levelo_inurba_marseille","lat":43.3237,"lon":5.38883,"is_reserved":false,"is_disabled":false,"rental_uris":{"android":"levelo://app?vid=d46536c1-b7ad-4df6-a9a1-6c4b8943878b","ios":"levelo://app?vid=d46536c1-b7ad-4df6-a9a1-6c4b8943878b"},"vehicle_type_id":"4","last_reported":1758647216,"current_range_meters":8400,"station_id":"ce4bhqp2rcd13ifvqhog","pricing_plan_id":"cebpf4jnsgd1na2vs0mg"},{"bike_id":"429b16bd-047b-4846-89ce-28276d7203a0","system_id":"levelo_inurba_marseille","lat":43.2823,"lon":5.424488,"is_reserved":false,"is_disabled":false,"rental_uris":{"android":"levelo://app?vid=429b16bd-047b-4846-89ce-28276d7203a0","ios":"levelo://app?vid=429b16bd-047b-4846-89ce-28276d7203a0"},"vehicle_type_id":"4","last_reported":1758647216,"current_range_meters":8400,"station_id":"ce4bhnh2rcd13ifvqgug","pricing_plan_id":"cebpf4jnsgd1na2vs0mg"},{"bike_id":"e86c2d57-1f16-4c0f-94d2-d408fc16aa7e","system_id":"levelo_inurba_marseille","lat":43.28667,"lon":5.36334,"is_reserved":false,"is_disabled":false,"rental_uris":{"android":"levelo://app?vid=e86c2d57-1f16-4c0f-94d2-d408fc16aa7e","ios":"levelo://app?vid=e86c2d57-1f16-4c0f-94d2-d408fc16aa7e"},"vehicle_type_id":"4","last_reported":1758647216,"current_range_meters":8000,"station_id":"ce4bhah2rcd13ifvqej0","pricing_plan_id":"cebpf4jnsgd1na2vs0mg"},{"bike_id":"5096dd44-bb08-49f1-8f58-9d9dfb1faf50","system_id":"levelo_inurba_marseille","lat":43.33406,"lon":5.4008,"is_reserved":false,"is_disabled":false,"rental_uris":{"android":"levelo://app?vid=5096dd44-bb08-49f1-8f58-9d9dfb1faf50","ios":"levelo://app?vid=5096dd44-bb08-49f1-8f58-9d9dfb1faf50"},"vehicle_type_id":"4","last_reported":1758647216,"current_range_meters":8400,"station_id":"","pricing_plan_id":"cebpf4jnsgd1na2vs0mg"},{"bike_id":"26d89c57-b18f-4529-bb7f-77e666340504","system_id":"levelo_inurba_marseille","lat":43.29957,"lon":5.41321,"is_reserved":false,"is_disabled":false,"rental_uris":{"android":"levelo://app?vid=26d89c57-b18f-4529-bb7f-77e666340504","ios":"levelo://app?vid=26d89c57-b18f-4529-bb7f-77e666340504"},"vehicle_type_id":"4","last_reported":1758647216,"current_range_meters":8400,"station_id":"ce4bhp12rcd13ifvqh9g","pricing_plan_id":"cebpf4jnsgd1na2vs0mg"},{"bike_id":"0b2230e3-adb9-421c-91b1-c113eb397705","system_id":"levelo_inurba_marseille","lat":43.28905,"lon":5.37705,"is_reserved":false,"is_disabled":false,"rental_uris":{"android":"levelo://app?vid=0b2230e3-adb9-421c-91b1-c113eb397705","ios":"levelo://app?vid=0b2230e3-adb9-421c-91b1-c113eb397705"},"vehicle_type_id":"4","last_reported":1758647216,"current_range_meters":8800,"station_id":"","pricing_plan_id":"cebpf4jnsgd1na2vs0mg"},{"bike_id":"c3e48ccc-65c6-4ebf-8cf7-ad2b8d3ed03f","system_id":"levelo_inurba_marseille","lat":43.28854,"lon":5.35834,"is_reserved":false,"is_disabled":false,"rental_uris":{"android":"levelo://app?vid=c3e48ccc-65c6-4ebf-8cf7-ad2b8d3ed03f","ios":"levelo://app?vid=c3e48ccc-65c6-4ebf-8cf7-ad2b8d3ed03f"},"vehicle_type_id":"4","last_reported":1758647216,"current_range_meters":8800,"station_id":"ce4bhb12rcd13ifvqem0","pricing_plan_id":"cebpf4jnsgd1na2vs0mg"},{"bike_id":"34668886-3c8e-4b12-a9ca-50cc13b4f47e","system_id":"levelo_inurba_marseille","lat":43.28125,"lon":5.40572,"is_reserved":false,"is_disabled":false,"rental_uris":{"android":"levelo://app?vid=34668886-3c8e-4b12-a9ca-50cc13b4f47e","ios":"levelo://app?vid=34668886-3c8e-4b12-a9ca-50cc13b4f47e"},"vehicle_type_id":"4","last_reported":1758647216,"current_range_meters":8800,"station_id":"","pricing_plan_id":"cebpf4jnsgd1na2vs0mg"},{"bike_id":"f6471fd4-221d-4f70-8097-2bddeb072d9b","system_id":"levelo_inurba_marseille","lat":43.29622,"lon":5.37155,"is_reserved":false,"is_disabled":false,"rental_uris":{"android":"levelo://app?vid=f6471fd4-221d-4f70-8097-2bddeb072d9b","ios":"levelo://app?vid=f6471fd4-221d-4f70-8097-2bddeb072d9b"},"vehicle_type_id":"4","last_reported":1758647216,"current_range_meters":8400,"station_id":"ce4bgnh2rcd13ifvqc0g","pricing_plan_id":"cebpf4jnsgd1na2vs0mg"},{"bike_id":"1efddf8d-578f-4e4c-8c3f-e3a8bd592ba4","system_id":"levelo_inurba_marseille","lat":43.29977,"lon":5.37366,"is_reserved":false,"is_disabled":false,"rental_uris":{"android":"levelo://app?vid=1efddf8d-578f-4e4c-8c3f-e3a8bd592ba4","ios":"levelo://app?vid=1efddf8d-578f-4e4c-8c3f-e3a8bd592ba4"},"vehicle_type_id":"4","last_reported":1758647216,"current_range_meters":9200,"station_id":"","pricing_plan_id":"cebpf4jnsgd1na2vs0mg"},{"bike_id":"c5c96d4e-b627-428c-ba5f-9228dc3f0147","system_id":"levelo_inurba_marseille","lat":43.23186,"lon":5.35564,"is_reserved":false,"is_disabled":false,"rental_uris":{"android":"levelo://app?vid=c5c96d4e-b627-428c-ba5f-9228dc3f0147","ios":"levelo://app?vid=c5c96d4e-b627-428c-ba5f-9228dc3f0147"},"vehicle_type_id":"4","last_reported":1758647216,"current_range_meters":9200,"station_id":"ce4bhu92rcd13ifvqi70","pricing_plan_id":"cebpf4jnsgd1na2vs0mg"},{"bike_id":"e69b3ad1-4137-44c2-ac7c-6735ce46720a","system_id":"levelo_inurba_marseille","lat":43.298875,"lon":5.389041,"is_reserved":false,"is_disabled":false,"rental_uris":{"android":"levelo://app?vid=e69b3ad1-4137-44c2-ac7c-6735ce46720a","ios":"levelo://app?vid=e69b3ad1-4137-44c2-ac7c-6735ce46720a"},"vehicle_type_id":"4","last_reported":1758647216,"current_range_meters":9200,"station_id":"ce4bho92rcd13ifvqh4g","pricing_plan_id":"cebpf4jnsgd1na2vs0mg"},{"bike_id":"50375795-7bd9-4982-ab7f-ff1c20f58ea4","system_id":"levelo_inurba_marseille","lat":43.28403,"lon":5.34988,"is_reserved":false,"is_disabled":false,"rental_uris":{"android":"levelo://app?vid=50375795-7bd9-4982-ab7f-ff1c20f58ea4","ios":"levelo://app?vid=50375795-7bd9-4982-ab7f-ff1c20f58ea4"},"vehicle_type_id":"4","last_reported":1758647216,"current_range_meters":9600,"station_id":"ce4bhbh2rcd13ifvqepg","pricing_plan_id":"cebpf4jnsgd1na2vs0mg"},{"bike_id":"304a25dd-2acc-426c-92ec-5e842859b468","system_id":"levelo_inurba_marseille","lat":43.28571,"lon":5.39494,"is_reserved":false,"is_disabled":false,"rental_uris":{"android":"levelo://app?vid=304a25dd-2acc-426c-92ec-5e842859b468","ios":"levelo://app?vid=304a25dd-2acc-426c-92ec-5e842859b468"},"vehicle_type_id":"4","last_reported":1758647216,"current_range_meters":9600,"station_id":"ce4bh292rcd13ifvqdg0","pricing_plan_id":"cebpf4jnsgd1na2vs0mg"},{"bike_id":"9641dda2-4490-44b3-b0cb-dd22ade78410","system_id":"levelo_inurba_marseille","lat":43.29841,"lon":5.36272,"is_reserved":false,"is_disabled":false,"rental_uris":{"android":"levelo://app?vid=9641dda2-4490-44b3-b0cb-dd22ade78410","ios":"levelo://app?vid=9641dda2-4490-44b3-b0cb-dd22ade78410"},"vehicle_type_id":"4","last_reported":1758647216,"current_range_meters":9600,"station_id":"ce4bgpp2rcd13ifvqc3g","pricing_plan_id":"cebpf4jnsgd1na2vs0mg"},{"bike_id":"88493dd0-4e45-4f66-984c-76d6baf7261f","system_id":"levelo_inurba_marseille","lat":43.29683,"lon":5.37288,"is_reserved":false,"is_disabled":false,"rental_uris":{"android":"levelo://app?vid=88493dd0-4e45-4f66-984c-76d6baf7261f","ios":"levelo://app?vid=88493dd0-4e45-4f66-984c-76d6baf7261f"},"vehicle_type_id":"4","last_reported":1758647216,"current_range_meters":9600,"station_id":"ce4bgk12rcd13ifvqbj0","pricing_plan_id":"cebpf4jnsgd1na2vs0mg"},{"bike_id":"f0d7cbbb-75a2-45a3-9aaf-7d6950a873f5","system_id":"levelo_inurba_marseille","lat":43.266022,"lon":5.390521,"is_reserved":false,"is_disabled":false,"rental_uris":{"android":"levelo://app?vid=f0d7cbbb-75a2-45a3-9aaf-7d6950a873f5","ios":"levelo://app?vid=f0d7cbbb-75a2-45a3-9aaf-7d6950a873f5"},"vehicle_type_id":"4","last_reported":1758647216,"current_range_meters":9600,"station_id":"ce4bhe12rcd13ifvqf30","pricing_plan_id":"cebpf4jnsgd1na2vs0mg"},{"bike_id":"656662f8-fe0c-4ac6-93fa-30db7fb0903b","system_id":"levelo_inurba_marseille","lat":43.2558,"lon":5.38236,"is_reserved":false,"is_disabled":false,"rental_uris":{"android":"levelo://app?vid=656662f8-fe0c-4ac6-93fa-30db7fb0903b","ios":"levelo://app?vid=656662f8-fe0c-4ac6-93fa-30db7fb0903b"},"vehicle_type_id":"4","last_reported":1758647216,"current_range_meters":10000,"station_id":"ce4bhih2rcd13ifvqfs0","pricing_plan_id":"cebpf4jnsgd1na2vs0mg"},{"bike_id":"89d038d9-1047-4131-8d4d-117e24e75aff","system_id":"levelo_inurba_marseille","lat":43.29967,"lon":5.41322,"is_reserved":false,"is_disabled":false,"rental_uris":{"android":"levelo://app?vid=89d038d9-1047-4131-8d4d-117e24e75aff","ios":"levelo://app?vid=89d038d9-1047-4131-8d4d-117e24e75aff"},"vehicle_type_id":"4","last_reported":1758647216,"current_range_meters":10000,"station_id":"ce4bhp12rcd13ifvqh9g","pricing_plan_id":"cebpf4jnsgd1na2vs0mg"},{"bike_id":"94d430e6-52b3-4d21-80c9-c6dd4519a8fb","system_id":"levelo_inurba_marseille","lat":43.31773,"lon":5.38278,"is_reserved":false,"is_disabled":false,"rental_uris":{"android":"levelo://app?vid=94d430e6-52b3-4d21-80c9-c6dd4519a8fb","ios":"levelo://app?vid=94d430e6-52b3-4d21-80c9-c6dd4519a8fb"},"vehicle_type_id":"4","last_reported":1758647216,"current_range_meters":10000,"station_id":"","pricing_plan_id":"cebpf4jnsgd1na2vs0mg"},{"bike_id":"e66bb1a4-7799-4cde-9f64-29b6f4eda452","system_id":"levelo_inurba_marseille","lat":43.30312,"lon":5.40446,"is_reserved":false,"is_disabled":false,"rental_uris":{"android":"levelo://app?vid=e66bb1a4-7799-4cde-9f64-29b6f4eda452","ios":"levelo://app?vid=e66bb1a4-7799-4cde-9f64-29b6f4eda452"},"vehicle_type_id":"4","last_reported":1758647216,"current_range_meters":10000,"station_id":"ce4bh012rcd13ifvqd10","pricing_plan_id":"cebpf4jnsgd1na2vs0mg"},{"bike_id":"285ac12b-9ede-42db-a9fd-f958b937d784","system_id":"levelo_inurba_marseille","lat":43.26024,"lon":5.3757,"is_reserved":false,"is_disabled":false,"rental_uris":{"android":"levelo://app?vid=285ac12b-9ede-42db-a9fd-f958b937d784","ios":"levelo://app?vid=285ac12b-9ede-42db-a9fd-f958b937d784"},"vehicle_type_id":"4","last_reported":1758647216,"current_range_meters":10000,"station_id":"ce4bhgh2rcd13ifvqfa0","pricing_plan_id":"cebpf4jnsgd1na2vs0mg"},{"bike_id":"8687bc0d-6e27-414d-897f-db857ef16cbf","system_id":"levelo_inurba_marseille","lat":43.27425,"lon":5.39419,"is_reserved":false,"is_disabled":false,"rental_uris":{"android":"levelo://app?vid=8687bc0d-6e27-414d-897f-db857ef16cbf","ios":"levelo://app?vid=8687bc0d-6e27-414d-897f-db857ef16cbf"},"vehicle_type_id":"4","last_reported":1758647216,"current_range_meters":9600,"station_id":"ce4bhdp2rcd13ifvqf20","pricing_plan_id":"cebpf4jnsgd1na2vs0mg"},{"bike_id":"8d243e83-cc74-44d3-bf18-f20421549672","system_id":"levelo_inurba_marseille","lat":43.28928,"lon":5.35942,"is_reserved":false,"is_disabled":false,"rental_uris":{"android":"levelo://app?vid=8d243e83-cc74-44d3-bf18-f20421549672","ios":"levelo://app?vid=8d243e83-cc74-44d3-bf18-f20421549672"},"vehicle_type_id":"4","last_reported":1758647216,"current_range_meters":10000,"station_id":"","pricing_plan_id":"cebpf4jnsgd1na2vs0mg"},{"bike_id":"7d7a0abe-83b8-4067-92d1-8adad0b45209","system_id":"levelo_inurba_marseille","lat":43.27072,"lon":5.4228,"is_reserved":false,"is_disabled":false,"rental_uris":{"android":"levelo://app?vid=7d7a0abe-83b8-4067-92d1-8adad0b45209","ios":"levelo://app?vid=7d7a0abe-83b8-4067-92d1-8adad0b45209"},"vehicle_type_id":"4","last_reported":1758647216,"current_range_meters":10800,"station_id":"ce4bhk92rcd13ifvqgb0","pricing_plan_id":"cebpf4jnsgd1na2vs0mg"},{"bike_id":"a319cf7e-ad8e-4571-a320-8c49bf238f86","system_id":"levelo_inurba_marseille","lat":43.29939,"lon":5.36549,"is_reserved":false,"is_disabled":false,"rental_uris":{"android":"levelo://app?vid=a319cf7e-ad8e-4571-a320-8c49bf238f86","ios":"levelo://app?vid=a319cf7e-ad8e-4571-a320-8c49bf238f86"},"vehicle_type_id":"4","last_reported":1758647216,"current_range_meters":10800,"station_id":"ce4bgm92rcd13ifvqbr0","pricing_plan_id":"cebpf4jnsgd1na2vs0mg"},{"bike_id":"80856785-6c18-4764-86a3-85c59ca20582","system_id":"levelo_inurba_marseille","lat":43.30186,"lon":5.36974,"is_reserved":false,"is_disabled":false,"rental_uris":{"android":"levelo://app?vid=80856785-6c18-4764-86a3-85c59ca20582","ios":"levelo://app?vid=80856785-6c18-4764-86a3-85c59ca20582"},"vehicle_type_id":"4","last_reported":1758647216,"current_range_meters":10800,"station_id":"","pricing_plan_id":"cebpf4jnsgd1na2vs0mg"},{"bike_id":"a567c709-78bf-41a4-9fec-a328a2cb60ef","system_id":"levelo_inurba_marseille","lat":43.28599,"lon":5.35112,"is_reserved":false,"is_disabled":false,"rental_uris":{"android":"levelo://app?vid=a567c709-78bf-41a4-9fec-a328a2cb60ef","ios":"levelo://app?vid=a567c709-78bf-41a4-9fec-a328a2cb60ef"},"vehicle_type_id":"4","last_reported":1758647216,"current_range_meters":11200,"station_id":"ce4bhch2rcd13ifvqeug","pricing_plan_id":"cebpf4jnsgd1na2vs0mg"},{"bike_id":"8d09a711-0c95-4552-90a1-85155e6f60d1","system_id":"levelo_inurba_marseille","lat":43.290192,"lon":5.386477,"is_reserved":false,"is_disabled":false,"rental_uris":{"android":"levelo://app?vid=8d09a711-0c95-4552-90a1-85155e6f60d1","ios":"levelo://app?vid=8d09a711-0c95-4552-90a1-85155e6f60d1"},"vehicle_type_id":"4","last_reported":1758647216,"current_range_meters":11200,"station_id":"ce4bh4p2rcd13ifvqe0g","pricing_plan_id":"cebpf4jnsgd1na2vs0mg"},{"bike_id":"ff7700d8-f738-4eaa-8c4e-8c0b32393ebc","system_id":"levelo_inurba_marseille","lat":43.23965,"lon":5.3663,"is_reserved":false,"is_disabled":false,"rental_uris":{"android":"levelo://app?vid=ff7700d8-f738-4eaa-8c4e-8c0b32393ebc","ios":"levelo://app?vid=ff7700d8-f738-4eaa-8c4e-8c0b32393ebc"},"vehicle_type_id":"4","last_reported":1758647216,"current_range_meters":11600,"station_id":"ce4bhi12rcd13ifvqfp0","pricing_plan_id":"cebpf4jnsgd1na2vs0mg"},{"bike_id":"fbc39f3b-c4b5-4043-98ec-5a5227fa984a","system_id":"levelo_inurba_marseille","lat":43.27495,"lon":5.4245,"is_reserved":false,"is_disabled":false,"rental_uris":{"android":"levelo://app?vid=fbc39f3b-c4b5-4043-98ec-5a5227fa984a","ios":"levelo://app?vid=fbc39f3b-c4b5-4043-98ec-5a5227fa984a"},"vehicle_type_id":"4","last_reported":1758647216,"current_range_meters":11600,"station_id":"ce4bhn92rcd13ifvqgrg","pricing_plan_id":"cebpf4jnsgd1na2vs0mg"},{"bike_id":"7c63dccf-ea80-4f43-aeaf-c52b2bb64acc","system_id":"levelo_inurba_marseille","lat":43.30875,"lon":5.39641,"is_reserved":false,"is_disabled":false,"rental_uris":{"android":"levelo://app?vid=7c63dccf-ea80-4f43-aeaf-c52b2bb64acc","ios":"levelo://app?vid=7c63dccf-ea80-4f43-aeaf-c52b2bb64acc"},"vehicle_type_id":"4","last_reported":1758647216,"current_range_meters":11200,"station_id":"ce4bh012rcd13ifvqcv0","pricing_plan_id":"cebpf4jnsgd1na2vs0mg"},{"bike_id":"3db912be-d1ec-4e7c-b913-2c189083b8f8","system_id":"levelo_inurba_marseille","lat":43.29531,"lon":5.38537,"is_reserved":false,"is_disabled":false,"rental_uris":{"android":"levelo://app?vid=3db912be-d1ec-4e7c-b913-2c189083b8f8","ios":"levelo://app?vid=3db912be-d1ec-4e7c-b913-2c189083b8f8"},"vehicle_type_id":"4","last_reported":1758647216,"current_range_meters":11600,"station_id":"ce4bgih2rcd13ifvqba0","pricing_plan_id":"cebpf4jnsgd1na2vs0mg"},{"bike_id":"47c6793c-f5a1-4ec5-a6d3-2258d6a9c2a1","system_id":"levelo_inurba_marseille","lat":43.28618,"lon":5.35105,"is_reserved":false,"is_disabled":false,"rental_uris":{"android":"levelo://app?vid=47c6793c-f5a1-4ec5-a6d3-2258d6a9c2a1","ios":"levelo://app?vid=47c6793c-f5a1-4ec5-a6d3-2258d6a9c2a1"},"vehicle_type_id":"4","last_reported":1758647216,"current_range_meters":11600,"station_id":"ce4bhch2rcd13ifvqeug","pricing_plan_id":"cebpf4jnsgd1na2vs0mg"},{"bike_id":"c256e81f-c247-43e4-bba7-cf990b257393","system_id":"levelo_inurba_marseille","lat":43.25003,"lon":5.38932,"is_reserved":false,"is_disabled":false,"rental_uris":{"android":"levelo://app?vid=c256e81f-c247-43e4-bba7-cf990b257393","ios":"levelo://app?vid=c256e81f-c247-43e4-bba7-cf990b257393"},"vehicle_type_id":"4","last_reported":1758647216,"current_range_meters":12000,"station_id":"ce4bhgp2rcd13ifvqfd0","pricing_plan_id":"cebpf4jnsgd1na2vs0mg"},{"bike_id":"1b893157-25fa-4353-9b23-b7875f2441b4","system_id":"levelo_inurba_marseille","lat":43.246606,"lon":5.381646,"is_reserved":false,"is_disabled":false,"rental_uris":{"android":"levelo://app?vid=1b893157-25fa-4353-9b23-b7875f2441b4","ios":"levelo://app?vid=1b893157-25fa-4353-9b23-b7875f2441b4"},"vehicle_type_id":"4","last_reported":1758647216,"current_range_meters":12000,"station_id":"ce4bhih2rcd13ifvqfr0","pricing_plan_id":"cebpf4jnsgd1na2vs0mg"},{"bike_id":"8190065d-15e8-406e-a402-257fe6740eef","system_id":"levelo_inurba_marseille","lat":43.28344,"lon":5.38133,"is_reserved":false,"is_disabled":false,"rental_uris":{"android":"levelo://app?vid=8190065d-15e8-406e-a402-257fe6740eef","ios":"levelo://app?vid=8190065d-15e8-406e-a402-257fe6740eef"},"vehicle_type_id":"4","last_reported":1758647216,"current_range_meters":12000,"station_id":"ce4bh412rcd13ifvqdr0","pricing_plan_id":"cebpf4jnsgd1na2vs0mg"},{"bike_id":"9797a041-ebe1-427d-9c82-89476668d6b8","system_id":"levelo_inurba_marseille","lat":43.3171,"lon":5.43706,"is_reserved":false,"is_disabled":false,"rental_uris":{"android":"levelo://app?vid=9797a041-ebe1-427d-9c82-89476668d6b8","ios":"levelo://app?vid=9797a041-ebe1-427d-9c82-89476668d6b8"},"vehicle_type_id":"4","last_reported":1758647216,"current_range_meters":12000,"station_id":"ce4bhp92rcd13ifvqhcg","pricing_plan_id":"cebpf4jnsgd1na2vs0mg"},{"bike_id":"e9414e21-74e6-44e3-bea7-8b9e6f90497f","system_id":"levelo_inurba_marseille","lat":43.30526,"lon":5.38421,"is_reserved":false,"is_disabled":false,"rental_uris":{"android":"levelo://app?vid=e9414e21-74e6-44e3-bea7-8b9e6f90497f","ios":"levelo://app?vid=e9414e21-74e6-44e3-bea7-8b9e6f90497f"},"vehicle_type_id":"4","last_reported":1758647216,"current_range_meters":11600,"station_id":"ce4bgg92rcd13ifvqb30","pricing_plan_id":"cebpf4jnsgd1na2vs0mg"},{"bike_id":"6d63f3d5-7bb7-4689-8586-67a138839ca6","system_id":"levelo_inurba_marseille","lat":43.28561,"lon":5.39518,"is_reserved":false,"is_disabled":false,"rental_uris":{"android":"levelo://app?vid=6d63f3d5-7bb7-4689-8586-67a138839ca6","ios":"levelo://app?vid=6d63f3d5-7bb7-4689-8586-67a138839ca6"},"vehicle_type_id":"4","last_reported":1758647216,"current_range_meters":12000,"station_id":"ce4bh292rcd13ifvqdg0","pricing_plan_id":"cebpf4jnsgd1na2vs0mg"},{"bike_id":"5c6070a0-0fa7-40a1-bae4-90214c4809f1","system_id":"levelo_inurba_marseille","lat":43.28594,"lon":5.35114,"is_reserved":false,"is_disabled":false,"rental_uris":{"android":"levelo://app?vid=5c6070a0-0fa7-40a1-bae4-90214c4809f1","ios":"levelo://app?vid=5c6070a0-0fa7-40a1-bae4-90214c4809f1"},"vehicle_type_id":"4","last_reported":1758647216,"current_range_meters":12400,"station_id":"ce4bhch2rcd13ifvqeug","pricing_plan_id":"cebpf4jnsgd1na2vs0mg"},{"bike_id":"163ae194-a9e3-4b77-b01c-dceb8ad17245","system_id":"levelo_inurba_marseille","lat":43.291981,"lon":5.393294,"is_reserved":false,"is_disabled":false,"rental_uris":{"android":"levelo://app?vid=163ae194-a9e3-4b77-b01c-dceb8ad17245","ios":"levelo://app?vid=163ae194-a9e3-4b77-b01c-dceb8ad17245"},"vehicle_type_id":"4","last_reported":1758647216,"current_range_meters":12400,"station_id":"ce4bh192rcd13ifvqdd0","pricing_plan_id":"cebpf4jnsgd1na2vs0mg"},{"bike_id":"49721b78-b746-4087-9e3f-cf6bcdd5421e","system_id":"levelo_inurba_marseille","lat":43.26962,"lon":5.38618,"is_reserved":false,"is_disabled":false,"rental_uris":{"android":"levelo://app?vid=49721b78-b746-4087-9e3f-cf6bcdd5421e","ios":"levelo://app?vid=49721b78-b746-4087-9e3f-cf6bcdd5421e"},"vehicle_type_id":"4","last_reported":1758647216,"current_range_meters":12400,"station_id":"ce4bhh92rcd13ifvqfh0","pricing_plan_id":"cebpf4jnsgd1na2vs0mg"},{"bike_id":"fda51b41-a768-4126-81f6-edb5145b58ac","system_id":"levelo_inurba_marseille","lat":43.28367,"lon":5.3863,"is_reserved":false,"is_disabled":false,"rental_uris":{"android":"levelo://app?vid=fda51b41-a768-4126-81f6-edb5145b58ac","ios":"levelo://app?vid=fda51b41-a768-4126-81f6-edb5145b58ac"},"vehicle_type_id":"4","last_reported":1758647216,"current_range_meters":12400,"station_id":"ce4bh492rcd13ifvqdvg","pricing_plan_id":"cebpf4jnsgd1na2vs0mg"},{"bike_id":"67b97e29-7ecb-4018-a464-041bbd85ed0b","system_id":"levelo_inurba_marseille","lat":43.284195,"lon":5.349815,"is_reserved":false,"is_disabled":false,"rental_uris":{"android":"levelo://app?vid=67b97e29-7ecb-4018-a464-041bbd85ed0b","ios":"levelo://app?vid=67b97e29-7ecb-4018-a464-041bbd85ed0b"},"vehicle_type_id":"4","last_reported":1758647216,"current_range_meters":12400,"station_id":"ce4bhbh2rcd13ifvqepg","pricing_plan_id":"cebpf4jnsgd1na2vs0mg"},{"bike_id":"883efc9a-697b-42a3-89cd-75ab8b3f8924","system_id":"levelo_inurba_marseille","lat":43.28462,"lon":5.38553,"is_reserved":false,"is_disabled":true,"rental_uris":{"android":"levelo://app?vid=883efc9a-697b-42a3-89cd-75ab8b3f8924","ios":"levelo://app?vid=883efc9a-697b-42a3-89cd-75ab8b3f8924"},"vehicle_type_id":"4","last_reported":1758647216,"current_range_meters":12800,"station_id":"ce4bh8p2rcd13ifvqeb0","pricing_plan_id":"cebpf4jnsgd1na2vs0mg"},{"bike_id":"2e586592-f08d-43dc-b657-a1ca511d1d1a","system_id":"levelo_inurba_marseille","lat":43.27937,"lon":5.41045,"is_reserved":false,"is_disabled":false,"rental_uris":{"android":"levelo://app?vid=2e586592-f08d-43dc-b657-a1ca511d1d1a","ios":"levelo://app?vid=2e586592-f08d-43dc-b657-a1ca511d1d1a"},"vehicle_type_id":"4","last_reported":1758647216,"current_range_meters":12800,"station_id":"ce4bhnp2rcd13ifvqh0g","pricing_plan_id":"cebpf4jnsgd1na2vs0mg"},{"bike_id":"91ea96b2-7f49-40d0-892a-723da064bce4","system_id":"levelo_inurba_marseille","lat":43.23059,"lon":5.35493,"is_reserved":false,"is_disabled":false,"rental_uris":{"android":"levelo://app?vid=91ea96b2-7f49-40d0-892a-723da064bce4","ios":"levelo://app?vid=91ea96b2-7f49-40d0-892a-723da064bce4"},"vehicle_type_id":"4","last_reported":1758647216,"current_range_meters":12800,"station_id":"cpo3342slgdg3j2ifvpg","pricing_plan_id":"cebpf4jnsgd1na2vs0mg"},{"bike_id":"31e2918c-dc06-4f8d-b458-d96af3bb8e32","system_id":"levelo_inurba_marseille","lat":43.28727,"lon":5.36073,"is_reserved":false,"is_disabled":false,"rental_uris":{"android":"levelo://app?vid=31e2918c-dc06-4f8d-b458-d96af3bb8e32","ios":"levelo://app?vid=31e2918c-dc06-4f8d-b458-d96af3bb8e32"},"vehicle_type_id":"4","last_reported":1758647216,"current_range_meters":12800,"station_id":"cki0cbj6b192h4jlfktg","pricing_plan_id":"cebpf4jnsgd1na2vs0mg"},{"bike_id":"2ec5b383-fd11-4a81-be92-32c44d39e5ce","system_id":"levelo_inurba_marseille","lat":43.26804,"lon":5.4027,"is_reserved":false,"is_disabled":false,"rental_uris":{"android":"levelo://app?vid=2ec5b383-fd11-4a81-be92-32c44d39e5ce","ios":"levelo://app?vid=2ec5b383-fd11-4a81-be92-32c44d39e5ce"},"vehicle_type_id":"4","last_reported":1758647216,"current_range_meters":12400,"station_id":"ce501612rcd8frsf0b60","pricing_plan_id":"cebpf4jnsgd1na2vs0mg"},{"bike_id":"6ac17a81-0487-4557-9f83-8f554f6e083e","system_id":"levelo_inurba_marseille","lat":43.32021,"lon":5.37125,"is_reserved":false,"is_disabled":false,"rental_uris":{"android":"levelo://app?vid=6ac17a81-0487-4557-9f83-8f554f6e083e","ios":"levelo://app?vid=6ac17a81-0487-4557-9f83-8f554f6e083e"},"vehicle_type_id":"4","last_reported":1758647216,"current_range_meters":12800,"station_id":"","pricing_plan_id":"cebpf4jnsgd1na2vs0mg"},{"bike_id":"ff4aa4a7-4363-45b6-a3ab-6a0e25e4aa2c","system_id":"levelo_inurba_marseille","lat":43.32332,"lon":5.40623,"is_reserved":false,"is_disabled":false,"rental_uris":{"android":"levelo://app?vid=ff4aa4a7-4363-45b6-a3ab-6a0e25e4aa2c","ios":"levelo://app?vid=ff4aa4a7-4363-45b6-a3ab-6a0e25e4aa2c"},"vehicle_type_id":"4","last_reported":1758647216,"current_range_meters":12800,"station_id":"ce4bhq92rcd13ifvqhjg","pricing_plan_id":"cebpf4jnsgd1na2vs0mg"},{"bike_id":"cbb9a9b4-4dbd-4f42-8d9d-e7a7fd5ac544","system_id":"levelo_inurba_marseille","lat":43.30531,"lon":5.36711,"is_reserved":false,"is_disabled":false,"rental_uris":{"android":"levelo://app?vid=cbb9a9b4-4dbd-4f42-8d9d-e7a7fd5ac544","ios":"levelo://app?vid=cbb9a9b4-4dbd-4f42-8d9d-e7a7fd5ac544"},"vehicle_type_id":"4","last_reported":1758647216,"current_range_meters":12800,"station_id":"ce4bgrp2rcd13ifvqc9g","pricing_plan_id":"cebpf4jnsgd1na2vs0mg"},{"bike_id":"1b0a8b2e-fd95-4df2-85a7-a446a01e4fc1","system_id":"levelo_inurba_marseille","lat":43.31115,"lon":5.37752,"is_reserved":false,"is_disabled":false,"rental_uris":{"android":"levelo://app?vid=1b0a8b2e-fd95-4df2-85a7-a446a01e4fc1","ios":"levelo://app?vid=1b0a8b2e-fd95-4df2-85a7-a446a01e4fc1"},"vehicle_type_id":"4","last_reported":1758647216,"current_range_meters":12800,"station_id":"ce4bgt92rcd13ifvqcg0","pricing_plan_id":"cebpf4jnsgd1na2vs0mg"},{"bike_id":"8105a01f-23ae-43a9-aaed-1717d3393078","system_id":"levelo_inurba_marseille","lat":43.27364,"lon":5.3625,"is_reserved":false,"is_disabled":false,"rental_uris":{"android":"levelo://app?vid=8105a01f-23ae-43a9-aaed-1717d3393078","ios":"levelo://app?vid=8105a01f-23ae-43a9-aaed-1717d3393078"},"vehicle_type_id":"4","last_reported":1758647216,"current_range_meters":12800,"station_id":"ce4bhbh2rcd13ifvqeo0","pricing_plan_id":"cebpf4jnsgd1na2vs0mg"},{"bike_id":"cfa3b279-db34-4bb5-b70c-36c855997ad9","system_id":"levelo_inurba_marseille","lat":43.31363,"lon":5.38498,"is_reserved":false,"is_disabled":false,"rental_uris":{"android":"levelo://app?vid=cfa3b279-db34-4bb5-b70c-36c855997ad9","ios":"levelo://app?vid=cfa3b279-db34-4bb5-b70c-36c855997ad9"},"vehicle_type_id":"4","last_reported":1758647216,"current_range_meters":12800,"station_id":"ce4bgt92rcd13ifvqcf0","pricing_plan_id":"cebpf4jnsgd1na2vs0mg"},{"bike_id":"b1012383-041f-4e38-9bf8-b9097c1d3a6f","system_id":"levelo_inurba_marseille","lat":43.27615,"lon":5.36113,"is_reserved":false,"is_disabled":false,"rental_uris":{"android":"levelo://app?vid=b1012383-041f-4e38-9bf8-b9097c1d3a6f","ios":"levelo://app?vid=b1012383-041f-4e38-9bf8-b9097c1d3a6f"},"vehicle_type_id":"4","last_reported":1758647216,"current_range_meters":13600,"station_id":"ce4bgj92rcd13ifvqbe0","pricing_plan_id":"cebpf4jnsgd1na2vs0mg"},{"bike_id":"3dc958e3-9ddb-4ae1-90d5-a4cc5e1212d4","system_id":"levelo_inurba_marseille","lat":43.30122,"lon":5.3987,"is_reserved":false,"is_disabled":false,"rental_uris":{"android":"levelo://app?vid=3dc958e3-9ddb-4ae1-90d5-a4cc5e1212d4","ios":"levelo://app?vid=3dc958e3-9ddb-4ae1-90d5-a4cc5e1212d4"},"vehicle_type_id":"4","last_reported":1758647216,"current_range_meters":12800,"station_id":"ce4bh0h2rcd13ifvqd40","pricing_plan_id":"cebpf4jnsgd1na2vs0mg"},{"bike_id":"36d0775a-2729-41d3-98ae-c37b13f4b525","system_id":"levelo_inurba_marseille","lat":43.29331,"lon":5.41162,"is_reserved":false,"is_disabled":false,"rental_uris":{"android":"levelo://app?vid=36d0775a-2729-41d3-98ae-c37b13f4b525","ios":"levelo://app?vid=36d0775a-2729-41d3-98ae-c37b13f4b525"},"vehicle_type_id":"4","last_reported":1758647216,"current_range_meters":13600,"station_id":"","pricing_plan_id":"cebpf4jnsgd1na2vs0mg"},{"bike_id":"a0e9505a-f218-4e1d-8d07-87461e310bf5","system_id":"levelo_inurba_marseille","lat":43.29544,"lon":5.38533,"is_reserved":false,"is_disabled":false,"rental_uris":{"android":"levelo://app?vid=a0e9505a-f218-4e1d-8d07-87461e310bf5","ios":"levelo://app?vid=a0e9505a-f218-4e1d-8d07-87461e310bf5"},"vehicle_type_id":"4","last_reported":1758647216,"current_range_meters":13600,"station_id":"ce4bgih2rcd13ifvqba0","pricing_plan_id":"cebpf4jnsgd1na2vs0mg"},{"bike_id":"109b1194-fc7c-4db6-b2eb-6c93d4cd22fc","system_id":"levelo_inurba_marseille","lat":43.25331,"lon":5.42171,"is_reserved":false,"is_disabled":false,"rental_uris":{"android":"levelo://app?vid=109b1194-fc7c-4db6-b2eb-6c93d4cd22fc","ios":"levelo://app?vid=109b1194-fc7c-4db6-b2eb-6c93d4cd22fc"},"vehicle_type_id":"4","last_reported":1758647216,"current_range_meters":13600,"station_id":"st_d2m65c5bi1j21697t3ng","pricing_plan_id":"cebpf4jnsgd1na2vs0mg"},{"bike_id":"6fb04c64-ef8c-4421-a5e6-f3cc96fb7cff","system_id":"levelo_inurba_marseille","lat":43.24666,"lon":5.38165,"is_reserved":false,"is_disabled":false,"rental_uris":{"android":"levelo://app?vid=6fb04c64-ef8c-4421-a5e6-f3cc96fb7cff","ios":"levelo://app?vid=6fb04c64-ef8c-4421-a5e6-f3cc96fb7cff"},"vehicle_type_id":"4","last_reported":1758647216,"current_range_meters":13600,"station_id":"ce4bhih2rcd13ifvqfr0","pricing_plan_id":"cebpf4jnsgd1na2vs0mg"},{"bike_id":"062882c0-6810-4134-94b1-d58221c157d0","system_id":"levelo_inurba_marseille","lat":43.25328,"lon":5.42175,"is_reserved":false,"is_disabled":false,"rental_uris":{"android":"levelo://app?vid=062882c0-6810-4134-94b1-d58221c157d0","ios":"levelo://app?vid=062882c0-6810-4134-94b1-d58221c157d0"},"vehicle_type_id":"4","last_reported":1758647216,"current_range_meters":13600,"station_id":"st_d2m65c5bi1j21697t3ng","pricing_plan_id":"cebpf4jnsgd1na2vs0mg"},{"bike_id":"43d57fd4-047e-4ac8-97e5-ec9b96239472","system_id":"levelo_inurba_marseille","lat":43.33231,"lon":5.39821,"is_reserved":false,"is_disabled":false,"rental_uris":{"android":"levelo://app?vid=43d57fd4-047e-4ac8-97e5-ec9b96239472","ios":"levelo://app?vid=43d57fd4-047e-4ac8-97e5-ec9b96239472"},"vehicle_type_id":"4","last_reported":1758647216,"current_range_meters":13600,"station_id":"","pricing_plan_id":"cebpf4jnsgd1na2vs0mg"},{"bike_id":"0a93b7fa-898f-46ce-bd76-143a1182be97","system_id":"levelo_inurba_marseille","lat":43.27407,"lon":5.39392,"is_reserved":false,"is_disabled":true,"rental_uris":{"android":"levelo://app?vid=0a93b7fa-898f-46ce-bd76-143a1182be97","ios":"levelo://app?vid=0a93b7fa-898f-46ce-bd76-143a1182be97"},"vehicle_type_id":"4","last_reported":1758647216,"current_range_meters":14000,"station_id":"ce4bhdp2rcd13ifvqf20","pricing_plan_id":"cebpf4jnsgd1na2vs0mg"},{"bike_id":"7c0482c3-9253-4d1b-b4f3-be55cdb7721d","system_id":"levelo_inurba_marseille","lat":43.33757,"lon":5.37466,"is_reserved":false,"is_disabled":false,"rental_uris":{"android":"levelo://app?vid=7c0482c3-9253-4d1b-b4f3-be55cdb7721d","ios":"levelo://app?vid=7c0482c3-9253-4d1b-b4f3-be55cdb7721d"},"vehicle_type_id":"4","last_reported":1758647216,"current_range_meters":14000,"station_id":"","pricing_plan_id":"cebpf4jnsgd1na2vs0mg"},{"bike_id":"dabedb26-ff31-4b7b-a853-817007847db4","system_id":"levelo_inurba_marseille","lat":43.28617,"lon":5.35109,"is_reserved":false,"is_disabled":false,"rental_uris":{"android":"levelo://app?vid=dabedb26-ff31-4b7b-a853-817007847db4","ios":"levelo://app?vid=dabedb26-ff31-4b7b-a853-817007847db4"},"vehicle_type_id":"4","last_reported":1758647216,"current_range_meters":14000,"station_id":"ce4bhch2rcd13ifvqeug","pricing_plan_id":"cebpf4jnsgd1na2vs0mg"},{"bike_id":"064744f1-b5cd-41e9-b136-ab542c48f63e","system_id":"levelo_inurba_marseille","lat":43.28277,"lon":5.35072,"is_reserved":false,"is_disabled":false,"rental_uris":{"android":"levelo://app?vid=064744f1-b5cd-41e9-b136-ab542c48f63e","ios":"levelo://app?vid=064744f1-b5cd-41e9-b136-ab542c48f63e"},"vehicle_type_id":"4","last_reported":1758647216,"current_range_meters":14000,"station_id":"ce4bhbp2rcd13ifvqerg","pricing_plan_id":"cebpf4jnsgd1na2vs0mg"},{"bike_id":"9c7a180f-bee6-48c2-9ad2-181dea55ce36","system_id":"levelo_inurba_marseille","lat":43.31709,"lon":5.43713,"is_reserved":false,"is_disabled":false,"rental_uris":{"android":"levelo://app?vid=9c7a180f-bee6-48c2-9ad2-181dea55ce36","ios":"levelo://app?vid=9c7a180f-bee6-48c2-9ad2-181dea55ce36"},"vehicle_type_id":"4","last_reported":1758647216,"current_range_meters":14400,"station_id":"ce4bhp92rcd13ifvqhcg","pricing_plan_id":"cebpf4jnsgd1na2vs0mg"},{"bike_id":"6a1462cc-9c62-4e1e-a7f8-d068ddc579b7","system_id":"levelo_inurba_marseille","lat":43.31685,"lon":5.40474,"is_reserved":false,"is_disabled":false,"rental_uris":{"android":"levelo://app?vid=6a1462cc-9c62-4e1e-a7f8-d068ddc579b7","ios":"levelo://app?vid=6a1462cc-9c62-4e1e-a7f8-d068ddc579b7"},"vehicle_type_id":"4","last_reported":1758647216,"current_range_meters":14400,"station_id":"ce4bh012rcd13ifvqd00","pricing_plan_id":"cebpf4jnsgd1na2vs0mg"},{"bike_id":"3a4bb8c7-912e-4fc0-8d4e-6251dc9a0b04","system_id":"levelo_inurba_marseille","lat":43.28619,"lon":5.35113,"is_reserved":false,"is_disabled":false,"rental_uris":{"android":"levelo://app?vid=3a4bb8c7-912e-4fc0-8d4e-6251dc9a0b04","ios":"levelo://app?vid=3a4bb8c7-912e-4fc0-8d4e-6251dc9a0b04"},"vehicle_type_id":"4","last_reported":1758647216,"current_range_meters":14400,"station_id":"ce4bhch2rcd13ifvqeug","pricing_plan_id":"cebpf4jnsgd1na2vs0mg"},{"bike_id":"89bcffc7-7510-42cf-ab08-cec8c86e21be","system_id":"levelo_inurba_marseille","lat":43.30355,"lon":5.41879,"is_reserved":false,"is_disabled":false,"rental_uris":{"android":"levelo://app?vid=89bcffc7-7510-42cf-ab08-cec8c86e21be","ios":"levelo://app?vid=89bcffc7-7510-42cf-ab08-cec8c86e21be"},"vehicle_type_id":"4","last_reported":1758647216,"current_range_meters":14000,"station_id":"ce4bhop2rcd13ifvqh7g","pricing_plan_id":"cebpf4jnsgd1na2vs0mg"},{"bike_id":"06a24bce-028d-4b4a-b4a3-d45296145db5","system_id":"levelo_inurba_marseille","lat":43.28425,"lon":5.34991,"is_reserved":false,"is_disabled":true,"rental_uris":{"android":"levelo://app?vid=06a24bce-028d-4b4a-b4a3-d45296145db5","ios":"levelo://app?vid=06a24bce-028d-4b4a-b4a3-d45296145db5"},"vehicle_type_id":"4","last_reported":1758647216,"current_range_meters":14400,"station_id":"ce4bhch2rcd13ifvqeug","pricing_plan_id":"cebpf4jnsgd1na2vs0mg"},{"bike_id":"8dc96f10-0847-4362-ba19-a9d6b2dfb120","system_id":"levelo_inurba_marseille","lat":43.32335,"lon":5.4061,"is_reserved":false,"is_disabled":false,"rental_uris":{"android":"levelo://app?vid=8dc96f10-0847-4362-ba19-a9d6b2dfb120","ios":"levelo://app?vid=8dc96f10-0847-4362-ba19-a9d6b2dfb120"},"vehicle_type_id":"4","last_reported":1758647216,"current_range_meters":14400,"station_id":"ce4bhq92rcd13ifvqhjg","pricing_plan_id":"cebpf4jnsgd1na2vs0mg"},{"bike_id":"adc9b767-fa5a-487c-b17d-fb3c376c3f08","system_id":"levelo_inurba_marseille","lat":43.29734,"lon":5.37734,"is_reserved":false,"is_disabled":false,"rental_uris":{"android":"levelo://app?vid=adc9b767-fa5a-487c-b17d-fb3c376c3f08","ios":"levelo://app?vid=adc9b767-fa5a-487c-b17d-fb3c376c3f08"},"vehicle_type_id":"4","last_reported":1758647216,"current_range_meters":14800,"station_id":"","pricing_plan_id":"cebpf4jnsgd1na2vs0mg"},{"bike_id":"95d16914-13ba-469e-8b19-a20e083cad71","system_id":"levelo_inurba_marseille","lat":43.29574,"lon":5.37707,"is_reserved":false,"is_disabled":false,"rental_uris":{"android":"levelo://app?vid=95d16914-13ba-469e-8b19-a20e083cad71","ios":"levelo://app?vid=95d16914-13ba-469e-8b19-a20e083cad71"},"vehicle_type_id":"4","last_reported":1758647216,"current_range_meters":14800,"station_id":"","pricing_plan_id":"cebpf4jnsgd1na2vs0mg"},{"bike_id":"dd591302-c274-48ce-84e1-597225a35b23","system_id":"levelo_inurba_marseille","lat":43.28679,"lon":5.38661,"is_reserved":false,"is_disabled":false,"rental_uris":{"android":"levelo://app?vid=dd591302-c274-48ce-84e1-597225a35b23","ios":"levelo://app?vid=dd591302-c274-48ce-84e1-597225a35b23"},"vehicle_type_id":"4","last_reported":1758647216,"current_range_meters":14800,"station_id":"ce4bh492rcd13ifvqdug","pricing_plan_id":"cebpf4jnsgd1na2vs0mg"},{"bike_id":"dae397fe-2112-4e5f-97c3-2a5bd0ce4339","system_id":"levelo_inurba_marseille","lat":43.27813,"lon":5.4071,"is_reserved":false,"is_disabled":false,"rental_uris":{"android":"levelo://app?vid=dae397fe-2112-4e5f-97c3-2a5bd0ce4339","ios":"levelo://app?vid=dae397fe-2112-4e5f-97c3-2a5bd0ce4339"},"vehicle_type_id":"4","last_reported":1758647216,"current_range_meters":14800,"station_id":"ce4bhnh2rcd13ifvqgtg","pricing_plan_id":"cebpf4jnsgd1na2vs0mg"},{"bike_id":"aeb210d1-d893-4162-9b85-83121db737e0","system_id":"levelo_inurba_marseille","lat":43.30106,"lon":5.39891,"is_reserved":false,"is_disabled":false,"rental_uris":{"android":"levelo://app?vid=aeb210d1-d893-4162-9b85-83121db737e0","ios":"levelo://app?vid=aeb210d1-d893-4162-9b85-83121db737e0"},"vehicle_type_id":"4","last_reported":1758647216,"current_range_meters":14800,"station_id":"ce4bh0h2rcd13ifvqd40","pricing_plan_id":"cebpf4jnsgd1na2vs0mg"},{"bike_id":"491f3345-2ff4-4c5a-af7c-9a55daaa69ad","system_id":"levelo_inurba_marseille","lat":43.28776,"lon":5.35224,"is_reserved":false,"is_disabled":false,"rental_uris":{"android":"levelo://app?vid=491f3345-2ff4-4c5a-af7c-9a55daaa69ad","ios":"levelo://app?vid=491f3345-2ff4-4c5a-af7c-9a55daaa69ad"},"vehicle_type_id":"4","last_reported":1758647216,"current_range_meters":14800,"station_id":"","pricing_plan_id":"cebpf4jnsgd1na2vs0mg"},{"bike_id":"15407804-d5d2-482d-a75c-e8199d42738d","system_id":"levelo_inurba_marseille","lat":43.231855,"lon":5.40003,"is_reserved":false,"is_disabled":false,"rental_uris":{"android":"levelo://app?vid=15407804-d5d2-482d-a75c-e8199d42738d","ios":"levelo://app?vid=15407804-d5d2-482d-a75c-e8199d42738d"},"vehicle_type_id":"4","last_reported":1758647216,"current_range_meters":14800,"station_id":"ce4bhn12rcd13ifvqgqg","pricing_plan_id":"cebpf4jnsgd1na2vs0mg"},{"bike_id":"d1b9bcab-ee82-4e76-a80a-cf21c704059d","system_id":"levelo_inurba_marseille","lat":43.28265,"lon":5.35061,"is_reserved":false,"is_disabled":false,"rental_uris":{"android":"levelo://app?vid=d1b9bcab-ee82-4e76-a80a-cf21c704059d","ios":"levelo://app?vid=d1b9bcab-ee82-4e76-a80a-cf21c704059d"},"vehicle_type_id":"4","last_reported":1758647216,"current_range_meters":15200,"station_id":"ce4bhbp2rcd13ifvqerg","pricing_plan_id":"cebpf4jnsgd1na2vs0mg"},{"bike_id":"e08e04c2-7a65-4cbb-90c3-3bd44715eaef","system_id":"levelo_inurba_marseille","lat":43.24169,"lon":5.364,"is_reserved":false,"is_disabled":false,"rental_uris":{"android":"levelo://app?vid=e08e04c2-7a65-4cbb-90c3-3bd44715eaef","ios":"levelo://app?vid=e08e04c2-7a65-4cbb-90c3-3bd44715eaef"},"vehicle_type_id":"4","last_reported":1758647216,"current_range_meters":15200,"station_id":"cpo36qri1sfpv3e86is0","pricing_plan_id":"cebpf4jnsgd1na2vs0mg"},{"bike_id":"41690445-2688-42de-9a85-1a873ec1c4a7","system_id":"levelo_inurba_marseille","lat":43.28415,"lon":5.34982,"is_reserved":false,"is_disabled":false,"rental_uris":{"android":"levelo://app?vid=41690445-2688-42de-9a85-1a873ec1c4a7","ios":"levelo://app?vid=41690445-2688-42de-9a85-1a873ec1c4a7"},"vehicle_type_id":"4","last_reported":1758647216,"current_range_meters":15200,"station_id":"ce4bhbh2rcd13ifvqepg","pricing_plan_id":"cebpf4jnsgd1na2vs0mg"},{"bike_id":"f941b217-c1fb-481d-958f-e65b1dcce0c3","system_id":"levelo_inurba_marseille","lat":43.29183,"lon":5.35814,"is_reserved":false,"is_disabled":false,"rental_uris":{"android":"levelo://app?vid=f941b217-c1fb-481d-958f-e65b1dcce0c3","ios":"levelo://app?vid=f941b217-c1fb-481d-958f-e65b1dcce0c3"},"vehicle_type_id":"4","last_reported":1758647216,"current_range_meters":15200,"station_id":"ce4bhb12rcd13ifvqel0","pricing_plan_id":"cebpf4jnsgd1na2vs0mg"},{"bike_id":"acd4fa14-d454-45c1-b2d3-d92afe6f666f","system_id":"levelo_inurba_marseille","lat":43.29273,"lon":5.36846,"is_reserved":false,"is_disabled":false,"rental_uris":{"android":"levelo://app?vid=acd4fa14-d454-45c1-b2d3-d92afe6f666f","ios":"levelo://app?vid=acd4fa14-d454-45c1-b2d3-d92afe6f666f"},"vehicle_type_id":"4","last_reported":1758647216,"current_range_meters":15200,"station_id":"ce4bhbp2rcd13ifvqesg","pricing_plan_id":"cebpf4jnsgd1na2vs0mg"},{"bike_id":"efd9702a-325c-40f7-b82b-9bbac40e183d","system_id":"levelo_inurba_marseille","lat":43.24997,"lon":5.38932,"is_reserved":false,"is_disabled":false,"rental_uris":{"android":"levelo://app?vid=efd9702a-325c-40f7-b82b-9bbac40e183d","ios":"levelo://app?vid=efd9702a-325c-40f7-b82b-9bbac40e183d"},"vehicle_type_id":"4","last_reported":1758647216,"current_range_meters":15200,"station_id":"ce4bhgp2rcd13ifvqfd0","pricing_plan_id":"cebpf4jnsgd1na2vs0mg"},{"bike_id":"e36b8523-28d4-4650-bb1a-56482550ea8b","system_id":"levelo_inurba_marseille","lat":43.29786,"lon":5.38114,"is_reserved":false,"is_disabled":true,"rental_uris":{"android":"levelo://app?vid=e36b8523-28d4-4650-bb1a-56482550ea8b","ios":"levelo://app?vid=e36b8523-28d4-4650-bb1a-56482550ea8b"},"vehicle_type_id":"4","last_reported":1758647216,"current_range_meters":15200,"station_id":"ce4bgip2rcd13ifvqbb0","pricing_plan_id":"cebpf4jnsgd1na2vs0mg"},{"bike_id":"c79ff4ae-5a4a-4ea5-ae63-838ddf7a434c","system_id":"levelo_inurba_marseille","lat":43.31274,"lon":5.40169,"is_reserved":false,"is_disabled":false,"rental_uris":{"android":"levelo://app?vid=c79ff4ae-5a4a-4ea5-ae63-838ddf7a434c","ios":"levelo://app?vid=c79ff4ae-5a4a-4ea5-ae63-838ddf7a434c"},"vehicle_type_id":"4","last_reported":1758647216,"current_range_meters":15200,"station_id":"ce4bh092rcd13ifvqd30","pricing_plan_id":"cebpf4jnsgd1na2vs0mg"},{"bike_id":"e0f3642b-52da-451a-a51a-597d33b8754c","system_id":"levelo_inurba_marseille","lat":43.28416,"lon":5.37511,"is_reserved":false,"is_disabled":false,"rental_uris":{"android":"levelo://app?vid=e0f3642b-52da-451a-a51a-597d33b8754c","ios":"levelo://app?vid=e0f3642b-52da-451a-a51a-597d33b8754c"},"vehicle_type_id":"4","last_reported":1758647216,"current_range_meters":15200,"station_id":"ce4bh412rcd13ifvqds0","pricing_plan_id":"cebpf4jnsgd1na2vs0mg"},{"bike_id":"d511721c-e904-41af-ac6a-1d06f88e35a2","system_id":"levelo_inurba_marseille","lat":43.28713,"lon":5.379432,"is_reserved":false,"is_disabled":false,"rental_uris":{"android":"levelo://app?vid=d511721c-e904-41af-ac6a-1d06f88e35a2","ios":"levelo://app?vid=d511721c-e904-41af-ac6a-1d06f88e35a2"},"vehicle_type_id":"4","last_reported":1758647216,"current_range_meters":15200,"station_id":"ce4bh9p2rcd13ifvqec0","pricing_plan_id":"cebpf4jnsgd1na2vs0mg"},{"bike_id":"30db941d-f361-4de4-af70-c1567fdbe3c4","system_id":"levelo_inurba_marseille","lat":43.281153,"lon":5.378427,"is_reserved":false,"is_disabled":false,"rental_uris":{"android":"levelo://app?vid=30db941d-f361-4de4-af70-c1567fdbe3c4","ios":"levelo://app?vid=30db941d-f361-4de4-af70-c1567fdbe3c4"},"vehicle_type_id":"4","last_reported":1758647216,"current_range_meters":15200,"station_id":"ce4bha12rcd13ifvqee0","pricing_plan_id":"cebpf4jnsgd1na2vs0mg"},{"bike_id":"e35dc3d8-0dfe-4bd4-87f7-5d3ca8bee4e5","system_id":"levelo_inurba_marseille","lat":43.250784,"lon":5.42603,"is_reserved":false,"is_disabled":false,"rental_uris":{"android":"levelo://app?vid=e35dc3d8-0dfe-4bd4-87f7-5d3ca8bee4e5","ios":"levelo://app?vid=e35dc3d8-0dfe-4bd4-87f7-5d3ca8bee4e5"},"vehicle_type_id":"4","last_reported":1758647216,"current_range_meters":15200,"station_id":"","pricing_plan_id":"cebpf4jnsgd1na2vs0mg"},{"bike_id":"c64bbc38-f6cc-406f-aa43-fb7c2d344f60","system_id":"levelo_inurba_marseille","lat":43.26498,"lon":5.39546,"is_reserved":false,"is_disabled":false,"rental_uris":{"android":"levelo://app?vid=c64bbc38-f6cc-406f-aa43-fb7c2d344f60","ios":"levelo://app?vid=c64bbc38-f6cc-406f-aa43-fb7c2d344f60"},"vehicle_type_id":"4","last_reported":1758647216,"current_range_meters":16000,"station_id":"ce4bhi12rcd13ifvqfq0","pricing_plan_id":"cebpf4jnsgd1na2vs0mg"},{"bike_id":"03accad9-ea1e-4c7a-bfc5-5a49847932c1","system_id":"levelo_inurba_marseille","lat":43.29286,"lon":5.3684,"is_reserved":false,"is_disabled":false,"rental_uris":{"android":"levelo://app?vid=03accad9-ea1e-4c7a-bfc5-5a49847932c1","ios":"levelo://app?vid=03accad9-ea1e-4c7a-bfc5-5a49847932c1"},"vehicle_type_id":"4","last_reported":1758647216,"current_range_meters":16000,"station_id":"ce4bhbp2rcd13ifvqesg","pricing_plan_id":"cebpf4jnsgd1na2vs0mg"},{"bike_id":"4c0b651b-953c-4759-a0f7-0074f59a45eb","system_id":"levelo_inurba_marseille","lat":43.25792,"lon":5.39283,"is_reserved":false,"is_disabled":false,"rental_uris":{"android":"levelo://app?vid=4c0b651b-953c-4759-a0f7-0074f59a45eb","ios":"levelo://app?vid=4c0b651b-953c-4759-a0f7-0074f59a45eb"},"vehicle_type_id":"4","last_reported":1758647216,"current_range_meters":16000,"station_id":"","pricing_plan_id":"cebpf4jnsgd1na2vs0mg"},{"bike_id":"8ab0971d-c449-412a-bd81-96f3910d1a97","system_id":"levelo_inurba_marseille","lat":43.33004,"lon":5.3901,"is_reserved":false,"is_disabled":false,"rental_uris":{"android":"levelo://app?vid=8ab0971d-c449-412a-bd81-96f3910d1a97","ios":"levelo://app?vid=8ab0971d-c449-412a-bd81-96f3910d1a97"},"vehicle_type_id":"4","last_reported":1758647216,"current_range_meters":16000,"station_id":"ce4bhr92rcd13ifvqhrg","pricing_plan_id":"cebpf4jnsgd1na2vs0mg"},{"bike_id":"2334f640-cd1d-43c8-ad3b-26a92e1ee615","system_id":"levelo_inurba_marseille","lat":43.26804,"lon":5.40268,"is_reserved":false,"is_disabled":false,"rental_uris":{"android":"levelo://app?vid=2334f640-cd1d-43c8-ad3b-26a92e1ee615","ios":"levelo://app?vid=2334f640-cd1d-43c8-ad3b-26a92e1ee615"},"vehicle_type_id":"4","last_reported":1758647216,"current_range_meters":16000,"station_id":"ce501612rcd8frsf0b60","pricing_plan_id":"cebpf4jnsgd1na2vs0mg"},{"bike_id":"c8f3c8da-edc9-4118-a2a2-80f74b9d6e48","system_id":"levelo_inurba_marseille","lat":43.25078,"lon":5.39527,"is_reserved":false,"is_disabled":false,"rental_uris":{"android":"levelo://app?vid=c8f3c8da-edc9-4118-a2a2-80f74b9d6e48","ios":"levelo://app?vid=c8f3c8da-edc9-4118-a2a2-80f74b9d6e48"},"vehicle_type_id":"4","last_reported":1758647216,"current_range_meters":16000,"station_id":"ce4bhm12rcd13ifvqgkg","pricing_plan_id":"cebpf4jnsgd1na2vs0mg"},{"bike_id":"dddca5ef-4a33-499b-936a-6d8e6136a417","system_id":"levelo_inurba_marseille","lat":43.229342,"lon":5.353786,"is_reserved":false,"is_disabled":false,"rental_uris":{"android":"levelo://app?vid=dddca5ef-4a33-499b-936a-6d8e6136a417","ios":"levelo://app?vid=dddca5ef-4a33-499b-936a-6d8e6136a417"},"vehicle_type_id":"4","last_reported":1758647216,"current_range_meters":16000,"station_id":"cpo3532slgdg3j2ikp40","pricing_plan_id":"cebpf4jnsgd1na2vs0mg"},{"bike_id":"547121a6-ed50-4d48-bad3-f73539aaa9d7","system_id":"levelo_inurba_marseille","lat":43.21189,"lon":5.35077,"is_reserved":false,"is_disabled":false,"rental_uris":{"android":"levelo://app?vid=547121a6-ed50-4d48-bad3-f73539aaa9d7","ios":"levelo://app?vid=547121a6-ed50-4d48-bad3-f73539aaa9d7"},"vehicle_type_id":"4","last_reported":1758647216,"current_range_meters":16000,"station_id":"st_cvj6sg6p6f1abm77japg","pricing_plan_id":"cebpf4jnsgd1na2vs0mg"},{"bike_id":"9feb0e0f-24fa-4463-b0f3-30472830c043","system_id":"levelo_inurba_marseille","lat":43.31757,"lon":5.39002,"is_reserved":false,"is_disabled":false,"rental_uris":{"android":"levelo://app?vid=9feb0e0f-24fa-4463-b0f3-30472830c043","ios":"levelo://app?vid=9feb0e0f-24fa-4463-b0f3-30472830c043"},"vehicle_type_id":"4","last_reported":1758647216,"current_range_meters":16400,"station_id":"ce4bhqp2rcd13ifvqhng","pricing_plan_id":"cebpf4jnsgd1na2vs0mg"},{"bike_id":"264616ac-1d1a-412a-af64-d1d3fd4367af","system_id":"levelo_inurba_marseille","lat":43.29229,"lon":5.36068,"is_reserved":false,"is_disabled":false,"rental_uris":{"android":"levelo://app?vid=264616ac-1d1a-412a-af64-d1d3fd4367af","ios":"levelo://app?vid=264616ac-1d1a-412a-af64-d1d3fd4367af"},"vehicle_type_id":"4","last_reported":1758647216,"current_range_meters":16400,"station_id":"ce4bhbh2rcd13ifvqeqg","pricing_plan_id":"cebpf4jnsgd1na2vs0mg"},{"bike_id":"a60abba9-f9b8-477b-8786-175fc2b6218b","system_id":"levelo_inurba_marseille","lat":43.30846,"lon":5.37176,"is_reserved":false,"is_disabled":false,"rental_uris":{"android":"levelo://app?vid=a60abba9-f9b8-477b-8786-175fc2b6218b","ios":"levelo://app?vid=a60abba9-f9b8-477b-8786-175fc2b6218b"},"vehicle_type_id":"4","last_reported":1758647216,"current_range_meters":16400,"station_id":"","pricing_plan_id":"cebpf4jnsgd1na2vs0mg"},{"bike_id":"6e16c2b2-d40d-46e0-b682-1444156e1048","system_id":"levelo_inurba_marseille","lat":43.28416,"lon":5.35001,"is_reserved":false,"is_disabled":false,"rental_uris":{"android":"levelo://app?vid=6e16c2b2-d40d-46e0-b682-1444156e1048","ios":"levelo://app?vid=6e16c2b2-d40d-46e0-b682-1444156e1048"},"vehicle_type_id":"4","last_reported":1758647216,"current_range_meters":16400,"station_id":"ce4bhbh2rcd13ifvqepg","pricing_plan_id":"cebpf4jnsgd1na2vs0mg"},{"bike_id":"93f8abc5-7bf2-42ae-a85e-b4a1a5de88d5","system_id":"levelo_inurba_marseille","lat":43.337444,"lon":5.374475,"is_reserved":false,"is_disabled":false,"rental_uris":{"android":"levelo://app?vid=93f8abc5-7bf2-42ae-a85e-b4a1a5de88d5","ios":"levelo://app?vid=93f8abc5-7bf2-42ae-a85e-b4a1a5de88d5"},"vehicle_type_id":"4","last_reported":1758647216,"current_range_meters":16800,"station_id":"","pricing_plan_id":"cebpf4jnsgd1na2vs0mg"},{"bike_id":"a65329f3-7330-4cc9-81c5-6cda1a1de4a9","system_id":"levelo_inurba_marseille","lat":43.30525,"lon":5.3671,"is_reserved":false,"is_disabled":false,"rental_uris":{"android":"levelo://app?vid=a65329f3-7330-4cc9-81c5-6cda1a1de4a9","ios":"levelo://app?vid=a65329f3-7330-4cc9-81c5-6cda1a1de4a9"},"vehicle_type_id":"4","last_reported":1758647216,"current_range_meters":16400,"station_id":"ce4bgrp2rcd13ifvqc9g","pricing_plan_id":"cebpf4jnsgd1na2vs0mg"},{"bike_id":"367ea657-91d6-4cba-9a7c-556fa04df7d4","system_id":"levelo_inurba_marseille","lat":43.29007,"lon":5.35617,"is_reserved":false,"is_disabled":false,"rental_uris":{"android":"levelo://app?vid=367ea657-91d6-4cba-9a7c-556fa04df7d4","ios":"levelo://app?vid=367ea657-91d6-4cba-9a7c-556fa04df7d4"},"vehicle_type_id":"4","last_reported":1758647216,"current_range_meters":16400,"station_id":"ce4bhb92rcd13ifvqen0","pricing_plan_id":"cebpf4jnsgd1na2vs0mg"},{"bike_id":"80e44925-391c-499f-88dc-7d60bbf06aa6","system_id":"levelo_inurba_marseille","lat":43.295237,"lon":5.385266,"is_reserved":false,"is_disabled":false,"rental_uris":{"android":"levelo://app?vid=80e44925-391c-499f-88dc-7d60bbf06aa6","ios":"levelo://app?vid=80e44925-391c-499f-88dc-7d60bbf06aa6"},"vehicle_type_id":"4","last_reported":1758647216,"current_range_meters":16400,"station_id":"ce4bgih2rcd13ifvqba0","pricing_plan_id":"cebpf4jnsgd1na2vs0mg"},{"bike_id":"07790a72-2d42-4f99-a682-8aaa1ff71c4b","system_id":"levelo_inurba_marseille","lat":43.32366,"lon":5.38884,"is_reserved":false,"is_disabled":false,"rental_uris":{"android":"levelo://app?vid=07790a72-2d42-4f99-a682-8aaa1ff71c4b","ios":"levelo://app?vid=07790a72-2d42-4f99-a682-8aaa1ff71c4b"},"vehicle_type_id":"4","last_reported":1758647216,"current_range_meters":16400,"station_id":"ce4bhqp2rcd13ifvqhog","pricing_plan_id":"cebpf4jnsgd1na2vs0mg"},{"bike_id":"9195057c-e460-4e8c-a254-3274332458f6","system_id":"levelo_inurba_marseille","lat":43.27992,"lon":5.40032,"is_reserved":false,"is_disabled":false,"rental_uris":{"android":"levelo://app?vid=9195057c-e460-4e8c-a254-3274332458f6","ios":"levelo://app?vid=9195057c-e460-4e8c-a254-3274332458f6"},"vehicle_type_id":"4","last_reported":1758647216,"current_range_meters":16800,"station_id":"ce4bho92rcd13ifvqh4g","pricing_plan_id":"cebpf4jnsgd1na2vs0mg"},{"bike_id":"d448b74b-b8f7-4053-955b-1df9c58f6926","system_id":"levelo_inurba_marseille","lat":43.28835,"lon":5.38437,"is_reserved":false,"is_disabled":false,"rental_uris":{"android":"levelo://app?vid=d448b74b-b8f7-4053-955b-1df9c58f6926","ios":"levelo://app?vid=d448b74b-b8f7-4053-955b-1df9c58f6926"},"vehicle_type_id":"4","last_reported":1758647216,"current_range_meters":17200,"station_id":"","pricing_plan_id":"cebpf4jnsgd1na2vs0mg"},{"bike_id":"0c6b6940-3892-4729-a76b-fc388819c5c0","system_id":"levelo_inurba_marseille","lat":43.29849,"lon":5.41293,"is_reserved":false,"is_disabled":false,"rental_uris":{"android":"levelo://app?vid=0c6b6940-3892-4729-a76b-fc388819c5c0","ios":"levelo://app?vid=0c6b6940-3892-4729-a76b-fc388819c5c0"},"vehicle_type_id":"4","last_reported":1758647216,"current_range_meters":16800,"station_id":"","pricing_plan_id":"cebpf4jnsgd1na2vs0mg"},{"bike_id":"401439dc-cac5-4165-a137-85be071a6a53","system_id":"levelo_inurba_marseille","lat":43.31282,"lon":5.40174,"is_reserved":false,"is_disabled":false,"rental_uris":{"android":"levelo://app?vid=401439dc-cac5-4165-a137-85be071a6a53","ios":"levelo://app?vid=401439dc-cac5-4165-a137-85be071a6a53"},"vehicle_type_id":"4","last_reported":1758647216,"current_range_meters":16800,"station_id":"ce4bh092rcd13ifvqd30","pricing_plan_id":"cebpf4jnsgd1na2vs0mg"},{"bike_id":"b2e41d7c-bbeb-49ec-92e5-b51b7d636425","system_id":"levelo_inurba_marseille","lat":43.244498,"lon":5.371903,"is_reserved":false,"is_disabled":false,"rental_uris":{"android":"levelo://app?vid=b2e41d7c-bbeb-49ec-92e5-b51b7d636425","ios":"levelo://app?vid=b2e41d7c-bbeb-49ec-92e5-b51b7d636425"},"vehicle_type_id":"4","last_reported":1758647216,"current_range_meters":16800,"station_id":"ce4bhgh2rcd13ifvqfb0","pricing_plan_id":"cebpf4jnsgd1na2vs0mg"},{"bike_id":"ae140a32-5f79-427f-90a7-d410e17b7823","system_id":"levelo_inurba_marseille","lat":43.26678,"lon":5.38275,"is_reserved":false,"is_disabled":true,"rental_uris":{"android":"levelo://app?vid=ae140a32-5f79-427f-90a7-d410e17b7823","ios":"levelo://app?vid=ae140a32-5f79-427f-90a7-d410e17b7823"},"vehicle_type_id":"4","last_reported":1758647216,"current_range_meters":16800,"station_id":"ce4bhg92rcd13ifvqf90","pricing_plan_id":"cebpf4jnsgd1na2vs0mg"},{"bike_id":"b76ab62c-3ad8-4825-a85f-6be1b5220910","system_id":"levelo_inurba_marseille","lat":43.30885,"lon":5.39653,"is_reserved":false,"is_disabled":false,"rental_uris":{"android":"levelo://app?vid=b76ab62c-3ad8-4825-a85f-6be1b5220910","ios":"levelo://app?vid=b76ab62c-3ad8-4825-a85f-6be1b5220910"},"vehicle_type_id":"4","last_reported":1758647216,"current_range_meters":16800,"station_id":"ce4bh012rcd13ifvqcv0","pricing_plan_id":"cebpf4jnsgd1na2vs0mg"},{"bike_id":"6235b0e0-b466-4798-ac20-82536c64c383","system_id":"levelo_inurba_marseille","lat":43.29003,"lon":5.35616,"is_reserved":false,"is_disabled":false,"rental_uris":{"android":"levelo://app?vid=6235b0e0-b466-4798-ac20-82536c64c383","ios":"levelo://app?vid=6235b0e0-b466-4798-ac20-82536c64c383"},"vehicle_type_id":"4","last_reported":1758647216,"current_range_meters":16800,"station_id":"ce4bhb92rcd13ifvqen0","pricing_plan_id":"cebpf4jnsgd1na2vs0mg"},{"bike_id":"878212e1-9f3a-4147-b86c-65eaf928a45d","system_id":"levelo_inurba_marseille","lat":43.21748,"lon":5.34605,"is_reserved":false,"is_disabled":false,"rental_uris":{"android":"levelo://app?vid=878212e1-9f3a-4147-b86c-65eaf928a45d","ios":"levelo://app?vid=878212e1-9f3a-4147-b86c-65eaf928a45d"},"vehicle_type_id":"4","last_reported":1758647216,"current_range_meters":16800,"station_id":"","pricing_plan_id":"cebpf4jnsgd1na2vs0mg"},{"bike_id":"c7f6a08b-c655-4213-b2ba-7d02e7f382fe","system_id":"levelo_inurba_marseille","lat":43.28008,"lon":5.39488,"is_reserved":false,"is_disabled":false,"rental_uris":{"android":"levelo://app?vid=c7f6a08b-c655-4213-b2ba-7d02e7f382fe","ios":"levelo://app?vid=c7f6a08b-c655-4213-b2ba-7d02e7f382fe"},"vehicle_type_id":"4","last_reported":1758647216,"current_range_meters":16800,"station_id":"","pricing_plan_id":"cebpf4jnsgd1na2vs0mg"},{"bike_id":"90b08db8-daec-4b09-8c16-c7de818ce138","system_id":"levelo_inurba_marseille","lat":43.269421,"lon":5.402419,"is_reserved":false,"is_disabled":false,"rental_uris":{"android":"levelo://app?vid=90b08db8-daec-4b09-8c16-c7de818ce138","ios":"levelo://app?vid=90b08db8-daec-4b09-8c16-c7de818ce138"},"vehicle_type_id":"4","last_reported":1758647216,"current_range_meters":16800,"station_id":"cjm6bp8fraef2m0cb0m0","pricing_plan_id":"cebpf4jnsgd1na2vs0mg"},{"bike_id":"f51e1229-478e-4960-a2c1-7fbd0a4b51dd","system_id":"levelo_inurba_marseille","lat":43.2835,"lon":5.38098,"is_reserved":false,"is_disabled":false,"rental_uris":{"android":"levelo://app?vid=f51e1229-478e-4960-a2c1-7fbd0a4b51dd","ios":"levelo://app?vid=f51e1229-478e-4960-a2c1-7fbd0a4b51dd"},"vehicle_type_id":"4","last_reported":1758647216,"current_range_meters":16800,"station_id":"ce4bh412rcd13ifvqdr0","pricing_plan_id":"cebpf4jnsgd1na2vs0mg"},{"bike_id":"7ee54a5a-c571-463d-baff-80a1a8ed87ce","system_id":"levelo_inurba_marseille","lat":43.25342,"lon":5.42171,"is_reserved":false,"is_disabled":false,"rental_uris":{"android":"levelo://app?vid=7ee54a5a-c571-463d-baff-80a1a8ed87ce","ios":"levelo://app?vid=7ee54a5a-c571-463d-baff-80a1a8ed87ce"},"vehicle_type_id":"4","last_reported":1758647216,"current_range_meters":16800,"station_id":"st_d2m65c5bi1j21697t3ng","pricing_plan_id":"cebpf4jnsgd1na2vs0mg"},{"bike_id":"aedc0ec4-db55-4584-9bab-67d7bde92610","system_id":"levelo_inurba_marseille","lat":43.265615,"lon":5.390077,"is_reserved":false,"is_disabled":false,"rental_uris":{"android":"levelo://app?vid=aedc0ec4-db55-4584-9bab-67d7bde92610","ios":"levelo://app?vid=aedc0ec4-db55-4584-9bab-67d7bde92610"},"vehicle_type_id":"4","last_reported":1758647216,"current_range_meters":16800,"station_id":"ce4bhe12rcd13ifvqf30","pricing_plan_id":"cebpf4jnsgd1na2vs0mg"},{"bike_id":"504bf7f4-a4e5-4491-8639-e7acb309f3ee","system_id":"levelo_inurba_marseille","lat":43.25574,"lon":5.38241,"is_reserved":false,"is_disabled":false,"rental_uris":{"android":"levelo://app?vid=504bf7f4-a4e5-4491-8639-e7acb309f3ee","ios":"levelo://app?vid=504bf7f4-a4e5-4491-8639-e7acb309f3ee"},"vehicle_type_id":"4","last_reported":1758647216,"current_range_meters":16800,"station_id":"ce4bhih2rcd13ifvqfs0","pricing_plan_id":"cebpf4jnsgd1na2vs0mg"},{"bike_id":"ac1631d3-aa1c-46f3-bd84-b200b080d0c6","system_id":"levelo_inurba_marseille","lat":43.28619,"lon":5.35109,"is_reserved":false,"is_disabled":false,"rental_uris":{"android":"levelo://app?vid=ac1631d3-aa1c-46f3-bd84-b200b080d0c6","ios":"levelo://app?vid=ac1631d3-aa1c-46f3-bd84-b200b080d0c6"},"vehicle_type_id":"4","last_reported":1758647216,"current_range_meters":17200,"station_id":"ce4bhch2rcd13ifvqeug","pricing_plan_id":"cebpf4jnsgd1na2vs0mg"},{"bike_id":"728b7f09-4a0a-4976-ad52-25eb915dcc10","system_id":"levelo_inurba_marseille","lat":43.29078,"lon":5.37162,"is_reserved":false,"is_disabled":false,"rental_uris":{"android":"levelo://app?vid=728b7f09-4a0a-4976-ad52-25eb915dcc10","ios":"levelo://app?vid=728b7f09-4a0a-4976-ad52-25eb915dcc10"},"vehicle_type_id":"4","last_reported":1758647216,"current_range_meters":17200,"station_id":"ce4bh5p2rcd13ifvqe4g","pricing_plan_id":"cebpf4jnsgd1na2vs0mg"},{"bike_id":"11b7ec3a-3738-4907-a82a-c857a8ea5ac7","system_id":"levelo_inurba_marseille","lat":43.2953,"lon":5.38542,"is_reserved":false,"is_disabled":false,"rental_uris":{"android":"levelo://app?vid=11b7ec3a-3738-4907-a82a-c857a8ea5ac7","ios":"levelo://app?vid=11b7ec3a-3738-4907-a82a-c857a8ea5ac7"},"vehicle_type_id":"4","last_reported":1758647216,"current_range_meters":17200,"station_id":"ce4bgih2rcd13ifvqba0","pricing_plan_id":"cebpf4jnsgd1na2vs0mg"},{"bike_id":"b5097eea-9912-4be2-9cf9-14c224c5fab6","system_id":"levelo_inurba_marseille","lat":43.23203,"lon":5.3557,"is_reserved":false,"is_disabled":false,"rental_uris":{"android":"levelo://app?vid=b5097eea-9912-4be2-9cf9-14c224c5fab6","ios":"levelo://app?vid=b5097eea-9912-4be2-9cf9-14c224c5fab6"},"vehicle_type_id":"4","last_reported":1758647216,"current_range_meters":17200,"station_id":"ce4bhu92rcd13ifvqi70","pricing_plan_id":"cebpf4jnsgd1na2vs0mg"},{"bike_id":"510f7de0-0c01-4495-abd7-f368418a6d6c","system_id":"levelo_inurba_marseille","lat":43.311018,"lon":5.388129,"is_reserved":false,"is_disabled":false,"rental_uris":{"android":"levelo://app?vid=510f7de0-0c01-4495-abd7-f368418a6d6c","ios":"levelo://app?vid=510f7de0-0c01-4495-abd7-f368418a6d6c"},"vehicle_type_id":"4","last_reported":1758647216,"current_range_meters":17200,"station_id":"ce4bgv12rcd13ifvqcp0","pricing_plan_id":"cebpf4jnsgd1na2vs0mg"},{"bike_id":"36d9ac7e-672f-4b32-baac-3848c2e62fe7","system_id":"levelo_inurba_marseille","lat":43.2509,"lon":5.40335,"is_reserved":false,"is_disabled":false,"rental_uris":{"android":"levelo://app?vid=36d9ac7e-672f-4b32-baac-3848c2e62fe7","ios":"levelo://app?vid=36d9ac7e-672f-4b32-baac-3848c2e62fe7"},"vehicle_type_id":"4","last_reported":1758647216,"current_range_meters":17200,"station_id":"ce4bhlh2rcd13ifvqgig","pricing_plan_id":"cebpf4jnsgd1na2vs0mg"},{"bike_id":"d5e7f1db-a250-433c-8992-01d3a8d6d17c","system_id":"levelo_inurba_marseille","lat":43.318205,"lon":5.42275,"is_reserved":false,"is_disabled":false,"rental_uris":{"android":"levelo://app?vid=d5e7f1db-a250-433c-8992-01d3a8d6d17c","ios":"levelo://app?vid=d5e7f1db-a250-433c-8992-01d3a8d6d17c"},"vehicle_type_id":"4","last_reported":1758647216,"current_range_meters":17200,"station_id":"ce4bhp92rcd13ifvqhbg","pricing_plan_id":"cebpf4jnsgd1na2vs0mg"},{"bike_id":"d2a61d6e-ae80-4aed-b852-59e802143638","system_id":"levelo_inurba_marseille","lat":43.2835,"lon":5.38106,"is_reserved":false,"is_disabled":false,"rental_uris":{"android":"levelo://app?vid=d2a61d6e-ae80-4aed-b852-59e802143638","ios":"levelo://app?vid=d2a61d6e-ae80-4aed-b852-59e802143638"},"vehicle_type_id":"4","last_reported":1758647216,"current_range_meters":17200,"station_id":"ce4bh412rcd13ifvqdr0","pricing_plan_id":"cebpf4jnsgd1na2vs0mg"},{"bike_id":"e65f73d7-da5a-4016-9db2-a209ce44d327","system_id":"levelo_inurba_marseille","lat":43.286123,"lon":5.351037,"is_reserved":false,"is_disabled":false,"rental_uris":{"android":"levelo://app?vid=e65f73d7-da5a-4016-9db2-a209ce44d327","ios":"levelo://app?vid=e65f73d7-da5a-4016-9db2-a209ce44d327"},"vehicle_type_id":"4","last_reported":1758647216,"current_range_meters":17200,"station_id":"ce4bhch2rcd13ifvqeug","pricing_plan_id":"cebpf4jnsgd1na2vs0mg"},{"bike_id":"44dda39d-d107-4df3-b136-e00f82184984","system_id":"levelo_inurba_marseille","lat":43.309312,"lon":5.401405,"is_reserved":false,"is_disabled":false,"rental_uris":{"android":"levelo://app?vid=44dda39d-d107-4df3-b136-e00f82184984","ios":"levelo://app?vid=44dda39d-d107-4df3-b136-e00f82184984"},"vehicle_type_id":"4","last_reported":1758647216,"current_range_meters":17200,"station_id":"ce4bgvp2rcd13ifvqct0","pricing_plan_id":"cebpf4jnsgd1na2vs0mg"},{"bike_id":"423e4c1f-eb88-4024-806d-97766be8648b","system_id":"levelo_inurba_marseille","lat":43.292998,"lon":5.374593,"is_reserved":false,"is_disabled":false,"rental_uris":{"android":"levelo://app?vid=423e4c1f-eb88-4024-806d-97766be8648b","ios":"levelo://app?vid=423e4c1f-eb88-4024-806d-97766be8648b"},"vehicle_type_id":"4","last_reported":1758647216,"current_range_meters":17600,"station_id":"ce4bgi12rcd13ifvqb70","pricing_plan_id":"cebpf4jnsgd1na2vs0mg"},{"bike_id":"e2d1e99a-8a3f-46b3-92ce-54f494877353","system_id":"levelo_inurba_marseille","lat":43.29697,"lon":5.37291,"is_reserved":false,"is_disabled":false,"rental_uris":{"android":"levelo://app?vid=e2d1e99a-8a3f-46b3-92ce-54f494877353","ios":"levelo://app?vid=e2d1e99a-8a3f-46b3-92ce-54f494877353"},"vehicle_type_id":"4","last_reported":1758647216,"current_range_meters":17600,"station_id":"ce4bgk12rcd13ifvqbj0","pricing_plan_id":"cebpf4jnsgd1na2vs0mg"},{"bike_id":"144fa1c6-d991-4c54-b407-62bdb35153fe","system_id":"levelo_inurba_marseille","lat":43.28347,"lon":5.38107,"is_reserved":false,"is_disabled":false,"rental_uris":{"android":"levelo://app?vid=144fa1c6-d991-4c54-b407-62bdb35153fe","ios":"levelo://app?vid=144fa1c6-d991-4c54-b407-62bdb35153fe"},"vehicle_type_id":"4","last_reported":1758647216,"current_range_meters":17600,"station_id":"ce4bh412rcd13ifvqdr0","pricing_plan_id":"cebpf4jnsgd1na2vs0mg"},{"bike_id":"8e1f10f9-3306-49d9-b61a-5b9d6b653acb","system_id":"levelo_inurba_marseille","lat":43.27375,"lon":5.36258,"is_reserved":false,"is_disabled":false,"rental_uris":{"android":"levelo://app?vid=8e1f10f9-3306-49d9-b61a-5b9d6b653acb","ios":"levelo://app?vid=8e1f10f9-3306-49d9-b61a-5b9d6b653acb"},"vehicle_type_id":"4","last_reported":1758647216,"current_range_meters":17600,"station_id":"ce4bhbh2rcd13ifvqeo0","pricing_plan_id":"cebpf4jnsgd1na2vs0mg"},{"bike_id":"6ffa68ca-bec1-4c02-b51f-273509bf785b","system_id":"levelo_inurba_marseille","lat":43.29942,"lon":5.36526,"is_reserved":false,"is_disabled":false,"rental_uris":{"android":"levelo://app?vid=6ffa68ca-bec1-4c02-b51f-273509bf785b","ios":"levelo://app?vid=6ffa68ca-bec1-4c02-b51f-273509bf785b"},"vehicle_type_id":"4","last_reported":1758647216,"current_range_meters":17600,"station_id":"ce4bgm92rcd13ifvqbr0","pricing_plan_id":"cebpf4jnsgd1na2vs0mg"},{"bike_id":"d68b9cdd-055c-48e6-b5c7-c6c683b923e5","system_id":"levelo_inurba_marseille","lat":43.28592,"lon":5.35112,"is_reserved":false,"is_disabled":true,"rental_uris":{"android":"levelo://app?vid=d68b9cdd-055c-48e6-b5c7-c6c683b923e5","ios":"levelo://app?vid=d68b9cdd-055c-48e6-b5c7-c6c683b923e5"},"vehicle_type_id":"4","last_reported":1758647216,"current_range_meters":17600,"station_id":"ce4bhch2rcd13ifvqeug","pricing_plan_id":"cebpf4jnsgd1na2vs0mg"},{"bike_id":"87e7fafc-9407-45b7-b596-8ec00e9e157b","system_id":"levelo_inurba_marseille","lat":43.27376,"lon":5.36268,"is_reserved":false,"is_disabled":false,"rental_uris":{"android":"levelo://app?vid=87e7fafc-9407-45b7-b596-8ec00e9e157b","ios":"levelo://app?vid=87e7fafc-9407-45b7-b596-8ec00e9e157b"},"vehicle_type_id":"4","last_reported":1758647216,"current_range_meters":17600,"station_id":"ce4bhbh2rcd13ifvqeo0","pricing_plan_id":"cebpf4jnsgd1na2vs0mg"},{"bike_id":"a09d29c1-21c7-4d0d-a327-1acad4670edd","system_id":"levelo_inurba_marseille","lat":43.258241,"lon":5.39439,"is_reserved":false,"is_disabled":false,"rental_uris":{"android":"levelo://app?vid=a09d29c1-21c7-4d0d-a327-1acad4670edd","ios":"levelo://app?vid=a09d29c1-21c7-4d0d-a327-1acad4670edd"},"vehicle_type_id":"4","last_reported":1758647216,"current_range_meters":17600,"station_id":"ce4bhip2rcd13ifvqft0","pricing_plan_id":"cebpf4jnsgd1na2vs0mg"},{"bike_id":"36b070bb-df09-4433-b99c-aab79ada22d5","system_id":"levelo_inurba_marseille","lat":43.29287,"lon":5.3744,"is_reserved":false,"is_disabled":false,"rental_uris":{"android":"levelo://app?vid=36b070bb-df09-4433-b99c-aab79ada22d5","ios":"levelo://app?vid=36b070bb-df09-4433-b99c-aab79ada22d5"},"vehicle_type_id":"4","last_reported":1758647216,"current_range_meters":17600,"station_id":"","pricing_plan_id":"cebpf4jnsgd1na2vs0mg"},{"bike_id":"f216bb74-9168-4f05-99df-843dddda3be3","system_id":"levelo_inurba_marseille","lat":43.2827,"lon":5.35083,"is_reserved":false,"is_disabled":false,"rental_uris":{"android":"levelo://app?vid=f216bb74-9168-4f05-99df-843dddda3be3","ios":"levelo://app?vid=f216bb74-9168-4f05-99df-843dddda3be3"},"vehicle_type_id":"4","last_reported":1758647216,"current_range_meters":18000,"station_id":"ce4bhbp2rcd13ifvqerg","pricing_plan_id":"cebpf4jnsgd1na2vs0mg"},{"bike_id":"73839be7-c7fc-44a9-a909-0062d95522f0","system_id":"levelo_inurba_marseille","lat":43.30647,"lon":5.40063,"is_reserved":false,"is_disabled":false,"rental_uris":{"android":"levelo://app?vid=73839be7-c7fc-44a9-a909-0062d95522f0","ios":"levelo://app?vid=73839be7-c7fc-44a9-a909-0062d95522f0"},"vehicle_type_id":"4","last_reported":1758647216,"current_range_meters":18000,"station_id":"ce4bh112rcd13ifvqda0","pricing_plan_id":"cebpf4jnsgd1na2vs0mg"},{"bike_id":"b8d5189b-e24e-410c-ad30-b0a7b724ca19","system_id":"levelo_inurba_marseille","lat":43.27907,"lon":5.37993,"is_reserved":false,"is_disabled":false,"rental_uris":{"android":"levelo://app?vid=b8d5189b-e24e-410c-ad30-b0a7b724ca19","ios":"levelo://app?vid=b8d5189b-e24e-410c-ad30-b0a7b724ca19"},"vehicle_type_id":"4","last_reported":1758647216,"current_range_meters":18000,"station_id":"ce4bhf92rcd13ifvqf50","pricing_plan_id":"cebpf4jnsgd1na2vs0mg"},{"bike_id":"ef00c611-56e3-4d87-83a8-6fad9627913a","system_id":"levelo_inurba_marseille","lat":43.308894,"lon":5.371943,"is_reserved":false,"is_disabled":false,"rental_uris":{"android":"levelo://app?vid=ef00c611-56e3-4d87-83a8-6fad9627913a","ios":"levelo://app?vid=ef00c611-56e3-4d87-83a8-6fad9627913a"},"vehicle_type_id":"4","last_reported":1758647216,"current_range_meters":18000,"station_id":"ce4bguh2rcd13ifvqckg","pricing_plan_id":"cebpf4jnsgd1na2vs0mg"},{"bike_id":"d34c0cb4-babc-4f43-8d49-76db1f52c45f","system_id":"levelo_inurba_marseille","lat":43.27374,"lon":5.36261,"is_reserved":false,"is_disabled":false,"rental_uris":{"android":"levelo://app?vid=d34c0cb4-babc-4f43-8d49-76db1f52c45f","ios":"levelo://app?vid=d34c0cb4-babc-4f43-8d49-76db1f52c45f"},"vehicle_type_id":"4","last_reported":1758647216,"current_range_meters":18000,"station_id":"ce4bhbh2rcd13ifvqeo0","pricing_plan_id":"cebpf4jnsgd1na2vs0mg"},