{"last_updated":1708124796,"ttl":30,"version":"2.2","data":{"bikes":[{"bike_id":"3f6fcf2c-1deb-447c-9baf-dbd739d32b1a","system_id":"levelo_inurba_marseille","lat":43.31341,"lon":5.367098,"is_reserved":false,"is_disabled":false,"rental_uris":{"android":"levelo://app?vid=3f6fcf2c-1deb-447c-9baf-dbd739d32b1a","ios":"levelo://app?vid=3f6fcf2c-1deb-447c-9baf-dbd739d32b1a"},"vehicle_type_id":"4","last_reported":1708124796,"current_range_meters":2400,"station_id":"ce4bgr92rcd13ifvqc6g","pricing_plan_id":"cebpf4jnsgd1na2vs0mg"},{"bike_id":"99f675f3-2d06-421e-a914-457b999be22a","system_id":"levelo_inurba_marseille","lat":43.31341,"lon":5.367098,"is_reserved":false,"is_disabled":false,"rental_uris":{"android":"levelo://app?vid=99f675f3-2d06-421e-a914-457b999be22a","ios":"levelo://app?vid=99f675f3-2d06-421e-a914-457b999be22a"},"vehicle_type_id":"4","last_reported":1708124796,"current_range_meters":27200,"station_id":"ce4bgr92rcd13ifvqc6g","pricing_plan_id":"cebpf4jnsgd1na2vs0mg"},{"bike_id":"e844b73b-aed2-462f-922a-756c09f998a3","system_id":"levelo_inurba_marseille","lat":43.313391,"lon":5.36706,"is_reserved":false,"is_disabled":false,"rental_uris":{"android":"levelo://app?vid=e844b73b-aed2-462f-922a-756c09f998a3","ios":"levelo://app?vid=e844b73b-aed2-462f-922a-756c09f998a3"},"vehicle_type_id":"4","last_reported":1708124796,"current_range_meters":26800,"station_id":"ce4bgr92rcd13ifvqc6g","pricing_plan_id":"cebpf4jnsgd1na2vs0mg"},{"bike_id":"2a956178-7d2f-4c88-9f9d-d093d5e6e198","system_id":"levelo_inurba_marseille","lat":43.31341,"lon":5.367098,"is_reserved":false,"is_disabled":false,"rental_uris":{"android":"levelo://app?vid=2a956178-7d2f-4c88-9f9d-d093d5e6e198","ios":"levelo://app?vid=2a956178-7d2f-4c88-9f9d-d093d5e6e198"},"vehicle_type_id":"4","last_reported":1708124796,"current_range_meters":3600,"station_id":"ce4bgr92rcd13ifvqc6g","pricing_plan_id":"cebpf4jnsgd1na2vs0mg"},{"bike_id":"5d7fc29c-fb54-403d-9372-d96e992d4156","system_id":"levelo_inurba_marseille","lat":43.312239,"lon":5.368562,"is_reserved":false,"is_disabled":false,"rental_uris":{"android":"levelo://app?vid=5d7fc29c-fb54-403d-9372-d96e992d4156","ios":"levelo://app?vid=5d7fc29c-fb54-403d-9372-d96e992d4156"},"vehicle_type_id":"4","last_reported":1708124796,"current_range_meters":18400,"station_id":"ce4bgl92rcd13ifvqbq0","pricing_plan_id":"cebpf4jnsgd1na2vs0mg"},{"bike_id":"5f896cac-5c87-4996-b8ad-a4ced64222fb","system_id":"levelo_inurba_marseille","lat":43.31485,"lon":5.373,"is_reserved":false,"is_disabled":false,"rental_uris":{"android":"levelo://app?vid=5f896cac-5c87-4996-b8ad-a4ced64222fb","ios":"levelo://app?vid=5f896cac-5c87-4996-b8ad-a4ced64222fb"},"vehicle_type_id":"4","last_reported":1708124796,"current_range_meters":18800,"station_id":"ce4bgt12rcd13ifvqcd0","pricing_plan_id":"cebpf4jnsgd1na2vs0mg"},{"bike_id":"6f7b6296-dc1d-4580-b54a-dc1170b224fe","system_id":"levelo_inurba_marseille","lat":43.308905,"lon":5.371989,"is_reserved":false,"is_disabled":false,"rental_uris":{"android":"levelo://app?vid=6f7b6296-dc1d-4580-b54a-dc1170b224fe","ios":"levelo://app?vid=6f7b6296-dc1d-4580-b54a-dc1170b224fe"},"vehicle_type_id":"4","last_reported":1708124796,"current_range_meters":28800,"station_id":"ce4bguh2rcd13ifvqckg","pricing_plan_id":"cebpf4jnsgd1na2vs0mg"},{"bike_id":"12168875-163d-4871-bec5-beaebc477b93","system_id":"levelo_inurba_marseille","lat":43.305368,"lon":5.367343,"is_reserved":false,"is_disabled":false,"rental_uris":{"android":"levelo://app?vid=12168875-163d-4871-bec5-beaebc477b93","ios":"levelo://app?vid=12168875-163d-4871-bec5-beaebc477b93"},"vehicle_type_id":"4","last_reported":1708124796,"current_range_meters":13200,"station_id":"ce4bgrp2rcd13ifvqc9g","pricing_plan_id":"cebpf4jnsgd1na2vs0mg"},{"bike_id":"b048fd87-eadc-4e97-8e80-4ff65f5e2991","system_id":"levelo_inurba_marseille","lat":43.305989,"lon":5.37225,"is_reserved":false,"is_disabled":false,"rental_uris":{"android":"levelo://app?vid=b048fd87-eadc-4e97-8e80-4ff65f5e2991","ios":"levelo://app?vid=b048fd87-eadc-4e97-8e80-4ff65f5e2991"},"vehicle_type_id":"4","last_reported":1708124796,"current_range_meters":17200,"station_id":"ce4bgqh2rcd13ifvqc4g","pricing_plan_id":"cebpf4jnsgd1na2vs0mg"},{"bike_id":"4dc5b9ab-2896-4ed5-ad2e-37158f5f3277","system_id":"levelo_inurba_marseille","lat":43.305989,"lon":5.37225,"is_reserved":false,"is_disabled":false,"rental_uris":{"android":"levelo://app?vid=4dc5b9ab-2896-4ed5-ad2e-37158f5f3277","ios":"levelo://app?vid=4dc5b9ab-2896-4ed5-ad2e-37158f5f3277"},"vehicle_type_id":"4","last_reported":1708124796,"current_range_meters":29600,"station_id":"ce4bgqh2rcd13ifvqc4g","pricing_plan_id":"cebpf4jnsgd1na2vs0mg"},{"bike_id":"f8bbef2c-e557-45fe-aec9-18bf9fa8bd6f","system_id":"levelo_inurba_marseille","lat":43.305989,"lon":5.37225,"is_reserved":false,"is_disabled":false,"rental_uris":{"android":"levelo://app?vid=f8bbef2c-e557-45fe-aec9-18bf9fa8bd6f","ios":"levelo://app?vid=f8bbef2c-e557-45fe-aec9-18bf9fa8bd6f"},"vehicle_type_id":"4","last_reported":1708124796,"current_range_meters":14000,"station_id":"ce4bgqh2rcd13ifvqc4g","pricing_plan_id":"cebpf4jnsgd1na2vs0mg"},{"bike_id":"e173dd02-1cd4-4dd4-bab5-66a19bd57874","system_id":"levelo_inurba_marseille","lat":43.306038,"lon":5.372389,"is_reserved":false,"is_disabled":false,"rental_uris":{"android":"levelo://app?vid=e173dd02-1cd4-4dd4-bab5-66a19bd57874","ios":"levelo://app?vid=e173dd02-1cd4-4dd4-bab5-66a19bd57874"},"vehicle_type_id":"4","last_reported":1708124796,"current_range_meters":13600,"station_id":"ce4bgqh2rcd13ifvqc4g","pricing_plan_id":"cebpf4jnsgd1na2vs0mg"},{"bike_id":"86d72424-de2a-491f-b97d-12c8f06e7e92","system_id":"levelo_inurba_marseille","lat":43.305989,"lon":5.37225,"is_reserved":false,"is_disabled":false,"rental_uris":{"android":"levelo://app?vid=86d72424-de2a-491f-b97d-12c8f06e7e92","ios":"levelo://app?vid=86d72424-de2a-491f-b97d-12c8f06e7e92"},"vehicle_type_id":"4","last_reported":1708124796,"current_range_meters":14000,"station_id":"ce4bgqh2rcd13ifvqc4g","pricing_plan_id":"cebpf4jnsgd1na2vs0mg"},{"bike_id":"4cdd276a-3ee7-49f4-888f-9cbef616b428","system_id":"levelo_inurba_marseille","lat":43.305989,"lon":5.37225,"is_reserved":false,"is_disabled":false,"rental_uris":{"android":"levelo://app?vid=4cdd276a-3ee7-49f4-888f-9cbef616b428","ios":"levelo://app?vid=4cdd276a-3ee7-49f4-888f-9cbef616b428"},"vehicle_type_id":"4","last_reported":1708124796,"current_range_meters":4400,"station_id":"ce4bgqh2rcd13ifvqc4g","pricing_plan_id":"cebpf4jnsgd1na2vs0mg"},{"bike_id":"f21d5faf-579a-420d-80eb-41e4333e8941","system_id":"levelo_inurba_marseille","lat":43.31124,"lon":5.37766,"is_reserved":false,"is_disabled":false,"rental_uris":{"android":"levelo://app?vid=f21d5faf-579a-420d-80eb-41e4333e8941","ios":"levelo://app?vid=f21d5faf-579a-420d-80eb-41e4333e8941"},"vehicle_type_id":"4","last_reported":1708124796,"current_range_meters":4400,"station_id":"ce4bgt92rcd13ifvqcg0","pricing_plan_id":"cebpf4jnsgd1na2vs0mg"},{"bike_id":"0fcdcfb8-30c0-400f-85c1-428c143628ea","system_id":"levelo_inurba_marseille","lat":43.311131,"lon":5.377651,"is_reserved":false,"is_disabled":false,"rental_uris":{"android":"levelo://app?vid=0fcdcfb8-30c0-400f-85c1-428c143628ea","ios":"levelo://app?vid=0fcdcfb8-30c0-400f-85c1-428c143628ea"},"vehicle_type_id":"4","last_reported":1708124796,"current_range_meters":10000,"station_id":"ce4bgt92rcd13ifvqcg0","pricing_plan_id":"cebpf4jnsgd1na2vs0mg"},{"bike_id":"3114c520-a3fc-4923-a1cd-c448b0adc7e1","system_id":"levelo_inurba_marseille","lat":43.311131,"lon":5.377651,"is_reserved":false,"is_disabled":false,"rental_uris":{"android":"levelo://app?vid=3114c520-a3fc-4923-a1cd-c448b0adc7e1","ios":"levelo://app?vid=3114c520-a3fc-4923-a1cd-c448b0adc7e1"},"vehicle_type_id":"4","last_reported":1708124796,"current_range_meters":13600,"station_id":"ce4bgt92rcd13ifvqcg0","pricing_plan_id":"cebpf4jnsgd1na2vs0mg"},{"bike_id":"b29f639d-2d17-4f5f-b749-b9d7419d46dd","system_id":"levelo_inurba_marseille","lat":43.311125,"lon":5.377624,"is_reserved":false,"is_disabled":false,"rental_uris":{"android":"levelo://app?vid=b29f639d-2d17-4f5f-b749-b9d7419d46dd","ios":"levelo://app?vid=b29f639d-2d17-4f5f-b749-b9d7419d46dd"},"vehicle_type_id":"4","last_reported":1708124796,"current_range_meters":21200,"station_id":"ce4bgt92rcd13ifvqcg0","pricing_plan_id":"cebpf4jnsgd1na2vs0mg"},{"bike_id":"ee9e2ab2-e717-4ceb-8584-f7886b0d1958","system_id":"levelo_inurba_marseille","lat":43.311131,"lon":5.377651,"is_reserved":false,"is_disabled":false,"rental_uris":{"android":"levelo://app?vid=ee9e2ab2-e717-4ceb-8584-f7886b0d1958","ios":"levelo://app?vid=ee9e2ab2-e717-4ceb-8584-f7886b0d1958"},"vehicle_type_id":"4","last_reported":1708124796,"current_range_meters":22400,"station_id":"ce4bgt92rcd13ifvqcg0","pricing_plan_id":"cebpf4jnsgd1na2vs0mg"},{"bike_id":"8ede5d09-590b-4e56-aecb-1ead168b393a","system_id":"levelo_inurba_marseille","lat":43.311131,"lon":5.377651,"is_reserved":false,"is_disabled":false,"rental_uris":{"android":"levelo://app?vid=8ede5d09-590b-4e56-aecb-1ead168b393a","ios":"levelo://app?vid=8ede5d09-590b-4e56-aecb-1ead168b393a"},"vehicle_type_id":"4","last_reported":1708124796,"current_range_meters":6800,"station_id":"ce4bgt92rcd13ifvqcg0","pricing_plan_id":"cebpf4jnsgd1na2vs0mg"},{"bike_id":"ce8af217-688b-4a44-8c1f-b0f68d84507a","system_id":"levelo_inurba_marseille","lat":43.311131,"lon":5.377651,"is_reserved":false,"is_disabled":false,"rental_uris":{"android":"levelo://app?vid=ce8af217-688b-4a44-8c1f-b0f68d84507a","ios":"levelo://app?vid=ce8af217-688b-4a44-8c1f-b0f68d84507a"},"vehicle_type_id":"4","last_reported":1708124796,"current_range_meters":3600,"station_id":"ce4bgt92rcd13ifvqcg0","pricing_plan_id":"cebpf4jnsgd1na2vs0mg"},{"bike_id":"0f735614-5b8a-4641-b044-759d38f3f2cd","system_id":"levelo_inurba_marseille","lat":43.307945,"lon":5.376487,"is_reserved":false,"is_disabled":false,"rental_uris":{"android":"levelo://app?vid=0f735614-5b8a-4641-b044-759d38f3f2cd","ios":"levelo://app?vid=0f735614-5b8a-4641-b044-759d38f3f2cd"},"vehicle_type_id":"4","last_reported":1708124796,"current_range_meters":31600,"station_id":"ce4bgv92rcd13ifvqcq0","pricing_plan_id":"cebpf4jnsgd1na2vs0mg"},{"bike_id":"a6a918b2-ba15-48c2-8b48-d26172fdde42","system_id":"levelo_inurba_marseille","lat":43.307945,"lon":5.376487,"is_reserved":false,"is_disabled":false,"rental_uris":{"android":"levelo://app?vid=a6a918b2-ba15-48c2-8b48-d26172fdde42","ios":"levelo://app?vid=a6a918b2-ba15-48c2-8b48-d26172fdde42"},"vehicle_type_id":"4","last_reported":1708124796,"current_range_meters":26000,"station_id":"ce4bgv92rcd13ifvqcq0","pricing_plan_id":"cebpf4jnsgd1na2vs0mg"},{"bike_id":"62a13584-ebfe-4423-a4b2-371a980b51bb","system_id":"levelo_inurba_marseille","lat":43.307945,"lon":5.376487,"is_reserved":false,"is_disabled":false,"rental_uris":{"android":"levelo://app?vid=62a13584-ebfe-4423-a4b2-371a980b51bb","ios":"levelo://app?vid=62a13584-ebfe-4423-a4b2-371a980b51bb"},"vehicle_type_id":"4","last_reported":1708124796,"current_range_meters":1200,"station_id":"ce4bgv92rcd13ifvqcq0","pricing_plan_id":"cebpf4jnsgd1na2vs0mg"},{"bike_id":"4e663044-41f1-46f1-836b-50cb5b98f3a3","system_id":"levelo_inurba_marseille","lat":43.307945,"lon":5.376487,"is_reserved":false,"is_disabled":false,"rental_uris":{"android":"levelo://app?vid=4e663044-41f1-46f1-836b-50cb5b98f3a3","ios":"levelo://app?vid=4e663044-41f1-46f1-836b-50cb5b98f3a3"},"vehicle_type_id":"4","last_reported":1708124796,"current_range_meters":31200,"station_id":"ce4bgv92rcd13ifvqcq0","pricing_plan_id":"cebpf4jnsgd1na2vs0mg"},{"bike_id":"796f5d9d-fe2a-4113-9f6e-dc9c2d0e101a","system_id":"levelo_inurba_marseille","lat":43.307945,"lon":5.376487,"is_reserved":false,"is_disabled":false,"rental_uris":{"android":"levelo://app?vid=796f5d9d-fe2a-4113-9f6e-dc9c2d0e101a","ios":"levelo://app?vid=796f5d9d-fe2a-4113-9f6e-dc9c2d0e101a"},"vehicle_type_id":"4","last_reported":1708124796,"current_range_meters":0,"station_id":"ce4bgv92rcd13ifvqcq0","pricing_plan_id":"cebpf4jnsgd1na2vs0mg"},{"bike_id":"d339509a-d341-4433-a4ab-e1ff016c074c","system_id":"levelo_inurba_marseille","lat":43.307945,"lon":5.376487,"is_reserved":false,"is_disabled":false,"rental_uris":{"android":"levelo://app?vid=d339509a-d341-4433-a4ab-e1ff016c074c","ios":"levelo://app?vid=d339509a-d341-4433-a4ab-e1ff016c074c"},"vehicle_type_id":"4","last_reported":1708124796,"current_range_meters":18800,"station_id":"ce4bgv92rcd13ifvqcq0","pricing_plan_id":"cebpf4jnsgd1na2vs0mg"},{"bike_id":"b8503d1f-72be-4134-9519-07cbef17fa5a","system_id":"levelo_inurba_marseille","lat":43.307945,"lon":5.376487,"is_reserved":false,"is_disabled":false,"rental_uris":{"android":"levelo://app?vid=b8503d1f-72be-4134-9519-07cbef17fa5a","ios":"levelo://app?vid=b8503d1f-72be-4134-9519-07cbef17fa5a"},"vehicle_type_id":"4","last_reported":1708124796,"current_range_meters":30800,"station_id":"ce4bgv92rcd13ifvqcq0","pricing_plan_id":"cebpf4jnsgd1na2vs0mg"},{"bike_id":"e841ab86-75f1-48f4-99c6-c0452dc2f6ec","system_id":"levelo_inurba_marseille","lat":43.317045,"lon":5.37746,"is_reserved":false,"is_disabled":false,"rental_uris":{"android":"levelo://app?vid=e841ab86-75f1-48f4-99c6-c0452dc2f6ec","ios":"levelo://app?vid=e841ab86-75f1-48f4-99c6-c0452dc2f6ec"},"vehicle_type_id":"4","last_reported":1708124796,"current_range_meters":18800,"station_id":"ce4bgth2rcd13ifvqch0","pricing_plan_id":"cebpf4jnsgd1na2vs0mg"},{"bike_id":"a9531e14-b43f-4c5b-9c30-9a60ea895c45","system_id":"levelo_inurba_marseille","lat":43.317075,"lon":5.377367,"is_reserved":false,"is_disabled":false,"rental_uris":{"android":"levelo://app?vid=a9531e14-b43f-4c5b-9c30-9a60ea895c45","ios":"levelo://app?vid=a9531e14-b43f-4c5b-9c30-9a60ea895c45"},"vehicle_type_id":"4","last_reported":1708124796,"current_range_meters":31200,"station_id":"ce4bgth2rcd13ifvqch0","pricing_plan_id":"cebpf4jnsgd1na2vs0mg"},{"bike_id":"e8396d9b-01ad-42aa-ae6a-25e7361077f6","system_id":"levelo_inurba_marseille","lat":43.317075,"lon":5.377367,"is_reserved":false,"is_disabled":false,"rental_uris":{"android":"levelo://app?vid=e8396d9b-01ad-42aa-ae6a-25e7361077f6","ios":"levelo://app?vid=e8396d9b-01ad-42aa-ae6a-25e7361077f6"},"vehicle_type_id":"4","last_reported":1708124796,"current_range_meters":31200,"station_id":"ce4bgth2rcd13ifvqch0","pricing_plan_id":"cebpf4jnsgd1na2vs0mg"},{"bike_id":"cc5957e6-fbd1-424d-9cd7-351143fc571e","system_id":"levelo_inurba_marseille","lat":43.317075,"lon":5.377367,"is_reserved":false,"is_disabled":false,"rental_uris":{"android":"levelo://app?vid=cc5957e6-fbd1-424d-9cd7-351143fc571e","ios":"levelo://app?vid=cc5957e6-fbd1-424d-9cd7-351143fc571e"},"vehicle_type_id":"4","last_reported":1708124796,"current_range_meters":22400,"station_id":"ce4bgth2rcd13ifvqch0","pricing_plan_id":"cebpf4jnsgd1na2vs0mg"},{"bike_id":"dbfbc6f9-e9f2-4ffa-9e0b-87296ea30033","system_id":"levelo_inurba_marseille","lat":43.303046,"lon":5.368981,"is_reserved":false,"is_disabled":false,"rental_uris":{"android":"levelo://app?vid=dbfbc6f9-e9f2-4ffa-9e0b-87296ea30033","ios":"levelo://app?vid=dbfbc6f9-e9f2-4ffa-9e0b-87296ea30033"},"vehicle_type_id":"4","last_reported":1708124796,"current_range_meters":15200,"station_id":"ce4bgqh2rcd13ifvqc5g","pricing_plan_id":"cebpf4jnsgd1na2vs0mg"},{"bike_id":"732b5edc-3174-4cab-906b-666e39022afe","system_id":"levelo_inurba_marseille","lat":43.315293,"lon":5.380349,"is_reserved":false,"is_disabled":false,"rental_uris":{"android":"levelo://app?vid=732b5edc-3174-4cab-906b-666e39022afe","ios":"levelo://app?vid=732b5edc-3174-4cab-906b-666e39022afe"},"vehicle_type_id":"4","last_reported":1708124796,"current_range_meters":26800,"station_id":"ce4bhsp2rcd13ifvqi50","pricing_plan_id":"cebpf4jnsgd1na2vs0mg"},{"bike_id":"bd358fc6-c8f1-4017-aba5-09b1b508f5e5","system_id":"levelo_inurba_marseille","lat":43.315293,"lon":5.380349,"is_reserved":false,"is_disabled":false,"rental_uris":{"android":"levelo://app?vid=bd358fc6-c8f1-4017-aba5-09b1b508f5e5","ios":"levelo://app?vid=bd358fc6-c8f1-4017-aba5-09b1b508f5e5"},"vehicle_type_id":"4","last_reported":1708124796,"current_range_meters":31200,"station_id":"ce4bhsp2rcd13ifvqi50","pricing_plan_id":"cebpf4jnsgd1na2vs0mg"},{"bike_id":"fb4aac0e-c9bc-4b6e-ac33-c6d4d8743769","system_id":"levelo_inurba_marseille","lat":43.30188,"lon":5.36619,"is_reserved":false,"is_disabled":false,"rental_uris":{"android":"levelo://app?vid=fb4aac0e-c9bc-4b6e-ac33-c6d4d8743769","ios":"levelo://app?vid=fb4aac0e-c9bc-4b6e-ac33-c6d4d8743769"},"vehicle_type_id":"4","last_reported":1708124796,"current_range_meters":4000,"station_id":"ce4bgrh2rcd13ifvqc8g","pricing_plan_id":"cebpf4jnsgd1na2vs0mg"},{"bike_id":"d4f22529-8085-40d7-937a-ad144696ea4c","system_id":"levelo_inurba_marseille","lat":43.301939,"lon":5.366286,"is_reserved":false,"is_disabled":false,"rental_uris":{"android":"levelo://app?vid=d4f22529-8085-40d7-937a-ad144696ea4c","ios":"levelo://app?vid=d4f22529-8085-40d7-937a-ad144696ea4c"},"vehicle_type_id":"4","last_reported":1708124796,"current_range_meters":12400,"station_id":"ce4bgrh2rcd13ifvqc8g","pricing_plan_id":"cebpf4jnsgd1na2vs0mg"},{"bike_id":"d5ce0dcd-d944-4cbe-8b30-4a51c5de7b47","system_id":"levelo_inurba_marseille","lat":43.308012,"lon":5.381511,"is_reserved":false,"is_disabled":false,"rental_uris":{"android":"levelo://app?vid=d5ce0dcd-d944-4cbe-8b30-4a51c5de7b47","ios":"levelo://app?vid=d5ce0dcd-d944-4cbe-8b30-4a51c5de7b47"},"vehicle_type_id":"4","last_reported":1708124796,"current_range_meters":18000,"station_id":"ce4bgt12rcd13ifvqce0","pricing_plan_id":"cebpf4jnsgd1na2vs0mg"},{"bike_id":"7838a64b-ae39-4631-b02b-acf74d682539","system_id":"levelo_inurba_marseille","lat":43.308012,"lon":5.381511,"is_reserved":false,"is_disabled":false,"rental_uris":{"android":"levelo://app?vid=7838a64b-ae39-4631-b02b-acf74d682539","ios":"levelo://app?vid=7838a64b-ae39-4631-b02b-acf74d682539"},"vehicle_type_id":"4","last_reported":1708124796,"current_range_meters":25200,"station_id":"ce4bgt12rcd13ifvqce0","pricing_plan_id":"cebpf4jnsgd1na2vs0mg"},{"bike_id":"46ca02c8-461d-4f56-a1d9-1cd8e58a3553","system_id":"levelo_inurba_marseille","lat":43.323464,"lon":5.406297,"is_reserved":false,"is_disabled":false,"rental_uris":{"android":"levelo://app?vid=46ca02c8-461d-4f56-a1d9-1cd8e58a3553","ios":"levelo://app?vid=46ca02c8-461d-4f56-a1d9-1cd8e58a3553"},"vehicle_type_id":"4","last_reported":1708124796,"current_range_meters":10400,"station_id":"ce4bhq92rcd13ifvqhjg","pricing_plan_id":"cebpf4jnsgd1na2vs0mg"},{"bike_id":"9b5b66b3-dd66-4257-acbb-4730758d57ce","system_id":"levelo_inurba_marseille","lat":43.308012,"lon":5.381511,"is_reserved":false,"is_disabled":false,"rental_uris":{"android":"levelo://app?vid=9b5b66b3-dd66-4257-acbb-4730758d57ce","ios":"levelo://app?vid=9b5b66b3-dd66-4257-acbb-4730758d57ce"},"vehicle_type_id":"4","last_reported":1708124796,"current_range_meters":22000,"station_id":"ce4bgt12rcd13ifvqce0","pricing_plan_id":"cebpf4jnsgd1na2vs0mg"},{"bike_id":"8e3e7afe-5112-4e50-a18a-bf8926664eb1","system_id":"levelo_inurba_marseille","lat":43.308012,"lon":5.381511,"is_reserved":false,"is_disabled":false,"rental_uris":{"android":"levelo://app?vid=8e3e7afe-5112-4e50-a18a-bf8926664eb1","ios":"levelo://app?vid=8e3e7afe-5112-4e50-a18a-bf8926664eb1"},"vehicle_type_id":"4","last_reported":1708124796,"current_range_meters":22000,"station_id":"ce4bgt12rcd13ifvqce0","pricing_plan_id":"cebpf4jnsgd1na2vs0mg"},{"bike_id":"ba30a3e8-1675-411d-a750-91e7a6367ee7","system_id":"levelo_inurba_marseille","lat":43.308012,"lon":5.381511,"is_reserved":false,"is_disabled":false,"rental_uris":{"android":"levelo://app?vid=ba30a3e8-1675-411d-a750-91e7a6367ee7","ios":"levelo://app?vid=ba30a3e8-1675-411d-a750-91e7a6367ee7"},"vehicle_type_id":"4","last_reported":1708124796,"current_range_meters":23200,"station_id":"ce4bgt12rcd13ifvqce0","pricing_plan_id":"cebpf4jnsgd1na2vs0mg"},{"bike_id":"d371df8e-4137-4748-8e5c-262937dc18e2","system_id":"levelo_inurba_marseille","lat":43.308012,"lon":5.381511,"is_reserved":false,"is_disabled":false,"rental_uris":{"android":"levelo://app?vid=d371df8e-4137-4748-8e5c-262937dc18e2","ios":"levelo://app?vid=d371df8e-4137-4748-8e5c-262937dc18e2"},"vehicle_type_id":"4","last_reported":1708124796,"current_range_meters":31200,"station_id":"ce4bgt12rcd13ifvqce0","pricing_plan_id":"cebpf4jnsgd1na2vs0mg"},{"bike_id":"7bf5fc9c-9b7a-4e40-942c-e2a80b49e622","system_id":"levelo_inurba_marseille","lat":43.304606,"lon":5.379026,"is_reserved":false,"is_disabled":false,"rental_uris":{"android":"levelo://app?vid=7bf5fc9c-9b7a-4e40-942c-e2a80b49e622","ios":"levelo://app?vid=7bf5fc9c-9b7a-4e40-942c-e2a80b49e622"},"vehicle_type_id":"4","last_reported":1708124796,"current_range_meters":31200,"station_id":"ce4bgup2rcd13ifvqcn0","pricing_plan_id":"cebpf4jnsgd1na2vs0mg"},{"bike_id":"99c81edb-b57e-438c-8ec6-cc469446db51","system_id":"levelo_inurba_marseille","lat":43.324771,"lon":5.36557,"is_reserved":false,"is_disabled":false,"rental_uris":{"android":"levelo://app?vid=99c81edb-b57e-438c-8ec6-cc469446db51","ios":"levelo://app?vid=99c81edb-b57e-438c-8ec6-cc469446db51"},"vehicle_type_id":"4","last_reported":1708124796,"current_range_meters":5200,"station_id":"ce4bhs12rcd13ifvqhvg","pricing_plan_id":"cebpf4jnsgd1na2vs0mg"},{"bike_id":"6775c628-a7f5-485f-9648-db8869562575","system_id":"levelo_inurba_marseille","lat":43.324771,"lon":5.36557,"is_reserved":false,"is_disabled":false,"rental_uris":{"android":"levelo://app?vid=6775c628-a7f5-485f-9648-db8869562575","ios":"levelo://app?vid=6775c628-a7f5-485f-9648-db8869562575"},"vehicle_type_id":"4","last_reported":1708124796,"current_range_meters":19200,"station_id":"ce4bhs12rcd13ifvqhvg","pricing_plan_id":"cebpf4jnsgd1na2vs0mg"},{"bike_id":"6b9724fc-0580-40ea-b70d-4628e955426e","system_id":"levelo_inurba_marseille","lat":43.324771,"lon":5.36557,"is_reserved":false,"is_disabled":false,"rental_uris":{"android":"levelo://app?vid=6b9724fc-0580-40ea-b70d-4628e955426e","ios":"levelo://app?vid=6b9724fc-0580-40ea-b70d-4628e955426e"},"vehicle_type_id":"4","last_reported":1708124796,"current_range_meters":16400,"station_id":"ce4bhs12rcd13ifvqhvg","pricing_plan_id":"cebpf4jnsgd1na2vs0mg"},{"bike_id":"aeaf0b7b-ccda-4935-afa1-51c1803392e6","system_id":"levelo_inurba_marseille","lat":43.324771,"lon":5.36557,"is_reserved":false,"is_disabled":false,"rental_uris":{"android":"levelo://app?vid=aeaf0b7b-ccda-4935-afa1-51c1803392e6","ios":"levelo://app?vid=aeaf0b7b-ccda-4935-afa1-51c1803392e6"},"vehicle_type_id":"4","last_reported":1708124796,"current_range_meters":8000,"station_id":"ce4bhs12rcd13ifvqhvg","pricing_plan_id":"cebpf4jnsgd1na2vs0mg"},{"bike_id":"f5017d9e-79da-4dc2-84df-da6269defa0b","system_id":"levelo_inurba_marseille","lat":43.324771,"lon":5.36557,"is_reserved":false,"is_disabled":false,"rental_uris":{"android":"levelo://app?vid=f5017d9e-79da-4dc2-84df-da6269defa0b","ios":"levelo://app?vid=f5017d9e-79da-4dc2-84df-da6269defa0b"},"vehicle_type_id":"4","last_reported":1708124796,"current_range_meters":5200,"station_id":"ce4bhs12rcd13ifvqhvg","pricing_plan_id":"cebpf4jnsgd1na2vs0mg"},{"bike_id":"7c6f7bbe-499b-4ee9-9171-41bbb21da385","system_id":"levelo_inurba_marseille","lat":43.324771,"lon":5.36557,"is_reserved":false,"is_disabled":false,"rental_uris":{"android":"levelo://app?vid=7c6f7bbe-499b-4ee9-9171-41bbb21da385","ios":"levelo://app?vid=7c6f7bbe-499b-4ee9-9171-41bbb21da385"},"vehicle_type_id":"4","last_reported":1708124796,"current_range_meters":13600,"station_id":"ce4bhs12rcd13ifvqhvg","pricing_plan_id":"cebpf4jnsgd1na2vs0mg"},{"bike_id":"93aee7d5-5efc-4021-bab5-b9810878aeb9","system_id":"levelo_inurba_marseille","lat":43.324771,"lon":5.36557,"is_reserved":false,"is_disabled":false,"rental_uris":{"android":"levelo://app?vid=93aee7d5-5efc-4021-bab5-b9810878aeb9","ios":"levelo://app?vid=93aee7d5-5efc-4021-bab5-b9810878aeb9"},"vehicle_type_id":"4","last_reported":1708124796,"current_range_meters":22000,"station_id":"ce4bhs12rcd13ifvqhvg","pricing_plan_id":"cebpf4jnsgd1na2vs0mg"},{"bike_id":"47024265-3d51-4a77-b25d-6d74135771d6","system_id":"levelo_inurba_marseille","lat":43.32481,"lon":5.36554,"is_reserved":false,"is_disabled":false,"rental_uris":{"android":"levelo://app?vid=47024265-3d51-4a77-b25d-6d74135771d6","ios":"levelo://app?vid=47024265-3d51-4a77-b25d-6d74135771d6"},"vehicle_type_id":"4","last_reported":1708124796,"current_range_meters":6400,"station_id":"ce4bhs12rcd13ifvqhvg","pricing_plan_id":"cebpf4jnsgd1na2vs0mg"},{"bike_id":"06fc5300-dee1-4699-8484-1c8adc174e0a","system_id":"levelo_inurba_marseille","lat":43.324771,"lon":5.36557,"is_reserved":false,"is_disabled":false,"rental_uris":{"android":"levelo://app?vid=06fc5300-dee1-4699-8484-1c8adc174e0a","ios":"levelo://app?vid=06fc5300-dee1-4699-8484-1c8adc174e0a"},"vehicle_type_id":"4","last_reported":1708124796,"current_range_meters":14000,"station_id":"ce4bhs12rcd13ifvqhvg","pricing_plan_id":"cebpf4jnsgd1na2vs0mg"},{"bike_id":"3af487a9-52e6-47a1-b645-48e1c5e124c8","system_id":"levelo_inurba_marseille","lat":43.324771,"lon":5.36557,"is_reserved":false,"is_disabled":false,"rental_uris":{"android":"levelo://app?vid=3af487a9-52e6-47a1-b645-48e1c5e124c8","ios":"levelo://app?vid=3af487a9-52e6-47a1-b645-48e1c5e124c8"},"vehicle_type_id":"4","last_reported":1708124796,"current_range_meters":15600,"station_id":"ce4bhs12rcd13ifvqhvg","pricing_plan_id":"cebpf4jnsgd1na2vs0mg"},{"bike_id":"75be774e-6a89-4c9d-bb07-3b65c8711b51","system_id":"levelo_inurba_marseille","lat":43.324771,"lon":5.36557,"is_reserved":false,"is_disabled":false,"rental_uris":{"android":"levelo://app?vid=75be774e-6a89-4c9d-bb07-3b65c8711b51","ios":"levelo://app?vid=75be774e-6a89-4c9d-bb07-3b65c8711b51"},"vehicle_type_id":"4","last_reported":1708124796,"current_range_meters":3600,"station_id":"ce4bhs12rcd13ifvqhvg","pricing_plan_id":"cebpf4jnsgd1na2vs0mg"},{"bike_id":"7400bf38-68ad-4a80-b54d-f14a4fcecbbc","system_id":"levelo_inurba_marseille","lat":43.304606,"lon":5.379026,"is_reserved":false,"is_disabled":false,"rental_uris":{"android":"levelo://app?vid=7400bf38-68ad-4a80-b54d-f14a4fcecbbc","ios":"levelo://app?vid=7400bf38-68ad-4a80-b54d-f14a4fcecbbc"},"vehicle_type_id":"4","last_reported":1708124796,"current_range_meters":14000,"station_id":"ce4bgup2rcd13ifvqcn0","pricing_plan_id":"cebpf4jnsgd1na2vs0mg"},{"bike_id":"f08b84a4-2f15-4435-87f0-1dd407262584","system_id":"levelo_inurba_marseille","lat":43.324771,"lon":5.36557,"is_reserved":false,"is_disabled":false,"rental_uris":{"android":"levelo://app?vid=f08b84a4-2f15-4435-87f0-1dd407262584","ios":"levelo://app?vid=f08b84a4-2f15-4435-87f0-1dd407262584"},"vehicle_type_id":"4","last_reported":1708124796,"current_range_meters":12800,"station_id":"ce4bhs12rcd13ifvqhvg","pricing_plan_id":"cebpf4jnsgd1na2vs0mg"},{"bike_id":"8bcd21a3-369e-4435-b470-f8cd6265a2ad","system_id":"levelo_inurba_marseille","lat":43.324771,"lon":5.36557,"is_reserved":false,"is_disabled":false,"rental_uris":{"android":"levelo://app?vid=8bcd21a3-369e-4435-b470-f8cd6265a2ad","ios":"levelo://app?vid=8bcd21a3-369e-4435-b470-f8cd6265a2ad"},"vehicle_type_id":"4","last_reported":1708124796,"current_range_meters":12000,"station_id":"ce4bhs12rcd13ifvqhvg","pricing_plan_id":"cebpf4jnsgd1na2vs0mg"},{"bike_id":"e4b61d04-1f65-4b69-987e-48eb73204e86","system_id":"levelo_inurba_marseille","lat":43.324771,"lon":5.36557,"is_reserved":false,"is_disabled":false,"rental_uris":{"android":"levelo://app?vid=e4b61d04-1f65-4b69-987e-48eb73204e86","ios":"levelo://app?vid=e4b61d04-1f65-4b69-987e-48eb73204e86"},"vehicle_type_id":"4","last_reported":1708124796,"current_range_meters":8800,"station_id":"ce4bhs12rcd13ifvqhvg","pricing_plan_id":"cebpf4jnsgd1na2vs0mg"},{"bike_id":"41096204-2a92-49ec-b9c6-e11404634b39","system_id":"levelo_inurba_marseille","lat":43.310804,"lon":5.38359,"is_reserved":false,"is_disabled":false,"rental_uris":{"android":"levelo://app?vid=41096204-2a92-49ec-b9c6-e11404634b39","ios":"levelo://app?vid=41096204-2a92-49ec-b9c6-e11404634b39"},"vehicle_type_id":"4","last_reported":1708124796,"current_range_meters":18800,"station_id":"ce4bgv92rcd13ifvqcr0","pricing_plan_id":"cebpf4jnsgd1na2vs0mg"},{"bike_id":"5d4a9159-8fe4-4ecc-884c-b4d3e33f390c","system_id":"levelo_inurba_marseille","lat":43.310804,"lon":5.38359,"is_reserved":false,"is_disabled":false,"rental_uris":{"android":"levelo://app?vid=5d4a9159-8fe4-4ecc-884c-b4d3e33f390c","ios":"levelo://app?vid=5d4a9159-8fe4-4ecc-884c-b4d3e33f390c"},"vehicle_type_id":"4","last_reported":1708124796,"current_range_meters":7600,"station_id":"ce4bgv92rcd13ifvqcr0","pricing_plan_id":"cebpf4jnsgd1na2vs0mg"},{"bike_id":"f71cf94b-90ce-446c-850d-a98f4504d7ab","system_id":"levelo_inurba_marseille","lat":43.310804,"lon":5.38359,"is_reserved":false,"is_disabled":false,"rental_uris":{"android":"levelo://app?vid=f71cf94b-90ce-446c-850d-a98f4504d7ab","ios":"levelo://app?vid=f71cf94b-90ce-446c-850d-a98f4504d7ab"},"vehicle_type_id":"4","last_reported":1708124796,"current_range_meters":25600,"station_id":"ce4bgv92rcd13ifvqcr0","pricing_plan_id":"cebpf4jnsgd1na2vs0mg"},{"bike_id":"2c3aef1d-29ab-4775-b77f-b043c25e24c5","system_id":"levelo_inurba_marseille","lat":43.310804,"lon":5.38359,"is_reserved":false,"is_disabled":false,"rental_uris":{"android":"levelo://app?vid=2c3aef1d-29ab-4775-b77f-b043c25e24c5","ios":"levelo://app?vid=2c3aef1d-29ab-4775-b77f-b043c25e24c5"},"vehicle_type_id":"4","last_reported":1708124796,"current_range_meters":15600,"station_id":"ce4bgv92rcd13ifvqcr0","pricing_plan_id":"cebpf4jnsgd1na2vs0mg"},{"bike_id":"224f477a-7042-445a-bbed-09909f5a17c9","system_id":"levelo_inurba_marseille","lat":43.302784,"lon":5.377158,"is_reserved":false,"is_disabled":false,"rental_uris":{"android":"levelo://app?vid=224f477a-7042-445a-bbed-09909f5a17c9","ios":"levelo://app?vid=224f477a-7042-445a-bbed-09909f5a17c9"},"vehicle_type_id":"4","last_reported":1708124796,"current_range_meters":29600,"station_id":"ce4bguh2rcd13ifvqcj0","pricing_plan_id":"cebpf4jnsgd1na2vs0mg"},{"bike_id":"455096d3-d64e-4bac-9a5a-534e078e4845","system_id":"levelo_inurba_marseille","lat":43.302784,"lon":5.377158,"is_reserved":false,"is_disabled":false,"rental_uris":{"android":"levelo://app?vid=455096d3-d64e-4bac-9a5a-534e078e4845","ios":"levelo://app?vid=455096d3-d64e-4bac-9a5a-534e078e4845"},"vehicle_type_id":"4","last_reported":1708124796,"current_range_meters":15200,"station_id":"ce4bguh2rcd13ifvqcj0","pricing_plan_id":"cebpf4jnsgd1na2vs0mg"},{"bike_id":"e8ba4a55-5992-4280-b9f4-d0440c446b7b","system_id":"levelo_inurba_marseille","lat":43.301429,"lon":5.37413,"is_reserved":false,"is_disabled":false,"rental_uris":{"android":"levelo://app?vid=e8ba4a55-5992-4280-b9f4-d0440c446b7b","ios":"levelo://app?vid=e8ba4a55-5992-4280-b9f4-d0440c446b7b"},"vehicle_type_id":"4","last_reported":1708124796,"current_range_meters":5200,"station_id":"ce4bgs92rcd13ifvqcc0","pricing_plan_id":"cebpf4jnsgd1na2vs0mg"},{"bike_id":"bb53b24e-d8ca-462d-9320-822089f6b29e","system_id":"levelo_inurba_marseille","lat":43.302784,"lon":5.377158,"is_reserved":false,"is_disabled":false,"rental_uris":{"android":"levelo://app?vid=bb53b24e-d8ca-462d-9320-822089f6b29e","ios":"levelo://app?vid=bb53b24e-d8ca-462d-9320-822089f6b29e"},"vehicle_type_id":"4","last_reported":1708124796,"current_range_meters":17600,"station_id":"ce4bguh2rcd13ifvqcj0","pricing_plan_id":"cebpf4jnsgd1na2vs0mg"},{"bike_id":"9ee44995-9314-4d2b-bebb-9cdd1cc96a7b","system_id":"levelo_inurba_marseille","lat":43.301429,"lon":5.37413,"is_reserved":false,"is_disabled":false,"rental_uris":{"android":"levelo://app?vid=9ee44995-9314-4d2b-bebb-9cdd1cc96a7b","ios":"levelo://app?vid=9ee44995-9314-4d2b-bebb-9cdd1cc96a7b"},"vehicle_type_id":"4","last_reported":1708124796,"current_range_meters":6800,"station_id":"ce4bgs92rcd13ifvqcc0","pricing_plan_id":"cebpf4jnsgd1na2vs0mg"},{"bike_id":"a11f77e1-2d50-4e10-912b-80f6376e87cf","system_id":"levelo_inurba_marseille","lat":43.301429,"lon":5.37413,"is_reserved":false,"is_disabled":false,"rental_uris":{"android":"levelo://app?vid=a11f77e1-2d50-4e10-912b-80f6376e87cf","ios":"levelo://app?vid=a11f77e1-2d50-4e10-912b-80f6376e87cf"},"vehicle_type_id":"4","last_reported":1708124796,"current_range_meters":25200,"station_id":"ce4bgs92rcd13ifvqcc0","pricing_plan_id":"cebpf4jnsgd1na2vs0mg"},{"bike_id":"253f57d7-e42e-4792-99e9-60a4836727c6","system_id":"levelo_inurba_marseille","lat":43.319976,"lon":5.381484,"is_reserved":false,"is_disabled":false,"rental_uris":{"android":"levelo://app?vid=253f57d7-e42e-4792-99e9-60a4836727c6","ios":"levelo://app?vid=253f57d7-e42e-4792-99e9-60a4836727c6"},"vehicle_type_id":"4","last_reported":1708124796,"current_range_meters":28800,"station_id":"ce4bhr12rcd13ifvqhpg","pricing_plan_id":"cebpf4jnsgd1na2vs0mg"},{"bike_id":"a778d218-c4c3-494a-b4df-fc23ae99fc31","system_id":"levelo_inurba_marseille","lat":43.31999,"lon":5.3815,"is_reserved":false,"is_disabled":false,"rental_uris":{"android":"levelo://app?vid=a778d218-c4c3-494a-b4df-fc23ae99fc31","ios":"levelo://app?vid=a778d218-c4c3-494a-b4df-fc23ae99fc31"},"vehicle_type_id":"4","last_reported":1708124796,"current_range_meters":29200,"station_id":"ce4bhr12rcd13ifvqhpg","pricing_plan_id":"cebpf4jnsgd1na2vs0mg"},{"bike_id":"a01b2ae4-3880-4ec4-8bd9-6e5e09b4e373","system_id":"levelo_inurba_marseille","lat":43.31996,"lon":5.38153,"is_reserved":false,"is_disabled":false,"rental_uris":{"android":"levelo://app?vid=a01b2ae4-3880-4ec4-8bd9-6e5e09b4e373","ios":"levelo://app?vid=a01b2ae4-3880-4ec4-8bd9-6e5e09b4e373"},"vehicle_type_id":"4","last_reported":1708124796,"current_range_meters":13600,"station_id":"ce4bhr12rcd13ifvqhpg","pricing_plan_id":"cebpf4jnsgd1na2vs0mg"},{"bike_id":"9d8c0a3b-7f60-4523-aa49-51e9485356f5","system_id":"levelo_inurba_marseille","lat":43.31996,"lon":5.38156,"is_reserved":false,"is_disabled":false,"rental_uris":{"android":"levelo://app?vid=9d8c0a3b-7f60-4523-aa49-51e9485356f5","ios":"levelo://app?vid=9d8c0a3b-7f60-4523-aa49-51e9485356f5"},"vehicle_type_id":"4","last_reported":1708124796,"current_range_meters":11200,"station_id":"ce4bhr12rcd13ifvqhpg","pricing_plan_id":"cebpf4jnsgd1na2vs0mg"},{"bike_id":"fcd1c5ff-7ff1-45d7-a993-8e4b91a97aff","system_id":"levelo_inurba_marseille","lat":43.31996,"lon":5.38157,"is_reserved":false,"is_disabled":false,"rental_uris":{"android":"levelo://app?vid=fcd1c5ff-7ff1-45d7-a993-8e4b91a97aff","ios":"levelo://app?vid=fcd1c5ff-7ff1-45d7-a993-8e4b91a97aff"},"vehicle_type_id":"4","last_reported":1708124796,"current_range_meters":27200,"station_id":"ce4bhr12rcd13ifvqhpg","pricing_plan_id":"cebpf4jnsgd1na2vs0mg"},{"bike_id":"2d76af47-c728-4336-9ab6-040dda11a28b","system_id":"levelo_inurba_marseille","lat":43.319984,"lon":5.381569,"is_reserved":false,"is_disabled":false,"rental_uris":{"android":"levelo://app?vid=2d76af47-c728-4336-9ab6-040dda11a28b","ios":"levelo://app?vid=2d76af47-c728-4336-9ab6-040dda11a28b"},"vehicle_type_id":"4","last_reported":1708124796,"current_range_meters":6400,"station_id":"ce4bhr12rcd13ifvqhpg","pricing_plan_id":"cebpf4jnsgd1na2vs0mg"},{"bike_id":"cec17300-11df-45f5-9fc2-654bdac57e67","system_id":"levelo_inurba_marseille","lat":43.31997,"lon":5.38159,"is_reserved":false,"is_disabled":false,"rental_uris":{"android":"levelo://app?vid=cec17300-11df-45f5-9fc2-654bdac57e67","ios":"levelo://app?vid=cec17300-11df-45f5-9fc2-654bdac57e67"},"vehicle_type_id":"4","last_reported":1708124796,"current_range_meters":28800,"station_id":"ce4bhr12rcd13ifvqhpg","pricing_plan_id":"cebpf4jnsgd1na2vs0mg"},{"bike_id":"69ea3702-ffbe-43c1-9f15-a1d85c37370d","system_id":"levelo_inurba_marseille","lat":43.32004,"lon":5.38157,"is_reserved":false,"is_disabled":false,"rental_uris":{"android":"levelo://app?vid=69ea3702-ffbe-43c1-9f15-a1d85c37370d","ios":"levelo://app?vid=69ea3702-ffbe-43c1-9f15-a1d85c37370d"},"vehicle_type_id":"4","last_reported":1708124796,"current_range_meters":3200,"station_id":"ce4bhr12rcd13ifvqhpg","pricing_plan_id":"cebpf4jnsgd1na2vs0mg"},{"bike_id":"fa4a8243-e381-4f07-9f92-f0ca9d381048","system_id":"levelo_inurba_marseille","lat":43.313571,"lon":5.384829,"is_reserved":false,"is_disabled":false,"rental_uris":{"android":"levelo://app?vid=fa4a8243-e381-4f07-9f92-f0ca9d381048","ios":"levelo://app?vid=fa4a8243-e381-4f07-9f92-f0ca9d381048"},"vehicle_type_id":"4","last_reported":1708124796,"current_range_meters":28400,"station_id":"ce4bgt92rcd13ifvqcf0","pricing_plan_id":"cebpf4jnsgd1na2vs0mg"},{"bike_id":"bd01a1d5-d7aa-4fe5-af38-de04e45e97d7","system_id":"levelo_inurba_marseille","lat":43.313571,"lon":5.384829,"is_reserved":false,"is_disabled":false,"rental_uris":{"android":"levelo://app?vid=bd01a1d5-d7aa-4fe5-af38-de04e45e97d7","ios":"levelo://app?vid=bd01a1d5-d7aa-4fe5-af38-de04e45e97d7"},"vehicle_type_id":"4","last_reported":1708124796,"current_range_meters":30800,"station_id":"ce4bgt92rcd13ifvqcf0","pricing_plan_id":"cebpf4jnsgd1na2vs0mg"},{"bike_id":"8fd05aaf-b5ed-484a-a4d1-c4a862ed93e0","system_id":"levelo_inurba_marseille","lat":43.313571,"lon":5.384829,"is_reserved":false,"is_disabled":false,"rental_uris":{"android":"levelo://app?vid=8fd05aaf-b5ed-484a-a4d1-c4a862ed93e0","ios":"levelo://app?vid=8fd05aaf-b5ed-484a-a4d1-c4a862ed93e0"},"vehicle_type_id":"4","last_reported":1708124796,"current_range_meters":1200,"station_id":"ce4bgt92rcd13ifvqcf0","pricing_plan_id":"cebpf4jnsgd1na2vs0mg"},{"bike_id":"c5d09069-a7f7-4527-a2b9-a58a1f131149","system_id":"levelo_inurba_marseille","lat":43.29935,"lon":5.36524,"is_reserved":false,"is_disabled":false,"rental_uris":{"android":"levelo://app?vid=c5d09069-a7f7-4527-a2b9-a58a1f131149","ios":"levelo://app?vid=c5d09069-a7f7-4527-a2b9-a58a1f131149"},"vehicle_type_id":"4","last_reported":1708124796,"current_range_meters":18400,"station_id":"ce4bgm92rcd13ifvqbr0","pricing_plan_id":"cebpf4jnsgd1na2vs0mg"},{"bike_id":"6d627765-f0bf-4018-aa42-ef9dfd1a2514","system_id":"levelo_inurba_marseille","lat":43.299724,"lon":5.371829,"is_reserved":false,"is_disabled":false,"rental_uris":{"android":"levelo://app?vid=6d627765-f0bf-4018-aa42-ef9dfd1a2514","ios":"levelo://app?vid=6d627765-f0bf-4018-aa42-ef9dfd1a2514"},"vehicle_type_id":"4","last_reported":1708124796,"current_range_meters":29200,"station_id":"ce4bgr92rcd13ifvqc7g","pricing_plan_id":"cebpf4jnsgd1na2vs0mg"},{"bike_id":"3bb5d27b-8b8c-4fc5-a25d-ac4b6479701d","system_id":"levelo_inurba_marseille","lat":43.299222,"lon":5.365554,"is_reserved":false,"is_disabled":false,"rental_uris":{"android":"levelo://app?vid=3bb5d27b-8b8c-4fc5-a25d-ac4b6479701d","ios":"levelo://app?vid=3bb5d27b-8b8c-4fc5-a25d-ac4b6479701d"},"vehicle_type_id":"4","last_reported":1708124796,"current_range_meters":20800,"station_id":"ce4bgm92rcd13ifvqbr0","pricing_plan_id":"cebpf4jnsgd1na2vs0mg"},{"bike_id":"18ea8f52-fac6-43a2-8ece-042208de6605","system_id":"levelo_inurba_marseille","lat":43.299209,"lon":5.365547,"is_reserved":false,"is_disabled":false,"rental_uris":{"android":"levelo://app?vid=18ea8f52-fac6-43a2-8ece-042208de6605","ios":"levelo://app?vid=18ea8f52-fac6-43a2-8ece-042208de6605"},"vehicle_type_id":"4","last_reported":1708124796,"current_range_meters":30000,"station_id":"ce4bgm92rcd13ifvqbr0","pricing_plan_id":"cebpf4jnsgd1na2vs0mg"},{"bike_id":"85150c9f-576a-4362-8a56-6d2b0d52dfab","system_id":"levelo_inurba_marseille","lat":43.305364,"lon":5.384119,"is_reserved":false,"is_disabled":false,"rental_uris":{"android":"levelo://app?vid=85150c9f-576a-4362-8a56-6d2b0d52dfab","ios":"levelo://app?vid=85150c9f-576a-4362-8a56-6d2b0d52dfab"},"vehicle_type_id":"4","last_reported":1708124796,"current_range_meters":5600,"station_id":"ce4bgg92rcd13ifvqb30","pricing_plan_id":"cebpf4jnsgd1na2vs0mg"},{"bike_id":"d5401e81-3e69-4acb-92e3-4c0d442853e0","system_id":"levelo_inurba_marseille","lat":43.298433,"lon":5.362774,"is_reserved":false,"is_disabled":false,"rental_uris":{"android":"levelo://app?vid=d5401e81-3e69-4acb-92e3-4c0d442853e0","ios":"levelo://app?vid=d5401e81-3e69-4acb-92e3-4c0d442853e0"},"vehicle_type_id":"4","last_reported":1708124796,"current_range_meters":3200,"station_id":"ce4bgpp2rcd13ifvqc3g","pricing_plan_id":"cebpf4jnsgd1na2vs0mg"},{"bike_id":"653d4896-4000-47fc-80b7-c0965600d058","system_id":"levelo_inurba_marseille","lat":43.298433,"lon":5.362774,"is_reserved":false,"is_disabled":false,"rental_uris":{"android":"levelo://app?vid=653d4896-4000-47fc-80b7-c0965600d058","ios":"levelo://app?vid=653d4896-4000-47fc-80b7-c0965600d058"},"vehicle_type_id":"4","last_reported":1708124796,"current_range_meters":3600,"station_id":"ce4bgpp2rcd13ifvqc3g","pricing_plan_id":"cebpf4jnsgd1na2vs0mg"},{"bike_id":"51f85c47-e121-43f0-abde-f1d252c5cfcc","system_id":"levelo_inurba_marseille","lat":43.298433,"lon":5.362774,"is_reserved":false,"is_disabled":false,"rental_uris":{"android":"levelo://app?vid=51f85c47-e121-43f0-abde-f1d252c5cfcc","ios":"levelo://app?vid=51f85c47-e121-43f0-abde-f1d252c5cfcc"},"vehicle_type_id":"4","last_reported":1708124796,"current_range_meters":18400,"station_id":"ce4bgpp2rcd13ifvqc3g","pricing_plan_id":"cebpf4jnsgd1na2vs0mg"},{"bike_id":"13caa99b-72ac-4849-80fa-73dac3c17a49","system_id":"levelo_inurba_marseille","lat":43.305364,"lon":5.384119,"is_reserved":false,"is_disabled":false,"rental_uris":{"android":"levelo://app?vid=13caa99b-72ac-4849-80fa-73dac3c17a49","ios":"levelo://app?vid=13caa99b-72ac-4849-80fa-73dac3c17a49"},"vehicle_type_id":"4","last_reported":1708124796,"current_range_meters":8800,"station_id":"ce4bgg92rcd13ifvqb30","pricing_plan_id":"cebpf4jnsgd1na2vs0mg"},{"bike_id":"e40d7c80-a97d-4e20-a39f-356bf18d661e","system_id":"levelo_inurba_marseille","lat":43.305364,"lon":5.384119,"is_reserved":false,"is_disabled":false,"rental_uris":{"android":"levelo://app?vid=e40d7c80-a97d-4e20-a39f-356bf18d661e","ios":"levelo://app?vid=e40d7c80-a97d-4e20-a39f-356bf18d661e"},"vehicle_type_id":"4","last_reported":1708124796,"current_range_meters":22800,"station_id":"ce4bgg92rcd13ifvqb30","pricing_plan_id":"cebpf4jnsgd1na2vs0mg"},{"bike_id":"5733a977-c3a2-4daa-a641-70fc3e793e54","system_id":"levelo_inurba_marseille","lat":43.305364,"lon":5.384119,"is_reserved":false,"is_disabled":false,"rental_uris":{"android":"levelo://app?vid=5733a977-c3a2-4daa-a641-70fc3e793e54","ios":"levelo://app?vid=5733a977-c3a2-4daa-a641-70fc3e793e54"},"vehicle_type_id":"4","last_reported":1708124796,"current_range_meters":29200,"station_id":"ce4bgg92rcd13ifvqb30","pricing_plan_id":"cebpf4jnsgd1na2vs0mg"},{"bike_id":"49cc9468-563e-480d-8c79-836e5e183c7e","system_id":"levelo_inurba_marseille","lat":43.305364,"lon":5.384119,"is_reserved":false,"is_disabled":false,"rental_uris":{"android":"levelo://app?vid=49cc9468-563e-480d-8c79-836e5e183c7e","ios":"levelo://app?vid=49cc9468-563e-480d-8c79-836e5e183c7e"},"vehicle_type_id":"4","last_reported":1708124796,"current_range_meters":3600,"station_id":"ce4bgg92rcd13ifvqb30","pricing_plan_id":"cebpf4jnsgd1na2vs0mg"},{"bike_id":"31289bdb-ec35-407e-965e-c237f8f4b34d","system_id":"levelo_inurba_marseille","lat":43.305364,"lon":5.384119,"is_reserved":false,"is_disabled":false,"rental_uris":{"android":"levelo://app?vid=31289bdb-ec35-407e-965e-c237f8f4b34d","ios":"levelo://app?vid=31289bdb-ec35-407e-965e-c237f8f4b34d"},"vehicle_type_id":"4","last_reported":1708124796,"current_range_meters":12000,"station_id":"ce4bgg92rcd13ifvqb30","pricing_plan_id":"cebpf4jnsgd1na2vs0mg"},{"bike_id":"b2c5ce2e-4153-4bea-95fb-e5b3cef15237","system_id":"levelo_inurba_marseille","lat":43.298433,"lon":5.362774,"is_reserved":false,"is_disabled":false,"rental_uris":{"android":"levelo://app?vid=b2c5ce2e-4153-4bea-95fb-e5b3cef15237","ios":"levelo://app?vid=b2c5ce2e-4153-4bea-95fb-e5b3cef15237"},"vehicle_type_id":"4","last_reported":1708124796,"current_range_meters":9200,"station_id":"ce4bgpp2rcd13ifvqc3g","pricing_plan_id":"cebpf4jnsgd1na2vs0mg"},{"bike_id":"7944fd32-7157-46eb-806f-7fadc094c2fc","system_id":"levelo_inurba_marseille","lat":43.305364,"lon":5.384119,"is_reserved":false,"is_disabled":false,"rental_uris":{"android":"levelo://app?vid=7944fd32-7157-46eb-806f-7fadc094c2fc","ios":"levelo://app?vid=7944fd32-7157-46eb-806f-7fadc094c2fc"},"vehicle_type_id":"4","last_reported":1708124796,"current_range_meters":9200,"station_id":"ce4bgg92rcd13ifvqb30","pricing_plan_id":"cebpf4jnsgd1na2vs0mg"},{"bike_id":"fa4d9a35-e56e-4d74-b134-c684a94f293d","system_id":"levelo_inurba_marseille","lat":43.305364,"lon":5.384119,"is_reserved":false,"is_disabled":false,"rental_uris":{"android":"levelo://app?vid=fa4d9a35-e56e-4d74-b134-c684a94f293d","ios":"levelo://app?vid=fa4d9a35-e56e-4d74-b134-c684a94f293d"},"vehicle_type_id":"4","last_reported":1708124796,"current_range_meters":7200,"station_id":"ce4bgg92rcd13ifvqb30","pricing_plan_id":"cebpf4jnsgd1na2vs0mg"},{"bike_id":"73894429-1d86-4142-8100-5354f94fa833","system_id":"levelo_inurba_marseille","lat":43.311643,"lon":5.387053,"is_reserved":false,"is_disabled":false,"rental_uris":{"android":"levelo://app?vid=73894429-1d86-4142-8100-5354f94fa833","ios":"levelo://app?vid=73894429-1d86-4142-8100-5354f94fa833"},"vehicle_type_id":"4","last_reported":1708124796,"current_range_meters":22400,"station_id":"ce4bgv12rcd13ifvqcp0","pricing_plan_id":"cebpf4jnsgd1na2vs0mg"},{"bike_id":"a5f7fc7e-57a8-4917-a9dd-bbe0bc82a8a8","system_id":"levelo_inurba_marseille","lat":43.311722,"lon":5.387247,"is_reserved":false,"is_disabled":false,"rental_uris":{"android":"levelo://app?vid=a5f7fc7e-57a8-4917-a9dd-bbe0bc82a8a8","ios":"levelo://app?vid=a5f7fc7e-57a8-4917-a9dd-bbe0bc82a8a8"},"vehicle_type_id":"4","last_reported":1708124796,"current_range_meters":31200,"station_id":"ce4bgv12rcd13ifvqcp0","pricing_plan_id":"cebpf4jnsgd1na2vs0mg"},{"bike_id":"c1a5af98-1ff5-4ac9-910b-75ef0db67d4a","system_id":"levelo_inurba_marseille","lat":43.311722,"lon":5.387247,"is_reserved":false,"is_disabled":false,"rental_uris":{"android":"levelo://app?vid=c1a5af98-1ff5-4ac9-910b-75ef0db67d4a","ios":"levelo://app?vid=c1a5af98-1ff5-4ac9-910b-75ef0db67d4a"},"vehicle_type_id":"4","last_reported":1708124796,"current_range_meters":21600,"station_id":"ce4bgv12rcd13ifvqcp0","pricing_plan_id":"cebpf4jnsgd1na2vs0mg"},{"bike_id":"89ab5a4b-69d6-466e-a49e-1df22d0aecee","system_id":"levelo_inurba_marseille","lat":43.31167,"lon":5.38721,"is_reserved":false,"is_disabled":false,"rental_uris":{"android":"levelo://app?vid=89ab5a4b-69d6-466e-a49e-1df22d0aecee","ios":"levelo://app?vid=89ab5a4b-69d6-466e-a49e-1df22d0aecee"},"vehicle_type_id":"4","last_reported":1708124796,"current_range_meters":0,"station_id":"ce4bgv12rcd13ifvqcp0","pricing_plan_id":"cebpf4jnsgd1na2vs0mg"},{"bike_id":"c98f356e-fd4c-459e-9a66-47c144d33687","system_id":"levelo_inurba_marseille","lat":43.311722,"lon":5.387247,"is_reserved":false,"is_disabled":false,"rental_uris":{"android":"levelo://app?vid=c98f356e-fd4c-459e-9a66-47c144d33687","ios":"levelo://app?vid=c98f356e-fd4c-459e-9a66-47c144d33687"},"vehicle_type_id":"4","last_reported":1708124796,"current_range_meters":18800,"station_id":"ce4bgv12rcd13ifvqcp0","pricing_plan_id":"cebpf4jnsgd1na2vs0mg"},{"bike_id":"ee481f2f-b23f-4eae-b950-8ced6db26043","system_id":"levelo_inurba_marseille","lat":43.31161,"lon":5.38731,"is_reserved":false,"is_disabled":false,"rental_uris":{"android":"levelo://app?vid=ee481f2f-b23f-4eae-b950-8ced6db26043","ios":"levelo://app?vid=ee481f2f-b23f-4eae-b950-8ced6db26043"},"vehicle_type_id":"4","last_reported":1708124796,"current_range_meters":17600,"station_id":"ce4bgv12rcd13ifvqcp0","pricing_plan_id":"cebpf4jnsgd1na2vs0mg"},{"bike_id":"70eafe38-1027-4423-ac4b-7fe911837f5c","system_id":"levelo_inurba_marseille","lat":43.326595,"lon":5.374457,"is_reserved":false,"is_disabled":false,"rental_uris":{"android":"levelo://app?vid=70eafe38-1027-4423-ac4b-7fe911837f5c","ios":"levelo://app?vid=70eafe38-1027-4423-ac4b-7fe911837f5c"},"vehicle_type_id":"4","last_reported":1708124796,"current_range_meters":4000,"station_id":"","pricing_plan_id":"cebpf4jnsgd1na2vs0mg"},{"bike_id":"3d149655-a53b-43cc-af49-d0904740e2d1","system_id":"levelo_inurba_marseille","lat":43.322872,"lon":5.382756,"is_reserved":false,"is_disabled":false,"rental_uris":{"android":"levelo://app?vid=3d149655-a53b-43cc-af49-d0904740e2d1","ios":"levelo://app?vid=3d149655-a53b-43cc-af49-d0904740e2d1"},"vehicle_type_id":"4","last_reported":1708124796,"current_range_meters":24800,"station_id":"ce4bhr12rcd13ifvqhqg","pricing_plan_id":"cebpf4jnsgd1na2vs0mg"},{"bike_id":"dd2be7c7-d39e-42f9-b4aa-905d49619990","system_id":"levelo_inurba_marseille","lat":43.322872,"lon":5.382756,"is_reserved":false,"is_disabled":false,"rental_uris":{"android":"levelo://app?vid=dd2be7c7-d39e-42f9-b4aa-905d49619990","ios":"levelo://app?vid=dd2be7c7-d39e-42f9-b4aa-905d49619990"},"vehicle_type_id":"4","last_reported":1708124796,"current_range_meters":27200,"station_id":"ce4bhr12rcd13ifvqhqg","pricing_plan_id":"cebpf4jnsgd1na2vs0mg"},{"bike_id":"3de251e7-275d-4ce6-b31d-dac248ec4967","system_id":"levelo_inurba_marseille","lat":43.322872,"lon":5.382756,"is_reserved":false,"is_disabled":false,"rental_uris":{"android":"levelo://app?vid=3de251e7-275d-4ce6-b31d-dac248ec4967","ios":"levelo://app?vid=3de251e7-275d-4ce6-b31d-dac248ec4967"},"vehicle_type_id":"4","last_reported":1708124796,"current_range_meters":28000,"station_id":"ce4bhr12rcd13ifvqhqg","pricing_plan_id":"cebpf4jnsgd1na2vs0mg"},{"bike_id":"4e3b44c3-d23d-43af-8570-7b92afd3cb93","system_id":"levelo_inurba_marseille","lat":43.322872,"lon":5.382756,"is_reserved":false,"is_disabled":false,"rental_uris":{"android":"levelo://app?vid=4e3b44c3-d23d-43af-8570-7b92afd3cb93","ios":"levelo://app?vid=4e3b44c3-d23d-43af-8570-7b92afd3cb93"},"vehicle_type_id":"4","last_reported":1708124796,"current_range_meters":20000,"station_id":"ce4bhr12rcd13ifvqhqg","pricing_plan_id":"cebpf4jnsgd1na2vs0mg"},{"bike_id":"cf44166f-baf9-4353-91cf-2bc8fcb79645","system_id":"levelo_inurba_marseille","lat":43.322872,"lon":5.382756,"is_reserved":false,"is_disabled":false,"rental_uris":{"android":"levelo://app?vid=cf44166f-baf9-4353-91cf-2bc8fcb79645","ios":"levelo://app?vid=cf44166f-baf9-4353-91cf-2bc8fcb79645"},"vehicle_type_id":"4","last_reported":1708124796,"current_range_meters":9200,"station_id":"ce4bhr12rcd13ifvqhqg","pricing_plan_id":"cebpf4jnsgd1na2vs0mg"},{"bike_id":"83b5f419-4266-4c2c-b6fb-35828173d4ce","system_id":"levelo_inurba_marseille","lat":43.322872,"lon":5.382756,"is_reserved":false,"is_disabled":false,"rental_uris":{"android":"levelo://app?vid=83b5f419-4266-4c2c-b6fb-35828173d4ce","ios":"levelo://app?vid=83b5f419-4266-4c2c-b6fb-35828173d4ce"},"vehicle_type_id":"4","last_reported":1708124796,"current_range_meters":30400,"station_id":"ce4bhr12rcd13ifvqhqg","pricing_plan_id":"cebpf4jnsgd1na2vs0mg"},{"bike_id":"133959c5-6fe0-474d-be2d-d408a364bacc","system_id":"levelo_inurba_marseille","lat":43.322872,"lon":5.382756,"is_reserved":false,"is_disabled":false,"rental_uris":{"android":"levelo://app?vid=133959c5-6fe0-474d-be2d-d408a364bacc","ios":"levelo://app?vid=133959c5-6fe0-474d-be2d-d408a364bacc"},"vehicle_type_id":"4","last_reported":1708124796,"current_range_meters":25600,"station_id":"ce4bhr12rcd13ifvqhqg","pricing_plan_id":"cebpf4jnsgd1na2vs0mg"},{"bike_id":"ec21c626-faeb-41e5-9192-4d2bef3ee4d3","system_id":"levelo_inurba_marseille","lat":43.328215,"lon":5.366807,"is_reserved":false,"is_disabled":false,"rental_uris":{"android":"levelo://app?vid=ec21c626-faeb-41e5-9192-4d2bef3ee4d3","ios":"levelo://app?vid=ec21c626-faeb-41e5-9192-4d2bef3ee4d3"},"vehicle_type_id":"4","last_reported":1708124796,"current_range_meters":0,"station_id":"ce4bhs92rcd13ifvqi0g","pricing_plan_id":"cebpf4jnsgd1na2vs0mg"},{"bike_id":"e4cc1337-7654-41c0-8296-b1f3b25edb39","system_id":"levelo_inurba_marseille","lat":43.32822,"lon":5.36683,"is_reserved":false,"is_disabled":false,"rental_uris":{"android":"levelo://app?vid=e4cc1337-7654-41c0-8296-b1f3b25edb39","ios":"levelo://app?vid=e4cc1337-7654-41c0-8296-b1f3b25edb39"},"vehicle_type_id":"4","last_reported":1708124796,"current_range_meters":16400,"station_id":"ce4bhs92rcd13ifvqi0g","pricing_plan_id":"cebpf4jnsgd1na2vs0mg"},{"bike_id":"c9b88aad-86c2-4a51-9436-08e8586a0048","system_id":"levelo_inurba_marseille","lat":43.328371,"lon":5.366909,"is_reserved":false,"is_disabled":false,"rental_uris":{"android":"levelo://app?vid=c9b88aad-86c2-4a51-9436-08e8586a0048","ios":"levelo://app?vid=c9b88aad-86c2-4a51-9436-08e8586a0048"},"vehicle_type_id":"4","last_reported":1708124796,"current_range_meters":9600,"station_id":"ce4bhs92rcd13ifvqi0g","pricing_plan_id":"cebpf4jnsgd1na2vs0mg"},{"bike_id":"b354d40e-f748-45df-b8a4-085ee0f39b31","system_id":"levelo_inurba_marseille","lat":43.32824,"lon":5.36682,"is_reserved":false,"is_disabled":false,"rental_uris":{"android":"levelo://app?vid=b354d40e-f748-45df-b8a4-085ee0f39b31","ios":"levelo://app?vid=b354d40e-f748-45df-b8a4-085ee0f39b31"},"vehicle_type_id":"4","last_reported":1708124796,"current_range_meters":14400,"station_id":"ce4bhs92rcd13ifvqi0g","pricing_plan_id":"cebpf4jnsgd1na2vs0mg"},{"bike_id":"76fab19c-4635-49a9-87e2-a2a0eadf1764","system_id":"levelo_inurba_marseille","lat":43.32825,"lon":5.36675,"is_reserved":false,"is_disabled":false,"rental_uris":{"android":"levelo://app?vid=76fab19c-4635-49a9-87e2-a2a0eadf1764","ios":"levelo://app?vid=76fab19c-4635-49a9-87e2-a2a0eadf1764"},"vehicle_type_id":"4","last_reported":1708124796,"current_range_meters":0,"station_id":"ce4bhs92rcd13ifvqi0g","pricing_plan_id":"cebpf4jnsgd1na2vs0mg"},{"bike_id":"d059372d-713e-4306-a0dc-ef5b2b5ad059","system_id":"levelo_inurba_marseille","lat":43.32825,"lon":5.36672,"is_reserved":false,"is_disabled":false,"rental_uris":{"android":"levelo://app?vid=d059372d-713e-4306-a0dc-ef5b2b5ad059","ios":"levelo://app?vid=d059372d-713e-4306-a0dc-ef5b2b5ad059"},"vehicle_type_id":"4","last_reported":1708124796,"current_range_meters":25600,"station_id":"ce4bhs92rcd13ifvqi0g","pricing_plan_id":"cebpf4jnsgd1na2vs0mg"},{"bike_id":"18e2c73a-6142-4193-b7b8-60c34b367900","system_id":"levelo_inurba_marseille","lat":43.32826,"lon":5.36675,"is_reserved":false,"is_disabled":false,"rental_uris":{"android":"levelo://app?vid=18e2c73a-6142-4193-b7b8-60c34b367900","ios":"levelo://app?vid=18e2c73a-6142-4193-b7b8-60c34b367900"},"vehicle_type_id":"4","last_reported":1708124796,"current_range_meters":24400,"station_id":"ce4bhs92rcd13ifvqi0g","pricing_plan_id":"cebpf4jnsgd1na2vs0mg"},{"bike_id":"cc924a54-60e4-4421-b12c-5aa0bb659927","system_id":"levelo_inurba_marseille","lat":43.328263,"lon":5.36683,"is_reserved":false,"is_disabled":false,"rental_uris":{"android":"levelo://app?vid=cc924a54-60e4-4421-b12c-5aa0bb659927","ios":"levelo://app?vid=cc924a54-60e4-4421-b12c-5aa0bb659927"},"vehicle_type_id":"4","last_reported":1708124796,"current_range_meters":5600,"station_id":"ce4bhs92rcd13ifvqi0g","pricing_plan_id":"cebpf4jnsgd1na2vs0mg"},{"bike_id":"3833ec15-b081-4b20-84c5-72daf8aa7006","system_id":"levelo_inurba_marseille","lat":43.32827,"lon":5.36682,"is_reserved":false,"is_disabled":false,"rental_uris":{"android":"levelo://app?vid=3833ec15-b081-4b20-84c5-72daf8aa7006","ios":"levelo://app?vid=3833ec15-b081-4b20-84c5-72daf8aa7006"},"vehicle_type_id":"4","last_reported":1708124796,"current_range_meters":24800,"station_id":"ce4bhs92rcd13ifvqi0g","pricing_plan_id":"cebpf4jnsgd1na2vs0mg"},{"bike_id":"ecc597d3-f2ea-41b5-b374-bc2279e4f21f","system_id":"levelo_inurba_marseille","lat":43.32828,"lon":5.36685,"is_reserved":false,"is_disabled":false,"rental_uris":{"android":"levelo://app?vid=ecc597d3-f2ea-41b5-b374-bc2279e4f21f","ios":"levelo://app?vid=ecc597d3-f2ea-41b5-b374-bc2279e4f21f"},"vehicle_type_id":"4","last_reported":1708124796,"current_range_meters":1200,"station_id":"ce4bhs92rcd13ifvqi0g","pricing_plan_id":"cebpf4jnsgd1na2vs0mg"},{"bike_id":"c9ca704a-95d9-467c-ad5a-5403d53c76ed","system_id":"levelo_inurba_marseille","lat":43.328371,"lon":5.366909,"is_reserved":false,"is_disabled":false,"rental_uris":{"android":"levelo://app?vid=c9ca704a-95d9-467c-ad5a-5403d53c76ed","ios":"levelo://app?vid=c9ca704a-95d9-467c-ad5a-5403d53c76ed"},"vehicle_type_id":"4","last_reported":1708124796,"current_range_meters":10800,"station_id":"ce4bhs92rcd13ifvqi0g","pricing_plan_id":"cebpf4jnsgd1na2vs0mg"},{"bike_id":"3ce3bf05-0e26-4ba4-9a11-4781ff3d0eb6","system_id":"levelo_inurba_marseille","lat":43.328371,"lon":5.366909,"is_reserved":false,"is_disabled":false,"rental_uris":{"android":"levelo://app?vid=3ce3bf05-0e26-4ba4-9a11-4781ff3d0eb6","ios":"levelo://app?vid=3ce3bf05-0e26-4ba4-9a11-4781ff3d0eb6"},"vehicle_type_id":"4","last_reported":1708124796,"current_range_meters":6400,"station_id":"ce4bhs92rcd13ifvqi0g","pricing_plan_id":"cebpf4jnsgd1na2vs0mg"},{"bike_id":"4a0314a3-53ac-4faf-a81a-365240b15a43","system_id":"levelo_inurba_marseille","lat":43.32831,"lon":5.36679,"is_reserved":false,"is_disabled":false,"rental_uris":{"android":"levelo://app?vid=4a0314a3-53ac-4faf-a81a-365240b15a43","ios":"levelo://app?vid=4a0314a3-53ac-4faf-a81a-365240b15a43"},"vehicle_type_id":"4","last_reported":1708124796,"current_range_meters":20400,"station_id":"ce4bhs92rcd13ifvqi0g","pricing_plan_id":"cebpf4jnsgd1na2vs0mg"},{"bike_id":"92c8224e-7709-44d5-9b0c-fcf356898048","system_id":"levelo_inurba_marseille","lat":43.297163,"lon":5.365866,"is_reserved":false,"is_disabled":false,"rental_uris":{"android":"levelo://app?vid=92c8224e-7709-44d5-9b0c-fcf356898048","ios":"levelo://app?vid=92c8224e-7709-44d5-9b0c-fcf356898048"},"vehicle_type_id":"4","last_reported":1708124796,"current_range_meters":28400,"station_id":"ce4bgn12rcd13ifvqbt0","pricing_plan_id":"cebpf4jnsgd1na2vs0mg"},{"bike_id":"ba66c529-4a68-4878-bf4b-95e017576b7e","system_id":"levelo_inurba_marseille","lat":43.297163,"lon":5.365866,"is_reserved":false,"is_disabled":false,"rental_uris":{"android":"levelo://app?vid=ba66c529-4a68-4878-bf4b-95e017576b7e","ios":"levelo://app?vid=ba66c529-4a68-4878-bf4b-95e017576b7e"},"vehicle_type_id":"4","last_reported":1708124796,"current_range_meters":19200,"station_id":"ce4bgn12rcd13ifvqbt0","pricing_plan_id":"cebpf4jnsgd1na2vs0mg"},{"bike_id":"2f941d55-e9fa-4d56-805c-f22939df9da1","system_id":"levelo_inurba_marseille","lat":43.297163,"lon":5.365866,"is_reserved":false,"is_disabled":false,"rental_uris":{"android":"levelo://app?vid=2f941d55-e9fa-4d56-805c-f22939df9da1","ios":"levelo://app?vid=2f941d55-e9fa-4d56-805c-f22939df9da1"},"vehicle_type_id":"4","last_reported":1708124796,"current_range_meters":26400,"station_id":"ce4bgn12rcd13ifvqbt0","pricing_plan_id":"cebpf4jnsgd1na2vs0mg"},{"bike_id":"4da49b2c-f41c-4070-b453-dfc8b8bb5e8e","system_id":"levelo_inurba_marseille","lat":43.32595,"lon":5.37897,"is_reserved":false,"is_disabled":false,"rental_uris":{"android":"levelo://app?vid=4da49b2c-f41c-4070-b453-dfc8b8bb5e8e","ios":"levelo://app?vid=4da49b2c-f41c-4070-b453-dfc8b8bb5e8e"},"vehicle_type_id":"4","last_reported":1708124796,"current_range_meters":16400,"station_id":"","pricing_plan_id":"cebpf4jnsgd1na2vs0mg"},{"bike_id":"68ca9b29-2e16-4a1e-b0b9-b52cbb726b3c","system_id":"levelo_inurba_marseille","lat":43.29607,"lon":5.36797,"is_reserved":false,"is_disabled":false,"rental_uris":{"android":"levelo://app?vid=68ca9b29-2e16-4a1e-b0b9-b52cbb726b3c","ios":"levelo://app?vid=68ca9b29-2e16-4a1e-b0b9-b52cbb726b3c"},"vehicle_type_id":"4","last_reported":1708124796,"current_range_meters":0,"station_id":"","pricing_plan_id":"cebpf4jnsgd1na2vs0mg"},{"bike_id":"cf199a32-4cc5-45df-8915-95fba9c1ee91","system_id":"levelo_inurba_marseille","lat":43.29573,"lon":5.367355,"is_reserved":false,"is_disabled":false,"rental_uris":{"android":"levelo://app?vid=cf199a32-4cc5-45df-8915-95fba9c1ee91","ios":"levelo://app?vid=cf199a32-4cc5-45df-8915-95fba9c1ee91"},"vehicle_type_id":"4","last_reported":1708124796,"current_range_meters":2000,"station_id":"ce4bgph2rcd13ifvqc2g","pricing_plan_id":"cebpf4jnsgd1na2vs0mg"},{"bike_id":"2264ef29-8c80-49e6-b933-81f4dcd584ab","system_id":"levelo_inurba_marseille","lat":43.29715,"lon":5.376944,"is_reserved":false,"is_disabled":false,"rental_uris":{"android":"levelo://app?vid=2264ef29-8c80-49e6-b933-81f4dcd584ab","ios":"levelo://app?vid=2264ef29-8c80-49e6-b933-81f4dcd584ab"},"vehicle_type_id":"4","last_reported":1708124796,"current_range_meters":31200,"station_id":"ce4bgkh2rcd13ifvqbl0","pricing_plan_id":"cebpf4jnsgd1na2vs0mg"},{"bike_id":"900dd3de-c646-4273-802c-220180af4ad2","system_id":"levelo_inurba_marseille","lat":43.309589,"lon":5.390258,"is_reserved":false,"is_disabled":false,"rental_uris":{"android":"levelo://app?vid=900dd3de-c646-4273-802c-220180af4ad2","ios":"levelo://app?vid=900dd3de-c646-4273-802c-220180af4ad2"},"vehicle_type_id":"4","last_reported":1708124796,"current_range_meters":16000,"station_id":"ce4bgup2rcd13ifvqco0","pricing_plan_id":"cebpf4jnsgd1na2vs0mg"},{"bike_id":"7e2a164b-65ea-4df6-9814-2445eecb9f44","system_id":"levelo_inurba_marseille","lat":43.30948,"lon":5.3903,"is_reserved":false,"is_disabled":false,"rental_uris":{"android":"levelo://app?vid=7e2a164b-65ea-4df6-9814-2445eecb9f44","ios":"levelo://app?vid=7e2a164b-65ea-4df6-9814-2445eecb9f44"},"vehicle_type_id":"4","last_reported":1708124796,"current_range_meters":27600,"station_id":"ce4bgup2rcd13ifvqco0","pricing_plan_id":"cebpf4jnsgd1na2vs0mg"},{"bike_id":"a3fe80fe-a4b5-4639-9a68-dda9367b376c","system_id":"levelo_inurba_marseille","lat":43.309589,"lon":5.390258,"is_reserved":false,"is_disabled":false,"rental_uris":{"android":"levelo://app?vid=a3fe80fe-a4b5-4639-9a68-dda9367b376c","ios":"levelo://app?vid=a3fe80fe-a4b5-4639-9a68-dda9367b376c"},"vehicle_type_id":"4","last_reported":1708124796,"current_range_meters":10400,"station_id":"ce4bgup2rcd13ifvqco0","pricing_plan_id":"cebpf4jnsgd1na2vs0mg"},{"bike_id":"9fc7a4f7-7985-4b0c-b1c0-c8b0bd801716","system_id":"levelo_inurba_marseille","lat":43.30951,"lon":5.39034,"is_reserved":false,"is_disabled":false,"rental_uris":{"android":"levelo://app?vid=9fc7a4f7-7985-4b0c-b1c0-c8b0bd801716","ios":"levelo://app?vid=9fc7a4f7-7985-4b0c-b1c0-c8b0bd801716"},"vehicle_type_id":"4","last_reported":1708124796,"current_range_meters":0,"station_id":"ce4bgup2rcd13ifvqco0","pricing_plan_id":"cebpf4jnsgd1na2vs0mg"},{"bike_id":"3f65ffa0-6ec5-4b0e-8190-71bb8c5a5505","system_id":"levelo_inurba_marseille","lat":43.299028,"lon":5.381509,"is_reserved":false,"is_disabled":false,"rental_uris":{"android":"levelo://app?vid=3f65ffa0-6ec5-4b0e-8190-71bb8c5a5505","ios":"levelo://app?vid=3f65ffa0-6ec5-4b0e-8190-71bb8c5a5505"},"vehicle_type_id":"4","last_reported":1708124796,"current_range_meters":26400,"station_id":"ce4bgj12rcd13ifvqbc0","pricing_plan_id":"cebpf4jnsgd1na2vs0mg"},{"bike_id":"d0a1d4cf-3f9f-4ec1-92ac-44e0c4df96d8","system_id":"levelo_inurba_marseille","lat":43.30947,"lon":5.39036,"is_reserved":false,"is_disabled":false,"rental_uris":{"android":"levelo://app?vid=d0a1d4cf-3f9f-4ec1-92ac-44e0c4df96d8","ios":"levelo://app?vid=d0a1d4cf-3f9f-4ec1-92ac-44e0c4df96d8"},"vehicle_type_id":"4","last_reported":1708124796,"current_range_meters":0,"station_id":"ce4bgup2rcd13ifvqco0","pricing_plan_id":"cebpf4jnsgd1na2vs0mg"},{"bike_id":"96020829-b214-4b35-a35e-140ebb420350","system_id":"levelo_inurba_marseille","lat":43.3095,"lon":5.39038,"is_reserved":false,"is_disabled":false,"rental_uris":{"android":"levelo://app?vid=96020829-b214-4b35-a35e-140ebb420350","ios":"levelo://app?vid=96020829-b214-4b35-a35e-140ebb420350"},"vehicle_type_id":"4","last_reported":1708124796,"current_range_meters":22400,"station_id":"ce4bgup2rcd13ifvqco0","pricing_plan_id":"cebpf4jnsgd1na2vs0mg"},{"bike_id":"d384c90a-bdfe-4807-99e2-250bd3f9b1d7","system_id":"levelo_inurba_marseille","lat":43.30949,"lon":5.39048,"is_reserved":false,"is_disabled":false,"rental_uris":{"android":"levelo://app?vid=d384c90a-bdfe-4807-99e2-250bd3f9b1d7","ios":"levelo://app?vid=d384c90a-bdfe-4807-99e2-250bd3f9b1d7"},"vehicle_type_id":"4","last_reported":1708124796,"current_range_meters":26400,"station_id":"ce4bgup2rcd13ifvqco0","pricing_plan_id":"cebpf4jnsgd1na2vs0mg"},{"bike_id":"3d7544b7-31f2-4aec-864d-6e9479c97f71","system_id":"levelo_inurba_marseille","lat":43.30945,"lon":5.39049,"is_reserved":false,"is_disabled":false,"rental_uris":{"android":"levelo://app?vid=3d7544b7-31f2-4aec-864d-6e9479c97f71","ios":"levelo://app?vid=3d7544b7-31f2-4aec-864d-6e9479c97f71"},"vehicle_type_id":"4","last_reported":1708124796,"current_range_meters":18000,"station_id":"ce4bgup2rcd13ifvqco0","pricing_plan_id":"cebpf4jnsgd1na2vs0mg"},{"bike_id":"92c4433a-1432-4883-85e8-2b2d9843ff33","system_id":"levelo_inurba_marseille","lat":43.31751,"lon":5.39008,"is_reserved":false,"is_disabled":false,"rental_uris":{"android":"levelo://app?vid=92c4433a-1432-4883-85e8-2b2d9843ff33","ios":"levelo://app?vid=92c4433a-1432-4883-85e8-2b2d9843ff33"},"vehicle_type_id":"4","last_reported":1708124796,"current_range_meters":8800,"station_id":"ce4bhqp2rcd13ifvqhng","pricing_plan_id":"cebpf4jnsgd1na2vs0mg"},{"bike_id":"47cbab22-20ac-47bd-aa6f-cdebd05b475b","system_id":"levelo_inurba_marseille","lat":43.317557,"lon":5.390173,"is_reserved":false,"is_disabled":false,"rental_uris":{"android":"levelo://app?vid=47cbab22-20ac-47bd-aa6f-cdebd05b475b","ios":"levelo://app?vid=47cbab22-20ac-47bd-aa6f-cdebd05b475b"},"vehicle_type_id":"4","last_reported":1708124796,"current_range_meters":28000,"station_id":"ce4bhqp2rcd13ifvqhng","pricing_plan_id":"cebpf4jnsgd1na2vs0mg"},{"bike_id":"1b7a4234-bddd-44fc-a528-80a01224d060","system_id":"levelo_inurba_marseille","lat":43.3176,"lon":5.3901,"is_reserved":false,"is_disabled":false,"rental_uris":{"android":"levelo://app?vid=1b7a4234-bddd-44fc-a528-80a01224d060","ios":"levelo://app?vid=1b7a4234-bddd-44fc-a528-80a01224d060"},"vehicle_type_id":"4","last_reported":1708124796,"current_range_meters":2000,"station_id":"ce4bhqp2rcd13ifvqhng","pricing_plan_id":"cebpf4jnsgd1na2vs0mg"},{"bike_id":"0ddd06ca-78d6-4fdc-92ed-9c8ef81f47fe","system_id":"levelo_inurba_marseille","lat":43.317557,"lon":5.390173,"is_reserved":false,"is_disabled":false,"rental_uris":{"android":"levelo://app?vid=0ddd06ca-78d6-4fdc-92ed-9c8ef81f47fe","ios":"levelo://app?vid=0ddd06ca-78d6-4fdc-92ed-9c8ef81f47fe"},"vehicle_type_id":"4","last_reported":1708124796,"current_range_meters":31200,"station_id":"ce4bhqp2rcd13ifvqhng","pricing_plan_id":"cebpf4jnsgd1na2vs0mg"},{"bike_id":"8b19d0ec-456b-4753-8097-2e2ef0dad484","system_id":"levelo_inurba_marseille","lat":43.317557,"lon":5.390173,"is_reserved":false,"is_disabled":false,"rental_uris":{"android":"levelo://app?vid=8b19d0ec-456b-4753-8097-2e2ef0dad484","ios":"levelo://app?vid=8b19d0ec-456b-4753-8097-2e2ef0dad484"},"vehicle_type_id":"4","last_reported":1708124796,"current_range_meters":31200,"station_id":"ce4bhqp2rcd13ifvqhng","pricing_plan_id":"cebpf4jnsgd1na2vs0mg"},{"bike_id":"178f31c4-3475-4800-b8e7-12fcabb9ee1c","system_id":"levelo_inurba_marseille","lat":43.317557,"lon":5.390173,"is_reserved":false,"is_disabled":false,"rental_uris":{"android":"levelo://app?vid=178f31c4-3475-4800-b8e7-12fcabb9ee1c","ios":"levelo://app?vid=178f31c4-3475-4800-b8e7-12fcabb9ee1c"},"vehicle_type_id":"4","last_reported":1708124796,"current_range_meters":23600,"station_id":"ce4bhqp2rcd13ifvqhng","pricing_plan_id":"cebpf4jnsgd1na2vs0mg"},{"bike_id":"d7ff2894-9c5e-41d5-878d-d5d27747d579","system_id":"levelo_inurba_marseille","lat":43.317557,"lon":5.390173,"is_reserved":false,"is_disabled":false,"rental_uris":{"android":"levelo://app?vid=d7ff2894-9c5e-41d5-878d-d5d27747d579","ios":"levelo://app?vid=d7ff2894-9c5e-41d5-878d-d5d27747d579"},"vehicle_type_id":"4","last_reported":1708124796,"current_range_meters":14400,"station_id":"ce4bhqp2rcd13ifvqhng","pricing_plan_id":"cebpf4jnsgd1na2vs0mg"},{"bike_id":"f6535c2f-d091-4f83-8ee7-dcd26141ca83","system_id":"levelo_inurba_marseille","lat":43.31759,"lon":5.39016,"is_reserved":false,"is_disabled":false,"rental_uris":{"android":"levelo://app?vid=f6535c2f-d091-4f83-8ee7-dcd26141ca83","ios":"levelo://app?vid=f6535c2f-d091-4f83-8ee7-dcd26141ca83"},"vehicle_type_id":"4","last_reported":1708124796,"current_range_meters":19200,"station_id":"ce4bhqp2rcd13ifvqhng","pricing_plan_id":"cebpf4jnsgd1na2vs0mg"},{"bike_id":"b3dcb9ba-bf07-48c1-aada-2fbdb761a352","system_id":"levelo_inurba_marseille","lat":43.317557,"lon":5.390173,"is_reserved":false,"is_disabled":false,"rental_uris":{"android":"levelo://app?vid=b3dcb9ba-bf07-48c1-aada-2fbdb761a352","ios":"levelo://app?vid=b3dcb9ba-bf07-48c1-aada-2fbdb761a352"},"vehicle_type_id":"4","last_reported":1708124796,"current_range_meters":31200,"station_id":"ce4bhqp2rcd13ifvqhng","pricing_plan_id":"cebpf4jnsgd1na2vs0mg"},{"bike_id":"9702f140-b449-46a4-a321-162f976da6ae","system_id":"levelo_inurba_marseille","lat":43.317557,"lon":5.390173,"is_reserved":false,"is_disabled":false,"rental_uris":{"android":"levelo://app?vid=9702f140-b449-46a4-a321-162f976da6ae","ios":"levelo://app?vid=9702f140-b449-46a4-a321-162f976da6ae"},"vehicle_type_id":"4","last_reported":1708124796,"current_range_meters":18000,"station_id":"ce4bhqp2rcd13ifvqhng","pricing_plan_id":"cebpf4jnsgd1na2vs0mg"},{"bike_id":"ed10a435-1a4b-4dcb-9298-e3f009503610","system_id":"levelo_inurba_marseille","lat":43.317557,"lon":5.390173,"is_reserved":false,"is_disabled":false,"rental_uris":{"android":"levelo://app?vid=ed10a435-1a4b-4dcb-9298-e3f009503610","ios":"levelo://app?vid=ed10a435-1a4b-4dcb-9298-e3f009503610"},"vehicle_type_id":"4","last_reported":1708124796,"current_range_meters":27600,"station_id":"ce4bhqp2rcd13ifvqhng","pricing_plan_id":"cebpf4jnsgd1na2vs0mg"},{"bike_id":"6ccb21c5-f410-4f97-a31b-5d3674cc4c24","system_id":"levelo_inurba_marseille","lat":43.317557,"lon":5.390173,"is_reserved":false,"is_disabled":false,"rental_uris":{"android":"levelo://app?vid=6ccb21c5-f410-4f97-a31b-5d3674cc4c24","ios":"levelo://app?vid=6ccb21c5-f410-4f97-a31b-5d3674cc4c24"},"vehicle_type_id":"4","last_reported":1708124796,"current_range_meters":31200,"station_id":"ce4bhqp2rcd13ifvqhng","pricing_plan_id":"cebpf4jnsgd1na2vs0mg"},{"bike_id":"a203661e-355b-42f4-9955-ac4c89f27d54","system_id":"levelo_inurba_marseille","lat":43.317557,"lon":5.390173,"is_reserved":false,"is_disabled":false,"rental_uris":{"android":"levelo://app?vid=a203661e-355b-42f4-9955-ac4c89f27d54","ios":"levelo://app?vid=a203661e-355b-42f4-9955-ac4c89f27d54"},"vehicle_type_id":"4","last_reported":1708124796,"current_range_meters":31200,"station_id":"ce4bhqp2rcd13ifvqhng","pricing_plan_id":"cebpf4jnsgd1na2vs0mg"},{"bike_id":"2ca97d81-6eeb-49fd-a3cc-b94b782f5563","system_id":"levelo_inurba_marseille","lat":43.31759,"lon":5.39018,"is_reserved":false,"is_disabled":false,"rental_uris":{"android":"levelo://app?vid=2ca97d81-6eeb-49fd-a3cc-b94b782f5563","ios":"levelo://app?vid=2ca97d81-6eeb-49fd-a3cc-b94b782f5563"},"vehicle_type_id":"4","last_reported":1708124796,"current_range_meters":28400,"station_id":"ce4bhqp2rcd13ifvqhng","pricing_plan_id":"cebpf4jnsgd1na2vs0mg"},{"bike_id":"a8e4c1ff-320b-42f8-a6ba-55bf9464ad76","system_id":"levelo_inurba_marseille","lat":43.317557,"lon":5.390173,"is_reserved":false,"is_disabled":false,"rental_uris":{"android":"levelo://app?vid=a8e4c1ff-320b-42f8-a6ba-55bf9464ad76","ios":"levelo://app?vid=a8e4c1ff-320b-42f8-a6ba-55bf9464ad76"},"vehicle_type_id":"4","last_reported":1708124796,"current_range_meters":20800,"station_id":"ce4bhqp2rcd13ifvqhng","pricing_plan_id":"cebpf4jnsgd1na2vs0mg"},{"bike_id":"3edc7f72-aa1e-4feb-820d-899f3aaa6755","system_id":"levelo_inurba_marseille","lat":43.317557,"lon":5.390173,"is_reserved":false,"is_disabled":false,"rental_uris":{"android":"levelo://app?vid=3edc7f72-aa1e-4feb-820d-899f3aaa6755","ios":"levelo://app?vid=3edc7f72-aa1e-4feb-820d-899f3aaa6755"},"vehicle_type_id":"4","last_reported":1708124796,"current_range_meters":18800,"station_id":"ce4bhqp2rcd13ifvqhng","pricing_plan_id":"cebpf4jnsgd1na2vs0mg"},{"bike_id":"ed87d69f-71e3-4a80-a6a0-6a1355afd957","system_id":"levelo_inurba_marseille","lat":43.31755,"lon":5.39022,"is_reserved":false,"is_disabled":false,"rental_uris":{"android":"levelo://app?vid=ed87d69f-71e3-4a80-a6a0-6a1355afd957","ios":"levelo://app?vid=ed87d69f-71e3-4a80-a6a0-6a1355afd957"},"vehicle_type_id":"4","last_reported":1708124796,"current_range_meters":14800,"station_id":"ce4bhqp2rcd13ifvqhng","pricing_plan_id":"cebpf4jnsgd1na2vs0mg"},{"bike_id":"44c0a2a0-88a3-4e19-8fc3-deba4ee3e011","system_id":"levelo_inurba_marseille","lat":43.317557,"lon":5.390173,"is_reserved":false,"is_disabled":false,"rental_uris":{"android":"levelo://app?vid=44c0a2a0-88a3-4e19-8fc3-deba4ee3e011","ios":"levelo://app?vid=44c0a2a0-88a3-4e19-8fc3-deba4ee3e011"},"vehicle_type_id":"4","last_reported":1708124796,"current_range_meters":24800,"station_id":"ce4bhqp2rcd13ifvqhng","pricing_plan_id":"cebpf4jnsgd1na2vs0mg"},{"bike_id":"ac368e14-e736-46a2-a046-3feb1afccb58","system_id":"levelo_inurba_marseille","lat":43.298037,"lon":5.381066,"is_reserved":false,"is_disabled":false,"rental_uris":{"android":"levelo://app?vid=ac368e14-e736-46a2-a046-3feb1afccb58","ios":"levelo://app?vid=ac368e14-e736-46a2-a046-3feb1afccb58"},"vehicle_type_id":"4","last_reported":1708124796,"current_range_meters":29200,"station_id":"ce4bgip2rcd13ifvqbb0","pricing_plan_id":"cebpf4jnsgd1na2vs0mg"},{"bike_id":"2af731e2-fd29-465b-91fa-c7bb3323f616","system_id":"levelo_inurba_marseille","lat":43.298037,"lon":5.381066,"is_reserved":false,"is_disabled":false,"rental_uris":{"android":"levelo://app?vid=2af731e2-fd29-465b-91fa-c7bb3323f616","ios":"levelo://app?vid=2af731e2-fd29-465b-91fa-c7bb3323f616"},"vehicle_type_id":"4","last_reported":1708124796,"current_range_meters":7600,"station_id":"ce4bgip2rcd13ifvqbb0","pricing_plan_id":"cebpf4jnsgd1na2vs0mg"},{"bike_id":"36331f56-c68c-4cde-b0a8-4b220a60f1e1","system_id":"levelo_inurba_marseille","lat":43.298037,"lon":5.381066,"is_reserved":false,"is_disabled":false,"rental_uris":{"android":"levelo://app?vid=36331f56-c68c-4cde-b0a8-4b220a60f1e1","ios":"levelo://app?vid=36331f56-c68c-4cde-b0a8-4b220a60f1e1"},"vehicle_type_id":"4","last_reported":1708124796,"current_range_meters":11200,"station_id":"ce4bgip2rcd13ifvqbb0","pricing_plan_id":"cebpf4jnsgd1na2vs0mg"},{"bike_id":"3eb817e6-6c5e-4ed8-ac7c-34331de21c35","system_id":"levelo_inurba_marseille","lat":43.298037,"lon":5.381066,"is_reserved":false,"is_disabled":false,"rental_uris":{"android":"levelo://app?vid=3eb817e6-6c5e-4ed8-ac7c-34331de21c35","ios":"levelo://app?vid=3eb817e6-6c5e-4ed8-ac7c-34331de21c35"},"vehicle_type_id":"4","last_reported":1708124796,"current_range_meters":26000,"station_id":"ce4bgip2rcd13ifvqbb0","pricing_plan_id":"cebpf4jnsgd1na2vs0mg"},{"bike_id":"38917168-1a51-4258-907d-e3bd3e688812","system_id":"levelo_inurba_marseille","lat":43.293259,"lon":5.371586,"is_reserved":false,"is_disabled":false,"rental_uris":{"android":"levelo://app?vid=38917168-1a51-4258-907d-e3bd3e688812","ios":"levelo://app?vid=38917168-1a51-4258-907d-e3bd3e688812"},"vehicle_type_id":"4","last_reported":1708124796,"current_range_meters":25200,"station_id":"ce4bgh92rcd13ifvqb40","pricing_plan_id":"cebpf4jnsgd1na2vs0mg"},{"bike_id":"e92ab1ef-7422-455f-b5fc-713cf9958693","system_id":"levelo_inurba_marseille","lat":43.304278,"lon":5.388868,"is_reserved":false,"is_disabled":false,"rental_uris":{"android":"levelo://app?vid=e92ab1ef-7422-455f-b5fc-713cf9958693","ios":"levelo://app?vid=e92ab1ef-7422-455f-b5fc-713cf9958693"},"vehicle_type_id":"4","last_reported":1708124796,"current_range_meters":22000,"station_id":"ce4bgk12rcd13ifvqbi0","pricing_plan_id":"cebpf4jnsgd1na2vs0mg"},{"bike_id":"b92d60f3-c966-421c-94ec-95c8bef5d497","system_id":"levelo_inurba_marseille","lat":43.304278,"lon":5.388868,"is_reserved":false,"is_disabled":false,"rental_uris":{"android":"levelo://app?vid=b92d60f3-c966-421c-94ec-95c8bef5d497","ios":"levelo://app?vid=b92d60f3-c966-421c-94ec-95c8bef5d497"},"vehicle_type_id":"4","last_reported":1708124796,"current_range_meters":23200,"station_id":"ce4bgk12rcd13ifvqbi0","pricing_plan_id":"cebpf4jnsgd1na2vs0mg"},{"bike_id":"a31ff059-5f6a-4e29-bfea-2dcb2e5d1220","system_id":"levelo_inurba_marseille","lat":43.29793,"lon":5.38112,"is_reserved":false,"is_disabled":false,"rental_uris":{"android":"levelo://app?vid=a31ff059-5f6a-4e29-bfea-2dcb2e5d1220","ios":"levelo://app?vid=a31ff059-5f6a-4e29-bfea-2dcb2e5d1220"},"vehicle_type_id":"4","last_reported":1708124796,"current_range_meters":10400,"station_id":"ce4bgip2rcd13ifvqbb0","pricing_plan_id":"cebpf4jnsgd1na2vs0mg"},{"bike_id":"2cdd8a36-177a-4c7b-bbd8-d773ffb93d13","system_id":"levelo_inurba_marseille","lat":43.304274,"lon":5.388873,"is_reserved":false,"is_disabled":false,"rental_uris":{"android":"levelo://app?vid=2cdd8a36-177a-4c7b-bbd8-d773ffb93d13","ios":"levelo://app?vid=2cdd8a36-177a-4c7b-bbd8-d773ffb93d13"},"vehicle_type_id":"4","last_reported":1708124796,"current_range_meters":10800,"station_id":"ce4bgk12rcd13ifvqbi0","pricing_plan_id":"cebpf4jnsgd1na2vs0mg"},{"bike_id":"ed78c9a2-38f7-4b5f-be04-be4d025b71d1","system_id":"levelo_inurba_marseille","lat":43.29976,"lon":5.38484,"is_reserved":false,"is_disabled":false,"rental_uris":{"android":"levelo://app?vid=ed78c9a2-38f7-4b5f-be04-be4d025b71d1","ios":"levelo://app?vid=ed78c9a2-38f7-4b5f-be04-be4d025b71d1"},"vehicle_type_id":"4","last_reported":1708124796,"current_range_meters":19200,"station_id":"ce4bgj92rcd13ifvqbd0","pricing_plan_id":"cebpf4jnsgd1na2vs0mg"},{"bike_id":"e093e4a7-5e65-4fb8-9b34-aac10740e448","system_id":"levelo_inurba_marseille","lat":43.299707,"lon":5.384859,"is_reserved":false,"is_disabled":false,"rental_uris":{"android":"levelo://app?vid=e093e4a7-5e65-4fb8-9b34-aac10740e448","ios":"levelo://app?vid=e093e4a7-5e65-4fb8-9b34-aac10740e448"},"vehicle_type_id":"4","last_reported":1708124796,"current_range_meters":10400,"station_id":"ce4bgj92rcd13ifvqbd0","pricing_plan_id":"cebpf4jnsgd1na2vs0mg"},{"bike_id":"e349d279-afd2-4489-91c4-3c05c0d8cdb4","system_id":"levelo_inurba_marseille","lat":43.299717,"lon":5.384845,"is_reserved":false,"is_disabled":false,"rental_uris":{"android":"levelo://app?vid=e349d279-afd2-4489-91c4-3c05c0d8cdb4","ios":"levelo://app?vid=e349d279-afd2-4489-91c4-3c05c0d8cdb4"},"vehicle_type_id":"4","last_reported":1708124796,"current_range_meters":24400,"station_id":"ce4bgj92rcd13ifvqbd0","pricing_plan_id":"cebpf4jnsgd1na2vs0mg"},{"bike_id":"86d4a9eb-cf02-4c06-bf95-f56bd0816059","system_id":"levelo_inurba_marseille","lat":43.295279,"lon":5.375048,"is_reserved":false,"is_disabled":false,"rental_uris":{"android":"levelo://app?vid=86d4a9eb-cf02-4c06-bf95-f56bd0816059","ios":"levelo://app?vid=86d4a9eb-cf02-4c06-bf95-f56bd0816059"},"vehicle_type_id":"4","last_reported":1708124796,"current_range_meters":23200,"station_id":"ce4bgkp2rcd13ifvqbmg","pricing_plan_id":"cebpf4jnsgd1na2vs0mg"},{"bike_id":"8e8392c5-40d1-43ac-9536-8e0e864c7ad9","system_id":"levelo_inurba_marseille","lat":43.299717,"lon":5.384845,"is_reserved":false,"is_disabled":false,"rental_uris":{"android":"levelo://app?vid=8e8392c5-40d1-43ac-9536-8e0e864c7ad9","ios":"levelo://app?vid=8e8392c5-40d1-43ac-9536-8e0e864c7ad9"},"vehicle_type_id":"4","last_reported":1708124796,"current_range_meters":2400,"station_id":"ce4bgj92rcd13ifvqbd0","pricing_plan_id":"cebpf4jnsgd1na2vs0mg"},{"bike_id":"b63684b4-631a-473c-ab64-e503725f981c","system_id":"levelo_inurba_marseille","lat":43.299717,"lon":5.384845,"is_reserved":false,"is_disabled":false,"rental_uris":{"android":"levelo://app?vid=b63684b4-631a-473c-ab64-e503725f981c","ios":"levelo://app?vid=b63684b4-631a-473c-ab64-e503725f981c"},"vehicle_type_id":"4","last_reported":1708124796,"current_range_meters":400,"station_id":"ce4bgj92rcd13ifvqbd0","pricing_plan_id":"cebpf4jnsgd1na2vs0mg"},{"bike_id":"a821f5c6-f918-4d8f-ae20-10b0f32c86fa","system_id":"levelo_inurba_marseille","lat":43.32364,"lon":5.38877,"is_reserved":false,"is_disabled":false,"rental_uris":{"android":"levelo://app?vid=a821f5c6-f918-4d8f-ae20-10b0f32c86fa","ios":"levelo://app?vid=a821f5c6-f918-4d8f-ae20-10b0f32c86fa"},"vehicle_type_id":"4","last_reported":1708124796,"current_range_meters":9600,"station_id":"ce4bhqp2rcd13ifvqhog","pricing_plan_id":"cebpf4jnsgd1na2vs0mg"},{"bike_id":"67e8879b-193d-41fb-b133-c51309ca16e8","system_id":"levelo_inurba_marseille","lat":43.32367,"lon":5.388836,"is_reserved":false,"is_disabled":false,"rental_uris":{"android":"levelo://app?vid=67e8879b-193d-41fb-b133-c51309ca16e8","ios":"levelo://app?vid=67e8879b-193d-41fb-b133-c51309ca16e8"},"vehicle_type_id":"4","last_reported":1708124796,"current_range_meters":26800,"station_id":"ce4bhqp2rcd13ifvqhog","pricing_plan_id":"cebpf4jnsgd1na2vs0mg"},{"bike_id":"7b8ae2a5-fea4-420f-9e1d-5f67a20c6887","system_id":"levelo_inurba_marseille","lat":43.32367,"lon":5.388836,"is_reserved":false,"is_disabled":false,"rental_uris":{"android":"levelo://app?vid=7b8ae2a5-fea4-420f-9e1d-5f67a20c6887","ios":"levelo://app?vid=7b8ae2a5-fea4-420f-9e1d-5f67a20c6887"},"vehicle_type_id":"4","last_reported":1708124796,"current_range_meters":15200,"station_id":"ce4bhqp2rcd13ifvqhog","pricing_plan_id":"cebpf4jnsgd1na2vs0mg"},{"bike_id":"9a785585-c85b-4fa3-85aa-80d29ca57d9f","system_id":"levelo_inurba_marseille","lat":43.32367,"lon":5.388836,"is_reserved":false,"is_disabled":false,"rental_uris":{"android":"levelo://app?vid=9a785585-c85b-4fa3-85aa-80d29ca57d9f","ios":"levelo://app?vid=9a785585-c85b-4fa3-85aa-80d29ca57d9f"},"vehicle_type_id":"4","last_reported":1708124796,"current_range_meters":28800,"station_id":"ce4bhqp2rcd13ifvqhog","pricing_plan_id":"cebpf4jnsgd1na2vs0mg"},{"bike_id":"2327eaa2-eb6d-4642-af18-22514541f9a8","system_id":"levelo_inurba_marseille","lat":43.32365,"lon":5.38883,"is_reserved":false,"is_disabled":false,"rental_uris":{"android":"levelo://app?vid=2327eaa2-eb6d-4642-af18-22514541f9a8","ios":"levelo://app?vid=2327eaa2-eb6d-4642-af18-22514541f9a8"},"vehicle_type_id":"4","last_reported":1708124796,"current_range_meters":20400,"station_id":"ce4bhqp2rcd13ifvqhog","pricing_plan_id":"cebpf4jnsgd1na2vs0mg"},{"bike_id":"a8a3ad88-3aa3-4deb-a961-f2c130a0207e","system_id":"levelo_inurba_marseille","lat":43.32365,"lon":5.38883,"is_reserved":false,"is_disabled":false,"rental_uris":{"android":"levelo://app?vid=a8a3ad88-3aa3-4deb-a961-f2c130a0207e","ios":"levelo://app?vid=a8a3ad88-3aa3-4deb-a961-f2c130a0207e"},"vehicle_type_id":"4","last_reported":1708124796,"current_range_meters":27200,"station_id":"ce4bhqp2rcd13ifvqhog","pricing_plan_id":"cebpf4jnsgd1na2vs0mg"},{"bike_id":"fceacd93-f4c6-434d-bb12-36d15d3b0640","system_id":"levelo_inurba_marseille","lat":43.32367,"lon":5.388836,"is_reserved":false,"is_disabled":false,"rental_uris":{"android":"levelo://app?vid=fceacd93-f4c6-434d-bb12-36d15d3b0640","ios":"levelo://app?vid=fceacd93-f4c6-434d-bb12-36d15d3b0640"},"vehicle_type_id":"4","last_reported":1708124796,"current_range_meters":28800,"station_id":"ce4bhqp2rcd13ifvqhog","pricing_plan_id":"cebpf4jnsgd1na2vs0mg"},{"bike_id":"f9386ca3-cf78-41ba-b174-602a0647c8e4","system_id":"levelo_inurba_marseille","lat":43.32367,"lon":5.38882,"is_reserved":false,"is_disabled":false,"rental_uris":{"android":"levelo://app?vid=f9386ca3-cf78-41ba-b174-602a0647c8e4","ios":"levelo://app?vid=f9386ca3-cf78-41ba-b174-602a0647c8e4"},"vehicle_type_id":"4","last_reported":1708124796,"current_range_meters":16000,"station_id":"ce4bhqp2rcd13ifvqhog","pricing_plan_id":"cebpf4jnsgd1na2vs0mg"},{"bike_id":"47eafb4f-c4f4-4c49-adff-f0631aa24f49","system_id":"levelo_inurba_marseille","lat":43.32367,"lon":5.388836,"is_reserved":false,"is_disabled":false,"rental_uris":{"android":"levelo://app?vid=47eafb4f-c4f4-4c49-adff-f0631aa24f49","ios":"levelo://app?vid=47eafb4f-c4f4-4c49-adff-f0631aa24f49"},"vehicle_type_id":"4","last_reported":1708124796,"current_range_meters":21600,"station_id":"ce4bhqp2rcd13ifvqhog","pricing_plan_id":"cebpf4jnsgd1na2vs0mg"},{"bike_id":"6af73b7c-3333-47f9-9c52-fb4e2c063bc2","system_id":"levelo_inurba_marseille","lat":43.32367,"lon":5.388836,"is_reserved":false,"is_disabled":false,"rental_uris":{"android":"levelo://app?vid=6af73b7c-3333-47f9-9c52-fb4e2c063bc2","ios":"levelo://app?vid=6af73b7c-3333-47f9-9c52-fb4e2c063bc2"},"vehicle_type_id":"4","last_reported":1708124796,"current_range_meters":14800,"station_id":"ce4bhqp2rcd13ifvqhog","pricing_plan_id":"cebpf4jnsgd1na2vs0mg"},{"bike_id":"e2f917cb-f13a-4bec-9e9e-af0e8f07ef7f","system_id":"levelo_inurba_marseille","lat":43.32367,"lon":5.388836,"is_reserved":false,"is_disabled":false,"rental_uris":{"android":"levelo://app?vid=e2f917cb-f13a-4bec-9e9e-af0e8f07ef7f","ios":"levelo://app?vid=e2f917cb-f13a-4bec-9e9e-af0e8f07ef7f"},"vehicle_type_id":"4","last_reported":1708124796,"current_range_meters":6400,"station_id":"ce4bhqp2rcd13ifvqhog","pricing_plan_id":"cebpf4jnsgd1na2vs0mg"},{"bike_id":"11f16d73-52cf-4b59-8120-4e257d4d363b","system_id":"levelo_inurba_marseille","lat":43.32367,"lon":5.388836,"is_reserved":false,"is_disabled":false,"rental_uris":{"android":"levelo://app?vid=11f16d73-52cf-4b59-8120-4e257d4d363b","ios":"levelo://app?vid=11f16d73-52cf-4b59-8120-4e257d4d363b"},"vehicle_type_id":"4","last_reported":1708124796,"current_range_meters":12000,"station_id":"ce4bhqp2rcd13ifvqhog","pricing_plan_id":"cebpf4jnsgd1na2vs0mg"},{"bike_id":"39218043-babe-4383-8f3e-ac96355ba56e","system_id":"levelo_inurba_marseille","lat":43.32367,"lon":5.388836,"is_reserved":false,"is_disabled":false,"rental_uris":{"android":"levelo://app?vid=39218043-babe-4383-8f3e-ac96355ba56e","ios":"levelo://app?vid=39218043-babe-4383-8f3e-ac96355ba56e"},"vehicle_type_id":"4","last_reported":1708124796,"current_range_meters":7600,"station_id":"ce4bhqp2rcd13ifvqhog","pricing_plan_id":"cebpf4jnsgd1na2vs0mg"},{"bike_id":"e979be13-7d82-45e3-be83-82cd14dc0218","system_id":"levelo_inurba_marseille","lat":43.32367,"lon":5.388836,"is_reserved":false,"is_disabled":false,"rental_uris":{"android":"levelo://app?vid=e979be13-7d82-45e3-be83-82cd14dc0218","ios":"levelo://app?vid=e979be13-7d82-45e3-be83-82cd14dc0218"},"vehicle_type_id":"4","last_reported":1708124796,"current_range_meters":21200,"station_id":"ce4bhqp2rcd13ifvqhog","pricing_plan_id":"cebpf4jnsgd1na2vs0mg"},{"bike_id":"b6e9376e-fef8-4adc-8e70-3ba571bfec6a","system_id":"levelo_inurba_marseille","lat":43.32367,"lon":5.388836,"is_reserved":false,"is_disabled":false,"rental_uris":{"android":"levelo://app?vid=b6e9376e-fef8-4adc-8e70-3ba571bfec6a","ios":"levelo://app?vid=b6e9376e-fef8-4adc-8e70-3ba571bfec6a"},"vehicle_type_id":"4","last_reported":1708124796,"current_range_meters":0,"station_id":"ce4bhqp2rcd13ifvqhog","pricing_plan_id":"cebpf4jnsgd1na2vs0mg"},{"bike_id":"88027d88-8bce-4f66-8ea3-44e7fd2d9288","system_id":"levelo_inurba_marseille","lat":43.293249,"lon":5.371578,"is_reserved":false,"is_disabled":false,"rental_uris":{"android":"levelo://app?vid=88027d88-8bce-4f66-8ea3-44e7fd2d9288","ios":"levelo://app?vid=88027d88-8bce-4f66-8ea3-44e7fd2d9288"},"vehicle_type_id":"4","last_reported":1708124796,"current_range_meters":23200,"station_id":"ce4bgh92rcd13ifvqb40","pricing_plan_id":"cebpf4jnsgd1na2vs0mg"},{"bike_id":"df4a6037-010d-4d03-9c4c-f34090dc59cd","system_id":"levelo_inurba_marseille","lat":43.293009,"lon":5.374584,"is_reserved":false,"is_disabled":false,"rental_uris":{"android":"levelo://app?vid=df4a6037-010d-4d03-9c4c-f34090dc59cd","ios":"levelo://app?vid=df4a6037-010d-4d03-9c4c-f34090dc59cd"},"vehicle_type_id":"4","last_reported":1708124796,"current_range_meters":31200,"station_id":"ce4bgi12rcd13ifvqb70","pricing_plan_id":"cebpf4jnsgd1na2vs0mg"},{"bike_id":"079f1a21-b2dd-42d7-b081-cbe7cce00ecb","system_id":"levelo_inurba_marseille","lat":43.293009,"lon":5.374584,"is_reserved":false,"is_disabled":false,"rental_uris":{"android":"levelo://app?vid=079f1a21-b2dd-42d7-b081-cbe7cce00ecb","ios":"levelo://app?vid=079f1a21-b2dd-42d7-b081-cbe7cce00ecb"},"vehicle_type_id":"4","last_reported":1708124796,"current_range_meters":9200,"station_id":"ce4bgi12rcd13ifvqb70","pricing_plan_id":"cebpf4jnsgd1na2vs0mg"},{"bike_id":"c29814f6-e938-4aca-b475-06dbf04440f1","system_id":"levelo_inurba_marseille","lat":43.305994,"lon":5.393687,"is_reserved":false,"is_disabled":false,"rental_uris":{"android":"levelo://app?vid=c29814f6-e938-4aca-b475-06dbf04440f1","ios":"levelo://app?vid=c29814f6-e938-4aca-b475-06dbf04440f1"},"vehicle_type_id":"4","last_reported":1708124796,"current_range_meters":30000,"station_id":"ce4bh0p2rcd13ifvqd80","pricing_plan_id":"cebpf4jnsgd1na2vs0mg"},{"bike_id":"16ada5b5-dd16-41b4-90f6-5117b888ce25","system_id":"levelo_inurba_marseille","lat":43.293009,"lon":5.374584,"is_reserved":false,"is_disabled":false,"rental_uris":{"android":"levelo://app?vid=16ada5b5-dd16-41b4-90f6-5117b888ce25","ios":"levelo://app?vid=16ada5b5-dd16-41b4-90f6-5117b888ce25"},"vehicle_type_id":"4","last_reported":1708124796,"current_range_meters":31200,"station_id":"ce4bgi12rcd13ifvqb70","pricing_plan_id":"cebpf4jnsgd1na2vs0mg"},{"bike_id":"540d72db-bfb1-4513-b2c8-82b4c3dd5b39","system_id":"levelo_inurba_marseille","lat":43.293009,"lon":5.374584,"is_reserved":false,"is_disabled":false,"rental_uris":{"android":"levelo://app?vid=540d72db-bfb1-4513-b2c8-82b4c3dd5b39","ios":"levelo://app?vid=540d72db-bfb1-4513-b2c8-82b4c3dd5b39"},"vehicle_type_id":"4","last_reported":1708124796,"current_range_meters":25200,"station_id":"ce4bgi12rcd13ifvqb70","pricing_plan_id":"cebpf4jnsgd1na2vs0mg"},{"bike_id":"e91aba8c-f202-43ea-9e8c-7f6d4e16d90c","system_id":"levelo_inurba_marseille","lat":43.29296,"lon":5.3747,"is_reserved":false,"is_disabled":false,"rental_uris":{"android":"levelo://app?vid=e91aba8c-f202-43ea-9e8c-7f6d4e16d90c","ios":"levelo://app?vid=e91aba8c-f202-43ea-9e8c-7f6d4e16d90c"},"vehicle_type_id":"4","last_reported":1708124796,"current_range_meters":31600,"station_id":"ce4bgi12rcd13ifvqb70","pricing_plan_id":"cebpf4jnsgd1na2vs0mg"},{"bike_id":"e4c899b4-5116-46f4-bedf-a354295d1cad","system_id":"levelo_inurba_marseille","lat":43.305994,"lon":5.393687,"is_reserved":false,"is_disabled":false,"rental_uris":{"android":"levelo://app?vid=e4c899b4-5116-46f4-bedf-a354295d1cad","ios":"levelo://app?vid=e4c899b4-5116-46f4-bedf-a354295d1cad"},"vehicle_type_id":"4","last_reported":1708124796,"current_range_meters":18000,"station_id":"ce4bh0p2rcd13ifvqd80","pricing_plan_id":"cebpf4jnsgd1na2vs0mg"},{"bike_id":"773f6e17-830b-4d84-bb91-707456300946","system_id":"levelo_inurba_marseille","lat":43.305994,"lon":5.393687,"is_reserved":false,"is_disabled":false,"rental_uris":{"android":"levelo://app?vid=773f6e17-830b-4d84-bb91-707456300946","ios":"levelo://app?vid=773f6e17-830b-4d84-bb91-707456300946"},"vehicle_type_id":"4","last_reported":1708124796,"current_range_meters":26000,"station_id":"ce4bh0p2rcd13ifvqd80","pricing_plan_id":"cebpf4jnsgd1na2vs0mg"},{"bike_id":"7e997982-8f3c-4992-ad5e-67a16a16eabf","system_id":"levelo_inurba_marseille","lat":43.305994,"lon":5.393687,"is_reserved":false,"is_disabled":false,"rental_uris":{"android":"levelo://app?vid=7e997982-8f3c-4992-ad5e-67a16a16eabf","ios":"levelo://app?vid=7e997982-8f3c-4992-ad5e-67a16a16eabf"},"vehicle_type_id":"4","last_reported":1708124796,"current_range_meters":11200,"station_id":"ce4bh0p2rcd13ifvqd80","pricing_plan_id":"cebpf4jnsgd1na2vs0mg"},{"bike_id":"96f5b0be-6add-427f-9273-80b7f21aa0be","system_id":"levelo_inurba_marseille","lat":43.30301,"lon":5.39196,"is_reserved":false,"is_disabled":false,"rental_uris":{"android":"levelo://app?vid=96f5b0be-6add-427f-9273-80b7f21aa0be","ios":"levelo://app?vid=96f5b0be-6add-427f-9273-80b7f21aa0be"},"vehicle_type_id":"4","last_reported":1708124796,"current_range_meters":5200,"station_id":"ce4bgkh2rcd13ifvqbk0","pricing_plan_id":"cebpf4jnsgd1na2vs0mg"},{"bike_id":"26839b27-e7eb-4e77-aca9-bc5684324679","system_id":"levelo_inurba_marseille","lat":43.30295,"lon":5.39198,"is_reserved":false,"is_disabled":false,"rental_uris":{"android":"levelo://app?vid=26839b27-e7eb-4e77-aca9-bc5684324679","ios":"levelo://app?vid=26839b27-e7eb-4e77-aca9-bc5684324679"},"vehicle_type_id":"4","last_reported":1708124796,"current_range_meters":17200,"station_id":"ce4bgkh2rcd13ifvqbk0","pricing_plan_id":"cebpf4jnsgd1na2vs0mg"},{"bike_id":"2634f59a-4de4-4d75-bf4a-b9a6c2114722","system_id":"levelo_inurba_marseille","lat":43.30301,"lon":5.39207,"is_reserved":false,"is_disabled":false,"rental_uris":{"android":"levelo://app?vid=2634f59a-4de4-4d75-bf4a-b9a6c2114722","ios":"levelo://app?vid=2634f59a-4de4-4d75-bf4a-b9a6c2114722"},"vehicle_type_id":"4","last_reported":1708124796,"current_range_meters":400,"station_id":"ce4bgkh2rcd13ifvqbk0","pricing_plan_id":"cebpf4jnsgd1na2vs0mg"},{"bike_id":"7d92e188-712d-4710-89bb-b55af24a2cd0","system_id":"levelo_inurba_marseille","lat":43.302992,"lon":5.392136,"is_reserved":false,"is_disabled":false,"rental_uris":{"android":"levelo://app?vid=7d92e188-712d-4710-89bb-b55af24a2cd0","ios":"levelo://app?vid=7d92e188-712d-4710-89bb-b55af24a2cd0"},"vehicle_type_id":"4","last_reported":1708124796,"current_range_meters":7200,"station_id":"ce4bgkh2rcd13ifvqbk0","pricing_plan_id":"cebpf4jnsgd1na2vs0mg"},{"bike_id":"a32066ea-b80e-472a-afe0-b02749e23514","system_id":"levelo_inurba_marseille","lat":43.302992,"lon":5.392136,"is_reserved":false,"is_disabled":false,"rental_uris":{"android":"levelo://app?vid=a32066ea-b80e-472a-afe0-b02749e23514","ios":"levelo://app?vid=a32066ea-b80e-472a-afe0-b02749e23514"},"vehicle_type_id":"4","last_reported":1708124796,"current_range_meters":13200,"station_id":"ce4bgkh2rcd13ifvqbk0","pricing_plan_id":"cebpf4jnsgd1na2vs0mg"},{"bike_id":"631aab11-b72a-42fd-a942-8cc5f70d03d5","system_id":"levelo_inurba_marseille","lat":43.302992,"lon":5.392136,"is_reserved":false,"is_disabled":false,"rental_uris":{"android":"levelo://app?vid=631aab11-b72a-42fd-a942-8cc5f70d03d5","ios":"levelo://app?vid=631aab11-b72a-42fd-a942-8cc5f70d03d5"},"vehicle_type_id":"4","last_reported":1708124796,"current_range_meters":11200,"station_id":"ce4bgkh2rcd13ifvqbk0","pricing_plan_id":"cebpf4jnsgd1na2vs0mg"},{"bike_id":"8817e565-13ce-47f3-ad6b-d1fd9bf29d7a","system_id":"levelo_inurba_marseille","lat":43.293727,"lon":5.378571,"is_reserved":false,"is_disabled":false,"rental_uris":{"android":"levelo://app?vid=8817e565-13ce-47f3-ad6b-d1fd9bf29d7a","ios":"levelo://app?vid=8817e565-13ce-47f3-ad6b-d1fd9bf29d7a"},"vehicle_type_id":"4","last_reported":1708124796,"current_range_meters":0,"station_id":"ce4bgjh2rcd13ifvqbf0","pricing_plan_id":"cebpf4jnsgd1na2vs0mg"},{"bike_id":"64d5afe4-8574-441d-9bf2-5681f1652bdd","system_id":"levelo_inurba_marseille","lat":43.2936,"lon":5.37835,"is_reserved":false,"is_disabled":false,"rental_uris":{"android":"levelo://app?vid=64d5afe4-8574-441d-9bf2-5681f1652bdd","ios":"levelo://app?vid=64d5afe4-8574-441d-9bf2-5681f1652bdd"},"vehicle_type_id":"4","last_reported":1708124796,"current_range_meters":26800,"station_id":"ce4bgjh2rcd13ifvqbf0","pricing_plan_id":"cebpf4jnsgd1na2vs0mg"},{"bike_id":"855e8dc8-f288-4792-8057-b89c36703e8c","system_id":"levelo_inurba_marseille","lat":43.293678,"lon":5.378576,"is_reserved":false,"is_disabled":false,"rental_uris":{"android":"levelo://app?vid=855e8dc8-f288-4792-8057-b89c36703e8c","ios":"levelo://app?vid=855e8dc8-f288-4792-8057-b89c36703e8c"},"vehicle_type_id":"4","last_reported":1708124796,"current_range_meters":0,"station_id":"ce4bgjh2rcd13ifvqbf0","pricing_plan_id":"cebpf4jnsgd1na2vs0mg"},{"bike_id":"61613a52-bb64-4676-b978-9d2574be6578","system_id":"levelo_inurba_marseille","lat":43.2936,"lon":5.37835,"is_reserved":false,"is_disabled":false,"rental_uris":{"android":"levelo://app?vid=61613a52-bb64-4676-b978-9d2574be6578","ios":"levelo://app?vid=61613a52-bb64-4676-b978-9d2574be6578"},"vehicle_type_id":"4","last_reported":1708124796,"current_range_meters":5200,"station_id":"ce4bgjh2rcd13ifvqbf0","pricing_plan_id":"cebpf4jnsgd1na2vs0mg"},{"bike_id":"4f767425-b892-4588-a6fe-fc7de06fc999","system_id":"levelo_inurba_marseille","lat":43.300852,"lon":5.390859,"is_reserved":false,"is_disabled":false,"rental_uris":{"android":"levelo://app?vid=4f767425-b892-4588-a6fe-fc7de06fc999","ios":"levelo://app?vid=4f767425-b892-4588-a6fe-fc7de06fc999"},"vehicle_type_id":"4","last_reported":1708124796,"current_range_meters":0,"station_id":"ce4bh192rcd13ifvqdb0","pricing_plan_id":"cebpf4jnsgd1na2vs0mg"},{"bike_id":"5891ac4e-1b61-4f05-bccb-975361ac5ee4","system_id":"levelo_inurba_marseille","lat":43.292734,"lon":5.376196,"is_reserved":false,"is_disabled":false,"rental_uris":{"android":"levelo://app?vid=5891ac4e-1b61-4f05-bccb-975361ac5ee4","ios":"levelo://app?vid=5891ac4e-1b61-4f05-bccb-975361ac5ee4"},"vehicle_type_id":"4","last_reported":1708124796,"current_range_meters":5600,"station_id":"","pricing_plan_id":"cebpf4jnsgd1na2vs0mg"},{"bike_id":"926c8289-3979-448e-9d21-edb8f4b90881","system_id":"levelo_inurba_marseille","lat":43.298764,"lon":5.388973,"is_reserved":false,"is_disabled":false,"rental_uris":{"android":"levelo://app?vid=926c8289-3979-448e-9d21-edb8f4b90881","ios":"levelo://app?vid=926c8289-3979-448e-9d21-edb8f4b90881"},"vehicle_type_id":"4","last_reported":1708124796,"current_range_meters":16000,"station_id":"ce4bh392rcd13ifvqdl0","pricing_plan_id":"cebpf4jnsgd1na2vs0mg"},{"bike_id":"69e941da-72fb-427f-91e7-1bc41d515438","system_id":"levelo_inurba_marseille","lat":43.298764,"lon":5.388973,"is_reserved":false,"is_disabled":false,"rental_uris":{"android":"levelo://app?vid=69e941da-72fb-427f-91e7-1bc41d515438","ios":"levelo://app?vid=69e941da-72fb-427f-91e7-1bc41d515438"},"vehicle_type_id":"4","last_reported":1708124796,"current_range_meters":9200,"station_id":"ce4bh392rcd13ifvqdl0","pricing_plan_id":"cebpf4jnsgd1na2vs0mg"},{"bike_id":"04a28dd4-ee3f-43ea-b07c-cd2fb4e61d12","system_id":"levelo_inurba_marseille","lat":43.298764,"lon":5.388973,"is_reserved":false,"is_disabled":false,"rental_uris":{"android":"levelo://app?vid=04a28dd4-ee3f-43ea-b07c-cd2fb4e61d12","ios":"levelo://app?vid=04a28dd4-ee3f-43ea-b07c-cd2fb4e61d12"},"vehicle_type_id":"4","last_reported":1708124796,"current_range_meters":4400,"station_id":"ce4bh392rcd13ifvqdl0","pricing_plan_id":"cebpf4jnsgd1na2vs0mg"},{"bike_id":"7fd2deb0-12e8-482e-a6cd-a0080dd1e4c2","system_id":"levelo_inurba_marseille","lat":43.291994,"lon":5.357886,"is_reserved":false,"is_disabled":false,"rental_uris":{"android":"levelo://app?vid=7fd2deb0-12e8-482e-a6cd-a0080dd1e4c2","ios":"levelo://app?vid=7fd2deb0-12e8-482e-a6cd-a0080dd1e4c2"},"vehicle_type_id":"4","last_reported":1708124796,"current_range_meters":8400,"station_id":"ce4bhb12rcd13ifvqel0","pricing_plan_id":"cebpf4jnsgd1na2vs0mg"},{"bike_id":"acac2617-4bf9-4f31-bc74-e2aab28e2bac","system_id":"levelo_inurba_marseille","lat":43.309038,"lon":5.396546,"is_reserved":false,"is_disabled":false,"rental_uris":{"android":"levelo://app?vid=acac2617-4bf9-4f31-bc74-e2aab28e2bac","ios":"levelo://app?vid=acac2617-4bf9-4f31-bc74-e2aab28e2bac"},"vehicle_type_id":"4","last_reported":1708124796,"current_range_meters":28400,"station_id":"ce4bh012rcd13ifvqcv0","pricing_plan_id":"cebpf4jnsgd1na2vs0mg"},{"bike_id":"28aeaf77-b539-4061-b69b-e80d38671d21","system_id":"levelo_inurba_marseille","lat":43.31325,"lon":5.39687,"is_reserved":false,"is_disabled":false,"rental_uris":{"android":"levelo://app?vid=28aeaf77-b539-4061-b69b-e80d38671d21","ios":"levelo://app?vid=28aeaf77-b539-4061-b69b-e80d38671d21"},"vehicle_type_id":"4","last_reported":1708124796,"current_range_meters":24800,"station_id":"ce4bgvp2rcd13ifvqcu0","pricing_plan_id":"cebpf4jnsgd1na2vs0mg"},{"bike_id":"e8623178-58a9-40e0-a22f-6155f4022a34","system_id":"levelo_inurba_marseille","lat":43.31328,"lon":5.3969,"is_reserved":false,"is_disabled":false,"rental_uris":{"android":"levelo://app?vid=e8623178-58a9-40e0-a22f-6155f4022a34","ios":"levelo://app?vid=e8623178-58a9-40e0-a22f-6155f4022a34"},"vehicle_type_id":"4","last_reported":1708124796,"current_range_meters":7200,"station_id":"ce4bgvp2rcd13ifvqcu0","pricing_plan_id":"cebpf4jnsgd1na2vs0mg"},{"bike_id":"6db9e8c1-eba4-4827-8b83-7bea91adb05d","system_id":"levelo_inurba_marseille","lat":43.31329,"lon":5.3969,"is_reserved":false,"is_disabled":false,"rental_uris":{"android":"levelo://app?vid=6db9e8c1-eba4-4827-8b83-7bea91adb05d","ios":"levelo://app?vid=6db9e8c1-eba4-4827-8b83-7bea91adb05d"},"vehicle_type_id":"4","last_reported":1708124796,"current_range_meters":15200,"station_id":"ce4bgvp2rcd13ifvqcu0","pricing_plan_id":"cebpf4jnsgd1na2vs0mg"},