{"last_updated":1716746953,"ttl":30,"version":"2.2","data":{"bikes":[{"bike_id":"6c2ba792-2eaf-469c-a641-784d6846af5b","system_id":"levelo_inurba_marseille","lat":43.31341,"lon":5.367098,"is_reserved":false,"is_disabled":false,"rental_uris":{"android":"levelo://app?vid=6c2ba792-2eaf-469c-a641-784d6846af5b","ios":"levelo://app?vid=6c2ba792-2eaf-469c-a641-784d6846af5b"},"vehicle_type_id":"4","last_reported":1716746953,"current_range_meters":22000,"station_id":"ce4bgr92rcd13ifvqc6g","pricing_plan_id":"cebpf4jnsgd1na2vs0mg"},{"bike_id":"45f69cf0-a561-4985-9918-a74b520c5bee","system_id":"levelo_inurba_marseille","lat":43.31341,"lon":5.367098,"is_reserved":false,"is_disabled":false,"rental_uris":{"android":"levelo://app?vid=45f69cf0-a561-4985-9918-a74b520c5bee","ios":"levelo://app?vid=45f69cf0-a561-4985-9918-a74b520c5bee"},"vehicle_type_id":"4","last_reported":1716746953,"current_range_meters":14800,"station_id":"ce4bgr92rcd13ifvqc6g","pricing_plan_id":"cebpf4jnsgd1na2vs0mg"},{"bike_id":"892f1f38-5881-4422-8ae7-a45e5dd3fc37","system_id":"levelo_inurba_marseille","lat":43.312239,"lon":5.368562,"is_reserved":false,"is_disabled":false,"rental_uris":{"android":"levelo://app?vid=892f1f38-5881-4422-8ae7-a45e5dd3fc37","ios":"levelo://app?vid=892f1f38-5881-4422-8ae7-a45e5dd3fc37"},"vehicle_type_id":"4","last_reported":1716746953,"current_range_meters":25600,"station_id":"ce4bgl92rcd13ifvqbq0","pricing_plan_id":"cebpf4jnsgd1na2vs0mg"},{"bike_id":"399763f3-3850-471a-9d79-9087ed54c331","system_id":"levelo_inurba_marseille","lat":43.312239,"lon":5.368562,"is_reserved":false,"is_disabled":false,"rental_uris":{"android":"levelo://app?vid=399763f3-3850-471a-9d79-9087ed54c331","ios":"levelo://app?vid=399763f3-3850-471a-9d79-9087ed54c331"},"vehicle_type_id":"4","last_reported":1716746953,"current_range_meters":0,"station_id":"ce4bgl92rcd13ifvqbq0","pricing_plan_id":"cebpf4jnsgd1na2vs0mg"},{"bike_id":"443e805a-6515-4bfe-9863-c67d96f7d316","system_id":"levelo_inurba_marseille","lat":43.309076,"lon":5.368465,"is_reserved":false,"is_disabled":false,"rental_uris":{"android":"levelo://app?vid=443e805a-6515-4bfe-9863-c67d96f7d316","ios":"levelo://app?vid=443e805a-6515-4bfe-9863-c67d96f7d316"},"vehicle_type_id":"4","last_reported":1716746953,"current_range_meters":1200,"station_id":"ce4bgn92rcd13ifvqbvg","pricing_plan_id":"cebpf4jnsgd1na2vs0mg"},{"bike_id":"6002a4b5-8297-4f5b-bbff-d96a3213f92e","system_id":"levelo_inurba_marseille","lat":43.314827,"lon":5.372467,"is_reserved":false,"is_disabled":false,"rental_uris":{"android":"levelo://app?vid=6002a4b5-8297-4f5b-bbff-d96a3213f92e","ios":"levelo://app?vid=6002a4b5-8297-4f5b-bbff-d96a3213f92e"},"vehicle_type_id":"4","last_reported":1716746953,"current_range_meters":0,"station_id":"ce4bgt12rcd13ifvqcd0","pricing_plan_id":"cebpf4jnsgd1na2vs0mg"},{"bike_id":"445e788a-fa1a-4659-8241-702e39dac1b7","system_id":"levelo_inurba_marseille","lat":43.314811,"lon":5.373103,"is_reserved":false,"is_disabled":false,"rental_uris":{"android":"levelo://app?vid=445e788a-fa1a-4659-8241-702e39dac1b7","ios":"levelo://app?vid=445e788a-fa1a-4659-8241-702e39dac1b7"},"vehicle_type_id":"4","last_reported":1716746953,"current_range_meters":28800,"station_id":"ce4bgt12rcd13ifvqcd0","pricing_plan_id":"cebpf4jnsgd1na2vs0mg"},{"bike_id":"f3c341bc-3237-4c4d-8bb2-26372143b74e","system_id":"levelo_inurba_marseille","lat":43.314917,"lon":5.373031,"is_reserved":false,"is_disabled":false,"rental_uris":{"android":"levelo://app?vid=f3c341bc-3237-4c4d-8bb2-26372143b74e","ios":"levelo://app?vid=f3c341bc-3237-4c4d-8bb2-26372143b74e"},"vehicle_type_id":"4","last_reported":1716746953,"current_range_meters":0,"station_id":"ce4bgt12rcd13ifvqcd0","pricing_plan_id":"cebpf4jnsgd1na2vs0mg"},{"bike_id":"19e5075e-44fc-4dcd-bee1-7f87805cb17a","system_id":"levelo_inurba_marseille","lat":43.314811,"lon":5.373103,"is_reserved":false,"is_disabled":false,"rental_uris":{"android":"levelo://app?vid=19e5075e-44fc-4dcd-bee1-7f87805cb17a","ios":"levelo://app?vid=19e5075e-44fc-4dcd-bee1-7f87805cb17a"},"vehicle_type_id":"4","last_reported":1716746953,"current_range_meters":2000,"station_id":"ce4bgt12rcd13ifvqcd0","pricing_plan_id":"cebpf4jnsgd1na2vs0mg"},{"bike_id":"ce081592-1171-4cba-9377-b47fc6382a3e","system_id":"levelo_inurba_marseille","lat":43.31492,"lon":5.37307,"is_reserved":false,"is_disabled":false,"rental_uris":{"android":"levelo://app?vid=ce081592-1171-4cba-9377-b47fc6382a3e","ios":"levelo://app?vid=ce081592-1171-4cba-9377-b47fc6382a3e"},"vehicle_type_id":"4","last_reported":1716746953,"current_range_meters":1200,"station_id":"ce4bgt12rcd13ifvqcd0","pricing_plan_id":"cebpf4jnsgd1na2vs0mg"},{"bike_id":"d42d70a0-fbfb-42dd-b676-8cc9399f3df5","system_id":"levelo_inurba_marseille","lat":43.309034,"lon":5.371783,"is_reserved":false,"is_disabled":false,"rental_uris":{"android":"levelo://app?vid=d42d70a0-fbfb-42dd-b676-8cc9399f3df5","ios":"levelo://app?vid=d42d70a0-fbfb-42dd-b676-8cc9399f3df5"},"vehicle_type_id":"4","last_reported":1716746953,"current_range_meters":29200,"station_id":"ce4bguh2rcd13ifvqckg","pricing_plan_id":"cebpf4jnsgd1na2vs0mg"},{"bike_id":"085f8808-1d82-4a31-a42a-8e58df7e3717","system_id":"levelo_inurba_marseille","lat":43.305989,"lon":5.37225,"is_reserved":false,"is_disabled":false,"rental_uris":{"android":"levelo://app?vid=085f8808-1d82-4a31-a42a-8e58df7e3717","ios":"levelo://app?vid=085f8808-1d82-4a31-a42a-8e58df7e3717"},"vehicle_type_id":"4","last_reported":1716746953,"current_range_meters":31600,"station_id":"ce4bgqh2rcd13ifvqc4g","pricing_plan_id":"cebpf4jnsgd1na2vs0mg"},{"bike_id":"736b8e8f-ba8f-4e88-8378-047fd6f8cafb","system_id":"levelo_inurba_marseille","lat":43.305989,"lon":5.37225,"is_reserved":false,"is_disabled":false,"rental_uris":{"android":"levelo://app?vid=736b8e8f-ba8f-4e88-8378-047fd6f8cafb","ios":"levelo://app?vid=736b8e8f-ba8f-4e88-8378-047fd6f8cafb"},"vehicle_type_id":"4","last_reported":1716746953,"current_range_meters":25600,"station_id":"ce4bgqh2rcd13ifvqc4g","pricing_plan_id":"cebpf4jnsgd1na2vs0mg"},{"bike_id":"91fb4eec-c584-4ba4-bd0f-2c5d5c685e0f","system_id":"levelo_inurba_marseille","lat":43.305989,"lon":5.37225,"is_reserved":false,"is_disabled":false,"rental_uris":{"android":"levelo://app?vid=91fb4eec-c584-4ba4-bd0f-2c5d5c685e0f","ios":"levelo://app?vid=91fb4eec-c584-4ba4-bd0f-2c5d5c685e0f"},"vehicle_type_id":"4","last_reported":1716746953,"current_range_meters":17200,"station_id":"ce4bgqh2rcd13ifvqc4g","pricing_plan_id":"cebpf4jnsgd1na2vs0mg"},{"bike_id":"c555c35f-2ede-4775-9b77-c582e5760b15","system_id":"levelo_inurba_marseille","lat":43.307945,"lon":5.376487,"is_reserved":false,"is_disabled":false,"rental_uris":{"android":"levelo://app?vid=c555c35f-2ede-4775-9b77-c582e5760b15","ios":"levelo://app?vid=c555c35f-2ede-4775-9b77-c582e5760b15"},"vehicle_type_id":"4","last_reported":1716746953,"current_range_meters":1600,"station_id":"ce4bgv92rcd13ifvqcq0","pricing_plan_id":"cebpf4jnsgd1na2vs0mg"},{"bike_id":"ebe57eae-e52a-42f3-865c-57871f12c9ee","system_id":"levelo_inurba_marseille","lat":43.317075,"lon":5.377367,"is_reserved":false,"is_disabled":false,"rental_uris":{"android":"levelo://app?vid=ebe57eae-e52a-42f3-865c-57871f12c9ee","ios":"levelo://app?vid=ebe57eae-e52a-42f3-865c-57871f12c9ee"},"vehicle_type_id":"4","last_reported":1716746953,"current_range_meters":28800,"station_id":"ce4bgth2rcd13ifvqch0","pricing_plan_id":"cebpf4jnsgd1na2vs0mg"},{"bike_id":"385867f6-e50f-4faf-8b3b-0d95395f9151","system_id":"levelo_inurba_marseille","lat":43.315289,"lon":5.380349,"is_reserved":false,"is_disabled":false,"rental_uris":{"android":"levelo://app?vid=385867f6-e50f-4faf-8b3b-0d95395f9151","ios":"levelo://app?vid=385867f6-e50f-4faf-8b3b-0d95395f9151"},"vehicle_type_id":"4","last_reported":1716746953,"current_range_meters":21200,"station_id":"ce4bhsp2rcd13ifvqi50","pricing_plan_id":"cebpf4jnsgd1na2vs0mg"},{"bike_id":"7438aaf8-85be-4606-a9da-8bb150545d0d","system_id":"levelo_inurba_marseille","lat":43.31528,"lon":5.380396,"is_reserved":false,"is_disabled":false,"rental_uris":{"android":"levelo://app?vid=7438aaf8-85be-4606-a9da-8bb150545d0d","ios":"levelo://app?vid=7438aaf8-85be-4606-a9da-8bb150545d0d"},"vehicle_type_id":"4","last_reported":1716746953,"current_range_meters":14000,"station_id":"ce4bhsp2rcd13ifvqi50","pricing_plan_id":"cebpf4jnsgd1na2vs0mg"},{"bike_id":"c456f866-b3e7-4301-8fc3-90c13219b920","system_id":"levelo_inurba_marseille","lat":43.30306,"lon":5.37312,"is_reserved":false,"is_disabled":false,"rental_uris":{"android":"levelo://app?vid=c456f866-b3e7-4301-8fc3-90c13219b920","ios":"levelo://app?vid=c456f866-b3e7-4301-8fc3-90c13219b920"},"vehicle_type_id":"4","last_reported":1716746953,"current_range_meters":7200,"station_id":"","pricing_plan_id":"cebpf4jnsgd1na2vs0mg"},{"bike_id":"c6511e2f-9f21-44a8-a130-560fdd2671aa","system_id":"levelo_inurba_marseille","lat":43.30192,"lon":5.36616,"is_reserved":false,"is_disabled":false,"rental_uris":{"android":"levelo://app?vid=c6511e2f-9f21-44a8-a130-560fdd2671aa","ios":"levelo://app?vid=c6511e2f-9f21-44a8-a130-560fdd2671aa"},"vehicle_type_id":"4","last_reported":1716746953,"current_range_meters":10000,"station_id":"ce4bgrh2rcd13ifvqc8g","pricing_plan_id":"cebpf4jnsgd1na2vs0mg"},{"bike_id":"0b277748-95bd-4332-8be8-fac63fd57348","system_id":"levelo_inurba_marseille","lat":43.301939,"lon":5.366286,"is_reserved":false,"is_disabled":false,"rental_uris":{"android":"levelo://app?vid=0b277748-95bd-4332-8be8-fac63fd57348","ios":"levelo://app?vid=0b277748-95bd-4332-8be8-fac63fd57348"},"vehicle_type_id":"4","last_reported":1716746953,"current_range_meters":3600,"station_id":"ce4bgrh2rcd13ifvqc8g","pricing_plan_id":"cebpf4jnsgd1na2vs0mg"},{"bike_id":"ed38837c-dc88-46db-90f8-799b290a007b","system_id":"levelo_inurba_marseille","lat":43.30817,"lon":5.3815,"is_reserved":false,"is_disabled":false,"rental_uris":{"android":"levelo://app?vid=ed38837c-dc88-46db-90f8-799b290a007b","ios":"levelo://app?vid=ed38837c-dc88-46db-90f8-799b290a007b"},"vehicle_type_id":"4","last_reported":1716746953,"current_range_meters":23600,"station_id":"ce4bgt12rcd13ifvqce0","pricing_plan_id":"cebpf4jnsgd1na2vs0mg"},{"bike_id":"e2085b02-96a4-4246-996d-41b437598b13","system_id":"levelo_inurba_marseille","lat":43.304606,"lon":5.379026,"is_reserved":false,"is_disabled":false,"rental_uris":{"android":"levelo://app?vid=e2085b02-96a4-4246-996d-41b437598b13","ios":"levelo://app?vid=e2085b02-96a4-4246-996d-41b437598b13"},"vehicle_type_id":"4","last_reported":1716746953,"current_range_meters":0,"station_id":"ce4bgup2rcd13ifvqcn0","pricing_plan_id":"cebpf4jnsgd1na2vs0mg"},{"bike_id":"0fe1c741-31ef-4c42-ae4f-9fc5e42ec0c2","system_id":"levelo_inurba_marseille","lat":43.324798,"lon":5.365677,"is_reserved":false,"is_disabled":false,"rental_uris":{"android":"levelo://app?vid=0fe1c741-31ef-4c42-ae4f-9fc5e42ec0c2","ios":"levelo://app?vid=0fe1c741-31ef-4c42-ae4f-9fc5e42ec0c2"},"vehicle_type_id":"4","last_reported":1716746953,"current_range_meters":20800,"station_id":"ce4bhs12rcd13ifvqhvg","pricing_plan_id":"cebpf4jnsgd1na2vs0mg"},{"bike_id":"72ba4090-3817-4ac9-a00a-506384b53c7f","system_id":"levelo_inurba_marseille","lat":43.32481,"lon":5.365748,"is_reserved":false,"is_disabled":false,"rental_uris":{"android":"levelo://app?vid=72ba4090-3817-4ac9-a00a-506384b53c7f","ios":"levelo://app?vid=72ba4090-3817-4ac9-a00a-506384b53c7f"},"vehicle_type_id":"4","last_reported":1716746953,"current_range_meters":29600,"station_id":"ce4bhs12rcd13ifvqhvg","pricing_plan_id":"cebpf4jnsgd1na2vs0mg"},{"bike_id":"11afafd0-4eff-440f-850c-1e17bea26cdf","system_id":"levelo_inurba_marseille","lat":43.32483,"lon":5.36572,"is_reserved":false,"is_disabled":false,"rental_uris":{"android":"levelo://app?vid=11afafd0-4eff-440f-850c-1e17bea26cdf","ios":"levelo://app?vid=11afafd0-4eff-440f-850c-1e17bea26cdf"},"vehicle_type_id":"4","last_reported":1716746953,"current_range_meters":16400,"station_id":"ce4bhs12rcd13ifvqhvg","pricing_plan_id":"cebpf4jnsgd1na2vs0mg"},{"bike_id":"50c9a0f7-feb2-46c1-a69a-845036d6b996","system_id":"levelo_inurba_marseille","lat":43.324771,"lon":5.36557,"is_reserved":false,"is_disabled":false,"rental_uris":{"android":"levelo://app?vid=50c9a0f7-feb2-46c1-a69a-845036d6b996","ios":"levelo://app?vid=50c9a0f7-feb2-46c1-a69a-845036d6b996"},"vehicle_type_id":"4","last_reported":1716746953,"current_range_meters":9200,"station_id":"ce4bhs12rcd13ifvqhvg","pricing_plan_id":"cebpf4jnsgd1na2vs0mg"},{"bike_id":"2eb25ca6-6c46-4097-97a1-0e357bdb9752","system_id":"levelo_inurba_marseille","lat":43.32485,"lon":5.36563,"is_reserved":false,"is_disabled":false,"rental_uris":{"android":"levelo://app?vid=2eb25ca6-6c46-4097-97a1-0e357bdb9752","ios":"levelo://app?vid=2eb25ca6-6c46-4097-97a1-0e357bdb9752"},"vehicle_type_id":"4","last_reported":1716746953,"current_range_meters":14000,"station_id":"ce4bhs12rcd13ifvqhvg","pricing_plan_id":"cebpf4jnsgd1na2vs0mg"},{"bike_id":"95d11e4e-8d86-4535-95fd-b54764dfeca8","system_id":"levelo_inurba_marseille","lat":43.301429,"lon":5.37413,"is_reserved":false,"is_disabled":false,"rental_uris":{"android":"levelo://app?vid=95d11e4e-8d86-4535-95fd-b54764dfeca8","ios":"levelo://app?vid=95d11e4e-8d86-4535-95fd-b54764dfeca8"},"vehicle_type_id":"4","last_reported":1716746953,"current_range_meters":3600,"station_id":"ce4bgs92rcd13ifvqcc0","pricing_plan_id":"cebpf4jnsgd1na2vs0mg"},{"bike_id":"64514a2d-3a5e-4d83-b334-d35229e36325","system_id":"levelo_inurba_marseille","lat":43.319935,"lon":5.381699,"is_reserved":false,"is_disabled":false,"rental_uris":{"android":"levelo://app?vid=64514a2d-3a5e-4d83-b334-d35229e36325","ios":"levelo://app?vid=64514a2d-3a5e-4d83-b334-d35229e36325"},"vehicle_type_id":"4","last_reported":1716746953,"current_range_meters":3200,"station_id":"ce4bhr12rcd13ifvqhpg","pricing_plan_id":"cebpf4jnsgd1na2vs0mg"},{"bike_id":"776cc274-1c22-4dc0-858e-8a7db0860f07","system_id":"levelo_inurba_marseille","lat":43.313571,"lon":5.384829,"is_reserved":false,"is_disabled":false,"rental_uris":{"android":"levelo://app?vid=776cc274-1c22-4dc0-858e-8a7db0860f07","ios":"levelo://app?vid=776cc274-1c22-4dc0-858e-8a7db0860f07"},"vehicle_type_id":"4","last_reported":1716746953,"current_range_meters":4000,"station_id":"ce4bgt92rcd13ifvqcf0","pricing_plan_id":"cebpf4jnsgd1na2vs0mg"},{"bike_id":"af062eb6-cf22-4d6a-9ac6-7d78d5c5e27d","system_id":"levelo_inurba_marseille","lat":43.313571,"lon":5.384829,"is_reserved":false,"is_disabled":false,"rental_uris":{"android":"levelo://app?vid=af062eb6-cf22-4d6a-9ac6-7d78d5c5e27d","ios":"levelo://app?vid=af062eb6-cf22-4d6a-9ac6-7d78d5c5e27d"},"vehicle_type_id":"4","last_reported":1716746953,"current_range_meters":6400,"station_id":"ce4bgt92rcd13ifvqcf0","pricing_plan_id":"cebpf4jnsgd1na2vs0mg"},{"bike_id":"7a634a69-646d-4c2c-8eed-36106749f55c","system_id":"levelo_inurba_marseille","lat":43.29983,"lon":5.37181,"is_reserved":false,"is_disabled":false,"rental_uris":{"android":"levelo://app?vid=7a634a69-646d-4c2c-8eed-36106749f55c","ios":"levelo://app?vid=7a634a69-646d-4c2c-8eed-36106749f55c"},"vehicle_type_id":"4","last_reported":1716746953,"current_range_meters":0,"station_id":"ce4bgr92rcd13ifvqc7g","pricing_plan_id":"cebpf4jnsgd1na2vs0mg"},{"bike_id":"05546636-ce21-4a93-84ec-4dbd940289b5","system_id":"levelo_inurba_marseille","lat":43.29936,"lon":5.3655,"is_reserved":false,"is_disabled":false,"rental_uris":{"android":"levelo://app?vid=05546636-ce21-4a93-84ec-4dbd940289b5","ios":"levelo://app?vid=05546636-ce21-4a93-84ec-4dbd940289b5"},"vehicle_type_id":"4","last_reported":1716746953,"current_range_meters":18000,"station_id":"","pricing_plan_id":"cebpf4jnsgd1na2vs0mg"},{"bike_id":"7f7f4ea0-392e-47dd-ba38-39de6c2a7579","system_id":"levelo_inurba_marseille","lat":43.299773,"lon":5.371902,"is_reserved":false,"is_disabled":false,"rental_uris":{"android":"levelo://app?vid=7f7f4ea0-392e-47dd-ba38-39de6c2a7579","ios":"levelo://app?vid=7f7f4ea0-392e-47dd-ba38-39de6c2a7579"},"vehicle_type_id":"4","last_reported":1716746953,"current_range_meters":4800,"station_id":"ce4bgr92rcd13ifvqc7g","pricing_plan_id":"cebpf4jnsgd1na2vs0mg"},{"bike_id":"f498b01c-05c6-4750-9a44-bf676995b908","system_id":"levelo_inurba_marseille","lat":43.29976,"lon":5.37189,"is_reserved":false,"is_disabled":false,"rental_uris":{"android":"levelo://app?vid=f498b01c-05c6-4750-9a44-bf676995b908","ios":"levelo://app?vid=f498b01c-05c6-4750-9a44-bf676995b908"},"vehicle_type_id":"4","last_reported":1716746953,"current_range_meters":1600,"station_id":"ce4bgr92rcd13ifvqc7g","pricing_plan_id":"cebpf4jnsgd1na2vs0mg"},{"bike_id":"57a800ae-9343-43c8-81c5-6f9a51e649a4","system_id":"levelo_inurba_marseille","lat":43.29972,"lon":5.371897,"is_reserved":false,"is_disabled":false,"rental_uris":{"android":"levelo://app?vid=57a800ae-9343-43c8-81c5-6f9a51e649a4","ios":"levelo://app?vid=57a800ae-9343-43c8-81c5-6f9a51e649a4"},"vehicle_type_id":"4","last_reported":1716746953,"current_range_meters":2000,"station_id":"ce4bgr92rcd13ifvqc7g","pricing_plan_id":"cebpf4jnsgd1na2vs0mg"},{"bike_id":"befbd718-5de6-4b8a-9a98-af0f69c133fb","system_id":"levelo_inurba_marseille","lat":43.299724,"lon":5.371829,"is_reserved":false,"is_disabled":false,"rental_uris":{"android":"levelo://app?vid=befbd718-5de6-4b8a-9a98-af0f69c133fb","ios":"levelo://app?vid=befbd718-5de6-4b8a-9a98-af0f69c133fb"},"vehicle_type_id":"4","last_reported":1716746953,"current_range_meters":3600,"station_id":"ce4bgr92rcd13ifvqc7g","pricing_plan_id":"cebpf4jnsgd1na2vs0mg"},{"bike_id":"e4cfd265-fd4c-4486-a29e-b3fec2beff6f","system_id":"levelo_inurba_marseille","lat":43.2995,"lon":5.371835,"is_reserved":false,"is_disabled":false,"rental_uris":{"android":"levelo://app?vid=e4cfd265-fd4c-4486-a29e-b3fec2beff6f","ios":"levelo://app?vid=e4cfd265-fd4c-4486-a29e-b3fec2beff6f"},"vehicle_type_id":"4","last_reported":1716746953,"current_range_meters":0,"station_id":"ce4bgr92rcd13ifvqc7g","pricing_plan_id":"cebpf4jnsgd1na2vs0mg"},{"bike_id":"4142ef5b-8b8a-4fd9-b5e7-2cff5b3ca733","system_id":"levelo_inurba_marseille","lat":43.29858,"lon":5.36294,"is_reserved":false,"is_disabled":false,"rental_uris":{"android":"levelo://app?vid=4142ef5b-8b8a-4fd9-b5e7-2cff5b3ca733","ios":"levelo://app?vid=4142ef5b-8b8a-4fd9-b5e7-2cff5b3ca733"},"vehicle_type_id":"4","last_reported":1716746953,"current_range_meters":0,"station_id":"ce4bgpp2rcd13ifvqc3g","pricing_plan_id":"cebpf4jnsgd1na2vs0mg"},{"bike_id":"36dd23a9-bed7-43f0-8db3-f0f727e8239f","system_id":"levelo_inurba_marseille","lat":43.298433,"lon":5.362774,"is_reserved":false,"is_disabled":false,"rental_uris":{"android":"levelo://app?vid=36dd23a9-bed7-43f0-8db3-f0f727e8239f","ios":"levelo://app?vid=36dd23a9-bed7-43f0-8db3-f0f727e8239f"},"vehicle_type_id":"4","last_reported":1716746953,"current_range_meters":16800,"station_id":"ce4bgpp2rcd13ifvqc3g","pricing_plan_id":"cebpf4jnsgd1na2vs0mg"},{"bike_id":"e83106a2-4c2d-4300-a973-ad0b0ff2d510","system_id":"levelo_inurba_marseille","lat":43.298433,"lon":5.362774,"is_reserved":false,"is_disabled":false,"rental_uris":{"android":"levelo://app?vid=e83106a2-4c2d-4300-a973-ad0b0ff2d510","ios":"levelo://app?vid=e83106a2-4c2d-4300-a973-ad0b0ff2d510"},"vehicle_type_id":"4","last_reported":1716746953,"current_range_meters":31200,"station_id":"ce4bgpp2rcd13ifvqc3g","pricing_plan_id":"cebpf4jnsgd1na2vs0mg"},{"bike_id":"7314816d-3275-4c52-b665-9c6e8780b347","system_id":"levelo_inurba_marseille","lat":43.298433,"lon":5.362774,"is_reserved":false,"is_disabled":false,"rental_uris":{"android":"levelo://app?vid=7314816d-3275-4c52-b665-9c6e8780b347","ios":"levelo://app?vid=7314816d-3275-4c52-b665-9c6e8780b347"},"vehicle_type_id":"4","last_reported":1716746953,"current_range_meters":0,"station_id":"ce4bgpp2rcd13ifvqc3g","pricing_plan_id":"cebpf4jnsgd1na2vs0mg"},{"bike_id":"2b8c7e0e-a7c4-4583-869a-e6d91da1e69e","system_id":"levelo_inurba_marseille","lat":43.299243,"lon":5.37481,"is_reserved":false,"is_disabled":false,"rental_uris":{"android":"levelo://app?vid=2b8c7e0e-a7c4-4583-869a-e6d91da1e69e","ios":"levelo://app?vid=2b8c7e0e-a7c4-4583-869a-e6d91da1e69e"},"vehicle_type_id":"4","last_reported":1716746953,"current_range_meters":0,"station_id":"ce4bgjh2rcd13ifvqbg0","pricing_plan_id":"cebpf4jnsgd1na2vs0mg"},{"bike_id":"7c0279c4-785e-41cc-9875-11b1aa5697b0","system_id":"levelo_inurba_marseille","lat":43.298433,"lon":5.362774,"is_reserved":false,"is_disabled":false,"rental_uris":{"android":"levelo://app?vid=7c0279c4-785e-41cc-9875-11b1aa5697b0","ios":"levelo://app?vid=7c0279c4-785e-41cc-9875-11b1aa5697b0"},"vehicle_type_id":"4","last_reported":1716746953,"current_range_meters":31200,"station_id":"ce4bgpp2rcd13ifvqc3g","pricing_plan_id":"cebpf4jnsgd1na2vs0mg"},{"bike_id":"51354bfb-b6f5-4b9b-97de-d809e5904bbc","system_id":"levelo_inurba_marseille","lat":43.305327,"lon":5.384333,"is_reserved":false,"is_disabled":false,"rental_uris":{"android":"levelo://app?vid=51354bfb-b6f5-4b9b-97de-d809e5904bbc","ios":"levelo://app?vid=51354bfb-b6f5-4b9b-97de-d809e5904bbc"},"vehicle_type_id":"4","last_reported":1716746953,"current_range_meters":0,"station_id":"ce4bgg92rcd13ifvqb30","pricing_plan_id":"cebpf4jnsgd1na2vs0mg"},{"bike_id":"c70d197d-6f1a-411a-8287-034ce7bb850a","system_id":"levelo_inurba_marseille","lat":43.31173,"lon":5.3871,"is_reserved":false,"is_disabled":false,"rental_uris":{"android":"levelo://app?vid=c70d197d-6f1a-411a-8287-034ce7bb850a","ios":"levelo://app?vid=c70d197d-6f1a-411a-8287-034ce7bb850a"},"vehicle_type_id":"4","last_reported":1716746953,"current_range_meters":0,"station_id":"ce4bgv12rcd13ifvqcp0","pricing_plan_id":"cebpf4jnsgd1na2vs0mg"},{"bike_id":"27e74a4b-7913-4dd7-a751-d4965de5eded","system_id":"levelo_inurba_marseille","lat":43.311722,"lon":5.387247,"is_reserved":false,"is_disabled":false,"rental_uris":{"android":"levelo://app?vid=27e74a4b-7913-4dd7-a751-d4965de5eded","ios":"levelo://app?vid=27e74a4b-7913-4dd7-a751-d4965de5eded"},"vehicle_type_id":"4","last_reported":1716746953,"current_range_meters":2800,"station_id":"ce4bgv12rcd13ifvqcp0","pricing_plan_id":"cebpf4jnsgd1na2vs0mg"},{"bike_id":"23577ba4-bf15-4629-881c-a925aaa00eb7","system_id":"levelo_inurba_marseille","lat":43.311722,"lon":5.387247,"is_reserved":false,"is_disabled":false,"rental_uris":{"android":"levelo://app?vid=23577ba4-bf15-4629-881c-a925aaa00eb7","ios":"levelo://app?vid=23577ba4-bf15-4629-881c-a925aaa00eb7"},"vehicle_type_id":"4","last_reported":1716746953,"current_range_meters":4400,"station_id":"ce4bgv12rcd13ifvqcp0","pricing_plan_id":"cebpf4jnsgd1na2vs0mg"},{"bike_id":"465f2e61-9bf4-4663-8f74-d154a509a754","system_id":"levelo_inurba_marseille","lat":43.305364,"lon":5.384119,"is_reserved":false,"is_disabled":false,"rental_uris":{"android":"levelo://app?vid=465f2e61-9bf4-4663-8f74-d154a509a754","ios":"levelo://app?vid=465f2e61-9bf4-4663-8f74-d154a509a754"},"vehicle_type_id":"4","last_reported":1716746953,"current_range_meters":3200,"station_id":"ce4bgg92rcd13ifvqb30","pricing_plan_id":"cebpf4jnsgd1na2vs0mg"},{"bike_id":"ed492a4e-944e-43b3-bd26-4581a8e6f7a8","system_id":"levelo_inurba_marseille","lat":43.297794,"lon":5.370888,"is_reserved":false,"is_disabled":false,"rental_uris":{"android":"levelo://app?vid=ed492a4e-944e-43b3-bd26-4581a8e6f7a8","ios":"levelo://app?vid=ed492a4e-944e-43b3-bd26-4581a8e6f7a8"},"vehicle_type_id":"4","last_reported":1716746953,"current_range_meters":29600,"station_id":"ce4bgop2rcd13ifvqc1g","pricing_plan_id":"cebpf4jnsgd1na2vs0mg"},{"bike_id":"9fb6455d-0cbe-4b67-bf48-6a81bcde3600","system_id":"levelo_inurba_marseille","lat":43.297774,"lon":5.370875,"is_reserved":false,"is_disabled":false,"rental_uris":{"android":"levelo://app?vid=9fb6455d-0cbe-4b67-bf48-6a81bcde3600","ios":"levelo://app?vid=9fb6455d-0cbe-4b67-bf48-6a81bcde3600"},"vehicle_type_id":"4","last_reported":1716746953,"current_range_meters":14800,"station_id":"ce4bgop2rcd13ifvqc1g","pricing_plan_id":"cebpf4jnsgd1na2vs0mg"},{"bike_id":"83ce824f-b1a3-47e1-9cea-1174d1cf320b","system_id":"levelo_inurba_marseille","lat":43.297163,"lon":5.365866,"is_reserved":false,"is_disabled":false,"rental_uris":{"android":"levelo://app?vid=83ce824f-b1a3-47e1-9cea-1174d1cf320b","ios":"levelo://app?vid=83ce824f-b1a3-47e1-9cea-1174d1cf320b"},"vehicle_type_id":"4","last_reported":1716746953,"current_range_meters":0,"station_id":"ce4bgn12rcd13ifvqbt0","pricing_plan_id":"cebpf4jnsgd1na2vs0mg"},{"bike_id":"945bb988-2a1a-4b2e-a9f0-3b06fdf80581","system_id":"levelo_inurba_marseille","lat":43.297163,"lon":5.365866,"is_reserved":false,"is_disabled":false,"rental_uris":{"android":"levelo://app?vid=945bb988-2a1a-4b2e-a9f0-3b06fdf80581","ios":"levelo://app?vid=945bb988-2a1a-4b2e-a9f0-3b06fdf80581"},"vehicle_type_id":"4","last_reported":1716746953,"current_range_meters":3200,"station_id":"ce4bgn12rcd13ifvqbt0","pricing_plan_id":"cebpf4jnsgd1na2vs0mg"},{"bike_id":"6a848dea-29f0-4169-9abd-d6d855854ea2","system_id":"levelo_inurba_marseille","lat":43.2968,"lon":5.37291,"is_reserved":false,"is_disabled":false,"rental_uris":{"android":"levelo://app?vid=6a848dea-29f0-4169-9abd-d6d855854ea2","ios":"levelo://app?vid=6a848dea-29f0-4169-9abd-d6d855854ea2"},"vehicle_type_id":"4","last_reported":1716746953,"current_range_meters":1200,"station_id":"ce4bgk12rcd13ifvqbj0","pricing_plan_id":"cebpf4jnsgd1na2vs0mg"},{"bike_id":"b0181dbd-d16d-4347-9382-b450da867146","system_id":"levelo_inurba_marseille","lat":43.29657,"lon":5.36162,"is_reserved":false,"is_disabled":false,"rental_uris":{"android":"levelo://app?vid=b0181dbd-d16d-4347-9382-b450da867146","ios":"levelo://app?vid=b0181dbd-d16d-4347-9382-b450da867146"},"vehicle_type_id":"4","last_reported":1716746953,"current_range_meters":4000,"station_id":"","pricing_plan_id":"cebpf4jnsgd1na2vs0mg"},{"bike_id":"1d282037-0d77-474b-96bf-ed785ce15c4e","system_id":"levelo_inurba_marseille","lat":43.29573,"lon":5.367355,"is_reserved":false,"is_disabled":false,"rental_uris":{"android":"levelo://app?vid=1d282037-0d77-474b-96bf-ed785ce15c4e","ios":"levelo://app?vid=1d282037-0d77-474b-96bf-ed785ce15c4e"},"vehicle_type_id":"4","last_reported":1716746953,"current_range_meters":0,"station_id":"ce4bgph2rcd13ifvqc2g","pricing_plan_id":"cebpf4jnsgd1na2vs0mg"},{"bike_id":"e0a69982-a836-4a0d-80ef-43d290ad854f","system_id":"levelo_inurba_marseille","lat":43.296129,"lon":5.370777,"is_reserved":false,"is_disabled":false,"rental_uris":{"android":"levelo://app?vid=e0a69982-a836-4a0d-80ef-43d290ad854f","ios":"levelo://app?vid=e0a69982-a836-4a0d-80ef-43d290ad854f"},"vehicle_type_id":"4","last_reported":1716746953,"current_range_meters":800,"station_id":"ce4bgnh2rcd13ifvqc0g","pricing_plan_id":"cebpf4jnsgd1na2vs0mg"},{"bike_id":"776f1736-97cf-4404-8c89-09266587f900","system_id":"levelo_inurba_marseille","lat":43.29581,"lon":5.36746,"is_reserved":false,"is_disabled":false,"rental_uris":{"android":"levelo://app?vid=776f1736-97cf-4404-8c89-09266587f900","ios":"levelo://app?vid=776f1736-97cf-4404-8c89-09266587f900"},"vehicle_type_id":"4","last_reported":1716746953,"current_range_meters":0,"station_id":"ce4bgph2rcd13ifvqc2g","pricing_plan_id":"cebpf4jnsgd1na2vs0mg"},{"bike_id":"90a4eee4-1b31-4bc9-a1d8-877e1a903b11","system_id":"levelo_inurba_marseille","lat":43.29573,"lon":5.367355,"is_reserved":false,"is_disabled":false,"rental_uris":{"android":"levelo://app?vid=90a4eee4-1b31-4bc9-a1d8-877e1a903b11","ios":"levelo://app?vid=90a4eee4-1b31-4bc9-a1d8-877e1a903b11"},"vehicle_type_id":"4","last_reported":1716746953,"current_range_meters":24000,"station_id":"ce4bgph2rcd13ifvqc2g","pricing_plan_id":"cebpf4jnsgd1na2vs0mg"},{"bike_id":"6dfbf9ee-3974-4f9e-9f29-2b988796d17c","system_id":"levelo_inurba_marseille","lat":43.29573,"lon":5.367355,"is_reserved":false,"is_disabled":false,"rental_uris":{"android":"levelo://app?vid=6dfbf9ee-3974-4f9e-9f29-2b988796d17c","ios":"levelo://app?vid=6dfbf9ee-3974-4f9e-9f29-2b988796d17c"},"vehicle_type_id":"4","last_reported":1716746953,"current_range_meters":12800,"station_id":"ce4bgph2rcd13ifvqc2g","pricing_plan_id":"cebpf4jnsgd1na2vs0mg"},{"bike_id":"d3897576-95e1-4e10-8214-7b6771e94b17","system_id":"levelo_inurba_marseille","lat":43.29715,"lon":5.3769,"is_reserved":false,"is_disabled":false,"rental_uris":{"android":"levelo://app?vid=d3897576-95e1-4e10-8214-7b6771e94b17","ios":"levelo://app?vid=d3897576-95e1-4e10-8214-7b6771e94b17"},"vehicle_type_id":"4","last_reported":1716746953,"current_range_meters":1600,"station_id":"ce4bgkh2rcd13ifvqbl0","pricing_plan_id":"cebpf4jnsgd1na2vs0mg"},{"bike_id":"a305f6e9-2c9a-48d4-bb97-10d9edce2e67","system_id":"levelo_inurba_marseille","lat":43.296935,"lon":5.376544,"is_reserved":false,"is_disabled":false,"rental_uris":{"android":"levelo://app?vid=a305f6e9-2c9a-48d4-bb97-10d9edce2e67","ios":"levelo://app?vid=a305f6e9-2c9a-48d4-bb97-10d9edce2e67"},"vehicle_type_id":"4","last_reported":1716746953,"current_range_meters":22800,"station_id":"ce4bgkh2rcd13ifvqbl0","pricing_plan_id":"cebpf4jnsgd1na2vs0mg"},{"bike_id":"8c61ea30-aa7b-4ce4-9174-cc158ede4a88","system_id":"levelo_inurba_marseille","lat":43.299028,"lon":5.381509,"is_reserved":false,"is_disabled":false,"rental_uris":{"android":"levelo://app?vid=8c61ea30-aa7b-4ce4-9174-cc158ede4a88","ios":"levelo://app?vid=8c61ea30-aa7b-4ce4-9174-cc158ede4a88"},"vehicle_type_id":"4","last_reported":1716746953,"current_range_meters":12800,"station_id":"ce4bgj12rcd13ifvqbc0","pricing_plan_id":"cebpf4jnsgd1na2vs0mg"},{"bike_id":"b5cf6135-565d-4c48-8f69-a34ea155196b","system_id":"levelo_inurba_marseille","lat":43.317557,"lon":5.390173,"is_reserved":false,"is_disabled":false,"rental_uris":{"android":"levelo://app?vid=b5cf6135-565d-4c48-8f69-a34ea155196b","ios":"levelo://app?vid=b5cf6135-565d-4c48-8f69-a34ea155196b"},"vehicle_type_id":"4","last_reported":1716746953,"current_range_meters":2800,"station_id":"ce4bhqp2rcd13ifvqhng","pricing_plan_id":"cebpf4jnsgd1na2vs0mg"},{"bike_id":"6823ca6d-3735-496b-a8fd-4bffa87ea3d4","system_id":"levelo_inurba_marseille","lat":43.317557,"lon":5.390173,"is_reserved":false,"is_disabled":false,"rental_uris":{"android":"levelo://app?vid=6823ca6d-3735-496b-a8fd-4bffa87ea3d4","ios":"levelo://app?vid=6823ca6d-3735-496b-a8fd-4bffa87ea3d4"},"vehicle_type_id":"4","last_reported":1716746953,"current_range_meters":14000,"station_id":"ce4bhqp2rcd13ifvqhng","pricing_plan_id":"cebpf4jnsgd1na2vs0mg"},{"bike_id":"74225929-670d-4ec0-a39b-b74b4897485f","system_id":"levelo_inurba_marseille","lat":43.317557,"lon":5.390173,"is_reserved":false,"is_disabled":false,"rental_uris":{"android":"levelo://app?vid=74225929-670d-4ec0-a39b-b74b4897485f","ios":"levelo://app?vid=74225929-670d-4ec0-a39b-b74b4897485f"},"vehicle_type_id":"4","last_reported":1716746953,"current_range_meters":400,"station_id":"ce4bhqp2rcd13ifvqhng","pricing_plan_id":"cebpf4jnsgd1na2vs0mg"},{"bike_id":"56577985-8f15-45d1-b765-f1ee599030dd","system_id":"levelo_inurba_marseille","lat":43.31753,"lon":5.3903,"is_reserved":false,"is_disabled":false,"rental_uris":{"android":"levelo://app?vid=56577985-8f15-45d1-b765-f1ee599030dd","ios":"levelo://app?vid=56577985-8f15-45d1-b765-f1ee599030dd"},"vehicle_type_id":"4","last_reported":1716746953,"current_range_meters":0,"station_id":"ce4bhqp2rcd13ifvqhng","pricing_plan_id":"cebpf4jnsgd1na2vs0mg"},{"bike_id":"b43a756f-be6d-493f-bdba-7cd5a8c3402f","system_id":"levelo_inurba_marseille","lat":43.298134,"lon":5.380973,"is_reserved":false,"is_disabled":false,"rental_uris":{"android":"levelo://app?vid=b43a756f-be6d-493f-bdba-7cd5a8c3402f","ios":"levelo://app?vid=b43a756f-be6d-493f-bdba-7cd5a8c3402f"},"vehicle_type_id":"4","last_reported":1716746953,"current_range_meters":800,"station_id":"","pricing_plan_id":"cebpf4jnsgd1na2vs0mg"},{"bike_id":"c7191a07-ada5-4045-ae84-63d98f979528","system_id":"levelo_inurba_marseille","lat":43.29574,"lon":5.37516,"is_reserved":false,"is_disabled":false,"rental_uris":{"android":"levelo://app?vid=c7191a07-ada5-4045-ae84-63d98f979528","ios":"levelo://app?vid=c7191a07-ada5-4045-ae84-63d98f979528"},"vehicle_type_id":"4","last_reported":1716746953,"current_range_meters":0,"station_id":"ce4bgh92rcd13ifvqb50","pricing_plan_id":"cebpf4jnsgd1na2vs0mg"},{"bike_id":"ff44051c-d3b8-417a-b9ed-a0b45dc18a1d","system_id":"levelo_inurba_marseille","lat":43.297927,"lon":5.38104,"is_reserved":false,"is_disabled":false,"rental_uris":{"android":"levelo://app?vid=ff44051c-d3b8-417a-b9ed-a0b45dc18a1d","ios":"levelo://app?vid=ff44051c-d3b8-417a-b9ed-a0b45dc18a1d"},"vehicle_type_id":"4","last_reported":1716746953,"current_range_meters":0,"station_id":"ce4bgip2rcd13ifvqbb0","pricing_plan_id":"cebpf4jnsgd1na2vs0mg"},{"bike_id":"24768e28-63f9-49f1-b2d7-77b376c11acc","system_id":"levelo_inurba_marseille","lat":43.29572,"lon":5.37523,"is_reserved":false,"is_disabled":false,"rental_uris":{"android":"levelo://app?vid=24768e28-63f9-49f1-b2d7-77b376c11acc","ios":"levelo://app?vid=24768e28-63f9-49f1-b2d7-77b376c11acc"},"vehicle_type_id":"4","last_reported":1716746953,"current_range_meters":0,"station_id":"ce4bgh92rcd13ifvqb50","pricing_plan_id":"cebpf4jnsgd1na2vs0mg"},{"bike_id":"28aeeb4a-6cc7-4b30-b9a7-86542cc3c2fb","system_id":"levelo_inurba_marseille","lat":43.295748,"lon":5.37522,"is_reserved":false,"is_disabled":false,"rental_uris":{"android":"levelo://app?vid=28aeeb4a-6cc7-4b30-b9a7-86542cc3c2fb","ios":"levelo://app?vid=28aeeb4a-6cc7-4b30-b9a7-86542cc3c2fb"},"vehicle_type_id":"4","last_reported":1716746953,"current_range_meters":24000,"station_id":"ce4bgh92rcd13ifvqb50","pricing_plan_id":"cebpf4jnsgd1na2vs0mg"},{"bike_id":"e55caace-d082-43da-aea0-247363114bf2","system_id":"levelo_inurba_marseille","lat":43.29489,"lon":5.36309,"is_reserved":false,"is_disabled":false,"rental_uris":{"android":"levelo://app?vid=e55caace-d082-43da-aea0-247363114bf2","ios":"levelo://app?vid=e55caace-d082-43da-aea0-247363114bf2"},"vehicle_type_id":"4","last_reported":1716746953,"current_range_meters":5200,"station_id":"","pricing_plan_id":"cebpf4jnsgd1na2vs0mg"},{"bike_id":"656de0ff-13b2-4933-9c83-6dd6b5c593db","system_id":"levelo_inurba_marseille","lat":43.296277,"lon":5.377108,"is_reserved":false,"is_disabled":false,"rental_uris":{"android":"levelo://app?vid=656de0ff-13b2-4933-9c83-6dd6b5c593db","ios":"levelo://app?vid=656de0ff-13b2-4933-9c83-6dd6b5c593db"},"vehicle_type_id":"4","last_reported":1716746953,"current_range_meters":0,"station_id":"ce4bgi92rcd13ifvqb90","pricing_plan_id":"cebpf4jnsgd1na2vs0mg"},{"bike_id":"2556df35-52ca-4d73-82a6-3cb0af24cd29","system_id":"levelo_inurba_marseille","lat":43.296277,"lon":5.377108,"is_reserved":false,"is_disabled":false,"rental_uris":{"android":"levelo://app?vid=2556df35-52ca-4d73-82a6-3cb0af24cd29","ios":"levelo://app?vid=2556df35-52ca-4d73-82a6-3cb0af24cd29"},"vehicle_type_id":"4","last_reported":1716746953,"current_range_meters":0,"station_id":"ce4bgi92rcd13ifvqb90","pricing_plan_id":"cebpf4jnsgd1na2vs0mg"},{"bike_id":"b2f022f4-9043-4070-9eee-fedc93682792","system_id":"levelo_inurba_marseille","lat":43.29633,"lon":5.377626,"is_reserved":false,"is_disabled":false,"rental_uris":{"android":"levelo://app?vid=b2f022f4-9043-4070-9eee-fedc93682792","ios":"levelo://app?vid=b2f022f4-9043-4070-9eee-fedc93682792"},"vehicle_type_id":"4","last_reported":1716746953,"current_range_meters":0,"station_id":"ce4bgi92rcd13ifvqb90","pricing_plan_id":"cebpf4jnsgd1na2vs0mg"},{"bike_id":"16e28f6f-db73-46fb-9768-207bde29d55b","system_id":"levelo_inurba_marseille","lat":43.296277,"lon":5.377108,"is_reserved":false,"is_disabled":false,"rental_uris":{"android":"levelo://app?vid=16e28f6f-db73-46fb-9768-207bde29d55b","ios":"levelo://app?vid=16e28f6f-db73-46fb-9768-207bde29d55b"},"vehicle_type_id":"4","last_reported":1716746953,"current_range_meters":22800,"station_id":"ce4bgi92rcd13ifvqb90","pricing_plan_id":"cebpf4jnsgd1na2vs0mg"},{"bike_id":"3675c692-2d5c-43a1-9077-c0203e7f384a","system_id":"levelo_inurba_marseille","lat":43.295748,"lon":5.37522,"is_reserved":false,"is_disabled":false,"rental_uris":{"android":"levelo://app?vid=3675c692-2d5c-43a1-9077-c0203e7f384a","ios":"levelo://app?vid=3675c692-2d5c-43a1-9077-c0203e7f384a"},"vehicle_type_id":"4","last_reported":1716746953,"current_range_meters":0,"station_id":"ce4bgh92rcd13ifvqb50","pricing_plan_id":"cebpf4jnsgd1na2vs0mg"},{"bike_id":"54c5b3f6-b907-4c26-9f69-586b5eb71db5","system_id":"levelo_inurba_marseille","lat":43.296163,"lon":5.377293,"is_reserved":false,"is_disabled":false,"rental_uris":{"android":"levelo://app?vid=54c5b3f6-b907-4c26-9f69-586b5eb71db5","ios":"levelo://app?vid=54c5b3f6-b907-4c26-9f69-586b5eb71db5"},"vehicle_type_id":"4","last_reported":1716746953,"current_range_meters":0,"station_id":"ce4bgi92rcd13ifvqb90","pricing_plan_id":"cebpf4jnsgd1na2vs0mg"},{"bike_id":"c4e3a9ef-2638-4360-b8fb-8efa9105d247","system_id":"levelo_inurba_marseille","lat":43.296263,"lon":5.377094,"is_reserved":false,"is_disabled":false,"rental_uris":{"android":"levelo://app?vid=c4e3a9ef-2638-4360-b8fb-8efa9105d247","ios":"levelo://app?vid=c4e3a9ef-2638-4360-b8fb-8efa9105d247"},"vehicle_type_id":"4","last_reported":1716746953,"current_range_meters":6400,"station_id":"ce4bgi92rcd13ifvqb90","pricing_plan_id":"cebpf4jnsgd1na2vs0mg"},{"bike_id":"2492bd19-8270-4ae5-b43a-edf1b428216e","system_id":"levelo_inurba_marseille","lat":43.299717,"lon":5.384845,"is_reserved":false,"is_disabled":false,"rental_uris":{"android":"levelo://app?vid=2492bd19-8270-4ae5-b43a-edf1b428216e","ios":"levelo://app?vid=2492bd19-8270-4ae5-b43a-edf1b428216e"},"vehicle_type_id":"4","last_reported":1716746953,"current_range_meters":19600,"station_id":"ce4bgj92rcd13ifvqbd0","pricing_plan_id":"cebpf4jnsgd1na2vs0mg"},{"bike_id":"41b0c4a4-ac28-46ae-954a-43b2bcab67a4","system_id":"levelo_inurba_marseille","lat":43.295279,"lon":5.375048,"is_reserved":false,"is_disabled":false,"rental_uris":{"android":"levelo://app?vid=41b0c4a4-ac28-46ae-954a-43b2bcab67a4","ios":"levelo://app?vid=41b0c4a4-ac28-46ae-954a-43b2bcab67a4"},"vehicle_type_id":"4","last_reported":1716746953,"current_range_meters":16000,"station_id":"ce4bgkp2rcd13ifvqbmg","pricing_plan_id":"cebpf4jnsgd1na2vs0mg"},{"bike_id":"ea5c8d42-c861-4802-a2ac-9f57d3bd183f","system_id":"levelo_inurba_marseille","lat":43.29976,"lon":5.38488,"is_reserved":false,"is_disabled":false,"rental_uris":{"android":"levelo://app?vid=ea5c8d42-c861-4802-a2ac-9f57d3bd183f","ios":"levelo://app?vid=ea5c8d42-c861-4802-a2ac-9f57d3bd183f"},"vehicle_type_id":"4","last_reported":1716746953,"current_range_meters":31200,"station_id":"ce4bgj92rcd13ifvqbd0","pricing_plan_id":"cebpf4jnsgd1na2vs0mg"},{"bike_id":"022d3ae2-4837-433d-acce-84a642a6da37","system_id":"levelo_inurba_marseille","lat":43.295279,"lon":5.375048,"is_reserved":false,"is_disabled":false,"rental_uris":{"android":"levelo://app?vid=022d3ae2-4837-433d-acce-84a642a6da37","ios":"levelo://app?vid=022d3ae2-4837-433d-acce-84a642a6da37"},"vehicle_type_id":"4","last_reported":1716746953,"current_range_meters":14400,"station_id":"ce4bgkp2rcd13ifvqbmg","pricing_plan_id":"cebpf4jnsgd1na2vs0mg"},{"bike_id":"20b6e3ad-431e-44a4-91f4-09bab71a2986","system_id":"levelo_inurba_marseille","lat":43.299717,"lon":5.384845,"is_reserved":false,"is_disabled":false,"rental_uris":{"android":"levelo://app?vid=20b6e3ad-431e-44a4-91f4-09bab71a2986","ios":"levelo://app?vid=20b6e3ad-431e-44a4-91f4-09bab71a2986"},"vehicle_type_id":"4","last_reported":1716746953,"current_range_meters":27600,"station_id":"ce4bgj92rcd13ifvqbd0","pricing_plan_id":"cebpf4jnsgd1na2vs0mg"},{"bike_id":"d014cf3e-048b-41f0-8f75-4b7171a47831","system_id":"levelo_inurba_marseille","lat":43.299724,"lon":5.384848,"is_reserved":false,"is_disabled":false,"rental_uris":{"android":"levelo://app?vid=d014cf3e-048b-41f0-8f75-4b7171a47831","ios":"levelo://app?vid=d014cf3e-048b-41f0-8f75-4b7171a47831"},"vehicle_type_id":"4","last_reported":1716746953,"current_range_meters":31600,"station_id":"ce4bgj92rcd13ifvqbd0","pricing_plan_id":"cebpf4jnsgd1na2vs0mg"},{"bike_id":"c1e5c9fe-11ee-4fc5-86f9-35e35e920427","system_id":"levelo_inurba_marseille","lat":43.295171,"lon":5.375044,"is_reserved":false,"is_disabled":false,"rental_uris":{"android":"levelo://app?vid=c1e5c9fe-11ee-4fc5-86f9-35e35e920427","ios":"levelo://app?vid=c1e5c9fe-11ee-4fc5-86f9-35e35e920427"},"vehicle_type_id":"4","last_reported":1716746953,"current_range_meters":6400,"station_id":"ce4bgkp2rcd13ifvqbmg","pricing_plan_id":"cebpf4jnsgd1na2vs0mg"},{"bike_id":"a0f639cc-96d5-48c6-9b52-d6f56230b3df","system_id":"levelo_inurba_marseille","lat":43.299717,"lon":5.384845,"is_reserved":false,"is_disabled":false,"rental_uris":{"android":"levelo://app?vid=a0f639cc-96d5-48c6-9b52-d6f56230b3df","ios":"levelo://app?vid=a0f639cc-96d5-48c6-9b52-d6f56230b3df"},"vehicle_type_id":"4","last_reported":1716746953,"current_range_meters":19600,"station_id":"ce4bgj92rcd13ifvqbd0","pricing_plan_id":"cebpf4jnsgd1na2vs0mg"},{"bike_id":"f35a4190-2315-41a7-bc6b-2c83ca3c02d9","system_id":"levelo_inurba_marseille","lat":43.299717,"lon":5.384845,"is_reserved":false,"is_disabled":false,"rental_uris":{"android":"levelo://app?vid=f35a4190-2315-41a7-bc6b-2c83ca3c02d9","ios":"levelo://app?vid=f35a4190-2315-41a7-bc6b-2c83ca3c02d9"},"vehicle_type_id":"4","last_reported":1716746953,"current_range_meters":18400,"station_id":"ce4bgj92rcd13ifvqbd0","pricing_plan_id":"cebpf4jnsgd1na2vs0mg"},{"bike_id":"8a7c0729-1bde-42ed-88d8-abe6919a80f2","system_id":"levelo_inurba_marseille","lat":43.299717,"lon":5.384845,"is_reserved":false,"is_disabled":false,"rental_uris":{"android":"levelo://app?vid=8a7c0729-1bde-42ed-88d8-abe6919a80f2","ios":"levelo://app?vid=8a7c0729-1bde-42ed-88d8-abe6919a80f2"},"vehicle_type_id":"4","last_reported":1716746953,"current_range_meters":11200,"station_id":"ce4bgj92rcd13ifvqbd0","pricing_plan_id":"cebpf4jnsgd1na2vs0mg"},{"bike_id":"ac2138f0-7d6b-44b6-bbe7-037e29f9dafe","system_id":"levelo_inurba_marseille","lat":43.29903,"lon":5.3848,"is_reserved":false,"is_disabled":false,"rental_uris":{"android":"levelo://app?vid=ac2138f0-7d6b-44b6-bbe7-037e29f9dafe","ios":"levelo://app?vid=ac2138f0-7d6b-44b6-bbe7-037e29f9dafe"},"vehicle_type_id":"4","last_reported":1716746953,"current_range_meters":17600,"station_id":"","pricing_plan_id":"cebpf4jnsgd1na2vs0mg"},{"bike_id":"642e763c-220b-4a39-bda3-c122e811429e","system_id":"levelo_inurba_marseille","lat":43.32363,"lon":5.38873,"is_reserved":false,"is_disabled":false,"rental_uris":{"android":"levelo://app?vid=642e763c-220b-4a39-bda3-c122e811429e","ios":"levelo://app?vid=642e763c-220b-4a39-bda3-c122e811429e"},"vehicle_type_id":"4","last_reported":1716746953,"current_range_meters":10400,"station_id":"ce4bhqp2rcd13ifvqhog","pricing_plan_id":"cebpf4jnsgd1na2vs0mg"},{"bike_id":"f7b49a00-6948-4a83-806c-c7f5bb6f4446","system_id":"levelo_inurba_marseille","lat":43.32363,"lon":5.38881,"is_reserved":false,"is_disabled":false,"rental_uris":{"android":"levelo://app?vid=f7b49a00-6948-4a83-806c-c7f5bb6f4446","ios":"levelo://app?vid=f7b49a00-6948-4a83-806c-c7f5bb6f4446"},"vehicle_type_id":"4","last_reported":1716746953,"current_range_meters":0,"station_id":"ce4bhqp2rcd13ifvqhog","pricing_plan_id":"cebpf4jnsgd1na2vs0mg"},{"bike_id":"eb83184b-28ac-4509-b94c-6497c800f3d3","system_id":"levelo_inurba_marseille","lat":43.29601,"lon":5.381084,"is_reserved":false,"is_disabled":false,"rental_uris":{"android":"levelo://app?vid=eb83184b-28ac-4509-b94c-6497c800f3d3","ios":"levelo://app?vid=eb83184b-28ac-4509-b94c-6497c800f3d3"},"vehicle_type_id":"4","last_reported":1716746953,"current_range_meters":12000,"station_id":"ce4bgl12rcd13ifvqbo0","pricing_plan_id":"cebpf4jnsgd1na2vs0mg"},{"bike_id":"5f0b8e18-fa7f-4da6-a3bf-566b5117e6f5","system_id":"levelo_inurba_marseille","lat":43.29601,"lon":5.381084,"is_reserved":false,"is_disabled":false,"rental_uris":{"android":"levelo://app?vid=5f0b8e18-fa7f-4da6-a3bf-566b5117e6f5","ios":"levelo://app?vid=5f0b8e18-fa7f-4da6-a3bf-566b5117e6f5"},"vehicle_type_id":"4","last_reported":1716746953,"current_range_meters":6800,"station_id":"ce4bgl12rcd13ifvqbo0","pricing_plan_id":"cebpf4jnsgd1na2vs0mg"},{"bike_id":"1731f701-750f-42b2-be5c-cb63f3aac233","system_id":"levelo_inurba_marseille","lat":43.293144,"lon":5.371651,"is_reserved":false,"is_disabled":false,"rental_uris":{"android":"levelo://app?vid=1731f701-750f-42b2-be5c-cb63f3aac233","ios":"levelo://app?vid=1731f701-750f-42b2-be5c-cb63f3aac233"},"vehicle_type_id":"4","last_reported":1716746953,"current_range_meters":28000,"station_id":"ce4bgh92rcd13ifvqb40","pricing_plan_id":"cebpf4jnsgd1na2vs0mg"},{"bike_id":"7026d70e-3348-4510-a6d6-eb3aeb1a50c0","system_id":"levelo_inurba_marseille","lat":43.292848,"lon":5.368533,"is_reserved":false,"is_disabled":false,"rental_uris":{"android":"levelo://app?vid=7026d70e-3348-4510-a6d6-eb3aeb1a50c0","ios":"levelo://app?vid=7026d70e-3348-4510-a6d6-eb3aeb1a50c0"},"vehicle_type_id":"4","last_reported":1716746953,"current_range_meters":0,"station_id":"ce4bhbp2rcd13ifvqesg","pricing_plan_id":"cebpf4jnsgd1na2vs0mg"},{"bike_id":"73f19f50-f58a-497e-b22a-0b8035bbed40","system_id":"levelo_inurba_marseille","lat":43.29309,"lon":5.37175,"is_reserved":false,"is_disabled":false,"rental_uris":{"android":"levelo://app?vid=73f19f50-f58a-497e-b22a-0b8035bbed40","ios":"levelo://app?vid=73f19f50-f58a-497e-b22a-0b8035bbed40"},"vehicle_type_id":"4","last_reported":1716746953,"current_range_meters":28000,"station_id":"ce4bgh92rcd13ifvqb40","pricing_plan_id":"cebpf4jnsgd1na2vs0mg"},{"bike_id":"773d1734-f8f0-42cf-b3ee-b510c936cdc5","system_id":"levelo_inurba_marseille","lat":43.292749,"lon":5.368402,"is_reserved":false,"is_disabled":false,"rental_uris":{"android":"levelo://app?vid=773d1734-f8f0-42cf-b3ee-b510c936cdc5","ios":"levelo://app?vid=773d1734-f8f0-42cf-b3ee-b510c936cdc5"},"vehicle_type_id":"4","last_reported":1716746953,"current_range_meters":400,"station_id":"ce4bhbp2rcd13ifvqesg","pricing_plan_id":"cebpf4jnsgd1na2vs0mg"},{"bike_id":"6271cd95-ba18-401c-a071-e534190d742e","system_id":"levelo_inurba_marseille","lat":43.292749,"lon":5.368398,"is_reserved":false,"is_disabled":false,"rental_uris":{"android":"levelo://app?vid=6271cd95-ba18-401c-a071-e534190d742e","ios":"levelo://app?vid=6271cd95-ba18-401c-a071-e534190d742e"},"vehicle_type_id":"4","last_reported":1716746953,"current_range_meters":1200,"station_id":"ce4bhbp2rcd13ifvqesg","pricing_plan_id":"cebpf4jnsgd1na2vs0mg"},{"bike_id":"99c7392a-b513-4194-8f82-6bbf18f867ca","system_id":"levelo_inurba_marseille","lat":43.29303,"lon":5.37449,"is_reserved":false,"is_disabled":false,"rental_uris":{"android":"levelo://app?vid=99c7392a-b513-4194-8f82-6bbf18f867ca","ios":"levelo://app?vid=99c7392a-b513-4194-8f82-6bbf18f867ca"},"vehicle_type_id":"4","last_reported":1716746953,"current_range_meters":0,"station_id":"ce4bgi12rcd13ifvqb70","pricing_plan_id":"cebpf4jnsgd1na2vs0mg"},{"bike_id":"cc09a9a0-34c5-4217-a5de-9fab1fbc172b","system_id":"levelo_inurba_marseille","lat":43.29305,"lon":5.37461,"is_reserved":false,"is_disabled":false,"rental_uris":{"android":"levelo://app?vid=cc09a9a0-34c5-4217-a5de-9fab1fbc172b","ios":"levelo://app?vid=cc09a9a0-34c5-4217-a5de-9fab1fbc172b"},"vehicle_type_id":"4","last_reported":1716746953,"current_range_meters":0,"station_id":"ce4bgi12rcd13ifvqb70","pricing_plan_id":"cebpf4jnsgd1na2vs0mg"},{"bike_id":"ee2560c4-0153-474a-a35e-9db18c5e68a1","system_id":"levelo_inurba_marseille","lat":43.305994,"lon":5.393687,"is_reserved":false,"is_disabled":false,"rental_uris":{"android":"levelo://app?vid=ee2560c4-0153-474a-a35e-9db18c5e68a1","ios":"levelo://app?vid=ee2560c4-0153-474a-a35e-9db18c5e68a1"},"vehicle_type_id":"4","last_reported":1716746953,"current_range_meters":6000,"station_id":"ce4bh0p2rcd13ifvqd80","pricing_plan_id":"cebpf4jnsgd1na2vs0mg"},{"bike_id":"b1d11864-db62-43f9-9dc3-314488886b3a","system_id":"levelo_inurba_marseille","lat":43.305994,"lon":5.393687,"is_reserved":false,"is_disabled":false,"rental_uris":{"android":"levelo://app?vid=b1d11864-db62-43f9-9dc3-314488886b3a","ios":"levelo://app?vid=b1d11864-db62-43f9-9dc3-314488886b3a"},"vehicle_type_id":"4","last_reported":1716746953,"current_range_meters":27600,"station_id":"ce4bh0p2rcd13ifvqd80","pricing_plan_id":"cebpf4jnsgd1na2vs0mg"},{"bike_id":"32dca432-c5d9-4823-b250-7622f3089291","system_id":"levelo_inurba_marseille","lat":43.305994,"lon":5.393687,"is_reserved":false,"is_disabled":false,"rental_uris":{"android":"levelo://app?vid=32dca432-c5d9-4823-b250-7622f3089291","ios":"levelo://app?vid=32dca432-c5d9-4823-b250-7622f3089291"},"vehicle_type_id":"4","last_reported":1716746953,"current_range_meters":0,"station_id":"ce4bh0p2rcd13ifvqd80","pricing_plan_id":"cebpf4jnsgd1na2vs0mg"},{"bike_id":"675bcb5d-8fbb-4335-9384-3b1f341df38e","system_id":"levelo_inurba_marseille","lat":43.305994,"lon":5.393687,"is_reserved":false,"is_disabled":false,"rental_uris":{"android":"levelo://app?vid=675bcb5d-8fbb-4335-9384-3b1f341df38e","ios":"levelo://app?vid=675bcb5d-8fbb-4335-9384-3b1f341df38e"},"vehicle_type_id":"4","last_reported":1716746953,"current_range_meters":4400,"station_id":"ce4bh0p2rcd13ifvqd80","pricing_plan_id":"cebpf4jnsgd1na2vs0mg"},{"bike_id":"c8d15b52-49ac-4fd3-85b3-f88bcd027b85","system_id":"levelo_inurba_marseille","lat":43.293009,"lon":5.374584,"is_reserved":false,"is_disabled":false,"rental_uris":{"android":"levelo://app?vid=c8d15b52-49ac-4fd3-85b3-f88bcd027b85","ios":"levelo://app?vid=c8d15b52-49ac-4fd3-85b3-f88bcd027b85"},"vehicle_type_id":"4","last_reported":1716746953,"current_range_meters":13200,"station_id":"ce4bgi12rcd13ifvqb70","pricing_plan_id":"cebpf4jnsgd1na2vs0mg"},{"bike_id":"41073118-d6ed-402d-998d-005ac7da1002","system_id":"levelo_inurba_marseille","lat":43.3031,"lon":5.39215,"is_reserved":false,"is_disabled":false,"rental_uris":{"android":"levelo://app?vid=41073118-d6ed-402d-998d-005ac7da1002","ios":"levelo://app?vid=41073118-d6ed-402d-998d-005ac7da1002"},"vehicle_type_id":"4","last_reported":1716746953,"current_range_meters":0,"station_id":"ce4bgkh2rcd13ifvqbk0","pricing_plan_id":"cebpf4jnsgd1na2vs0mg"},{"bike_id":"5491c3c8-7204-4f75-9cab-7d7dfd002db0","system_id":"levelo_inurba_marseille","lat":43.28573,"lon":5.394992,"is_reserved":false,"is_disabled":false,"rental_uris":{"android":"levelo://app?vid=5491c3c8-7204-4f75-9cab-7d7dfd002db0","ios":"levelo://app?vid=5491c3c8-7204-4f75-9cab-7d7dfd002db0"},"vehicle_type_id":"4","last_reported":1716746953,"current_range_meters":2400,"station_id":"ce4bh292rcd13ifvqdg0","pricing_plan_id":"cebpf4jnsgd1na2vs0mg"},{"bike_id":"acf392b4-0de7-46bf-9dd2-37e8f18e6bf9","system_id":"levelo_inurba_marseille","lat":43.30301,"lon":5.39213,"is_reserved":false,"is_disabled":false,"rental_uris":{"android":"levelo://app?vid=acf392b4-0de7-46bf-9dd2-37e8f18e6bf9","ios":"levelo://app?vid=acf392b4-0de7-46bf-9dd2-37e8f18e6bf9"},"vehicle_type_id":"4","last_reported":1716746953,"current_range_meters":0,"station_id":"ce4bgkh2rcd13ifvqbk0","pricing_plan_id":"cebpf4jnsgd1na2vs0mg"},{"bike_id":"6d1c3853-ffbd-4e0f-99c6-0463a18ad403","system_id":"levelo_inurba_marseille","lat":43.30298,"lon":5.39215,"is_reserved":false,"is_disabled":false,"rental_uris":{"android":"levelo://app?vid=6d1c3853-ffbd-4e0f-99c6-0463a18ad403","ios":"levelo://app?vid=6d1c3853-ffbd-4e0f-99c6-0463a18ad403"},"vehicle_type_id":"4","last_reported":1716746953,"current_range_meters":8400,"station_id":"ce4bgkh2rcd13ifvqbk0","pricing_plan_id":"cebpf4jnsgd1na2vs0mg"},{"bike_id":"3afa1946-a50d-4663-985a-868c2cad3bee","system_id":"levelo_inurba_marseille","lat":43.303002,"lon":5.392204,"is_reserved":false,"is_disabled":false,"rental_uris":{"android":"levelo://app?vid=3afa1946-a50d-4663-985a-868c2cad3bee","ios":"levelo://app?vid=3afa1946-a50d-4663-985a-868c2cad3bee"},"vehicle_type_id":"4","last_reported":1716746953,"current_range_meters":4800,"station_id":"ce4bgkh2rcd13ifvqbk0","pricing_plan_id":"cebpf4jnsgd1na2vs0mg"},{"bike_id":"f0c9ae08-e617-49a2-99bc-d49b7ed86fe2","system_id":"levelo_inurba_marseille","lat":43.2936,"lon":5.37835,"is_reserved":false,"is_disabled":false,"rental_uris":{"android":"levelo://app?vid=f0c9ae08-e617-49a2-99bc-d49b7ed86fe2","ios":"levelo://app?vid=f0c9ae08-e617-49a2-99bc-d49b7ed86fe2"},"vehicle_type_id":"4","last_reported":1716746953,"current_range_meters":7200,"station_id":"ce4bgjh2rcd13ifvqbf0","pricing_plan_id":"cebpf4jnsgd1na2vs0mg"},{"bike_id":"89f8e5aa-5b72-4e95-96bb-19a239511320","system_id":"levelo_inurba_marseille","lat":43.30085,"lon":5.390856,"is_reserved":false,"is_disabled":false,"rental_uris":{"android":"levelo://app?vid=89f8e5aa-5b72-4e95-96bb-19a239511320","ios":"levelo://app?vid=89f8e5aa-5b72-4e95-96bb-19a239511320"},"vehicle_type_id":"4","last_reported":1716746953,"current_range_meters":17200,"station_id":"ce4bh192rcd13ifvqdb0","pricing_plan_id":"cebpf4jnsgd1na2vs0mg"},{"bike_id":"267edc98-32c1-47ce-b204-a06fb44b7fec","system_id":"levelo_inurba_marseille","lat":43.29228,"lon":5.36058,"is_reserved":false,"is_disabled":false,"rental_uris":{"android":"levelo://app?vid=267edc98-32c1-47ce-b204-a06fb44b7fec","ios":"levelo://app?vid=267edc98-32c1-47ce-b204-a06fb44b7fec"},"vehicle_type_id":"4","last_reported":1716746953,"current_range_meters":0,"station_id":"ce4bhbh2rcd13ifvqeqg","pricing_plan_id":"cebpf4jnsgd1na2vs0mg"},{"bike_id":"b3373a79-b049-49e8-8636-d3b258f72bf6","system_id":"levelo_inurba_marseille","lat":43.295279,"lon":5.375048,"is_reserved":false,"is_disabled":false,"rental_uris":{"android":"levelo://app?vid=b3373a79-b049-49e8-8636-d3b258f72bf6","ios":"levelo://app?vid=b3373a79-b049-49e8-8636-d3b258f72bf6"},"vehicle_type_id":"4","last_reported":1716746953,"current_range_meters":0,"station_id":"ce4bgkp2rcd13ifvqbmg","pricing_plan_id":"cebpf4jnsgd1na2vs0mg"},{"bike_id":"52b9193c-acc4-40c1-942e-c818360e46de","system_id":"levelo_inurba_marseille","lat":43.29216,"lon":5.36051,"is_reserved":false,"is_disabled":false,"rental_uris":{"android":"levelo://app?vid=52b9193c-acc4-40c1-942e-c818360e46de","ios":"levelo://app?vid=52b9193c-acc4-40c1-942e-c818360e46de"},"vehicle_type_id":"4","last_reported":1716746953,"current_range_meters":2000,"station_id":"","pricing_plan_id":"cebpf4jnsgd1na2vs0mg"},{"bike_id":"4e822c66-d799-418b-af6b-05b88db76ee9","system_id":"levelo_inurba_marseille","lat":43.3008,"lon":5.39097,"is_reserved":false,"is_disabled":false,"rental_uris":{"android":"levelo://app?vid=4e822c66-d799-418b-af6b-05b88db76ee9","ios":"levelo://app?vid=4e822c66-d799-418b-af6b-05b88db76ee9"},"vehicle_type_id":"4","last_reported":1716746953,"current_range_meters":10400,"station_id":"ce4bh192rcd13ifvqdb0","pricing_plan_id":"cebpf4jnsgd1na2vs0mg"},{"bike_id":"91cc7758-1e44-45f2-bdc1-75421cb1f414","system_id":"levelo_inurba_marseille","lat":43.291671,"lon":5.371575,"is_reserved":false,"is_disabled":false,"rental_uris":{"android":"levelo://app?vid=91cc7758-1e44-45f2-bdc1-75421cb1f414","ios":"levelo://app?vid=91cc7758-1e44-45f2-bdc1-75421cb1f414"},"vehicle_type_id":"4","last_reported":1716746953,"current_range_meters":0,"station_id":"ce4bha92rcd13ifvqeh0","pricing_plan_id":"cebpf4jnsgd1na2vs0mg"},{"bike_id":"833b6ebe-4cee-4899-bc2f-596933bb5c86","system_id":"levelo_inurba_marseille","lat":43.291675,"lon":5.371583,"is_reserved":false,"is_disabled":false,"rental_uris":{"android":"levelo://app?vid=833b6ebe-4cee-4899-bc2f-596933bb5c86","ios":"levelo://app?vid=833b6ebe-4cee-4899-bc2f-596933bb5c86"},"vehicle_type_id":"4","last_reported":1716746953,"current_range_meters":0,"station_id":"ce4bha92rcd13ifvqeh0","pricing_plan_id":"cebpf4jnsgd1na2vs0mg"},{"bike_id":"b4f9e68e-5ce4-43ac-9db7-73ee9b64d41d","system_id":"levelo_inurba_marseille","lat":43.298764,"lon":5.388973,"is_reserved":false,"is_disabled":false,"rental_uris":{"android":"levelo://app?vid=b4f9e68e-5ce4-43ac-9db7-73ee9b64d41d","ios":"levelo://app?vid=b4f9e68e-5ce4-43ac-9db7-73ee9b64d41d"},"vehicle_type_id":"4","last_reported":1716746953,"current_range_meters":7600,"station_id":"ce4bh392rcd13ifvqdl0","pricing_plan_id":"cebpf4jnsgd1na2vs0mg"},{"bike_id":"8177f5f8-5cbe-4ab9-b74a-9be40ceafe43","system_id":"levelo_inurba_marseille","lat":43.313291,"lon":5.396838,"is_reserved":false,"is_disabled":false,"rental_uris":{"android":"levelo://app?vid=8177f5f8-5cbe-4ab9-b74a-9be40ceafe43","ios":"levelo://app?vid=8177f5f8-5cbe-4ab9-b74a-9be40ceafe43"},"vehicle_type_id":"4","last_reported":1716746953,"current_range_meters":10000,"station_id":"ce4bgvp2rcd13ifvqcu0","pricing_plan_id":"cebpf4jnsgd1na2vs0mg"},{"bike_id":"9729015e-f7d0-44ab-813d-ec59b5d8ad93","system_id":"levelo_inurba_marseille","lat":43.29201,"lon":5.35794,"is_reserved":false,"is_disabled":false,"rental_uris":{"android":"levelo://app?vid=9729015e-f7d0-44ab-813d-ec59b5d8ad93","ios":"levelo://app?vid=9729015e-f7d0-44ab-813d-ec59b5d8ad93"},"vehicle_type_id":"4","last_reported":1716746953,"current_range_meters":26800,"station_id":"ce4bhb12rcd13ifvqel0","pricing_plan_id":"cebpf4jnsgd1na2vs0mg"},{"bike_id":"ce6b881f-071c-491e-99db-bae78d9345b3","system_id":"levelo_inurba_marseille","lat":43.313291,"lon":5.396838,"is_reserved":false,"is_disabled":false,"rental_uris":{"android":"levelo://app?vid=ce6b881f-071c-491e-99db-bae78d9345b3","ios":"levelo://app?vid=ce6b881f-071c-491e-99db-bae78d9345b3"},"vehicle_type_id":"4","last_reported":1716746953,"current_range_meters":0,"station_id":"ce4bgvp2rcd13ifvqcu0","pricing_plan_id":"cebpf4jnsgd1na2vs0mg"},{"bike_id":"e6f26cd0-c66d-449d-90d2-660c00a037f6","system_id":"levelo_inurba_marseille","lat":43.29192,"lon":5.358,"is_reserved":false,"is_disabled":false,"rental_uris":{"android":"levelo://app?vid=e6f26cd0-c66d-449d-90d2-660c00a037f6","ios":"levelo://app?vid=e6f26cd0-c66d-449d-90d2-660c00a037f6"},"vehicle_type_id":"4","last_reported":1716746953,"current_range_meters":0,"station_id":"ce4bhb12rcd13ifvqel0","pricing_plan_id":"cebpf4jnsgd1na2vs0mg"},{"bike_id":"1e4b7fb5-cd0d-438e-ad67-f2f07aa499b0","system_id":"levelo_inurba_marseille","lat":43.313291,"lon":5.396838,"is_reserved":false,"is_disabled":false,"rental_uris":{"android":"levelo://app?vid=1e4b7fb5-cd0d-438e-ad67-f2f07aa499b0","ios":"levelo://app?vid=1e4b7fb5-cd0d-438e-ad67-f2f07aa499b0"},"vehicle_type_id":"4","last_reported":1716746953,"current_range_meters":8000,"station_id":"ce4bgvp2rcd13ifvqcu0","pricing_plan_id":"cebpf4jnsgd1na2vs0mg"},{"bike_id":"4eabeb0c-8fb7-49a0-8127-60aff034052a","system_id":"levelo_inurba_marseille","lat":43.292663,"lon":5.378828,"is_reserved":false,"is_disabled":false,"rental_uris":{"android":"levelo://app?vid=4eabeb0c-8fb7-49a0-8127-60aff034052a","ios":"levelo://app?vid=4eabeb0c-8fb7-49a0-8127-60aff034052a"},"vehicle_type_id":"4","last_reported":1716746953,"current_range_meters":0,"station_id":"ce4bgjh2rcd13ifvqbf0","pricing_plan_id":"cebpf4jnsgd1na2vs0mg"},{"bike_id":"9809e944-799b-4095-974b-3a4a7fc40218","system_id":"levelo_inurba_marseille","lat":43.309047,"lon":5.396551,"is_reserved":false,"is_disabled":false,"rental_uris":{"android":"levelo://app?vid=9809e944-799b-4095-974b-3a4a7fc40218","ios":"levelo://app?vid=9809e944-799b-4095-974b-3a4a7fc40218"},"vehicle_type_id":"4","last_reported":1716746953,"current_range_meters":6000,"station_id":"ce4bh012rcd13ifvqcv0","pricing_plan_id":"cebpf4jnsgd1na2vs0mg"},{"bike_id":"83e3dbe3-ba88-4ef5-9ff0-85eaa88435c0","system_id":"levelo_inurba_marseille","lat":43.309038,"lon":5.396546,"is_reserved":false,"is_disabled":false,"rental_uris":{"android":"levelo://app?vid=83e3dbe3-ba88-4ef5-9ff0-85eaa88435c0","ios":"levelo://app?vid=83e3dbe3-ba88-4ef5-9ff0-85eaa88435c0"},"vehicle_type_id":"4","last_reported":1716746953,"current_range_meters":8400,"station_id":"ce4bh012rcd13ifvqcv0","pricing_plan_id":"cebpf4jnsgd1na2vs0mg"},{"bike_id":"98fc1215-a0a3-4626-94aa-3edd58a8a1b0","system_id":"levelo_inurba_marseille","lat":43.313291,"lon":5.396838,"is_reserved":false,"is_disabled":false,"rental_uris":{"android":"levelo://app?vid=98fc1215-a0a3-4626-94aa-3edd58a8a1b0","ios":"levelo://app?vid=98fc1215-a0a3-4626-94aa-3edd58a8a1b0"},"vehicle_type_id":"4","last_reported":1716746953,"current_range_meters":10400,"station_id":"ce4bgvp2rcd13ifvqcu0","pricing_plan_id":"cebpf4jnsgd1na2vs0mg"},{"bike_id":"c2d34f00-eb92-4c64-86a1-48fce738c365","system_id":"levelo_inurba_marseille","lat":43.309038,"lon":5.396546,"is_reserved":false,"is_disabled":false,"rental_uris":{"android":"levelo://app?vid=c2d34f00-eb92-4c64-86a1-48fce738c365","ios":"levelo://app?vid=c2d34f00-eb92-4c64-86a1-48fce738c365"},"vehicle_type_id":"4","last_reported":1716746953,"current_range_meters":6400,"station_id":"ce4bh012rcd13ifvqcv0","pricing_plan_id":"cebpf4jnsgd1na2vs0mg"},{"bike_id":"ab72d1c9-c555-4dd8-8375-8f8e5b70f0bf","system_id":"levelo_inurba_marseille","lat":43.313291,"lon":5.396838,"is_reserved":false,"is_disabled":false,"rental_uris":{"android":"levelo://app?vid=ab72d1c9-c555-4dd8-8375-8f8e5b70f0bf","ios":"levelo://app?vid=ab72d1c9-c555-4dd8-8375-8f8e5b70f0bf"},"vehicle_type_id":"4","last_reported":1716746953,"current_range_meters":400,"station_id":"ce4bgvp2rcd13ifvqcu0","pricing_plan_id":"cebpf4jnsgd1na2vs0mg"},{"bike_id":"73792269-f784-4d08-b95a-860444f6e88b","system_id":"levelo_inurba_marseille","lat":43.290779,"lon":5.371482,"is_reserved":false,"is_disabled":false,"rental_uris":{"android":"levelo://app?vid=73792269-f784-4d08-b95a-860444f6e88b","ios":"levelo://app?vid=73792269-f784-4d08-b95a-860444f6e88b"},"vehicle_type_id":"4","last_reported":1716746953,"current_range_meters":1200,"station_id":"ce4bh5p2rcd13ifvqe4g","pricing_plan_id":"cebpf4jnsgd1na2vs0mg"},{"bike_id":"fcaa343b-f0cf-4163-ae7d-6f2f6f15921a","system_id":"levelo_inurba_marseille","lat":43.302008,"lon":5.394694,"is_reserved":false,"is_disabled":false,"rental_uris":{"android":"levelo://app?vid=fcaa343b-f0cf-4163-ae7d-6f2f6f15921a","ios":"levelo://app?vid=fcaa343b-f0cf-4163-ae7d-6f2f6f15921a"},"vehicle_type_id":"4","last_reported":1716746953,"current_range_meters":11600,"station_id":"ce4bh0p2rcd13ifvqd70","pricing_plan_id":"cebpf4jnsgd1na2vs0mg"},{"bike_id":"a9bdf305-3b4e-43d9-bc4c-1d7d5a284154","system_id":"levelo_inurba_marseille","lat":43.302008,"lon":5.394694,"is_reserved":false,"is_disabled":false,"rental_uris":{"android":"levelo://app?vid=a9bdf305-3b4e-43d9-bc4c-1d7d5a284154","ios":"levelo://app?vid=a9bdf305-3b4e-43d9-bc4c-1d7d5a284154"},"vehicle_type_id":"4","last_reported":1716746953,"current_range_meters":2400,"station_id":"ce4bh0p2rcd13ifvqd70","pricing_plan_id":"cebpf4jnsgd1na2vs0mg"},{"bike_id":"3d62dd83-b929-4b2b-b2b6-cc5615a6770e","system_id":"levelo_inurba_marseille","lat":43.28952,"lon":5.36641,"is_reserved":false,"is_disabled":false,"rental_uris":{"android":"levelo://app?vid=3d62dd83-b929-4b2b-b2b6-cc5615a6770e","ios":"levelo://app?vid=3d62dd83-b929-4b2b-b2b6-cc5615a6770e"},"vehicle_type_id":"4","last_reported":1716746953,"current_range_meters":0,"station_id":"ce4bhap2rcd13ifvqek0","pricing_plan_id":"cebpf4jnsgd1na2vs0mg"},{"bike_id":"9942f61e-16b4-41c1-8001-7ece1e23780c","system_id":"levelo_inurba_marseille","lat":43.294162,"lon":5.386292,"is_reserved":false,"is_disabled":false,"rental_uris":{"android":"levelo://app?vid=9942f61e-16b4-41c1-8001-7ece1e23780c","ios":"levelo://app?vid=9942f61e-16b4-41c1-8001-7ece1e23780c"},"vehicle_type_id":"4","last_reported":1716746953,"current_range_meters":4400,"station_id":"ce4bh2h2rcd13ifvqdh0","pricing_plan_id":"cebpf4jnsgd1na2vs0mg"},{"bike_id":"b06f88ae-b33f-4592-893d-21af5d2c45bd","system_id":"levelo_inurba_marseille","lat":43.294162,"lon":5.386292,"is_reserved":false,"is_disabled":false,"rental_uris":{"android":"levelo://app?vid=b06f88ae-b33f-4592-893d-21af5d2c45bd","ios":"levelo://app?vid=b06f88ae-b33f-4592-893d-21af5d2c45bd"},"vehicle_type_id":"4","last_reported":1716746953,"current_range_meters":19200,"station_id":"ce4bh2h2rcd13ifvqdh0","pricing_plan_id":"cebpf4jnsgd1na2vs0mg"},{"bike_id":"54a58d03-f4b1-411d-9573-97b066455f61","system_id":"levelo_inurba_marseille","lat":43.294162,"lon":5.386292,"is_reserved":false,"is_disabled":false,"rental_uris":{"android":"levelo://app?vid=54a58d03-f4b1-411d-9573-97b066455f61","ios":"levelo://app?vid=54a58d03-f4b1-411d-9573-97b066455f61"},"vehicle_type_id":"4","last_reported":1716746953,"current_range_meters":12000,"station_id":"ce4bh2h2rcd13ifvqdh0","pricing_plan_id":"cebpf4jnsgd1na2vs0mg"},{"bike_id":"3aa6383a-7ed6-442a-9a03-ab86dd4e8d7f","system_id":"levelo_inurba_marseille","lat":43.289434,"lon":5.366445,"is_reserved":false,"is_disabled":false,"rental_uris":{"android":"levelo://app?vid=3aa6383a-7ed6-442a-9a03-ab86dd4e8d7f","ios":"levelo://app?vid=3aa6383a-7ed6-442a-9a03-ab86dd4e8d7f"},"vehicle_type_id":"4","last_reported":1716746953,"current_range_meters":0,"station_id":"ce4bhap2rcd13ifvqek0","pricing_plan_id":"cebpf4jnsgd1na2vs0mg"},{"bike_id":"1f0c01b7-a970-469a-8b5e-af9f66578454","system_id":"levelo_inurba_marseille","lat":43.28942,"lon":5.36637,"is_reserved":false,"is_disabled":false,"rental_uris":{"android":"levelo://app?vid=1f0c01b7-a970-469a-8b5e-af9f66578454","ios":"levelo://app?vid=1f0c01b7-a970-469a-8b5e-af9f66578454"},"vehicle_type_id":"4","last_reported":1716746953,"current_range_meters":0,"station_id":"ce4bhap2rcd13ifvqek0","pricing_plan_id":"cebpf4jnsgd1na2vs0mg"},{"bike_id":"119f4f29-89d6-4cac-85fc-de592dc0c769","system_id":"levelo_inurba_marseille","lat":43.28942,"lon":5.36635,"is_reserved":false,"is_disabled":false,"rental_uris":{"android":"levelo://app?vid=119f4f29-89d6-4cac-85fc-de592dc0c769","ios":"levelo://app?vid=119f4f29-89d6-4cac-85fc-de592dc0c769"},"vehicle_type_id":"4","last_reported":1716746953,"current_range_meters":0,"station_id":"ce4bhap2rcd13ifvqek0","pricing_plan_id":"cebpf4jnsgd1na2vs0mg"},{"bike_id":"266e0f4f-a08c-4c0c-bbed-3e48dfc7689e","system_id":"levelo_inurba_marseille","lat":43.295169,"lon":5.390426,"is_reserved":false,"is_disabled":false,"rental_uris":{"android":"levelo://app?vid=266e0f4f-a08c-4c0c-bbed-3e48dfc7689e","ios":"levelo://app?vid=266e0f4f-a08c-4c0c-bbed-3e48dfc7689e"},"vehicle_type_id":"4","last_reported":1716746953,"current_range_meters":800,"station_id":"ce4bh3p2rcd13ifvqdp0","pricing_plan_id":"cebpf4jnsgd1na2vs0mg"},{"bike_id":"e737f68d-c59d-4e02-b514-61f7a23f6ae5","system_id":"levelo_inurba_marseille","lat":43.294188,"lon":5.386594,"is_reserved":false,"is_disabled":false,"rental_uris":{"android":"levelo://app?vid=e737f68d-c59d-4e02-b514-61f7a23f6ae5","ios":"levelo://app?vid=e737f68d-c59d-4e02-b514-61f7a23f6ae5"},"vehicle_type_id":"4","last_reported":1716746953,"current_range_meters":0,"station_id":"ce4bh2h2rcd13ifvqdh0","pricing_plan_id":"cebpf4jnsgd1na2vs0mg"},{"bike_id":"0ae1555b-301e-4c57-b487-f57c4ab0bed1","system_id":"levelo_inurba_marseille","lat":43.289184,"lon":5.366408,"is_reserved":false,"is_disabled":false,"rental_uris":{"android":"levelo://app?vid=0ae1555b-301e-4c57-b487-f57c4ab0bed1","ios":"levelo://app?vid=0ae1555b-301e-4c57-b487-f57c4ab0bed1"},"vehicle_type_id":"4","last_reported":1716746953,"current_range_meters":16800,"station_id":"ce4bhap2rcd13ifvqek0","pricing_plan_id":"cebpf4jnsgd1na2vs0mg"},{"bike_id":"45208fe8-26e9-4940-95fe-a79b95140d5e","system_id":"levelo_inurba_marseille","lat":43.311722,"lon":5.387247,"is_reserved":false,"is_disabled":false,"rental_uris":{"android":"levelo://app?vid=45208fe8-26e9-4940-95fe-a79b95140d5e","ios":"levelo://app?vid=45208fe8-26e9-4940-95fe-a79b95140d5e"},"vehicle_type_id":"4","last_reported":1716746953,"current_range_meters":2800,"station_id":"ce4bgv12rcd13ifvqcp0","pricing_plan_id":"cebpf4jnsgd1na2vs0mg"},{"bike_id":"aa9ebd84-11b1-409f-a0f6-98c3c675dba8","system_id":"levelo_inurba_marseille","lat":43.289344,"lon":5.363996,"is_reserved":false,"is_disabled":false,"rental_uris":{"android":"levelo://app?vid=aa9ebd84-11b1-409f-a0f6-98c3c675dba8","ios":"levelo://app?vid=aa9ebd84-11b1-409f-a0f6-98c3c675dba8"},"vehicle_type_id":"4","last_reported":1716746953,"current_range_meters":0,"station_id":"ce4bhc92rcd13ifvqetg","pricing_plan_id":"cebpf4jnsgd1na2vs0mg"},{"bike_id":"b6b31c79-e936-43ec-aa53-513e9b422ac5","system_id":"levelo_inurba_marseille","lat":43.29048,"lon":5.37807,"is_reserved":false,"is_disabled":false,"rental_uris":{"android":"levelo://app?vid=b6b31c79-e936-43ec-aa53-513e9b422ac5","ios":"levelo://app?vid=b6b31c79-e936-43ec-aa53-513e9b422ac5"},"vehicle_type_id":"4","last_reported":1716746953,"current_range_meters":0,"station_id":"","pricing_plan_id":"cebpf4jnsgd1na2vs0mg"},{"bike_id":"e5bf0ae6-de98-4136-8b71-594f2d84e1f2","system_id":"levelo_inurba_marseille","lat":43.292644,"lon":5.384257,"is_reserved":false,"is_disabled":false,"rental_uris":{"android":"levelo://app?vid=e5bf0ae6-de98-4136-8b71-594f2d84e1f2","ios":"levelo://app?vid=e5bf0ae6-de98-4136-8b71-594f2d84e1f2"},"vehicle_type_id":"4","last_reported":1716746953,"current_range_meters":15600,"station_id":"ce4bh692rcd13ifvqea0","pricing_plan_id":"cebpf4jnsgd1na2vs0mg"},{"bike_id":"11b99a56-2e4a-4579-8e7b-1a15976fb353","system_id":"levelo_inurba_marseille","lat":43.304296,"lon":5.397513,"is_reserved":false,"is_disabled":false,"rental_uris":{"android":"levelo://app?vid=11b99a56-2e4a-4579-8e7b-1a15976fb353","ios":"levelo://app?vid=11b99a56-2e4a-4579-8e7b-1a15976fb353"},"vehicle_type_id":"4","last_reported":1716746953,"current_range_meters":7600,"station_id":"ce4bh092rcd13ifvqd20","pricing_plan_id":"cebpf4jnsgd1na2vs0mg"},{"bike_id":"b1cc2824-435e-419a-a710-ffac95b598d4","system_id":"levelo_inurba_marseille","lat":43.292738,"lon":5.384738,"is_reserved":false,"is_disabled":false,"rental_uris":{"android":"levelo://app?vid=b1cc2824-435e-419a-a710-ffac95b598d4","ios":"levelo://app?vid=b1cc2824-435e-419a-a710-ffac95b598d4"},"vehicle_type_id":"4","last_reported":1716746953,"current_range_meters":0,"station_id":"ce4bh692rcd13ifvqea0","pricing_plan_id":"cebpf4jnsgd1na2vs0mg"},{"bike_id":"acf8c613-9313-45d4-86a5-c98ed9494c9e","system_id":"levelo_inurba_marseille","lat":43.29259,"lon":5.38443,"is_reserved":false,"is_disabled":false,"rental_uris":{"android":"levelo://app?vid=acf8c613-9313-45d4-86a5-c98ed9494c9e","ios":"levelo://app?vid=acf8c613-9313-45d4-86a5-c98ed9494c9e"},"vehicle_type_id":"4","last_reported":1716746953,"current_range_meters":0,"station_id":"ce4bh692rcd13ifvqea0","pricing_plan_id":"cebpf4jnsgd1na2vs0mg"},{"bike_id":"c098f2e7-d307-413f-9a42-6e6c9f7cbf2b","system_id":"levelo_inurba_marseille","lat":43.292644,"lon":5.384257,"is_reserved":false,"is_disabled":false,"rental_uris":{"android":"levelo://app?vid=c098f2e7-d307-413f-9a42-6e6c9f7cbf2b","ios":"levelo://app?vid=c098f2e7-d307-413f-9a42-6e6c9f7cbf2b"},"vehicle_type_id":"4","last_reported":1716746953,"current_range_meters":6000,"station_id":"ce4bh692rcd13ifvqea0","pricing_plan_id":"cebpf4jnsgd1na2vs0mg"},{"bike_id":"43f9c7a3-42a7-4f92-a182-edb35b52e559","system_id":"levelo_inurba_marseille","lat":43.292644,"lon":5.384257,"is_reserved":false,"is_disabled":false,"rental_uris":{"android":"levelo://app?vid=43f9c7a3-42a7-4f92-a182-edb35b52e559","ios":"levelo://app?vid=43f9c7a3-42a7-4f92-a182-edb35b52e559"},"vehicle_type_id":"4","last_reported":1716746953,"current_range_meters":0,"station_id":"ce4bh692rcd13ifvqea0","pricing_plan_id":"cebpf4jnsgd1na2vs0mg"},{"bike_id":"ade3bd56-f197-445d-b9e4-2674176da01d","system_id":"levelo_inurba_marseille","lat":43.292644,"lon":5.384257,"is_reserved":false,"is_disabled":false,"rental_uris":{"android":"levelo://app?vid=ade3bd56-f197-445d-b9e4-2674176da01d","ios":"levelo://app?vid=ade3bd56-f197-445d-b9e4-2674176da01d"},"vehicle_type_id":"4","last_reported":1716746953,"current_range_meters":15200,"station_id":"ce4bh692rcd13ifvqea0","pricing_plan_id":"cebpf4jnsgd1na2vs0mg"},{"bike_id":"e5a41488-57fc-4829-b650-3542ddce8316","system_id":"levelo_inurba_marseille","lat":43.292644,"lon":5.384257,"is_reserved":false,"is_disabled":false,"rental_uris":{"android":"levelo://app?vid=e5a41488-57fc-4829-b650-3542ddce8316","ios":"levelo://app?vid=e5a41488-57fc-4829-b650-3542ddce8316"},"vehicle_type_id":"4","last_reported":1716746953,"current_range_meters":0,"station_id":"ce4bh692rcd13ifvqea0","pricing_plan_id":"cebpf4jnsgd1na2vs0mg"},{"bike_id":"4cb91c6e-efad-4c37-a208-999ab162f517","system_id":"levelo_inurba_marseille","lat":43.29239,"lon":5.384303,"is_reserved":false,"is_disabled":false,"rental_uris":{"android":"levelo://app?vid=4cb91c6e-efad-4c37-a208-999ab162f517","ios":"levelo://app?vid=4cb91c6e-efad-4c37-a208-999ab162f517"},"vehicle_type_id":"4","last_reported":1716746953,"current_range_meters":2000,"station_id":"ce4bh692rcd13ifvqea0","pricing_plan_id":"cebpf4jnsgd1na2vs0mg"},{"bike_id":"5e4c405a-3b34-42ee-96f9-b1ef13fb984d","system_id":"levelo_inurba_marseille","lat":43.290103,"lon":5.356114,"is_reserved":false,"is_disabled":false,"rental_uris":{"android":"levelo://app?vid=5e4c405a-3b34-42ee-96f9-b1ef13fb984d","ios":"levelo://app?vid=5e4c405a-3b34-42ee-96f9-b1ef13fb984d"},"vehicle_type_id":"4","last_reported":1716746953,"current_range_meters":0,"station_id":"ce4bhb92rcd13ifvqen0","pricing_plan_id":"cebpf4jnsgd1na2vs0mg"},{"bike_id":"7a32acb0-b2fd-481c-b194-35b59e369ec2","system_id":"levelo_inurba_marseille","lat":43.312609,"lon":5.401662,"is_reserved":false,"is_disabled":false,"rental_uris":{"android":"levelo://app?vid=7a32acb0-b2fd-481c-b194-35b59e369ec2","ios":"levelo://app?vid=7a32acb0-b2fd-481c-b194-35b59e369ec2"},"vehicle_type_id":"4","last_reported":1716746953,"current_range_meters":2000,"station_id":"ce4bh092rcd13ifvqd30","pricing_plan_id":"cebpf4jnsgd1na2vs0mg"},{"bike_id":"a24be35f-6008-4218-8953-375c17fb06ca","system_id":"levelo_inurba_marseille","lat":43.29005,"lon":5.35618,"is_reserved":false,"is_disabled":false,"rental_uris":{"android":"levelo://app?vid=a24be35f-6008-4218-8953-375c17fb06ca","ios":"levelo://app?vid=a24be35f-6008-4218-8953-375c17fb06ca"},"vehicle_type_id":"4","last_reported":1716746953,"current_range_meters":0,"station_id":"ce4bhb92rcd13ifvqen0","pricing_plan_id":"cebpf4jnsgd1na2vs0mg"},{"bike_id":"fd246d1c-2e9e-4b31-a1bb-a552df04171c","system_id":"levelo_inurba_marseille","lat":43.290103,"lon":5.356114,"is_reserved":false,"is_disabled":false,"rental_uris":{"android":"levelo://app?vid=fd246d1c-2e9e-4b31-a1bb-a552df04171c","ios":"levelo://app?vid=fd246d1c-2e9e-4b31-a1bb-a552df04171c"},"vehicle_type_id":"4","last_reported":1716746953,"current_range_meters":0,"station_id":"ce4bhb92rcd13ifvqen0","pricing_plan_id":"cebpf4jnsgd1na2vs0mg"},{"bike_id":"b2355062-feaa-4ea0-addd-2d52ad420b7c","system_id":"levelo_inurba_marseille","lat":43.29006,"lon":5.35608,"is_reserved":false,"is_disabled":false,"rental_uris":{"android":"levelo://app?vid=b2355062-feaa-4ea0-addd-2d52ad420b7c","ios":"levelo://app?vid=b2355062-feaa-4ea0-addd-2d52ad420b7c"},"vehicle_type_id":"4","last_reported":1716746953,"current_range_meters":0,"station_id":"ce4bhb92rcd13ifvqen0","pricing_plan_id":"cebpf4jnsgd1na2vs0mg"},{"bike_id":"cd06316c-aaee-46f6-951e-b2468fac62be","system_id":"levelo_inurba_marseille","lat":43.290104,"lon":5.356111,"is_reserved":false,"is_disabled":false,"rental_uris":{"android":"levelo://app?vid=cd06316c-aaee-46f6-951e-b2468fac62be","ios":"levelo://app?vid=cd06316c-aaee-46f6-951e-b2468fac62be"},"vehicle_type_id":"4","last_reported":1716746953,"current_range_meters":1200,"station_id":"ce4bhb92rcd13ifvqen0","pricing_plan_id":"cebpf4jnsgd1na2vs0mg"},{"bike_id":"9b4a1462-acaa-4b24-bbbe-83cf13417157","system_id":"levelo_inurba_marseille","lat":43.290104,"lon":5.356111,"is_reserved":false,"is_disabled":false,"rental_uris":{"android":"levelo://app?vid=9b4a1462-acaa-4b24-bbbe-83cf13417157","ios":"levelo://app?vid=9b4a1462-acaa-4b24-bbbe-83cf13417157"},"vehicle_type_id":"4","last_reported":1716746953,"current_range_meters":0,"station_id":"ce4bhb92rcd13ifvqen0","pricing_plan_id":"cebpf4jnsgd1na2vs0mg"},{"bike_id":"cf4e3ba5-de9a-4c88-a0b3-7cde2798cae7","system_id":"levelo_inurba_marseille","lat":43.295169,"lon":5.390426,"is_reserved":false,"is_disabled":false,"rental_uris":{"android":"levelo://app?vid=cf4e3ba5-de9a-4c88-a0b3-7cde2798cae7","ios":"levelo://app?vid=cf4e3ba5-de9a-4c88-a0b3-7cde2798cae7"},"vehicle_type_id":"4","last_reported":1716746953,"current_range_meters":5200,"station_id":"ce4bh3p2rcd13ifvqdp0","pricing_plan_id":"cebpf4jnsgd1na2vs0mg"},{"bike_id":"0467d78f-d5dd-44e7-9cec-f3d197eb713d","system_id":"levelo_inurba_marseille","lat":43.290996,"lon":5.381534,"is_reserved":false,"is_disabled":false,"rental_uris":{"android":"levelo://app?vid=0467d78f-d5dd-44e7-9cec-f3d197eb713d","ios":"levelo://app?vid=0467d78f-d5dd-44e7-9cec-f3d197eb713d"},"vehicle_type_id":"4","last_reported":1716746953,"current_range_meters":0,"station_id":"ce4bh512rcd13ifvqe2g","pricing_plan_id":"cebpf4jnsgd1na2vs0mg"},{"bike_id":"dccecdbf-b5f7-4e2f-8d59-00227aad3783","system_id":"levelo_inurba_marseille","lat":43.295169,"lon":5.390426,"is_reserved":false,"is_disabled":false,"rental_uris":{"android":"levelo://app?vid=dccecdbf-b5f7-4e2f-8d59-00227aad3783","ios":"levelo://app?vid=dccecdbf-b5f7-4e2f-8d59-00227aad3783"},"vehicle_type_id":"4","last_reported":1716746953,"current_range_meters":8400,"station_id":"ce4bh3p2rcd13ifvqdp0","pricing_plan_id":"cebpf4jnsgd1na2vs0mg"},{"bike_id":"52229ca8-5977-48f2-9596-ffbb6bef164b","system_id":"levelo_inurba_marseille","lat":43.295169,"lon":5.390426,"is_reserved":false,"is_disabled":false,"rental_uris":{"android":"levelo://app?vid=52229ca8-5977-48f2-9596-ffbb6bef164b","ios":"levelo://app?vid=52229ca8-5977-48f2-9596-ffbb6bef164b"},"vehicle_type_id":"4","last_reported":1716746953,"current_range_meters":16400,"station_id":"ce4bh3p2rcd13ifvqdp0","pricing_plan_id":"cebpf4jnsgd1na2vs0mg"},{"bike_id":"971954e6-6d4e-47a6-93a6-3be5557273f4","system_id":"levelo_inurba_marseille","lat":43.330442,"lon":5.389148,"is_reserved":false,"is_disabled":false,"rental_uris":{"android":"levelo://app?vid=971954e6-6d4e-47a6-93a6-3be5557273f4","ios":"levelo://app?vid=971954e6-6d4e-47a6-93a6-3be5557273f4"},"vehicle_type_id":"4","last_reported":1716746953,"current_range_meters":20800,"station_id":"ce4bhr92rcd13ifvqhrg","pricing_plan_id":"cebpf4jnsgd1na2vs0mg"},{"bike_id":"6fb055cc-b404-4919-9ec2-131135e5728e","system_id":"levelo_inurba_marseille","lat":43.289773,"lon":5.378467,"is_reserved":false,"is_disabled":false,"rental_uris":{"android":"levelo://app?vid=6fb055cc-b404-4919-9ec2-131135e5728e","ios":"levelo://app?vid=6fb055cc-b404-4919-9ec2-131135e5728e"},"vehicle_type_id":"4","last_reported":1716746953,"current_range_meters":0,"station_id":"ce4bh9p2rcd13ifvqed0","pricing_plan_id":"cebpf4jnsgd1na2vs0mg"},{"bike_id":"568da741-632b-4d2d-8ee1-69810b401455","system_id":"levelo_inurba_marseille","lat":43.297815,"lon":5.393548,"is_reserved":false,"is_disabled":false,"rental_uris":{"android":"levelo://app?vid=568da741-632b-4d2d-8ee1-69810b401455","ios":"levelo://app?vid=568da741-632b-4d2d-8ee1-69810b401455"},"vehicle_type_id":"4","last_reported":1716746953,"current_range_meters":21200,"station_id":"chh1huq6cuj3fo74tm60","pricing_plan_id":"cebpf4jnsgd1na2vs0mg"},{"bike_id":"ba7bba16-c57b-44f6-9f9c-c9839289854f","system_id":"levelo_inurba_marseille","lat":43.31065,"lon":5.40081,"is_reserved":false,"is_disabled":false,"rental_uris":{"android":"levelo://app?vid=ba7bba16-c57b-44f6-9f9c-c9839289854f","ios":"levelo://app?vid=ba7bba16-c57b-44f6-9f9c-c9839289854f"},"vehicle_type_id":"4","last_reported":1716746953,"current_range_meters":9200,"station_id":"","pricing_plan_id":"cebpf4jnsgd1na2vs0mg"},{"bike_id":"1a1505af-a805-4e97-b6c5-ef86c8ad33ae","system_id":"levelo_inurba_marseille","lat":43.310735,"lon":5.401007,"is_reserved":false,"is_disabled":false,"rental_uris":{"android":"levelo://app?vid=1a1505af-a805-4e97-b6c5-ef86c8ad33ae","ios":"levelo://app?vid=1a1505af-a805-4e97-b6c5-ef86c8ad33ae"},"vehicle_type_id":"4","last_reported":1716746953,"current_range_meters":0,"station_id":"","pricing_plan_id":"cebpf4jnsgd1na2vs0mg"},{"bike_id":"98d9cc5c-e4c5-4c99-ae29-e83597184ca2","system_id":"levelo_inurba_marseille","lat":43.288487,"lon":5.358454,"is_reserved":false,"is_disabled":false,"rental_uris":{"android":"levelo://app?vid=98d9cc5c-e4c5-4c99-ae29-e83597184ca2","ios":"levelo://app?vid=98d9cc5c-e4c5-4c99-ae29-e83597184ca2"},"vehicle_type_id":"4","last_reported":1716746953,"current_range_meters":0,"station_id":"ce4bhb12rcd13ifvqem0","pricing_plan_id":"cebpf4jnsgd1na2vs0mg"},{"bike_id":"c817be8a-4d3f-428e-9e83-fb97be659edc","system_id":"levelo_inurba_marseille","lat":43.33739,"lon":5.37443,"is_reserved":false,"is_disabled":false,"rental_uris":{"android":"levelo://app?vid=c817be8a-4d3f-428e-9e83-fb97be659edc","ios":"levelo://app?vid=c817be8a-4d3f-428e-9e83-fb97be659edc"},"vehicle_type_id":"4","last_reported":1716746953,"current_range_meters":20000,"station_id":"","pricing_plan_id":"cebpf4jnsgd1na2vs0mg"},{"bike_id":"6080ad0c-005f-4214-98b8-969e3b701ab3","system_id":"levelo_inurba_marseille","lat":43.312609,"lon":5.401662,"is_reserved":false,"is_disabled":false,"rental_uris":{"android":"levelo://app?vid=6080ad0c-005f-4214-98b8-969e3b701ab3","ios":"levelo://app?vid=6080ad0c-005f-4214-98b8-969e3b701ab3"},"vehicle_type_id":"4","last_reported":1716746953,"current_range_meters":16800,"station_id":"ce4bh092rcd13ifvqd30","pricing_plan_id":"cebpf4jnsgd1na2vs0mg"},{"bike_id":"5e08015a-b315-49d5-b067-121fc243166b","system_id":"levelo_inurba_marseille","lat":43.33752,"lon":5.37436,"is_reserved":false,"is_disabled":false,"rental_uris":{"android":"levelo://app?vid=5e08015a-b315-49d5-b067-121fc243166b","ios":"levelo://app?vid=5e08015a-b315-49d5-b067-121fc243166b"},"vehicle_type_id":"4","last_reported":1716746953,"current_range_meters":14800,"station_id":"","pricing_plan_id":"cebpf4jnsgd1na2vs0mg"},{"bike_id":"1ceca115-9c8c-4114-a7fd-a7c5cae990d5","system_id":"levelo_inurba_marseille","lat":43.312609,"lon":5.401662,"is_reserved":false,"is_disabled":false,"rental_uris":{"android":"levelo://app?vid=1ceca115-9c8c-4114-a7fd-a7c5cae990d5","ios":"levelo://app?vid=1ceca115-9c8c-4114-a7fd-a7c5cae990d5"},"vehicle_type_id":"4","last_reported":1716746953,"current_range_meters":12000,"station_id":"ce4bh092rcd13ifvqd30","pricing_plan_id":"cebpf4jnsgd1na2vs0mg"},{"bike_id":"4baa171a-6f41-4b4c-bcc1-759d97c52644","system_id":"levelo_inurba_marseille","lat":43.337567,"lon":5.374574,"is_reserved":false,"is_disabled":false,"rental_uris":{"android":"levelo://app?vid=4baa171a-6f41-4b4c-bcc1-759d97c52644","ios":"levelo://app?vid=4baa171a-6f41-4b4c-bcc1-759d97c52644"},"vehicle_type_id":"4","last_reported":1716746953,"current_range_meters":18000,"station_id":"","pricing_plan_id":"cebpf4jnsgd1na2vs0mg"},{"bike_id":"4d476eee-4013-46a3-be70-3fc5198fa0f9","system_id":"levelo_inurba_marseille","lat":43.33763,"lon":5.374318,"is_reserved":false,"is_disabled":false,"rental_uris":{"android":"levelo://app?vid=4d476eee-4013-46a3-be70-3fc5198fa0f9","ios":"levelo://app?vid=4d476eee-4013-46a3-be70-3fc5198fa0f9"},"vehicle_type_id":"4","last_reported":1716746953,"current_range_meters":11600,"station_id":"","pricing_plan_id":"cebpf4jnsgd1na2vs0mg"},{"bike_id":"732798ba-2b9a-45ce-babd-a4bca6a10e63","system_id":"levelo_inurba_marseille","lat":43.337625,"lon":5.374405,"is_reserved":false,"is_disabled":false,"rental_uris":{"android":"levelo://app?vid=732798ba-2b9a-45ce-babd-a4bca6a10e63","ios":"levelo://app?vid=732798ba-2b9a-45ce-babd-a4bca6a10e63"},"vehicle_type_id":"4","last_reported":1716746953,"current_range_meters":11600,"station_id":"","pricing_plan_id":"cebpf4jnsgd1na2vs0mg"},{"bike_id":"de609f3b-f2e7-4b37-96b4-3315c7ebe8bb","system_id":"levelo_inurba_marseille","lat":43.33764,"lon":5.37471,"is_reserved":false,"is_disabled":false,"rental_uris":{"android":"levelo://app?vid=de609f3b-f2e7-4b37-96b4-3315c7ebe8bb","ios":"levelo://app?vid=de609f3b-f2e7-4b37-96b4-3315c7ebe8bb"},"vehicle_type_id":"4","last_reported":1716746953,"current_range_meters":14000,"station_id":"","pricing_plan_id":"cebpf4jnsgd1na2vs0mg"},{"bike_id":"e33d281c-d24a-4da4-807f-c6f859a69dca","system_id":"levelo_inurba_marseille","lat":43.30647,"lon":5.40099,"is_reserved":false,"is_disabled":false,"rental_uris":{"android":"levelo://app?vid=e33d281c-d24a-4da4-807f-c6f859a69dca","ios":"levelo://app?vid=e33d281c-d24a-4da4-807f-c6f859a69dca"},"vehicle_type_id":"4","last_reported":1716746953,"current_range_meters":0,"station_id":"ce4bh112rcd13ifvqda0","pricing_plan_id":"cebpf4jnsgd1na2vs0mg"},{"bike_id":"be142ffa-fac6-4e79-9746-f5a28250960b","system_id":"levelo_inurba_marseille","lat":43.309047,"lon":5.396551,"is_reserved":false,"is_disabled":false,"rental_uris":{"android":"levelo://app?vid=be142ffa-fac6-4e79-9746-f5a28250960b","ios":"levelo://app?vid=be142ffa-fac6-4e79-9746-f5a28250960b"},"vehicle_type_id":"4","last_reported":1716746953,"current_range_meters":16400,"station_id":"ce4bh012rcd13ifvqcv0","pricing_plan_id":"cebpf4jnsgd1na2vs0mg"},{"bike_id":"825fa8d8-f677-44ea-959e-e28a76bf9c1f","system_id":"levelo_inurba_marseille","lat":43.33773,"lon":5.37477,"is_reserved":false,"is_disabled":false,"rental_uris":{"android":"levelo://app?vid=825fa8d8-f677-44ea-959e-e28a76bf9c1f","ios":"levelo://app?vid=825fa8d8-f677-44ea-959e-e28a76bf9c1f"},"vehicle_type_id":"4","last_reported":1716746953,"current_range_meters":14800,"station_id":"","pricing_plan_id":"cebpf4jnsgd1na2vs0mg"},{"bike_id":"678b300f-a77b-48b7-828b-424d6746232a","system_id":"levelo_inurba_marseille","lat":43.30138,"lon":5.39854,"is_reserved":false,"is_disabled":false,"rental_uris":{"android":"levelo://app?vid=678b300f-a77b-48b7-828b-424d6746232a","ios":"levelo://app?vid=678b300f-a77b-48b7-828b-424d6746232a"},"vehicle_type_id":"4","last_reported":1716746953,"current_range_meters":0,"station_id":"ce4bh0h2rcd13ifvqd40","pricing_plan_id":"cebpf4jnsgd1na2vs0mg"},{"bike_id":"4b57c354-35dd-4670-8f6d-290fc7207ecc","system_id":"levelo_inurba_marseille","lat":43.301117,"lon":5.398795,"is_reserved":false,"is_disabled":false,"rental_uris":{"android":"levelo://app?vid=4b57c354-35dd-4670-8f6d-290fc7207ecc","ios":"levelo://app?vid=4b57c354-35dd-4670-8f6d-290fc7207ecc"},"vehicle_type_id":"4","last_reported":1716746953,"current_range_meters":3600,"station_id":"ce4bh0h2rcd13ifvqd40","pricing_plan_id":"cebpf4jnsgd1na2vs0mg"},{"bike_id":"13976907-3433-4bab-bc8e-a4d86c213c64","system_id":"levelo_inurba_marseille","lat":43.287099,"lon":5.373937,"is_reserved":false,"is_disabled":false,"rental_uris":{"android":"levelo://app?vid=13976907-3433-4bab-bc8e-a4d86c213c64","ios":"levelo://app?vid=13976907-3433-4bab-bc8e-a4d86c213c64"},"vehicle_type_id":"4","last_reported":1716746953,"current_range_meters":0,"station_id":"ce4bh3p2rcd13ifvqdq0","pricing_plan_id":"cebpf4jnsgd1na2vs0mg"},{"bike_id":"abda5e17-bfe5-4619-8767-e7fe8c3cf7b6","system_id":"levelo_inurba_marseille","lat":43.286591,"lon":5.363346,"is_reserved":false,"is_disabled":false,"rental_uris":{"android":"levelo://app?vid=abda5e17-bfe5-4619-8767-e7fe8c3cf7b6","ios":"levelo://app?vid=abda5e17-bfe5-4619-8767-e7fe8c3cf7b6"},"vehicle_type_id":"4","last_reported":1716746953,"current_range_meters":1200,"station_id":"ce4bhah2rcd13ifvqej0","pricing_plan_id":"cebpf4jnsgd1na2vs0mg"},{"bike_id":"bd6eaa64-7ccf-4466-9f0e-d79b9a3e5f6c","system_id":"levelo_inurba_marseille","lat":43.286591,"lon":5.363346,"is_reserved":false,"is_disabled":false,"rental_uris":{"android":"levelo://app?vid=bd6eaa64-7ccf-4466-9f0e-d79b9a3e5f6c","ios":"levelo://app?vid=bd6eaa64-7ccf-4466-9f0e-d79b9a3e5f6c"},"vehicle_type_id":"4","last_reported":1716746953,"current_range_meters":21600,"station_id":"ce4bhah2rcd13ifvqej0","pricing_plan_id":"cebpf4jnsgd1na2vs0mg"},{"bike_id":"fe54ff0a-d97d-4646-b194-cfa71fa66015","system_id":"levelo_inurba_marseille","lat":43.286593,"lon":5.363346,"is_reserved":false,"is_disabled":false,"rental_uris":{"android":"levelo://app?vid=fe54ff0a-d97d-4646-b194-cfa71fa66015","ios":"levelo://app?vid=fe54ff0a-d97d-4646-b194-cfa71fa66015"},"vehicle_type_id":"4","last_reported":1716746953,"current_range_meters":9600,"station_id":"ce4bhah2rcd13ifvqej0","pricing_plan_id":"cebpf4jnsgd1na2vs0mg"},{"bike_id":"dd1a9d7c-99fc-4e21-8dc4-8994517ac8c9","system_id":"levelo_inurba_marseille","lat":43.286591,"lon":5.363346,"is_reserved":false,"is_disabled":false,"rental_uris":{"android":"levelo://app?vid=dd1a9d7c-99fc-4e21-8dc4-8994517ac8c9","ios":"levelo://app?vid=dd1a9d7c-99fc-4e21-8dc4-8994517ac8c9"},"vehicle_type_id":"4","last_reported":1716746953,"current_range_meters":7200,"station_id":"ce4bhah2rcd13ifvqej0","pricing_plan_id":"cebpf4jnsgd1na2vs0mg"},{"bike_id":"9a19c90d-ab03-4003-b613-69b62c4d4db2","system_id":"levelo_inurba_marseille","lat":43.287,"lon":5.37398,"is_reserved":false,"is_disabled":false,"rental_uris":{"android":"levelo://app?vid=9a19c90d-ab03-4003-b613-69b62c4d4db2","ios":"levelo://app?vid=9a19c90d-ab03-4003-b613-69b62c4d4db2"},"vehicle_type_id":"4","last_reported":1716746953,"current_range_meters":0,"station_id":"ce4bh3p2rcd13ifvqdq0","pricing_plan_id":"cebpf4jnsgd1na2vs0mg"},{"bike_id":"30abca4f-747e-4e2c-a8cb-920ac1082c40","system_id":"levelo_inurba_marseille","lat":43.302759,"lon":5.400793,"is_reserved":false,"is_disabled":false,"rental_uris":{"android":"levelo://app?vid=30abca4f-747e-4e2c-a8cb-920ac1082c40","ios":"levelo://app?vid=30abca4f-747e-4e2c-a8cb-920ac1082c40"},"vehicle_type_id":"4","last_reported":1716746953,"current_range_meters":20400,"station_id":"ce4bgvh2rcd13ifvqcs0","pricing_plan_id":"cebpf4jnsgd1na2vs0mg"},{"bike_id":"583e5e3c-bcfd-46fc-ab0d-b1e7c01e4e08","system_id":"levelo_inurba_marseille","lat":43.289274,"lon":5.384058,"is_reserved":false,"is_disabled":false,"rental_uris":{"android":"levelo://app?vid=583e5e3c-bcfd-46fc-ab0d-b1e7c01e4e08","ios":"levelo://app?vid=583e5e3c-bcfd-46fc-ab0d-b1e7c01e4e08"},"vehicle_type_id":"4","last_reported":1716746953,"current_range_meters":0,"station_id":"ce4bh612rcd13ifvqe6g","pricing_plan_id":"cebpf4jnsgd1na2vs0mg"},{"bike_id":"7f1aaed1-9ea9-4c6c-a4c3-f022ae593a69","system_id":"levelo_inurba_marseille","lat":43.28926,"lon":5.38408,"is_reserved":false,"is_disabled":false,"rental_uris":{"android":"levelo://app?vid=7f1aaed1-9ea9-4c6c-a4c3-f022ae593a69","ios":"levelo://app?vid=7f1aaed1-9ea9-4c6c-a4c3-f022ae593a69"},"vehicle_type_id":"4","last_reported":1716746953,"current_range_meters":0,"station_id":"ce4bh612rcd13ifvqe6g","pricing_plan_id":"cebpf4jnsgd1na2vs0mg"},{"bike_id":"5c347167-0a25-43a4-825f-f01a6bf94d84","system_id":"levelo_inurba_marseille","lat":43.302759,"lon":5.400793,"is_reserved":false,"is_disabled":false,"rental_uris":{"android":"levelo://app?vid=5c347167-0a25-43a4-825f-f01a6bf94d84","ios":"levelo://app?vid=5c347167-0a25-43a4-825f-f01a6bf94d84"},"vehicle_type_id":"4","last_reported":1716746953,"current_range_meters":0,"station_id":"ce4bgvh2rcd13ifvqcs0","pricing_plan_id":"cebpf4jnsgd1na2vs0mg"},{"bike_id":"c00b5999-0bf8-45f8-a93d-d714ae19d73e","system_id":"levelo_inurba_marseille","lat":43.302759,"lon":5.400793,"is_reserved":false,"is_disabled":false,"rental_uris":{"android":"levelo://app?vid=c00b5999-0bf8-45f8-a93d-d714ae19d73e","ios":"levelo://app?vid=c00b5999-0bf8-45f8-a93d-d714ae19d73e"},"vehicle_type_id":"4","last_reported":1716746953,"current_range_meters":2400,"station_id":"ce4bgvh2rcd13ifvqcs0","pricing_plan_id":"cebpf4jnsgd1na2vs0mg"},{"bike_id":"02779156-8755-43df-95cb-ff55ea577f21","system_id":"levelo_inurba_marseille","lat":43.286039,"lon":5.370679,"is_reserved":false,"is_disabled":false,"rental_uris":{"android":"levelo://app?vid=02779156-8755-43df-95cb-ff55ea577f21","ios":"levelo://app?vid=02779156-8755-43df-95cb-ff55ea577f21"},"vehicle_type_id":"4","last_reported":1716746953,"current_range_meters":12400,"station_id":"ce4bht12rcd13ifvqi60","pricing_plan_id":"cebpf4jnsgd1na2vs0mg"},{"bike_id":"e2964c9c-1c83-47e6-877a-663ec9153384","system_id":"levelo_inurba_marseille","lat":43.286064,"lon":5.370614,"is_reserved":false,"is_disabled":false,"rental_uris":{"android":"levelo://app?vid=e2964c9c-1c83-47e6-877a-663ec9153384","ios":"levelo://app?vid=e2964c9c-1c83-47e6-877a-663ec9153384"},"vehicle_type_id":"4","last_reported":1716746953,"current_range_meters":4400,"station_id":"ce4bht12rcd13ifvqi60","pricing_plan_id":"cebpf4jnsgd1na2vs0mg"},{"bike_id":"f303c853-f030-4bd3-970d-5ddefcca7e94","system_id":"levelo_inurba_marseille","lat":43.28723,"lon":5.37946,"is_reserved":false,"is_disabled":false,"rental_uris":{"android":"levelo://app?vid=f303c853-f030-4bd3-970d-5ddefcca7e94","ios":"levelo://app?vid=f303c853-f030-4bd3-970d-5ddefcca7e94"},"vehicle_type_id":"4","last_reported":1716746953,"current_range_meters":0,"station_id":"ce4bh9p2rcd13ifvqec0","pricing_plan_id":"cebpf4jnsgd1na2vs0mg"},{"bike_id":"42d6c3e2-ed9f-4e3e-baf6-d3acd40813b2","system_id":"levelo_inurba_marseille","lat":43.292245,"lon":5.393259,"is_reserved":false,"is_disabled":false,"rental_uris":{"android":"levelo://app?vid=42d6c3e2-ed9f-4e3e-baf6-d3acd40813b2","ios":"levelo://app?vid=42d6c3e2-ed9f-4e3e-baf6-d3acd40813b2"},"vehicle_type_id":"4","last_reported":1716746953,"current_range_meters":1600,"station_id":"ce4bh192rcd13ifvqdd0","pricing_plan_id":"cebpf4jnsgd1na2vs0mg"},{"bike_id":"b72ba01d-3507-4510-aace-8698c5d5625b","system_id":"levelo_inurba_marseille","lat":43.291994,"lon":5.392907,"is_reserved":false,"is_disabled":false,"rental_uris":{"android":"levelo://app?vid=b72ba01d-3507-4510-aace-8698c5d5625b","ios":"levelo://app?vid=b72ba01d-3507-4510-aace-8698c5d5625b"},"vehicle_type_id":"4","last_reported":1716746953,"current_range_meters":6800,"station_id":"ce4bh192rcd13ifvqdd0","pricing_plan_id":"cebpf4jnsgd1na2vs0mg"},{"bike_id":"07c6dc3f-3290-4bb5-980d-e8469920b78e","system_id":"levelo_inurba_marseille","lat":43.283998,"lon":5.375062,"is_reserved":false,"is_disabled":false,"rental_uris":{"android":"levelo://app?vid=07c6dc3f-3290-4bb5-980d-e8469920b78e","ios":"levelo://app?vid=07c6dc3f-3290-4bb5-980d-e8469920b78e"},"vehicle_type_id":"4","last_reported":1716746953,"current_range_meters":6000,"station_id":"ce4bh412rcd13ifvqds0","pricing_plan_id":"cebpf4jnsgd1na2vs0mg"},{"bike_id":"2af8d680-66e3-453b-80ca-77065975982c","system_id":"levelo_inurba_marseille","lat":43.284534,"lon":5.358662,"is_reserved":false,"is_disabled":false,"rental_uris":{"android":"levelo://app?vid=2af8d680-66e3-453b-80ca-77065975982c","ios":"levelo://app?vid=2af8d680-66e3-453b-80ca-77065975982c"},"vehicle_type_id":"4","last_reported":1716746953,"current_range_meters":0,"station_id":"ce4bhah2rcd13ifvqei0","pricing_plan_id":"cebpf4jnsgd1na2vs0mg"},{"bike_id":"3df3d8e4-beef-47a5-b7ba-073127860236","system_id":"levelo_inurba_marseille","lat":43.284534,"lon":5.358662,"is_reserved":false,"is_disabled":false,"rental_uris":{"android":"levelo://app?vid=3df3d8e4-beef-47a5-b7ba-073127860236","ios":"levelo://app?vid=3df3d8e4-beef-47a5-b7ba-073127860236"},"vehicle_type_id":"4","last_reported":1716746953,"current_range_meters":31200,"station_id":"ce4bhah2rcd13ifvqei0","pricing_plan_id":"cebpf4jnsgd1na2vs0mg"},{"bike_id":"7e98c491-93e9-4416-a741-b764342f10a8","system_id":"levelo_inurba_marseille","lat":43.284538,"lon":5.358657,"is_reserved":false,"is_disabled":false,"rental_uris":{"android":"levelo://app?vid=7e98c491-93e9-4416-a741-b764342f10a8","ios":"levelo://app?vid=7e98c491-93e9-4416-a741-b764342f10a8"},"vehicle_type_id":"4","last_reported":1716746953,"current_range_meters":5200,"station_id":"ce4bhah2rcd13ifvqei0","pricing_plan_id":"cebpf4jnsgd1na2vs0mg"},{"bike_id":"392f5ee4-015a-4997-9b11-2d731cf1a61e","system_id":"levelo_inurba_marseille","lat":43.284538,"lon":5.358657,"is_reserved":false,"is_disabled":false,"rental_uris":{"android":"levelo://app?vid=392f5ee4-015a-4997-9b11-2d731cf1a61e","ios":"levelo://app?vid=392f5ee4-015a-4997-9b11-2d731cf1a61e"},"vehicle_type_id":"4","last_reported":1716746953,"current_range_meters":25200,"station_id":"ce4bhah2rcd13ifvqei0","pricing_plan_id":"cebpf4jnsgd1na2vs0mg"},{"bike_id":"02dcec34-8460-4c3e-94aa-125698e7820f","system_id":"levelo_inurba_marseille","lat":43.284534,"lon":5.358662,"is_reserved":false,"is_disabled":false,"rental_uris":{"android":"levelo://app?vid=02dcec34-8460-4c3e-94aa-125698e7820f","ios":"levelo://app?vid=02dcec34-8460-4c3e-94aa-125698e7820f"},"vehicle_type_id":"4","last_reported":1716746953,"current_range_meters":7200,"station_id":"ce4bhah2rcd13ifvqei0","pricing_plan_id":"cebpf4jnsgd1na2vs0mg"},{"bike_id":"6ee40480-5bc6-4254-bdf7-ea26eb465c39","system_id":"levelo_inurba_marseille","lat":43.294314,"lon":5.397498,"is_reserved":false,"is_disabled":false,"rental_uris":{"android":"levelo://app?vid=6ee40480-5bc6-4254-bdf7-ea26eb465c39","ios":"levelo://app?vid=6ee40480-5bc6-4254-bdf7-ea26eb465c39"},"vehicle_type_id":"4","last_reported":1716746953,"current_range_meters":19200,"station_id":"ce4bh3h2rcd13ifvqdo0","pricing_plan_id":"cebpf4jnsgd1na2vs0mg"},{"bike_id":"460fdd97-38ea-48cc-a4ec-bafbaff347fd","system_id":"levelo_inurba_marseille","lat":43.284538,"lon":5.358657,"is_reserved":false,"is_disabled":false,"rental_uris":{"android":"levelo://app?vid=460fdd97-38ea-48cc-a4ec-bafbaff347fd","ios":"levelo://app?vid=460fdd97-38ea-48cc-a4ec-bafbaff347fd"},"vehicle_type_id":"4","last_reported":1716746953,"current_range_meters":14400,"station_id":"ce4bhah2rcd13ifvqei0","pricing_plan_id":"cebpf4jnsgd1na2vs0mg"},{"bike_id":"07dc0c66-dd0e-4e5e-9a4b-df3d0240085e","system_id":"levelo_inurba_marseille","lat":43.294314,"lon":5.397498,"is_reserved":false,"is_disabled":false,"rental_uris":{"android":"levelo://app?vid=07dc0c66-dd0e-4e5e-9a4b-df3d0240085e","ios":"levelo://app?vid=07dc0c66-dd0e-4e5e-9a4b-df3d0240085e"},"vehicle_type_id":"4","last_reported":1716746953,"current_range_meters":20000,"station_id":"ce4bh3h2rcd13ifvqdo0","pricing_plan_id":"cebpf4jnsgd1na2vs0mg"},{"bike_id":"8a16ae31-9863-45ad-9f0d-3b94bc80a8f4","system_id":"levelo_inurba_marseille","lat":43.294162,"lon":5.386292,"is_reserved":false,"is_disabled":false,"rental_uris":{"android":"levelo://app?vid=8a16ae31-9863-45ad-9f0d-3b94bc80a8f4","ios":"levelo://app?vid=8a16ae31-9863-45ad-9f0d-3b94bc80a8f4"},"vehicle_type_id":"4","last_reported":1716746953,"current_range_meters":800,"station_id":"ce4bh2h2rcd13ifvqdh0","pricing_plan_id":"cebpf4jnsgd1na2vs0mg"},{"bike_id":"c7441e47-b932-4a78-bef6-e757c28d7a41","system_id":"levelo_inurba_marseille","lat":43.294314,"lon":5.397498,"is_reserved":false,"is_disabled":false,"rental_uris":{"android":"levelo://app?vid=c7441e47-b932-4a78-bef6-e757c28d7a41","ios":"levelo://app?vid=c7441e47-b932-4a78-bef6-e757c28d7a41"},"vehicle_type_id":"4","last_reported":1716746953,"current_range_meters":7600,"station_id":"ce4bh3h2rcd13ifvqdo0","pricing_plan_id":"cebpf4jnsgd1na2vs0mg"},{"bike_id":"fccc4f54-9243-44e9-8965-f31072501ca1","system_id":"levelo_inurba_marseille","lat":43.29984,"lon":5.40274,"is_reserved":false,"is_disabled":false,"rental_uris":{"android":"levelo://app?vid=fccc4f54-9243-44e9-8965-f31072501ca1","ios":"levelo://app?vid=fccc4f54-9243-44e9-8965-f31072501ca1"},"vehicle_type_id":"4","last_reported":1716746953,"current_range_meters":18000,"station_id":"","pricing_plan_id":"cebpf4jnsgd1na2vs0mg"},{"bike_id":"660f09cf-52f4-4063-b765-ab78c2b7336f","system_id":"levelo_inurba_marseille","lat":43.29955,"lon":5.40261,"is_reserved":false,"is_disabled":false,"rental_uris":{"android":"levelo://app?vid=660f09cf-52f4-4063-b765-ab78c2b7336f","ios":"levelo://app?vid=660f09cf-52f4-4063-b765-ab78c2b7336f"},"vehicle_type_id":"4","last_reported":1716746953,"current_range_meters":18000,"station_id":"","pricing_plan_id":"cebpf4jnsgd1na2vs0mg"},{"bike_id":"993c166b-4524-45de-95c3-ddeb5e3a3556","system_id":"levelo_inurba_marseille","lat":43.295713,"lon":5.399639,"is_reserved":false,"is_disabled":false,"rental_uris":{"android":"levelo://app?vid=993c166b-4524-45de-95c3-ddeb5e3a3556","ios":"levelo://app?vid=993c166b-4524-45de-95c3-ddeb5e3a3556"},"vehicle_type_id":"4","last_reported":1716746953,"current_range_meters":0,"station_id":"ce4bh312rcd13ifvqdj0","pricing_plan_id":"cebpf4jnsgd1na2vs0mg"},{"bike_id":"fc196f63-c806-4d8d-ba0b-5c8da1cb1b72","system_id":"levelo_inurba_marseille","lat":43.295713,"lon":5.399639,"is_reserved":false,"is_disabled":false,"rental_uris":{"android":"levelo://app?vid=fc196f63-c806-4d8d-ba0b-5c8da1cb1b72","ios":"levelo://app?vid=fc196f63-c806-4d8d-ba0b-5c8da1cb1b72"},"vehicle_type_id":"4","last_reported":1716746953,"current_range_meters":2800,"station_id":"ce4bh312rcd13ifvqdj0","pricing_plan_id":"cebpf4jnsgd1na2vs0mg"},