{"last_updated":1686906417,"ttl":30,"version":"2.2","data":{"bikes":[{"bike_id":"c0063af3-0c66-4cd4-8969-538ec722ba52","system_id":"levelo_inurba_marseille","lat":43.313391,"lon":5.36706,"is_reserved":false,"is_disabled":false,"rental_uris":{"android":"levelo://app?vid=c0063af3-0c66-4cd4-8969-538ec722ba52","ios":"levelo://app?vid=c0063af3-0c66-4cd4-8969-538ec722ba52"},"vehicle_type_id":"4","last_reported":1686906418,"current_range_meters":20400,"station_id":"ce4bgr92rcd13ifvqc6g","pricing_plan_id":"free"},{"bike_id":"536a9628-d438-4692-baf6-7fe8c17b1dbf","system_id":"levelo_inurba_marseille","lat":43.313391,"lon":5.36706,"is_reserved":false,"is_disabled":false,"rental_uris":{"android":"levelo://app?vid=536a9628-d438-4692-baf6-7fe8c17b1dbf","ios":"levelo://app?vid=536a9628-d438-4692-baf6-7fe8c17b1dbf"},"vehicle_type_id":"4","last_reported":1686906418,"current_range_meters":31200,"station_id":"ce4bgr92rcd13ifvqc6g","pricing_plan_id":"free"},{"bike_id":"0c3cce94-a1f3-425e-8391-c9680703c2c6","system_id":"levelo_inurba_marseille","lat":43.313391,"lon":5.36706,"is_reserved":false,"is_disabled":false,"rental_uris":{"android":"levelo://app?vid=0c3cce94-a1f3-425e-8391-c9680703c2c6","ios":"levelo://app?vid=0c3cce94-a1f3-425e-8391-c9680703c2c6"},"vehicle_type_id":"4","last_reported":1686906418,"current_range_meters":15600,"station_id":"ce4bgr92rcd13ifvqc6g","pricing_plan_id":"free"},{"bike_id":"526dc4d3-96b8-4db0-af9f-6a3fefddbafe","system_id":"levelo_inurba_marseille","lat":43.313391,"lon":5.36706,"is_reserved":false,"is_disabled":false,"rental_uris":{"android":"levelo://app?vid=526dc4d3-96b8-4db0-af9f-6a3fefddbafe","ios":"levelo://app?vid=526dc4d3-96b8-4db0-af9f-6a3fefddbafe"},"vehicle_type_id":"4","last_reported":1686906418,"current_range_meters":28000,"station_id":"ce4bgr92rcd13ifvqc6g","pricing_plan_id":"free"},{"bike_id":"b3d46a5c-ae8f-4378-b04f-544915f5eba6","system_id":"levelo_inurba_marseille","lat":43.313391,"lon":5.36706,"is_reserved":false,"is_disabled":false,"rental_uris":{"android":"levelo://app?vid=b3d46a5c-ae8f-4378-b04f-544915f5eba6","ios":"levelo://app?vid=b3d46a5c-ae8f-4378-b04f-544915f5eba6"},"vehicle_type_id":"4","last_reported":1686906418,"current_range_meters":25200,"station_id":"ce4bgr92rcd13ifvqc6g","pricing_plan_id":"free"},{"bike_id":"8a7633d8-1414-4af6-ac7c-539ebd393fd3","system_id":"levelo_inurba_marseille","lat":43.313391,"lon":5.36706,"is_reserved":false,"is_disabled":false,"rental_uris":{"android":"levelo://app?vid=8a7633d8-1414-4af6-ac7c-539ebd393fd3","ios":"levelo://app?vid=8a7633d8-1414-4af6-ac7c-539ebd393fd3"},"vehicle_type_id":"4","last_reported":1686906418,"current_range_meters":26400,"station_id":"ce4bgr92rcd13ifvqc6g","pricing_plan_id":"free"},{"bike_id":"b9fe96cc-be72-40ee-b60b-6e4a315c5c27","system_id":"levelo_inurba_marseille","lat":43.313391,"lon":5.36706,"is_reserved":false,"is_disabled":false,"rental_uris":{"android":"levelo://app?vid=b9fe96cc-be72-40ee-b60b-6e4a315c5c27","ios":"levelo://app?vid=b9fe96cc-be72-40ee-b60b-6e4a315c5c27"},"vehicle_type_id":"4","last_reported":1686906418,"current_range_meters":8000,"station_id":"ce4bgr92rcd13ifvqc6g","pricing_plan_id":"free"},{"bike_id":"56127677-2690-4475-b7e4-5752c641d16a","system_id":"levelo_inurba_marseille","lat":43.309076,"lon":5.368465,"is_reserved":false,"is_disabled":false,"rental_uris":{"android":"levelo://app?vid=56127677-2690-4475-b7e4-5752c641d16a","ios":"levelo://app?vid=56127677-2690-4475-b7e4-5752c641d16a"},"vehicle_type_id":"4","last_reported":1686906418,"current_range_meters":31200,"station_id":"ce4bgn92rcd13ifvqbvg","pricing_plan_id":"free"},{"bike_id":"b176e88c-f107-436e-bce0-ec3563b3edc3","system_id":"levelo_inurba_marseille","lat":43.309076,"lon":5.368465,"is_reserved":false,"is_disabled":false,"rental_uris":{"android":"levelo://app?vid=b176e88c-f107-436e-bce0-ec3563b3edc3","ios":"levelo://app?vid=b176e88c-f107-436e-bce0-ec3563b3edc3"},"vehicle_type_id":"4","last_reported":1686906418,"current_range_meters":30000,"station_id":"ce4bgn92rcd13ifvqbvg","pricing_plan_id":"free"},{"bike_id":"0caf4270-cf28-4834-8b0f-15acacedab09","system_id":"levelo_inurba_marseille","lat":43.309076,"lon":5.368465,"is_reserved":false,"is_disabled":false,"rental_uris":{"android":"levelo://app?vid=0caf4270-cf28-4834-8b0f-15acacedab09","ios":"levelo://app?vid=0caf4270-cf28-4834-8b0f-15acacedab09"},"vehicle_type_id":"4","last_reported":1686906418,"current_range_meters":31200,"station_id":"ce4bgn92rcd13ifvqbvg","pricing_plan_id":"free"},{"bike_id":"f5e76a46-61a4-40dd-9746-a095b1bcaa3e","system_id":"levelo_inurba_marseille","lat":43.309076,"lon":5.368465,"is_reserved":false,"is_disabled":false,"rental_uris":{"android":"levelo://app?vid=f5e76a46-61a4-40dd-9746-a095b1bcaa3e","ios":"levelo://app?vid=f5e76a46-61a4-40dd-9746-a095b1bcaa3e"},"vehicle_type_id":"4","last_reported":1686906418,"current_range_meters":23200,"station_id":"ce4bgn92rcd13ifvqbvg","pricing_plan_id":"free"},{"bike_id":"8de56843-9239-438c-883f-3cb0defe5fca","system_id":"levelo_inurba_marseille","lat":43.309076,"lon":5.368465,"is_reserved":false,"is_disabled":false,"rental_uris":{"android":"levelo://app?vid=8de56843-9239-438c-883f-3cb0defe5fca","ios":"levelo://app?vid=8de56843-9239-438c-883f-3cb0defe5fca"},"vehicle_type_id":"4","last_reported":1686906418,"current_range_meters":27600,"station_id":"ce4bgn92rcd13ifvqbvg","pricing_plan_id":"free"},{"bike_id":"cb1a65d2-e534-4b9b-9b05-bd8fa0f8a76d","system_id":"levelo_inurba_marseille","lat":43.30914,"lon":5.36849,"is_reserved":false,"is_disabled":false,"rental_uris":{"android":"levelo://app?vid=cb1a65d2-e534-4b9b-9b05-bd8fa0f8a76d","ios":"levelo://app?vid=cb1a65d2-e534-4b9b-9b05-bd8fa0f8a76d"},"vehicle_type_id":"4","last_reported":1686906418,"current_range_meters":13200,"station_id":"ce4bgn92rcd13ifvqbvg","pricing_plan_id":"free"},{"bike_id":"9a68d88d-a0d0-4bbc-b1a3-8f0249175e95","system_id":"levelo_inurba_marseille","lat":43.309076,"lon":5.368465,"is_reserved":false,"is_disabled":false,"rental_uris":{"android":"levelo://app?vid=9a68d88d-a0d0-4bbc-b1a3-8f0249175e95","ios":"levelo://app?vid=9a68d88d-a0d0-4bbc-b1a3-8f0249175e95"},"vehicle_type_id":"4","last_reported":1686906418,"current_range_meters":11200,"station_id":"ce4bgn92rcd13ifvqbvg","pricing_plan_id":"free"},{"bike_id":"cd4802ca-6c4e-4c55-b1dc-c1b0106790be","system_id":"levelo_inurba_marseille","lat":43.309076,"lon":5.368465,"is_reserved":false,"is_disabled":false,"rental_uris":{"android":"levelo://app?vid=cd4802ca-6c4e-4c55-b1dc-c1b0106790be","ios":"levelo://app?vid=cd4802ca-6c4e-4c55-b1dc-c1b0106790be"},"vehicle_type_id":"4","last_reported":1686906418,"current_range_meters":28000,"station_id":"ce4bgn92rcd13ifvqbvg","pricing_plan_id":"free"},{"bike_id":"f4359069-d719-46f0-887d-784661dd502e","system_id":"levelo_inurba_marseille","lat":43.309076,"lon":5.368465,"is_reserved":false,"is_disabled":false,"rental_uris":{"android":"levelo://app?vid=f4359069-d719-46f0-887d-784661dd502e","ios":"levelo://app?vid=f4359069-d719-46f0-887d-784661dd502e"},"vehicle_type_id":"4","last_reported":1686906418,"current_range_meters":31200,"station_id":"ce4bgn92rcd13ifvqbvg","pricing_plan_id":"free"},{"bike_id":"1f59340d-09ab-438d-b398-580c234942b9","system_id":"levelo_inurba_marseille","lat":43.309076,"lon":5.368465,"is_reserved":false,"is_disabled":false,"rental_uris":{"android":"levelo://app?vid=1f59340d-09ab-438d-b398-580c234942b9","ios":"levelo://app?vid=1f59340d-09ab-438d-b398-580c234942b9"},"vehicle_type_id":"4","last_reported":1686906418,"current_range_meters":29200,"station_id":"ce4bgn92rcd13ifvqbvg","pricing_plan_id":"free"},{"bike_id":"74bb7ab0-08c3-4abb-b457-d897d9e95962","system_id":"levelo_inurba_marseille","lat":43.309076,"lon":5.368465,"is_reserved":false,"is_disabled":false,"rental_uris":{"android":"levelo://app?vid=74bb7ab0-08c3-4abb-b457-d897d9e95962","ios":"levelo://app?vid=74bb7ab0-08c3-4abb-b457-d897d9e95962"},"vehicle_type_id":"4","last_reported":1686906418,"current_range_meters":29200,"station_id":"ce4bgn92rcd13ifvqbvg","pricing_plan_id":"free"},{"bike_id":"9ec1fe9e-8419-48f3-8646-0defd161377d","system_id":"levelo_inurba_marseille","lat":43.309076,"lon":5.368465,"is_reserved":false,"is_disabled":false,"rental_uris":{"android":"levelo://app?vid=9ec1fe9e-8419-48f3-8646-0defd161377d","ios":"levelo://app?vid=9ec1fe9e-8419-48f3-8646-0defd161377d"},"vehicle_type_id":"4","last_reported":1686906418,"current_range_meters":13600,"station_id":"ce4bgn92rcd13ifvqbvg","pricing_plan_id":"free"},{"bike_id":"6d61b43d-ab24-443f-9c22-f7ec6fc6ef0c","system_id":"levelo_inurba_marseille","lat":43.309076,"lon":5.368465,"is_reserved":false,"is_disabled":false,"rental_uris":{"android":"levelo://app?vid=6d61b43d-ab24-443f-9c22-f7ec6fc6ef0c","ios":"levelo://app?vid=6d61b43d-ab24-443f-9c22-f7ec6fc6ef0c"},"vehicle_type_id":"4","last_reported":1686906418,"current_range_meters":31200,"station_id":"ce4bgn92rcd13ifvqbvg","pricing_plan_id":"free"},{"bike_id":"1e83135a-89aa-4260-b4ac-a182c1e9a906","system_id":"levelo_inurba_marseille","lat":43.314811,"lon":5.373103,"is_reserved":false,"is_disabled":false,"rental_uris":{"android":"levelo://app?vid=1e83135a-89aa-4260-b4ac-a182c1e9a906","ios":"levelo://app?vid=1e83135a-89aa-4260-b4ac-a182c1e9a906"},"vehicle_type_id":"4","last_reported":1686906418,"current_range_meters":29600,"station_id":"ce4bgt12rcd13ifvqcd0","pricing_plan_id":"free"},{"bike_id":"310a82ca-04a4-45b9-bfb0-120b23ba1ea4","system_id":"levelo_inurba_marseille","lat":43.314811,"lon":5.373103,"is_reserved":false,"is_disabled":false,"rental_uris":{"android":"levelo://app?vid=310a82ca-04a4-45b9-bfb0-120b23ba1ea4","ios":"levelo://app?vid=310a82ca-04a4-45b9-bfb0-120b23ba1ea4"},"vehicle_type_id":"4","last_reported":1686906418,"current_range_meters":31200,"station_id":"ce4bgt12rcd13ifvqcd0","pricing_plan_id":"free"},{"bike_id":"35dfac89-b805-42ec-9d0f-6846ec2d45f7","system_id":"levelo_inurba_marseille","lat":43.314811,"lon":5.373104,"is_reserved":false,"is_disabled":false,"rental_uris":{"android":"levelo://app?vid=35dfac89-b805-42ec-9d0f-6846ec2d45f7","ios":"levelo://app?vid=35dfac89-b805-42ec-9d0f-6846ec2d45f7"},"vehicle_type_id":"4","last_reported":1686906418,"current_range_meters":31200,"station_id":"ce4bgt12rcd13ifvqcd0","pricing_plan_id":"free"},{"bike_id":"828a5f3c-2d69-4c5b-a1d8-c39f81aedfec","system_id":"levelo_inurba_marseille","lat":43.314811,"lon":5.373103,"is_reserved":false,"is_disabled":false,"rental_uris":{"android":"levelo://app?vid=828a5f3c-2d69-4c5b-a1d8-c39f81aedfec","ios":"levelo://app?vid=828a5f3c-2d69-4c5b-a1d8-c39f81aedfec"},"vehicle_type_id":"4","last_reported":1686906418,"current_range_meters":19200,"station_id":"ce4bgt12rcd13ifvqcd0","pricing_plan_id":"free"},{"bike_id":"cb1836ec-6159-41e7-84db-5c244ec132cd","system_id":"levelo_inurba_marseille","lat":43.314811,"lon":5.373104,"is_reserved":false,"is_disabled":false,"rental_uris":{"android":"levelo://app?vid=cb1836ec-6159-41e7-84db-5c244ec132cd","ios":"levelo://app?vid=cb1836ec-6159-41e7-84db-5c244ec132cd"},"vehicle_type_id":"4","last_reported":1686906418,"current_range_meters":28800,"station_id":"ce4bgt12rcd13ifvqcd0","pricing_plan_id":"free"},{"bike_id":"8f036ee5-baf6-4de9-87d3-cc35c3968733","system_id":"levelo_inurba_marseille","lat":43.31505,"lon":5.37302,"is_reserved":false,"is_disabled":false,"rental_uris":{"android":"levelo://app?vid=8f036ee5-baf6-4de9-87d3-cc35c3968733","ios":"levelo://app?vid=8f036ee5-baf6-4de9-87d3-cc35c3968733"},"vehicle_type_id":"4","last_reported":1686906418,"current_range_meters":18800,"station_id":"","pricing_plan_id":"free"},{"bike_id":"f15b773d-7d63-4b54-97ee-3baa7052a888","system_id":"levelo_inurba_marseille","lat":43.308614,"lon":5.372098,"is_reserved":false,"is_disabled":false,"rental_uris":{"android":"levelo://app?vid=f15b773d-7d63-4b54-97ee-3baa7052a888","ios":"levelo://app?vid=f15b773d-7d63-4b54-97ee-3baa7052a888"},"vehicle_type_id":"4","last_reported":1686906418,"current_range_meters":10000,"station_id":"ce4bguh2rcd13ifvqckg","pricing_plan_id":"free"},{"bike_id":"81fc00c2-2cab-4b20-9c27-d3a0b0524bd8","system_id":"levelo_inurba_marseille","lat":43.308606,"lon":5.372099,"is_reserved":false,"is_disabled":false,"rental_uris":{"android":"levelo://app?vid=81fc00c2-2cab-4b20-9c27-d3a0b0524bd8","ios":"levelo://app?vid=81fc00c2-2cab-4b20-9c27-d3a0b0524bd8"},"vehicle_type_id":"4","last_reported":1686906418,"current_range_meters":29200,"station_id":"ce4bguh2rcd13ifvqckg","pricing_plan_id":"free"},{"bike_id":"324c485c-0052-46e3-9f1b-c9c094aae462","system_id":"levelo_inurba_marseille","lat":43.308614,"lon":5.372098,"is_reserved":false,"is_disabled":false,"rental_uris":{"android":"levelo://app?vid=324c485c-0052-46e3-9f1b-c9c094aae462","ios":"levelo://app?vid=324c485c-0052-46e3-9f1b-c9c094aae462"},"vehicle_type_id":"4","last_reported":1686906418,"current_range_meters":21200,"station_id":"ce4bguh2rcd13ifvqckg","pricing_plan_id":"free"},{"bike_id":"60561c28-e58c-4247-8f31-edbee928e50a","system_id":"levelo_inurba_marseille","lat":43.308614,"lon":5.372098,"is_reserved":false,"is_disabled":false,"rental_uris":{"android":"levelo://app?vid=60561c28-e58c-4247-8f31-edbee928e50a","ios":"levelo://app?vid=60561c28-e58c-4247-8f31-edbee928e50a"},"vehicle_type_id":"4","last_reported":1686906418,"current_range_meters":22400,"station_id":"ce4bguh2rcd13ifvqckg","pricing_plan_id":"free"},{"bike_id":"77b0b696-5d6c-43a6-bbca-d9fb64c3d22a","system_id":"levelo_inurba_marseille","lat":43.305368,"lon":5.367343,"is_reserved":false,"is_disabled":false,"rental_uris":{"android":"levelo://app?vid=77b0b696-5d6c-43a6-bbca-d9fb64c3d22a","ios":"levelo://app?vid=77b0b696-5d6c-43a6-bbca-d9fb64c3d22a"},"vehicle_type_id":"4","last_reported":1686906418,"current_range_meters":23600,"station_id":"ce4bgrp2rcd13ifvqc9g","pricing_plan_id":"free"},{"bike_id":"93e5e599-acc8-46f5-8430-2a49105f115c","system_id":"levelo_inurba_marseille","lat":43.305368,"lon":5.367343,"is_reserved":false,"is_disabled":false,"rental_uris":{"android":"levelo://app?vid=93e5e599-acc8-46f5-8430-2a49105f115c","ios":"levelo://app?vid=93e5e599-acc8-46f5-8430-2a49105f115c"},"vehicle_type_id":"4","last_reported":1686906418,"current_range_meters":14800,"station_id":"ce4bgrp2rcd13ifvqc9g","pricing_plan_id":"free"},{"bike_id":"66e79245-8e79-4729-8603-815aee6def77","system_id":"levelo_inurba_marseille","lat":43.305706,"lon":5.365654,"is_reserved":false,"is_disabled":false,"rental_uris":{"android":"levelo://app?vid=66e79245-8e79-4729-8603-815aee6def77","ios":"levelo://app?vid=66e79245-8e79-4729-8603-815aee6def77"},"vehicle_type_id":"4","last_reported":1686906418,"current_range_meters":18800,"station_id":"ce4bgs12rcd13ifvqcag","pricing_plan_id":"free"},{"bike_id":"950b40ad-8595-410a-973c-70b68749d5c1","system_id":"levelo_inurba_marseille","lat":43.305368,"lon":5.367343,"is_reserved":false,"is_disabled":false,"rental_uris":{"android":"levelo://app?vid=950b40ad-8595-410a-973c-70b68749d5c1","ios":"levelo://app?vid=950b40ad-8595-410a-973c-70b68749d5c1"},"vehicle_type_id":"4","last_reported":1686906418,"current_range_meters":15600,"station_id":"ce4bgrp2rcd13ifvqc9g","pricing_plan_id":"free"},{"bike_id":"17e5eeed-f746-4fe8-8add-3d6caaa1f3ef","system_id":"levelo_inurba_marseille","lat":43.305706,"lon":5.365654,"is_reserved":false,"is_disabled":false,"rental_uris":{"android":"levelo://app?vid=17e5eeed-f746-4fe8-8add-3d6caaa1f3ef","ios":"levelo://app?vid=17e5eeed-f746-4fe8-8add-3d6caaa1f3ef"},"vehicle_type_id":"4","last_reported":1686906418,"current_range_meters":20000,"station_id":"ce4bgs12rcd13ifvqcag","pricing_plan_id":"free"},{"bike_id":"0813b545-816a-4726-b301-c8cd7a0a0e09","system_id":"levelo_inurba_marseille","lat":43.305706,"lon":5.365654,"is_reserved":false,"is_disabled":false,"rental_uris":{"android":"levelo://app?vid=0813b545-816a-4726-b301-c8cd7a0a0e09","ios":"levelo://app?vid=0813b545-816a-4726-b301-c8cd7a0a0e09"},"vehicle_type_id":"4","last_reported":1686906418,"current_range_meters":21600,"station_id":"ce4bgs12rcd13ifvqcag","pricing_plan_id":"free"},{"bike_id":"2583c68a-5f87-4971-ac30-c7a46e51a66c","system_id":"levelo_inurba_marseille","lat":43.305706,"lon":5.365654,"is_reserved":false,"is_disabled":false,"rental_uris":{"android":"levelo://app?vid=2583c68a-5f87-4971-ac30-c7a46e51a66c","ios":"levelo://app?vid=2583c68a-5f87-4971-ac30-c7a46e51a66c"},"vehicle_type_id":"4","last_reported":1686906418,"current_range_meters":7600,"station_id":"ce4bgs12rcd13ifvqcag","pricing_plan_id":"free"},{"bike_id":"8c065a6b-8a25-4bde-a564-a70ae78c83ca","system_id":"levelo_inurba_marseille","lat":43.305989,"lon":5.37225,"is_reserved":false,"is_disabled":false,"rental_uris":{"android":"levelo://app?vid=8c065a6b-8a25-4bde-a564-a70ae78c83ca","ios":"levelo://app?vid=8c065a6b-8a25-4bde-a564-a70ae78c83ca"},"vehicle_type_id":"4","last_reported":1686906418,"current_range_meters":2400,"station_id":"ce4bgqh2rcd13ifvqc4g","pricing_plan_id":"free"},{"bike_id":"2f91b67e-3cb4-4a8b-afb4-52d842b3684a","system_id":"levelo_inurba_marseille","lat":43.305989,"lon":5.37225,"is_reserved":false,"is_disabled":false,"rental_uris":{"android":"levelo://app?vid=2f91b67e-3cb4-4a8b-afb4-52d842b3684a","ios":"levelo://app?vid=2f91b67e-3cb4-4a8b-afb4-52d842b3684a"},"vehicle_type_id":"4","last_reported":1686906418,"current_range_meters":12800,"station_id":"ce4bgqh2rcd13ifvqc4g","pricing_plan_id":"free"},{"bike_id":"4d3fb41b-051b-4c4e-b0c1-2b092448da46","system_id":"levelo_inurba_marseille","lat":43.317075,"lon":5.377367,"is_reserved":false,"is_disabled":false,"rental_uris":{"android":"levelo://app?vid=4d3fb41b-051b-4c4e-b0c1-2b092448da46","ios":"levelo://app?vid=4d3fb41b-051b-4c4e-b0c1-2b092448da46"},"vehicle_type_id":"4","last_reported":1686906418,"current_range_meters":25200,"station_id":"ce4bgth2rcd13ifvqch0","pricing_plan_id":"free"},{"bike_id":"2424216c-0462-4ad0-b127-d0366c91b61c","system_id":"levelo_inurba_marseille","lat":43.317075,"lon":5.377367,"is_reserved":false,"is_disabled":false,"rental_uris":{"android":"levelo://app?vid=2424216c-0462-4ad0-b127-d0366c91b61c","ios":"levelo://app?vid=2424216c-0462-4ad0-b127-d0366c91b61c"},"vehicle_type_id":"4","last_reported":1686906418,"current_range_meters":31200,"station_id":"ce4bgth2rcd13ifvqch0","pricing_plan_id":"free"},{"bike_id":"29c4247c-46fb-4fff-abb3-ae0c58e61662","system_id":"levelo_inurba_marseille","lat":43.303046,"lon":5.368981,"is_reserved":false,"is_disabled":false,"rental_uris":{"android":"levelo://app?vid=29c4247c-46fb-4fff-abb3-ae0c58e61662","ios":"levelo://app?vid=29c4247c-46fb-4fff-abb3-ae0c58e61662"},"vehicle_type_id":"4","last_reported":1686906418,"current_range_meters":9200,"station_id":"ce4bgqh2rcd13ifvqc5g","pricing_plan_id":"free"},{"bike_id":"978b941c-c21b-4780-8ea8-aed08f2e09a3","system_id":"levelo_inurba_marseille","lat":43.3153,"lon":5.38017,"is_reserved":false,"is_disabled":false,"rental_uris":{"android":"levelo://app?vid=978b941c-c21b-4780-8ea8-aed08f2e09a3","ios":"levelo://app?vid=978b941c-c21b-4780-8ea8-aed08f2e09a3"},"vehicle_type_id":"4","last_reported":1686906418,"current_range_meters":14000,"station_id":"ce4bhsp2rcd13ifvqi50","pricing_plan_id":"free"},{"bike_id":"78a49236-ae39-44a1-94a5-dd38bad396c2","system_id":"levelo_inurba_marseille","lat":43.315289,"lon":5.380349,"is_reserved":false,"is_disabled":false,"rental_uris":{"android":"levelo://app?vid=78a49236-ae39-44a1-94a5-dd38bad396c2","ios":"levelo://app?vid=78a49236-ae39-44a1-94a5-dd38bad396c2"},"vehicle_type_id":"4","last_reported":1686906418,"current_range_meters":15600,"station_id":"ce4bhsp2rcd13ifvqi50","pricing_plan_id":"free"},{"bike_id":"27a10764-5bf4-412c-949c-79f806a5a0ca","system_id":"levelo_inurba_marseille","lat":43.30194,"lon":5.36623,"is_reserved":false,"is_disabled":false,"rental_uris":{"android":"levelo://app?vid=27a10764-5bf4-412c-949c-79f806a5a0ca","ios":"levelo://app?vid=27a10764-5bf4-412c-949c-79f806a5a0ca"},"vehicle_type_id":"4","last_reported":1686906418,"current_range_meters":14400,"station_id":"ce4bgrh2rcd13ifvqc8g","pricing_plan_id":"free"},{"bike_id":"c635669e-8ba6-4361-951f-aa7a7d123ca1","system_id":"levelo_inurba_marseille","lat":43.301939,"lon":5.366286,"is_reserved":false,"is_disabled":false,"rental_uris":{"android":"levelo://app?vid=c635669e-8ba6-4361-951f-aa7a7d123ca1","ios":"levelo://app?vid=c635669e-8ba6-4361-951f-aa7a7d123ca1"},"vehicle_type_id":"4","last_reported":1686906418,"current_range_meters":29600,"station_id":"ce4bgrh2rcd13ifvqc8g","pricing_plan_id":"free"},{"bike_id":"bd2bf818-3004-4483-bea2-5dd0540f19bc","system_id":"levelo_inurba_marseille","lat":43.30186,"lon":5.36607,"is_reserved":false,"is_disabled":false,"rental_uris":{"android":"levelo://app?vid=bd2bf818-3004-4483-bea2-5dd0540f19bc","ios":"levelo://app?vid=bd2bf818-3004-4483-bea2-5dd0540f19bc"},"vehicle_type_id":"4","last_reported":1686906418,"current_range_meters":26400,"station_id":"ce4bgrh2rcd13ifvqc8g","pricing_plan_id":"free"},{"bike_id":"ae33307b-fcd5-479b-9ae1-9002ed226c6e","system_id":"levelo_inurba_marseille","lat":43.308012,"lon":5.381511,"is_reserved":false,"is_disabled":false,"rental_uris":{"android":"levelo://app?vid=ae33307b-fcd5-479b-9ae1-9002ed226c6e","ios":"levelo://app?vid=ae33307b-fcd5-479b-9ae1-9002ed226c6e"},"vehicle_type_id":"4","last_reported":1686906418,"current_range_meters":16000,"station_id":"ce4bgt12rcd13ifvqce0","pricing_plan_id":"free"},{"bike_id":"d30db590-863e-47c2-b1fe-b943b6105641","system_id":"levelo_inurba_marseille","lat":43.30473,"lon":5.37884,"is_reserved":false,"is_disabled":false,"rental_uris":{"android":"levelo://app?vid=d30db590-863e-47c2-b1fe-b943b6105641","ios":"levelo://app?vid=d30db590-863e-47c2-b1fe-b943b6105641"},"vehicle_type_id":"4","last_reported":1686906418,"current_range_meters":8400,"station_id":"ce4bgup2rcd13ifvqcn0","pricing_plan_id":"free"},{"bike_id":"34429afd-bad4-4a23-a75c-13e1aac1ae52","system_id":"levelo_inurba_marseille","lat":43.304606,"lon":5.379026,"is_reserved":false,"is_disabled":false,"rental_uris":{"android":"levelo://app?vid=34429afd-bad4-4a23-a75c-13e1aac1ae52","ios":"levelo://app?vid=34429afd-bad4-4a23-a75c-13e1aac1ae52"},"vehicle_type_id":"4","last_reported":1686906418,"current_range_meters":29200,"station_id":"ce4bgup2rcd13ifvqcn0","pricing_plan_id":"free"},{"bike_id":"7ee1b6bd-d1e5-43c9-b289-bf39528031e3","system_id":"levelo_inurba_marseille","lat":43.304606,"lon":5.379026,"is_reserved":false,"is_disabled":false,"rental_uris":{"android":"levelo://app?vid=7ee1b6bd-d1e5-43c9-b289-bf39528031e3","ios":"levelo://app?vid=7ee1b6bd-d1e5-43c9-b289-bf39528031e3"},"vehicle_type_id":"4","last_reported":1686906418,"current_range_meters":30800,"station_id":"ce4bgup2rcd13ifvqcn0","pricing_plan_id":"free"},{"bike_id":"32827146-2d6b-4fb1-b00e-6b2f535ca544","system_id":"levelo_inurba_marseille","lat":43.304606,"lon":5.379026,"is_reserved":false,"is_disabled":false,"rental_uris":{"android":"levelo://app?vid=32827146-2d6b-4fb1-b00e-6b2f535ca544","ios":"levelo://app?vid=32827146-2d6b-4fb1-b00e-6b2f535ca544"},"vehicle_type_id":"4","last_reported":1686906418,"current_range_meters":31200,"station_id":"ce4bgup2rcd13ifvqcn0","pricing_plan_id":"free"},{"bike_id":"0d90b0d8-7726-4669-9c57-e5fb61d1fa02","system_id":"levelo_inurba_marseille","lat":43.304606,"lon":5.379026,"is_reserved":false,"is_disabled":false,"rental_uris":{"android":"levelo://app?vid=0d90b0d8-7726-4669-9c57-e5fb61d1fa02","ios":"levelo://app?vid=0d90b0d8-7726-4669-9c57-e5fb61d1fa02"},"vehicle_type_id":"4","last_reported":1686906418,"current_range_meters":26000,"station_id":"ce4bgup2rcd13ifvqcn0","pricing_plan_id":"free"},{"bike_id":"951ec620-2e24-4d87-9db5-c4cdfd56fbd5","system_id":"levelo_inurba_marseille","lat":43.304606,"lon":5.379026,"is_reserved":false,"is_disabled":false,"rental_uris":{"android":"levelo://app?vid=951ec620-2e24-4d87-9db5-c4cdfd56fbd5","ios":"levelo://app?vid=951ec620-2e24-4d87-9db5-c4cdfd56fbd5"},"vehicle_type_id":"4","last_reported":1686906418,"current_range_meters":20000,"station_id":"ce4bgup2rcd13ifvqcn0","pricing_plan_id":"free"},{"bike_id":"eacdd02c-3213-4221-8934-217bb0aeaa3d","system_id":"levelo_inurba_marseille","lat":43.304606,"lon":5.379026,"is_reserved":false,"is_disabled":false,"rental_uris":{"android":"levelo://app?vid=eacdd02c-3213-4221-8934-217bb0aeaa3d","ios":"levelo://app?vid=eacdd02c-3213-4221-8934-217bb0aeaa3d"},"vehicle_type_id":"4","last_reported":1686906418,"current_range_meters":21600,"station_id":"ce4bgup2rcd13ifvqcn0","pricing_plan_id":"free"},{"bike_id":"6b87050d-3d9a-4ad4-9481-78b20ee016a0","system_id":"levelo_inurba_marseille","lat":43.304606,"lon":5.379026,"is_reserved":false,"is_disabled":false,"rental_uris":{"android":"levelo://app?vid=6b87050d-3d9a-4ad4-9481-78b20ee016a0","ios":"levelo://app?vid=6b87050d-3d9a-4ad4-9481-78b20ee016a0"},"vehicle_type_id":"4","last_reported":1686906418,"current_range_meters":18800,"station_id":"ce4bgup2rcd13ifvqcn0","pricing_plan_id":"free"},{"bike_id":"6721ec01-3b5f-45ef-b0ce-261cd6b02ab6","system_id":"levelo_inurba_marseille","lat":43.30473,"lon":5.37918,"is_reserved":false,"is_disabled":false,"rental_uris":{"android":"levelo://app?vid=6721ec01-3b5f-45ef-b0ce-261cd6b02ab6","ios":"levelo://app?vid=6721ec01-3b5f-45ef-b0ce-261cd6b02ab6"},"vehicle_type_id":"4","last_reported":1686906418,"current_range_meters":4400,"station_id":"ce4bgup2rcd13ifvqcn0","pricing_plan_id":"free"},{"bike_id":"e9708767-bd6b-431f-993d-25358d04975a","system_id":"levelo_inurba_marseille","lat":43.304606,"lon":5.379026,"is_reserved":false,"is_disabled":false,"rental_uris":{"android":"levelo://app?vid=e9708767-bd6b-431f-993d-25358d04975a","ios":"levelo://app?vid=e9708767-bd6b-431f-993d-25358d04975a"},"vehicle_type_id":"4","last_reported":1686906418,"current_range_meters":26400,"station_id":"ce4bgup2rcd13ifvqcn0","pricing_plan_id":"free"},{"bike_id":"5b250191-c124-4b1d-9fbb-ad3455bbc009","system_id":"levelo_inurba_marseille","lat":43.304606,"lon":5.379026,"is_reserved":false,"is_disabled":false,"rental_uris":{"android":"levelo://app?vid=5b250191-c124-4b1d-9fbb-ad3455bbc009","ios":"levelo://app?vid=5b250191-c124-4b1d-9fbb-ad3455bbc009"},"vehicle_type_id":"4","last_reported":1686906418,"current_range_meters":28800,"station_id":"ce4bgup2rcd13ifvqcn0","pricing_plan_id":"free"},{"bike_id":"a873639e-a36f-45b4-8a9e-f3f8d6c23c98","system_id":"levelo_inurba_marseille","lat":43.304606,"lon":5.379026,"is_reserved":false,"is_disabled":false,"rental_uris":{"android":"levelo://app?vid=a873639e-a36f-45b4-8a9e-f3f8d6c23c98","ios":"levelo://app?vid=a873639e-a36f-45b4-8a9e-f3f8d6c23c98"},"vehicle_type_id":"4","last_reported":1686906418,"current_range_meters":30000,"station_id":"ce4bgup2rcd13ifvqcn0","pricing_plan_id":"free"},{"bike_id":"0a0ab727-ed41-4c1d-82f0-8faaae64860b","system_id":"levelo_inurba_marseille","lat":43.30458,"lon":5.379,"is_reserved":false,"is_disabled":false,"rental_uris":{"android":"levelo://app?vid=0a0ab727-ed41-4c1d-82f0-8faaae64860b","ios":"levelo://app?vid=0a0ab727-ed41-4c1d-82f0-8faaae64860b"},"vehicle_type_id":"4","last_reported":1686906418,"current_range_meters":26800,"station_id":"ce4bgup2rcd13ifvqcn0","pricing_plan_id":"free"},{"bike_id":"b63f1ee7-ea51-4571-ac26-14553de453e8","system_id":"levelo_inurba_marseille","lat":43.304606,"lon":5.379026,"is_reserved":false,"is_disabled":false,"rental_uris":{"android":"levelo://app?vid=b63f1ee7-ea51-4571-ac26-14553de453e8","ios":"levelo://app?vid=b63f1ee7-ea51-4571-ac26-14553de453e8"},"vehicle_type_id":"4","last_reported":1686906418,"current_range_meters":8400,"station_id":"ce4bgup2rcd13ifvqcn0","pricing_plan_id":"free"},{"bike_id":"a221e5e1-5bfe-4bb5-b58f-abbfb80ce980","system_id":"levelo_inurba_marseille","lat":43.304606,"lon":5.379026,"is_reserved":false,"is_disabled":false,"rental_uris":{"android":"levelo://app?vid=a221e5e1-5bfe-4bb5-b58f-abbfb80ce980","ios":"levelo://app?vid=a221e5e1-5bfe-4bb5-b58f-abbfb80ce980"},"vehicle_type_id":"4","last_reported":1686906418,"current_range_meters":31200,"station_id":"ce4bgup2rcd13ifvqcn0","pricing_plan_id":"free"},{"bike_id":"1e052e35-2c18-4ee7-9dd5-75a728160402","system_id":"levelo_inurba_marseille","lat":43.304606,"lon":5.379026,"is_reserved":false,"is_disabled":false,"rental_uris":{"android":"levelo://app?vid=1e052e35-2c18-4ee7-9dd5-75a728160402","ios":"levelo://app?vid=1e052e35-2c18-4ee7-9dd5-75a728160402"},"vehicle_type_id":"4","last_reported":1686906418,"current_range_meters":15600,"station_id":"ce4bgup2rcd13ifvqcn0","pricing_plan_id":"free"},{"bike_id":"4fdc03b3-0120-447e-83c2-a889fe193db4","system_id":"levelo_inurba_marseille","lat":43.304606,"lon":5.379026,"is_reserved":false,"is_disabled":false,"rental_uris":{"android":"levelo://app?vid=4fdc03b3-0120-447e-83c2-a889fe193db4","ios":"levelo://app?vid=4fdc03b3-0120-447e-83c2-a889fe193db4"},"vehicle_type_id":"4","last_reported":1686906418,"current_range_meters":12400,"station_id":"ce4bgup2rcd13ifvqcn0","pricing_plan_id":"free"},{"bike_id":"25ed7645-0c57-4146-8b79-61e49e8111df","system_id":"levelo_inurba_marseille","lat":43.304606,"lon":5.379026,"is_reserved":false,"is_disabled":false,"rental_uris":{"android":"levelo://app?vid=25ed7645-0c57-4146-8b79-61e49e8111df","ios":"levelo://app?vid=25ed7645-0c57-4146-8b79-61e49e8111df"},"vehicle_type_id":"4","last_reported":1686906418,"current_range_meters":22800,"station_id":"ce4bgup2rcd13ifvqcn0","pricing_plan_id":"free"},{"bike_id":"7a01bdb2-4fc8-4229-b121-b18e40378d52","system_id":"levelo_inurba_marseille","lat":43.304606,"lon":5.379026,"is_reserved":false,"is_disabled":false,"rental_uris":{"android":"levelo://app?vid=7a01bdb2-4fc8-4229-b121-b18e40378d52","ios":"levelo://app?vid=7a01bdb2-4fc8-4229-b121-b18e40378d52"},"vehicle_type_id":"4","last_reported":1686906418,"current_range_meters":31600,"station_id":"ce4bgup2rcd13ifvqcn0","pricing_plan_id":"free"},{"bike_id":"fc4a69da-5dee-4c68-8631-20ee11bc487b","system_id":"levelo_inurba_marseille","lat":43.30457,"lon":5.37904,"is_reserved":false,"is_disabled":false,"rental_uris":{"android":"levelo://app?vid=fc4a69da-5dee-4c68-8631-20ee11bc487b","ios":"levelo://app?vid=fc4a69da-5dee-4c68-8631-20ee11bc487b"},"vehicle_type_id":"4","last_reported":1686906418,"current_range_meters":29200,"station_id":"ce4bgup2rcd13ifvqcn0","pricing_plan_id":"free"},{"bike_id":"0506c595-6aba-453b-9c48-3ebcb96bfdc9","system_id":"levelo_inurba_marseille","lat":43.302784,"lon":5.377158,"is_reserved":false,"is_disabled":false,"rental_uris":{"android":"levelo://app?vid=0506c595-6aba-453b-9c48-3ebcb96bfdc9","ios":"levelo://app?vid=0506c595-6aba-453b-9c48-3ebcb96bfdc9"},"vehicle_type_id":"4","last_reported":1686906418,"current_range_meters":17200,"station_id":"ce4bguh2rcd13ifvqcj0","pricing_plan_id":"free"},{"bike_id":"eb00746a-6fce-42e4-be6f-b68b0214d93e","system_id":"levelo_inurba_marseille","lat":43.30271,"lon":5.37705,"is_reserved":false,"is_disabled":false,"rental_uris":{"android":"levelo://app?vid=eb00746a-6fce-42e4-be6f-b68b0214d93e","ios":"levelo://app?vid=eb00746a-6fce-42e4-be6f-b68b0214d93e"},"vehicle_type_id":"4","last_reported":1686906418,"current_range_meters":22800,"station_id":"ce4bguh2rcd13ifvqcj0","pricing_plan_id":"free"},{"bike_id":"e73904b7-34bb-4627-b0a8-e2d3273c1676","system_id":"levelo_inurba_marseille","lat":43.30137,"lon":5.37408,"is_reserved":false,"is_disabled":false,"rental_uris":{"android":"levelo://app?vid=e73904b7-34bb-4627-b0a8-e2d3273c1676","ios":"levelo://app?vid=e73904b7-34bb-4627-b0a8-e2d3273c1676"},"vehicle_type_id":"4","last_reported":1686906418,"current_range_meters":25200,"station_id":"ce4bgs92rcd13ifvqcc0","pricing_plan_id":"free"},{"bike_id":"cc27f62f-f09f-4119-b8ab-191d98c39a1a","system_id":"levelo_inurba_marseille","lat":43.30143,"lon":5.37413,"is_reserved":false,"is_disabled":false,"rental_uris":{"android":"levelo://app?vid=cc27f62f-f09f-4119-b8ab-191d98c39a1a","ios":"levelo://app?vid=cc27f62f-f09f-4119-b8ab-191d98c39a1a"},"vehicle_type_id":"4","last_reported":1686906418,"current_range_meters":31200,"station_id":"ce4bgs92rcd13ifvqcc0","pricing_plan_id":"free"},{"bike_id":"0398e967-87c3-48af-847a-45286ef0f743","system_id":"levelo_inurba_marseille","lat":43.30133,"lon":5.37413,"is_reserved":false,"is_disabled":false,"rental_uris":{"android":"levelo://app?vid=0398e967-87c3-48af-847a-45286ef0f743","ios":"levelo://app?vid=0398e967-87c3-48af-847a-45286ef0f743"},"vehicle_type_id":"4","last_reported":1686906418,"current_range_meters":23600,"station_id":"ce4bgs92rcd13ifvqcc0","pricing_plan_id":"free"},{"bike_id":"c362f0e8-0431-494c-8f4e-329091583422","system_id":"levelo_inurba_marseille","lat":43.319935,"lon":5.381699,"is_reserved":false,"is_disabled":false,"rental_uris":{"android":"levelo://app?vid=c362f0e8-0431-494c-8f4e-329091583422","ios":"levelo://app?vid=c362f0e8-0431-494c-8f4e-329091583422"},"vehicle_type_id":"4","last_reported":1686906418,"current_range_meters":25200,"station_id":"ce4bhr12rcd13ifvqhpg","pricing_plan_id":"free"},{"bike_id":"9bd8d939-1b4b-43d9-b593-950f3b5a8172","system_id":"levelo_inurba_marseille","lat":43.301281,"lon":5.374631,"is_reserved":false,"is_disabled":false,"rental_uris":{"android":"levelo://app?vid=9bd8d939-1b4b-43d9-b593-950f3b5a8172","ios":"levelo://app?vid=9bd8d939-1b4b-43d9-b593-950f3b5a8172"},"vehicle_type_id":"4","last_reported":1686906418,"current_range_meters":7200,"station_id":"","pricing_plan_id":"free"},{"bike_id":"0e268dff-e44c-481f-83a0-b1e092599f75","system_id":"levelo_inurba_marseille","lat":43.319935,"lon":5.381699,"is_reserved":false,"is_disabled":false,"rental_uris":{"android":"levelo://app?vid=0e268dff-e44c-481f-83a0-b1e092599f75","ios":"levelo://app?vid=0e268dff-e44c-481f-83a0-b1e092599f75"},"vehicle_type_id":"4","last_reported":1686906418,"current_range_meters":25600,"station_id":"ce4bhr12rcd13ifvqhpg","pricing_plan_id":"free"},{"bike_id":"9467db5d-6592-4a62-ad0c-ba36d7003010","system_id":"levelo_inurba_marseille","lat":43.31991,"lon":5.38145,"is_reserved":false,"is_disabled":false,"rental_uris":{"android":"levelo://app?vid=9467db5d-6592-4a62-ad0c-ba36d7003010","ios":"levelo://app?vid=9467db5d-6592-4a62-ad0c-ba36d7003010"},"vehicle_type_id":"4","last_reported":1686906418,"current_range_meters":28400,"station_id":"ce4bhr12rcd13ifvqhpg","pricing_plan_id":"free"},{"bike_id":"14a08899-349d-4c49-bd20-7204a0b2cd69","system_id":"levelo_inurba_marseille","lat":43.319935,"lon":5.381699,"is_reserved":false,"is_disabled":false,"rental_uris":{"android":"levelo://app?vid=14a08899-349d-4c49-bd20-7204a0b2cd69","ios":"levelo://app?vid=14a08899-349d-4c49-bd20-7204a0b2cd69"},"vehicle_type_id":"4","last_reported":1686906418,"current_range_meters":25200,"station_id":"ce4bhr12rcd13ifvqhpg","pricing_plan_id":"free"},{"bike_id":"c5374e55-af79-48a2-b3fd-ec58f58ad508","system_id":"levelo_inurba_marseille","lat":43.319935,"lon":5.381699,"is_reserved":false,"is_disabled":false,"rental_uris":{"android":"levelo://app?vid=c5374e55-af79-48a2-b3fd-ec58f58ad508","ios":"levelo://app?vid=c5374e55-af79-48a2-b3fd-ec58f58ad508"},"vehicle_type_id":"4","last_reported":1686906418,"current_range_meters":26000,"station_id":"ce4bhr12rcd13ifvqhpg","pricing_plan_id":"free"},{"bike_id":"540f2241-3f7b-473d-870a-16775d4a4523","system_id":"levelo_inurba_marseille","lat":43.313571,"lon":5.384829,"is_reserved":false,"is_disabled":false,"rental_uris":{"android":"levelo://app?vid=540f2241-3f7b-473d-870a-16775d4a4523","ios":"levelo://app?vid=540f2241-3f7b-473d-870a-16775d4a4523"},"vehicle_type_id":"4","last_reported":1686906418,"current_range_meters":28400,"station_id":"ce4bgt92rcd13ifvqcf0","pricing_plan_id":"free"},{"bike_id":"45560759-ef59-487a-b28a-f1470012c2ef","system_id":"levelo_inurba_marseille","lat":43.313571,"lon":5.384829,"is_reserved":false,"is_disabled":false,"rental_uris":{"android":"levelo://app?vid=45560759-ef59-487a-b28a-f1470012c2ef","ios":"levelo://app?vid=45560759-ef59-487a-b28a-f1470012c2ef"},"vehicle_type_id":"4","last_reported":1686906418,"current_range_meters":23200,"station_id":"ce4bgt92rcd13ifvqcf0","pricing_plan_id":"free"},{"bike_id":"56606d34-50a5-464f-a8e5-e50267034007","system_id":"levelo_inurba_marseille","lat":43.299222,"lon":5.365554,"is_reserved":false,"is_disabled":false,"rental_uris":{"android":"levelo://app?vid=56606d34-50a5-464f-a8e5-e50267034007","ios":"levelo://app?vid=56606d34-50a5-464f-a8e5-e50267034007"},"vehicle_type_id":"4","last_reported":1686906418,"current_range_meters":9200,"station_id":"ce4bgm92rcd13ifvqbr0","pricing_plan_id":"free"},{"bike_id":"215c31be-3ff1-410e-ad8d-1aef1a6870a9","system_id":"levelo_inurba_marseille","lat":43.299222,"lon":5.365554,"is_reserved":false,"is_disabled":false,"rental_uris":{"android":"levelo://app?vid=215c31be-3ff1-410e-ad8d-1aef1a6870a9","ios":"levelo://app?vid=215c31be-3ff1-410e-ad8d-1aef1a6870a9"},"vehicle_type_id":"4","last_reported":1686906418,"current_range_meters":18800,"station_id":"ce4bgm92rcd13ifvqbr0","pricing_plan_id":"free"},{"bike_id":"54d3ceda-3505-480d-9606-7724089ab1e5","system_id":"levelo_inurba_marseille","lat":43.299222,"lon":5.365554,"is_reserved":false,"is_disabled":false,"rental_uris":{"android":"levelo://app?vid=54d3ceda-3505-480d-9606-7724089ab1e5","ios":"levelo://app?vid=54d3ceda-3505-480d-9606-7724089ab1e5"},"vehicle_type_id":"4","last_reported":1686906418,"current_range_meters":23600,"station_id":"ce4bgm92rcd13ifvqbr0","pricing_plan_id":"free"},{"bike_id":"3ceaa470-86b9-44aa-8576-63f2627392e3","system_id":"levelo_inurba_marseille","lat":43.299222,"lon":5.365554,"is_reserved":false,"is_disabled":false,"rental_uris":{"android":"levelo://app?vid=3ceaa470-86b9-44aa-8576-63f2627392e3","ios":"levelo://app?vid=3ceaa470-86b9-44aa-8576-63f2627392e3"},"vehicle_type_id":"4","last_reported":1686906418,"current_range_meters":12000,"station_id":"ce4bgm92rcd13ifvqbr0","pricing_plan_id":"free"},{"bike_id":"7945d8a1-54dc-4a30-910d-9390ec00622e","system_id":"levelo_inurba_marseille","lat":43.299222,"lon":5.365554,"is_reserved":false,"is_disabled":false,"rental_uris":{"android":"levelo://app?vid=7945d8a1-54dc-4a30-910d-9390ec00622e","ios":"levelo://app?vid=7945d8a1-54dc-4a30-910d-9390ec00622e"},"vehicle_type_id":"4","last_reported":1686906418,"current_range_meters":29200,"station_id":"ce4bgm92rcd13ifvqbr0","pricing_plan_id":"free"},{"bike_id":"4b7c4682-81ff-4702-8fc0-386a7988074d","system_id":"levelo_inurba_marseille","lat":43.299222,"lon":5.365554,"is_reserved":false,"is_disabled":false,"rental_uris":{"android":"levelo://app?vid=4b7c4682-81ff-4702-8fc0-386a7988074d","ios":"levelo://app?vid=4b7c4682-81ff-4702-8fc0-386a7988074d"},"vehicle_type_id":"4","last_reported":1686906418,"current_range_meters":30800,"station_id":"ce4bgm92rcd13ifvqbr0","pricing_plan_id":"free"},{"bike_id":"330412da-b9eb-49fa-9ba0-9288ee9ddd31","system_id":"levelo_inurba_marseille","lat":43.299222,"lon":5.365554,"is_reserved":false,"is_disabled":false,"rental_uris":{"android":"levelo://app?vid=330412da-b9eb-49fa-9ba0-9288ee9ddd31","ios":"levelo://app?vid=330412da-b9eb-49fa-9ba0-9288ee9ddd31"},"vehicle_type_id":"4","last_reported":1686906418,"current_range_meters":24400,"station_id":"ce4bgm92rcd13ifvqbr0","pricing_plan_id":"free"},{"bike_id":"07f1f9b5-00d0-4c76-a348-49478532ffb0","system_id":"levelo_inurba_marseille","lat":43.299222,"lon":5.365554,"is_reserved":false,"is_disabled":false,"rental_uris":{"android":"levelo://app?vid=07f1f9b5-00d0-4c76-a348-49478532ffb0","ios":"levelo://app?vid=07f1f9b5-00d0-4c76-a348-49478532ffb0"},"vehicle_type_id":"4","last_reported":1686906418,"current_range_meters":13200,"station_id":"ce4bgm92rcd13ifvqbr0","pricing_plan_id":"free"},{"bike_id":"96489408-579a-4290-839a-210c38760c91","system_id":"levelo_inurba_marseille","lat":43.299222,"lon":5.365554,"is_reserved":false,"is_disabled":false,"rental_uris":{"android":"levelo://app?vid=96489408-579a-4290-839a-210c38760c91","ios":"levelo://app?vid=96489408-579a-4290-839a-210c38760c91"},"vehicle_type_id":"4","last_reported":1686906418,"current_range_meters":22800,"station_id":"ce4bgm92rcd13ifvqbr0","pricing_plan_id":"free"},{"bike_id":"486fcfc4-39d1-47d2-bb8c-017eba03d0b9","system_id":"levelo_inurba_marseille","lat":43.298433,"lon":5.362774,"is_reserved":false,"is_disabled":false,"rental_uris":{"android":"levelo://app?vid=486fcfc4-39d1-47d2-bb8c-017eba03d0b9","ios":"levelo://app?vid=486fcfc4-39d1-47d2-bb8c-017eba03d0b9"},"vehicle_type_id":"4","last_reported":1686906418,"current_range_meters":19200,"station_id":"ce4bgpp2rcd13ifvqc3g","pricing_plan_id":"free"},{"bike_id":"0996697a-8d32-4a3c-9af3-2be76a5e89c0","system_id":"levelo_inurba_marseille","lat":43.298433,"lon":5.362774,"is_reserved":false,"is_disabled":false,"rental_uris":{"android":"levelo://app?vid=0996697a-8d32-4a3c-9af3-2be76a5e89c0","ios":"levelo://app?vid=0996697a-8d32-4a3c-9af3-2be76a5e89c0"},"vehicle_type_id":"4","last_reported":1686906418,"current_range_meters":19200,"station_id":"ce4bgpp2rcd13ifvqc3g","pricing_plan_id":"free"},{"bike_id":"475358c3-8ebd-4dbf-a448-a96c2b08f378","system_id":"levelo_inurba_marseille","lat":43.298433,"lon":5.362774,"is_reserved":false,"is_disabled":false,"rental_uris":{"android":"levelo://app?vid=475358c3-8ebd-4dbf-a448-a96c2b08f378","ios":"levelo://app?vid=475358c3-8ebd-4dbf-a448-a96c2b08f378"},"vehicle_type_id":"4","last_reported":1686906418,"current_range_meters":20800,"station_id":"ce4bgpp2rcd13ifvqc3g","pricing_plan_id":"free"},{"bike_id":"46c86b71-3ed5-4b01-a764-aba9ea59368c","system_id":"levelo_inurba_marseille","lat":43.298433,"lon":5.362774,"is_reserved":false,"is_disabled":false,"rental_uris":{"android":"levelo://app?vid=46c86b71-3ed5-4b01-a764-aba9ea59368c","ios":"levelo://app?vid=46c86b71-3ed5-4b01-a764-aba9ea59368c"},"vehicle_type_id":"4","last_reported":1686906418,"current_range_meters":30400,"station_id":"ce4bgpp2rcd13ifvqc3g","pricing_plan_id":"free"},{"bike_id":"e3f10ae3-a4de-49b2-ad11-36803c791557","system_id":"levelo_inurba_marseille","lat":43.298433,"lon":5.362774,"is_reserved":false,"is_disabled":false,"rental_uris":{"android":"levelo://app?vid=e3f10ae3-a4de-49b2-ad11-36803c791557","ios":"levelo://app?vid=e3f10ae3-a4de-49b2-ad11-36803c791557"},"vehicle_type_id":"4","last_reported":1686906418,"current_range_meters":21200,"station_id":"ce4bgpp2rcd13ifvqc3g","pricing_plan_id":"free"},{"bike_id":"611c21f8-2373-4ffd-835a-0b884707742b","system_id":"levelo_inurba_marseille","lat":43.298433,"lon":5.362774,"is_reserved":false,"is_disabled":false,"rental_uris":{"android":"levelo://app?vid=611c21f8-2373-4ffd-835a-0b884707742b","ios":"levelo://app?vid=611c21f8-2373-4ffd-835a-0b884707742b"},"vehicle_type_id":"4","last_reported":1686906418,"current_range_meters":30400,"station_id":"ce4bgpp2rcd13ifvqc3g","pricing_plan_id":"free"},{"bike_id":"76e6fb7a-5d91-4a1b-81d4-16a75983c290","system_id":"levelo_inurba_marseille","lat":43.298433,"lon":5.362774,"is_reserved":false,"is_disabled":false,"rental_uris":{"android":"levelo://app?vid=76e6fb7a-5d91-4a1b-81d4-16a75983c290","ios":"levelo://app?vid=76e6fb7a-5d91-4a1b-81d4-16a75983c290"},"vehicle_type_id":"4","last_reported":1686906418,"current_range_meters":24400,"station_id":"ce4bgpp2rcd13ifvqc3g","pricing_plan_id":"free"},{"bike_id":"18db56ba-c467-41af-b430-4bf1152550ac","system_id":"levelo_inurba_marseille","lat":43.298433,"lon":5.362774,"is_reserved":false,"is_disabled":false,"rental_uris":{"android":"levelo://app?vid=18db56ba-c467-41af-b430-4bf1152550ac","ios":"levelo://app?vid=18db56ba-c467-41af-b430-4bf1152550ac"},"vehicle_type_id":"4","last_reported":1686906418,"current_range_meters":26400,"station_id":"ce4bgpp2rcd13ifvqc3g","pricing_plan_id":"free"},{"bike_id":"6897234c-a5a9-4cc7-b7c3-ee6b0e82e574","system_id":"levelo_inurba_marseille","lat":43.298433,"lon":5.362774,"is_reserved":false,"is_disabled":false,"rental_uris":{"android":"levelo://app?vid=6897234c-a5a9-4cc7-b7c3-ee6b0e82e574","ios":"levelo://app?vid=6897234c-a5a9-4cc7-b7c3-ee6b0e82e574"},"vehicle_type_id":"4","last_reported":1686906418,"current_range_meters":17600,"station_id":"ce4bgpp2rcd13ifvqc3g","pricing_plan_id":"free"},{"bike_id":"aef008e4-a962-4ba3-90d6-a32d524cbbb9","system_id":"levelo_inurba_marseille","lat":43.298433,"lon":5.362774,"is_reserved":false,"is_disabled":false,"rental_uris":{"android":"levelo://app?vid=aef008e4-a962-4ba3-90d6-a32d524cbbb9","ios":"levelo://app?vid=aef008e4-a962-4ba3-90d6-a32d524cbbb9"},"vehicle_type_id":"4","last_reported":1686906418,"current_range_meters":28400,"station_id":"ce4bgpp2rcd13ifvqc3g","pricing_plan_id":"free"},{"bike_id":"8657f1a9-fed5-4504-9e96-0fefa24a9979","system_id":"levelo_inurba_marseille","lat":43.298433,"lon":5.362774,"is_reserved":false,"is_disabled":false,"rental_uris":{"android":"levelo://app?vid=8657f1a9-fed5-4504-9e96-0fefa24a9979","ios":"levelo://app?vid=8657f1a9-fed5-4504-9e96-0fefa24a9979"},"vehicle_type_id":"4","last_reported":1686906418,"current_range_meters":22800,"station_id":"ce4bgpp2rcd13ifvqc3g","pricing_plan_id":"free"},{"bike_id":"407d3c40-1004-4f24-87d1-1582126a7891","system_id":"levelo_inurba_marseille","lat":43.298433,"lon":5.362774,"is_reserved":false,"is_disabled":false,"rental_uris":{"android":"levelo://app?vid=407d3c40-1004-4f24-87d1-1582126a7891","ios":"levelo://app?vid=407d3c40-1004-4f24-87d1-1582126a7891"},"vehicle_type_id":"4","last_reported":1686906418,"current_range_meters":31200,"station_id":"ce4bgpp2rcd13ifvqc3g","pricing_plan_id":"free"},{"bike_id":"00f6b303-22f5-4688-9798-386d65763ca3","system_id":"levelo_inurba_marseille","lat":43.298433,"lon":5.362774,"is_reserved":false,"is_disabled":false,"rental_uris":{"android":"levelo://app?vid=00f6b303-22f5-4688-9798-386d65763ca3","ios":"levelo://app?vid=00f6b303-22f5-4688-9798-386d65763ca3"},"vehicle_type_id":"4","last_reported":1686906418,"current_range_meters":12000,"station_id":"ce4bgpp2rcd13ifvqc3g","pricing_plan_id":"free"},{"bike_id":"c3b8ce03-c733-4ceb-bd1f-743e6ce6d59a","system_id":"levelo_inurba_marseille","lat":43.298433,"lon":5.362774,"is_reserved":false,"is_disabled":false,"rental_uris":{"android":"levelo://app?vid=c3b8ce03-c733-4ceb-bd1f-743e6ce6d59a","ios":"levelo://app?vid=c3b8ce03-c733-4ceb-bd1f-743e6ce6d59a"},"vehicle_type_id":"4","last_reported":1686906418,"current_range_meters":24000,"station_id":"ce4bgpp2rcd13ifvqc3g","pricing_plan_id":"free"},{"bike_id":"99c8dfe4-171c-40a3-bcbd-6b7b774e31a3","system_id":"levelo_inurba_marseille","lat":43.298433,"lon":5.362774,"is_reserved":false,"is_disabled":false,"rental_uris":{"android":"levelo://app?vid=99c8dfe4-171c-40a3-bcbd-6b7b774e31a3","ios":"levelo://app?vid=99c8dfe4-171c-40a3-bcbd-6b7b774e31a3"},"vehicle_type_id":"4","last_reported":1686906418,"current_range_meters":20400,"station_id":"ce4bgpp2rcd13ifvqc3g","pricing_plan_id":"free"},{"bike_id":"c110d057-cbfa-4693-a754-263102d78f96","system_id":"levelo_inurba_marseille","lat":43.298433,"lon":5.362774,"is_reserved":false,"is_disabled":false,"rental_uris":{"android":"levelo://app?vid=c110d057-cbfa-4693-a754-263102d78f96","ios":"levelo://app?vid=c110d057-cbfa-4693-a754-263102d78f96"},"vehicle_type_id":"4","last_reported":1686906418,"current_range_meters":26000,"station_id":"ce4bgpp2rcd13ifvqc3g","pricing_plan_id":"free"},{"bike_id":"79840cd5-6495-48d4-8f23-fd5a46fbac3e","system_id":"levelo_inurba_marseille","lat":43.298433,"lon":5.362774,"is_reserved":false,"is_disabled":false,"rental_uris":{"android":"levelo://app?vid=79840cd5-6495-48d4-8f23-fd5a46fbac3e","ios":"levelo://app?vid=79840cd5-6495-48d4-8f23-fd5a46fbac3e"},"vehicle_type_id":"4","last_reported":1686906418,"current_range_meters":25600,"station_id":"ce4bgpp2rcd13ifvqc3g","pricing_plan_id":"free"},{"bike_id":"e19e3f90-c2d9-4e70-a1d1-d6b1ada874c7","system_id":"levelo_inurba_marseille","lat":43.311722,"lon":5.387247,"is_reserved":false,"is_disabled":false,"rental_uris":{"android":"levelo://app?vid=e19e3f90-c2d9-4e70-a1d1-d6b1ada874c7","ios":"levelo://app?vid=e19e3f90-c2d9-4e70-a1d1-d6b1ada874c7"},"vehicle_type_id":"4","last_reported":1686906418,"current_range_meters":11600,"station_id":"ce4bgv12rcd13ifvqcp0","pricing_plan_id":"free"},{"bike_id":"d7334887-ee35-4e9e-aee3-4d2d8e0b7f32","system_id":"levelo_inurba_marseille","lat":43.298433,"lon":5.362774,"is_reserved":false,"is_disabled":false,"rental_uris":{"android":"levelo://app?vid=d7334887-ee35-4e9e-aee3-4d2d8e0b7f32","ios":"levelo://app?vid=d7334887-ee35-4e9e-aee3-4d2d8e0b7f32"},"vehicle_type_id":"4","last_reported":1686906418,"current_range_meters":31200,"station_id":"ce4bgpp2rcd13ifvqc3g","pricing_plan_id":"free"},{"bike_id":"6450c5f0-1b25-4568-8f8b-da3a6db313dd","system_id":"levelo_inurba_marseille","lat":43.297794,"lon":5.370888,"is_reserved":false,"is_disabled":false,"rental_uris":{"android":"levelo://app?vid=6450c5f0-1b25-4568-8f8b-da3a6db313dd","ios":"levelo://app?vid=6450c5f0-1b25-4568-8f8b-da3a6db313dd"},"vehicle_type_id":"4","last_reported":1686906418,"current_range_meters":18400,"station_id":"ce4bgop2rcd13ifvqc1g","pricing_plan_id":"free"},{"bike_id":"1f12d5c6-d345-4a90-a9e3-a2e7bb407d0e","system_id":"levelo_inurba_marseille","lat":43.297794,"lon":5.370888,"is_reserved":false,"is_disabled":false,"rental_uris":{"android":"levelo://app?vid=1f12d5c6-d345-4a90-a9e3-a2e7bb407d0e","ios":"levelo://app?vid=1f12d5c6-d345-4a90-a9e3-a2e7bb407d0e"},"vehicle_type_id":"4","last_reported":1686906418,"current_range_meters":18800,"station_id":"ce4bgop2rcd13ifvqc1g","pricing_plan_id":"free"},{"bike_id":"abbe991a-1ccd-4209-89cb-b8efe99a4de8","system_id":"levelo_inurba_marseille","lat":43.297774,"lon":5.370875,"is_reserved":false,"is_disabled":false,"rental_uris":{"android":"levelo://app?vid=abbe991a-1ccd-4209-89cb-b8efe99a4de8","ios":"levelo://app?vid=abbe991a-1ccd-4209-89cb-b8efe99a4de8"},"vehicle_type_id":"4","last_reported":1686906418,"current_range_meters":30400,"station_id":"ce4bgop2rcd13ifvqc1g","pricing_plan_id":"free"},{"bike_id":"5aea4ff9-b794-49fa-b864-ba4cf0a9088f","system_id":"levelo_inurba_marseille","lat":43.328371,"lon":5.366912,"is_reserved":false,"is_disabled":false,"rental_uris":{"android":"levelo://app?vid=5aea4ff9-b794-49fa-b864-ba4cf0a9088f","ios":"levelo://app?vid=5aea4ff9-b794-49fa-b864-ba4cf0a9088f"},"vehicle_type_id":"4","last_reported":1686906418,"current_range_meters":4400,"station_id":"ce4bhs92rcd13ifvqi0g","pricing_plan_id":"free"},{"bike_id":"b03d88f8-bf3f-46ac-9bbf-b15e89df07c3","system_id":"levelo_inurba_marseille","lat":43.328371,"lon":5.366909,"is_reserved":false,"is_disabled":false,"rental_uris":{"android":"levelo://app?vid=b03d88f8-bf3f-46ac-9bbf-b15e89df07c3","ios":"levelo://app?vid=b03d88f8-bf3f-46ac-9bbf-b15e89df07c3"},"vehicle_type_id":"4","last_reported":1686906418,"current_range_meters":10800,"station_id":"ce4bhs92rcd13ifvqi0g","pricing_plan_id":"free"},{"bike_id":"099d5bc2-fb7d-4f93-b471-20300fd63a04","system_id":"levelo_inurba_marseille","lat":43.328371,"lon":5.366909,"is_reserved":false,"is_disabled":false,"rental_uris":{"android":"levelo://app?vid=099d5bc2-fb7d-4f93-b471-20300fd63a04","ios":"levelo://app?vid=099d5bc2-fb7d-4f93-b471-20300fd63a04"},"vehicle_type_id":"4","last_reported":1686906418,"current_range_meters":20800,"station_id":"ce4bhs92rcd13ifvqi0g","pricing_plan_id":"free"},{"bike_id":"caf0a7b0-f3a0-4710-8d90-6272753042cf","system_id":"levelo_inurba_marseille","lat":43.328371,"lon":5.366909,"is_reserved":false,"is_disabled":false,"rental_uris":{"android":"levelo://app?vid=caf0a7b0-f3a0-4710-8d90-6272753042cf","ios":"levelo://app?vid=caf0a7b0-f3a0-4710-8d90-6272753042cf"},"vehicle_type_id":"4","last_reported":1686906418,"current_range_meters":24800,"station_id":"ce4bhs92rcd13ifvqi0g","pricing_plan_id":"free"},{"bike_id":"c7d50732-7306-432e-893d-32425abcb677","system_id":"levelo_inurba_marseille","lat":43.328371,"lon":5.366909,"is_reserved":false,"is_disabled":false,"rental_uris":{"android":"levelo://app?vid=c7d50732-7306-432e-893d-32425abcb677","ios":"levelo://app?vid=c7d50732-7306-432e-893d-32425abcb677"},"vehicle_type_id":"4","last_reported":1686906418,"current_range_meters":13200,"station_id":"ce4bhs92rcd13ifvqi0g","pricing_plan_id":"free"},{"bike_id":"d8ab7120-5db4-4f8a-92b5-f55006e30150","system_id":"levelo_inurba_marseille","lat":43.328371,"lon":5.366909,"is_reserved":false,"is_disabled":false,"rental_uris":{"android":"levelo://app?vid=d8ab7120-5db4-4f8a-92b5-f55006e30150","ios":"levelo://app?vid=d8ab7120-5db4-4f8a-92b5-f55006e30150"},"vehicle_type_id":"4","last_reported":1686906418,"current_range_meters":11600,"station_id":"ce4bhs92rcd13ifvqi0g","pricing_plan_id":"free"},{"bike_id":"d5904ea4-b5cd-4515-b6c3-61ba5c57dec9","system_id":"levelo_inurba_marseille","lat":43.328371,"lon":5.366909,"is_reserved":false,"is_disabled":false,"rental_uris":{"android":"levelo://app?vid=d5904ea4-b5cd-4515-b6c3-61ba5c57dec9","ios":"levelo://app?vid=d5904ea4-b5cd-4515-b6c3-61ba5c57dec9"},"vehicle_type_id":"4","last_reported":1686906418,"current_range_meters":7600,"station_id":"ce4bhs92rcd13ifvqi0g","pricing_plan_id":"free"},{"bike_id":"c3b333ec-1ed4-44b0-acd4-696b68ce1113","system_id":"levelo_inurba_marseille","lat":43.297163,"lon":5.365866,"is_reserved":false,"is_disabled":false,"rental_uris":{"android":"levelo://app?vid=c3b333ec-1ed4-44b0-acd4-696b68ce1113","ios":"levelo://app?vid=c3b333ec-1ed4-44b0-acd4-696b68ce1113"},"vehicle_type_id":"4","last_reported":1686906418,"current_range_meters":14400,"station_id":"ce4bgn12rcd13ifvqbt0","pricing_plan_id":"free"},{"bike_id":"c6a275dd-23ca-4fc8-b334-b9ed20ef6ddc","system_id":"levelo_inurba_marseille","lat":43.29706,"lon":5.3661,"is_reserved":false,"is_disabled":false,"rental_uris":{"android":"levelo://app?vid=c6a275dd-23ca-4fc8-b334-b9ed20ef6ddc","ios":"levelo://app?vid=c6a275dd-23ca-4fc8-b334-b9ed20ef6ddc"},"vehicle_type_id":"4","last_reported":1686906418,"current_range_meters":7200,"station_id":"ce4bgn12rcd13ifvqbt0","pricing_plan_id":"free"},{"bike_id":"157a9e3d-1f5f-420d-94c9-a38655964bc8","system_id":"levelo_inurba_marseille","lat":43.328371,"lon":5.366909,"is_reserved":false,"is_disabled":false,"rental_uris":{"android":"levelo://app?vid=157a9e3d-1f5f-420d-94c9-a38655964bc8","ios":"levelo://app?vid=157a9e3d-1f5f-420d-94c9-a38655964bc8"},"vehicle_type_id":"4","last_reported":1686906418,"current_range_meters":11200,"station_id":"ce4bhs92rcd13ifvqi0g","pricing_plan_id":"free"},{"bike_id":"c2d77b5c-b58a-4ca3-bee6-6fae253733ca","system_id":"levelo_inurba_marseille","lat":43.2968,"lon":5.37291,"is_reserved":false,"is_disabled":false,"rental_uris":{"android":"levelo://app?vid=c2d77b5c-b58a-4ca3-bee6-6fae253733ca","ios":"levelo://app?vid=c2d77b5c-b58a-4ca3-bee6-6fae253733ca"},"vehicle_type_id":"4","last_reported":1686906418,"current_range_meters":16000,"station_id":"ce4bgk12rcd13ifvqbj0","pricing_plan_id":"free"},{"bike_id":"88d0330c-5bb0-4a19-9b65-d4683b42e015","system_id":"levelo_inurba_marseille","lat":43.29683,"lon":5.36046,"is_reserved":false,"is_disabled":false,"rental_uris":{"android":"levelo://app?vid=88d0330c-5bb0-4a19-9b65-d4683b42e015","ios":"levelo://app?vid=88d0330c-5bb0-4a19-9b65-d4683b42e015"},"vehicle_type_id":"4","last_reported":1686906418,"current_range_meters":10800,"station_id":"ce4bgpp2rcd13ifvqc3g","pricing_plan_id":"free"},{"bike_id":"0a6566e1-5979-48d5-96e6-f69e0fb96694","system_id":"levelo_inurba_marseille","lat":43.296129,"lon":5.370777,"is_reserved":false,"is_disabled":false,"rental_uris":{"android":"levelo://app?vid=0a6566e1-5979-48d5-96e6-f69e0fb96694","ios":"levelo://app?vid=0a6566e1-5979-48d5-96e6-f69e0fb96694"},"vehicle_type_id":"4","last_reported":1686906418,"current_range_meters":31200,"station_id":"ce4bgnh2rcd13ifvqc0g","pricing_plan_id":"free"},{"bike_id":"ca0a0427-7e0b-44e9-aa38-c6ac6e2e4a45","system_id":"levelo_inurba_marseille","lat":43.296129,"lon":5.370777,"is_reserved":false,"is_disabled":false,"rental_uris":{"android":"levelo://app?vid=ca0a0427-7e0b-44e9-aa38-c6ac6e2e4a45","ios":"levelo://app?vid=ca0a0427-7e0b-44e9-aa38-c6ac6e2e4a45"},"vehicle_type_id":"4","last_reported":1686906418,"current_range_meters":28000,"station_id":"ce4bgnh2rcd13ifvqc0g","pricing_plan_id":"free"},{"bike_id":"9a7b9826-3cee-496c-954a-c44a05eaadd0","system_id":"levelo_inurba_marseille","lat":43.296131,"lon":5.370791,"is_reserved":false,"is_disabled":false,"rental_uris":{"android":"levelo://app?vid=9a7b9826-3cee-496c-954a-c44a05eaadd0","ios":"levelo://app?vid=9a7b9826-3cee-496c-954a-c44a05eaadd0"},"vehicle_type_id":"4","last_reported":1686906418,"current_range_meters":31200,"station_id":"ce4bgnh2rcd13ifvqc0g","pricing_plan_id":"free"},{"bike_id":"0120d9c0-e289-4d28-b380-ce747180535c","system_id":"levelo_inurba_marseille","lat":43.29573,"lon":5.367355,"is_reserved":false,"is_disabled":false,"rental_uris":{"android":"levelo://app?vid=0120d9c0-e289-4d28-b380-ce747180535c","ios":"levelo://app?vid=0120d9c0-e289-4d28-b380-ce747180535c"},"vehicle_type_id":"4","last_reported":1686906418,"current_range_meters":31600,"station_id":"ce4bgph2rcd13ifvqc2g","pricing_plan_id":"free"},{"bike_id":"6991ab0f-4254-4ac2-85f6-53bb87fcb4a4","system_id":"levelo_inurba_marseille","lat":43.296129,"lon":5.370777,"is_reserved":false,"is_disabled":false,"rental_uris":{"android":"levelo://app?vid=6991ab0f-4254-4ac2-85f6-53bb87fcb4a4","ios":"levelo://app?vid=6991ab0f-4254-4ac2-85f6-53bb87fcb4a4"},"vehicle_type_id":"4","last_reported":1686906418,"current_range_meters":28800,"station_id":"ce4bgnh2rcd13ifvqc0g","pricing_plan_id":"free"},{"bike_id":"402a2ddb-9ff4-4388-8b05-a41fa0224907","system_id":"levelo_inurba_marseille","lat":43.296131,"lon":5.370791,"is_reserved":false,"is_disabled":false,"rental_uris":{"android":"levelo://app?vid=402a2ddb-9ff4-4388-8b05-a41fa0224907","ios":"levelo://app?vid=402a2ddb-9ff4-4388-8b05-a41fa0224907"},"vehicle_type_id":"4","last_reported":1686906418,"current_range_meters":14400,"station_id":"ce4bgnh2rcd13ifvqc0g","pricing_plan_id":"free"},{"bike_id":"70a74fc7-8eba-451d-8f7a-b2d4ab71eafa","system_id":"levelo_inurba_marseille","lat":43.29573,"lon":5.367355,"is_reserved":false,"is_disabled":false,"rental_uris":{"android":"levelo://app?vid=70a74fc7-8eba-451d-8f7a-b2d4ab71eafa","ios":"levelo://app?vid=70a74fc7-8eba-451d-8f7a-b2d4ab71eafa"},"vehicle_type_id":"4","last_reported":1686906418,"current_range_meters":28000,"station_id":"ce4bgph2rcd13ifvqc2g","pricing_plan_id":"free"},{"bike_id":"b83444d2-00a3-4ad1-acb9-4929a3d59fcf","system_id":"levelo_inurba_marseille","lat":43.296131,"lon":5.370791,"is_reserved":false,"is_disabled":false,"rental_uris":{"android":"levelo://app?vid=b83444d2-00a3-4ad1-acb9-4929a3d59fcf","ios":"levelo://app?vid=b83444d2-00a3-4ad1-acb9-4929a3d59fcf"},"vehicle_type_id":"4","last_reported":1686906418,"current_range_meters":31200,"station_id":"ce4bgnh2rcd13ifvqc0g","pricing_plan_id":"free"},{"bike_id":"8ce9a204-92f9-434a-9edf-f8483afdeb97","system_id":"levelo_inurba_marseille","lat":43.29573,"lon":5.367355,"is_reserved":false,"is_disabled":false,"rental_uris":{"android":"levelo://app?vid=8ce9a204-92f9-434a-9edf-f8483afdeb97","ios":"levelo://app?vid=8ce9a204-92f9-434a-9edf-f8483afdeb97"},"vehicle_type_id":"4","last_reported":1686906418,"current_range_meters":22400,"station_id":"ce4bgph2rcd13ifvqc2g","pricing_plan_id":"free"},{"bike_id":"e07fe575-6859-41c1-b559-556d0c68dcc8","system_id":"levelo_inurba_marseille","lat":43.29576,"lon":5.36742,"is_reserved":false,"is_disabled":false,"rental_uris":{"android":"levelo://app?vid=e07fe575-6859-41c1-b559-556d0c68dcc8","ios":"levelo://app?vid=e07fe575-6859-41c1-b559-556d0c68dcc8"},"vehicle_type_id":"4","last_reported":1686906418,"current_range_meters":27200,"station_id":"ce4bgph2rcd13ifvqc2g","pricing_plan_id":"free"},{"bike_id":"8b59a8c1-2b68-4c0b-9620-dfb761df40c0","system_id":"levelo_inurba_marseille","lat":43.295279,"lon":5.375048,"is_reserved":false,"is_disabled":false,"rental_uris":{"android":"levelo://app?vid=8b59a8c1-2b68-4c0b-9620-dfb761df40c0","ios":"levelo://app?vid=8b59a8c1-2b68-4c0b-9620-dfb761df40c0"},"vehicle_type_id":"4","last_reported":1686906418,"current_range_meters":25200,"station_id":"ce4bgkp2rcd13ifvqbmg","pricing_plan_id":"free"},{"bike_id":"f87710f2-6efa-42f8-8ab3-88c402ee7325","system_id":"levelo_inurba_marseille","lat":43.309589,"lon":5.390258,"is_reserved":false,"is_disabled":false,"rental_uris":{"android":"levelo://app?vid=f87710f2-6efa-42f8-8ab3-88c402ee7325","ios":"levelo://app?vid=f87710f2-6efa-42f8-8ab3-88c402ee7325"},"vehicle_type_id":"4","last_reported":1686906418,"current_range_meters":24800,"station_id":"ce4bgup2rcd13ifvqco0","pricing_plan_id":"free"},{"bike_id":"0a77368a-ce14-4449-be04-3fc95e33e524","system_id":"levelo_inurba_marseille","lat":43.309589,"lon":5.390258,"is_reserved":false,"is_disabled":false,"rental_uris":{"android":"levelo://app?vid=0a77368a-ce14-4449-be04-3fc95e33e524","ios":"levelo://app?vid=0a77368a-ce14-4449-be04-3fc95e33e524"},"vehicle_type_id":"4","last_reported":1686906418,"current_range_meters":30800,"station_id":"ce4bgup2rcd13ifvqco0","pricing_plan_id":"free"},{"bike_id":"3cbee2e9-6c5a-4a23-a5e8-221930729151","system_id":"levelo_inurba_marseille","lat":43.309589,"lon":5.390258,"is_reserved":false,"is_disabled":false,"rental_uris":{"android":"levelo://app?vid=3cbee2e9-6c5a-4a23-a5e8-221930729151","ios":"levelo://app?vid=3cbee2e9-6c5a-4a23-a5e8-221930729151"},"vehicle_type_id":"4","last_reported":1686906418,"current_range_meters":16000,"station_id":"ce4bgup2rcd13ifvqco0","pricing_plan_id":"free"},{"bike_id":"1bf6e962-53b9-4206-a427-8d6d818057db","system_id":"levelo_inurba_marseille","lat":43.309589,"lon":5.390258,"is_reserved":false,"is_disabled":false,"rental_uris":{"android":"levelo://app?vid=1bf6e962-53b9-4206-a427-8d6d818057db","ios":"levelo://app?vid=1bf6e962-53b9-4206-a427-8d6d818057db"},"vehicle_type_id":"4","last_reported":1686906418,"current_range_meters":0,"station_id":"ce4bgup2rcd13ifvqco0","pricing_plan_id":"free"},{"bike_id":"c42392ce-a3ae-4fe4-810a-33212387314d","system_id":"levelo_inurba_marseille","lat":43.309589,"lon":5.390258,"is_reserved":false,"is_disabled":false,"rental_uris":{"android":"levelo://app?vid=c42392ce-a3ae-4fe4-810a-33212387314d","ios":"levelo://app?vid=c42392ce-a3ae-4fe4-810a-33212387314d"},"vehicle_type_id":"4","last_reported":1686906418,"current_range_meters":30800,"station_id":"ce4bgup2rcd13ifvqco0","pricing_plan_id":"free"},{"bike_id":"f61fc806-b6ca-45af-ae48-cfe1cdeabfb4","system_id":"levelo_inurba_marseille","lat":43.309589,"lon":5.390258,"is_reserved":false,"is_disabled":false,"rental_uris":{"android":"levelo://app?vid=f61fc806-b6ca-45af-ae48-cfe1cdeabfb4","ios":"levelo://app?vid=f61fc806-b6ca-45af-ae48-cfe1cdeabfb4"},"vehicle_type_id":"4","last_reported":1686906418,"current_range_meters":18400,"station_id":"ce4bgup2rcd13ifvqco0","pricing_plan_id":"free"},{"bike_id":"fa218a0f-3d7a-4617-9800-71fa4df6343e","system_id":"levelo_inurba_marseille","lat":43.309589,"lon":5.390258,"is_reserved":false,"is_disabled":false,"rental_uris":{"android":"levelo://app?vid=fa218a0f-3d7a-4617-9800-71fa4df6343e","ios":"levelo://app?vid=fa218a0f-3d7a-4617-9800-71fa4df6343e"},"vehicle_type_id":"4","last_reported":1686906418,"current_range_meters":14000,"station_id":"ce4bgup2rcd13ifvqco0","pricing_plan_id":"free"},{"bike_id":"233870e7-15de-4838-9c04-de1ce2e62768","system_id":"levelo_inurba_marseille","lat":43.3176,"lon":5.39005,"is_reserved":false,"is_disabled":false,"rental_uris":{"android":"levelo://app?vid=233870e7-15de-4838-9c04-de1ce2e62768","ios":"levelo://app?vid=233870e7-15de-4838-9c04-de1ce2e62768"},"vehicle_type_id":"4","last_reported":1686906418,"current_range_meters":29200,"station_id":"ce4bhqp2rcd13ifvqhng","pricing_plan_id":"free"},{"bike_id":"2c8ea82c-124b-46e2-be4b-fc6610141864","system_id":"levelo_inurba_marseille","lat":43.31759,"lon":5.39012,"is_reserved":false,"is_disabled":false,"rental_uris":{"android":"levelo://app?vid=2c8ea82c-124b-46e2-be4b-fc6610141864","ios":"levelo://app?vid=2c8ea82c-124b-46e2-be4b-fc6610141864"},"vehicle_type_id":"4","last_reported":1686906418,"current_range_meters":26400,"station_id":"ce4bhqp2rcd13ifvqhng","pricing_plan_id":"free"},{"bike_id":"0d2c917b-d3b9-4fe7-afb3-8754e8851ec8","system_id":"levelo_inurba_marseille","lat":43.298037,"lon":5.381066,"is_reserved":false,"is_disabled":false,"rental_uris":{"android":"levelo://app?vid=0d2c917b-d3b9-4fe7-afb3-8754e8851ec8","ios":"levelo://app?vid=0d2c917b-d3b9-4fe7-afb3-8754e8851ec8"},"vehicle_type_id":"4","last_reported":1686906418,"current_range_meters":9600,"station_id":"ce4bgip2rcd13ifvqbb0","pricing_plan_id":"free"},{"bike_id":"9f6cf50c-732f-43d6-a636-9daa6eb8603f","system_id":"levelo_inurba_marseille","lat":43.295748,"lon":5.37522,"is_reserved":false,"is_disabled":false,"rental_uris":{"android":"levelo://app?vid=9f6cf50c-732f-43d6-a636-9daa6eb8603f","ios":"levelo://app?vid=9f6cf50c-732f-43d6-a636-9daa6eb8603f"},"vehicle_type_id":"4","last_reported":1686906418,"current_range_meters":31200,"station_id":"ce4bgh92rcd13ifvqb50","pricing_plan_id":"free"},{"bike_id":"bcdf02cd-98e5-4e3e-80c4-37a69adac5ce","system_id":"levelo_inurba_marseille","lat":43.295748,"lon":5.37522,"is_reserved":false,"is_disabled":false,"rental_uris":{"android":"levelo://app?vid=bcdf02cd-98e5-4e3e-80c4-37a69adac5ce","ios":"levelo://app?vid=bcdf02cd-98e5-4e3e-80c4-37a69adac5ce"},"vehicle_type_id":"4","last_reported":1686906418,"current_range_meters":31200,"station_id":"ce4bgh92rcd13ifvqb50","pricing_plan_id":"free"},{"bike_id":"11dc822b-a02c-472f-8431-93431a0e9091","system_id":"levelo_inurba_marseille","lat":43.296277,"lon":5.377108,"is_reserved":false,"is_disabled":false,"rental_uris":{"android":"levelo://app?vid=11dc822b-a02c-472f-8431-93431a0e9091","ios":"levelo://app?vid=11dc822b-a02c-472f-8431-93431a0e9091"},"vehicle_type_id":"4","last_reported":1686906418,"current_range_meters":27200,"station_id":"ce4bgi92rcd13ifvqb90","pricing_plan_id":"free"},{"bike_id":"35836b89-09b1-494a-ba7a-40ff3615393b","system_id":"levelo_inurba_marseille","lat":43.296277,"lon":5.377108,"is_reserved":false,"is_disabled":false,"rental_uris":{"android":"levelo://app?vid=35836b89-09b1-494a-ba7a-40ff3615393b","ios":"levelo://app?vid=35836b89-09b1-494a-ba7a-40ff3615393b"},"vehicle_type_id":"4","last_reported":1686906418,"current_range_meters":26000,"station_id":"ce4bgi92rcd13ifvqb90","pricing_plan_id":"free"},{"bike_id":"ae77fc79-7014-4831-8f82-343ca50ff1d8","system_id":"levelo_inurba_marseille","lat":43.296277,"lon":5.377108,"is_reserved":false,"is_disabled":false,"rental_uris":{"android":"levelo://app?vid=ae77fc79-7014-4831-8f82-343ca50ff1d8","ios":"levelo://app?vid=ae77fc79-7014-4831-8f82-343ca50ff1d8"},"vehicle_type_id":"4","last_reported":1686906418,"current_range_meters":26800,"station_id":"ce4bgi92rcd13ifvqb90","pricing_plan_id":"free"},{"bike_id":"cdc4a882-f39b-45c9-929d-a55dd44f4642","system_id":"levelo_inurba_marseille","lat":43.29616,"lon":5.37726,"is_reserved":false,"is_disabled":false,"rental_uris":{"android":"levelo://app?vid=cdc4a882-f39b-45c9-929d-a55dd44f4642","ios":"levelo://app?vid=cdc4a882-f39b-45c9-929d-a55dd44f4642"},"vehicle_type_id":"4","last_reported":1686906418,"current_range_meters":27600,"station_id":"ce4bgi92rcd13ifvqb90","pricing_plan_id":"free"},{"bike_id":"70604017-5f36-4280-9abf-3515d80bf1e6","system_id":"levelo_inurba_marseille","lat":43.29614,"lon":5.37722,"is_reserved":false,"is_disabled":false,"rental_uris":{"android":"levelo://app?vid=70604017-5f36-4280-9abf-3515d80bf1e6","ios":"levelo://app?vid=70604017-5f36-4280-9abf-3515d80bf1e6"},"vehicle_type_id":"4","last_reported":1686906418,"current_range_meters":23200,"station_id":"ce4bgi92rcd13ifvqb90","pricing_plan_id":"free"},{"bike_id":"4690e33a-fd7c-4b2a-96b4-7d3e63fcf253","system_id":"levelo_inurba_marseille","lat":43.29602,"lon":5.37711,"is_reserved":false,"is_disabled":false,"rental_uris":{"android":"levelo://app?vid=4690e33a-fd7c-4b2a-96b4-7d3e63fcf253","ios":"levelo://app?vid=4690e33a-fd7c-4b2a-96b4-7d3e63fcf253"},"vehicle_type_id":"4","last_reported":1686906418,"current_range_meters":28000,"station_id":"ce4bgi92rcd13ifvqb90","pricing_plan_id":"free"},{"bike_id":"89f22e98-76dc-4491-bf59-3f4960349533","system_id":"levelo_inurba_marseille","lat":43.299724,"lon":5.384848,"is_reserved":false,"is_disabled":false,"rental_uris":{"android":"levelo://app?vid=89f22e98-76dc-4491-bf59-3f4960349533","ios":"levelo://app?vid=89f22e98-76dc-4491-bf59-3f4960349533"},"vehicle_type_id":"4","last_reported":1686906418,"current_range_meters":14000,"station_id":"ce4bgj92rcd13ifvqbd0","pricing_plan_id":"free"},{"bike_id":"0eb614ef-f99d-446f-83a8-a1c227cc3284","system_id":"levelo_inurba_marseille","lat":43.295279,"lon":5.375048,"is_reserved":false,"is_disabled":false,"rental_uris":{"android":"levelo://app?vid=0eb614ef-f99d-446f-83a8-a1c227cc3284","ios":"levelo://app?vid=0eb614ef-f99d-446f-83a8-a1c227cc3284"},"vehicle_type_id":"4","last_reported":1686906418,"current_range_meters":27200,"station_id":"ce4bgkp2rcd13ifvqbmg","pricing_plan_id":"free"},{"bike_id":"50fb9450-7de4-4875-ae43-c0f192d30970","system_id":"levelo_inurba_marseille","lat":43.29516,"lon":5.37447,"is_reserved":false,"is_disabled":false,"rental_uris":{"android":"levelo://app?vid=50fb9450-7de4-4875-ae43-c0f192d30970","ios":"levelo://app?vid=50fb9450-7de4-4875-ae43-c0f192d30970"},"vehicle_type_id":"4","last_reported":1686906418,"current_range_meters":22000,"station_id":"","pricing_plan_id":"free"},{"bike_id":"256d1355-7745-4d09-a57c-f70b63c67c6f","system_id":"levelo_inurba_marseille","lat":43.299717,"lon":5.384845,"is_reserved":false,"is_disabled":false,"rental_uris":{"android":"levelo://app?vid=256d1355-7745-4d09-a57c-f70b63c67c6f","ios":"levelo://app?vid=256d1355-7745-4d09-a57c-f70b63c67c6f"},"vehicle_type_id":"4","last_reported":1686906418,"current_range_meters":20000,"station_id":"ce4bgj92rcd13ifvqbd0","pricing_plan_id":"free"},{"bike_id":"f95a6ef0-d9b5-435d-8f87-dd6690b6f89e","system_id":"levelo_inurba_marseille","lat":43.299717,"lon":5.384845,"is_reserved":false,"is_disabled":false,"rental_uris":{"android":"levelo://app?vid=f95a6ef0-d9b5-435d-8f87-dd6690b6f89e","ios":"levelo://app?vid=f95a6ef0-d9b5-435d-8f87-dd6690b6f89e"},"vehicle_type_id":"4","last_reported":1686906418,"current_range_meters":16000,"station_id":"ce4bgj92rcd13ifvqbd0","pricing_plan_id":"free"},{"bike_id":"4a4621e6-ba37-4041-9702-80734d8f2a34","system_id":"levelo_inurba_marseille","lat":43.295279,"lon":5.375048,"is_reserved":false,"is_disabled":false,"rental_uris":{"android":"levelo://app?vid=4a4621e6-ba37-4041-9702-80734d8f2a34","ios":"levelo://app?vid=4a4621e6-ba37-4041-9702-80734d8f2a34"},"vehicle_type_id":"4","last_reported":1686906418,"current_range_meters":31600,"station_id":"ce4bgkp2rcd13ifvqbmg","pricing_plan_id":"free"},{"bike_id":"98b081fc-f420-43e8-9629-68d1c86d10a2","system_id":"levelo_inurba_marseille","lat":43.295279,"lon":5.375048,"is_reserved":false,"is_disabled":false,"rental_uris":{"android":"levelo://app?vid=98b081fc-f420-43e8-9629-68d1c86d10a2","ios":"levelo://app?vid=98b081fc-f420-43e8-9629-68d1c86d10a2"},"vehicle_type_id":"4","last_reported":1686906418,"current_range_meters":25600,"station_id":"ce4bgkp2rcd13ifvqbmg","pricing_plan_id":"free"},{"bike_id":"efb2ae48-5cdc-4ea7-beff-f03c07dbe8b0","system_id":"levelo_inurba_marseille","lat":43.295279,"lon":5.375048,"is_reserved":false,"is_disabled":false,"rental_uris":{"android":"levelo://app?vid=efb2ae48-5cdc-4ea7-beff-f03c07dbe8b0","ios":"levelo://app?vid=efb2ae48-5cdc-4ea7-beff-f03c07dbe8b0"},"vehicle_type_id":"4","last_reported":1686906418,"current_range_meters":23200,"station_id":"ce4bgkp2rcd13ifvqbmg","pricing_plan_id":"free"},{"bike_id":"71deb49d-5864-4461-882a-e14e759319e0","system_id":"levelo_inurba_marseille","lat":43.32363,"lon":5.38869,"is_reserved":false,"is_disabled":false,"rental_uris":{"android":"levelo://app?vid=71deb49d-5864-4461-882a-e14e759319e0","ios":"levelo://app?vid=71deb49d-5864-4461-882a-e14e759319e0"},"vehicle_type_id":"4","last_reported":1686906418,"current_range_meters":7200,"station_id":"ce4bhqp2rcd13ifvqhog","pricing_plan_id":"free"},{"bike_id":"eeee5b7d-ef76-4f54-91d8-75ef7b7c61b8","system_id":"levelo_inurba_marseille","lat":43.32358,"lon":5.38874,"is_reserved":false,"is_disabled":false,"rental_uris":{"android":"levelo://app?vid=eeee5b7d-ef76-4f54-91d8-75ef7b7c61b8","ios":"levelo://app?vid=eeee5b7d-ef76-4f54-91d8-75ef7b7c61b8"},"vehicle_type_id":"4","last_reported":1686906418,"current_range_meters":10800,"station_id":"ce4bhqp2rcd13ifvqhog","pricing_plan_id":"free"},{"bike_id":"242f12a2-fa6d-4b5f-9c1c-53e395dd5e66","system_id":"levelo_inurba_marseille","lat":43.32361,"lon":5.38875,"is_reserved":false,"is_disabled":false,"rental_uris":{"android":"levelo://app?vid=242f12a2-fa6d-4b5f-9c1c-53e395dd5e66","ios":"levelo://app?vid=242f12a2-fa6d-4b5f-9c1c-53e395dd5e66"},"vehicle_type_id":"4","last_reported":1686906418,"current_range_meters":20400,"station_id":"ce4bhqp2rcd13ifvqhog","pricing_plan_id":"free"},{"bike_id":"8ff43016-effc-4157-b871-584c11706f73","system_id":"levelo_inurba_marseille","lat":43.32367,"lon":5.388836,"is_reserved":false,"is_disabled":false,"rental_uris":{"android":"levelo://app?vid=8ff43016-effc-4157-b871-584c11706f73","ios":"levelo://app?vid=8ff43016-effc-4157-b871-584c11706f73"},"vehicle_type_id":"4","last_reported":1686906418,"current_range_meters":28800,"station_id":"ce4bhqp2rcd13ifvqhog","pricing_plan_id":"free"},{"bike_id":"2c9ad911-25e0-4222-8751-d809dfadd582","system_id":"levelo_inurba_marseille","lat":43.32367,"lon":5.388836,"is_reserved":false,"is_disabled":false,"rental_uris":{"android":"levelo://app?vid=2c9ad911-25e0-4222-8751-d809dfadd582","ios":"levelo://app?vid=2c9ad911-25e0-4222-8751-d809dfadd582"},"vehicle_type_id":"4","last_reported":1686906418,"current_range_meters":6800,"station_id":"ce4bhqp2rcd13ifvqhog","pricing_plan_id":"free"},{"bike_id":"c153f200-368f-49ef-9cf0-3bef515e633e","system_id":"levelo_inurba_marseille","lat":43.32364,"lon":5.3888,"is_reserved":false,"is_disabled":false,"rental_uris":{"android":"levelo://app?vid=c153f200-368f-49ef-9cf0-3bef515e633e","ios":"levelo://app?vid=c153f200-368f-49ef-9cf0-3bef515e633e"},"vehicle_type_id":"4","last_reported":1686906418,"current_range_meters":30400,"station_id":"ce4bhqp2rcd13ifvqhog","pricing_plan_id":"free"},{"bike_id":"78215555-c896-40a2-aa66-c1d318a07622","system_id":"levelo_inurba_marseille","lat":43.32367,"lon":5.388836,"is_reserved":false,"is_disabled":false,"rental_uris":{"android":"levelo://app?vid=78215555-c896-40a2-aa66-c1d318a07622","ios":"levelo://app?vid=78215555-c896-40a2-aa66-c1d318a07622"},"vehicle_type_id":"4","last_reported":1686906418,"current_range_meters":11200,"station_id":"ce4bhqp2rcd13ifvqhog","pricing_plan_id":"free"},{"bike_id":"4e609ef0-2e17-4e6c-ba3b-29daedaa2e8a","system_id":"levelo_inurba_marseille","lat":43.32367,"lon":5.3888,"is_reserved":false,"is_disabled":false,"rental_uris":{"android":"levelo://app?vid=4e609ef0-2e17-4e6c-ba3b-29daedaa2e8a","ios":"levelo://app?vid=4e609ef0-2e17-4e6c-ba3b-29daedaa2e8a"},"vehicle_type_id":"4","last_reported":1686906418,"current_range_meters":20400,"station_id":"ce4bhqp2rcd13ifvqhog","pricing_plan_id":"free"},{"bike_id":"20a5b24d-b520-42df-8ac4-5a606a1b7de6","system_id":"levelo_inurba_marseille","lat":43.32369,"lon":5.38881,"is_reserved":false,"is_disabled":false,"rental_uris":{"android":"levelo://app?vid=20a5b24d-b520-42df-8ac4-5a606a1b7de6","ios":"levelo://app?vid=20a5b24d-b520-42df-8ac4-5a606a1b7de6"},"vehicle_type_id":"4","last_reported":1686906418,"current_range_meters":30400,"station_id":"ce4bhqp2rcd13ifvqhog","pricing_plan_id":"free"},{"bike_id":"3ab63bf1-324b-404e-8f19-af64db678b58","system_id":"levelo_inurba_marseille","lat":43.293249,"lon":5.371578,"is_reserved":false,"is_disabled":false,"rental_uris":{"android":"levelo://app?vid=3ab63bf1-324b-404e-8f19-af64db678b58","ios":"levelo://app?vid=3ab63bf1-324b-404e-8f19-af64db678b58"},"vehicle_type_id":"4","last_reported":1686906418,"current_range_meters":28000,"station_id":"ce4bgh92rcd13ifvqb40","pricing_plan_id":"free"},{"bike_id":"1371225e-d045-445e-8bd6-19fc4686b774","system_id":"levelo_inurba_marseille","lat":43.29303,"lon":5.37166,"is_reserved":false,"is_disabled":false,"rental_uris":{"android":"levelo://app?vid=1371225e-d045-445e-8bd6-19fc4686b774","ios":"levelo://app?vid=1371225e-d045-445e-8bd6-19fc4686b774"},"vehicle_type_id":"4","last_reported":1686906418,"current_range_meters":27600,"station_id":"ce4bgh92rcd13ifvqb40","pricing_plan_id":"free"},{"bike_id":"efd49b5f-051b-4e30-9166-83101e39c1e4","system_id":"levelo_inurba_marseille","lat":43.29304,"lon":5.37174,"is_reserved":false,"is_disabled":false,"rental_uris":{"android":"levelo://app?vid=efd49b5f-051b-4e30-9166-83101e39c1e4","ios":"levelo://app?vid=efd49b5f-051b-4e30-9166-83101e39c1e4"},"vehicle_type_id":"4","last_reported":1686906418,"current_range_meters":20400,"station_id":"ce4bgh92rcd13ifvqb40","pricing_plan_id":"free"},{"bike_id":"f1440447-292d-46e2-b8f2-f3b194ac783b","system_id":"levelo_inurba_marseille","lat":43.29303,"lon":5.37175,"is_reserved":false,"is_disabled":false,"rental_uris":{"android":"levelo://app?vid=f1440447-292d-46e2-b8f2-f3b194ac783b","ios":"levelo://app?vid=f1440447-292d-46e2-b8f2-f3b194ac783b"},"vehicle_type_id":"4","last_reported":1686906418,"current_range_meters":27200,"station_id":"ce4bgh92rcd13ifvqb40","pricing_plan_id":"free"},{"bike_id":"424de599-85e9-4c6b-850f-a35f3d67ccab","system_id":"levelo_inurba_marseille","lat":43.292749,"lon":5.368398,"is_reserved":false,"is_disabled":false,"rental_uris":{"android":"levelo://app?vid=424de599-85e9-4c6b-850f-a35f3d67ccab","ios":"levelo://app?vid=424de599-85e9-4c6b-850f-a35f3d67ccab"},"vehicle_type_id":"4","last_reported":1686906418,"current_range_meters":18000,"station_id":"ce4bhbp2rcd13ifvqesg","pricing_plan_id":"free"},{"bike_id":"c1d5a22f-6e94-474f-ba58-f1fceaf2e8b2","system_id":"levelo_inurba_marseille","lat":43.303002,"lon":5.392142,"is_reserved":false,"is_disabled":false,"rental_uris":{"android":"levelo://app?vid=c1d5a22f-6e94-474f-ba58-f1fceaf2e8b2","ios":"levelo://app?vid=c1d5a22f-6e94-474f-ba58-f1fceaf2e8b2"},"vehicle_type_id":"4","last_reported":1686906418,"current_range_meters":21600,"station_id":"ce4bgkh2rcd13ifvqbk0","pricing_plan_id":"free"},{"bike_id":"592bdd1c-bb2e-465a-afe3-c3b6fead5946","system_id":"levelo_inurba_marseille","lat":43.293009,"lon":5.374584,"is_reserved":false,"is_disabled":false,"rental_uris":{"android":"levelo://app?vid=592bdd1c-bb2e-465a-afe3-c3b6fead5946","ios":"levelo://app?vid=592bdd1c-bb2e-465a-afe3-c3b6fead5946"},"vehicle_type_id":"4","last_reported":1686906418,"current_range_meters":16000,"station_id":"ce4bgi12rcd13ifvqb70","pricing_plan_id":"free"},{"bike_id":"0909529f-5557-4919-a1a4-c4d3795892fe","system_id":"levelo_inurba_marseille","lat":43.293009,"lon":5.374584,"is_reserved":false,"is_disabled":false,"rental_uris":{"android":"levelo://app?vid=0909529f-5557-4919-a1a4-c4d3795892fe","ios":"levelo://app?vid=0909529f-5557-4919-a1a4-c4d3795892fe"},"vehicle_type_id":"4","last_reported":1686906418,"current_range_meters":23200,"station_id":"ce4bgi12rcd13ifvqb70","pricing_plan_id":"free"},{"bike_id":"7a1084de-271b-4410-b1e8-f3c76f1bfe49","system_id":"levelo_inurba_marseille","lat":43.293009,"lon":5.374584,"is_reserved":false,"is_disabled":false,"rental_uris":{"android":"levelo://app?vid=7a1084de-271b-4410-b1e8-f3c76f1bfe49","ios":"levelo://app?vid=7a1084de-271b-4410-b1e8-f3c76f1bfe49"},"vehicle_type_id":"4","last_reported":1686906418,"current_range_meters":18400,"station_id":"ce4bgi12rcd13ifvqb70","pricing_plan_id":"free"},{"bike_id":"76d83235-8691-4c09-a892-59e013acd814","system_id":"levelo_inurba_marseille","lat":43.293009,"lon":5.374584,"is_reserved":false,"is_disabled":false,"rental_uris":{"android":"levelo://app?vid=76d83235-8691-4c09-a892-59e013acd814","ios":"levelo://app?vid=76d83235-8691-4c09-a892-59e013acd814"},"vehicle_type_id":"4","last_reported":1686906418,"current_range_meters":21600,"station_id":"ce4bgi12rcd13ifvqb70","pricing_plan_id":"free"},{"bike_id":"008a9f8b-3a35-49d0-84c7-762dbb4a49c5","system_id":"levelo_inurba_marseille","lat":43.293009,"lon":5.374584,"is_reserved":false,"is_disabled":false,"rental_uris":{"android":"levelo://app?vid=008a9f8b-3a35-49d0-84c7-762dbb4a49c5","ios":"levelo://app?vid=008a9f8b-3a35-49d0-84c7-762dbb4a49c5"},"vehicle_type_id":"4","last_reported":1686906418,"current_range_meters":15200,"station_id":"ce4bgi12rcd13ifvqb70","pricing_plan_id":"free"},{"bike_id":"e6585ce2-43f1-469d-b726-84a5b6fdf7ce","system_id":"levelo_inurba_marseille","lat":43.29294,"lon":5.37429,"is_reserved":false,"is_disabled":false,"rental_uris":{"android":"levelo://app?vid=e6585ce2-43f1-469d-b726-84a5b6fdf7ce","ios":"levelo://app?vid=e6585ce2-43f1-469d-b726-84a5b6fdf7ce"},"vehicle_type_id":"4","last_reported":1686906418,"current_range_meters":27600,"station_id":"ce4bgi12rcd13ifvqb70","pricing_plan_id":"free"},{"bike_id":"72a057a3-24c4-456c-bb15-3d654786d892","system_id":"levelo_inurba_marseille","lat":43.293009,"lon":5.374584,"is_reserved":false,"is_disabled":false,"rental_uris":{"android":"levelo://app?vid=72a057a3-24c4-456c-bb15-3d654786d892","ios":"levelo://app?vid=72a057a3-24c4-456c-bb15-3d654786d892"},"vehicle_type_id":"4","last_reported":1686906418,"current_range_meters":10400,"station_id":"ce4bgi12rcd13ifvqb70","pricing_plan_id":"free"},{"bike_id":"ae6031d7-9992-476d-a40f-c738d7442527","system_id":"levelo_inurba_marseille","lat":43.293009,"lon":5.374584,"is_reserved":false,"is_disabled":false,"rental_uris":{"android":"levelo://app?vid=ae6031d7-9992-476d-a40f-c738d7442527","ios":"levelo://app?vid=ae6031d7-9992-476d-a40f-c738d7442527"},"vehicle_type_id":"4","last_reported":1686906418,"current_range_meters":22000,"station_id":"ce4bgi12rcd13ifvqb70","pricing_plan_id":"free"},{"bike_id":"545ec679-8793-470e-8df6-c30e17ee90de","system_id":"levelo_inurba_marseille","lat":43.293009,"lon":5.374584,"is_reserved":false,"is_disabled":false,"rental_uris":{"android":"levelo://app?vid=545ec679-8793-470e-8df6-c30e17ee90de","ios":"levelo://app?vid=545ec679-8793-470e-8df6-c30e17ee90de"},"vehicle_type_id":"4","last_reported":1686906418,"current_range_meters":7600,"station_id":"ce4bgi12rcd13ifvqb70","pricing_plan_id":"free"},{"bike_id":"bb1d1c52-0e42-462b-8f0c-ecaa495881f0","system_id":"levelo_inurba_marseille","lat":43.293009,"lon":5.374584,"is_reserved":false,"is_disabled":false,"rental_uris":{"android":"levelo://app?vid=bb1d1c52-0e42-462b-8f0c-ecaa495881f0","ios":"levelo://app?vid=bb1d1c52-0e42-462b-8f0c-ecaa495881f0"},"vehicle_type_id":"4","last_reported":1686906418,"current_range_meters":30000,"station_id":"ce4bgi12rcd13ifvqb70","pricing_plan_id":"free"},{"bike_id":"af7efe58-1643-4433-be88-1d03a0c1ee9e","system_id":"levelo_inurba_marseille","lat":43.293009,"lon":5.374584,"is_reserved":false,"is_disabled":false,"rental_uris":{"android":"levelo://app?vid=af7efe58-1643-4433-be88-1d03a0c1ee9e","ios":"levelo://app?vid=af7efe58-1643-4433-be88-1d03a0c1ee9e"},"vehicle_type_id":"4","last_reported":1686906418,"current_range_meters":27600,"station_id":"ce4bgi12rcd13ifvqb70","pricing_plan_id":"free"},{"bike_id":"b1d1c207-6950-40b0-bafe-c61ee36c564f","system_id":"levelo_inurba_marseille","lat":43.292311,"lon":5.360731,"is_reserved":false,"is_disabled":false,"rental_uris":{"android":"levelo://app?vid=b1d1c207-6950-40b0-bafe-c61ee36c564f","ios":"levelo://app?vid=b1d1c207-6950-40b0-bafe-c61ee36c564f"},"vehicle_type_id":"4","last_reported":1686906418,"current_range_meters":30800,"station_id":"ce4bhbh2rcd13ifvqeqg","pricing_plan_id":"free"},{"bike_id":"51c69c2d-bd01-47a9-a969-5122eef1804b","system_id":"levelo_inurba_marseille","lat":43.291675,"lon":5.371583,"is_reserved":false,"is_disabled":false,"rental_uris":{"android":"levelo://app?vid=51c69c2d-bd01-47a9-a969-5122eef1804b","ios":"levelo://app?vid=51c69c2d-bd01-47a9-a969-5122eef1804b"},"vehicle_type_id":"4","last_reported":1686906418,"current_range_meters":30800,"station_id":"ce4bha92rcd13ifvqeh0","pricing_plan_id":"free"},{"bike_id":"db66c288-7f05-4600-8f75-9285fc5c5886","system_id":"levelo_inurba_marseille","lat":43.29176,"lon":5.37146,"is_reserved":false,"is_disabled":false,"rental_uris":{"android":"levelo://app?vid=db66c288-7f05-4600-8f75-9285fc5c5886","ios":"levelo://app?vid=db66c288-7f05-4600-8f75-9285fc5c5886"},"vehicle_type_id":"4","last_reported":1686906418,"current_range_meters":28000,"station_id":"ce4bha92rcd13ifvqeh0","pricing_plan_id":"free"},{"bike_id":"af172522-afe2-4cbe-ac7e-607c870f6088","system_id":"levelo_inurba_marseille","lat":43.29169,"lon":5.37152,"is_reserved":false,"is_disabled":false,"rental_uris":{"android":"levelo://app?vid=af172522-afe2-4cbe-ac7e-607c870f6088","ios":"levelo://app?vid=af172522-afe2-4cbe-ac7e-607c870f6088"},"vehicle_type_id":"4","last_reported":1686906418,"current_range_meters":19200,"station_id":"ce4bha92rcd13ifvqeh0","pricing_plan_id":"free"},{"bike_id":"4fe3dd09-b306-4ada-9492-e4063264373d","system_id":"levelo_inurba_marseille","lat":43.291674,"lon":5.371527,"is_reserved":false,"is_disabled":false,"rental_uris":{"android":"levelo://app?vid=4fe3dd09-b306-4ada-9492-e4063264373d","ios":"levelo://app?vid=4fe3dd09-b306-4ada-9492-e4063264373d"},"vehicle_type_id":"4","last_reported":1686906418,"current_range_meters":400,"station_id":"","pricing_plan_id":"free"},{"bike_id":"5c49d3f1-19b4-4a57-8864-7a68b0893313","system_id":"levelo_inurba_marseille","lat":43.291675,"lon":5.371583,"is_reserved":false,"is_disabled":false,"rental_uris":{"android":"levelo://app?vid=5c49d3f1-19b4-4a57-8864-7a68b0893313","ios":"levelo://app?vid=5c49d3f1-19b4-4a57-8864-7a68b0893313"},"vehicle_type_id":"4","last_reported":1686906418,"current_range_meters":31200,"station_id":"ce4bha92rcd13ifvqeh0","pricing_plan_id":"free"},{"bike_id":"6a31224d-624b-4bb7-afe9-dbc7a86fbab8","system_id":"levelo_inurba_marseille","lat":43.29163,"lon":5.37144,"is_reserved":false,"is_disabled":false,"rental_uris":{"android":"levelo://app?vid=6a31224d-624b-4bb7-afe9-dbc7a86fbab8","ios":"levelo://app?vid=6a31224d-624b-4bb7-afe9-dbc7a86fbab8"},"vehicle_type_id":"4","last_reported":1686906418,"current_range_meters":15200,"station_id":"ce4bha92rcd13ifvqeh0","pricing_plan_id":"free"},{"bike_id":"749da797-21a9-4b7d-b626-be68cfdfd5dc","system_id":"levelo_inurba_marseille","lat":43.3088,"lon":5.39615,"is_reserved":false,"is_disabled":false,"rental_uris":{"android":"levelo://app?vid=749da797-21a9-4b7d-b626-be68cfdfd5dc","ios":"levelo://app?vid=749da797-21a9-4b7d-b626-be68cfdfd5dc"},"vehicle_type_id":"4","last_reported":1686906418,"current_range_meters":27200,"station_id":"","pricing_plan_id":"free"},{"bike_id":"489b003a-14df-41c3-9e60-003e390a11cb","system_id":"levelo_inurba_marseille","lat":43.30888,"lon":5.39624,"is_reserved":false,"is_disabled":false,"rental_uris":{"android":"levelo://app?vid=489b003a-14df-41c3-9e60-003e390a11cb","ios":"levelo://app?vid=489b003a-14df-41c3-9e60-003e390a11cb"},"vehicle_type_id":"4","last_reported":1686906418,"current_range_meters":19600,"station_id":"","pricing_plan_id":"free"},{"bike_id":"953ef592-760b-4c54-8372-260254769cd9","system_id":"levelo_inurba_marseille","lat":43.291994,"lon":5.357886,"is_reserved":false,"is_disabled":false,"rental_uris":{"android":"levelo://app?vid=953ef592-760b-4c54-8372-260254769cd9","ios":"levelo://app?vid=953ef592-760b-4c54-8372-260254769cd9"},"vehicle_type_id":"4","last_reported":1686906418,"current_range_meters":30000,"station_id":"ce4bhb12rcd13ifvqel0","pricing_plan_id":"free"},{"bike_id":"fd453752-6a11-4dcd-922e-2abf95214e36","system_id":"levelo_inurba_marseille","lat":43.309038,"lon":5.396546,"is_reserved":false,"is_disabled":false,"rental_uris":{"android":"levelo://app?vid=fd453752-6a11-4dcd-922e-2abf95214e36","ios":"levelo://app?vid=fd453752-6a11-4dcd-922e-2abf95214e36"},"vehicle_type_id":"4","last_reported":1686906418,"current_range_meters":18000,"station_id":"ce4bh012rcd13ifvqcv0","pricing_plan_id":"free"},{"bike_id":"6d037aee-24a5-44c0-bd63-d9eedec44cd7","system_id":"levelo_inurba_marseille","lat":43.313291,"lon":5.396838,"is_reserved":false,"is_disabled":false,"rental_uris":{"android":"levelo://app?vid=6d037aee-24a5-44c0-bd63-d9eedec44cd7","ios":"levelo://app?vid=6d037aee-24a5-44c0-bd63-d9eedec44cd7"},"vehicle_type_id":"4","last_reported":1686906418,"current_range_meters":28400,"station_id":"ce4bgvp2rcd13ifvqcu0","pricing_plan_id":"free"},{"bike_id":"e2176057-4454-45e9-9199-50d004f4feeb","system_id":"levelo_inurba_marseille","lat":43.31328,"lon":5.39687,"is_reserved":false,"is_disabled":false,"rental_uris":{"android":"levelo://app?vid=e2176057-4454-45e9-9199-50d004f4feeb","ios":"levelo://app?vid=e2176057-4454-45e9-9199-50d004f4feeb"},"vehicle_type_id":"4","last_reported":1686906418,"current_range_meters":29200,"station_id":"ce4bgvp2rcd13ifvqcu0","pricing_plan_id":"free"},{"bike_id":"fcfc1969-f185-4088-87c8-e3c4b67a470d","system_id":"levelo_inurba_marseille","lat":43.309038,"lon":5.396546,"is_reserved":false,"is_disabled":false,"rental_uris":{"android":"levelo://app?vid=fcfc1969-f185-4088-87c8-e3c4b67a470d","ios":"levelo://app?vid=fcfc1969-f185-4088-87c8-e3c4b67a470d"},"vehicle_type_id":"4","last_reported":1686906418,"current_range_meters":8000,"station_id":"ce4bh012rcd13ifvqcv0","pricing_plan_id":"free"},{"bike_id":"8aebb5b9-5b49-407f-8574-af92596177ce","system_id":"levelo_inurba_marseille","lat":43.291994,"lon":5.357886,"is_reserved":false,"is_disabled":false,"rental_uris":{"android":"levelo://app?vid=8aebb5b9-5b49-407f-8574-af92596177ce","ios":"levelo://app?vid=8aebb5b9-5b49-407f-8574-af92596177ce"},"vehicle_type_id":"4","last_reported":1686906418,"current_range_meters":31200,"station_id":"ce4bhb12rcd13ifvqel0","pricing_plan_id":"free"},{"bike_id":"8425cc9c-23a9-406f-9a1e-752fc804b822","system_id":"levelo_inurba_marseille","lat":43.290779,"lon":5.371482,"is_reserved":false,"is_disabled":false,"rental_uris":{"android":"levelo://app?vid=8425cc9c-23a9-406f-9a1e-752fc804b822","ios":"levelo://app?vid=8425cc9c-23a9-406f-9a1e-752fc804b822"},"vehicle_type_id":"4","last_reported":1686906418,"current_range_meters":31200,"station_id":"ce4bh5p2rcd13ifvqe4g","pricing_plan_id":"free"},{"bike_id":"07d3b325-4395-407d-8532-a6fb77af695f","system_id":"levelo_inurba_marseille","lat":43.290779,"lon":5.371482,"is_reserved":false,"is_disabled":false,"rental_uris":{"android":"levelo://app?vid=07d3b325-4395-407d-8532-a6fb77af695f","ios":"levelo://app?vid=07d3b325-4395-407d-8532-a6fb77af695f"},"vehicle_type_id":"4","last_reported":1686906418,"current_range_meters":21200,"station_id":"ce4bh5p2rcd13ifvqe4g","pricing_plan_id":"free"},{"bike_id":"2b79ac61-3110-44a2-87ef-8d31cae879e4","system_id":"levelo_inurba_marseille","lat":43.290327,"lon":5.375711,"is_reserved":false,"is_disabled":false,"rental_uris":{"android":"levelo://app?vid=2b79ac61-3110-44a2-87ef-8d31cae879e4","ios":"levelo://app?vid=2b79ac61-3110-44a2-87ef-8d31cae879e4"},"vehicle_type_id":"4","last_reported":1686906418,"current_range_meters":26800,"station_id":"ce4bh692rcd13ifvqe90","pricing_plan_id":"free"},{"bike_id":"38eb09af-7166-42b9-865e-84246929498f","system_id":"levelo_inurba_marseille","lat":43.294153,"lon":5.386305,"is_reserved":false,"is_disabled":false,"rental_uris":{"android":"levelo://app?vid=38eb09af-7166-42b9-865e-84246929498f","ios":"levelo://app?vid=38eb09af-7166-42b9-865e-84246929498f"},"vehicle_type_id":"4","last_reported":1686906418,"current_range_meters":29600,"station_id":"ce4bh2h2rcd13ifvqdh0","pricing_plan_id":"free"},{"bike_id":"d6205a10-f3b7-43ad-80df-f67ec8c4b769","system_id":"levelo_inurba_marseille","lat":43.289468,"lon":5.363719,"is_reserved":false,"is_disabled":false,"rental_uris":{"android":"levelo://app?vid=d6205a10-f3b7-43ad-80df-f67ec8c4b769","ios":"levelo://app?vid=d6205a10-f3b7-43ad-80df-f67ec8c4b769"},"vehicle_type_id":"4","last_reported":1686906418,"current_range_meters":0,"station_id":"ce4bhc92rcd13ifvqetg","pricing_plan_id":"free"},{"bike_id":"35b66c8f-63ac-4681-a620-51835d9b76bc","system_id":"levelo_inurba_marseille","lat":43.2894,"lon":5.36632,"is_reserved":false,"is_disabled":false,"rental_uris":{"android":"levelo://app?vid=35b66c8f-63ac-4681-a620-51835d9b76bc","ios":"levelo://app?vid=35b66c8f-63ac-4681-a620-51835d9b76bc"},"vehicle_type_id":"4","last_reported":1686906418,"current_range_meters":10000,"station_id":"ce4bhap2rcd13ifvqek0","pricing_plan_id":"free"},{"bike_id":"a9a94b7b-d99f-4e2a-9d74-f40be4f428de","system_id":"levelo_inurba_marseille","lat":43.289184,"lon":5.366408,"is_reserved":false,"is_disabled":false,"rental_uris":{"android":"levelo://app?vid=a9a94b7b-d99f-4e2a-9d74-f40be4f428de","ios":"levelo://app?vid=a9a94b7b-d99f-4e2a-9d74-f40be4f428de"},"vehicle_type_id":"4","last_reported":1686906418,"current_range_meters":17600,"station_id":"ce4bhap2rcd13ifvqek0","pricing_plan_id":"free"},{"bike_id":"d17e14bc-2dcb-43c9-ba24-83c1ade7af1c","system_id":"levelo_inurba_marseille","lat":43.290104,"lon":5.356111,"is_reserved":false,"is_disabled":false,"rental_uris":{"android":"levelo://app?vid=d17e14bc-2dcb-43c9-ba24-83c1ade7af1c","ios":"levelo://app?vid=d17e14bc-2dcb-43c9-ba24-83c1ade7af1c"},"vehicle_type_id":"4","last_reported":1686906418,"current_range_meters":12800,"station_id":"ce4bhb92rcd13ifvqen0","pricing_plan_id":"free"},{"bike_id":"52d9914a-df0c-4bb7-b631-320cd0d113f4","system_id":"levelo_inurba_marseille","lat":43.330442,"lon":5.389148,"is_reserved":false,"is_disabled":false,"rental_uris":{"android":"levelo://app?vid=52d9914a-df0c-4bb7-b631-320cd0d113f4","ios":"levelo://app?vid=52d9914a-df0c-4bb7-b631-320cd0d113f4"},"vehicle_type_id":"4","last_reported":1686906418,"current_range_meters":18000,"station_id":"ce4bhr92rcd13ifvqhrg","pricing_plan_id":"free"},{"bike_id":"cd77c49c-76a9-4010-9e33-993c30866339","system_id":"levelo_inurba_marseille","lat":43.290104,"lon":5.356111,"is_reserved":false,"is_disabled":false,"rental_uris":{"android":"levelo://app?vid=cd77c49c-76a9-4010-9e33-993c30866339","ios":"levelo://app?vid=cd77c49c-76a9-4010-9e33-993c30866339"},"vehicle_type_id":"4","last_reported":1686906418,"current_range_meters":6400,"station_id":"ce4bhb92rcd13ifvqen0","pricing_plan_id":"free"},{"bike_id":"7baf4506-55e2-4c8f-b7b8-39656ec1a8c9","system_id":"levelo_inurba_marseille","lat":43.33043,"lon":5.38916,"is_reserved":false,"is_disabled":false,"rental_uris":{"android":"levelo://app?vid=7baf4506-55e2-4c8f-b7b8-39656ec1a8c9","ios":"levelo://app?vid=7baf4506-55e2-4c8f-b7b8-39656ec1a8c9"},"vehicle_type_id":"4","last_reported":1686906418,"current_range_meters":21600,"station_id":"ce4bhr92rcd13ifvqhrg","pricing_plan_id":"free"},{"bike_id":"a4d2814a-ff66-466e-b091-93a97eadc809","system_id":"levelo_inurba_marseille","lat":43.33042,"lon":5.38918,"is_reserved":false,"is_disabled":false,"rental_uris":{"android":"levelo://app?vid=a4d2814a-ff66-466e-b091-93a97eadc809","ios":"levelo://app?vid=a4d2814a-ff66-466e-b091-93a97eadc809"},"vehicle_type_id":"4","last_reported":1686906418,"current_range_meters":29600,"station_id":"ce4bhr92rcd13ifvqhrg","pricing_plan_id":"free"},{"bike_id":"f3ed5be2-dc55-4f08-b19c-716230d39ab1","system_id":"levelo_inurba_marseille","lat":43.33041,"lon":5.38921,"is_reserved":false,"is_disabled":false,"rental_uris":{"android":"levelo://app?vid=f3ed5be2-dc55-4f08-b19c-716230d39ab1","ios":"levelo://app?vid=f3ed5be2-dc55-4f08-b19c-716230d39ab1"},"vehicle_type_id":"4","last_reported":1686906418,"current_range_meters":30400,"station_id":"ce4bhr92rcd13ifvqhrg","pricing_plan_id":"free"},{"bike_id":"9b16fa3c-0a0e-4928-88f3-660d203864ed","system_id":"levelo_inurba_marseille","lat":43.29011,"lon":5.35602,"is_reserved":false,"is_disabled":false,"rental_uris":{"android":"levelo://app?vid=9b16fa3c-0a0e-4928-88f3-660d203864ed","ios":"levelo://app?vid=9b16fa3c-0a0e-4928-88f3-660d203864ed"},"vehicle_type_id":"4","last_reported":1686906418,"current_range_meters":21600,"station_id":"ce4bhb92rcd13ifvqen0","pricing_plan_id":"free"},{"bike_id":"8663d010-9c17-4308-8fc9-b50ef446e221","system_id":"levelo_inurba_marseille","lat":43.33051,"lon":5.38909,"is_reserved":false,"is_disabled":false,"rental_uris":{"android":"levelo://app?vid=8663d010-9c17-4308-8fc9-b50ef446e221","ios":"levelo://app?vid=8663d010-9c17-4308-8fc9-b50ef446e221"},"vehicle_type_id":"4","last_reported":1686906418,"current_range_meters":0,"station_id":"ce4bhr92rcd13ifvqhrg","pricing_plan_id":"free"},{"bike_id":"dd47fda6-cd57-4802-a827-e1b0893b009a","system_id":"levelo_inurba_marseille","lat":43.33046,"lon":5.38919,"is_reserved":false,"is_disabled":false,"rental_uris":{"android":"levelo://app?vid=dd47fda6-cd57-4802-a827-e1b0893b009a","ios":"levelo://app?vid=dd47fda6-cd57-4802-a827-e1b0893b009a"},"vehicle_type_id":"4","last_reported":1686906418,"current_range_meters":22800,"station_id":"ce4bhr92rcd13ifvqhrg","pricing_plan_id":"free"},{"bike_id":"5e1cbb9f-baf9-4b5a-b4fc-3737e7068589","system_id":"levelo_inurba_marseille","lat":43.290103,"lon":5.356114,"is_reserved":false,"is_disabled":false,"rental_uris":{"android":"levelo://app?vid=5e1cbb9f-baf9-4b5a-b4fc-3737e7068589","ios":"levelo://app?vid=5e1cbb9f-baf9-4b5a-b4fc-3737e7068589"},"vehicle_type_id":"4","last_reported":1686906418,"current_range_meters":10800,"station_id":"ce4bhb92rcd13ifvqen0","pricing_plan_id":"free"},{"bike_id":"1f8ebb2d-809d-49c4-8950-d18dfada98dd","system_id":"levelo_inurba_marseille","lat":43.290104,"lon":5.356111,"is_reserved":false,"is_disabled":false,"rental_uris":{"android":"levelo://app?vid=1f8ebb2d-809d-49c4-8950-d18dfada98dd","ios":"levelo://app?vid=1f8ebb2d-809d-49c4-8950-d18dfada98dd"},"vehicle_type_id":"4","last_reported":1686906418,"current_range_meters":23200,"station_id":"ce4bhb92rcd13ifvqen0","pricing_plan_id":"free"},{"bike_id":"7e8ec547-c7f9-4088-9d8d-5153f8433284","system_id":"levelo_inurba_marseille","lat":43.290103,"lon":5.356114,"is_reserved":false,"is_disabled":false,"rental_uris":{"android":"levelo://app?vid=7e8ec547-c7f9-4088-9d8d-5153f8433284","ios":"levelo://app?vid=7e8ec547-c7f9-4088-9d8d-5153f8433284"},"vehicle_type_id":"4","last_reported":1686906418,"current_range_meters":20400,"station_id":"ce4bhb92rcd13ifvqen0","pricing_plan_id":"free"},{"bike_id":"d203af3f-7e34-419f-aadf-6fd235d8c302","system_id":"levelo_inurba_marseille","lat":43.291,"lon":5.38151,"is_reserved":false,"is_disabled":false,"rental_uris":{"android":"levelo://app?vid=d203af3f-7e34-419f-aadf-6fd235d8c302","ios":"levelo://app?vid=d203af3f-7e34-419f-aadf-6fd235d8c302"},"vehicle_type_id":"4","last_reported":1686906418,"current_range_meters":4000,"station_id":"ce4bh512rcd13ifvqe2g","pricing_plan_id":"free"},{"bike_id":"ec35357f-d1ff-4176-9c91-355293184465","system_id":"levelo_inurba_marseille","lat":43.29527,"lon":5.39032,"is_reserved":false,"is_disabled":false,"rental_uris":{"android":"levelo://app?vid=ec35357f-d1ff-4176-9c91-355293184465","ios":"levelo://app?vid=ec35357f-d1ff-4176-9c91-355293184465"},"vehicle_type_id":"4","last_reported":1686906418,"current_range_meters":28800,"station_id":"ce4bh3p2rcd13ifvqdp0","pricing_plan_id":"free"},{"bike_id":"12efdb48-6f4c-4a5d-b72c-6cc1a10ff652","system_id":"levelo_inurba_marseille","lat":43.2901,"lon":5.381269,"is_reserved":false,"is_disabled":false,"rental_uris":{"android":"levelo://app?vid=12efdb48-6f4c-4a5d-b72c-6cc1a10ff652","ios":"levelo://app?vid=12efdb48-6f4c-4a5d-b72c-6cc1a10ff652"},"vehicle_type_id":"4","last_reported":1686906418,"current_range_meters":18000,"station_id":"ce4bh4p2rcd13ifvqe1g","pricing_plan_id":"free"},{"bike_id":"eebb6305-77f2-42a3-a461-336a3467e3aa","system_id":"levelo_inurba_marseille","lat":43.28856,"lon":5.358371,"is_reserved":false,"is_disabled":false,"rental_uris":{"android":"levelo://app?vid=eebb6305-77f2-42a3-a461-336a3467e3aa","ios":"levelo://app?vid=eebb6305-77f2-42a3-a461-336a3467e3aa"},"vehicle_type_id":"4","last_reported":1686906418,"current_range_meters":9600,"station_id":"ce4bhb12rcd13ifvqem0","pricing_plan_id":"free"},{"bike_id":"c0fb8083-e02d-4dec-b1b9-fa095e6c5b75","system_id":"levelo_inurba_marseille","lat":43.337396,"lon":5.374526,"is_reserved":false,"is_disabled":false,"rental_uris":{"android":"levelo://app?vid=c0fb8083-e02d-4dec-b1b9-fa095e6c5b75","ios":"levelo://app?vid=c0fb8083-e02d-4dec-b1b9-fa095e6c5b75"},"vehicle_type_id":"4","last_reported":1686906418,"current_range_meters":2000,"station_id":"ce4bhp92rcd13ifvqhag","pricing_plan_id":"free"},