{"last_updated":1701623134,"ttl":30,"version":"2.2","data":{"bikes":[{"bike_id":"0630c74e-81fd-4ffc-a747-0e18afe77c2b","system_id":"levelo_inurba_marseille","lat":43.312239,"lon":5.368562,"is_reserved":false,"is_disabled":false,"rental_uris":{"android":"levelo://app?vid=0630c74e-81fd-4ffc-a747-0e18afe77c2b","ios":"levelo://app?vid=0630c74e-81fd-4ffc-a747-0e18afe77c2b"},"vehicle_type_id":"4","last_reported":1701623134,"current_range_meters":26000,"station_id":"ce4bgl92rcd13ifvqbq0","pricing_plan_id":"free"},{"bike_id":"198bc508-8fbe-4330-8e3a-5de2e61b3e40","system_id":"levelo_inurba_marseille","lat":43.312239,"lon":5.368562,"is_reserved":false,"is_disabled":false,"rental_uris":{"android":"levelo://app?vid=198bc508-8fbe-4330-8e3a-5de2e61b3e40","ios":"levelo://app?vid=198bc508-8fbe-4330-8e3a-5de2e61b3e40"},"vehicle_type_id":"4","last_reported":1701623134,"current_range_meters":6400,"station_id":"ce4bgl92rcd13ifvqbq0","pricing_plan_id":"free"},{"bike_id":"bb0c0767-52d1-4fb4-8acf-33434846e113","system_id":"levelo_inurba_marseille","lat":43.309039,"lon":5.371797,"is_reserved":false,"is_disabled":false,"rental_uris":{"android":"levelo://app?vid=bb0c0767-52d1-4fb4-8acf-33434846e113","ios":"levelo://app?vid=bb0c0767-52d1-4fb4-8acf-33434846e113"},"vehicle_type_id":"4","last_reported":1701623134,"current_range_meters":0,"station_id":"ce4bguh2rcd13ifvqckg","pricing_plan_id":"free"},{"bike_id":"d0e9f5c1-8363-454f-8fa4-cc3390ee4e19","system_id":"levelo_inurba_marseille","lat":43.31123,"lon":5.37751,"is_reserved":false,"is_disabled":false,"rental_uris":{"android":"levelo://app?vid=d0e9f5c1-8363-454f-8fa4-cc3390ee4e19","ios":"levelo://app?vid=d0e9f5c1-8363-454f-8fa4-cc3390ee4e19"},"vehicle_type_id":"4","last_reported":1701623134,"current_range_meters":24000,"station_id":"ce4bgt92rcd13ifvqcg0","pricing_plan_id":"free"},{"bike_id":"3d78c129-8e71-4aa9-aeac-7f44cc3d4c58","system_id":"levelo_inurba_marseille","lat":43.305989,"lon":5.37225,"is_reserved":false,"is_disabled":false,"rental_uris":{"android":"levelo://app?vid=3d78c129-8e71-4aa9-aeac-7f44cc3d4c58","ios":"levelo://app?vid=3d78c129-8e71-4aa9-aeac-7f44cc3d4c58"},"vehicle_type_id":"4","last_reported":1701623134,"current_range_meters":9600,"station_id":"ce4bgqh2rcd13ifvqc4g","pricing_plan_id":"free"},{"bike_id":"f427a2c3-6e4a-446b-ae2f-9be8aa7f4122","system_id":"levelo_inurba_marseille","lat":43.31719,"lon":5.376813,"is_reserved":false,"is_disabled":false,"rental_uris":{"android":"levelo://app?vid=f427a2c3-6e4a-446b-ae2f-9be8aa7f4122","ios":"levelo://app?vid=f427a2c3-6e4a-446b-ae2f-9be8aa7f4122"},"vehicle_type_id":"4","last_reported":1701623134,"current_range_meters":0,"station_id":"","pricing_plan_id":"free"},{"bike_id":"e913f328-1e31-4c22-bd87-f809ea246de4","system_id":"levelo_inurba_marseille","lat":43.317168,"lon":5.376883,"is_reserved":false,"is_disabled":false,"rental_uris":{"android":"levelo://app?vid=e913f328-1e31-4c22-bd87-f809ea246de4","ios":"levelo://app?vid=e913f328-1e31-4c22-bd87-f809ea246de4"},"vehicle_type_id":"4","last_reported":1701623134,"current_range_meters":0,"station_id":"","pricing_plan_id":"free"},{"bike_id":"fb6fd937-527b-4585-9058-0dfdc6436ac8","system_id":"levelo_inurba_marseille","lat":43.31351,"lon":5.37909,"is_reserved":false,"is_disabled":false,"rental_uris":{"android":"levelo://app?vid=fb6fd937-527b-4585-9058-0dfdc6436ac8","ios":"levelo://app?vid=fb6fd937-527b-4585-9058-0dfdc6436ac8"},"vehicle_type_id":"4","last_reported":1701623134,"current_range_meters":17200,"station_id":"","pricing_plan_id":"free"},{"bike_id":"8dde054f-16cd-4553-87cb-39c3c64236d4","system_id":"levelo_inurba_marseille","lat":43.30304,"lon":5.368987,"is_reserved":false,"is_disabled":false,"rental_uris":{"android":"levelo://app?vid=8dde054f-16cd-4553-87cb-39c3c64236d4","ios":"levelo://app?vid=8dde054f-16cd-4553-87cb-39c3c64236d4"},"vehicle_type_id":"4","last_reported":1701623134,"current_range_meters":7200,"station_id":"ce4bgqh2rcd13ifvqc5g","pricing_plan_id":"free"},{"bike_id":"3253f46d-fe3e-45a6-9412-71e1334926f2","system_id":"levelo_inurba_marseille","lat":43.30304,"lon":5.368987,"is_reserved":false,"is_disabled":false,"rental_uris":{"android":"levelo://app?vid=3253f46d-fe3e-45a6-9412-71e1334926f2","ios":"levelo://app?vid=3253f46d-fe3e-45a6-9412-71e1334926f2"},"vehicle_type_id":"4","last_reported":1701623134,"current_range_meters":28800,"station_id":"ce4bgqh2rcd13ifvqc5g","pricing_plan_id":"free"},{"bike_id":"0135412b-e5be-45e8-b8df-0c02d043aaa1","system_id":"levelo_inurba_marseille","lat":43.308012,"lon":5.381511,"is_reserved":false,"is_disabled":false,"rental_uris":{"android":"levelo://app?vid=0135412b-e5be-45e8-b8df-0c02d043aaa1","ios":"levelo://app?vid=0135412b-e5be-45e8-b8df-0c02d043aaa1"},"vehicle_type_id":"4","last_reported":1701623134,"current_range_meters":16400,"station_id":"ce4bgt12rcd13ifvqce0","pricing_plan_id":"free"},{"bike_id":"6abcebd8-9bcb-4faa-b1a0-5fde4106f942","system_id":"levelo_inurba_marseille","lat":43.30143,"lon":5.37413,"is_reserved":false,"is_disabled":false,"rental_uris":{"android":"levelo://app?vid=6abcebd8-9bcb-4faa-b1a0-5fde4106f942","ios":"levelo://app?vid=6abcebd8-9bcb-4faa-b1a0-5fde4106f942"},"vehicle_type_id":"4","last_reported":1701623134,"current_range_meters":24400,"station_id":"ce4bgs92rcd13ifvqcc0","pricing_plan_id":"free"},{"bike_id":"a215b333-bfba-48c4-8dda-1d4a1018aa52","system_id":"levelo_inurba_marseille","lat":43.30143,"lon":5.37413,"is_reserved":false,"is_disabled":false,"rental_uris":{"android":"levelo://app?vid=a215b333-bfba-48c4-8dda-1d4a1018aa52","ios":"levelo://app?vid=a215b333-bfba-48c4-8dda-1d4a1018aa52"},"vehicle_type_id":"4","last_reported":1701623134,"current_range_meters":3200,"station_id":"ce4bgs92rcd13ifvqcc0","pricing_plan_id":"free"},{"bike_id":"60ff37de-40d4-4a41-96fc-c7e65cbbfd2e","system_id":"levelo_inurba_marseille","lat":43.301429,"lon":5.37413,"is_reserved":false,"is_disabled":false,"rental_uris":{"android":"levelo://app?vid=60ff37de-40d4-4a41-96fc-c7e65cbbfd2e","ios":"levelo://app?vid=60ff37de-40d4-4a41-96fc-c7e65cbbfd2e"},"vehicle_type_id":"4","last_reported":1701623134,"current_range_meters":11600,"station_id":"ce4bgs92rcd13ifvqcc0","pricing_plan_id":"free"},{"bike_id":"c32b4a1c-8be5-4f93-a794-fd809cd16078","system_id":"levelo_inurba_marseille","lat":43.319935,"lon":5.381699,"is_reserved":false,"is_disabled":false,"rental_uris":{"android":"levelo://app?vid=c32b4a1c-8be5-4f93-a794-fd809cd16078","ios":"levelo://app?vid=c32b4a1c-8be5-4f93-a794-fd809cd16078"},"vehicle_type_id":"4","last_reported":1701623134,"current_range_meters":10800,"station_id":"ce4bhr12rcd13ifvqhpg","pricing_plan_id":"free"},{"bike_id":"2275aca5-3158-4c2c-8022-ca5d2714bc86","system_id":"levelo_inurba_marseille","lat":43.319997,"lon":5.381594,"is_reserved":false,"is_disabled":false,"rental_uris":{"android":"levelo://app?vid=2275aca5-3158-4c2c-8022-ca5d2714bc86","ios":"levelo://app?vid=2275aca5-3158-4c2c-8022-ca5d2714bc86"},"vehicle_type_id":"4","last_reported":1701623134,"current_range_meters":10800,"station_id":"ce4bhr12rcd13ifvqhpg","pricing_plan_id":"free"},{"bike_id":"895225dd-1497-449f-8760-9a2fd8fe3082","system_id":"levelo_inurba_marseille","lat":43.313571,"lon":5.384829,"is_reserved":false,"is_disabled":false,"rental_uris":{"android":"levelo://app?vid=895225dd-1497-449f-8760-9a2fd8fe3082","ios":"levelo://app?vid=895225dd-1497-449f-8760-9a2fd8fe3082"},"vehicle_type_id":"4","last_reported":1701623134,"current_range_meters":19600,"station_id":"ce4bgt92rcd13ifvqcf0","pricing_plan_id":"free"},{"bike_id":"dbe6c22b-c1ee-43ed-92d4-2d18930b7ddf","system_id":"levelo_inurba_marseille","lat":43.313571,"lon":5.384829,"is_reserved":false,"is_disabled":false,"rental_uris":{"android":"levelo://app?vid=dbe6c22b-c1ee-43ed-92d4-2d18930b7ddf","ios":"levelo://app?vid=dbe6c22b-c1ee-43ed-92d4-2d18930b7ddf"},"vehicle_type_id":"4","last_reported":1701623134,"current_range_meters":21200,"station_id":"ce4bgt92rcd13ifvqcf0","pricing_plan_id":"free"},{"bike_id":"9fdb7f97-586d-42d2-befd-15216ba2e422","system_id":"levelo_inurba_marseille","lat":43.31183,"lon":5.38523,"is_reserved":false,"is_disabled":false,"rental_uris":{"android":"levelo://app?vid=9fdb7f97-586d-42d2-befd-15216ba2e422","ios":"levelo://app?vid=9fdb7f97-586d-42d2-befd-15216ba2e422"},"vehicle_type_id":"4","last_reported":1701623134,"current_range_meters":0,"station_id":"","pricing_plan_id":"free"},{"bike_id":"748d12ab-8e09-4ecd-b2d2-cbe0ea9624f6","system_id":"levelo_inurba_marseille","lat":43.298953,"lon":5.36721,"is_reserved":false,"is_disabled":false,"rental_uris":{"android":"levelo://app?vid=748d12ab-8e09-4ecd-b2d2-cbe0ea9624f6","ios":"levelo://app?vid=748d12ab-8e09-4ecd-b2d2-cbe0ea9624f6"},"vehicle_type_id":"4","last_reported":1701623134,"current_range_meters":1200,"station_id":"","pricing_plan_id":"free"},{"bike_id":"8f471969-8e2d-4ef5-8d2e-654dab26d28a","system_id":"levelo_inurba_marseille","lat":43.31225,"lon":5.386495,"is_reserved":false,"is_disabled":false,"rental_uris":{"android":"levelo://app?vid=8f471969-8e2d-4ef5-8d2e-654dab26d28a","ios":"levelo://app?vid=8f471969-8e2d-4ef5-8d2e-654dab26d28a"},"vehicle_type_id":"4","last_reported":1701623134,"current_range_meters":20800,"station_id":"","pricing_plan_id":"free"},{"bike_id":"6e86dafc-81a0-4906-b008-a0b1477c33ee","system_id":"levelo_inurba_marseille","lat":43.305364,"lon":5.384119,"is_reserved":false,"is_disabled":false,"rental_uris":{"android":"levelo://app?vid=6e86dafc-81a0-4906-b008-a0b1477c33ee","ios":"levelo://app?vid=6e86dafc-81a0-4906-b008-a0b1477c33ee"},"vehicle_type_id":"4","last_reported":1701623134,"current_range_meters":22400,"station_id":"ce4bgg92rcd13ifvqb30","pricing_plan_id":"free"},{"bike_id":"23b87769-835d-4785-a0ce-2f799f96a579","system_id":"levelo_inurba_marseille","lat":43.305364,"lon":5.384119,"is_reserved":false,"is_disabled":false,"rental_uris":{"android":"levelo://app?vid=23b87769-835d-4785-a0ce-2f799f96a579","ios":"levelo://app?vid=23b87769-835d-4785-a0ce-2f799f96a579"},"vehicle_type_id":"4","last_reported":1701623134,"current_range_meters":14800,"station_id":"ce4bgg92rcd13ifvqb30","pricing_plan_id":"free"},{"bike_id":"f24547bb-ef73-467b-b603-ad28b987898e","system_id":"levelo_inurba_marseille","lat":43.311722,"lon":5.387247,"is_reserved":false,"is_disabled":false,"rental_uris":{"android":"levelo://app?vid=f24547bb-ef73-467b-b603-ad28b987898e","ios":"levelo://app?vid=f24547bb-ef73-467b-b603-ad28b987898e"},"vehicle_type_id":"4","last_reported":1701623134,"current_range_meters":21200,"station_id":"ce4bgv12rcd13ifvqcp0","pricing_plan_id":"free"},{"bike_id":"e56eb93b-2994-4e83-9444-d2a0c08573fa","system_id":"levelo_inurba_marseille","lat":43.311722,"lon":5.387247,"is_reserved":false,"is_disabled":false,"rental_uris":{"android":"levelo://app?vid=e56eb93b-2994-4e83-9444-d2a0c08573fa","ios":"levelo://app?vid=e56eb93b-2994-4e83-9444-d2a0c08573fa"},"vehicle_type_id":"4","last_reported":1701623134,"current_range_meters":10400,"station_id":"ce4bgv12rcd13ifvqcp0","pricing_plan_id":"free"},{"bike_id":"0a39dd03-261e-42e4-8565-1ecf12f7bfae","system_id":"levelo_inurba_marseille","lat":43.322933,"lon":5.382559,"is_reserved":false,"is_disabled":false,"rental_uris":{"android":"levelo://app?vid=0a39dd03-261e-42e4-8565-1ecf12f7bfae","ios":"levelo://app?vid=0a39dd03-261e-42e4-8565-1ecf12f7bfae"},"vehicle_type_id":"4","last_reported":1701623134,"current_range_meters":20400,"station_id":"ce4bhr12rcd13ifvqhqg","pricing_plan_id":"free"},{"bike_id":"08a721db-bf5d-46b3-9ba3-2a9c6c13bcf6","system_id":"levelo_inurba_marseille","lat":43.328256,"lon":5.366905,"is_reserved":false,"is_disabled":false,"rental_uris":{"android":"levelo://app?vid=08a721db-bf5d-46b3-9ba3-2a9c6c13bcf6","ios":"levelo://app?vid=08a721db-bf5d-46b3-9ba3-2a9c6c13bcf6"},"vehicle_type_id":"4","last_reported":1701623134,"current_range_meters":24400,"station_id":"","pricing_plan_id":"free"},{"bike_id":"56c27ac6-d3be-4b1b-a869-2d0f1759ad4a","system_id":"levelo_inurba_marseille","lat":43.29834,"lon":5.37658,"is_reserved":false,"is_disabled":false,"rental_uris":{"android":"levelo://app?vid=56c27ac6-d3be-4b1b-a869-2d0f1759ad4a","ios":"levelo://app?vid=56c27ac6-d3be-4b1b-a869-2d0f1759ad4a"},"vehicle_type_id":"4","last_reported":1701623134,"current_range_meters":0,"station_id":"","pricing_plan_id":"free"},{"bike_id":"eaa0e7e7-2390-47fa-909b-7b240952cbef","system_id":"levelo_inurba_marseille","lat":43.316511,"lon":5.3896,"is_reserved":false,"is_disabled":false,"rental_uris":{"android":"levelo://app?vid=eaa0e7e7-2390-47fa-909b-7b240952cbef","ios":"levelo://app?vid=eaa0e7e7-2390-47fa-909b-7b240952cbef"},"vehicle_type_id":"4","last_reported":1701623134,"current_range_meters":18000,"station_id":"","pricing_plan_id":"free"},{"bike_id":"596e950b-4a96-45c8-8bc2-548dbaa9a3c6","system_id":"levelo_inurba_marseille","lat":43.30012,"lon":5.38249,"is_reserved":false,"is_disabled":false,"rental_uris":{"android":"levelo://app?vid=596e950b-4a96-45c8-8bc2-548dbaa9a3c6","ios":"levelo://app?vid=596e950b-4a96-45c8-8bc2-548dbaa9a3c6"},"vehicle_type_id":"4","last_reported":1701623134,"current_range_meters":2400,"station_id":"","pricing_plan_id":"free"},{"bike_id":"50451858-4fd4-406d-badc-776a2e8a63c3","system_id":"levelo_inurba_marseille","lat":43.32972,"lon":5.36735,"is_reserved":false,"is_disabled":false,"rental_uris":{"android":"levelo://app?vid=50451858-4fd4-406d-badc-776a2e8a63c3","ios":"levelo://app?vid=50451858-4fd4-406d-badc-776a2e8a63c3"},"vehicle_type_id":"4","last_reported":1701623134,"current_range_meters":16400,"station_id":"","pricing_plan_id":"free"},{"bike_id":"5c26bdfb-7b7c-43fb-8a01-250128a1a6f8","system_id":"levelo_inurba_marseille","lat":43.32974,"lon":5.36729,"is_reserved":false,"is_disabled":false,"rental_uris":{"android":"levelo://app?vid=5c26bdfb-7b7c-43fb-8a01-250128a1a6f8","ios":"levelo://app?vid=5c26bdfb-7b7c-43fb-8a01-250128a1a6f8"},"vehicle_type_id":"4","last_reported":1701623134,"current_range_meters":18400,"station_id":"","pricing_plan_id":"free"},{"bike_id":"6abd92d8-4816-4536-a97f-10a253c2567a","system_id":"levelo_inurba_marseille","lat":43.29706,"lon":5.37691,"is_reserved":false,"is_disabled":false,"rental_uris":{"android":"levelo://app?vid=6abd92d8-4816-4536-a97f-10a253c2567a","ios":"levelo://app?vid=6abd92d8-4816-4536-a97f-10a253c2567a"},"vehicle_type_id":"4","last_reported":1701623134,"current_range_meters":20800,"station_id":"ce4bgkh2rcd13ifvqbl0","pricing_plan_id":"free"},{"bike_id":"9fd3552d-6d9e-4a61-a0b6-d86150197496","system_id":"levelo_inurba_marseille","lat":43.309589,"lon":5.390258,"is_reserved":false,"is_disabled":false,"rental_uris":{"android":"levelo://app?vid=9fd3552d-6d9e-4a61-a0b6-d86150197496","ios":"levelo://app?vid=9fd3552d-6d9e-4a61-a0b6-d86150197496"},"vehicle_type_id":"4","last_reported":1701623134,"current_range_meters":25200,"station_id":"ce4bgup2rcd13ifvqco0","pricing_plan_id":"free"},{"bike_id":"d2c44330-fb67-4540-921e-d022ed706a74","system_id":"levelo_inurba_marseille","lat":43.296921,"lon":5.376579,"is_reserved":false,"is_disabled":false,"rental_uris":{"android":"levelo://app?vid=d2c44330-fb67-4540-921e-d022ed706a74","ios":"levelo://app?vid=d2c44330-fb67-4540-921e-d022ed706a74"},"vehicle_type_id":"4","last_reported":1701623134,"current_range_meters":0,"station_id":"ce4bgkh2rcd13ifvqbl0","pricing_plan_id":"free"},{"bike_id":"bfe8a103-c24f-4078-932a-c2accf22d8e3","system_id":"levelo_inurba_marseille","lat":43.304274,"lon":5.388873,"is_reserved":false,"is_disabled":false,"rental_uris":{"android":"levelo://app?vid=bfe8a103-c24f-4078-932a-c2accf22d8e3","ios":"levelo://app?vid=bfe8a103-c24f-4078-932a-c2accf22d8e3"},"vehicle_type_id":"4","last_reported":1701623134,"current_range_meters":20400,"station_id":"ce4bgk12rcd13ifvqbi0","pricing_plan_id":"free"},{"bike_id":"3b6f8312-1d7d-4826-a02a-3696f7cca671","system_id":"levelo_inurba_marseille","lat":43.295748,"lon":5.37522,"is_reserved":false,"is_disabled":false,"rental_uris":{"android":"levelo://app?vid=3b6f8312-1d7d-4826-a02a-3696f7cca671","ios":"levelo://app?vid=3b6f8312-1d7d-4826-a02a-3696f7cca671"},"vehicle_type_id":"4","last_reported":1701623134,"current_range_meters":800,"station_id":"ce4bgh92rcd13ifvqb50","pricing_plan_id":"free"},{"bike_id":"38cc12b7-c1fa-42e5-8eaf-dd480a1d0f21","system_id":"levelo_inurba_marseille","lat":43.295748,"lon":5.37522,"is_reserved":false,"is_disabled":false,"rental_uris":{"android":"levelo://app?vid=38cc12b7-c1fa-42e5-8eaf-dd480a1d0f21","ios":"levelo://app?vid=38cc12b7-c1fa-42e5-8eaf-dd480a1d0f21"},"vehicle_type_id":"4","last_reported":1701623134,"current_range_meters":6800,"station_id":"ce4bgh92rcd13ifvqb50","pricing_plan_id":"free"},{"bike_id":"eae86f96-0458-4c3c-b23e-058c439befd8","system_id":"levelo_inurba_marseille","lat":43.296263,"lon":5.377094,"is_reserved":false,"is_disabled":false,"rental_uris":{"android":"levelo://app?vid=eae86f96-0458-4c3c-b23e-058c439befd8","ios":"levelo://app?vid=eae86f96-0458-4c3c-b23e-058c439befd8"},"vehicle_type_id":"4","last_reported":1701623134,"current_range_meters":14400,"station_id":"ce4bgi92rcd13ifvqb90","pricing_plan_id":"free"},{"bike_id":"2ca44b7c-0e28-417c-bf7b-8ebddc5755f0","system_id":"levelo_inurba_marseille","lat":43.29608,"lon":5.37724,"is_reserved":false,"is_disabled":false,"rental_uris":{"android":"levelo://app?vid=2ca44b7c-0e28-417c-bf7b-8ebddc5755f0","ios":"levelo://app?vid=2ca44b7c-0e28-417c-bf7b-8ebddc5755f0"},"vehicle_type_id":"4","last_reported":1701623134,"current_range_meters":800,"station_id":"ce4bgi92rcd13ifvqb90","pricing_plan_id":"free"},{"bike_id":"7fa92b3f-5fa7-489f-a632-f335ae170262","system_id":"levelo_inurba_marseille","lat":43.296263,"lon":5.377094,"is_reserved":false,"is_disabled":false,"rental_uris":{"android":"levelo://app?vid=7fa92b3f-5fa7-489f-a632-f335ae170262","ios":"levelo://app?vid=7fa92b3f-5fa7-489f-a632-f335ae170262"},"vehicle_type_id":"4","last_reported":1701623134,"current_range_meters":24800,"station_id":"ce4bgi92rcd13ifvqb90","pricing_plan_id":"free"},{"bike_id":"8b60f7a9-b8ab-4e36-941e-6407c53bc774","system_id":"levelo_inurba_marseille","lat":43.295279,"lon":5.375048,"is_reserved":false,"is_disabled":false,"rental_uris":{"android":"levelo://app?vid=8b60f7a9-b8ab-4e36-941e-6407c53bc774","ios":"levelo://app?vid=8b60f7a9-b8ab-4e36-941e-6407c53bc774"},"vehicle_type_id":"4","last_reported":1701623134,"current_range_meters":2000,"station_id":"ce4bgkp2rcd13ifvqbmg","pricing_plan_id":"free"},{"bike_id":"3bafc9e0-b1c3-48f5-9bc1-c5cad92ea836","system_id":"levelo_inurba_marseille","lat":43.2953,"lon":5.37505,"is_reserved":false,"is_disabled":false,"rental_uris":{"android":"levelo://app?vid=3bafc9e0-b1c3-48f5-9bc1-c5cad92ea836","ios":"levelo://app?vid=3bafc9e0-b1c3-48f5-9bc1-c5cad92ea836"},"vehicle_type_id":"4","last_reported":1701623134,"current_range_meters":2000,"station_id":"ce4bgkp2rcd13ifvqbmg","pricing_plan_id":"free"},{"bike_id":"6dbe2398-f84c-4e15-8acb-d7684398d2c3","system_id":"levelo_inurba_marseille","lat":43.301927,"lon":5.389546,"is_reserved":false,"is_disabled":false,"rental_uris":{"android":"levelo://app?vid=6dbe2398-f84c-4e15-8acb-d7684398d2c3","ios":"levelo://app?vid=6dbe2398-f84c-4e15-8acb-d7684398d2c3"},"vehicle_type_id":"4","last_reported":1701623134,"current_range_meters":29200,"station_id":"","pricing_plan_id":"free"},{"bike_id":"ad1cf5a5-d982-4583-9fba-c61bb719ec44","system_id":"levelo_inurba_marseille","lat":43.302992,"lon":5.392136,"is_reserved":false,"is_disabled":false,"rental_uris":{"android":"levelo://app?vid=ad1cf5a5-d982-4583-9fba-c61bb719ec44","ios":"levelo://app?vid=ad1cf5a5-d982-4583-9fba-c61bb719ec44"},"vehicle_type_id":"4","last_reported":1701623134,"current_range_meters":3200,"station_id":"ce4bgkh2rcd13ifvqbk0","pricing_plan_id":"free"},{"bike_id":"95c09fae-5875-4b01-a0b3-b3fac95ff48b","system_id":"levelo_inurba_marseille","lat":43.292311,"lon":5.360731,"is_reserved":false,"is_disabled":false,"rental_uris":{"android":"levelo://app?vid=95c09fae-5875-4b01-a0b3-b3fac95ff48b","ios":"levelo://app?vid=95c09fae-5875-4b01-a0b3-b3fac95ff48b"},"vehicle_type_id":"4","last_reported":1701623134,"current_range_meters":13200,"station_id":"ce4bhbh2rcd13ifvqeqg","pricing_plan_id":"free"},{"bike_id":"68b89a31-e6cc-41a5-9333-54df9134cf0b","system_id":"levelo_inurba_marseille","lat":43.30085,"lon":5.390856,"is_reserved":false,"is_disabled":false,"rental_uris":{"android":"levelo://app?vid=68b89a31-e6cc-41a5-9333-54df9134cf0b","ios":"levelo://app?vid=68b89a31-e6cc-41a5-9333-54df9134cf0b"},"vehicle_type_id":"4","last_reported":1701623134,"current_range_meters":26800,"station_id":"ce4bh192rcd13ifvqdb0","pricing_plan_id":"free"},{"bike_id":"276dbde9-dab0-42dd-afba-617f964f848c","system_id":"levelo_inurba_marseille","lat":43.300852,"lon":5.390859,"is_reserved":false,"is_disabled":false,"rental_uris":{"android":"levelo://app?vid=276dbde9-dab0-42dd-afba-617f964f848c","ios":"levelo://app?vid=276dbde9-dab0-42dd-afba-617f964f848c"},"vehicle_type_id":"4","last_reported":1701623134,"current_range_meters":3200,"station_id":"ce4bh192rcd13ifvqdb0","pricing_plan_id":"free"},{"bike_id":"e0c1486b-3955-499f-917a-28690e94bc64","system_id":"levelo_inurba_marseille","lat":43.298764,"lon":5.388973,"is_reserved":false,"is_disabled":false,"rental_uris":{"android":"levelo://app?vid=e0c1486b-3955-499f-917a-28690e94bc64","ios":"levelo://app?vid=e0c1486b-3955-499f-917a-28690e94bc64"},"vehicle_type_id":"4","last_reported":1701623134,"current_range_meters":8400,"station_id":"ce4bh392rcd13ifvqdl0","pricing_plan_id":"free"},{"bike_id":"ae37de6f-1c87-4602-9a2c-2078d5acf4e6","system_id":"levelo_inurba_marseille","lat":43.313291,"lon":5.396838,"is_reserved":false,"is_disabled":false,"rental_uris":{"android":"levelo://app?vid=ae37de6f-1c87-4602-9a2c-2078d5acf4e6","ios":"levelo://app?vid=ae37de6f-1c87-4602-9a2c-2078d5acf4e6"},"vehicle_type_id":"4","last_reported":1701623134,"current_range_meters":12800,"station_id":"ce4bgvp2rcd13ifvqcu0","pricing_plan_id":"free"},{"bike_id":"b5d2b347-0545-4bc7-8b20-c1f9cfd7b845","system_id":"levelo_inurba_marseille","lat":43.29529,"lon":5.385581,"is_reserved":false,"is_disabled":false,"rental_uris":{"android":"levelo://app?vid=b5d2b347-0545-4bc7-8b20-c1f9cfd7b845","ios":"levelo://app?vid=b5d2b347-0545-4bc7-8b20-c1f9cfd7b845"},"vehicle_type_id":"4","last_reported":1701623134,"current_range_meters":0,"station_id":"ce4bgih2rcd13ifvqba0","pricing_plan_id":"free"},{"bike_id":"d7698f39-b9ab-4f2e-aed2-cb5b6b21c6b6","system_id":"levelo_inurba_marseille","lat":43.290631,"lon":5.359244,"is_reserved":false,"is_disabled":false,"rental_uris":{"android":"levelo://app?vid=d7698f39-b9ab-4f2e-aed2-cb5b6b21c6b6","ios":"levelo://app?vid=d7698f39-b9ab-4f2e-aed2-cb5b6b21c6b6"},"vehicle_type_id":"4","last_reported":1701623134,"current_range_meters":12000,"station_id":"ce4bha92rcd13ifvqeg0","pricing_plan_id":"free"},{"bike_id":"db89f1f5-e96e-4fe4-8825-bca78970d4d1","system_id":"levelo_inurba_marseille","lat":43.294153,"lon":5.386305,"is_reserved":false,"is_disabled":false,"rental_uris":{"android":"levelo://app?vid=db89f1f5-e96e-4fe4-8825-bca78970d4d1","ios":"levelo://app?vid=db89f1f5-e96e-4fe4-8825-bca78970d4d1"},"vehicle_type_id":"4","last_reported":1701623134,"current_range_meters":18000,"station_id":"ce4bh2h2rcd13ifvqdh0","pricing_plan_id":"free"},{"bike_id":"117d7b54-2bce-418d-8ae8-93076f1b4512","system_id":"levelo_inurba_marseille","lat":43.294162,"lon":5.386292,"is_reserved":false,"is_disabled":false,"rental_uris":{"android":"levelo://app?vid=117d7b54-2bce-418d-8ae8-93076f1b4512","ios":"levelo://app?vid=117d7b54-2bce-418d-8ae8-93076f1b4512"},"vehicle_type_id":"4","last_reported":1701623134,"current_range_meters":4400,"station_id":"ce4bh2h2rcd13ifvqdh0","pricing_plan_id":"free"},{"bike_id":"2be58756-8027-43e5-becb-d0da002378c1","system_id":"levelo_inurba_marseille","lat":43.289468,"lon":5.363719,"is_reserved":false,"is_disabled":false,"rental_uris":{"android":"levelo://app?vid=2be58756-8027-43e5-becb-d0da002378c1","ios":"levelo://app?vid=2be58756-8027-43e5-becb-d0da002378c1"},"vehicle_type_id":"4","last_reported":1701623134,"current_range_meters":12400,"station_id":"ce4bhc92rcd13ifvqetg","pricing_plan_id":"free"},{"bike_id":"b9995148-8ebe-4277-be0a-f55159539d02","system_id":"levelo_inurba_marseille","lat":43.289468,"lon":5.363719,"is_reserved":false,"is_disabled":false,"rental_uris":{"android":"levelo://app?vid=b9995148-8ebe-4277-be0a-f55159539d02","ios":"levelo://app?vid=b9995148-8ebe-4277-be0a-f55159539d02"},"vehicle_type_id":"4","last_reported":1701623134,"current_range_meters":29200,"station_id":"ce4bhc92rcd13ifvqetg","pricing_plan_id":"free"},{"bike_id":"c690ffcb-cd90-4750-a75c-911f66189329","system_id":"levelo_inurba_marseille","lat":43.292644,"lon":5.384257,"is_reserved":false,"is_disabled":false,"rental_uris":{"android":"levelo://app?vid=c690ffcb-cd90-4750-a75c-911f66189329","ios":"levelo://app?vid=c690ffcb-cd90-4750-a75c-911f66189329"},"vehicle_type_id":"4","last_reported":1701623134,"current_range_meters":8000,"station_id":"ce4bh692rcd13ifvqea0","pricing_plan_id":"free"},{"bike_id":"25f77d68-34bb-4f88-beec-feb4d5130043","system_id":"levelo_inurba_marseille","lat":43.292642,"lon":5.384254,"is_reserved":false,"is_disabled":false,"rental_uris":{"android":"levelo://app?vid=25f77d68-34bb-4f88-beec-feb4d5130043","ios":"levelo://app?vid=25f77d68-34bb-4f88-beec-feb4d5130043"},"vehicle_type_id":"4","last_reported":1701623134,"current_range_meters":22000,"station_id":"ce4bh692rcd13ifvqea0","pricing_plan_id":"free"},{"bike_id":"8f27e816-7bc5-4c50-9787-688054485d61","system_id":"levelo_inurba_marseille","lat":43.33042,"lon":5.38928,"is_reserved":false,"is_disabled":false,"rental_uris":{"android":"levelo://app?vid=8f27e816-7bc5-4c50-9787-688054485d61","ios":"levelo://app?vid=8f27e816-7bc5-4c50-9787-688054485d61"},"vehicle_type_id":"4","last_reported":1701623134,"current_range_meters":27600,"station_id":"ce4bhr92rcd13ifvqhrg","pricing_plan_id":"free"},{"bike_id":"0cf61c76-0cf9-4ecc-b11b-84015ac4af4d","system_id":"levelo_inurba_marseille","lat":43.290995,"lon":5.381361,"is_reserved":false,"is_disabled":false,"rental_uris":{"android":"levelo://app?vid=0cf61c76-0cf9-4ecc-b11b-84015ac4af4d","ios":"levelo://app?vid=0cf61c76-0cf9-4ecc-b11b-84015ac4af4d"},"vehicle_type_id":"4","last_reported":1701623134,"current_range_meters":14400,"station_id":"ce4bh512rcd13ifvqe2g","pricing_plan_id":"free"},{"bike_id":"e14af431-cca0-46fe-b680-041033484745","system_id":"levelo_inurba_marseille","lat":43.29091,"lon":5.38119,"is_reserved":false,"is_disabled":false,"rental_uris":{"android":"levelo://app?vid=e14af431-cca0-46fe-b680-041033484745","ios":"levelo://app?vid=e14af431-cca0-46fe-b680-041033484745"},"vehicle_type_id":"4","last_reported":1701623134,"current_range_meters":18000,"station_id":"ce4bh512rcd13ifvqe2g","pricing_plan_id":"free"},{"bike_id":"c6a67a20-ce81-4e94-b744-e8aa0a906a39","system_id":"levelo_inurba_marseille","lat":43.29788,"lon":5.39343,"is_reserved":false,"is_disabled":false,"rental_uris":{"android":"levelo://app?vid=c6a67a20-ce81-4e94-b744-e8aa0a906a39","ios":"levelo://app?vid=c6a67a20-ce81-4e94-b744-e8aa0a906a39"},"vehicle_type_id":"4","last_reported":1701623134,"current_range_meters":22000,"station_id":"chh1huq6cuj3fo74tm60","pricing_plan_id":"free"},{"bike_id":"f8a5d23c-bd3b-49d4-86aa-d1b402c87300","system_id":"levelo_inurba_marseille","lat":43.295169,"lon":5.390426,"is_reserved":false,"is_disabled":false,"rental_uris":{"android":"levelo://app?vid=f8a5d23c-bd3b-49d4-86aa-d1b402c87300","ios":"levelo://app?vid=f8a5d23c-bd3b-49d4-86aa-d1b402c87300"},"vehicle_type_id":"4","last_reported":1701623134,"current_range_meters":24400,"station_id":"ce4bh3p2rcd13ifvqdp0","pricing_plan_id":"free"},{"bike_id":"49dd0dd8-8bcb-4daa-8074-8f1d400f2ce8","system_id":"levelo_inurba_marseille","lat":43.29757,"lon":5.39349,"is_reserved":false,"is_disabled":false,"rental_uris":{"android":"levelo://app?vid=49dd0dd8-8bcb-4daa-8074-8f1d400f2ce8","ios":"levelo://app?vid=49dd0dd8-8bcb-4daa-8074-8f1d400f2ce8"},"vehicle_type_id":"4","last_reported":1701623134,"current_range_meters":4800,"station_id":"chh1huq6cuj3fo74tm60","pricing_plan_id":"free"},{"bike_id":"364536f4-7185-4ae6-b66c-1e6a793435e1","system_id":"levelo_inurba_marseille","lat":43.301117,"lon":5.398795,"is_reserved":false,"is_disabled":false,"rental_uris":{"android":"levelo://app?vid=364536f4-7185-4ae6-b66c-1e6a793435e1","ios":"levelo://app?vid=364536f4-7185-4ae6-b66c-1e6a793435e1"},"vehicle_type_id":"4","last_reported":1701623134,"current_range_meters":13600,"station_id":"ce4bh0h2rcd13ifvqd40","pricing_plan_id":"free"},{"bike_id":"5c021cd1-8bca-4df7-800d-40684c85b662","system_id":"levelo_inurba_marseille","lat":43.286961,"lon":5.373785,"is_reserved":false,"is_disabled":false,"rental_uris":{"android":"levelo://app?vid=5c021cd1-8bca-4df7-800d-40684c85b662","ios":"levelo://app?vid=5c021cd1-8bca-4df7-800d-40684c85b662"},"vehicle_type_id":"4","last_reported":1701623134,"current_range_meters":13200,"station_id":"ce4bh3p2rcd13ifvqdq0","pricing_plan_id":"free"},{"bike_id":"0ed86916-1c6e-4615-802d-882ab72f4849","system_id":"levelo_inurba_marseille","lat":43.295196,"lon":5.39397,"is_reserved":false,"is_disabled":false,"rental_uris":{"android":"levelo://app?vid=0ed86916-1c6e-4615-802d-882ab72f4849","ios":"levelo://app?vid=0ed86916-1c6e-4615-802d-882ab72f4849"},"vehicle_type_id":"4","last_reported":1701623134,"current_range_meters":16000,"station_id":"ce4bh292rcd13ifvqdf0","pricing_plan_id":"free"},{"bike_id":"874dcb8b-a128-4d4d-a1a1-80e4eac24dde","system_id":"levelo_inurba_marseille","lat":43.295336,"lon":5.394075,"is_reserved":false,"is_disabled":false,"rental_uris":{"android":"levelo://app?vid=874dcb8b-a128-4d4d-a1a1-80e4eac24dde","ios":"levelo://app?vid=874dcb8b-a128-4d4d-a1a1-80e4eac24dde"},"vehicle_type_id":"4","last_reported":1701623134,"current_range_meters":2000,"station_id":"","pricing_plan_id":"free"},{"bike_id":"f24047fe-e321-4665-8592-de4d0ebe52dc","system_id":"levelo_inurba_marseille","lat":43.289307,"lon":5.38406,"is_reserved":false,"is_disabled":false,"rental_uris":{"android":"levelo://app?vid=f24047fe-e321-4665-8592-de4d0ebe52dc","ios":"levelo://app?vid=f24047fe-e321-4665-8592-de4d0ebe52dc"},"vehicle_type_id":"4","last_reported":1701623134,"current_range_meters":3600,"station_id":"ce4bh612rcd13ifvqe6g","pricing_plan_id":"free"},{"bike_id":"69c1ccbd-e562-489f-ae6d-0ec1a7e87c05","system_id":"levelo_inurba_marseille","lat":43.290345,"lon":5.38646,"is_reserved":false,"is_disabled":false,"rental_uris":{"android":"levelo://app?vid=69c1ccbd-e562-489f-ae6d-0ec1a7e87c05","ios":"levelo://app?vid=69c1ccbd-e562-489f-ae6d-0ec1a7e87c05"},"vehicle_type_id":"4","last_reported":1701623134,"current_range_meters":6400,"station_id":"ce4bh4p2rcd13ifvqe0g","pricing_plan_id":"free"},{"bike_id":"2218a165-677f-47f2-a612-a715e7cbd752","system_id":"levelo_inurba_marseille","lat":43.290345,"lon":5.38646,"is_reserved":false,"is_disabled":false,"rental_uris":{"android":"levelo://app?vid=2218a165-677f-47f2-a612-a715e7cbd752","ios":"levelo://app?vid=2218a165-677f-47f2-a612-a715e7cbd752"},"vehicle_type_id":"4","last_reported":1701623134,"current_range_meters":31200,"station_id":"ce4bh4p2rcd13ifvqe0g","pricing_plan_id":"free"},{"bike_id":"286e718e-5b5f-43b2-96d4-501d26d60106","system_id":"levelo_inurba_marseille","lat":43.284538,"lon":5.358657,"is_reserved":false,"is_disabled":false,"rental_uris":{"android":"levelo://app?vid=286e718e-5b5f-43b2-96d4-501d26d60106","ios":"levelo://app?vid=286e718e-5b5f-43b2-96d4-501d26d60106"},"vehicle_type_id":"4","last_reported":1701623134,"current_range_meters":19200,"station_id":"ce4bhah2rcd13ifvqei0","pricing_plan_id":"free"},{"bike_id":"4b22133d-6fbf-475b-98a8-eaef71155c6e","system_id":"levelo_inurba_marseille","lat":43.319179,"lon":5.407725,"is_reserved":false,"is_disabled":false,"rental_uris":{"android":"levelo://app?vid=4b22133d-6fbf-475b-98a8-eaef71155c6e","ios":"levelo://app?vid=4b22133d-6fbf-475b-98a8-eaef71155c6e"},"vehicle_type_id":"4","last_reported":1701623134,"current_range_meters":0,"station_id":"ce4bhq12rcd13ifvqhig","pricing_plan_id":"free"},{"bike_id":"23a6e18e-5ad6-40cf-b6fb-7a4b1a6034c9","system_id":"levelo_inurba_marseille","lat":43.33745,"lon":5.39116,"is_reserved":false,"is_disabled":false,"rental_uris":{"android":"levelo://app?vid=23a6e18e-5ad6-40cf-b6fb-7a4b1a6034c9","ios":"levelo://app?vid=23a6e18e-5ad6-40cf-b6fb-7a4b1a6034c9"},"vehicle_type_id":"4","last_reported":1701623134,"current_range_meters":27600,"station_id":"","pricing_plan_id":"free"},{"bike_id":"4b021143-be23-4d8d-ac72-086548831286","system_id":"levelo_inurba_marseille","lat":43.33717,"lon":5.391857,"is_reserved":false,"is_disabled":false,"rental_uris":{"android":"levelo://app?vid=4b021143-be23-4d8d-ac72-086548831286","ios":"levelo://app?vid=4b021143-be23-4d8d-ac72-086548831286"},"vehicle_type_id":"4","last_reported":1701623134,"current_range_meters":14400,"station_id":"ce4bhr92rcd13ifvqhsg","pricing_plan_id":"free"},{"bike_id":"ecead7d1-64e9-48a2-af90-bc90a89006d7","system_id":"levelo_inurba_marseille","lat":43.284787,"lon":5.384116,"is_reserved":false,"is_disabled":false,"rental_uris":{"android":"levelo://app?vid=ecead7d1-64e9-48a2-af90-bc90a89006d7","ios":"levelo://app?vid=ecead7d1-64e9-48a2-af90-bc90a89006d7"},"vehicle_type_id":"4","last_reported":1701623134,"current_range_meters":800,"station_id":"ce4bh512rcd13ifvqe3g","pricing_plan_id":"free"},{"bike_id":"a9cec647-2fa3-4d82-a42f-4dd28accb0c0","system_id":"levelo_inurba_marseille","lat":43.28039,"lon":5.369297,"is_reserved":false,"is_disabled":false,"rental_uris":{"android":"levelo://app?vid=a9cec647-2fa3-4d82-a42f-4dd28accb0c0","ios":"levelo://app?vid=a9cec647-2fa3-4d82-a42f-4dd28accb0c0"},"vehicle_type_id":"4","last_reported":1701623134,"current_range_meters":26400,"station_id":"ce4bha12rcd13ifvqef0","pricing_plan_id":"free"},{"bike_id":"2bc3ede3-14be-4629-9ad4-5b4ae198650f","system_id":"levelo_inurba_marseille","lat":43.28039,"lon":5.369297,"is_reserved":false,"is_disabled":false,"rental_uris":{"android":"levelo://app?vid=2bc3ede3-14be-4629-9ad4-5b4ae198650f","ios":"levelo://app?vid=2bc3ede3-14be-4629-9ad4-5b4ae198650f"},"vehicle_type_id":"4","last_reported":1701623134,"current_range_meters":19600,"station_id":"ce4bha12rcd13ifvqef0","pricing_plan_id":"free"},{"bike_id":"2c55cfa5-280c-46cc-aab7-a7dc78cfc400","system_id":"levelo_inurba_marseille","lat":43.281044,"lon":5.378308,"is_reserved":false,"is_disabled":false,"rental_uris":{"android":"levelo://app?vid=2c55cfa5-280c-46cc-aab7-a7dc78cfc400","ios":"levelo://app?vid=2c55cfa5-280c-46cc-aab7-a7dc78cfc400"},"vehicle_type_id":"4","last_reported":1701623134,"current_range_meters":8000,"station_id":"ce4bha12rcd13ifvqee0","pricing_plan_id":"free"},{"bike_id":"e20445a8-2c3a-4f68-9dd9-d60b3530d7e8","system_id":"levelo_inurba_marseille","lat":43.326605,"lon":5.409903,"is_reserved":false,"is_disabled":false,"rental_uris":{"android":"levelo://app?vid=e20445a8-2c3a-4f68-9dd9-d60b3530d7e8","ios":"levelo://app?vid=e20445a8-2c3a-4f68-9dd9-d60b3530d7e8"},"vehicle_type_id":"4","last_reported":1701623134,"current_range_meters":22400,"station_id":"ce4bhpp2rcd13ifvqhgg","pricing_plan_id":"free"},{"bike_id":"2040e076-79a3-4873-b04a-ae5adbe89080","system_id":"levelo_inurba_marseille","lat":43.279087,"lon":5.380114,"is_reserved":false,"is_disabled":false,"rental_uris":{"android":"levelo://app?vid=2040e076-79a3-4873-b04a-ae5adbe89080","ios":"levelo://app?vid=2040e076-79a3-4873-b04a-ae5adbe89080"},"vehicle_type_id":"4","last_reported":1701623134,"current_range_meters":7200,"station_id":"ce4bhf92rcd13ifvqf50","pricing_plan_id":"free"},{"bike_id":"f50a5a03-4b81-4c75-8829-a2d979313098","system_id":"levelo_inurba_marseille","lat":43.279087,"lon":5.380114,"is_reserved":false,"is_disabled":false,"rental_uris":{"android":"levelo://app?vid=f50a5a03-4b81-4c75-8829-a2d979313098","ios":"levelo://app?vid=f50a5a03-4b81-4c75-8829-a2d979313098"},"vehicle_type_id":"4","last_reported":1701623134,"current_range_meters":26000,"station_id":"ce4bhf92rcd13ifvqf50","pricing_plan_id":"free"},{"bike_id":"fb407471-0a8b-4902-bf0e-b8854da83dc5","system_id":"levelo_inurba_marseille","lat":43.299579,"lon":5.413255,"is_reserved":false,"is_disabled":false,"rental_uris":{"android":"levelo://app?vid=fb407471-0a8b-4902-bf0e-b8854da83dc5","ios":"levelo://app?vid=fb407471-0a8b-4902-bf0e-b8854da83dc5"},"vehicle_type_id":"4","last_reported":1701623134,"current_range_meters":9600,"station_id":"ce4bhp12rcd13ifvqh9g","pricing_plan_id":"free"},{"bike_id":"3bea7095-58c9-4e2f-b322-3ec2ddc957ff","system_id":"levelo_inurba_marseille","lat":43.279742,"lon":5.38744,"is_reserved":false,"is_disabled":false,"rental_uris":{"android":"levelo://app?vid=3bea7095-58c9-4e2f-b322-3ec2ddc957ff","ios":"levelo://app?vid=3bea7095-58c9-4e2f-b322-3ec2ddc957ff"},"vehicle_type_id":"4","last_reported":1701623134,"current_range_meters":0,"station_id":"ce4bhg12rcd13ifvqf80","pricing_plan_id":"free"},{"bike_id":"38db4009-94ea-4bf3-bd0b-24ac4c1fe2c7","system_id":"levelo_inurba_marseille","lat":43.292647,"lon":5.409162,"is_reserved":false,"is_disabled":false,"rental_uris":{"android":"levelo://app?vid=38db4009-94ea-4bf3-bd0b-24ac4c1fe2c7","ios":"levelo://app?vid=38db4009-94ea-4bf3-bd0b-24ac4c1fe2c7"},"vehicle_type_id":"4","last_reported":1701623134,"current_range_meters":15600,"station_id":"","pricing_plan_id":"free"},{"bike_id":"08c270e9-878b-4530-9c6d-c88b6c7a35a8","system_id":"levelo_inurba_marseille","lat":43.280784,"lon":5.396622,"is_reserved":false,"is_disabled":false,"rental_uris":{"android":"levelo://app?vid=08c270e9-878b-4530-9c6d-c88b6c7a35a8","ios":"levelo://app?vid=08c270e9-878b-4530-9c6d-c88b6c7a35a8"},"vehicle_type_id":"4","last_reported":1701623134,"current_range_meters":14400,"station_id":"ce4bho12rcd13ifvqh2g","pricing_plan_id":"free"},{"bike_id":"487ad7ad-ee7f-40ab-b43c-43d7d5434705","system_id":"levelo_inurba_marseille","lat":43.303837,"lon":5.418724,"is_reserved":false,"is_disabled":false,"rental_uris":{"android":"levelo://app?vid=487ad7ad-ee7f-40ab-b43c-43d7d5434705","ios":"levelo://app?vid=487ad7ad-ee7f-40ab-b43c-43d7d5434705"},"vehicle_type_id":"4","last_reported":1701623134,"current_range_meters":29600,"station_id":"ce4bhop2rcd13ifvqh7g","pricing_plan_id":"free"},{"bike_id":"a933c4d1-d6c3-41a8-bcb7-c817e9473883","system_id":"levelo_inurba_marseille","lat":43.278401,"lon":5.392152,"is_reserved":false,"is_disabled":false,"rental_uris":{"android":"levelo://app?vid=a933c4d1-d6c3-41a8-bcb7-c817e9473883","ios":"levelo://app?vid=a933c4d1-d6c3-41a8-bcb7-c817e9473883"},"vehicle_type_id":"4","last_reported":1701623134,"current_range_meters":13600,"station_id":"ce4bhjp2rcd13ifvqga0","pricing_plan_id":"free"},{"bike_id":"78f9a6f3-0a64-4e82-b9ad-9875c13545d8","system_id":"levelo_inurba_marseille","lat":43.2737,"lon":5.3626,"is_reserved":false,"is_disabled":false,"rental_uris":{"android":"levelo://app?vid=78f9a6f3-0a64-4e82-b9ad-9875c13545d8","ios":"levelo://app?vid=78f9a6f3-0a64-4e82-b9ad-9875c13545d8"},"vehicle_type_id":"4","last_reported":1701623134,"current_range_meters":800,"station_id":"ce4bhbh2rcd13ifvqeo0","pricing_plan_id":"free"},{"bike_id":"84afbb74-41a5-4205-af38-f273ce968ed3","system_id":"levelo_inurba_marseille","lat":43.336134,"lon":5.410341,"is_reserved":false,"is_disabled":false,"rental_uris":{"android":"levelo://app?vid=84afbb74-41a5-4205-af38-f273ce968ed3","ios":"levelo://app?vid=84afbb74-41a5-4205-af38-f273ce968ed3"},"vehicle_type_id":"4","last_reported":1701623134,"current_range_meters":2400,"station_id":"ce4bhqh2rcd13ifvqhmg","pricing_plan_id":"free"},{"bike_id":"0c80b8b0-72b9-43d2-810d-415f33a8d9f5","system_id":"levelo_inurba_marseille","lat":43.279952,"lon":5.400085,"is_reserved":false,"is_disabled":false,"rental_uris":{"android":"levelo://app?vid=0c80b8b0-72b9-43d2-810d-415f33a8d9f5","ios":"levelo://app?vid=0c80b8b0-72b9-43d2-810d-415f33a8d9f5"},"vehicle_type_id":"4","last_reported":1701623134,"current_range_meters":25600,"station_id":"ce4bho92rcd13ifvqh4g","pricing_plan_id":"free"},{"bike_id":"9d9396fc-59e9-4fdc-841d-b91338a00ac5","system_id":"levelo_inurba_marseille","lat":43.310785,"lon":5.424305,"is_reserved":false,"is_disabled":false,"rental_uris":{"android":"levelo://app?vid=9d9396fc-59e9-4fdc-841d-b91338a00ac5","ios":"levelo://app?vid=9d9396fc-59e9-4fdc-841d-b91338a00ac5"},"vehicle_type_id":"4","last_reported":1701623134,"current_range_meters":28800,"station_id":"ce4bhp92rcd13ifvqhag","pricing_plan_id":"free"},{"bike_id":"910fd3aa-d2e0-4553-894a-6161d41c7fcd","system_id":"levelo_inurba_marseille","lat":43.27609,"lon":5.39475,"is_reserved":false,"is_disabled":false,"rental_uris":{"android":"levelo://app?vid=910fd3aa-d2e0-4553-894a-6161d41c7fcd","ios":"levelo://app?vid=910fd3aa-d2e0-4553-894a-6161d41c7fcd"},"vehicle_type_id":"4","last_reported":1701623134,"current_range_meters":14800,"station_id":"","pricing_plan_id":"free"},{"bike_id":"c61e904c-1fd2-4630-a952-4e345a64dcc4","system_id":"levelo_inurba_marseille","lat":43.274103,"lon":5.394016,"is_reserved":false,"is_disabled":false,"rental_uris":{"android":"levelo://app?vid=c61e904c-1fd2-4630-a952-4e345a64dcc4","ios":"levelo://app?vid=c61e904c-1fd2-4630-a952-4e345a64dcc4"},"vehicle_type_id":"4","last_reported":1701623134,"current_range_meters":24000,"station_id":"ce4bhdp2rcd13ifvqf20","pricing_plan_id":"free"},{"bike_id":"e83ebcb9-2f31-46bb-8c22-29a341b162d7","system_id":"levelo_inurba_marseille","lat":43.304088,"lon":5.425388,"is_reserved":false,"is_disabled":false,"rental_uris":{"android":"levelo://app?vid=e83ebcb9-2f31-46bb-8c22-29a341b162d7","ios":"levelo://app?vid=e83ebcb9-2f31-46bb-8c22-29a341b162d7"},"vehicle_type_id":"4","last_reported":1701623134,"current_range_meters":26000,"station_id":"ce4bhoh2rcd13ifvqh6g","pricing_plan_id":"free"},{"bike_id":"687a684e-ec64-4d22-be51-6ebeea2ced4c","system_id":"levelo_inurba_marseille","lat":43.272116,"lon":5.391747,"is_reserved":false,"is_disabled":false,"rental_uris":{"android":"levelo://app?vid=687a684e-ec64-4d22-be51-6ebeea2ced4c","ios":"levelo://app?vid=687a684e-ec64-4d22-be51-6ebeea2ced4c"},"vehicle_type_id":"4","last_reported":1701623134,"current_range_meters":5600,"station_id":"ce4bhhp2rcd13ifvqfm0","pricing_plan_id":"free"},{"bike_id":"c45ead33-24b9-4b7e-be5d-e2f9d40fc50d","system_id":"levelo_inurba_marseille","lat":43.336134,"lon":5.410341,"is_reserved":false,"is_disabled":false,"rental_uris":{"android":"levelo://app?vid=c45ead33-24b9-4b7e-be5d-e2f9d40fc50d","ios":"levelo://app?vid=c45ead33-24b9-4b7e-be5d-e2f9d40fc50d"},"vehicle_type_id":"4","last_reported":1701623134,"current_range_meters":17200,"station_id":"ce4bhqh2rcd13ifvqhmg","pricing_plan_id":"free"},{"bike_id":"7b05c372-c189-454b-9ce6-69113552a8a1","system_id":"levelo_inurba_marseille","lat":43.278128,"lon":5.407195,"is_reserved":false,"is_disabled":false,"rental_uris":{"android":"levelo://app?vid=7b05c372-c189-454b-9ce6-69113552a8a1","ios":"levelo://app?vid=7b05c372-c189-454b-9ce6-69113552a8a1"},"vehicle_type_id":"4","last_reported":1701623134,"current_range_meters":15600,"station_id":"ce4bhnh2rcd13ifvqgtg","pricing_plan_id":"free"},{"bike_id":"7f0ddf59-d178-4143-b678-9231837ab701","system_id":"levelo_inurba_marseille","lat":43.265694,"lon":5.390413,"is_reserved":false,"is_disabled":false,"rental_uris":{"android":"levelo://app?vid=7f0ddf59-d178-4143-b678-9231837ab701","ios":"levelo://app?vid=7f0ddf59-d178-4143-b678-9231837ab701"},"vehicle_type_id":"4","last_reported":1701623134,"current_range_meters":400,"station_id":"ce4bhe12rcd13ifvqf30","pricing_plan_id":"free"},{"bike_id":"208e092a-fa69-4f23-8642-8485448a5cc8","system_id":"levelo_inurba_marseille","lat":43.26941,"lon":5.40252,"is_reserved":false,"is_disabled":false,"rental_uris":{"android":"levelo://app?vid=208e092a-fa69-4f23-8642-8485448a5cc8","ios":"levelo://app?vid=208e092a-fa69-4f23-8642-8485448a5cc8"},"vehicle_type_id":"4","last_reported":1701623134,"current_range_meters":5200,"station_id":"cjm6bp8fraef2m0cb0m0","pricing_plan_id":"free"},{"bike_id":"f9505c4b-c2ce-4bca-bead-e0efb1f24e15","system_id":"levelo_inurba_marseille","lat":43.271368,"lon":5.40928,"is_reserved":false,"is_disabled":false,"rental_uris":{"android":"levelo://app?vid=f9505c4b-c2ce-4bca-bead-e0efb1f24e15","ios":"levelo://app?vid=f9505c4b-c2ce-4bca-bead-e0efb1f24e15"},"vehicle_type_id":"4","last_reported":1701623134,"current_range_meters":29600,"station_id":"ce4bhl12rcd13ifvqgf0","pricing_plan_id":"free"},{"bike_id":"2ace81a0-bf2f-4581-bcf7-884967254d2f","system_id":"levelo_inurba_marseille","lat":43.26202,"lon":5.379299,"is_reserved":false,"is_disabled":false,"rental_uris":{"android":"levelo://app?vid=2ace81a0-bf2f-4581-bcf7-884967254d2f","ios":"levelo://app?vid=2ace81a0-bf2f-4581-bcf7-884967254d2f"},"vehicle_type_id":"4","last_reported":1701623134,"current_range_meters":5200,"station_id":"ce4bhjp2rcd13ifvqg90","pricing_plan_id":"free"},{"bike_id":"29a520d0-38f3-4808-95aa-92cc0f49450e","system_id":"levelo_inurba_marseille","lat":43.281548,"lon":5.42643,"is_reserved":false,"is_disabled":false,"rental_uris":{"android":"levelo://app?vid=29a520d0-38f3-4808-95aa-92cc0f49450e","ios":"levelo://app?vid=29a520d0-38f3-4808-95aa-92cc0f49450e"},"vehicle_type_id":"4","last_reported":1701623134,"current_range_meters":20800,"station_id":"ce4bhnh2rcd13ifvqgug","pricing_plan_id":"free"},{"bike_id":"97ff2232-0bbb-4cf6-9a9f-81bc9e55c519","system_id":"levelo_inurba_marseille","lat":43.281548,"lon":5.42643,"is_reserved":false,"is_disabled":false,"rental_uris":{"android":"levelo://app?vid=97ff2232-0bbb-4cf6-9a9f-81bc9e55c519","ios":"levelo://app?vid=97ff2232-0bbb-4cf6-9a9f-81bc9e55c519"},"vehicle_type_id":"4","last_reported":1701623134,"current_range_meters":27200,"station_id":"ce4bhnh2rcd13ifvqgug","pricing_plan_id":"free"},{"bike_id":"19337c19-12ca-4f3b-a568-40a561779510","system_id":"levelo_inurba_marseille","lat":43.28167,"lon":5.42783,"is_reserved":false,"is_disabled":false,"rental_uris":{"android":"levelo://app?vid=19337c19-12ca-4f3b-a568-40a561779510","ios":"levelo://app?vid=19337c19-12ca-4f3b-a568-40a561779510"},"vehicle_type_id":"4","last_reported":1701623134,"current_range_meters":26000,"station_id":"","pricing_plan_id":"free"},{"bike_id":"5f3f1da5-7aac-4440-8174-63ee4f696185","system_id":"levelo_inurba_marseille","lat":43.2607,"lon":5.393983,"is_reserved":false,"is_disabled":false,"rental_uris":{"android":"levelo://app?vid=5f3f1da5-7aac-4440-8174-63ee4f696185","ios":"levelo://app?vid=5f3f1da5-7aac-4440-8174-63ee4f696185"},"vehicle_type_id":"4","last_reported":1701623134,"current_range_meters":20000,"station_id":"ce4bhh92rcd13ifvqfj0","pricing_plan_id":"free"},{"bike_id":"95cf7edd-b25a-4b67-81b6-2215ed4c5e45","system_id":"levelo_inurba_marseille","lat":43.258224,"lon":5.394369,"is_reserved":false,"is_disabled":false,"rental_uris":{"android":"levelo://app?vid=95cf7edd-b25a-4b67-81b6-2215ed4c5e45","ios":"levelo://app?vid=95cf7edd-b25a-4b67-81b6-2215ed4c5e45"},"vehicle_type_id":"4","last_reported":1701623134,"current_range_meters":30000,"station_id":"ce4bhip2rcd13ifvqft0","pricing_plan_id":"free"},{"bike_id":"6f1ab2a1-1e37-46ed-a48b-2301bdf9c918","system_id":"levelo_inurba_marseille","lat":43.25579,"lon":5.3823,"is_reserved":false,"is_disabled":false,"rental_uris":{"android":"levelo://app?vid=6f1ab2a1-1e37-46ed-a48b-2301bdf9c918","ios":"levelo://app?vid=6f1ab2a1-1e37-46ed-a48b-2301bdf9c918"},"vehicle_type_id":"4","last_reported":1701623134,"current_range_meters":31200,"station_id":"ce4bhih2rcd13ifvqfs0","pricing_plan_id":"free"},{"bike_id":"ec6d0f62-a89a-4a57-9bee-33721a03d6d4","system_id":"levelo_inurba_marseille","lat":43.255756,"lon":5.382303,"is_reserved":false,"is_disabled":false,"rental_uris":{"android":"levelo://app?vid=ec6d0f62-a89a-4a57-9bee-33721a03d6d4","ios":"levelo://app?vid=ec6d0f62-a89a-4a57-9bee-33721a03d6d4"},"vehicle_type_id":"4","last_reported":1701623134,"current_range_meters":10400,"station_id":"ce4bhih2rcd13ifvqfs0","pricing_plan_id":"free"},{"bike_id":"67cd54db-740c-4caa-a2a4-ebefd690611d","system_id":"levelo_inurba_marseille","lat":43.25573,"lon":5.38235,"is_reserved":false,"is_disabled":false,"rental_uris":{"android":"levelo://app?vid=67cd54db-740c-4caa-a2a4-ebefd690611d","ios":"levelo://app?vid=67cd54db-740c-4caa-a2a4-ebefd690611d"},"vehicle_type_id":"4","last_reported":1701623134,"current_range_meters":16800,"station_id":"ce4bhih2rcd13ifvqfs0","pricing_plan_id":"free"},{"bike_id":"bdc72d7c-9d46-4016-8a92-851cd50823f9","system_id":"levelo_inurba_marseille","lat":43.25929,"lon":5.40906,"is_reserved":false,"is_disabled":false,"rental_uris":{"android":"levelo://app?vid=bdc72d7c-9d46-4016-8a92-851cd50823f9","ios":"levelo://app?vid=bdc72d7c-9d46-4016-8a92-851cd50823f9"},"vehicle_type_id":"4","last_reported":1701623134,"current_range_meters":23200,"station_id":"ce4bhm92rcd13ifvqglg","pricing_plan_id":"free"},{"bike_id":"53c32c9f-b2cc-465e-b5ca-3b802b15ed6f","system_id":"levelo_inurba_marseille","lat":43.257079,"lon":5.411051,"is_reserved":false,"is_disabled":false,"rental_uris":{"android":"levelo://app?vid=53c32c9f-b2cc-465e-b5ca-3b802b15ed6f","ios":"levelo://app?vid=53c32c9f-b2cc-465e-b5ca-3b802b15ed6f"},"vehicle_type_id":"4","last_reported":1701623134,"current_range_meters":10000,"station_id":"ce4bhkp2rcd13ifvqgd0","pricing_plan_id":"free"},{"bike_id":"8a71ef35-7495-4100-9fba-54e41698ab95","system_id":"levelo_inurba_marseille","lat":43.257079,"lon":5.411051,"is_reserved":false,"is_disabled":false,"rental_uris":{"android":"levelo://app?vid=8a71ef35-7495-4100-9fba-54e41698ab95","ios":"levelo://app?vid=8a71ef35-7495-4100-9fba-54e41698ab95"},"vehicle_type_id":"4","last_reported":1701623134,"current_range_meters":0,"station_id":"ce4bhkp2rcd13ifvqgd0","pricing_plan_id":"free"},{"bike_id":"05ffcfcb-20c3-4466-b79e-af248191fe78","system_id":"levelo_inurba_marseille","lat":43.257079,"lon":5.411051,"is_reserved":false,"is_disabled":false,"rental_uris":{"android":"levelo://app?vid=05ffcfcb-20c3-4466-b79e-af248191fe78","ios":"levelo://app?vid=05ffcfcb-20c3-4466-b79e-af248191fe78"},"vehicle_type_id":"4","last_reported":1701623134,"current_range_meters":30800,"station_id":"ce4bhkp2rcd13ifvqgd0","pricing_plan_id":"free"},{"bike_id":"cbc30eec-9aab-445e-a693-2af211101604","system_id":"levelo_inurba_marseille","lat":43.257079,"lon":5.411051,"is_reserved":false,"is_disabled":false,"rental_uris":{"android":"levelo://app?vid=cbc30eec-9aab-445e-a693-2af211101604","ios":"levelo://app?vid=cbc30eec-9aab-445e-a693-2af211101604"},"vehicle_type_id":"4","last_reported":1701623134,"current_range_meters":19600,"station_id":"ce4bhkp2rcd13ifvqgd0","pricing_plan_id":"free"},{"bike_id":"762e4a82-09d9-43f7-9565-1b70bcb1df38","system_id":"levelo_inurba_marseille","lat":43.2479,"lon":5.374457,"is_reserved":false,"is_disabled":false,"rental_uris":{"android":"levelo://app?vid=762e4a82-09d9-43f7-9565-1b70bcb1df38","ios":"levelo://app?vid=762e4a82-09d9-43f7-9565-1b70bcb1df38"},"vehicle_type_id":"4","last_reported":1701623134,"current_range_meters":15600,"station_id":"ce4bhgh2rcd13ifvqfb0","pricing_plan_id":"free"},{"bike_id":"69d3fdf5-625f-4593-a0ae-77fccb99485e","system_id":"levelo_inurba_marseille","lat":43.2479,"lon":5.374457,"is_reserved":false,"is_disabled":false,"rental_uris":{"android":"levelo://app?vid=69d3fdf5-625f-4593-a0ae-77fccb99485e","ios":"levelo://app?vid=69d3fdf5-625f-4593-a0ae-77fccb99485e"},"vehicle_type_id":"4","last_reported":1701623134,"current_range_meters":31600,"station_id":"ce4bhgh2rcd13ifvqfb0","pricing_plan_id":"free"},{"bike_id":"5af3d906-fc6c-47d5-88af-b1792f4926f6","system_id":"levelo_inurba_marseille","lat":43.2479,"lon":5.374457,"is_reserved":false,"is_disabled":false,"rental_uris":{"android":"levelo://app?vid=5af3d906-fc6c-47d5-88af-b1792f4926f6","ios":"levelo://app?vid=5af3d906-fc6c-47d5-88af-b1792f4926f6"},"vehicle_type_id":"4","last_reported":1701623134,"current_range_meters":23200,"station_id":"ce4bhgh2rcd13ifvqfb0","pricing_plan_id":"free"},{"bike_id":"a831eb47-b3f5-4d8b-8f86-80ad087492f6","system_id":"levelo_inurba_marseille","lat":43.24693,"lon":5.382096,"is_reserved":false,"is_disabled":false,"rental_uris":{"android":"levelo://app?vid=a831eb47-b3f5-4d8b-8f86-80ad087492f6","ios":"levelo://app?vid=a831eb47-b3f5-4d8b-8f86-80ad087492f6"},"vehicle_type_id":"4","last_reported":1701623134,"current_range_meters":23600,"station_id":"ce4bhih2rcd13ifvqfr0","pricing_plan_id":"free"},{"bike_id":"9fe87cc9-71af-48a3-98b9-e3dd59d9679d","system_id":"levelo_inurba_marseille","lat":43.25102,"lon":5.403214,"is_reserved":false,"is_disabled":false,"rental_uris":{"android":"levelo://app?vid=9fe87cc9-71af-48a3-98b9-e3dd59d9679d","ios":"levelo://app?vid=9fe87cc9-71af-48a3-98b9-e3dd59d9679d"},"vehicle_type_id":"4","last_reported":1701623134,"current_range_meters":4800,"station_id":"ce4bhlh2rcd13ifvqgig","pricing_plan_id":"free"},{"bike_id":"47218376-6c80-47cd-991a-4badc7584f1a","system_id":"levelo_inurba_marseille","lat":43.25102,"lon":5.403214,"is_reserved":false,"is_disabled":false,"rental_uris":{"android":"levelo://app?vid=47218376-6c80-47cd-991a-4badc7584f1a","ios":"levelo://app?vid=47218376-6c80-47cd-991a-4badc7584f1a"},"vehicle_type_id":"4","last_reported":1701623134,"current_range_meters":4800,"station_id":"ce4bhlh2rcd13ifvqgig","pricing_plan_id":"free"},{"bike_id":"dad4d662-55de-4d6e-a22a-cfe6ab774d99","system_id":"levelo_inurba_marseille","lat":43.25102,"lon":5.403214,"is_reserved":false,"is_disabled":false,"rental_uris":{"android":"levelo://app?vid=dad4d662-55de-4d6e-a22a-cfe6ab774d99","ios":"levelo://app?vid=dad4d662-55de-4d6e-a22a-cfe6ab774d99"},"vehicle_type_id":"4","last_reported":1701623134,"current_range_meters":7200,"station_id":"ce4bhlh2rcd13ifvqgig","pricing_plan_id":"free"},{"bike_id":"10f65538-9a21-44ea-aca5-d617c0a205e5","system_id":"levelo_inurba_marseille","lat":43.25102,"lon":5.403214,"is_reserved":false,"is_disabled":false,"rental_uris":{"android":"levelo://app?vid=10f65538-9a21-44ea-aca5-d617c0a205e5","ios":"levelo://app?vid=10f65538-9a21-44ea-aca5-d617c0a205e5"},"vehicle_type_id":"4","last_reported":1701623134,"current_range_meters":12800,"station_id":"ce4bhlh2rcd13ifvqgig","pricing_plan_id":"free"},{"bike_id":"ad4b3bdf-788e-47ad-92bb-285d02a9e8da","system_id":"levelo_inurba_marseille","lat":43.246467,"lon":5.388984,"is_reserved":false,"is_disabled":false,"rental_uris":{"android":"levelo://app?vid=ad4b3bdf-788e-47ad-92bb-285d02a9e8da","ios":"levelo://app?vid=ad4b3bdf-788e-47ad-92bb-285d02a9e8da"},"vehicle_type_id":"4","last_reported":1701623134,"current_range_meters":21600,"station_id":"ce4bhg12rcd13ifvqf60","pricing_plan_id":"free"},{"bike_id":"f934e747-d928-4372-9567-14de9075e397","system_id":"levelo_inurba_marseille","lat":43.246467,"lon":5.388984,"is_reserved":false,"is_disabled":false,"rental_uris":{"android":"levelo://app?vid=f934e747-d928-4372-9567-14de9075e397","ios":"levelo://app?vid=f934e747-d928-4372-9567-14de9075e397"},"vehicle_type_id":"4","last_reported":1701623134,"current_range_meters":16400,"station_id":"ce4bhg12rcd13ifvqf60","pricing_plan_id":"free"},{"bike_id":"4ef5078e-0a1e-46c9-82c5-9ab4a3c8efaf","system_id":"levelo_inurba_marseille","lat":43.243884,"lon":5.370737,"is_reserved":false,"is_disabled":false,"rental_uris":{"android":"levelo://app?vid=4ef5078e-0a1e-46c9-82c5-9ab4a3c8efaf","ios":"levelo://app?vid=4ef5078e-0a1e-46c9-82c5-9ab4a3c8efaf"},"vehicle_type_id":"4","last_reported":1701623134,"current_range_meters":31200,"station_id":"ce4bhhh2rcd13ifvqfk0","pricing_plan_id":"free"},{"bike_id":"62adc908-8394-4d2e-851f-1af178e49c97","system_id":"levelo_inurba_marseille","lat":43.243884,"lon":5.370737,"is_reserved":false,"is_disabled":false,"rental_uris":{"android":"levelo://app?vid=62adc908-8394-4d2e-851f-1af178e49c97","ios":"levelo://app?vid=62adc908-8394-4d2e-851f-1af178e49c97"},"vehicle_type_id":"4","last_reported":1701623134,"current_range_meters":14800,"station_id":"ce4bhhh2rcd13ifvqfk0","pricing_plan_id":"free"},{"bike_id":"463b63cc-9855-4065-9a8f-e0321e2b04d1","system_id":"levelo_inurba_marseille","lat":43.245581,"lon":5.395069,"is_reserved":false,"is_disabled":false,"rental_uris":{"android":"levelo://app?vid=463b63cc-9855-4065-9a8f-e0321e2b04d1","ios":"levelo://app?vid=463b63cc-9855-4065-9a8f-e0321e2b04d1"},"vehicle_type_id":"4","last_reported":1701623134,"current_range_meters":31200,"station_id":"ce4bhlp2rcd13ifvqgjg","pricing_plan_id":"free"},{"bike_id":"d8616eaf-cb48-464a-aeee-aeded39ec6a7","system_id":"levelo_inurba_marseille","lat":43.245581,"lon":5.395069,"is_reserved":false,"is_disabled":false,"rental_uris":{"android":"levelo://app?vid=d8616eaf-cb48-464a-aeee-aeded39ec6a7","ios":"levelo://app?vid=d8616eaf-cb48-464a-aeee-aeded39ec6a7"},"vehicle_type_id":"4","last_reported":1701623134,"current_range_meters":8400,"station_id":"ce4bhlp2rcd13ifvqgjg","pricing_plan_id":"free"},{"bike_id":"a4cf3ff5-fdcc-4bbf-bfa0-12881583b6ee","system_id":"levelo_inurba_marseille","lat":43.2407,"lon":5.37766,"is_reserved":false,"is_disabled":false,"rental_uris":{"android":"levelo://app?vid=a4cf3ff5-fdcc-4bbf-bfa0-12881583b6ee","ios":"levelo://app?vid=a4cf3ff5-fdcc-4bbf-bfa0-12881583b6ee"},"vehicle_type_id":"4","last_reported":1701623134,"current_range_meters":12000,"station_id":"ce4bhnp2rcd13ifvqgvg","pricing_plan_id":"free"},{"bike_id":"f9de7b24-30c4-4eb6-b4c8-39b69a86d579","system_id":"levelo_inurba_marseille","lat":43.240623,"lon":5.377642,"is_reserved":false,"is_disabled":false,"rental_uris":{"android":"levelo://app?vid=f9de7b24-30c4-4eb6-b4c8-39b69a86d579","ios":"levelo://app?vid=f9de7b24-30c4-4eb6-b4c8-39b69a86d579"},"vehicle_type_id":"4","last_reported":1701623134,"current_range_meters":14800,"station_id":"ce4bhnp2rcd13ifvqgvg","pricing_plan_id":"free"},{"bike_id":"66d07158-1c05-469e-a266-b66692f04cb5","system_id":"levelo_inurba_marseille","lat":43.239588,"lon":5.366238,"is_reserved":false,"is_disabled":false,"rental_uris":{"android":"levelo://app?vid=66d07158-1c05-469e-a266-b66692f04cb5","ios":"levelo://app?vid=66d07158-1c05-469e-a266-b66692f04cb5"},"vehicle_type_id":"4","last_reported":1701623134,"current_range_meters":31200,"station_id":"ce4bhi12rcd13ifvqfp0","pricing_plan_id":"free"},{"bike_id":"b101f295-ac85-402a-8afe-c635c176f114","system_id":"levelo_inurba_marseille","lat":43.285316,"lon":5.46065,"is_reserved":false,"is_disabled":false,"rental_uris":{"android":"levelo://app?vid=b101f295-ac85-402a-8afe-c635c176f114","ios":"levelo://app?vid=b101f295-ac85-402a-8afe-c635c176f114"},"vehicle_type_id":"4","last_reported":1701623134,"current_range_meters":18800,"station_id":"","pricing_plan_id":"free"},{"bike_id":"384a17af-27e8-4164-b8c0-d8b51c5b0eac","system_id":"levelo_inurba_marseille","lat":43.231923,"lon":5.355545,"is_reserved":false,"is_disabled":false,"rental_uris":{"android":"levelo://app?vid=384a17af-27e8-4164-b8c0-d8b51c5b0eac","ios":"levelo://app?vid=384a17af-27e8-4164-b8c0-d8b51c5b0eac"},"vehicle_type_id":"4","last_reported":1701623134,"current_range_meters":6400,"station_id":"ce4bhu92rcd13ifvqi70","pricing_plan_id":"free"},{"bike_id":"6041d620-664b-4836-b597-a0e62593a032","system_id":"levelo_inurba_marseille","lat":43.231923,"lon":5.355545,"is_reserved":false,"is_disabled":false,"rental_uris":{"android":"levelo://app?vid=6041d620-664b-4836-b597-a0e62593a032","ios":"levelo://app?vid=6041d620-664b-4836-b597-a0e62593a032"},"vehicle_type_id":"4","last_reported":1701623134,"current_range_meters":28000,"station_id":"ce4bhu92rcd13ifvqi70","pricing_plan_id":"free"},{"bike_id":"87815193-0a9e-4a5a-8f22-63817bf9d429","system_id":"levelo_inurba_marseille","lat":43.231978,"lon":5.355448,"is_reserved":false,"is_disabled":false,"rental_uris":{"android":"levelo://app?vid=87815193-0a9e-4a5a-8f22-63817bf9d429","ios":"levelo://app?vid=87815193-0a9e-4a5a-8f22-63817bf9d429"},"vehicle_type_id":"4","last_reported":1701623134,"current_range_meters":29200,"station_id":"ce4bhu92rcd13ifvqi70","pricing_plan_id":"free"},{"bike_id":"4583a0a2-6ba9-4cd5-985c-7fc3fabe7c64","system_id":"levelo_inurba_marseille","lat":43.231919,"lon":5.355532,"is_reserved":false,"is_disabled":false,"rental_uris":{"android":"levelo://app?vid=4583a0a2-6ba9-4cd5-985c-7fc3fabe7c64","ios":"levelo://app?vid=4583a0a2-6ba9-4cd5-985c-7fc3fabe7c64"},"vehicle_type_id":"4","last_reported":1701623134,"current_range_meters":31200,"station_id":"ce4bhu92rcd13ifvqi70","pricing_plan_id":"free"},{"bike_id":"a2778a75-2f32-457d-810c-ad5c32010803","system_id":"levelo_inurba_marseille","lat":43.23195,"lon":5.3556,"is_reserved":false,"is_disabled":false,"rental_uris":{"android":"levelo://app?vid=a2778a75-2f32-457d-810c-ad5c32010803","ios":"levelo://app?vid=a2778a75-2f32-457d-810c-ad5c32010803"},"vehicle_type_id":"4","last_reported":1701623134,"current_range_meters":19600,"station_id":"ce4bhu92rcd13ifvqi70","pricing_plan_id":"free"},{"bike_id":"177a82e2-68da-4975-a68b-b32649f3d1f2","system_id":"levelo_inurba_marseille","lat":43.231923,"lon":5.355545,"is_reserved":false,"is_disabled":false,"rental_uris":{"android":"levelo://app?vid=177a82e2-68da-4975-a68b-b32649f3d1f2","ios":"levelo://app?vid=177a82e2-68da-4975-a68b-b32649f3d1f2"},"vehicle_type_id":"4","last_reported":1701623134,"current_range_meters":7600,"station_id":"ce4bhu92rcd13ifvqi70","pricing_plan_id":"free"},{"bike_id":"58d4edcd-4441-486c-8457-28ebda4ac431","system_id":"levelo_inurba_marseille","lat":43.23194,"lon":5.35545,"is_reserved":false,"is_disabled":false,"rental_uris":{"android":"levelo://app?vid=58d4edcd-4441-486c-8457-28ebda4ac431","ios":"levelo://app?vid=58d4edcd-4441-486c-8457-28ebda4ac431"},"vehicle_type_id":"4","last_reported":1701623134,"current_range_meters":19600,"station_id":"ce4bhu92rcd13ifvqi70","pricing_plan_id":"free"},{"bike_id":"2b04708e-eed8-4471-916a-9fdeea01eec7","system_id":"levelo_inurba_marseille","lat":43.231923,"lon":5.355545,"is_reserved":false,"is_disabled":false,"rental_uris":{"android":"levelo://app?vid=2b04708e-eed8-4471-916a-9fdeea01eec7","ios":"levelo://app?vid=2b04708e-eed8-4471-916a-9fdeea01eec7"},"vehicle_type_id":"4","last_reported":1701623134,"current_range_meters":31200,"station_id":"ce4bhu92rcd13ifvqi70","pricing_plan_id":"free"},{"bike_id":"0ff0e460-4285-4bdc-8a12-30a9645e5f98","system_id":"levelo_inurba_marseille","lat":43.231919,"lon":5.355532,"is_reserved":false,"is_disabled":false,"rental_uris":{"android":"levelo://app?vid=0ff0e460-4285-4bdc-8a12-30a9645e5f98","ios":"levelo://app?vid=0ff0e460-4285-4bdc-8a12-30a9645e5f98"},"vehicle_type_id":"4","last_reported":1701623134,"current_range_meters":29200,"station_id":"ce4bhu92rcd13ifvqi70","pricing_plan_id":"free"},{"bike_id":"cf3102c4-88e0-4a41-86b7-69a76932d3e6","system_id":"levelo_inurba_marseille","lat":43.231923,"lon":5.355545,"is_reserved":false,"is_disabled":false,"rental_uris":{"android":"levelo://app?vid=cf3102c4-88e0-4a41-86b7-69a76932d3e6","ios":"levelo://app?vid=cf3102c4-88e0-4a41-86b7-69a76932d3e6"},"vehicle_type_id":"4","last_reported":1701623134,"current_range_meters":31200,"station_id":"ce4bhu92rcd13ifvqi70","pricing_plan_id":"free"},{"bike_id":"c5f58380-c0c2-4043-965b-6a38bd15d65b","system_id":"levelo_inurba_marseille","lat":43.23192,"lon":5.35553,"is_reserved":false,"is_disabled":false,"rental_uris":{"android":"levelo://app?vid=c5f58380-c0c2-4043-965b-6a38bd15d65b","ios":"levelo://app?vid=c5f58380-c0c2-4043-965b-6a38bd15d65b"},"vehicle_type_id":"4","last_reported":1701623134,"current_range_meters":8000,"station_id":"ce4bhu92rcd13ifvqi70","pricing_plan_id":"free"},{"bike_id":"9e01ee59-41e6-425c-ae1f-3e33312fefcd","system_id":"levelo_inurba_marseille","lat":43.231923,"lon":5.355545,"is_reserved":false,"is_disabled":false,"rental_uris":{"android":"levelo://app?vid=9e01ee59-41e6-425c-ae1f-3e33312fefcd","ios":"levelo://app?vid=9e01ee59-41e6-425c-ae1f-3e33312fefcd"},"vehicle_type_id":"4","last_reported":1701623134,"current_range_meters":15600,"station_id":"ce4bhu92rcd13ifvqi70","pricing_plan_id":"free"},{"bike_id":"c384cc79-d05c-49b7-9293-603bcf5d3796","system_id":"levelo_inurba_marseille","lat":43.231919,"lon":5.355532,"is_reserved":false,"is_disabled":false,"rental_uris":{"android":"levelo://app?vid=c384cc79-d05c-49b7-9293-603bcf5d3796","ios":"levelo://app?vid=c384cc79-d05c-49b7-9293-603bcf5d3796"},"vehicle_type_id":"4","last_reported":1701623134,"current_range_meters":6000,"station_id":"ce4bhu92rcd13ifvqi70","pricing_plan_id":"free"},{"bike_id":"d8ad9864-eb6b-4faa-b8e1-e2e245ce7f97","system_id":"levelo_inurba_marseille","lat":43.231906,"lon":5.399839,"is_reserved":false,"is_disabled":false,"rental_uris":{"android":"levelo://app?vid=d8ad9864-eb6b-4faa-b8e1-e2e245ce7f97","ios":"levelo://app?vid=d8ad9864-eb6b-4faa-b8e1-e2e245ce7f97"},"vehicle_type_id":"4","last_reported":1701623134,"current_range_meters":15200,"station_id":"ce4bhn12rcd13ifvqgqg","pricing_plan_id":"free"},{"bike_id":"118d4a35-86b4-49cc-8abc-987caa7ffe62","system_id":"levelo_inurba_marseille","lat":43.23191,"lon":5.399922,"is_reserved":false,"is_disabled":false,"rental_uris":{"android":"levelo://app?vid=118d4a35-86b4-49cc-8abc-987caa7ffe62","ios":"levelo://app?vid=118d4a35-86b4-49cc-8abc-987caa7ffe62"},"vehicle_type_id":"4","last_reported":1701623134,"current_range_meters":31200,"station_id":"ce4bhn12rcd13ifvqgqg","pricing_plan_id":"free"},{"bike_id":"22bd98e3-c33f-4c44-ae2b-f96729d36f4f","system_id":"levelo_inurba_marseille","lat":43.231793,"lon":5.400044,"is_reserved":false,"is_disabled":false,"rental_uris":{"android":"levelo://app?vid=22bd98e3-c33f-4c44-ae2b-f96729d36f4f","ios":"levelo://app?vid=22bd98e3-c33f-4c44-ae2b-f96729d36f4f"},"vehicle_type_id":"4","last_reported":1701623134,"current_range_meters":31600,"station_id":"ce4bhn12rcd13ifvqgqg","pricing_plan_id":"free"},{"bike_id":"d7955d6f-88ae-4e83-97c1-4a0668d076f6","system_id":"levelo_inurba_marseille","lat":43.23188,"lon":5.39986,"is_reserved":false,"is_disabled":false,"rental_uris":{"android":"levelo://app?vid=d7955d6f-88ae-4e83-97c1-4a0668d076f6","ios":"levelo://app?vid=d7955d6f-88ae-4e83-97c1-4a0668d076f6"},"vehicle_type_id":"4","last_reported":1701623134,"current_range_meters":18000,"station_id":"ce4bhn12rcd13ifvqgqg","pricing_plan_id":"free"},{"bike_id":"a926f4bb-1e59-4822-80ea-1d5ff6f2a5c5","system_id":"levelo_inurba_marseille","lat":43.23187,"lon":5.39984,"is_reserved":false,"is_disabled":false,"rental_uris":{"android":"levelo://app?vid=a926f4bb-1e59-4822-80ea-1d5ff6f2a5c5","ios":"levelo://app?vid=a926f4bb-1e59-4822-80ea-1d5ff6f2a5c5"},"vehicle_type_id":"4","last_reported":1701623134,"current_range_meters":14000,"station_id":"ce4bhn12rcd13ifvqgqg","pricing_plan_id":"free"},{"bike_id":"e47e98e0-4256-4c41-ae86-e531a41b9213","system_id":"levelo_inurba_marseille","lat":43.231794,"lon":5.400052,"is_reserved":false,"is_disabled":false,"rental_uris":{"android":"levelo://app?vid=e47e98e0-4256-4c41-ae86-e531a41b9213","ios":"levelo://app?vid=e47e98e0-4256-4c41-ae86-e531a41b9213"},"vehicle_type_id":"4","last_reported":1701623134,"current_range_meters":31200,"station_id":"ce4bhn12rcd13ifvqgqg","pricing_plan_id":"free"},{"bike_id":"77b1a551-da7f-429a-980e-bfc6767a5958","system_id":"levelo_inurba_marseille","lat":43.231794,"lon":5.400052,"is_reserved":false,"is_disabled":false,"rental_uris":{"android":"levelo://app?vid=77b1a551-da7f-429a-980e-bfc6767a5958","ios":"levelo://app?vid=77b1a551-da7f-429a-980e-bfc6767a5958"},"vehicle_type_id":"4","last_reported":1701623134,"current_range_meters":31200,"station_id":"ce4bhn12rcd13ifvqgqg","pricing_plan_id":"free"},{"bike_id":"6bd9f065-50d9-4657-9ca0-a006f413d305","system_id":"levelo_inurba_marseille","lat":43.231794,"lon":5.400052,"is_reserved":false,"is_disabled":false,"rental_uris":{"android":"levelo://app?vid=6bd9f065-50d9-4657-9ca0-a006f413d305","ios":"levelo://app?vid=6bd9f065-50d9-4657-9ca0-a006f413d305"},"vehicle_type_id":"4","last_reported":1701623134,"current_range_meters":31200,"station_id":"ce4bhn12rcd13ifvqgqg","pricing_plan_id":"free"},{"bike_id":"3fdd6789-d52a-4c7f-96f4-f754cbf436d6","system_id":"levelo_inurba_marseille","lat":43.231832,"lon":5.399776,"is_reserved":false,"is_disabled":false,"rental_uris":{"android":"levelo://app?vid=3fdd6789-d52a-4c7f-96f4-f754cbf436d6","ios":"levelo://app?vid=3fdd6789-d52a-4c7f-96f4-f754cbf436d6"},"vehicle_type_id":"4","last_reported":1701623134,"current_range_meters":31200,"station_id":"ce4bhn12rcd13ifvqgqg","pricing_plan_id":"free"},{"bike_id":"88cf855f-bb31-40e0-8afc-686df3c193ab","system_id":"levelo_inurba_marseille","lat":43.231794,"lon":5.400052,"is_reserved":false,"is_disabled":false,"rental_uris":{"android":"levelo://app?vid=88cf855f-bb31-40e0-8afc-686df3c193ab","ios":"levelo://app?vid=88cf855f-bb31-40e0-8afc-686df3c193ab"},"vehicle_type_id":"4","last_reported":1701623134,"current_range_meters":28800,"station_id":"ce4bhn12rcd13ifvqgqg","pricing_plan_id":"free"},{"bike_id":"4ee99995-f63f-4ddb-ac4b-88a5ee23324c","system_id":"levelo_inurba_marseille","lat":43.23183,"lon":5.39983,"is_reserved":false,"is_disabled":false,"rental_uris":{"android":"levelo://app?vid=4ee99995-f63f-4ddb-ac4b-88a5ee23324c","ios":"levelo://app?vid=4ee99995-f63f-4ddb-ac4b-88a5ee23324c"},"vehicle_type_id":"4","last_reported":1701623134,"current_range_meters":12800,"station_id":"ce4bhn12rcd13ifvqgqg","pricing_plan_id":"free"},{"bike_id":"0cf73e26-cfe4-495a-8675-6603ab968aec","system_id":"levelo_inurba_marseille","lat":43.231794,"lon":5.400052,"is_reserved":false,"is_disabled":false,"rental_uris":{"android":"levelo://app?vid=0cf73e26-cfe4-495a-8675-6603ab968aec","ios":"levelo://app?vid=0cf73e26-cfe4-495a-8675-6603ab968aec"},"vehicle_type_id":"4","last_reported":1701623134,"current_range_meters":13200,"station_id":"ce4bhn12rcd13ifvqgqg","pricing_plan_id":"free"},{"bike_id":"df6c3251-c2c5-42e5-9867-fe0f24136657","system_id":"levelo_inurba_marseille","lat":43.23186,"lon":5.39999,"is_reserved":false,"is_disabled":false,"rental_uris":{"android":"levelo://app?vid=df6c3251-c2c5-42e5-9867-fe0f24136657","ios":"levelo://app?vid=df6c3251-c2c5-42e5-9867-fe0f24136657"},"vehicle_type_id":"4","last_reported":1701623134,"current_range_meters":3200,"station_id":"ce4bhn12rcd13ifvqgqg","pricing_plan_id":"free"},{"bike_id":"7119d2ec-3a1f-47f1-97aa-a12f1d72912d","system_id":"levelo_inurba_marseille","lat":43.23182,"lon":5.39986,"is_reserved":false,"is_disabled":false,"rental_uris":{"android":"levelo://app?vid=7119d2ec-3a1f-47f1-97aa-a12f1d72912d","ios":"levelo://app?vid=7119d2ec-3a1f-47f1-97aa-a12f1d72912d"},"vehicle_type_id":"4","last_reported":1701623134,"current_range_meters":12000,"station_id":"ce4bhn12rcd13ifvqgqg","pricing_plan_id":"free"},{"bike_id":"ab5eae98-96ca-4718-91b7-353de917f40d","system_id":"levelo_inurba_marseille","lat":43.231793,"lon":5.400044,"is_reserved":false,"is_disabled":false,"rental_uris":{"android":"levelo://app?vid=ab5eae98-96ca-4718-91b7-353de917f40d","ios":"levelo://app?vid=ab5eae98-96ca-4718-91b7-353de917f40d"},"vehicle_type_id":"4","last_reported":1701623134,"current_range_meters":30800,"station_id":"ce4bhn12rcd13ifvqgqg","pricing_plan_id":"free"},{"bike_id":"457c552c-8af5-4b7b-9f6b-8c901265a623","system_id":"levelo_inurba_marseille","lat":43.23176,"lon":5.39995,"is_reserved":false,"is_disabled":false,"rental_uris":{"android":"levelo://app?vid=457c552c-8af5-4b7b-9f6b-8c901265a623","ios":"levelo://app?vid=457c552c-8af5-4b7b-9f6b-8c901265a623"},"vehicle_type_id":"4","last_reported":1701623134,"current_range_meters":27600,"station_id":"ce4bhn12rcd13ifvqgqg","pricing_plan_id":"free"},{"bike_id":"8f0fb87f-53e2-432d-b05f-ab1e816b61dc","system_id":"levelo_inurba_marseille","lat":43.231794,"lon":5.400052,"is_reserved":false,"is_disabled":false,"rental_uris":{"android":"levelo://app?vid=8f0fb87f-53e2-432d-b05f-ab1e816b61dc","ios":"levelo://app?vid=8f0fb87f-53e2-432d-b05f-ab1e816b61dc"},"vehicle_type_id":"4","last_reported":1701623134,"current_range_meters":18400,"station_id":"ce4bhn12rcd13ifvqgqg","pricing_plan_id":"free"}]}}