{"last_updated":1723907227,"ttl":30,"version":"2.2","data":{"bikes":[{"bike_id":"53ac0825-1ec7-49bc-83b7-75bbded31f0a","system_id":"levelo_inurba_marseille","lat":43.31341,"lon":5.367098,"is_reserved":false,"is_disabled":false,"rental_uris":{"android":"levelo://app?vid=53ac0825-1ec7-49bc-83b7-75bbded31f0a","ios":"levelo://app?vid=53ac0825-1ec7-49bc-83b7-75bbded31f0a"},"vehicle_type_id":"4","last_reported":1723907227,"current_range_meters":30800,"station_id":"ce4bgr92rcd13ifvqc6g","pricing_plan_id":"cebpf4jnsgd1na2vs0mg"},{"bike_id":"2e3a23af-8b59-4af5-bf61-32e25310bec2","system_id":"levelo_inurba_marseille","lat":43.313391,"lon":5.36706,"is_reserved":false,"is_disabled":false,"rental_uris":{"android":"levelo://app?vid=2e3a23af-8b59-4af5-bf61-32e25310bec2","ios":"levelo://app?vid=2e3a23af-8b59-4af5-bf61-32e25310bec2"},"vehicle_type_id":"4","last_reported":1723907227,"current_range_meters":31200,"station_id":"ce4bgr92rcd13ifvqc6g","pricing_plan_id":"cebpf4jnsgd1na2vs0mg"},{"bike_id":"23be7f74-0a22-4934-9576-628b44b2644f","system_id":"levelo_inurba_marseille","lat":43.31341,"lon":5.367098,"is_reserved":false,"is_disabled":false,"rental_uris":{"android":"levelo://app?vid=23be7f74-0a22-4934-9576-628b44b2644f","ios":"levelo://app?vid=23be7f74-0a22-4934-9576-628b44b2644f"},"vehicle_type_id":"4","last_reported":1723907227,"current_range_meters":31200,"station_id":"ce4bgr92rcd13ifvqc6g","pricing_plan_id":"cebpf4jnsgd1na2vs0mg"},{"bike_id":"c3f87838-609e-41bd-b7f0-cb656e12bc25","system_id":"levelo_inurba_marseille","lat":43.312239,"lon":5.368562,"is_reserved":false,"is_disabled":false,"rental_uris":{"android":"levelo://app?vid=c3f87838-609e-41bd-b7f0-cb656e12bc25","ios":"levelo://app?vid=c3f87838-609e-41bd-b7f0-cb656e12bc25"},"vehicle_type_id":"4","last_reported":1723907227,"current_range_meters":30400,"station_id":"ce4bgl92rcd13ifvqbq0","pricing_plan_id":"cebpf4jnsgd1na2vs0mg"},{"bike_id":"df721697-4e1e-479a-98ba-4e31c49737f3","system_id":"levelo_inurba_marseille","lat":43.312239,"lon":5.368562,"is_reserved":false,"is_disabled":false,"rental_uris":{"android":"levelo://app?vid=df721697-4e1e-479a-98ba-4e31c49737f3","ios":"levelo://app?vid=df721697-4e1e-479a-98ba-4e31c49737f3"},"vehicle_type_id":"4","last_reported":1723907227,"current_range_meters":16400,"station_id":"ce4bgl92rcd13ifvqbq0","pricing_plan_id":"cebpf4jnsgd1na2vs0mg"},{"bike_id":"3fdc6ed3-bbbd-489e-be49-a82674a39a6a","system_id":"levelo_inurba_marseille","lat":43.312239,"lon":5.368562,"is_reserved":false,"is_disabled":false,"rental_uris":{"android":"levelo://app?vid=3fdc6ed3-bbbd-489e-be49-a82674a39a6a","ios":"levelo://app?vid=3fdc6ed3-bbbd-489e-be49-a82674a39a6a"},"vehicle_type_id":"4","last_reported":1723907227,"current_range_meters":28800,"station_id":"ce4bgl92rcd13ifvqbq0","pricing_plan_id":"cebpf4jnsgd1na2vs0mg"},{"bike_id":"36c563be-0fee-4332-bfb1-fe1a473d0293","system_id":"levelo_inurba_marseille","lat":43.312239,"lon":5.368562,"is_reserved":false,"is_disabled":false,"rental_uris":{"android":"levelo://app?vid=36c563be-0fee-4332-bfb1-fe1a473d0293","ios":"levelo://app?vid=36c563be-0fee-4332-bfb1-fe1a473d0293"},"vehicle_type_id":"4","last_reported":1723907227,"current_range_meters":26400,"station_id":"ce4bgl92rcd13ifvqbq0","pricing_plan_id":"cebpf4jnsgd1na2vs0mg"},{"bike_id":"65b74563-9322-4cec-ab11-99c274e0fc5f","system_id":"levelo_inurba_marseille","lat":43.309039,"lon":5.371797,"is_reserved":false,"is_disabled":false,"rental_uris":{"android":"levelo://app?vid=65b74563-9322-4cec-ab11-99c274e0fc5f","ios":"levelo://app?vid=65b74563-9322-4cec-ab11-99c274e0fc5f"},"vehicle_type_id":"4","last_reported":1723907227,"current_range_meters":22800,"station_id":"ce4bguh2rcd13ifvqckg","pricing_plan_id":"cebpf4jnsgd1na2vs0mg"},{"bike_id":"2a389888-c437-4f82-9c11-8281f801354d","system_id":"levelo_inurba_marseille","lat":43.309039,"lon":5.371797,"is_reserved":false,"is_disabled":false,"rental_uris":{"android":"levelo://app?vid=2a389888-c437-4f82-9c11-8281f801354d","ios":"levelo://app?vid=2a389888-c437-4f82-9c11-8281f801354d"},"vehicle_type_id":"4","last_reported":1723907227,"current_range_meters":21200,"station_id":"ce4bguh2rcd13ifvqckg","pricing_plan_id":"cebpf4jnsgd1na2vs0mg"},{"bike_id":"b0f0b6b7-9995-4464-af17-b8ac392bdbfc","system_id":"levelo_inurba_marseille","lat":43.309039,"lon":5.371797,"is_reserved":false,"is_disabled":false,"rental_uris":{"android":"levelo://app?vid=b0f0b6b7-9995-4464-af17-b8ac392bdbfc","ios":"levelo://app?vid=b0f0b6b7-9995-4464-af17-b8ac392bdbfc"},"vehicle_type_id":"4","last_reported":1723907227,"current_range_meters":8000,"station_id":"ce4bguh2rcd13ifvqckg","pricing_plan_id":"cebpf4jnsgd1na2vs0mg"},{"bike_id":"f4bb82aa-3d7e-4385-85c7-5b03e7cceb50","system_id":"levelo_inurba_marseille","lat":43.31819,"lon":5.37309,"is_reserved":false,"is_disabled":false,"rental_uris":{"android":"levelo://app?vid=f4bb82aa-3d7e-4385-85c7-5b03e7cceb50","ios":"levelo://app?vid=f4bb82aa-3d7e-4385-85c7-5b03e7cceb50"},"vehicle_type_id":"4","last_reported":1723907227,"current_range_meters":6400,"station_id":"","pricing_plan_id":"cebpf4jnsgd1na2vs0mg"},{"bike_id":"ec26b9ca-8625-455e-b5ba-34534ffd47a6","system_id":"levelo_inurba_marseille","lat":43.305368,"lon":5.367343,"is_reserved":false,"is_disabled":false,"rental_uris":{"android":"levelo://app?vid=ec26b9ca-8625-455e-b5ba-34534ffd47a6","ios":"levelo://app?vid=ec26b9ca-8625-455e-b5ba-34534ffd47a6"},"vehicle_type_id":"4","last_reported":1723907227,"current_range_meters":0,"station_id":"ce4bgrp2rcd13ifvqc9g","pricing_plan_id":"cebpf4jnsgd1na2vs0mg"},{"bike_id":"44674c57-101e-47cd-b92c-0a205a5c2678","system_id":"levelo_inurba_marseille","lat":43.305368,"lon":5.367343,"is_reserved":false,"is_disabled":false,"rental_uris":{"android":"levelo://app?vid=44674c57-101e-47cd-b92c-0a205a5c2678","ios":"levelo://app?vid=44674c57-101e-47cd-b92c-0a205a5c2678"},"vehicle_type_id":"4","last_reported":1723907227,"current_range_meters":28800,"station_id":"ce4bgrp2rcd13ifvqc9g","pricing_plan_id":"cebpf4jnsgd1na2vs0mg"},{"bike_id":"1b444418-53f1-4f5a-b870-bdfe524392de","system_id":"levelo_inurba_marseille","lat":43.305368,"lon":5.367343,"is_reserved":false,"is_disabled":false,"rental_uris":{"android":"levelo://app?vid=1b444418-53f1-4f5a-b870-bdfe524392de","ios":"levelo://app?vid=1b444418-53f1-4f5a-b870-bdfe524392de"},"vehicle_type_id":"4","last_reported":1723907227,"current_range_meters":14400,"station_id":"ce4bgrp2rcd13ifvqc9g","pricing_plan_id":"cebpf4jnsgd1na2vs0mg"},{"bike_id":"dbf8f5a7-601c-43ee-bc66-d8ca6c0e6454","system_id":"levelo_inurba_marseille","lat":43.305706,"lon":5.365654,"is_reserved":false,"is_disabled":false,"rental_uris":{"android":"levelo://app?vid=dbf8f5a7-601c-43ee-bc66-d8ca6c0e6454","ios":"levelo://app?vid=dbf8f5a7-601c-43ee-bc66-d8ca6c0e6454"},"vehicle_type_id":"4","last_reported":1723907227,"current_range_meters":19600,"station_id":"ce4bgs12rcd13ifvqcag","pricing_plan_id":"cebpf4jnsgd1na2vs0mg"},{"bike_id":"ce5836b8-49e5-4a5b-9e5d-8ff4f0149c96","system_id":"levelo_inurba_marseille","lat":43.305989,"lon":5.37225,"is_reserved":false,"is_disabled":false,"rental_uris":{"android":"levelo://app?vid=ce5836b8-49e5-4a5b-9e5d-8ff4f0149c96","ios":"levelo://app?vid=ce5836b8-49e5-4a5b-9e5d-8ff4f0149c96"},"vehicle_type_id":"4","last_reported":1723907227,"current_range_meters":8800,"station_id":"ce4bgqh2rcd13ifvqc4g","pricing_plan_id":"cebpf4jnsgd1na2vs0mg"},{"bike_id":"a90f6931-8871-436d-ba79-41e78a0d87bd","system_id":"levelo_inurba_marseille","lat":43.306006,"lon":5.372261,"is_reserved":false,"is_disabled":false,"rental_uris":{"android":"levelo://app?vid=a90f6931-8871-436d-ba79-41e78a0d87bd","ios":"levelo://app?vid=a90f6931-8871-436d-ba79-41e78a0d87bd"},"vehicle_type_id":"4","last_reported":1723907227,"current_range_meters":23200,"station_id":"ce4bgqh2rcd13ifvqc4g","pricing_plan_id":"cebpf4jnsgd1na2vs0mg"},{"bike_id":"b8c97c54-d55c-4593-90c7-b1eb1a611e93","system_id":"levelo_inurba_marseille","lat":43.305989,"lon":5.37225,"is_reserved":false,"is_disabled":false,"rental_uris":{"android":"levelo://app?vid=b8c97c54-d55c-4593-90c7-b1eb1a611e93","ios":"levelo://app?vid=b8c97c54-d55c-4593-90c7-b1eb1a611e93"},"vehicle_type_id":"4","last_reported":1723907227,"current_range_meters":20400,"station_id":"ce4bgqh2rcd13ifvqc4g","pricing_plan_id":"cebpf4jnsgd1na2vs0mg"},{"bike_id":"5d52fb34-e063-4d9c-b202-b59497d7d80e","system_id":"levelo_inurba_marseille","lat":43.311131,"lon":5.377651,"is_reserved":false,"is_disabled":false,"rental_uris":{"android":"levelo://app?vid=5d52fb34-e063-4d9c-b202-b59497d7d80e","ios":"levelo://app?vid=5d52fb34-e063-4d9c-b202-b59497d7d80e"},"vehicle_type_id":"4","last_reported":1723907227,"current_range_meters":2000,"station_id":"ce4bgt92rcd13ifvqcg0","pricing_plan_id":"cebpf4jnsgd1na2vs0mg"},{"bike_id":"473f0fb7-2745-4fd4-a5ec-db1b14a453b4","system_id":"levelo_inurba_marseille","lat":43.311125,"lon":5.377624,"is_reserved":false,"is_disabled":false,"rental_uris":{"android":"levelo://app?vid=473f0fb7-2745-4fd4-a5ec-db1b14a453b4","ios":"levelo://app?vid=473f0fb7-2745-4fd4-a5ec-db1b14a453b4"},"vehicle_type_id":"4","last_reported":1723907227,"current_range_meters":12400,"station_id":"ce4bgt92rcd13ifvqcg0","pricing_plan_id":"cebpf4jnsgd1na2vs0mg"},{"bike_id":"663f21fb-b632-45d0-ac00-044075009cea","system_id":"levelo_inurba_marseille","lat":43.317075,"lon":5.377367,"is_reserved":false,"is_disabled":false,"rental_uris":{"android":"levelo://app?vid=663f21fb-b632-45d0-ac00-044075009cea","ios":"levelo://app?vid=663f21fb-b632-45d0-ac00-044075009cea"},"vehicle_type_id":"4","last_reported":1723907227,"current_range_meters":22000,"station_id":"ce4bgth2rcd13ifvqch0","pricing_plan_id":"cebpf4jnsgd1na2vs0mg"},{"bike_id":"6f3b0fff-03c6-4bf2-bf94-008f2d7ba3a4","system_id":"levelo_inurba_marseille","lat":43.3137,"lon":5.3792,"is_reserved":false,"is_disabled":false,"rental_uris":{"android":"levelo://app?vid=6f3b0fff-03c6-4bf2-bf94-008f2d7ba3a4","ios":"levelo://app?vid=6f3b0fff-03c6-4bf2-bf94-008f2d7ba3a4"},"vehicle_type_id":"4","last_reported":1723907227,"current_range_meters":2400,"station_id":"","pricing_plan_id":"cebpf4jnsgd1na2vs0mg"},{"bike_id":"64e34386-4777-4fcb-ba29-547aaff1233a","system_id":"levelo_inurba_marseille","lat":43.30304,"lon":5.368987,"is_reserved":false,"is_disabled":false,"rental_uris":{"android":"levelo://app?vid=64e34386-4777-4fcb-ba29-547aaff1233a","ios":"levelo://app?vid=64e34386-4777-4fcb-ba29-547aaff1233a"},"vehicle_type_id":"4","last_reported":1723907227,"current_range_meters":12800,"station_id":"ce4bgqh2rcd13ifvqc5g","pricing_plan_id":"cebpf4jnsgd1na2vs0mg"},{"bike_id":"edb49599-6c5b-4c21-ae1a-199893c1eeac","system_id":"levelo_inurba_marseille","lat":43.303046,"lon":5.368981,"is_reserved":false,"is_disabled":false,"rental_uris":{"android":"levelo://app?vid=edb49599-6c5b-4c21-ae1a-199893c1eeac","ios":"levelo://app?vid=edb49599-6c5b-4c21-ae1a-199893c1eeac"},"vehicle_type_id":"4","last_reported":1723907227,"current_range_meters":30400,"station_id":"ce4bgqh2rcd13ifvqc5g","pricing_plan_id":"cebpf4jnsgd1na2vs0mg"},{"bike_id":"66b961cd-c008-4a61-961f-c052d78284f0","system_id":"levelo_inurba_marseille","lat":43.32271,"lon":5.3643,"is_reserved":false,"is_disabled":false,"rental_uris":{"android":"levelo://app?vid=66b961cd-c008-4a61-961f-c052d78284f0","ios":"levelo://app?vid=66b961cd-c008-4a61-961f-c052d78284f0"},"vehicle_type_id":"4","last_reported":1723907227,"current_range_meters":0,"station_id":"","pricing_plan_id":"cebpf4jnsgd1na2vs0mg"},{"bike_id":"6525aa52-816a-4c8e-ad78-f32505ccdfba","system_id":"levelo_inurba_marseille","lat":43.31036,"lon":5.380547,"is_reserved":false,"is_disabled":false,"rental_uris":{"android":"levelo://app?vid=6525aa52-816a-4c8e-ad78-f32505ccdfba","ios":"levelo://app?vid=6525aa52-816a-4c8e-ad78-f32505ccdfba"},"vehicle_type_id":"4","last_reported":1723907227,"current_range_meters":5200,"station_id":"","pricing_plan_id":"cebpf4jnsgd1na2vs0mg"},{"bike_id":"3ecaacc4-a174-454a-87ee-66ae2927f762","system_id":"levelo_inurba_marseille","lat":43.31413,"lon":5.38081,"is_reserved":false,"is_disabled":false,"rental_uris":{"android":"levelo://app?vid=3ecaacc4-a174-454a-87ee-66ae2927f762","ios":"levelo://app?vid=3ecaacc4-a174-454a-87ee-66ae2927f762"},"vehicle_type_id":"4","last_reported":1723907227,"current_range_meters":1600,"station_id":"","pricing_plan_id":"cebpf4jnsgd1na2vs0mg"},{"bike_id":"c867e4fa-ca77-4754-ac6b-ee5239945874","system_id":"levelo_inurba_marseille","lat":43.308595,"lon":5.380807,"is_reserved":false,"is_disabled":false,"rental_uris":{"android":"levelo://app?vid=c867e4fa-ca77-4754-ac6b-ee5239945874","ios":"levelo://app?vid=c867e4fa-ca77-4754-ac6b-ee5239945874"},"vehicle_type_id":"4","last_reported":1723907227,"current_range_meters":14000,"station_id":"","pricing_plan_id":"cebpf4jnsgd1na2vs0mg"},{"bike_id":"3002f280-7517-4418-82ef-061406a0cac0","system_id":"levelo_inurba_marseille","lat":43.324903,"lon":5.368718,"is_reserved":false,"is_disabled":false,"rental_uris":{"android":"levelo://app?vid=3002f280-7517-4418-82ef-061406a0cac0","ios":"levelo://app?vid=3002f280-7517-4418-82ef-061406a0cac0"},"vehicle_type_id":"4","last_reported":1723907227,"current_range_meters":3200,"station_id":"","pricing_plan_id":"cebpf4jnsgd1na2vs0mg"},{"bike_id":"12f24074-b3ed-4294-9712-3012f3f35e88","system_id":"levelo_inurba_marseille","lat":43.30597,"lon":5.38184,"is_reserved":false,"is_disabled":false,"rental_uris":{"android":"levelo://app?vid=12f24074-b3ed-4294-9712-3012f3f35e88","ios":"levelo://app?vid=12f24074-b3ed-4294-9712-3012f3f35e88"},"vehicle_type_id":"4","last_reported":1723907227,"current_range_meters":18400,"station_id":"","pricing_plan_id":"cebpf4jnsgd1na2vs0mg"},{"bike_id":"611c96d2-fc2d-4648-8a5d-2715cd4af837","system_id":"levelo_inurba_marseille","lat":43.319935,"lon":5.381699,"is_reserved":false,"is_disabled":false,"rental_uris":{"android":"levelo://app?vid=611c96d2-fc2d-4648-8a5d-2715cd4af837","ios":"levelo://app?vid=611c96d2-fc2d-4648-8a5d-2715cd4af837"},"vehicle_type_id":"4","last_reported":1723907227,"current_range_meters":20400,"station_id":"ce4bhr12rcd13ifvqhpg","pricing_plan_id":"cebpf4jnsgd1na2vs0mg"},{"bike_id":"7643ca36-b818-496c-9726-a3f7cb4c881b","system_id":"levelo_inurba_marseille","lat":43.297807,"lon":5.393533,"is_reserved":false,"is_disabled":false,"rental_uris":{"android":"levelo://app?vid=7643ca36-b818-496c-9726-a3f7cb4c881b","ios":"levelo://app?vid=7643ca36-b818-496c-9726-a3f7cb4c881b"},"vehicle_type_id":"4","last_reported":1723907227,"current_range_meters":1600,"station_id":"chh1huq6cuj3fo74tm60","pricing_plan_id":"cebpf4jnsgd1na2vs0mg"},{"bike_id":"769ff297-b3db-49f0-853c-bc2a25a460eb","system_id":"levelo_inurba_marseille","lat":43.313571,"lon":5.384829,"is_reserved":false,"is_disabled":false,"rental_uris":{"android":"levelo://app?vid=769ff297-b3db-49f0-853c-bc2a25a460eb","ios":"levelo://app?vid=769ff297-b3db-49f0-853c-bc2a25a460eb"},"vehicle_type_id":"4","last_reported":1723907227,"current_range_meters":18800,"station_id":"ce4bgt92rcd13ifvqcf0","pricing_plan_id":"cebpf4jnsgd1na2vs0mg"},{"bike_id":"ad249036-20d9-4ab1-ae4c-991fbf868115","system_id":"levelo_inurba_marseille","lat":43.30002,"lon":5.37196,"is_reserved":false,"is_disabled":false,"rental_uris":{"android":"levelo://app?vid=ad249036-20d9-4ab1-ae4c-991fbf868115","ios":"levelo://app?vid=ad249036-20d9-4ab1-ae4c-991fbf868115"},"vehicle_type_id":"4","last_reported":1723907227,"current_range_meters":20400,"station_id":"","pricing_plan_id":"cebpf4jnsgd1na2vs0mg"},{"bike_id":"5d89279a-ac59-480b-acd6-2a3ebc3db566","system_id":"levelo_inurba_marseille","lat":43.299724,"lon":5.371829,"is_reserved":false,"is_disabled":false,"rental_uris":{"android":"levelo://app?vid=5d89279a-ac59-480b-acd6-2a3ebc3db566","ios":"levelo://app?vid=5d89279a-ac59-480b-acd6-2a3ebc3db566"},"vehicle_type_id":"4","last_reported":1723907227,"current_range_meters":22000,"station_id":"ce4bgr92rcd13ifvqc7g","pricing_plan_id":"cebpf4jnsgd1na2vs0mg"},{"bike_id":"d7e4ee5a-00c1-411c-9e30-ca7ade7ff3fc","system_id":"levelo_inurba_marseille","lat":43.299724,"lon":5.371829,"is_reserved":false,"is_disabled":false,"rental_uris":{"android":"levelo://app?vid=d7e4ee5a-00c1-411c-9e30-ca7ade7ff3fc","ios":"levelo://app?vid=d7e4ee5a-00c1-411c-9e30-ca7ade7ff3fc"},"vehicle_type_id":"4","last_reported":1723907227,"current_range_meters":0,"station_id":"ce4bgr92rcd13ifvqc7g","pricing_plan_id":"cebpf4jnsgd1na2vs0mg"},{"bike_id":"cece519b-a817-4dbb-9b6e-6bf63945a8cf","system_id":"levelo_inurba_marseille","lat":43.305364,"lon":5.384119,"is_reserved":false,"is_disabled":false,"rental_uris":{"android":"levelo://app?vid=cece519b-a817-4dbb-9b6e-6bf63945a8cf","ios":"levelo://app?vid=cece519b-a817-4dbb-9b6e-6bf63945a8cf"},"vehicle_type_id":"4","last_reported":1723907227,"current_range_meters":9200,"station_id":"ce4bgg92rcd13ifvqb30","pricing_plan_id":"cebpf4jnsgd1na2vs0mg"},{"bike_id":"01402e1f-849e-4338-b228-d5b33e00416e","system_id":"levelo_inurba_marseille","lat":43.311722,"lon":5.387247,"is_reserved":false,"is_disabled":false,"rental_uris":{"android":"levelo://app?vid=01402e1f-849e-4338-b228-d5b33e00416e","ios":"levelo://app?vid=01402e1f-849e-4338-b228-d5b33e00416e"},"vehicle_type_id":"4","last_reported":1723907227,"current_range_meters":2800,"station_id":"ce4bgv12rcd13ifvqcp0","pricing_plan_id":"cebpf4jnsgd1na2vs0mg"},{"bike_id":"a0d7ad04-1067-42ea-a34d-45588349c436","system_id":"levelo_inurba_marseille","lat":43.30219,"lon":5.38148,"is_reserved":false,"is_disabled":false,"rental_uris":{"android":"levelo://app?vid=a0d7ad04-1067-42ea-a34d-45588349c436","ios":"levelo://app?vid=a0d7ad04-1067-42ea-a34d-45588349c436"},"vehicle_type_id":"4","last_reported":1723907227,"current_range_meters":23600,"station_id":"","pricing_plan_id":"cebpf4jnsgd1na2vs0mg"},{"bike_id":"766ab93e-8622-4d0e-b5f9-cf1cad0a7db0","system_id":"levelo_inurba_marseille","lat":43.301417,"lon":5.3809,"is_reserved":false,"is_disabled":false,"rental_uris":{"android":"levelo://app?vid=766ab93e-8622-4d0e-b5f9-cf1cad0a7db0","ios":"levelo://app?vid=766ab93e-8622-4d0e-b5f9-cf1cad0a7db0"},"vehicle_type_id":"4","last_reported":1723907227,"current_range_meters":0,"station_id":"ce4bgjp2rcd13ifvqbh0","pricing_plan_id":"cebpf4jnsgd1na2vs0mg"},{"bike_id":"7c7556ea-e3b8-47b0-ab58-712dd7efc40e","system_id":"levelo_inurba_marseille","lat":43.297774,"lon":5.370875,"is_reserved":false,"is_disabled":false,"rental_uris":{"android":"levelo://app?vid=7c7556ea-e3b8-47b0-ab58-712dd7efc40e","ios":"levelo://app?vid=7c7556ea-e3b8-47b0-ab58-712dd7efc40e"},"vehicle_type_id":"4","last_reported":1723907227,"current_range_meters":27600,"station_id":"ce4bgop2rcd13ifvqc1g","pricing_plan_id":"cebpf4jnsgd1na2vs0mg"},{"bike_id":"42164102-9e5c-4d68-bdaf-6c5b50c9b7ea","system_id":"levelo_inurba_marseille","lat":43.29772,"lon":5.37112,"is_reserved":false,"is_disabled":false,"rental_uris":{"android":"levelo://app?vid=42164102-9e5c-4d68-bdaf-6c5b50c9b7ea","ios":"levelo://app?vid=42164102-9e5c-4d68-bdaf-6c5b50c9b7ea"},"vehicle_type_id":"4","last_reported":1723907227,"current_range_meters":3200,"station_id":"ce4bgop2rcd13ifvqc1g","pricing_plan_id":"cebpf4jnsgd1na2vs0mg"},{"bike_id":"e83bc34a-7b8e-4fe1-b589-176aa19c08ee","system_id":"levelo_inurba_marseille","lat":43.3231,"lon":5.38291,"is_reserved":false,"is_disabled":false,"rental_uris":{"android":"levelo://app?vid=e83bc34a-7b8e-4fe1-b589-176aa19c08ee","ios":"levelo://app?vid=e83bc34a-7b8e-4fe1-b589-176aa19c08ee"},"vehicle_type_id":"4","last_reported":1723907227,"current_range_meters":26000,"station_id":"ce4bhr12rcd13ifvqhqg","pricing_plan_id":"cebpf4jnsgd1na2vs0mg"},{"bike_id":"d7406582-ffdd-45fb-b88c-0adc7f8036b1","system_id":"levelo_inurba_marseille","lat":43.297163,"lon":5.365866,"is_reserved":false,"is_disabled":false,"rental_uris":{"android":"levelo://app?vid=d7406582-ffdd-45fb-b88c-0adc7f8036b1","ios":"levelo://app?vid=d7406582-ffdd-45fb-b88c-0adc7f8036b1"},"vehicle_type_id":"4","last_reported":1723907227,"current_range_meters":11200,"station_id":"ce4bgn12rcd13ifvqbt0","pricing_plan_id":"cebpf4jnsgd1na2vs0mg"},{"bike_id":"9c96bd49-d693-4486-a17f-4d0858c60c91","system_id":"levelo_inurba_marseille","lat":43.296131,"lon":5.370791,"is_reserved":false,"is_disabled":false,"rental_uris":{"android":"levelo://app?vid=9c96bd49-d693-4486-a17f-4d0858c60c91","ios":"levelo://app?vid=9c96bd49-d693-4486-a17f-4d0858c60c91"},"vehicle_type_id":"4","last_reported":1723907227,"current_range_meters":26800,"station_id":"ce4bgnh2rcd13ifvqc0g","pricing_plan_id":"cebpf4jnsgd1na2vs0mg"},{"bike_id":"7e744d02-d3ab-4b1d-97bb-766827791bd5","system_id":"levelo_inurba_marseille","lat":43.296131,"lon":5.370773,"is_reserved":false,"is_disabled":false,"rental_uris":{"android":"levelo://app?vid=7e744d02-d3ab-4b1d-97bb-766827791bd5","ios":"levelo://app?vid=7e744d02-d3ab-4b1d-97bb-766827791bd5"},"vehicle_type_id":"4","last_reported":1723907227,"current_range_meters":7200,"station_id":"ce4bgnh2rcd13ifvqc0g","pricing_plan_id":"cebpf4jnsgd1na2vs0mg"},{"bike_id":"9d6327a4-065e-4978-bcb9-3da0700214f9","system_id":"levelo_inurba_marseille","lat":43.296131,"lon":5.370791,"is_reserved":false,"is_disabled":false,"rental_uris":{"android":"levelo://app?vid=9d6327a4-065e-4978-bcb9-3da0700214f9","ios":"levelo://app?vid=9d6327a4-065e-4978-bcb9-3da0700214f9"},"vehicle_type_id":"4","last_reported":1723907227,"current_range_meters":0,"station_id":"ce4bgnh2rcd13ifvqc0g","pricing_plan_id":"cebpf4jnsgd1na2vs0mg"},{"bike_id":"ab633f4b-7d0e-4897-ab5c-8f3953341693","system_id":"levelo_inurba_marseille","lat":43.296131,"lon":5.370791,"is_reserved":false,"is_disabled":false,"rental_uris":{"android":"levelo://app?vid=ab633f4b-7d0e-4897-ab5c-8f3953341693","ios":"levelo://app?vid=ab633f4b-7d0e-4897-ab5c-8f3953341693"},"vehicle_type_id":"4","last_reported":1723907227,"current_range_meters":4000,"station_id":"ce4bgnh2rcd13ifvqc0g","pricing_plan_id":"cebpf4jnsgd1na2vs0mg"},{"bike_id":"fc232e08-d8c5-43d4-ab5f-746c020f47f4","system_id":"levelo_inurba_marseille","lat":43.296131,"lon":5.370773,"is_reserved":false,"is_disabled":false,"rental_uris":{"android":"levelo://app?vid=fc232e08-d8c5-43d4-ab5f-746c020f47f4","ios":"levelo://app?vid=fc232e08-d8c5-43d4-ab5f-746c020f47f4"},"vehicle_type_id":"4","last_reported":1723907227,"current_range_meters":18800,"station_id":"ce4bgnh2rcd13ifvqc0g","pricing_plan_id":"cebpf4jnsgd1na2vs0mg"},{"bike_id":"da2277e8-58ea-432c-827b-c7332d98ca9f","system_id":"levelo_inurba_marseille","lat":43.296131,"lon":5.370773,"is_reserved":false,"is_disabled":false,"rental_uris":{"android":"levelo://app?vid=da2277e8-58ea-432c-827b-c7332d98ca9f","ios":"levelo://app?vid=da2277e8-58ea-432c-827b-c7332d98ca9f"},"vehicle_type_id":"4","last_reported":1723907227,"current_range_meters":28000,"station_id":"ce4bgnh2rcd13ifvqc0g","pricing_plan_id":"cebpf4jnsgd1na2vs0mg"},{"bike_id":"42fe0976-e15b-449d-b450-35e5bf6f3396","system_id":"levelo_inurba_marseille","lat":43.29573,"lon":5.367355,"is_reserved":false,"is_disabled":false,"rental_uris":{"android":"levelo://app?vid=42fe0976-e15b-449d-b450-35e5bf6f3396","ios":"levelo://app?vid=42fe0976-e15b-449d-b450-35e5bf6f3396"},"vehicle_type_id":"4","last_reported":1723907227,"current_range_meters":18400,"station_id":"ce4bgph2rcd13ifvqc2g","pricing_plan_id":"cebpf4jnsgd1na2vs0mg"},{"bike_id":"e3d84e5e-3eb3-4366-8ede-3d901a88076e","system_id":"levelo_inurba_marseille","lat":43.29573,"lon":5.367355,"is_reserved":false,"is_disabled":false,"rental_uris":{"android":"levelo://app?vid=e3d84e5e-3eb3-4366-8ede-3d901a88076e","ios":"levelo://app?vid=e3d84e5e-3eb3-4366-8ede-3d901a88076e"},"vehicle_type_id":"4","last_reported":1723907227,"current_range_meters":28400,"station_id":"ce4bgph2rcd13ifvqc2g","pricing_plan_id":"cebpf4jnsgd1na2vs0mg"},{"bike_id":"cc5c9d8a-3744-4e7f-aeaa-3ba25ffecf07","system_id":"levelo_inurba_marseille","lat":43.299028,"lon":5.381509,"is_reserved":false,"is_disabled":false,"rental_uris":{"android":"levelo://app?vid=cc5c9d8a-3744-4e7f-aeaa-3ba25ffecf07","ios":"levelo://app?vid=cc5c9d8a-3744-4e7f-aeaa-3ba25ffecf07"},"vehicle_type_id":"4","last_reported":1723907227,"current_range_meters":5200,"station_id":"ce4bgj12rcd13ifvqbc0","pricing_plan_id":"cebpf4jnsgd1na2vs0mg"},{"bike_id":"af6edc6a-03c1-4096-b8b0-80be441139a2","system_id":"levelo_inurba_marseille","lat":43.322975,"lon":5.386075,"is_reserved":false,"is_disabled":false,"rental_uris":{"android":"levelo://app?vid=af6edc6a-03c1-4096-b8b0-80be441139a2","ios":"levelo://app?vid=af6edc6a-03c1-4096-b8b0-80be441139a2"},"vehicle_type_id":"4","last_reported":1723907227,"current_range_meters":6400,"station_id":"","pricing_plan_id":"cebpf4jnsgd1na2vs0mg"},{"bike_id":"e7a551ef-7462-42db-ab92-edc2aab5c4b3","system_id":"levelo_inurba_marseille","lat":43.309589,"lon":5.390258,"is_reserved":false,"is_disabled":false,"rental_uris":{"android":"levelo://app?vid=e7a551ef-7462-42db-ab92-edc2aab5c4b3","ios":"levelo://app?vid=e7a551ef-7462-42db-ab92-edc2aab5c4b3"},"vehicle_type_id":"4","last_reported":1723907227,"current_range_meters":9200,"station_id":"ce4bgup2rcd13ifvqco0","pricing_plan_id":"cebpf4jnsgd1na2vs0mg"},{"bike_id":"ab36b9d9-88e9-4bb4-b063-9a29c93ccb9d","system_id":"levelo_inurba_marseille","lat":43.31763,"lon":5.39012,"is_reserved":false,"is_disabled":false,"rental_uris":{"android":"levelo://app?vid=ab36b9d9-88e9-4bb4-b063-9a29c93ccb9d","ios":"levelo://app?vid=ab36b9d9-88e9-4bb4-b063-9a29c93ccb9d"},"vehicle_type_id":"4","last_reported":1723907227,"current_range_meters":25600,"station_id":"ce4bhqp2rcd13ifvqhng","pricing_plan_id":"cebpf4jnsgd1na2vs0mg"},{"bike_id":"05081c8d-be86-4c7e-88a8-7a0041b8464a","system_id":"levelo_inurba_marseille","lat":43.317557,"lon":5.390173,"is_reserved":false,"is_disabled":false,"rental_uris":{"android":"levelo://app?vid=05081c8d-be86-4c7e-88a8-7a0041b8464a","ios":"levelo://app?vid=05081c8d-be86-4c7e-88a8-7a0041b8464a"},"vehicle_type_id":"4","last_reported":1723907227,"current_range_meters":30800,"station_id":"ce4bhqp2rcd13ifvqhng","pricing_plan_id":"cebpf4jnsgd1na2vs0mg"},{"bike_id":"1b90cf06-f2ae-423e-b7fc-3ffc5738d256","system_id":"levelo_inurba_marseille","lat":43.323147,"lon":5.386603,"is_reserved":false,"is_disabled":false,"rental_uris":{"android":"levelo://app?vid=1b90cf06-f2ae-423e-b7fc-3ffc5738d256","ios":"levelo://app?vid=1b90cf06-f2ae-423e-b7fc-3ffc5738d256"},"vehicle_type_id":"4","last_reported":1723907227,"current_range_meters":15600,"station_id":"","pricing_plan_id":"cebpf4jnsgd1na2vs0mg"},{"bike_id":"864dbf84-46a8-4a39-9e14-a484ee7bed9e","system_id":"levelo_inurba_marseille","lat":43.29747,"lon":5.37937,"is_reserved":false,"is_disabled":false,"rental_uris":{"android":"levelo://app?vid=864dbf84-46a8-4a39-9e14-a484ee7bed9e","ios":"levelo://app?vid=864dbf84-46a8-4a39-9e14-a484ee7bed9e"},"vehicle_type_id":"4","last_reported":1723907227,"current_range_meters":3600,"station_id":"","pricing_plan_id":"cebpf4jnsgd1na2vs0mg"},{"bike_id":"9edcb24a-b803-445e-b345-5bad5e26fc01","system_id":"levelo_inurba_marseille","lat":43.29582,"lon":5.37502,"is_reserved":false,"is_disabled":false,"rental_uris":{"android":"levelo://app?vid=9edcb24a-b803-445e-b345-5bad5e26fc01","ios":"levelo://app?vid=9edcb24a-b803-445e-b345-5bad5e26fc01"},"vehicle_type_id":"4","last_reported":1723907227,"current_range_meters":14000,"station_id":"ce4bgh92rcd13ifvqb50","pricing_plan_id":"cebpf4jnsgd1na2vs0mg"},{"bike_id":"44316fff-42ba-406c-beb3-c835bdb44615","system_id":"levelo_inurba_marseille","lat":43.304274,"lon":5.388873,"is_reserved":false,"is_disabled":false,"rental_uris":{"android":"levelo://app?vid=44316fff-42ba-406c-beb3-c835bdb44615","ios":"levelo://app?vid=44316fff-42ba-406c-beb3-c835bdb44615"},"vehicle_type_id":"4","last_reported":1723907227,"current_range_meters":24400,"station_id":"ce4bgk12rcd13ifvqbi0","pricing_plan_id":"cebpf4jnsgd1na2vs0mg"},{"bike_id":"eda056be-e43f-4447-bdd4-28b0be8cfe38","system_id":"levelo_inurba_marseille","lat":43.296277,"lon":5.377108,"is_reserved":false,"is_disabled":false,"rental_uris":{"android":"levelo://app?vid=eda056be-e43f-4447-bdd4-28b0be8cfe38","ios":"levelo://app?vid=eda056be-e43f-4447-bdd4-28b0be8cfe38"},"vehicle_type_id":"4","last_reported":1723907227,"current_range_meters":10800,"station_id":"ce4bgi92rcd13ifvqb90","pricing_plan_id":"cebpf4jnsgd1na2vs0mg"},{"bike_id":"4d762158-27eb-4e9a-b0e5-83735ecec377","system_id":"levelo_inurba_marseille","lat":43.296263,"lon":5.377094,"is_reserved":false,"is_disabled":false,"rental_uris":{"android":"levelo://app?vid=4d762158-27eb-4e9a-b0e5-83735ecec377","ios":"levelo://app?vid=4d762158-27eb-4e9a-b0e5-83735ecec377"},"vehicle_type_id":"4","last_reported":1723907227,"current_range_meters":10000,"station_id":"ce4bgi92rcd13ifvqb90","pricing_plan_id":"cebpf4jnsgd1na2vs0mg"},{"bike_id":"2fb5e709-3774-4160-a017-d20b73b4f558","system_id":"levelo_inurba_marseille","lat":43.295279,"lon":5.375048,"is_reserved":false,"is_disabled":false,"rental_uris":{"android":"levelo://app?vid=2fb5e709-3774-4160-a017-d20b73b4f558","ios":"levelo://app?vid=2fb5e709-3774-4160-a017-d20b73b4f558"},"vehicle_type_id":"4","last_reported":1723907227,"current_range_meters":26800,"station_id":"ce4bgkp2rcd13ifvqbmg","pricing_plan_id":"cebpf4jnsgd1na2vs0mg"},{"bike_id":"bf39675a-fceb-41fe-b46d-b8d3cdeba8f5","system_id":"levelo_inurba_marseille","lat":43.299717,"lon":5.384845,"is_reserved":false,"is_disabled":false,"rental_uris":{"android":"levelo://app?vid=bf39675a-fceb-41fe-b46d-b8d3cdeba8f5","ios":"levelo://app?vid=bf39675a-fceb-41fe-b46d-b8d3cdeba8f5"},"vehicle_type_id":"4","last_reported":1723907227,"current_range_meters":20000,"station_id":"ce4bgj92rcd13ifvqbd0","pricing_plan_id":"cebpf4jnsgd1na2vs0mg"},{"bike_id":"44476fae-6242-4dfb-aa45-a51cb54cc237","system_id":"levelo_inurba_marseille","lat":43.29602,"lon":5.381084,"is_reserved":false,"is_disabled":false,"rental_uris":{"android":"levelo://app?vid=44476fae-6242-4dfb-aa45-a51cb54cc237","ios":"levelo://app?vid=44476fae-6242-4dfb-aa45-a51cb54cc237"},"vehicle_type_id":"4","last_reported":1723907227,"current_range_meters":24000,"station_id":"ce4bgl12rcd13ifvqbo0","pricing_plan_id":"cebpf4jnsgd1na2vs0mg"},{"bike_id":"114e32bb-b62a-4d40-96c1-7d006d315cd4","system_id":"levelo_inurba_marseille","lat":43.29602,"lon":5.381084,"is_reserved":false,"is_disabled":false,"rental_uris":{"android":"levelo://app?vid=114e32bb-b62a-4d40-96c1-7d006d315cd4","ios":"levelo://app?vid=114e32bb-b62a-4d40-96c1-7d006d315cd4"},"vehicle_type_id":"4","last_reported":1723907227,"current_range_meters":11600,"station_id":"ce4bgl12rcd13ifvqbo0","pricing_plan_id":"cebpf4jnsgd1na2vs0mg"},{"bike_id":"5cfe40fb-5267-400b-a75d-e398a6edec4f","system_id":"levelo_inurba_marseille","lat":43.29602,"lon":5.381084,"is_reserved":false,"is_disabled":false,"rental_uris":{"android":"levelo://app?vid=5cfe40fb-5267-400b-a75d-e398a6edec4f","ios":"levelo://app?vid=5cfe40fb-5267-400b-a75d-e398a6edec4f"},"vehicle_type_id":"4","last_reported":1723907227,"current_range_meters":22000,"station_id":"ce4bgl12rcd13ifvqbo0","pricing_plan_id":"cebpf4jnsgd1na2vs0mg"},{"bike_id":"523a564d-9b9a-4771-97d1-e7de70629594","system_id":"levelo_inurba_marseille","lat":43.29415,"lon":5.37647,"is_reserved":false,"is_disabled":false,"rental_uris":{"android":"levelo://app?vid=523a564d-9b9a-4771-97d1-e7de70629594","ios":"levelo://app?vid=523a564d-9b9a-4771-97d1-e7de70629594"},"vehicle_type_id":"4","last_reported":1723907227,"current_range_meters":22800,"station_id":"","pricing_plan_id":"cebpf4jnsgd1na2vs0mg"},{"bike_id":"164118e0-2f56-42b3-8db1-1bd26e1e27f8","system_id":"levelo_inurba_marseille","lat":43.293259,"lon":5.371586,"is_reserved":false,"is_disabled":false,"rental_uris":{"android":"levelo://app?vid=164118e0-2f56-42b3-8db1-1bd26e1e27f8","ios":"levelo://app?vid=164118e0-2f56-42b3-8db1-1bd26e1e27f8"},"vehicle_type_id":"4","last_reported":1723907227,"current_range_meters":28000,"station_id":"ce4bgh92rcd13ifvqb40","pricing_plan_id":"cebpf4jnsgd1na2vs0mg"},{"bike_id":"f0b2bab4-def3-40c6-ba0b-cbfbb53a59e3","system_id":"levelo_inurba_marseille","lat":43.293259,"lon":5.371586,"is_reserved":false,"is_disabled":false,"rental_uris":{"android":"levelo://app?vid=f0b2bab4-def3-40c6-ba0b-cbfbb53a59e3","ios":"levelo://app?vid=f0b2bab4-def3-40c6-ba0b-cbfbb53a59e3"},"vehicle_type_id":"4","last_reported":1723907227,"current_range_meters":14000,"station_id":"ce4bgh92rcd13ifvqb40","pricing_plan_id":"cebpf4jnsgd1na2vs0mg"},{"bike_id":"c478424e-ac8b-4385-98b9-95112ec90dbe","system_id":"levelo_inurba_marseille","lat":43.293009,"lon":5.374584,"is_reserved":false,"is_disabled":false,"rental_uris":{"android":"levelo://app?vid=c478424e-ac8b-4385-98b9-95112ec90dbe","ios":"levelo://app?vid=c478424e-ac8b-4385-98b9-95112ec90dbe"},"vehicle_type_id":"4","last_reported":1723907227,"current_range_meters":18400,"station_id":"ce4bgi12rcd13ifvqb70","pricing_plan_id":"cebpf4jnsgd1na2vs0mg"},{"bike_id":"60380b61-cec0-4e39-bebb-5fafc6ef30e7","system_id":"levelo_inurba_marseille","lat":43.293009,"lon":5.374584,"is_reserved":false,"is_disabled":false,"rental_uris":{"android":"levelo://app?vid=60380b61-cec0-4e39-bebb-5fafc6ef30e7","ios":"levelo://app?vid=60380b61-cec0-4e39-bebb-5fafc6ef30e7"},"vehicle_type_id":"4","last_reported":1723907227,"current_range_meters":26000,"station_id":"ce4bgi12rcd13ifvqb70","pricing_plan_id":"cebpf4jnsgd1na2vs0mg"},{"bike_id":"2aab6020-215b-4797-94ca-37288e325e08","system_id":"levelo_inurba_marseille","lat":43.29298,"lon":5.37457,"is_reserved":false,"is_disabled":false,"rental_uris":{"android":"levelo://app?vid=2aab6020-215b-4797-94ca-37288e325e08","ios":"levelo://app?vid=2aab6020-215b-4797-94ca-37288e325e08"},"vehicle_type_id":"4","last_reported":1723907227,"current_range_meters":0,"station_id":"ce4bgi12rcd13ifvqb70","pricing_plan_id":"cebpf4jnsgd1na2vs0mg"},{"bike_id":"2c69b66e-1a32-4e67-b302-f6ef6c9fcda7","system_id":"levelo_inurba_marseille","lat":43.2936,"lon":5.37835,"is_reserved":false,"is_disabled":false,"rental_uris":{"android":"levelo://app?vid=2c69b66e-1a32-4e67-b302-f6ef6c9fcda7","ios":"levelo://app?vid=2c69b66e-1a32-4e67-b302-f6ef6c9fcda7"},"vehicle_type_id":"4","last_reported":1723907227,"current_range_meters":30400,"station_id":"ce4bgjh2rcd13ifvqbf0","pricing_plan_id":"cebpf4jnsgd1na2vs0mg"},{"bike_id":"a49a5c12-07ff-421c-a247-af34a6032096","system_id":"levelo_inurba_marseille","lat":43.292311,"lon":5.360731,"is_reserved":false,"is_disabled":false,"rental_uris":{"android":"levelo://app?vid=a49a5c12-07ff-421c-a247-af34a6032096","ios":"levelo://app?vid=a49a5c12-07ff-421c-a247-af34a6032096"},"vehicle_type_id":"4","last_reported":1723907227,"current_range_meters":24400,"station_id":"ce4bhbh2rcd13ifvqeqg","pricing_plan_id":"cebpf4jnsgd1na2vs0mg"},{"bike_id":"77a8a44b-79db-4d47-ae63-bf0aec17b87d","system_id":"levelo_inurba_marseille","lat":43.32936,"lon":5.385685,"is_reserved":false,"is_disabled":false,"rental_uris":{"android":"levelo://app?vid=77a8a44b-79db-4d47-ae63-bf0aec17b87d","ios":"levelo://app?vid=77a8a44b-79db-4d47-ae63-bf0aec17b87d"},"vehicle_type_id":"4","last_reported":1723907227,"current_range_meters":5200,"station_id":"","pricing_plan_id":"cebpf4jnsgd1na2vs0mg"},{"bike_id":"3150da08-8fab-4c30-b17c-8a8d9f07a4b7","system_id":"levelo_inurba_marseille","lat":43.29529,"lon":5.385581,"is_reserved":false,"is_disabled":false,"rental_uris":{"android":"levelo://app?vid=3150da08-8fab-4c30-b17c-8a8d9f07a4b7","ios":"levelo://app?vid=3150da08-8fab-4c30-b17c-8a8d9f07a4b7"},"vehicle_type_id":"4","last_reported":1723907227,"current_range_meters":29200,"station_id":"ce4bgih2rcd13ifvqba0","pricing_plan_id":"cebpf4jnsgd1na2vs0mg"},{"bike_id":"6f0f8198-b948-477b-aed1-12fddab284c2","system_id":"levelo_inurba_marseille","lat":43.29529,"lon":5.385581,"is_reserved":false,"is_disabled":false,"rental_uris":{"android":"levelo://app?vid=6f0f8198-b948-477b-aed1-12fddab284c2","ios":"levelo://app?vid=6f0f8198-b948-477b-aed1-12fddab284c2"},"vehicle_type_id":"4","last_reported":1723907227,"current_range_meters":7600,"station_id":"ce4bgih2rcd13ifvqba0","pricing_plan_id":"cebpf4jnsgd1na2vs0mg"},{"bike_id":"09427e88-1e02-46c5-84f9-7b63dbd375f1","system_id":"levelo_inurba_marseille","lat":43.29529,"lon":5.385581,"is_reserved":false,"is_disabled":false,"rental_uris":{"android":"levelo://app?vid=09427e88-1e02-46c5-84f9-7b63dbd375f1","ios":"levelo://app?vid=09427e88-1e02-46c5-84f9-7b63dbd375f1"},"vehicle_type_id":"4","last_reported":1723907227,"current_range_meters":25200,"station_id":"ce4bgih2rcd13ifvqba0","pricing_plan_id":"cebpf4jnsgd1na2vs0mg"},{"bike_id":"b7d6489f-23c2-449a-a718-58dbf172b290","system_id":"levelo_inurba_marseille","lat":43.29529,"lon":5.385581,"is_reserved":false,"is_disabled":false,"rental_uris":{"android":"levelo://app?vid=b7d6489f-23c2-449a-a718-58dbf172b290","ios":"levelo://app?vid=b7d6489f-23c2-449a-a718-58dbf172b290"},"vehicle_type_id":"4","last_reported":1723907227,"current_range_meters":2000,"station_id":"ce4bgih2rcd13ifvqba0","pricing_plan_id":"cebpf4jnsgd1na2vs0mg"},{"bike_id":"47e06a25-8dbf-43ea-9cd4-f238a3494d9d","system_id":"levelo_inurba_marseille","lat":43.315358,"lon":5.397125,"is_reserved":false,"is_disabled":false,"rental_uris":{"android":"levelo://app?vid=47e06a25-8dbf-43ea-9cd4-f238a3494d9d","ios":"levelo://app?vid=47e06a25-8dbf-43ea-9cd4-f238a3494d9d"},"vehicle_type_id":"4","last_reported":1723907227,"current_range_meters":0,"station_id":"","pricing_plan_id":"cebpf4jnsgd1na2vs0mg"},{"bike_id":"18b64814-5e06-4d6e-84fc-e2465edb06b4","system_id":"levelo_inurba_marseille","lat":43.290779,"lon":5.371482,"is_reserved":false,"is_disabled":false,"rental_uris":{"android":"levelo://app?vid=18b64814-5e06-4d6e-84fc-e2465edb06b4","ios":"levelo://app?vid=18b64814-5e06-4d6e-84fc-e2465edb06b4"},"vehicle_type_id":"4","last_reported":1723907227,"current_range_meters":7200,"station_id":"ce4bh5p2rcd13ifvqe4g","pricing_plan_id":"cebpf4jnsgd1na2vs0mg"},{"bike_id":"c22f5092-ae3f-4f14-a059-5613a455134c","system_id":"levelo_inurba_marseille","lat":43.30215,"lon":5.39465,"is_reserved":false,"is_disabled":false,"rental_uris":{"android":"levelo://app?vid=c22f5092-ae3f-4f14-a059-5613a455134c","ios":"levelo://app?vid=c22f5092-ae3f-4f14-a059-5613a455134c"},"vehicle_type_id":"4","last_reported":1723907227,"current_range_meters":2400,"station_id":"ce4bh0p2rcd13ifvqd70","pricing_plan_id":"cebpf4jnsgd1na2vs0mg"},{"bike_id":"3f97c701-c526-4e39-be7c-49a77394ece2","system_id":"levelo_inurba_marseille","lat":43.290624,"lon":5.359245,"is_reserved":false,"is_disabled":false,"rental_uris":{"android":"levelo://app?vid=3f97c701-c526-4e39-be7c-49a77394ece2","ios":"levelo://app?vid=3f97c701-c526-4e39-be7c-49a77394ece2"},"vehicle_type_id":"4","last_reported":1723907227,"current_range_meters":27600,"station_id":"ce4bha92rcd13ifvqeg0","pricing_plan_id":"cebpf4jnsgd1na2vs0mg"},{"bike_id":"972a746b-924a-47d5-b7bb-316d70f93337","system_id":"levelo_inurba_marseille","lat":43.282754,"lon":5.350519,"is_reserved":false,"is_disabled":false,"rental_uris":{"android":"levelo://app?vid=972a746b-924a-47d5-b7bb-316d70f93337","ios":"levelo://app?vid=972a746b-924a-47d5-b7bb-316d70f93337"},"vehicle_type_id":"4","last_reported":1723907227,"current_range_meters":11200,"station_id":"ce4bhbp2rcd13ifvqerg","pricing_plan_id":"cebpf4jnsgd1na2vs0mg"},{"bike_id":"635a7883-2712-4f45-9c19-0d7aa0c0aed6","system_id":"levelo_inurba_marseille","lat":43.294153,"lon":5.386305,"is_reserved":false,"is_disabled":false,"rental_uris":{"android":"levelo://app?vid=635a7883-2712-4f45-9c19-0d7aa0c0aed6","ios":"levelo://app?vid=635a7883-2712-4f45-9c19-0d7aa0c0aed6"},"vehicle_type_id":"4","last_reported":1723907227,"current_range_meters":16000,"station_id":"ce4bh2h2rcd13ifvqdh0","pricing_plan_id":"cebpf4jnsgd1na2vs0mg"},{"bike_id":"dd61dbf4-22c5-4921-bacd-249822df5884","system_id":"levelo_inurba_marseille","lat":43.294162,"lon":5.386292,"is_reserved":false,"is_disabled":false,"rental_uris":{"android":"levelo://app?vid=dd61dbf4-22c5-4921-bacd-249822df5884","ios":"levelo://app?vid=dd61dbf4-22c5-4921-bacd-249822df5884"},"vehicle_type_id":"4","last_reported":1723907227,"current_range_meters":18800,"station_id":"ce4bh2h2rcd13ifvqdh0","pricing_plan_id":"cebpf4jnsgd1na2vs0mg"},{"bike_id":"6fc165a7-7dfa-4848-96a6-d9bed0a6c34e","system_id":"levelo_inurba_marseille","lat":43.294162,"lon":5.386292,"is_reserved":false,"is_disabled":false,"rental_uris":{"android":"levelo://app?vid=6fc165a7-7dfa-4848-96a6-d9bed0a6c34e","ios":"levelo://app?vid=6fc165a7-7dfa-4848-96a6-d9bed0a6c34e"},"vehicle_type_id":"4","last_reported":1723907227,"current_range_meters":15200,"station_id":"ce4bh2h2rcd13ifvqdh0","pricing_plan_id":"cebpf4jnsgd1na2vs0mg"},{"bike_id":"60cbca68-527d-4d93-8905-6f518ae0c1a4","system_id":"levelo_inurba_marseille","lat":43.294153,"lon":5.386305,"is_reserved":false,"is_disabled":false,"rental_uris":{"android":"levelo://app?vid=60cbca68-527d-4d93-8905-6f518ae0c1a4","ios":"levelo://app?vid=60cbca68-527d-4d93-8905-6f518ae0c1a4"},"vehicle_type_id":"4","last_reported":1723907227,"current_range_meters":11600,"station_id":"ce4bh2h2rcd13ifvqdh0","pricing_plan_id":"cebpf4jnsgd1na2vs0mg"},{"bike_id":"b38e58e9-8bc2-440d-b49f-1affb5704a2f","system_id":"levelo_inurba_marseille","lat":43.294153,"lon":5.386305,"is_reserved":false,"is_disabled":false,"rental_uris":{"android":"levelo://app?vid=b38e58e9-8bc2-440d-b49f-1affb5704a2f","ios":"levelo://app?vid=b38e58e9-8bc2-440d-b49f-1affb5704a2f"},"vehicle_type_id":"4","last_reported":1723907227,"current_range_meters":0,"station_id":"ce4bh2h2rcd13ifvqdh0","pricing_plan_id":"cebpf4jnsgd1na2vs0mg"},{"bike_id":"362fdcb8-432a-49aa-9490-a4148ace5e31","system_id":"levelo_inurba_marseille","lat":43.294162,"lon":5.386292,"is_reserved":false,"is_disabled":false,"rental_uris":{"android":"levelo://app?vid=362fdcb8-432a-49aa-9490-a4148ace5e31","ios":"levelo://app?vid=362fdcb8-432a-49aa-9490-a4148ace5e31"},"vehicle_type_id":"4","last_reported":1723907227,"current_range_meters":3200,"station_id":"ce4bh2h2rcd13ifvqdh0","pricing_plan_id":"cebpf4jnsgd1na2vs0mg"},{"bike_id":"119f487f-d1d7-4e13-a0e8-1a26d82ec818","system_id":"levelo_inurba_marseille","lat":43.294153,"lon":5.386305,"is_reserved":false,"is_disabled":false,"rental_uris":{"android":"levelo://app?vid=119f487f-d1d7-4e13-a0e8-1a26d82ec818","ios":"levelo://app?vid=119f487f-d1d7-4e13-a0e8-1a26d82ec818"},"vehicle_type_id":"4","last_reported":1723907227,"current_range_meters":15200,"station_id":"ce4bh2h2rcd13ifvqdh0","pricing_plan_id":"cebpf4jnsgd1na2vs0mg"},{"bike_id":"f36b0f78-1a79-4731-b00b-7dea5947ada8","system_id":"levelo_inurba_marseille","lat":43.294162,"lon":5.386292,"is_reserved":false,"is_disabled":false,"rental_uris":{"android":"levelo://app?vid=f36b0f78-1a79-4731-b00b-7dea5947ada8","ios":"levelo://app?vid=f36b0f78-1a79-4731-b00b-7dea5947ada8"},"vehicle_type_id":"4","last_reported":1723907227,"current_range_meters":28800,"station_id":"ce4bh2h2rcd13ifvqdh0","pricing_plan_id":"cebpf4jnsgd1na2vs0mg"},{"bike_id":"44e010bd-ac24-4ad8-9ca3-6fa9d17aef0c","system_id":"levelo_inurba_marseille","lat":43.294162,"lon":5.386292,"is_reserved":false,"is_disabled":false,"rental_uris":{"android":"levelo://app?vid=44e010bd-ac24-4ad8-9ca3-6fa9d17aef0c","ios":"levelo://app?vid=44e010bd-ac24-4ad8-9ca3-6fa9d17aef0c"},"vehicle_type_id":"4","last_reported":1723907227,"current_range_meters":4400,"station_id":"ce4bh2h2rcd13ifvqdh0","pricing_plan_id":"cebpf4jnsgd1na2vs0mg"},{"bike_id":"d01b6d94-e78a-4115-bed9-4c3926e1e2bc","system_id":"levelo_inurba_marseille","lat":43.294162,"lon":5.386292,"is_reserved":false,"is_disabled":false,"rental_uris":{"android":"levelo://app?vid=d01b6d94-e78a-4115-bed9-4c3926e1e2bc","ios":"levelo://app?vid=d01b6d94-e78a-4115-bed9-4c3926e1e2bc"},"vehicle_type_id":"4","last_reported":1723907227,"current_range_meters":9200,"station_id":"ce4bh2h2rcd13ifvqdh0","pricing_plan_id":"cebpf4jnsgd1na2vs0mg"},{"bike_id":"e9f6eef4-f989-4043-b4bf-dfdc25a4c991","system_id":"levelo_inurba_marseille","lat":43.294162,"lon":5.386292,"is_reserved":false,"is_disabled":false,"rental_uris":{"android":"levelo://app?vid=e9f6eef4-f989-4043-b4bf-dfdc25a4c991","ios":"levelo://app?vid=e9f6eef4-f989-4043-b4bf-dfdc25a4c991"},"vehicle_type_id":"4","last_reported":1723907227,"current_range_meters":9600,"station_id":"ce4bh2h2rcd13ifvqdh0","pricing_plan_id":"cebpf4jnsgd1na2vs0mg"},{"bike_id":"03d3a912-a71e-4d6a-b9b1-4de3b36d1e57","system_id":"levelo_inurba_marseille","lat":43.28938,"lon":5.36641,"is_reserved":false,"is_disabled":false,"rental_uris":{"android":"levelo://app?vid=03d3a912-a71e-4d6a-b9b1-4de3b36d1e57","ios":"levelo://app?vid=03d3a912-a71e-4d6a-b9b1-4de3b36d1e57"},"vehicle_type_id":"4","last_reported":1723907227,"current_range_meters":10000,"station_id":"ce4bhap2rcd13ifvqek0","pricing_plan_id":"cebpf4jnsgd1na2vs0mg"},{"bike_id":"a1280721-bdf9-4c26-8fab-bb82dc979272","system_id":"levelo_inurba_marseille","lat":43.289184,"lon":5.366408,"is_reserved":false,"is_disabled":false,"rental_uris":{"android":"levelo://app?vid=a1280721-bdf9-4c26-8fab-bb82dc979272","ios":"levelo://app?vid=a1280721-bdf9-4c26-8fab-bb82dc979272"},"vehicle_type_id":"4","last_reported":1723907227,"current_range_meters":20000,"station_id":"ce4bhap2rcd13ifvqek0","pricing_plan_id":"cebpf4jnsgd1na2vs0mg"},{"bike_id":"8b1e3e5c-bbdc-427e-b10f-a084e6aa0d71","system_id":"levelo_inurba_marseille","lat":43.28938,"lon":5.36635,"is_reserved":false,"is_disabled":false,"rental_uris":{"android":"levelo://app?vid=8b1e3e5c-bbdc-427e-b10f-a084e6aa0d71","ios":"levelo://app?vid=8b1e3e5c-bbdc-427e-b10f-a084e6aa0d71"},"vehicle_type_id":"4","last_reported":1723907227,"current_range_meters":4800,"station_id":"ce4bhap2rcd13ifvqek0","pricing_plan_id":"cebpf4jnsgd1na2vs0mg"},{"bike_id":"2015da5e-180d-403d-a438-1db5b6aa41b9","system_id":"levelo_inurba_marseille","lat":43.28936,"lon":5.36637,"is_reserved":false,"is_disabled":false,"rental_uris":{"android":"levelo://app?vid=2015da5e-180d-403d-a438-1db5b6aa41b9","ios":"levelo://app?vid=2015da5e-180d-403d-a438-1db5b6aa41b9"},"vehicle_type_id":"4","last_reported":1723907227,"current_range_meters":20400,"station_id":"ce4bhap2rcd13ifvqek0","pricing_plan_id":"cebpf4jnsgd1na2vs0mg"},{"bike_id":"e639533e-471a-4c08-8b01-9f265d3dd2e4","system_id":"levelo_inurba_marseille","lat":43.289184,"lon":5.366408,"is_reserved":false,"is_disabled":false,"rental_uris":{"android":"levelo://app?vid=e639533e-471a-4c08-8b01-9f265d3dd2e4","ios":"levelo://app?vid=e639533e-471a-4c08-8b01-9f265d3dd2e4"},"vehicle_type_id":"4","last_reported":1723907227,"current_range_meters":20000,"station_id":"ce4bhap2rcd13ifvqek0","pricing_plan_id":"cebpf4jnsgd1na2vs0mg"},{"bike_id":"aef989cc-f3f9-46ba-833f-e9905d9016c1","system_id":"levelo_inurba_marseille","lat":43.29272,"lon":5.38438,"is_reserved":false,"is_disabled":false,"rental_uris":{"android":"levelo://app?vid=aef989cc-f3f9-46ba-833f-e9905d9016c1","ios":"levelo://app?vid=aef989cc-f3f9-46ba-833f-e9905d9016c1"},"vehicle_type_id":"4","last_reported":1723907227,"current_range_meters":31200,"station_id":"","pricing_plan_id":"cebpf4jnsgd1na2vs0mg"},{"bike_id":"f84f50c3-e1dc-44d3-b63b-74abbe31bfd3","system_id":"levelo_inurba_marseille","lat":43.29269,"lon":5.3844,"is_reserved":false,"is_disabled":false,"rental_uris":{"android":"levelo://app?vid=f84f50c3-e1dc-44d3-b63b-74abbe31bfd3","ios":"levelo://app?vid=f84f50c3-e1dc-44d3-b63b-74abbe31bfd3"},"vehicle_type_id":"4","last_reported":1723907227,"current_range_meters":25200,"station_id":"ce4bh692rcd13ifvqea0","pricing_plan_id":"cebpf4jnsgd1na2vs0mg"},{"bike_id":"8fcfcb90-741c-4b19-a5c0-db82345e43d5","system_id":"levelo_inurba_marseille","lat":43.292644,"lon":5.384257,"is_reserved":false,"is_disabled":false,"rental_uris":{"android":"levelo://app?vid=8fcfcb90-741c-4b19-a5c0-db82345e43d5","ios":"levelo://app?vid=8fcfcb90-741c-4b19-a5c0-db82345e43d5"},"vehicle_type_id":"4","last_reported":1723907227,"current_range_meters":20800,"station_id":"ce4bh692rcd13ifvqea0","pricing_plan_id":"cebpf4jnsgd1na2vs0mg"},{"bike_id":"fd9addb6-7ad0-4f95-b870-b9423f26b2c1","system_id":"levelo_inurba_marseille","lat":43.292644,"lon":5.384257,"is_reserved":false,"is_disabled":false,"rental_uris":{"android":"levelo://app?vid=fd9addb6-7ad0-4f95-b870-b9423f26b2c1","ios":"levelo://app?vid=fd9addb6-7ad0-4f95-b870-b9423f26b2c1"},"vehicle_type_id":"4","last_reported":1723907227,"current_range_meters":24800,"station_id":"ce4bh692rcd13ifvqea0","pricing_plan_id":"cebpf4jnsgd1na2vs0mg"},{"bike_id":"84fcdc16-6cc4-4689-99e5-26fa2dcf3365","system_id":"levelo_inurba_marseille","lat":43.292236,"lon":5.383688,"is_reserved":false,"is_disabled":false,"rental_uris":{"android":"levelo://app?vid=84fcdc16-6cc4-4689-99e5-26fa2dcf3365","ios":"levelo://app?vid=84fcdc16-6cc4-4689-99e5-26fa2dcf3365"},"vehicle_type_id":"4","last_reported":1723907227,"current_range_meters":13200,"station_id":"","pricing_plan_id":"cebpf4jnsgd1na2vs0mg"},{"bike_id":"d061b454-dda9-444e-975f-592c615acd56","system_id":"levelo_inurba_marseille","lat":43.29259,"lon":5.38455,"is_reserved":false,"is_disabled":false,"rental_uris":{"android":"levelo://app?vid=d061b454-dda9-444e-975f-592c615acd56","ios":"levelo://app?vid=d061b454-dda9-444e-975f-592c615acd56"},"vehicle_type_id":"4","last_reported":1723907227,"current_range_meters":31200,"station_id":"ce4bh692rcd13ifvqea0","pricing_plan_id":"cebpf4jnsgd1na2vs0mg"},{"bike_id":"ea790f30-4b01-4992-bc0a-4d993db8b77a","system_id":"levelo_inurba_marseille","lat":43.290103,"lon":5.356114,"is_reserved":false,"is_disabled":false,"rental_uris":{"android":"levelo://app?vid=ea790f30-4b01-4992-bc0a-4d993db8b77a","ios":"levelo://app?vid=ea790f30-4b01-4992-bc0a-4d993db8b77a"},"vehicle_type_id":"4","last_reported":1723907227,"current_range_meters":2800,"station_id":"ce4bhb92rcd13ifvqen0","pricing_plan_id":"cebpf4jnsgd1na2vs0mg"},{"bike_id":"2b1b1f88-eea6-47f8-a66a-ac2306b60460","system_id":"levelo_inurba_marseille","lat":43.290104,"lon":5.356111,"is_reserved":false,"is_disabled":false,"rental_uris":{"android":"levelo://app?vid=2b1b1f88-eea6-47f8-a66a-ac2306b60460","ios":"levelo://app?vid=2b1b1f88-eea6-47f8-a66a-ac2306b60460"},"vehicle_type_id":"4","last_reported":1723907227,"current_range_meters":31200,"station_id":"ce4bhb92rcd13ifvqen0","pricing_plan_id":"cebpf4jnsgd1na2vs0mg"},{"bike_id":"d3a7e2af-168e-4e8d-862a-2c5bcbc13fcb","system_id":"levelo_inurba_marseille","lat":43.290103,"lon":5.356114,"is_reserved":false,"is_disabled":false,"rental_uris":{"android":"levelo://app?vid=d3a7e2af-168e-4e8d-862a-2c5bcbc13fcb","ios":"levelo://app?vid=d3a7e2af-168e-4e8d-862a-2c5bcbc13fcb"},"vehicle_type_id":"4","last_reported":1723907227,"current_range_meters":14800,"station_id":"ce4bhb92rcd13ifvqen0","pricing_plan_id":"cebpf4jnsgd1na2vs0mg"},{"bike_id":"7d208b9d-0b7e-4de7-aed9-a8d9b44b1143","system_id":"levelo_inurba_marseille","lat":43.290995,"lon":5.381361,"is_reserved":false,"is_disabled":false,"rental_uris":{"android":"levelo://app?vid=7d208b9d-0b7e-4de7-aed9-a8d9b44b1143","ios":"levelo://app?vid=7d208b9d-0b7e-4de7-aed9-a8d9b44b1143"},"vehicle_type_id":"4","last_reported":1723907227,"current_range_meters":24800,"station_id":"ce4bh512rcd13ifvqe2g","pricing_plan_id":"cebpf4jnsgd1na2vs0mg"},{"bike_id":"21df1c81-ead6-4b9b-a74f-78ac17e713aa","system_id":"levelo_inurba_marseille","lat":43.29109,"lon":5.3814,"is_reserved":false,"is_disabled":false,"rental_uris":{"android":"levelo://app?vid=21df1c81-ead6-4b9b-a74f-78ac17e713aa","ios":"levelo://app?vid=21df1c81-ead6-4b9b-a74f-78ac17e713aa"},"vehicle_type_id":"4","last_reported":1723907227,"current_range_meters":0,"station_id":"","pricing_plan_id":"cebpf4jnsgd1na2vs0mg"},{"bike_id":"dcc6ddcf-2540-4aab-a7bb-49577a786c1f","system_id":"levelo_inurba_marseille","lat":43.289741,"lon":5.378306,"is_reserved":false,"is_disabled":false,"rental_uris":{"android":"levelo://app?vid=dcc6ddcf-2540-4aab-a7bb-49577a786c1f","ios":"levelo://app?vid=dcc6ddcf-2540-4aab-a7bb-49577a786c1f"},"vehicle_type_id":"4","last_reported":1723907227,"current_range_meters":27600,"station_id":"ce4bh9p2rcd13ifvqed0","pricing_plan_id":"cebpf4jnsgd1na2vs0mg"},{"bike_id":"c3084eb6-7b4d-422b-a3d0-6c3eaa249ce3","system_id":"levelo_inurba_marseille","lat":43.3303,"lon":5.39036,"is_reserved":false,"is_disabled":false,"rental_uris":{"android":"levelo://app?vid=c3084eb6-7b4d-422b-a3d0-6c3eaa249ce3","ios":"levelo://app?vid=c3084eb6-7b4d-422b-a3d0-6c3eaa249ce3"},"vehicle_type_id":"4","last_reported":1723907227,"current_range_meters":6800,"station_id":"ce4bhr92rcd13ifvqhrg","pricing_plan_id":"cebpf4jnsgd1na2vs0mg"},{"bike_id":"7f92e436-f3c1-4545-b55f-467ed5fca4fc","system_id":"levelo_inurba_marseille","lat":43.330442,"lon":5.389148,"is_reserved":false,"is_disabled":false,"rental_uris":{"android":"levelo://app?vid=7f92e436-f3c1-4545-b55f-467ed5fca4fc","ios":"levelo://app?vid=7f92e436-f3c1-4545-b55f-467ed5fca4fc"},"vehicle_type_id":"4","last_reported":1723907227,"current_range_meters":5600,"station_id":"ce4bhr92rcd13ifvqhrg","pricing_plan_id":"cebpf4jnsgd1na2vs0mg"},{"bike_id":"20ef68b7-20ef-42fb-882c-3d47fe443e82","system_id":"levelo_inurba_marseille","lat":43.330442,"lon":5.389148,"is_reserved":false,"is_disabled":false,"rental_uris":{"android":"levelo://app?vid=20ef68b7-20ef-42fb-882c-3d47fe443e82","ios":"levelo://app?vid=20ef68b7-20ef-42fb-882c-3d47fe443e82"},"vehicle_type_id":"4","last_reported":1723907227,"current_range_meters":27200,"station_id":"ce4bhr92rcd13ifvqhrg","pricing_plan_id":"cebpf4jnsgd1na2vs0mg"},{"bike_id":"bfc43e34-2b36-4707-9012-01bc5c8de23b","system_id":"levelo_inurba_marseille","lat":43.295169,"lon":5.390426,"is_reserved":false,"is_disabled":false,"rental_uris":{"android":"levelo://app?vid=bfc43e34-2b36-4707-9012-01bc5c8de23b","ios":"levelo://app?vid=bfc43e34-2b36-4707-9012-01bc5c8de23b"},"vehicle_type_id":"4","last_reported":1723907227,"current_range_meters":12000,"station_id":"ce4bh3p2rcd13ifvqdp0","pricing_plan_id":"cebpf4jnsgd1na2vs0mg"},{"bike_id":"7e24d6a5-f682-48dd-a920-f041cadbd09d","system_id":"levelo_inurba_marseille","lat":43.330442,"lon":5.389148,"is_reserved":false,"is_disabled":false,"rental_uris":{"android":"levelo://app?vid=7e24d6a5-f682-48dd-a920-f041cadbd09d","ios":"levelo://app?vid=7e24d6a5-f682-48dd-a920-f041cadbd09d"},"vehicle_type_id":"4","last_reported":1723907227,"current_range_meters":6400,"station_id":"ce4bhr92rcd13ifvqhrg","pricing_plan_id":"cebpf4jnsgd1na2vs0mg"},{"bike_id":"6c9d5485-a267-4d10-a9bf-1134c6b25f30","system_id":"levelo_inurba_marseille","lat":43.295169,"lon":5.390426,"is_reserved":false,"is_disabled":false,"rental_uris":{"android":"levelo://app?vid=6c9d5485-a267-4d10-a9bf-1134c6b25f30","ios":"levelo://app?vid=6c9d5485-a267-4d10-a9bf-1134c6b25f30"},"vehicle_type_id":"4","last_reported":1723907227,"current_range_meters":27200,"station_id":"ce4bh3p2rcd13ifvqdp0","pricing_plan_id":"cebpf4jnsgd1na2vs0mg"},{"bike_id":"33226542-8c57-4799-80da-dd93cd0f67bc","system_id":"levelo_inurba_marseille","lat":43.33028,"lon":5.39048,"is_reserved":false,"is_disabled":false,"rental_uris":{"android":"levelo://app?vid=33226542-8c57-4799-80da-dd93cd0f67bc","ios":"levelo://app?vid=33226542-8c57-4799-80da-dd93cd0f67bc"},"vehicle_type_id":"4","last_reported":1723907227,"current_range_meters":9600,"station_id":"ce4bhr92rcd13ifvqhrg","pricing_plan_id":"cebpf4jnsgd1na2vs0mg"},{"bike_id":"ac955b1c-95e4-41e3-b63b-dd62b20acae6","system_id":"levelo_inurba_marseille","lat":43.2901,"lon":5.381269,"is_reserved":false,"is_disabled":false,"rental_uris":{"android":"levelo://app?vid=ac955b1c-95e4-41e3-b63b-dd62b20acae6","ios":"levelo://app?vid=ac955b1c-95e4-41e3-b63b-dd62b20acae6"},"vehicle_type_id":"4","last_reported":1723907227,"current_range_meters":24000,"station_id":"ce4bh4p2rcd13ifvqe1g","pricing_plan_id":"cebpf4jnsgd1na2vs0mg"},{"bike_id":"40a5c862-e676-4f65-829e-e7d58b9f97ba","system_id":"levelo_inurba_marseille","lat":43.28856,"lon":5.358371,"is_reserved":false,"is_disabled":false,"rental_uris":{"android":"levelo://app?vid=40a5c862-e676-4f65-829e-e7d58b9f97ba","ios":"levelo://app?vid=40a5c862-e676-4f65-829e-e7d58b9f97ba"},"vehicle_type_id":"4","last_reported":1723907227,"current_range_meters":400,"station_id":"ce4bhb12rcd13ifvqem0","pricing_plan_id":"cebpf4jnsgd1na2vs0mg"},{"bike_id":"3b5d88ed-5664-4937-a788-40d0b4b60f39","system_id":"levelo_inurba_marseille","lat":43.28856,"lon":5.358371,"is_reserved":false,"is_disabled":false,"rental_uris":{"android":"levelo://app?vid=3b5d88ed-5664-4937-a788-40d0b4b60f39","ios":"levelo://app?vid=3b5d88ed-5664-4937-a788-40d0b4b60f39"},"vehicle_type_id":"4","last_reported":1723907227,"current_range_meters":8000,"station_id":"ce4bhb12rcd13ifvqem0","pricing_plan_id":"cebpf4jnsgd1na2vs0mg"},{"bike_id":"3f07a7f8-ab52-4d48-bf18-fff495e7d691","system_id":"levelo_inurba_marseille","lat":43.28856,"lon":5.358371,"is_reserved":false,"is_disabled":false,"rental_uris":{"android":"levelo://app?vid=3f07a7f8-ab52-4d48-bf18-fff495e7d691","ios":"levelo://app?vid=3f07a7f8-ab52-4d48-bf18-fff495e7d691"},"vehicle_type_id":"4","last_reported":1723907227,"current_range_meters":25200,"station_id":"ce4bhb12rcd13ifvqem0","pricing_plan_id":"cebpf4jnsgd1na2vs0mg"},{"bike_id":"79ed7954-0ea7-472e-9c73-0430bfc384be","system_id":"levelo_inurba_marseille","lat":43.310595,"lon":5.40114,"is_reserved":false,"is_disabled":false,"rental_uris":{"android":"levelo://app?vid=79ed7954-0ea7-472e-9c73-0430bfc384be","ios":"levelo://app?vid=79ed7954-0ea7-472e-9c73-0430bfc384be"},"vehicle_type_id":"4","last_reported":1723907227,"current_range_meters":20800,"station_id":"","pricing_plan_id":"cebpf4jnsgd1na2vs0mg"},{"bike_id":"a7b4db1a-e582-4380-a76d-e7169b47bb7c","system_id":"levelo_inurba_marseille","lat":43.3374,"lon":5.37451,"is_reserved":false,"is_disabled":false,"rental_uris":{"android":"levelo://app?vid=a7b4db1a-e582-4380-a76d-e7169b47bb7c","ios":"levelo://app?vid=a7b4db1a-e582-4380-a76d-e7169b47bb7c"},"vehicle_type_id":"4","last_reported":1723907227,"current_range_meters":1600,"station_id":"","pricing_plan_id":"cebpf4jnsgd1na2vs0mg"},{"bike_id":"ac75d8e5-5139-4e43-a64e-51e7994c2517","system_id":"levelo_inurba_marseille","lat":43.337444,"lon":5.374475,"is_reserved":false,"is_disabled":false,"rental_uris":{"android":"levelo://app?vid=ac75d8e5-5139-4e43-a64e-51e7994c2517","ios":"levelo://app?vid=ac75d8e5-5139-4e43-a64e-51e7994c2517"},"vehicle_type_id":"3","last_reported":1723907227,"current_range_meters":24800,"station_id":"","pricing_plan_id":"cebpf4jnsgd1na2vs0mg"},{"bike_id":"013cfb55-a2ad-4416-a977-5534ff73af07","system_id":"levelo_inurba_marseille","lat":43.337622,"lon":5.374694,"is_reserved":false,"is_disabled":false,"rental_uris":{"android":"levelo://app?vid=013cfb55-a2ad-4416-a977-5534ff73af07","ios":"levelo://app?vid=013cfb55-a2ad-4416-a977-5534ff73af07"},"vehicle_type_id":"4","last_reported":1723907227,"current_range_meters":27600,"station_id":"","pricing_plan_id":"cebpf4jnsgd1na2vs0mg"},{"bike_id":"96d81fdb-8db5-4581-b9c3-6b028dc74620","system_id":"levelo_inurba_marseille","lat":43.306412,"lon":5.401035,"is_reserved":false,"is_disabled":false,"rental_uris":{"android":"levelo://app?vid=96d81fdb-8db5-4581-b9c3-6b028dc74620","ios":"levelo://app?vid=96d81fdb-8db5-4581-b9c3-6b028dc74620"},"vehicle_type_id":"4","last_reported":1723907227,"current_range_meters":28400,"station_id":"ce4bh112rcd13ifvqda0","pricing_plan_id":"cebpf4jnsgd1na2vs0mg"},{"bike_id":"42f2e19c-473a-4aaf-b9e0-2e4042ebfc4a","system_id":"levelo_inurba_marseille","lat":43.306412,"lon":5.401035,"is_reserved":false,"is_disabled":false,"rental_uris":{"android":"levelo://app?vid=42f2e19c-473a-4aaf-b9e0-2e4042ebfc4a","ios":"levelo://app?vid=42f2e19c-473a-4aaf-b9e0-2e4042ebfc4a"},"vehicle_type_id":"4","last_reported":1723907227,"current_range_meters":11200,"station_id":"ce4bh112rcd13ifvqda0","pricing_plan_id":"cebpf4jnsgd1na2vs0mg"},{"bike_id":"87d12cf5-d480-4cea-b3a3-84d7130a99a9","system_id":"levelo_inurba_marseille","lat":43.306412,"lon":5.401035,"is_reserved":false,"is_disabled":false,"rental_uris":{"android":"levelo://app?vid=87d12cf5-d480-4cea-b3a3-84d7130a99a9","ios":"levelo://app?vid=87d12cf5-d480-4cea-b3a3-84d7130a99a9"},"vehicle_type_id":"4","last_reported":1723907227,"current_range_meters":3600,"station_id":"ce4bh112rcd13ifvqda0","pricing_plan_id":"cebpf4jnsgd1na2vs0mg"},{"bike_id":"16a958e0-aafc-4396-b634-1d8af67abff0","system_id":"levelo_inurba_marseille","lat":43.33768,"lon":5.37483,"is_reserved":false,"is_disabled":false,"rental_uris":{"android":"levelo://app?vid=16a958e0-aafc-4396-b634-1d8af67abff0","ios":"levelo://app?vid=16a958e0-aafc-4396-b634-1d8af67abff0"},"vehicle_type_id":"4","last_reported":1723907227,"current_range_meters":25200,"station_id":"","pricing_plan_id":"cebpf4jnsgd1na2vs0mg"},{"bike_id":"17506a18-ef4c-4f67-8f27-fd9c09192e41","system_id":"levelo_inurba_marseille","lat":43.337704,"lon":5.374725,"is_reserved":false,"is_disabled":false,"rental_uris":{"android":"levelo://app?vid=17506a18-ef4c-4f67-8f27-fd9c09192e41","ios":"levelo://app?vid=17506a18-ef4c-4f67-8f27-fd9c09192e41"},"vehicle_type_id":"4","last_reported":1723907227,"current_range_meters":25200,"station_id":"","pricing_plan_id":"cebpf4jnsgd1na2vs0mg"},{"bike_id":"3c41009f-2d18-48d8-a23d-2ea0c78e24ec","system_id":"levelo_inurba_marseille","lat":43.33769,"lon":5.37484,"is_reserved":false,"is_disabled":false,"rental_uris":{"android":"levelo://app?vid=3c41009f-2d18-48d8-a23d-2ea0c78e24ec","ios":"levelo://app?vid=3c41009f-2d18-48d8-a23d-2ea0c78e24ec"},"vehicle_type_id":"4","last_reported":1723907227,"current_range_meters":24800,"station_id":"","pricing_plan_id":"cebpf4jnsgd1na2vs0mg"},{"bike_id":"cd7ef2ad-f91c-4cda-975b-45e9692366ae","system_id":"levelo_inurba_marseille","lat":43.33771,"lon":5.3748,"is_reserved":false,"is_disabled":false,"rental_uris":{"android":"levelo://app?vid=cd7ef2ad-f91c-4cda-975b-45e9692366ae","ios":"levelo://app?vid=cd7ef2ad-f91c-4cda-975b-45e9692366ae"},"vehicle_type_id":"4","last_reported":1723907227,"current_range_meters":18000,"station_id":"","pricing_plan_id":"cebpf4jnsgd1na2vs0mg"},{"bike_id":"c247ce7e-8f2c-4d8a-8265-84490dc987be","system_id":"levelo_inurba_marseille","lat":43.30129,"lon":5.39869,"is_reserved":false,"is_disabled":false,"rental_uris":{"android":"levelo://app?vid=c247ce7e-8f2c-4d8a-8265-84490dc987be","ios":"levelo://app?vid=c247ce7e-8f2c-4d8a-8265-84490dc987be"},"vehicle_type_id":"4","last_reported":1723907227,"current_range_meters":31200,"station_id":"ce4bh0h2rcd13ifvqd40","pricing_plan_id":"cebpf4jnsgd1na2vs0mg"},{"bike_id":"dd89a2bb-576b-4f5a-a74b-6744ba657a58","system_id":"levelo_inurba_marseille","lat":43.286961,"lon":5.373785,"is_reserved":false,"is_disabled":false,"rental_uris":{"android":"levelo://app?vid=dd89a2bb-576b-4f5a-a74b-6744ba657a58","ios":"levelo://app?vid=dd89a2bb-576b-4f5a-a74b-6744ba657a58"},"vehicle_type_id":"4","last_reported":1723907227,"current_range_meters":20800,"station_id":"ce4bh3p2rcd13ifvqdq0","pricing_plan_id":"cebpf4jnsgd1na2vs0mg"},{"bike_id":"c71acc11-1c27-477e-8dba-912e48688be2","system_id":"levelo_inurba_marseille","lat":43.286591,"lon":5.363346,"is_reserved":false,"is_disabled":false,"rental_uris":{"android":"levelo://app?vid=c71acc11-1c27-477e-8dba-912e48688be2","ios":"levelo://app?vid=c71acc11-1c27-477e-8dba-912e48688be2"},"vehicle_type_id":"4","last_reported":1723907227,"current_range_meters":5200,"station_id":"ce4bhah2rcd13ifvqej0","pricing_plan_id":"cebpf4jnsgd1na2vs0mg"},{"bike_id":"4cace38f-3496-414b-a9f0-95a41d291856","system_id":"levelo_inurba_marseille","lat":43.286961,"lon":5.373785,"is_reserved":false,"is_disabled":false,"rental_uris":{"android":"levelo://app?vid=4cace38f-3496-414b-a9f0-95a41d291856","ios":"levelo://app?vid=4cace38f-3496-414b-a9f0-95a41d291856"},"vehicle_type_id":"4","last_reported":1723907227,"current_range_meters":27200,"station_id":"ce4bh3p2rcd13ifvqdq0","pricing_plan_id":"cebpf4jnsgd1na2vs0mg"},{"bike_id":"ea00ed9d-e0c2-4377-90fa-7395f21634c4","system_id":"levelo_inurba_marseille","lat":43.28664,"lon":5.36361,"is_reserved":false,"is_disabled":false,"rental_uris":{"android":"levelo://app?vid=ea00ed9d-e0c2-4377-90fa-7395f21634c4","ios":"levelo://app?vid=ea00ed9d-e0c2-4377-90fa-7395f21634c4"},"vehicle_type_id":"4","last_reported":1723907227,"current_range_meters":0,"station_id":"ce4bhah2rcd13ifvqej0","pricing_plan_id":"cebpf4jnsgd1na2vs0mg"},{"bike_id":"3d809d24-afe2-4e0c-b921-16995a57d2ec","system_id":"levelo_inurba_marseille","lat":43.286961,"lon":5.373785,"is_reserved":false,"is_disabled":false,"rental_uris":{"android":"levelo://app?vid=3d809d24-afe2-4e0c-b921-16995a57d2ec","ios":"levelo://app?vid=3d809d24-afe2-4e0c-b921-16995a57d2ec"},"vehicle_type_id":"4","last_reported":1723907227,"current_range_meters":14400,"station_id":"ce4bh3p2rcd13ifvqdq0","pricing_plan_id":"cebpf4jnsgd1na2vs0mg"},{"bike_id":"4b9cc27d-3160-4d7a-af42-c218b59c28ce","system_id":"levelo_inurba_marseille","lat":43.2866,"lon":5.36353,"is_reserved":false,"is_disabled":false,"rental_uris":{"android":"levelo://app?vid=4b9cc27d-3160-4d7a-af42-c218b59c28ce","ios":"levelo://app?vid=4b9cc27d-3160-4d7a-af42-c218b59c28ce"},"vehicle_type_id":"4","last_reported":1723907227,"current_range_meters":19200,"station_id":"ce4bhah2rcd13ifvqej0","pricing_plan_id":"cebpf4jnsgd1na2vs0mg"},{"bike_id":"c734ee96-2f60-485f-aafa-d79c9f1d4b79","system_id":"levelo_inurba_marseille","lat":43.28937,"lon":5.38389,"is_reserved":false,"is_disabled":false,"rental_uris":{"android":"levelo://app?vid=c734ee96-2f60-485f-aafa-d79c9f1d4b79","ios":"levelo://app?vid=c734ee96-2f60-485f-aafa-d79c9f1d4b79"},"vehicle_type_id":"4","last_reported":1723907227,"current_range_meters":4400,"station_id":"ce4bh612rcd13ifvqe6g","pricing_plan_id":"cebpf4jnsgd1na2vs0mg"},{"bike_id":"76f1086b-5f8e-4839-aef1-93ff3e75387f","system_id":"levelo_inurba_marseille","lat":43.28934,"lon":5.38406,"is_reserved":false,"is_disabled":false,"rental_uris":{"android":"levelo://app?vid=76f1086b-5f8e-4839-aef1-93ff3e75387f","ios":"levelo://app?vid=76f1086b-5f8e-4839-aef1-93ff3e75387f"},"vehicle_type_id":"4","last_reported":1723907227,"current_range_meters":10400,"station_id":"ce4bh612rcd13ifvqe6g","pricing_plan_id":"cebpf4jnsgd1na2vs0mg"},{"bike_id":"b61f1f3d-7325-4bf4-acfc-6e38f106fe7d","system_id":"levelo_inurba_marseille","lat":43.290336,"lon":5.386425,"is_reserved":false,"is_disabled":false,"rental_uris":{"android":"levelo://app?vid=b61f1f3d-7325-4bf4-acfc-6e38f106fe7d","ios":"levelo://app?vid=b61f1f3d-7325-4bf4-acfc-6e38f106fe7d"},"vehicle_type_id":"4","last_reported":1723907227,"current_range_meters":8400,"station_id":"ce4bh4p2rcd13ifvqe0g","pricing_plan_id":"cebpf4jnsgd1na2vs0mg"},{"bike_id":"ce3b56a7-31e6-4b7f-9b3e-0006843a9e76","system_id":"levelo_inurba_marseille","lat":43.28931,"lon":5.38414,"is_reserved":false,"is_disabled":false,"rental_uris":{"android":"levelo://app?vid=ce3b56a7-31e6-4b7f-9b3e-0006843a9e76","ios":"levelo://app?vid=ce3b56a7-31e6-4b7f-9b3e-0006843a9e76"},"vehicle_type_id":"4","last_reported":1723907227,"current_range_meters":10800,"station_id":"ce4bh612rcd13ifvqe6g","pricing_plan_id":"cebpf4jnsgd1na2vs0mg"},{"bike_id":"492fb5b1-3190-439c-b9bd-896433d39405","system_id":"levelo_inurba_marseille","lat":43.302759,"lon":5.400793,"is_reserved":false,"is_disabled":false,"rental_uris":{"android":"levelo://app?vid=492fb5b1-3190-439c-b9bd-896433d39405","ios":"levelo://app?vid=492fb5b1-3190-439c-b9bd-896433d39405"},"vehicle_type_id":"4","last_reported":1723907227,"current_range_meters":20400,"station_id":"ce4bgvh2rcd13ifvqcs0","pricing_plan_id":"cebpf4jnsgd1na2vs0mg"},{"bike_id":"0978a094-4e12-4dbd-969e-828248b3087e","system_id":"levelo_inurba_marseille","lat":43.302759,"lon":5.400793,"is_reserved":false,"is_disabled":false,"rental_uris":{"android":"levelo://app?vid=0978a094-4e12-4dbd-969e-828248b3087e","ios":"levelo://app?vid=0978a094-4e12-4dbd-969e-828248b3087e"},"vehicle_type_id":"4","last_reported":1723907227,"current_range_meters":10800,"station_id":"ce4bgvh2rcd13ifvqcs0","pricing_plan_id":"cebpf4jnsgd1na2vs0mg"},{"bike_id":"ef648690-f821-4301-8450-79bc272bbd7d","system_id":"levelo_inurba_marseille","lat":43.286039,"lon":5.370679,"is_reserved":false,"is_disabled":false,"rental_uris":{"android":"levelo://app?vid=ef648690-f821-4301-8450-79bc272bbd7d","ios":"levelo://app?vid=ef648690-f821-4301-8450-79bc272bbd7d"},"vehicle_type_id":"4","last_reported":1723907227,"current_range_meters":3600,"station_id":"ce4bht12rcd13ifvqi60","pricing_plan_id":"cebpf4jnsgd1na2vs0mg"},{"bike_id":"74b0a690-9eef-4d88-9ea5-d8503da42737","system_id":"levelo_inurba_marseille","lat":43.28812,"lon":5.3814,"is_reserved":false,"is_disabled":false,"rental_uris":{"android":"levelo://app?vid=74b0a690-9eef-4d88-9ea5-d8503da42737","ios":"levelo://app?vid=74b0a690-9eef-4d88-9ea5-d8503da42737"},"vehicle_type_id":"4","last_reported":1723907227,"current_range_meters":20000,"station_id":"","pricing_plan_id":"cebpf4jnsgd1na2vs0mg"},{"bike_id":"f6096c65-50bc-4fc6-bc62-be985713d287","system_id":"levelo_inurba_marseille","lat":43.316821,"lon":5.404737,"is_reserved":false,"is_disabled":false,"rental_uris":{"android":"levelo://app?vid=f6096c65-50bc-4fc6-bc62-be985713d287","ios":"levelo://app?vid=f6096c65-50bc-4fc6-bc62-be985713d287"},"vehicle_type_id":"4","last_reported":1723907227,"current_range_meters":15200,"station_id":"ce4bh012rcd13ifvqd00","pricing_plan_id":"cebpf4jnsgd1na2vs0mg"},{"bike_id":"266a4bc9-e3af-4e93-8522-0115353194de","system_id":"levelo_inurba_marseille","lat":43.284538,"lon":5.358657,"is_reserved":false,"is_disabled":false,"rental_uris":{"android":"levelo://app?vid=266a4bc9-e3af-4e93-8522-0115353194de","ios":"levelo://app?vid=266a4bc9-e3af-4e93-8522-0115353194de"},"vehicle_type_id":"4","last_reported":1723907227,"current_range_meters":0,"station_id":"ce4bhah2rcd13ifvqei0","pricing_plan_id":"cebpf4jnsgd1na2vs0mg"},{"bike_id":"c295395e-b988-473b-b454-f5fab8286685","system_id":"levelo_inurba_marseille","lat":43.286318,"lon":5.350948,"is_reserved":false,"is_disabled":false,"rental_uris":{"android":"levelo://app?vid=c295395e-b988-473b-b454-f5fab8286685","ios":"levelo://app?vid=c295395e-b988-473b-b454-f5fab8286685"},"vehicle_type_id":"4","last_reported":1723907227,"current_range_meters":28400,"station_id":"ce4bhch2rcd13ifvqeug","pricing_plan_id":"cebpf4jnsgd1na2vs0mg"},{"bike_id":"c265804c-e298-44e4-9553-3a12365b4522","system_id":"levelo_inurba_marseille","lat":43.28622,"lon":5.35114,"is_reserved":false,"is_disabled":false,"rental_uris":{"android":"levelo://app?vid=c265804c-e298-44e4-9553-3a12365b4522","ios":"levelo://app?vid=c265804c-e298-44e4-9553-3a12365b4522"},"vehicle_type_id":"4","last_reported":1723907227,"current_range_meters":18000,"station_id":"ce4bhch2rcd13ifvqeug","pricing_plan_id":"cebpf4jnsgd1na2vs0mg"},{"bike_id":"d6ec2845-0ece-4bc2-943e-1209488cc6ee","system_id":"levelo_inurba_marseille","lat":43.28625,"lon":5.35104,"is_reserved":false,"is_disabled":false,"rental_uris":{"android":"levelo://app?vid=d6ec2845-0ece-4bc2-943e-1209488cc6ee","ios":"levelo://app?vid=d6ec2845-0ece-4bc2-943e-1209488cc6ee"},"vehicle_type_id":"4","last_reported":1723907227,"current_range_meters":30800,"station_id":"ce4bhch2rcd13ifvqeug","pricing_plan_id":"cebpf4jnsgd1na2vs0mg"},{"bike_id":"4f68c1d8-f2a1-42fb-aa43-b4057e2ba18e","system_id":"levelo_inurba_marseille","lat":43.28623,"lon":5.35107,"is_reserved":false,"is_disabled":false,"rental_uris":{"android":"levelo://app?vid=4f68c1d8-f2a1-42fb-aa43-b4057e2ba18e","ios":"levelo://app?vid=4f68c1d8-f2a1-42fb-aa43-b4057e2ba18e"},"vehicle_type_id":"4","last_reported":1723907227,"current_range_meters":4000,"station_id":"ce4bhch2rcd13ifvqeug","pricing_plan_id":"cebpf4jnsgd1na2vs0mg"},{"bike_id":"da1d27cc-6c3f-4cbd-8804-1822b56c2352","system_id":"levelo_inurba_marseille","lat":43.28621,"lon":5.35104,"is_reserved":false,"is_disabled":false,"rental_uris":{"android":"levelo://app?vid=da1d27cc-6c3f-4cbd-8804-1822b56c2352","ios":"levelo://app?vid=da1d27cc-6c3f-4cbd-8804-1822b56c2352"},"vehicle_type_id":"4","last_reported":1723907227,"current_range_meters":30000,"station_id":"ce4bhch2rcd13ifvqeug","pricing_plan_id":"cebpf4jnsgd1na2vs0mg"},{"bike_id":"2d722a77-8cc8-4ec6-a80a-f8accab0581c","system_id":"levelo_inurba_marseille","lat":43.285856,"lon":5.350771,"is_reserved":false,"is_disabled":false,"rental_uris":{"android":"levelo://app?vid=2d722a77-8cc8-4ec6-a80a-f8accab0581c","ios":"levelo://app?vid=2d722a77-8cc8-4ec6-a80a-f8accab0581c"},"vehicle_type_id":"4","last_reported":1723907227,"current_range_meters":22400,"station_id":"ce4bhch2rcd13ifvqeug","pricing_plan_id":"cebpf4jnsgd1na2vs0mg"},{"bike_id":"b3cc2694-ae50-457f-856c-06bf81f7bc77","system_id":"levelo_inurba_marseille","lat":43.2862,"lon":5.35104,"is_reserved":false,"is_disabled":false,"rental_uris":{"android":"levelo://app?vid=b3cc2694-ae50-457f-856c-06bf81f7bc77","ios":"levelo://app?vid=b3cc2694-ae50-457f-856c-06bf81f7bc77"},"vehicle_type_id":"4","last_reported":1723907227,"current_range_meters":30800,"station_id":"ce4bhch2rcd13ifvqeug","pricing_plan_id":"cebpf4jnsgd1na2vs0mg"},{"bike_id":"ce81b2de-36c9-4d6b-9be8-8819229df564","system_id":"levelo_inurba_marseille","lat":43.28617,"lon":5.35113,"is_reserved":false,"is_disabled":false,"rental_uris":{"android":"levelo://app?vid=ce81b2de-36c9-4d6b-9be8-8819229df564","ios":"levelo://app?vid=ce81b2de-36c9-4d6b-9be8-8819229df564"},"vehicle_type_id":"4","last_reported":1723907227,"current_range_meters":6000,"station_id":"ce4bhch2rcd13ifvqeug","pricing_plan_id":"cebpf4jnsgd1na2vs0mg"},{"bike_id":"2ec314a9-a56a-485e-8b5e-434f6880ec0a","system_id":"levelo_inurba_marseille","lat":43.28619,"lon":5.35103,"is_reserved":false,"is_disabled":false,"rental_uris":{"android":"levelo://app?vid=2ec314a9-a56a-485e-8b5e-434f6880ec0a","ios":"levelo://app?vid=2ec314a9-a56a-485e-8b5e-434f6880ec0a"},"vehicle_type_id":"4","last_reported":1723907227,"current_range_meters":9200,"station_id":"ce4bhch2rcd13ifvqeug","pricing_plan_id":"cebpf4jnsgd1na2vs0mg"},{"bike_id":"39a6193c-8baf-432a-84d7-91046f159f82","system_id":"levelo_inurba_marseille","lat":43.28619,"lon":5.35103,"is_reserved":false,"is_disabled":false,"rental_uris":{"android":"levelo://app?vid=39a6193c-8baf-432a-84d7-91046f159f82","ios":"levelo://app?vid=39a6193c-8baf-432a-84d7-91046f159f82"},"vehicle_type_id":"4","last_reported":1723907227,"current_range_meters":20800,"station_id":"ce4bhch2rcd13ifvqeug","pricing_plan_id":"cebpf4jnsgd1na2vs0mg"},{"bike_id":"4562d7c4-0652-460c-a2d2-8914291f0da5","system_id":"levelo_inurba_marseille","lat":43.28617,"lon":5.35106,"is_reserved":false,"is_disabled":false,"rental_uris":{"android":"levelo://app?vid=4562d7c4-0652-460c-a2d2-8914291f0da5","ios":"levelo://app?vid=4562d7c4-0652-460c-a2d2-8914291f0da5"},"vehicle_type_id":"4","last_reported":1723907227,"current_range_meters":9200,"station_id":"ce4bhch2rcd13ifvqeug","pricing_plan_id":"cebpf4jnsgd1na2vs0mg"},{"bike_id":"c9bc7a4b-fa8c-4b9a-b06c-902579b140f0","system_id":"levelo_inurba_marseille","lat":43.28616,"lon":5.35107,"is_reserved":false,"is_disabled":false,"rental_uris":{"android":"levelo://app?vid=c9bc7a4b-fa8c-4b9a-b06c-902579b140f0","ios":"levelo://app?vid=c9bc7a4b-fa8c-4b9a-b06c-902579b140f0"},"vehicle_type_id":"4","last_reported":1723907227,"current_range_meters":16800,"station_id":"ce4bhch2rcd13ifvqeug","pricing_plan_id":"cebpf4jnsgd1na2vs0mg"},{"bike_id":"3d171e7e-1ecb-44fd-89fa-89ffd2bb5aa6","system_id":"levelo_inurba_marseille","lat":43.28615,"lon":5.35109,"is_reserved":false,"is_disabled":false,"rental_uris":{"android":"levelo://app?vid=3d171e7e-1ecb-44fd-89fa-89ffd2bb5aa6","ios":"levelo://app?vid=3d171e7e-1ecb-44fd-89fa-89ffd2bb5aa6"},"vehicle_type_id":"4","last_reported":1723907227,"current_range_meters":11600,"station_id":"ce4bhch2rcd13ifvqeug","pricing_plan_id":"cebpf4jnsgd1na2vs0mg"},{"bike_id":"3902dab8-0971-4e8e-87dc-7cf582ea96a8","system_id":"levelo_inurba_marseille","lat":43.285856,"lon":5.350771,"is_reserved":false,"is_disabled":false,"rental_uris":{"android":"levelo://app?vid=3902dab8-0971-4e8e-87dc-7cf582ea96a8","ios":"levelo://app?vid=3902dab8-0971-4e8e-87dc-7cf582ea96a8"},"vehicle_type_id":"4","last_reported":1723907227,"current_range_meters":1600,"station_id":"ce4bhch2rcd13ifvqeug","pricing_plan_id":"cebpf4jnsgd1na2vs0mg"},{"bike_id":"c677e85a-705a-413e-a126-9a3c3e2fb032","system_id":"levelo_inurba_marseille","lat":43.28616,"lon":5.35105,"is_reserved":false,"is_disabled":false,"rental_uris":{"android":"levelo://app?vid=c677e85a-705a-413e-a126-9a3c3e2fb032","ios":"levelo://app?vid=c677e85a-705a-413e-a126-9a3c3e2fb032"},"vehicle_type_id":"4","last_reported":1723907227,"current_range_meters":21200,"station_id":"ce4bhch2rcd13ifvqeug","pricing_plan_id":"cebpf4jnsgd1na2vs0mg"},{"bike_id":"d86d7df8-f5d5-462f-984a-f926e9fa65ae","system_id":"levelo_inurba_marseille","lat":43.28615,"lon":5.35107,"is_reserved":false,"is_disabled":false,"rental_uris":{"android":"levelo://app?vid=d86d7df8-f5d5-462f-984a-f926e9fa65ae","ios":"levelo://app?vid=d86d7df8-f5d5-462f-984a-f926e9fa65ae"},"vehicle_type_id":"4","last_reported":1723907227,"current_range_meters":2800,"station_id":"ce4bhch2rcd13ifvqeug","pricing_plan_id":"cebpf4jnsgd1na2vs0mg"},{"bike_id":"bd1f5cf8-00df-4c8d-9569-e19ce7dd7258","system_id":"levelo_inurba_marseille","lat":43.28614,"lon":5.35107,"is_reserved":false,"is_disabled":false,"rental_uris":{"android":"levelo://app?vid=bd1f5cf8-00df-4c8d-9569-e19ce7dd7258","ios":"levelo://app?vid=bd1f5cf8-00df-4c8d-9569-e19ce7dd7258"},"vehicle_type_id":"4","last_reported":1723907227,"current_range_meters":10000,"station_id":"ce4bhch2rcd13ifvqeug","pricing_plan_id":"cebpf4jnsgd1na2vs0mg"},{"bike_id":"cf657e82-98ee-4786-961d-7954220335bf","system_id":"levelo_inurba_marseille","lat":43.28614,"lon":5.35106,"is_reserved":false,"is_disabled":false,"rental_uris":{"android":"levelo://app?vid=cf657e82-98ee-4786-961d-7954220335bf","ios":"levelo://app?vid=cf657e82-98ee-4786-961d-7954220335bf"},"vehicle_type_id":"4","last_reported":1723907227,"current_range_meters":26000,"station_id":"ce4bhch2rcd13ifvqeug","pricing_plan_id":"cebpf4jnsgd1na2vs0mg"},{"bike_id":"f7816a23-73d7-4e3d-bf4b-53c4d53e09cc","system_id":"levelo_inurba_marseille","lat":43.28614,"lon":5.35105,"is_reserved":false,"is_disabled":false,"rental_uris":{"android":"levelo://app?vid=f7816a23-73d7-4e3d-bf4b-53c4d53e09cc","ios":"levelo://app?vid=f7816a23-73d7-4e3d-bf4b-53c4d53e09cc"},"vehicle_type_id":"4","last_reported":1723907227,"current_range_meters":31200,"station_id":"ce4bhch2rcd13ifvqeug","pricing_plan_id":"cebpf4jnsgd1na2vs0mg"},{"bike_id":"0ce69b0b-e84f-4499-bc94-d2e53662eeb7","system_id":"levelo_inurba_marseille","lat":43.28615,"lon":5.35101,"is_reserved":false,"is_disabled":false,"rental_uris":{"android":"levelo://app?vid=0ce69b0b-e84f-4499-bc94-d2e53662eeb7","ios":"levelo://app?vid=0ce69b0b-e84f-4499-bc94-d2e53662eeb7"},"vehicle_type_id":"4","last_reported":1723907227,"current_range_meters":24400,"station_id":"ce4bhch2rcd13ifvqeug","pricing_plan_id":"cebpf4jnsgd1na2vs0mg"},{"bike_id":"b40aaffe-e429-491e-813f-ec4ea3337647","system_id":"levelo_inurba_marseille","lat":43.28615,"lon":5.351,"is_reserved":false,"is_disabled":false,"rental_uris":{"android":"levelo://app?vid=b40aaffe-e429-491e-813f-ec4ea3337647","ios":"levelo://app?vid=b40aaffe-e429-491e-813f-ec4ea3337647"},"vehicle_type_id":"4","last_reported":1723907227,"current_range_meters":25200,"station_id":"ce4bhch2rcd13ifvqeug","pricing_plan_id":"cebpf4jnsgd1na2vs0mg"},{"bike_id":"cf41abad-a73d-4d96-9a77-bb50ab0cd805","system_id":"levelo_inurba_marseille","lat":43.28612,"lon":5.35107,"is_reserved":false,"is_disabled":false,"rental_uris":{"android":"levelo://app?vid=cf41abad-a73d-4d96-9a77-bb50ab0cd805","ios":"levelo://app?vid=cf41abad-a73d-4d96-9a77-bb50ab0cd805"},"vehicle_type_id":"4","last_reported":1723907227,"current_range_meters":20800,"station_id":"ce4bhch2rcd13ifvqeug","pricing_plan_id":"cebpf4jnsgd1na2vs0mg"},{"bike_id":"15b3a690-1073-4c4e-86b8-a3bdd7acdf38","system_id":"levelo_inurba_marseille","lat":43.286122,"lon":5.351051,"is_reserved":false,"is_disabled":false,"rental_uris":{"android":"levelo://app?vid=15b3a690-1073-4c4e-86b8-a3bdd7acdf38","ios":"levelo://app?vid=15b3a690-1073-4c4e-86b8-a3bdd7acdf38"},"vehicle_type_id":"4","last_reported":1723907227,"current_range_meters":10000,"station_id":"ce4bhch2rcd13ifvqeug","pricing_plan_id":"cebpf4jnsgd1na2vs0mg"},{"bike_id":"30403853-deb6-430a-888c-57f8c43c054d","system_id":"levelo_inurba_marseille","lat":43.2861,"lon":5.35102,"is_reserved":false,"is_disabled":false,"rental_uris":{"android":"levelo://app?vid=30403853-deb6-430a-888c-57f8c43c054d","ios":"levelo://app?vid=30403853-deb6-430a-888c-57f8c43c054d"},"vehicle_type_id":"4","last_reported":1723907227,"current_range_meters":29200,"station_id":"ce4bhch2rcd13ifvqeug","pricing_plan_id":"cebpf4jnsgd1na2vs0mg"},{"bike_id":"9efb8c1c-dedf-4360-acdd-0a1694102c90","system_id":"levelo_inurba_marseille","lat":43.285856,"lon":5.350771,"is_reserved":false,"is_disabled":false,"rental_uris":{"android":"levelo://app?vid=9efb8c1c-dedf-4360-acdd-0a1694102c90","ios":"levelo://app?vid=9efb8c1c-dedf-4360-acdd-0a1694102c90"},"vehicle_type_id":"4","last_reported":1723907227,"current_range_meters":19200,"station_id":"ce4bhch2rcd13ifvqeug","pricing_plan_id":"cebpf4jnsgd1na2vs0mg"},{"bike_id":"52488300-81a3-405b-ae64-7decce584798","system_id":"levelo_inurba_marseille","lat":43.28607,"lon":5.35099,"is_reserved":false,"is_disabled":false,"rental_uris":{"android":"levelo://app?vid=52488300-81a3-405b-ae64-7decce584798","ios":"levelo://app?vid=52488300-81a3-405b-ae64-7decce584798"},"vehicle_type_id":"4","last_reported":1723907227,"current_range_meters":31200,"station_id":"ce4bhch2rcd13ifvqeug","pricing_plan_id":"cebpf4jnsgd1na2vs0mg"},{"bike_id":"7306c7d0-a474-4cde-88cc-f21d607b1179","system_id":"levelo_inurba_marseille","lat":43.283998,"lon":5.375062,"is_reserved":false,"is_disabled":false,"rental_uris":{"android":"levelo://app?vid=7306c7d0-a474-4cde-88cc-f21d607b1179","ios":"levelo://app?vid=7306c7d0-a474-4cde-88cc-f21d607b1179"},"vehicle_type_id":"4","last_reported":1723907227,"current_range_meters":5200,"station_id":"ce4bh412rcd13ifvqds0","pricing_plan_id":"cebpf4jnsgd1na2vs0mg"},{"bike_id":"5a3451e9-93d2-4ef9-b67a-f5b00ca20540","system_id":"levelo_inurba_marseille","lat":43.2861,"lon":5.35048,"is_reserved":false,"is_disabled":false,"rental_uris":{"android":"levelo://app?vid=5a3451e9-93d2-4ef9-b67a-f5b00ca20540","ios":"levelo://app?vid=5a3451e9-93d2-4ef9-b67a-f5b00ca20540"},"vehicle_type_id":"4","last_reported":1723907227,"current_range_meters":24400,"station_id":"","pricing_plan_id":"cebpf4jnsgd1na2vs0mg"},{"bike_id":"a19d578f-9e69-4ad2-ae29-15b3443ebe8e","system_id":"levelo_inurba_marseille","lat":43.283998,"lon":5.375062,"is_reserved":false,"is_disabled":false,"rental_uris":{"android":"levelo://app?vid=a19d578f-9e69-4ad2-ae29-15b3443ebe8e","ios":"levelo://app?vid=a19d578f-9e69-4ad2-ae29-15b3443ebe8e"},"vehicle_type_id":"4","last_reported":1723907227,"current_range_meters":0,"station_id":"ce4bh412rcd13ifvqds0","pricing_plan_id":"cebpf4jnsgd1na2vs0mg"},{"bike_id":"b718d710-906d-47f7-95cf-6e6cee8868ec","system_id":"levelo_inurba_marseille","lat":43.2879,"lon":5.38855,"is_reserved":false,"is_disabled":false,"rental_uris":{"android":"levelo://app?vid=b718d710-906d-47f7-95cf-6e6cee8868ec","ios":"levelo://app?vid=b718d710-906d-47f7-95cf-6e6cee8868ec"},"vehicle_type_id":"4","last_reported":1723907227,"current_range_meters":16800,"station_id":"","pricing_plan_id":"cebpf4jnsgd1na2vs0mg"},{"bike_id":"e51d7832-275c-4ac6-a361-1f0bc1d6ad7a","system_id":"levelo_inurba_marseille","lat":43.28678,"lon":5.386483,"is_reserved":false,"is_disabled":false,"rental_uris":{"android":"levelo://app?vid=e51d7832-275c-4ac6-a361-1f0bc1d6ad7a","ios":"levelo://app?vid=e51d7832-275c-4ac6-a361-1f0bc1d6ad7a"},"vehicle_type_id":"4","last_reported":1723907227,"current_range_meters":0,"station_id":"ce4bh492rcd13ifvqdug","pricing_plan_id":"cebpf4jnsgd1na2vs0mg"},{"bike_id":"d8d3d756-3431-4047-bd6b-025807d85c42","system_id":"levelo_inurba_marseille","lat":43.286595,"lon":5.386795,"is_reserved":false,"is_disabled":false,"rental_uris":{"android":"levelo://app?vid=d8d3d756-3431-4047-bd6b-025807d85c42","ios":"levelo://app?vid=d8d3d756-3431-4047-bd6b-025807d85c42"},"vehicle_type_id":"4","last_reported":1723907227,"current_range_meters":19600,"station_id":"ce4bh492rcd13ifvqdug","pricing_plan_id":"cebpf4jnsgd1na2vs0mg"},{"bike_id":"1cec4945-1d06-4b31-a98f-a166b2591a2d","system_id":"levelo_inurba_marseille","lat":43.286595,"lon":5.386795,"is_reserved":false,"is_disabled":false,"rental_uris":{"android":"levelo://app?vid=1cec4945-1d06-4b31-a98f-a166b2591a2d","ios":"levelo://app?vid=1cec4945-1d06-4b31-a98f-a166b2591a2d"},"vehicle_type_id":"4","last_reported":1723907227,"current_range_meters":3200,"station_id":"ce4bh492rcd13ifvqdug","pricing_plan_id":"cebpf4jnsgd1na2vs0mg"},{"bike_id":"02dcb639-b902-4b79-a577-ab53c810c84d","system_id":"levelo_inurba_marseille","lat":43.313754,"lon":5.407896,"is_reserved":false,"is_disabled":false,"rental_uris":{"android":"levelo://app?vid=02dcb639-b902-4b79-a577-ab53c810c84d","ios":"levelo://app?vid=02dcb639-b902-4b79-a577-ab53c810c84d"},"vehicle_type_id":"4","last_reported":1723907227,"current_range_meters":0,"station_id":"","pricing_plan_id":"cebpf4jnsgd1na2vs0mg"},{"bike_id":"5bd66aa6-047e-4e5e-8adc-109e25461c12","system_id":"levelo_inurba_marseille","lat":43.313679,"lon":5.407922,"is_reserved":false,"is_disabled":false,"rental_uris":{"android":"levelo://app?vid=5bd66aa6-047e-4e5e-8adc-109e25461c12","ios":"levelo://app?vid=5bd66aa6-047e-4e5e-8adc-109e25461c12"},"vehicle_type_id":"4","last_reported":1723907227,"current_range_meters":14800,"station_id":"","pricing_plan_id":"cebpf4jnsgd1na2vs0mg"},{"bike_id":"a7fe975a-8895-4dde-9558-5c833e59a5fe","system_id":"levelo_inurba_marseille","lat":43.319179,"lon":5.407725,"is_reserved":false,"is_disabled":false,"rental_uris":{"android":"levelo://app?vid=a7fe975a-8895-4dde-9558-5c833e59a5fe","ios":"levelo://app?vid=a7fe975a-8895-4dde-9558-5c833e59a5fe"},"vehicle_type_id":"4","last_reported":1723907227,"current_range_meters":28400,"station_id":"ce4bhq12rcd13ifvqhig","pricing_plan_id":"cebpf4jnsgd1na2vs0mg"},{"bike_id":"f6211ddf-2334-43e9-8699-efdc43d5fe36","system_id":"levelo_inurba_marseille","lat":43.319179,"lon":5.407725,"is_reserved":false,"is_disabled":false,"rental_uris":{"android":"levelo://app?vid=f6211ddf-2334-43e9-8699-efdc43d5fe36","ios":"levelo://app?vid=f6211ddf-2334-43e9-8699-efdc43d5fe36"},"vehicle_type_id":"4","last_reported":1723907227,"current_range_meters":32000,"station_id":"ce4bhq12rcd13ifvqhig","pricing_plan_id":"cebpf4jnsgd1na2vs0mg"},{"bike_id":"f4f8d1fd-6a32-41df-9ed7-def03360d9bb","system_id":"levelo_inurba_marseille","lat":43.31886,"lon":5.40734,"is_reserved":false,"is_disabled":false,"rental_uris":{"android":"levelo://app?vid=f4f8d1fd-6a32-41df-9ed7-def03360d9bb","ios":"levelo://app?vid=f4f8d1fd-6a32-41df-9ed7-def03360d9bb"},"vehicle_type_id":"4","last_reported":1723907227,"current_range_meters":5600,"station_id":"ce4bhq12rcd13ifvqhig","pricing_plan_id":"cebpf4jnsgd1na2vs0mg"},{"bike_id":"c2b70b8b-03a8-45a7-be68-6d30ea3be2d0","system_id":"levelo_inurba_marseille","lat":43.319179,"lon":5.407725,"is_reserved":false,"is_disabled":false,"rental_uris":{"android":"levelo://app?vid=c2b70b8b-03a8-45a7-be68-6d30ea3be2d0","ios":"levelo://app?vid=c2b70b8b-03a8-45a7-be68-6d30ea3be2d0"},"vehicle_type_id":"4","last_reported":1723907227,"current_range_meters":28400,"station_id":"ce4bhq12rcd13ifvqhig","pricing_plan_id":"cebpf4jnsgd1na2vs0mg"},{"bike_id":"d014898f-960b-4943-b2dc-257adec89eec","system_id":"levelo_inurba_marseille","lat":43.31879,"lon":5.40739,"is_reserved":false,"is_disabled":false,"rental_uris":{"android":"levelo://app?vid=d014898f-960b-4943-b2dc-257adec89eec","ios":"levelo://app?vid=d014898f-960b-4943-b2dc-257adec89eec"},"vehicle_type_id":"4","last_reported":1723907227,"current_range_meters":27200,"station_id":"ce4bhq12rcd13ifvqhig","pricing_plan_id":"cebpf4jnsgd1na2vs0mg"},{"bike_id":"18fff16e-1ce6-4c94-8223-0e646c7faa52","system_id":"levelo_inurba_marseille","lat":43.319179,"lon":5.407725,"is_reserved":false,"is_disabled":false,"rental_uris":{"android":"levelo://app?vid=18fff16e-1ce6-4c94-8223-0e646c7faa52","ios":"levelo://app?vid=18fff16e-1ce6-4c94-8223-0e646c7faa52"},"vehicle_type_id":"4","last_reported":1723907227,"current_range_meters":12000,"station_id":"ce4bhq12rcd13ifvqhig","pricing_plan_id":"cebpf4jnsgd1na2vs0mg"},{"bike_id":"1fb9ef5c-d8ba-4e20-bb59-5f7789a70d05","system_id":"levelo_inurba_marseille","lat":43.31901,"lon":5.407352,"is_reserved":false,"is_disabled":false,"rental_uris":{"android":"levelo://app?vid=1fb9ef5c-d8ba-4e20-bb59-5f7789a70d05","ios":"levelo://app?vid=1fb9ef5c-d8ba-4e20-bb59-5f7789a70d05"},"vehicle_type_id":"4","last_reported":1723907227,"current_range_meters":0,"station_id":"ce4bhq12rcd13ifvqhig","pricing_plan_id":"cebpf4jnsgd1na2vs0mg"},{"bike_id":"73bc4062-1313-4d4b-9eb3-203d2021e756","system_id":"levelo_inurba_marseille","lat":43.33721,"lon":5.39185,"is_reserved":false,"is_disabled":false,"rental_uris":{"android":"levelo://app?vid=73bc4062-1313-4d4b-9eb3-203d2021e756","ios":"levelo://app?vid=73bc4062-1313-4d4b-9eb3-203d2021e756"},"vehicle_type_id":"4","last_reported":1723907227,"current_range_meters":30800,"station_id":"ce4bhr92rcd13ifvqhsg","pricing_plan_id":"cebpf4jnsgd1na2vs0mg"},{"bike_id":"2ff0685e-8461-4c8d-8aca-b85890f5a23c","system_id":"levelo_inurba_marseille","lat":43.337168,"lon":5.391825,"is_reserved":false,"is_disabled":false,"rental_uris":{"android":"levelo://app?vid=2ff0685e-8461-4c8d-8aca-b85890f5a23c","ios":"levelo://app?vid=2ff0685e-8461-4c8d-8aca-b85890f5a23c"},"vehicle_type_id":"4","last_reported":1723907227,"current_range_meters":19600,"station_id":"ce4bhr92rcd13ifvqhsg","pricing_plan_id":"cebpf4jnsgd1na2vs0mg"},{"bike_id":"7bee3cc0-32a1-40e7-80a0-b4565eaa9682","system_id":"levelo_inurba_marseille","lat":43.32334,"lon":5.40624,"is_reserved":false,"is_disabled":false,"rental_uris":{"android":"levelo://app?vid=7bee3cc0-32a1-40e7-80a0-b4565eaa9682","ios":"levelo://app?vid=7bee3cc0-32a1-40e7-80a0-b4565eaa9682"},"vehicle_type_id":"4","last_reported":1723907227,"current_range_meters":4000,"station_id":"ce4bhq92rcd13ifvqhjg","pricing_plan_id":"cebpf4jnsgd1na2vs0mg"},{"bike_id":"d647fb6e-89d9-427e-8c43-b2f78cf88b86","system_id":"levelo_inurba_marseille","lat":43.323464,"lon":5.406297,"is_reserved":false,"is_disabled":false,"rental_uris":{"android":"levelo://app?vid=d647fb6e-89d9-427e-8c43-b2f78cf88b86","ios":"levelo://app?vid=d647fb6e-89d9-427e-8c43-b2f78cf88b86"},"vehicle_type_id":"4","last_reported":1723907227,"current_range_meters":9600,"station_id":"ce4bhq92rcd13ifvqhjg","pricing_plan_id":"cebpf4jnsgd1na2vs0mg"},{"bike_id":"29c9b776-76a3-4103-81d1-17db47d746f2","system_id":"levelo_inurba_marseille","lat":43.323464,"lon":5.406297,"is_reserved":false,"is_disabled":false,"rental_uris":{"android":"levelo://app?vid=29c9b776-76a3-4103-81d1-17db47d746f2","ios":"levelo://app?vid=29c9b776-76a3-4103-81d1-17db47d746f2"},"vehicle_type_id":"4","last_reported":1723907227,"current_range_meters":22400,"station_id":"ce4bhq92rcd13ifvqhjg","pricing_plan_id":"cebpf4jnsgd1na2vs0mg"},{"bike_id":"e386ef2b-0370-49e5-8720-b0db1f49bc6f","system_id":"levelo_inurba_marseille","lat":43.284787,"lon":5.384116,"is_reserved":false,"is_disabled":false,"rental_uris":{"android":"levelo://app?vid=e386ef2b-0370-49e5-8720-b0db1f49bc6f","ios":"levelo://app?vid=e386ef2b-0370-49e5-8720-b0db1f49bc6f"},"vehicle_type_id":"4","last_reported":1723907227,"current_range_meters":28800,"station_id":"ce4bh512rcd13ifvqe3g","pricing_plan_id":"cebpf4jnsgd1na2vs0mg"},{"bike_id":"5aa72f5a-41b2-45a6-ac50-c9c85bb1f083","system_id":"levelo_inurba_marseille","lat":43.288497,"lon":5.393089,"is_reserved":false,"is_disabled":false,"rental_uris":{"android":"levelo://app?vid=5aa72f5a-41b2-45a6-ac50-c9c85bb1f083","ios":"levelo://app?vid=5aa72f5a-41b2-45a6-ac50-c9c85bb1f083"},"vehicle_type_id":"4","last_reported":1723907227,"current_range_meters":10800,"station_id":"ce4bh2p2rcd13ifvqdi0","pricing_plan_id":"cebpf4jnsgd1na2vs0mg"},{"bike_id":"62f115c9-5d69-4c7e-8261-911845a656f1","system_id":"levelo_inurba_marseille","lat":43.28433,"lon":5.34995,"is_reserved":false,"is_disabled":false,"rental_uris":{"android":"levelo://app?vid=62f115c9-5d69-4c7e-8261-911845a656f1","ios":"levelo://app?vid=62f115c9-5d69-4c7e-8261-911845a656f1"},"vehicle_type_id":"4","last_reported":1723907227,"current_range_meters":30400,"station_id":"ce4bhbh2rcd13ifvqepg","pricing_plan_id":"cebpf4jnsgd1na2vs0mg"},{"bike_id":"2e83ba4e-de67-44ea-9892-c63ca6899c37","system_id":"levelo_inurba_marseille","lat":43.28435,"lon":5.34973,"is_reserved":false,"is_disabled":false,"rental_uris":{"android":"levelo://app?vid=2e83ba4e-de67-44ea-9892-c63ca6899c37","ios":"levelo://app?vid=2e83ba4e-de67-44ea-9892-c63ca6899c37"},"vehicle_type_id":"4","last_reported":1723907227,"current_range_meters":30400,"station_id":"ce4bhbh2rcd13ifvqepg","pricing_plan_id":"cebpf4jnsgd1na2vs0mg"},{"bike_id":"e6dbbcdc-aca8-4a4e-819e-6f8ed9050dcc","system_id":"levelo_inurba_marseille","lat":43.284274,"lon":5.349928,"is_reserved":false,"is_disabled":false,"rental_uris":{"android":"levelo://app?vid=e6dbbcdc-aca8-4a4e-819e-6f8ed9050dcc","ios":"levelo://app?vid=e6dbbcdc-aca8-4a4e-819e-6f8ed9050dcc"},"vehicle_type_id":"4","last_reported":1723907227,"current_range_meters":21200,"station_id":"ce4bhbh2rcd13ifvqepg","pricing_plan_id":"cebpf4jnsgd1na2vs0mg"},{"bike_id":"5a94e7ec-c570-4d14-8e78-ec236ba5c427","system_id":"levelo_inurba_marseille","lat":43.28428,"lon":5.3499,"is_reserved":false,"is_disabled":false,"rental_uris":{"android":"levelo://app?vid=5a94e7ec-c570-4d14-8e78-ec236ba5c427","ios":"levelo://app?vid=5a94e7ec-c570-4d14-8e78-ec236ba5c427"},"vehicle_type_id":"4","last_reported":1723907227,"current_range_meters":28800,"station_id":"ce4bhbh2rcd13ifvqepg","pricing_plan_id":"cebpf4jnsgd1na2vs0mg"},{"bike_id":"557e7ebd-f7e3-4104-b2eb-1569b9b00652","system_id":"levelo_inurba_marseille","lat":43.28426,"lon":5.34994,"is_reserved":false,"is_disabled":false,"rental_uris":{"android":"levelo://app?vid=557e7ebd-f7e3-4104-b2eb-1569b9b00652","ios":"levelo://app?vid=557e7ebd-f7e3-4104-b2eb-1569b9b00652"},"vehicle_type_id":"4","last_reported":1723907227,"current_range_meters":20000,"station_id":"ce4bhbh2rcd13ifvqepg","pricing_plan_id":"cebpf4jnsgd1na2vs0mg"},{"bike_id":"65e09344-93af-48e8-ac6d-214efc531dac","system_id":"levelo_inurba_marseille","lat":43.28429,"lon":5.34984,"is_reserved":false,"is_disabled":false,"rental_uris":{"android":"levelo://app?vid=65e09344-93af-48e8-ac6d-214efc531dac","ios":"levelo://app?vid=65e09344-93af-48e8-ac6d-214efc531dac"},"vehicle_type_id":"4","last_reported":1723907227,"current_range_meters":31200,"station_id":"ce4bhbh2rcd13ifvqepg","pricing_plan_id":"cebpf4jnsgd1na2vs0mg"},{"bike_id":"e7e85b6e-9ab4-4c10-9f7e-47d577ec5d30","system_id":"levelo_inurba_marseille","lat":43.28426,"lon":5.3499,"is_reserved":false,"is_disabled":false,"rental_uris":{"android":"levelo://app?vid=e7e85b6e-9ab4-4c10-9f7e-47d577ec5d30","ios":"levelo://app?vid=e7e85b6e-9ab4-4c10-9f7e-47d577ec5d30"},"vehicle_type_id":"4","last_reported":1723907227,"current_range_meters":9200,"station_id":"ce4bhbh2rcd13ifvqepg","pricing_plan_id":"cebpf4jnsgd1na2vs0mg"},{"bike_id":"a74b86b9-8e59-4bc4-aa39-657851b9f551","system_id":"levelo_inurba_marseille","lat":43.284271,"lon":5.349847,"is_reserved":false,"is_disabled":false,"rental_uris":{"android":"levelo://app?vid=a74b86b9-8e59-4bc4-aa39-657851b9f551","ios":"levelo://app?vid=a74b86b9-8e59-4bc4-aa39-657851b9f551"},"vehicle_type_id":"4","last_reported":1723907227,"current_range_meters":30400,"station_id":"ce4bhbh2rcd13ifvqepg","pricing_plan_id":"cebpf4jnsgd1na2vs0mg"},{"bike_id":"ff6d7c3c-8f10-415a-87ee-50c698624277","system_id":"levelo_inurba_marseille","lat":43.28422,"lon":5.35,"is_reserved":false,"is_disabled":false,"rental_uris":{"android":"levelo://app?vid=ff6d7c3c-8f10-415a-87ee-50c698624277","ios":"levelo://app?vid=ff6d7c3c-8f10-415a-87ee-50c698624277"},"vehicle_type_id":"4","last_reported":1723907227,"current_range_meters":31200,"station_id":"ce4bhbh2rcd13ifvqepg","pricing_plan_id":"cebpf4jnsgd1na2vs0mg"},{"bike_id":"902cc3c5-c39c-417d-b7ad-ced40f6366c7","system_id":"levelo_inurba_marseille","lat":43.284249,"lon":5.349897,"is_reserved":false,"is_disabled":false,"rental_uris":{"android":"levelo://app?vid=902cc3c5-c39c-417d-b7ad-ced40f6366c7","ios":"levelo://app?vid=902cc3c5-c39c-417d-b7ad-ced40f6366c7"},"vehicle_type_id":"4","last_reported":1723907227,"current_range_meters":10000,"station_id":"ce4bhbh2rcd13ifvqepg","pricing_plan_id":"cebpf4jnsgd1na2vs0mg"},{"bike_id":"2984a26c-0813-4e7e-8984-db918fbc7ff8","system_id":"levelo_inurba_marseille","lat":43.28428,"lon":5.34978,"is_reserved":false,"is_disabled":false,"rental_uris":{"android":"levelo://app?vid=2984a26c-0813-4e7e-8984-db918fbc7ff8","ios":"levelo://app?vid=2984a26c-0813-4e7e-8984-db918fbc7ff8"},"vehicle_type_id":"4","last_reported":1723907227,"current_range_meters":22400,"station_id":"ce4bhbh2rcd13ifvqepg","pricing_plan_id":"cebpf4jnsgd1na2vs0mg"},{"bike_id":"51e27e07-114e-4006-b9dc-547e565ba6b9","system_id":"levelo_inurba_marseille","lat":43.284256,"lon":5.349854,"is_reserved":false,"is_disabled":false,"rental_uris":{"android":"levelo://app?vid=51e27e07-114e-4006-b9dc-547e565ba6b9","ios":"levelo://app?vid=51e27e07-114e-4006-b9dc-547e565ba6b9"},"vehicle_type_id":"4","last_reported":1723907227,"current_range_meters":0,"station_id":"ce4bhbh2rcd13ifvqeo0","pricing_plan_id":"cebpf4jnsgd1na2vs0mg"},{"bike_id":"cafebf76-f14f-45d9-812c-c47ac12e803c","system_id":"levelo_inurba_marseille","lat":43.28422,"lon":5.34994,"is_reserved":false,"is_disabled":false,"rental_uris":{"android":"levelo://app?vid=cafebf76-f14f-45d9-812c-c47ac12e803c","ios":"levelo://app?vid=cafebf76-f14f-45d9-812c-c47ac12e803c"},"vehicle_type_id":"4","last_reported":1723907227,"current_range_meters":24800,"station_id":"ce4bhbh2rcd13ifvqepg","pricing_plan_id":"cebpf4jnsgd1na2vs0mg"},{"bike_id":"b4357eb0-d8b3-45ab-9a59-bcb88b5fecea","system_id":"levelo_inurba_marseille","lat":43.284218,"lon":5.349934,"is_reserved":false,"is_disabled":false,"rental_uris":{"android":"levelo://app?vid=b4357eb0-d8b3-45ab-9a59-bcb88b5fecea","ios":"levelo://app?vid=b4357eb0-d8b3-45ab-9a59-bcb88b5fecea"},"vehicle_type_id":"4","last_reported":1723907227,"current_range_meters":13600,"station_id":"ce4bhbh2rcd13ifvqepg","pricing_plan_id":"cebpf4jnsgd1na2vs0mg"},{"bike_id":"a4d66cd7-1da0-40c4-81f8-81299dc157f3","system_id":"levelo_inurba_marseille","lat":43.28427,"lon":5.34977,"is_reserved":false,"is_disabled":false,"rental_uris":{"android":"levelo://app?vid=a4d66cd7-1da0-40c4-81f8-81299dc157f3","ios":"levelo://app?vid=a4d66cd7-1da0-40c4-81f8-81299dc157f3"},"vehicle_type_id":"4","last_reported":1723907227,"current_range_meters":26800,"station_id":"ce4bhbh2rcd13ifvqepg","pricing_plan_id":"cebpf4jnsgd1na2vs0mg"},{"bike_id":"5314b479-fbfe-404b-b9fa-408aa0b937fd","system_id":"levelo_inurba_marseille","lat":43.28424,"lon":5.34986,"is_reserved":false,"is_disabled":false,"rental_uris":{"android":"levelo://app?vid=5314b479-fbfe-404b-b9fa-408aa0b937fd","ios":"levelo://app?vid=5314b479-fbfe-404b-b9fa-408aa0b937fd"},"vehicle_type_id":"4","last_reported":1723907227,"current_range_meters":13200,"station_id":"ce4bhbh2rcd13ifvqepg","pricing_plan_id":"cebpf4jnsgd1na2vs0mg"},{"bike_id":"372f291c-d7da-40f2-988b-0570ebfe7960","system_id":"levelo_inurba_marseille","lat":43.284248,"lon":5.349834,"is_reserved":false,"is_disabled":false,"rental_uris":{"android":"levelo://app?vid=372f291c-d7da-40f2-988b-0570ebfe7960","ios":"levelo://app?vid=372f291c-d7da-40f2-988b-0570ebfe7960"},"vehicle_type_id":"4","last_reported":1723907227,"current_range_meters":12400,"station_id":"ce4bhbh2rcd13ifvqepg","pricing_plan_id":"cebpf4jnsgd1na2vs0mg"},{"bike_id":"6dd50fcf-2616-4f05-b54f-85398a511146","system_id":"levelo_inurba_marseille","lat":43.28423,"lon":5.34989,"is_reserved":false,"is_disabled":false,"rental_uris":{"android":"levelo://app?vid=6dd50fcf-2616-4f05-b54f-85398a511146","ios":"levelo://app?vid=6dd50fcf-2616-4f05-b54f-85398a511146"},