{"last_updated":1748261979,"ttl":60,"version":"2.2","data":{"bikes":[{"bike_id":"c0b9fd4f-e181-46ce-b0bf-f5119973334f","system_id":"levelo_inurba_marseille","lat":43.33771,"lon":5.37424,"is_reserved":false,"is_disabled":true,"rental_uris":{"android":"levelo://app?vid=c0b9fd4f-e181-46ce-b0bf-f5119973334f","ios":"levelo://app?vid=c0b9fd4f-e181-46ce-b0bf-f5119973334f"},"vehicle_type_id":"4","last_reported":1748261979,"current_range_meters":0,"station_id":"","pricing_plan_id":"cebpf4jnsgd1na2vs0mg"},{"bike_id":"20e3fb94-70e9-48e8-ba6e-ab8112422754","system_id":"levelo_inurba_marseille","lat":43.30638,"lon":5.38038,"is_reserved":false,"is_disabled":true,"rental_uris":{"android":"levelo://app?vid=20e3fb94-70e9-48e8-ba6e-ab8112422754","ios":"levelo://app?vid=20e3fb94-70e9-48e8-ba6e-ab8112422754"},"vehicle_type_id":"4","last_reported":1748261979,"current_range_meters":0,"station_id":"","pricing_plan_id":"cebpf4jnsgd1na2vs0mg"},{"bike_id":"6b31d584-7ec8-4d7f-974f-dd6b8b914518","system_id":"levelo_inurba_marseille","lat":43.27055,"lon":5.3919,"is_reserved":false,"is_disabled":true,"rental_uris":{"android":"levelo://app?vid=6b31d584-7ec8-4d7f-974f-dd6b8b914518","ios":"levelo://app?vid=6b31d584-7ec8-4d7f-974f-dd6b8b914518"},"vehicle_type_id":"4","last_reported":1748261979,"current_range_meters":0,"station_id":"","pricing_plan_id":"cebpf4jnsgd1na2vs0mg"},{"bike_id":"68dd4df3-b4ab-477d-ba1f-083f8077ecbb","system_id":"levelo_inurba_marseille","lat":43.25639,"lon":5.37522,"is_reserved":false,"is_disabled":true,"rental_uris":{"android":"levelo://app?vid=68dd4df3-b4ab-477d-ba1f-083f8077ecbb","ios":"levelo://app?vid=68dd4df3-b4ab-477d-ba1f-083f8077ecbb"},"vehicle_type_id":"4","last_reported":1748261979,"current_range_meters":0,"station_id":"","pricing_plan_id":"cebpf4jnsgd1na2vs0mg"},{"bike_id":"3fe3d6c4-138a-47df-b6b4-e6f19e8f7d46","system_id":"levelo_inurba_marseille","lat":43.2141,"lon":5.34116,"is_reserved":false,"is_disabled":true,"rental_uris":{"android":"levelo://app?vid=3fe3d6c4-138a-47df-b6b4-e6f19e8f7d46","ios":"levelo://app?vid=3fe3d6c4-138a-47df-b6b4-e6f19e8f7d46"},"vehicle_type_id":"4","last_reported":1748261979,"current_range_meters":0,"station_id":"","pricing_plan_id":"cebpf4jnsgd1na2vs0mg"},{"bike_id":"4a2a47fa-fb4e-41f8-93fc-61bb4186107f","system_id":"levelo_inurba_marseille","lat":43.27762,"lon":5.39877,"is_reserved":false,"is_disabled":true,"rental_uris":{"android":"levelo://app?vid=4a2a47fa-fb4e-41f8-93fc-61bb4186107f","ios":"levelo://app?vid=4a2a47fa-fb4e-41f8-93fc-61bb4186107f"},"vehicle_type_id":"4","last_reported":1748261979,"current_range_meters":0,"station_id":"","pricing_plan_id":"cebpf4jnsgd1na2vs0mg"},{"bike_id":"15dcdbbd-a41e-43eb-9ed6-26ec15ce7a50","system_id":"levelo_inurba_marseille","lat":43.21411,"lon":5.34113,"is_reserved":false,"is_disabled":true,"rental_uris":{"android":"levelo://app?vid=15dcdbbd-a41e-43eb-9ed6-26ec15ce7a50","ios":"levelo://app?vid=15dcdbbd-a41e-43eb-9ed6-26ec15ce7a50"},"vehicle_type_id":"4","last_reported":1748261979,"current_range_meters":0,"station_id":"","pricing_plan_id":"cebpf4jnsgd1na2vs0mg"},{"bike_id":"32d1e9b3-2e5b-49eb-9367-eee0b69cf604","system_id":"levelo_inurba_marseille","lat":43.31411,"lon":5.37573,"is_reserved":false,"is_disabled":true,"rental_uris":{"android":"levelo://app?vid=32d1e9b3-2e5b-49eb-9367-eee0b69cf604","ios":"levelo://app?vid=32d1e9b3-2e5b-49eb-9367-eee0b69cf604"},"vehicle_type_id":"4","last_reported":1748261979,"current_range_meters":0,"station_id":"","pricing_plan_id":"cebpf4jnsgd1na2vs0mg"},{"bike_id":"377e997d-76fa-49cd-a9c9-778bc42231c4","system_id":"levelo_inurba_marseille","lat":43.25717,"lon":5.41881,"is_reserved":false,"is_disabled":true,"rental_uris":{"android":"levelo://app?vid=377e997d-76fa-49cd-a9c9-778bc42231c4","ios":"levelo://app?vid=377e997d-76fa-49cd-a9c9-778bc42231c4"},"vehicle_type_id":"4","last_reported":1748261979,"current_range_meters":0,"station_id":"","pricing_plan_id":"cebpf4jnsgd1na2vs0mg"},{"bike_id":"f9fb40c0-1fcd-48cb-8e26-3f2dc0fb2451","system_id":"levelo_inurba_marseille","lat":43.33751,"lon":5.37509,"is_reserved":false,"is_disabled":true,"rental_uris":{"android":"levelo://app?vid=f9fb40c0-1fcd-48cb-8e26-3f2dc0fb2451","ios":"levelo://app?vid=f9fb40c0-1fcd-48cb-8e26-3f2dc0fb2451"},"vehicle_type_id":"4","last_reported":1748261979,"current_range_meters":0,"station_id":"","pricing_plan_id":"cebpf4jnsgd1na2vs0mg"},{"bike_id":"55486e59-addd-4d7a-be46-bc6476992a64","system_id":"levelo_inurba_marseille","lat":43.27804,"lon":5.38845,"is_reserved":false,"is_disabled":true,"rental_uris":{"android":"levelo://app?vid=55486e59-addd-4d7a-be46-bc6476992a64","ios":"levelo://app?vid=55486e59-addd-4d7a-be46-bc6476992a64"},"vehicle_type_id":"4","last_reported":1748261979,"current_range_meters":0,"station_id":"","pricing_plan_id":"cebpf4jnsgd1na2vs0mg"},{"bike_id":"d9b5650d-9652-4389-81c8-9e7dd1dc104a","system_id":"levelo_inurba_marseille","lat":43.31001,"lon":5.37149,"is_reserved":false,"is_disabled":true,"rental_uris":{"android":"levelo://app?vid=d9b5650d-9652-4389-81c8-9e7dd1dc104a","ios":"levelo://app?vid=d9b5650d-9652-4389-81c8-9e7dd1dc104a"},"vehicle_type_id":"4","last_reported":1748261979,"current_range_meters":0,"station_id":"","pricing_plan_id":"cebpf4jnsgd1na2vs0mg"},{"bike_id":"e9dd3aa4-b5e7-4480-926d-d7f537719bfa","system_id":"levelo_inurba_marseille","lat":43.230331,"lon":5.401847,"is_reserved":false,"is_disabled":true,"rental_uris":{"android":"levelo://app?vid=e9dd3aa4-b5e7-4480-926d-d7f537719bfa","ios":"levelo://app?vid=e9dd3aa4-b5e7-4480-926d-d7f537719bfa"},"vehicle_type_id":"4","last_reported":1748261979,"current_range_meters":0,"station_id":"","pricing_plan_id":"cebpf4jnsgd1na2vs0mg"},{"bike_id":"dcd075ea-b4af-4d6d-90b2-1236858b7bc1","system_id":"levelo_inurba_marseille","lat":43.27609,"lon":5.35873,"is_reserved":false,"is_disabled":true,"rental_uris":{"android":"levelo://app?vid=dcd075ea-b4af-4d6d-90b2-1236858b7bc1","ios":"levelo://app?vid=dcd075ea-b4af-4d6d-90b2-1236858b7bc1"},"vehicle_type_id":"4","last_reported":1748261979,"current_range_meters":0,"station_id":"","pricing_plan_id":"cebpf4jnsgd1na2vs0mg"},{"bike_id":"fc830a59-f7e6-4843-bfb3-9d6985bea197","system_id":"levelo_inurba_marseille","lat":43.29375,"lon":5.37835,"is_reserved":false,"is_disabled":true,"rental_uris":{"android":"levelo://app?vid=fc830a59-f7e6-4843-bfb3-9d6985bea197","ios":"levelo://app?vid=fc830a59-f7e6-4843-bfb3-9d6985bea197"},"vehicle_type_id":"4","last_reported":1748261979,"current_range_meters":0,"station_id":"ce4bgjh2rcd13ifvqbf0","pricing_plan_id":"cebpf4jnsgd1na2vs0mg"},{"bike_id":"467db396-3479-4ef0-87cd-54f6b53b4c8d","system_id":"levelo_inurba_marseille","lat":43.3135,"lon":5.36737,"is_reserved":false,"is_disabled":true,"rental_uris":{"android":"levelo://app?vid=467db396-3479-4ef0-87cd-54f6b53b4c8d","ios":"levelo://app?vid=467db396-3479-4ef0-87cd-54f6b53b4c8d"},"vehicle_type_id":"4","last_reported":1748261979,"current_range_meters":0,"station_id":"ce4bgr92rcd13ifvqc6g","pricing_plan_id":"cebpf4jnsgd1na2vs0mg"},{"bike_id":"ff1e94be-9ecf-429c-9f0e-14423fed4630","system_id":"levelo_inurba_marseille","lat":43.30244,"lon":5.40079,"is_reserved":false,"is_disabled":true,"rental_uris":{"android":"levelo://app?vid=ff1e94be-9ecf-429c-9f0e-14423fed4630","ios":"levelo://app?vid=ff1e94be-9ecf-429c-9f0e-14423fed4630"},"vehicle_type_id":"4","last_reported":1748261979,"current_range_meters":0,"station_id":"ce4bgvh2rcd13ifvqcs0","pricing_plan_id":"cebpf4jnsgd1na2vs0mg"},{"bike_id":"1a55a09e-6057-4da2-b9c5-4900b56f2c16","system_id":"levelo_inurba_marseille","lat":43.28929,"lon":5.38386,"is_reserved":false,"is_disabled":true,"rental_uris":{"android":"levelo://app?vid=1a55a09e-6057-4da2-b9c5-4900b56f2c16","ios":"levelo://app?vid=1a55a09e-6057-4da2-b9c5-4900b56f2c16"},"vehicle_type_id":"4","last_reported":1748261979,"current_range_meters":0,"station_id":"ce4bh612rcd13ifvqe6g","pricing_plan_id":"cebpf4jnsgd1na2vs0mg"},{"bike_id":"7805285d-be44-4001-9f25-2f70f44d1d34","system_id":"levelo_inurba_marseille","lat":43.28284,"lon":5.35077,"is_reserved":false,"is_disabled":true,"rental_uris":{"android":"levelo://app?vid=7805285d-be44-4001-9f25-2f70f44d1d34","ios":"levelo://app?vid=7805285d-be44-4001-9f25-2f70f44d1d34"},"vehicle_type_id":"4","last_reported":1748261979,"current_range_meters":0,"station_id":"ce4bhbp2rcd13ifvqerg","pricing_plan_id":"cebpf4jnsgd1na2vs0mg"},{"bike_id":"7e4d8064-cfd6-4e68-8667-8aff002bb112","system_id":"levelo_inurba_marseille","lat":43.26577,"lon":5.38997,"is_reserved":false,"is_disabled":true,"rental_uris":{"android":"levelo://app?vid=7e4d8064-cfd6-4e68-8667-8aff002bb112","ios":"levelo://app?vid=7e4d8064-cfd6-4e68-8667-8aff002bb112"},"vehicle_type_id":"4","last_reported":1748261979,"current_range_meters":0,"station_id":"ce4bhe12rcd13ifvqf30","pricing_plan_id":"cebpf4jnsgd1na2vs0mg"},{"bike_id":"a5ae3475-f23a-4ba0-8e39-1aad5945ce38","system_id":"levelo_inurba_marseille","lat":43.26958,"lon":5.38626,"is_reserved":false,"is_disabled":true,"rental_uris":{"android":"levelo://app?vid=a5ae3475-f23a-4ba0-8e39-1aad5945ce38","ios":"levelo://app?vid=a5ae3475-f23a-4ba0-8e39-1aad5945ce38"},"vehicle_type_id":"4","last_reported":1748261979,"current_range_meters":0,"station_id":"ce4bhh92rcd13ifvqfh0","pricing_plan_id":"cebpf4jnsgd1na2vs0mg"},{"bike_id":"7c33f391-b716-4cb8-8914-2cf1df7ae476","system_id":"levelo_inurba_marseille","lat":43.27487,"lon":5.42462,"is_reserved":false,"is_disabled":true,"rental_uris":{"android":"levelo://app?vid=7c33f391-b716-4cb8-8914-2cf1df7ae476","ios":"levelo://app?vid=7c33f391-b716-4cb8-8914-2cf1df7ae476"},"vehicle_type_id":"4","last_reported":1748261979,"current_range_meters":0,"station_id":"ce4bhn92rcd13ifvqgrg","pricing_plan_id":"cebpf4jnsgd1na2vs0mg"},{"bike_id":"d68878e9-e862-417a-a133-cc7a8e956bfd","system_id":"levelo_inurba_marseille","lat":43.27923,"lon":5.41103,"is_reserved":false,"is_disabled":false,"rental_uris":{"android":"levelo://app?vid=d68878e9-e862-417a-a133-cc7a8e956bfd","ios":"levelo://app?vid=d68878e9-e862-417a-a133-cc7a8e956bfd"},"vehicle_type_id":"4","last_reported":1748261979,"current_range_meters":0,"station_id":"ce4bhnp2rcd13ifvqh0g","pricing_plan_id":"cebpf4jnsgd1na2vs0mg"},{"bike_id":"8cf9dc37-10d4-4615-a019-68a38418a50c","system_id":"levelo_inurba_marseille","lat":43.32648,"lon":5.35722,"is_reserved":false,"is_disabled":true,"rental_uris":{"android":"levelo://app?vid=8cf9dc37-10d4-4615-a019-68a38418a50c","ios":"levelo://app?vid=8cf9dc37-10d4-4615-a019-68a38418a50c"},"vehicle_type_id":"4","last_reported":1748261979,"current_range_meters":400,"station_id":"","pricing_plan_id":"cebpf4jnsgd1na2vs0mg"},{"bike_id":"aa4b2ab7-3a89-44be-8aec-fd4e4c5ddd94","system_id":"levelo_inurba_marseille","lat":43.28153,"lon":5.42645,"is_reserved":false,"is_disabled":true,"rental_uris":{"android":"levelo://app?vid=aa4b2ab7-3a89-44be-8aec-fd4e4c5ddd94","ios":"levelo://app?vid=aa4b2ab7-3a89-44be-8aec-fd4e4c5ddd94"},"vehicle_type_id":"4","last_reported":1748261979,"current_range_meters":400,"station_id":"ce4bhnh2rcd13ifvqgug","pricing_plan_id":"cebpf4jnsgd1na2vs0mg"},{"bike_id":"a46c324e-6858-4c1c-a035-d5c71e589a6b","system_id":"levelo_inurba_marseille","lat":43.29588,"lon":5.36736,"is_reserved":false,"is_disabled":true,"rental_uris":{"android":"levelo://app?vid=a46c324e-6858-4c1c-a035-d5c71e589a6b","ios":"levelo://app?vid=a46c324e-6858-4c1c-a035-d5c71e589a6b"},"vehicle_type_id":"4","last_reported":1748261979,"current_range_meters":800,"station_id":"ce4bgph2rcd13ifvqc2g","pricing_plan_id":"cebpf4jnsgd1na2vs0mg"},{"bike_id":"76ee4190-cfd2-4707-b96f-257282d17cac","system_id":"levelo_inurba_marseille","lat":43.30308,"lon":5.36897,"is_reserved":false,"is_disabled":true,"rental_uris":{"android":"levelo://app?vid=76ee4190-cfd2-4707-b96f-257282d17cac","ios":"levelo://app?vid=76ee4190-cfd2-4707-b96f-257282d17cac"},"vehicle_type_id":"4","last_reported":1748261979,"current_range_meters":800,"station_id":"ce4bgqh2rcd13ifvqc5g","pricing_plan_id":"cebpf4jnsgd1na2vs0mg"},{"bike_id":"c459e57e-5f40-4fbe-8c18-11c7de9d49fe","system_id":"levelo_inurba_marseille","lat":43.29964,"lon":5.37171,"is_reserved":false,"is_disabled":true,"rental_uris":{"android":"levelo://app?vid=c459e57e-5f40-4fbe-8c18-11c7de9d49fe","ios":"levelo://app?vid=c459e57e-5f40-4fbe-8c18-11c7de9d49fe"},"vehicle_type_id":"4","last_reported":1748261979,"current_range_meters":800,"station_id":"ce4bgr92rcd13ifvqc7g","pricing_plan_id":"cebpf4jnsgd1na2vs0mg"},{"bike_id":"fdb1f313-11f0-4946-95db-f81014905016","system_id":"levelo_inurba_marseille","lat":43.24192,"lon":5.39728,"is_reserved":false,"is_disabled":true,"rental_uris":{"android":"levelo://app?vid=fdb1f313-11f0-4946-95db-f81014905016","ios":"levelo://app?vid=fdb1f313-11f0-4946-95db-f81014905016"},"vehicle_type_id":"4","last_reported":1748261979,"current_range_meters":800,"station_id":"ce4bhn12rcd13ifvqgpg","pricing_plan_id":"cebpf4jnsgd1na2vs0mg"},{"bike_id":"18089c1e-9560-4732-888e-a795882eea5e","system_id":"levelo_inurba_marseille","lat":43.31417,"lon":5.3674,"is_reserved":false,"is_disabled":true,"rental_uris":{"android":"levelo://app?vid=18089c1e-9560-4732-888e-a795882eea5e","ios":"levelo://app?vid=18089c1e-9560-4732-888e-a795882eea5e"},"vehicle_type_id":"4","last_reported":1748261979,"current_range_meters":1200,"station_id":"","pricing_plan_id":"cebpf4jnsgd1na2vs0mg"},{"bike_id":"53f0df7a-b16c-4394-8f16-017d80ccf1b3","system_id":"levelo_inurba_marseille","lat":43.30785,"lon":5.3815,"is_reserved":false,"is_disabled":true,"rental_uris":{"android":"levelo://app?vid=53f0df7a-b16c-4394-8f16-017d80ccf1b3","ios":"levelo://app?vid=53f0df7a-b16c-4394-8f16-017d80ccf1b3"},"vehicle_type_id":"4","last_reported":1748261979,"current_range_meters":1200,"station_id":"ce4bgt12rcd13ifvqce0","pricing_plan_id":"cebpf4jnsgd1na2vs0mg"},{"bike_id":"ca65d765-6824-48ca-8301-651d8dd29e1e","system_id":"levelo_inurba_marseille","lat":43.30616,"lon":5.40085,"is_reserved":false,"is_disabled":true,"rental_uris":{"android":"levelo://app?vid=ca65d765-6824-48ca-8301-651d8dd29e1e","ios":"levelo://app?vid=ca65d765-6824-48ca-8301-651d8dd29e1e"},"vehicle_type_id":"4","last_reported":1748261979,"current_range_meters":1200,"station_id":"ce4bh112rcd13ifvqda0","pricing_plan_id":"cebpf4jnsgd1na2vs0mg"},{"bike_id":"6cf506a4-ef9b-4b36-adbc-7281e7d05c5e","system_id":"levelo_inurba_marseille","lat":43.21751,"lon":5.34604,"is_reserved":false,"is_disabled":true,"rental_uris":{"android":"levelo://app?vid=6cf506a4-ef9b-4b36-adbc-7281e7d05c5e","ios":"levelo://app?vid=6cf506a4-ef9b-4b36-adbc-7281e7d05c5e"},"vehicle_type_id":"4","last_reported":1748261979,"current_range_meters":1200,"station_id":"st_cvj6r9ubvosntc0bgbag","pricing_plan_id":"cebpf4jnsgd1na2vs0mg"},{"bike_id":"107ff565-040d-4140-a730-f55a16d49475","system_id":"levelo_inurba_marseille","lat":43.2737,"lon":5.36243,"is_reserved":false,"is_disabled":true,"rental_uris":{"android":"levelo://app?vid=107ff565-040d-4140-a730-f55a16d49475","ios":"levelo://app?vid=107ff565-040d-4140-a730-f55a16d49475"},"vehicle_type_id":"4","last_reported":1748261979,"current_range_meters":1600,"station_id":"ce4bhbh2rcd13ifvqeo0","pricing_plan_id":"cebpf4jnsgd1na2vs0mg"},{"bike_id":"87dc1d45-464b-416b-81d6-10b093bfc1ae","system_id":"levelo_inurba_marseille","lat":43.27073,"lon":5.42279,"is_reserved":false,"is_disabled":true,"rental_uris":{"android":"levelo://app?vid=87dc1d45-464b-416b-81d6-10b093bfc1ae","ios":"levelo://app?vid=87dc1d45-464b-416b-81d6-10b093bfc1ae"},"vehicle_type_id":"4","last_reported":1748261979,"current_range_meters":1600,"station_id":"ce4bhk92rcd13ifvqgb0","pricing_plan_id":"cebpf4jnsgd1na2vs0mg"},{"bike_id":"d858327d-beba-4be9-a518-44009d545a5e","system_id":"levelo_inurba_marseille","lat":43.24076,"lon":5.37749,"is_reserved":false,"is_disabled":true,"rental_uris":{"android":"levelo://app?vid=d858327d-beba-4be9-a518-44009d545a5e","ios":"levelo://app?vid=d858327d-beba-4be9-a518-44009d545a5e"},"vehicle_type_id":"4","last_reported":1748261979,"current_range_meters":1600,"station_id":"ce4bhnp2rcd13ifvqgvg","pricing_plan_id":"cebpf4jnsgd1na2vs0mg"},{"bike_id":"149db685-52a2-450f-bd30-65e461b827ff","system_id":"levelo_inurba_marseille","lat":43.241675,"lon":5.363805,"is_reserved":false,"is_disabled":true,"rental_uris":{"android":"levelo://app?vid=149db685-52a2-450f-bd30-65e461b827ff","ios":"levelo://app?vid=149db685-52a2-450f-bd30-65e461b827ff"},"vehicle_type_id":"4","last_reported":1748261979,"current_range_meters":1600,"station_id":"cpo36qri1sfpv3e86is0","pricing_plan_id":"cebpf4jnsgd1na2vs0mg"},{"bike_id":"5fe942e4-3a8a-4206-b6b5-67f8f9b23231","system_id":"levelo_inurba_marseille","lat":43.29728,"lon":5.37687,"is_reserved":false,"is_disabled":true,"rental_uris":{"android":"levelo://app?vid=5fe942e4-3a8a-4206-b6b5-67f8f9b23231","ios":"levelo://app?vid=5fe942e4-3a8a-4206-b6b5-67f8f9b23231"},"vehicle_type_id":"4","last_reported":1748261979,"current_range_meters":2000,"station_id":"ce4bgkh2rcd13ifvqbl0","pricing_plan_id":"cebpf4jnsgd1na2vs0mg"},{"bike_id":"fff923d9-1a1f-44b5-aa8c-0961e5dd5a46","system_id":"levelo_inurba_marseille","lat":43.31335,"lon":5.36712,"is_reserved":false,"is_disabled":true,"rental_uris":{"android":"levelo://app?vid=fff923d9-1a1f-44b5-aa8c-0961e5dd5a46","ios":"levelo://app?vid=fff923d9-1a1f-44b5-aa8c-0961e5dd5a46"},"vehicle_type_id":"4","last_reported":1748261979,"current_range_meters":2000,"station_id":"ce4bgr92rcd13ifvqc6g","pricing_plan_id":"cebpf4jnsgd1na2vs0mg"},{"bike_id":"2492633e-3c8b-4118-8fac-45c0165355c4","system_id":"levelo_inurba_marseille","lat":43.31321,"lon":5.36733,"is_reserved":false,"is_disabled":true,"rental_uris":{"android":"levelo://app?vid=2492633e-3c8b-4118-8fac-45c0165355c4","ios":"levelo://app?vid=2492633e-3c8b-4118-8fac-45c0165355c4"},"vehicle_type_id":"4","last_reported":1748261979,"current_range_meters":2000,"station_id":"ce4bgr92rcd13ifvqc6g","pricing_plan_id":"cebpf4jnsgd1na2vs0mg"},{"bike_id":"3581c28c-41f2-4cb7-b494-0448776c0438","system_id":"levelo_inurba_marseille","lat":43.29636,"lon":5.3604,"is_reserved":false,"is_disabled":false,"rental_uris":{"android":"levelo://app?vid=3581c28c-41f2-4cb7-b494-0448776c0438","ios":"levelo://app?vid=3581c28c-41f2-4cb7-b494-0448776c0438"},"vehicle_type_id":"4","last_reported":1748261979,"current_range_meters":2800,"station_id":"","pricing_plan_id":"cebpf4jnsgd1na2vs0mg"},{"bike_id":"fdc1ef05-8e0d-477a-a289-c15a5c6d27ff","system_id":"levelo_inurba_marseille","lat":43.2918,"lon":5.37156,"is_reserved":false,"is_disabled":false,"rental_uris":{"android":"levelo://app?vid=fdc1ef05-8e0d-477a-a289-c15a5c6d27ff","ios":"levelo://app?vid=fdc1ef05-8e0d-477a-a289-c15a5c6d27ff"},"vehicle_type_id":"4","last_reported":1748261979,"current_range_meters":2800,"station_id":"ce4bha92rcd13ifvqeh0","pricing_plan_id":"cebpf4jnsgd1na2vs0mg"},{"bike_id":"84b1d1a2-2301-4f7e-8fde-ecd5a1274476","system_id":"levelo_inurba_marseille","lat":43.270813,"lon":5.422712,"is_reserved":false,"is_disabled":false,"rental_uris":{"android":"levelo://app?vid=84b1d1a2-2301-4f7e-8fde-ecd5a1274476","ios":"levelo://app?vid=84b1d1a2-2301-4f7e-8fde-ecd5a1274476"},"vehicle_type_id":"4","last_reported":1748261979,"current_range_meters":2800,"station_id":"ce4bhk92rcd13ifvqgb0","pricing_plan_id":"cebpf4jnsgd1na2vs0mg"},{"bike_id":"950e945e-6433-46b5-9a57-0e1485e0348c","system_id":"levelo_inurba_marseille","lat":43.29579,"lon":5.37519,"is_reserved":false,"is_disabled":false,"rental_uris":{"android":"levelo://app?vid=950e945e-6433-46b5-9a57-0e1485e0348c","ios":"levelo://app?vid=950e945e-6433-46b5-9a57-0e1485e0348c"},"vehicle_type_id":"4","last_reported":1748261979,"current_range_meters":3200,"station_id":"ce4bgh92rcd13ifvqb50","pricing_plan_id":"cebpf4jnsgd1na2vs0mg"},{"bike_id":"daf24f7c-ccfc-4c83-8bc9-2cd6e547b42c","system_id":"levelo_inurba_marseille","lat":43.22937,"lon":5.35378,"is_reserved":false,"is_disabled":false,"rental_uris":{"android":"levelo://app?vid=daf24f7c-ccfc-4c83-8bc9-2cd6e547b42c","ios":"levelo://app?vid=daf24f7c-ccfc-4c83-8bc9-2cd6e547b42c"},"vehicle_type_id":"4","last_reported":1748261979,"current_range_meters":3200,"station_id":"cpo3532slgdg3j2ikp40","pricing_plan_id":"cebpf4jnsgd1na2vs0mg"},{"bike_id":"aeb9ef90-389d-4ef3-899b-0a0feff09a32","system_id":"levelo_inurba_marseille","lat":43.313965,"lon":5.38038,"is_reserved":false,"is_disabled":false,"rental_uris":{"android":"levelo://app?vid=aeb9ef90-389d-4ef3-899b-0a0feff09a32","ios":"levelo://app?vid=aeb9ef90-389d-4ef3-899b-0a0feff09a32"},"vehicle_type_id":"4","last_reported":1748261979,"current_range_meters":3600,"station_id":"","pricing_plan_id":"cebpf4jnsgd1na2vs0mg"},{"bike_id":"b0b868e7-fb66-4cba-8633-868d3633cb72","system_id":"levelo_inurba_marseille","lat":43.29033,"lon":5.39975,"is_reserved":false,"is_disabled":false,"rental_uris":{"android":"levelo://app?vid=b0b868e7-fb66-4cba-8633-868d3633cb72","ios":"levelo://app?vid=b0b868e7-fb66-4cba-8633-868d3633cb72"},"vehicle_type_id":"4","last_reported":1748261979,"current_range_meters":3600,"station_id":"ce4bh392rcd13ifvqdm0","pricing_plan_id":"cebpf4jnsgd1na2vs0mg"},{"bike_id":"6832377d-5896-47ee-ac91-2dafe11c6248","system_id":"levelo_inurba_marseille","lat":43.26941,"lon":5.38921,"is_reserved":false,"is_disabled":false,"rental_uris":{"android":"levelo://app?vid=6832377d-5896-47ee-ac91-2dafe11c6248","ios":"levelo://app?vid=6832377d-5896-47ee-ac91-2dafe11c6248"},"vehicle_type_id":"4","last_reported":1748261979,"current_range_meters":3600,"station_id":"ce4bhhh2rcd13ifvqfl0","pricing_plan_id":"cebpf4jnsgd1na2vs0mg"},{"bike_id":"fcc08c59-dc4b-4898-8bdf-fc09ea29d374","system_id":"levelo_inurba_marseille","lat":43.29267,"lon":5.37617,"is_reserved":false,"is_disabled":false,"rental_uris":{"android":"levelo://app?vid=fcc08c59-dc4b-4898-8bdf-fc09ea29d374","ios":"levelo://app?vid=fcc08c59-dc4b-4898-8bdf-fc09ea29d374"},"vehicle_type_id":"4","last_reported":1748261979,"current_range_meters":4000,"station_id":"ce4bgi12rcd13ifvqb80","pricing_plan_id":"cebpf4jnsgd1na2vs0mg"},{"bike_id":"fe2e9ccf-cbf5-4637-9358-2d866010485c","system_id":"levelo_inurba_marseille","lat":43.27374,"lon":5.36245,"is_reserved":false,"is_disabled":false,"rental_uris":{"android":"levelo://app?vid=fe2e9ccf-cbf5-4637-9358-2d866010485c","ios":"levelo://app?vid=fe2e9ccf-cbf5-4637-9358-2d866010485c"},"vehicle_type_id":"4","last_reported":1748261979,"current_range_meters":4400,"station_id":"ce4bhbh2rcd13ifvqeo0","pricing_plan_id":"cebpf4jnsgd1na2vs0mg"},{"bike_id":"7c77cbed-d52b-4b6b-a952-ed66771fab1d","system_id":"levelo_inurba_marseille","lat":43.29277,"lon":5.36844,"is_reserved":false,"is_disabled":false,"rental_uris":{"android":"levelo://app?vid=7c77cbed-d52b-4b6b-a952-ed66771fab1d","ios":"levelo://app?vid=7c77cbed-d52b-4b6b-a952-ed66771fab1d"},"vehicle_type_id":"4","last_reported":1748261979,"current_range_meters":4400,"station_id":"ce4bhbp2rcd13ifvqesg","pricing_plan_id":"cebpf4jnsgd1na2vs0mg"},{"bike_id":"c94d9cfc-585e-4c0a-972f-64acbd001220","system_id":"levelo_inurba_marseille","lat":43.25112,"lon":5.40316,"is_reserved":false,"is_disabled":false,"rental_uris":{"android":"levelo://app?vid=c94d9cfc-585e-4c0a-972f-64acbd001220","ios":"levelo://app?vid=c94d9cfc-585e-4c0a-972f-64acbd001220"},"vehicle_type_id":"4","last_reported":1748261979,"current_range_meters":4400,"station_id":"ce4bhlh2rcd13ifvqgig","pricing_plan_id":"cebpf4jnsgd1na2vs0mg"},{"bike_id":"da453a88-f81b-4e0f-9781-5a7f6c1d364c","system_id":"levelo_inurba_marseille","lat":43.337499,"lon":5.374469,"is_reserved":false,"is_disabled":false,"rental_uris":{"android":"levelo://app?vid=da453a88-f81b-4e0f-9781-5a7f6c1d364c","ios":"levelo://app?vid=da453a88-f81b-4e0f-9781-5a7f6c1d364c"},"vehicle_type_id":"4","last_reported":1748261979,"current_range_meters":4800,"station_id":"","pricing_plan_id":"cebpf4jnsgd1na2vs0mg"},{"bike_id":"985dfe2e-48ab-4438-8b44-7034bccf028e","system_id":"levelo_inurba_marseille","lat":43.2699,"lon":5.39842,"is_reserved":false,"is_disabled":false,"rental_uris":{"android":"levelo://app?vid=985dfe2e-48ab-4438-8b44-7034bccf028e","ios":"levelo://app?vid=985dfe2e-48ab-4438-8b44-7034bccf028e"},"vehicle_type_id":"4","last_reported":1748261979,"current_range_meters":4800,"station_id":"","pricing_plan_id":"cebpf4jnsgd1na2vs0mg"},{"bike_id":"105d56f3-e8cf-41b8-b0d9-5038295cb631","system_id":"levelo_inurba_marseille","lat":43.2121,"lon":5.35068,"is_reserved":false,"is_disabled":false,"rental_uris":{"android":"levelo://app?vid=105d56f3-e8cf-41b8-b0d9-5038295cb631","ios":"levelo://app?vid=105d56f3-e8cf-41b8-b0d9-5038295cb631"},"vehicle_type_id":"4","last_reported":1748261979,"current_range_meters":4800,"station_id":"","pricing_plan_id":"cebpf4jnsgd1na2vs0mg"},{"bike_id":"88838b0d-a02b-4394-98da-8836f1f6bf70","system_id":"levelo_inurba_marseille","lat":43.29279,"lon":5.37638,"is_reserved":false,"is_disabled":false,"rental_uris":{"android":"levelo://app?vid=88838b0d-a02b-4394-98da-8836f1f6bf70","ios":"levelo://app?vid=88838b0d-a02b-4394-98da-8836f1f6bf70"},"vehicle_type_id":"4","last_reported":1748261979,"current_range_meters":4800,"station_id":"ce4bgi12rcd13ifvqb80","pricing_plan_id":"cebpf4jnsgd1na2vs0mg"},{"bike_id":"72502733-0da8-436a-85e4-6f1fba4084cd","system_id":"levelo_inurba_marseille","lat":43.28717,"lon":5.37939,"is_reserved":false,"is_disabled":false,"rental_uris":{"android":"levelo://app?vid=72502733-0da8-436a-85e4-6f1fba4084cd","ios":"levelo://app?vid=72502733-0da8-436a-85e4-6f1fba4084cd"},"vehicle_type_id":"4","last_reported":1748261979,"current_range_meters":4800,"station_id":"ce4bh9p2rcd13ifvqec0","pricing_plan_id":"cebpf4jnsgd1na2vs0mg"},{"bike_id":"20aedc1a-3258-494a-9b0e-5afc4945dd89","system_id":"levelo_inurba_marseille","lat":43.231867,"lon":5.39987,"is_reserved":false,"is_disabled":false,"rental_uris":{"android":"levelo://app?vid=20aedc1a-3258-494a-9b0e-5afc4945dd89","ios":"levelo://app?vid=20aedc1a-3258-494a-9b0e-5afc4945dd89"},"vehicle_type_id":"4","last_reported":1748261979,"current_range_meters":4800,"station_id":"ce4bhn12rcd13ifvqgqg","pricing_plan_id":"cebpf4jnsgd1na2vs0mg"},{"bike_id":"bd193189-5830-493f-a0df-1d77208d8540","system_id":"levelo_inurba_marseille","lat":43.32493,"lon":5.3656,"is_reserved":false,"is_disabled":false,"rental_uris":{"android":"levelo://app?vid=bd193189-5830-493f-a0df-1d77208d8540","ios":"levelo://app?vid=bd193189-5830-493f-a0df-1d77208d8540"},"vehicle_type_id":"4","last_reported":1748261979,"current_range_meters":4800,"station_id":"ce4bhs12rcd13ifvqhvg","pricing_plan_id":"cebpf4jnsgd1na2vs0mg"},{"bike_id":"1da35f9f-f4ec-4f7e-81f7-49dd3c19bd7a","system_id":"levelo_inurba_marseille","lat":43.264776,"lon":5.418844,"is_reserved":false,"is_disabled":false,"rental_uris":{"android":"levelo://app?vid=1da35f9f-f4ec-4f7e-81f7-49dd3c19bd7a","ios":"levelo://app?vid=1da35f9f-f4ec-4f7e-81f7-49dd3c19bd7a"},"vehicle_type_id":"4","last_reported":1748261979,"current_range_meters":5600,"station_id":"","pricing_plan_id":"cebpf4jnsgd1na2vs0mg"},{"bike_id":"d9fa0449-e47c-4bbe-a91c-4939cab5d888","system_id":"levelo_inurba_marseille","lat":43.28528,"lon":5.42631,"is_reserved":false,"is_disabled":false,"rental_uris":{"android":"levelo://app?vid=d9fa0449-e47c-4bbe-a91c-4939cab5d888","ios":"levelo://app?vid=d9fa0449-e47c-4bbe-a91c-4939cab5d888"},"vehicle_type_id":"4","last_reported":1748261979,"current_range_meters":5600,"station_id":"","pricing_plan_id":"cebpf4jnsgd1na2vs0mg"},{"bike_id":"2857da20-27d9-48da-b6f6-65ed6ab12c60","system_id":"levelo_inurba_marseille","lat":43.29916,"lon":5.37469,"is_reserved":false,"is_disabled":false,"rental_uris":{"android":"levelo://app?vid=2857da20-27d9-48da-b6f6-65ed6ab12c60","ios":"levelo://app?vid=2857da20-27d9-48da-b6f6-65ed6ab12c60"},"vehicle_type_id":"4","last_reported":1748261979,"current_range_meters":5600,"station_id":"ce4bgjh2rcd13ifvqbg0","pricing_plan_id":"cebpf4jnsgd1na2vs0mg"},{"bike_id":"81d4d244-878a-44cd-b71c-dd16d0bf9e4d","system_id":"levelo_inurba_marseille","lat":43.28357,"lon":5.38092,"is_reserved":false,"is_disabled":false,"rental_uris":{"android":"levelo://app?vid=81d4d244-878a-44cd-b71c-dd16d0bf9e4d","ios":"levelo://app?vid=81d4d244-878a-44cd-b71c-dd16d0bf9e4d"},"vehicle_type_id":"4","last_reported":1748261979,"current_range_meters":5600,"station_id":"ce4bh412rcd13ifvqdr0","pricing_plan_id":"cebpf4jnsgd1na2vs0mg"},{"bike_id":"650ba0d8-22cd-4b2f-959a-beb43ca34e44","system_id":"levelo_inurba_marseille","lat":43.284768,"lon":5.384156,"is_reserved":false,"is_disabled":false,"rental_uris":{"android":"levelo://app?vid=650ba0d8-22cd-4b2f-959a-beb43ca34e44","ios":"levelo://app?vid=650ba0d8-22cd-4b2f-959a-beb43ca34e44"},"vehicle_type_id":"4","last_reported":1748261979,"current_range_meters":5600,"station_id":"ce4bh512rcd13ifvqe3g","pricing_plan_id":"cebpf4jnsgd1na2vs0mg"},{"bike_id":"07d59704-78db-49ba-91ac-516c04077bdd","system_id":"levelo_inurba_marseille","lat":43.2696,"lon":5.38624,"is_reserved":false,"is_disabled":false,"rental_uris":{"android":"levelo://app?vid=07d59704-78db-49ba-91ac-516c04077bdd","ios":"levelo://app?vid=07d59704-78db-49ba-91ac-516c04077bdd"},"vehicle_type_id":"4","last_reported":1748261979,"current_range_meters":5600,"station_id":"ce4bhh92rcd13ifvqfh0","pricing_plan_id":"cebpf4jnsgd1na2vs0mg"},{"bike_id":"34a4330d-82dc-440a-b88e-6490d7d0c604","system_id":"levelo_inurba_marseille","lat":43.27488,"lon":5.42457,"is_reserved":false,"is_disabled":false,"rental_uris":{"android":"levelo://app?vid=34a4330d-82dc-440a-b88e-6490d7d0c604","ios":"levelo://app?vid=34a4330d-82dc-440a-b88e-6490d7d0c604"},"vehicle_type_id":"4","last_reported":1748261979,"current_range_meters":5600,"station_id":"ce4bhn92rcd13ifvqgrg","pricing_plan_id":"cebpf4jnsgd1na2vs0mg"},{"bike_id":"dab7ee0d-f820-455c-89c6-13e25f106faf","system_id":"levelo_inurba_marseille","lat":43.32316,"lon":5.41927,"is_reserved":false,"is_disabled":false,"rental_uris":{"android":"levelo://app?vid=dab7ee0d-f820-455c-89c6-13e25f106faf","ios":"levelo://app?vid=dab7ee0d-f820-455c-89c6-13e25f106faf"},"vehicle_type_id":"4","last_reported":1748261979,"current_range_meters":6000,"station_id":"","pricing_plan_id":"cebpf4jnsgd1na2vs0mg"},{"bike_id":"26108d32-ab04-4180-9059-5e41abb65a7d","system_id":"levelo_inurba_marseille","lat":43.29421,"lon":5.38621,"is_reserved":false,"is_disabled":false,"rental_uris":{"android":"levelo://app?vid=26108d32-ab04-4180-9059-5e41abb65a7d","ios":"levelo://app?vid=26108d32-ab04-4180-9059-5e41abb65a7d"},"vehicle_type_id":"4","last_reported":1748261979,"current_range_meters":6000,"station_id":"ce4bh2h2rcd13ifvqdh0","pricing_plan_id":"cebpf4jnsgd1na2vs0mg"},{"bike_id":"85f0ce8e-3b09-4fb2-9e2d-8bc052c1cf88","system_id":"levelo_inurba_marseille","lat":43.28476,"lon":5.38537,"is_reserved":false,"is_disabled":false,"rental_uris":{"android":"levelo://app?vid=85f0ce8e-3b09-4fb2-9e2d-8bc052c1cf88","ios":"levelo://app?vid=85f0ce8e-3b09-4fb2-9e2d-8bc052c1cf88"},"vehicle_type_id":"4","last_reported":1748261979,"current_range_meters":6000,"station_id":"ce4bh8p2rcd13ifvqeb0","pricing_plan_id":"cebpf4jnsgd1na2vs0mg"},{"bike_id":"1d2e2911-fdb0-4bef-bfbd-575316249b99","system_id":"levelo_inurba_marseille","lat":43.29973,"lon":5.38498,"is_reserved":false,"is_disabled":false,"rental_uris":{"android":"levelo://app?vid=1d2e2911-fdb0-4bef-bfbd-575316249b99","ios":"levelo://app?vid=1d2e2911-fdb0-4bef-bfbd-575316249b99"},"vehicle_type_id":"4","last_reported":1748261979,"current_range_meters":6400,"station_id":"ce4bgj92rcd13ifvqbd0","pricing_plan_id":"cebpf4jnsgd1na2vs0mg"},{"bike_id":"9e024dde-afd9-4088-af65-accbda9d64c5","system_id":"levelo_inurba_marseille","lat":43.28703,"lon":5.37388,"is_reserved":false,"is_disabled":false,"rental_uris":{"android":"levelo://app?vid=9e024dde-afd9-4088-af65-accbda9d64c5","ios":"levelo://app?vid=9e024dde-afd9-4088-af65-accbda9d64c5"},"vehicle_type_id":"4","last_reported":1748261979,"current_range_meters":6400,"station_id":"ce4bh3p2rcd13ifvqdq0","pricing_plan_id":"cebpf4jnsgd1na2vs0mg"},{"bike_id":"90e1c840-8ba0-4fe2-a046-964b717548d0","system_id":"levelo_inurba_marseille","lat":43.28855,"lon":5.3587,"is_reserved":false,"is_disabled":false,"rental_uris":{"android":"levelo://app?vid=90e1c840-8ba0-4fe2-a046-964b717548d0","ios":"levelo://app?vid=90e1c840-8ba0-4fe2-a046-964b717548d0"},"vehicle_type_id":"4","last_reported":1748261979,"current_range_meters":6400,"station_id":"ce4bhb12rcd13ifvqem0","pricing_plan_id":"cebpf4jnsgd1na2vs0mg"},{"bike_id":"4d3088e4-6ce0-4063-9e16-359dc9f9262d","system_id":"levelo_inurba_marseille","lat":43.265482,"lon":5.372939,"is_reserved":false,"is_disabled":false,"rental_uris":{"android":"levelo://app?vid=4d3088e4-6ce0-4063-9e16-359dc9f9262d","ios":"levelo://app?vid=4d3088e4-6ce0-4063-9e16-359dc9f9262d"},"vehicle_type_id":"4","last_reported":1748261979,"current_range_meters":6400,"station_id":"ce4bhg12rcd13ifvqf70","pricing_plan_id":"cebpf4jnsgd1na2vs0mg"},{"bike_id":"21d80b72-b4ef-4119-8fdd-6164d58dce8d","system_id":"levelo_inurba_marseille","lat":43.21756,"lon":5.34601,"is_reserved":false,"is_disabled":false,"rental_uris":{"android":"levelo://app?vid=21d80b72-b4ef-4119-8fdd-6164d58dce8d","ios":"levelo://app?vid=21d80b72-b4ef-4119-8fdd-6164d58dce8d"},"vehicle_type_id":"4","last_reported":1748261979,"current_range_meters":6400,"station_id":"st_cvj6r9ubvosntc0bgbag","pricing_plan_id":"cebpf4jnsgd1na2vs0mg"},{"bike_id":"6abb9ab4-3976-4e3e-b994-f2f72ee02055","system_id":"levelo_inurba_marseille","lat":43.317966,"lon":5.368058,"is_reserved":false,"is_disabled":false,"rental_uris":{"android":"levelo://app?vid=6abb9ab4-3976-4e3e-b994-f2f72ee02055","ios":"levelo://app?vid=6abb9ab4-3976-4e3e-b994-f2f72ee02055"},"vehicle_type_id":"4","last_reported":1748261979,"current_range_meters":6800,"station_id":"","pricing_plan_id":"cebpf4jnsgd1na2vs0mg"},{"bike_id":"2a2de1ab-4371-4844-b9f4-b953f925b588","system_id":"levelo_inurba_marseille","lat":43.29279,"lon":5.37619,"is_reserved":false,"is_disabled":false,"rental_uris":{"android":"levelo://app?vid=2a2de1ab-4371-4844-b9f4-b953f925b588","ios":"levelo://app?vid=2a2de1ab-4371-4844-b9f4-b953f925b588"},"vehicle_type_id":"4","last_reported":1748261979,"current_range_meters":6800,"station_id":"ce4bgi12rcd13ifvqb80","pricing_plan_id":"cebpf4jnsgd1na2vs0mg"},{"bike_id":"270c65b9-f649-4919-a875-2ab25e70a540","system_id":"levelo_inurba_marseille","lat":43.28943,"lon":5.3664,"is_reserved":false,"is_disabled":false,"rental_uris":{"android":"levelo://app?vid=270c65b9-f649-4919-a875-2ab25e70a540","ios":"levelo://app?vid=270c65b9-f649-4919-a875-2ab25e70a540"},"vehicle_type_id":"4","last_reported":1748261979,"current_range_meters":6800,"station_id":"ce4bhap2rcd13ifvqek0","pricing_plan_id":"cebpf4jnsgd1na2vs0mg"},{"bike_id":"7152863f-a76d-462a-855d-1dfded7011aa","system_id":"levelo_inurba_marseille","lat":43.2862,"lon":5.350988,"is_reserved":false,"is_disabled":false,"rental_uris":{"android":"levelo://app?vid=7152863f-a76d-462a-855d-1dfded7011aa","ios":"levelo://app?vid=7152863f-a76d-462a-855d-1dfded7011aa"},"vehicle_type_id":"4","last_reported":1748261979,"current_range_meters":6800,"station_id":"ce4bhch2rcd13ifvqeug","pricing_plan_id":"cebpf4jnsgd1na2vs0mg"},{"bike_id":"83aa2661-fe44-4f7f-98e9-311354072bb9","system_id":"levelo_inurba_marseille","lat":43.26564,"lon":5.37319,"is_reserved":false,"is_disabled":false,"rental_uris":{"android":"levelo://app?vid=83aa2661-fe44-4f7f-98e9-311354072bb9","ios":"levelo://app?vid=83aa2661-fe44-4f7f-98e9-311354072bb9"},"vehicle_type_id":"4","last_reported":1748261979,"current_range_meters":6800,"station_id":"ce4bhg12rcd13ifvqf70","pricing_plan_id":"cebpf4jnsgd1na2vs0mg"},{"bike_id":"885aa229-daab-4aa3-8026-00ce1f9bd000","system_id":"levelo_inurba_marseille","lat":43.28153,"lon":5.42638,"is_reserved":false,"is_disabled":false,"rental_uris":{"android":"levelo://app?vid=885aa229-daab-4aa3-8026-00ce1f9bd000","ios":"levelo://app?vid=885aa229-daab-4aa3-8026-00ce1f9bd000"},"vehicle_type_id":"4","last_reported":1748261979,"current_range_meters":6800,"station_id":"ce4bhnh2rcd13ifvqgug","pricing_plan_id":"cebpf4jnsgd1na2vs0mg"},{"bike_id":"d23ecae9-e21a-4e2f-86f5-daa907f57444","system_id":"levelo_inurba_marseille","lat":43.21766,"lon":5.34607,"is_reserved":false,"is_disabled":false,"rental_uris":{"android":"levelo://app?vid=d23ecae9-e21a-4e2f-86f5-daa907f57444","ios":"levelo://app?vid=d23ecae9-e21a-4e2f-86f5-daa907f57444"},"vehicle_type_id":"4","last_reported":1748261979,"current_range_meters":6800,"station_id":"st_cvj6r9ubvosntc0bgbag","pricing_plan_id":"cebpf4jnsgd1na2vs0mg"},{"bike_id":"b50544ad-a1cf-49af-bbb3-55d3425cb1fa","system_id":"levelo_inurba_marseille","lat":43.28709,"lon":5.37919,"is_reserved":false,"is_disabled":false,"rental_uris":{"android":"levelo://app?vid=b50544ad-a1cf-49af-bbb3-55d3425cb1fa","ios":"levelo://app?vid=b50544ad-a1cf-49af-bbb3-55d3425cb1fa"},"vehicle_type_id":"4","last_reported":1748261979,"current_range_meters":7200,"station_id":"ce4bh9p2rcd13ifvqec0","pricing_plan_id":"cebpf4jnsgd1na2vs0mg"},{"bike_id":"19a7d12c-fc75-4341-aaeb-26dafccb96eb","system_id":"levelo_inurba_marseille","lat":43.250572,"lon":5.375618,"is_reserved":false,"is_disabled":false,"rental_uris":{"android":"levelo://app?vid=19a7d12c-fc75-4341-aaeb-26dafccb96eb","ios":"levelo://app?vid=19a7d12c-fc75-4341-aaeb-26dafccb96eb"},"vehicle_type_id":"4","last_reported":1748261979,"current_range_meters":7200,"station_id":"ce4bhh12rcd13ifvqff0","pricing_plan_id":"cebpf4jnsgd1na2vs0mg"},{"bike_id":"a3f21319-fd1c-4bd5-afa3-da5c851bf0b0","system_id":"levelo_inurba_marseille","lat":43.26961,"lon":5.38634,"is_reserved":false,"is_disabled":false,"rental_uris":{"android":"levelo://app?vid=a3f21319-fd1c-4bd5-afa3-da5c851bf0b0","ios":"levelo://app?vid=a3f21319-fd1c-4bd5-afa3-da5c851bf0b0"},"vehicle_type_id":"4","last_reported":1748261979,"current_range_meters":7200,"station_id":"ce4bhh92rcd13ifvqfh0","pricing_plan_id":"cebpf4jnsgd1na2vs0mg"},{"bike_id":"60512432-5f66-4f55-a62a-0fc32dc69135","system_id":"levelo_inurba_marseille","lat":43.25128,"lon":5.40344,"is_reserved":false,"is_disabled":false,"rental_uris":{"android":"levelo://app?vid=60512432-5f66-4f55-a62a-0fc32dc69135","ios":"levelo://app?vid=60512432-5f66-4f55-a62a-0fc32dc69135"},"vehicle_type_id":"4","last_reported":1748261979,"current_range_meters":7200,"station_id":"ce4bhlh2rcd13ifvqgig","pricing_plan_id":"cebpf4jnsgd1na2vs0mg"},{"bike_id":"85c2975d-3938-4b63-bb58-e9f93fa666e6","system_id":"levelo_inurba_marseille","lat":43.24805,"lon":5.37455,"is_reserved":false,"is_disabled":false,"rental_uris":{"android":"levelo://app?vid=85c2975d-3938-4b63-bb58-e9f93fa666e6","ios":"levelo://app?vid=85c2975d-3938-4b63-bb58-e9f93fa666e6"},"vehicle_type_id":"4","last_reported":1748261979,"current_range_meters":8000,"station_id":"ce4bhgh2rcd13ifvqfb0","pricing_plan_id":"cebpf4jnsgd1na2vs0mg"},{"bike_id":"2ae7424a-b867-40de-9ab4-bb3121026666","system_id":"levelo_inurba_marseille","lat":43.26788,"lon":5.39414,"is_reserved":false,"is_disabled":false,"rental_uris":{"android":"levelo://app?vid=2ae7424a-b867-40de-9ab4-bb3121026666","ios":"levelo://app?vid=2ae7424a-b867-40de-9ab4-bb3121026666"},"vehicle_type_id":"4","last_reported":1748261979,"current_range_meters":8000,"station_id":"ce4bhh12rcd13ifvqfg0","pricing_plan_id":"cebpf4jnsgd1na2vs0mg"},{"bike_id":"dafb985d-5304-4e88-8eaa-746c71ed1154","system_id":"levelo_inurba_marseille","lat":43.2606,"lon":5.39398,"is_reserved":false,"is_disabled":false,"rental_uris":{"android":"levelo://app?vid=dafb985d-5304-4e88-8eaa-746c71ed1154","ios":"levelo://app?vid=dafb985d-5304-4e88-8eaa-746c71ed1154"},"vehicle_type_id":"4","last_reported":1748261979,"current_range_meters":8000,"station_id":"ce4bhh92rcd13ifvqfj0","pricing_plan_id":"cebpf4jnsgd1na2vs0mg"},{"bike_id":"5abb8a77-fbf0-4d21-805b-29790cff0e49","system_id":"levelo_inurba_marseille","lat":43.31081,"lon":5.42459,"is_reserved":false,"is_disabled":false,"rental_uris":{"android":"levelo://app?vid=5abb8a77-fbf0-4d21-805b-29790cff0e49","ios":"levelo://app?vid=5abb8a77-fbf0-4d21-805b-29790cff0e49"},"vehicle_type_id":"4","last_reported":1748261979,"current_range_meters":8000,"station_id":"ce4bhp92rcd13ifvqhag","pricing_plan_id":"cebpf4jnsgd1na2vs0mg"},{"bike_id":"ab485184-dee6-4278-8ed8-78cb97c31dd5","system_id":"levelo_inurba_marseille","lat":43.2921,"lon":5.35824,"is_reserved":false,"is_disabled":false,"rental_uris":{"android":"levelo://app?vid=ab485184-dee6-4278-8ed8-78cb97c31dd5","ios":"levelo://app?vid=ab485184-dee6-4278-8ed8-78cb97c31dd5"},"vehicle_type_id":"4","last_reported":1748261979,"current_range_meters":8400,"station_id":"","pricing_plan_id":"cebpf4jnsgd1na2vs0mg"},{"bike_id":"dabc077c-bf8d-431d-a5ea-dcd441e9b7b1","system_id":"levelo_inurba_marseille","lat":43.24893,"lon":5.39725,"is_reserved":false,"is_disabled":false,"rental_uris":{"android":"levelo://app?vid=dabc077c-bf8d-431d-a5ea-dcd441e9b7b1","ios":"levelo://app?vid=dabc077c-bf8d-431d-a5ea-dcd441e9b7b1"},"vehicle_type_id":"4","last_reported":1748261979,"current_range_meters":8400,"station_id":"","pricing_plan_id":"cebpf4jnsgd1na2vs0mg"},{"bike_id":"fa4fe984-2a19-45bd-a823-ca42e315e130","system_id":"levelo_inurba_marseille","lat":43.29699,"lon":5.36618,"is_reserved":false,"is_disabled":false,"rental_uris":{"android":"levelo://app?vid=fa4fe984-2a19-45bd-a823-ca42e315e130","ios":"levelo://app?vid=fa4fe984-2a19-45bd-a823-ca42e315e130"},"vehicle_type_id":"4","last_reported":1748261979,"current_range_meters":8400,"station_id":"ce4bgn12rcd13ifvqbt0","pricing_plan_id":"cebpf4jnsgd1na2vs0mg"},{"bike_id":"b4d46adc-4918-4e3a-8b72-a3e689814c5d","system_id":"levelo_inurba_marseille","lat":43.26955,"lon":5.38637,"is_reserved":false,"is_disabled":false,"rental_uris":{"android":"levelo://app?vid=b4d46adc-4918-4e3a-8b72-a3e689814c5d","ios":"levelo://app?vid=b4d46adc-4918-4e3a-8b72-a3e689814c5d"},"vehicle_type_id":"4","last_reported":1748261979,"current_range_meters":8400,"station_id":"ce4bhh92rcd13ifvqfh0","pricing_plan_id":"cebpf4jnsgd1na2vs0mg"},{"bike_id":"f93b74c5-5226-4250-aaa8-c7e610f5fc0b","system_id":"levelo_inurba_marseille","lat":43.27063,"lon":5.42273,"is_reserved":false,"is_disabled":false,"rental_uris":{"android":"levelo://app?vid=f93b74c5-5226-4250-aaa8-c7e610f5fc0b","ios":"levelo://app?vid=f93b74c5-5226-4250-aaa8-c7e610f5fc0b"},"vehicle_type_id":"4","last_reported":1748261979,"current_range_meters":8400,"station_id":"ce4bhk92rcd13ifvqgb0","pricing_plan_id":"cebpf4jnsgd1na2vs0mg"},{"bike_id":"093bdc55-7657-4e48-bae6-7a022f735520","system_id":"levelo_inurba_marseille","lat":43.274967,"lon":5.42455,"is_reserved":false,"is_disabled":false,"rental_uris":{"android":"levelo://app?vid=093bdc55-7657-4e48-bae6-7a022f735520","ios":"levelo://app?vid=093bdc55-7657-4e48-bae6-7a022f735520"},"vehicle_type_id":"4","last_reported":1748261979,"current_range_meters":8400,"station_id":"ce4bhn92rcd13ifvqgrg","pricing_plan_id":"cebpf4jnsgd1na2vs0mg"},{"bike_id":"e9496718-b841-4999-823d-28c5bee5d6f1","system_id":"levelo_inurba_marseille","lat":43.2654,"lon":5.38996,"is_reserved":false,"is_disabled":false,"rental_uris":{"android":"levelo://app?vid=e9496718-b841-4999-823d-28c5bee5d6f1","ios":"levelo://app?vid=e9496718-b841-4999-823d-28c5bee5d6f1"},"vehicle_type_id":"4","last_reported":1748261979,"current_range_meters":8800,"station_id":"ce4bhe12rcd13ifvqf30","pricing_plan_id":"cebpf4jnsgd1na2vs0mg"},{"bike_id":"7a30af05-2e56-452b-85f7-1973dc82c7f0","system_id":"levelo_inurba_marseille","lat":43.26212,"lon":5.37439,"is_reserved":false,"is_disabled":false,"rental_uris":{"android":"levelo://app?vid=7a30af05-2e56-452b-85f7-1973dc82c7f0","ios":"levelo://app?vid=7a30af05-2e56-452b-85f7-1973dc82c7f0"},"vehicle_type_id":"4","last_reported":1748261979,"current_range_meters":8800,"station_id":"ce4bhgp2rcd13ifvqfc0","pricing_plan_id":"cebpf4jnsgd1na2vs0mg"},{"bike_id":"ba7cb07d-3295-43aa-b540-c499a01a01bc","system_id":"levelo_inurba_marseille","lat":43.25005,"lon":5.3893,"is_reserved":false,"is_disabled":false,"rental_uris":{"android":"levelo://app?vid=ba7cb07d-3295-43aa-b540-c499a01a01bc","ios":"levelo://app?vid=ba7cb07d-3295-43aa-b540-c499a01a01bc"},"vehicle_type_id":"4","last_reported":1748261979,"current_range_meters":8800,"station_id":"ce4bhgp2rcd13ifvqfd0","pricing_plan_id":"cebpf4jnsgd1na2vs0mg"},{"bike_id":"4ecde69a-3a34-421d-8f3c-6a8fe1837c97","system_id":"levelo_inurba_marseille","lat":43.25732,"lon":5.41115,"is_reserved":false,"is_disabled":false,"rental_uris":{"android":"levelo://app?vid=4ecde69a-3a34-421d-8f3c-6a8fe1837c97","ios":"levelo://app?vid=4ecde69a-3a34-421d-8f3c-6a8fe1837c97"},"vehicle_type_id":"4","last_reported":1748261979,"current_range_meters":8800,"station_id":"ce4bhkp2rcd13ifvqgd0","pricing_plan_id":"cebpf4jnsgd1na2vs0mg"},{"bike_id":"8f994793-6ee5-4757-a19c-b0a3a43e07e1","system_id":"levelo_inurba_marseille","lat":43.28437,"lon":5.39186,"is_reserved":false,"is_disabled":false,"rental_uris":{"android":"levelo://app?vid=8f994793-6ee5-4757-a19c-b0a3a43e07e1","ios":"levelo://app?vid=8f994793-6ee5-4757-a19c-b0a3a43e07e1"},"vehicle_type_id":"4","last_reported":1748261979,"current_range_meters":8800,"station_id":"ce4bhoh2rcd13ifvqh5g","pricing_plan_id":"cebpf4jnsgd1na2vs0mg"},{"bike_id":"5e15febb-ae5f-47bf-a021-b162e172b4f7","system_id":"levelo_inurba_marseille","lat":43.3115,"lon":5.3673,"is_reserved":false,"is_disabled":false,"rental_uris":{"android":"levelo://app?vid=5e15febb-ae5f-47bf-a021-b162e172b4f7","ios":"levelo://app?vid=5e15febb-ae5f-47bf-a021-b162e172b4f7"},"vehicle_type_id":"4","last_reported":1748261979,"current_range_meters":9200,"station_id":"","pricing_plan_id":"cebpf4jnsgd1na2vs0mg"},{"bike_id":"232e2c0a-5694-4daf-91e7-5d1005f0e959","system_id":"levelo_inurba_marseille","lat":43.28356,"lon":5.3501,"is_reserved":false,"is_disabled":false,"rental_uris":{"android":"levelo://app?vid=232e2c0a-5694-4daf-91e7-5d1005f0e959","ios":"levelo://app?vid=232e2c0a-5694-4daf-91e7-5d1005f0e959"},"vehicle_type_id":"4","last_reported":1748261979,"current_range_meters":9200,"station_id":"","pricing_plan_id":"cebpf4jnsgd1na2vs0mg"},{"bike_id":"afb689c4-49fc-401e-b4ac-1507284203c2","system_id":"levelo_inurba_marseille","lat":43.30545,"lon":5.36537,"is_reserved":false,"is_disabled":false,"rental_uris":{"android":"levelo://app?vid=afb689c4-49fc-401e-b4ac-1507284203c2","ios":"levelo://app?vid=afb689c4-49fc-401e-b4ac-1507284203c2"},"vehicle_type_id":"4","last_reported":1748261979,"current_range_meters":9200,"station_id":"ce4bgs12rcd13ifvqcag","pricing_plan_id":"cebpf4jnsgd1na2vs0mg"},{"bike_id":"85416650-84c2-4017-b0fa-1f84ddab3d8f","system_id":"levelo_inurba_marseille","lat":43.225037,"lon":5.347847,"is_reserved":false,"is_disabled":false,"rental_uris":{"android":"levelo://app?vid=85416650-84c2-4017-b0fa-1f84ddab3d8f","ios":"levelo://app?vid=85416650-84c2-4017-b0fa-1f84ddab3d8f"},"vehicle_type_id":"4","last_reported":1748261979,"current_range_meters":9200,"station_id":"st_cvj5dfep6f1abm77gieg","pricing_plan_id":"cebpf4jnsgd1na2vs0mg"},{"bike_id":"fc56555b-396d-4667-b896-0ad86036e39e","system_id":"levelo_inurba_marseille","lat":43.25909,"lon":5.38027,"is_reserved":false,"is_disabled":false,"rental_uris":{"android":"levelo://app?vid=fc56555b-396d-4667-b896-0ad86036e39e","ios":"levelo://app?vid=fc56555b-396d-4667-b896-0ad86036e39e"},"vehicle_type_id":"4","last_reported":1748261979,"current_range_meters":9600,"station_id":"","pricing_plan_id":"cebpf4jnsgd1na2vs0mg"},{"bike_id":"efd698cb-2450-498f-9f0b-bfc662548e61","system_id":"levelo_inurba_marseille","lat":43.26596,"lon":5.40328,"is_reserved":false,"is_disabled":false,"rental_uris":{"android":"levelo://app?vid=efd698cb-2450-498f-9f0b-bfc662548e61","ios":"levelo://app?vid=efd698cb-2450-498f-9f0b-bfc662548e61"},"vehicle_type_id":"4","last_reported":1748261979,"current_range_meters":9600,"station_id":"","pricing_plan_id":"cebpf4jnsgd1na2vs0mg"},{"bike_id":"493ce57a-177d-42e5-9e27-e0bed595e61d","system_id":"levelo_inurba_marseille","lat":43.299345,"lon":5.365622,"is_reserved":false,"is_disabled":false,"rental_uris":{"android":"levelo://app?vid=493ce57a-177d-42e5-9e27-e0bed595e61d","ios":"levelo://app?vid=493ce57a-177d-42e5-9e27-e0bed595e61d"},"vehicle_type_id":"4","last_reported":1748261979,"current_range_meters":9600,"station_id":"ce4bgm92rcd13ifvqbr0","pricing_plan_id":"cebpf4jnsgd1na2vs0mg"},{"bike_id":"52e6c115-7a56-4426-835d-625f78ef9631","system_id":"levelo_inurba_marseille","lat":43.30916,"lon":5.39652,"is_reserved":false,"is_disabled":false,"rental_uris":{"android":"levelo://app?vid=52e6c115-7a56-4426-835d-625f78ef9631","ios":"levelo://app?vid=52e6c115-7a56-4426-835d-625f78ef9631"},"vehicle_type_id":"4","last_reported":1748261979,"current_range_meters":9600,"station_id":"ce4bh012rcd13ifvqcv0","pricing_plan_id":"cebpf4jnsgd1na2vs0mg"},{"bike_id":"94e71d48-c4ae-44bc-8267-90f7f2a7b57b","system_id":"levelo_inurba_marseille","lat":43.29009,"lon":5.35609,"is_reserved":false,"is_disabled":false,"rental_uris":{"android":"levelo://app?vid=94e71d48-c4ae-44bc-8267-90f7f2a7b57b","ios":"levelo://app?vid=94e71d48-c4ae-44bc-8267-90f7f2a7b57b"},"vehicle_type_id":"4","last_reported":1748261979,"current_range_meters":9600,"station_id":"ce4bhb92rcd13ifvqen0","pricing_plan_id":"cebpf4jnsgd1na2vs0mg"},{"bike_id":"dc5af9f7-7931-47bb-b92a-d6d9da1ff218","system_id":"levelo_inurba_marseille","lat":43.26799,"lon":5.402671,"is_reserved":false,"is_disabled":false,"rental_uris":{"android":"levelo://app?vid=dc5af9f7-7931-47bb-b92a-d6d9da1ff218","ios":"levelo://app?vid=dc5af9f7-7931-47bb-b92a-d6d9da1ff218"},"vehicle_type_id":"4","last_reported":1748261979,"current_range_meters":9600,"station_id":"ce501612rcd8frsf0b60","pricing_plan_id":"cebpf4jnsgd1na2vs0mg"},{"bike_id":"db5be3b4-7e27-4b25-b860-e53de44a8a34","system_id":"levelo_inurba_marseille","lat":43.26567,"lon":5.40325,"is_reserved":false,"is_disabled":false,"rental_uris":{"android":"levelo://app?vid=db5be3b4-7e27-4b25-b860-e53de44a8a34","ios":"levelo://app?vid=db5be3b4-7e27-4b25-b860-e53de44a8a34"},"vehicle_type_id":"4","last_reported":1748261979,"current_range_meters":10000,"station_id":"","pricing_plan_id":"cebpf4jnsgd1na2vs0mg"},{"bike_id":"a4aef2b9-b7e8-4e2d-8340-592d28bc6c85","system_id":"levelo_inurba_marseille","lat":43.337654,"lon":5.37434,"is_reserved":false,"is_disabled":false,"rental_uris":{"android":"levelo://app?vid=a4aef2b9-b7e8-4e2d-8340-592d28bc6c85","ios":"levelo://app?vid=a4aef2b9-b7e8-4e2d-8340-592d28bc6c85"},"vehicle_type_id":"4","last_reported":1748261979,"current_range_meters":10000,"station_id":"","pricing_plan_id":"cebpf4jnsgd1na2vs0mg"},{"bike_id":"b744080c-dd77-486d-9609-00c9cf60c1ad","system_id":"levelo_inurba_marseille","lat":43.236127,"lon":5.392163,"is_reserved":false,"is_disabled":false,"rental_uris":{"android":"levelo://app?vid=b744080c-dd77-486d-9609-00c9cf60c1ad","ios":"levelo://app?vid=b744080c-dd77-486d-9609-00c9cf60c1ad"},"vehicle_type_id":"4","last_reported":1748261979,"current_range_meters":10000,"station_id":"","pricing_plan_id":"cebpf4jnsgd1na2vs0mg"},{"bike_id":"ede017e1-e7c0-43c3-8fd0-f30e7db5204d","system_id":"levelo_inurba_marseille","lat":43.31011,"lon":5.40041,"is_reserved":false,"is_disabled":false,"rental_uris":{"android":"levelo://app?vid=ede017e1-e7c0-43c3-8fd0-f30e7db5204d","ios":"levelo://app?vid=ede017e1-e7c0-43c3-8fd0-f30e7db5204d"},"vehicle_type_id":"4","last_reported":1748261979,"current_range_meters":10000,"station_id":"","pricing_plan_id":"cebpf4jnsgd1na2vs0mg"},{"bike_id":"e0a9721e-6d27-4979-bc97-1c437eebe1ea","system_id":"levelo_inurba_marseille","lat":43.30195,"lon":5.36624,"is_reserved":false,"is_disabled":false,"rental_uris":{"android":"levelo://app?vid=e0a9721e-6d27-4979-bc97-1c437eebe1ea","ios":"levelo://app?vid=e0a9721e-6d27-4979-bc97-1c437eebe1ea"},"vehicle_type_id":"4","last_reported":1748261979,"current_range_meters":10000,"station_id":"ce4bgrh2rcd13ifvqc8g","pricing_plan_id":"cebpf4jnsgd1na2vs0mg"},{"bike_id":"0a78a4cc-823b-4914-83c5-d2143f46dd25","system_id":"levelo_inurba_marseille","lat":43.305381,"lon":5.367001,"is_reserved":false,"is_disabled":false,"rental_uris":{"android":"levelo://app?vid=0a78a4cc-823b-4914-83c5-d2143f46dd25","ios":"levelo://app?vid=0a78a4cc-823b-4914-83c5-d2143f46dd25"},"vehicle_type_id":"4","last_reported":1748261979,"current_range_meters":10000,"station_id":"ce4bgrp2rcd13ifvqc9g","pricing_plan_id":"cebpf4jnsgd1na2vs0mg"},{"bike_id":"cb6a8079-5040-46fc-9151-a1fd65bd09ef","system_id":"levelo_inurba_marseille","lat":43.2467,"lon":5.38151,"is_reserved":false,"is_disabled":false,"rental_uris":{"android":"levelo://app?vid=cb6a8079-5040-46fc-9151-a1fd65bd09ef","ios":"levelo://app?vid=cb6a8079-5040-46fc-9151-a1fd65bd09ef"},"vehicle_type_id":"4","last_reported":1748261979,"current_range_meters":10000,"station_id":"ce4bhih2rcd13ifvqfr0","pricing_plan_id":"cebpf4jnsgd1na2vs0mg"},{"bike_id":"874fba91-fbda-4288-b17f-8759eec81e80","system_id":"levelo_inurba_marseille","lat":43.27073,"lon":5.42272,"is_reserved":false,"is_disabled":false,"rental_uris":{"android":"levelo://app?vid=874fba91-fbda-4288-b17f-8759eec81e80","ios":"levelo://app?vid=874fba91-fbda-4288-b17f-8759eec81e80"},"vehicle_type_id":"4","last_reported":1748261979,"current_range_meters":10000,"station_id":"ce4bhk92rcd13ifvqgb0","pricing_plan_id":"cebpf4jnsgd1na2vs0mg"},{"bike_id":"c9665248-b209-446b-8b05-7f742151c86a","system_id":"levelo_inurba_marseille","lat":43.28154,"lon":5.42645,"is_reserved":false,"is_disabled":false,"rental_uris":{"android":"levelo://app?vid=c9665248-b209-446b-8b05-7f742151c86a","ios":"levelo://app?vid=c9665248-b209-446b-8b05-7f742151c86a"},"vehicle_type_id":"4","last_reported":1748261979,"current_range_meters":10000,"station_id":"ce4bhnh2rcd13ifvqgug","pricing_plan_id":"cebpf4jnsgd1na2vs0mg"},{"bike_id":"2f164495-82dd-4026-b490-26ec204a426a","system_id":"levelo_inurba_marseille","lat":43.32086,"lon":5.36807,"is_reserved":false,"is_disabled":false,"rental_uris":{"android":"levelo://app?vid=2f164495-82dd-4026-b490-26ec204a426a","ios":"levelo://app?vid=2f164495-82dd-4026-b490-26ec204a426a"},"vehicle_type_id":"4","last_reported":1748261979,"current_range_meters":10000,"station_id":"ce4bhrh2rcd13ifvqhug","pricing_plan_id":"cebpf4jnsgd1na2vs0mg"},{"bike_id":"9296ede0-df1b-45b7-8869-7fa5562591e6","system_id":"levelo_inurba_marseille","lat":43.30412,"lon":5.3783,"is_reserved":false,"is_disabled":false,"rental_uris":{"android":"levelo://app?vid=9296ede0-df1b-45b7-8869-7fa5562591e6","ios":"levelo://app?vid=9296ede0-df1b-45b7-8869-7fa5562591e6"},"vehicle_type_id":"4","last_reported":1748261979,"current_range_meters":10800,"station_id":"","pricing_plan_id":"cebpf4jnsgd1na2vs0mg"},{"bike_id":"6a4612f8-d511-472f-9784-e69bac545256","system_id":"levelo_inurba_marseille","lat":43.29021,"lon":5.3664,"is_reserved":false,"is_disabled":false,"rental_uris":{"android":"levelo://app?vid=6a4612f8-d511-472f-9784-e69bac545256","ios":"levelo://app?vid=6a4612f8-d511-472f-9784-e69bac545256"},"vehicle_type_id":"4","last_reported":1748261979,"current_range_meters":10800,"station_id":"","pricing_plan_id":"cebpf4jnsgd1na2vs0mg"},{"bike_id":"faaa0643-dba9-40a9-8627-2c24953071f4","system_id":"levelo_inurba_marseille","lat":43.31387,"lon":5.36776,"is_reserved":false,"is_disabled":false,"rental_uris":{"android":"levelo://app?vid=faaa0643-dba9-40a9-8627-2c24953071f4","ios":"levelo://app?vid=faaa0643-dba9-40a9-8627-2c24953071f4"},"vehicle_type_id":"4","last_reported":1748261979,"current_range_meters":10800,"station_id":"","pricing_plan_id":"cebpf4jnsgd1na2vs0mg"},{"bike_id":"3153a4d2-2e6b-4422-ba46-2ff8426b1a9e","system_id":"levelo_inurba_marseille","lat":43.312284,"lon":5.368753,"is_reserved":false,"is_disabled":false,"rental_uris":{"android":"levelo://app?vid=3153a4d2-2e6b-4422-ba46-2ff8426b1a9e","ios":"levelo://app?vid=3153a4d2-2e6b-4422-ba46-2ff8426b1a9e"},"vehicle_type_id":"4","last_reported":1748261979,"current_range_meters":10800,"station_id":"","pricing_plan_id":"cebpf4jnsgd1na2vs0mg"},{"bike_id":"ea49dde5-4ec7-4f9c-89e7-427cfb52c6da","system_id":"levelo_inurba_marseille","lat":43.29037,"lon":5.39967,"is_reserved":false,"is_disabled":false,"rental_uris":{"android":"levelo://app?vid=ea49dde5-4ec7-4f9c-89e7-427cfb52c6da","ios":"levelo://app?vid=ea49dde5-4ec7-4f9c-89e7-427cfb52c6da"},"vehicle_type_id":"4","last_reported":1748261979,"current_range_meters":10800,"station_id":"ce4bh392rcd13ifvqdm0","pricing_plan_id":"cebpf4jnsgd1na2vs0mg"},{"bike_id":"8d12431d-3854-469d-8f63-ac2e21770a8a","system_id":"levelo_inurba_marseille","lat":43.2846,"lon":5.35893,"is_reserved":false,"is_disabled":false,"rental_uris":{"android":"levelo://app?vid=8d12431d-3854-469d-8f63-ac2e21770a8a","ios":"levelo://app?vid=8d12431d-3854-469d-8f63-ac2e21770a8a"},"vehicle_type_id":"4","last_reported":1748261979,"current_range_meters":10800,"station_id":"ce4bhah2rcd13ifvqei0","pricing_plan_id":"cebpf4jnsgd1na2vs0mg"},{"bike_id":"52384be6-595f-46c4-bcad-7b8f0107f389","system_id":"levelo_inurba_marseille","lat":43.28855,"lon":5.35863,"is_reserved":false,"is_disabled":false,"rental_uris":{"android":"levelo://app?vid=52384be6-595f-46c4-bcad-7b8f0107f389","ios":"levelo://app?vid=52384be6-595f-46c4-bcad-7b8f0107f389"},"vehicle_type_id":"4","last_reported":1748261979,"current_range_meters":10800,"station_id":"ce4bhb12rcd13ifvqem0","pricing_plan_id":"cebpf4jnsgd1na2vs0mg"},{"bike_id":"5e66b624-5b62-45e6-91b3-f683934a172d","system_id":"levelo_inurba_marseille","lat":43.28413,"lon":5.34986,"is_reserved":false,"is_disabled":false,"rental_uris":{"android":"levelo://app?vid=5e66b624-5b62-45e6-91b3-f683934a172d","ios":"levelo://app?vid=5e66b624-5b62-45e6-91b3-f683934a172d"},"vehicle_type_id":"4","last_reported":1748261979,"current_range_meters":10800,"station_id":"ce4bhbh2rcd13ifvqepg","pricing_plan_id":"cebpf4jnsgd1na2vs0mg"},{"bike_id":"1fdc04e0-a3fa-40eb-8825-c327f4a93fb4","system_id":"levelo_inurba_marseille","lat":43.2842,"lon":5.34988,"is_reserved":false,"is_disabled":false,"rental_uris":{"android":"levelo://app?vid=1fdc04e0-a3fa-40eb-8825-c327f4a93fb4","ios":"levelo://app?vid=1fdc04e0-a3fa-40eb-8825-c327f4a93fb4"},"vehicle_type_id":"4","last_reported":1748261979,"current_range_meters":10800,"station_id":"ce4bhbh2rcd13ifvqepg","pricing_plan_id":"cebpf4jnsgd1na2vs0mg"},{"bike_id":"2ab425df-f098-4d4c-9f0f-0268f615f355","system_id":"levelo_inurba_marseille","lat":43.24803,"lon":5.37451,"is_reserved":false,"is_disabled":false,"rental_uris":{"android":"levelo://app?vid=2ab425df-f098-4d4c-9f0f-0268f615f355","ios":"levelo://app?vid=2ab425df-f098-4d4c-9f0f-0268f615f355"},"vehicle_type_id":"4","last_reported":1748261979,"current_range_meters":10800,"station_id":"ce4bhgh2rcd13ifvqfb0","pricing_plan_id":"cebpf4jnsgd1na2vs0mg"},{"bike_id":"f6c6d614-57aa-42d2-bd57-8b2141b94c79","system_id":"levelo_inurba_marseille","lat":43.2573,"lon":5.41106,"is_reserved":false,"is_disabled":false,"rental_uris":{"android":"levelo://app?vid=f6c6d614-57aa-42d2-bd57-8b2141b94c79","ios":"levelo://app?vid=f6c6d614-57aa-42d2-bd57-8b2141b94c79"},"vehicle_type_id":"4","last_reported":1748261979,"current_range_meters":10800,"station_id":"ce4bhkp2rcd13ifvqgd0","pricing_plan_id":"cebpf4jnsgd1na2vs0mg"},{"bike_id":"41d795fd-6b15-4eca-98cc-80356500dbfe","system_id":"levelo_inurba_marseille","lat":43.24167,"lon":5.36411,"is_reserved":false,"is_disabled":false,"rental_uris":{"android":"levelo://app?vid=41d795fd-6b15-4eca-98cc-80356500dbfe","ios":"levelo://app?vid=41d795fd-6b15-4eca-98cc-80356500dbfe"},"vehicle_type_id":"4","last_reported":1748261979,"current_range_meters":10800,"station_id":"cpo36qri1sfpv3e86is0","pricing_plan_id":"cebpf4jnsgd1na2vs0mg"},{"bike_id":"7bb5b0f6-df42-4247-9499-de2477675896","system_id":"levelo_inurba_marseille","lat":43.30974,"lon":5.39037,"is_reserved":false,"is_disabled":false,"rental_uris":{"android":"levelo://app?vid=7bb5b0f6-df42-4247-9499-de2477675896","ios":"levelo://app?vid=7bb5b0f6-df42-4247-9499-de2477675896"},"vehicle_type_id":"4","last_reported":1748261979,"current_range_meters":11200,"station_id":"ce4bgup2rcd13ifvqco0","pricing_plan_id":"cebpf4jnsgd1na2vs0mg"},{"bike_id":"d40a1c83-2cc2-4a91-a181-02596dcb48f9","system_id":"levelo_inurba_marseille","lat":43.284164,"lon":5.349765,"is_reserved":false,"is_disabled":false,"rental_uris":{"android":"levelo://app?vid=d40a1c83-2cc2-4a91-a181-02596dcb48f9","ios":"levelo://app?vid=d40a1c83-2cc2-4a91-a181-02596dcb48f9"},"vehicle_type_id":"4","last_reported":1748261979,"current_range_meters":11600,"station_id":"","pricing_plan_id":"cebpf4jnsgd1na2vs0mg"},{"bike_id":"a876743d-3dea-49c4-ac0f-f44ae78983d8","system_id":"levelo_inurba_marseille","lat":43.30541,"lon":5.36738,"is_reserved":false,"is_disabled":false,"rental_uris":{"android":"levelo://app?vid=a876743d-3dea-49c4-ac0f-f44ae78983d8","ios":"levelo://app?vid=a876743d-3dea-49c4-ac0f-f44ae78983d8"},"vehicle_type_id":"4","last_reported":1748261979,"current_range_meters":11600,"station_id":"ce4bgrp2rcd13ifvqc9g","pricing_plan_id":"cebpf4jnsgd1na2vs0mg"},{"bike_id":"bd9186be-ebcb-40cf-8343-269b906cd670","system_id":"levelo_inurba_marseille","lat":43.26563,"lon":5.37284,"is_reserved":false,"is_disabled":false,"rental_uris":{"android":"levelo://app?vid=bd9186be-ebcb-40cf-8343-269b906cd670","ios":"levelo://app?vid=bd9186be-ebcb-40cf-8343-269b906cd670"},"vehicle_type_id":"4","last_reported":1748261979,"current_range_meters":11600,"station_id":"ce4bhg12rcd13ifvqf70","pricing_plan_id":"cebpf4jnsgd1na2vs0mg"},{"bike_id":"167fa96f-ff31-412e-ab00-f5e6f506d218","system_id":"levelo_inurba_marseille","lat":43.26943,"lon":5.38921,"is_reserved":false,"is_disabled":false,"rental_uris":{"android":"levelo://app?vid=167fa96f-ff31-412e-ab00-f5e6f506d218","ios":"levelo://app?vid=167fa96f-ff31-412e-ab00-f5e6f506d218"},"vehicle_type_id":"4","last_reported":1748261979,"current_range_meters":11600,"station_id":"ce4bhhh2rcd13ifvqfl0","pricing_plan_id":"cebpf4jnsgd1na2vs0mg"},{"bike_id":"276ce275-23ac-4c99-8cd0-315c5fc04a67","system_id":"levelo_inurba_marseille","lat":43.26201,"lon":5.37931,"is_reserved":false,"is_disabled":false,"rental_uris":{"android":"levelo://app?vid=276ce275-23ac-4c99-8cd0-315c5fc04a67","ios":"levelo://app?vid=276ce275-23ac-4c99-8cd0-315c5fc04a67"},"vehicle_type_id":"4","last_reported":1748261979,"current_range_meters":11600,"station_id":"ce4bhjp2rcd13ifvqg90","pricing_plan_id":"cebpf4jnsgd1na2vs0mg"},{"bike_id":"6a17cecb-9cd2-43e7-8c71-ebb38aa41cc3","system_id":"levelo_inurba_marseille","lat":43.24199,"lon":5.39719,"is_reserved":false,"is_disabled":false,"rental_uris":{"android":"levelo://app?vid=6a17cecb-9cd2-43e7-8c71-ebb38aa41cc3","ios":"levelo://app?vid=6a17cecb-9cd2-43e7-8c71-ebb38aa41cc3"},"vehicle_type_id":"4","last_reported":1748261979,"current_range_meters":11600,"station_id":"ce4bhn12rcd13ifvqgpg","pricing_plan_id":"cebpf4jnsgd1na2vs0mg"},{"bike_id":"ff49282d-035c-4051-94a4-d625a935ca6b","system_id":"levelo_inurba_marseille","lat":43.21753,"lon":5.34595,"is_reserved":false,"is_disabled":false,"rental_uris":{"android":"levelo://app?vid=ff49282d-035c-4051-94a4-d625a935ca6b","ios":"levelo://app?vid=ff49282d-035c-4051-94a4-d625a935ca6b"},"vehicle_type_id":"4","last_reported":1748261979,"current_range_meters":11600,"station_id":"st_cvj6r9ubvosntc0bgbag","pricing_plan_id":"cebpf4jnsgd1na2vs0mg"},{"bike_id":"e39feee9-df76-4d1a-97e7-b17919b52124","system_id":"levelo_inurba_marseille","lat":43.30138,"lon":5.38776,"is_reserved":false,"is_disabled":false,"rental_uris":{"android":"levelo://app?vid=e39feee9-df76-4d1a-97e7-b17919b52124","ios":"levelo://app?vid=e39feee9-df76-4d1a-97e7-b17919b52124"},"vehicle_type_id":"4","last_reported":1748261979,"current_range_meters":12000,"station_id":"ce4bghh2rcd13ifvqb60","pricing_plan_id":"cebpf4jnsgd1na2vs0mg"},{"bike_id":"d66dc5cc-6934-49c4-b117-f628e97db186","system_id":"levelo_inurba_marseille","lat":43.315048,"lon":5.372838,"is_reserved":false,"is_disabled":false,"rental_uris":{"android":"levelo://app?vid=d66dc5cc-6934-49c4-b117-f628e97db186","ios":"levelo://app?vid=d66dc5cc-6934-49c4-b117-f628e97db186"},"vehicle_type_id":"4","last_reported":1748261979,"current_range_meters":12000,"station_id":"ce4bgt12rcd13ifvqcd0","pricing_plan_id":"cebpf4jnsgd1na2vs0mg"},{"bike_id":"3be26996-e0bc-42b9-8371-d9d9f2621cbb","system_id":"levelo_inurba_marseille","lat":43.2827,"lon":5.35077,"is_reserved":false,"is_disabled":false,"rental_uris":{"android":"levelo://app?vid=3be26996-e0bc-42b9-8371-d9d9f2621cbb","ios":"levelo://app?vid=3be26996-e0bc-42b9-8371-d9d9f2621cbb"},"vehicle_type_id":"4","last_reported":1748261979,"current_range_meters":12000,"station_id":"ce4bhbp2rcd13ifvqerg","pricing_plan_id":"cebpf4jnsgd1na2vs0mg"},{"bike_id":"37acb92e-f447-4d4d-9ade-df67e06ec3d7","system_id":"levelo_inurba_marseille","lat":43.25868,"lon":5.39906,"is_reserved":false,"is_disabled":false,"rental_uris":{"android":"levelo://app?vid=37acb92e-f447-4d4d-9ade-df67e06ec3d7","ios":"levelo://app?vid=37acb92e-f447-4d4d-9ade-df67e06ec3d7"},"vehicle_type_id":"4","last_reported":1748261979,"current_range_meters":12000,"station_id":"ce4bhl92rcd13ifvqghg","pricing_plan_id":"cebpf4jnsgd1na2vs0mg"},{"bike_id":"3ff42c11-27f4-428e-bfe1-3bfa32ca2c0b","system_id":"levelo_inurba_marseille","lat":43.2407,"lon":5.37764,"is_reserved":false,"is_disabled":false,"rental_uris":{"android":"levelo://app?vid=3ff42c11-27f4-428e-bfe1-3bfa32ca2c0b","ios":"levelo://app?vid=3ff42c11-27f4-428e-bfe1-3bfa32ca2c0b"},"vehicle_type_id":"4","last_reported":1748261979,"current_range_meters":12000,"station_id":"ce4bhnp2rcd13ifvqgvg","pricing_plan_id":"cebpf4jnsgd1na2vs0mg"},{"bike_id":"b784ac63-cd40-47ac-9a60-554b4bf98a63","system_id":"levelo_inurba_marseille","lat":43.29897,"lon":5.4367,"is_reserved":false,"is_disabled":false,"rental_uris":{"android":"levelo://app?vid=b784ac63-cd40-47ac-9a60-554b4bf98a63","ios":"levelo://app?vid=b784ac63-cd40-47ac-9a60-554b4bf98a63"},"vehicle_type_id":"4","last_reported":1748261979,"current_range_meters":12000,"station_id":"ce4bhpp2rcd13ifvqhfg","pricing_plan_id":"cebpf4jnsgd1na2vs0mg"},{"bike_id":"d2f6b88b-979d-490c-a258-4fe2e1e819d8","system_id":"levelo_inurba_marseille","lat":43.302806,"lon":5.376978,"is_reserved":false,"is_disabled":false,"rental_uris":{"android":"levelo://app?vid=d2f6b88b-979d-490c-a258-4fe2e1e819d8","ios":"levelo://app?vid=d2f6b88b-979d-490c-a258-4fe2e1e819d8"},"vehicle_type_id":"4","last_reported":1748261979,"current_range_meters":12400,"station_id":"","pricing_plan_id":"cebpf4jnsgd1na2vs0mg"},{"bike_id":"34fff8c5-a201-414f-b7a4-b52d5144c306","system_id":"levelo_inurba_marseille","lat":43.254969,"lon":5.37649,"is_reserved":false,"is_disabled":false,"rental_uris":{"android":"levelo://app?vid=34fff8c5-a201-414f-b7a4-b52d5144c306","ios":"levelo://app?vid=34fff8c5-a201-414f-b7a4-b52d5144c306"},"vehicle_type_id":"4","last_reported":1748261979,"current_range_meters":12400,"station_id":"","pricing_plan_id":"cebpf4jnsgd1na2vs0mg"},{"bike_id":"d3500d37-cf39-4611-b528-d4b4e5756a4a","system_id":"levelo_inurba_marseille","lat":43.27381,"lon":5.36258,"is_reserved":false,"is_disabled":false,"rental_uris":{"android":"levelo://app?vid=d3500d37-cf39-4611-b528-d4b4e5756a4a","ios":"levelo://app?vid=d3500d37-cf39-4611-b528-d4b4e5756a4a"},"vehicle_type_id":"4","last_reported":1748261979,"current_range_meters":12400,"station_id":"ce4bhbh2rcd13ifvqeo0","pricing_plan_id":"cebpf4jnsgd1na2vs0mg"},{"bike_id":"c8a45744-4ed9-4cb2-87e4-9a6bdb61d2da","system_id":"levelo_inurba_marseille","lat":43.28272,"lon":5.35055,"is_reserved":false,"is_disabled":false,"rental_uris":{"android":"levelo://app?vid=c8a45744-4ed9-4cb2-87e4-9a6bdb61d2da","ios":"levelo://app?vid=c8a45744-4ed9-4cb2-87e4-9a6bdb61d2da"},"vehicle_type_id":"4","last_reported":1748261979,"current_range_meters":12400,"station_id":"ce4bhbp2rcd13ifvqerg","pricing_plan_id":"cebpf4jnsgd1na2vs0mg"},{"bike_id":"09048e09-b046-4597-bf3c-5a9c4c1a14fd","system_id":"levelo_inurba_marseille","lat":43.281579,"lon":5.426439,"is_reserved":false,"is_disabled":false,"rental_uris":{"android":"levelo://app?vid=09048e09-b046-4597-bf3c-5a9c4c1a14fd","ios":"levelo://app?vid=09048e09-b046-4597-bf3c-5a9c4c1a14fd"},"vehicle_type_id":"4","last_reported":1748261979,"current_range_meters":12400,"station_id":"ce4bhnh2rcd13ifvqgug","pricing_plan_id":"cebpf4jnsgd1na2vs0mg"},{"bike_id":"a03d13b6-05e7-4e6e-b3b2-3a84a70fc4ba","system_id":"levelo_inurba_marseille","lat":43.28441,"lon":5.39211,"is_reserved":false,"is_disabled":false,"rental_uris":{"android":"levelo://app?vid=a03d13b6-05e7-4e6e-b3b2-3a84a70fc4ba","ios":"levelo://app?vid=a03d13b6-05e7-4e6e-b3b2-3a84a70fc4ba"},"vehicle_type_id":"4","last_reported":1748261979,"current_range_meters":12400,"station_id":"ce4bhoh2rcd13ifvqh5g","pricing_plan_id":"cebpf4jnsgd1na2vs0mg"},{"bike_id":"f0db987f-7a9b-45df-8e26-1d773e43b6e4","system_id":"levelo_inurba_marseille","lat":43.31713,"lon":5.43697,"is_reserved":false,"is_disabled":false,"rental_uris":{"android":"levelo://app?vid=f0db987f-7a9b-45df-8e26-1d773e43b6e4","ios":"levelo://app?vid=f0db987f-7a9b-45df-8e26-1d773e43b6e4"},"vehicle_type_id":"4","last_reported":1748261979,"current_range_meters":12400,"station_id":"ce4bhp92rcd13ifvqhcg","pricing_plan_id":"cebpf4jnsgd1na2vs0mg"},{"bike_id":"5148f8b2-1ecb-4c76-b37d-928f8d5cde64","system_id":"levelo_inurba_marseille","lat":43.3232,"lon":5.367895,"is_reserved":false,"is_disabled":false,"rental_uris":{"android":"levelo://app?vid=5148f8b2-1ecb-4c76-b37d-928f8d5cde64","ios":"levelo://app?vid=5148f8b2-1ecb-4c76-b37d-928f8d5cde64"},"vehicle_type_id":"4","last_reported":1748261979,"current_range_meters":12400,"station_id":"ce4bhsh2rcd13ifvqi2g","pricing_plan_id":"cebpf4jnsgd1na2vs0mg"},{"bike_id":"f5ae3080-2b63-49bb-80c7-58f068c3a42a","system_id":"levelo_inurba_marseille","lat":43.30797,"lon":5.37238,"is_reserved":false,"is_disabled":false,"rental_uris":{"android":"levelo://app?vid=f5ae3080-2b63-49bb-80c7-58f068c3a42a","ios":"levelo://app?vid=f5ae3080-2b63-49bb-80c7-58f068c3a42a"},"vehicle_type_id":"4","last_reported":1748261979,"current_range_meters":12800,"station_id":"","pricing_plan_id":"cebpf4jnsgd1na2vs0mg"},{"bike_id":"42b84312-eb3b-43d0-872a-b45972757dee","system_id":"levelo_inurba_marseille","lat":43.28416,"lon":5.34995,"is_reserved":false,"is_disabled":false,"rental_uris":{"android":"levelo://app?vid=42b84312-eb3b-43d0-872a-b45972757dee","ios":"levelo://app?vid=42b84312-eb3b-43d0-872a-b45972757dee"},"vehicle_type_id":"4","last_reported":1748261979,"current_range_meters":12800,"station_id":"ce4bhbh2rcd13ifvqepg","pricing_plan_id":"cebpf4jnsgd1na2vs0mg"},{"bike_id":"e9d0bdea-737a-4e0b-83de-ef7583bde06c","system_id":"levelo_inurba_marseille","lat":43.28446,"lon":5.39188,"is_reserved":false,"is_disabled":false,"rental_uris":{"android":"levelo://app?vid=e9d0bdea-737a-4e0b-83de-ef7583bde06c","ios":"levelo://app?vid=e9d0bdea-737a-4e0b-83de-ef7583bde06c"},"vehicle_type_id":"4","last_reported":1748261979,"current_range_meters":12800,"station_id":"ce4bhoh2rcd13ifvqh5g","pricing_plan_id":"cebpf4jnsgd1na2vs0mg"},{"bike_id":"c7f6985e-4ae6-44a7-9a4f-5818470e9c1a","system_id":"levelo_inurba_marseille","lat":43.31327,"lon":5.36802,"is_reserved":false,"is_disabled":false,"rental_uris":{"android":"levelo://app?vid=c7f6985e-4ae6-44a7-9a4f-5818470e9c1a","ios":"levelo://app?vid=c7f6985e-4ae6-44a7-9a4f-5818470e9c1a"},"vehicle_type_id":"4","last_reported":1748261979,"current_range_meters":13600,"station_id":"","pricing_plan_id":"cebpf4jnsgd1na2vs0mg"},{"bike_id":"ae6e6868-2635-4f49-b7c1-b03759c58ec7","system_id":"levelo_inurba_marseille","lat":43.27279,"lon":5.41583,"is_reserved":false,"is_disabled":false,"rental_uris":{"android":"levelo://app?vid=ae6e6868-2635-4f49-b7c1-b03759c58ec7","ios":"levelo://app?vid=ae6e6868-2635-4f49-b7c1-b03759c58ec7"},"vehicle_type_id":"4","last_reported":1748261979,"current_range_meters":13600,"station_id":"","pricing_plan_id":"cebpf4jnsgd1na2vs0mg"},{"bike_id":"c29f3832-daec-4804-bd21-f4b7d65ec6d2","system_id":"levelo_inurba_marseille","lat":43.30881,"lon":5.36843,"is_reserved":false,"is_disabled":false,"rental_uris":{"android":"levelo://app?vid=c29f3832-daec-4804-bd21-f4b7d65ec6d2","ios":"levelo://app?vid=c29f3832-daec-4804-bd21-f4b7d65ec6d2"},"vehicle_type_id":"4","last_reported":1748261979,"current_range_meters":13600,"station_id":"ce4bgn92rcd13ifvqbvg","pricing_plan_id":"cebpf4jnsgd1na2vs0mg"},{"bike_id":"b5e6602b-63d1-4443-aa59-2f0498fc3b7f","system_id":"levelo_inurba_marseille","lat":43.29969,"lon":5.37168,"is_reserved":false,"is_disabled":false,"rental_uris":{"android":"levelo://app?vid=b5e6602b-63d1-4443-aa59-2f0498fc3b7f","ios":"levelo://app?vid=b5e6602b-63d1-4443-aa59-2f0498fc3b7f"},"vehicle_type_id":"4","last_reported":1748261979,"current_range_meters":13600,"station_id":"ce4bgr92rcd13ifvqc7g","pricing_plan_id":"cebpf4jnsgd1na2vs0mg"},{"bike_id":"ec91cabf-a709-434f-9b7a-79e87bb55517","system_id":"levelo_inurba_marseille","lat":43.3094,"lon":5.39047,"is_reserved":false,"is_disabled":false,"rental_uris":{"android":"levelo://app?vid=ec91cabf-a709-434f-9b7a-79e87bb55517","ios":"levelo://app?vid=ec91cabf-a709-434f-9b7a-79e87bb55517"},"vehicle_type_id":"4","last_reported":1748261979,"current_range_meters":13600,"station_id":"ce4bgup2rcd13ifvqco0","pricing_plan_id":"cebpf4jnsgd1na2vs0mg"},{"bike_id":"a01871bb-3659-4297-979b-e4d3cf9ec85a","system_id":"levelo_inurba_marseille","lat":43.23061,"lon":5.3549,"is_reserved":false,"is_disabled":false,"rental_uris":{"android":"levelo://app?vid=a01871bb-3659-4297-979b-e4d3cf9ec85a","ios":"levelo://app?vid=a01871bb-3659-4297-979b-e4d3cf9ec85a"},"vehicle_type_id":"4","last_reported":1748261979,"current_range_meters":13600,"station_id":"cpo3342slgdg3j2ifvpg","pricing_plan_id":"cebpf4jnsgd1na2vs0mg"},{"bike_id":"f06e6bac-6704-40c2-bdac-3d1be6ccfacf","system_id":"levelo_inurba_marseille","lat":43.21763,"lon":5.34603,"is_reserved":false,"is_disabled":false,"rental_uris":{"android":"levelo://app?vid=f06e6bac-6704-40c2-bdac-3d1be6ccfacf","ios":"levelo://app?vid=f06e6bac-6704-40c2-bdac-3d1be6ccfacf"},"vehicle_type_id":"4","last_reported":1748261979,"current_range_meters":13600,"station_id":"st_cvj6r9ubvosntc0bgbag","pricing_plan_id":"cebpf4jnsgd1na2vs0mg"},{"bike_id":"1a0998e5-8bb9-474f-a827-53cad24c9e8f","system_id":"levelo_inurba_marseille","lat":43.32022,"lon":5.44967,"is_reserved":false,"is_disabled":false,"rental_uris":{"android":"levelo://app?vid=1a0998e5-8bb9-474f-a827-53cad24c9e8f","ios":"levelo://app?vid=1a0998e5-8bb9-474f-a827-53cad24c9e8f"},"vehicle_type_id":"4","last_reported":1748261979,"current_range_meters":14000,"station_id":"","pricing_plan_id":"cebpf4jnsgd1na2vs0mg"},{"bike_id":"0392038a-3392-4e28-a455-57c5187a4d9e","system_id":"levelo_inurba_marseille","lat":43.28474,"lon":5.38417,"is_reserved":false,"is_disabled":false,"rental_uris":{"android":"levelo://app?vid=0392038a-3392-4e28-a455-57c5187a4d9e","ios":"levelo://app?vid=0392038a-3392-4e28-a455-57c5187a4d9e"},"vehicle_type_id":"4","last_reported":1748261979,"current_range_meters":14000,"station_id":"ce4bh512rcd13ifvqe3g","pricing_plan_id":"cebpf4jnsgd1na2vs0mg"},{"bike_id":"3f6cfcb0-6862-47f4-b78e-5b59fd21e90a","system_id":"levelo_inurba_marseille","lat":43.28625,"lon":5.35089,"is_reserved":false,"is_disabled":false,"rental_uris":{"android":"levelo://app?vid=3f6cfcb0-6862-47f4-b78e-5b59fd21e90a","ios":"levelo://app?vid=3f6cfcb0-6862-47f4-b78e-5b59fd21e90a"},"vehicle_type_id":"4","last_reported":1748261979,"current_range_meters":14000,"station_id":"ce4bhch2rcd13ifvqeug","pricing_plan_id":"cebpf4jnsgd1na2vs0mg"},{"bike_id":"35c56e96-d829-422c-be0a-299fe2132e12","system_id":"levelo_inurba_marseille","lat":43.2593,"lon":5.40872,"is_reserved":false,"is_disabled":false,"rental_uris":{"android":"levelo://app?vid=35c56e96-d829-422c-be0a-299fe2132e12","ios":"levelo://app?vid=35c56e96-d829-422c-be0a-299fe2132e12"},"vehicle_type_id":"4","last_reported":1748261979,"current_range_meters":14000,"station_id":"ce4bhm92rcd13ifvqglg","pricing_plan_id":"cebpf4jnsgd1na2vs0mg"},{"bike_id":"10df70d1-29fa-4378-9df0-d124b301a79d","system_id":"levelo_inurba_marseille","lat":43.21766,"lon":5.34632,"is_reserved":false,"is_disabled":false,"rental_uris":{"android":"levelo://app?vid=10df70d1-29fa-4378-9df0-d124b301a79d","ios":"levelo://app?vid=10df70d1-29fa-4378-9df0-d124b301a79d"},"vehicle_type_id":"4","last_reported":1748261979,"current_range_meters":14000,"station_id":"st_cvj6r9ubvosntc0bgbag","pricing_plan_id":"cebpf4jnsgd1na2vs0mg"},{"bike_id":"f05d834d-f458-4564-99f3-dbd191f77412","system_id":"levelo_inurba_marseille","lat":43.30909,"lon":5.368525,"is_reserved":false,"is_disabled":false,"rental_uris":{"android":"levelo://app?vid=f05d834d-f458-4564-99f3-dbd191f77412","ios":"levelo://app?vid=f05d834d-f458-4564-99f3-dbd191f77412"},"vehicle_type_id":"4","last_reported":1748261979,"current_range_meters":14400,"station_id":"ce4bgn92rcd13ifvqbvg","pricing_plan_id":"cebpf4jnsgd1na2vs0mg"},{"bike_id":"bd6919a1-10e4-4e97-a785-a5ff363a2b10","system_id":"levelo_inurba_marseille","lat":43.30539,"lon":5.36554,"is_reserved":false,"is_disabled":false,"rental_uris":{"android":"levelo://app?vid=bd6919a1-10e4-4e97-a785-a5ff363a2b10","ios":"levelo://app?vid=bd6919a1-10e4-4e97-a785-a5ff363a2b10"},"vehicle_type_id":"4","last_reported":1748261979,"current_range_meters":14400,"station_id":"ce4bgs12rcd13ifvqcag","pricing_plan_id":"cebpf4jnsgd1na2vs0mg"},{"bike_id":"8d3e9580-05d8-4f0e-9ca9-9f8142f1cb72","system_id":"levelo_inurba_marseille","lat":43.289326,"lon":5.384005,"is_reserved":false,"is_disabled":false,"rental_uris":{"android":"levelo://app?vid=8d3e9580-05d8-4f0e-9ca9-9f8142f1cb72","ios":"levelo://app?vid=8d3e9580-05d8-4f0e-9ca9-9f8142f1cb72"},"vehicle_type_id":"4","last_reported":1748261979,"current_range_meters":14400,"station_id":"ce4bh612rcd13ifvqe6g","pricing_plan_id":"cebpf4jnsgd1na2vs0mg"},{"bike_id":"68da2962-3cc9-4ff0-8ff4-d9990b48a17a","system_id":"levelo_inurba_marseille","lat":43.28671,"lon":5.36361,"is_reserved":false,"is_disabled":false,"rental_uris":{"android":"levelo://app?vid=68da2962-3cc9-4ff0-8ff4-d9990b48a17a","ios":"levelo://app?vid=68da2962-3cc9-4ff0-8ff4-d9990b48a17a"},"vehicle_type_id":"4","last_reported":1748261979,"current_range_meters":14400,"station_id":"ce4bhah2rcd13ifvqej0","pricing_plan_id":"cebpf4jnsgd1na2vs0mg"},{"bike_id":"f5b1aa50-af32-4b67-af03-fc8d46feddb5","system_id":"levelo_inurba_marseille","lat":43.292694,"lon":5.401271,"is_reserved":false,"is_disabled":false,"rental_uris":{"android":"levelo://app?vid=f5b1aa50-af32-4b67-af03-fc8d46feddb5","ios":"levelo://app?vid=f5b1aa50-af32-4b67-af03-fc8d46feddb5"},"vehicle_type_id":"4","last_reported":1748261979,"current_range_meters":14800,"station_id":"","pricing_plan_id":"cebpf4jnsgd1na2vs0mg"},{"bike_id":"1a775a5e-1792-4706-b4f6-ec50ef749d53","system_id":"levelo_inurba_marseille","lat":43.255796,"lon":5.38223,"is_reserved":false,"is_disabled":false,"rental_uris":{"android":"levelo://app?vid=1a775a5e-1792-4706-b4f6-ec50ef749d53","ios":"levelo://app?vid=1a775a5e-1792-4706-b4f6-ec50ef749d53"},"vehicle_type_id":"4","last_reported":1748261979,"current_range_meters":14800,"station_id":"ce4bhih2rcd13ifvqfs0","pricing_plan_id":"cebpf4jnsgd1na2vs0mg"},{"bike_id":"f54793c6-cdec-4b60-8813-3e78d1da90ea","system_id":"levelo_inurba_marseille","lat":43.32484,"lon":5.36568,"is_reserved":false,"is_disabled":false,"rental_uris":{"android":"levelo://app?vid=f54793c6-cdec-4b60-8813-3e78d1da90ea","ios":"levelo://app?vid=f54793c6-cdec-4b60-8813-3e78d1da90ea"},"vehicle_type_id":"4","last_reported":1748261979,"current_range_meters":14800,"station_id":"ce4bhs12rcd13ifvqhvg","pricing_plan_id":"cebpf4jnsgd1na2vs0mg"},{"bike_id":"e7f59612-6985-4dfb-8923-cb1adc6becec","system_id":"levelo_inurba_marseille","lat":43.324835,"lon":5.365615,"is_reserved":false,"is_disabled":false,"rental_uris":{"android":"levelo://app?vid=e7f59612-6985-4dfb-8923-cb1adc6becec","ios":"levelo://app?vid=e7f59612-6985-4dfb-8923-cb1adc6becec"},"vehicle_type_id":"4","last_reported":1748261979,"current_range_meters":14800,"station_id":"ce4bhs12rcd13ifvqhvg","pricing_plan_id":"cebpf4jnsgd1na2vs0mg"},{"bike_id":"18d91d21-3fbd-44ec-8ea5-ad154289350f","system_id":"levelo_inurba_marseille","lat":43.30215,"lon":5.37063,"is_reserved":false,"is_disabled":false,"rental_uris":{"android":"levelo://app?vid=18d91d21-3fbd-44ec-8ea5-ad154289350f","ios":"levelo://app?vid=18d91d21-3fbd-44ec-8ea5-ad154289350f"},"vehicle_type_id":"4","last_reported":1748261979,"current_range_meters":15200,"station_id":"ce4bgqh2rcd13ifvqc5g","pricing_plan_id":"cebpf4jnsgd1na2vs0mg"},{"bike_id":"77e915c2-102e-4aae-a236-d9d43c13a376","system_id":"levelo_inurba_marseille","lat":43.30534,"lon":5.36552,"is_reserved":false,"is_disabled":false,"rental_uris":{"android":"levelo://app?vid=77e915c2-102e-4aae-a236-d9d43c13a376","ios":"levelo://app?vid=77e915c2-102e-4aae-a236-d9d43c13a376"},"vehicle_type_id":"4","last_reported":1748261979,"current_range_meters":15200,"station_id":"ce4bgs12rcd13ifvqcag","pricing_plan_id":"cebpf4jnsgd1na2vs0mg"},{"bike_id":"1f129c01-41bc-4f3e-aca2-9adf7d1bea3c","system_id":"levelo_inurba_marseille","lat":43.28723,"lon":5.37936,"is_reserved":false,"is_disabled":false,"rental_uris":{"android":"levelo://app?vid=1f129c01-41bc-4f3e-aca2-9adf7d1bea3c","ios":"levelo://app?vid=1f129c01-41bc-4f3e-aca2-9adf7d1bea3c"},"vehicle_type_id":"4","last_reported":1748261979,"current_range_meters":15200,"station_id":"ce4bh9p2rcd13ifvqec0","pricing_plan_id":"cebpf4jnsgd1na2vs0mg"},{"bike_id":"0071f4d4-6223-46e3-8ad4-4c00e673c040","system_id":"levelo_inurba_marseille","lat":43.281021,"lon":5.378321,"is_reserved":false,"is_disabled":false,"rental_uris":{"android":"levelo://app?vid=0071f4d4-6223-46e3-8ad4-4c00e673c040","ios":"levelo://app?vid=0071f4d4-6223-46e3-8ad4-4c00e673c040"},"vehicle_type_id":"4","last_reported":1748261979,"current_range_meters":15200,"station_id":"ce4bha12rcd13ifvqee0","pricing_plan_id":"cebpf4jnsgd1na2vs0mg"},{"bike_id":"2e5fdc7f-c2c5-4ff4-bd3e-249f41c4fa0c","system_id":"levelo_inurba_marseille","lat":43.26672,"lon":5.38262,"is_reserved":false,"is_disabled":false,"rental_uris":{"android":"levelo://app?vid=2e5fdc7f-c2c5-4ff4-bd3e-249f41c4fa0c","ios":"levelo://app?vid=2e5fdc7f-c2c5-4ff4-bd3e-249f41c4fa0c"},"vehicle_type_id":"4","last_reported":1748261979,"current_range_meters":15200,"station_id":"ce4bhg92rcd13ifvqf90","pricing_plan_id":"cebpf4jnsgd1na2vs0mg"},{"bike_id":"5d4f71f8-a0fe-4f3a-9579-1c2d768b17b0","system_id":"levelo_inurba_marseille","lat":43.24176,"lon":5.39721,"is_reserved":false,"is_disabled":false,"rental_uris":{"android":"levelo://app?vid=5d4f71f8-a0fe-4f3a-9579-1c2d768b17b0","ios":"levelo://app?vid=5d4f71f8-a0fe-4f3a-9579-1c2d768b17b0"},"vehicle_type_id":"4","last_reported":1748261979,"current_range_meters":15200,"station_id":"ce4bhn12rcd13ifvqgpg","pricing_plan_id":"cebpf4jnsgd1na2vs0mg"},{"bike_id":"b5cb5981-2bd1-447c-8835-189f3f7000a4","system_id":"levelo_inurba_marseille","lat":43.24058,"lon":5.37747,"is_reserved":false,"is_disabled":false,"rental_uris":{"android":"levelo://app?vid=b5cb5981-2bd1-447c-8835-189f3f7000a4","ios":"levelo://app?vid=b5cb5981-2bd1-447c-8835-189f3f7000a4"},"vehicle_type_id":"4","last_reported":1748261979,"current_range_meters":15200,"station_id":"ce4bhnp2rcd13ifvqgvg","pricing_plan_id":"cebpf4jnsgd1na2vs0mg"},{"bike_id":"e6c65de3-7d92-4979-809c-6677188473c0","system_id":"levelo_inurba_marseille","lat":43.337684,"lon":5.37432,"is_reserved":false,"is_disabled":false,"rental_uris":{"android":"levelo://app?vid=e6c65de3-7d92-4979-809c-6677188473c0","ios":"levelo://app?vid=e6c65de3-7d92-4979-809c-6677188473c0"},"vehicle_type_id":"4","last_reported":1748261979,"current_range_meters":16000,"station_id":"","pricing_plan_id":"cebpf4jnsgd1na2vs0mg"},{"bike_id":"6ef27e84-462a-46f9-afe5-e09b209cc7f0","system_id":"levelo_inurba_marseille","lat":43.331116,"lon":5.362067,"is_reserved":false,"is_disabled":false,"rental_uris":{"android":"levelo://app?vid=6ef27e84-462a-46f9-afe5-e09b209cc7f0","ios":"levelo://app?vid=6ef27e84-462a-46f9-afe5-e09b209cc7f0"},"vehicle_type_id":"4","last_reported":1748261979,"current_range_meters":16000,"station_id":"","pricing_plan_id":"cebpf4jnsgd1na2vs0mg"},{"bike_id":"2a046dee-b3af-48c9-9659-b7d30ba20af5","system_id":"levelo_inurba_marseille","lat":43.243265,"lon":5.379965,"is_reserved":false,"is_disabled":false,"rental_uris":{"android":"levelo://app?vid=2a046dee-b3af-48c9-9659-b7d30ba20af5","ios":"levelo://app?vid=2a046dee-b3af-48c9-9659-b7d30ba20af5"},"vehicle_type_id":"4","last_reported":1748261979,"current_range_meters":16000,"station_id":"","pricing_plan_id":"cebpf4jnsgd1na2vs0mg"},{"bike_id":"3bd5dde3-1b3b-4124-95d2-e6ff2c3d3ad4","system_id":"levelo_inurba_marseille","lat":43.29295,"lon":5.37624,"is_reserved":false,"is_disabled":false,"rental_uris":{"android":"levelo://app?vid=3bd5dde3-1b3b-4124-95d2-e6ff2c3d3ad4","ios":"levelo://app?vid=3bd5dde3-1b3b-4124-95d2-e6ff2c3d3ad4"},"vehicle_type_id":"4","last_reported":1748261979,"current_range_meters":16000,"station_id":"ce4bgi12rcd13ifvqb80","pricing_plan_id":"cebpf4jnsgd1na2vs0mg"},{"bike_id":"8abaecc5-0ffe-44fc-b9f5-d4aa22e2835d","system_id":"levelo_inurba_marseille","lat":43.30899,"lon":5.36844,"is_reserved":false,"is_disabled":false,"rental_uris":{"android":"levelo://app?vid=8abaecc5-0ffe-44fc-b9f5-d4aa22e2835d","ios":"levelo://app?vid=8abaecc5-0ffe-44fc-b9f5-d4aa22e2835d"},"vehicle_type_id":"4","last_reported":1748261979,"current_range_meters":16000,"station_id":"ce4bgn92rcd13ifvqbvg","pricing_plan_id":"cebpf4jnsgd1na2vs0mg"},{"bike_id":"fe519b07-ae89-4d0c-b902-6dcee1399881","system_id":"levelo_inurba_marseille","lat":43.2997,"lon":5.37171,"is_reserved":false,"is_disabled":false,"rental_uris":{"android":"levelo://app?vid=fe519b07-ae89-4d0c-b902-6dcee1399881","ios":"levelo://app?vid=fe519b07-ae89-4d0c-b902-6dcee1399881"},"vehicle_type_id":"4","last_reported":1748261979,"current_range_meters":16000,"station_id":"ce4bgr92rcd13ifvqc7g","pricing_plan_id":"cebpf4jnsgd1na2vs0mg"},{"bike_id":"c9351369-e7ac-46e2-83fc-7044aecd254d","system_id":"levelo_inurba_marseille","lat":43.2904,"lon":5.37567,"is_reserved":false,"is_disabled":false,"rental_uris":{"android":"levelo://app?vid=c9351369-e7ac-46e2-83fc-7044aecd254d","ios":"levelo://app?vid=c9351369-e7ac-46e2-83fc-7044aecd254d"},"vehicle_type_id":"4","last_reported":1748261979,"current_range_meters":16000,"station_id":"ce4bh692rcd13ifvqe90","pricing_plan_id":"cebpf4jnsgd1na2vs0mg"},{"bike_id":"6bec0308-1106-42f3-9329-904ba1845b5d","system_id":"levelo_inurba_marseille","lat":43.262268,"lon":5.404569,"is_reserved":false,"is_disabled":false,"rental_uris":{"android":"levelo://app?vid=6bec0308-1106-42f3-9329-904ba1845b5d","ios":"levelo://app?vid=6bec0308-1106-42f3-9329-904ba1845b5d"},"vehicle_type_id":"4","last_reported":1748261979,"current_range_meters":16000,"station_id":"ce4bhmh2rcd13ifvqgmg","pricing_plan_id":"cebpf4jnsgd1na2vs0mg"},{"bike_id":"e209d5d0-03ee-4f9d-ac08-ae4b4bb84b62","system_id":"levelo_inurba_marseille","lat":43.241853,"lon":5.39718,"is_reserved":false,"is_disabled":false,"rental_uris":{"android":"levelo://app?vid=e209d5d0-03ee-4f9d-ac08-ae4b4bb84b62","ios":"levelo://app?vid=e209d5d0-03ee-4f9d-ac08-ae4b4bb84b62"},"vehicle_type_id":"4","last_reported":1748261979,"current_range_meters":16000,"station_id":"ce4bhn12rcd13ifvqgpg","pricing_plan_id":"cebpf4jnsgd1na2vs0mg"},{"bike_id":"24695fcc-1634-4887-9a04-00f71eb609f0","system_id":"levelo_inurba_marseille","lat":43.23195,"lon":5.39984,"is_reserved":false,"is_disabled":false,"rental_uris":{"android":"levelo://app?vid=24695fcc-1634-4887-9a04-00f71eb609f0","ios":"levelo://app?vid=24695fcc-1634-4887-9a04-00f71eb609f0"},"vehicle_type_id":"4","last_reported":1748261979,"current_range_meters":16000,"station_id":"ce4bhn12rcd13ifvqgqg","pricing_plan_id":"cebpf4jnsgd1na2vs0mg"},{"bike_id":"d5658925-7a88-4989-8de6-5e98b3f857f6","system_id":"levelo_inurba_marseille","lat":43.33594,"lon":5.41018,"is_reserved":false,"is_disabled":false,"rental_uris":{"android":"levelo://app?vid=d5658925-7a88-4989-8de6-5e98b3f857f6","ios":"levelo://app?vid=d5658925-7a88-4989-8de6-5e98b3f857f6"},"vehicle_type_id":"4","last_reported":1748261979,"current_range_meters":16000,"station_id":"ce4bhqh2rcd13ifvqhmg","pricing_plan_id":"cebpf4jnsgd1na2vs0mg"},{"bike_id":"e188f3e9-92e0-4149-969a-32a490ef05a3","system_id":"levelo_inurba_marseille","lat":43.30606,"lon":5.37225,"is_reserved":false,"is_disabled":false,"rental_uris":{"android":"levelo://app?vid=e188f3e9-92e0-4149-969a-32a490ef05a3","ios":"levelo://app?vid=e188f3e9-92e0-4149-969a-32a490ef05a3"},"vehicle_type_id":"4","last_reported":1748261979,"current_range_meters":16400,"station_id":"ce4bgqh2rcd13ifvqc4g","pricing_plan_id":"cebpf4jnsgd1na2vs0mg"},{"bike_id":"1b1a9caf-a3b0-492b-8568-f3b9fc97a70b","system_id":"levelo_inurba_marseille","lat":43.28854,"lon":5.35857,"is_reserved":false,"is_disabled":false,"rental_uris":{"android":"levelo://app?vid=1b1a9caf-a3b0-492b-8568-f3b9fc97a70b","ios":"levelo://app?vid=1b1a9caf-a3b0-492b-8568-f3b9fc97a70b"},"vehicle_type_id":"4","last_reported":1748261979,"current_range_meters":16400,"station_id":"ce4bhb12rcd13ifvqem0","pricing_plan_id":"cebpf4jnsgd1na2vs0mg"},{"bike_id":"7b8d9fd4-22d0-4e4c-abbd-cfa6dfd71b25","system_id":"levelo_inurba_marseille","lat":43.26074,"lon":5.39397,"is_reserved":false,"is_disabled":false,"rental_uris":{"android":"levelo://app?vid=7b8d9fd4-22d0-4e4c-abbd-cfa6dfd71b25","ios":"levelo://app?vid=7b8d9fd4-22d0-4e4c-abbd-cfa6dfd71b25"},"vehicle_type_id":"4","last_reported":1748261979,"current_range_meters":16400,"station_id":"ce4bhh92rcd13ifvqfj0","pricing_plan_id":"cebpf4jnsgd1na2vs0mg"},{"bike_id":"87f4add9-295d-4711-98ed-ba962a81b1ad","system_id":"levelo_inurba_marseille","lat":43.23151,"lon":5.43712,"is_reserved":false,"is_disabled":false,"rental_uris":{"android":"levelo://app?vid=87f4add9-295d-4711-98ed-ba962a81b1ad","ios":"levelo://app?vid=87f4add9-295d-4711-98ed-ba962a81b1ad"},"vehicle_type_id":"4","last_reported":1748261979,"current_range_meters":16400,"station_id":"ce4bhmp2rcd13ifvqgog","pricing_plan_id":"cebpf4jnsgd1na2vs0mg"},{"bike_id":"12fd656b-592b-4315-b1ce-70036eb92556","system_id":"levelo_inurba_marseille","lat":43.3253,"lon":5.4145,"is_reserved":false,"is_disabled":false,"rental_uris":{"android":"levelo://app?vid=12fd656b-592b-4315-b1ce-70036eb92556","ios":"levelo://app?vid=12fd656b-592b-4315-b1ce-70036eb92556"},"vehicle_type_id":"4","last_reported":1748261979,"current_range_meters":16400,"station_id":"ce4bhq12rcd13ifvqhhg","pricing_plan_id":"cebpf4jnsgd1na2vs0mg"},{"bike_id":"1d31dd3d-e092-4737-9a2e-75243d205898","system_id":"levelo_inurba_marseille","lat":43.32543,"lon":5.41424,"is_reserved":false,"is_disabled":false,"rental_uris":{"android":"levelo://app?vid=1d31dd3d-e092-4737-9a2e-75243d205898","ios":"levelo://app?vid=1d31dd3d-e092-4737-9a2e-75243d205898"},"vehicle_type_id":"4","last_reported":1748261979,"current_range_meters":16400,"station_id":"ce4bhq12rcd13ifvqhhg","pricing_plan_id":"cebpf4jnsgd1na2vs0mg"},{"bike_id":"494bb412-26a1-4e7b-a3d1-fc0566a174aa","system_id":"levelo_inurba_marseille","lat":43.31384,"lon":5.36706,"is_reserved":false,"is_disabled":false,"rental_uris":{"android":"levelo://app?vid=494bb412-26a1-4e7b-a3d1-fc0566a174aa","ios":"levelo://app?vid=494bb412-26a1-4e7b-a3d1-fc0566a174aa"},"vehicle_type_id":"4","last_reported":1748261979,"current_range_meters":16800,"station_id":"","pricing_plan_id":"cebpf4jnsgd1na2vs0mg"},{"bike_id":"6b482028-512e-4dbe-b943-3138dd0f6f46","system_id":"levelo_inurba_marseille","lat":43.296716,"lon":5.368784,"is_reserved":false,"is_disabled":false,"rental_uris":{"android":"levelo://app?vid=6b482028-512e-4dbe-b943-3138dd0f6f46","ios":"levelo://app?vid=6b482028-512e-4dbe-b943-3138dd0f6f46"},"vehicle_type_id":"4","last_reported":1748261979,"current_range_meters":16800,"station_id":"","pricing_plan_id":"cebpf4jnsgd1na2vs0mg"},{"bike_id":"3f8ba2bc-6f66-48a4-a9a4-7af52871d3fd","system_id":"levelo_inurba_marseille","lat":43.3015,"lon":5.38069,"is_reserved":false,"is_disabled":false,"rental_uris":{"android":"levelo://app?vid=3f8ba2bc-6f66-48a4-a9a4-7af52871d3fd","ios":"levelo://app?vid=3f8ba2bc-6f66-48a4-a9a4-7af52871d3fd"},"vehicle_type_id":"4","last_reported":1748261979,"current_range_meters":16800,"station_id":"ce4bgjp2rcd13ifvqbh0","pricing_plan_id":"cebpf4jnsgd1na2vs0mg"},{"bike_id":"61a67192-5933-4f1e-8940-7737fe254a92","system_id":"levelo_inurba_marseille","lat":43.30654,"lon":5.40099,"is_reserved":false,"is_disabled":false,"rental_uris":{"android":"levelo://app?vid=61a67192-5933-4f1e-8940-7737fe254a92","ios":"levelo://app?vid=61a67192-5933-4f1e-8940-7737fe254a92"},"vehicle_type_id":"4","last_reported":1748261979,"current_range_meters":16800,"station_id":"ce4bh112rcd13ifvqda0","pricing_plan_id":"cebpf4jnsgd1na2vs0mg"},{"bike_id":"5c683faf-fca5-47ef-a4c8-b2b7830526fe","system_id":"levelo_inurba_marseille","lat":43.28433,"lon":5.34993,"is_reserved":false,"is_disabled":false,"rental_uris":{"android":"levelo://app?vid=5c683faf-fca5-47ef-a4c8-b2b7830526fe","ios":"levelo://app?vid=5c683faf-fca5-47ef-a4c8-b2b7830526fe"},"vehicle_type_id":"4","last_reported":1748261979,"current_range_meters":16800,"station_id":"ce4bhbh2rcd13ifvqepg","pricing_plan_id":"cebpf4jnsgd1na2vs0mg"},{"bike_id":"25655a6b-fc2c-47e6-82a8-aa54d594b5cc","system_id":"levelo_inurba_marseille","lat":43.286207,"lon":5.35096,"is_reserved":false,"is_disabled":false,"rental_uris":{"android":"levelo://app?vid=25655a6b-fc2c-47e6-82a8-aa54d594b5cc","ios":"levelo://app?vid=25655a6b-fc2c-47e6-82a8-aa54d594b5cc"},"vehicle_type_id":"4","last_reported":1748261979,"current_range_meters":16800,"station_id":"ce4bhch2rcd13ifvqeug","pricing_plan_id":"cebpf4jnsgd1na2vs0mg"},{"bike_id":"7ece2224-bbc9-41be-b279-457383278953","system_id":"levelo_inurba_marseille","lat":43.25506,"lon":5.37654,"is_reserved":false,"is_disabled":false,"rental_uris":{"android":"levelo://app?vid=7ece2224-bbc9-41be-b279-457383278953","ios":"levelo://app?vid=7ece2224-bbc9-41be-b279-457383278953"},"vehicle_type_id":"4","last_reported":1748261979,"current_range_meters":16800,"station_id":"ce4bhh12rcd13ifvqff0","pricing_plan_id":"cebpf4jnsgd1na2vs0mg"},{"bike_id":"1c2b9a6d-c7f5-41df-8cbc-8235db9a61d2","system_id":"levelo_inurba_marseille","lat":43.27053,"lon":5.4026,"is_reserved":false,"is_disabled":false,"rental_uris":{"android":"levelo://app?vid=1c2b9a6d-c7f5-41df-8cbc-8235db9a61d2","ios":"levelo://app?vid=1c2b9a6d-c7f5-41df-8cbc-8235db9a61d2"},"vehicle_type_id":"4","last_reported":1748261979,"current_range_meters":16800,"station_id":"ce4bhk92rcd13ifvqgc0","pricing_plan_id":"cebpf4jnsgd1na2vs0mg"},{"bike_id":"e6d73e7c-0472-43b8-9fcf-1a0edc86c2ff","system_id":"levelo_inurba_marseille","lat":43.23153,"lon":5.43713,"is_reserved":false,"is_disabled":false,"rental_uris":{"android":"levelo://app?vid=e6d73e7c-0472-43b8-9fcf-1a0edc86c2ff","ios":"levelo://app?vid=e6d73e7c-0472-43b8-9fcf-1a0edc86c2ff"},"vehicle_type_id":"4","last_reported":1748261979,"current_range_meters":16800,"station_id":"ce4bhmp2rcd13ifvqgog","pricing_plan_id":"cebpf4jnsgd1na2vs0mg"},{"bike_id":"8deb7f69-279a-465b-beab-f18d0e028d15","system_id":"levelo_inurba_marseille","lat":43.24197,"lon":5.3974,"is_reserved":false,"is_disabled":false,"rental_uris":{"android":"levelo://app?vid=8deb7f69-279a-465b-beab-f18d0e028d15","ios":"levelo://app?vid=8deb7f69-279a-465b-beab-f18d0e028d15"},"vehicle_type_id":"4","last_reported":1748261979,"current_range_meters":16800,"station_id":"ce4bhn12rcd13ifvqgpg","pricing_plan_id":"cebpf4jnsgd1na2vs0mg"},{"bike_id":"6baf944b-8bb1-435f-ae03-2b14afb75016","system_id":"levelo_inurba_marseille","lat":43.32368,"lon":5.36758,"is_reserved":false,"is_disabled":false,"rental_uris":{"android":"levelo://app?vid=6baf944b-8bb1-435f-ae03-2b14afb75016","ios":"levelo://app?vid=6baf944b-8bb1-435f-ae03-2b14afb75016"},"vehicle_type_id":"4","last_reported":1748261979,"current_range_meters":16800,"station_id":"ce4bhsh2rcd13ifvqi2g","pricing_plan_id":"cebpf4jnsgd1na2vs0mg"},{"bike_id":"2908bb99-d973-4d3f-9702-35f6fa61c3b5","system_id":"levelo_inurba_marseille","lat":43.21762,"lon":5.34594,"is_reserved":false,"is_disabled":false,"rental_uris":{"android":"levelo://app?vid=2908bb99-d973-4d3f-9702-35f6fa61c3b5","ios":"levelo://app?vid=2908bb99-d973-4d3f-9702-35f6fa61c3b5"},"vehicle_type_id":"4","last_reported":1748261979,"current_range_meters":16800,"station_id":"st_cvj6r9ubvosntc0bgbag","pricing_plan_id":"cebpf4jnsgd1na2vs0mg"},{"bike_id":"ceb81090-b40e-47dd-bc35-8598d269ef58","system_id":"levelo_inurba_marseille","lat":43.26663,"lon":5.38431,"is_reserved":false,"is_disabled":false,"rental_uris":{"android":"levelo://app?vid=ceb81090-b40e-47dd-bc35-8598d269ef58","ios":"levelo://app?vid=ceb81090-b40e-47dd-bc35-8598d269ef58"},"vehicle_type_id":"4","last_reported":1748261979,"current_range_meters":17200,"station_id":"","pricing_plan_id":"cebpf4jnsgd1na2vs0mg"},{"bike_id":"eb060acd-d403-4c33-9f13-e709466da355","system_id":"levelo_inurba_marseille","lat":43.296143,"lon":5.377079,"is_reserved":false,"is_disabled":false,"rental_uris":{"android":"levelo://app?vid=eb060acd-d403-4c33-9f13-e709466da355","ios":"levelo://app?vid=eb060acd-d403-4c33-9f13-e709466da355"},"vehicle_type_id":"4","last_reported":1748261979,"current_range_meters":17200,"station_id":"","pricing_plan_id":"cebpf4jnsgd1na2vs0mg"},{"bike_id":"466f2bd1-bb8b-4e2d-8186-172373026554","system_id":"levelo_inurba_marseille","lat":43.24174,"lon":5.3975,"is_reserved":false,"is_disabled":false,"rental_uris":{"android":"levelo://app?vid=466f2bd1-bb8b-4e2d-8186-172373026554","ios":"levelo://app?vid=466f2bd1-bb8b-4e2d-8186-172373026554"},"vehicle_type_id":"4","last_reported":1748261979,"current_range_meters":17200,"station_id":"ce4bhn12rcd13ifvqgpg","pricing_plan_id":"cebpf4jnsgd1na2vs0mg"},{"bike_id":"064a4e02-69de-4237-b332-c85ad9378451","system_id":"levelo_inurba_marseille","lat":43.24072,"lon":5.37736,"is_reserved":false,"is_disabled":false,"rental_uris":{"android":"levelo://app?vid=064a4e02-69de-4237-b332-c85ad9378451","ios":"levelo://app?vid=064a4e02-69de-4237-b332-c85ad9378451"},"vehicle_type_id":"4","last_reported":1748261979,"current_range_meters":17200,"station_id":"ce4bhnp2rcd13ifvqgvg","pricing_plan_id":"cebpf4jnsgd1na2vs0mg"},{"bike_id":"8dd88446-c109-43b3-a107-2b4a6e1b330a","system_id":"levelo_inurba_marseille","lat":43.31735,"lon":5.43715,"is_reserved":false,"is_disabled":false,"rental_uris":{"android":"levelo://app?vid=8dd88446-c109-43b3-a107-2b4a6e1b330a","ios":"levelo://app?vid=8dd88446-c109-43b3-a107-2b4a6e1b330a"},"vehicle_type_id":"4","last_reported":1748261979,"current_range_meters":17200,"station_id":"ce4bhp92rcd13ifvqhcg","pricing_plan_id":"cebpf4jnsgd1na2vs0mg"},{"bike_id":"30e949a6-9a21-45c6-8b78-d17c7d943515","system_id":"levelo_inurba_marseille","lat":43.26803,"lon":5.40266,"is_reserved":false,"is_disabled":false,"rental_uris":{"android":"levelo://app?vid=30e949a6-9a21-45c6-8b78-d17c7d943515","ios":"levelo://app?vid=30e949a6-9a21-45c6-8b78-d17c7d943515"},"vehicle_type_id":"4","last_reported":1748261979,"current_range_meters":17200,"station_id":"ce501612rcd8frsf0b60","pricing_plan_id":"cebpf4jnsgd1na2vs0mg"},{"bike_id":"dbbc3087-ad3b-473b-9341-4e6aa0da5126","system_id":"levelo_inurba_marseille","lat":43.24645,"lon":5.39342,"is_reserved":false,"is_disabled":false,"rental_uris":{"android":"levelo://app?vid=dbbc3087-ad3b-473b-9341-4e6aa0da5126","ios":"levelo://app?vid=dbbc3087-ad3b-473b-9341-4e6aa0da5126"},"vehicle_type_id":"4","last_reported":1748261979,"current_range_meters":17600,"station_id":"","pricing_plan_id":"cebpf4jnsgd1na2vs0mg"},{"bike_id":"899d9034-609a-4571-9d87-0d3bfcaca20f","system_id":"levelo_inurba_marseille","lat":43.309153,"lon":5.368478,"is_reserved":false,"is_disabled":false,"rental_uris":{"android":"levelo://app?vid=899d9034-609a-4571-9d87-0d3bfcaca20f","ios":"levelo://app?vid=899d9034-609a-4571-9d87-0d3bfcaca20f"},"vehicle_type_id":"4","last_reported":1748261979,"current_range_meters":17600,"station_id":"ce4bgn92rcd13ifvqbvg","pricing_plan_id":"cebpf4jnsgd1na2vs0mg"},